$GPGGA,100116.90,5703.4599322,N,00952.4472876,E,2,11,0.8,-1.705,M,40.593,M,2.6,0123*67\r\n
$GPGGA,100116.95,5703.4599243,N,00952.4472707,E,2,11,0.8,-1.706,M,40.593,M,2.6,0123*6E\r\n
$GPGGA,100117.00,5703.4599167,N,00952.4472552,E,2,11,0.8,-1.706,M,40.593,M,2.6,0123*64\r\n
$GPGGA,100117.05,5703.4599076,N,00952.4472387,E,2,11,0.8,-1.703,M,40.593,M,2.8,0123*65\r\n
$GPGGA,100117.10,5703.4598992,N,00952.4472219,E,2,11,0.8,-1.701,M,40.593,M,2.8,0123*67\r\n
$GPGGA,100117.15,5703.4598906,N,00952.4472051,E,2,11,0.8,-1.700,M,40.593,M,2.8,0123*60\r\n
$GPGGA,100117.20,5703.4598824,N,00952.4471895,E,2,11,0.8,-1.697,M,40.593,M,2.8,0123*6B\r\n
$GPGGA,100117.25,5703.4598758,N,00952.4471729,E,2,11,0.8,-1.699,M,40.593,M,3.0,0123*65\r\n
$GPGGA,100117.30,5703.4598678,N,00952.4471551,E,2,11,0.8,-1.701,M,40.593,M,3.0,0123*6F\r\n
$GPGGA,100117.35,5703.4598601,N,00952.4471391,E,2,11,0.8,-1.699,M,40.593,M,3.0,0123*6E\r\n
$GPGGA,100117.40,5703.4598514,N,00952.4471226,E,2,11,0.8,-1.698,M,40.593,M,3.0,0123*67\r\n
$GPGGA,100117.45,5703.4598427,N,00952.4471068,E,2,11,0.8,-1.696,M,40.593,M,2.4,0123*60\r\n
$GPGGA,100117.50,5703.4598346,N,00952.4470899,E,2,11,0.8,-1.696,M,40.593,M,2.4,0123*63\r\n
$GPGGA,100117.55,5703.4598267,N,00952.4470727,E,2,11,0.8,-1.695,M,40.593,M,2.4,0123*6D\r\n
$GPGGA,100117.60,5703.4598195,N,00952.4470551,E,2,11,0.8,-1.694,M,40.593,M,2.4,0123*67\r\n
$GPGGA,100117.65,5703.4598122,N,00952.4470384,E,2,11,0.8,-1.697,M,40.593,M,2.6,0123*61\r\n
$GPGGA,100117.70,5703.4598044,N,00952.4470210,E,2,11,0.8,-1.698,M,40.593,M,2.6,0123*67\r\n
$GPGGA,100117.75,5703.4597971,N,00952.4470025,E,2,11,0.8,-1.697,M,40.593,M,2.6,0123*69\r\n
$GPGGA,100117.80,5703.4597888,N,00952.4469862,E,2,11,0.8,-1.697,M,40.593,M,2.6,0123*67\r\n
$GPGGA,100117.85,5703.4597808,N,00952.4469698,E,2,11,0.8,-1.698,M,40.593,M,2.9,0123*61\r\n
$GPGGA,100117.90,5703.4597724,N,00952.4469536,E,2,11,0.8,-1.697,M,40.593,M,2.9,0123*6C\r\n
$GPGGA,100117.95,5703.4597652,N,00952.4469363,E,2,11,0.8,-1.697,M,40.593,M,2.9,0123*6F\r\n
$GPGGA,100118.00,5703.4597572,N,00952.4469193,E,2,11,0.8,-1.698,M,40.593,M,2.9,0123*6F\r\n
$GPGGA,100118.05,5703.4597494,N,00952.4469020,E,2,11,0.8,-1.696,M,40.593,M,3.1,0123*6D\r\n
$GPGGA,100118.10,5703.4597417,N,00952.4468845,E,2,11,0.8,-1.696,M,40.593,M,3.1,0123*68\r\n
$GPGGA,100118.15,5703.4597351,N,00952.4468677,E,2,11,0.8,-1.694,M,40.593,M,3.1,0123*65\r\n
$GPGGA,100118.20,5703.4597283,N,00952.4468494,E,2,11,0.8,-1.694,M,40.593,M,3.1,0123*62\r\n
$GPGGA,100118.25,5703.4597209,N,00952.4468317,E,2,11,0.8,-1.695,M,40.593,M,3.3,0123*6A\r\n
$GPGGA,100118.30,5703.4597132,N,00952.4468149,E,2,11,0.8,-1.696,M,40.593,M,3.3,0123*6F\r\n
$GPGGA,100118.35,5703.4597048,N,00952.4467981,E,2,11,0.8,-1.695,M,40.593,M,3.3,0123*66\r\n
$GPGGA,100118.40,5703.4596973,N,00952.4467809,E,2,11,0.8,-1.694,M,40.593,M,3.3,0123*64\r\n
$GPGGA,100118.45,5703.4596899,N,00952.4467636,E,2,11,0.8,-1.694,M,40.593,M,3.5,0123*60\r\n
$GPGGA,100118.50,5703.4596833,N,00952.4467453,E,2,11,0.8,-1.695,M,40.593,M,3.5,0123*64\r\n
$GPGGA,100118.55,5703.4596764,N,00952.4467276,E,2,11,0.8,-1.696,M,40.593,M,3.5,0123*6E\r\n
$GPGGA,100118.60,5703.4596689,N,00952.4467103,E,2,11,0.8,-1.698,M,40.593,M,3.5,0123*65\r\n
$GPGGA,100118.65,5703.4596611,N,00952.4466931,E,2,11,0.8,-1.699,M,40.593,M,3.7,0123*6A\r\n
$GPGGA,100118.70,5703.4596532,N,00952.4466774,E,2,11,0.8,-1.699,M,40.593,M,3.7,0123*63\r\n
$GPGGA,100118.75,5703.4596458,N,00952.4466616,E,2,11,0.8,-1.697,M,40.593,M,3.7,0123*60\r\n
$GPGGA,100118.80,5703.4596385,N,00952.4466447,E,2,11,0.8,-1.696,M,40.593,M,3.7,0123*6A\r\n
$GPGGA,100118.85,5703.4596318,N,00952.4466271,E,2,11,0.8,-1.695,M,40.593,M,3.9,0123*65\r\n
$GPGGA,100118.90,5703.4596246,N,00952.4466097,E,2,11,0.8,-1.696,M,40.593,M,3.9,0123*62\r\n
$GPGGA,100118.95,5703.4596168,N,00952.4465928,E,2,11,0.8,-1.696,M,40.593,M,3.9,0123*66\r\n
$GPGGA,100119.00,5703.4596092,N,00952.4465770,E,2,11,0.8,-1.696,M,40.593,M,3.9,0123*6C\r\n
$GPGGA,100119.05,5703.4596011,N,00952.4465581,E,2,11,0.8,-1.695,M,40.593,M,4.1,0123*62\r\n
$GPGGA,100119.10,5703.4595947,N,00952.4465405,E,2,11,0.8,-1.694,M,40.593,M,4.1,0123*63\r\n
$GPGGA,100119.15,5703.4595880,N,00952.4465228,E,2,11,0.8,-1.696,M,40.593,M,4.1,0123*67\r\n
$GPGGA,100119.20,5703.4595811,N,00952.4465039,E,2,11,0.8,-1.698,M,40.593,M,4.1,0123*65\r\n
$GPGGA,100119.25,5703.4595731,N,00952.4464846,E,2,11,0.8,-1.699,M,40.593,M,4.3,0123*6F\r\n
$GPGGA,100119.30,5703.4595658,N,00952.4464672,E,2,11,0.8,-1.699,M,40.593,M,4.3,0123*6C\r\n
$GPGGA,100119.35,5703.4595588,N,00952.4464509,E,2,11,0.8,-1.698,M,40.593,M,4.3,0123*69\r\n
$GPGGA,100119.40,5703.4595507,N,00952.4464345,E,2,11,0.8,-1.696,M,40.593,M,4.3,0123*6C\r\n
$GPGGA,100119.45,5703.4595443,N,00952.4464173,E,2,11,0.8,-1.697,M,40.593,M,0.9,0123*60\r\n
$GPGGA,100119.50,5703.4595373,N,00952.4463992,E,2,11,0.8,-1.696,M,40.593,M,0.9,0123*61\r\n
$GPGGA,100119.55,5703.4595300,N,00952.4463811,E,2,11,0.8,-1.695,M,40.593,M,0.9,0123*69\r\n
$GPGGA,100119.60,5703.4595227,N,00952.4463629,E,2,11,0.8,-1.696,M,40.593,M,0.9,0123*6D\r\n
$GPGGA,100119.65,5703.4595159,N,00952.4463452,E,2,11,0.8,-1.697,M,40.593,M,1.2,0123*67\r\n
$GPGGA,100119.70,5703.4595085,N,00952.4463280,E,2,11,0.8,-1.697,M,40.593,M,1.2,0123*6A\r\n
$GPGGA,100119.75,5703.4595011,N,00952.4463098,E,2,11,0.8,-1.695,M,40.593,M,1.2,0123*6B\r\n
$GPGGA,100119.80,5703.4594943,N,00952.4462911,E,2,11,0.8,-1.696,M,40.593,M,1.2,0123*64\r\n
$GPGGA,100119.85,5703.4594873,N,00952.4462742,E,2,11,0.8,-1.695,M,40.593,M,1.4,0123*6E\r\n
$GPGGA,100119.90,5703.4594802,N,00952.4462573,E,2,11,0.8,-1.694,M,40.593,M,1.4,0123*6D\r\n
$GPGGA,100119.95,5703.4594733,N,00952.4462387,E,2,11,0.8,-1.693,M,40.593,M,1.4,0123*6F\r\n
$GPGGA,100120.00,5703.4594662,N,00952.4462207,E,2,11,0.8,-1.696,M,40.593,M,1.4,0123*60\r\n
$GPGGA,100120.05,5703.4594581,N,00952.4462020,E,2,11,0.8,-1.689,M,40.593,M,1.7,0123*61\r\n
$GPGGA,100120.10,5703.4594506,N,00952.4461840,E,2,11,0.8,-1.687,M,40.593,M,1.7,0123*69\r\n
$GPGGA,100120.15,5703.4594436,N,00952.4461680,E,2,11,0.8,-1.683,M,40.593,M,1.7,0123*68\r\n
$GPGGA,100120.20,5703.4594361,N,00952.4461506,E,2,11,0.8,-1.682,M,40.593,M,1.7,0123*67\r\n
$GPGGA,100120.25,5703.4594292,N,00952.4461303,E,2,11,0.8,-1.690,M,40.593,M,1.9,0123*61\r\n
$GPGGA,100120.30,5703.4594228,N,00952.4461116,E,2,11,0.8,-1.691,M,40.593,M,1.9,0123*63\r\n
$GPGGA,100120.35,5703.4594157,N,00952.4460929,E,2,11,0.8,-1.691,M,40.593,M,1.9,0123*68\r\n
$GPGGA,100120.40,5703.4594088,N,00952.4460752,E,2,11,0.8,-1.690,M,40.593,M,1.9,0123*6A\r\n
$GPGGA,100120.45,5703.4594024,N,00952.4460580,E,2,11,0.8,-1.687,M,40.593,M,1.1,0123*6A\r\n
$GPGGA,100120.50,5703.4593954,N,00952.4460388,E,2,11,0.8,-1.688,M,40.593,M,1.1,0123*66\r\n
$GPGGA,100120.55,5703.4593889,N,00952.4460198,E,2,11,0.8,-1.688,M,40.593,M,1.1,0123*61\r\n
$GPGGA,100120.60,5703.4593821,N,00952.4460010,E,2,11,0.8,-1.688,M,40.593,M,1.1,0123*64\r\n
$GPGGA,100120.65,5703.4593755,N,00952.4459825,E,2,11,0.8,-1.688,M,40.593,M,1.4,0123*6C\r\n
$GPGGA,100120.70,5703.4593685,N,00952.4459650,E,2,11,0.8,-1.688,M,40.593,M,1.4,0123*68\r\n
$GPGGA,100120.75,5703.4593622,N,00952.4459461,E,2,11,0.8,-1.689,M,40.593,M,1.4,0123*61\r\n
$GPGGA,100120.80,5703.4593558,N,00952.4459269,E,2,11,0.8,-1.690,M,40.593,M,1.4,0123*63\r\n
$GPGGA,100120.85,5703.4593486,N,00952.4459081,E,2,11,0.8,-1.690,M,40.593,M,1.7,0123*63\r\n
$GPGGA,100120.90,5703.4593417,N,00952.4458890,E,2,11,0.8,-1.690,M,40.593,M,1.7,0123*66\r\n
$GPGGA,100120.95,5703.4593345,N,00952.4458705,E,2,11,0.8,-1.692,M,40.593,M,1.7,0123*62\r\n
$GPGGA,100121.00,5703.4593277,N,00952.4458509,E,2,11,0.8,-1.692,M,40.593,M,1.7,0123*61\r\n
$GPGGA,100121.05,5703.4593206,N,00952.4458314,E,2,11,0.8,-1.689,M,40.593,M,1.9,0123*6C\r\n
$GPGGA,100121.10,5703.4593141,N,00952.4458145,E,2,11,0.8,-1.687,M,40.593,M,1.9,0123*60\r\n
$GPGGA,100121.15,5703.4593073,N,00952.4457961,E,2,11,0.8,-1.686,M,40.593,M,1.9,0123*65\r\n
$GPGGA,100121.20,5703.4593001,N,00952.4457774,E,2,11,0.8,-1.684,M,40.593,M,1.9,0123*6E\r\n
$GPGGA,100121.25,5703.4592927,N,00952.4457598,E,2,11,0.8,-1.684,M,40.593,M,2.2,0123*6F\r\n
$GPGGA,100121.30,5703.4592858,N,00952.4457417,E,2,11,0.8,-1.684,M,40.593,M,2.2,0123*64\r\n
$GPGGA,100121.35,5703.4592796,N,00952.4457215,E,2,11,0.8,-1.685,M,40.593,M,2.2,0123*69\r\n
$GPGGA,100121.40,5703.4592732,N,00952.4457020,E,2,11,0.8,-1.686,M,40.593,M,2.2,0123*62\r\n
$GPGGA,100121.45,5703.4592657,N,00952.4456842,E,2,11,0.8,-1.686,M,40.593,M,2.4,0123*6E\r\n
$GPGGA,100121.50,5703.4592584,N,00952.4456660,E,2,11,0.8,-1.687,M,40.593,M,2.4,0123*68\r\n
$GPGGA,100121.55,5703.4592518,N,00952.4456466,E,2,11,0.8,-1.688,M,40.593,M,2.4,0123*63\r\n
$GPGGA,100121.60,5703.4592459,N,00952.4456276,E,2,11,0.8,-1.688,M,40.593,M,2.4,0123*66\r\n
$GPGGA,100121.65,5703.4592380,N,00952.4456091,E,2,11,0.8,-1.688,M,40.593,M,2.6,0123*69\r\n
$GPGGA,100121.70,5703.4592298,N,00952.4455903,E,2,11,0.8,-1.689,M,40.593,M,2.6,0123*65\r\n
$GPGGA,100121.75,5703.4592230,N,00952.4455730,E,2,11,0.8,-1.689,M,40.593,M,2.6,0123*6C\r\n
$GPGGA,100121.80,5703.4592168,N,00952.4455558,E,2,11,0.8,-1.685,M,40.593,M,2.6,0123*68\r\n
$GPGGA,100121.85,5703.4592102,N,00952.4455374,E,2,11,0.8,-1.683,M,40.593,M,2.9,0123*60\r\n
$GPGGA,100121.90,5703.4592038,N,00952.4455184,E,2,11,0.8,-1.685,M,40.593,M,2.9,0123*67\r\n
$GPGGA,100121.95,5703.4591960,N,00952.4455000,E,2,11,0.8,-1.686,M,40.593,M,2.9,0123*6B\r\n
$GPGGA,100122.00,5703.4591889,N,00952.4454811,E,2,11,0.8,-1.684,M,40.593,M,2.9,0123*69\r\n
$GPGGA,100122.05,5703.4591803,N,00952.4454616,E,2,11,0.8,-1.684,M,40.593,M,3.1,0123*6E\r\n
$GPGGA,100122.10,5703.4591747,N,00952.4454431,E,2,11,0.8,-1.683,M,40.593,M,3.1,0123*65\r\n
$GPGGA,100122.15,5703.4591668,N,00952.4454248,E,2,11,0.8,-1.683,M,40.593,M,3.1,0123*64\r\n
$GPGGA,100122.20,5703.4591599,N,00952.4454065,E,2,11,0.8,-1.682,M,40.593,M,3.1,0123*63\r\n
$GPGGA,100122.25,5703.4591518,N,00952.4453861,E,2,11,0.8,-1.686,M,40.593,M,3.3,0123*62\r\n
$GPGGA,100122.30,5703.4591448,N,00952.4453671,E,2,11,0.8,-1.688,M,40.593,M,3.3,0123*63\r\n
$GPGGA,100122.35,5703.4591384,N,00952.4453486,E,2,11,0.8,-1.688,M,40.593,M,3.3,0123*6B\r\n
$GPGGA,100122.40,5703.4591314,N,00952.4453302,E,2,11,0.8,-1.690,M,40.593,M,3.3,0123*62\r\n
$GPGGA,100122.45,5703.4591242,N,00952.4453107,E,2,11,0.8,-1.684,M,40.593,M,0.7,0123*60\r\n
$GPGGA,100122.50,5703.4591173,N,00952.4452907,E,2,11,0.8,-1.682,M,40.593,M,0.7,0123*6A\r\n
$GPGGA,100122.55,5703.4591102,N,00952.4452711,E,2,11,0.8,-1.682,M,40.593,M,0.7,0123*60\r\n
$GPGGA,100122.60,5703.4591034,N,00952.4452526,E,2,11,0.8,-1.682,M,40.593,M,0.7,0123*64\r\n
$GPGGA,100122.65,5703.4590960,N,00952.4452344,E,2,11,0.8,-1.679,M,40.593,M,1.0,0123*68\r\n
$GPGGA,100122.70,5703.4590899,N,00952.4452149,E,2,11,0.8,-1.679,M,40.593,M,1.0,0123*64\r\n
$GPGGA,100122.75,5703.4590832,N,00952.4451941,E,2,11,0.8,-1.677,M,40.593,M,1.0,0123*6D\r\n
$GPGGA,100122.80,5703.4590767,N,00952.4451739,E,2,11,0.8,-1.674,M,40.593,M,1.0,0123*6A\r\n
$GPGGA,100122.85,5703.4590704,N,00952.4451541,E,2,11,0.8,-1.674,M,40.593,M,1.3,0123*64\r\n
$GPGGA,100122.90,5703.4590618,N,00952.4451357,E,2,11,0.8,-1.672,M,40.593,M,1.3,0123*6B\r\n
$GPGGA,100122.95,5703.4590552,N,00952.4451163,E,2,11,0.8,-1.670,M,40.593,M,1.3,0123*64\r\n
$GPGGA,100123.00,5703.4590474,N,00952.4450942,E,2,11,0.8,-1.671,M,40.593,M,1.3,0123*67\r\n
$GPGGA,100123.05,5703.4590388,N,00952.4450720,E,2,11,0.8,-1.667,M,40.593,M,1.6,0123*6E\r\n
$GPGGA,100123.10,5703.4590304,N,00952.4450507,E,2,11,0.8,-1.663,M,40.593,M,1.6,0123*6D\r\n
$GPGGA,100123.15,5703.4590216,N,00952.4450295,E,2,11,0.8,-1.659,M,40.593,M,1.6,0123*6F\r\n
$GPGGA,100123.20,5703.4590129,N,00952.4450072,E,2,11,0.8,-1.657,M,40.593,M,1.6,0123*63\r\n
$GPGGA,100123.25,5703.4590034,N,00952.4449832,E,2,11,0.8,-1.652,M,40.593,M,1.8,0123*64\r\n
$GPGGA,100123.30,5703.4589941,N,00952.4449561,E,2,11,0.8,-1.651,M,40.593,M,1.8,0123*6B\r\n
$GPGGA,100123.35,5703.4589842,N,00952.4449293,E,2,11,0.8,-1.649,M,40.593,M,1.8,0123*6F\r\n
$GPGGA,100123.40,5703.4589726,N,00952.4449025,E,2,11,0.8,-1.647,M,40.593,M,1.8,0123*61\r\n
$GPGGA,100123.45,5703.4589615,N,00952.4448732,E,2,11,0.8,-1.646,M,40.593,M,0.9,0123*64\r\n
$GPGGA,100123.50,5703.4589510,N,00952.4448430,E,2,11,0.8,-1.644,M,40.593,M,0.9,0123*65\r\n
$GPGGA,100123.55,5703.4589398,N,00952.4448124,E,2,11,0.8,-1.641,M,40.593,M,0.9,0123*63\r\n
$GPGGA,100123.60,5703.4589283,N,00952.4447835,E,2,11,0.8,-1.638,M,40.593,M,0.9,0123*66\r\n
$GPGGA,100123.65,5703.4589155,N,00952.4447519,E,2,11,0.8,-1.640,M,40.593,M,1.2,0123*6D\r\n
$GPGGA,100123.70,5703.4589027,N,00952.4447203,E,2,11,0.8,-1.641,M,40.593,M,1.2,0123*60\r\n
$GPGGA,100123.75,5703.4588892,N,00952.4446869,E,2,11,0.8,-1.641,M,40.593,M,1.2,0123*65\r\n
$GPGGA,100123.80,5703.4588757,N,00952.4446544,E,2,11,0.8,-1.638,M,40.593,M,1.2,0123*65\r\n
$GPGGA,100123.85,5703.4588612,N,00952.4446201,E,2,11,0.8,-1.640,M,40.593,M,1.4,0123*6F\r\n
$GPGGA,100123.90,5703.4588465,N,00952.4445838,E,2,11,0.8,-1.641,M,40.593,M,1.4,0123*6B\r\n
$GPGGA,100123.95,5703.4588319,N,00952.4445473,E,2,11,0.8,-1.641,M,40.593,M,1.4,0123*61\r\n
$GPGGA,100124.00,5703.4588174,N,00952.4445094,E,2,11,0.8,-1.641,M,40.593,M,1.4,0123*6E\r\n
$GPGGA,100124.05,5703.4588022,N,00952.4444707,E,2,11,0.8,-1.645,M,40.593,M,1.7,0123*62\r\n
$GPGGA,100124.10,5703.4587859,N,00952.4444322,E,2,11,0.8,-1.644,M,40.593,M,1.7,0123*6F\r\n
$GPGGA,100124.15,5703.4587690,N,00952.4443926,E,2,11,0.8,-1.642,M,40.593,M,1.7,0123*6E\r\n
$GPGGA,100124.20,5703.4587521,N,00952.4443522,E,2,11,0.8,-1.641,M,40.593,M,1.7,0123*6A\r\n
$GPGGA,100124.25,5703.4587351,N,00952.4443098,E,2,11,0.8,-1.640,M,40.593,M,1.9,0123*65\r\n
$GPGGA,100124.30,5703.4587172,N,00952.4442670,E,2,11,0.8,-1.641,M,40.593,M,1.9,0123*62\r\n
$GPGGA,100124.35,5703.4586994,N,00952.4442230,E,2,11,0.8,-1.639,M,40.593,M,1.9,0123*69\r\n
$GPGGA,100124.40,5703.4586820,N,00952.4441770,E,2,11,0.8,-1.637,M,40.593,M,1.9,0123*69\r\n
$GPGGA,100124.45,5703.4586632,N,00952.4441310,E,2,11,0.8,-1.634,M,40.593,M,1.1,0123*68\r\n
$GPGGA,100124.50,5703.4586445,N,00952.4440843,E,2,11,0.8,-1.632,M,40.593,M,1.1,0123*64\r\n
$GPGGA,100124.55,5703.4586241,N,00952.4440367,E,2,11,0.8,-1.631,M,40.593,M,1.1,0123*6D\r\n
$GPGGA,100124.60,5703.4586037,N,00952.4439877,E,2,11,0.8,-1.629,M,40.593,M,1.1,0123*65\r\n
$GPGGA,100124.65,5703.4585832,N,00952.4439387,E,2,11,0.8,-1.629,M,40.593,M,1.4,0123*6F\r\n
$GPGGA,100124.70,5703.4585630,N,00952.4438882,E,2,11,0.8,-1.628,M,40.593,M,1.4,0123*69\r\n
$GPGGA,100124.75,5703.4585412,N,00952.4438363,E,2,11,0.8,-1.625,M,40.593,M,1.4,0123*67\r\n
$GPGGA,100124.80,5703.4585187,N,00952.4437837,E,2,11,0.8,-1.624,M,40.593,M,1.4,0123*60\r\n
$GPGGA,100124.85,5703.4584977,N,00952.4437303,E,2,11,0.8,-1.623,M,40.593,M,1.7,0123*6B\r\n
$GPGGA,100124.90,5703.4584756,N,00952.4436757,E,2,11,0.8,-1.625,M,40.593,M,1.7,0123*60\r\n
$GPGGA,100124.95,5703.4584524,N,00952.4436205,E,2,11,0.8,-1.625,M,40.593,M,1.7,0123*60\r\n
$GPGGA,100125.00,5703.4584288,N,00952.4435645,E,2,11,0.8,-1.624,M,40.593,M,1.7,0123*6E\r\n
$GPGGA,100125.05,5703.4584047,N,00952.4435079,E,2,11,0.8,-1.622,M,40.593,M,1.9,0123*6B\r\n
$GPGGA,100125.10,5703.4583811,N,00952.4434501,E,2,11,0.8,-1.621,M,40.593,M,1.9,0123*6B\r\n
$GPGGA,100125.15,5703.4583568,N,00952.4433916,E,2,11,0.8,-1.620,M,40.593,M,1.9,0123*61\r\n
$GPGGA,100125.20,5703.4583331,N,00952.4433341,E,2,11,0.8,-1.621,M,40.593,M,1.9,0123*64\r\n
$GPGGA,100125.25,5703.4583077,N,00952.4432748,E,2,11,0.8,-1.621,M,40.593,M,2.2,0123*64\r\n
$GPGGA,100125.30,5703.4582828,N,00952.4432144,E,2,11,0.8,-1.622,M,40.593,M,2.2,0123*6A\r\n
$GPGGA,100125.35,5703.4582576,N,00952.4431540,E,2,11,0.8,-1.621,M,40.593,M,2.2,0123*69\r\n
$GPGGA,100125.40,5703.4582316,N,00952.4430910,E,2,11,0.8,-1.619,M,40.593,M,2.2,0123*68\r\n
$GPGGA,100125.45,5703.4582061,N,00952.4430290,E,2,11,0.8,-1.617,M,40.593,M,2.4,0123*65\r\n
$GPGGA,100125.50,5703.4581805,N,00952.4429679,E,2,11,0.8,-1.616,M,40.593,M,2.4,0123*62\r\n
$GPGGA,100125.55,5703.4581547,N,00952.4429070,E,2,11,0.8,-1.615,M,40.593,M,2.4,0123*60\r\n
$GPGGA,100125.60,5703.4581282,N,00952.4428419,E,2,11,0.8,-1.615,M,40.593,M,2.4,0123*62\r\n
$GPGGA,100125.65,5703.4581016,N,00952.4427777,E,2,11,0.8,-1.618,M,40.593,M,2.6,0123*63\r\n
$GPGGA,100125.70,5703.4580745,N,00952.4427132,E,2,11,0.8,-1.615,M,40.593,M,2.6,0123*6D\r\n
$GPGGA,100125.75,5703.4580475,N,00952.4426481,E,2,11,0.8,-1.613,M,40.593,M,2.6,0123*62\r\n
$GPGGA,100125.80,5703.4580204,N,00952.4425850,E,2,11,0.8,-1.614,M,40.593,M,2.6,0123*6C\r\n
$GPGGA,100125.85,5703.4579927,N,00952.4425193,E,2,11,0.8,-1.613,M,40.593,M,2.9,0123*6B\r\n
$GPGGA,100125.90,5703.4579648,N,00952.4424544,E,2,11,0.8,-1.614,M,40.593,M,2.9,0123*61\r\n
$GPGGA,100125.95,5703.4579367,N,00952.4423885,E,2,11,0.8,-1.615,M,40.593,M,2.9,0123*6A\r\n
$GPGGA,100126.00,5703.4579081,N,00952.4423214,E,2,11,0.8,-1.616,M,40.593,M,2.9,0123*6F\r\n
$GPGGA,100126.05,5703.4578788,N,00952.4422549,E,2,11,0.8,-1.615,M,40.593,M,3.1,0123*61\r\n
$GPGGA,100126.10,5703.4578504,N,00952.4421893,E,2,11,0.8,-1.613,M,40.593,M,3.1,0123*6C\r\n
$GPGGA,100126.15,5703.4578223,N,00952.4421221,E,2,11,0.8,-1.614,M,40.593,M,3.1,0123*6F\r\n
$GPGGA,100126.20,5703.4577936,N,00952.4420557,E,2,11,0.8,-1.615,M,40.593,M,3.1,0123*6F\r\n
$GPGGA,100126.25,5703.4577652,N,00952.4419888,E,2,11,0.8,-1.616,M,40.593,M,3.3,0123*63\r\n
$GPGGA,100126.30,5703.4577360,N,00952.4419205,E,2,11,0.8,-1.618,M,40.593,M,3.3,0123*62\r\n
$GPGGA,100126.35,5703.4577064,N,00952.4418531,E,2,11,0.8,-1.621,M,40.593,M,3.3,0123*6B\r\n
$GPGGA,100126.40,5703.4576761,N,00952.4417838,E,2,11,0.8,-1.619,M,40.593,M,3.3,0123*6A\r\n
$GPGGA,100126.45,5703.4576470,N,00952.4417160,E,2,11,0.8,-1.619,M,40.593,M,0.7,0123*6F\r\n
$GPGGA,100126.50,5703.4576178,N,00952.4416489,E,2,11,0.8,-1.620,M,40.593,M,0.7,0123*6F\r\n
$GPGGA,100126.55,5703.4575884,N,00952.4415808,E,2,11,0.8,-1.621,M,40.593,M,0.7,0123*64\r\n
$GPGGA,100126.60,5703.4575589,N,00952.4415122,E,2,11,0.8,-1.621,M,40.593,M,0.7,0123*63\r\n
$GPGGA,100126.65,5703.4575287,N,00952.4414416,E,2,11,0.8,-1.622,M,40.593,M,1.0,0123*69\r\n
$GPGGA,100126.70,5703.4574990,N,00952.4413736,E,2,11,0.8,-1.622,M,40.593,M,1.0,0123*67\r\n
$GPGGA,100126.75,5703.4574681,N,00952.4413048,E,2,11,0.8,-1.623,M,40.593,M,1.0,0123*62\r\n
$GPGGA,100126.80,5703.4574371,N,00952.4412342,E,2,11,0.8,-1.623,M,40.593,M,1.0,0123*6A\r\n
$GPGGA,100126.85,5703.4574073,N,00952.4411635,E,2,11,0.8,-1.621,M,40.593,M,1.3,0123*69\r\n
$GPGGA,100126.90,5703.4573775,N,00952.4410926,E,2,11,0.8,-1.622,M,40.593,M,1.3,0123*64\r\n
$GPGGA,100126.95,5703.4573477,N,00952.4410220,E,2,11,0.8,-1.621,M,40.593,M,1.3,0123*6E\r\n
$GPGGA,100127.00,5703.4573168,N,00952.4409517,E,2,11,0.8,-1.617,M,40.593,M,1.3,0123*66\r\n
$GPGGA,100127.05,5703.4572850,N,00952.4408806,E,2,11,0.8,-1.614,M,40.593,M,1.6,0123*6A\r\n
$GPGGA,100127.10,5703.4572545,N,00952.4408081,E,2,11,0.8,-1.613,M,40.593,M,1.6,0123*67\r\n
$GPGGA,100127.15,5703.4572236,N,00952.4407347,E,2,11,0.8,-1.611,M,40.593,M,1.6,0123*65\r\n
$GPGGA,100127.20,5703.4571927,N,00952.4406609,E,2,11,0.8,-1.612,M,40.593,M,1.6,0123*66\r\n
$GPGGA,100127.25,5703.4571601,N,00952.4405874,E,2,11,0.8,-1.614,M,40.593,M,1.8,0123*67\r\n
$GPGGA,100127.30,5703.4571277,N,00952.4405139,E,2,11,0.8,-1.611,M,40.593,M,1.8,0123*63\r\n
$GPGGA,100127.35,5703.4570962,N,00952.4404384,E,2,11,0.8,-1.612,M,40.593,M,1.8,0123*6E\r\n
$GPGGA,100127.40,5703.4570640,N,00952.4403627,E,2,11,0.8,-1.613,M,40.593,M,1.8,0123*69\r\n
$GPGGA,100127.45,5703.4570314,N,00952.4402867,E,2,11,0.8,-1.611,M,40.593,M,2.1,0123*6B\r\n
$GPGGA,100127.50,5703.4569985,N,00952.4402110,E,2,11,0.8,-1.607,M,40.593,M,2.1,0123*6B\r\n
$GPGGA,100127.55,5703.4569662,N,00952.4401337,E,2,11,0.8,-1.603,M,40.593,M,2.1,0123*68\r\n
$GPGGA,100127.60,5703.4569329,N,00952.4400566,E,2,11,0.8,-1.601,M,40.593,M,2.1,0123*65\r\n
$GPGGA,100127.65,5703.4568996,N,00952.4399783,E,2,11,0.8,-1.600,M,40.593,M,2.3,0123*62\r\n
$GPGGA,100127.70,5703.4568668,N,00952.4399002,E,2,11,0.8,-1.598,M,40.593,M,2.3,0123*64\r\n
$GPGGA,100127.75,5703.4568327,N,00952.4398213,E,2,11,0.8,-1.598,M,40.593,M,2.3,0123*6C\r\n
$GPGGA,100127.80,5703.4567995,N,00952.4397420,E,2,11,0.8,-1.598,M,40.593,M,2.3,0123*63\r\n
$GPGGA,100127.85,5703.4567658,N,00952.4396621,E,2,11,0.8,-1.597,M,40.593,M,2.5,0123*63\r\n
$GPGGA,100127.90,5703.4567320,N,00952.4395826,E,2,11,0.8,-1.596,M,40.593,M,2.5,0123*66\r\n
$GPGGA,100127.95,5703.4566975,N,00952.4395016,E,2,11,0.8,-1.595,M,40.593,M,2.5,0123*60\r\n
$GPGGA,100128.00,5703.4566625,N,00952.4394199,E,2,11,0.8,-1.594,M,40.593,M,2.5,0123*6F\r\n
$GPGGA,100128.05,5703.4566271,N,00952.4393387,E,2,11,0.8,-1.592,M,40.593,M,2.8,0123*6E\r\n
$GPGGA,100128.10,5703.4565922,N,00952.4392586,E,2,11,0.8,-1.590,M,40.593,M,2.8,0123*60\r\n
$GPGGA,100128.15,5703.4565576,N,00952.4391782,E,2,11,0.8,-1.588,M,40.593,M,2.8,0123*64\r\n
$GPGGA,100128.20,5703.4565212,N,00952.4390958,E,2,11,0.8,-1.589,M,40.593,M,2.8,0123*6E\r\n
$GPGGA,100128.25,5703.4564863,N,00952.4390118,E,2,11,0.8,-1.588,M,40.593,M,3.0,0123*62\r\n
$GPGGA,100128.30,5703.4564516,N,00952.4389297,E,2,11,0.8,-1.587,M,40.593,M,3.0,0123*6A\r\n
$GPGGA,100128.35,5703.4564159,N,00952.4388483,E,2,11,0.8,-1.585,M,40.593,M,3.0,0123*60\r\n
$GPGGA,100128.40,5703.4563808,N,00952.4387664,E,2,11,0.8,-1.585,M,40.593,M,3.0,0123*6C\r\n
$GPGGA,100128.45,5703.4563454,N,00952.4386863,E,2,11,0.8,-1.580,M,40.593,M,2.1,0123*61\r\n
$GPGGA,100128.50,5703.4563103,N,00952.4386043,E,2,11,0.8,-1.577,M,40.593,M,2.1,0123*60\r\n
$GPGGA,100128.55,5703.4562744,N,00952.4385208,E,2,11,0.8,-1.576,M,40.593,M,2.1,0123*6E\r\n
$GPGGA,100128.60,5703.4562384,N,00952.4384387,E,2,11,0.8,-1.575,M,40.593,M,2.1,0123*64\r\n
$GPGGA,100128.65,5703.4562030,N,00952.4383557,E,2,11,0.8,-1.571,M,40.593,M,2.4,0123*60\r\n
$GPGGA,100128.70,5703.4561674,N,00952.4382738,E,2,11,0.8,-1.569,M,40.593,M,2.4,0123*62\r\n
$GPGGA,100128.75,5703.4561319,N,00952.4381913,E,2,11,0.8,-1.566,M,40.593,M,2.4,0123*62\r\n
$GPGGA,100128.80,5703.4560957,N,00952.4381084,E,2,11,0.8,-1.565,M,40.593,M,2.4,0123*6D\r\n
$GPGGA,100128.85,5703.4560604,N,00952.4380257,E,2,11,0.8,-1.564,M,40.593,M,2.6,0123*6F\r\n
$GPGGA,100128.90,5703.4560258,N,00952.4379429,E,2,11,0.8,-1.562,M,40.593,M,2.6,0123*69\r\n
$GPGGA,100128.95,5703.4559893,N,00952.4378597,E,2,11,0.8,-1.563,M,40.593,M,2.6,0123*6F\r\n
$GPGGA,100129.00,5703.4559540,N,00952.4377758,E,2,11,0.8,-1.564,M,40.593,M,2.6,0123*68\r\n
$GPGGA,100129.05,5703.4559166,N,00952.4376927,E,2,11,0.8,-1.564,M,40.593,M,2.8,0123*64\r\n
$GPGGA,100129.10,5703.4558806,N,00952.4376098,E,2,11,0.8,-1.563,M,40.593,M,2.8,0123*64\r\n
$GPGGA,100129.15,5703.4558451,N,00952.4375273,E,2,11,0.8,-1.564,M,40.593,M,2.8,0123*6C\r\n
$GPGGA,100129.20,5703.4558093,N,00952.4374441,E,2,11,0.8,-1.563,M,40.593,M,2.8,0123*61\r\n
$GPGGA,100129.25,5703.4557731,N,00952.4373611,E,2,11,0.8,-1.563,M,40.593,M,3.0,0123*6D\r\n
$GPGGA,100129.30,5703.4557366,N,00952.4372783,E,2,11,0.8,-1.564,M,40.593,M,3.0,0123*63\r\n
$GPGGA,100129.35,5703.4557013,N,00952.4371941,E,2,11,0.8,-1.565,M,40.593,M,3.0,0123*65\r\n
$GPGGA,100129.40,5703.4556652,N,00952.4371117,E,2,11,0.8,-1.568,M,40.593,M,3.0,0123*63\r\n
$GPGGA,100129.45,5703.4556288,N,00952.4370301,E,2,11,0.8,-1.568,M,40.593,M,2.4,0123*64\r\n
$GPGGA,100129.50,5703.4555930,N,00952.4369471,E,2,11,0.8,-1.566,M,40.593,M,2.4,0123*6D\r\n
$GPGGA,100129.55,5703.4555570,N,00952.4368645,E,2,11,0.8,-1.566,M,40.593,M,2.4,0123*64\r\n
$GPGGA,100129.60,5703.4555211,N,00952.4367809,E,2,11,0.8,-1.566,M,40.593,M,2.4,0123*6B\r\n
$GPGGA,100129.65,5703.4554854,N,00952.4367003,E,2,11,0.8,-1.565,M,40.593,M,2.6,0123*67\r\n
$GPGGA,100129.70,5703.4554486,N,00952.4366195,E,2,11,0.8,-1.567,M,40.593,M,2.6,0123*6D\r\n
$GPGGA,100129.75,5703.4554117,N,00952.4365389,E,2,11,0.8,-1.567,M,40.593,M,2.6,0123*69\r\n
$GPGGA,100129.80,5703.4553759,N,00952.4364572,E,2,11,0.8,-1.564,M,40.593,M,2.6,0123*68\r\n
$GPGGA,100129.85,5703.4553404,N,00952.4363751,E,2,11,0.8,-1.563,M,40.593,M,2.9,0123*6A\r\n
$GPGGA,100129.90,5703.4553039,N,00952.4362945,E,2,11,0.8,-1.563,M,40.593,M,2.9,0123*6E\r\n
$GPGGA,100129.95,5703.4552684,N,00952.4362128,E,2,11,0.8,-1.567,M,40.593,M,2.9,0123*6D\r\n
$GPGGA,100130.00,5703.4552338,N,00952.4361305,E,2,11,0.8,-1.565,M,40.593,M,2.9,0123*67\r\n
$GPGGA,100130.05,5703.4551978,N,00952.4360486,E,2,11,0.8,-1.564,M,40.593,M,3.1,0123*6A\r\n
$GPGGA,100130.10,5703.4551613,N,00952.4359670,E,2,11,0.8,-1.568,M,40.593,M,3.1,0123*61\r\n
$GPGGA,100130.15,5703.4551252,N,00952.4358859,E,2,11,0.8,-1.570,M,40.593,M,3.1,0123*68\r\n
$GPGGA,100130.20,5703.4550888,N,00952.4358050,E,2,11,0.8,-1.570,M,40.593,M,3.1,0123*63\r\n
$GPGGA,100130.25,5703.4550524,N,00952.4357231,E,2,11,0.8,-1.566,M,40.593,M,3.3,0123*62\r\n
$GPGGA,100130.30,5703.4550162,N,00952.4356420,E,2,11,0.8,-1.566,M,40.593,M,3.3,0123*67\r\n
$GPGGA,100130.35,5703.4549798,N,00952.4355632,E,2,11,0.8,-1.564,M,40.593,M,3.3,0123*69\r\n
$GPGGA,100130.40,5703.4549439,N,00952.4354837,E,2,11,0.8,-1.563,M,40.593,M,3.3,0123*6E\r\n
$GPGGA,100130.45,5703.4549084,N,00952.4354023,E,2,11,0.8,-1.566,M,40.593,M,0.7,0123*66\r\n
$GPGGA,100130.50,5703.4548724,N,00952.4353208,E,2,11,0.8,-1.568,M,40.593,M,0.7,0123*6C\r\n
$GPGGA,100130.55,5703.4548353,N,00952.4352401,E,2,11,0.8,-1.570,M,40.593,M,0.7,0123*6A\r\n
$GPGGA,100130.60,5703.4547985,N,00952.4351603,E,2,11,0.8,-1.570,M,40.593,M,0.7,0123*61\r\n
$GPGGA,100130.65,5703.4547628,N,00952.4350808,E,2,11,0.8,-1.566,M,40.593,M,1.0,0123*69\r\n
$GPGGA,100130.70,5703.4547264,N,00952.4350024,E,2,11,0.8,-1.567,M,40.593,M,1.0,0123*66\r\n
$GPGGA,100130.75,5703.4546892,N,00952.4349228,E,2,11,0.8,-1.567,M,40.593,M,1.0,0123*67\r\n
$GPGGA,100130.80,5703.4546531,N,00952.4348429,E,2,11,0.8,-1.567,M,40.593,M,1.0,0123*6F\r\n
$GPGGA,100130.85,5703.4546173,N,00952.4347629,E,2,11,0.8,-1.566,M,40.593,M,1.3,0123*67\r\n
$GPGGA,100130.90,5703.4545808,N,00952.4346830,E,2,11,0.8,-1.567,M,40.593,M,1.3,0123*63\r\n
$GPGGA,100130.95,5703.4545449,N,00952.4346020,E,2,11,0.8,-1.568,M,40.593,M,1.3,0123*69\r\n
$GPGGA,100131.00,5703.4545083,N,00952.4345219,E,2,11,0.8,-1.567,M,40.593,M,1.3,0123*62\r\n
$GPGGA,100131.05,5703.4544712,N,00952.4344446,E,2,11,0.8,-1.566,M,40.593,M,1.6,0123*60\r\n
$GPGGA,100131.10,5703.4544343,N,00952.4343660,E,2,11,0.8,-1.566,M,40.593,M,1.6,0123*65\r\n
$GPGGA,100131.15,5703.4543974,N,00952.4342870,E,2,11,0.8,-1.567,M,40.593,M,1.6,0123*66\r\n
$GPGGA,100131.20,5703.4543601,N,00952.4342085,E,2,11,0.8,-1.566,M,40.593,M,1.6,0123*6E\r\n
$GPGGA,100131.25,5703.4543231,N,00952.4341296,E,2,11,0.8,-1.565,M,40.593,M,1.8,0123*62\r\n
$GPGGA,100131.30,5703.4542867,N,00952.4340496,E,2,11,0.8,-1.566,M,40.593,M,1.8,0123*6A\r\n
$GPGGA,100131.35,5703.4542504,N,00952.4339690,E,2,11,0.8,-1.565,M,40.593,M,1.8,0123*6E\r\n
$GPGGA,100131.40,5703.4542131,N,00952.4338906,E,2,11,0.8,-1.564,M,40.593,M,1.8,0123*6E\r\n
$GPGGA,100131.45,5703.4541755,N,00952.4338152,E,2,11,0.8,-1.563,M,40.593,M,0.9,0123*62\r\n
$GPGGA,100131.50,5703.4541379,N,00952.4337366,E,2,11,0.8,-1.564,M,40.593,M,0.9,0123*61\r\n
$GPGGA,100131.55,5703.4541013,N,00952.4336562,E,2,11,0.8,-1.565,M,40.593,M,0.9,0123*69\r\n
$GPGGA,100131.60,5703.4540639,N,00952.4335761,E,2,11,0.8,-1.563,M,40.593,M,0.9,0123*64\r\n
$GPGGA,100131.65,5703.4540269,N,00952.4334962,E,2,11,0.8,-1.561,M,40.593,M,1.2,0123*64\r\n
$GPGGA,100131.70,5703.4539895,N,00952.4334186,E,2,11,0.8,-1.560,M,40.593,M,1.2,0123*64\r\n
$GPGGA,100131.75,5703.4539513,N,00952.4333392,E,2,11,0.8,-1.559,M,40.593,M,1.2,0123*68\r\n
$GPGGA,100131.80,5703.4539138,N,00952.4332609,E,2,11,0.8,-1.557,M,40.593,M,1.2,0123*67\r\n
$GPGGA,100131.85,5703.4538769,N,00952.4331835,E,2,11,0.8,-1.557,M,40.593,M,1.4,0123*65\r\n
$GPGGA,100131.90,5703.4538401,N,00952.4331039,E,2,11,0.8,-1.557,M,40.593,M,1.4,0123*68\r\n
$GPGGA,100131.95,5703.4538024,N,00952.4330238,E,2,11,0.8,-1.557,M,40.593,M,1.4,0123*6C\r\n
$GPGGA,100132.00,5703.4537639,N,00952.4329436,E,2,11,0.8,-1.559,M,40.593,M,1.4,0123*68\r\n
$GPGGA,100132.05,5703.4537260,N,00952.4328658,E,2,11,0.8,-1.556,M,40.593,M,1.7,0123*62\r\n
$GPGGA,100132.10,5703.4536879,N,00952.4327868,E,2,11,0.8,-1.557,M,40.593,M,1.7,0123*66\r\n
$GPGGA,100132.15,5703.4536507,N,00952.4327086,E,2,11,0.8,-1.556,M,40.593,M,1.7,0123*6E\r\n
$GPGGA,100132.20,5703.4536119,N,00952.4326295,E,2,11,0.8,-1.555,M,40.593,M,1.7,0123*61\r\n
$GPGGA,100132.25,5703.4535737,N,00952.4325502,E,2,11,0.8,-1.555,M,40.593,M,1.9,0123*69\r\n
$GPGGA,100132.30,5703.4535346,N,00952.4324711,E,2,11,0.8,-1.556,M,40.593,M,1.9,0123*6D\r\n
$GPGGA,100132.35,5703.4534956,N,00952.4323915,E,2,11,0.8,-1.558,M,40.593,M,1.9,0123*61\r\n
$GPGGA,100132.40,5703.4534559,N,00952.4323131,E,2,11,0.8,-1.558,M,40.593,M,1.9,0123*6E\r\n
$GPGGA,100132.45,5703.4534176,N,00952.4322357,E,2,11,0.8,-1.554,M,40.593,M,1.1,0123*65\r\n
$GPGGA,100132.50,5703.4533799,N,00952.4321570,E,2,11,0.8,-1.553,M,40.593,M,1.1,0123*66\r\n
$GPGGA,100132.55,5703.4533405,N,00952.4320776,E,2,11,0.8,-1.554,M,40.593,M,1.1,0123*67\r\n
$GPGGA,100132.60,5703.4533015,N,00952.4319992,E,2,11,0.8,-1.553,M,40.593,M,1.1,0123*6D\r\n
$GPGGA,100132.65,5703.4532626,N,00952.4319195,E,2,11,0.8,-1.557,M,40.593,M,1.4,0123*61\r\n
$GPGGA,100132.70,5703.4532233,N,00952.4318412,E,2,11,0.8,-1.559,M,40.593,M,1.4,0123*60\r\n
$GPGGA,100132.75,5703.4531842,N,00952.4317617,E,2,11,0.8,-1.559,M,40.593,M,1.4,0123*62\r\n
$GPGGA,100132.80,5703.4531455,N,00952.4316839,E,2,11,0.8,-1.558,M,40.593,M,1.4,0123*60\r\n
$GPGGA,100132.85,5703.4531067,N,00952.4316053,E,2,11,0.8,-1.557,M,40.593,M,1.7,0123*68\r\n
$GPGGA,100132.90,5703.4530675,N,00952.4315262,E,2,11,0.8,-1.557,M,40.593,M,1.7,0123*6B\r\n
$GPGGA,100132.95,5703.4530283,N,00952.4314472,E,2,11,0.8,-1.557,M,40.593,M,1.7,0123*65\r\n
$GPGGA,100133.00,5703.4529888,N,00952.4313683,E,2,11,0.8,-1.557,M,40.593,M,1.7,0123*6A\r\n
$GPGGA,100133.05,5703.4529484,N,00952.4312910,E,2,11,0.8,-1.563,M,40.593,M,1.9,0123*62\r\n
$GPGGA,100133.10,5703.4529091,N,00952.4312137,E,2,11,0.8,-1.562,M,40.593,M,1.9,0123*6A\r\n
$GPGGA,100133.15,5703.4528695,N,00952.4311357,E,2,11,0.8,-1.561,M,40.593,M,1.9,0123*68\r\n
$GPGGA,100133.20,5703.4528298,N,00952.4310596,E,2,11,0.8,-1.562,M,40.593,M,1.9,0123*6E\r\n
$GPGGA,100133.25,5703.4527906,N,00952.4309829,E,2,11,0.8,-1.560,M,40.593,M,2.2,0123*63\r\n
$GPGGA,100133.30,5703.4527515,N,00952.4309059,E,2,11,0.8,-1.559,M,40.593,M,2.2,0123*6C\r\n
$GPGGA,100133.35,5703.4527121,N,00952.4308282,E,2,11,0.8,-1.561,M,40.593,M,2.2,0123*64\r\n
$GPGGA,100133.40,5703.4526720,N,00952.4307505,E,2,11,0.8,-1.562,M,40.593,M,2.2,0123*64\r\n
$GPGGA,100133.45,5703.4526331,N,00952.4306740,E,2,11,0.8,-1.561,M,40.593,M,2.4,0123*62\r\n
$GPGGA,100133.50,5703.4525938,N,00952.4305975,E,2,11,0.8,-1.559,M,40.593,M,2.4,0123*66\r\n
$GPGGA,100133.55,5703.4525555,N,00952.4305208,E,2,11,0.8,-1.560,M,40.593,M,2.4,0123*6F\r\n
$GPGGA,100133.60,5703.4525153,N,00952.4304442,E,2,11,0.8,-1.560,M,40.593,M,2.4,0123*62\r\n
$GPGGA,100133.65,5703.4524760,N,00952.4303661,E,2,11,0.8,-1.560,M,40.593,M,2.6,0123*66\r\n
$GPGGA,100133.70,5703.4524373,N,00952.4302889,E,2,11,0.8,-1.560,M,40.593,M,2.6,0123*6D\r\n
$GPGGA,100133.75,5703.4523993,N,00952.4302133,E,2,11,0.8,-1.560,M,40.593,M,2.6,0123*63\r\n
$GPGGA,100133.80,5703.4523608,N,00952.4301368,E,2,11,0.8,-1.560,M,40.593,M,2.6,0123*6B\r\n
$GPGGA,100133.85,5703.4523211,N,00952.4300600,E,2,11,0.8,-1.563,M,40.593,M,2.9,0123*64\r\n
$GPGGA,100133.90,5703.4522818,N,00952.4299840,E,2,11,0.8,-1.564,M,40.593,M,2.9,0123*6E\r\n
$GPGGA,100133.95,5703.4522419,N,00952.4299070,E,2,11,0.8,-1.565,M,40.593,M,2.9,0123*6C\r\n
$GPGGA,100134.00,5703.4522023,N,00952.4298297,E,2,11,0.8,-1.567,M,40.593,M,2.9,0123*62\r\n
$GPGGA,100134.05,5703.4521611,N,00952.4297545,E,2,11,0.8,-1.570,M,40.593,M,3.1,0123*6B\r\n
$GPGGA,100134.10,5703.4521205,N,00952.4296778,E,2,11,0.8,-1.570,M,40.593,M,3.1,0123*63\r\n
$GPGGA,100134.15,5703.4520808,N,00952.4296018,E,2,11,0.8,-1.572,M,40.593,M,3.1,0123*63\r\n
$GPGGA,100134.20,5703.4520407,N,00952.4295265,E,2,11,0.8,-1.571,M,40.593,M,3.1,0123*6E\r\n
$GPGGA,100134.25,5703.4520003,N,00952.4294505,E,2,11,0.8,-1.573,M,40.593,M,3.3,0123*6B\r\n
$GPGGA,100134.30,5703.4519594,N,00952.4293746,E,2,11,0.8,-1.574,M,40.593,M,3.3,0123*6B\r\n
$GPGGA,100134.35,5703.4519195,N,00952.4292980,E,2,11,0.8,-1.574,M,40.593,M,3.3,0123*6E\r\n
$GPGGA,100134.40,5703.4518801,N,00952.4292210,E,2,11,0.8,-1.575,M,40.593,M,3.3,0123*6A\r\n
$GPGGA,100134.45,5703.4518392,N,00952.4291439,E,2,11,0.8,-1.573,M,40.593,M,0.7,0123*61\r\n
$GPGGA,100134.50,5703.4517982,N,00952.4290658,E,2,11,0.8,-1.574,M,40.593,M,0.7,0123*62\r\n
$GPGGA,100134.55,5703.4517584,N,00952.4289883,E,2,11,0.8,-1.575,M,40.593,M,0.7,0123*6C\r\n
$GPGGA,100134.60,5703.4517183,N,00952.4289122,E,2,11,0.8,-1.573,M,40.593,M,0.7,0123*6D\r\n
$GPGGA,100134.65,5703.4516775,N,00952.4288359,E,2,11,0.8,-1.575,M,40.593,M,1.0,0123*69\r\n
$GPGGA,100134.70,5703.4516374,N,00952.4287587,E,2,11,0.8,-1.575,M,40.593,M,1.0,0123*62\r\n
$GPGGA,100134.75,5703.4515968,N,00952.4286809,E,2,11,0.8,-1.575,M,40.593,M,1.0,0123*69\r\n
$GPGGA,100134.80,5703.4515575,N,00952.4286023,E,2,11,0.8,-1.574,M,40.593,M,1.0,0123*62\r\n
$GPGGA,100134.85,5703.4515177,N,00952.4285260,E,2,11,0.8,-1.571,M,40.593,M,1.3,0123*61\r\n
$GPGGA,100134.90,5703.4514780,N,00952.4284491,E,2,11,0.8,-1.571,M,40.593,M,1.3,0123*63\r\n
$GPGGA,100134.95,5703.4514376,N,00952.4283707,E,2,11,0.8,-1.569,M,40.593,M,1.3,0123*69\r\n
$GPGGA,100135.00,5703.4513965,N,00952.4282902,E,2,11,0.8,-1.570,M,40.593,M,1.3,0123*69\r\n
$GPGGA,100135.05,5703.4513560,N,00952.4282129,E,2,11,0.8,-1.572,M,40.593,M,1.6,0123*63\r\n
$GPGGA,100135.10,5703.4513158,N,00952.4281359,E,2,11,0.8,-1.571,M,40.593,M,1.6,0123*6D\r\n
$GPGGA,100135.15,5703.4512764,N,00952.4280598,E,2,11,0.8,-1.568,M,40.593,M,1.6,0123*62\r\n
$GPGGA,100135.20,5703.4512368,N,00952.4279829,E,2,11,0.8,-1.566,M,40.593,M,1.6,0123*63\r\n
$GPGGA,100135.25,5703.4511965,N,00952.4279048,E,2,11,0.8,-1.566,M,40.593,M,1.8,0123*63\r\n
$GPGGA,100135.30,5703.4511552,N,00952.4278267,E,2,11,0.8,-1.565,M,40.593,M,1.8,0123*62\r\n
$GPGGA,100135.35,5703.4511154,N,00952.4277500,E,2,11,0.8,-1.566,M,40.593,M,1.8,0123*6F\r\n
$GPGGA,100135.40,5703.4510752,N,00952.4276740,E,2,11,0.8,-1.565,M,40.593,M,1.8,0123*68\r\n
$GPGGA,100135.45,5703.4510353,N,00952.4275966,E,2,11,0.8,-1.568,M,40.593,M,2.1,0123*66\r\n
$GPGGA,100135.50,5703.4509946,N,00952.4275204,E,2,11,0.8,-1.569,M,40.593,M,2.1,0123*6A\r\n
$GPGGA,100135.55,5703.4509531,N,00952.4274435,E,2,11,0.8,-1.569,M,40.593,M,2.1,0123*66\r\n
$GPGGA,100135.60,5703.4509122,N,00952.4273654,E,2,11,0.8,-1.569,M,40.593,M,2.1,0123*64\r\n
$GPGGA,100135.65,5703.4508727,N,00952.4272891,E,2,11,0.8,-1.570,M,40.593,M,2.3,0123*6F\r\n
$GPGGA,100135.70,5703.4508323,N,00952.4272132,E,2,11,0.8,-1.569,M,40.593,M,2.3,0123*63\r\n
$GPGGA,100135.75,5703.4507921,N,00952.4271364,E,2,11,0.8,-1.572,M,40.593,M,2.3,0123*69\r\n
$GPGGA,100135.80,5703.4507517,N,00952.4270576,E,2,11,0.8,-1.572,M,40.593,M,2.3,0123*6E\r\n
$GPGGA,100135.85,5703.4507114,N,00952.4269812,E,2,11,0.8,-1.570,M,40.593,M,2.5,0123*6F\r\n
$GPGGA,100135.90,5703.4506713,N,00952.4269065,E,2,11,0.8,-1.569,M,40.593,M,2.5,0123*6B\r\n
$GPGGA,100135.95,5703.4506312,N,00952.4268313,E,2,11,0.8,-1.570,M,40.593,M,2.5,0123*60\r\n
$GPGGA,100136.00,5703.4505917,N,00952.4267545,E,2,11,0.8,-1.570,M,40.593,M,2.5,0123*69\r\n
$GPGGA,100136.05,5703.4505509,N,00952.4266776,E,2,11,0.8,-1.575,M,40.593,M,2.8,0123*64\r\n
$GPGGA,100136.10,5703.4505116,N,00952.4266024,E,2,11,0.8,-1.574,M,40.593,M,2.8,0123*6B\r\n
$GPGGA,100136.15,5703.4504724,N,00952.4265265,E,2,11,0.8,-1.573,M,40.593,M,2.8,0123*6B\r\n
$GPGGA,100136.20,5703.4504322,N,00952.4264488,E,2,11,0.8,-1.576,M,40.593,M,2.8,0123*6E\r\n
$GPGGA,100136.25,5703.4503904,N,00952.4263715,E,2,11,0.8,-1.578,M,40.593,M,1.9,0123*6E\r\n
$GPGGA,100136.30,5703.4503494,N,00952.4262964,E,2,11,0.8,-1.578,M,40.593,M,1.9,0123*67\r\n
$GPGGA,100136.35,5703.4503085,N,00952.4262195,E,2,11,0.8,-1.577,M,40.593,M,1.9,0123*6F\r\n
$GPGGA,100136.40,5703.4502682,N,00952.4261431,E,2,11,0.8,-1.579,M,40.593,M,1.9,0123*6B\r\n
$GPGGA,100136.45,5703.4502267,N,00952.4260660,E,2,11,0.8,-1.582,M,40.593,M,2.1,0123*69\r\n
$GPGGA,100136.50,5703.4501854,N,00952.4259897,E,2,11,0.8,-1.584,M,40.593,M,2.1,0123*6E\r\n
$GPGGA,100136.55,5703.4501453,N,00952.4259141,E,2,11,0.8,-1.585,M,40.593,M,2.1,0123*63\r\n
$GPGGA,100136.60,5703.4501040,N,00952.4258378,E,2,11,0.8,-1.585,M,40.593,M,2.1,0123*6A\r\n
$GPGGA,100136.65,5703.4500627,N,00952.4257617,E,2,11,0.8,-1.586,M,40.593,M,2.4,0123*6C\r\n
$GPGGA,100136.70,5703.4500213,N,00952.4256852,E,2,11,0.8,-1.585,M,40.593,M,2.4,0123*66\r\n
$GPGGA,100136.75,5703.4499800,N,00952.4256088,E,2,11,0.8,-1.586,M,40.593,M,2.4,0123*66\r\n
$GPGGA,100136.80,5703.4499379,N,00952.4255327,E,2,11,0.8,-1.588,M,40.593,M,2.4,0123*62\r\n
$GPGGA,100136.85,5703.4498975,N,00952.4254584,E,2,11,0.8,-1.592,M,40.593,M,2.6,0123*67\r\n
$GPGGA,100136.90,5703.4498583,N,00952.4253848,E,2,11,0.8,-1.596,M,40.593,M,2.6,0123*68\r\n
$GPGGA,100136.95,5703.4498186,N,00952.4253110,E,2,11,0.8,-1.603,M,40.593,M,2.6,0123*67\r\n
$GPGGA,100137.00,5703.4497795,N,00952.4252389,E,2,11,0.8,-1.608,M,40.593,M,2.6,0123*69\r\n
$GPGGA,100137.05,5703.4497404,N,00952.4251691,E,2,11,0.8,-1.627,M,40.593,M,2.8,0123*6B\r\n
$GPGGA,100137.10,5703.4497038,N,00952.4251006,E,2,11,0.8,-1.633,M,40.593,M,2.8,0123*69\r\n
$GPGGA,100137.15,5703.4496674,N,00952.4250333,E,2,11,0.8,-1.642,M,40.593,M,2.8,0123*61\r\n
$GPGGA,100137.20,5703.4496316,N,00952.4249683,E,2,11,0.8,-1.651,M,40.593,M,2.8,0123*62\r\n
$GPGGA,100137.25,5703.4495955,N,00952.4249044,E,2,11,0.8,-1.665,M,40.593,M,2.2,0123*69\r\n
$GPGGA,100137.30,5703.4495605,N,00952.4248431,E,2,11,0.8,-1.674,M,40.593,M,2.2,0123*60\r\n
$GPGGA,100137.35,5703.4495273,N,00952.4247812,E,2,11,0.8,-1.683,M,40.593,M,2.2,0123*6A\r\n
$GPGGA,100137.40,5703.4494954,N,00952.4247198,E,2,11,0.8,-1.692,M,40.593,M,2.2,0123*6C\r\n
$GPGGA,100137.45,5703.4494630,N,00952.4246616,E,2,11,0.8,-1.696,M,40.593,M,2.4,0123*66\r\n
$GPGGA,100137.50,5703.4494303,N,00952.4246056,E,2,11,0.8,-1.703,M,40.593,M,2.4,0123*68\r\n
$GPGGA,100137.55,5703.4493977,N,00952.4245484,E,2,11,0.8,-1.713,M,40.593,M,2.4,0123*6A\r\n
$GPGGA,100137.60,5703.4493674,N,00952.4244917,E,2,11,0.8,-1.719,M,40.593,M,2.4,0123*6C\r\n
$GPGGA,100137.65,5703.4493371,N,00952.4244370,E,2,11,0.8,-1.722,M,40.593,M,2.6,0123*68\r\n
$GPGGA,100137.70,5703.4493057,N,00952.4243827,E,2,11,0.8,-1.728,M,40.593,M,2.6,0123*6F\r\n
$GPGGA,100137.75,5703.4492746,N,00952.4243288,E,2,11,0.8,-1.732,M,40.593,M,2.6,0123*68\r\n
$GPGGA,100137.80,5703.4492432,N,00952.4242762,E,2,11,0.8,-1.737,M,40.593,M,2.6,0123*67\r\n
$GPGGA,100137.85,5703.4492126,N,00952.4242236,E,2,11,0.8,-1.743,M,40.593,M,2.9,0123*6A\r\n
$GPGGA,100137.90,5703.4491825,N,00952.4241733,E,2,11,0.8,-1.748,M,40.593,M,2.9,0123*6F\r\n
$GPGGA,100137.95,5703.4491527,N,00952.4241234,E,2,11,0.8,-1.752,M,40.593,M,2.9,0123*6C\r\n
$GPGGA,100138.00,5703.4491228,N,00952.4240727,E,2,11,0.8,-1.757,M,40.593,M,2.9,0123*64\r\n
$GPGGA,100138.05,5703.4490932,N,00952.4240222,E,2,11,0.8,-1.754,M,40.593,M,3.1,0123*6A\r\n
$GPGGA,100138.10,5703.4490633,N,00952.4239725,E,2,11,0.8,-1.756,M,40.593,M,3.1,0123*6E\r\n
$GPGGA,100138.15,5703.4490346,N,00952.4239222,E,2,11,0.8,-1.758,M,40.593,M,3.1,0123*60\r\n
$GPGGA,100138.20,5703.4490054,N,00952.4238722,E,2,11,0.8,-1.757,M,40.593,M,3.1,0123*6D\r\n
$GPGGA,100138.25,5703.4489752,N,00952.4238222,E,2,11,0.8,-1.759,M,40.593,M,3.3,0123*68\r\n
$GPGGA,100138.30,5703.4489460,N,00952.4237733,E,2,11,0.8,-1.762,M,40.593,M,3.3,0123*6C\r\n
$GPGGA,100138.35,5703.4489165,N,00952.4237238,E,2,11,0.8,-1.763,M,40.593,M,3.3,0123*66\r\n
$GPGGA,100138.40,5703.4488863,N,00952.4236746,E,2,11,0.8,-1.765,M,40.593,M,3.3,0123*61\r\n
$GPGGA,100138.45,5703.4488583,N,00952.4236265,E,2,11,0.8,-1.765,M,40.593,M,3.5,0123*65\r\n
$GPGGA,100138.50,5703.4488294,N,00952.4235777,E,2,11,0.8,-1.766,M,40.593,M,3.5,0123*66\r\n
$GPGGA,100138.55,5703.4488008,N,00952.4235276,E,2,11,0.8,-1.765,M,40.593,M,3.5,0123*63\r\n
$GPGGA,100138.60,5703.4487710,N,00952.4234788,E,2,11,0.8,-1.764,M,40.593,M,3.5,0123*60\r\n
$GPGGA,100138.65,5703.4487417,N,00952.4234315,E,2,11,0.8,-1.759,M,40.593,M,3.7,0123*6D\r\n
$GPGGA,100138.70,5703.4487126,N,00952.4233835,E,2,11,0.8,-1.759,M,40.593,M,3.7,0123*60\r\n
$GPGGA,100138.75,5703.4486837,N,00952.4233350,E,2,11,0.8,-1.756,M,40.593,M,3.7,0123*6A\r\n
$GPGGA,100138.80,5703.4486545,N,00952.4232872,E,2,11,0.8,-1.755,M,40.593,M,3.7,0123*61\r\n
$GPGGA,100138.85,5703.4486252,N,00952.4232381,E,2,11,0.8,-1.754,M,40.593,M,3.9,0123*6D\r\n
$GPGGA,100138.90,5703.4485957,N,00952.4231893,E,2,11,0.8,-1.752,M,40.593,M,3.9,0123*69\r\n
$GPGGA,100138.95,5703.4485650,N,00952.4231436,E,2,11,0.8,-1.750,M,40.593,M,3.9,0123*65\r\n
$GPGGA,100139.00,5703.4485363,N,00952.4230970,E,2,11,0.8,-1.747,M,40.593,M,3.9,0123*65\r\n
$GPGGA,100139.05,5703.4485075,N,00952.4230496,E,2,11,0.8,-1.745,M,40.593,M,4.1,0123*6C\r\n
$GPGGA,100139.10,5703.4484787,N,00952.4230001,E,2,11,0.8,-1.744,M,40.593,M,4.1,0123*68\r\n
$GPGGA,100139.15,5703.4484494,N,00952.4229522,E,2,11,0.8,-1.743,M,40.593,M,4.1,0123*67\r\n
$GPGGA,100139.20,5703.4484204,N,00952.4229042,E,2,11,0.8,-1.743,M,40.593,M,4.1,0123*6D\r\n
$GPGGA,100139.25,5703.4483915,N,00952.4228560,E,2,11,0.8,-1.743,M,40.593,M,4.3,0123*62\r\n
$GPGGA,100139.30,5703.4483616,N,00952.4228087,E,2,11,0.8,-1.741,M,40.593,M,4.3,0123*64\r\n
$GPGGA,100139.35,5703.4483325,N,00952.4227616,E,2,11,0.8,-1.739,M,40.593,M,4.3,0123*6A\r\n
$GPGGA,100139.40,5703.4483041,N,00952.4227135,E,2,11,0.8,-1.739,M,40.593,M,4.3,0123*6F\r\n
$GPGGA,100139.45,5703.4482762,N,00952.4226660,E,2,11,0.8,-1.734,M,40.593,M,2.1,0123*62\r\n
$GPGGA,100139.50,5703.4482477,N,00952.4226207,E,2,11,0.8,-1.730,M,40.593,M,2.1,0123*60\r\n
$GPGGA,100139.55,5703.4482182,N,00952.4225743,E,2,11,0.8,-1.726,M,40.593,M,2.1,0123*6B\r\n
$GPGGA,100139.60,5703.4481885,N,00952.4225290,E,2,11,0.8,-1.723,M,40.593,M,2.1,0123*6E\r\n
$GPGGA,100139.65,5703.4481597,N,00952.4224828,E,2,11,0.8,-1.723,M,40.593,M,2.3,0123*6F\r\n
$GPGGA,100139.70,5703.4481329,N,00952.4224370,E,2,11,0.8,-1.722,M,40.593,M,2.3,0123*6F\r\n
$GPGGA,100139.75,5703.4481047,N,00952.4223914,E,2,11,0.8,-1.721,M,40.593,M,2.3,0123*6D\r\n
$GPGGA,100139.80,5703.4480764,N,00952.4223470,E,2,11,0.8,-1.721,M,40.593,M,2.3,0123*6F\r\n
$GPGGA,100139.85,5703.4480485,N,00952.4223015,E,2,11,0.8,-1.720,M,40.593,M,2.5,0123*66\r\n
$GPGGA,100139.90,5703.4480192,N,00952.4222560,E,2,11,0.8,-1.716,M,40.593,M,2.5,0123*62\r\n
$GPGGA,100139.95,5703.4479908,N,00952.4222122,E,2,11,0.8,-1.714,M,40.593,M,2.5,0123*6A\r\n
$GPGGA,100140.00,5703.4479649,N,00952.4221695,E,2,11,0.8,-1.713,M,40.593,M,2.5,0123*6D\r\n
$GPGGA,100140.05,5703.4479369,N,00952.4221270,E,2,11,0.8,-1.711,M,40.593,M,2.8,0123*6F\r\n
$GPGGA,100140.10,5703.4479097,N,00952.4220826,E,2,11,0.8,-1.710,M,40.593,M,2.8,0123*60\r\n
$GPGGA,100140.15,5703.4478828,N,00952.4220391,E,2,11,0.8,-1.708,M,40.593,M,2.8,0123*66\r\n
$GPGGA,100140.20,5703.4478565,N,00952.4219960,E,2,11,0.8,-1.708,M,40.593,M,2.8,0123*6A\r\n
$GPGGA,100140.25,5703.4478293,N,00952.4219546,E,2,11,0.8,-1.709,M,40.593,M,3.0,0123*61\r\n
$GPGGA,100140.30,5703.4478024,N,00952.4219117,E,2,11,0.8,-1.711,M,40.593,M,3.0,0123*62\r\n
$GPGGA,100140.35,5703.4477763,N,00952.4218683,E,2,11,0.8,-1.711,M,40.593,M,3.0,0123*67\r\n
$GPGGA,100140.40,5703.4477502,N,00952.4218263,E,2,11,0.8,-1.711,M,40.593,M,3.0,0123*6A\r\n
$GPGGA,100140.45,5703.4477245,N,00952.4217850,E,2,11,0.8,-1.711,M,40.593,M,2.1,0123*6E\r\n
$GPGGA,100140.50,5703.4476983,N,00952.4217444,E,2,11,0.8,-1.711,M,40.593,M,2.1,0123*63\r\n
$GPGGA,100140.55,5703.4476718,N,00952.4217046,E,2,11,0.8,-1.711,M,40.593,M,2.1,0123*6C\r\n
$GPGGA,100140.60,5703.4476463,N,00952.4216654,E,2,11,0.8,-1.710,M,40.593,M,2.1,0123*60\r\n
$GPGGA,100140.65,5703.4476213,N,00952.4216255,E,2,11,0.8,-1.710,M,40.593,M,2.4,0123*64\r\n
$GPGGA,100140.70,5703.4475965,N,00952.4215860,E,2,11,0.8,-1.710,M,40.593,M,2.4,0123*66\r\n
$GPGGA,100140.75,5703.4475722,N,00952.4215472,E,2,11,0.8,-1.709,M,40.593,M,2.4,0123*69\r\n
$GPGGA,100140.80,5703.4475474,N,00952.4215077,E,2,11,0.8,-1.711,M,40.593,M,2.4,0123*6B\r\n
$GPGGA,100140.85,5703.4475221,N,00952.4214696,E,2,11,0.8,-1.710,M,40.593,M,2.6,0123*63\r\n
$GPGGA,100140.90,5703.4474973,N,00952.4214298,E,2,11,0.8,-1.711,M,40.593,M,2.6,0123*61\r\n
$GPGGA,100140.95,5703.4474739,N,00952.4213919,E,2,11,0.8,-1.709,M,40.593,M,2.6,0123*68\r\n
$GPGGA,100141.00,5703.4474508,N,00952.4213543,E,2,11,0.8,-1.710,M,40.593,M,2.6,0123*6E\r\n
$GPGGA,100141.05,5703.4474264,N,00952.4213172,E,2,11,0.8,-1.713,M,40.593,M,2.8,0123*6D\r\n
$GPGGA,100141.10,5703.4474016,N,00952.4212803,E,2,11,0.8,-1.715,M,40.593,M,2.8,0123*66\r\n
$GPGGA,100141.15,5703.4473784,N,00952.4212434,E,2,11,0.8,-1.716,M,40.593,M,2.8,0123*63\r\n
$GPGGA,100141.20,5703.4473550,N,00952.4212076,E,2,11,0.8,-1.717,M,40.593,M,2.8,0123*6D\r\n
$GPGGA,100141.25,5703.4473321,N,00952.4211718,E,2,11,0.8,-1.716,M,40.593,M,3.0,0123*6C\r\n
$GPGGA,100141.30,5703.4473074,N,00952.4211346,E,2,11,0.8,-1.720,M,40.593,M,3.0,0123*61\r\n
$GPGGA,100141.35,5703.4472843,N,00952.4210981,E,2,11,0.8,-1.722,M,40.593,M,3.0,0123*6B\r\n
$GPGGA,100141.40,5703.4472619,N,00952.4210631,E,2,11,0.8,-1.722,M,40.593,M,3.0,0123*6C\r\n
$GPGGA,100141.45,5703.4472388,N,00952.4210283,E,2,11,0.8,-1.720,M,40.593,M,2.4,0123*6E\r\n
$GPGGA,100141.50,5703.4472163,N,00952.4209934,E,2,11,0.8,-1.721,M,40.593,M,2.4,0123*63\r\n
$GPGGA,100141.55,5703.4471935,N,00952.4209595,E,2,11,0.8,-1.722,M,40.593,M,2.4,0123*6A\r\n
$GPGGA,100141.60,5703.4471707,N,00952.4209256,E,2,11,0.8,-1.721,M,40.593,M,2.4,0123*68\r\n
$GPGGA,100141.65,5703.4471485,N,00952.4208916,E,2,11,0.8,-1.723,M,40.593,M,2.6,0123*6A\r\n
$GPGGA,100141.70,5703.4471269,N,00952.4208574,E,2,11,0.8,-1.724,M,40.593,M,2.6,0123*65\r\n
$GPGGA,100141.75,5703.4471052,N,00952.4208231,E,2,11,0.8,-1.724,M,40.593,M,2.6,0123*6C\r\n
$GPGGA,100141.80,5703.4470833,N,00952.4207897,E,2,11,0.8,-1.725,M,40.593,M,2.6,0123*60\r\n
$GPGGA,100141.85,5703.4470618,N,00952.4207559,E,2,11,0.8,-1.724,M,40.593,M,2.9,0123*63\r\n
$GPGGA,100141.90,5703.4470400,N,00952.4207227,E,2,11,0.8,-1.725,M,40.593,M,2.9,0123*63\r\n
$GPGGA,100141.95,5703.4470177,N,00952.4206893,E,2,11,0.8,-1.724,M,40.593,M,2.9,0123*66\r\n
$GPGGA,100142.00,5703.4469950,N,00952.4206563,E,2,11,0.8,-1.725,M,40.593,M,2.9,0123*6F\r\n
$GPGGA,100142.05,5703.4469731,N,00952.4206248,E,2,11,0.8,-1.727,M,40.593,M,3.1,0123*66\r\n
$GPGGA,100142.10,5703.4469520,N,00952.4205931,E,2,11,0.8,-1.728,M,40.593,M,3.1,0123*69\r\n
$GPGGA,100142.15,5703.4469309,N,00952.4205606,E,2,11,0.8,-1.728,M,40.593,M,3.1,0123*6A\r\n
$GPGGA,100142.20,5703.4469091,N,00952.4205286,E,2,11,0.8,-1.728,M,40.593,M,3.1,0123*62\r\n
$GPGGA,100142.25,5703.4468882,N,00952.4204973,E,2,11,0.8,-1.729,M,40.593,M,3.3,0123*6F\r\n
$GPGGA,100142.30,5703.4468663,N,00952.4204646,E,2,11,0.8,-1.731,M,40.593,M,3.3,0123*6A\r\n
$GPGGA,100142.35,5703.4468443,N,00952.4204327,E,2,11,0.8,-1.732,M,40.593,M,3.3,0123*6E\r\n
$GPGGA,100142.40,5703.4468235,N,00952.4204011,E,2,11,0.8,-1.733,M,40.593,M,3.3,0123*6C\r\n
$GPGGA,100142.45,5703.4468026,N,00952.4203695,E,2,11,0.8,-1.733,M,40.593,M,3.5,0123*62\r\n
$GPGGA,100142.50,5703.4467815,N,00952.4203373,E,2,11,0.8,-1.734,M,40.593,M,3.5,0123*6B\r\n
$GPGGA,100142.55,5703.4467601,N,00952.4203067,E,2,11,0.8,-1.737,M,40.593,M,3.5,0123*60\r\n
$GPGGA,100142.60,5703.4467388,N,00952.4202767,E,2,11,0.8,-1.735,M,40.593,M,3.5,0123*66\r\n
$GPGGA,100142.65,5703.4467181,N,00952.4202448,E,2,11,0.8,-1.734,M,40.593,M,3.7,0123*65\r\n
$GPGGA,100142.70,5703.4466973,N,00952.4202142,E,2,11,0.8,-1.734,M,40.593,M,3.7,0123*6A\r\n
$GPGGA,100142.75,5703.4466762,N,00952.4201821,E,2,11,0.8,-1.733,M,40.593,M,3.7,0123*69\r\n
$GPGGA,100142.80,5703.4466557,N,00952.4201517,E,2,11,0.8,-1.733,M,40.593,M,3.7,0123*6F\r\n
$GPGGA,100142.85,5703.4466348,N,00952.4201210,E,2,11,0.8,-1.731,M,40.593,M,3.9,0123*6E\r\n
$GPGGA,100142.90,5703.4466133,N,00952.4200909,E,2,11,0.8,-1.730,M,40.593,M,3.9,0123*67\r\n
$GPGGA,100142.95,5703.4465925,N,00952.4200612,E,2,11,0.8,-1.729,M,40.593,M,3.9,0123*63\r\n
$GPGGA,100143.00,5703.4465724,N,00952.4200299,E,2,11,0.8,-1.728,M,40.593,M,3.9,0123*67\r\n
$GPGGA,100143.05,5703.4465516,N,00952.4199995,E,2,11,0.8,-1.728,M,40.593,M,4.1,0123*6A\r\n
$GPGGA,100143.10,5703.4465304,N,00952.4199694,E,2,11,0.8,-1.729,M,40.593,M,4.1,0123*64\r\n
$GPGGA,100143.15,5703.4465099,N,00952.4199376,E,2,11,0.8,-1.729,M,40.593,M,4.1,0123*6F\r\n
$GPGGA,100143.20,5703.4464893,N,00952.4199083,E,2,11,0.8,-1.728,M,40.593,M,4.1,0123*62\r\n
$GPGGA,100143.25,5703.4464682,N,00952.4198803,E,2,11,0.8,-1.725,M,40.593,M,4.3,0123*67\r\n
$GPGGA,100143.30,5703.4464475,N,00952.4198490,E,2,11,0.8,-1.725,M,40.593,M,4.3,0123*6F\r\n
$GPGGA,100143.35,5703.4464266,N,00952.4198192,E,2,11,0.8,-1.725,M,40.593,M,4.3,0123*69\r\n
$GPGGA,100143.40,5703.4464053,N,00952.4197898,E,2,11,0.8,-1.725,M,40.593,M,4.3,0123*63\r\n
$GPGGA,100143.45,5703.4463842,N,00952.4197605,E,2,11,0.8,-1.726,M,40.593,M,2.1,0123*64\r\n
$GPGGA,100143.50,5703.4463626,N,00952.4197306,E,2,11,0.8,-1.727,M,40.593,M,2.1,0123*6B\r\n
$GPGGA,100143.55,5703.4463419,N,00952.4197011,E,2,11,0.8,-1.726,M,40.593,M,2.1,0123*64\r\n
$GPGGA,100143.60,5703.4463213,N,00952.4196735,E,2,11,0.8,-1.725,M,40.593,M,2.1,0123*6D\r\n
$GPGGA,100143.65,5703.4463014,N,00952.4196442,E,2,11,0.8,-1.728,M,40.593,M,2.3,0123*61\r\n
$GPGGA,100143.70,5703.4462801,N,00952.4196157,E,2,11,0.8,-1.727,M,40.593,M,2.3,0123*66\r\n
$GPGGA,100143.75,5703.4462595,N,00952.4195873,E,2,11,0.8,-1.724,M,40.593,M,2.3,0123*6C\r\n
$GPGGA,100143.80,5703.4462391,N,00952.4195583,E,2,11,0.8,-1.723,M,40.593,M,2.3,0123*61\r\n
$GPGGA,100143.85,5703.4462185,N,00952.4195291,E,2,11,0.8,-1.726,M,40.593,M,2.5,0123*64\r\n
$GPGGA,100143.90,5703.4461975,N,00952.4194996,E,2,11,0.8,-1.726,M,40.593,M,2.5,0123*69\r\n
$GPGGA,100143.95,5703.4461774,N,00952.4194715,E,2,11,0.8,-1.723,M,40.593,M,2.5,0123*63\r\n
$GPGGA,100144.00,5703.4461577,N,00952.4194434,E,2,11,0.8,-1.722,M,40.593,M,2.5,0123*68\r\n
$GPGGA,100144.05,5703.4461368,N,00952.4194133,E,2,11,0.8,-1.721,M,40.593,M,2.8,0123*69\r\n
$GPGGA,100144.10,5703.4461172,N,00952.4193842,E,2,11,0.8,-1.720,M,40.593,M,2.8,0123*6D\r\n
$GPGGA,100144.15,5703.4460969,N,00952.4193570,E,2,11,0.8,-1.720,M,40.593,M,2.8,0123*67\r\n
$GPGGA,100144.20,5703.4460765,N,00952.4193283,E,2,11,0.8,-1.719,M,40.593,M,2.8,0123*62\r\n
$GPGGA,100144.25,5703.4460560,N,00952.4193001,E,2,11,0.8,-1.721,M,40.593,M,3.0,0123*6A\r\n
$GPGGA,100144.30,5703.4460363,N,00952.4192713,E,2,11,0.8,-1.721,M,40.593,M,3.0,0123*6E\r\n
$GPGGA,100144.35,5703.4460166,N,00952.4192431,E,2,11,0.8,-1.723,M,40.593,M,3.0,0123*6D\r\n
$GPGGA,100144.40,5703.4459968,N,00952.4192147,E,2,11,0.8,-1.724,M,40.593,M,3.0,0123*60\r\n
$GPGGA,100144.45,5703.4459780,N,00952.4191880,E,2,11,0.8,-1.715,M,40.593,M,2.1,0123*6E\r\n
$GPGGA,100144.50,5703.4459578,N,00952.4191614,E,2,11,0.8,-1.716,M,40.593,M,2.1,0123*6F\r\n
$GPGGA,100144.55,5703.4459377,N,00952.4191340,E,2,11,0.8,-1.716,M,40.593,M,2.1,0123*67\r\n
$GPGGA,100144.60,5703.4459180,N,00952.4191067,E,2,11,0.8,-1.715,M,40.593,M,2.1,0123*6E\r\n
$GPGGA,100144.65,5703.4458995,N,00952.4190785,E,2,11,0.8,-1.716,M,40.593,M,2.4,0123*6A\r\n
$GPGGA,100144.70,5703.4458808,N,00952.4190516,E,2,11,0.8,-1.715,M,40.593,M,2.4,0123*60\r\n
$GPGGA,100144.75,5703.4458612,N,00952.4190249,E,2,11,0.8,-1.717,M,40.593,M,2.4,0123*6F\r\n
$GPGGA,100144.80,5703.4458416,N,00952.4189992,E,2,11,0.8,-1.717,M,40.593,M,2.4,0123*66\r\n
$GPGGA,100144.85,5703.4458224,N,00952.4189714,E,2,11,0.8,-1.719,M,40.593,M,2.6,0123*68\r\n
$GPGGA,100144.90,5703.4458035,N,00952.4189458,E,2,11,0.8,-1.717,M,40.593,M,2.6,0123*6B\r\n
$GPGGA,100144.95,5703.4457848,N,00952.4189200,E,2,11,0.8,-1.717,M,40.593,M,2.6,0123*68\r\n
$GPGGA,100145.00,5703.4457655,N,00952.4188940,E,2,11,0.8,-1.718,M,40.593,M,2.6,0123*66\r\n
$GPGGA,100145.05,5703.4457466,N,00952.4188698,E,2,11,0.8,-1.719,M,40.593,M,2.8,0123*64\r\n
$GPGGA,100145.10,5703.4457283,N,00952.4188433,E,2,11,0.8,-1.721,M,40.593,M,2.8,0123*65\r\n
$GPGGA,100145.15,5703.4457101,N,00952.4188172,E,2,11,0.8,-1.721,M,40.593,M,2.8,0123*69\r\n
$GPGGA,100145.20,5703.4456915,N,00952.4187918,E,2,11,0.8,-1.720,M,40.593,M,2.8,0123*69\r\n
$GPGGA,100145.25,5703.4456729,N,00952.4187679,E,2,11,0.8,-1.719,M,40.593,M,3.0,0123*66\r\n
$GPGGA,100145.30,5703.4456551,N,00952.4187419,E,2,11,0.8,-1.719,M,40.593,M,3.0,0123*6B\r\n
$GPGGA,100145.35,5703.4456378,N,00952.4187164,E,2,11,0.8,-1.721,M,40.593,M,3.0,0123*67\r\n
$GPGGA,100145.40,5703.4456198,N,00952.4186910,E,2,11,0.8,-1.724,M,40.593,M,3.0,0123*66\r\n
$GPGGA,100145.45,5703.4456017,N,00952.4186671,E,2,11,0.8,-1.725,M,40.593,M,2.4,0123*69\r\n
$GPGGA,100145.50,5703.4455831,N,00952.4186421,E,2,11,0.8,-1.724,M,40.593,M,2.4,0123*64\r\n
$GPGGA,100145.55,5703.4455654,N,00952.4186180,E,2,11,0.8,-1.722,M,40.593,M,2.4,0123*64\r\n
$GPGGA,100145.60,5703.4455482,N,00952.4185940,E,2,11,0.8,-1.723,M,40.593,M,2.4,0123*6D\r\n
$GPGGA,100145.65,5703.4455299,N,00952.4185691,E,2,11,0.8,-1.727,M,40.593,M,2.6,0123*61\r\n
$GPGGA,100145.70,5703.4455118,N,00952.4185435,E,2,11,0.8,-1.731,M,40.593,M,2.6,0123*64\r\n
$GPGGA,100145.75,5703.4454944,N,00952.4185200,E,2,11,0.8,-1.731,M,40.593,M,2.6,0123*61\r\n
$GPGGA,100145.80,5703.4454770,N,00952.4184978,E,2,11,0.8,-1.733,M,40.593,M,2.6,0123*65\r\n
$GPGGA,100145.85,5703.4454591,N,00952.4184737,E,2,11,0.8,-1.734,M,40.593,M,2.9,0123*60\r\n
$GPGGA,100145.90,5703.4454419,N,00952.4184494,E,2,11,0.8,-1.734,M,40.593,M,2.9,0123*6F\r\n
$GPGGA,100145.95,5703.4454246,N,00952.4184267,E,2,11,0.8,-1.733,M,40.593,M,2.9,0123*6B\r\n
$GPGGA,100146.00,5703.4454077,N,00952.4184022,E,2,11,0.8,-1.735,M,40.593,M,2.9,0123*61\r\n
$GPGGA,100146.05,5703.4453888,N,00952.4183778,E,2,11,0.8,-1.736,M,40.593,M,3.1,0123*6E\r\n
$GPGGA,100146.10,5703.4453716,N,00952.4183542,E,2,11,0.8,-1.736,M,40.593,M,3.1,0123*69\r\n
$GPGGA,100146.15,5703.4453538,N,00952.4183317,E,2,11,0.8,-1.739,M,40.593,M,3.1,0123*6B\r\n
$GPGGA,100146.20,5703.4453362,N,00952.4183081,E,2,11,0.8,-1.740,M,40.593,M,3.1,0123*66\r\n
$GPGGA,100146.25,5703.4453184,N,00952.4182834,E,2,11,0.8,-1.740,M,40.593,M,3.3,0123*6C\r\n
$GPGGA,100146.30,5703.4453010,N,00952.4182581,E,2,11,0.8,-1.739,M,40.593,M,3.3,0123*69\r\n
$GPGGA,100146.35,5703.4452837,N,00952.4182335,E,2,11,0.8,-1.740,M,40.593,M,3.3,0123*67\r\n
$GPGGA,100146.40,5703.4452657,N,00952.4182106,E,2,11,0.8,-1.742,M,40.593,M,3.3,0123*6D\r\n
$GPGGA,100146.45,5703.4452492,N,00952.4181877,E,2,11,0.8,-1.740,M,40.593,M,3.5,0123*6B\r\n
$GPGGA,100146.50,5703.4452321,N,00952.4181646,E,2,11,0.8,-1.737,M,40.593,M,3.5,0123*6C\r\n
$GPGGA,100146.55,5703.4452151,N,00952.4181415,E,2,11,0.8,-1.737,M,40.593,M,3.5,0123*68\r\n
$GPGGA,100146.60,5703.4451972,N,00952.4181175,E,2,11,0.8,-1.736,M,40.593,M,3.5,0123*66\r\n
$GPGGA,100146.65,5703.4451792,N,00952.4180934,E,2,11,0.8,-1.735,M,40.593,M,3.7,0123*6E\r\n
$GPGGA,100146.70,5703.4451611,N,00952.4180706,E,2,11,0.8,-1.733,M,40.593,M,3.7,0123*69\r\n
$GPGGA,100146.75,5703.4451440,N,00952.4180472,E,2,11,0.8,-1.732,M,40.593,M,3.7,0123*6B\r\n
$GPGGA,100146.80,5703.4451270,N,00952.4180238,E,2,11,0.8,-1.729,M,40.593,M,3.7,0123*66\r\n
$GPGGA,100146.85,5703.4451101,N,00952.4179995,E,2,11,0.8,-1.730,M,40.593,M,3.9,0123*6A\r\n
$GPGGA,100146.90,5703.4450924,N,00952.4179757,E,2,11,0.8,-1.731,M,40.593,M,3.9,0123*61\r\n
$GPGGA,100146.95,5703.4450742,N,00952.4179514,E,2,11,0.8,-1.730,M,40.593,M,3.9,0123*6E\r\n
$GPGGA,100147.00,5703.4450573,N,00952.4179277,E,2,11,0.8,-1.729,M,40.593,M,3.9,0123*69\r\n
$GPGGA,100147.05,5703.4450396,N,00952.4179042,E,2,11,0.8,-1.724,M,40.593,M,4.1,0123*67\r\n
$GPGGA,100147.10,5703.4450232,N,00952.4178804,E,2,11,0.8,-1.722,M,40.593,M,4.1,0123*61\r\n
$GPGGA,100147.15,5703.4450060,N,00952.4178572,E,2,11,0.8,-1.721,M,40.593,M,4.1,0123*6E\r\n
$GPGGA,100147.20,5703.4449889,N,00952.4178318,E,2,11,0.8,-1.722,M,40.593,M,4.1,0123*66\r\n
$GPGGA,100147.25,5703.4449724,N,00952.4178066,E,2,11,0.8,-1.722,M,40.593,M,4.3,0123*63\r\n
$GPGGA,100147.30,5703.4449568,N,00952.4177833,E,2,11,0.8,-1.720,M,40.593,M,4.3,0123*68\r\n
$GPGGA,100147.35,5703.4449401,N,00952.4177607,E,2,11,0.8,-1.717,M,40.593,M,4.3,0123*6E\r\n
$GPGGA,100147.40,5703.4449229,N,00952.4177375,E,2,11,0.8,-1.716,M,40.593,M,4.3,0123*61\r\n
$GPGGA,100147.45,5703.4449063,N,00952.4177133,E,2,11,0.8,-1.716,M,40.593,M,2.1,0123*6C\r\n
$GPGGA,100147.50,5703.4448897,N,00952.4176899,E,2,11,0.8,-1.715,M,40.593,M,2.1,0123*61\r\n
$GPGGA,100147.55,5703.4448729,N,00952.4176660,E,2,11,0.8,-1.714,M,40.593,M,2.1,0123*67\r\n
$GPGGA,100147.60,5703.4448565,N,00952.4176424,E,2,11,0.8,-1.714,M,40.593,M,2.1,0123*69\r\n
$GPGGA,100147.65,5703.4448406,N,00952.4176187,E,2,11,0.8,-1.716,M,40.593,M,2.3,0123*64\r\n
$GPGGA,100147.70,5703.4448243,N,00952.4175962,E,2,11,0.8,-1.717,M,40.593,M,2.3,0123*66\r\n
$GPGGA,100147.75,5703.4448083,N,00952.4175719,E,2,11,0.8,-1.717,M,40.593,M,2.3,0123*6F\r\n
$GPGGA,100147.80,5703.4447921,N,00952.4175477,E,2,11,0.8,-1.716,M,40.593,M,2.3,0123*61\r\n
$GPGGA,100147.85,5703.4447760,N,00952.4175249,E,2,11,0.8,-1.720,M,40.593,M,2.5,0123*67\r\n
$GPGGA,100147.90,5703.4447599,N,00952.4175027,E,2,11,0.8,-1.720,M,40.593,M,2.5,0123*6D\r\n
$GPGGA,100147.95,5703.4447436,N,00952.4174802,E,2,11,0.8,-1.721,M,40.593,M,2.5,0123*63\r\n
$GPGGA,100148.00,5703.4447280,N,00952.4174569,E,2,11,0.8,-1.723,M,40.593,M,2.5,0123*69\r\n
$GPGGA,100148.05,5703.4447110,N,00952.4174345,E,2,11,0.8,-1.720,M,40.593,M,2.8,0123*60\r\n
$GPGGA,100148.10,5703.4446951,N,00952.4174123,E,2,11,0.8,-1.718,M,40.593,M,2.8,0123*61\r\n
$GPGGA,100148.15,5703.4446797,N,00952.4173905,E,2,11,0.8,-1.721,M,40.593,M,2.8,0123*61\r\n
$GPGGA,100148.20,5703.4446645,N,00952.4173674,E,2,11,0.8,-1.724,M,40.593,M,2.8,0123*65\r\n
$GPGGA,100148.25,5703.4446484,N,00952.4173445,E,2,11,0.8,-1.725,M,40.593,M,3.0,0123*67\r\n
$GPGGA,100148.30,5703.4446337,N,00952.4173233,E,2,11,0.8,-1.723,M,40.593,M,3.0,0123*6D\r\n
$GPGGA,100148.35,5703.4446180,N,00952.4173015,E,2,11,0.8,-1.723,M,40.593,M,3.0,0123*60\r\n
$GPGGA,100148.40,5703.4446025,N,00952.4172803,E,2,11,0.8,-1.725,M,40.593,M,3.0,0123*64\r\n
$GPGGA,100148.45,5703.4445870,N,00952.4172584,E,2,11,0.8,-1.725,M,40.593,M,2.1,0123*68\r\n
$GPGGA,100148.50,5703.4445718,N,00952.4172370,E,2,11,0.8,-1.727,M,40.593,M,2.1,0123*62\r\n
$GPGGA,100148.55,5703.4445572,N,00952.4172160,E,2,11,0.8,-1.728,M,40.593,M,2.1,0123*65\r\n
$GPGGA,100148.60,5703.4445420,N,00952.4171943,E,2,11,0.8,-1.729,M,40.593,M,2.1,0123*6E\r\n
$GPGGA,100148.65,5703.4445267,N,00952.4171732,E,2,11,0.8,-1.730,M,40.593,M,2.4,0123*6B\r\n
$GPGGA,100148.70,5703.4445125,N,00952.4171512,E,2,11,0.8,-1.731,M,40.593,M,2.4,0123*6B\r\n
$GPGGA,100148.75,5703.4444977,N,00952.4171299,E,2,11,0.8,-1.732,M,40.593,M,2.4,0123*67\r\n
$GPGGA,100148.80,5703.4444830,N,00952.4171095,E,2,11,0.8,-1.732,M,40.593,M,2.4,0123*61\r\n
$GPGGA,100148.85,5703.4444683,N,00952.4170878,E,2,11,0.8,-1.731,M,40.593,M,2.6,0123*69\r\n
$GPGGA,100148.90,5703.4444529,N,00952.4170667,E,2,11,0.8,-1.733,M,40.593,M,2.6,0123*6C\r\n
$GPGGA,100148.95,5703.4444390,N,00952.4170444,E,2,11,0.8,-1.734,M,40.593,M,2.6,0123*69\r\n
$GPGGA,100149.00,5703.4444245,N,00952.4170230,E,2,11,0.8,-1.734,M,40.593,M,2.6,0123*68\r\n
$GPGGA,100149.05,5703.4444083,N,00952.4170021,E,2,11,0.8,-1.737,M,40.593,M,2.8,0123*6A\r\n
$GPGGA,100149.10,5703.4443939,N,00952.4169808,E,2,11,0.8,-1.737,M,40.593,M,2.8,0123*6A\r\n
$GPGGA,100149.15,5703.4443786,N,00952.4169596,E,2,11,0.8,-1.738,M,40.593,M,2.8,0123*60\r\n
$GPGGA,100149.20,5703.4443634,N,00952.4169398,E,2,11,0.8,-1.737,M,40.593,M,2.8,0123*69\r\n
$GPGGA,100149.25,5703.4443490,N,00952.4169197,E,2,11,0.8,-1.741,M,40.593,M,3.0,0123*65\r\n
$GPGGA,100149.30,5703.4443348,N,00952.4168981,E,2,11,0.8,-1.741,M,40.593,M,3.0,0123*6D\r\n
$GPGGA,100149.35,5703.4443199,N,00952.4168772,E,2,11,0.8,-1.740,M,40.593,M,3.0,0123*65\r\n
$GPGGA,100149.40,5703.4443056,N,00952.4168548,E,2,11,0.8,-1.739,M,40.593,M,3.0,0123*60\r\n
$GPGGA,100149.45,5703.4442903,N,00952.4168346,E,2,11,0.8,-1.739,M,40.593,M,2.4,0123*60\r\n
$GPGGA,100149.50,5703.4442753,N,00952.4168146,E,2,11,0.8,-1.740,M,40.593,M,2.4,0123*63\r\n
$GPGGA,100149.55,5703.4442605,N,00952.4167932,E,2,11,0.8,-1.741,M,40.593,M,2.4,0123*61\r\n
$GPGGA,100149.60,5703.4442465,N,00952.4167714,E,2,11,0.8,-1.742,M,40.593,M,2.4,0123*6A\r\n
$GPGGA,100149.65,5703.4442332,N,00952.4167491,E,2,11,0.8,-1.738,M,40.593,M,2.6,0123*6B\r\n
$GPGGA,100149.70,5703.4442185,N,00952.4167284,E,2,11,0.8,-1.736,M,40.593,M,2.6,0123*6D\r\n
$GPGGA,100149.75,5703.4442043,N,00952.4167069,E,2,11,0.8,-1.733,M,40.593,M,2.6,0123*67\r\n
$GPGGA,100149.80,5703.4441892,N,00952.4166843,E,2,11,0.8,-1.732,M,40.593,M,2.6,0123*6A\r\n
