$GPGGA,093522.10,5703.3819137,N,00952.1397919,E,2,11,0.8,-1.926,M,40.593,M,1.7,0123*6F
$GPVTG,055.73,T,-584.17,M,006.415,N,011.881,K,D*07
$GPGGA,093522.15,5703.3819620,N,00952.1399245,E,2,11,0.8,-1.918,M,40.593,M,1.7,0123*6A
$GPVTG,055.67,T,-584.23,M,006.313,N,011.692,K,D*08
$GPGGA,093522.20,5703.3820124,N,00952.1400573,E,2,11,0.8,-1.914,M,40.593,M,1.7,0123*6C
$GPVTG,055.24,T,-584.66,M,006.294,N,011.657,K,D*09
$GPGGA,093522.25,5703.3820623,N,00952.1401936,E,2,11,0.8,-1.911,M,40.593,M,1.9,0123*6E
$GPVTG,055.47,T,-584.43,M,006.344,N,011.748,K,D*08
$GPGGA,093522.30,5703.3821128,N,00952.1403340,E,2,11,0.8,-1.912,M,40.593,M,1.9,0123*6D
$GPVTG,055.96,T,-583.94,M,006.468,N,011.978,K,D*0D
$GPGGA,093522.35,5703.3821643,N,00952.1404761,E,2,11,0.8,-1.919,M,40.593,M,1.9,0123*69
$GPVTG,056.22,T,-583.68,M,006.605,N,012.232,K,D*0D
$GPGGA,093522.40,5703.3822140,N,00952.1406200,E,2,11,0.8,-1.930,M,40.593,M,1.9,0123*67
$GPVTG,057.00,T,-582.90,M,006.689,N,012.387,K,D*01
$GPGGA,093522.45,5703.3822647,N,00952.1407652,E,2,11,0.8,-1.942,M,40.593,M,2.2,0123*6D
$GPVTG,057.35,T,-582.55,M,006.782,N,012.560,K,D*0B
$GPGGA,093522.50,5703.3823153,N,00952.1409091,E,2,11,0.8,-1.946,M,40.593,M,2.2,0123*69
$GPVTG,057.42,T,-582.48,M,006.806,N,012.605,K,D*04
$GPGGA,093522.55,5703.3823632,N,00952.1410475,E,2,11,0.8,-1.944,M,40.593,M,2.2,0123*68
$GPVTG,057.58,T,-582.32,M,006.662,N,012.338,K,D*05
$GPGGA,093522.60,5703.3824075,N,00952.1411799,E,2,11,0.8,-1.933,M,40.593,M,2.2,0123*6C
$GPVTG,057.97,T,-581.93,M,006.387,N,011.830,K,D*00
$GPGGA,093522.65,5703.3824513,N,00952.1413122,E,2,11,0.8,-1.919,M,40.593,M,2.4,0123*66
$GPVTG,058.41,T,-581.49,M,006.188,N,011.461,K,D*06
$GPGGA,093522.70,5703.3824976,N,00952.1414458,E,2,11,0.8,-1.903,M,40.593,M,2.4,0123*69
$GPVTG,058.22,T,-581.68,M,006.131,N,011.355,K,D*02
$GPGGA,093522.75,5703.3825457,N,00952.1415797,E,2,11,0.8,-1.889,M,40.593,M,2.4,0123*61
$GPVTG,057.61,T,-582.29,M,006.147,N,011.385,K,D*00
$GPGGA,093522.80,5703.3825944,N,00952.1417156,E,2,11,0.8,-1.881,M,40.593,M,2.4,0123*65
$GPVTG,057.18,T,-582.72,M,006.225,N,011.529,K,D*07
$GPGGA,093522.85,5703.3826448,N,00952.1418537,E,2,11,0.8,-1.878,M,40.593,M,2.7,0123*6B
$GPVTG,056.70,T,-583.20,M,006.357,N,011.774,K,D*00
$GPGGA,093522.90,5703.3826981,N,00952.1419929,E,2,11,0.8,-1.882,M,40.593,M,2.7,0123*60
$GPVTG,055.78,T,-584.12,M,006.527,N,012.087,K,D*04
$GPGGA,093522.95,5703.3827517,N,00952.1421351,E,2,11,0.8,-1.889,M,40.593,M,2.7,0123*62
$GPVTG,055.38,T,-584.52,M,006.700,N,012.408,K,D*00
$GPGGA,093523.00,5703.3828051,N,00952.1422767,E,2,11,0.8,-1.900,M,40.593,M,2.7,0123*65
$GPVTG,055.12,T,-584.78,M,006.797,N,012.588,K,D*07
$GPGGA,093523.05,5703.3828572,N,00952.1424196,E,2,11,0.8,-1.915,M,40.593,M,1.6,0123*6C
$GPVTG,055.48,T,-584.42,M,006.849,N,012.684,K,D*02
$GPGGA,093523.10,5703.3829081,N,00952.1425620,E,2,11,0.8,-1.925,M,40.593,M,1.6,0123*68
$GPVTG,055.90,T,-584.00,M,006.834,N,012.657,K,D*05
$GPGGA,093523.15,5703.3829584,N,00952.1427035,E,2,11,0.8,-1.934,M,40.593,M,1.6,0123*6D
$GPVTG,056.30,T,-583.60,M,006.782,N,012.560,K,D*08
$GPGGA,093523.20,5703.3830088,N,00952.1428469,E,2,11,0.8,-1.943,M,40.593,M,1.6,0123*68
$GPVTG,056.75,T,-583.15,M,006.768,N,012.534,K,D*0E
$GPGGA,093523.25,5703.3830587,N,00952.1429910,E,2,11,0.8,-1.954,M,40.593,M,1.8,0123*6D
$GPVTG,057.25,T,-582.65,M,006.758,N,012.516,K,D*0F
$GPGGA,093523.30,5703.3831094,N,00952.1431350,E,2,11,0.8,-1.961,M,40.593,M,1.8,0123*6E
$GPVTG,057.35,T,-582.55,M,006.758,N,012.515,K,D*0E
$GPGGA,093523.35,5703.3831588,N,00952.1432740,E,2,11,0.8,-1.963,M,40.593,M,1.8,0123*67
$GPVTG,057.23,T,-582.67,M,006.644,N,012.305,K,D*03
$GPGGA,093523.40,5703.3832070,N,00952.1434101,E,2,11,0.8,-1.958,M,40.593,M,1.8,0123*69
$GPVTG,057.15,T,-582.75,M,006.494,N,012.027,K,D*09
$GPGGA,093523.45,5703.3832506,N,00952.1435425,E,2,11,0.8,-1.948,M,40.593,M,2.0,0123*60
$GPVTG,057.84,T,-582.06,M,006.253,N,011.580,K,D*03
$GPGGA,093523.50,5703.3832935,N,00952.1436730,E,2,11,0.8,-1.927,M,40.593,M,2.0,0123*65
$GPVTG,058.43,T,-581.47,M,006.047,N,011.199,K,D*0A
$GPGGA,093523.55,5703.3833394,N,00952.1438043,E,2,11,0.8,-1.905,M,40.593,M,2.0,0123*6D
$GPVTG,058.15,T,-581.75,M,005.993,N,011.100,K,D*0B
$GPGGA,093523.60,5703.3833866,N,00952.1439345,E,2,11,0.8,-1.886,M,40.593,M,2.0,0123*63
$GPVTG,057.43,T,-582.47,M,005.987,N,011.087,K,D*0E
$GPGGA,093523.65,5703.3834344,N,00952.1440663,E,2,11,0.8,-1.862,M,40.593,M,2.3,0123*6C
$GPVTG,056.99,T,-582.91,M,006.035,N,011.176,K,D*0F
$GPGGA,093523.70,5703.3834844,N,00952.1442016,E,2,11,0.8,-1.852,M,40.593,M,2.3,0123*66
$GPVTG,056.42,T,-583.48,M,006.193,N,011.470,K,D*02
$GPGGA,093523.75,5703.3835334,N,00952.1443392,E,2,11,0.8,-1.851,M,40.593,M,2.3,0123*63
$GPVTG,056.55,T,-583.35,M,006.333,N,011.729,K,D*09
$GPGGA,093523.80,5703.3835830,N,00952.1444811,E,2,11,0.8,-1.859,M,40.593,M,2.3,0123*69
$GPVTG,056.94,T,-582.96,M,006.511,N,012.058,K,D*08
$GPGGA,093523.85,5703.3836351,N,00952.1446271,E,2,11,0.8,-1.872,M,40.593,M,2.5,0123*62
$GPVTG,056.97,T,-582.93,M,006.739,N,012.481,K,D*06
$GPGGA,093523.90,5703.3836897,N,00952.1447750,E,2,11,0.8,-1.892,M,40.593,M,2.5,0123*6E
$GPVTG,056.53,T,-583.37,M,006.962,N,012.894,K,D*09
$GPGGA,093523.95,5703.3837422,N,00952.1449242,E,2,11,0.8,-1.916,M,40.593,M,2.5,0123*6D
$GPVTG,056.79,T,-583.11,M,007.078,N,013.108,K,D*0B
$GPGGA,093524.00,5703.3837954,N,00952.1450749,E,2,11,0.8,-1.941,M,40.593,M,2.5,0123*6E
$GPVTG,056.91,T,-582.99,M,007.169,N,013.277,K,D*06
$GPGGA,093524.05,5703.3838465,N,00952.1452225,E,2,11,0.8,-1.964,M,40.593,M,2.7,0123*63
$GPVTG,057.21,T,-582.69,M,007.119,N,013.184,K,D*0B
$GPGGA,093524.10,5703.3838928,N,00952.1453594,E,2,11,0.8,-1.969,M,40.593,M,2.7,0123*62
$GPVTG,057.50,T,-582.40,M,006.783,N,012.561,K,D*0C
$GPGGA,093524.15,5703.3839379,N,00952.1454899,E,2,11,0.8,-1.958,M,40.593,M,2.7,0123*6D
$GPVTG,057.45,T,-582.45,M,006.405,N,011.861,K,D*0E
$GPGGA,093524.20,5703.3839822,N,00952.1456159,E,2,11,0.8,-1.939,M,40.593,M,2.7,0123*6E
$GPVTG,057.21,T,-582.69,M,006.061,N,011.226,K,D*0D
$GPGGA,093524.25,5703.3840268,N,00952.1457444,E,2,11,0.8,-1.926,M,40.593,M,2.9,0123*69
$GPVTG,057.28,T,-582.62,M,005.901,N,010.929,K,D*06
$GPGGA,093524.30,5703.3840725,N,00952.1458763,E,2,11,0.8,-1.914,M,40.593,M,2.9,0123*69
$GPVTG,057.46,T,-582.44,M,005.903,N,010.932,K,D*02
$GPGGA,093524.35,5703.3841200,N,00952.1460093,E,2,11,0.8,-1.901,M,40.593,M,2.9,0123*68
$GPVTG,057.25,T,-582.65,M,005.985,N,011.084,K,D*0F
$GPGGA,093524.40,5703.3841674,N,00952.1461425,E,2,11,0.8,-1.893,M,40.593,M,2.9,0123*6F
$GPVTG,057.13,T,-582.77,M,006.065,N,011.232,K,D*02
$GPGGA,093524.45,5703.3842149,N,00952.1462768,E,2,11,0.8,-1.887,M,40.593,M,3.1,0123*65
$GPVTG,057.12,T,-582.78,M,006.156,N,011.401,K,D*0B
$GPGGA,093524.50,5703.3842630,N,00952.1464136,E,2,11,0.8,-1.885,M,40.593,M,3.1,0123*61
$GPVTG,057.21,T,-582.69,M,006.277,N,011.625,K,D*0F
$GPGGA,093524.55,5703.3843109,N,00952.1465520,E,2,11,0.8,-1.885,M,40.593,M,3.1,0123*6A
$GPVTG,057.48,T,-582.42,M,006.385,N,011.825,K,D*0B
$GPGGA,093524.60,5703.3843604,N,00952.1466932,E,2,11,0.8,-1.890,M,40.593,M,3.1,0123*6E
$GPVTG,057.47,T,-582.43,M,006.530,N,012.094,K,D*0C
$GPGGA,093524.65,5703.3844103,N,00952.1468374,E,2,11,0.8,-1.898,M,40.593,M,3.3,0123*60
$GPVTG,057.68,T,-582.22,M,006.675,N,012.362,K,D*0E
$GPGGA,093524.70,5703.3844583,N,00952.1469827,E,2,11,0.8,-1.912,M,40.593,M,3.3,0123*67
$GPVTG,058.28,T,-581.62,M,006.748,N,012.497,K,D*00
$GPGGA,093524.75,5703.3845061,N,00952.1471266,E,2,11,0.8,-1.925,M,40.593,M,3.3,0123*68
$GPVTG,058.57,T,-581.33,M,006.752,N,012.505,K,D*0D
$GPGGA,093524.80,5703.3845552,N,00952.1472697,E,2,11,0.8,-1.937,M,40.593,M,3.3,0123*6D
$GPVTG,058.35,T,-581.55,M,006.746,N,012.493,K,D*02
$GPGGA,093524.85,5703.3846038,N,00952.1474102,E,2,11,0.8,-1.953,M,40.593,M,3.5,0123*6B
$GPVTG,057.98,T,-581.92,M,006.681,N,012.374,K,D*05
$GPGGA,093524.90,5703.3846510,N,00952.1475479,E,2,11,0.8,-1.956,M,40.593,M,3.5,0123*6D
$GPVTG,057.83,T,-582.07,M,006.548,N,012.127,K,D*02
$GPGGA,093524.95,5703.3846992,N,00952.1476824,E,2,11,0.8,-1.956,M,40.593,M,3.5,0123*69
$GPVTG,057.18,T,-582.72,M,006.418,N,011.887,K,D*06
$GPGGA,093525.00,5703.3847474,N,00952.1478151,E,2,11,0.8,-1.950,M,40.593,M,3.5,0123*63
$GPVTG,056.57,T,-583.33,M,006.305,N,011.677,K,D*02
$GPGGA,093525.05,5703.3847956,N,00952.1479495,E,2,11,0.8,-1.945,M,40.593,M,2.1,0123*66
$GPVTG,056.47,T,-583.43,M,006.266,N,011.604,K,D*04
$GPGGA,093525.10,5703.3848432,N,00952.1480862,E,2,11,0.8,-1.943,M,40.593,M,2.1,0123*66
$GPVTG,056.76,T,-583.14,M,006.284,N,011.638,K,D*07
$GPGGA,093525.15,5703.3848899,N,00952.1482221,E,2,11,0.8,-1.942,M,40.593,M,2.1,0123*60
$GPVTG,057.17,T,-582.73,M,006.276,N,011.623,K,D*06
$GPGGA,093525.20,5703.3849371,N,00952.1483594,E,2,11,0.8,-1.936,M,40.593,M,2.1,0123*61
$GPVTG,057.50,T,-582.40,M,006.309,N,011.685,K,D*00
$GPGGA,093525.25,5703.3849847,N,00952.1484971,E,2,11,0.8,-1.933,M,40.593,M,2.3,0123*6D
$GPVTG,057.64,T,-582.26,M,006.352,N,011.764,K,D*07
$GPGGA,093525.30,5703.3850321,N,00952.1486348,E,2,11,0.8,-1.929,M,40.593,M,2.3,0123*63
$GPVTG,057.77,T,-582.13,M,006.379,N,011.813,K,D*05
$GPGGA,093525.35,5703.3850778,N,00952.1487724,E,2,11,0.8,-1.926,M,40.593,M,2.3,0123*6E
$GPVTG,058.28,T,-581.62,M,006.364,N,011.787,K,D*0B
$GPGGA,093525.40,5703.3851245,N,00952.1489130,E,2,11,0.8,-1.920,M,40.593,M,2.3,0123*6D
$GPVTG,058.61,T,-581.29,M,006.422,N,011.894,K,D*01
$GPGGA,093525.45,5703.3851715,N,00952.1490532,E,2,11,0.8,-1.917,M,40.593,M,2.6,0123*67
$GPVTG,058.72,T,-581.18,M,006.458,N,011.961,K,D*07
$GPGGA,093525.50,5703.3852192,N,00952.1491925,E,2,11,0.8,-1.918,M,40.593,M,2.6,0123*6D
$GPVTG,058.47,T,-581.43,M,006.476,N,011.994,K,D*09
$GPGGA,093525.55,5703.3852661,N,00952.1493309,E,2,11,0.8,-1.920,M,40.593,M,2.6,0123*6E
$GPVTG,058.36,T,-581.54,M,006.455,N,011.956,K,D*06
$GPGGA,093525.60,5703.3853147,N,00952.1494713,E,2,11,0.8,-1.921,M,40.593,M,2.6,0123*63
$GPVTG,058.02,T,-581.88,M,006.502,N,012.042,K,D*0C
$GPGGA,093525.65,5703.3853640,N,00952.1496121,E,2,11,0.8,-1.918,M,40.593,M,2.9,0123*66
$GPVTG,057.66,T,-582.24,M,006.552,N,012.134,K,D*01
$GPGGA,093525.70,5703.3854117,N,00952.1497526,E,2,11,0.8,-1.921,M,40.593,M,2.9,0123*68
$GPVTG,057.77,T,-582.13,M,006.551,N,012.132,K,D*00
$GPGGA,093525.75,5703.3854592,N,00952.1498915,E,2,11,0.8,-1.924,M,40.593,M,2.9,0123*62
$GPVTG,057.75,T,-582.15,M,006.514,N,012.063,K,D*00
$GPGGA,093525.80,5703.3855081,N,00952.1500303,E,2,11,0.8,-1.928,M,40.593,M,2.9,0123*6F
$GPVTG,057.40,T,-582.50,M,006.507,N,012.051,K,D*04
$GPGGA,093525.85,5703.3855580,N,00952.1501703,E,2,11,0.8,-1.933,M,40.593,M,3.1,0123*68
$GPVTG,056.99,T,-582.91,M,006.548,N,012.127,K,D*07
$GPGGA,093525.90,5703.3856058,N,00952.1503107,E,2,11,0.8,-1.935,M,40.593,M,3.1,0123*69
$GPVTG,057.30,T,-582.60,M,006.540,N,012.112,K,D*05
$GPGGA,093525.95,5703.3856533,N,00952.1504490,E,2,11,0.8,-1.935,M,40.593,M,3.1,0123*68
$GPVTG,057.47,T,-582.43,M,006.490,N,012.019,K,D*02
$GPGGA,093526.00,5703.3857019,N,00952.1505894,E,2,11,0.8,-1.936,M,40.593,M,3.1,0123*61
$GPVTG,057.49,T,-582.41,M,006.510,N,012.057,K,D*0D
$GPGGA,093526.05,5703.3857513,N,00952.1507287,E,2,11,0.8,-1.931,M,40.593,M,1.7,0123*62
$GPVTG,057.36,T,-582.54,M,006.516,N,012.068,K,D*0B
$GPGGA,093526.10,5703.3858007,N,00952.1508661,E,2,11,0.8,-1.931,M,40.593,M,1.7,0123*6A
$GPVTG,056.94,T,-582.96,M,006.492,N,012.024,K,D*09
$GPGGA,093526.15,5703.3858485,N,00952.1510014,E,2,11,0.8,-1.927,M,40.593,M,1.7,0123*6B
$GPVTG,056.83,T,-583.07,M,006.411,N,011.874,K,D*03
$GPGGA,093526.20,5703.3858962,N,00952.1511384,E,2,11,0.8,-1.920,M,40.593,M,1.7,0123*65
$GPVTG,057.03,T,-582.87,M,006.385,N,011.825,K,D*0D
$GPGGA,093526.25,5703.3859447,N,00952.1512775,E,2,11,0.8,-1.922,M,40.593,M,1.9,0123*6E
$GPVTG,057.18,T,-582.72,M,006.424,N,011.897,K,D*08
$GPGGA,093526.30,5703.3859931,N,00952.1514194,E,2,11,0.8,-1.923,M,40.593,M,1.9,0123*68
$GPVTG,057.60,T,-582.30,M,006.501,N,012.039,K,D*08
$GPGGA,093526.35,5703.3860432,N,00952.1515614,E,2,11,0.8,-1.924,M,40.593,M,1.9,0123*60
$GPVTG,057.45,T,-582.45,M,006.584,N,012.194,K,D*06
$GPGGA,093526.40,5703.3860922,N,00952.1517022,E,2,11,0.8,-1.929,M,40.593,M,1.9,0123*62
$GPVTG,057.49,T,-582.41,M,006.600,N,012.223,K,D*0E
$GPGGA,093526.45,5703.3861369,N,00952.1518447,E,2,11,0.8,-1.935,M,40.593,M,2.2,0123*6E
$GPVTG,058.72,T,-581.18,M,006.558,N,012.146,K,D*08
$GPGGA,093526.50,5703.3861828,N,00952.1519824,E,2,11,0.8,-1.932,M,40.593,M,2.2,0123*6B
$GPVTG,058.82,T,-581.08,M,006.459,N,011.962,K,D*0B
$GPGGA,093526.55,5703.3862286,N,00952.1521196,E,2,11,0.8,-1.925,M,40.593,M,2.2,0123*6E
$GPVTG,058.84,T,-581.06,M,006.377,N,011.810,K,D*0C
$GPGGA,093526.60,5703.3862760,N,00952.1522555,E,2,11,0.8,-1.918,M,40.593,M,2.2,0123*63
$GPVTG,058.28,T,-581.62,M,006.331,N,011.725,K,D*03
$GPGGA,093526.65,5703.3863250,N,00952.1523929,E,2,11,0.8,-1.912,M,40.593,M,2.4,0123*6B
$GPVTG,057.59,T,-582.31,M,006.362,N,011.782,K,D*04
$GPGGA,093526.70,5703.3863732,N,00952.1525327,E,2,11,0.8,-1.910,M,40.593,M,2.4,0123*6E
$GPVTG,057.55,T,-582.35,M,006.419,N,011.888,K,D*02
$GPGGA,093526.75,5703.3864211,N,00952.1526745,E,2,11,0.8,-1.912,M,40.593,M,2.4,0123*69
$GPVTG,057.82,T,-582.08,M,006.491,N,012.022,K,D*0D
$GPGGA,093526.80,5703.3864696,N,00952.1528158,E,2,11,0.8,-1.916,M,40.593,M,2.4,0123*68
$GPVTG,057.82,T,-582.08,M,006.542,N,012.116,K,D*04
$GPGGA,093526.85,5703.3865166,N,00952.1529570,E,2,11,0.8,-1.920,M,40.593,M,2.7,0123*6D
$GPVTG,058.17,T,-581.73,M,006.546,N,012.124,K,D*0D
$GPGGA,093526.90,5703.3865636,N,00952.1530994,E,2,11,0.8,-1.927,M,40.593,M,2.7,0123*62
$GPVTG,058.53,T,-581.37,M,006.564,N,012.157,K,D*09
$GPGGA,093526.95,5703.3866110,N,00952.1532426,E,2,11,0.8,-1.933,M,40.593,M,2.7,0123*64
$GPVTG,058.72,T,-581.18,M,006.593,N,012.210,K,D*0F
$GPGGA,093527.00,5703.3866595,N,00952.1533843,E,2,11,0.8,-1.935,M,40.593,M,2.7,0123*68
$GPVTG,058.42,T,-581.48,M,006.600,N,012.222,K,D*01
$GPGGA,093527.05,5703.3867073,N,00952.1535241,E,2,11,0.8,-1.932,M,40.593,M,1.6,0123*6A
$GPVTG,058.28,T,-581.62,M,006.550,N,012.131,K,D*02
$GPGGA,093527.10,5703.3867541,N,00952.1536627,E,2,11,0.8,-1.930,M,40.593,M,1.6,0123*6F
$GPVTG,058.20,T,-581.70,M,006.479,N,012.000,K,D*00
$GPGGA,093527.15,5703.3868011,N,00952.1538027,E,2,11,0.8,-1.929,M,40.593,M,1.6,0123*65
$GPVTG,058.27,T,-581.63,M,006.459,N,011.963,K,D*08
$GPGGA,093527.20,5703.3868486,N,00952.1539416,E,2,11,0.8,-1.926,M,40.593,M,1.6,0123*61
$GPVTG,058.08,T,-581.82,M,006.439,N,011.925,K,D*0E
$GPGGA,093527.25,5703.3868963,N,00952.1540775,E,2,11,0.8,-1.921,M,40.593,M,1.8,0123*63
$GPVTG,057.62,T,-582.28,M,006.379,N,011.814,K,D*0E
$GPGGA,093527.30,5703.3869421,N,00952.1542127,E,2,11,0.8,-1.911,M,40.593,M,1.8,0123*6D
$GPVTG,057.70,T,-582.20,M,006.299,N,011.665,K,D*02
$GPGGA,093527.35,5703.3869891,N,00952.1543504,E,2,11,0.8,-1.906,M,40.593,M,1.8,0123*6D
$GPVTG,057.77,T,-582.13,M,006.313,N,011.691,K,D*0D
$GPGGA,093527.40,5703.3870361,N,00952.1544885,E,2,11,0.8,-1.903,M,40.593,M,1.8,0123*65
$GPVTG,057.86,T,-582.04,M,006.339,N,011.740,K,D*00
$GPGGA,093527.45,5703.3870835,N,00952.1546291,E,2,11,0.8,-1.902,M,40.593,M,2.0,0123*6D
$GPVTG,058.10,T,-581.80,M,006.412,N,011.875,K,D*08
$GPGGA,093527.50,5703.3871316,N,00952.1547729,E,2,11,0.8,-1.907,M,40.593,M,2.0,0123*60
$GPVTG,058.38,T,-581.52,M,006.533,N,012.098,K,D*07
$GPGGA,093527.55,5703.3871805,N,00952.1549171,E,2,11,0.8,-1.917,M,40.593,M,2.0,0123*68
$GPVTG,058.35,T,-581.55,M,006.633,N,012.284,K,D*01
$GPGGA,093527.60,5703.3872297,N,00952.1550606,E,2,11,0.8,-1.927,M,40.593,M,2.0,0123*60
$GPVTG,058.17,T,-581.73,M,006.686,N,012.382,K,D*0C
$GPGGA,093527.65,5703.3872791,N,00952.1552005,E,2,11,0.8,-1.931,M,40.593,M,2.3,0123*65
$GPVTG,057.64,T,-582.26,M,006.654,N,012.324,K,D*07
$GPGGA,093527.70,5703.3873283,N,00952.1553393,E,2,11,0.8,-1.932,M,40.593,M,2.3,0123*68
$GPVTG,057.19,T,-582.71,M,006.601,N,012.225,K,D*0F
$GPGGA,093527.75,5703.3873743,N,00952.1554801,E,2,11,0.8,-1.933,M,40.593,M,2.3,0123*62
$GPVTG,057.89,T,-582.01,M,006.538,N,012.108,K,D*04
$GPGGA,093527.80,5703.3874208,N,00952.1556201,E,2,11,0.8,-1.933,M,40.593,M,2.3,0123*6D
$GPVTG,058.22,T,-581.68,M,006.487,N,012.015,K,D*0E
$GPGGA,093527.85,5703.3874680,N,00952.1557591,E,2,11,0.8,-1.931,M,40.593,M,2.5,0123*67
$GPVTG,058.23,T,-581.67,M,006.448,N,011.942,K,D*0B
$GPGGA,093527.90,5703.3875165,N,00952.1558985,E,2,11,0.8,-1.932,M,40.593,M,2.5,0123*6B
$GPVTG,057.90,T,-582.00,M,006.455,N,011.954,K,D*05
$GPGGA,093527.95,5703.3875634,N,00952.1560382,E,2,11,0.8,-1.934,M,40.593,M,2.5,0123*6D
$GPVTG,058.10,T,-581.80,M,006.443,N,011.932,K,D*0E
$GPGGA,093528.00,5703.3876103,N,00952.1561780,E,2,11,0.8,-1.931,M,40.593,M,2.5,0123*6C
$GPVTG,058.26,T,-581.64,M,006.440,N,011.926,K,D*07
$GPGGA,093528.05,5703.3876564,N,00952.1563189,E,2,11,0.8,-1.927,M,40.593,M,2.7,0123*64
$GPVTG,058.76,T,-581.14,M,006.440,N,011.928,K,D*0B
$GPGGA,093528.10,5703.3877016,N,00952.1564580,E,2,11,0.8,-1.923,M,40.593,M,2.7,0123*6F
$GPVTG,059.07,T,-580.83,M,006.399,N,011.851,K,D*0F
$GPGGA,093528.15,5703.3877459,N,00952.1565954,E,2,11,0.8,-1.918,M,40.593,M,2.7,0123*69
$GPVTG,059.37,T,-580.53,M,006.326,N,011.715,K,D*0A
$GPGGA,093528.20,5703.3877902,N,00952.1567294,E,2,11,0.8,-1.909,M,40.593,M,2.7,0123*69
$GPVTG,059.19,T,-580.71,M,006.217,N,011.514,K,D*06
$GPGGA,093528.25,5703.3878365,N,00952.1568661,E,2,11,0.8,-1.896,M,40.593,M,2.9,0123*60
$GPVTG,058.81,T,-581.09,M,006.231,N,011.539,K,D*03
$GPGGA,093528.30,5703.3878837,N,00952.1570050,E,2,11,0.8,-1.890,M,40.593,M,2.9,0123*63
$GPVTG,058.50,T,-581.40,M,006.307,N,011.681,K,D*06
$GPGGA,093528.35,5703.3879321,N,00952.1571465,E,2,11,0.8,-1.891,M,40.593,M,2.9,0123*69
$GPVTG,058.23,T,-581.67,M,006.433,N,011.913,K,D*03
$GPGGA,093528.40,5703.3879810,N,00952.1572890,E,2,11,0.8,-1.899,M,40.593,M,2.9,0123*6F
$GPVTG,057.98,T,-581.92,M,006.545,N,012.122,K,D*0F
$GPGGA,093528.45,5703.3880309,N,00952.1574318,E,2,11,0.8,-1.906,M,40.593,M,3.1,0123*6C
$GPVTG,057.62,T,-582.28,M,006.641,N,012.300,K,D*0D
$GPGGA,093528.50,5703.3880802,N,00952.1575735,E,2,11,0.8,-1.916,M,40.593,M,3.1,0123*63
$GPVTG,057.40,T,-582.50,M,006.670,N,012.352,K,D*07
$GPGGA,093528.55,5703.3881304,N,00952.1577161,E,2,11,0.8,-1.924,M,40.593,M,3.1,0123*6E
$GPVTG,057.14,T,-582.76,M,006.709,N,012.425,K,D*0A
$GPGGA,093528.60,5703.3881810,N,00952.1578591,E,2,11,0.8,-1.934,M,40.593,M,3.1,0123*63
$GPVTG,056.91,T,-582.99,M,006.742,N,012.486,K,D*01
$GPGGA,093528.65,5703.3882289,N,00952.1580025,E,2,11,0.8,-1.947,M,40.593,M,3.3,0123*64
$GPVTG,057.47,T,-582.43,M,006.717,N,012.440,K,D*06
$GPGGA,093528.70,5703.3882748,N,00952.1581456,E,2,11,0.8,-1.952,M,40.593,M,3.3,0123*6D
$GPVTG,058.37,T,-581.53,M,006.646,N,012.309,K,D*03
$GPGGA,093528.75,5703.3883180,N,00952.1582866,E,2,11,0.8,-1.951,M,40.593,M,3.3,0123*64
$GPVTG,059.49,T,-580.41,M,006.511,N,012.059,K,D*0E
$GPGGA,093528.80,5703.3883613,N,00952.1584188,E,2,11,0.8,-1.938,M,40.593,M,3.3,0123*63
$GPVTG,059.45,T,-580.45,M,006.260,N,011.594,K,D*00
$GPGGA,093528.85,5703.3884044,N,00952.1585478,E,2,11,0.8,-1.923,M,40.593,M,3.5,0123*62
$GPVTG,059.12,T,-580.78,M,006.035,N,011.177,K,D*07
$GPGGA,093528.90,5703.3884495,N,00952.1586816,E,2,11,0.8,-1.908,M,40.593,M,3.5,0123*60
$GPVTG,058.85,T,-581.05,M,006.020,N,011.149,K,D*0A
$GPGGA,093528.95,5703.3884964,N,00952.1588173,E,2,11,0.8,-1.899,M,40.593,M,3.5,0123*6B
$GPVTG,058.35,T,-581.55,M,006.097,N,011.291,K,D*0E
$GPGGA,093529.00,5703.3885441,N,00952.1589572,E,2,11,0.8,-1.894,M,40.593,M,3.5,0123*64
$GPVTG,058.21,T,-581.69,M,006.257,N,011.588,K,D*05
$GPGGA,093529.05,5703.3885901,N,00952.1590994,E,2,11,0.8,-1.892,M,40.593,M,2.1,0123*67
$GPVTG,058.86,T,-581.04,M,006.379,N,011.813,K,D*01
$GPGGA,093529.10,5703.3886360,N,00952.1592428,E,2,11,0.8,-1.899,M,40.593,M,2.1,0123*6E
$GPVTG,059.32,T,-580.58,M,006.488,N,012.017,K,D*01
$GPGGA,093529.15,5703.3886837,N,00952.1593873,E,2,11,0.8,-1.905,M,40.593,M,2.1,0123*65
$GPVTG,059.27,T,-580.63,M,006.602,N,012.227,K,D*0C
$GPGGA,093529.20,5703.3887322,N,00952.1595326,E,2,11,0.8,-1.914,M,40.593,M,2.1,0123*60
$GPVTG,059.02,T,-580.88,M,006.698,N,012.404,K,D*0A
$GPGGA,093529.25,5703.3887800,N,00952.1596769,E,2,11,0.8,-1.927,M,40.593,M,2.3,0123*60
$GPVTG,058.89,T,-581.01,M,006.725,N,012.456,K,D*08
$GPGGA,093529.30,5703.3888292,N,00952.1598209,E,2,11,0.8,-1.941,M,40.593,M,2.3,0123*67
$GPVTG,058.41,T,-581.49,M,006.747,N,012.495,K,D*0B
$GPGGA,093529.35,5703.3888787,N,00952.1599670,E,2,11,0.8,-1.954,M,40.593,M,2.3,0123*6C
$GPVTG,058.19,T,-581.71,M,006.793,N,012.581,K,D*00
$GPGGA,093529.40,5703.3889277,N,00952.1601114,E,2,11,0.8,-1.963,M,40.593,M,2.3,0123*66
$GPVTG,058.01,T,-581.89,M,006.776,N,012.548,K,D*00
$GPGGA,093529.45,5703.3889754,N,00952.1602477,E,2,11,0.8,-1.960,M,40.593,M,2.6,0123*62
$GPVTG,057.44,T,-582.46,M,006.594,N,012.211,K,D*0B
$GPGGA,093529.50,5703.3890199,N,00952.1603747,E,2,11,0.8,-1.945,M,40.593,M,2.6,0123*6F
$GPVTG,056.94,T,-582.96,M,006.245,N,011.565,K,D*06
$GPGGA,093529.55,5703.3890644,N,00952.1605045,E,2,11,0.8,-1.932,M,40.593,M,2.6,0123*6E
$GPVTG,057.03,T,-582.87,M,006.062,N,011.227,K,D*0F
$GPGGA,093529.60,5703.3891086,N,00952.1606422,E,2,11,0.8,-1.924,M,40.593,M,2.6,0123*60
$GPVTG,058.11,T,-581.79,M,006.089,N,011.277,K,D*01
$GPGGA,093529.65,5703.3891527,N,00952.1607830,E,2,11,0.8,-1.915,M,40.593,M,2.9,0123*68
$GPVTG,059.22,T,-580.68,M,006.182,N,011.450,K,D*08
$GPGGA,093529.70,5703.3891982,N,00952.1609250,E,2,11,0.8,-1.912,M,40.593,M,2.9,0123*6A
$GPVTG,059.70,T,-580.20,M,006.307,N,011.680,K,D*03
$GPGGA,093529.75,5703.3892445,N,00952.1610681,E,2,11,0.8,-1.912,M,40.593,M,2.9,0123*6A
$GPVTG,059.87,T,-580.03,M,006.429,N,011.906,K,D*00
$GPGGA,093529.80,5703.3892915,N,00952.1612122,E,2,11,0.8,-1.914,M,40.593,M,2.9,0123*62
$GPVTG,059.78,T,-580.12,M,006.538,N,012.109,K,D*05
$GPGGA,093529.85,5703.3893390,N,00952.1613551,E,2,11,0.8,-1.911,M,40.593,M,3.1,0123*6C
$GPVTG,059.47,T,-580.43,M,006.589,N,012.203,K,D*0E
$GPGGA,093529.90,5703.3893862,N,00952.1614996,E,2,11,0.8,-1.916,M,40.593,M,3.1,0123*69
$GPVTG,059.35,T,-580.55,M,006.642,N,012.301,K,D*0B
$GPGGA,093529.95,5703.3894353,N,00952.1616442,E,2,11,0.8,-1.921,M,40.593,M,3.1,0123*60
$GPVTG,058.81,T,-581.09,M,006.705,N,012.417,K,D*0F
$GPGGA,093530.00,5703.3894838,N,00952.1617874,E,2,11,0.8,-1.929,M,40.593,M,3.1,0123*62
$GPVTG,058.41,T,-581.49,M,006.701,N,012.411,K,D*05
$GPGGA,093530.05,5703.3895334,N,00952.1619324,E,2,11,0.8,-1.946,M,40.593,M,1.7,0123*6C
$GPVTG,058.09,T,-581.81,M,006.749,N,012.499,K,D*01
$GPGGA,093530.10,5703.3895830,N,00952.1620794,E,2,11,0.8,-1.956,M,40.593,M,1.7,0123*63
$GPVTG,058.01,T,-581.89,M,006.804,N,012.601,K,D*04
$GPGGA,093530.15,5703.3896331,N,00952.1622197,E,2,11,0.8,-1.962,M,40.593,M,1.7,0123*6F
$GPVTG,057.24,T,-582.66,M,006.728,N,012.460,K,D*0A
$GPGGA,093530.20,5703.3896800,N,00952.1623558,E,2,11,0.8,-1.960,M,40.593,M,1.7,0123*64
$GPVTG,057.10,T,-582.80,M,006.540,N,012.112,K,D*09
$GPGGA,093530.25,5703.3897265,N,00952.1624882,E,2,11,0.8,-1.945,M,40.593,M,1.9,0123*6D
$GPVTG,056.85,T,-583.05,M,006.332,N,011.727,K,D*08
$GPGGA,093530.30,5703.3897736,N,00952.1626230,E,2,11,0.8,-1.937,M,40.593,M,1.9,0123*6E
$GPVTG,056.84,T,-583.06,M,006.258,N,011.590,K,D*09
$GPGGA,093530.35,5703.3898207,N,00952.1627615,E,2,11,0.8,-1.926,M,40.593,M,1.9,0123*61
$GPVTG,057.30,T,-582.60,M,006.286,N,011.641,K,D*0A
$GPGGA,093530.40,5703.3898671,N,00952.1629003,E,2,11,0.8,-1.918,M,40.593,M,1.9,0123*64
$GPVTG,057.85,T,-582.05,M,006.310,N,011.686,K,D*02
$GPGGA,093530.45,5703.3899135,N,00952.1630387,E,2,11,0.8,-1.912,M,40.593,M,2.2,0123*62
$GPVTG,058.21,T,-581.69,M,006.329,N,011.722,K,D*0F
$GPGGA,093530.50,5703.3899592,N,00952.1631789,E,2,11,0.8,-1.908,M,40.593,M,2.2,0123*6F
$GPVTG,058.80,T,-581.10,M,006.367,N,011.791,K,D*08
$GPGGA,093530.55,5703.3900052,N,00952.1633226,E,2,11,0.8,-1.906,M,40.593,M,2.2,0123*6E
$GPVTG,059.42,T,-580.48,M,006.461,N,011.966,K,D*0C
$GPGGA,093530.60,5703.3900516,N,00952.1634693,E,2,11,0.8,-1.910,M,40.593,M,2.2,0123*67
$GPVTG,059.95,T,-579.95,M,006.585,N,012.195,K,D*0C
$GPGGA,093530.65,5703.3900970,N,00952.1636157,E,2,11,0.8,-1.920,M,40.593,M,2.4,0123*66
$GPVTG,060.44,T,-579.46,M,006.642,N,012.302,K,D*00
$GPGGA,093530.70,5703.3901443,N,00952.1637609,E,2,11,0.8,-1.927,M,40.593,M,2.4,0123*64
$GPVTG,060.12,T,-579.78,M,006.678,N,012.368,K,D*0B
$GPGGA,093530.75,5703.3901916,N,00952.1639043,E,2,11,0.8,-1.930,M,40.593,M,2.4,0123*6C
$GPVTG,059.65,T,-580.25,M,006.665,N,012.344,K,D*0D
$GPGGA,093530.80,5703.3902386,N,00952.1640452,E,2,11,0.8,-1.930,M,40.593,M,2.4,0123*6C
$GPVTG,059.14,T,-580.76,M,006.595,N,012.213,K,D*02
$GPGGA,093530.85,5703.3902865,N,00952.1641832,E,2,11,0.8,-1.925,M,40.593,M,2.7,0123*63
$GPVTG,058.28,T,-581.62,M,006.508,N,012.053,K,D*0A
$GPGGA,093530.90,5703.3903337,N,00952.1643203,E,2,11,0.8,-1.922,M,40.593,M,2.7,0123*67
$GPVTG,057.77,T,-582.13,M,006.426,N,011.900,K,D*0B
$GPGGA,093530.95,5703.3903821,N,00952.1644575,E,2,11,0.8,-1.920,M,40.593,M,2.7,0123*6D
$GPVTG,057.19,T,-582.71,M,006.398,N,011.850,K,D*01
$GPGGA,093531.00,5703.3904288,N,00952.1645946,E,2,11,0.8,-1.918,M,40.593,M,2.7,0123*68
$GPVTG,057.25,T,-582.65,M,006.357,N,011.772,K,D*07
$GPGGA,093531.05,5703.3904764,N,00952.1647331,E,2,11,0.8,-1.914,M,40.593,M,1.6,0123*6C
$GPVTG,057.42,T,-582.48,M,006.368,N,011.794,K,D*0D
$GPGGA,093531.10,5703.3905239,N,00952.1648746,E,2,11,0.8,-1.916,M,40.593,M,1.6,0123*6D
$GPVTG,057.78,T,-582.12,M,006.440,N,011.926,K,D*01
$GPGGA,093531.15,5703.3905709,N,00952.1650164,E,2,11,0.8,-1.921,M,40.593,M,1.6,0123*65
$GPVTG,058.21,T,-581.69,M,006.488,N,012.015,K,D*03
$GPGGA,093531.20,5703.3906187,N,00952.1651593,E,2,11,0.8,-1.923,M,40.593,M,1.6,0123*6F
$GPVTG,058.41,T,-581.49,M,006.552,N,012.134,K,D*03
$GPGGA,093531.25,5703.3906668,N,00952.1653007,E,2,11,0.8,-1.930,M,40.593,M,1.8,0123*6A
$GPVTG,058.27,T,-581.63,M,006.576,N,012.178,K,D*05
$GPGGA,093531.30,5703.3907123,N,00952.1654396,E,2,11,0.8,-1.930,M,40.593,M,1.8,0123*6B
$GPVTG,058.61,T,-581.29,M,006.492,N,012.024,K,D*0A
$GPGGA,093531.35,5703.3907565,N,00952.1655778,E,2,11,0.8,-1.925,M,40.593,M,1.8,0123*69
$GPVTG,059.10,T,-580.80,M,006.397,N,011.846,K,D*02
$GPGGA,093531.40,5703.3908001,N,00952.1657170,E,2,11,0.8,-1.920,M,40.593,M,1.8,0123*6A
$GPVTG,059.71,T,-580.19,M,006.338,N,011.739,K,D*07
$GPGGA,093531.45,5703.3908452,N,00952.1658573,E,2,11,0.8,-1.917,M,40.593,M,2.0,0123*6A
$GPVTG,059.85,T,-580.05,M,006.346,N,011.753,K,D*04
$GPGGA,093531.50,5703.3908893,N,00952.1659973,E,2,11,0.8,-1.916,M,40.593,M,2.0,0123*63
$GPVTG,060.10,T,-579.80,M,006.337,N,011.736,K,D*0C
$GPGGA,093531.55,5703.3909341,N,00952.1661364,E,2,11,0.8,-1.911,M,40.593,M,2.0,0123*63
$GPVTG,059.98,T,-579.92,M,006.326,N,011.716,K,D*07
$GPGGA,093531.60,5703.3909802,N,00952.1662730,E,2,11,0.8,-1.907,M,40.593,M,2.0,0123*68
$GPVTG,059.25,T,-580.65,M,006.304,N,011.676,K,D*08
$GPGGA,093531.65,5703.3910278,N,00952.1664098,E,2,11,0.8,-1.905,M,40.593,M,2.3,0123*60
$GPVTG,058.35,T,-581.55,M,006.323,N,011.711,K,D*0F
$GPGGA,093531.70,5703.3910738,N,00952.1665501,E,2,11,0.8,-1.910,M,40.593,M,2.3,0123*65
$GPVTG,058.51,T,-581.39,M,006.376,N,011.808,K,D*00
$GPGGA,093531.75,5703.3911207,N,00952.1666929,E,2,11,0.8,-1.916,M,40.593,M,2.3,0123*6B
$GPVTG,058.64,T,-581.26,M,006.472,N,011.987,K,D*0D
$GPGGA,093531.80,5703.3911683,N,00952.1668368,E,2,11,0.8,-1.921,M,40.593,M,2.3,0123*6C
$GPVTG,058.69,T,-581.21,M,006.568,N,012.164,K,D*0B
$GPGGA,093531.85,5703.3912157,N,00952.1669780,E,2,11,0.8,-1.930,M,40.593,M,2.5,0123*61
$GPVTG,058.49,T,-581.41,M,006.578,N,012.182,K,D*06
$GPGGA,093531.90,5703.3912609,N,00952.1671194,E,2,11,0.8,-1.934,M,40.593,M,2.5,0123*67
$GPVTG,058.90,T,-581.00,M,006.542,N,012.116,K,D*03
$GPGGA,093531.95,5703.3913060,N,00952.1672581,E,2,11,0.8,-1.932,M,40.593,M,2.5,0123*6F
$GPVTG,059.01,T,-580.89,M,006.458,N,011.960,K,D*0A
$GPGGA,093532.00,5703.3913512,N,00952.1673949,E,2,11,0.8,-1.929,M,40.593,M,2.5,0123*63
$GPVTG,058.90,T,-581.00,M,006.366,N,011.790,K,D*08
$GPGGA,093532.05,5703.3913952,N,00952.1675330,E,2,11,0.8,-1.928,M,40.593,M,2.7,0123*6F
$GPVTG,059.33,T,-580.57,M,006.308,N,011.682,K,D*09
$GPGGA,093532.10,5703.3914399,N,00952.1676729,E,2,11,0.8,-1.926,M,40.593,M,2.7,0123*60
$GPVTG,059.57,T,-580.33,M,006.318,N,011.702,K,D*01
$GPGGA,093532.15,5703.3914849,N,00952.1678145,E,2,11,0.8,-1.926,M,40.593,M,2.7,0123*61
$GPVTG,059.78,T,-580.12,M,006.366,N,011.789,K,D*05
$GPGGA,093532.20,5703.3915307,N,00952.1679566,E,2,11,0.8,-1.932,M,40.593,M,2.7,0123*66
$GPVTG,059.77,T,-580.13,M,006.424,N,011.896,K,D*0B
$GPGGA,093532.25,5703.3915770,N,00952.1680974,E,2,11,0.8,-1.932,M,40.593,M,2.9,0123*60
$GPVTG,059.46,T,-580.44,M,006.449,N,011.944,K,D*0E
$GPGGA,093532.30,5703.3916230,N,00952.1682372,E,2,11,0.8,-1.932,M,40.593,M,2.9,0123*68
$GPVTG,059.17,T,-580.73,M,006.444,N,011.934,K,D*04
$GPGGA,093532.35,5703.3916678,N,00952.1683782,E,2,11,0.8,-1.936,M,40.593,M,2.9,0123*6B
$GPVTG,059.40,T,-580.50,M,006.438,N,011.923,K,D*0A
$GPGGA,093532.40,5703.3917129,N,00952.1685219,E,2,11,0.8,-1.936,M,40.593,M,2.9,0123*6A
$GPVTG,059.75,T,-580.15,M,006.486,N,012.013,K,D*01
$GPGGA,093532.45,5703.3917586,N,00952.1686630,E,2,11,0.8,-1.935,M,40.593,M,3.1,0123*68
$GPVTG,059.60,T,-580.30,M,006.478,N,011.998,K,D*0A
$GPGGA,093532.50,5703.3918026,N,00952.1688026,E,2,11,0.8,-1.933,M,40.593,M,3.1,0123*65
$GPVTG,059.77,T,-580.13,M,006.417,N,011.884,K,D*08