$GPGGA,103825.90,5703.2894556,N,00952.3636379,E,2,11,0.9,-1.742,M,40.593,M,2.5,0123*6E\r\n
$GPGGA,103825.95,5703.2894546,N,00952.3636367,E,2,11,0.9,-1.742,M,40.593,M,2.5,0123*65\r\n
$GPGGA,103826.00,5703.2894539,N,00952.3636358,E,2,11,0.9,-1.742,M,40.593,M,2.5,0123*6E\r\n
$GPGGA,103826.05,5703.2894536,N,00952.3636340,E,2,11,0.9,-1.737,M,40.593,M,2.7,0123*6D\r\n
$GPGGA,103826.10,5703.2894529,N,00952.3636328,E,2,11,0.9,-1.737,M,40.593,M,2.7,0123*69\r\n
$GPGGA,103826.15,5703.2894520,N,00952.3636318,E,2,11,0.9,-1.737,M,40.593,M,2.7,0123*66\r\n
$GPGGA,103826.20,5703.2894511,N,00952.3636309,E,2,11,0.9,-1.737,M,40.593,M,2.7,0123*62\r\n
$GPGGA,103826.25,5703.2894492,N,00952.3636286,E,2,11,0.9,-1.739,M,40.593,M,2.2,0123*60\r\n
$GPGGA,103826.30,5703.2894484,N,00952.3636272,E,2,11,0.9,-1.739,M,40.593,M,2.2,0123*68\r\n
$GPGGA,103826.35,5703.2894476,N,00952.3636261,E,2,11,0.9,-1.738,M,40.593,M,2.2,0123*63\r\n
$GPGGA,103826.40,5703.2894465,N,00952.3636249,E,2,11,0.9,-1.738,M,40.593,M,2.2,0123*69\r\n
$GPGGA,103826.45,5703.2894451,N,00952.3636225,E,2,11,0.9,-1.740,M,40.593,M,2.4,0123*68\r\n
$GPGGA,103826.50,5703.2894441,N,00952.3636210,E,2,11,0.9,-1.740,M,40.593,M,2.4,0123*6B\r\n
$GPGGA,103826.55,5703.2894433,N,00952.3636198,E,2,11,0.9,-1.740,M,40.593,M,2.4,0123*68\r\n
$GPGGA,103826.60,5703.2894422,N,00952.3636189,E,2,11,0.9,-1.739,M,40.593,M,2.4,0123*60\r\n
$GPGGA,103826.65,5703.2894415,N,00952.3636183,E,2,11,0.9,-1.740,M,40.593,M,2.6,0123*67\r\n
$GPGGA,103826.70,5703.2894404,N,00952.3636170,E,2,11,0.9,-1.740,M,40.593,M,2.6,0123*6F\r\n
$GPGGA,103826.75,5703.2894394,N,00952.3636155,E,2,11,0.9,-1.740,M,40.593,M,2.6,0123*63\r\n
$GPGGA,103826.80,5703.2894385,N,00952.3636148,E,2,11,0.9,-1.740,M,40.593,M,2.6,0123*65\r\n
$GPGGA,103826.85,5703.2894377,N,00952.3636140,E,2,11,0.9,-1.737,M,40.593,M,2.9,0123*6A\r\n
$GPGGA,103826.90,5703.2894371,N,00952.3636129,E,2,11,0.9,-1.737,M,40.593,M,2.9,0123*67\r\n
$GPGGA,103826.95,5703.2894360,N,00952.3636114,E,2,11,0.9,-1.737,M,40.593,M,2.9,0123*6C\r\n
$GPGGA,103827.00,5703.2894353,N,00952.3636101,E,2,11,0.9,-1.737,M,40.593,M,2.9,0123*65\r\n
$GPGGA,103827.05,5703.2894369,N,00952.3636086,E,2,11,0.9,-1.730,M,40.593,M,3.1,0123*69\r\n
$GPGGA,103827.10,5703.2894360,N,00952.3636074,E,2,11,0.9,-1.730,M,40.593,M,3.1,0123*69\r\n
$GPGGA,103827.15,5703.2894349,N,00952.3636063,E,2,11,0.9,-1.730,M,40.593,M,3.1,0123*61\r\n
$GPGGA,103827.20,5703.2894342,N,00952.3636052,E,2,11,0.9,-1.729,M,40.593,M,3.1,0123*66\r\n
$GPGGA,103827.25,5703.2894327,N,00952.3636048,E,2,11,0.9,-1.730,M,40.593,M,3.3,0123*61\r\n
$GPGGA,103827.30,5703.2894317,N,00952.3636032,E,2,11,0.9,-1.730,M,40.593,M,3.3,0123*6B\r\n
$GPGGA,103827.35,5703.2894308,N,00952.3636020,E,2,11,0.9,-1.730,M,40.593,M,3.3,0123*63\r\n
$GPGGA,103827.40,5703.2894297,N,00952.3636008,E,2,11,0.9,-1.729,M,40.593,M,3.3,0123*64\r\n
$GPGGA,103827.45,5703.2894275,N,00952.3635980,E,2,11,0.9,-1.732,M,40.593,M,3.5,0123*6B\r\n
$GPGGA,103827.50,5703.2894266,N,00952.3635964,E,2,11,0.9,-1.731,M,40.593,M,3.5,0123*64\r\n
$GPGGA,103827.55,5703.2894255,N,00952.3635951,E,2,11,0.9,-1.731,M,40.593,M,3.5,0123*67\r\n
$GPGGA,103827.60,5703.2894243,N,00952.3635937,E,2,11,0.9,-1.730,M,40.593,M,3.5,0123*67\r\n
$GPGGA,103827.65,5703.2894227,N,00952.3635915,E,2,11,0.9,-1.733,M,40.593,M,3.7,0123*61\r\n
$GPGGA,103827.70,5703.2894216,N,00952.3635899,E,2,11,0.9,-1.733,M,40.593,M,3.7,0123*62\r\n
$GPGGA,103827.75,5703.2894207,N,00952.3635885,E,2,11,0.9,-1.733,M,40.593,M,3.7,0123*6A\r\n
$GPGGA,103827.80,5703.2894195,N,00952.3635871,E,2,11,0.9,-1.732,M,40.593,M,3.7,0123*62\r\n
$GPGGA,103827.85,5703.2894182,N,00952.3635857,E,2,11,0.9,-1.734,M,40.593,M,3.9,0123*6D\r\n
$GPGGA,103827.90,5703.2894170,N,00952.3635842,E,2,11,0.9,-1.734,M,40.593,M,3.9,0123*60\r\n
$GPGGA,103827.95,5703.2894159,N,00952.3635832,E,2,11,0.9,-1.734,M,40.593,M,3.9,0123*69\r\n
$GPGGA,103828.00,5703.2894148,N,00952.3635821,E,2,11,0.9,-1.734,M,40.593,M,3.9,0123*68\r\n
$GPGGA,103828.05,5703.2894145,N,00952.3635829,E,2,11,0.9,-1.729,M,40.593,M,4.1,0123*6B\r\n
$GPGGA,103828.10,5703.2894135,N,00952.3635814,E,2,11,0.9,-1.729,M,40.593,M,4.1,0123*66\r\n
$GPGGA,103828.15,5703.2894123,N,00952.3635800,E,2,11,0.9,-1.729,M,40.593,M,4.1,0123*61\r\n
$GPGGA,103828.20,5703.2894109,N,00952.3635790,E,2,11,0.9,-1.729,M,40.593,M,4.1,0123*69\r\n
$GPGGA,103828.25,5703.2894096,N,00952.3635778,E,2,11,0.9,-1.731,M,40.593,M,4.3,0123*66\r\n
$GPGGA,103828.30,5703.2894084,N,00952.3635770,E,2,11,0.9,-1.731,M,40.593,M,4.3,0123*69\r\n
$GPGGA,103828.35,5703.2894071,N,00952.3635757,E,2,11,0.9,-1.731,M,40.593,M,4.3,0123*63\r\n
$GPGGA,103828.40,5703.2894058,N,00952.3635742,E,2,11,0.9,-1.731,M,40.593,M,4.3,0123*6E\r\n
$GPGGA,103828.45,5703.2894049,N,00952.3635728,E,2,11,0.9,-1.729,M,40.593,M,2.2,0123*69\r\n
$GPGGA,103828.50,5703.2894038,N,00952.3635717,E,2,11,0.9,-1.729,M,40.593,M,2.2,0123*67\r\n
$GPGGA,103828.55,5703.2894024,N,00952.3635707,E,2,11,0.9,-1.729,M,40.593,M,2.2,0123*6E\r\n
$GPGGA,103828.60,5703.2894010,N,00952.3635692,E,2,11,0.9,-1.729,M,40.593,M,2.2,0123*62\r\n
$GPGGA,103828.65,5703.2893998,N,00952.3635673,E,2,11,0.9,-1.729,M,40.593,M,2.4,0123*60\r\n
$GPGGA,103828.70,5703.2893984,N,00952.3635662,E,2,11,0.9,-1.729,M,40.593,M,2.4,0123*69\r\n
$GPGGA,103828.75,5703.2893974,N,00952.3635646,E,2,11,0.9,-1.729,M,40.593,M,2.4,0123*65\r\n
$GPGGA,103828.80,5703.2893961,N,00952.3635633,E,2,11,0.9,-1.729,M,40.593,M,2.4,0123*69\r\n
$GPGGA,103828.85,5703.2893953,N,00952.3635608,E,2,11,0.9,-1.728,M,40.593,M,2.7,0123*67\r\n
$GPGGA,103828.90,5703.2893941,N,00952.3635590,E,2,11,0.9,-1.728,M,40.593,M,2.7,0123*62\r\n
$GPGGA,103828.95,5703.2893927,N,00952.3635576,E,2,11,0.9,-1.728,M,40.593,M,2.7,0123*6F\r\n
$GPGGA,103829.00,5703.2893917,N,00952.3635565,E,2,11,0.9,-1.728,M,40.593,M,2.7,0123*63\r\n
$GPGGA,103829.05,5703.2893917,N,00952.3635546,E,2,11,0.9,-1.728,M,40.593,M,2.9,0123*69\r\n
$GPGGA,103829.10,5703.2893905,N,00952.3635531,E,2,11,0.9,-1.728,M,40.593,M,2.9,0123*6E\r\n
$GPGGA,103829.15,5703.2893891,N,00952.3635513,E,2,11,0.9,-1.728,M,40.593,M,2.9,0123*67\r\n
$GPGGA,103829.20,5703.2893881,N,00952.3635500,E,2,11,0.9,-1.728,M,40.593,M,2.9,0123*62\r\n
$GPGGA,103829.25,5703.2893879,N,00952.3635488,E,2,11,0.9,-1.725,M,40.593,M,3.1,0123*65\r\n
$GPGGA,103829.30,5703.2893871,N,00952.3635472,E,2,11,0.9,-1.725,M,40.593,M,3.1,0123*6C\r\n
$GPGGA,103829.35,5703.2893859,N,00952.3635458,E,2,11,0.9,-1.725,M,40.593,M,3.1,0123*6B\r\n
$GPGGA,103829.40,5703.2893849,N,00952.3635444,E,2,11,0.9,-1.725,M,40.593,M,3.1,0123*65\r\n
$GPGGA,103829.45,5703.2893846,N,00952.3635435,E,2,11,0.9,-1.727,M,40.593,M,1.1,0123*69\r\n
$GPGGA,103829.50,5703.2893838,N,00952.3635416,E,2,11,0.9,-1.727,M,40.593,M,1.1,0123*65\r\n
$GPGGA,103829.55,5703.2893827,N,00952.3635400,E,2,11,0.9,-1.727,M,40.593,M,1.1,0123*69\r\n
$GPGGA,103829.60,5703.2893816,N,00952.3635380,E,2,11,0.9,-1.727,M,40.593,M,1.1,0123*62\r\n
$GPGGA,103829.65,5703.2893807,N,00952.3635348,E,2,11,0.9,-1.727,M,40.593,M,1.4,0123*66\r\n
$GPGGA,103829.70,5703.2893799,N,00952.3635332,E,2,11,0.9,-1.728,M,40.593,M,1.4,0123*68\r\n
$GPGGA,103829.75,5703.2893788,N,00952.3635314,E,2,11,0.9,-1.728,M,40.593,M,1.4,0123*69\r\n
$GPGGA,103829.80,5703.2893778,N,00952.3635295,E,2,11,0.9,-1.728,M,40.593,M,1.4,0123*64\r\n
$GPGGA,103829.85,5703.2893774,N,00952.3635286,E,2,11,0.9,-1.727,M,40.593,M,1.7,0123*63\r\n
$GPGGA,103829.90,5703.2893765,N,00952.3635267,E,2,11,0.9,-1.727,M,40.593,M,1.7,0123*68\r\n
$GPGGA,103829.95,5703.2893759,N,00952.3635248,E,2,11,0.9,-1.728,M,40.593,M,1.7,0123*60\r\n
$GPGGA,103830.00,5703.2893754,N,00952.3635230,E,2,11,0.9,-1.728,M,40.593,M,1.7,0123*66\r\n
$GPGGA,103830.05,5703.2893760,N,00952.3635210,E,2,11,0.9,-1.728,M,40.593,M,1.9,0123*68\r\n
$GPGGA,103830.10,5703.2893752,N,00952.3635195,E,2,11,0.9,-1.728,M,40.593,M,1.9,0123*63\r\n
$GPGGA,103830.15,5703.2893745,N,00952.3635181,E,2,11,0.9,-1.729,M,40.593,M,1.9,0123*64\r\n
$GPGGA,103830.20,5703.2893734,N,00952.3635161,E,2,11,0.9,-1.729,M,40.593,M,1.9,0123*6A\r\n
$GPGGA,103830.25,5703.2893716,N,00952.3635155,E,2,11,0.9,-1.722,M,40.593,M,2.2,0123*6B\r\n
$GPGGA,103830.30,5703.2893709,N,00952.3635137,E,2,11,0.9,-1.722,M,40.593,M,2.2,0123*65\r\n
$GPGGA,103830.35,5703.2893698,N,00952.3635123,E,2,11,0.9,-1.723,M,40.593,M,2.2,0123*6D\r\n
$GPGGA,103830.40,5703.2893690,N,00952.3635107,E,2,11,0.9,-1.723,M,40.593,M,2.2,0123*61\r\n
$GPGGA,103830.45,5703.2893669,N,00952.3635091,E,2,11,0.9,-1.727,M,40.593,M,2.4,0123*6E\r\n
$GPGGA,103830.50,5703.2893661,N,00952.3635073,E,2,11,0.9,-1.727,M,40.593,M,2.4,0123*6E\r\n
$GPGGA,103830.55,5703.2893653,N,00952.3635057,E,2,11,0.9,-1.727,M,40.593,M,2.4,0123*6C\r\n
$GPGGA,103830.60,5703.2893646,N,00952.3635037,E,2,11,0.9,-1.727,M,40.593,M,2.4,0123*68\r\n
$GPGGA,103830.65,5703.2893649,N,00952.3635016,E,2,11,0.9,-1.729,M,40.593,M,2.6,0123*6D\r\n
$GPGGA,103830.70,5703.2893642,N,00952.3634998,E,2,11,0.9,-1.729,M,40.593,M,2.6,0123*6C\r\n
$GPGGA,103830.75,5703.2893634,N,00952.3634978,E,2,11,0.9,-1.729,M,40.593,M,2.6,0123*66\r\n
$GPGGA,103830.80,5703.2893625,N,00952.3634953,E,2,11,0.9,-1.729,M,40.593,M,2.6,0123*65\r\n
$GPGGA,103830.85,5703.2893616,N,00952.3634911,E,2,11,0.9,-1.728,M,40.593,M,2.9,0123*68\r\n
$GPGGA,103830.90,5703.2893611,N,00952.3634897,E,2,11,0.9,-1.728,M,40.593,M,2.9,0123*64\r\n
$GPGGA,103830.95,5703.2893604,N,00952.3634877,E,2,11,0.9,-1.728,M,40.593,M,2.9,0123*6B\r\n
$GPGGA,103831.00,5703.2893597,N,00952.3634856,E,2,11,0.9,-1.728,M,40.593,M,2.9,0123*6C\r\n
$GPGGA,103831.05,5703.2893595,N,00952.3634852,E,2,11,0.9,-1.723,M,40.593,M,3.1,0123*6D\r\n
$GPGGA,103831.10,5703.2893589,N,00952.3634834,E,2,11,0.9,-1.723,M,40.593,M,3.1,0123*64\r\n
$GPGGA,103831.15,5703.2893582,N,00952.3634812,E,2,11,0.9,-1.723,M,40.593,M,3.1,0123*6E\r\n
$GPGGA,103831.20,5703.2893573,N,00952.3634793,E,2,11,0.9,-1.723,M,40.593,M,3.1,0123*60\r\n
$GPGGA,103831.25,5703.2893560,N,00952.3634766,E,2,11,0.9,-1.727,M,40.593,M,3.3,0123*6B\r\n
$GPGGA,103831.30,5703.2893554,N,00952.3634746,E,2,11,0.9,-1.727,M,40.593,M,3.3,0123*6A\r\n
$GPGGA,103831.35,5703.2893546,N,00952.3634727,E,2,11,0.9,-1.727,M,40.593,M,3.3,0123*6B\r\n
$GPGGA,103831.40,5703.2893539,N,00952.3634707,E,2,11,0.9,-1.727,M,40.593,M,3.3,0123*63\r\n
$GPGGA,103831.45,5703.2893531,N,00952.3634693,E,2,11,0.9,-1.727,M,40.593,M,3.5,0123*64\r\n
$GPGGA,103831.50,5703.2893520,N,00952.3634669,E,2,11,0.9,-1.728,M,40.593,M,3.5,0123*6A\r\n
$GPGGA,103831.55,5703.2893512,N,00952.3634649,E,2,11,0.9,-1.728,M,40.593,M,3.5,0123*6C\r\n
$GPGGA,103831.60,5703.2893509,N,00952.3634626,E,2,11,0.9,-1.728,M,40.593,M,3.5,0123*69\r\n
$GPGGA,103831.65,5703.2893509,N,00952.3634603,E,2,11,0.9,-1.729,M,40.593,M,3.7,0123*68\r\n
$GPGGA,103831.70,5703.2893502,N,00952.3634589,E,2,11,0.9,-1.729,M,40.593,M,3.7,0123*66\r\n
$GPGGA,103831.75,5703.2893496,N,00952.3634567,E,2,11,0.9,-1.729,M,40.593,M,3.7,0123*6F\r\n
$GPGGA,103831.80,5703.2893489,N,00952.3634543,E,2,11,0.9,-1.729,M,40.593,M,3.7,0123*6D\r\n
$GPGGA,103831.85,5703.2893491,N,00952.3634534,E,2,11,0.9,-1.727,M,40.593,M,3.9,0123*61\r\n
$GPGGA,103831.90,5703.2893484,N,00952.3634513,E,2,11,0.9,-1.727,M,40.593,M,3.9,0123*64\r\n
$GPGGA,103831.95,5703.2893480,N,00952.3634495,E,2,11,0.9,-1.727,M,40.593,M,3.9,0123*6A\r\n
$GPGGA,103832.00,5703.2893475,N,00952.3634477,E,2,11,0.9,-1.727,M,40.593,M,3.9,0123*63\r\n
$GPGGA,103832.05,5703.2893482,N,00952.3634458,E,2,11,0.9,-1.723,M,40.593,M,4.1,0123*68\r\n
$GPGGA,103832.10,5703.2893476,N,00952.3634443,E,2,11,0.9,-1.723,M,40.593,M,4.1,0123*6D\r\n
$GPGGA,103832.15,5703.2893469,N,00952.3634423,E,2,11,0.9,-1.723,M,40.593,M,4.1,0123*60\r\n
$GPGGA,103832.20,5703.2893465,N,00952.3634405,E,2,11,0.9,-1.723,M,40.593,M,4.1,0123*6E\r\n
$GPGGA,103832.25,5703.2893449,N,00952.3634393,E,2,11,0.9,-1.725,M,40.593,M,4.3,0123*69\r\n
$GPGGA,103832.30,5703.2893441,N,00952.3634373,E,2,11,0.9,-1.725,M,40.593,M,4.3,0123*6B\r\n
$GPGGA,103832.35,5703.2893435,N,00952.3634355,E,2,11,0.9,-1.725,M,40.593,M,4.3,0123*69\r\n
$GPGGA,103832.40,5703.2893430,N,00952.3634336,E,2,11,0.9,-1.725,M,40.593,M,4.3,0123*6B\r\n
$GPGGA,103832.45,5703.2893409,N,00952.3634299,E,2,11,0.9,-1.727,M,40.593,M,2.2,0123*65\r\n
$GPGGA,103832.50,5703.2893404,N,00952.3634282,E,2,11,0.9,-1.727,M,40.593,M,2.2,0123*66\r\n
$GPGGA,103832.55,5703.2893401,N,00952.3634264,E,2,11,0.9,-1.727,M,40.593,M,2.2,0123*6E\r\n
$GPGGA,103832.60,5703.2893395,N,00952.3634246,E,2,11,0.9,-1.728,M,40.593,M,2.2,0123*6D\r\n
$GPGGA,103832.65,5703.2893406,N,00952.3634227,E,2,11,0.9,-1.726,M,40.593,M,2.4,0123*6A\r\n
$GPGGA,103832.70,5703.2893399,N,00952.3634200,E,2,11,0.9,-1.727,M,40.593,M,2.4,0123*6B\r\n
$GPGGA,103832.75,5703.2893392,N,00952.3634181,E,2,11,0.9,-1.727,M,40.593,M,2.4,0123*6F\r\n
$GPGGA,103832.80,5703.2893388,N,00952.3634161,E,2,11,0.9,-1.726,M,40.593,M,2.4,0123*61\r\n
$GPGGA,103832.85,5703.2893388,N,00952.3634124,E,2,11,0.9,-1.715,M,40.593,M,2.7,0123*66\r\n
$GPGGA,103832.90,5703.2893384,N,00952.3634102,E,2,11,0.9,-1.715,M,40.593,M,2.7,0123*6A\r\n
$GPGGA,103832.95,5703.2893383,N,00952.3634084,E,2,11,0.9,-1.715,M,40.593,M,2.7,0123*67\r\n
$GPGGA,103833.00,5703.2893376,N,00952.3634066,E,2,11,0.9,-1.714,M,40.593,M,2.7,0123*6D\r\n
$GPGGA,103833.05,5703.2893368,N,00952.3634050,E,2,11,0.9,-1.718,M,40.593,M,2.9,0123*60\r\n
$GPGGA,103833.10,5703.2893358,N,00952.3634030,E,2,11,0.9,-1.718,M,40.593,M,2.9,0123*61\r\n
$GPGGA,103833.15,5703.2893351,N,00952.3634020,E,2,11,0.9,-1.717,M,40.593,M,2.9,0123*63\r\n
$GPGGA,103833.20,5703.2893344,N,00952.3634006,E,2,11,0.9,-1.717,M,40.593,M,2.9,0123*65\r\n
$GPGGA,103833.25,5703.2893293,N,00952.3634004,E,2,11,0.9,-1.730,M,40.593,M,3.1,0123*65\r\n
$GPGGA,103833.30,5703.2893291,N,00952.3634004,E,2,11,0.9,-1.729,M,40.593,M,3.1,0123*6B\r\n
$GPGGA,103833.35,5703.2893289,N,00952.3634003,E,2,11,0.9,-1.729,M,40.593,M,3.1,0123*60\r\n
$GPGGA,103833.40,5703.2893287,N,00952.3633995,E,2,11,0.9,-1.729,M,40.593,M,3.1,0123*6D\r\n
$GPGGA,103833.45,5703.2893337,N,00952.3634068,E,2,11,0.9,-1.726,M,40.593,M,2.0,0123*61\r\n
$GPGGA,103833.50,5703.2893338,N,00952.3634064,E,2,11,0.9,-1.725,M,40.593,M,2.0,0123*65\r\n
$GPGGA,103833.55,5703.2893337,N,00952.3634069,E,2,11,0.9,-1.725,M,40.593,M,2.0,0123*62\r\n
$GPGGA,103833.60,5703.2893337,N,00952.3634078,E,2,11,0.9,-1.724,M,40.593,M,2.0,0123*65\r\n
$GPGGA,103833.65,5703.2893345,N,00952.3634088,E,2,11,0.9,-1.726,M,40.593,M,2.3,0123*6B\r\n
$GPGGA,103833.70,5703.2893346,N,00952.3634084,E,2,11,0.9,-1.726,M,40.593,M,2.3,0123*60\r\n
$GPGGA,103833.75,5703.2893347,N,00952.3634089,E,2,11,0.9,-1.725,M,40.593,M,2.3,0123*6A\r\n
$GPGGA,103833.80,5703.2893349,N,00952.3634097,E,2,11,0.9,-1.725,M,40.593,M,2.3,0123*61\r\n
$GPGGA,103833.85,5703.2893364,N,00952.3634090,E,2,11,0.9,-1.726,M,40.593,M,2.5,0123*69\r\n
$GPGGA,103833.90,5703.2893368,N,00952.3634094,E,2,11,0.9,-1.726,M,40.593,M,2.5,0123*65\r\n
$GPGGA,103833.95,5703.2893374,N,00952.3634098,E,2,11,0.9,-1.726,M,40.593,M,2.5,0123*61\r\n
$GPGGA,103834.00,5703.2893378,N,00952.3634107,E,2,11,0.9,-1.725,M,40.593,M,2.5,0123*62\r\n
$GPGGA,103834.05,5703.2893403,N,00952.3634116,E,2,11,0.9,-1.724,M,40.593,M,2.7,0123*6F\r\n
$GPGGA,103834.10,5703.2893411,N,00952.3634125,E,2,11,0.9,-1.724,M,40.593,M,2.7,0123*68\r\n
$GPGGA,103834.15,5703.2893417,N,00952.3634138,E,2,11,0.9,-1.724,M,40.593,M,2.7,0123*67\r\n
$GPGGA,103834.20,5703.2893425,N,00952.3634149,E,2,11,0.9,-1.724,M,40.593,M,2.7,0123*66\r\n
$GPGGA,103834.25,5703.2893441,N,00952.3634166,E,2,11,0.9,-1.721,M,40.593,M,2.9,0123*67\r\n
$GPGGA,103834.30,5703.2893450,N,00952.3634180,E,2,11,0.9,-1.721,M,40.593,M,2.9,0123*6B\r\n
$GPGGA,103834.35,5703.2893461,N,00952.3634195,E,2,11,0.9,-1.720,M,40.593,M,2.9,0123*69\r\n
$GPGGA,103834.40,5703.2893469,N,00952.3634210,E,2,11,0.9,-1.720,M,40.593,M,2.9,0123*6D\r\n
$GPGGA,103834.45,5703.2893468,N,00952.3634206,E,2,11,0.9,-1.729,M,40.593,M,2.4,0123*6A\r\n
$GPGGA,103834.50,5703.2893479,N,00952.3634217,E,2,11,0.9,-1.730,M,40.593,M,2.4,0123*66\r\n
$GPGGA,103834.55,5703.2893490,N,00952.3634229,E,2,11,0.9,-1.730,M,40.593,M,2.4,0123*69\r\n
$GPGGA,103834.60,5703.2893499,N,00952.3634245,E,2,11,0.9,-1.731,M,40.593,M,2.4,0123*6D\r\n
$GPGGA,103834.65,5703.2893505,N,00952.3634245,E,2,11,0.9,-1.723,M,40.593,M,2.6,0123*6D\r\n
$GPGGA,103834.70,5703.2893515,N,00952.3634253,E,2,11,0.9,-1.723,M,40.593,M,2.6,0123*6F\r\n
$GPGGA,103834.75,5703.2893522,N,00952.3634262,E,2,11,0.9,-1.723,M,40.593,M,2.6,0123*6C\r\n
$GPGGA,103834.80,5703.2893531,N,00952.3634270,E,2,11,0.9,-1.723,M,40.593,M,2.6,0123*67\r\n
$GPGGA,103834.85,5703.2893511,N,00952.3634227,E,2,11,0.9,-1.729,M,40.593,M,2.9,0123*67\r\n
$GPGGA,103834.90,5703.2893519,N,00952.3634234,E,2,11,0.9,-1.730,M,40.593,M,2.9,0123*61\r\n
$GPGGA,103834.95,5703.2893529,N,00952.3634243,E,2,11,0.9,-1.730,M,40.593,M,2.9,0123*67\r\n
$GPGGA,103835.00,5703.2893534,N,00952.3634249,E,2,11,0.9,-1.731,M,40.593,M,2.9,0123*6D\r\n
$GPGGA,103835.05,5703.2893539,N,00952.3634243,E,2,11,0.9,-1.729,M,40.593,M,3.1,0123*6F\r\n
$GPGGA,103835.10,5703.2893546,N,00952.3634250,E,2,11,0.9,-1.729,M,40.593,M,3.1,0123*61\r\n
$GPGGA,103835.15,5703.2893556,N,00952.3634257,E,2,11,0.9,-1.730,M,40.593,M,3.1,0123*6A\r\n
$GPGGA,103835.20,5703.2893565,N,00952.3634267,E,2,11,0.9,-1.730,M,40.593,M,3.1,0123*6F\r\n
$GPGGA,103835.25,5703.2893574,N,00952.3634284,E,2,11,0.9,-1.729,M,40.593,M,3.3,0123*6D\r\n
$GPGGA,103835.30,5703.2893583,N,00952.3634294,E,2,11,0.9,-1.730,M,40.593,M,3.3,0123*68\r\n
$GPGGA,103835.35,5703.2893593,N,00952.3634299,E,2,11,0.9,-1.730,M,40.593,M,3.3,0123*61\r\n
$GPGGA,103835.40,5703.2893600,N,00952.3634308,E,2,11,0.9,-1.731,M,40.593,M,3.3,0123*62\r\n
$GPGGA,103835.45,5703.2893616,N,00952.3634313,E,2,11,0.9,-1.726,M,40.593,M,3.5,0123*6A\r\n
$GPGGA,103835.50,5703.2893625,N,00952.3634317,E,2,11,0.9,-1.727,M,40.593,M,3.5,0123*6B\r\n
$GPGGA,103835.55,5703.2893635,N,00952.3634326,E,2,11,0.9,-1.727,M,40.593,M,3.5,0123*6D\r\n
$GPGGA,103835.60,5703.2893643,N,00952.3634335,E,2,11,0.9,-1.727,M,40.593,M,3.5,0123*68\r\n
$GPGGA,103835.65,5703.2893643,N,00952.3634332,E,2,11,0.9,-1.730,M,40.593,M,3.7,0123*6E\r\n
$GPGGA,103835.70,5703.2893652,N,00952.3634344,E,2,11,0.9,-1.730,M,40.593,M,3.7,0123*6B\r\n
$GPGGA,103835.75,5703.2893661,N,00952.3634351,E,2,11,0.9,-1.731,M,40.593,M,3.7,0123*6B\r\n
$GPGGA,103835.80,5703.2893670,N,00952.3634356,E,2,11,0.9,-1.731,M,40.593,M,3.7,0123*66\r\n
$GPGGA,103835.85,5703.2893673,N,00952.3634370,E,2,11,0.9,-1.733,M,40.593,M,3.9,0123*68\r\n
$GPGGA,103835.90,5703.2893680,N,00952.3634375,E,2,11,0.9,-1.733,M,40.593,M,3.9,0123*65\r\n
$GPGGA,103835.95,5703.2893685,N,00952.3634379,E,2,11,0.9,-1.734,M,40.593,M,3.9,0123*6E\r\n
$GPGGA,103836.00,5703.2893694,N,00952.3634386,E,2,11,0.9,-1.734,M,40.593,M,3.9,0123*61\r\n
$GPGGA,103836.05,5703.2893703,N,00952.3634373,E,2,11,0.9,-1.726,M,40.593,M,4.1,0123*6D\r\n
$GPGGA,103836.10,5703.2893711,N,00952.3634378,E,2,11,0.9,-1.726,M,40.593,M,4.1,0123*61\r\n
$GPGGA,103836.15,5703.2893718,N,00952.3634382,E,2,11,0.9,-1.726,M,40.593,M,4.1,0123*68\r\n
$GPGGA,103836.20,5703.2893724,N,00952.3634385,E,2,11,0.9,-1.726,M,40.593,M,4.1,0123*66\r\n
$GPGGA,103836.25,5703.2893719,N,00952.3634380,E,2,11,0.9,-1.732,M,40.593,M,4.3,0123*6F\r\n
$GPGGA,103836.30,5703.2893727,N,00952.3634385,E,2,11,0.9,-1.732,M,40.593,M,4.3,0123*63\r\n
$GPGGA,103836.35,5703.2893734,N,00952.3634387,E,2,11,0.9,-1.733,M,40.593,M,4.3,0123*67\r\n
$GPGGA,103836.40,5703.2893743,N,00952.3634389,E,2,11,0.9,-1.733,M,40.593,M,4.3,0123*6B\r\n
$GPGGA,103836.45,5703.2893766,N,00952.3634397,E,2,11,0.9,-1.730,M,40.593,M,2.2,0123*62\r\n
$GPGGA,103836.50,5703.2893773,N,00952.3634397,E,2,11,0.9,-1.730,M,40.593,M,2.2,0123*62\r\n
$GPGGA,103836.55,5703.2893781,N,00952.3634402,E,2,11,0.9,-1.730,M,40.593,M,2.2,0123*61\r\n
$GPGGA,103836.60,5703.2893787,N,00952.3634410,E,2,11,0.9,-1.730,M,40.593,M,2.2,0123*62\r\n
$GPGGA,103836.65,5703.2893794,N,00952.3634422,E,2,11,0.9,-1.726,M,40.593,M,2.4,0123*65\r\n
$GPGGA,103836.70,5703.2893805,N,00952.3634424,E,2,11,0.9,-1.726,M,40.593,M,2.4,0123*60\r\n
$GPGGA,103836.75,5703.2893815,N,00952.3634423,E,2,11,0.9,-1.726,M,40.593,M,2.4,0123*63\r\n
$GPGGA,103836.80,5703.2893819,N,00952.3634428,E,2,11,0.9,-1.726,M,40.593,M,2.4,0123*6E\r\n
$GPGGA,103836.85,5703.2893822,N,00952.3634428,E,2,11,0.9,-1.731,M,40.593,M,2.7,0123*66\r\n
$GPGGA,103836.90,5703.2893828,N,00952.3634432,E,2,11,0.9,-1.731,M,40.593,M,2.7,0123*63\r\n
$GPGGA,103836.95,5703.2893839,N,00952.3634439,E,2,11,0.9,-1.731,M,40.593,M,2.7,0123*6D\r\n
$GPGGA,103837.00,5703.2893852,N,00952.3634448,E,2,11,0.9,-1.732,M,40.593,M,2.7,0123*68\r\n
$GPGGA,103837.05,5703.2893866,N,00952.3634478,E,2,11,0.9,-1.732,M,40.593,M,2.9,0123*67\r\n
$GPGGA,103837.10,5703.2893871,N,00952.3634478,E,2,11,0.9,-1.732,M,40.593,M,2.9,0123*65\r\n
$GPGGA,103837.15,5703.2893876,N,00952.3634480,E,2,11,0.9,-1.732,M,40.593,M,2.9,0123*60\r\n
$GPGGA,103837.20,5703.2893886,N,00952.3634481,E,2,11,0.9,-1.732,M,40.593,M,2.9,0123*68\r\n
$GPGGA,103837.25,5703.2893883,N,00952.3634459,E,2,11,0.9,-1.723,M,40.593,M,3.1,0123*64\r\n
$GPGGA,103837.30,5703.2893889,N,00952.3634469,E,2,11,0.9,-1.722,M,40.593,M,3.1,0123*68\r\n
$GPGGA,103837.35,5703.2893900,N,00952.3634478,E,2,11,0.9,-1.722,M,40.593,M,3.1,0123*6D\r\n
$GPGGA,103837.40,5703.2893905,N,00952.3634480,E,2,11,0.9,-1.721,M,40.593,M,3.1,0123*6E\r\n
$GPGGA,103837.45,5703.2893914,N,00952.3634513,E,2,11,0.9,-1.727,M,40.593,M,2.0,0123*66\r\n
$GPGGA,103837.50,5703.2893924,N,00952.3634522,E,2,11,0.9,-1.726,M,40.593,M,2.0,0123*62\r\n
$GPGGA,103837.55,5703.2893931,N,00952.3634525,E,2,11,0.9,-1.726,M,40.593,M,2.0,0123*64\r\n
$GPGGA,103837.60,5703.2893935,N,00952.3634534,E,2,11,0.9,-1.726,M,40.593,M,2.0,0123*66\r\n
$GPGGA,103837.65,5703.2893928,N,00952.3634528,E,2,11,0.9,-1.728,M,40.593,M,2.3,0123*6F\r\n
$GPGGA,103837.70,5703.2893933,N,00952.3634536,E,2,11,0.9,-1.728,M,40.593,M,2.3,0123*6E\r\n
$GPGGA,103837.75,5703.2893937,N,00952.3634536,E,2,11,0.9,-1.728,M,40.593,M,2.3,0123*6F\r\n
$GPGGA,103837.80,5703.2893946,N,00952.3634545,E,2,10,0.9,-1.728,M,40.593,M,2.3,0123*66\r\n
$GPGGA,103837.85,5703.2893929,N,00952.3634546,E,2,10,0.9,-1.733,M,40.593,M,2.5,0123*65\r\n
$GPGGA,103837.90,5703.2893933,N,00952.3634554,E,2,10,0.9,-1.733,M,40.593,M,2.5,0123*69\r\n
$GPGGA,103837.95,5703.2893939,N,00952.3634568,E,2,10,0.9,-1.733,M,40.593,M,2.5,0123*69\r\n
$GPGGA,103838.00,5703.2893942,N,00952.3634578,E,2,10,0.9,-1.733,M,40.593,M,2.5,0123*67\r\n
$GPGGA,103838.05,5703.2893950,N,00952.3634604,E,2,10,0.9,-1.735,M,40.593,M,2.7,0123*6D\r\n
$GPGGA,103838.10,5703.2893953,N,00952.3634605,E,2,10,0.9,-1.736,M,40.593,M,2.7,0123*68\r\n
$GPGGA,103838.15,5703.2893955,N,00952.3634621,E,2,10,0.9,-1.736,M,40.593,M,2.7,0123*6D\r\n
$GPGGA,103838.20,5703.2893964,N,00952.3634640,E,2,10,0.9,-1.737,M,40.593,M,2.7,0123*6F\r\n
$GPGGA,103838.25,5703.2893984,N,00952.3634641,E,2,10,0.9,-1.727,M,40.593,M,2.9,0123*6A\r\n
$GPGGA,103838.30,5703.2893986,N,00952.3634651,E,2,10,0.9,-1.727,M,40.593,M,2.9,0123*6D\r\n
$GPGGA,103838.35,5703.2893991,N,00952.3634655,E,2,10,0.9,-1.727,M,40.593,M,2.9,0123*6A\r\n
$GPGGA,103838.40,5703.2894001,N,00952.3634657,E,2,10,0.9,-1.727,M,40.593,M,2.9,0123*6D\r\n
$GPGGA,103838.45,5703.2894018,N,00952.3634632,E,2,11,0.9,-1.732,M,40.593,M,2.4,0123*6B\r\n
$GPGGA,103838.50,5703.2894017,N,00952.3634644,E,2,11,0.9,-1.732,M,40.593,M,2.4,0123*61\r\n
$GPGGA,103838.55,5703.2894018,N,00952.3634647,E,2,11,0.9,-1.732,M,40.593,M,2.4,0123*68\r\n
$GPGGA,103838.60,5703.2894024,N,00952.3634640,E,2,11,0.9,-1.733,M,40.593,M,2.4,0123*67\r\n
$GPGGA,103838.65,5703.2894018,N,00952.3634626,E,2,11,0.9,-1.730,M,40.593,M,2.6,0123*6C\r\n
$GPGGA,103838.70,5703.2894023,N,00952.3634634,E,2,11,0.9,-1.730,M,40.593,M,2.6,0123*63\r\n
$GPGGA,103838.75,5703.2894028,N,00952.3634645,E,2,11,0.9,-1.730,M,40.593,M,2.6,0123*6B\r\n
$GPGGA,103838.80,5703.2894033,N,00952.3634657,E,2,11,0.9,-1.730,M,40.593,M,2.6,0123*68\r\n
$GPGGA,103838.85,5703.2894061,N,00952.3634703,E,2,11,0.9,-1.726,M,40.593,M,2.9,0123*62\r\n
$GPGGA,103838.90,5703.2894065,N,00952.3634706,E,2,11,0.9,-1.726,M,40.593,M,2.9,0123*67\r\n
$GPGGA,103838.95,5703.2894069,N,00952.3634713,E,2,11,0.9,-1.726,M,40.593,M,2.9,0123*6A\r\n
$GPGGA,103839.00,5703.2894075,N,00952.3634721,E,2,11,0.9,-1.726,M,40.593,M,2.9,0123*6B\r\n
$GPGGA,103839.05,5703.2894079,N,00952.3634703,E,2,11,0.9,-1.728,M,40.593,M,3.1,0123*65\r\n
$GPGGA,103839.10,5703.2894087,N,00952.3634715,E,2,11,0.9,-1.728,M,40.593,M,3.1,0123*67\r\n
$GPGGA,103839.15,5703.2894092,N,00952.3634729,E,2,11,0.9,-1.728,M,40.593,M,3.1,0123*69\r\n
$GPGGA,103839.20,5703.2894097,N,00952.3634738,E,2,11,0.9,-1.728,M,40.593,M,3.1,0123*6A\r\n
$GPGGA,103839.25,5703.2894099,N,00952.3634782,E,2,11,0.9,-1.739,M,40.593,M,3.3,0123*62\r\n
$GPGGA,103839.30,5703.2894105,N,00952.3634791,E,2,11,0.9,-1.739,M,40.593,M,3.3,0123*60\r\n
$GPGGA,103839.35,5703.2894110,N,00952.3634798,E,2,11,0.9,-1.739,M,40.593,M,3.3,0123*68\r\n
$GPGGA,103839.40,5703.2894120,N,00952.3634812,E,2,11,0.9,-1.740,M,40.593,M,3.3,0123*6A\r\n
$GPGGA,103839.45,5703.2894144,N,00952.3634826,E,2,11,0.9,-1.728,M,40.593,M,0.8,0123*6C\r\n
$GPGGA,103839.50,5703.2894152,N,00952.3634835,E,2,11,0.9,-1.728,M,40.593,M,0.8,0123*6D\r\n
$GPGGA,103839.55,5703.2894157,N,00952.3634843,E,2,11,0.9,-1.728,M,40.593,M,0.8,0123*6C\r\n
$GPGGA,103839.60,5703.2894162,N,00952.3634854,E,2,11,0.9,-1.728,M,40.593,M,0.8,0123*6A\r\n
$GPGGA,103839.65,5703.2894174,N,00952.3634852,E,2,11,0.9,-1.725,M,40.593,M,1.1,0123*6B\r\n
$GPGGA,103839.70,5703.2894181,N,00952.3634860,E,2,11,0.9,-1.724,M,40.593,M,1.1,0123*65\r\n
$GPGGA,103839.75,5703.2894188,N,00952.3634865,E,2,11,0.9,-1.724,M,40.593,M,1.1,0123*6C\r\n
$GPGGA,103839.80,5703.2894194,N,00952.3634877,E,2,11,0.9,-1.724,M,40.593,M,1.1,0123*68\r\n
$GPGGA,103839.85,5703.2894188,N,00952.3634864,E,2,11,0.9,-1.729,M,40.593,M,1.4,0123*6A\r\n
$GPGGA,103839.90,5703.2894193,N,00952.3634870,E,2,11,0.9,-1.729,M,40.593,M,1.4,0123*61\r\n
$GPGGA,103839.95,5703.2894196,N,00952.3634877,E,2,11,0.9,-1.729,M,40.593,M,1.4,0123*66\r\n
$GPGGA,103840.00,5703.2894202,N,00952.3634879,E,2,11,0.9,-1.729,M,40.593,M,1.4,0123*64\r\n
$GPGGA,103840.05,5703.2894186,N,00952.3634871,E,2,11,0.9,-1.731,M,40.593,M,1.7,0123*6C\r\n
$GPGGA,103840.10,5703.2894190,N,00952.3634879,E,2,11,0.9,-1.732,M,40.593,M,1.7,0123*64\r\n
$GPGGA,103840.15,5703.2894196,N,00952.3634888,E,2,11,0.9,-1.732,M,40.593,M,1.7,0123*69\r\n
$GPGGA,103840.20,5703.2894202,N,00952.3634893,E,2,11,0.9,-1.732,M,40.593,M,1.7,0123*6B\r\n
$GPGGA,103840.25,5703.2894214,N,00952.3634914,E,2,11,0.9,-1.731,M,40.593,M,1.9,0123*6A\r\n
$GPGGA,103840.30,5703.2894222,N,00952.3634920,E,2,11,0.9,-1.731,M,40.593,M,1.9,0123*6C\r\n
$GPGGA,103840.35,5703.2894225,N,00952.3634926,E,2,11,0.9,-1.731,M,40.593,M,1.9,0123*68\r\n
$GPGGA,103840.40,5703.2894234,N,00952.3634931,E,2,11,0.9,-1.732,M,40.593,M,1.9,0123*6F\r\n
$GPGGA,103840.45,5703.2894250,N,00952.3634931,E,2,11,0.9,-1.731,M,40.593,M,0.8,0123*6B\r\n
$GPGGA,103840.50,5703.2894254,N,00952.3634935,E,2,11,0.9,-1.731,M,40.593,M,0.8,0123*6F\r\n
$GPGGA,103840.55,5703.2894261,N,00952.3634945,E,2,11,0.9,-1.732,M,40.593,M,0.8,0123*68\r\n
$GPGGA,103840.60,5703.2894265,N,00952.3634951,E,2,11,0.9,-1.732,M,40.593,M,0.8,0123*6F\r\n
$GPGGA,103840.65,5703.2894255,N,00952.3634955,E,2,11,0.9,-1.735,M,40.593,M,1.1,0123*62\r\n
$GPGGA,103840.70,5703.2894262,N,00952.3634956,E,2,11,0.9,-1.735,M,40.593,M,1.1,0123*61\r\n
$GPGGA,103840.75,5703.2894267,N,00952.3634960,E,2,11,0.9,-1.736,M,40.593,M,1.1,0123*67\r\n
$GPGGA,103840.80,5703.2894272,N,00952.3634966,E,2,11,0.9,-1.736,M,40.593,M,1.1,0123*6F\r\n
$GPGGA,103840.85,5703.2894295,N,00952.3634961,E,2,11,0.9,-1.726,M,40.593,M,1.3,0123*67\r\n
$GPGGA,103840.90,5703.2894301,N,00952.3634959,E,2,11,0.9,-1.726,M,40.593,M,1.3,0123*64\r\n
$GPGGA,103840.95,5703.2894303,N,00952.3634963,E,2,11,0.9,-1.726,M,40.593,M,1.3,0123*6A\r\n
$GPGGA,103841.00,5703.2894309,N,00952.3634969,E,2,11,0.9,-1.726,M,40.593,M,1.3,0123*67\r\n
$GPGGA,103841.05,5703.2894299,N,00952.3634954,E,2,11,0.9,-1.729,M,40.593,M,1.6,0123*6E\r\n
$GPGGA,103841.10,5703.2894304,N,00952.3634948,E,2,11,0.9,-1.729,M,40.593,M,1.6,0123*62\r\n
$GPGGA,103841.15,5703.2894311,N,00952.3634941,E,2,11,0.9,-1.729,M,40.593,M,1.6,0123*6A\r\n
$GPGGA,103841.20,5703.2894318,N,00952.3634934,E,2,11,0.9,-1.728,M,40.593,M,1.6,0123*66\r\n
$GPGGA,103841.25,5703.2894329,N,00952.3634882,E,2,11,0.9,-1.731,M,40.593,M,1.8,0123*6B\r\n
$GPGGA,103841.30,5703.2894331,N,00952.3634869,E,2,11,0.9,-1.731,M,40.593,M,1.8,0123*63\r\n
$GPGGA,103841.35,5703.2894333,N,00952.3634858,E,2,11,0.9,-1.731,M,40.593,M,1.8,0123*66\r\n
$GPGGA,103841.40,5703.2894336,N,00952.3634845,E,2,11,0.9,-1.731,M,40.593,M,1.8,0123*6D\r\n
$GPGGA,103841.45,5703.2894316,N,00952.3634799,E,2,11,0.9,-1.730,M,40.593,M,1.1,0123*6C\r\n
$GPGGA,103841.50,5703.2894320,N,00952.3634786,E,2,11,0.9,-1.730,M,40.593,M,1.1,0123*63\r\n
$GPGGA,103841.55,5703.2894324,N,00952.3634775,E,2,11,0.9,-1.730,M,40.593,M,1.1,0123*6E\r\n
$GPGGA,103841.60,5703.2894328,N,00952.3634760,E,2,11,0.9,-1.730,M,40.593,M,1.1,0123*60\r\n
$GPGGA,103841.65,5703.2894346,N,00952.3634774,E,2,11,0.9,-1.729,M,40.593,M,1.4,0123*65\r\n
$GPGGA,103841.70,5703.2894350,N,00952.3634763,E,2,11,0.9,-1.729,M,40.593,M,1.4,0123*60\r\n
$GPGGA,103841.75,5703.2894352,N,00952.3634758,E,2,11,0.9,-1.729,M,40.593,M,1.4,0123*6F\r\n
$GPGGA,103841.80,5703.2894358,N,00952.3634749,E,2,11,0.9,-1.729,M,40.593,M,1.4,0123*6F\r\n
$GPGGA,103841.85,5703.2894361,N,00952.3634779,E,2,11,0.9,-1.736,M,40.593,M,1.7,0123*6E\r\n
$GPGGA,103841.90,5703.2894366,N,00952.3634771,E,2,11,0.9,-1.737,M,40.593,M,1.7,0123*64\r\n
$GPGGA,103841.95,5703.2894371,N,00952.3634756,E,2,11,0.9,-1.737,M,40.593,M,1.7,0123*62\r\n
$GPGGA,103842.00,5703.2894376,N,00952.3634744,E,2,11,0.9,-1.737,M,40.593,M,1.7,0123*69\r\n
$GPGGA,103842.05,5703.2894405,N,00952.3634737,E,2,11,0.9,-1.730,M,40.593,M,1.9,0123*62\r\n
$GPGGA,103842.10,5703.2894408,N,00952.3634723,E,2,11,0.9,-1.731,M,40.593,M,1.9,0123*6F\r\n
$GPGGA,103842.15,5703.2894414,N,00952.3634716,E,2,11,0.9,-1.731,M,40.593,M,1.9,0123*61\r\n
$GPGGA,103842.20,5703.2894419,N,00952.3634699,E,2,11,0.9,-1.731,M,40.593,M,1.9,0123*6C\r\n
$GPGGA,103842.25,5703.2894422,N,00952.3634692,E,2,11,0.9,-1.725,M,40.593,M,2.2,0123*67\r\n
$GPGGA,103842.30,5703.2894425,N,00952.3634684,E,2,11,0.9,-1.725,M,40.593,M,2.2,0123*63\r\n
$GPGGA,103842.35,5703.2894430,N,00952.3634673,E,2,11,0.9,-1.725,M,40.593,M,2.2,0123*6A\r\n
$GPGGA,103842.40,5703.2894434,N,00952.3634664,E,2,11,0.9,-1.725,M,40.593,M,2.2,0123*6A\r\n
$GPGGA,103842.45,5703.2894420,N,00952.3634672,E,2,11,0.9,-1.732,M,40.593,M,2.4,0123*6D\r\n
$GPGGA,103842.50,5703.2894423,N,00952.3634661,E,2,11,0.9,-1.732,M,40.593,M,2.4,0123*68\r\n
$GPGGA,103842.55,5703.2894428,N,00952.3634652,E,2,11,0.9,-1.732,M,40.593,M,2.4,0123*66\r\n
$GPGGA,103842.60,5703.2894431,N,00952.3634639,E,2,11,0.9,-1.732,M,40.593,M,2.4,0123*65\r\n
$GPGGA,103842.65,5703.2894435,N,00952.3634612,E,2,11,0.9,-1.733,M,40.593,M,2.6,0123*6E\r\n
$GPGGA,103842.70,5703.2894439,N,00952.3634598,E,2,11,0.9,-1.734,M,40.593,M,2.6,0123*60\r\n
$GPGGA,103842.75,5703.2894444,N,00952.3634588,E,2,11,0.9,-1.734,M,40.593,M,2.6,0123*6E\r\n
$GPGGA,103842.80,5703.2894447,N,00952.3634585,E,2,11,0.9,-1.734,M,40.593,M,2.6,0123*6A\r\n
$GPGGA,103842.85,5703.2894453,N,00952.3634589,E,2,11,0.9,-1.739,M,40.593,M,2.9,0123*64\r\n
$GPGGA,103842.90,5703.2894457,N,00952.3634584,E,2,11,0.9,-1.740,M,40.593,M,2.9,0123*67\r\n
$GPGGA,103842.95,5703.2894464,N,00952.3634570,E,2,11,0.9,-1.740,M,40.593,M,2.9,0123*69\r\n
$GPGGA,103843.00,5703.2894468,N,00952.3634559,E,2,11,0.9,-1.741,M,40.593,M,2.9,0123*62\r\n
$GPGGA,103843.05,5703.2894480,N,00952.3634575,E,2,11,0.9,-1.740,M,40.593,M,3.1,0123*67\r\n
$GPGGA,103843.10,5703.2894486,N,00952.3634569,E,2,11,0.9,-1.740,M,40.593,M,3.1,0123*68\r\n
$GPGGA,103843.15,5703.2894496,N,00952.3634572,E,2,11,0.9,-1.741,M,40.593,M,3.1,0123*67\r\n
$GPGGA,103843.20,5703.2894503,N,00952.3634568,E,2,11,0.9,-1.742,M,40.593,M,3.1,0123*64\r\n
$GPGGA,103843.25,5703.2894531,N,00952.3634587,E,2,11,0.9,-1.739,M,40.593,M,3.3,0123*6F\r\n
$GPGGA,103843.30,5703.2894539,N,00952.3634583,E,2,11,0.9,-1.739,M,40.593,M,3.3,0123*67\r\n
$GPGGA,103843.35,5703.2894548,N,00952.3634583,E,2,11,0.9,-1.740,M,40.593,M,3.3,0123*6A\r\n
$GPGGA,103843.40,5703.2894554,N,00952.3634576,E,2,11,0.9,-1.741,M,40.593,M,3.3,0123*6E\r\n
$GPGGA,103843.45,5703.2894567,N,00952.3634542,E,2,11,0.9,-1.737,M,40.593,M,3.5,0123*6B\r\n
$GPGGA,103843.50,5703.2894576,N,00952.3634532,E,2,11,0.9,-1.738,M,40.593,M,3.5,0123*67\r\n
$GPGGA,103843.55,5703.2894582,N,00952.3634526,E,2,11,0.9,-1.738,M,40.593,M,3.5,0123*6C\r\n
$GPGGA,103843.60,5703.2894591,N,00952.3634520,E,2,11,0.9,-1.739,M,40.593,M,3.5,0123*6F\r\n
$GPGGA,103843.65,5703.2894584,N,00952.3634483,E,2,11,0.9,-1.740,M,40.593,M,3.7,0123*6A\r\n
$GPGGA,103843.70,5703.2894592,N,00952.3634475,E,2,11,0.9,-1.740,M,40.593,M,3.7,0123*60\r\n
$GPGGA,103843.75,5703.2894602,N,00952.3634470,E,2,11,0.9,-1.740,M,40.593,M,3.7,0123*6A\r\n
$GPGGA,103843.80,5703.2894613,N,00952.3634462,E,2,11,0.9,-1.741,M,40.593,M,3.7,0123*62\r\n
$GPGGA,103843.85,5703.2894631,N,00952.3634462,E,2,11,0.9,-1.740,M,40.593,M,3.9,0123*68\r\n
$GPGGA,103843.90,5703.2894642,N,00952.3634456,E,2,10,0.9,-1.741,M,40.593,M,3.9,0123*6F\r\n
$GPGGA,103843.95,5703.2894654,N,00952.3634455,E,2,10,0.9,-1.741,M,40.593,M,3.9,0123*6E\r\n
$GPGGA,103844.00,5703.2894662,N,00952.3634453,E,2,10,0.9,-1.741,M,40.593,M,3.9,0123*66\r\n
$GPGGA,103844.05,5703.2894658,N,00952.3634468,E,2,11,0.9,-1.746,M,40.593,M,4.1,0123*6B\r\n
$GPGGA,103844.10,5703.2894669,N,00952.3634465,E,2,11,0.9,-1.747,M,40.593,M,4.1,0123*61\r\n
$GPGGA,103844.15,5703.2894679,N,00952.3634465,E,2,11,0.9,-1.748,M,40.593,M,4.1,0123*6A\r\n
$GPGGA,103844.20,5703.2894689,N,00952.3634464,E,2,11,0.9,-1.748,M,40.593,M,4.1,0123*62\r\n
$GPGGA,103844.25,5703.2894709,N,00952.3634473,E,2,11,0.9,-1.738,M,40.593,M,4.3,0123*6D\r\n
$GPGGA,103844.30,5703.2894717,N,00952.3634475,E,2,11,0.9,-1.738,M,40.593,M,4.3,0123*60\r\n
$GPGGA,103844.35,5703.2894728,N,00952.3634476,E,2,11,0.9,-1.738,M,40.593,M,4.3,0123*6A\r\n
$GPGGA,103844.40,5703.2894741,N,00952.3634475,E,2,11,0.9,-1.738,M,40.593,M,4.3,0123*64\r\n
$GPGGA,103844.45,5703.2894746,N,00952.3634468,E,2,11,0.9,-1.739,M,40.593,M,2.2,0123*6C\r\n
$GPGGA,103844.50,5703.2894757,N,00952.3634465,E,2,11,0.9,-1.739,M,40.593,M,2.2,0123*65\r\n
$GPGGA,103844.55,5703.2894765,N,00952.3634460,E,2,11,0.9,-1.738,M,40.593,M,2.2,0123*65\r\n
$GPGGA,103844.60,5703.2894778,N,00952.3634459,E,2,11,0.9,-1.738,M,40.593,M,2.2,0123*65\r\n
$GPGGA,103844.65,5703.2894778,N,00952.3634425,E,2,11,0.9,-1.742,M,40.593,M,2.4,0123*60\r\n
$GPGGA,103844.70,5703.2894787,N,00952.3634421,E,2,11,0.9,-1.742,M,40.593,M,2.4,0123*60\r\n
$GPGGA,103844.75,5703.2894800,N,00952.3634409,E,2,11,0.9,-1.742,M,40.593,M,2.4,0123*6F\r\n
$GPGGA,103844.80,5703.2894811,N,00952.3634406,E,2,11,0.9,-1.742,M,40.593,M,2.4,0123*6A\r\n
$GPGGA,103844.85,5703.2894823,N,00952.3634384,E,2,11,0.9,-1.746,M,40.593,M,2.7,0123*64\r\n
$GPGGA,103844.90,5703.2894837,N,00952.3634380,E,2,11,0.9,-1.746,M,40.593,M,2.7,0123*61\r\n
$GPGGA,103844.95,5703.2894849,N,00952.3634377,E,2,11,0.9,-1.746,M,40.593,M,2.7,0123*65\r\n
$GPGGA,103845.00,5703.2894859,N,00952.3634376,E,2,11,0.9,-1.746,M,40.593,M,2.7,0123*68\r\n
$GPGGA,103845.05,5703.2894874,N,00952.3634389,E,2,11,0.9,-1.747,M,40.593,M,2.9,0123*6D\r\n
$GPGGA,103845.10,5703.2894886,N,00952.3634386,E,2,11,0.9,-1.747,M,40.593,M,2.9,0123*6B\r\n
$GPGGA,103845.15,5703.2894900,N,00952.3634387,E,2,11,0.9,-1.747,M,40.593,M,2.9,0123*60\r\n
$GPGGA,103845.20,5703.2894912,N,00952.3634386,E,2,11,0.9,-1.747,M,40.593,M,2.9,0123*64\r\n
$GPGGA,103845.25,5703.2894934,N,00952.3634389,E,2,11,0.9,-1.743,M,40.593,M,3.1,0123*67\r\n
$GPGGA,103845.30,5703.2894948,N,00952.3634386,E,2,11,0.9,-1.743,M,40.593,M,3.1,0123*67\r\n
$GPGGA,103845.35,5703.2894960,N,00952.3634383,E,2,11,0.9,-1.743,M,40.593,M,3.1,0123*6D\r\n
$GPGGA,103845.40,5703.2894974,N,00952.3634380,E,2,11,0.9,-1.743,M,40.593,M,3.1,0123*69\r\n
$GPGGA,103845.45,5703.2894974,N,00952.3634364,E,2,11,0.9,-1.748,M,40.593,M,2.0,0123*6D\r\n
$GPGGA,103845.50,5703.2894988,N,00952.3634365,E,2,11,0.9,-1.748,M,40.593,M,2.0,0123*6B\r\n
$GPGGA,103845.55,5703.2895000,N,00952.3634363,E,2,11,0.9,-1.748,M,40.593,M,2.0,0123*60\r\n
$GPGGA,103845.60,5703.2895010,N,00952.3634360,E,2,11,0.9,-1.748,M,40.593,M,2.0,0123*64\r\n
$GPGGA,103845.65,5703.2895006,N,00952.3634359,E,2,11,0.9,-1.747,M,40.593,M,2.3,0123*60\r\n
$GPGGA,103845.70,5703.2895016,N,00952.3634353,E,2,11,0.9,-1.747,M,40.593,M,2.3,0123*6F\r\n
$GPGGA,103845.75,5703.2895028,N,00952.3634352,E,2,11,0.9,-1.747,M,40.593,M,2.3,0123*66\r\n
$GPGGA,103845.80,5703.2895039,N,00952.3634353,E,2,11,0.9,-1.747,M,40.593,M,2.3,0123*6D\r\n
$GPGGA,103845.85,5703.2895051,N,00952.3634337,E,2,11,0.9,-1.747,M,40.593,M,2.5,0123*62\r\n
$GPGGA,103845.90,5703.2895061,N,00952.3634334,E,2,11,0.9,-1.747,M,40.593,M,2.5,0123*66\r\n
$GPGGA,103845.95,5703.2895072,N,00952.3634326,E,2,11,0.9,-1.748,M,40.593,M,2.5,0123*6D\r\n
$GPGGA,103846.00,5703.2895085,N,00952.3634320,E,2,11,0.9,-1.748,M,40.593,M,2.5,0123*6C\r\n
$GPGGA,103846.05,5703.2895103,N,00952.3634302,E,2,11,0.9,-1.744,M,40.593,M,2.7,0123*68\r\n
$GPGGA,103846.10,5703.2895114,N,00952.3634297,E,2,11,0.9,-1.744,M,40.593,M,2.7,0123*67\r\n
$GPGGA,103846.15,5703.2895124,N,00952.3634292,E,2,11,0.9,-1.744,M,40.593,M,2.7,0123*64\r\n
$GPGGA,103846.20,5703.2895135,N,00952.3634288,E,2,11,0.9,-1.744,M,40.593,M,2.7,0123*69\r\n
$GPGGA,103846.25,5703.2895142,N,00952.3634295,E,2,11,0.9,-1.748,M,40.593,M,2.9,0123*62\r\n
$GPGGA,103846.30,5703.2895152,N,00952.3634291,E,2,11,0.9,-1.748,M,40.593,M,2.9,0123*63\r\n
$GPGGA,103846.35,5703.2895163,N,00952.3634286,E,2,11,0.9,-1.749,M,40.593,M,2.9,0123*63\r\n
$GPGGA,103846.40,5703.2895172,N,00952.3634276,E,2,11,0.9,-1.749,M,40.593,M,2.9,0123*6E\r\n
$GPGGA,103846.45,5703.2895180,N,00952.3634267,E,2,11,0.9,-1.745,M,40.593,M,2.4,0123*67\r\n
$GPGGA,103846.50,5703.2895191,N,00952.3634264,E,2,11,0.9,-1.745,M,40.593,M,2.4,0123*60\r\n
$GPGGA,103846.55,5703.2895204,N,00952.3634261,E,2,11,0.9,-1.745,M,40.593,M,2.4,0123*6F\r\n
$GPGGA,103846.60,5703.2895215,N,00952.3634255,E,2,11,0.9,-1.745,M,40.593,M,2.4,0123*6E\r\n
$GPGGA,103846.65,5703.2895235,N,00952.3634258,E,2,11,0.9,-1.751,M,40.593,M,2.6,0123*63\r\n
$GPGGA,103846.70,5703.2895244,N,00952.3634253,E,2,11,0.9,-1.751,M,40.593,M,2.6,0123*6A\r\n
$GPGGA,103846.75,5703.2895255,N,00952.3634251,E,2,11,0.9,-1.751,M,40.593,M,2.6,0123*6D\r\n
$GPGGA,103846.80,5703.2895264,N,00952.3634244,E,2,11,0.9,-1.752,M,40.593,M,2.6,0123*62\r\n
$GPGGA,103846.85,5703.2895261,N,00952.3634230,E,2,11,0.9,-1.755,M,40.593,M,2.9,0123*69\r\n
$GPGGA,103846.90,5703.2895274,N,00952.3634230,E,2,11,0.9,-1.756,M,40.593,M,2.9,0123*6A\r\n
$GPGGA,103846.95,5703.2895286,N,00952.3634229,E,2,11,0.9,-1.756,M,40.593,M,2.9,0123*6A\r\n
$GPGGA,103847.00,5703.2895296,N,00952.3634226,E,2,11,0.9,-1.757,M,40.593,M,2.9,0123*68\r\n
$GPGGA,103847.05,5703.2895312,N,00952.3634235,E,2,11,0.9,-1.761,M,40.593,M,3.1,0123*6E\r\n
$GPGGA,103847.10,5703.2895324,N,00952.3634231,E,2,11,0.9,-1.762,M,40.593,M,3.1,0123*68\r\n
$GPGGA,103847.15,5703.2895335,N,00952.3634228,E,2,11,0.9,-1.763,M,40.593,M,3.1,0123*64\r\n
$GPGGA,103847.20,5703.2895349,N,00952.3634221,E,2,11,0.9,-1.764,M,40.593,M,3.1,0123*67\r\n
$GPGGA,103847.25,5703.2895378,N,00952.3634204,E,2,11,0.9,-1.751,M,40.593,M,3.3,0123*63\r\n
$GPGGA,103847.30,5703.2895390,N,00952.3634200,E,2,11,0.9,-1.752,M,40.593,M,3.3,0123*66\r\n
$GPGGA,103847.35,5703.2895399,N,00952.3634197,E,2,11,0.9,-1.752,M,40.593,M,3.3,0123*67\r\n
$GPGGA,103847.40,5703.2895411,N,00952.3634190,E,2,11,0.9,-1.752,M,40.593,M,3.3,0123*65\r\n
$GPGGA,103847.45,5703.2895416,N,00952.3634190,E,2,11,0.9,-1.753,M,40.593,M,3.5,0123*60\r\n
$GPGGA,103847.50,5703.2895429,N,00952.3634181,E,2,11,0.9,-1.753,M,40.593,M,3.5,0123*68\r\n
$GPGGA,103847.55,5703.2895443,N,00952.3634168,E,2,11,0.9,-1.753,M,40.593,M,3.5,0123*66\r\n
$GPGGA,103847.60,5703.2895451,N,00952.3634157,E,2,11,0.9,-1.753,M,40.593,M,3.5,0123*6F\r\n
$GPGGA,103847.65,5703.2895457,N,00952.3634114,E,2,11,0.9,-1.757,M,40.593,M,3.7,0123*6D\r\n
$GPGGA,103847.70,5703.2895468,N,00952.3634104,E,2,11,0.9,-1.757,M,40.593,M,3.7,0123*64\r\n
$GPGGA,103847.75,5703.2895481,N,00952.3634095,E,2,11,0.9,-1.757,M,40.593,M,3.7,0123*6F\r\n
$GPGGA,103847.80,5703.2895493,N,00952.3634083,E,2,11,0.9,-1.758,M,40.593,M,3.7,0123*6E\r\n
$GPGGA,103847.85,5703.2895502,N,00952.3634085,E,2,11,0.9,-1.756,M,40.593,M,3.9,0123*64\r\n
$GPGGA,103847.90,5703.2895512,N,00952.3634077,E,2,11,0.9,-1.756,M,40.593,M,3.9,0123*6C\r\n
$GPGGA,103847.95,5703.2895524,N,00952.3634080,E,2,11,0.9,-1.756,M,40.593,M,3.9,0123*64\r\n
$GPGGA,103848.00,5703.2895535,N,00952.3634070,E,2,11,0.9,-1.756,M,40.593,M,3.9,0123*68\r\n
$GPGGA,103848.05,5703.2895548,N,00952.3634096,E,2,11,0.9,-1.754,M,40.593,M,4.1,0123*62\r\n
$GPGGA,103848.10,5703.2895559,N,00952.3634086,E,2,11,0.9,-1.754,M,40.593,M,4.1,0123*67\r\n
$GPGGA,103848.15,5703.2895570,N,00952.3634079,E,2,11,0.9,-1.754,M,40.593,M,4.1,0123*69\r\n
$GPGGA,103848.20,5703.2895580,N,00952.3634080,E,2,11,0.9,-1.754,M,40.593,M,4.1,0123*66\r\n
$GPGGA,103848.25,5703.2895590,N,00952.3634073,E,2,11,0.9,-1.756,M,40.593,M,4.3,0123*6E\r\n
$GPGGA,103848.30,5703.2895600,N,00952.3634072,E,2,11,0.9,-1.756,M,40.593,M,4.3,0123*61\r\n
$GPGGA,103848.35,5703.2895610,N,00952.3634071,E,2,11,0.9,-1.756,M,40.593,M,4.3,0123*66\r\n
$GPGGA,103848.40,5703.2895621,N,00952.3634063,E,2,11,0.9,-1.756,M,40.593,M,4.3,0123*65\r\n
$GPGGA,103848.45,5703.2895627,N,00952.3634051,E,2,11,0.9,-1.759,M,40.593,M,2.2,0123*6F\r\n
$GPGGA,103848.50,5703.2895640,N,00952.3634051,E,2,11,0.9,-1.759,M,40.593,M,2.2,0123*6A\r\n
$GPGGA,103848.55,5703.2895653,N,00952.3634049,E,2,11,0.9,-1.759,M,40.593,M,2.2,0123*64\r\n
$GPGGA,103848.60,5703.2895662,N,00952.3634046,E,2,11,0.9,-1.760,M,40.593,M,2.2,0123*65\r\n
$GPGGA,103848.65,5703.2895684,N,00952.3634046,E,2,11,0.9,-1.756,M,40.593,M,2.4,0123*6B\r\n
$GPGGA,103848.70,5703.2895697,N,00952.3634043,E,2,11,0.9,-1.756,M,40.593,M,2.4,0123*68\r\n
$GPGGA,103848.75,5703.2895709,N,00952.3634036,E,2,11,0.9,-1.756,M,40.593,M,2.4,0123*69\r\n
$GPGGA,103848.80,5703.2895720,N,00952.3634028,E,2,11,0.9,-1.756,M,40.593,M,2.4,0123*67\r\n
$GPGGA,103848.85,5703.2895734,N,00952.3634001,E,2,11,0.9,-1.756,M,40.593,M,2.7,0123*6F\r\n
$GPGGA,103848.90,5703.2895743,N,00952.3633995,E,2,11,0.9,-1.756,M,40.593,M,2.7,0123*68\r\n
$GPGGA,103848.95,5703.2895755,N,00952.3633989,E,2,11,0.9,-1.756,M,40.593,M,2.7,0123*67\r\n
$GPGGA,103849.00,5703.2895767,N,00952.3633986,E,2,11,0.9,-1.755,M,40.593,M,2.7,0123*67\r\n
$GPGGA,103849.05,5703.2895776,N,00952.3633980,E,2,11,0.9,-1.754,M,40.593,M,2.9,0123*6B\r\n
$GPGGA,103849.10,5703.2895788,N,00952.3633971,E,2,11,0.9,-1.754,M,40.593,M,2.9,0123*60\r\n
$GPGGA,103849.15,5703.2895799,N,00952.3633961,E,2,11,0.9,-1.754,M,40.593,M,2.9,0123*64\r\n
$GPGGA,103849.20,5703.2895813,N,00952.3633956,E,2,11,0.9,-1.754,M,40.593,M,2.9,0123*6B\r\n
$GPGGA,103849.25,5703.2895821,N,00952.3633930,E,2,11,0.9,-1.761,M,40.593,M,3.1,0123*60\r\n
$GPGGA,103849.30,5703.2895835,N,00952.3633917,E,2,11,0.9,-1.761,M,40.593,M,3.1,0123*64\r\n
$GPGGA,103849.35,5703.2895850,N,00952.3633912,E,2,11,0.9,-1.761,M,40.593,M,3.1,0123*67\r\n
$GPGGA,103849.40,5703.2895863,N,00952.3633907,E,2,11,0.9,-1.762,M,40.593,M,3.1,0123*62\r\n
$GPGGA,103849.45,5703.2895889,N,00952.3633915,E,2,11,0.9,-1.761,M,40.593,M,2.0,0123*63\r\n
$GPGGA,103849.50,5703.2895898,N,00952.3633910,E,2,11,0.9,-1.761,M,40.593,M,2.0,0123*62\r\n
$GPGGA,103849.55,5703.2895916,N,00952.3633905,E,2,11,0.9,-1.762,M,40.593,M,2.0,0123*67\r\n
$GPGGA,103849.60,5703.2895930,N,00952.3633900,E,2,11,0.9,-1.762,M,40.593,M,2.0,0123*60\r\n
$GPGGA,103849.65,5703.2895946,N,00952.3633904,E,2,11,0.9,-1.763,M,40.593,M,2.3,0123*62\r\n
$GPGGA,103849.70,5703.2895961,N,00952.3633900,E,2,11,0.9,-1.764,M,40.593,M,2.3,0123*60\r\n
$GPGGA,103849.75,5703.2895974,N,00952.3633892,E,2,11,0.9,-1.764,M,40.593,M,2.3,0123*6B\r\n
$GPGGA,103849.80,5703.2895988,N,00952.3633888,E,2,11,0.9,-1.764,M,40.593,M,2.3,0123*69\r\n
$GPGGA,103849.85,5703.2896001,N,00952.3633876,E,2,11,0.9,-1.763,M,40.593,M,2.5,0123*67\r\n
$GPGGA,103849.90,5703.2896013,N,00952.3633870,E,2,11,0.9,-1.764,M,40.593,M,2.5,0123*61\r\n
$GPGGA,103849.95,5703.2896026,N,00952.3633861,E,2,11,0.9,-1.764,M,40.593,M,2.5,0123*62\r\n
$GPGGA,103850.00,5703.2896038,N,00952.3633852,E,2,11,0.9,-1.764,M,40.593,M,2.5,0123*69\r\n
$GPGGA,103850.05,5703.2896047,N,00952.3633839,E,2,11,0.9,-1.757,M,40.593,M,2.7,0123*6B\r\n
$GPGGA,103850.10,5703.2896061,N,00952.3633830,E,2,11,0.9,-1.757,M,40.593,M,2.7,0123*62\r\n
$GPGGA,103850.15,5703.2896074,N,00952.3633821,E,2,11,0.9,-1.757,M,40.593,M,2.7,0123*63\r\n
$GPGGA,103850.20,5703.2896087,N,00952.3633812,E,2,11,0.9,-1.757,M,40.593,M,2.7,0123*69\r\n
$GPGGA,103850.25,5703.2896097,N,00952.3633787,E,2,11,0.9,-1.763,M,40.593,M,2.9,0123*67\r\n
$GPGGA,103850.30,5703.2896109,N,00952.3633777,E,2,11,0.9,-1.763,M,40.593,M,2.9,0123*6A\r\n
$GPGGA,103850.35,5703.2896124,N,00952.3633767,E,2,11,0.9,-1.763,M,40.593,M,2.9,0123*61\r\n
$GPGGA,103850.40,5703.2896138,N,00952.3633763,E,2,11,0.9,-1.764,M,40.593,M,2.9,0123*6D\r\n
$GPGGA,103850.45,5703.2896145,N,00952.3633781,E,2,11,0.9,-1.767,M,40.593,M,2.4,0123*60\r\n
$GPGGA,103850.50,5703.2896159,N,00952.3633771,E,2,11,0.9,-1.767,M,40.593,M,2.4,0123*66\r\n
$GPGGA,103850.55,5703.2896174,N,00952.3633763,E,2,11,0.9,-1.767,M,40.593,M,2.4,0123*6F\r\n
$GPGGA,103850.60,5703.2896187,N,00952.3633759,E,2,11,0.9,-1.768,M,40.593,M,2.4,0123*63\r\n
$GPGGA,103850.65,5703.2896209,N,00952.3633760,E,2,11,0.9,-1.766,M,40.593,M,2.6,0123*65\r\n
$GPGGA,103850.70,5703.2896221,N,00952.3633759,E,2,11,0.9,-1.766,M,40.593,M,2.6,0123*61\r\n
$GPGGA,103850.75,5703.2896231,N,00952.3633747,E,2,11,0.9,-1.767,M,40.593,M,2.6,0123*6B\r\n
$GPGGA,103850.80,5703.2896243,N,00952.3633738,E,2,11,0.9,-1.767,M,40.593,M,2.6,0123*6C\r\n
$GPGGA,103850.85,5703.2896227,N,00952.3633715,E,2,11,0.9,-1.767,M,40.593,M,2.9,0123*6B\r\n
$GPGGA,103850.90,5703.2896236,N,00952.3633702,E,2,11,0.9,-1.768,M,40.593,M,2.9,0123*66\r\n
$GPGGA,103850.95,5703.2896245,N,00952.3633693,E,2,11,0.9,-1.768,M,40.593,M,2.9,0123*6E\r\n
$GPGGA,103851.00,5703.2896249,N,00952.3633679,E,2,11,0.9,-1.768,M,40.593,M,2.9,0123*6B\r\n
$GPGGA,103851.05,5703.2896237,N,00952.3633658,E,2,11,0.9,-1.762,M,40.593,M,3.1,0123*67\r\n
$GPGGA,103851.10,5703.2896242,N,00952.3633640,E,2,11,0.9,-1.762,M,40.593,M,3.1,0123*68\r\n
$GPGGA,103851.15,5703.2896242,N,00952.3633627,E,2,11,0.9,-1.762,M,40.593,M,3.1,0123*6C\r\n
$GPGGA,103851.20,5703.2896244,N,00952.3633614,E,2,11,0.9,-1.762,M,40.593,M,3.1,0123*6C\r\n
$GPGGA,103851.25,5703.2896227,N,00952.3633573,E,2,11,0.9,-1.765,M,40.593,M,3.3,0123*6B\r\n
$GPGGA,103851.30,5703.2896226,N,00952.3633557,E,2,11,0.9,-1.766,M,40.593,M,3.3,0123*6B\r\n
$GPGGA,103851.35,5703.2896224,N,00952.3633534,E,2,11,0.9,-1.766,M,40.593,M,3.3,0123*69\r\n
$GPGGA,103851.40,5703.2896220,N,00952.3633517,E,2,11,0.9,-1.766,M,40.593,M,3.3,0123*6E\r\n
$GPGGA,103851.45,5703.2896192,N,00952.3633476,E,2,11,0.9,-1.761,M,40.593,M,0.8,0123*68\r\n
$GPGGA,103851.50,5703.2896185,N,00952.3633456,E,2,11,0.9,-1.761,M,40.593,M,0.8,0123*68\r\n
$GPGGA,103851.55,5703.2896178,N,00952.3633434,E,2,11,0.9,-1.761,M,40.593,M,0.8,0123*6B\r\n
$GPGGA,103851.60,5703.2896167,N,00952.3633405,E,2,11,0.9,-1.761,M,40.593,M,0.8,0123*61\r\n
$GPGGA,103851.65,5703.2896141,N,00952.3633373,E,2,11,0.9,-1.757,M,40.593,M,1.1,0123*6B\r\n
$GPGGA,103851.70,5703.2896128,N,00952.3633346,E,2,11,0.9,-1.757,M,40.593,M,1.1,0123*66\r\n
$GPGGA,103851.75,5703.2896117,N,00952.3633318,E,2,11,0.9,-1.756,M,40.593,M,1.1,0123*65\r\n
$GPGGA,103851.80,5703.2896103,N,00952.3633290,E,2,11,0.9,-1.756,M,40.593,M,1.1,0123*6B\r\n
$GPGGA,103851.85,5703.2896072,N,00952.3633240,E,2,11,0.9,-1.758,M,40.593,M,1.4,0123*6F\r\n
$GPGGA,103851.90,5703.2896056,N,00952.3633210,E,2,11,0.9,-1.758,M,40.593,M,1.4,0123*68\r\n
$GPGGA,103851.95,5703.2896035,N,00952.3633179,E,2,11,0.9,-1.757,M,40.593,M,1.4,0123*6B\r\n
$GPGGA,103852.00,5703.2896016,N,00952.3633144,E,2,11,0.9,-1.756,M,40.593,M,1.4,0123*6A\r\n
$GPGGA,103852.05,5703.2895983,N,00952.3633117,E,2,11,0.9,-1.753,M,40.593,M,1.7,0123*69\r\n
$GPGGA,103852.10,5703.2895968,N,00952.3633100,E,2,11,0.9,-1.755,M,40.593,M,1.7,0123*68\r\n
$GPGGA,103852.15,5703.2895947,N,00952.3633070,E,2,11,0.9,-1.757,M,40.593,M,1.7,0123*64\r\n
$GPGGA,103852.20,5703.2895924,N,00952.3633047,E,2,11,0.9,-1.757,M,40.593,M,1.7,0123*63\r\n
$GPGGA,103852.25,5703.2895905,N,00952.3633027,E,2,11,0.9,-1.757,M,40.593,M,1.9,0123*6D\r\n
$GPGGA,103852.30,5703.2895882,N,00952.3632998,E,2,11,0.9,-1.757,M,40.593,M,1.9,0123*6B\r\n
$GPGGA,103852.35,5703.2895859,N,00952.3632970,E,2,11,0.9,-1.757,M,40.593,M,1.9,0123*6E\r\n
$GPGGA,103852.40,5703.2895832,N,00952.3632947,E,2,11,0.9,-1.757,M,40.593,M,1.9,0123*65\r\n
$GPGGA,103852.45,5703.2895815,N,00952.3632945,E,2,11,0.9,-1.755,M,40.593,M,0.8,0123*65\r\n
$GPGGA,103852.50,5703.2895794,N,00952.3632924,E,2,11,0.9,-1.756,M,40.593,M,0.8,0123*63\r\n
$GPGGA,103852.55,5703.2895772,N,00952.3632902,E,2,11,0.9,-1.756,M,40.593,M,0.8,0123*6A\r\n
$GPGGA,103852.60,5703.2895752,N,00952.3632884,E,2,11,0.9,-1.757,M,40.593,M,0.8,0123*60\r\n
$GPGGA,103852.65,5703.2895767,N,00952.3632886,E,2,11,0.9,-1.753,M,40.593,M,1.1,0123*6D\r\n
$GPGGA,103852.70,5703.2895746,N,00952.3632867,E,2,11,0.9,-1.753,M,40.593,M,1.1,0123*65\r\n
$GPGGA,103852.75,5703.2895725,N,00952.3632850,E,2,11,0.9,-1.754,M,40.593,M,1.1,0123*66\r\n
$GPGGA,103852.80,5703.2895705,N,00952.3632829,E,2,11,0.9,-1.754,M,40.593,M,1.1,0123*60\r\n
$GPGGA,103852.85,5703.2895690,N,00952.3632803,E,2,11,0.9,-1.748,M,40.593,M,1.3,0123*6F\r\n
$GPGGA,103852.90,5703.2895668,N,00952.3632785,E,2,11,0.9,-1.748,M,40.593,M,1.3,0123*6D\r\n
$GPGGA,103852.95,5703.2895646,N,00952.3632764,E,2,11,0.9,-1.747,M,40.593,M,1.3,0123*64\r\n
$GPGGA,103853.00,5703.2895626,N,00952.3632744,E,2,11,0.9,-1.747,M,40.593,M,1.3,0123*6D\r\n
$GPGGA,103853.05,5703.2895594,N,00952.3632709,E,2,11,0.9,-1.740,M,40.593,M,1.6,0123*69\r\n
$GPGGA,103853.10,5703.2895570,N,00952.3632687,E,2,11,0.9,-1.739,M,40.593,M,1.6,0123*6E\r\n
$GPGGA,103853.15,5703.2895545,N,00952.3632663,E,2,11,0.9,-1.738,M,40.593,M,1.6,0123*66\r\n
$GPGGA,103853.20,5703.2895523,N,00952.3632640,E,2,11,0.9,-1.736,M,40.593,M,1.6,0123*6F\r\n
$GPGGA,103853.25,5703.2895492,N,00952.3632598,E,2,11,0.9,-1.737,M,40.593,M,1.8,0123*68\r\n
$GPGGA,103853.30,5703.2895478,N,00952.3632559,E,2,11,0.9,-1.738,M,40.593,M,1.8,0123*6A\r\n
$GPGGA,103853.35,5703.2895455,N,00952.3632521,E,2,11,0.9,-1.740,M,40.593,M,1.8,0123*60\r\n
$GPGGA,103853.40,5703.2895440,N,00952.3632505,E,2,11,0.9,-1.740,M,40.593,M,1.8,0123*60\r\n
$GPGGA,103853.45,5703.2895420,N,00952.3632474,E,2,11,0.9,-1.743,M,40.593,M,1.1,0123*6E\r\n
$GPGGA,103853.50,5703.2895405,N,00952.3632447,E,2,11,0.9,-1.743,M,40.593,M,1.1,0123*6D\r\n
$GPGGA,103853.55,5703.2895385,N,00952.3632423,E,2,11,0.9,-1.743,M,40.593,M,1.1,0123*65\r\n
$GPGGA,103853.60,5703.2895366,N,00952.3632396,E,2,11,0.9,-1.743,M,40.593,M,1.1,0123*67\r\n
$GPGGA,103853.65,5703.2895355,N,00952.3632394,E,2,11,0.9,-1.742,M,40.593,M,1.4,0123*64\r\n
$GPGGA,103853.70,5703.2895337,N,00952.3632366,E,2,11,0.9,-1.743,M,40.593,M,1.4,0123*68\r\n
$GPGGA,103853.75,5703.2895321,N,00952.3632348,E,2,11,0.9,-1.743,M,40.593,M,1.4,0123*66\r\n
$GPGGA,103853.80,5703.2895311,N,00952.3632333,E,2,11,0.9,-1.743,M,40.593,M,1.4,0123*63\r\n
$GPGGA,103853.85,5703.2895319,N,00952.3632346,E,2,11,0.9,-1.741,M,40.593,M,1.7,0123*6D\r\n
$GPGGA,103853.90,5703.2895314,N,00952.3632337,E,2,11,0.9,-1.742,M,40.593,M,1.7,0123*61\r\n
$GPGGA,103853.95,5703.2895318,N,00952.3632334,E,2,11,0.9,-1.742,M,40.593,M,1.7,0123*6B\r\n
$GPGGA,103854.00,5703.2895330,N,00952.3632336,E,2,11,0.9,-1.742,M,40.593,M,1.7,0123*68\r\n
$GPGGA,103854.05,5703.2895439,N,00952.3632402,E,2,11,0.9,-1.740,M,40.593,M,1.9,0123*6F\r\n
$GPGGA,103854.10,5703.2895462,N,00952.3632431,E,2,11,0.9,-1.741,M,40.593,M,1.9,0123*64\r\n
$GPGGA,103854.15,5703.2895481,N,00952.3632459,E,2,11,0.9,-1.739,M,40.593,M,1.9,0123*6D\r\n
$GPGGA,103854.20,5703.2895504,N,00952.3632477,E,2,11,0.9,-1.739,M,40.593,M,1.9,0123*6B\r\n
$GPGGA,103854.25,5703.2895530,N,00952.3632501,E,2,11,0.9,-1.738,M,40.593,M,2.2,0123*60\r\n
$GPGGA,103854.30,5703.2895553,N,00952.3632513,E,2,11,0.9,-1.739,M,40.593,M,2.2,0123*63\r\n
$GPGGA,103854.35,5703.2895574,N,00952.3632514,E,2,11,0.9,-1.742,M,40.593,M,2.2,0123*68\r\n
$GPGGA,103854.40,5703.2895595,N,00952.3632530,E,2,11,0.9,-1.742,M,40.593,M,2.2,0123*63\r\n
$GPGGA,103854.45,5703.2895612,N,00952.3632538,E,2,11,0.9,-1.747,M,40.593,M,2.4,0123*61\r\n
$GPGGA,103854.50,5703.2895638,N,00952.3632555,E,2,11,0.9,-1.749,M,40.593,M,2.4,0123*68\r\n
$GPGGA,103854.55,5703.2895666,N,00952.3632565,E,2,11,0.9,-1.751,M,40.593,M,2.4,0123*6C\r\n
$GPGGA,103854.60,5703.2895694,N,00952.3632578,E,2,11,0.9,-1.753,M,40.593,M,2.4,0123*69\r\n
$GPGGA,103854.65,5703.2895714,N,00952.3632577,E,2,11,0.9,-1.751,M,40.593,M,2.6,0123*6A\r\n
$GPGGA,103854.70,5703.2895736,N,00952.3632582,E,2,11,0.9,-1.752,M,40.593,M,2.6,0123*67\r\n
$GPGGA,103854.75,5703.2895762,N,00952.3632590,E,2,11,0.9,-1.754,M,40.593,M,2.6,0123*66\r\n
$GPGGA,103854.80,5703.2895806,N,00952.3632599,E,2,11,0.9,-1.756,M,40.593,M,2.6,0123*6A\r\n
$GPGGA,103854.85,5703.2895841,N,00952.3632606,E,2,11,0.9,-1.757,M,40.593,M,2.9,0123*67\r\n
$GPGGA,103854.90,5703.2895877,N,00952.3632608,E,2,11,0.9,-1.759,M,40.593,M,2.9,0123*66\r\n
$GPGGA,103854.95,5703.2895900,N,00952.3632615,E,2,11,0.9,-1.761,M,40.593,M,2.9,0123*65\r\n
$GPGGA,103855.00,5703.2895924,N,00952.3632622,E,2,11,0.9,-1.761,M,40.593,M,2.9,0123*6A\r\n
$GPGGA,103855.05,5703.2895953,N,00952.3632602,E,2,11,0.9,-1.764,M,40.593,M,3.1,0123*61\r\n
$GPGGA,103855.10,5703.2895980,N,00952.3632602,E,2,11,0.9,-1.770,M,40.593,M,3.1,0123*6E\r\n
$GPGGA,103855.15,5703.2896014,N,00952.3632596,E,2,11,0.9,-1.775,M,40.593,M,3.1,0123*67\r\n
$GPGGA,103855.20,5703.2896058,N,00952.3632598,E,2,11,0.9,-1.780,M,40.593,M,3.1,0123*6D\r\n
$GPGGA,103855.25,5703.2896093,N,00952.3632607,E,2,11,0.9,-1.780,M,40.593,M,3.3,0123*68\r\n
$GPGGA,103855.30,5703.2896142,N,00952.3632629,E,2,11,0.9,-1.782,M,40.593,M,3.3,0123*6F\r\n
$GPGGA,103855.35,5703.2896192,N,00952.3632667,E,2,11,0.9,-1.784,M,40.593,M,3.3,0123*6B\r\n
$GPGGA,103855.40,5703.2896249,N,00952.3632724,E,2,11,0.9,-1.787,M,40.593,M,3.3,0123*69\r\n
$GPGGA,103855.45,5703.2896322,N,00952.3632798,E,2,11,0.9,-1.788,M,40.593,M,3.5,0123*6E\r\n
$GPGGA,103855.50,5703.2896385,N,00952.3632875,E,2,11,0.9,-1.791,M,40.593,M,3.5,0123*63\r\n
$GPGGA,103855.55,5703.2896443,N,00952.3632945,E,2,11,0.9,-1.793,M,40.593,M,3.5,0123*6B\r\n
$GPGGA,103855.60,5703.2896505,N,00952.3633004,E,2,11,0.9,-1.798,M,40.593,M,3.5,0123*68\r\n
$GPGGA,103855.65,5703.2896584,N,00952.3633081,E,2,11,0.9,-1.801,M,40.593,M,3.7,0123*64\r\n
$GPGGA,103855.70,5703.2896659,N,00952.3633152,E,2,11,0.9,-1.801,M,40.593,M,3.7,0123*6C\r\n
$GPGGA,103855.75,5703.2896711,N,00952.3633228,E,2,11,0.9,-1.799,M,40.593,M,3.7,0123*64\r\n
$GPGGA,103855.80,5703.2896770,N,00952.3633303,E,2,11,0.9,-1.799,M,40.593,M,3.7,0123*61\r\n
$GPGGA,103855.85,5703.2896831,N,00952.3633378,E,2,11,0.9,-1.792,M,40.593,M,3.9,0123*67\r\n
$GPGGA,103855.90,5703.2896893,N,00952.3633431,E,2,11,0.9,-1.791,M,40.593,M,3.9,0123*62\r\n
$GPGGA,103855.95,5703.2896961,N,00952.3633482,E,2,11,0.9,-1.786,M,40.593,M,3.9,0123*65\r\n
$GPGGA,103856.00,5703.2897039,N,00952.3633532,E,2,11,0.9,-1.780,M,40.593,M,3.9,0123*63\r\n
$GPGGA,103856.05,5703.2897114,N,00952.3633573,E,2,11,0.9,-1.780,M,40.593,M,4.1,0123*62\r\n
$GPGGA,103856.10,5703.2897187,N,00952.3633636,E,2,11,0.9,-1.775,M,40.593,M,4.1,0123*64\r\n
$GPGGA,103856.15,5703.2897251,N,00952.3633688,E,2,11,0.9,-1.773,M,40.593,M,4.1,0123*6A\r\n
$GPGGA,103856.20,5703.2897317,N,00952.3633740,E,2,11,0.9,-1.771,M,40.593,M,4.1,0123*68\r\n
$GPGGA,103856.25,5703.2897405,N,00952.3633808,E,2,11,0.9,-1.768,M,40.593,M,4.3,0123*60\r\n
$GPGGA,103856.30,5703.2897487,N,00952.3633881,E,2,11,0.9,-1.770,M,40.593,M,4.3,0123*66\r\n
$GPGGA,103856.35,5703.2897560,N,00952.3633981,E,2,11,0.9,-1.771,M,40.593,M,4.3,0123*6B\r\n
$GPGGA,103856.40,5703.2897635,N,00952.3634056,E,2,11,0.9,-1.769,M,40.593,M,4.3,0123*67\r\n
$GPGGA,103856.45,5703.2897709,N,00952.3634111,E,2,11,0.9,-1.774,M,40.593,M,2.2,0123*65\r\n
$GPGGA,103856.50,5703.2897788,N,00952.3634176,E,2,11,0.9,-1.774,M,40.593,M,2.2,0123*69\r\n
$GPGGA,103856.55,5703.2897864,N,00952.3634258,E,2,11,0.9,-1.772,M,40.593,M,2.2,0123*68\r\n
$GPGGA,103856.60,5703.2897948,N,00952.3634350,E,2,11,0.9,-1.773,M,40.593,M,2.2,0123*69\r\n
$GPGGA,103856.65,5703.2898025,N,00952.3634412,E,2,11,0.9,-1.776,M,40.593,M,2.4,0123*63\r\n
$GPGGA,103856.70,5703.2898104,N,00952.3634468,E,2,11,0.9,-1.776,M,40.593,M,2.4,0123*68\r\n
$GPGGA,103856.75,5703.2898170,N,00952.3634526,E,2,11,0.9,-1.777,M,40.593,M,2.4,0123*64\r\n
$GPGGA,103856.80,5703.2898231,N,00952.3634570,E,2,11,0.9,-1.777,M,40.593,M,2.4,0123*6B\r\n
$GPGGA,103856.85,5703.2898295,N,00952.3634612,E,2,11,0.9,-1.784,M,40.593,M,2.7,0123*68\r\n
$GPGGA,103856.90,5703.2898372,N,00952.3634647,E,2,11,0.9,-1.785,M,40.593,M,2.7,0123*65\r\n
$GPGGA,103856.95,5703.2898447,N,00952.3634686,E,2,11,0.9,-1.784,M,40.593,M,2.7,0123*6D\r\n
$GPGGA,103857.00,5703.2898518,N,00952.3634732,E,2,11,0.9,-1.781,M,40.593,M,2.7,0123*60\r\n
$GPGGA,103857.05,5703.2898606,N,00952.3634761,E,2,11,0.9,-1.775,M,40.593,M,2.9,0123*6A\r\n
$GPGGA,103857.10,5703.2898682,N,00952.3634779,E,2,11,0.9,-1.777,M,40.593,M,2.9,0123*69\r\n
$GPGGA,103857.15,5703.2898757,N,00952.3634785,E,2,11,0.9,-1.778,M,40.593,M,2.9,0123*69\r\n
$GPGGA,103857.20,5703.2898834,N,00952.3634785,E,2,11,0.9,-1.780,M,40.593,M,2.9,0123*62\r\n
$GPGGA,103857.25,5703.2898898,N,00952.3634810,E,2,11,0.9,-1.782,M,40.593,M,3.1,0123*69\r\n
$GPGGA,103857.30,5703.2898965,N,00952.3634857,E,2,11,0.9,-1.781,M,40.593,M,3.1,0123*6E\r\n
$GPGGA,103857.35,5703.2899039,N,00952.3634917,E,2,11,0.9,-1.784,M,40.593,M,3.1,0123*6A\r\n
$GPGGA,103857.40,5703.2899100,N,00952.3634955,E,2,11,0.9,-1.790,M,40.593,M,3.1,0123*60\r\n
$GPGGA,103857.45,5703.2899163,N,00952.3635022,E,2,11,0.9,-1.793,M,40.593,M,2.0,0123*6B\r\n
$GPGGA,103857.50,5703.2899224,N,00952.3635084,E,2,11,0.9,-1.796,M,40.593,M,2.0,0123*66\r\n
$GPGGA,103857.55,5703.2899285,N,00952.3635132,E,2,11,0.9,-1.796,M,40.593,M,2.0,0123*64\r\n
$GPGGA,103857.60,5703.2899347,N,00952.3635201,E,2,11,0.9,-1.798,M,40.593,M,2.0,0123*60\r\n
$GPGGA,103857.65,5703.2899412,N,00952.3635256,E,2,11,0.9,-1.800,M,40.593,M,2.3,0123*6D\r\n
$GPGGA,103857.70,5703.2899486,N,00952.3635315,E,2,11,0.9,-1.800,M,40.593,M,2.3,0123*62\r\n
$GPGGA,103857.75,5703.2899564,N,00952.3635371,E,2,11,0.9,-1.800,M,40.593,M,2.3,0123*68\r\n
$GPGGA,103857.80,5703.2899632,N,00952.3635440,E,2,11,0.9,-1.799,M,40.593,M,2.3,0123*68\r\n
$GPGGA,103857.85,5703.2899702,N,00952.3635505,E,2,11,0.9,-1.795,M,40.593,M,2.5,0123*65\r\n
$GPGGA,103857.90,5703.2899771,N,00952.3635561,E,2,11,0.9,-1.793,M,40.593,M,2.5,0123*61\r\n
$GPGGA,103857.95,5703.2899850,N,00952.3635616,E,2,11,0.9,-1.791,M,40.593,M,2.5,0123*69\r\n
$GPGGA,103858.00,5703.2899928,N,00952.3635659,E,2,11,0.9,-1.789,M,40.593,M,2.5,0123*66\r\n
$GPGGA,103858.05,5703.2899998,N,00952.3635719,E,2,11,0.9,-1.783,M,40.593,M,2.7,0123*65\r\n
$GPGGA,103858.10,5703.2900081,N,00952.3635765,E,2,11,0.9,-1.783,M,40.593,M,2.7,0123*6A\r\n
$GPGGA,103858.15,5703.2900156,N,00952.3635804,E,2,11,0.9,-1.781,M,40.593,M,2.7,0123*6E\r\n
$GPGGA,103858.20,5703.2900232,N,00952.3635842,E,2,11,0.9,-1.777,M,40.593,M,2.7,0123*62\r\n
$GPGGA,103858.25,5703.2900298,N,00952.3635888,E,2,11,0.9,-1.778,M,40.593,M,2.9,0123*60\r\n
$GPGGA,103858.30,5703.2900360,N,00952.3635927,E,2,11,0.9,-1.777,M,40.593,M,2.9,0123*69\r\n
$GPGGA,103858.35,5703.2900420,N,00952.3635979,E,2,11,0.9,-1.777,M,40.593,M,2.9,0123*64\r\n
$GPGGA,103858.40,5703.2900485,N,00952.3636044,E,2,11,0.9,-1.776,M,40.593,M,2.9,0123*6C\r\n
$GPGGA,103858.45,5703.2900562,N,00952.3636108,E,2,11,0.9,-1.761,M,40.593,M,2.4,0123*63\r\n
$GPGGA,103858.50,5703.2900635,N,00952.3636181,E,2,11,0.9,-1.758,M,40.593,M,2.4,0123*6D\r\n
$GPGGA,103858.55,5703.2900698,N,00952.3636234,E,2,11,0.9,-1.761,M,40.593,M,2.4,0123*68\r\n
$GPGGA,103858.60,5703.2900758,N,00952.3636284,E,2,11,0.9,-1.759,M,40.593,M,2.4,0123*63\r\n
$GPGGA,103858.65,5703.2900812,N,00952.3636332,E,2,11,0.9,-1.762,M,40.593,M,2.6,0123*61\r\n
$GPGGA,103858.70,5703.2900870,N,00952.3636367,E,2,11,0.9,-1.764,M,40.593,M,2.6,0123*67\r\n
$GPGGA,103858.75,5703.2900929,N,00952.3636417,E,2,11,0.9,-1.763,M,40.593,M,2.6,0123*68\r\n
$GPGGA,103858.80,5703.2900993,N,00952.3636459,E,2,11,0.9,-1.765,M,40.593,M,2.6,0123*6F\r\n
