$GPGGA,083001.40,5703.2879660,N,00952.3667351,E,2,10,0.8,-2.192,M,40.593,M,3.5,0123*66\r\n
$GPGGA,083001.45,5703.2879653,N,00952.3667347,E,2,10,0.8,-2.193,M,40.593,M,2.1,0123*60\r\n
$GPGGA,083001.50,5703.2879650,N,00952.3667342,E,2,10,0.8,-2.193,M,40.593,M,2.1,0123*62\r\n
$GPGGA,083001.55,5703.2879647,N,00952.3667338,E,2,10,0.8,-2.193,M,40.593,M,2.1,0123*6C\r\n
$GPGGA,083001.60,5703.2879642,N,00952.3667328,E,2,10,0.8,-2.193,M,40.593,M,2.1,0123*6E\r\n
$GPGGA,083001.65,5703.2879641,N,00952.3667318,E,2,10,0.8,-2.193,M,40.593,M,2.3,0123*69\r\n
$GPGGA,083001.70,5703.2879638,N,00952.3667312,E,2,10,0.8,-2.193,M,40.593,M,2.3,0123*69\r\n
$GPGGA,083001.75,5703.2879634,N,00952.3667305,E,2,10,0.8,-2.193,M,40.593,M,2.3,0123*66\r\n
$GPGGA,083001.80,5703.2879631,N,00952.3667299,E,2,10,0.8,-2.192,M,40.593,M,2.3,0123*6C\r\n
$GPGGA,083001.85,5703.2879630,N,00952.3667294,E,2,10,0.8,-2.192,M,40.593,M,2.6,0123*60\r\n
$GPGGA,083001.90,5703.2879627,N,00952.3667285,E,2,10,0.8,-2.192,M,40.593,M,2.6,0123*62\r\n
$GPGGA,083001.95,5703.2879624,N,00952.3667280,E,2,10,0.8,-2.192,M,40.593,M,2.6,0123*61\r\n
$GPGGA,083002.00,5703.2879618,N,00952.3667272,E,2,10,0.8,-2.192,M,40.593,M,2.6,0123*6C\r\n
$GPGGA,083002.05,5703.2879603,N,00952.3667254,E,2,10,0.8,-2.195,M,40.593,M,2.8,0123*6E\r\n
$GPGGA,083002.10,5703.2879601,N,00952.3667250,E,2,10,0.8,-2.195,M,40.593,M,2.8,0123*6C\r\n
$GPGGA,083002.15,5703.2879597,N,00952.3667242,E,2,10,0.8,-2.195,M,40.593,M,2.8,0123*66\r\n
$GPGGA,083002.20,5703.2879593,N,00952.3667234,E,2,10,0.8,-2.195,M,40.593,M,2.8,0123*65\r\n
$GPGGA,083002.25,5703.2879602,N,00952.3667229,E,2,10,0.8,-2.198,M,40.593,M,3.0,0123*63\r\n
$GPGGA,083002.30,5703.2879599,N,00952.3667220,E,2,10,0.8,-2.198,M,40.593,M,3.0,0123*6F\r\n
$GPGGA,083002.35,5703.2879596,N,00952.3667215,E,2,10,0.8,-2.199,M,40.593,M,3.0,0123*62\r\n
$GPGGA,083002.40,5703.2879591,N,00952.3667204,E,2,10,0.8,-2.199,M,40.593,M,3.0,0123*67\r\n
$GPGGA,083002.45,5703.2879579,N,00952.3667194,E,2,10,0.8,-2.192,M,40.593,M,2.1,0123*65\r\n
$GPGGA,083002.50,5703.2879575,N,00952.3667188,E,2,10,0.8,-2.192,M,40.593,M,2.1,0123*60\r\n
$GPGGA,083002.55,5703.2879571,N,00952.3667179,E,2,10,0.8,-2.192,M,40.593,M,2.1,0123*6F\r\n
$GPGGA,083002.60,5703.2879567,N,00952.3667172,E,2,10,0.8,-2.192,M,40.593,M,2.1,0123*65\r\n
$GPGGA,083002.65,5703.2879572,N,00952.3667174,E,2,10,0.8,-2.196,M,40.593,M,2.4,0123*63\r\n
$GPGGA,083002.70,5703.2879569,N,00952.3667169,E,2,10,0.8,-2.196,M,40.593,M,2.4,0123*61\r\n
$GPGGA,083002.75,5703.2879565,N,00952.3667161,E,2,10,0.8,-2.196,M,40.593,M,2.4,0123*60\r\n
$GPGGA,083002.80,5703.2879564,N,00952.3667155,E,2,10,0.8,-2.197,M,40.593,M,2.4,0123*6D\r\n
$GPGGA,083002.85,5703.2879567,N,00952.3667144,E,2,10,0.8,-2.197,M,40.593,M,2.6,0123*69\r\n
$GPGGA,083002.90,5703.2879565,N,00952.3667135,E,2,10,0.8,-2.197,M,40.593,M,2.6,0123*69\r\n
$GPGGA,083002.95,5703.2879562,N,00952.3667128,E,2,10,0.8,-2.198,M,40.593,M,2.6,0123*68\r\n
$GPGGA,083003.00,5703.2879558,N,00952.3667121,E,2,10,0.8,-2.198,M,40.593,M,2.6,0123*65\r\n
$GPGGA,083003.05,5703.2879547,N,00952.3667096,E,2,10,0.8,-2.195,M,40.593,M,2.8,0123*60\r\n
$GPGGA,083003.10,5703.2879545,N,00952.3667087,E,2,10,0.8,-2.195,M,40.593,M,2.8,0123*66\r\n
$GPGGA,083003.15,5703.2879541,N,00952.3667078,E,2,10,0.8,-2.195,M,40.593,M,2.8,0123*67\r\n
$GPGGA,083003.20,5703.2879537,N,00952.3667068,E,2,10,0.8,-2.195,M,40.593,M,2.8,0123*61\r\n
$GPGGA,083003.25,5703.2879537,N,00952.3667057,E,2,10,0.8,-2.198,M,40.593,M,3.0,0123*6C\r\n
$GPGGA,083003.30,5703.2879535,N,00952.3667050,E,2,10,0.8,-2.198,M,40.593,M,3.0,0123*6D\r\n
$GPGGA,083003.35,5703.2879528,N,00952.3667040,E,2,10,0.8,-2.198,M,40.593,M,3.0,0123*65\r\n
$GPGGA,083003.40,5703.2879526,N,00952.3667030,E,2,10,0.8,-2.198,M,40.593,M,3.0,0123*6E\r\n
$GPGGA,083003.45,5703.2879515,N,00952.3667027,E,2,10,0.8,-2.196,M,40.593,M,3.2,0123*61\r\n
$GPGGA,083003.50,5703.2879511,N,00952.3667018,E,2,10,0.8,-2.196,M,40.593,M,3.2,0123*6D\r\n
$GPGGA,083003.55,5703.2879507,N,00952.3667009,E,2,9,0.8,-2.196,M,40.593,M,3.2,0123*57\r\n
$GPGGA,083003.60,5703.2879504,N,00952.3667003,E,2,9,0.8,-2.196,M,40.593,M,3.2,0123*58\r\n
$GPGGA,083003.65,5703.2879506,N,00952.3666997,E,2,10,0.8,-2.198,M,40.593,M,3.4,0123*6A\r\n
$GPGGA,083003.70,5703.2879501,N,00952.3666989,E,2,10,0.8,-2.198,M,40.593,M,3.4,0123*66\r\n
$GPGGA,083003.75,5703.2879498,N,00952.3666981,E,2,10,0.8,-2.198,M,40.593,M,3.4,0123*6A\r\n
$GPGGA,083003.80,5703.2879497,N,00952.3666972,E,2,10,0.8,-2.199,M,40.593,M,3.4,0123*62\r\n
$GPGGA,083003.85,5703.2879498,N,00952.3666963,E,2,10,0.8,-2.202,M,40.593,M,3.6,0123*6B\r\n
$GPGGA,083003.90,5703.2879493,N,00952.3666953,E,2,10,0.8,-2.202,M,40.593,M,3.6,0123*67\r\n
$GPGGA,083003.95,5703.2879490,N,00952.3666944,E,2,10,0.8,-2.203,M,40.593,M,3.6,0123*66\r\n
$GPGGA,083004.00,5703.2879487,N,00952.3666933,E,2,10,0.8,-2.203,M,40.593,M,3.6,0123*6B\r\n
$GPGGA,083004.05,5703.2879484,N,00952.3666916,E,2,10,0.8,-2.198,M,40.593,M,3.8,0123*65\r\n
$GPGGA,083004.10,5703.2879479,N,00952.3666905,E,2,10,0.8,-2.198,M,40.593,M,3.8,0123*61\r\n
$GPGGA,083004.15,5703.2879478,N,00952.3666898,E,2,10,0.8,-2.199,M,40.593,M,3.8,0123*61\r\n
$GPGGA,083004.20,5703.2879474,N,00952.3666887,E,2,10,0.8,-2.199,M,40.593,M,3.8,0123*65\r\n
$GPGGA,083004.25,5703.2879474,N,00952.3666878,E,2,10,0.8,-2.195,M,40.593,M,4.1,0123*62\r\n
$GPGGA,083004.30,5703.2879472,N,00952.3666870,E,2,10,0.8,-2.196,M,40.593,M,4.1,0123*6B\r\n
$GPGGA,083004.35,5703.2879469,N,00952.3666860,E,2,10,0.8,-2.196,M,40.593,M,4.1,0123*65\r\n
$GPGGA,083004.40,5703.2879466,N,00952.3666856,E,2,10,0.8,-2.196,M,40.593,M,4.1,0123*6D\r\n
$GPGGA,083004.45,5703.2879468,N,00952.3666861,E,2,10,0.8,-2.203,M,40.593,M,2.5,0123*6F\r\n
$GPGGA,083004.50,5703.2879463,N,00952.3666851,E,2,10,0.8,-2.203,M,40.593,M,2.5,0123*63\r\n
$GPGGA,083004.55,5703.2879461,N,00952.3666846,E,2,10,0.8,-2.203,M,40.593,M,2.5,0123*62\r\n
$GPGGA,083004.60,5703.2879459,N,00952.3666833,E,2,10,0.8,-2.204,M,40.593,M,2.5,0123*6A\r\n
$GPGGA,083004.65,5703.2879455,N,00952.3666808,E,2,10,0.8,-2.198,M,40.593,M,2.8,0123*60\r\n
$GPGGA,083004.70,5703.2879452,N,00952.3666802,E,2,10,0.8,-2.199,M,40.593,M,2.8,0123*68\r\n
$GPGGA,083004.75,5703.2879449,N,00952.3666794,E,2,10,0.8,-2.199,M,40.593,M,2.8,0123*67\r\n
$GPGGA,083004.80,5703.2879446,N,00952.3666788,E,2,10,0.8,-2.199,M,40.593,M,2.8,0123*6F\r\n
$GPGGA,083004.85,5703.2879437,N,00952.3666797,E,2,10,0.8,-2.199,M,40.593,M,3.0,0123*6B\r\n
$GPGGA,083004.90,5703.2879434,N,00952.3666790,E,2,10,0.8,-2.199,M,40.593,M,3.0,0123*6B\r\n
$GPGGA,083004.95,5703.2879430,N,00952.3666780,E,2,10,0.8,-2.199,M,40.593,M,3.0,0123*6B\r\n
$GPGGA,083005.00,5703.2879428,N,00952.3666771,E,2,10,0.8,-2.199,M,40.593,M,3.0,0123*61\r\n
$GPGGA,083005.05,5703.2879436,N,00952.3666734,E,2,10,0.8,-2.200,M,40.593,M,3.3,0123*6A\r\n
$GPGGA,083005.10,5703.2879434,N,00952.3666727,E,2,10,0.8,-2.200,M,40.593,M,3.3,0123*6E\r\n
$GPGGA,083005.15,5703.2879432,N,00952.3666722,E,2,10,0.8,-2.200,M,40.593,M,3.3,0123*68\r\n
$GPGGA,083005.20,5703.2879431,N,00952.3666712,E,2,10,0.8,-2.201,M,40.593,M,3.3,0123*6F\r\n
$GPGGA,083005.25,5703.2879434,N,00952.3666721,E,2,10,0.8,-2.200,M,40.593,M,3.5,0123*68\r\n
$GPGGA,083005.30,5703.2879431,N,00952.3666712,E,2,10,0.8,-2.200,M,40.593,M,3.5,0123*69\r\n
$GPGGA,083005.35,5703.2879428,N,00952.3666707,E,2,10,0.8,-2.200,M,40.593,M,3.5,0123*60\r\n
$GPGGA,083005.40,5703.2879428,N,00952.3666700,E,2,10,0.8,-2.200,M,40.593,M,3.5,0123*65\r\n
$GPGGA,083005.45,5703.2879423,N,00952.3666688,E,2,10,0.8,-2.195,M,40.593,M,2.1,0123*60\r\n
$GPGGA,083005.50,5703.2879420,N,00952.3666681,E,2,10,0.8,-2.195,M,40.593,M,2.1,0123*6E\r\n
$GPGGA,083005.55,5703.2879417,N,00952.3666672,E,2,10,0.8,-2.195,M,40.593,M,2.1,0123*63\r\n
$GPGGA,083005.60,5703.2879413,N,00952.3666662,E,2,10,0.8,-2.195,M,40.593,M,2.1,0123*60\r\n
$GPGGA,083005.65,5703.2879399,N,00952.3666651,E,2,10,0.8,-2.200,M,40.593,M,2.3,0123*6D\r\n
$GPGGA,083005.70,5703.2879398,N,00952.3666649,E,2,10,0.8,-2.200,M,40.593,M,2.3,0123*61\r\n
$GPGGA,083005.75,5703.2879395,N,00952.3666641,E,2,10,0.8,-2.200,M,40.593,M,2.3,0123*61\r\n
$GPGGA,083005.80,5703.2879392,N,00952.3666632,E,2,10,0.8,-2.200,M,40.593,M,2.3,0123*68\r\n
$GPGGA,083005.85,5703.2879393,N,00952.3666637,E,2,10,0.8,-2.206,M,40.593,M,2.6,0123*6A\r\n
$GPGGA,083005.90,5703.2879391,N,00952.3666631,E,2,10,0.8,-2.206,M,40.593,M,2.6,0123*6A\r\n
$GPGGA,083005.95,5703.2879390,N,00952.3666626,E,2,10,0.8,-2.206,M,40.593,M,2.6,0123*68\r\n
$GPGGA,083006.00,5703.2879386,N,00952.3666616,E,2,10,0.8,-2.206,M,40.593,M,2.6,0123*63\r\n
$GPGGA,083006.05,5703.2879395,N,00952.3666589,E,2,10,0.8,-2.195,M,40.593,M,2.8,0123*66\r\n
$GPGGA,083006.10,5703.2879394,N,00952.3666581,E,2,10,0.8,-2.194,M,40.593,M,2.8,0123*6A\r\n
$GPGGA,083006.15,5703.2879391,N,00952.3666573,E,2,10,0.8,-2.194,M,40.593,M,2.8,0123*67\r\n
$GPGGA,083006.20,5703.2879390,N,00952.3666567,E,2,10,0.8,-2.194,M,40.593,M,2.8,0123*65\r\n
$GPGGA,083006.25,5703.2879391,N,00952.3666566,E,2,10,0.8,-2.200,M,40.593,M,3.0,0123*67\r\n
$GPGGA,083006.30,5703.2879388,N,00952.3666564,E,2,10,0.8,-2.200,M,40.593,M,3.0,0123*69\r\n
$GPGGA,083006.35,5703.2879386,N,00952.3666557,E,2,10,0.8,-2.199,M,40.593,M,3.0,0123*61\r\n
$GPGGA,083006.40,5703.2879383,N,00952.3666550,E,2,10,0.8,-2.199,M,40.593,M,3.0,0123*61\r\n
$GPGGA,083006.45,5703.2879367,N,00952.3666547,E,2,10,0.8,-2.198,M,40.593,M,2.1,0123*69\r\n
$GPGGA,083006.50,5703.2879365,N,00952.3666544,E,2,10,0.8,-2.198,M,40.593,M,2.1,0123*6C\r\n
$GPGGA,083006.55,5703.2879361,N,00952.3666537,E,2,10,0.8,-2.198,M,40.593,M,2.1,0123*69\r\n
$GPGGA,083006.60,5703.2879358,N,00952.3666527,E,2,10,0.8,-2.197,M,40.593,M,2.1,0123*6B\r\n
$GPGGA,083006.65,5703.2879369,N,00952.3666505,E,2,10,0.8,-2.190,M,40.593,M,2.4,0123*6E\r\n
$GPGGA,083006.70,5703.2879367,N,00952.3666500,E,2,10,0.8,-2.190,M,40.593,M,2.4,0123*61\r\n
$GPGGA,083006.75,5703.2879365,N,00952.3666498,E,2,10,0.8,-2.189,M,40.593,M,2.4,0123*6E\r\n
$GPGGA,083006.80,5703.2879363,N,00952.3666490,E,2,10,0.8,-2.188,M,40.593,M,2.4,0123*6B\r\n
$GPGGA,083006.85,5703.2879352,N,00952.3666509,E,2,10,0.8,-2.199,M,40.593,M,2.6,0123*6F\r\n
$GPGGA,083006.90,5703.2879351,N,00952.3666504,E,2,10,0.8,-2.199,M,40.593,M,2.6,0123*65\r\n
$GPGGA,083006.95,5703.2879347,N,00952.3666502,E,2,10,0.8,-2.198,M,40.593,M,2.6,0123*60\r\n
$GPGGA,083007.00,5703.2879344,N,00952.3666494,E,2,10,0.8,-2.198,M,40.593,M,2.6,0123*60\r\n
$GPGGA,083007.05,5703.2879340,N,00952.3666476,E,2,9,0.8,-2.194,M,40.593,M,2.8,0123*57\r\n
$GPGGA,083007.10,5703.2879336,N,00952.3666471,E,2,9,0.8,-2.194,M,40.593,M,2.8,0123*55\r\n
$GPGGA,083007.15,5703.2879333,N,00952.3666461,E,2,9,0.8,-2.194,M,40.593,M,2.8,0123*54\r\n
$GPGGA,083007.20,5703.2879331,N,00952.3666454,E,2,9,0.8,-2.193,M,40.593,M,2.8,0123*51\r\n
$GPGGA,083007.25,5703.2879331,N,00952.3666437,E,2,10,0.8,-2.193,M,40.593,M,3.0,0123*60\r\n
$GPGGA,083007.30,5703.2879328,N,00952.3666430,E,2,9,0.8,-2.193,M,40.593,M,3.0,0123*53\r\n
$GPGGA,083007.35,5703.2879323,N,00952.3666425,E,2,9,0.8,-2.193,M,40.593,M,3.0,0123*59\r\n
$GPGGA,083007.40,5703.2879320,N,00952.3666415,E,2,9,0.8,-2.193,M,40.593,M,3.0,0123*5B\r\n
$GPGGA,083007.45,5703.2879313,N,00952.3666405,E,2,9,0.8,-2.195,M,40.593,M,1.0,0123*5B\r\n
$GPGGA,083007.50,5703.2879310,N,00952.3666399,E,2,9,0.8,-2.195,M,40.593,M,1.0,0123*5E\r\n
$GPGGA,083007.55,5703.2879307,N,00952.3666392,E,2,9,0.8,-2.195,M,40.593,M,1.0,0123*56\r\n
$GPGGA,083007.60,5703.2879303,N,00952.3666386,E,2,9,0.8,-2.195,M,40.593,M,1.0,0123*51\r\n
$GPGGA,083007.65,5703.2879303,N,00952.3666391,E,2,9,0.8,-2.198,M,40.593,M,1.4,0123*5B\r\n
$GPGGA,083007.70,5703.2879301,N,00952.3666389,E,2,9,0.8,-2.198,M,40.593,M,1.4,0123*54\r\n
$GPGGA,083007.75,5703.2879297,N,00952.3666382,E,2,9,0.8,-2.198,M,40.593,M,1.4,0123*54\r\n
$GPGGA,083007.80,5703.2879295,N,00952.3666377,E,2,9,0.8,-2.199,M,40.593,M,1.4,0123*57\r\n
$GPGGA,083007.85,5703.2879294,N,00952.3666370,E,2,9,0.8,-2.196,M,40.593,M,1.7,0123*58\r\n
$GPGGA,083007.90,5703.2879292,N,00952.3666366,E,2,9,0.8,-2.197,M,40.593,M,1.7,0123*5C\r\n
$GPGGA,083007.95,5703.2879288,N,00952.3666359,E,2,9,0.8,-2.197,M,40.593,M,1.7,0123*5E\r\n
$GPGGA,083008.00,5703.2879286,N,00952.3666354,E,2,9,0.8,-2.197,M,40.593,M,1.7,0123*5E\r\n
$GPGGA,083008.05,5703.2879290,N,00952.3666337,E,2,9,0.8,-2.198,M,40.593,M,2.0,0123*52\r\n
$GPGGA,083008.10,5703.2879287,N,00952.3666328,E,2,9,0.8,-2.198,M,40.593,M,2.0,0123*5E\r\n
$GPGGA,083008.15,5703.2879284,N,00952.3666321,E,2,9,0.8,-2.198,M,40.593,M,2.0,0123*51\r\n
$GPGGA,083008.20,5703.2879282,N,00952.3666315,E,2,9,0.8,-2.199,M,40.593,M,2.0,0123*57\r\n
$GPGGA,083008.25,5703.2879281,N,00952.3666305,E,2,9,0.8,-2.196,M,40.593,M,2.3,0123*5C\r\n
$GPGGA,083008.30,5703.2879278,N,00952.3666299,E,2,9,0.8,-2.196,M,40.593,M,2.3,0123*5A\r\n
$GPGGA,083008.35,5703.2879276,N,00952.3666290,E,2,9,0.8,-2.197,M,40.593,M,2.3,0123*59\r\n
$GPGGA,083008.40,5703.2879276,N,00952.3666283,E,2,9,0.8,-2.197,M,40.593,M,2.3,0123*59\r\n
$GPGGA,083008.45,5703.2879282,N,00952.3666280,E,2,9,0.8,-2.197,M,40.593,M,0.8,0123*5D\r\n
$GPGGA,083008.50,5703.2879281,N,00952.3666275,E,2,9,0.8,-2.197,M,40.593,M,0.8,0123*50\r\n
$GPGGA,083008.55,5703.2879278,N,00952.3666271,E,2,9,0.8,-2.197,M,40.593,M,0.8,0123*57\r\n
$GPGGA,083008.60,5703.2879276,N,00952.3666265,E,2,9,0.8,-2.197,M,40.593,M,0.8,0123*5A\r\n
$GPGGA,083008.65,5703.2879261,N,00952.3666259,E,2,9,0.8,-2.194,M,40.593,M,1.1,0123*5D\r\n
$GPGGA,083008.70,5703.2879260,N,00952.3666253,E,2,9,0.8,-2.194,M,40.593,M,1.1,0123*52\r\n
$GPGGA,083008.75,5703.2879256,N,00952.3666251,E,2,9,0.8,-2.194,M,40.593,M,1.1,0123*50\r\n
$GPGGA,083008.80,5703.2879254,N,00952.3666244,E,2,9,0.8,-2.194,M,40.593,M,1.1,0123*5C\r\n
$GPGGA,083008.85,5703.2879253,N,00952.3666244,E,2,9,0.8,-2.198,M,40.593,M,1.3,0123*50\r\n
$GPGGA,083008.90,5703.2879251,N,00952.3666235,E,2,9,0.8,-2.198,M,40.593,M,1.3,0123*50\r\n
$GPGGA,083008.95,5703.2879250,N,00952.3666232,E,2,9,0.8,-2.198,M,40.593,M,1.3,0123*53\r\n
$GPGGA,083009.00,5703.2879248,N,00952.3666225,E,2,9,0.8,-2.198,M,40.593,M,1.3,0123*51\r\n
$GPGGA,083009.05,5703.2879259,N,00952.3666205,E,2,9,0.8,-2.196,M,40.593,M,1.6,0123*5D\r\n
$GPGGA,083009.10,5703.2879259,N,00952.3666199,E,2,9,0.8,-2.196,M,40.593,M,1.6,0123*5F\r\n
$GPGGA,083009.15,5703.2879258,N,00952.3666194,E,2,9,0.8,-2.196,M,40.593,M,1.6,0123*56\r\n
$GPGGA,083009.20,5703.2879256,N,00952.3666191,E,2,9,0.8,-2.196,M,40.593,M,1.6,0123*5B\r\n
$GPGGA,083009.25,5703.2879253,N,00952.3666187,E,2,9,0.8,-2.194,M,40.593,M,1.8,0123*50\r\n
$GPGGA,083009.30,5703.2879251,N,00952.3666182,E,2,9,0.8,-2.195,M,40.593,M,1.8,0123*52\r\n
$GPGGA,083009.35,5703.2879250,N,00952.3666175,E,2,9,0.8,-2.195,M,40.593,M,1.8,0123*5E\r\n
$GPGGA,083009.40,5703.2879249,N,00952.3666169,E,2,9,0.8,-2.194,M,40.593,M,1.8,0123*58\r\n
$GPGGA,083009.45,5703.2879239,N,00952.3666162,E,2,10,0.8,-2.199,M,40.593,M,0.9,0123*64\r\n
$GPGGA,083009.50,5703.2879237,N,00952.3666153,E,2,9,0.8,-2.199,M,40.593,M,0.9,0123*54\r\n
$GPGGA,083009.55,5703.2879233,N,00952.3666151,E,2,9,0.8,-2.200,M,40.593,M,0.9,0123*54\r\n
$GPGGA,083009.60,5703.2879233,N,00952.3666142,E,2,9,0.8,-2.200,M,40.593,M,0.9,0123*50\r\n
$GPGGA,083009.65,5703.2879225,N,00952.3666131,E,2,9,0.8,-2.201,M,40.593,M,1.2,0123*5D\r\n
$GPGGA,083009.70,5703.2879223,N,00952.3666126,E,2,9,0.8,-2.201,M,40.593,M,1.2,0123*59\r\n
$GPGGA,083009.75,5703.2879222,N,00952.3666121,E,2,9,0.8,-2.201,M,40.593,M,1.2,0123*5A\r\n
$GPGGA,083009.80,5703.2879221,N,00952.3666119,E,2,9,0.8,-2.202,M,40.593,M,1.2,0123*5B\r\n
$GPGGA,083009.85,5703.2879232,N,00952.3666120,E,2,9,0.8,-2.198,M,40.593,M,1.4,0123*50\r\n
$GPGGA,083009.90,5703.2879230,N,00952.3666114,E,2,9,0.8,-2.198,M,40.593,M,1.4,0123*51\r\n
$GPGGA,083009.95,5703.2879229,N,00952.3666108,E,2,9,0.8,-2.199,M,40.593,M,1.4,0123*50\r\n
$GPGGA,083010.00,5703.2879228,N,00952.3666106,E,2,9,0.8,-2.199,M,40.593,M,1.4,0123*5B\r\n
$GPGGA,083010.05,5703.2879243,N,00952.3666081,E,2,9,0.8,-2.194,M,40.593,M,1.7,0123*53\r\n
$GPGGA,083010.10,5703.2879241,N,00952.3666077,E,2,9,0.8,-2.194,M,40.593,M,1.7,0123*5C\r\n
$GPGGA,083010.15,5703.2879240,N,00952.3666071,E,2,9,0.8,-2.194,M,40.593,M,1.7,0123*5E\r\n
$GPGGA,083010.20,5703.2879239,N,00952.3666072,E,2,9,0.8,-2.194,M,40.593,M,1.7,0123*55\r\n
$GPGGA,083010.25,5703.2879235,N,00952.3666085,E,2,9,0.8,-2.201,M,40.593,M,1.9,0123*55\r\n
$GPGGA,083010.30,5703.2879233,N,00952.3666080,E,2,9,0.8,-2.201,M,40.593,M,1.9,0123*52\r\n
$GPGGA,083010.35,5703.2879231,N,00952.3666077,E,2,9,0.8,-2.202,M,40.593,M,1.9,0123*5E\r\n
$GPGGA,083010.40,5703.2879232,N,00952.3666071,E,2,9,0.8,-2.202,M,40.593,M,1.9,0123*59\r\n
$GPGGA,083010.45,5703.2879244,N,00952.3666049,E,2,9,0.8,-2.196,M,40.593,M,2.1,0123*53\r\n
$GPGGA,083010.50,5703.2879242,N,00952.3666045,E,2,9,0.8,-2.196,M,40.593,M,2.1,0123*5D\r\n
$GPGGA,083010.55,5703.2879241,N,00952.3666041,E,2,9,0.8,-2.196,M,40.593,M,2.1,0123*5F\r\n
$GPGGA,083010.60,5703.2879242,N,00952.3666040,E,2,9,0.8,-2.196,M,40.593,M,2.1,0123*5B\r\n
$GPGGA,083010.65,5703.2879224,N,00952.3666046,E,2,9,0.8,-2.199,M,40.593,M,2.4,0123*52\r\n
$GPGGA,083010.70,5703.2879224,N,00952.3666045,E,2,9,0.8,-2.199,M,40.593,M,2.4,0123*55\r\n
$GPGGA,083010.75,5703.2879221,N,00952.3666042,E,2,9,0.8,-2.200,M,40.593,M,2.4,0123*51\r\n
$GPGGA,083010.80,5703.2879219,N,00952.3666041,E,2,9,0.8,-2.200,M,40.593,M,2.4,0123*53\r\n
$GPGGA,083010.85,5703.2879214,N,00952.3666033,E,2,9,0.8,-2.199,M,40.593,M,2.6,0123*5F\r\n
$GPGGA,083010.90,5703.2879214,N,00952.3666031,E,2,9,0.8,-2.199,M,40.593,M,2.6,0123*59\r\n
$GPGGA,083010.95,5703.2879211,N,00952.3666030,E,2,9,0.8,-2.199,M,40.593,M,2.6,0123*58\r\n
$GPGGA,083011.00,5703.2879208,N,00952.3666031,E,2,9,0.8,-2.199,M,40.593,M,2.6,0123*5C\r\n
$GPGGA,083011.05,5703.2879240,N,00952.3666007,E,2,9,0.8,-2.193,M,40.593,M,2.8,0123*54\r\n
$GPGGA,083011.10,5703.2879238,N,00952.3666004,E,2,9,0.8,-2.193,M,40.593,M,2.8,0123*5C\r\n
$GPGGA,083011.15,5703.2879237,N,00952.3666002,E,2,9,0.8,-2.193,M,40.593,M,2.8,0123*50\r\n
$GPGGA,083011.20,5703.2879236,N,00952.3666002,E,2,9,0.8,-2.193,M,40.593,M,2.8,0123*57\r\n
$GPGGA,083011.25,5703.2879236,N,00952.3665995,E,2,9,0.8,-2.198,M,40.593,M,3.0,0123*54\r\n
$GPGGA,083011.30,5703.2879233,N,00952.3665993,E,2,9,0.8,-2.198,M,40.593,M,3.0,0123*53\r\n
$GPGGA,083011.35,5703.2879233,N,00952.3665991,E,2,9,0.8,-2.198,M,40.593,M,3.0,0123*54\r\n
$GPGGA,083011.40,5703.2879233,N,00952.3665989,E,2,9,0.8,-2.198,M,40.593,M,3.0,0123*5F\r\n
$GPGGA,083011.45,5703.2879241,N,00952.3665986,E,2,9,0.8,-2.193,M,40.593,M,3.2,0123*59\r\n
$GPGGA,083011.50,5703.2879240,N,00952.3665985,E,2,9,0.8,-2.193,M,40.593,M,3.2,0123*5F\r\n
$GPGGA,083011.55,5703.2879239,N,00952.3665980,E,2,9,0.8,-2.193,M,40.593,M,3.2,0123*51\r\n
$GPGGA,083011.60,5703.2879241,N,00952.3665978,E,2,9,0.8,-2.192,M,40.593,M,3.2,0123*5E\r\n
$GPGGA,083011.65,5703.2879240,N,00952.3665971,E,2,9,0.8,-2.198,M,40.593,M,3.4,0123*5F\r\n
$GPGGA,083011.70,5703.2879239,N,00952.3665971,E,2,9,0.8,-2.199,M,40.593,M,3.4,0123*54\r\n
$GPGGA,083011.75,5703.2879240,N,00952.3665970,E,2,9,0.8,-2.199,M,40.593,M,3.4,0123*5E\r\n
$GPGGA,083011.80,5703.2879240,N,00952.3665966,E,2,9,0.8,-2.199,M,40.593,M,3.4,0123*53\r\n
$GPGGA,083011.85,5703.2879238,N,00952.3665962,E,2,9,0.8,-2.194,M,40.593,M,3.6,0123*52\r\n
$GPGGA,083011.90,5703.2879237,N,00952.3665956,E,2,9,0.8,-2.194,M,40.593,M,3.6,0123*5E\r\n
$GPGGA,083011.95,5703.2879239,N,00952.3665955,E,2,9,0.8,-2.194,M,40.593,M,3.6,0123*56\r\n
$GPGGA,083012.00,5703.2879238,N,00952.3665953,E,2,9,0.8,-2.194,M,40.593,M,3.6,0123*5E\r\n
$GPGGA,083012.05,5703.2879258,N,00952.3665927,E,2,9,0.8,-2.190,M,40.593,M,3.8,0123*54\r\n
$GPGGA,083012.10,5703.2879258,N,00952.3665923,E,2,9,0.8,-2.190,M,40.593,M,3.8,0123*54\r\n
$GPGGA,083012.15,5703.2879259,N,00952.3665922,E,2,9,0.8,-2.190,M,40.593,M,3.8,0123*51\r\n
$GPGGA,083012.20,5703.2879259,N,00952.3665919,E,2,9,0.8,-2.190,M,40.593,M,3.8,0123*5F\r\n
$GPGGA,083012.25,5703.2879265,N,00952.3665925,E,2,9,0.8,-2.196,M,40.593,M,4.1,0123*52\r\n
$GPGGA,083012.30,5703.2879266,N,00952.3665924,E,2,9,0.8,-2.196,M,40.593,M,4.1,0123*54\r\n
$GPGGA,083012.35,5703.2879264,N,00952.3665923,E,2,9,0.8,-2.196,M,40.593,M,4.1,0123*54\r\n
$GPGGA,083012.40,5703.2879266,N,00952.3665920,E,2,9,0.8,-2.197,M,40.593,M,4.1,0123*56\r\n
$GPGGA,083012.45,5703.2879260,N,00952.3665918,E,2,9,0.8,-2.193,M,40.593,M,2.5,0123*58\r\n
$GPGGA,083012.50,5703.2879260,N,00952.3665919,E,2,9,0.8,-2.193,M,40.593,M,2.5,0123*5D\r\n
$GPGGA,083012.55,5703.2879262,N,00952.3665914,E,2,9,0.8,-2.193,M,40.593,M,2.5,0123*57\r\n
$GPGGA,083012.60,5703.2879261,N,00952.3665914,E,2,9,0.8,-2.193,M,40.593,M,2.5,0123*52\r\n
$GPGGA,083012.65,5703.2879265,N,00952.3665913,E,2,9,0.8,-2.195,M,40.593,M,2.8,0123*5F\r\n
$GPGGA,083012.70,5703.2879266,N,00952.3665912,E,2,9,0.8,-2.195,M,40.593,M,2.8,0123*59\r\n
$GPGGA,083012.75,5703.2879266,N,00952.3665912,E,2,9,0.8,-2.195,M,40.593,M,2.8,0123*5C\r\n
$GPGGA,083012.80,5703.2879267,N,00952.3665909,E,2,9,0.8,-2.195,M,40.593,M,2.8,0123*5D\r\n
$GPGGA,083012.85,5703.2879263,N,00952.3665906,E,2,9,0.8,-2.199,M,40.593,M,3.0,0123*56\r\n
$GPGGA,083012.90,5703.2879263,N,00952.3665904,E,2,9,0.8,-2.199,M,40.593,M,3.0,0123*50\r\n
$GPGGA,083012.95,5703.2879264,N,00952.3665902,E,2,9,0.8,-2.199,M,40.593,M,3.0,0123*54\r\n
$GPGGA,083013.00,5703.2879265,N,00952.3665904,E,2,9,0.8,-2.200,M,40.593,M,3.0,0123*5D\r\n
$GPGGA,083013.05,5703.2879292,N,00952.3665889,E,2,9,0.8,-2.189,M,40.593,M,3.3,0123*55\r\n
$GPGGA,083013.10,5703.2879292,N,00952.3665884,E,2,9,0.8,-2.189,M,40.593,M,3.3,0123*5C\r\n
$GPGGA,083013.15,5703.2879294,N,00952.3665882,E,2,9,0.8,-2.189,M,40.593,M,3.3,0123*59\r\n
$GPGGA,083013.20,5703.2879293,N,00952.3665881,E,2,9,0.8,-2.189,M,40.593,M,3.3,0123*5B\r\n
$GPGGA,083013.25,5703.2879290,N,00952.3665876,E,2,9,0.8,-2.191,M,40.593,M,3.5,0123*5A\r\n
$GPGGA,083013.30,5703.2879291,N,00952.3665873,E,2,9,0.8,-2.191,M,40.593,M,3.5,0123*5A\r\n
$GPGGA,083013.35,5703.2879292,N,00952.3665870,E,2,9,0.8,-2.191,M,40.593,M,3.5,0123*5F\r\n
$GPGGA,083013.40,5703.2879294,N,00952.3665871,E,2,9,0.8,-2.191,M,40.593,M,3.5,0123*5A\r\n
$GPGGA,083013.45,5703.2879300,N,00952.3665867,E,2,9,0.8,-2.189,M,40.593,M,2.1,0123*58\r\n
$GPGGA,083013.50,5703.2879302,N,00952.3665868,E,2,9,0.8,-2.189,M,40.593,M,2.1,0123*51\r\n
$GPGGA,083013.55,5703.2879303,N,00952.3665865,E,2,9,0.8,-2.189,M,40.593,M,2.1,0123*58\r\n
$GPGGA,083013.60,5703.2879304,N,00952.3665863,E,2,9,0.8,-2.189,M,40.593,M,2.1,0123*5F\r\n
$GPGGA,083013.65,5703.2879301,N,00952.3665867,E,2,9,0.8,-2.192,M,40.593,M,2.3,0123*53\r\n
$GPGGA,083013.70,5703.2879303,N,00952.3665865,E,2,9,0.8,-2.192,M,40.593,M,2.3,0123*57\r\n
$GPGGA,083013.75,5703.2879303,N,00952.3665864,E,2,9,0.8,-2.192,M,40.593,M,2.3,0123*53\r\n
$GPGGA,083013.80,5703.2879304,N,00952.3665866,E,2,9,0.8,-2.192,M,40.593,M,2.3,0123*5C\r\n
$GPGGA,083013.85,5703.2879309,N,00952.3665863,E,2,9,0.8,-2.188,M,40.593,M,2.6,0123*5F\r\n
$GPGGA,083013.90,5703.2879311,N,00952.3665858,E,2,9,0.8,-2.188,M,40.593,M,2.6,0123*5A\r\n
$GPGGA,083013.95,5703.2879311,N,00952.3665855,E,2,9,0.8,-2.188,M,40.593,M,2.6,0123*52\r\n
$GPGGA,083014.00,5703.2879313,N,00952.3665848,E,2,9,0.8,-2.188,M,40.593,M,2.6,0123*57\r\n
$GPGGA,083014.05,5703.2879332,N,00952.3665823,E,2,9,0.8,-2.195,M,40.593,M,2.8,0123*5E\r\n
$GPGGA,083014.10,5703.2879333,N,00952.3665820,E,2,9,0.8,-2.195,M,40.593,M,2.8,0123*58\r\n
$GPGGA,083014.15,5703.2879335,N,00952.3665817,E,2,9,0.8,-2.195,M,40.593,M,2.8,0123*5F\r\n
$GPGGA,083014.20,5703.2879335,N,00952.3665814,E,2,9,0.8,-2.196,M,40.593,M,2.8,0123*59\r\n
$GPGGA,083014.25,5703.2879334,N,00952.3665823,E,2,9,0.8,-2.191,M,40.593,M,3.0,0123*57\r\n
$GPGGA,083014.30,5703.2879335,N,00952.3665819,E,2,9,0.8,-2.191,M,40.593,M,3.0,0123*5B\r\n
$GPGGA,083014.35,5703.2879337,N,00952.3665816,E,2,9,0.8,-2.191,M,40.593,M,3.0,0123*53\r\n
$GPGGA,083014.40,5703.2879338,N,00952.3665813,E,2,9,0.8,-2.192,M,40.593,M,3.0,0123*58\r\n
$GPGGA,083014.45,5703.2879343,N,00952.3665806,E,2,9,0.8,-2.190,M,40.593,M,2.1,0123*57\r\n
$GPGGA,083014.50,5703.2879343,N,00952.3665802,E,2,9,0.8,-2.190,M,40.593,M,2.1,0123*57\r\n
$GPGGA,083014.55,5703.2879345,N,00952.3665800,E,2,9,0.8,-2.190,M,40.593,M,2.1,0123*56\r\n
$GPGGA,083014.60,5703.2879345,N,00952.3665794,E,2,9,0.8,-2.190,M,40.593,M,2.1,0123*52\r\n
$GPGGA,083014.65,5703.2879340,N,00952.3665802,E,2,9,0.8,-2.193,M,40.593,M,2.4,0123*54\r\n
$GPGGA,083014.70,5703.2879340,N,00952.3665802,E,2,9,0.8,-2.194,M,40.593,M,2.4,0123*57\r\n
$GPGGA,083014.75,5703.2879342,N,00952.3665801,E,2,9,0.8,-2.194,M,40.593,M,2.4,0123*53\r\n
$GPGGA,083014.80,5703.2879344,N,00952.3665798,E,2,9,0.8,-2.194,M,40.593,M,2.4,0123*50\r\n
$GPGGA,083014.85,5703.2879355,N,00952.3665807,E,2,9,0.8,-2.194,M,40.593,M,2.6,0123*5E\r\n
$GPGGA,083014.90,5703.2879356,N,00952.3665807,E,2,9,0.8,-2.194,M,40.593,M,2.6,0123*59\r\n
$GPGGA,083014.95,5703.2879359,N,00952.3665810,E,2,9,0.8,-2.195,M,40.593,M,2.6,0123*54\r\n
$GPGGA,083015.00,5703.2879360,N,00952.3665809,E,2,9,0.8,-2.195,M,40.593,M,2.6,0123*5B\r\n
$GPGGA,083015.05,5703.2879363,N,00952.3665813,E,2,9,0.8,-2.187,M,40.593,M,2.8,0123*5B\r\n
$GPGGA,083015.10,5703.2879364,N,00952.3665811,E,2,9,0.8,-2.187,M,40.593,M,2.8,0123*5A\r\n
$GPGGA,083015.15,5703.2879367,N,00952.3665811,E,2,9,0.8,-2.187,M,40.593,M,2.8,0123*5C\r\n
$GPGGA,083015.20,5703.2879369,N,00952.3665810,E,2,9,0.8,-2.187,M,40.593,M,2.8,0123*55\r\n
$GPGGA,083015.25,5703.2879378,N,00952.3665807,E,2,9,0.8,-2.190,M,40.593,M,3.0,0123*59\r\n
$GPGGA,083015.30,5703.2879380,N,00952.3665809,E,2,9,0.8,-2.190,M,40.593,M,3.0,0123*54\r\n
$GPGGA,083015.35,5703.2879380,N,00952.3665812,E,2,9,0.8,-2.190,M,40.593,M,3.0,0123*5B\r\n
$GPGGA,083015.40,5703.2879383,N,00952.3665813,E,2,9,0.8,-2.190,M,40.593,M,3.0,0123*5B\r\n
$GPGGA,083015.45,5703.2879375,N,00952.3665831,E,2,9,0.8,-2.188,M,40.593,M,3.2,0123*5C\r\n
$GPGGA,083015.50,5703.2879375,N,00952.3665829,E,2,9,0.8,-2.188,M,40.593,M,3.2,0123*51\r\n
$GPGGA,083015.55,5703.2879377,N,00952.3665832,E,2,9,0.8,-2.188,M,40.593,M,3.2,0123*5C\r\n
$GPGGA,083015.60,5703.2879378,N,00952.3665834,E,2,9,0.8,-2.188,M,40.593,M,3.2,0123*53\r\n
$GPGGA,083015.65,5703.2879380,N,00952.3665835,E,2,9,0.8,-2.190,M,40.593,M,3.4,0123*5F\r\n
$GPGGA,083015.70,5703.2879381,N,00952.3665839,E,2,9,0.8,-2.190,M,40.593,M,3.4,0123*56\r\n
$GPGGA,083015.75,5703.2879384,N,00952.3665842,E,2,9,0.8,-2.190,M,40.593,M,3.4,0123*5A\r\n
$GPGGA,083015.80,5703.2879382,N,00952.3665844,E,2,9,0.8,-2.189,M,40.593,M,3.4,0123*58\r\n
$GPGGA,083015.85,5703.2879378,N,00952.3665856,E,2,9,0.8,-2.189,M,40.593,M,3.6,0123*59\r\n
$GPGGA,083015.90,5703.2879379,N,00952.3665857,E,2,9,0.8,-2.189,M,40.593,M,3.6,0123*5D\r\n
$GPGGA,083015.95,5703.2879380,N,00952.3665862,E,2,9,0.8,-2.189,M,40.593,M,3.6,0123*58\r\n
$GPGGA,083016.00,5703.2879382,N,00952.3665867,E,2,9,0.8,-2.189,M,40.593,M,3.6,0123*50\r\n
$GPGGA,083016.05,5703.2879403,N,00952.3665870,E,2,9,0.8,-2.189,M,40.593,M,3.8,0123*53\r\n
$GPGGA,083016.10,5703.2879405,N,00952.3665874,E,2,9,0.8,-2.189,M,40.593,M,3.8,0123*55\r\n
$GPGGA,083016.15,5703.2879405,N,00952.3665878,E,2,9,0.8,-2.189,M,40.593,M,3.8,0123*5C\r\n
$GPGGA,083016.20,5703.2879409,N,00952.3665885,E,2,9,0.8,-2.189,M,40.593,M,3.8,0123*54\r\n
$GPGGA,083016.25,5703.2879406,N,00952.3665884,E,2,9,0.8,-2.187,M,40.593,M,4.1,0123*5F\r\n
$GPGGA,083016.30,5703.2879408,N,00952.3665892,E,2,9,0.8,-2.187,M,40.593,M,4.1,0123*52\r\n
$GPGGA,083016.35,5703.2879409,N,00952.3665898,E,2,9,0.8,-2.187,M,40.593,M,4.1,0123*5C\r\n
$GPGGA,083016.40,5703.2879414,N,00952.3665907,E,2,9,0.8,-2.187,M,40.593,M,4.1,0123*55\r\n
$GPGGA,083016.45,5703.2879420,N,00952.3665922,E,2,9,0.8,-2.188,M,40.593,M,2.5,0123*5D\r\n
$GPGGA,083016.50,5703.2879422,N,00952.3665931,E,2,9,0.8,-2.188,M,40.593,M,2.5,0123*59\r\n
$GPGGA,083016.55,5703.2879422,N,00952.3665937,E,2,9,0.8,-2.188,M,40.593,M,2.5,0123*5A\r\n
$GPGGA,083016.60,5703.2879427,N,00952.3665948,E,2,9,0.8,-2.188,M,40.593,M,2.5,0123*51\r\n
$GPGGA,083016.65,5703.2879421,N,00952.3665958,E,2,9,0.8,-2.188,M,40.593,M,2.8,0123*5E\r\n
$GPGGA,083016.70,5703.2879423,N,00952.3665965,E,2,9,0.8,-2.188,M,40.593,M,2.8,0123*56\r\n
$GPGGA,083016.75,5703.2879425,N,00952.3665970,E,2,9,0.8,-2.188,M,40.593,M,2.8,0123*51\r\n
$GPGGA,083016.80,5703.2879429,N,00952.3665979,E,2,9,0.8,-2.188,M,40.593,M,2.8,0123*5E\r\n
$GPGGA,083016.85,5703.2879440,N,00952.3665977,E,2,9,0.8,-2.185,M,40.593,M,3.0,0123*5E\r\n
$GPGGA,083016.90,5703.2879441,N,00952.3665986,E,2,9,0.8,-2.185,M,40.593,M,3.0,0123*55\r\n
$GPGGA,083016.95,5703.2879445,N,00952.3665994,E,2,9,0.8,-2.185,M,40.593,M,3.0,0123*57\r\n
$GPGGA,083017.00,5703.2879446,N,00952.3666000,E,2,9,0.8,-2.185,M,40.593,M,3.0,0123*5E\r\n
$GPGGA,083017.05,5703.2879446,N,00952.3666000,E,2,9,0.8,-2.184,M,40.593,M,3.3,0123*59\r\n
$GPGGA,083017.10,5703.2879450,N,00952.3666009,E,2,9,0.8,-2.184,M,40.593,M,3.3,0123*53\r\n
$GPGGA,083017.15,5703.2879455,N,00952.3666021,E,2,9,0.8,-2.184,M,40.593,M,3.3,0123*59\r\n
$GPGGA,083017.20,5703.2879456,N,00952.3666027,E,2,9,0.8,-2.184,M,40.593,M,3.3,0123*5A\r\n
$GPGGA,083017.25,5703.2879471,N,00952.3666038,E,2,9,0.8,-2.185,M,40.593,M,3.5,0123*53\r\n
$GPGGA,083017.30,5703.2879474,N,00952.3666048,E,2,9,0.8,-2.185,M,40.593,M,3.5,0123*55\r\n
$GPGGA,083017.35,5703.2879479,N,00952.3666061,E,2,9,0.8,-2.185,M,40.593,M,3.5,0123*56\r\n
$GPGGA,083017.40,5703.2879482,N,00952.3666072,E,2,9,0.8,-2.185,M,40.593,M,3.5,0123*52\r\n
$GPGGA,083017.45,5703.2879489,N,00952.3666094,E,2,9,0.8,-2.189,M,40.593,M,2.1,0123*5D\r\n
$GPGGA,083017.50,5703.2879491,N,00952.3666106,E,2,9,0.8,-2.189,M,40.593,M,2.1,0123*5A\r\n
$GPGGA,083017.55,5703.2879494,N,00952.3666118,E,2,9,0.8,-2.189,M,40.593,M,2.1,0123*55\r\n
$GPGGA,083017.60,5703.2879499,N,00952.3666128,E,2,9,0.8,-2.190,M,40.593,M,2.1,0123*55\r\n
$GPGGA,083017.65,5703.2879492,N,00952.3666144,E,2,9,0.8,-2.191,M,40.593,M,2.3,0123*52\r\n
$GPGGA,083017.70,5703.2879495,N,00952.3666155,E,2,9,0.8,-2.192,M,40.593,M,2.3,0123*52\r\n
$GPGGA,083017.75,5703.2879499,N,00952.3666167,E,2,9,0.8,-2.192,M,40.593,M,2.3,0123*5A\r\n
$GPGGA,083017.80,5703.2879500,N,00952.3666182,E,2,9,0.8,-2.193,M,40.593,M,2.3,0123*5B\r\n
$GPGGA,083017.85,5703.2879500,N,00952.3666191,E,2,9,0.8,-2.193,M,40.593,M,2.6,0123*59\r\n
$GPGGA,083017.90,5703.2879502,N,00952.3666204,E,2,9,0.8,-2.193,M,40.593,M,2.6,0123*50\r\n
$GPGGA,083017.95,5703.2879504,N,00952.3666216,E,2,9,0.8,-2.194,M,40.593,M,2.6,0123*57\r\n
$GPGGA,083018.00,5703.2879509,N,00952.3666223,E,2,9,0.8,-2.194,M,40.593,M,2.6,0123*5F\r\n
$GPGGA,083018.05,5703.2879531,N,00952.3666203,E,2,9,0.8,-2.192,M,40.593,M,2.8,0123*5B\r\n
$GPGGA,083018.10,5703.2879534,N,00952.3666216,E,2,9,0.8,-2.193,M,40.593,M,2.8,0123*5F\r\n
$GPGGA,083018.15,5703.2879537,N,00952.3666223,E,2,9,0.8,-2.193,M,40.593,M,2.8,0123*5F\r\n
$GPGGA,083018.20,5703.2879540,N,00952.3666236,E,2,9,0.8,-2.194,M,40.593,M,2.8,0123*5A\r\n
$GPGGA,083018.25,5703.2879542,N,00952.3666249,E,2,9,0.8,-2.193,M,40.593,M,3.0,0123*5B\r\n
$GPGGA,083018.30,5703.2879547,N,00952.3666261,E,2,9,0.8,-2.193,M,40.593,M,3.0,0123*50\r\n
$GPGGA,083018.35,5703.2879550,N,00952.3666271,E,2,9,0.8,-2.194,M,40.593,M,3.0,0123*55\r\n
$GPGGA,083018.40,5703.2879554,N,00952.3666286,E,2,9,0.8,-2.194,M,40.593,M,3.0,0123*5B\r\n
$GPGGA,083018.45,5703.2879572,N,00952.3666283,E,2,9,0.8,-2.186,M,40.593,M,2.1,0123*5C\r\n
$GPGGA,083018.50,5703.2879577,N,00952.3666295,E,2,9,0.8,-2.186,M,40.593,M,2.1,0123*5A\r\n
$GPGGA,083018.55,5703.2879582,N,00952.3666310,E,2,9,0.8,-2.186,M,40.593,M,2.1,0123*59\r\n
$GPGGA,083018.60,5703.2879588,N,00952.3666321,E,2,9,0.8,-2.186,M,40.593,M,2.1,0123*57\r\n
$GPGGA,083018.65,5703.2879603,N,00952.3666336,E,2,9,0.8,-2.187,M,40.593,M,2.4,0123*50\r\n
$GPGGA,083018.70,5703.2879608,N,00952.3666349,E,2,9,0.8,-2.187,M,40.593,M,2.4,0123*57\r\n
$GPGGA,083018.75,5703.2879615,N,00952.3666365,E,2,9,0.8,-2.187,M,40.593,M,2.4,0123*50\r\n
$GPGGA,083018.80,5703.2879621,N,00952.3666379,E,2,9,0.8,-2.187,M,40.593,M,2.4,0123*50\r\n
$GPGGA,083018.85,5703.2879609,N,00952.3666417,E,2,9,0.8,-2.201,M,40.593,M,2.6,0123*5F\r\n
$GPGGA,083018.90,5703.2879612,N,00952.3666424,E,2,9,0.8,-2.201,M,40.593,M,2.6,0123*51\r\n
$GPGGA,083018.95,5703.2879628,N,00952.3666441,E,2,9,0.8,-2.202,M,40.593,M,2.6,0123*5D\r\n
$GPGGA,083019.00,5703.2879640,N,00952.3666459,E,2,9,0.8,-2.203,M,40.593,M,2.6,0123*56\r\n
$GPGGA,083019.05,5703.2879658,N,00952.3666451,E,2,9,0.8,-2.199,M,40.593,M,2.8,0123*5C\r\n
$GPGGA,083019.10,5703.2879666,N,00952.3666462,E,2,9,0.8,-2.199,M,40.593,M,2.8,0123*55\r\n
$GPGGA,083019.15,5703.2879674,N,00952.3666475,E,2,9,0.8,-2.200,M,40.593,M,2.8,0123*56\r\n
$GPGGA,083019.20,5703.2879682,N,00952.3666493,E,2,9,0.8,-2.200,M,40.593,M,2.8,0123*51\r\n
$GPGGA,083019.25,5703.2879679,N,00952.3666503,E,2,9,0.8,-2.195,M,40.593,M,3.0,0123*5E\r\n
$GPGGA,083019.30,5703.2879686,N,00952.3666517,E,2,9,0.8,-2.195,M,40.593,M,3.0,0123*5F\r\n
$GPGGA,083019.35,5703.2879692,N,00952.3666529,E,2,9,0.8,-2.195,M,40.593,M,3.0,0123*52\r\n
$GPGGA,083019.40,5703.2879700,N,00952.3666545,E,2,9,0.8,-2.195,M,40.593,M,3.0,0123*50\r\n
$GPGGA,083019.45,5703.2879707,N,00952.3666568,E,2,9,0.8,-2.200,M,40.593,M,1.0,0123*50\r\n
$GPGGA,083019.50,5703.2879714,N,00952.3666586,E,2,9,0.8,-2.200,M,40.593,M,1.0,0123*56\r\n
$GPGGA,083019.55,5703.2879720,N,00952.3666601,E,2,9,0.8,-2.201,M,40.593,M,1.0,0123*59\r\n
$GPGGA,083019.60,5703.2879727,N,00952.3666616,E,2,9,0.8,-2.201,M,40.593,M,1.0,0123*5E\r\n
$GPGGA,083019.65,5703.2879726,N,00952.3666635,E,2,9,0.8,-2.201,M,40.593,M,1.4,0123*5F\r\n
$GPGGA,083019.70,5703.2879732,N,00952.3666652,E,2,9,0.8,-2.201,M,40.593,M,1.4,0123*5F\r\n
$GPGGA,083019.75,5703.2879737,N,00952.3666671,E,2,9,0.8,-2.201,M,40.593,M,1.4,0123*5E\r\n
$GPGGA,083019.80,5703.2879740,N,00952.3666686,E,2,9,0.8,-2.202,M,40.593,M,1.4,0123*5F\r\n
$GPGGA,083019.85,5703.2879728,N,00952.3666698,E,2,9,0.8,-2.203,M,40.593,M,1.7,0123*59\r\n
$GPGGA,083019.90,5703.2879731,N,00952.3666711,E,2,9,0.8,-2.204,M,40.593,M,1.7,0123*52\r\n
$GPGGA,083019.95,5703.2879734,N,00952.3666726,E,2,9,0.8,-2.204,M,40.593,M,1.7,0123*56\r\n
$GPGGA,083020.00,5703.2879737,N,00952.3666740,E,2,9,0.8,-2.205,M,40.593,M,1.7,0123*52\r\n
$GPGGA,083020.05,5703.2879769,N,00952.3666716,E,2,10,0.8,-2.198,M,40.593,M,2.0,0123*64\r\n
$GPGGA,083020.10,5703.2879772,N,00952.3666727,E,2,10,0.8,-2.198,M,40.593,M,2.0,0123*68\r\n
$GPGGA,083020.15,5703.2879775,N,00952.3666739,E,2,10,0.8,-2.199,M,40.593,M,2.0,0123*64\r\n
$GPGGA,083020.20,5703.2879779,N,00952.3666753,E,2,10,0.8,-2.199,M,40.593,M,2.0,0123*62\r\n
$GPGGA,083020.25,5703.2879776,N,00952.3666774,E,2,10,0.8,-2.198,M,40.593,M,2.3,0123*6F\r\n
$GPGGA,083020.30,5703.2879778,N,00952.3666788,E,2,10,0.8,-2.198,M,40.593,M,2.3,0123*66\r\n
$GPGGA,083020.35,5703.2879781,N,00952.3666801,E,2,10,0.8,-2.198,M,40.593,M,2.3,0123*6B\r\n
$GPGGA,083020.40,5703.2879784,N,00952.3666814,E,2,10,0.8,-2.198,M,40.593,M,2.3,0123*68\r\n
$GPGGA,083020.45,5703.2879792,N,00952.3666832,E,2,10,0.8,-2.196,M,40.593,M,0.8,0123*69\r\n
$GPGGA,083020.50,5703.2879795,N,00952.3666850,E,2,10,0.8,-2.196,M,40.593,M,0.8,0123*6E\r\n
$GPGGA,083020.55,5703.2879798,N,00952.3666864,E,2,10,0.8,-2.196,M,40.593,M,0.8,0123*61\r\n
$GPGGA,083020.60,5703.2879802,N,00952.3666877,E,2,10,0.8,-2.195,M,40.593,M,0.8,0123*6A\r\n
$GPGGA,083020.65,5703.2879813,N,00952.3666901,E,2,10,0.8,-2.201,M,40.593,M,1.1,0123*69\r\n
$GPGGA,083020.70,5703.2879816,N,00952.3666917,E,2,10,0.8,-2.202,M,40.593,M,1.1,0123*6C\r\n
$GPGGA,083020.75,5703.2879820,N,00952.3666933,E,2,10,0.8,-2.202,M,40.593,M,1.1,0123*6A\r\n
$GPGGA,083020.80,5703.2879822,N,00952.3666949,E,2,10,0.8,-2.202,M,40.593,M,1.1,0123*6F\r\n
$GPGGA,083020.85,5703.2879811,N,00952.3666963,E,2,10,0.8,-2.198,M,40.593,M,1.3,0123*60\r\n
$GPGGA,083020.90,5703.2879814,N,00952.3666979,E,2,10,0.8,-2.198,M,40.593,M,1.3,0123*6A\r\n
$GPGGA,083020.95,5703.2879819,N,00952.3666994,E,2,10,0.8,-2.198,M,40.593,M,1.3,0123*61\r\n
$GPGGA,083021.00,5703.2879823,N,00952.3667012,E,2,10,0.8,-2.198,M,40.593,M,1.3,0123*63\r\n
$GPGGA,083021.05,5703.2879866,N,00952.3667015,E,2,10,0.8,-2.197,M,40.593,M,1.6,0123*6A\r\n
$GPGGA,083021.10,5703.2879872,N,00952.3667029,E,2,10,0.8,-2.197,M,40.593,M,1.6,0123*64\r\n
$GPGGA,083021.15,5703.2879878,N,00952.3667045,E,2,10,0.8,-2.197,M,40.593,M,1.6,0123*61\r\n
$GPGGA,083021.20,5703.2879883,N,00952.3667063,E,2,10,0.8,-2.197,M,40.593,M,1.6,0123*67\r\n
$GPGGA,083021.25,5703.2879871,N,00952.3667083,E,2,10,0.8,-2.200,M,40.593,M,1.8,0123*62\r\n
$GPGGA,083021.30,5703.2879877,N,00952.3667099,E,2,10,0.8,-2.200,M,40.593,M,1.8,0123*6B\r\n
$GPGGA,083021.35,5703.2879885,N,00952.3667116,E,2,10,0.8,-2.200,M,40.593,M,1.8,0123*65\r\n
$GPGGA,083021.40,5703.2879890,N,00952.3667134,E,2,10,0.8,-2.201,M,40.593,M,1.8,0123*62\r\n
$GPGGA,083021.45,5703.2879904,N,00952.3667144,E,2,10,0.8,-2.200,M,40.593,M,0.9,0123*6D\r\n
$GPGGA,083021.50,5703.2879910,N,00952.3667160,E,2,10,0.8,-2.200,M,40.593,M,0.9,0123*6A\r\n
$GPGGA,083021.55,5703.2879914,N,00952.3667176,E,2,10,0.8,-2.201,M,40.593,M,0.9,0123*6D\r\n
$GPGGA,083021.60,5703.2879920,N,00952.3667193,E,2,10,0.8,-2.201,M,40.593,M,0.9,0123*67\r\n
$GPGGA,083021.65,5703.2879910,N,00952.3667209,E,2,10,0.8,-2.201,M,40.593,M,1.2,0123*6B\r\n
$GPGGA,083021.70,5703.2879915,N,00952.3667225,E,2,10,0.8,-2.201,M,40.593,M,1.2,0123*64\r\n
$GPGGA,083021.75,5703.2879917,N,00952.3667239,E,2,10,0.8,-2.202,M,40.593,M,1.2,0123*6D\r\n
$GPGGA,083021.80,5703.2879923,N,00952.3667258,E,2,10,0.8,-2.202,M,40.593,M,1.2,0123*67\r\n
$GPGGA,083021.85,5703.2879936,N,00952.3667270,E,2,10,0.8,-2.197,M,40.593,M,1.4,0123*65\r\n
$GPGGA,083021.90,5703.2879940,N,00952.3667283,E,2,10,0.8,-2.197,M,40.593,M,1.4,0123*6C\r\n
$GPGGA,083021.95,5703.2879945,N,00952.3667298,E,2,10,0.8,-2.197,M,40.593,M,1.4,0123*66\r\n
$GPGGA,083022.00,5703.2879951,N,00952.3667316,E,2,10,0.8,-2.197,M,40.593,M,1.4,0123*6B\r\n
$GPGGA,083022.05,5703.2879960,N,00952.3667327,E,2,10,0.8,-2.196,M,40.593,M,1.7,0123*6C\r\n
$GPGGA,083022.10,5703.2879965,N,00952.3667342,E,2,10,0.8,-2.196,M,40.593,M,1.7,0123*6E\r\n
$GPGGA,083022.15,5703.2879971,N,00952.3667358,E,2,10,0.8,-2.196,M,40.593,M,1.7,0123*65\r\n
$GPGGA,083022.20,5703.2879975,N,00952.3667373,E,2,10,0.8,-2.195,M,40.593,M,1.7,0123*6D\r\n
$GPGGA,083022.25,5703.2879978,N,00952.3667394,E,2,10,0.8,-2.198,M,40.593,M,1.9,0123*6F\r\n
$GPGGA,083022.30,5703.2879983,N,00952.3667409,E,2,10,0.8,-2.198,M,40.593,M,1.9,0123*6C\r\n
$GPGGA,083022.35,5703.2879986,N,00952.3667422,E,2,10,0.8,-2.198,M,40.593,M,1.9,0123*65\r\n
$GPGGA,083022.40,5703.2879991,N,00952.3667438,E,2,10,0.8,-2.198,M,40.593,M,1.9,0123*6A\r\n
$GPGGA,083022.45,5703.2879993,N,00952.3667452,E,2,10,0.8,-2.198,M,40.593,M,2.1,0123*6A\r\n
$GPGGA,083022.50,5703.2879999,N,00952.3667469,E,2,10,0.8,-2.198,M,40.593,M,2.1,0123*6C\r\n
$GPGGA,083022.55,5703.2880003,N,00952.3667485,E,2,10,0.8,-2.198,M,40.593,M,2.1,0123*67\r\n
$GPGGA,083022.60,5703.2880007,N,00952.3667500,E,2,10,0.8,-2.198,M,40.593,M,2.1,0123*69\r\n
$GPGGA,083022.65,5703.2880020,N,00952.3667519,E,2,10,0.8,-2.196,M,40.593,M,2.4,0123*6A\r\n
$GPGGA,083022.70,5703.2880026,N,00952.3667533,E,2,10,0.8,-2.196,M,40.593,M,2.4,0123*60\r\n
$GPGGA,083022.75,5703.2880030,N,00952.3667551,E,2,10,0.8,-2.196,M,40.593,M,2.4,0123*66\r\n
$GPGGA,083022.80,5703.2880036,N,00952.3667569,E,2,10,0.8,-2.195,M,40.593,M,2.4,0123*62\r\n
$GPGGA,083022.85,5703.2880040,N,00952.3667588,E,2,10,0.8,-2.197,M,40.593,M,2.6,0123*69\r\n
$GPGGA,083022.90,5703.2880046,N,00952.3667604,E,2,10,0.8,-2.198,M,40.593,M,2.6,0123*63\r\n
$GPGGA,083022.95,5703.2880052,N,00952.3667620,E,2,10,0.8,-2.198,M,40.593,M,2.6,0123*65\r\n
$GPGGA,083023.00,5703.2880055,N,00952.3667636,E,2,10,0.8,-2.198,M,40.593,M,2.6,0123*68\r\n
$GPGGA,083023.05,5703.2880056,N,00952.3667645,E,2,10,0.8,-2.198,M,40.593,M,2.8,0123*64\r\n
$GPGGA,083023.10,5703.2880061,N,00952.3667661,E,2,10,0.8,-2.198,M,40.593,M,2.8,0123*62\r\n
$GPGGA,083023.15,5703.2880067,N,00952.3667679,E,2,10,0.8,-2.198,M,40.593,M,2.8,0123*68\r\n
$GPGGA,083023.20,5703.2880071,N,00952.3667695,E,2,10,0.8,-2.199,M,40.593,M,2.8,0123*6A\r\n
$GPGGA,083023.25,5703.2880090,N,00952.3667706,E,2,10,0.8,-2.194,M,40.593,M,3.0,0123*6F\r\n
$GPGGA,083023.30,5703.2880096,N,00952.3667723,E,2,10,0.8,-2.193,M,40.593,M,3.0,0123*6D\r\n
$GPGGA,083023.35,5703.2880102,N,00952.3667737,E,2,10,0.8,-2.193,M,40.593,M,3.0,0123*61\r\n
$GPGGA,083023.40,5703.2880108,N,00952.3667753,E,2,10,0.8,-2.193,M,40.593,M,3.0,0123*6B\r\n
$GPGGA,083023.45,5703.2880107,N,00952.3667764,E,2,10,0.8,-2.191,M,40.593,M,3.2,0123*65\r\n
$GPGGA,083023.50,5703.2880113,N,00952.3667777,E,2,10,0.8,-2.191,M,40.593,M,3.2,0123*66\r\n
$GPGGA,083023.55,5703.2880118,N,00952.3667794,E,2,10,0.8,-2.190,M,40.593,M,3.2,0123*64\r\n
$GPGGA,083023.60,5703.2880122,N,00952.3667809,E,2,10,0.8,-2.190,M,40.593,M,3.2,0123*60\r\n
$GPGGA,083023.65,5703.2880120,N,00952.3667824,E,2,10,0.8,-2.194,M,40.593,M,3.4,0123*6A\r\n
$GPGGA,083023.70,5703.2880126,N,00952.3667839,E,2,10,0.8,-2.194,M,40.593,M,3.4,0123*64\r\n
$GPGGA,083023.75,5703.2880131,N,00952.3667851,E,2,10,0.8,-2.193,M,40.593,M,3.4,0123*6E\r\n
$GPGGA,083023.80,5703.2880136,N,00952.3667863,E,2,10,0.8,-2.193,M,40.593,M,3.4,0123*62\r\n
$GPGGA,083023.85,5703.2880157,N,00952.3667865,E,2,10,0.8,-2.188,M,40.593,M,3.6,0123*6E\r\n
$GPGGA,083023.90,5703.2880163,N,00952.3667878,E,2,10,0.8,-2.187,M,40.593,M,3.6,0123*6E\r\n
$GPGGA,083023.95,5703.2880168,N,00952.3667891,E,2,10,0.8,-2.186,M,40.593,M,3.6,0123*66\r\n
$GPGGA,083024.00,5703.2880174,N,00952.3667903,E,2,10,0.8,-2.186,M,40.593,M,3.6,0123*6A\r\n
$GPGGA,083024.05,5703.2880166,N,00952.3667929,E,2,10,0.8,-2.192,M,40.593,M,3.8,0123*6F\r\n
$GPGGA,083024.10,5703.2880170,N,00952.3667942,E,2,10,0.8,-2.192,M,40.593,M,3.8,0123*61\r\n
$GPGGA,083024.15,5703.2880177,N,00952.3667954,E,2,10,0.8,-2.192,M,40.593,M,3.8,0123*64\r\n
$GPGGA,083024.20,5703.2880181,N,00952.3667966,E,2,10,0.8,-2.192,M,40.593,M,3.8,0123*6A\r\n
$GPGGA,083024.25,5703.2880194,N,00952.3667968,E,2,10,0.8,-2.191,M,40.593,M,4.1,0123*68\r\n
$GPGGA,083024.30,5703.2880199,N,00952.3667981,E,2,10,0.8,-2.192,M,40.593,M,4.1,0123*65\r\n
$GPGGA,083024.35,5703.2880204,N,00952.3667994,E,2,10,0.8,-2.192,M,40.593,M,4.1,0123*63\r\n
$GPGGA,083024.40,5703.2880209,N,00952.3668001,E,2,10,0.8,-2.192,M,40.593,M,4.1,0123*66\r\n
$GPGGA,083024.45,5703.2880205,N,00952.3668013,E,2,10,0.8,-2.194,M,40.593,M,2.5,0123*68\r\n
$GPGGA,083024.50,5703.2880210,N,00952.3668027,E,2,10,0.8,-2.194,M,40.593,M,2.5,0123*6F\r\n
$GPGGA,083024.55,5703.2880212,N,00952.3668036,E,2,10,0.8,-2.195,M,40.593,M,2.5,0123*69\r\n
$GPGGA,083024.60,5703.2880216,N,00952.3668050,E,2,10,0.8,-2.195,M,40.593,M,2.5,0123*6B\r\n
$GPGGA,083024.65,5703.2880214,N,00952.3668073,E,2,10,0.8,-2.195,M,40.593,M,2.8,0123*60\r\n
$GPGGA,083024.70,5703.2880217,N,00952.3668083,E,2,10,0.8,-2.196,M,40.593,M,2.8,0123*6B\r\n
$GPGGA,083024.75,5703.2880220,N,00952.3668093,E,2,10,0.8,-2.196,M,40.593,M,2.8,0123*6B\r\n
$GPGGA,083024.80,5703.2880225,N,00952.3668103,E,2,10,0.8,-2.197,M,40.593,M,2.8,0123*6D\r\n
$GPGGA,083024.85,5703.2880243,N,00952.3668100,E,2,10,0.8,-2.194,M,40.593,M,3.0,0123*61\r\n
$GPGGA,083024.90,5703.2880248,N,00952.3668111,E,2,10,0.8,-2.195,M,40.593,M,3.0,0123*6F\r\n
$GPGGA,083024.95,5703.2880251,N,00952.3668129,E,2,10,0.8,-2.195,M,40.593,M,3.0,0123*69\r\n
$GPGGA,083025.00,5703.2880255,N,00952.3668140,E,2,10,0.8,-2.196,M,40.593,M,3.0,0123*6C\r\n
$GPGGA,083025.05,5703.2880259,N,00952.3668168,E,2,10,0.8,-2.195,M,40.593,M,3.3,0123*6F\r\n
$GPGGA,083025.10,5703.2880263,N,00952.3668178,E,2,10,0.8,-2.196,M,40.593,M,3.3,0123*60\r\n
$GPGGA,083025.15,5703.2880267,N,00952.3668192,E,2,10,0.8,-2.196,M,40.593,M,3.3,0123*65\r\n
$GPGGA,083025.20,5703.2880273,N,00952.3668205,E,2,10,0.8,-2.197,M,40.593,M,3.3,0123*6A\r\n
$GPGGA,083025.25,5703.2880294,N,00952.3668196,E,2,10,0.8,-2.195,M,40.593,M,3.5,0123*6B\r\n
$GPGGA,083025.30,5703.2880299,N,00952.3668211,E,2,10,0.8,-2.195,M,40.593,M,3.5,0123*6E\r\n
$GPGGA,083025.35,5703.2880304,N,00952.3668224,E,2,10,0.8,-2.196,M,40.593,M,3.5,0123*6B\r\n
$GPGGA,083025.40,5703.2880308,N,00952.3668234,E,2,10,0.8,-2.196,M,40.593,M,3.5,0123*64\r\n
$GPGGA,083025.45,5703.2880306,N,00952.3668262,E,2,10,0.8,-2.193,M,40.593,M,2.1,0123*6C\r\n
$GPGGA,083025.50,5703.2880311,N,00952.3668274,E,2,10,0.8,-2.193,M,40.593,M,2.1,0123*69\r\n
$GPGGA,083025.55,5703.2880316,N,00952.3668289,E,2,10,0.8,-2.194,M,40.593,M,2.1,0123*6E\r\n
$GPGGA,083025.60,5703.2880322,N,00952.3668302,E,2,10,0.8,-2.194,M,40.593,M,2.1,0123*6D\r\n
$GPGGA,083025.65,5703.2880331,N,00952.3668327,E,2,10,0.8,-2.199,M,40.593,M,2.3,0123*62\r\n
$GPGGA,083025.70,5703.2880336,N,00952.3668342,E,2,10,0.8,-2.200,M,40.593,M,2.3,0123*61\r\n
$GPGGA,083025.75,5703.2880341,N,00952.3668355,E,2,10,0.8,-2.200,M,40.593,M,2.3,0123*62\r\n
$GPGGA,083025.80,5703.2880347,N,00952.3668368,E,2,10,0.8,-2.201,M,40.593,M,2.3,0123*61\r\n
$GPGGA,083025.85,5703.2880356,N,00952.3668375,E,2,10,0.8,-2.195,M,40.593,M,2.6,0123*63\r\n
$GPGGA,083025.90,5703.2880362,N,00952.3668385,E,2,10,0.8,-2.195,M,40.593,M,2.6,0123*6F\r\n
$GPGGA,083025.95,5703.2880368,N,00952.3668400,E,2,10,0.8,-2.195,M,40.593,M,2.6,0123*6A\r\n
$GPGGA,083026.00,5703.2880377,N,00952.3668411,E,2,10,0.8,-2.195,M,40.593,M,2.6,0123*6B\r\n
$GPGGA,083026.05,5703.2880407,N,00952.3668398,E,2,10,0.8,-2.192,M,40.593,M,2.8,0123*61\r\n
$GPGGA,083026.10,5703.2880414,N,00952.3668411,E,2,10,0.8,-2.192,M,40.593,M,2.8,0123*61\r\n
$GPGGA,083026.15,5703.2880423,N,00952.3668429,E,2,10,0.8,-2.192,M,40.593,M,2.8,0123*6B\r\n
$GPGGA,083026.20,5703.2880431,N,00952.3668440,E,2,10,0.8,-2.192,M,40.593,M,2.8,0123*61\r\n
$GPGGA,083026.25,5703.2880432,N,00952.3668468,E,2,10,0.8,-2.198,M,40.593,M,3.0,0123*6E\r\n
$GPGGA,083026.30,5703.2880440,N,00952.3668478,E,2,10,0.8,-2.198,M,40.593,M,3.0,0123*6E\r\n
$GPGGA,083026.35,5703.2880447,N,00952.3668493,E,2,10,0.8,-2.198,M,40.593,M,3.0,0123*69\r\n
$GPGGA,083026.40,5703.2880455,N,00952.3668506,E,2,10,0.8,-2.198,M,40.593,M,3.0,0123*65\r\n
$GPGGA,083026.45,5703.2880452,N,00952.3668509,E,2,10,0.8,-2.198,M,40.593,M,2.1,0123*68\r\n
$GPGGA,083026.50,5703.2880459,N,00952.3668519,E,2,10,0.8,-2.198,M,40.593,M,2.1,0123*66\r\n
$GPGGA,083026.55,5703.2880466,N,00952.3668532,E,2,10,0.8,-2.198,M,40.593,M,2.1,0123*66\r\n
$GPGGA,083026.60,5703.2880477,N,00952.3668546,E,2,10,0.8,-2.199,M,40.593,M,2.1,0123*62\r\n
$GPGGA,083026.65,5703.2880482,N,00952.3668563,E,2,10,0.8,-2.201,M,40.593,M,2.4,0123*6D\r\n
$GPGGA,083026.70,5703.2880489,N,00952.3668574,E,2,10,0.8,-2.201,M,40.593,M,2.4,0123*64\r\n
$GPGGA,083026.75,5703.2880495,N,00952.3668588,E,2,10,0.8,-2.202,M,40.593,M,2.4,0123*6C\r\n
$GPGGA,083026.80,5703.2880505,N,00952.3668602,E,2,10,0.8,-2.202,M,40.593,M,2.4,0123*6F\r\n
$GPGGA,083026.85,5703.2880505,N,00952.3668621,E,2,10,0.8,-2.202,M,40.593,M,2.6,0123*69\r\n
$GPGGA,083026.90,5703.2880511,N,00952.3668631,E,2,10,0.8,-2.202,M,40.593,M,2.6,0123*69\r\n
$GPGGA,083026.95,5703.2880518,N,00952.3668643,E,2,10,0.8,-2.203,M,40.593,M,2.6,0123*61\r\n
$GPGGA,083027.00,5703.2880523,N,00952.3668654,E,2,10,0.8,-2.203,M,40.593,M,2.6,0123*62\r\n
$GPGGA,083027.05,5703.2880526,N,00952.3668644,E,2,10,0.8,-2.196,M,40.593,M,2.8,0123*62\r\n
$GPGGA,083027.10,5703.2880531,N,00952.3668651,E,2,10,0.8,-2.196,M,40.593,M,2.8,0123*64\r\n
$GPGGA,083027.15,5703.2880536,N,00952.3668657,E,2,10,0.8,-2.196,M,40.593,M,2.8,0123*60\r\n
$GPGGA,083027.20,5703.2880542,N,00952.3668666,E,2,10,0.8,-2.195,M,40.593,M,2.8,0123*64\r\n
$GPGGA,083027.25,5703.2880532,N,00952.3668657,E,2,10,0.8,-2.198,M,40.593,M,3.0,0123*60\r\n
$GPGGA,083027.30,5703.2880537,N,00952.3668665,E,2,10,0.8,-2.198,M,40.593,M,3.0,0123*60\r\n
$GPGGA,083027.35,5703.2880541,N,00952.3668672,E,2,10,0.8,-2.198,M,40.593,M,3.0,0123*62\r\n
$GPGGA,083027.40,5703.2880543,N,00952.3668678,E,2,10,0.8,-2.198,M,40.593,M,3.0,0123*68\r\n
$GPGGA,083027.45,5703.2880526,N,00952.3668688,E,2,10,0.8,-2.200,M,40.593,M,3.2,0123*61\r\n
$GPGGA,083027.50,5703.2880529,N,00952.3668693,E,2,10,0.8,-2.200,M,40.593,M,3.2,0123*60\r\n
$GPGGA,083027.55,5703.2880531,N,00952.3668697,E,2,10,0.8,-2.200,M,40.593,M,3.2,0123*68\r\n
$GPGGA,083027.60,5703.2880532,N,00952.3668701,E,2,10,0.8,-2.200,M,40.593,M,3.2,0123*63\r\n
$GPGGA,083027.65,5703.2880528,N,00952.3668696,E,2,10,0.8,-2.199,M,40.593,M,3.4,0123*67\r\n
$GPGGA,083027.70,5703.2880530,N,00952.3668698,E,2,10,0.8,-2.199,M,40.593,M,3.4,0123*64\r\n
$GPGGA,083027.75,5703.2880529,N,00952.3668704,E,2,10,0.8,-2.199,M,40.593,M,3.4,0123*6D\r\n
$GPGGA,083027.80,5703.2880530,N,00952.3668704,E,2,10,0.8,-2.199,M,40.593,M,3.4,0123*6F\r\n
$GPGGA,083027.85,5703.2880528,N,00952.3668713,E,2,10,0.8,-2.200,M,40.593,M,3.6,0123*64\r\n
$GPGGA,083027.90,5703.2880527,N,00952.3668719,E,2,10,0.8,-2.200,M,40.593,M,3.6,0123*65\r\n
$GPGGA,083027.95,5703.2880526,N,00952.3668717,E,2,10,0.8,-2.200,M,40.593,M,3.6,0123*6F\r\n
$GPGGA,083028.00,5703.2880525,N,00952.3668721,E,2,10,0.8,-2.200,M,40.593,M,3.6,0123*6A\r\n
$GPGGA,083028.05,5703.2880520,N,00952.3668724,E,2,10,0.8,-2.196,M,40.593,M,3.8,0123*6D\r\n
$GPGGA,083028.10,5703.2880517,N,00952.3668724,E,2,10,0.8,-2.196,M,40.593,M,3.8,0123*6D\r\n
$GPGGA,083028.15,5703.2880514,N,00952.3668724,E,2,10,0.8,-2.196,M,40.593,M,3.8,0123*6B\r\n
$GPGGA,083028.20,5703.2880509,N,00952.3668723,E,2,10,0.8,-2.196,M,40.593,M,3.8,0123*66\r\n
$GPGGA,083028.25,5703.2880475,N,00952.3668722,E,2,10,0.8,-2.203,M,40.593,M,4.1,0123*69\r\n
$GPGGA,083028.30,5703.2880469,N,00952.3668721,E,2,10,0.8,-2.203,M,40.593,M,4.1,0123*63\r\n
$GPGGA,083028.35,5703.2880463,N,00952.3668722,E,2,10,0.8,-2.203,M,40.593,M,4.1,0123*6F\r\n
$GPGGA,083028.40,5703.2880458,N,00952.3668724,E,2,10,0.8,-2.203,M,40.593,M,4.1,0123*63\r\n
$GPGGA,083028.45,5703.2880440,N,00952.3668732,E,2,10,0.8,-2.197,M,40.593,M,2.5,0123*64\r\n
$GPGGA,083028.50,5703.2880433,N,00952.3668734,E,2,10,0.8,-2.197,M,40.593,M,2.5,0123*62\r\n
$GPGGA,083028.55,5703.2880424,N,00952.3668738,E,2,10,0.8,-2.197,M,40.593,M,2.5,0123*6D\r\n
$GPGGA,083028.60,5703.2880416,N,00952.3668737,E,2,10,0.8,-2.196,M,40.593,M,2.5,0123*64\r\n
$GPGGA,083028.65,5703.2880427,N,00952.3668750,E,2,10,0.8,-2.190,M,40.593,M,2.8,0123*69\r\n
$GPGGA,083028.70,5703.2880421,N,00952.3668752,E,2,10,0.8,-2.189,M,40.593,M,2.8,0123*61\r\n
$GPGGA,083028.75,5703.2880415,N,00952.3668760,E,2,10,0.8,-2.188,M,40.593,M,2.8,0123*63\r\n
$GPGGA,083028.80,5703.2880408,N,00952.3668763,E,2,10,0.8,-2.188,M,40.593,M,2.8,0123*66\r\n
$GPGGA,083028.85,5703.2880428,N,00952.3668783,E,2,10,0.8,-2.189,M,40.593,M,3.0,0123*67\r\n
$GPGGA,083028.90,5703.2880420,N,00952.3668783,E,2,10,0.8,-2.188,M,40.593,M,3.0,0123*6A\r\n
$GPGGA,083028.95,5703.2880412,N,00952.3668787,E,2,10,0.8,-2.187,M,40.593,M,3.0,0123*65\r\n
$GPGGA,083029.00,5703.2880408,N,00952.3668789,E,2,10,0.8,-2.186,M,40.593,M,3.0,0123*6C\r\n
$GPGGA,083029.05,5703.2880408,N,00952.3668765,E,2,10,0.8,-2.186,M,40.593,M,3.3,0123*68\r\n
$GPGGA,083029.10,5703.2880402,N,00952.3668769,E,2,10,0.8,-2.185,M,40.593,M,3.3,0123*69\r\n
$GPGGA,083029.15,5703.2880398,N,00952.3668773,E,2,10,0.8,-2.184,M,40.593,M,3.3,0123*62\r\n
$GPGGA,083029.20,5703.2880393,N,00952.3668772,E,2,10,0.8,-2.184,M,40.593,M,3.3,0123*6E\r\n
$GPGGA,083029.25,5703.2880406,N,00952.3668778,E,2,10,0.8,-2.191,M,40.593,M,3.5,0123*68\r\n
$GPGGA,083029.30,5703.2880400,N,00952.3668777,E,2,10,0.8,-2.190,M,40.593,M,3.5,0123*64\r\n
$GPGGA,083029.35,5703.2880396,N,00952.3668778,E,2,10,0.8,-2.190,M,40.593,M,3.5,0123*66\r\n
$GPGGA,083029.40,5703.2880391,N,00952.3668781,E,2,10,0.8,-2.190,M,40.593,M,3.5,0123*65\r\n
$GPGGA,083029.45,5703.2880393,N,00952.3668789,E,2,10,0.8,-2.194,M,40.593,M,0.9,0123*61\r\n
$GPGGA,083029.50,5703.2880391,N,00952.3668792,E,2,10,0.8,-2.194,M,40.593,M,0.9,0123*6D\r\n
$GPGGA,083029.55,5703.2880389,N,00952.3668798,E,2,10,0.8,-2.195,M,40.593,M,0.9,0123*6A\r\n
$GPGGA,083029.60,5703.2880388,N,00952.3668804,E,2,10,0.8,-2.195,M,40.593,M,0.9,0123*67\r\n
$GPGGA,083029.65,5703.2880413,N,00952.3668823,E,2,10,0.8,-2.199,M,40.593,M,1.2,0123*64\r\n
$GPGGA,083029.70,5703.2880412,N,00952.3668828,E,2,10,0.8,-2.199,M,40.593,M,1.2,0123*6A\r\n
$GPGGA,083029.75,5703.2880412,N,00952.3668839,E,2,10,0.8,-2.200,M,40.593,M,1.2,0123*6C\r\n
$GPGGA,083029.80,5703.2880413,N,00952.3668850,E,2,10,0.8,-2.201,M,40.593,M,1.2,0123*69\r\n
$GPGGA,083029.85,5703.2880430,N,00952.3668856,E,2,10,0.8,-2.199,M,40.593,M,1.4,0123*6F\r\n
$GPGGA,083029.90,5703.2880432,N,00952.3668862,E,2,10,0.8,-2.200,M,40.593,M,1.4,0123*6D\r\n
$GPGGA,083029.95,5703.2880435,N,00952.3668871,E,2,10,0.8,-2.201,M,40.593,M,1.4,0123*6C\r\n
$GPGGA,083030.00,5703.2880437,N,00952.3668875,E,2,10,0.8,-2.201,M,40.593,M,1.4,0123*6E\r\n
$GPGGA,083030.05,5703.2880463,N,00952.3668856,E,2,10,0.8,-2.198,M,40.593,M,1.7,0123*6B\r\n
$GPGGA,083030.10,5703.2880467,N,00952.3668862,E,2,10,0.8,-2.198,M,40.593,M,1.7,0123*6C\r\n
$GPGGA,083030.15,5703.2880470,N,00952.3668869,E,2,10,0.8,-2.199,M,40.593,M,1.7,0123*65\r\n
$GPGGA,083030.20,5703.2880475,N,00952.3668874,E,2,10,0.8,-2.199,M,40.593,M,1.7,0123*6A\r\n
$GPGGA,083030.25,5703.2880474,N,00952.3668880,E,2,10,0.8,-2.200,M,40.593,M,1.9,0123*68\r\n
$GPGGA,083030.30,5703.2880479,N,00952.3668884,E,2,10,0.8,-2.201,M,40.593,M,1.9,0123*64\r\n
$GPGGA,083030.35,5703.2880483,N,00952.3668887,E,2,10,0.8,-2.201,M,40.593,M,1.9,0123*67\r\n
$GPGGA,083030.40,5703.2880488,N,00952.3668895,E,2,10,0.8,-2.202,M,40.593,M,1.9,0123*6E\r\n
$GPGGA,083030.45,5703.2880481,N,00952.3668892,E,2,10,0.8,-2.200,M,40.593,M,2.1,0123*6C\r\n
$GPGGA,083030.50,5703.2880486,N,00952.3668894,E,2,10,0.8,-2.200,M,40.593,M,2.1,0123*69\r\n
$GPGGA,083030.55,5703.2880492,N,00952.3668899,E,2,10,0.8,-2.201,M,40.593,M,2.1,0123*65\r\n
$GPGGA,083030.60,5703.2880498,N,00952.3668907,E,2,10,0.8,-2.201,M,40.593,M,2.1,0123*6F\r\n
$GPGGA,083030.65,5703.2880502,N,00952.3668905,E,2,10,0.8,-2.196,M,40.593,M,2.4,0123*62\r\n
$GPGGA,083030.70,5703.2880507,N,00952.3668910,E,2,10,0.8,-2.197,M,40.593,M,2.4,0123*66\r\n
$GPGGA,083030.75,5703.2880515,N,00952.3668916,E,2,10,0.8,-2.197,M,40.593,M,2.4,0123*66\r\n
$GPGGA,083030.80,5703.2880520,N,00952.3668921,E,2,10,0.8,-2.197,M,40.593,M,2.4,0123*6E\r\n
$GPGGA,083030.85,5703.2880523,N,00952.3668929,E,2,10,0.8,-2.197,M,40.593,M,2.6,0123*62\r\n
$GPGGA,083030.90,5703.2880527,N,00952.3668932,E,2,10,0.8,-2.197,M,40.593,M,2.6,0123*68\r\n
$GPGGA,083030.95,5703.2880535,N,00952.3668935,E,2,10,0.8,-2.197,M,40.593,M,2.6,0123*69\r\n
$GPGGA,083031.00,5703.2880542,N,00952.3668938,E,2,10,0.8,-2.197,M,40.593,M,2.6,0123*69\r\n
$GPGGA,083031.05,5703.2880548,N,00952.3668932,E,2,10,0.8,-2.195,M,40.593,M,2.8,0123*60\r\n
$GPGGA,083031.10,5703.2880553,N,00952.3668934,E,2,10,0.8,-2.195,M,40.593,M,2.8,0123*68\r\n
$GPGGA,083031.15,5703.2880559,N,00952.3668940,E,2,10,0.8,-2.195,M,40.593,M,2.8,0123*64\r\n
$GPGGA,083031.20,5703.2880566,N,00952.3668940,E,2,10,0.8,-2.195,M,40.593,M,2.8,0123*6E\r\n
$GPGGA,083031.25,5703.2880546,N,00952.3668951,E,2,10,0.8,-2.203,M,40.593,M,3.0,0123*6C\r\n
$GPGGA,083031.30,5703.2880550,N,00952.3668953,E,2,10,0.8,-2.203,M,40.593,M,3.0,0123*6D\r\n
$GPGGA,083031.35,5703.2880557,N,00952.3668959,E,2,10,0.8,-2.203,M,40.593,M,3.0,0123*65\r\n
$GPGGA,083031.40,5703.2880561,N,00952.3668962,E,2,10,0.8,-2.203,M,40.593,M,3.0,0123*6A\r\n
$GPGGA,083031.45,5703.2880555,N,00952.3668967,E,2,10,0.8,-2.200,M,40.593,M,1.0,0123*6C\r\n
$GPGGA,083031.50,5703.2880559,N,00952.3668968,E,2,10,0.8,-2.200,M,40.593,M,1.0,0123*6B\r\n
$GPGGA,083031.55,5703.2880564,N,00952.3668970,E,2,10,0.8,-2.200,M,40.593,M,1.0,0123*69\r\n
$GPGGA,083031.60,5703.2880567,N,00952.3668974,E,2,10,0.8,-2.200,M,40.593,M,1.0,0123*68\r\n
$GPGGA,083031.65,5703.2880580,N,00952.3668959,E,2,10,0.8,-2.195,M,40.593,M,1.4,0123*60\r\n
$GPGGA,083031.70,5703.2880585,N,00952.3668963,E,2,10,0.8,-2.195,M,40.593,M,1.4,0123*68\r\n
$GPGGA,083031.75,5703.2880588,N,00952.3668963,E,2,10,0.8,-2.194,M,40.593,M,1.4,0123*61\r\n
$GPGGA,083031.80,5703.2880591,N,00952.3668962,E,2,10,0.8,-2.194,M,40.593,M,1.4,0123*62\r\n
$GPGGA,083031.85,5703.2880585,N,00952.3668961,E,2,10,0.8,-2.192,M,40.593,M,1.7,0123*64\r\n
$GPGGA,083031.90,5703.2880589,N,00952.3668961,E,2,10,0.8,-2.191,M,40.593,M,1.7,0123*6F\r\n
$GPGGA,083031.95,5703.2880593,N,00952.3668964,E,2,10,0.8,-2.191,M,40.593,M,1.7,0123*64\r\n
$GPGGA,083032.00,5703.2880598,N,00952.3668965,E,2,10,0.8,-2.190,M,40.593,M,1.7,0123*60\r\n
$GPGGA,083032.05,5703.2880612,N,00952.3668970,E,2,10,0.8,-2.198,M,40.593,M,2.0,0123*6C\r\n
$GPGGA,083032.10,5703.2880616,N,00952.3668971,E,2,10,0.8,-2.198,M,40.593,M,2.0,0123*6D\r\n
$GPGGA,083032.15,5703.2880617,N,00952.3668970,E,2,10,0.8,-2.197,M,40.593,M,2.0,0123*67\r\n
$GPGGA,083032.20,5703.2880621,N,00952.3668969,E,2,10,0.8,-2.197,M,40.593,M,2.0,0123*6C\r\n
$GPGGA,083032.25,5703.2880614,N,00952.3668963,E,2,10,0.8,-2.193,M,40.593,M,2.3,0123*62\r\n
$GPGGA,083032.30,5703.2880618,N,00952.3668963,E,2,10,0.8,-2.193,M,40.593,M,2.3,0123*6A\r\n
$GPGGA,083032.35,5703.2880620,N,00952.3668963,E,2,10,0.8,-2.193,M,40.593,M,2.3,0123*64\r\n
$GPGGA,083032.40,5703.2880622,N,00952.3668957,E,2,10,0.8,-2.192,M,40.593,M,2.3,0123*62\r\n
$GPGGA,083032.45,5703.2880624,N,00952.3668952,E,2,10,0.8,-2.198,M,40.593,M,0.8,0123*67\r\n
$GPGGA,083032.50,5703.2880625,N,00952.3668949,E,2,10,0.8,-2.198,M,40.593,M,0.8,0123*68\r\n
$GPGGA,083032.55,5703.2880627,N,00952.3668948,E,2,10,0.8,-2.198,M,40.593,M,0.8,0123*6E\r\n
$GPGGA,083032.60,5703.2880628,N,00952.3668943,E,2,10,0.8,-2.198,M,40.593,M,0.8,0123*6C\r\n
$GPGGA,083032.65,5703.2880620,N,00952.3668941,E,2,10,0.8,-2.197,M,40.593,M,1.1,0123*64\r\n
$GPGGA,083032.70,5703.2880622,N,00952.3668938,E,2,10,0.8,-2.197,M,40.593,M,1.1,0123*6C\r\n
$GPGGA,083032.75,5703.2880623,N,00952.3668935,E,2,10,0.8,-2.197,M,40.593,M,1.1,0123*65\r\n
$GPGGA,083032.80,5703.2880623,N,00952.3668924,E,2,10,0.8,-2.197,M,40.593,M,1.1,0123*6F\r\n
$GPGGA,083032.85,5703.2880633,N,00952.3668907,E,2,10,0.8,-2.198,M,40.593,M,1.3,0123*67\r\n
$GPGGA,083032.90,5703.2880635,N,00952.3668904,E,2,10,0.8,-2.198,M,40.593,M,1.3,0123*66\r\n
$GPGGA,083032.95,5703.2880634,N,00952.3668898,E,2,10,0.8,-2.198,M,40.593,M,1.3,0123*66\r\n
$GPGGA,083033.00,5703.2880634,N,00952.3668891,E,2,10,0.8,-2.198,M,40.593,M,1.3,0123*62\r\n
$GPGGA,083033.05,5703.2880624,N,00952.3668892,E,2,10,0.8,-2.199,M,40.593,M,1.6,0123*61\r\n
$GPGGA,083033.10,5703.2880624,N,00952.3668888,E,2,10,0.8,-2.199,M,40.593,M,1.6,0123*6E\r\n
$GPGGA,083033.15,5703.2880623,N,00952.3668884,E,2,10,0.8,-2.199,M,40.593,M,1.6,0123*60\r\n
$GPGGA,083033.20,5703.2880620,N,00952.3668876,E,2,10,0.8,-2.199,M,40.593,M,1.6,0123*68\r\n
$GPGGA,083033.25,5703.2880610,N,00952.3668871,E,2,10,0.8,-2.198,M,40.593,M,1.8,0123*66\r\n
$GPGGA,083033.30,5703.2880608,N,00952.3668864,E,2,10,0.8,-2.199,M,40.593,M,1.8,0123*6E\r\n
$GPGGA,083033.35,5703.2880604,N,00952.3668858,E,2,10,0.8,-2.199,M,40.593,M,1.8,0123*68\r\n
$GPGGA,083033.40,5703.2880602,N,00952.3668852,E,2,10,0.8,-2.199,M,40.593,M,1.8,0123*66\r\n
$GPGGA,083033.45,5703.2880601,N,00952.3668844,E,2,10,0.8,-2.200,M,40.593,M,0.9,0123*64\r\n
$GPGGA,083033.50,5703.2880596,N,00952.3668833,E,2,10,0.8,-2.200,M,40.593,M,0.9,0123*6D\r\n
$GPGGA,083033.55,5703.2880592,N,00952.3668828,E,2,10,0.8,-2.200,M,40.593,M,0.9,0123*66\r\n
$GPGGA,083033.60,5703.2880589,N,00952.3668819,E,2,10,0.8,-2.200,M,40.593,M,0.9,0123*68\r\n
$GPGGA,083033.65,5703.2880582,N,00952.3668807,E,2,10,0.8,-2.200,M,40.593,M,1.2,0123*63\r\n
$GPGGA,083033.70,5703.2880577,N,00952.3668799,E,2,10,0.8,-2.200,M,40.593,M,1.2,0123*65\r\n
$GPGGA,083033.75,5703.2880573,N,00952.3668788,E,2,10,0.8,-2.201,M,40.593,M,1.2,0123*65\r\n
$GPGGA,083033.80,5703.2880570,N,00952.3668781,E,2,10,0.8,-2.201,M,40.593,M,1.2,0123*65\r\n
$GPGGA,083033.85,5703.2880568,N,00952.3668782,E,2,10,0.8,-2.202,M,40.593,M,1.4,0123*6F\r\n
$GPGGA,083033.90,5703.2880562,N,00952.3668774,E,2,10,0.8,-2.203,M,40.593,M,1.4,0123*69\r\n
$GPGGA,083033.95,5703.2880558,N,00952.3668767,E,2,10,0.8,-2.203,M,40.593,M,1.4,0123*67\r\n
$GPGGA,083034.00,5703.2880555,N,00952.3668757,E,2,10,0.8,-2.203,M,40.593,M,1.4,0123*62\r\n
$GPGGA,083034.05,5703.2880565,N,00952.3668763,E,2,10,0.8,-2.202,M,40.593,M,1.7,0123*61\r\n
$GPGGA,083034.10,5703.2880560,N,00952.3668755,E,2,10,0.8,-2.203,M,40.593,M,1.7,0123*64\r\n
$GPGGA,083034.15,5703.2880556,N,00952.3668752,E,2,10,0.8,-2.203,M,40.593,M,1.7,0123*63\r\n
$GPGGA,083034.20,5703.2880551,N,00952.3668747,E,2,10,0.8,-2.203,M,40.593,M,1.7,0123*66\r\n
$GPGGA,083034.25,5703.2880554,N,00952.3668763,E,2,10,0.8,-2.202,M,40.593,M,1.9,0123*6F\r\n
$GPGGA,083034.30,5703.2880549,N,00952.3668757,E,2,10,0.8,-2.202,M,40.593,M,1.9,0123*60\r\n
$GPGGA,083034.35,5703.2880545,N,00952.3668751,E,2,10,0.8,-2.202,M,40.593,M,1.9,0123*6F\r\n
$GPGGA,083034.40,5703.2880542,N,00952.3668750,E,2,10,0.8,-2.203,M,40.593,M,1.9,0123*6A\r\n
$GPGGA,083034.45,5703.2880557,N,00952.3668748,E,2,10,0.8,-2.200,M,40.593,M,2.1,0123*6A\r\n
