$GPGGA,100326.75,5703.3436098,N,00952.0297218,E,2,11,0.9,-1.448,M,40.592,M,2.2,0123*69\r\n
$GPGGA,100326.80,5703.3436178,N,00952.0297155,E,2,11,0.9,-1.443,M,40.592,M,2.2,0123*6D\r\n
$GPGGA,100326.85,5703.3436262,N,00952.0297094,E,2,11,0.9,-1.444,M,40.592,M,2.4,0123*6D\r\n
$GPGGA,100326.90,5703.3436352,N,00952.0297050,E,2,11,0.9,-1.447,M,40.592,M,2.4,0123*60\r\n
$GPGGA,100326.95,5703.3436451,N,00952.0297000,E,2,11,0.9,-1.454,M,40.592,M,2.4,0123*66\r\n
$GPGGA,100327.00,5703.3436544,N,00952.0296968,E,2,11,0.9,-1.463,M,40.592,M,2.4,0123*6C\r\n
$GPGGA,100327.05,5703.3436631,N,00952.0296909,E,2,11,0.9,-1.481,M,40.592,M,2.6,0123*61\r\n
$GPGGA,100327.10,5703.3436732,N,00952.0296872,E,2,11,0.9,-1.495,M,40.592,M,2.6,0123*6F\r\n
$GPGGA,100327.15,5703.3436807,N,00952.0296843,E,2,11,0.9,-1.511,M,40.592,M,2.6,0123*6C\r\n
$GPGGA,100327.20,5703.3436872,N,00952.0296777,E,2,11,0.9,-1.518,M,40.592,M,2.6,0123*69\r\n
$GPGGA,100327.25,5703.3436940,N,00952.0296676,E,2,11,0.9,-1.520,M,40.592,M,2.9,0123*68\r\n
$GPGGA,100327.30,5703.3437010,N,00952.0296588,E,2,11,0.9,-1.519,M,40.592,M,2.9,0123*69\r\n
$GPGGA,100327.35,5703.3437084,N,00952.0296509,E,2,11,0.9,-1.518,M,40.592,M,2.9,0123*69\r\n
$GPGGA,100327.40,5703.3437149,N,00952.0296428,E,2,11,0.9,-1.515,M,40.592,M,2.9,0123*64\r\n
$GPGGA,100327.45,5703.3437218,N,00952.0296355,E,2,11,0.9,-1.503,M,40.592,M,3.1,0123*65\r\n
$GPGGA,100327.50,5703.3437283,N,00952.0296276,E,2,11,0.9,-1.495,M,40.592,M,3.1,0123*6D\r\n
$GPGGA,100327.55,5703.3437346,N,00952.0296190,E,2,11,0.9,-1.488,M,40.592,M,3.1,0123*67\r\n
$GPGGA,100327.60,5703.3437416,N,00952.0296095,E,2,11,0.9,-1.476,M,40.592,M,3.1,0123*66\r\n
$GPGGA,100327.65,5703.3437479,N,00952.0295995,E,2,11,0.9,-1.466,M,40.592,M,1.8,0123*6A\r\n
$GPGGA,100327.70,5703.3437535,N,00952.0295905,E,2,11,0.9,-1.461,M,40.592,M,1.8,0123*69\r\n
$GPGGA,100327.75,5703.3437604,N,00952.0295828,E,2,11,0.9,-1.455,M,40.592,M,1.8,0123*64\r\n
$GPGGA,100327.80,5703.3437676,N,00952.0295755,E,2,11,0.9,-1.449,M,40.592,M,1.8,0123*63\r\n
$GPGGA,100327.85,5703.3437749,N,00952.0295683,E,2,11,0.9,-1.453,M,40.592,M,2.1,0123*60\r\n
$GPGGA,100327.90,5703.3437830,N,00952.0295611,E,2,11,0.9,-1.458,M,40.592,M,2.1,0123*65\r\n
$GPGGA,100327.95,5703.3437916,N,00952.0295539,E,2,11,0.9,-1.462,M,40.592,M,2.1,0123*65\r\n
$GPGGA,100328.00,5703.3438001,N,00952.0295465,E,2,11,0.9,-1.468,M,40.592,M,2.1,0123*64\r\n
$GPGGA,100328.05,5703.3438082,N,00952.0295383,E,2,11,0.9,-1.474,M,40.592,M,2.4,0123*6D\r\n
$GPGGA,100328.10,5703.3438151,N,00952.0295303,E,2,11,0.9,-1.480,M,40.592,M,2.4,0123*65\r\n
$GPGGA,100328.15,5703.3438227,N,00952.0295216,E,2,11,0.9,-1.486,M,40.592,M,2.4,0123*61\r\n
$GPGGA,100328.20,5703.3438314,N,00952.0295127,E,2,11,0.9,-1.493,M,40.592,M,2.4,0123*63\r\n
$GPGGA,100328.25,5703.3438394,N,00952.0295032,E,2,11,0.9,-1.503,M,40.592,M,2.7,0123*60\r\n
$GPGGA,100328.30,5703.3438473,N,00952.0294960,E,2,11,0.9,-1.505,M,40.592,M,2.7,0123*63\r\n
$GPGGA,100328.35,5703.3438538,N,00952.0294864,E,2,11,0.9,-1.508,M,40.592,M,2.7,0123*60\r\n
$GPGGA,100328.40,5703.3438610,N,00952.0294760,E,2,11,0.9,-1.510,M,40.592,M,2.7,0123*69\r\n
$GPGGA,100328.45,5703.3438680,N,00952.0294658,E,2,11,0.9,-1.504,M,40.592,M,2.9,0123*64\r\n
$GPGGA,100328.50,5703.3438748,N,00952.0294565,E,2,11,0.9,-1.501,M,40.592,M,2.9,0123*6D\r\n
$GPGGA,100328.55,5703.3438811,N,00952.0294469,E,2,11,0.9,-1.496,M,40.592,M,2.9,0123*69\r\n
$GPGGA,100328.60,5703.3438878,N,00952.0294374,E,2,11,0.9,-1.491,M,40.592,M,2.9,0123*6C\r\n
$GPGGA,100328.65,5703.3438936,N,00952.0294293,E,2,11,0.9,-1.487,M,40.592,M,1.0,0123*67\r\n
$GPGGA,100328.70,5703.3439008,N,00952.0294202,E,2,11,0.9,-1.484,M,40.592,M,1.0,0123*6D\r\n
$GPGGA,100328.75,5703.3439075,N,00952.0294109,E,2,11,0.9,-1.478,M,40.592,M,1.0,0123*69\r\n
$GPGGA,100328.80,5703.3439145,N,00952.0294002,E,2,11,0.9,-1.468,M,40.592,M,1.0,0123*6A\r\n
$GPGGA,100328.85,5703.3439209,N,00952.0293883,E,2,11,0.9,-1.461,M,40.592,M,1.3,0123*68\r\n
$GPGGA,100328.90,5703.3439275,N,00952.0293772,E,2,11,0.9,-1.459,M,40.592,M,1.3,0123*6D\r\n
$GPGGA,100328.95,5703.3439344,N,00952.0293670,E,2,11,0.9,-1.456,M,40.592,M,1.3,0123*67\r\n
$GPGGA,100329.00,5703.3439423,N,00952.0293576,E,2,11,0.9,-1.454,M,40.592,M,1.3,0123*6B\r\n
$GPGGA,100329.05,5703.3439511,N,00952.0293462,E,2,11,0.9,-1.454,M,40.592,M,1.6,0123*6F\r\n
$GPGGA,100329.10,5703.3439593,N,00952.0293344,E,2,11,0.9,-1.454,M,40.592,M,1.6,0123*62\r\n
$GPGGA,100329.15,5703.3439674,N,00952.0293225,E,2,11,0.9,-1.457,M,40.592,M,1.6,0123*68\r\n
$GPGGA,100329.20,5703.3439761,N,00952.0293134,E,2,11,0.9,-1.459,M,40.592,M,1.6,0123*66\r\n
$GPGGA,100329.25,5703.3439844,N,00952.0293042,E,2,11,0.9,-1.468,M,40.592,M,1.8,0123*67\r\n
$GPGGA,100329.30,5703.3439920,N,00952.0292963,E,2,11,0.9,-1.478,M,40.592,M,1.8,0123*6A\r\n
$GPGGA,100329.35,5703.3440003,N,00952.0292888,E,2,11,0.9,-1.486,M,40.592,M,1.8,0123*6C\r\n
$GPGGA,100329.40,5703.3440088,N,00952.0292784,E,2,11,0.9,-1.494,M,40.592,M,1.8,0123*6D\r\n
$GPGGA,100329.45,5703.3440162,N,00952.0292659,E,2,11,0.9,-1.503,M,40.592,M,2.1,0123*69\r\n
$GPGGA,100329.50,5703.3440244,N,00952.0292532,E,2,11,0.9,-1.505,M,40.592,M,2.1,0123*62\r\n
$GPGGA,100329.55,5703.3440316,N,00952.0292403,E,2,11,0.9,-1.509,M,40.592,M,2.1,0123*6E\r\n
$GPGGA,100329.60,5703.3440393,N,00952.0292278,E,2,11,0.9,-1.510,M,40.592,M,2.1,0123*67\r\n
$GPGGA,100329.65,5703.3440469,N,00952.0292176,E,2,11,0.9,-1.506,M,40.592,M,1.0,0123*68\r\n
$GPGGA,100329.70,5703.3440539,N,00952.0292059,E,2,11,0.9,-1.503,M,40.592,M,1.0,0123*61\r\n
$GPGGA,100329.75,5703.3440611,N,00952.0291935,E,2,11,0.9,-1.499,M,40.592,M,1.0,0123*6F\r\n
$GPGGA,100329.80,5703.3440680,N,00952.0291814,E,2,11,0.9,-1.498,M,40.592,M,1.0,0123*6E\r\n
$GPGGA,100329.85,5703.3440748,N,00952.0291685,E,2,11,0.9,-1.496,M,40.592,M,1.3,0123*65\r\n
$GPGGA,100329.90,5703.3440815,N,00952.0291574,E,2,11,0.9,-1.491,M,40.592,M,1.3,0123*6C\r\n
$GPGGA,100329.95,5703.3440886,N,00952.0291449,E,2,11,0.9,-1.485,M,40.592,M,1.3,0123*69\r\n
$GPGGA,100330.00,5703.3440963,N,00952.0291313,E,2,11,0.9,-1.475,M,40.592,M,1.3,0123*60\r\n
$GPGGA,100330.05,5703.3441046,N,00952.0291187,E,2,11,0.9,-1.461,M,40.592,M,1.5,0123*66\r\n
$GPGGA,100330.10,5703.3441124,N,00952.0291072,E,2,11,0.9,-1.454,M,40.592,M,1.5,0123*6A\r\n
$GPGGA,100330.15,5703.3441207,N,00952.0290952,E,2,11,0.9,-1.451,M,40.592,M,1.5,0123*62\r\n
$GPGGA,100330.20,5703.3441286,N,00952.0290815,E,2,11,0.9,-1.452,M,40.592,M,1.5,0123*6C\r\n
$GPGGA,100330.25,5703.3441366,N,00952.0290662,E,2,11,0.9,-1.455,M,40.592,M,1.8,0123*62\r\n
$GPGGA,100330.30,5703.3441463,N,00952.0290542,E,2,11,0.9,-1.457,M,40.592,M,1.8,0123*67\r\n
$GPGGA,100330.35,5703.3441557,N,00952.0290429,E,2,11,0.9,-1.460,M,40.592,M,1.8,0123*6C\r\n
$GPGGA,100330.40,5703.3441654,N,00952.0290320,E,2,11,0.9,-1.463,M,40.592,M,1.8,0123*63\r\n
$GPGGA,100330.45,5703.3441758,N,00952.0290196,E,2,11,0.9,-1.474,M,40.592,M,2.0,0123*69\r\n
$GPGGA,100330.50,5703.3441855,N,00952.0290081,E,2,11,0.9,-1.482,M,40.592,M,2.0,0123*61\r\n
$GPGGA,100330.55,5703.3441937,N,00952.0289969,E,2,11,0.9,-1.487,M,40.592,M,2.0,0123*63\r\n
$GPGGA,100330.60,5703.3442020,N,00952.0289850,E,2,11,0.9,-1.489,M,40.592,M,2.0,0123*6C\r\n
$GPGGA,100330.65,5703.3442091,N,00952.0289715,E,2,11,0.9,-1.495,M,40.592,M,2.2,0123*62\r\n
$GPGGA,100330.70,5703.3442170,N,00952.0289563,E,2,11,0.9,-1.499,M,40.592,M,2.2,0123*67\r\n
$GPGGA,100330.75,5703.3442250,N,00952.0289416,E,2,11,0.9,-1.497,M,40.592,M,2.2,0123*6E\r\n
$GPGGA,100330.80,5703.3442328,N,00952.0289278,E,2,11,0.9,-1.496,M,40.592,M,2.2,0123*65\r\n
$GPGGA,100330.85,5703.3442413,N,00952.0289129,E,2,11,0.9,-1.489,M,40.592,M,2.4,0123*60\r\n
$GPGGA,100330.90,5703.3442490,N,00952.0288979,E,2,11,0.9,-1.487,M,40.592,M,2.4,0123*6D\r\n
$GPGGA,100330.95,5703.3442569,N,00952.0288828,E,2,11,0.9,-1.483,M,40.592,M,2.4,0123*6E\r\n
$GPGGA,100331.00,5703.3442652,N,00952.0288679,E,2,11,0.9,-1.478,M,40.592,M,2.4,0123*66\r\n
$GPGGA,100331.05,5703.3442739,N,00952.0288520,E,2,11,0.9,-1.469,M,40.592,M,2.6,0123*62\r\n
$GPGGA,100331.10,5703.3442823,N,00952.0288384,E,2,11,0.9,-1.466,M,40.592,M,2.6,0123*65\r\n
$GPGGA,100331.15,5703.3442908,N,00952.0288221,E,2,11,0.9,-1.465,M,40.592,M,2.6,0123*65\r\n
$GPGGA,100331.20,5703.3443009,N,00952.0288071,E,2,11,0.9,-1.465,M,40.592,M,2.6,0123*6D\r\n
$GPGGA,100331.25,5703.3443105,N,00952.0287929,E,2,11,0.9,-1.470,M,40.592,M,2.9,0123*65\r\n
$GPGGA,100331.30,5703.3443206,N,00952.0287814,E,2,11,0.9,-1.474,M,40.592,M,2.9,0123*6A\r\n
$GPGGA,100331.35,5703.3443304,N,00952.0287684,E,2,11,0.9,-1.479,M,40.592,M,2.9,0123*66\r\n
$GPGGA,100331.40,5703.3443399,N,00952.0287539,E,2,11,0.9,-1.480,M,40.592,M,2.9,0123*63\r\n
$GPGGA,100331.45,5703.3443488,N,00952.0287389,E,2,11,0.9,-1.479,M,40.592,M,3.1,0123*63\r\n
$GPGGA,100331.50,5703.3443575,N,00952.0287246,E,2,11,0.9,-1.478,M,40.592,M,3.1,0123*67\r\n
$GPGGA,100331.55,5703.3443650,N,00952.0287089,E,2,11,0.9,-1.482,M,40.592,M,3.1,0123*62\r\n
$GPGGA,100331.60,5703.3443749,N,00952.0286929,E,2,11,0.9,-1.483,M,40.592,M,3.1,0123*6E\r\n
$GPGGA,100331.65,5703.3443849,N,00952.0286768,E,2,11,0.9,-1.479,M,40.592,M,1.8,0123*61\r\n
$GPGGA,100331.70,5703.3443934,N,00952.0286604,E,2,11,0.9,-1.479,M,40.592,M,1.8,0123*65\r\n
$GPGGA,100331.75,5703.3444024,N,00952.0286451,E,2,11,0.9,-1.477,M,40.592,M,1.8,0123*63\r\n
$GPGGA,100331.80,5703.3444113,N,00952.0286304,E,2,11,0.9,-1.475,M,40.592,M,1.8,0123*69\r\n
$GPGGA,100331.85,5703.3444210,N,00952.0286147,E,2,11,0.9,-1.475,M,40.592,M,2.1,0123*63\r\n
$GPGGA,100331.90,5703.3444304,N,00952.0285984,E,2,11,0.9,-1.476,M,40.592,M,2.1,0123*64\r\n
$GPGGA,100331.95,5703.3444392,N,00952.0285819,E,2,11,0.9,-1.476,M,40.592,M,2.1,0123*6B\r\n
$GPGGA,100332.00,5703.3444492,N,00952.0285667,E,2,11,0.9,-1.478,M,40.592,M,2.1,0123*6A\r\n
$GPGGA,100332.05,5703.3444589,N,00952.0285496,E,2,11,0.9,-1.481,M,40.592,M,2.4,0123*6B\r\n
$GPGGA,100332.10,5703.3444696,N,00952.0285320,E,2,11,0.9,-1.483,M,40.592,M,2.4,0123*6A\r\n
$GPGGA,100332.15,5703.3444806,N,00952.0285153,E,2,11,0.9,-1.482,M,40.592,M,2.4,0123*6F\r\n
$GPGGA,100332.20,5703.3444911,N,00952.0284977,E,2,11,0.9,-1.479,M,40.592,M,2.4,0123*65\r\n
$GPGGA,100332.25,5703.3445013,N,00952.0284805,E,2,11,0.9,-1.479,M,40.592,M,2.7,0123*6D\r\n
$GPGGA,100332.30,5703.3445110,N,00952.0284611,E,2,11,0.9,-1.480,M,40.592,M,2.7,0123*66\r\n
$GPGGA,100332.35,5703.3445223,N,00952.0284415,E,2,11,0.9,-1.474,M,40.592,M,2.7,0123*6D\r\n
$GPGGA,100332.40,5703.3445339,N,00952.0284222,E,2,11,0.9,-1.470,M,40.592,M,2.7,0123*63\r\n
$GPGGA,100332.45,5703.3445446,N,00952.0284019,E,2,11,0.9,-1.471,M,40.592,M,2.9,0123*6C\r\n
$GPGGA,100332.50,5703.3445545,N,00952.0283829,E,2,11,0.9,-1.470,M,40.592,M,2.9,0123*67\r\n
$GPGGA,100332.55,5703.3445647,N,00952.0283644,E,2,11,0.9,-1.470,M,40.592,M,2.9,0123*66\r\n
$GPGGA,100332.60,5703.3445750,N,00952.0283471,E,2,11,0.9,-1.468,M,40.592,M,2.9,0123*6A\r\n
$GPGGA,100332.65,5703.3445854,N,00952.0283279,E,2,11,0.9,-1.465,M,40.592,M,1.0,0123*6D\r\n
$GPGGA,100332.70,5703.3445963,N,00952.0283101,E,2,11,0.9,-1.461,M,40.592,M,1.0,0123*64\r\n
$GPGGA,100332.75,5703.3446072,N,00952.0282928,E,2,11,0.9,-1.458,M,40.592,M,1.0,0123*63\r\n
$GPGGA,100332.80,5703.3446178,N,00952.0282747,E,2,11,0.9,-1.460,M,40.592,M,1.0,0123*6E\r\n
$GPGGA,100332.85,5703.3446273,N,00952.0282570,E,2,11,0.9,-1.462,M,40.592,M,1.3,0123*64\r\n
$GPGGA,100332.90,5703.3446378,N,00952.0282391,E,2,11,0.9,-1.462,M,40.592,M,1.3,0123*63\r\n
$GPGGA,100332.95,5703.3446494,N,00952.0282216,E,2,11,0.9,-1.462,M,40.592,M,1.3,0123*6D\r\n
$GPGGA,100333.00,5703.3446605,N,00952.0282034,E,2,11,0.9,-1.465,M,40.592,M,1.3,0123*6F\r\n
$GPGGA,100333.05,5703.3446705,N,00952.0281833,E,2,11,0.9,-1.472,M,40.592,M,1.6,0123*64\r\n
$GPGGA,100333.10,5703.3446820,N,00952.0281630,E,2,11,0.9,-1.475,M,40.592,M,1.6,0123*62\r\n
$GPGGA,100333.15,5703.3446926,N,00952.0281421,E,2,11,0.9,-1.475,M,40.592,M,1.6,0123*62\r\n
$GPGGA,100333.20,5703.3447035,N,00952.0281210,E,2,11,0.9,-1.474,M,40.592,M,1.6,0123*6B\r\n
$GPGGA,100333.25,5703.3447144,N,00952.0280996,E,2,11,0.9,-1.476,M,40.592,M,1.8,0123*61\r\n
$GPGGA,100333.30,5703.3447253,N,00952.0280772,E,2,11,0.9,-1.476,M,40.592,M,1.8,0123*64\r\n
$GPGGA,100333.35,5703.3447362,N,00952.0280544,E,2,11,0.9,-1.473,M,40.592,M,1.8,0123*60\r\n
$GPGGA,100333.40,5703.3447479,N,00952.0280315,E,2,11,0.9,-1.471,M,40.592,M,1.8,0123*6F\r\n
$GPGGA,100333.45,5703.3447597,N,00952.0280099,E,2,11,0.9,-1.463,M,40.592,M,2.1,0123*65\r\n
$GPGGA,100333.50,5703.3447720,N,00952.0279869,E,2,11,0.9,-1.458,M,40.592,M,2.1,0123*66\r\n
$GPGGA,100333.55,5703.3447854,N,00952.0279640,E,2,11,0.9,-1.449,M,40.592,M,2.1,0123*6A\r\n
$GPGGA,100333.60,5703.3447978,N,00952.0279419,E,2,11,0.9,-1.440,M,40.592,M,2.1,0123*64\r\n
$GPGGA,100333.65,5703.3448095,N,00952.0279190,E,2,11,0.9,-1.434,M,40.592,M,1.0,0123*61\r\n
$GPGGA,100333.70,5703.3448226,N,00952.0278963,E,2,11,0.9,-1.429,M,40.592,M,1.0,0123*66\r\n
$GPGGA,100333.75,5703.3448360,N,00952.0278753,E,2,11,0.9,-1.419,M,40.592,M,1.0,0123*6E\r\n
$GPGGA,100333.80,5703.3448505,N,00952.0278542,E,2,11,0.9,-1.414,M,40.592,M,1.0,0123*6E\r\n
$GPGGA,100333.85,5703.3448654,N,00952.0278327,E,2,11,0.9,-1.409,M,40.592,M,1.3,0123*66\r\n
$GPGGA,100333.90,5703.3448804,N,00952.0278111,E,2,11,0.9,-1.407,M,40.592,M,1.3,0123*60\r\n
$GPGGA,100333.95,5703.3448972,N,00952.0277898,E,2,11,0.9,-1.404,M,40.592,M,1.3,0123*61\r\n
$GPGGA,100334.00,5703.3449147,N,00952.0277701,E,2,11,0.9,-1.405,M,40.592,M,1.3,0123*6B\r\n
$GPGGA,100334.05,5703.3449338,N,00952.0277491,E,2,11,0.9,-1.413,M,40.592,M,1.5,0123*6F\r\n
$GPGGA,100334.10,5703.3449548,N,00952.0277304,E,2,11,0.9,-1.415,M,40.592,M,1.5,0123*67\r\n
$GPGGA,100334.15,5703.3449758,N,00952.0277114,E,2,11,0.9,-1.422,M,40.592,M,1.5,0123*66\r\n
$GPGGA,100334.20,5703.3449976,N,00952.0276908,E,2,11,0.9,-1.426,M,40.592,M,1.5,0123*62\r\n
$GPGGA,100334.25,5703.3450196,N,00952.0276712,E,2,11,0.9,-1.426,M,40.592,M,1.8,0123*61\r\n
$GPGGA,100334.30,5703.3450420,N,00952.0276521,E,2,11,0.9,-1.426,M,40.592,M,1.8,0123*6F\r\n
$GPGGA,100334.35,5703.3450648,N,00952.0276325,E,2,11,0.9,-1.426,M,40.592,M,1.8,0123*64\r\n
$GPGGA,100334.40,5703.3450888,N,00952.0276138,E,2,11,0.9,-1.423,M,40.592,M,1.8,0123*6F\r\n
$GPGGA,100334.45,5703.3451139,N,00952.0275947,E,2,11,0.9,-1.422,M,40.592,M,2.0,0123*61\r\n
$GPGGA,100334.50,5703.3451406,N,00952.0275758,E,2,11,0.9,-1.417,M,40.592,M,2.0,0123*6A\r\n
$GPGGA,100334.55,5703.3451671,N,00952.0275563,E,2,11,0.9,-1.412,M,40.592,M,2.0,0123*62\r\n
$GPGGA,100334.60,5703.3451938,N,00952.0275350,E,2,11,0.9,-1.405,M,40.592,M,2.0,0123*66\r\n
$GPGGA,100334.65,5703.3452237,N,00952.0275141,E,2,11,0.9,-1.392,M,40.592,M,2.2,0123*6D\r\n
$GPGGA,100334.70,5703.3452540,N,00952.0274933,E,2,11,0.9,-1.382,M,40.592,M,2.2,0123*63\r\n
$GPGGA,100334.75,5703.3452847,N,00952.0274726,E,2,11,0.9,-1.373,M,40.592,M,2.2,0123*68\r\n
$GPGGA,100334.80,5703.3453169,N,00952.0274520,E,2,11,0.9,-1.365,M,40.592,M,2.2,0123*65\r\n
$GPGGA,100334.85,5703.3453502,N,00952.0274325,E,2,11,0.9,-1.356,M,40.592,M,2.4,0123*6C\r\n
$GPGGA,100334.90,5703.3453845,N,00952.0274138,E,2,11,0.9,-1.354,M,40.592,M,2.4,0123*6A\r\n
$GPGGA,100334.95,5703.3454197,N,00952.0273963,E,2,11,0.9,-1.354,M,40.592,M,2.4,0123*6F\r\n
$GPGGA,100335.00,5703.3454565,N,00952.0273808,E,2,11,0.9,-1.358,M,40.592,M,2.4,0123*6B\r\n
$GPGGA,100335.05,5703.3454928,N,00952.0273626,E,2,11,0.9,-1.369,M,40.592,M,2.6,0123*69\r\n
$GPGGA,100335.10,5703.3455304,N,00952.0273440,E,2,11,0.9,-1.373,M,40.592,M,2.6,0123*61\r\n
$GPGGA,100335.15,5703.3455695,N,00952.0273222,E,2,11,0.9,-1.376,M,40.592,M,2.6,0123*6E\r\n
$GPGGA,100335.20,5703.3456090,N,00952.0273003,E,2,11,0.9,-1.374,M,40.592,M,2.6,0123*6B\r\n
$GPGGA,100335.25,5703.3456479,N,00952.0272797,E,2,11,0.9,-1.376,M,40.592,M,2.9,0123*6B\r\n
$GPGGA,100335.30,5703.3456866,N,00952.0272596,E,2,11,0.9,-1.379,M,40.592,M,2.9,0123*61\r\n
$GPGGA,100335.35,5703.3457260,N,00952.0272370,E,2,11,0.9,-1.381,M,40.592,M,2.9,0123*60\r\n
$GPGGA,100335.40,5703.3457658,N,00952.0272140,E,2,11,0.9,-1.378,M,40.592,M,2.9,0123*6A\r\n
$GPGGA,100335.45,5703.3458077,N,00952.0271932,E,2,11,0.9,-1.373,M,40.592,M,3.1,0123*67\r\n
$GPGGA,100335.50,5703.3458506,N,00952.0271703,E,2,11,0.9,-1.372,M,40.592,M,3.1,0123*6D\r\n
$GPGGA,100335.55,5703.3458937,N,00952.0271472,E,2,11,0.9,-1.373,M,40.592,M,3.1,0123*62\r\n
$GPGGA,100335.60,5703.3459377,N,00952.0271221,E,2,11,0.9,-1.376,M,40.592,M,3.1,0123*6E\r\n
$GPGGA,100335.65,5703.3459821,N,00952.0270975,E,2,11,0.9,-1.378,M,40.592,M,1.8,0123*6D\r\n
$GPGGA,100335.70,5703.3460261,N,00952.0270734,E,2,11,0.9,-1.381,M,40.592,M,1.8,0123*60\r\n
$GPGGA,100335.75,5703.3460710,N,00952.0270485,E,2,11,0.9,-1.382,M,40.592,M,1.8,0123*6C\r\n
$GPGGA,100335.80,5703.3461160,N,00952.0270223,E,2,11,0.9,-1.382,M,40.592,M,1.8,0123*6C\r\n
$GPGGA,100335.85,5703.3461611,N,00952.0269963,E,2,11,0.9,-1.380,M,40.592,M,2.1,0123*67\r\n
$GPGGA,100335.90,5703.3462048,N,00952.0269677,E,2,11,0.9,-1.381,M,40.592,M,2.1,0123*61\r\n
$GPGGA,100335.95,5703.3462494,N,00952.0269376,E,2,11,0.9,-1.377,M,40.592,M,2.1,0123*6C\r\n
$GPGGA,100336.00,5703.3462952,N,00952.0269066,E,2,11,0.9,-1.372,M,40.592,M,2.1,0123*63\r\n
$GPGGA,100336.05,5703.3463415,N,00952.0268722,E,2,11,0.9,-1.368,M,40.592,M,2.4,0123*61\r\n
$GPGGA,100336.10,5703.3463877,N,00952.0268375,E,2,11,0.9,-1.365,M,40.592,M,2.4,0123*66\r\n
$GPGGA,100336.15,5703.3464345,N,00952.0268028,E,2,11,0.9,-1.358,M,40.592,M,2.4,0123*6B\r\n
$GPGGA,100336.20,5703.3464806,N,00952.0267697,E,2,11,0.9,-1.357,M,40.592,M,2.4,0123*63\r\n
$GPGGA,100336.25,5703.3465282,N,00952.0267347,E,2,11,0.9,-1.361,M,40.592,M,2.7,0123*6F\r\n
$GPGGA,100336.30,5703.3465764,N,00952.0267007,E,2,11,0.9,-1.365,M,40.592,M,2.7,0123*65\r\n
$GPGGA,100336.35,5703.3466251,N,00952.0266672,E,2,11,0.9,-1.369,M,40.592,M,2.7,0123*69\r\n
$GPGGA,100336.40,5703.3466753,N,00952.0266322,E,2,11,0.9,-1.374,M,40.592,M,2.7,0123*60\r\n
$GPGGA,100336.45,5703.3467253,N,00952.0265964,E,2,11,0.9,-1.380,M,40.592,M,2.9,0123*6F\r\n
$GPGGA,100336.50,5703.3467734,N,00952.0265538,E,2,11,0.9,-1.381,M,40.592,M,2.9,0123*6B\r\n
$GPGGA,100336.55,5703.3468199,N,00952.0265073,E,2,11,0.9,-1.379,M,40.592,M,2.9,0123*6D\r\n
$GPGGA,100336.60,5703.3468658,N,00952.0264596,E,2,11,0.9,-1.377,M,40.592,M,2.9,0123*60\r\n
$GPGGA,100336.65,5703.3469127,N,00952.0264123,E,2,11,0.9,-1.370,M,40.592,M,1.0,0123*6C\r\n
$GPGGA,100336.70,5703.3469589,N,00952.0263634,E,2,11,0.9,-1.366,M,40.592,M,1.0,0123*69\r\n
$GPGGA,100336.75,5703.3470060,N,00952.0263147,E,2,11,0.9,-1.357,M,40.592,M,1.0,0123*67\r\n
$GPGGA,100336.80,5703.3470525,N,00952.0262660,E,2,11,0.9,-1.357,M,40.592,M,1.0,0123*6A\r\n
$GPGGA,100336.85,5703.3471013,N,00952.0262157,E,2,11,0.9,-1.356,M,40.592,M,1.3,0123*6F\r\n
$GPGGA,100336.90,5703.3471501,N,00952.0261659,E,2,11,0.9,-1.361,M,40.592,M,1.3,0123*63\r\n
$GPGGA,100336.95,5703.3471996,N,00952.0261155,E,2,11,0.9,-1.366,M,40.592,M,1.3,0123*68\r\n
$GPGGA,100337.00,5703.3472498,N,00952.0260645,E,2,11,0.9,-1.369,M,40.592,M,1.3,0123*6D\r\n
$GPGGA,100337.05,5703.3472989,N,00952.0260104,E,2,11,0.9,-1.372,M,40.592,M,1.6,0123*68\r\n
$GPGGA,100337.10,5703.3473465,N,00952.0259549,E,2,11,0.9,-1.373,M,40.592,M,1.6,0123*64\r\n
$GPGGA,100337.15,5703.3473933,N,00952.0258972,E,2,11,0.9,-1.376,M,40.592,M,1.6,0123*6F\r\n
$GPGGA,100337.20,5703.3474389,N,00952.0258362,E,2,11,0.9,-1.377,M,40.592,M,1.6,0123*6F\r\n
$GPGGA,100337.25,5703.3474852,N,00952.0257746,E,2,11,0.9,-1.376,M,40.592,M,1.8,0123*65\r\n
$GPGGA,100337.30,5703.3475308,N,00952.0257105,E,2,11,0.9,-1.376,M,40.592,M,1.8,0123*65\r\n
$GPGGA,100337.35,5703.3475764,N,00952.0256458,E,2,11,0.9,-1.377,M,40.592,M,1.8,0123*63\r\n
$GPGGA,100337.40,5703.3476235,N,00952.0255804,E,2,11,0.9,-1.376,M,40.592,M,1.8,0123*64\r\n
$GPGGA,100337.45,5703.3476688,N,00952.0255120,E,2,11,0.9,-1.374,M,40.592,M,2.1,0123*64\r\n
$GPGGA,100337.50,5703.3477136,N,00952.0254427,E,2,11,0.9,-1.371,M,40.592,M,2.1,0123*65\r\n
$GPGGA,100337.55,5703.3477585,N,00952.0253732,E,2,11,0.9,-1.372,M,40.592,M,2.1,0123*6F\r\n
$GPGGA,100337.60,5703.3478026,N,00952.0253017,E,2,11,0.9,-1.374,M,40.592,M,2.1,0123*6C\r\n
$GPGGA,100337.65,5703.3478456,N,00952.0252271,E,2,11,0.9,-1.376,M,40.592,M,1.0,0123*69\r\n
$GPGGA,100337.70,5703.3478896,N,00952.0251531,E,2,11,0.9,-1.375,M,40.592,M,1.0,0123*6E\r\n
$GPGGA,100337.75,5703.3479347,N,00952.0250801,E,2,11,0.9,-1.373,M,40.592,M,1.0,0123*64\r\n
$GPGGA,100337.80,5703.3479781,N,00952.0250039,E,2,11,0.9,-1.373,M,40.592,M,1.0,0123*63\r\n
$GPGGA,100337.85,5703.3480206,N,00952.0249273,E,2,11,0.9,-1.371,M,40.592,M,1.3,0123*6F\r\n
$GPGGA,100337.90,5703.3480623,N,00952.0248477,E,2,11,0.9,-1.370,M,40.592,M,1.3,0123*6A\r\n
$GPGGA,100337.95,5703.3481033,N,00952.0247668,E,2,11,0.9,-1.369,M,40.592,M,1.3,0123*62\r\n
$GPGGA,100338.00,5703.3481452,N,00952.0246854,E,2,11,0.9,-1.362,M,40.592,M,1.3,0123*69\r\n
$GPGGA,100338.05,5703.3481870,N,00952.0246008,E,2,11,0.9,-1.356,M,40.592,M,1.5,0123*60\r\n
$GPGGA,100338.10,5703.3482269,N,00952.0245152,E,2,11,0.9,-1.356,M,40.592,M,1.5,0123*68\r\n
$GPGGA,100338.15,5703.3482670,N,00952.0244288,E,2,11,0.9,-1.356,M,40.592,M,1.5,0123*64\r\n
$GPGGA,100338.20,5703.3483076,N,00952.0243419,E,2,11,0.9,-1.358,M,40.592,M,1.5,0123*64\r\n
$GPGGA,100338.25,5703.3483482,N,00952.0242551,E,2,11,0.9,-1.365,M,40.592,M,1.8,0123*61\r\n
$GPGGA,100338.30,5703.3483887,N,00952.0241680,E,2,11,0.9,-1.367,M,40.592,M,1.8,0123*62\r\n
$GPGGA,100338.35,5703.3484278,N,00952.0240758,E,2,11,0.9,-1.368,M,40.592,M,1.8,0123*60\r\n
$GPGGA,100338.40,5703.3484620,N,00952.0239790,E,2,11,0.9,-1.368,M,40.592,M,1.8,0123*61\r\n
$GPGGA,100338.45,5703.3484934,N,00952.0238796,E,2,11,0.9,-1.366,M,40.592,M,2.0,0123*6C\r\n
$GPGGA,100338.50,5703.3485241,N,00952.0237810,E,2,11,0.9,-1.362,M,40.592,M,2.0,0123*6A\r\n
$GPGGA,100338.55,5703.3485547,N,00952.0236802,E,2,11,0.9,-1.358,M,40.592,M,2.0,0123*65\r\n
$GPGGA,100338.60,5703.3485855,N,00952.0235806,E,2,11,0.9,-1.353,M,40.592,M,2.0,0123*61\r\n
$GPGGA,100338.65,5703.3486155,N,00952.0234793,E,2,11,0.9,-1.348,M,40.592,M,2.2,0123*64\r\n
$GPGGA,100338.70,5703.3486453,N,00952.0233765,E,2,11,0.9,-1.346,M,40.592,M,2.2,0123*63\r\n
$GPGGA,100338.75,5703.3486763,N,00952.0232760,E,2,11,0.9,-1.343,M,40.592,M,2.2,0123*67\r\n
$GPGGA,100338.80,5703.3487085,N,00952.0231749,E,2,11,0.9,-1.337,M,40.592,M,2.2,0123*68\r\n
$GPGGA,100338.85,5703.3487381,N,00952.0230716,E,2,11,0.9,-1.334,M,40.592,M,2.4,0123*64\r\n
$GPGGA,100338.90,5703.3487649,N,00952.0229657,E,2,11,0.9,-1.337,M,40.592,M,2.4,0123*6E\r\n
$GPGGA,100338.95,5703.3487917,N,00952.0228579,E,2,11,0.9,-1.337,M,40.592,M,2.4,0123*61\r\n
$GPGGA,100339.00,5703.3488183,N,00952.0227495,E,2,11,0.9,-1.336,M,40.592,M,2.4,0123*6B\r\n
$GPGGA,100339.05,5703.3488439,N,00952.0226381,E,2,11,0.9,-1.336,M,40.592,M,2.6,0123*6B\r\n
$GPGGA,100339.10,5703.3488678,N,00952.0225277,E,2,11,0.9,-1.336,M,40.592,M,2.6,0123*63\r\n
$GPGGA,100339.15,5703.3488900,N,00952.0224174,E,2,11,0.9,-1.336,M,40.592,M,2.6,0123*67\r\n
$GPGGA,100339.20,5703.3489120,N,00952.0223043,E,2,11,0.9,-1.337,M,40.592,M,2.6,0123*69\r\n
$GPGGA,100339.25,5703.3489334,N,00952.0221910,E,2,11,0.9,-1.344,M,40.592,M,2.9,0123*6D\r\n
$GPGGA,100339.30,5703.3489535,N,00952.0220760,E,2,11,0.9,-1.347,M,40.592,M,2.9,0123*65\r\n
$GPGGA,100339.35,5703.3489720,N,00952.0219617,E,2,11,0.9,-1.350,M,40.592,M,2.9,0123*6B\r\n
$GPGGA,100339.40,5703.3489897,N,00952.0218470,E,2,11,0.9,-1.352,M,40.592,M,2.9,0123*6A\r\n
$GPGGA,100339.45,5703.3490062,N,00952.0217311,E,2,11,0.9,-1.354,M,40.592,M,3.1,0123*65\r\n
$GPGGA,100339.50,5703.3490207,N,00952.0216133,E,2,11,0.9,-1.354,M,40.592,M,3.1,0123*63\r\n
$GPGGA,100339.55,5703.3490344,N,00952.0214961,E,2,11,0.9,-1.354,M,40.592,M,3.1,0123*6D\r\n
$GPGGA,100339.60,5703.3490473,N,00952.0213791,E,2,11,0.9,-1.354,M,40.592,M,3.1,0123*6E\r\n
$GPGGA,100339.65,5703.3490577,N,00952.0212613,E,2,11,0.9,-1.355,M,40.592,M,1.8,0123*6E\r\n
$GPGGA,100339.70,5703.3490664,N,00952.0211432,E,2,11,0.9,-1.355,M,40.592,M,1.8,0123*69\r\n
$GPGGA,100339.75,5703.3490754,N,00952.0210240,E,2,11,0.9,-1.357,M,40.592,M,1.8,0123*6E\r\n
$GPGGA,100339.80,5703.3490833,N,00952.0209052,E,2,11,0.9,-1.356,M,40.592,M,1.8,0123*62\r\n
$GPGGA,100339.85,5703.3490904,N,00952.0207863,E,2,11,0.9,-1.354,M,40.592,M,2.1,0123*6E\r\n
$GPGGA,100339.90,5703.3490961,N,00952.0206662,E,2,11,0.9,-1.355,M,40.592,M,2.1,0123*66\r\n
$GPGGA,100339.95,5703.3491004,N,00952.0205453,E,2,11,0.9,-1.357,M,40.592,M,2.1,0123*69\r\n
$GPGGA,100340.00,5703.3491029,N,00952.0204244,E,2,11,0.9,-1.359,M,40.592,M,2.1,0123*6B\r\n
$GPGGA,100340.05,5703.3491051,N,00952.0203016,E,2,11,0.9,-1.364,M,40.592,M,2.4,0123*68\r\n
$GPGGA,100340.10,5703.3491048,N,00952.0201801,E,2,11,0.9,-1.367,M,40.592,M,2.4,0123*6B\r\n
$GPGGA,100340.15,5703.3491041,N,00952.0200597,E,2,11,0.9,-1.366,M,40.592,M,2.4,0123*65\r\n
$GPGGA,100340.20,5703.3491025,N,00952.0199413,E,2,11,0.9,-1.365,M,40.592,M,2.4,0123*6C\r\n
$GPGGA,100340.25,5703.3490998,N,00952.0198235,E,2,11,0.9,-1.360,M,40.592,M,2.7,0123*62\r\n
$GPGGA,100340.30,5703.3490956,N,00952.0197042,E,2,11,0.9,-1.360,M,40.592,M,2.7,0123*69\r\n
$GPGGA,100340.35,5703.3490914,N,00952.0195841,E,2,11,0.9,-1.355,M,40.592,M,2.7,0123*65\r\n
$GPGGA,100340.40,5703.3490858,N,00952.0194643,E,2,11,0.9,-1.353,M,40.592,M,2.7,0123*65\r\n
$GPGGA,100340.45,5703.3490788,N,00952.0193439,E,2,11,0.9,-1.350,M,40.592,M,2.9,0123*67\r\n
$GPGGA,100340.50,5703.3490690,N,00952.0192239,E,2,11,0.9,-1.350,M,40.592,M,2.9,0123*6C\r\n
$GPGGA,100340.55,5703.3490588,N,00952.0191047,E,2,11,0.9,-1.349,M,40.592,M,2.9,0123*63\r\n
$GPGGA,100340.60,5703.3490478,N,00952.0189852,E,2,11,0.9,-1.348,M,40.592,M,2.9,0123*6F\r\n
$GPGGA,100340.65,5703.3490354,N,00952.0188641,E,2,11,0.9,-1.348,M,40.592,M,1.0,0123*64\r\n
$GPGGA,100340.70,5703.3490216,N,00952.0187450,E,2,11,0.9,-1.349,M,40.592,M,1.0,0123*6B\r\n
$GPGGA,100340.75,5703.3490081,N,00952.0186262,E,2,11,0.9,-1.347,M,40.592,M,1.0,0123*6A\r\n
$GPGGA,100340.80,5703.3489946,N,00952.0185072,E,2,11,0.9,-1.345,M,40.592,M,1.0,0123*68\r\n
$GPGGA,100340.85,5703.3489804,N,00952.0183885,E,2,11,0.9,-1.336,M,40.592,M,1.3,0123*6B\r\n
$GPGGA,100340.90,5703.3489632,N,00952.0182700,E,2,11,0.9,-1.335,M,40.592,M,1.3,0123*64\r\n
$GPGGA,100340.95,5703.3489449,N,00952.0181517,E,2,11,0.9,-1.337,M,40.592,M,1.3,0123*6A\r\n
$GPGGA,100341.00,5703.3489242,N,00952.0180347,E,2,11,0.9,-1.336,M,40.592,M,1.3,0123*69\r\n
$GPGGA,100341.05,5703.3489023,N,00952.0179169,E,2,11,0.9,-1.339,M,40.592,M,1.6,0123*6B\r\n
$GPGGA,100341.10,5703.3488805,N,00952.0177998,E,2,11,0.9,-1.340,M,40.592,M,1.6,0123*64\r\n
$GPGGA,100341.15,5703.3488575,N,00952.0176835,E,2,11,0.9,-1.341,M,40.592,M,1.6,0123*6D\r\n
$GPGGA,100341.20,5703.3488343,N,00952.0175681,E,2,11,0.9,-1.342,M,40.592,M,1.6,0123*69\r\n
$GPGGA,100341.25,5703.3488099,N,00952.0174549,E,2,11,0.9,-1.334,M,40.592,M,1.8,0123*61\r\n
$GPGGA,100341.30,5703.3487826,N,00952.0173434,E,2,11,0.9,-1.335,M,40.592,M,1.8,0123*6B\r\n
$GPGGA,100341.35,5703.3487547,N,00952.0172315,E,2,11,0.9,-1.335,M,40.592,M,1.8,0123*61\r\n
$GPGGA,100341.40,5703.3487260,N,00952.0171200,E,2,11,0.9,-1.332,M,40.592,M,1.8,0123*60\r\n
$GPGGA,100341.45,5703.3486972,N,00952.0170071,E,2,11,0.9,-1.332,M,40.592,M,2.1,0123*63\r\n
$GPGGA,100341.50,5703.3486672,N,00952.0168955,E,2,11,0.9,-1.331,M,40.592,M,2.1,0123*6D\r\n
$GPGGA,100341.55,5703.3486352,N,00952.0167870,E,2,11,0.9,-1.334,M,40.592,M,2.1,0123*63\r\n
$GPGGA,100341.60,5703.3486035,N,00952.0166790,E,2,11,0.9,-1.335,M,40.592,M,2.1,0123*66\r\n
$GPGGA,100341.65,5703.3485715,N,00952.0165718,E,2,11,0.9,-1.332,M,40.592,M,1.0,0123*63\r\n
$GPGGA,100341.70,5703.3485379,N,00952.0164667,E,2,11,0.9,-1.331,M,40.592,M,1.0,0123*62\r\n
$GPGGA,100341.75,5703.3485025,N,00952.0163638,E,2,11,0.9,-1.331,M,40.592,M,1.0,0123*60\r\n
$GPGGA,100341.80,5703.3484660,N,00952.0162591,E,2,11,0.9,-1.334,M,40.592,M,1.0,0123*68\r\n
$GPGGA,100341.85,5703.3484299,N,00952.0161584,E,2,11,0.9,-1.332,M,40.592,M,1.3,0123*6D\r\n
$GPGGA,100341.90,5703.3483933,N,00952.0160595,E,2,11,0.9,-1.332,M,40.592,M,1.3,0123*64\r\n
$GPGGA,100341.95,5703.3483558,N,00952.0159595,E,2,11,0.9,-1.331,M,40.592,M,1.3,0123*69\r\n
$GPGGA,100342.00,5703.3483181,N,00952.0158596,E,2,11,0.9,-1.330,M,40.592,M,1.3,0123*65\r\n
$GPGGA,100342.05,5703.3482781,N,00952.0157622,E,2,11,0.9,-1.333,M,40.592,M,1.5,0123*61\r\n
$GPGGA,100342.10,5703.3482375,N,00952.0156659,E,2,11,0.9,-1.336,M,40.592,M,1.5,0123*62\r\n
$GPGGA,100342.15,5703.3481969,N,00952.0155693,E,2,11,0.9,-1.336,M,40.592,M,1.5,0123*66\r\n
$GPGGA,100342.20,5703.3481540,N,00952.0154747,E,2,11,0.9,-1.336,M,40.592,M,1.5,0123*6E\r\n
$GPGGA,100342.25,5703.3481100,N,00952.0153826,E,2,11,0.9,-1.337,M,40.592,M,1.8,0123*68\r\n
$GPGGA,100342.30,5703.3480671,N,00952.0152918,E,2,11,0.9,-1.338,M,40.592,M,1.8,0123*6E\r\n
$GPGGA,100342.35,5703.3480239,N,00952.0152020,E,2,11,0.9,-1.341,M,40.592,M,1.8,0123*6F\r\n
$GPGGA,100342.40,5703.3479791,N,00952.0151126,E,2,11,0.9,-1.343,M,40.592,M,1.8,0123*6A\r\n
$GPGGA,100342.45,5703.3479329,N,00952.0150245,E,2,11,0.9,-1.342,M,40.592,M,2.0,0123*65\r\n
$GPGGA,100342.50,5703.3478858,N,00952.0149377,E,2,11,0.9,-1.344,M,40.592,M,2.0,0123*63\r\n
$GPGGA,100342.55,5703.3478388,N,00952.0148541,E,2,11,0.9,-1.345,M,40.592,M,2.0,0123*63\r\n
$GPGGA,100342.60,5703.3477904,N,00952.0147719,E,2,11,0.9,-1.348,M,40.592,M,2.0,0123*69\r\n
$GPGGA,100342.65,5703.3477407,N,00952.0146914,E,2,11,0.9,-1.348,M,40.592,M,2.2,0123*62\r\n
$GPGGA,100342.70,5703.3476916,N,00952.0146154,E,2,11,0.9,-1.347,M,40.592,M,2.2,0123*69\r\n
$GPGGA,100342.75,5703.3476421,N,00952.0145385,E,2,11,0.9,-1.345,M,40.592,M,2.2,0123*6A\r\n
$GPGGA,100342.80,5703.3475928,N,00952.0144628,E,2,11,0.9,-1.342,M,40.592,M,2.2,0123*63\r\n
$GPGGA,100342.85,5703.3475418,N,00952.0143885,E,2,11,0.9,-1.341,M,40.592,M,2.4,0123*63\r\n
$GPGGA,100342.90,5703.3474908,N,00952.0143153,E,2,11,0.9,-1.341,M,40.592,M,2.4,0123*68\r\n
$GPGGA,100342.95,5703.3474390,N,00952.0142447,E,2,11,0.9,-1.339,M,40.592,M,2.4,0123*68\r\n
$GPGGA,100343.00,5703.3473870,N,00952.0141739,E,2,11,0.9,-1.338,M,40.592,M,2.4,0123*6F\r\n
$GPGGA,100343.05,5703.3473337,N,00952.0141052,E,2,11,0.9,-1.337,M,40.592,M,2.6,0123*65\r\n
$GPGGA,100343.10,5703.3472799,N,00952.0140386,E,2,11,0.9,-1.336,M,40.592,M,2.6,0123*6A\r\n
$GPGGA,100343.15,5703.3472253,N,00952.0139733,E,2,11,0.9,-1.337,M,40.592,M,2.6,0123*69\r\n
$GPGGA,100343.20,5703.3471703,N,00952.0139115,E,2,11,0.9,-1.337,M,40.592,M,2.6,0123*6E\r\n
$GPGGA,100343.25,5703.3471153,N,00952.0138498,E,2,11,0.9,-1.334,M,40.592,M,2.9,0123*65\r\n
$GPGGA,100343.30,5703.3470598,N,00952.0137895,E,2,11,0.9,-1.333,M,40.592,M,2.9,0123*6A\r\n
$GPGGA,100343.35,5703.3470036,N,00952.0137326,E,2,11,0.9,-1.332,M,40.592,M,2.9,0123*6C\r\n
$GPGGA,100343.40,5703.3469459,N,00952.0136774,E,2,11,0.9,-1.333,M,40.592,M,2.9,0123*68\r\n
$GPGGA,100343.45,5703.3468893,N,00952.0136262,E,2,11,0.9,-1.332,M,40.592,M,3.1,0123*6C\r\n
$GPGGA,100343.50,5703.3468327,N,00952.0135771,E,2,11,0.9,-1.333,M,40.592,M,3.1,0123*69\r\n
$GPGGA,100343.55,5703.3467756,N,00952.0135258,E,2,11,0.9,-1.339,M,40.592,M,3.1,0123*65\r\n
$GPGGA,100343.60,5703.3467185,N,00952.0134757,E,2,11,0.9,-1.341,M,40.592,M,3.1,0123*6F\r\n
$GPGGA,100343.65,5703.3466606,N,00952.0134290,E,2,11,0.9,-1.345,M,40.592,M,1.8,0123*66\r\n
$GPGGA,100343.70,5703.3466028,N,00952.0133856,E,2,11,0.9,-1.344,M,40.592,M,1.8,0123*6E\r\n
$GPGGA,100343.75,5703.3465436,N,00952.0133431,E,2,11,0.9,-1.345,M,40.592,M,1.8,0123*6F\r\n
$GPGGA,100343.80,5703.3464847,N,00952.0133038,E,2,11,0.9,-1.347,M,40.592,M,1.8,0123*61\r\n
$GPGGA,100343.85,5703.3464281,N,00952.0132626,E,2,11,0.9,-1.336,M,40.592,M,2.1,0123*60\r\n
$GPGGA,100343.90,5703.3463710,N,00952.0132244,E,2,11,0.9,-1.334,M,40.592,M,2.1,0123*6C\r\n
$GPGGA,100343.95,5703.3463127,N,00952.0131892,E,2,11,0.9,-1.330,M,40.592,M,2.1,0123*6D\r\n
$GPGGA,100344.00,5703.3462531,N,00952.0131551,E,2,11,0.9,-1.331,M,40.592,M,2.1,0123*67\r\n
$GPGGA,100344.05,5703.3461941,N,00952.0131196,E,2,11,0.9,-1.332,M,40.592,M,2.4,0123*63\r\n
$GPGGA,100344.10,5703.3461350,N,00952.0130884,E,2,11,0.9,-1.329,M,40.592,M,2.4,0123*6C\r\n
$GPGGA,100344.15,5703.3460768,N,00952.0130588,E,2,11,0.9,-1.329,M,40.592,M,2.4,0123*66\r\n
$GPGGA,100344.20,5703.3460177,N,00952.0130305,E,2,11,0.9,-1.327,M,40.592,M,2.4,0123*65\r\n
$GPGGA,100344.25,5703.3459598,N,00952.0130037,E,2,11,0.9,-1.323,M,40.592,M,2.7,0123*6A\r\n
$GPGGA,100344.30,5703.3459013,N,00952.0129788,E,2,11,0.9,-1.323,M,40.592,M,2.7,0123*63\r\n
$GPGGA,100344.35,5703.3458417,N,00952.0129559,E,2,11,0.9,-1.324,M,40.592,M,2.7,0123*6E\r\n
$GPGGA,100344.40,5703.3457809,N,00952.0129359,E,2,11,0.9,-1.324,M,40.592,M,2.7,0123*66\r\n
$GPGGA,100344.45,5703.3457207,N,00952.0129168,E,2,11,0.9,-1.325,M,40.592,M,2.9,0123*68\r\n
$GPGGA,100344.50,5703.3456614,N,00952.0128984,E,2,11,0.9,-1.325,M,40.592,M,2.9,0123*60\r\n
$GPGGA,100344.55,5703.3456022,N,00952.0128804,E,2,11,0.9,-1.326,M,40.592,M,2.9,0123*6C\r\n
$GPGGA,100344.60,5703.3455429,N,00952.0128654,E,2,11,0.9,-1.328,M,40.592,M,2.9,0123*63\r\n
$GPGGA,100344.65,5703.3454838,N,00952.0128529,E,2,11,0.9,-1.331,M,40.592,M,1.0,0123*60\r\n
$GPGGA,100344.70,5703.3454250,N,00952.0128423,E,2,11,0.9,-1.332,M,40.592,M,1.0,0123*68\r\n
$GPGGA,100344.75,5703.3453655,N,00952.0128333,E,2,11,0.9,-1.333,M,40.592,M,1.0,0123*6C\r\n
$GPGGA,100344.80,5703.3453058,N,00952.0128268,E,2,11,0.9,-1.336,M,40.592,M,1.0,0123*67\r\n
$GPGGA,100344.85,5703.3452471,N,00952.0128220,E,2,11,0.9,-1.339,M,40.592,M,1.3,0123*6C\r\n
$GPGGA,100344.90,5703.3451900,N,00952.0128202,E,2,11,0.9,-1.338,M,40.592,M,1.3,0123*61\r\n
$GPGGA,100344.95,5703.3451331,N,00952.0128228,E,2,11,0.9,-1.339,M,40.592,M,1.3,0123*65\r\n
$GPGGA,100345.00,5703.3450755,N,00952.0128266,E,2,11,0.9,-1.340,M,40.592,M,1.3,0123*6B\r\n
$GPGGA,100345.05,5703.3450164,N,00952.0128300,E,2,11,0.9,-1.343,M,40.592,M,1.6,0123*6D\r\n
$GPGGA,100345.10,5703.3449571,N,00952.0128355,E,2,11,0.9,-1.348,M,40.592,M,1.6,0123*6A\r\n
$GPGGA,100345.15,5703.3448993,N,00952.0128456,E,2,11,0.9,-1.350,M,40.592,M,1.6,0123*63\r\n
$GPGGA,100345.20,5703.3448425,N,00952.0128577,E,2,11,0.9,-1.350,M,40.592,M,1.6,0123*67\r\n
$GPGGA,100345.25,5703.3447841,N,00952.0128691,E,2,11,0.9,-1.359,M,40.592,M,1.8,0123*6F\r\n
$GPGGA,100345.30,5703.3447255,N,00952.0128804,E,2,11,0.9,-1.363,M,40.592,M,1.8,0123*6F\r\n
$GPGGA,100345.35,5703.3446680,N,00952.0128954,E,2,11,0.9,-1.365,M,40.592,M,1.8,0123*65\r\n
$GPGGA,100345.40,5703.3446113,N,00952.0129131,E,2,11,0.9,-1.363,M,40.592,M,1.8,0123*66\r\n
$GPGGA,100345.45,5703.3445544,N,00952.0129306,E,2,11,0.9,-1.361,M,40.592,M,2.1,0123*68\r\n
$GPGGA,100345.50,5703.3444968,N,00952.0129484,E,2,11,0.9,-1.359,M,40.592,M,2.1,0123*69\r\n
$GPGGA,100345.55,5703.3444387,N,00952.0129680,E,2,11,0.9,-1.355,M,40.592,M,2.1,0123*6D\r\n
$GPGGA,100345.60,5703.3443816,N,00952.0129914,E,2,11,0.9,-1.350,M,40.592,M,2.1,0123*68\r\n
$GPGGA,100345.65,5703.3443261,N,00952.0130147,E,2,11,0.9,-1.339,M,40.592,M,1.0,0123*6C\r\n
$GPGGA,100345.70,5703.3442710,N,00952.0130393,E,2,11,0.9,-1.334,M,40.592,M,1.0,0123*6C\r\n
$GPGGA,100345.75,5703.3442147,N,00952.0130645,E,2,11,0.9,-1.334,M,40.592,M,1.0,0123*63\r\n
$GPGGA,100345.80,5703.3441578,N,00952.0130916,E,2,11,0.9,-1.328,M,40.592,M,1.0,0123*66\r\n
$GPGGA,100345.85,5703.3441010,N,00952.0131192,E,2,11,0.9,-1.326,M,40.592,M,1.3,0123*60\r\n
$GPGGA,100345.90,5703.3440454,N,00952.0131492,E,2,11,0.9,-1.322,M,40.592,M,1.3,0123*60\r\n
$GPGGA,100345.95,5703.3439906,N,00952.0131811,E,2,11,0.9,-1.323,M,40.592,M,1.3,0123*67\r\n
$GPGGA,100346.00,5703.3439360,N,00952.0132135,E,2,11,0.9,-1.319,M,40.592,M,1.3,0123*67\r\n
$GPGGA,100346.05,5703.3438819,N,00952.0132471,E,2,11,0.9,-1.309,M,40.592,M,1.5,0123*64\r\n
$GPGGA,100346.10,5703.3438269,N,00952.0132812,E,2,11,0.9,-1.308,M,40.592,M,1.5,0123*65\r\n
$GPGGA,100346.15,5703.3437721,N,00952.0133164,E,2,11,0.9,-1.306,M,40.592,M,1.5,0123*61\r\n
$GPGGA,100346.20,5703.3437180,N,00952.0133548,E,2,11,0.9,-1.305,M,40.592,M,1.5,0123*63\r\n
$GPGGA,100346.25,5703.3436642,N,00952.0133954,E,2,11,0.9,-1.309,M,40.592,M,1.8,0123*6E\r\n
$GPGGA,100346.30,5703.3436131,N,00952.0134371,E,2,11,0.9,-1.307,M,40.592,M,1.8,0123*6D\r\n
$GPGGA,100346.35,5703.3435609,N,00952.0134777,E,2,11,0.9,-1.308,M,40.592,M,1.8,0123*6A\r\n
$GPGGA,100346.40,5703.3435090,N,00952.0135214,E,2,11,0.9,-1.310,M,40.592,M,1.8,0123*66\r\n
$GPGGA,100346.45,5703.3434577,N,00952.0135677,E,2,11,0.9,-1.313,M,40.592,M,2.0,0123*67\r\n
$GPGGA,100346.50,5703.3434062,N,00952.0136146,E,2,11,0.9,-1.315,M,40.592,M,2.0,0123*62\r\n
$GPGGA,100346.55,5703.3433550,N,00952.0136622,E,2,11,0.9,-1.318,M,40.592,M,2.0,0123*6C\r\n
$GPGGA,100346.60,5703.3433038,N,00952.0137099,E,2,11,0.9,-1.320,M,40.592,M,2.0,0123*6D\r\n
$GPGGA,100346.65,5703.3432529,N,00952.0137592,E,2,11,0.9,-1.322,M,40.592,M,2.2,0123*62\r\n
$GPGGA,100346.70,5703.3432031,N,00952.0138104,E,2,11,0.9,-1.323,M,40.592,M,2.2,0123*6F\r\n
$GPGGA,100346.75,5703.3431540,N,00952.0138624,E,2,11,0.9,-1.324,M,40.592,M,2.2,0123*68\r\n
$GPGGA,100346.80,5703.3431052,N,00952.0139149,E,2,11,0.9,-1.323,M,40.592,M,2.2,0123*6E\r\n
$GPGGA,100346.85,5703.3430575,N,00952.0139689,E,2,11,0.9,-1.321,M,40.592,M,2.4,0123*65\r\n
$GPGGA,100346.90,5703.3430090,N,00952.0140252,E,2,11,0.9,-1.322,M,40.592,M,2.4,0123*60\r\n
$GPGGA,100346.95,5703.3429613,N,00952.0140827,E,2,11,0.9,-1.323,M,40.592,M,2.4,0123*69\r\n
$GPGGA,100347.00,5703.3429134,N,00952.0141413,E,2,11,0.9,-1.323,M,40.592,M,2.4,0123*6C\r\n
$GPGGA,100347.05,5703.3428655,N,00952.0142000,E,2,11,0.9,-1.332,M,40.592,M,2.6,0123*6F\r\n
$GPGGA,100347.10,5703.3428191,N,00952.0142606,E,2,11,0.9,-1.333,M,40.592,M,2.6,0123*65\r\n
$GPGGA,100347.15,5703.3427742,N,00952.0143233,E,2,11,0.9,-1.333,M,40.592,M,2.6,0123*64\r\n
$GPGGA,100347.20,5703.3427300,N,00952.0143873,E,2,11,0.9,-1.336,M,40.592,M,2.6,0123*6B\r\n
$GPGGA,100347.25,5703.3426871,N,00952.0144510,E,2,11,0.9,-1.332,M,40.592,M,2.9,0123*66\r\n
$GPGGA,100347.30,5703.3426442,N,00952.0145154,E,2,11,0.9,-1.336,M,40.592,M,2.9,0123*6F\r\n
$GPGGA,100347.35,5703.3426013,N,00952.0145828,E,2,11,0.9,-1.339,M,40.592,M,2.9,0123*67\r\n
$GPGGA,100347.40,5703.3425605,N,00952.0146519,E,2,11,0.9,-1.340,M,40.592,M,2.9,0123*65\r\n
$GPGGA,100347.45,5703.3425197,N,00952.0147211,E,2,11,0.9,-1.344,M,40.592,M,3.1,0123*6F\r\n
$GPGGA,100347.50,5703.3424804,N,00952.0147911,E,2,11,0.9,-1.344,M,40.592,M,3.1,0123*62\r\n
$GPGGA,100347.55,5703.3424422,N,00952.0148631,E,2,11,0.9,-1.344,M,40.592,M,3.1,0123*6D\r\n
$GPGGA,100347.60,5703.3424039,N,00952.0149344,E,2,11,0.9,-1.345,M,40.592,M,3.1,0123*62\r\n
$GPGGA,100347.65,5703.3423660,N,00952.0150065,E,2,11,0.9,-1.341,M,40.592,M,1.8,0123*6D\r\n
$GPGGA,100347.70,5703.3423279,N,00952.0150793,E,2,11,0.9,-1.340,M,40.592,M,1.8,0123*6A\r\n
$GPGGA,100347.75,5703.3422904,N,00952.0151512,E,2,11,0.9,-1.336,M,40.592,M,1.8,0123*64\r\n
$GPGGA,100347.80,5703.3422549,N,00952.0152245,E,2,11,0.9,-1.332,M,40.592,M,1.8,0123*69\r\n
$GPGGA,100347.85,5703.3422205,N,00952.0152998,E,2,11,0.9,-1.322,M,40.592,M,2.1,0123*63\r\n
$GPGGA,100347.90,5703.3421850,N,00952.0153754,E,2,11,0.9,-1.318,M,40.592,M,2.1,0123*68\r\n
$GPGGA,100347.95,5703.3421498,N,00952.0154516,E,2,11,0.9,-1.312,M,40.592,M,2.1,0123*6C\r\n
$GPGGA,100348.00,5703.3421157,N,00952.0155296,E,2,11,0.9,-1.307,M,40.592,M,2.1,0123*63\r\n
$GPGGA,100348.05,5703.3420817,N,00952.0156078,E,2,11,0.9,-1.302,M,40.592,M,2.4,0123*6B\r\n
$GPGGA,100348.10,5703.3420483,N,00952.0156878,E,2,11,0.9,-1.300,M,40.592,M,2.4,0123*64\r\n
$GPGGA,100348.15,5703.3420176,N,00952.0157690,E,2,11,0.9,-1.297,M,40.592,M,2.4,0123*68\r\n
$GPGGA,100348.20,5703.3419876,N,00952.0158492,E,2,11,0.9,-1.296,M,40.592,M,2.4,0123*63\r\n
$GPGGA,100348.25,5703.3419577,N,00952.0159319,E,2,11,0.9,-1.301,M,40.592,M,2.7,0123*63\r\n
$GPGGA,100348.30,5703.3419290,N,00952.0160147,E,2,11,0.9,-1.304,M,40.592,M,2.7,0123*6F\r\n
$GPGGA,100348.35,5703.3419003,N,00952.0160989,E,2,11,0.9,-1.308,M,40.592,M,2.7,0123*64\r\n
$GPGGA,100348.40,5703.3418734,N,00952.0161851,E,2,11,0.9,-1.311,M,40.592,M,2.7,0123*69\r\n
$GPGGA,100348.45,5703.3418472,N,00952.0162718,E,2,11,0.9,-1.315,M,40.592,M,2.9,0123*66\r\n
$GPGGA,100348.50,5703.3418215,N,00952.0163569,E,2,11,0.9,-1.314,M,40.592,M,2.9,0123*61\r\n
$GPGGA,100348.55,5703.3417974,N,00952.0164435,E,2,11,0.9,-1.315,M,40.592,M,2.9,0123*69\r\n
$GPGGA,100348.60,5703.3417735,N,00952.0165299,E,2,11,0.9,-1.317,M,40.592,M,2.9,0123*67\r\n
$GPGGA,100348.65,5703.3417502,N,00952.0166170,E,2,11,0.9,-1.322,M,40.592,M,1.0,0123*6F\r\n
$GPGGA,100348.70,5703.3417274,N,00952.0167062,E,2,11,0.9,-1.325,M,40.592,M,1.0,0123*69\r\n
$GPGGA,100348.75,5703.3417047,N,00952.0167953,E,2,11,0.9,-1.329,M,40.592,M,1.0,0123*69\r\n
$GPGGA,100348.80,5703.3416843,N,00952.0168847,E,2,11,0.9,-1.332,M,40.592,M,1.0,0123*6F\r\n
$GPGGA,100348.85,5703.3416646,N,00952.0169761,E,2,11,0.9,-1.332,M,40.592,M,1.3,0123*68\r\n
$GPGGA,100348.90,5703.3416475,N,00952.0170691,E,2,11,0.9,-1.332,M,40.592,M,1.3,0123*68\r\n
$GPGGA,100348.95,5703.3416301,N,00952.0171609,E,2,11,0.9,-1.334,M,40.592,M,1.3,0123*6F\r\n
$GPGGA,100349.00,5703.3416114,N,00952.0172510,E,2,11,0.9,-1.333,M,40.592,M,1.3,0123*6B\r\n
$GPGGA,100349.05,5703.3415942,N,00952.0173410,E,2,11,0.9,-1.325,M,40.592,M,1.6,0123*64\r\n
$GPGGA,100349.10,5703.3415781,N,00952.0174326,E,2,11,0.9,-1.320,M,40.592,M,1.6,0123*61\r\n
$GPGGA,100349.15,5703.3415613,N,00952.0175236,E,2,11,0.9,-1.314,M,40.592,M,1.6,0123*68\r\n
$GPGGA,100349.20,5703.3415443,N,00952.0176148,E,2,11,0.9,-1.310,M,40.592,M,1.6,0123*64\r\n
$GPGGA,100349.25,5703.3415296,N,00952.0177069,E,2,11,0.9,-1.303,M,40.592,M,1.8,0123*60\r\n
$GPGGA,100349.30,5703.3415156,N,00952.0178002,E,2,11,0.9,-1.295,M,40.592,M,1.8,0123*67\r\n
$GPGGA,100349.35,5703.3415026,N,00952.0178950,E,2,11,0.9,-1.293,M,40.592,M,1.8,0123*6C\r\n
$GPGGA,100349.40,5703.3414905,N,00952.0179916,E,2,11,0.9,-1.292,M,40.592,M,1.8,0123*65\r\n
$GPGGA,100349.45,5703.3414782,N,00952.0180881,E,2,11,0.9,-1.295,M,40.592,M,2.1,0123*65\r\n
$GPGGA,100349.50,5703.3414668,N,00952.0181865,E,2,11,0.9,-1.298,M,40.592,M,2.1,0123*62\r\n
$GPGGA,100349.55,5703.3414561,N,00952.0182843,E,2,11,0.9,-1.302,M,40.592,M,2.1,0123*68\r\n
$GPGGA,100349.60,5703.3414469,N,00952.0183824,E,2,11,0.9,-1.305,M,40.592,M,2.1,0123*60\r\n
$GPGGA,100349.65,5703.3414400,N,00952.0184795,E,2,11,0.9,-1.305,M,40.592,M,1.0,0123*6A\r\n
$GPGGA,100349.70,5703.3414333,N,00952.0185758,E,2,11,0.9,-1.305,M,40.592,M,1.0,0123*69\r\n
$GPGGA,100349.75,5703.3414267,N,00952.0186735,E,2,11,0.9,-1.305,M,40.592,M,1.0,0123*64\r\n
$GPGGA,100349.80,5703.3414197,N,00952.0187718,E,2,11,0.9,-1.304,M,40.592,M,1.0,0123*6D\r\n
$GPGGA,100349.85,5703.3414121,N,00952.0188695,E,2,11,0.9,-1.305,M,40.592,M,1.3,0123*6C\r\n
$GPGGA,100349.90,5703.3414053,N,00952.0189659,E,2,11,0.9,-1.304,M,40.592,M,1.3,0123*6C\r\n
$GPGGA,100349.95,5703.3414005,N,00952.0190631,E,2,11,0.9,-1.299,M,40.592,M,1.3,0123*69\r\n
$GPGGA,100350.00,5703.3413963,N,00952.0191601,E,2,11,0.9,-1.295,M,40.592,M,1.3,0123*6D\r\n
$GPGGA,100350.05,5703.3413927,N,00952.0192559,E,2,11,0.9,-1.286,M,40.592,M,1.5,0123*61\r\n
$GPGGA,100350.10,5703.3413893,N,00952.0193520,E,2,11,0.9,-1.282,M,40.592,M,1.5,0123*60\r\n
$GPGGA,100350.15,5703.3413852,N,00952.0194500,E,2,11,0.9,-1.281,M,40.592,M,1.5,0123*6E\r\n
$GPGGA,100350.20,5703.3413826,N,00952.0195489,E,2,11,0.9,-1.282,M,40.592,M,1.5,0123*69\r\n
$GPGGA,100350.25,5703.3413819,N,00952.0196483,E,2,11,0.9,-1.282,M,40.592,M,1.8,0123*64\r\n
$GPGGA,100350.30,5703.3413804,N,00952.0197489,E,2,11,0.9,-1.285,M,40.592,M,1.8,0123*60\r\n
$GPGGA,100350.35,5703.3413798,N,00952.0198498,E,2,11,0.9,-1.286,M,40.592,M,1.8,0123*63\r\n
$GPGGA,100350.40,5703.3413792,N,00952.0199489,E,2,11,0.9,-1.287,M,40.592,M,1.8,0123*6B\r\n
$GPGGA,100350.45,5703.3413789,N,00952.0200488,E,2,11,0.9,-1.283,M,40.592,M,2.0,0123*69\r\n
$GPGGA,100350.50,5703.3413806,N,00952.0201476,E,2,11,0.9,-1.284,M,40.592,M,2.0,0123*62\r\n
$GPGGA,100350.55,5703.3413827,N,00952.0202464,E,2,11,0.9,-1.283,M,40.592,M,2.0,0123*63\r\n
$GPGGA,100350.60,5703.3413852,N,00952.0203452,E,2,11,0.9,-1.280,M,40.592,M,2.0,0123*60\r\n
$GPGGA,100350.65,5703.3413872,N,00952.0204433,E,2,11,0.9,-1.282,M,40.592,M,2.2,0123*67\r\n
$GPGGA,100350.70,5703.3413906,N,00952.0205406,E,2,11,0.9,-1.279,M,40.592,M,2.2,0123*62\r\n
$GPGGA,100350.75,5703.3413949,N,00952.0206373,E,2,11,0.9,-1.276,M,40.592,M,2.2,0123*65\r\n
$GPGGA,100350.80,5703.3413991,N,00952.0207355,E,2,11,0.9,-1.275,M,40.592,M,2.2,0123*6C\r\n
$GPGGA,100350.85,5703.3414028,N,00952.0208353,E,2,11,0.9,-1.272,M,40.592,M,2.4,0123*6D\r\n
$GPGGA,100350.90,5703.3414075,N,00952.0209366,E,2,11,0.9,-1.271,M,40.592,M,2.4,0123*65\r\n
$GPGGA,100350.95,5703.3414141,N,00952.0210366,E,2,11,0.9,-1.275,M,40.592,M,2.4,0123*6A\r\n
$GPGGA,100351.00,5703.3414217,N,00952.0211380,E,2,11,0.9,-1.280,M,40.592,M,2.4,0123*64\r\n
$GPGGA,100351.05,5703.3414302,N,00952.0212399,E,2,11,0.9,-1.283,M,40.592,M,2.6,0123*6E\r\n
$GPGGA,100351.10,5703.3414372,N,00952.0213436,E,2,11,0.9,-1.293,M,40.592,M,2.6,0123*6F\r\n
$GPGGA,100351.15,5703.3414442,N,00952.0214473,E,2,11,0.9,-1.299,M,40.592,M,2.6,0123*62\r\n
$GPGGA,100351.20,5703.3414523,N,00952.0215470,E,2,11,0.9,-1.302,M,40.592,M,2.6,0123*63\r\n
$GPGGA,100351.25,5703.3414594,N,00952.0216429,E,2,11,0.9,-1.307,M,40.592,M,2.9,0123*6F\r\n
$GPGGA,100351.30,5703.3414666,N,00952.0217384,E,2,11,0.9,-1.303,M,40.592,M,2.9,0123*60\r\n
$GPGGA,100351.35,5703.3414754,N,00952.0218325,E,2,11,0.9,-1.295,M,40.592,M,2.9,0123*6F\r\n
$GPGGA,100351.40,5703.3414842,N,00952.0219280,E,2,11,0.9,-1.288,M,40.592,M,2.9,0123*66\r\n
$GPGGA,100351.45,5703.3414947,N,00952.0220246,E,2,11,0.9,-1.278,M,40.592,M,3.1,0123*61\r\n
$GPGGA,100351.50,5703.3415066,N,00952.0221205,E,2,11,0.9,-1.274,M,40.592,M,3.1,0123*64\r\n
$GPGGA,100351.55,5703.3415183,N,00952.0222172,E,2,11,0.9,-1.268,M,40.592,M,3.1,0123*66\r\n
$GPGGA,100351.60,5703.3415291,N,00952.0223163,E,2,11,0.9,-1.267,M,40.592,M,3.1,0123*6E\r\n
$GPGGA,100351.65,5703.3415406,N,00952.0224150,E,2,11,0.9,-1.272,M,40.592,M,1.8,0123*6B\r\n
$GPGGA,100351.70,5703.3415534,N,00952.0225147,E,2,11,0.9,-1.275,M,40.592,M,1.8,0123*6F\r\n
$GPGGA,100351.75,5703.3415671,N,00952.0226155,E,2,11,0.9,-1.277,M,40.592,M,1.8,0123*6A\r\n
$GPGGA,100351.80,5703.3415809,N,00952.0227152,E,2,11,0.9,-1.279,M,40.592,M,1.8,0123*69\r\n
$GPGGA,100351.85,5703.3415961,N,00952.0228141,E,2,11,0.9,-1.284,M,40.592,M,2.1,0123*66\r\n
$GPGGA,100351.90,5703.3416109,N,00952.0229114,E,2,11,0.9,-1.286,M,40.592,M,2.1,0123*64\r\n
$GPGGA,100351.95,5703.3416276,N,00952.0230068,E,2,11,0.9,-1.286,M,40.592,M,2.1,0123*68\r\n
$GPGGA,100352.00,5703.3416457,N,00952.0231011,E,2,11,0.9,-1.286,M,40.592,M,2.1,0123*6D\r\n
$GPGGA,100352.05,5703.3416629,N,00952.0231963,E,2,11,0.9,-1.291,M,40.592,M,2.4,0123*6C\r\n
$GPGGA,100352.10,5703.3416784,N,00952.0232930,E,2,11,0.9,-1.293,M,40.592,M,2.4,0123*69\r\n
$GPGGA,100352.15,5703.3416952,N,00952.0233886,E,2,11,0.9,-1.293,M,40.592,M,2.4,0123*64\r\n
$GPGGA,100352.20,5703.3417126,N,00952.0234830,E,2,11,0.9,-1.293,M,40.592,M,2.4,0123*62\r\n
$GPGGA,100352.25,5703.3417307,N,00952.0235775,E,2,11,0.9,-1.292,M,40.592,M,2.7,0123*6B\r\n
$GPGGA,100352.30,5703.3417504,N,00952.0236704,E,2,11,0.9,-1.286,M,40.592,M,2.7,0123*6A\r\n
$GPGGA,100352.35,5703.3417697,N,00952.0237645,E,2,11,0.9,-1.280,M,40.592,M,2.7,0123*65\r\n
$GPGGA,100352.40,5703.3417886,N,00952.0238568,E,2,11,0.9,-1.278,M,40.592,M,2.7,0123*6D\r\n
$GPGGA,100352.45,5703.3418095,N,00952.0239503,E,2,11,0.9,-1.271,M,40.592,M,2.9,0123*66\r\n
$GPGGA,100352.50,5703.3418300,N,00952.0240456,E,2,11,0.9,-1.271,M,40.592,M,2.9,0123*62\r\n
$GPGGA,100352.55,5703.3418517,N,00952.0241424,E,2,11,0.9,-1.274,M,40.592,M,2.9,0123*66\r\n
$GPGGA,100352.60,5703.3418741,N,00952.0242405,E,2,11,0.9,-1.279,M,40.592,M,2.9,0123*6C\r\n
$GPGGA,100352.65,5703.3418959,N,00952.0243348,E,2,11,0.9,-1.282,M,40.592,M,1.0,0123*6F\r\n
$GPGGA,100352.70,5703.3419186,N,00952.0244258,E,2,11,0.9,-1.282,M,40.592,M,1.0,0123*67\r\n
$GPGGA,100352.75,5703.3419405,N,00952.0245179,E,2,11,0.9,-1.280,M,40.592,M,1.0,0123*6F\r\n
$GPGGA,100352.80,5703.3419636,N,00952.0246078,E,2,11,0.9,-1.280,M,40.592,M,1.0,0123*64\r\n
$GPGGA,100352.85,5703.3419891,N,00952.0246997,E,2,11,0.9,-1.274,M,40.592,M,1.3,0123*62\r\n
$GPGGA,100352.90,5703.3420135,N,00952.0247941,E,2,11,0.9,-1.276,M,40.592,M,1.3,0123*63\r\n
$GPGGA,100352.95,5703.3420388,N,00952.0248909,E,2,11,0.9,-1.280,M,40.592,M,1.3,0123*68\r\n
$GPGGA,100353.00,5703.3420644,N,00952.0249850,E,2,11,0.9,-1.284,M,40.592,M,1.3,0123*68\r\n
$GPGGA,100353.05,5703.3420895,N,00952.0250761,E,2,11,0.9,-1.291,M,40.592,M,1.6,0123*6B\r\n
$GPGGA,100353.10,5703.3421152,N,00952.0251666,E,2,11,0.9,-1.292,M,40.592,M,1.6,0123*68\r\n
$GPGGA,100353.15,5703.3421415,N,00952.0252583,E,2,11,0.9,-1.290,M,40.592,M,1.6,0123*62\r\n
$GPGGA,100353.20,5703.3421684,N,00952.0253502,E,2,11,0.9,-1.293,M,40.592,M,1.6,0123*65\r\n
$GPGGA,100353.25,5703.3421961,N,00952.0254412,E,2,11,0.9,-1.295,M,40.592,M,1.8,0123*6B\r\n
$GPGGA,100353.30,5703.3422229,N,00952.0255320,E,2,11,0.9,-1.292,M,40.592,M,1.8,0123*6B\r\n
$GPGGA,100353.35,5703.3422499,N,00952.0256235,E,2,11,0.9,-1.289,M,40.592,M,1.8,0123*6F\r\n
$GPGGA,100353.40,5703.3422762,N,00952.0257140,E,2,11,0.9,-1.286,M,40.592,M,1.8,0123*65\r\n
$GPGGA,100353.45,5703.3423015,N,00952.0258021,E,2,11,0.9,-1.283,M,40.592,M,2.1,0123*60\r\n
$GPGGA,100353.50,5703.3423289,N,00952.0258896,E,2,11,0.9,-1.277,M,40.592,M,2.1,0123*6C\r\n
$GPGGA,100353.55,5703.3423560,N,00952.0259783,E,2,11,0.9,-1.274,M,40.592,M,2.1,0123*60\r\n
$GPGGA,100353.60,5703.3423859,N,00952.0260672,E,2,11,0.9,-1.274,M,40.592,M,2.1,0123*64\r\n
$GPGGA,100353.65,5703.3424159,N,00952.0261593,E,2,11,0.9,-1.272,M,40.592,M,1.0,0123*66\r\n
$GPGGA,100353.70,5703.3424447,N,00952.0262534,E,2,11,0.9,-1.275,M,40.592,M,1.0,0123*61\r\n
$GPGGA,100353.75,5703.3424735,N,00952.0263451,E,2,11,0.9,-1.277,M,40.592,M,1.0,0123*63\r\n
$GPGGA,100353.80,5703.3425026,N,00952.0264343,E,2,11,0.9,-1.280,M,40.592,M,1.0,0123*66\r\n
$GPGGA,100353.85,5703.3425321,N,00952.0265195,E,2,11,0.9,-1.285,M,40.592,M,1.3,0123*69\r\n
$GPGGA,100353.90,5703.3425630,N,00952.0266067,E,2,11,0.9,-1.286,M,40.592,M,1.3,0123*64\r\n
$GPGGA,100353.95,5703.3425957,N,00952.0266937,E,2,11,0.9,-1.287,M,40.592,M,1.3,0123*62\r\n
$GPGGA,100354.00,5703.3426280,N,00952.0267812,E,2,11,0.9,-1.287,M,40.592,M,1.3,0123*6C\r\n
$GPGGA,100354.05,5703.3426587,N,00952.0268687,E,2,11,0.9,-1.284,M,40.592,M,1.5,0123*61\r\n
$GPGGA,100354.10,5703.3426887,N,00952.0269562,E,2,11,0.9,-1.281,M,40.592,M,1.5,0123*64\r\n
$GPGGA,100354.15,5703.3427184,N,00952.0270426,E,2,11,0.9,-1.279,M,40.592,M,1.5,0123*64\r\n
$GPGGA,100354.20,5703.3427500,N,00952.0271282,E,2,11,0.9,-1.276,M,40.592,M,1.5,0123*6C\r\n
$GPGGA,100354.25,5703.3427811,N,00952.0272129,E,2,11,0.9,-1.273,M,40.592,M,1.8,0123*6D\r\n
$GPGGA,100354.30,5703.3428126,N,00952.0273010,E,2,11,0.9,-1.272,M,40.592,M,1.8,0123*60\r\n
$GPGGA,100354.35,5703.3428451,N,00952.0273888,E,2,11,0.9,-1.270,M,40.592,M,1.8,0123*6B\r\n
$GPGGA,100354.40,5703.3428791,N,00952.0274771,E,2,11,0.9,-1.270,M,40.592,M,1.8,0123*68\r\n
$GPGGA,100354.45,5703.3429134,N,00952.0275664,E,2,11,0.9,-1.273,M,40.592,M,2.0,0123*69\r\n
$GPGGA,100354.50,5703.3429467,N,00952.0276554,E,2,11,0.9,-1.279,M,40.592,M,2.0,0123*67\r\n
$GPGGA,100354.55,5703.3429791,N,00952.0277410,E,2,11,0.9,-1.283,M,40.592,M,2.0,0123*6D\r\n
$GPGGA,100354.60,5703.3430119,N,00952.0278292,E,2,11,0.9,-1.283,M,40.592,M,2.0,0123*66\r\n
$GPGGA,100354.65,5703.3430427,N,00952.0279176,E,2,11,0.9,-1.283,M,40.592,M,2.2,0123*61\r\n
$GPGGA,100354.70,5703.3430746,N,00952.0280041,E,2,11,0.9,-1.279,M,40.592,M,2.2,0123*67\r\n
$GPGGA,100354.75,5703.3431078,N,00952.0280893,E,2,11,0.9,-1.273,M,40.592,M,2.2,0123*64\r\n
$GPGGA,100354.80,5703.3431412,N,00952.0281737,E,2,11,0.9,-1.268,M,40.592,M,2.2,0123*6C\r\n
$GPGGA,100354.85,5703.3431738,N,00952.0282569,E,2,11,0.9,-1.271,M,40.592,M,2.4,0123*66\r\n
$GPGGA,100354.90,5703.3432073,N,00952.0283416,E,2,11,0.9,-1.273,M,40.592,M,2.4,0123*63\r\n
$GPGGA,100354.95,5703.3432422,N,00952.0284281,E,2,11,0.9,-1.275,M,40.592,M,2.4,0123*6F\r\n
$GPGGA,100355.00,5703.3432753,N,00952.0285160,E,2,11,0.9,-1.275,M,40.592,M,2.4,0123*6A\r\n
$GPGGA,100355.05,5703.3433100,N,00952.0286029,E,2,11,0.9,-1.268,M,40.592,M,2.6,0123*6F\r\n
$GPGGA,100355.10,5703.3433434,N,00952.0286881,E,2,11,0.9,-1.269,M,40.592,M,2.6,0123*62\r\n
$GPGGA,100355.15,5703.3433780,N,00952.0287723,E,2,11,0.9,-1.274,M,40.592,M,2.6,0123*61\r\n
$GPGGA,100355.20,5703.3434154,N,00952.0288597,E,2,11,0.9,-1.278,M,40.592,M,2.6,0123*61\r\n
$GPGGA,100355.25,5703.3434530,N,00952.0289461,E,2,11,0.9,-1.288,M,40.592,M,2.9,0123*6B\r\n
$GPGGA,100355.30,5703.3434900,N,00952.0290334,E,2,11,0.9,-1.294,M,40.592,M,2.9,0123*62\r\n
$GPGGA,100355.35,5703.3435265,N,00952.0291193,E,2,11,0.9,-1.304,M,40.592,M,2.9,0123*68\r\n
$GPGGA,100355.40,5703.3435604,N,00952.0292057,E,2,11,0.9,-1.304,M,40.592,M,2.9,0123*63\r\n
$GPGGA,100355.45,5703.3435919,N,00952.0292837,E,2,11,0.9,-1.294,M,40.592,M,3.1,0123*6A\r\n
$GPGGA,100355.50,5703.3436249,N,00952.0293575,E,2,11,0.9,-1.281,M,40.592,M,3.1,0123*6D\r\n
$GPGGA,100355.55,5703.3436598,N,00952.0294352,E,2,11,0.9,-1.270,M,40.592,M,3.1,0123*69\r\n
$GPGGA,100355.60,5703.3436960,N,00952.0295180,E,2,11,0.9,-1.264,M,40.592,M,3.1,0123*6D\r\n
$GPGGA,100355.65,5703.3437327,N,00952.0296014,E,2,11,0.9,-1.252,M,40.592,M,1.8,0123*61\r\n
$GPGGA,100355.70,5703.3437690,N,00952.0296858,E,2,11,0.9,-1.248,M,40.592,M,1.8,0123*67\r\n
$GPGGA,100355.75,5703.3438060,N,00952.0297728,E,2,11,0.9,-1.252,M,40.592,M,1.8,0123*66\r\n
$GPGGA,100355.80,5703.3438444,N,00952.0298598,E,2,11,0.9,-1.261,M,40.592,M,1.8,0123*68\r\n
$GPGGA,100355.85,5703.3438825,N,00952.0299454,E,2,11,0.9,-1.273,M,40.592,M,2.1,0123*6F\r\n
$GPGGA,100355.90,5703.3439216,N,00952.0300311,E,2,11,0.9,-1.278,M,40.592,M,2.1,0123*6C\r\n
$GPGGA,100355.95,5703.3439605,N,00952.0301166,E,2,11,0.9,-1.286,M,40.592,M,2.1,0123*6D\r\n
$GPGGA,100356.00,5703.3439989,N,00952.0302037,E,2,11,0.9,-1.296,M,40.592,M,2.1,0123*6E\r\n
$GPGGA,100356.05,5703.3440364,N,00952.0302871,E,2,11,0.9,-1.301,M,40.592,M,2.4,0123*6C\r\n
$GPGGA,100356.10,5703.3440730,N,00952.0303674,E,2,11,0.9,-1.298,M,40.592,M,2.4,0123*66\r\n
$GPGGA,100356.15,5703.3441084,N,00952.0304438,E,2,11,0.9,-1.292,M,40.592,M,2.4,0123*6D\r\n
$GPGGA,100356.20,5703.3441439,N,00952.0305220,E,2,11,0.9,-1.285,M,40.592,M,2.4,0123*61\r\n
$GPGGA,100356.25,5703.3441815,N,00952.0306010,E,2,11,0.9,-1.272,M,40.592,M,2.7,0123*6F\r\n
$GPGGA,100356.30,5703.3442180,N,00952.0306817,E,2,11,0.9,-1.269,M,40.592,M,2.7,0123*68\r\n
$GPGGA,100356.35,5703.3442546,N,00952.0307648,E,2,11,0.9,-1.267,M,40.592,M,2.7,0123*68\r\n
$GPGGA,100356.40,5703.3442924,N,00952.0308495,E,2,11,0.9,-1.268,M,40.592,M,2.7,0123*60\r\n
$GPGGA,100356.45,5703.3443298,N,00952.0309351,E,2,11,0.9,-1.273,M,40.592,M,2.9,0123*62\r\n
$GPGGA,100356.50,5703.3443685,N,00952.0310196,E,2,11,0.9,-1.273,M,40.592,M,2.9,0123*6F\r\n
$GPGGA,100356.55,5703.3444070,N,00952.0311002,E,2,11,0.9,-1.275,M,40.592,M,2.9,0123*6A\r\n
$GPGGA,100356.60,5703.3444450,N,00952.0311812,E,2,11,0.9,-1.272,M,40.592,M,2.9,0123*64\r\n
$GPGGA,100356.65,5703.3444832,N,00952.0312650,E,2,11,0.9,-1.269,M,40.592,M,1.0,0123*62\r\n
$GPGGA,100356.70,5703.3445220,N,00952.0313497,E,2,11,0.9,-1.269,M,40.592,M,1.0,0123*66\r\n
$GPGGA,100356.75,5703.3445609,N,00952.0314320,E,2,11,0.9,-1.274,M,40.592,M,1.0,0123*6C\r\n
$GPGGA,100356.80,5703.3446004,N,00952.0315141,E,2,11,0.9,-1.278,M,40.592,M,1.0,0123*66\r\n
$GPGGA,100356.85,5703.3446391,N,00952.0315955,E,2,11,0.9,-1.283,M,40.592,M,1.3,0123*66\r\n
$GPGGA,100356.90,5703.3446774,N,00952.0316757,E,2,11,0.9,-1.283,M,40.592,M,1.3,0123*62\r\n
$GPGGA,100356.95,5703.3447161,N,00952.0317540,E,2,11,0.9,-1.282,M,40.592,M,1.3,0123*60\r\n
$GPGGA,100357.00,5703.3447537,N,00952.0318334,E,2,11,0.9,-1.278,M,40.592,M,1.3,0123*65\r\n
$GPGGA,100357.05,5703.3447901,N,00952.0319155,E,2,11,0.9,-1.282,M,40.592,M,1.6,0123*6D\r\n
$GPGGA,100357.10,5703.3448278,N,00952.0319965,E,2,11,0.9,-1.281,M,40.592,M,1.6,0123*6B\r\n
$GPGGA,100357.15,5703.3448640,N,00952.0320745,E,2,11,0.9,-1.275,M,40.592,M,1.6,0123*6C\r\n
$GPGGA,100357.20,5703.3448985,N,00952.0321531,E,2,11,0.9,-1.270,M,40.592,M,1.6,0123*69\r\n
$GPGGA,100357.25,5703.3449344,N,00952.0322339,E,2,11,0.9,-1.264,M,40.592,M,1.8,0123*6C\r\n
$GPGGA,100357.30,5703.3449708,N,00952.0323161,E,2,11,0.9,-1.262,M,40.592,M,1.8,0123*6C\r\n
$GPGGA,100357.35,5703.3450079,N,00952.0323987,E,2,11,0.9,-1.261,M,40.592,M,1.8,0123*63\r\n
$GPGGA,100357.40,5703.3450448,N,00952.0324805,E,2,11,0.9,-1.258,M,40.592,M,1.8,0123*61\r\n
$GPGGA,100357.45,5703.3450802,N,00952.0325601,E,2,11,0.9,-1.257,M,40.592,M,2.1,0123*68\r\n
$GPGGA,100357.50,5703.3451153,N,00952.0326404,E,2,11,0.9,-1.259,M,40.592,M,2.1,0123*6A\r\n
$GPGGA,100357.55,5703.3451523,N,00952.0327218,E,2,11,0.9,-1.259,M,40.592,M,2.1,0123*66\r\n
$GPGGA,100357.60,5703.3451903,N,00952.0328041,E,2,11,0.9,-1.262,M,40.592,M,2.1,0123*67\r\n
$GPGGA,100357.65,5703.3452263,N,00952.0328879,E,2,11,0.9,-1.270,M,40.592,M,2.3,0123*6E\r\n
$GPGGA,100357.70,5703.3452616,N,00952.0329722,E,2,11,0.9,-1.272,M,40.592,M,2.3,0123*6E\r\n
$GPGGA,100357.75,5703.3452955,N,00952.0330547,E,2,11,0.9,-1.271,M,40.592,M,2.3,0123*69\r\n
$GPGGA,100357.80,5703.3453293,N,00952.0331356,E,2,11,0.9,-1.266,M,40.592,M,2.3,0123*62\r\n
$GPGGA,100357.85,5703.3453615,N,00952.0332118,E,2,11,0.9,-1.263,M,40.592,M,1.3,0123*60\r\n
$GPGGA,100357.90,5703.3453971,N,00952.0332896,E,2,11,0.9,-1.260,M,40.592,M,1.3,0123*65\r\n
$GPGGA,100357.95,5703.3454334,N,00952.0333702,E,2,11,0.9,-1.259,M,40.592,M,1.3,0123*65\r\n
$GPGGA,100358.00,5703.3454695,N,00952.0334547,E,2,11,0.9,-1.264,M,40.592,M,1.3,0123*62\r\n
$GPGGA,100358.05,5703.3455055,N,00952.0335399,E,2,11,0.9,-1.269,M,40.592,M,1.5,0123*63\r\n
$GPGGA,100358.10,5703.3455409,N,00952.0336280,E,2,11,0.9,-1.279,M,40.592,M,1.5,0123*61\r\n
$GPGGA,100358.15,5703.3455753,N,00952.0337157,E,2,11,0.9,-1.287,M,40.592,M,1.5,0123*61\r\n
$GPGGA,100358.20,5703.3456081,N,00952.0337978,E,2,11,0.9,-1.288,M,40.592,M,1.5,0123*66\r\n
$GPGGA,100358.25,5703.3456389,N,00952.0338768,E,2,11,0.9,-1.292,M,40.592,M,1.8,0123*6E\r\n
$GPGGA,100358.30,5703.3456717,N,00952.0339600,E,2,11,0.9,-1.290,M,40.592,M,1.8,0123*65\r\n
$GPGGA,100358.35,5703.3457061,N,00952.0340453,E,2,11,0.9,-1.290,M,40.592,M,1.8,0123*6D\r\n
$GPGGA,100358.40,5703.3457403,N,00952.0341323,E,2,11,0.9,-1.297,M,40.592,M,1.8,0123*69\r\n
$GPGGA,100358.45,5703.3457746,N,00952.0342206,E,2,11,0.9,-1.295,M,40.592,M,2.0,0123*62\r\n
$GPGGA,100358.50,5703.3458063,N,00952.0343083,E,2,11,0.9,-1.295,M,40.592,M,2.0,0123*67\r\n
$GPGGA,100358.55,5703.3458359,N,00952.0343943,E,2,11,0.9,-1.292,M,40.592,M,2.0,0123*6A\r\n
$GPGGA,100358.60,5703.3458671,N,00952.0344773,E,2,11,0.9,-1.288,M,40.592,M,2.0,0123*62\r\n
$GPGGA,100358.65,5703.3458983,N,00952.0345605,E,2,11,0.9,-1.289,M,40.592,M,2.2,0123*67\r\n
$GPGGA,100358.70,5703.3459314,N,00952.0346465,E,2,11,0.9,-1.286,M,40.592,M,2.2,0123*6E\r\n
$GPGGA,100358.75,5703.3459650,N,00952.0347358,E,2,11,0.9,-1.284,M,40.592,M,2.2,0123*64\r\n
$GPGGA,100358.80,5703.3459981,N,00952.0348256,E,2,11,0.9,-1.288,M,40.592,M,2.2,0123*61\r\n
$GPGGA,100358.85,5703.3460319,N,00952.0349165,E,2,11,0.9,-1.294,M,40.592,M,2.4,0123*6C\r\n
$GPGGA,100358.90,5703.3460644,N,00952.0350074,E,2,11,0.9,-1.301,M,40.592,M,2.4,0123*61\r\n
$GPGGA,100358.95,5703.3460952,N,00952.0350991,E,2,11,0.9,-1.302,M,40.592,M,2.4,0123*6D\r\n
$GPGGA,100359.00,5703.3461245,N,00952.0351878,E,2,11,0.9,-1.298,M,40.592,M,2.4,0123*69\r\n
$GPGGA,100359.05,5703.3461519,N,00952.0352716,E,2,11,0.9,-1.298,M,40.592,M,2.6,0123*64\r\n
$GPGGA,100359.10,5703.3461807,N,00952.0353569,E,2,11,0.9,-1.287,M,40.592,M,2.6,0123*67\r\n
$GPGGA,100359.15,5703.3462100,N,00952.0354448,E,2,11,0.9,-1.281,M,40.592,M,2.6,0123*6C\r\n
$GPGGA,100359.20,5703.3462408,N,00952.0355356,E,2,11,0.9,-1.277,M,40.592,M,2.6,0123*67\r\n
$GPGGA,100359.25,5703.3462719,N,00952.0356290,E,2,11,0.9,-1.273,M,40.592,M,2.9,0123*62\r\n
$GPGGA,100359.30,5703.3463030,N,00952.0357237,E,2,11,0.9,-1.276,M,40.592,M,2.9,0123*62\r\n
$GPGGA,100359.35,5703.3463346,N,00952.0358175,E,2,11,0.9,-1.277,M,40.592,M,2.9,0123*6E\r\n
$GPGGA,100359.40,5703.3463659,N,00952.0359099,E,2,11,0.9,-1.277,M,40.592,M,2.9,0123*65\r\n
$GPGGA,100359.45,5703.3463935,N,00952.0360043,E,2,11,0.9,-1.288,M,40.592,M,3.1,0123*61\r\n
$GPGGA,100359.50,5703.3464216,N,00952.0360996,E,2,11,0.9,-1.287,M,40.592,M,3.1,0123*66\r\n
$GPGGA,100359.55,5703.3464506,N,00952.0361915,E,2,11,0.9,-1.286,M,40.592,M,3.1,0123*6E\r\n
$GPGGA,100359.60,5703.3464812,N,00952.0362825,E,2,11,0.9,-1.288,M,40.592,M,3.1,0123*6F\r\n
$GPGGA,100359.65,5703.3465121,N,00952.0363731,E,2,11,0.9,-1.287,M,40.592,M,3.3,0123*64\r\n
