$GPGGA,082137.25,5703.4336520,N,00952.0836823,E,2,9,1.2,-1.951,M,40.593,M,3.1,0123*55\r\n
$GPGGA,082137.30,5703.4336254,N,00952.0836600,E,2,9,1.2,-1.953,M,40.593,M,3.1,0123*58\r\n
$GPGGA,082137.35,5703.4335987,N,00952.0836381,E,2,9,1.2,-1.954,M,40.593,M,3.1,0123*50\r\n
$GPGGA,082137.40,5703.4335713,N,00952.0836158,E,2,9,1.2,-1.954,M,40.593,M,3.1,0123*57\r\n
$GPGGA,082137.45,5703.4335447,N,00952.0835937,E,2,9,1.2,-1.958,M,40.593,M,2.1,0123*5F\r\n
$GPGGA,082137.50,5703.4335193,N,00952.0835726,E,2,9,1.2,-1.958,M,40.593,M,2.1,0123*59\r\n
$GPGGA,082137.55,5703.4334930,N,00952.0835535,E,2,9,1.2,-1.963,M,40.593,M,2.1,0123*54\r\n
$GPGGA,082137.60,5703.4334658,N,00952.0835326,E,2,9,1.2,-1.966,M,40.593,M,2.1,0123*52\r\n
$GPGGA,082137.65,5703.4334403,N,00952.0835104,E,2,9,1.2,-1.967,M,40.593,M,2.3,0123*5A\r\n
$GPGGA,082137.70,5703.4334131,N,00952.0834894,E,2,9,1.2,-1.968,M,40.593,M,2.3,0123*54\r\n
$GPGGA,082137.75,5703.4333854,N,00952.0834675,E,2,9,1.2,-1.967,M,40.593,M,2.3,0123*52\r\n
$GPGGA,082137.80,5703.4333585,N,00952.0834448,E,2,9,1.2,-1.967,M,40.593,M,2.3,0123*55\r\n
$GPGGA,082137.85,5703.4333317,N,00952.0834215,E,2,9,1.2,-1.960,M,40.593,M,2.6,0123*51\r\n
$GPGGA,082137.90,5703.4333036,N,00952.0833972,E,2,9,1.2,-1.959,M,40.593,M,2.6,0123*52\r\n
$GPGGA,082137.95,5703.4332771,N,00952.0833731,E,2,9,1.2,-1.955,M,40.593,M,2.6,0123*57\r\n
$GPGGA,082138.00,5703.4332510,N,00952.0833485,E,2,9,1.2,-1.955,M,40.593,M,2.6,0123*5D\r\n
$GPGGA,082138.05,5703.4332237,N,00952.0833253,E,2,9,1.2,-1.958,M,40.593,M,2.8,0123*54\r\n
$GPGGA,082138.10,5703.4331973,N,00952.0833027,E,2,9,1.2,-1.958,M,40.593,M,2.8,0123*59\r\n
$GPGGA,082138.15,5703.4331699,N,00952.0832803,E,2,9,1.2,-1.958,M,40.593,M,2.8,0123*58\r\n
$GPGGA,082138.20,5703.4331412,N,00952.0832574,E,2,9,1.2,-1.958,M,40.593,M,2.8,0123*52\r\n
$GPGGA,082138.25,5703.4331143,N,00952.0832339,E,2,9,1.2,-1.957,M,40.593,M,3.0,0123*5F\r\n
$GPGGA,082138.30,5703.4330873,N,00952.0832110,E,2,9,1.2,-1.956,M,40.593,M,3.0,0123*58\r\n
$GPGGA,082138.35,5703.4330608,N,00952.0831884,E,2,9,1.2,-1.952,M,40.593,M,3.0,0123*5C\r\n
$GPGGA,082138.40,5703.4330344,N,00952.0831655,E,2,9,1.2,-1.947,M,40.593,M,3.0,0123*55\r\n
$GPGGA,082138.45,5703.4330090,N,00952.0831430,E,2,9,1.2,-1.942,M,40.593,M,3.2,0123*5C\r\n
$GPGGA,082138.50,5703.4329825,N,00952.0831211,E,2,9,1.2,-1.943,M,40.593,M,3.2,0123*52\r\n
$GPGGA,082138.55,5703.4329548,N,00952.0830989,E,2,9,1.2,-1.946,M,40.593,M,3.2,0123*5F\r\n
$GPGGA,082138.60,5703.4329268,N,00952.0830764,E,2,9,1.2,-1.949,M,40.593,M,3.2,0123*5E\r\n
$GPGGA,082138.65,5703.4329007,N,00952.0830553,E,2,9,1.2,-1.956,M,40.593,M,3.4,0123*5E\r\n
$GPGGA,082138.70,5703.4328728,N,00952.0830339,E,2,9,1.2,-1.958,M,40.593,M,3.4,0123*55\r\n
$GPGGA,082138.75,5703.4328438,N,00952.0830115,E,2,9,1.2,-1.962,M,40.593,M,3.4,0123*57\r\n
$GPGGA,082138.80,5703.4328170,N,00952.0829887,E,2,9,1.2,-1.963,M,40.593,M,3.4,0123*5F\r\n
$GPGGA,082138.85,5703.4327905,N,00952.0829648,E,2,9,1.2,-1.961,M,40.593,M,3.6,0123*52\r\n
$GPGGA,082138.90,5703.4327633,N,00952.0829416,E,2,9,1.2,-1.962,M,40.593,M,3.6,0123*56\r\n
$GPGGA,082138.95,5703.4327361,N,00952.0829181,E,2,9,1.2,-1.964,M,40.593,M,3.6,0123*5C\r\n
$GPGGA,082139.00,5703.4327073,N,00952.0828942,E,2,9,1.2,-1.963,M,40.593,M,3.6,0123*50\r\n
$GPGGA,082139.05,5703.4326784,N,00952.0828703,E,2,9,1.2,-1.968,M,40.593,M,3.8,0123*55\r\n
$GPGGA,082139.10,5703.4326514,N,00952.0828460,E,2,9,1.2,-1.967,M,40.593,M,3.8,0123*53\r\n
$GPGGA,082139.15,5703.4326241,N,00952.0828203,E,2,9,1.2,-1.966,M,40.593,M,3.8,0123*53\r\n
$GPGGA,082139.20,5703.4325967,N,00952.0827964,E,2,9,1.2,-1.965,M,40.593,M,3.8,0123*5F\r\n
$GPGGA,082139.25,5703.4325700,N,00952.0827746,E,2,9,1.2,-1.969,M,40.593,M,2.2,0123*5C\r\n
$GPGGA,082139.30,5703.4325437,N,00952.0827516,E,2,9,1.2,-1.968,M,40.593,M,2.2,0123*59\r\n
$GPGGA,082139.35,5703.4325163,N,00952.0827273,E,2,9,1.2,-1.967,M,40.593,M,2.2,0123*53\r\n
$GPGGA,082139.40,5703.4324886,N,00952.0827028,E,2,9,1.2,-1.967,M,40.593,M,2.2,0123*5E\r\n
$GPGGA,082139.45,5703.4324604,N,00952.0826793,E,2,9,1.2,-1.964,M,40.593,M,2.4,0123*5C\r\n
$GPGGA,082139.50,5703.4324318,N,00952.0826578,E,2,9,1.2,-1.963,M,40.593,M,2.4,0123*50\r\n
$GPGGA,082139.55,5703.4324032,N,00952.0826371,E,2,9,1.2,-1.963,M,40.593,M,2.4,0123*51\r\n
$GPGGA,082139.60,5703.4323760,N,00952.0826147,E,2,9,1.2,-1.961,M,40.593,M,2.4,0123*55\r\n
$GPGGA,082139.65,5703.4323478,N,00952.0825913,E,2,9,1.2,-1.959,M,40.593,M,2.7,0123*58\r\n
$GPGGA,082139.70,5703.4323188,N,00952.0825688,E,2,9,1.2,-1.957,M,40.593,M,2.7,0123*55\r\n
$GPGGA,082139.75,5703.4322909,N,00952.0825459,E,2,9,1.2,-1.954,M,40.593,M,2.7,0123*5D\r\n
$GPGGA,082139.80,5703.4322645,N,00952.0825217,E,2,9,1.2,-1.951,M,40.593,M,2.7,0123*59\r\n
$GPGGA,082139.85,5703.4322368,N,00952.0824973,E,2,9,1.2,-1.956,M,40.593,M,2.9,0123*57\r\n
$GPGGA,082139.90,5703.4322087,N,00952.0824739,E,2,9,1.2,-1.955,M,40.593,M,2.9,0123*52\r\n
$GPGGA,082139.95,5703.4321804,N,00952.0824507,E,2,9,1.2,-1.955,M,40.593,M,2.9,0123*58\r\n
$GPGGA,082140.00,5703.4321541,N,00952.0824272,E,2,9,1.2,-1.954,M,40.593,M,2.9,0123*52\r\n
$GPGGA,082140.05,5703.4321270,N,00952.0824040,E,2,9,1.2,-1.951,M,40.593,M,3.2,0123*5E\r\n
$GPGGA,082140.10,5703.4320985,N,00952.0823816,E,2,9,1.2,-1.956,M,40.593,M,3.2,0123*51\r\n
$GPGGA,082140.15,5703.4320706,N,00952.0823555,E,2,9,1.2,-1.956,M,40.593,M,3.2,0123*5B\r\n
$GPGGA,082140.20,5703.4320424,N,00952.0823301,E,2,9,1.2,-1.957,M,40.593,M,3.2,0123*58\r\n
$GPGGA,082140.25,5703.4320128,N,00952.0823059,E,2,9,1.2,-1.965,M,40.593,M,2.0,0123*58\r\n
$GPGGA,082140.30,5703.4319845,N,00952.0822792,E,2,9,1.2,-1.967,M,40.593,M,2.0,0123*57\r\n
$GPGGA,082140.35,5703.4319556,N,00952.0822537,E,2,9,1.2,-1.969,M,40.593,M,2.0,0123*5E\r\n
$GPGGA,082140.40,5703.4319285,N,00952.0822294,E,2,9,1.2,-1.969,M,40.593,M,2.0,0123*5B\r\n
$GPGGA,082140.45,5703.4319007,N,00952.0822047,E,2,9,1.2,-1.964,M,40.593,M,2.2,0123*55\r\n
$GPGGA,082140.50,5703.4318720,N,00952.0821809,E,2,9,1.2,-1.963,M,40.593,M,2.2,0123*54\r\n
$GPGGA,082140.55,5703.4318446,N,00952.0821586,E,2,9,1.2,-1.960,M,40.593,M,2.2,0123*5B\r\n
$GPGGA,082140.60,5703.4318185,N,00952.0821340,E,2,9,1.2,-1.956,M,40.593,M,2.2,0123*5E\r\n
$GPGGA,082140.65,5703.4317900,N,00952.0821091,E,2,9,1.2,-1.959,M,40.593,M,2.4,0123*57\r\n
$GPGGA,082140.70,5703.4317607,N,00952.0820842,E,2,9,1.2,-1.960,M,40.593,M,2.4,0123*56\r\n
$GPGGA,082140.75,5703.4317331,N,00952.0820601,E,2,9,1.2,-1.960,M,40.593,M,2.4,0123*5A\r\n
$GPGGA,082140.80,5703.4317045,N,00952.0820346,E,2,9,1.2,-1.956,M,40.593,M,2.4,0123*53\r\n
$GPGGA,082140.85,5703.4316762,N,00952.0820092,E,2,9,1.2,-1.956,M,40.593,M,2.7,0123*5C\r\n
$GPGGA,082140.90,5703.4316482,N,00952.0819830,E,2,9,1.2,-1.958,M,40.593,M,2.7,0123*51\r\n
$GPGGA,082140.95,5703.4316202,N,00952.0819562,E,2,9,1.2,-1.961,M,40.593,M,2.7,0123*5A\r\n
$GPGGA,082141.00,5703.4315915,N,00952.0819298,E,2,9,1.2,-1.963,M,40.593,M,2.7,0123*59\r\n
$GPGGA,082141.05,5703.4315622,N,00952.0819047,E,2,9,1.2,-1.969,M,40.593,M,2.9,0123*53\r\n
$GPGGA,082141.10,5703.4315339,N,00952.0818799,E,2,9,1.2,-1.969,M,40.593,M,2.9,0123*5D\r\n
$GPGGA,082141.15,5703.4315051,N,00952.0818548,E,2,9,1.2,-1.964,M,40.593,M,2.9,0123*56\r\n
$GPGGA,082141.20,5703.4314772,N,00952.0818293,E,2,9,1.2,-1.961,M,40.593,M,2.9,0123*53\r\n
$GPGGA,082141.25,5703.4314499,N,00952.0818022,E,2,9,1.2,-1.959,M,40.593,M,1.9,0123*50\r\n
$GPGGA,082141.30,5703.4314229,N,00952.0817749,E,2,9,1.2,-1.954,M,40.593,M,1.9,0123*51\r\n
$GPGGA,082141.35,5703.4313956,N,00952.0817501,E,2,9,1.2,-1.947,M,40.593,M,1.9,0123*5C\r\n
$GPGGA,082141.40,5703.4313673,N,00952.0817245,E,2,9,1.2,-1.943,M,40.593,M,1.9,0123*55\r\n
$GPGGA,082141.45,5703.4313390,N,00952.0816978,E,2,9,1.2,-1.945,M,40.593,M,2.1,0123*51\r\n
$GPGGA,082141.50,5703.4313109,N,00952.0816694,E,2,9,1.2,-1.944,M,40.593,M,2.1,0123*5B\r\n
$GPGGA,082141.55,5703.4312827,N,00952.0816415,E,2,9,1.2,-1.943,M,40.593,M,2.1,0123*56\r\n
$GPGGA,082141.60,5703.4312539,N,00952.0816144,E,2,9,1.2,-1.943,M,40.593,M,2.1,0123*53\r\n
$GPGGA,082141.65,5703.4312242,N,00952.0815888,E,2,9,1.2,-1.952,M,40.593,M,2.3,0123*55\r\n
$GPGGA,082141.70,5703.4311959,N,00952.0815618,E,2,9,1.2,-1.953,M,40.593,M,2.3,0123*55\r\n
$GPGGA,082141.75,5703.4311660,N,00952.0815362,E,2,9,1.2,-1.957,M,40.593,M,2.3,0123*59\r\n
$GPGGA,082141.80,5703.4311380,N,00952.0815089,E,2,9,1.2,-1.965,M,40.593,M,2.3,0123*5F\r\n
$GPGGA,082141.85,5703.4311092,N,00952.0814787,E,2,9,1.2,-1.967,M,40.593,M,2.6,0123*55\r\n
$GPGGA,082141.90,5703.4310799,N,00952.0814503,E,2,9,1.2,-1.969,M,40.593,M,2.6,0123*5C\r\n
$GPGGA,082141.95,5703.4310508,N,00952.0814234,E,2,9,1.2,-1.969,M,40.593,M,2.6,0123*50\r\n
$GPGGA,082142.00,5703.4310220,N,00952.0813967,E,2,9,1.2,-1.967,M,40.593,M,2.6,0123*56\r\n
$GPGGA,082142.05,5703.4309912,N,00952.0813703,E,2,9,1.2,-1.970,M,40.593,M,2.8,0123*55\r\n
$GPGGA,082142.10,5703.4309613,N,00952.0813424,E,2,9,1.2,-1.966,M,40.593,M,2.8,0123*5E\r\n
$GPGGA,082142.15,5703.4309316,N,00952.0813134,E,2,9,1.2,-1.966,M,40.593,M,2.8,0123*5F\r\n
$GPGGA,082142.20,5703.4309019,N,00952.0812839,E,2,9,1.2,-1.966,M,40.593,M,2.8,0123*50\r\n
$GPGGA,082142.25,5703.4308708,N,00952.0812553,E,2,9,1.2,-1.965,M,40.593,M,3.0,0123*58\r\n
$GPGGA,082142.30,5703.4308395,N,00952.0812253,E,2,9,1.2,-1.961,M,40.593,M,3.0,0123*5F\r\n
$GPGGA,082142.35,5703.4308071,N,00952.0811947,E,2,9,1.2,-1.958,M,40.593,M,3.0,0123*54\r\n
$GPGGA,082142.40,5703.4307756,N,00952.0811642,E,2,9,1.2,-1.956,M,40.593,M,3.0,0123*5F\r\n
$GPGGA,082142.45,5703.4307435,N,00952.0811340,E,2,9,1.2,-1.945,M,40.593,M,3.2,0123*5B\r\n
$GPGGA,082142.50,5703.4307086,N,00952.0811044,E,2,9,1.2,-1.944,M,40.593,M,3.2,0123*55\r\n
$GPGGA,082142.55,5703.4306746,N,00952.0810746,E,2,9,1.2,-1.941,M,40.593,M,3.2,0123*5B\r\n
$GPGGA,082142.60,5703.4306424,N,00952.0810424,E,2,9,1.2,-1.935,M,40.593,M,3.2,0123*5E\r\n
$GPGGA,082142.65,5703.4306085,N,00952.0810088,E,2,9,1.2,-1.932,M,40.593,M,3.4,0123*57\r\n
$GPGGA,082142.70,5703.4305734,N,00952.0809753,E,2,9,1.2,-1.930,M,40.593,M,3.4,0123*56\r\n
$GPGGA,082142.75,5703.4305371,N,00952.0809418,E,2,9,1.2,-1.928,M,40.593,M,3.4,0123*53\r\n
$GPGGA,082142.80,5703.4304994,N,00952.0809080,E,2,9,1.2,-1.926,M,40.593,M,3.4,0123*52\r\n
$GPGGA,082142.85,5703.4304613,N,00952.0808714,E,2,9,1.2,-1.932,M,40.593,M,3.6,0123*5B\r\n
$GPGGA,082142.90,5703.4304251,N,00952.0808347,E,2,9,1.2,-1.931,M,40.593,M,3.6,0123*5C\r\n
$GPGGA,082142.95,5703.4303874,N,00952.0807983,E,2,9,1.2,-1.931,M,40.593,M,3.6,0123*5E\r\n
$GPGGA,082143.00,5703.4303488,N,00952.0807620,E,2,9,1.2,-1.931,M,40.593,M,3.6,0123*5A\r\n
$GPGGA,082143.05,5703.4303087,N,00952.0807248,E,2,9,1.2,-1.928,M,40.593,M,3.8,0123*58\r\n
$GPGGA,082143.10,5703.4302680,N,00952.0806874,E,2,9,1.2,-1.929,M,40.593,M,3.8,0123*59\r\n
$GPGGA,082143.15,5703.4302260,N,00952.0806485,E,2,9,1.2,-1.930,M,40.593,M,3.8,0123*5C\r\n
$GPGGA,082143.20,5703.4301850,N,00952.0806092,E,2,9,1.2,-1.930,M,40.593,M,3.8,0123*52\r\n
$GPGGA,082143.25,5703.4301428,N,00952.0805702,E,2,9,1.2,-1.932,M,40.593,M,2.2,0123*50\r\n
$GPGGA,082143.30,5703.4301008,N,00952.0805293,E,2,9,1.2,-1.932,M,40.593,M,2.2,0123*5F\r\n
$GPGGA,082143.35,5703.4300588,N,00952.0804872,E,2,9,1.2,-1.931,M,40.593,M,2.2,0123*51\r\n
$GPGGA,082143.40,5703.4300169,N,00952.0804441,E,2,9,1.2,-1.932,M,40.593,M,2.2,0123*57\r\n
$GPGGA,082143.45,5703.4299736,N,00952.0804021,E,2,9,1.2,-1.938,M,40.593,M,2.4,0123*51\r\n
$GPGGA,082143.50,5703.4299294,N,00952.0803607,E,2,9,1.2,-1.938,M,40.593,M,2.4,0123*5D\r\n
$GPGGA,082143.55,5703.4298842,N,00952.0803197,E,2,9,1.2,-1.938,M,40.593,M,2.4,0123*56\r\n
$GPGGA,082143.60,5703.4298388,N,00952.0802782,E,2,9,1.2,-1.937,M,40.593,M,2.4,0123*51\r\n
$GPGGA,082143.65,5703.4297940,N,00952.0802346,E,2,9,1.2,-1.930,M,40.593,M,2.7,0123*5D\r\n
$GPGGA,082143.70,5703.4297477,N,00952.0801886,E,2,9,1.2,-1.930,M,40.593,M,2.7,0123*54\r\n
$GPGGA,082143.75,5703.4297020,N,00952.0801417,E,2,9,1.2,-1.932,M,40.593,M,2.7,0123*51\r\n
$GPGGA,082143.80,5703.4296555,N,00952.0800947,E,2,9,1.2,-1.930,M,40.593,M,2.7,0123*56\r\n
$GPGGA,082143.85,5703.4296085,N,00952.0800471,E,2,9,1.2,-1.940,M,40.593,M,2.9,0123*5A\r\n
$GPGGA,082143.90,5703.4295619,N,00952.0799966,E,2,9,1.2,-1.941,M,40.593,M,2.9,0123*5B\r\n
$GPGGA,082143.95,5703.4295136,N,00952.0799467,E,2,9,1.2,-1.942,M,40.593,M,2.9,0123*5B\r\n
$GPGGA,082144.00,5703.4294665,N,00952.0798942,E,2,9,1.2,-1.944,M,40.593,M,2.9,0123*5D\r\n
$GPGGA,082144.05,5703.4294184,N,00952.0798406,E,2,9,1.2,-1.941,M,40.593,M,3.2,0123*52\r\n
$GPGGA,082144.10,5703.4293703,N,00952.0797888,E,2,9,1.2,-1.941,M,40.593,M,3.2,0123*5D\r\n
$GPGGA,082144.15,5703.4293208,N,00952.0797382,E,2,9,1.2,-1.941,M,40.593,M,3.2,0123*57\r\n
$GPGGA,082144.20,5703.4292713,N,00952.0796858,E,2,9,1.2,-1.942,M,40.593,M,3.2,0123*51\r\n
$GPGGA,082144.25,5703.4292238,N,00952.0796308,E,2,9,1.2,-1.940,M,40.593,M,2.0,0123*57\r\n
$GPGGA,082144.30,5703.4291757,N,00952.0795737,E,2,9,1.2,-1.938,M,40.593,M,2.0,0123*58\r\n
$GPGGA,082144.35,5703.4291292,N,00952.0795138,E,2,9,1.2,-1.933,M,40.593,M,2.0,0123*53\r\n
$GPGGA,082144.40,5703.4290810,N,00952.0794512,E,2,9,1.2,-1.926,M,40.593,M,2.0,0123*59\r\n
$GPGGA,082144.45,5703.4290324,N,00952.0793911,E,2,9,1.2,-1.925,M,40.593,M,2.2,0123*59\r\n
$GPGGA,082144.50,5703.4289838,N,00952.0793297,E,2,9,1.2,-1.923,M,40.593,M,2.2,0123*50\r\n
$GPGGA,082144.55,5703.4289341,N,00952.0792686,E,2,9,1.2,-1.924,M,40.593,M,2.2,0123*52\r\n
$GPGGA,082144.60,5703.4288845,N,00952.0792034,E,2,9,1.2,-1.919,M,40.593,M,2.2,0123*5B\r\n
$GPGGA,082144.65,5703.4288374,N,00952.0791399,E,2,9,1.2,-1.920,M,40.593,M,2.4,0123*5C\r\n
$GPGGA,082144.70,5703.4287902,N,00952.0790762,E,2,9,1.2,-1.918,M,40.593,M,2.4,0123*56\r\n
$GPGGA,082144.75,5703.4287423,N,00952.0790103,E,2,9,1.2,-1.918,M,40.593,M,2.4,0123*5C\r\n
$GPGGA,082144.80,5703.4286946,N,00952.0789420,E,2,9,1.2,-1.918,M,40.593,M,2.4,0123*55\r\n
$GPGGA,082144.85,5703.4286479,N,00952.0788721,E,2,9,1.2,-1.921,M,40.593,M,2.7,0123*5B\r\n
$GPGGA,082144.90,5703.4286019,N,00952.0788011,E,2,9,1.2,-1.919,M,40.593,M,2.7,0123*52\r\n
$GPGGA,082144.95,5703.4285556,N,00952.0787298,E,2,9,1.2,-1.917,M,40.593,M,2.7,0123*58\r\n
$GPGGA,082145.00,5703.4285093,N,00952.0786598,E,2,9,1.2,-1.918,M,40.593,M,2.7,0123*50\r\n
$GPGGA,082145.05,5703.4284628,N,00952.0785891,E,2,9,1.2,-1.916,M,40.593,M,2.9,0123*55\r\n
$GPGGA,082145.10,5703.4284152,N,00952.0785176,E,2,9,1.2,-1.915,M,40.593,M,2.9,0123*58\r\n
$GPGGA,082145.15,5703.4283693,N,00952.0784437,E,2,9,1.2,-1.913,M,40.593,M,2.9,0123*57\r\n
$GPGGA,082145.20,5703.4283222,N,00952.0783709,E,2,9,1.2,-1.915,M,40.593,M,2.9,0123*50\r\n
$GPGGA,082145.25,5703.4282765,N,00952.0782961,E,2,9,1.2,-1.920,M,40.593,M,1.9,0123*56\r\n
$GPGGA,082145.30,5703.4282313,N,00952.0782198,E,2,9,1.2,-1.922,M,40.593,M,1.9,0123*5B\r\n
$GPGGA,082145.35,5703.4281882,N,00952.0781403,E,2,9,1.2,-1.925,M,40.593,M,1.9,0123*5D\r\n
$GPGGA,082145.40,5703.4281449,N,00952.0780625,E,2,9,1.2,-1.928,M,40.593,M,1.9,0123*5E\r\n
$GPGGA,082145.45,5703.4281002,N,00952.0779841,E,2,9,1.2,-1.934,M,40.593,M,2.1,0123*5C\r\n
$GPGGA,082145.50,5703.4280575,N,00952.0779032,E,2,9,1.2,-1.935,M,40.593,M,2.1,0123*51\r\n
$GPGGA,082145.55,5703.4280144,N,00952.0778231,E,2,9,1.2,-1.935,M,40.593,M,2.1,0123*52\r\n
$GPGGA,082145.60,5703.4279718,N,00952.0777427,E,2,9,1.2,-1.935,M,40.593,M,2.1,0123*53\r\n
$GPGGA,082145.65,5703.4279304,N,00952.0776601,E,2,9,1.2,-1.932,M,40.593,M,2.3,0123*5D\r\n
$GPGGA,082145.70,5703.4278901,N,00952.0775761,E,2,9,1.2,-1.931,M,40.593,M,2.3,0123*50\r\n
$GPGGA,082145.75,5703.4278502,N,00952.0774919,E,2,9,1.2,-1.929,M,40.593,M,2.3,0123*53\r\n
$GPGGA,082145.80,5703.4278095,N,00952.0774067,E,2,9,1.2,-1.927,M,40.593,M,2.3,0123*5C\r\n
$GPGGA,082145.85,5703.4277696,N,00952.0773225,E,2,9,1.2,-1.934,M,40.593,M,2.6,0123*57\r\n
$GPGGA,082145.90,5703.4277314,N,00952.0772356,E,2,9,1.2,-1.935,M,40.593,M,2.6,0123*59\r\n
$GPGGA,082145.95,5703.4276921,N,00952.0771482,E,2,9,1.2,-1.931,M,40.593,M,2.6,0123*58\r\n
$GPGGA,082146.00,5703.4276524,N,00952.0770603,E,2,9,1.2,-1.929,M,40.593,M,2.6,0123*5D\r\n
$GPGGA,082146.05,5703.4276132,N,00952.0769721,E,2,9,1.2,-1.929,M,40.593,M,2.8,0123*5C\r\n
$GPGGA,082146.10,5703.4275755,N,00952.0768831,E,2,9,1.2,-1.929,M,40.593,M,2.8,0123*53\r\n
$GPGGA,082146.15,5703.4275388,N,00952.0767924,E,2,9,1.2,-1.927,M,40.593,M,2.8,0123*56\r\n
$GPGGA,082146.20,5703.4275009,N,00952.0767015,E,2,9,1.2,-1.927,M,40.593,M,2.8,0123*51\r\n
$GPGGA,082146.25,5703.4274642,N,00952.0766104,E,2,9,1.2,-1.932,M,40.593,M,3.0,0123*51\r\n
$GPGGA,082146.30,5703.4274287,N,00952.0765175,E,2,9,1.2,-1.933,M,40.593,M,3.0,0123*5C\r\n
$GPGGA,082146.35,5703.4273939,N,00952.0764245,E,2,9,1.2,-1.932,M,40.593,M,3.0,0123*50\r\n
$GPGGA,082146.40,5703.4273600,N,00952.0763300,E,2,9,1.2,-1.932,M,40.593,M,3.0,0123*50\r\n
$GPGGA,082146.45,5703.4273273,N,00952.0762335,E,2,9,1.2,-1.929,M,40.593,M,3.2,0123*5A\r\n
$GPGGA,082146.50,5703.4272937,N,00952.0761389,E,2,9,1.2,-1.931,M,40.593,M,3.2,0123*59\r\n
$GPGGA,082146.55,5703.4272619,N,00952.0760437,E,2,9,1.2,-1.930,M,40.593,M,3.2,0123*5D\r\n
$GPGGA,082146.60,5703.4272321,N,00952.0759461,E,2,9,1.2,-1.928,M,40.593,M,3.2,0123*55\r\n
$GPGGA,082146.65,5703.4272004,N,00952.0758507,E,2,9,1.2,-1.939,M,40.593,M,3.4,0123*52\r\n
$GPGGA,082146.70,5703.4271687,N,00952.0757555,E,2,9,1.2,-1.941,M,40.593,M,3.4,0123*5F\r\n
$GPGGA,082146.75,5703.4271382,N,00952.0756594,E,2,9,1.2,-1.943,M,40.593,M,3.4,0123*54\r\n
$GPGGA,082146.80,5703.4271100,N,00952.0755609,E,2,9,1.2,-1.943,M,40.593,M,3.4,0123*52\r\n
$GPGGA,082146.85,5703.4270835,N,00952.0754600,E,2,9,1.2,-1.938,M,40.593,M,3.6,0123*5F\r\n
$GPGGA,082146.90,5703.4270578,N,00952.0753603,E,2,9,1.2,-1.938,M,40.593,M,3.6,0123*5B\r\n
$GPGGA,082146.95,5703.4270308,N,00952.0752613,E,2,9,1.2,-1.940,M,40.593,M,3.6,0123*50\r\n
$GPGGA,082147.00,5703.4270045,N,00952.0751630,E,2,9,1.2,-1.940,M,40.593,M,3.6,0123*55\r\n
$GPGGA,082147.05,5703.4269773,N,00952.0750631,E,2,9,1.2,-1.939,M,40.593,M,3.8,0123*5A\r\n
$GPGGA,082147.10,5703.4269531,N,00952.0749625,E,2,9,1.2,-1.940,M,40.593,M,3.8,0123*59\r\n
$GPGGA,082147.15,5703.4269289,N,00952.0748607,E,2,9,1.2,-1.941,M,40.593,M,3.8,0123*58\r\n
$GPGGA,082147.20,5703.4269062,N,00952.0747595,E,2,9,1.2,-1.941,M,40.593,M,3.8,0123*5E\r\n
$GPGGA,082147.25,5703.4268848,N,00952.0746570,E,2,9,1.2,-1.935,M,40.593,M,2.2,0123*58\r\n
$GPGGA,082147.30,5703.4268641,N,00952.0745552,E,2,9,1.2,-1.935,M,40.593,M,2.2,0123*58\r\n
$GPGGA,082147.35,5703.4268434,N,00952.0744531,E,2,9,1.2,-1.935,M,40.593,M,2.2,0123*59\r\n
$GPGGA,082147.40,5703.4268237,N,00952.0743521,E,2,9,1.2,-1.935,M,40.593,M,2.2,0123*58\r\n
$GPGGA,082147.45,5703.4268046,N,00952.0742516,E,2,9,1.2,-1.938,M,40.593,M,2.4,0123*57\r\n
$GPGGA,082147.50,5703.4267852,N,00952.0741504,E,2,9,1.2,-1.940,M,40.593,M,2.4,0123*5E\r\n
$GPGGA,082147.55,5703.4267670,N,00952.0740482,E,2,9,1.2,-1.939,M,40.593,M,2.4,0123*55\r\n
$GPGGA,082147.60,5703.4267505,N,00952.0739451,E,2,9,1.2,-1.938,M,40.593,M,2.4,0123*53\r\n
$GPGGA,082147.65,5703.4267358,N,00952.0738413,E,2,9,1.2,-1.935,M,40.593,M,2.7,0123*51\r\n
$GPGGA,082147.70,5703.4267209,N,00952.0737388,E,2,9,1.2,-1.936,M,40.593,M,2.7,0123*59\r\n
$GPGGA,082147.75,5703.4267062,N,00952.0736360,E,2,9,1.2,-1.937,M,40.593,M,2.7,0123*55\r\n
$GPGGA,082147.80,5703.4266920,N,00952.0735317,E,2,9,1.2,-1.940,M,40.593,M,2.7,0123*52\r\n
$GPGGA,082147.85,5703.4266777,N,00952.0734288,E,2,9,1.2,-1.940,M,40.593,M,2.9,0123*53\r\n
$GPGGA,082147.90,5703.4266644,N,00952.0733253,E,2,9,1.2,-1.939,M,40.593,M,2.9,0123*59\r\n
$GPGGA,082147.95,5703.4266528,N,00952.0732228,E,2,9,1.2,-1.940,M,40.593,M,2.9,0123*56\r\n
$GPGGA,082148.00,5703.4266433,N,00952.0731206,E,2,9,1.2,-1.940,M,40.593,M,2.9,0123*51\r\n
$GPGGA,082148.05,5703.4266350,N,00952.0730209,E,2,9,1.2,-1.938,M,40.593,M,3.2,0123*5D\r\n
$GPGGA,082148.10,5703.4266277,N,00952.0729191,E,2,9,1.2,-1.935,M,40.593,M,3.2,0123*5A\r\n
$GPGGA,082148.15,5703.4266181,N,00952.0728183,E,2,9,1.2,-1.933,M,40.593,M,3.2,0123*51\r\n
$GPGGA,082148.20,5703.4266098,N,00952.0727168,E,2,9,1.2,-1.930,M,40.593,M,3.2,0123*57\r\n
$GPGGA,082148.25,5703.4266026,N,00952.0726153,E,2,9,1.2,-1.935,M,40.593,M,2.0,0123*58\r\n
$GPGGA,082148.30,5703.4265978,N,00952.0725138,E,2,9,1.2,-1.933,M,40.593,M,2.0,0123*55\r\n
$GPGGA,082148.35,5703.4265932,N,00952.0724128,E,2,9,1.2,-1.933,M,40.593,M,2.0,0123*5E\r\n
$GPGGA,082148.40,5703.4265877,N,00952.0723119,E,2,9,1.2,-1.934,M,40.593,M,2.0,0123*5E\r\n
$GPGGA,082148.45,5703.4265841,N,00952.0722106,E,2,9,1.2,-1.935,M,40.593,M,2.2,0123*52\r\n
$GPGGA,082148.50,5703.4265822,N,00952.0721098,E,2,9,1.2,-1.935,M,40.593,M,2.2,0123*56\r\n
$GPGGA,082148.55,5703.4265803,N,00952.0720099,E,2,9,1.2,-1.935,M,40.593,M,2.2,0123*50\r\n
$GPGGA,082148.60,5703.4265785,N,00952.0719116,E,2,9,1.2,-1.938,M,40.593,M,2.2,0123*56\r\n
$GPGGA,082148.65,5703.4265766,N,00952.0718130,E,2,9,1.2,-1.937,M,40.593,M,2.4,0123*52\r\n
$GPGGA,082148.70,5703.4265762,N,00952.0717136,E,2,9,1.2,-1.938,M,40.593,M,2.4,0123*54\r\n
$GPGGA,082148.75,5703.4265762,N,00952.0716146,E,2,9,1.2,-1.939,M,40.593,M,2.4,0123*56\r\n
$GPGGA,082148.80,5703.4265783,N,00952.0715161,E,2,9,1.2,-1.941,M,40.593,M,2.4,0123*5A\r\n
$GPGGA,082148.85,5703.4265799,N,00952.0714184,E,2,9,1.2,-1.946,M,40.593,M,2.7,0123*5A\r\n
$GPGGA,082148.90,5703.4265832,N,00952.0713200,E,2,9,1.2,-1.944,M,40.593,M,2.7,0123*5A\r\n
$GPGGA,082148.95,5703.4265867,N,00952.0712239,E,2,9,1.2,-1.942,M,40.593,M,2.7,0123*52\r\n
$GPGGA,082149.00,5703.4265904,N,00952.0711289,E,2,9,1.2,-1.939,M,40.593,M,2.7,0123*5F\r\n
$GPGGA,082149.05,5703.4265943,N,00952.0710335,E,2,9,1.2,-1.942,M,40.593,M,2.9,0123*5C\r\n
$GPGGA,082149.10,5703.4266004,N,00952.0709383,E,2,9,1.2,-1.940,M,40.593,M,2.9,0123*56\r\n
$GPGGA,082149.15,5703.4266064,N,00952.0708438,E,2,9,1.2,-1.941,M,40.593,M,2.9,0123*52\r\n
$GPGGA,082149.20,5703.4266138,N,00952.0707495,E,2,9,1.2,-1.938,M,40.593,M,2.9,0123*5A\r\n
$GPGGA,082149.25,5703.4266212,N,00952.0706564,E,2,9,1.2,-1.942,M,40.593,M,1.9,0123*54\r\n
$GPGGA,082149.30,5703.4266285,N,00952.0705645,E,2,9,1.2,-1.940,M,40.593,M,1.9,0123*5F\r\n
$GPGGA,082149.35,5703.4266369,N,00952.0704733,E,2,9,1.2,-1.941,M,40.593,M,1.9,0123*59\r\n
$GPGGA,082149.40,5703.4266465,N,00952.0703830,E,2,9,1.2,-1.941,M,40.593,M,1.9,0123*5B\r\n
$GPGGA,082149.45,5703.4266557,N,00952.0702924,E,2,9,1.2,-1.939,M,40.593,M,2.1,0123*5F\r\n
$GPGGA,082149.50,5703.4266657,N,00952.0702023,E,2,9,1.2,-1.937,M,40.593,M,2.1,0123*58\r\n
$GPGGA,082149.55,5703.4266754,N,00952.0701114,E,2,9,1.2,-1.934,M,40.593,M,2.1,0123*5A\r\n
$GPGGA,082149.60,5703.4266867,N,00952.0700208,E,2,9,1.2,-1.935,M,40.593,M,2.1,0123*5D\r\n
$GPGGA,082149.65,5703.4266990,N,00952.0699310,E,2,9,1.2,-1.935,M,40.593,M,2.3,0123*5A\r\n
$GPGGA,082149.70,5703.4267106,N,00952.0698441,E,2,9,1.2,-1.931,M,40.593,M,2.3,0123*5E\r\n
$GPGGA,082149.75,5703.4267227,N,00952.0697571,E,2,9,1.2,-1.927,M,40.593,M,2.3,0123*51\r\n
$GPGGA,082149.80,5703.4267366,N,00952.0696705,E,2,9,1.2,-1.925,M,40.593,M,2.3,0123*5D\r\n
$GPGGA,082149.85,5703.4267510,N,00952.0695854,E,2,9,1.2,-1.928,M,40.593,M,2.6,0123*5F\r\n
$GPGGA,082149.90,5703.4267648,N,00952.0695003,E,2,9,1.2,-1.928,M,40.593,M,2.6,0123*5F\r\n
$GPGGA,082149.95,5703.4267804,N,00952.0694158,E,2,9,1.2,-1.925,M,40.593,M,2.6,0123*5F\r\n
$GPGGA,082150.00,5703.4267958,N,00952.0693315,E,2,9,1.2,-1.922,M,40.593,M,2.6,0123*58\r\n
$GPGGA,082150.05,5703.4268109,N,00952.0692498,E,2,9,1.2,-1.930,M,40.593,M,2.8,0123*50\r\n
$GPGGA,082150.10,5703.4268269,N,00952.0691668,E,2,9,1.2,-1.932,M,40.593,M,2.8,0123*5D\r\n
$GPGGA,082150.15,5703.4268454,N,00952.0690853,E,2,9,1.2,-1.932,M,40.593,M,2.8,0123*57\r\n
$GPGGA,082150.20,5703.4268651,N,00952.0690041,E,2,9,1.2,-1.931,M,40.593,M,2.8,0123*5E\r\n
$GPGGA,082150.25,5703.4268841,N,00952.0689246,E,2,9,1.2,-1.933,M,40.593,M,3.0,0123*52\r\n
$GPGGA,082150.30,5703.4269035,N,00952.0688464,E,2,9,1.2,-1.937,M,40.593,M,3.0,0123*5F\r\n
$GPGGA,082150.35,5703.4269238,N,00952.0687697,E,2,9,1.2,-1.937,M,40.593,M,3.0,0123*54\r\n
$GPGGA,082150.40,5703.4269435,N,00952.0686933,E,2,9,1.2,-1.936,M,40.593,M,3.0,0123*5C\r\n
$GPGGA,082150.45,5703.4269658,N,00952.0686172,E,2,9,1.2,-1.937,M,40.593,M,3.2,0123*5E\r\n
$GPGGA,082150.50,5703.4269874,N,00952.0685426,E,2,9,1.2,-1.936,M,40.593,M,3.2,0123*5C\r\n
$GPGGA,082150.55,5703.4270097,N,00952.0684693,E,2,9,1.2,-1.935,M,40.593,M,3.2,0123*5A\r\n
$GPGGA,082150.60,5703.4270331,N,00952.0683961,E,2,9,1.2,-1.934,M,40.593,M,3.2,0123*57\r\n
$GPGGA,082150.65,5703.4270560,N,00952.0683234,E,2,9,1.2,-1.932,M,40.593,M,3.4,0123*5B\r\n
$GPGGA,082150.70,5703.4270784,N,00952.0682515,E,2,9,1.2,-1.929,M,40.593,M,3.4,0123*58\r\n
$GPGGA,082150.75,5703.4271015,N,00952.0681801,E,2,9,1.2,-1.926,M,40.593,M,3.4,0123*57\r\n
$GPGGA,082150.80,5703.4271262,N,00952.0681101,E,2,9,1.2,-1.920,M,40.593,M,3.4,0123*50\r\n
$GPGGA,082150.85,5703.4271517,N,00952.0680427,E,2,9,1.2,-1.920,M,40.593,M,3.6,0123*52\r\n
$GPGGA,082150.90,5703.4271782,N,00952.0679759,E,2,9,1.2,-1.917,M,40.593,M,3.6,0123*50\r\n
$GPGGA,082150.95,5703.4272038,N,00952.0679110,E,2,9,1.2,-1.914,M,40.593,M,3.6,0123*58\r\n
$GPGGA,082151.00,5703.4272306,N,00952.0678457,E,2,9,1.2,-1.911,M,40.593,M,3.6,0123*59\r\n
$GPGGA,082151.05,5703.4272568,N,00952.0677814,E,2,9,1.2,-1.913,M,40.593,M,3.8,0123*5A\r\n
$GPGGA,082151.10,5703.4272838,N,00952.0677180,E,2,9,1.2,-1.910,M,40.593,M,3.8,0123*51\r\n
$GPGGA,082151.15,5703.4273118,N,00952.0676567,E,2,9,1.2,-1.906,M,40.593,M,3.8,0123*55\r\n
$GPGGA,082151.20,5703.4273416,N,00952.0675960,E,2,9,1.2,-1.903,M,40.593,M,3.8,0123*55\r\n
$GPGGA,082151.25,5703.4273724,N,00952.0675360,E,2,9,1.2,-1.905,M,40.593,M,2.2,0123*55\r\n
$GPGGA,082151.30,5703.4274041,N,00952.0674768,E,2,9,1.2,-1.901,M,40.593,M,2.2,0123*5B\r\n
$GPGGA,082151.35,5703.4274348,N,00952.0674187,E,2,9,1.2,-1.897,M,40.593,M,2.2,0123*5D\r\n
$GPGGA,082151.40,5703.4274660,N,00952.0673634,E,2,9,1.2,-1.892,M,40.593,M,2.2,0123*5D\r\n
$GPGGA,082151.45,5703.4274968,N,00952.0673086,E,2,9,1.2,-1.900,M,40.593,M,2.4,0123*5C\r\n
$GPGGA,082151.50,5703.4275292,N,00952.0672551,E,2,9,1.2,-1.900,M,40.593,M,2.4,0123*59\r\n
$GPGGA,082151.55,5703.4275615,N,00952.0672034,E,2,9,1.2,-1.902,M,40.593,M,2.4,0123*53\r\n
$GPGGA,082151.60,5703.4275951,N,00952.0671528,E,2,9,1.2,-1.904,M,40.593,M,2.4,0123*57\r\n
$GPGGA,082151.65,5703.4276288,N,00952.0671034,E,2,9,1.2,-1.904,M,40.593,M,2.7,0123*55\r\n
$GPGGA,082151.70,5703.4276634,N,00952.0670553,E,2,9,1.2,-1.904,M,40.593,M,2.7,0123*57\r\n
$GPGGA,082151.75,5703.4276976,N,00952.0670103,E,2,9,1.2,-1.905,M,40.593,M,2.7,0123*5B\r\n
$GPGGA,082151.80,5703.4277340,N,00952.0669665,E,2,9,1.2,-1.905,M,40.593,M,2.7,0123*50\r\n
$GPGGA,082151.85,5703.4277715,N,00952.0669226,E,2,9,1.2,-1.901,M,40.593,M,2.9,0123*58\r\n
$GPGGA,082151.90,5703.4278086,N,00952.0668788,E,2,9,1.2,-1.899,M,40.593,M,2.9,0123*5E\r\n
$GPGGA,082151.95,5703.4278462,N,00952.0668362,E,2,9,1.2,-1.898,M,40.593,M,2.9,0123*54\r\n
$GPGGA,082152.00,5703.4278849,N,00952.0667954,E,2,9,1.2,-1.897,M,40.593,M,2.9,0123*51\r\n
$GPGGA,082152.05,5703.4279238,N,00952.0667552,E,2,9,1.2,-1.894,M,40.593,M,3.2,0123*5A\r\n
$GPGGA,082152.10,5703.4279618,N,00952.0667164,E,2,9,1.2,-1.895,M,40.593,M,3.2,0123*58\r\n
$GPGGA,082152.15,5703.4280002,N,00952.0666812,E,2,9,1.2,-1.894,M,40.593,M,3.2,0123*5E\r\n
$GPGGA,082152.20,5703.4280397,N,00952.0666489,E,2,9,1.2,-1.894,M,40.593,M,3.2,0123*59\r\n
$GPGGA,082152.25,5703.4280794,N,00952.0666163,E,2,9,1.2,-1.896,M,40.593,M,2.0,0123*5B\r\n
$GPGGA,082152.30,5703.4281192,N,00952.0665847,E,2,9,1.2,-1.899,M,40.593,M,2.0,0123*5D\r\n
$GPGGA,082152.35,5703.4281588,N,00952.0665537,E,2,9,1.2,-1.901,M,40.593,M,2.0,0123*5D\r\n
$GPGGA,082152.40,5703.4282001,N,00952.0665247,E,2,9,1.2,-1.900,M,40.593,M,2.0,0123*59\r\n
$GPGGA,082152.45,5703.4282423,N,00952.0664972,E,2,9,1.2,-1.894,M,40.593,M,2.2,0123*5A\r\n
$GPGGA,082152.50,5703.4282843,N,00952.0664710,E,2,9,1.2,-1.895,M,40.593,M,2.2,0123*5F\r\n
$GPGGA,082152.55,5703.4283262,N,00952.0664448,E,2,9,1.2,-1.896,M,40.593,M,2.2,0123*5F\r\n
$GPGGA,082152.60,5703.4283695,N,00952.0664222,E,2,9,1.2,-1.895,M,40.593,M,2.2,0123*5C\r\n
$GPGGA,082152.65,5703.4284105,N,00952.0664023,E,2,9,1.2,-1.899,M,40.593,M,2.4,0123*59\r\n
$GPGGA,082152.70,5703.4284523,N,00952.0663841,E,2,9,1.2,-1.899,M,40.593,M,2.4,0123*56\r\n
$GPGGA,082152.75,5703.4284953,N,00952.0663670,E,2,9,1.2,-1.898,M,40.593,M,2.4,0123*55\r\n
$GPGGA,082152.80,5703.4285379,N,00952.0663511,E,2,9,1.2,-1.899,M,40.593,M,2.4,0123*59\r\n
$GPGGA,082152.85,5703.4285821,N,00952.0663350,E,2,9,1.2,-1.893,M,40.593,M,2.7,0123*50\r\n
$GPGGA,082152.90,5703.4286257,N,00952.0663223,E,2,9,1.2,-1.894,M,40.593,M,2.7,0123*5E\r\n
$GPGGA,082152.95,5703.4286689,N,00952.0663104,E,2,9,1.2,-1.892,M,40.593,M,2.7,0123*5C\r\n
$GPGGA,082153.00,5703.4287127,N,00952.0662999,E,2,9,1.2,-1.891,M,40.593,M,2.7,0123*5D\r\n
$GPGGA,082153.05,5703.4287568,N,00952.0662922,E,2,9,1.2,-1.890,M,40.593,M,2.9,0123*58\r\n
$GPGGA,082153.10,5703.4287998,N,00952.0662844,E,2,9,1.2,-1.889,M,40.593,M,2.9,0123*56\r\n
$GPGGA,082153.15,5703.4288450,N,00952.0662774,E,2,9,1.2,-1.887,M,40.593,M,2.9,0123*57\r\n
$GPGGA,082153.20,5703.4288897,N,00952.0662721,E,2,9,1.2,-1.887,M,40.593,M,2.9,0123*56\r\n
$GPGGA,082153.25,5703.4289347,N,00952.0662691,E,2,9,1.2,-1.883,M,40.593,M,1.9,0123*59\r\n
$GPGGA,082153.30,5703.4289788,N,00952.0662675,E,2,9,1.2,-1.882,M,40.593,M,1.9,0123*51\r\n
$GPGGA,082153.35,5703.4290233,N,00952.0662676,E,2,9,1.2,-1.882,M,40.593,M,1.9,0123*5A\r\n
$GPGGA,082153.40,5703.4290680,N,00952.0662694,E,2,9,1.2,-1.881,M,40.593,M,1.9,0123*5B\r\n
$GPGGA,082153.45,5703.4291121,N,00952.0662761,E,2,9,1.2,-1.887,M,40.593,M,2.1,0123*55\r\n
$GPGGA,082153.50,5703.4291575,N,00952.0662834,E,2,9,1.2,-1.890,M,40.593,M,2.1,0123*5D\r\n
$GPGGA,082153.55,5703.4292021,N,00952.0662934,E,2,9,1.2,-1.893,M,40.593,M,2.1,0123*5D\r\n
$GPGGA,082153.60,5703.4292456,N,00952.0663062,E,2,9,1.2,-1.897,M,40.593,M,2.1,0123*50\r\n
$GPGGA,082153.65,5703.4292900,N,00952.0663205,E,2,9,1.2,-1.894,M,40.593,M,2.3,0123*59\r\n
$GPGGA,082153.70,5703.4293348,N,00952.0663360,E,2,9,1.2,-1.893,M,40.593,M,2.3,0123*5F\r\n
$GPGGA,082153.75,5703.4293795,N,00952.0663522,E,2,9,1.2,-1.889,M,40.593,M,2.3,0123*55\r\n
$GPGGA,082153.80,5703.4294234,N,00952.0663691,E,2,9,1.2,-1.890,M,40.593,M,2.3,0123*55\r\n
$GPGGA,082153.85,5703.4294667,N,00952.0663885,E,2,9,1.2,-1.893,M,40.593,M,2.6,0123*5F\r\n
$GPGGA,082153.90,5703.4295094,N,00952.0664108,E,2,9,1.2,-1.895,M,40.593,M,2.6,0123*5D\r\n
$GPGGA,082153.95,5703.4295528,N,00952.0664322,E,2,9,1.2,-1.893,M,40.593,M,2.6,0123*56\r\n
$GPGGA,082154.00,5703.4295977,N,00952.0664532,E,2,9,1.2,-1.891,M,40.593,M,2.6,0123*5E\r\n
$GPGGA,082154.05,5703.4296409,N,00952.0664769,E,2,9,1.2,-1.895,M,40.593,M,2.8,0123*5A\r\n
$GPGGA,082154.10,5703.4296848,N,00952.0665009,E,2,9,1.2,-1.895,M,40.593,M,2.8,0123*57\r\n
$GPGGA,082154.15,5703.4297284,N,00952.0665278,E,2,9,1.2,-1.894,M,40.593,M,2.8,0123*5C\r\n
$GPGGA,082154.20,5703.4297714,N,00952.0665569,E,2,9,1.2,-1.893,M,40.593,M,2.8,0123*56\r\n
$GPGGA,082154.25,5703.4298149,N,00952.0665877,E,2,9,1.2,-1.890,M,40.593,M,3.0,0123*5A\r\n
$GPGGA,082154.30,5703.4298569,N,00952.0666202,E,2,9,1.2,-1.888,M,40.593,M,3.0,0123*5A\r\n
$GPGGA,082154.35,5703.4298987,N,00952.0666547,E,2,9,1.2,-1.888,M,40.593,M,3.0,0123*55\r\n
$GPGGA,082154.40,5703.4299414,N,00952.0666906,E,2,9,1.2,-1.887,M,40.593,M,3.0,0123*57\r\n
$GPGGA,082154.45,5703.4299845,N,00952.0667279,E,2,9,1.2,-1.885,M,40.593,M,3.2,0123*58\r\n
$GPGGA,082154.50,5703.4300267,N,00952.0667664,E,2,9,1.2,-1.884,M,40.593,M,3.2,0123*5E\r\n
$GPGGA,082154.55,5703.4300669,N,00952.0668073,E,2,9,1.2,-1.883,M,40.593,M,3.2,0123*59\r\n
$GPGGA,082154.60,5703.4301057,N,00952.0668516,E,2,9,1.2,-1.881,M,40.593,M,3.2,0123*51\r\n
$GPGGA,082154.65,5703.4301450,N,00952.0668977,E,2,9,1.2,-1.878,M,40.593,M,3.4,0123*5C\r\n
$GPGGA,082154.70,5703.4301847,N,00952.0669439,E,2,9,1.2,-1.877,M,40.593,M,3.4,0123*5B\r\n
$GPGGA,082154.75,5703.4302259,N,00952.0669910,E,2,9,1.2,-1.874,M,40.593,M,3.4,0123*5D\r\n
$GPGGA,082154.80,5703.4302638,N,00952.0670400,E,2,9,1.2,-1.872,M,40.593,M,3.4,0123*56\r\n
$GPGGA,082154.85,5703.4303011,N,00952.0670914,E,2,9,1.2,-1.874,M,40.593,M,3.6,0123*53\r\n
$GPGGA,082154.90,5703.4303390,N,00952.0671453,E,2,9,1.2,-1.875,M,40.593,M,3.6,0123*53\r\n
$GPGGA,082154.95,5703.4303739,N,00952.0672011,E,2,9,1.2,-1.875,M,40.593,M,3.6,0123*50\r\n
$GPGGA,082155.00,5703.4304089,N,00952.0672565,E,2,9,1.2,-1.877,M,40.593,M,3.6,0123*52\r\n
$GPGGA,082155.05,5703.4304440,N,00952.0673135,E,2,9,1.2,-1.879,M,40.593,M,3.8,0123*56\r\n
$GPGGA,082155.10,5703.4304788,N,00952.0673722,E,2,9,1.2,-1.878,M,40.593,M,3.8,0123*54\r\n
$GPGGA,082155.15,5703.4305109,N,00952.0674343,E,2,9,1.2,-1.877,M,40.593,M,3.8,0123*54\r\n
$GPGGA,082155.20,5703.4305430,N,00952.0674967,E,2,9,1.2,-1.879,M,40.593,M,3.8,0123*5F\r\n
$GPGGA,082155.25,5703.4305756,N,00952.0675583,E,2,9,1.2,-1.874,M,40.593,M,2.2,0123*58\r\n
$GPGGA,082155.30,5703.4306090,N,00952.0676194,E,2,9,1.2,-1.871,M,40.593,M,2.2,0123*56\r\n
$GPGGA,082155.35,5703.4306420,N,00952.0676818,E,2,9,1.2,-1.869,M,40.593,M,2.2,0123*58\r\n
$GPGGA,082155.40,5703.4306732,N,00952.0677480,E,2,9,1.2,-1.869,M,40.593,M,2.2,0123*56\r\n
$GPGGA,082155.45,5703.4307043,N,00952.0678148,E,2,9,1.2,-1.867,M,40.593,M,2.4,0123*55\r\n
$GPGGA,082155.50,5703.4307343,N,00952.0678837,E,2,9,1.2,-1.869,M,40.593,M,2.4,0123*5D\r\n
$GPGGA,082155.55,5703.4307650,N,00952.0679519,E,2,9,1.2,-1.867,M,40.593,M,2.4,0123*51\r\n
$GPGGA,082155.60,5703.4307939,N,00952.0680233,E,2,9,1.2,-1.866,M,40.593,M,2.4,0123*5F\r\n
$GPGGA,082155.65,5703.4308207,N,00952.0680957,E,2,9,1.2,-1.873,M,40.593,M,2.7,0123*5D\r\n
$GPGGA,082155.70,5703.4308476,N,00952.0681682,E,2,9,1.2,-1.876,M,40.593,M,2.7,0123*5A\r\n
$GPGGA,082155.75,5703.4308752,N,00952.0682442,E,2,9,1.2,-1.874,M,40.593,M,2.7,0123*55\r\n
$GPGGA,082155.80,5703.4309004,N,00952.0683209,E,2,9,1.2,-1.873,M,40.593,M,2.7,0123*55\r\n
$GPGGA,082155.85,5703.4309263,N,00952.0683979,E,2,9,1.2,-1.870,M,40.593,M,2.9,0123*52\r\n
$GPGGA,082155.90,5703.4309508,N,00952.0684742,E,2,9,1.2,-1.869,M,40.593,M,2.9,0123*55\r\n
$GPGGA,082155.95,5703.4309729,N,00952.0685523,E,2,9,1.2,-1.866,M,40.593,M,2.9,0123*5A\r\n
$GPGGA,082156.00,5703.4309950,N,00952.0686313,E,2,9,1.2,-1.863,M,40.593,M,2.9,0123*56\r\n
$GPGGA,082156.05,5703.4310166,N,00952.0687115,E,2,9,1.2,-1.857,M,40.593,M,3.2,0123*5E\r\n
$GPGGA,082156.10,5703.4310361,N,00952.0687935,E,2,9,1.2,-1.854,M,40.593,M,3.2,0123*56\r\n
$GPGGA,082156.15,5703.4310556,N,00952.0688764,E,2,9,1.2,-1.851,M,40.593,M,3.2,0123*51\r\n
$GPGGA,082156.20,5703.4310752,N,00952.0689618,E,2,9,1.2,-1.849,M,40.593,M,3.2,0123*53\r\n
$GPGGA,082156.25,5703.4310909,N,00952.0690491,E,2,9,1.2,-1.854,M,40.593,M,2.0,0123*52\r\n
$GPGGA,082156.30,5703.4311079,N,00952.0691367,E,2,9,1.2,-1.855,M,40.593,M,2.0,0123*57\r\n
$GPGGA,082156.35,5703.4311245,N,00952.0692246,E,2,9,1.2,-1.857,M,40.593,M,2.0,0123*5C\r\n
$GPGGA,082156.40,5703.4311395,N,00952.0693127,E,2,9,1.2,-1.859,M,40.593,M,2.0,0123*59\r\n
$GPGGA,082156.45,5703.4311525,N,00952.0694021,E,2,9,1.2,-1.861,M,40.593,M,2.2,0123*58\r\n
$GPGGA,082156.50,5703.4311650,N,00952.0694922,E,2,9,1.2,-1.862,M,40.593,M,2.2,0123*54\r\n
$GPGGA,082156.55,5703.4311772,N,00952.0695826,E,2,9,1.2,-1.864,M,40.593,M,2.2,0123*52\r\n
$GPGGA,082156.60,5703.4311906,N,00952.0696730,E,2,9,1.2,-1.864,M,40.593,M,2.2,0123*52\r\n
$GPGGA,082156.65,5703.4312017,N,00952.0697648,E,2,9,1.2,-1.861,M,40.593,M,2.4,0123*51\r\n
$GPGGA,082156.70,5703.4312102,N,00952.0698572,E,2,9,1.2,-1.862,M,40.593,M,2.4,0123*56\r\n
$GPGGA,082156.75,5703.4312173,N,00952.0699492,E,2,9,1.2,-1.861,M,40.593,M,2.4,0123*58\r\n
$GPGGA,082156.80,5703.4312242,N,00952.0700412,E,2,9,1.2,-1.859,M,40.593,M,2.4,0123*51\r\n
$GPGGA,082156.85,5703.4312300,N,00952.0701350,E,2,9,1.2,-1.862,M,40.593,M,2.7,0123*58\r\n
$GPGGA,082156.90,5703.4312372,N,00952.0702283,E,2,9,1.2,-1.859,M,40.593,M,2.7,0123*5D\r\n
$GPGGA,082156.95,5703.4312415,N,00952.0703222,E,2,9,1.2,-1.855,M,40.593,M,2.7,0123*58\r\n
$GPGGA,082157.00,5703.4312438,N,00952.0704175,E,2,9,1.2,-1.852,M,40.593,M,2.7,0123*5B\r\n
$GPGGA,082157.05,5703.4312455,N,00952.0705143,E,2,9,1.2,-1.846,M,40.593,M,2.9,0123*5A\r\n
$GPGGA,082157.10,5703.4312479,N,00952.0706104,E,2,9,1.2,-1.844,M,40.593,M,2.9,0123*52\r\n
$GPGGA,082157.15,5703.4312495,N,00952.0707058,E,2,9,1.2,-1.842,M,40.593,M,2.9,0123*5A\r\n
$GPGGA,082157.20,5703.4312495,N,00952.0708017,E,2,9,1.2,-1.840,M,40.593,M,2.9,0123*5A\r\n
$GPGGA,082157.25,5703.4312475,N,00952.0708998,E,2,9,1.2,-1.841,M,40.593,M,1.9,0123*5D\r\n
$GPGGA,082157.30,5703.4312458,N,00952.0709978,E,2,9,1.2,-1.842,M,40.593,M,1.9,0123*5A\r\n
$GPGGA,082157.35,5703.4312435,N,00952.0710958,E,2,9,1.2,-1.842,M,40.593,M,1.9,0123*5E\r\n
$GPGGA,082157.40,5703.4312399,N,00952.0711931,E,2,9,1.2,-1.843,M,40.593,M,1.9,0123*52\r\n
$GPGGA,082157.45,5703.4312337,N,00952.0712914,E,2,9,1.2,-1.849,M,40.593,M,2.1,0123*56\r\n
$GPGGA,082157.50,5703.4312275,N,00952.0713901,E,2,9,1.2,-1.849,M,40.593,M,2.1,0123*50\r\n
$GPGGA,082157.55,5703.4312199,N,00952.0714898,E,2,9,1.2,-1.852,M,40.593,M,2.1,0123*58\r\n
$GPGGA,082157.60,5703.4312115,N,00952.0715901,E,2,9,1.2,-1.858,M,40.593,M,2.1,0123*50\r\n
$GPGGA,082157.65,5703.4312036,N,00952.0716870,E,2,9,1.2,-1.851,M,40.593,M,2.3,0123*5A\r\n
$GPGGA,082157.70,5703.4311931,N,00952.0717835,E,2,9,1.2,-1.849,M,40.593,M,2.3,0123*5A\r\n
$GPGGA,082157.75,5703.4311816,N,00952.0718790,E,2,9,1.2,-1.847,M,40.593,M,2.3,0123*5A\r\n
$GPGGA,082157.80,5703.4311679,N,00952.0719758,E,2,9,1.2,-1.847,M,40.593,M,2.3,0123*52\r\n
$GPGGA,082157.85,5703.4311514,N,00952.0720733,E,2,9,1.2,-1.850,M,40.593,M,2.6,0123*5B\r\n
$GPGGA,082157.90,5703.4311343,N,00952.0721693,E,2,9,1.2,-1.849,M,40.593,M,2.6,0123*59\r\n
$GPGGA,082157.95,5703.4311161,N,00952.0722651,E,2,9,1.2,-1.851,M,40.593,M,2.6,0123*5A\r\n
$GPGGA,082158.00,5703.4310972,N,00952.0723610,E,2,9,1.2,-1.851,M,40.593,M,2.6,0123*56\r\n
$GPGGA,082158.05,5703.4310758,N,00952.0724582,E,2,9,1.2,-1.852,M,40.593,M,2.8,0123*57\r\n
$GPGGA,082158.10,5703.4310540,N,00952.0725544,E,2,9,1.2,-1.850,M,40.593,M,2.8,0123*51\r\n
$GPGGA,082158.15,5703.4310313,N,00952.0726481,E,2,9,1.2,-1.846,M,40.593,M,2.8,0123*58\r\n
$GPGGA,082158.20,5703.4310093,N,00952.0727428,E,2,9,1.2,-1.847,M,40.593,M,2.8,0123*56\r\n
$GPGGA,082158.25,5703.4309854,N,00952.0728367,E,2,9,1.2,-1.849,M,40.593,M,3.0,0123*5C\r\n
$GPGGA,082158.30,5703.4309623,N,00952.0729312,E,2,9,1.2,-1.851,M,40.593,M,3.0,0123*5C\r\n
$GPGGA,082158.35,5703.4309367,N,00952.0730256,E,2,9,1.2,-1.854,M,40.593,M,3.0,0123*50\r\n
$GPGGA,082158.40,5703.4309085,N,00952.0731177,E,2,9,1.2,-1.854,M,40.593,M,3.0,0123*5C\r\n
$GPGGA,082158.45,5703.4308796,N,00952.0732080,E,2,9,1.2,-1.855,M,40.593,M,3.2,0123*54\r\n
$GPGGA,082158.50,5703.4308528,N,00952.0732976,E,2,9,1.2,-1.854,M,40.593,M,3.2,0123*56\r\n
$GPGGA,082158.55,5703.4308249,N,00952.0733868,E,2,9,1.2,-1.856,M,40.593,M,3.2,0123*5E\r\n
$GPGGA,082158.60,5703.4307954,N,00952.0734770,E,2,9,1.2,-1.855,M,40.593,M,3.2,0123*52\r\n
$GPGGA,082158.65,5703.4307634,N,00952.0735670,E,2,9,1.2,-1.848,M,40.593,M,3.4,0123*54\r\n
$GPGGA,082158.70,5703.4307304,N,00952.0736560,E,2,9,1.2,-1.846,M,40.593,M,3.4,0123*59\r\n
$GPGGA,082158.75,5703.4306971,N,00952.0737456,E,2,9,1.2,-1.847,M,40.593,M,3.4,0123*51\r\n
$GPGGA,082158.80,5703.4306632,N,00952.0738341,E,2,9,1.2,-1.850,M,40.593,M,3.4,0123*5B\r\n
$GPGGA,082158.85,5703.4306289,N,00952.0739202,E,2,9,1.2,-1.848,M,40.593,M,3.6,0123*56\r\n
$GPGGA,082158.90,5703.4305947,N,00952.0740045,E,2,9,1.2,-1.845,M,40.593,M,3.6,0123*5A\r\n
$GPGGA,082158.95,5703.4305581,N,00952.0740887,E,2,9,1.2,-1.840,M,40.593,M,3.6,0123*5A\r\n
$GPGGA,082159.00,5703.4305208,N,00952.0741711,E,2,9,1.2,-1.835,M,40.593,M,3.6,0123*52\r\n
$GPGGA,082159.05,5703.4304810,N,00952.0742529,E,2,9,1.2,-1.837,M,40.593,M,3.8,0123*53\r\n
$GPGGA,082159.10,5703.4304412,N,00952.0743337,E,2,9,1.2,-1.832,M,40.593,M,3.8,0123*54\r\n
$GPGGA,082159.15,5703.4303999,N,00952.0744144,E,2,9,1.2,-1.831,M,40.593,M,3.8,0123*5A\r\n
$GPGGA,082159.20,5703.4303577,N,00952.0744943,E,2,9,1.2,-1.829,M,40.593,M,3.8,0123*56\r\n
$GPGGA,082159.25,5703.4303158,N,00952.0745739,E,2,9,1.2,-1.835,M,40.593,M,2.2,0123*5E\r\n
$GPGGA,082159.30,5703.4302718,N,00952.0746532,E,2,9,1.2,-1.837,M,40.593,M,2.2,0123*51\r\n
$GPGGA,082159.35,5703.4302264,N,00952.0747317,E,2,9,1.2,-1.841,M,40.593,M,2.2,0123*5B\r\n
$GPGGA,082159.40,5703.4301812,N,00952.0748094,E,2,9,1.2,-1.847,M,40.593,M,2.2,0123*50\r\n
$GPGGA,082159.45,5703.4301344,N,00952.0748859,E,2,9,1.2,-1.852,M,40.593,M,2.4,0123*56\r\n
$GPGGA,082159.50,5703.4300881,N,00952.0749600,E,2,9,1.2,-1.855,M,40.593,M,2.4,0123*55\r\n
$GPGGA,082159.55,5703.4300415,N,00952.0750297,E,2,9,1.2,-1.857,M,40.593,M,2.4,0123*51\r\n
$GPGGA,082159.60,5703.4299928,N,00952.0750975,E,2,9,1.2,-1.857,M,40.593,M,2.4,0123*52\r\n
$GPGGA,082159.65,5703.4299427,N,00952.0751653,E,2,9,1.2,-1.860,M,40.593,M,2.7,0123*58\r\n
$GPGGA,082159.70,5703.4298911,N,00952.0752303,E,2,9,1.2,-1.860,M,40.593,M,2.7,0123*56\r\n
$GPGGA,082159.75,5703.4298385,N,00952.0752914,E,2,9,1.2,-1.858,M,40.593,M,2.7,0123*53\r\n
$GPGGA,082159.80,5703.4297878,N,00952.0753510,E,2,9,1.2,-1.854,M,40.593,M,2.7,0123*5A\r\n
$GPGGA,082159.85,5703.4297366,N,00952.0754101,E,2,9,1.2,-1.848,M,40.593,M,2.9,0123*5B\r\n
$GPGGA,082159.90,5703.4296864,N,00952.0754681,E,2,9,1.2,-1.844,M,40.593,M,2.9,0123*54\r\n
$GPGGA,082159.95,5703.4296340,N,00952.0755268,E,2,9,1.2,-1.843,M,40.593,M,2.9,0123*59\r\n
$GPGGA,082200.00,5703.4295786,N,00952.0755830,E,2,9,1.2,-1.846,M,40.593,M,2.9,0123*55\r\n
$GPGGA,082200.05,5703.4295230,N,00952.0756404,E,2,9,1.2,-1.848,M,40.593,M,3.2,0123*54\r\n
$GPGGA,082200.10,5703.4294669,N,00952.0756947,E,2,9,1.2,-1.849,M,40.593,M,3.2,0123*52\r\n
$GPGGA,082200.15,5703.4294106,N,00952.0757454,E,2,9,1.2,-1.850,M,40.593,M,3.2,0123*5F\r\n
$GPGGA,082200.20,5703.4293532,N,00952.0757899,E,2,9,1.2,-1.849,M,40.593,M,3.2,0123*58\r\n
$GPGGA,082200.25,5703.4292956,N,00952.0758323,E,2,9,1.2,-1.847,M,40.593,M,2.0,0123*5A\r\n
$GPGGA,082200.30,5703.4292367,N,00952.0758735,E,2,9,1.2,-1.847,M,40.593,M,2.0,0123*55\r\n
$GPGGA,082200.35,5703.4291767,N,00952.0759101,E,2,9,1.2,-1.849,M,40.593,M,2.0,0123*59\r\n
$GPGGA,082200.40,5703.4291159,N,00952.0759453,E,2,9,1.2,-1.853,M,40.593,M,2.0,0123*59\r\n
$GPGGA,082200.45,5703.4290536,N,00952.0759779,E,2,9,1.2,-1.862,M,40.593,M,2.2,0123*5B\r\n
$GPGGA,082200.50,5703.4289930,N,00952.0760068,E,2,9,1.2,-1.861,M,40.593,M,2.2,0123*53\r\n
$GPGGA,082200.55,5703.4289325,N,00952.0760314,E,2,9,1.2,-1.863,M,40.593,M,2.2,0123*52\r\n
$GPGGA,082200.60,5703.4288711,N,00952.0760560,E,2,9,1.2,-1.865,M,40.593,M,2.2,0123*55\r\n
$GPGGA,082200.65,5703.4288115,N,00952.0760795,E,2,9,1.2,-1.853,M,40.593,M,2.4,0123*59\r\n
$GPGGA,082200.70,5703.4287493,N,00952.0761042,E,2,9,1.2,-1.854,M,40.593,M,2.4,0123*52\r\n
$GPGGA,082200.75,5703.4286840,N,00952.0761242,E,2,9,1.2,-1.859,M,40.593,M,2.4,0123*5B\r\n
$GPGGA,082200.80,5703.4286195,N,00952.0761390,E,2,9,1.2,-1.860,M,40.593,M,2.4,0123*54\r\n
$GPGGA,082200.85,5703.4285575,N,00952.0761502,E,2,9,1.2,-1.858,M,40.593,M,2.7,0123*5D\r\n
$GPGGA,082200.90,5703.4284935,N,00952.0761600,E,2,9,1.2,-1.858,M,40.593,M,2.7,0123*51\r\n
$GPGGA,082200.95,5703.4284297,N,00952.0761692,E,2,9,1.2,-1.860,M,40.593,M,2.7,0123*57\r\n
$GPGGA,082201.00,5703.4283653,N,00952.0761744,E,2,9,1.2,-1.861,M,40.593,M,2.7,0123*5A\r\n
$GPGGA,082201.05,5703.4282983,N,00952.0761774,E,2,9,1.2,-1.864,M,40.593,M,2.9,0123*54\r\n
$GPGGA,082201.10,5703.4282327,N,00952.0761791,E,2,9,1.2,-1.870,M,40.593,M,2.9,0123*5A\r\n
$GPGGA,082201.15,5703.4281682,N,00952.0761775,E,2,9,1.2,-1.873,M,40.593,M,2.9,0123*5F\r\n
$GPGGA,082201.20,5703.4281044,N,00952.0761718,E,2,9,1.2,-1.870,M,40.593,M,2.9,0123*5D\r\n
$GPGGA,082201.25,5703.4280397,N,00952.0761635,E,2,9,1.2,-1.869,M,40.593,M,1.9,0123*51\r\n
$GPGGA,082201.30,5703.4279740,N,00952.0761544,E,2,9,1.2,-1.870,M,40.593,M,1.9,0123*50\r\n
$GPGGA,082201.35,5703.4279089,N,00952.0761421,E,2,9,1.2,-1.870,M,40.593,M,1.9,0123*55\r\n
$GPGGA,082201.40,5703.4278440,N,00952.0761291,E,2,9,1.2,-1.869,M,40.593,M,1.9,0123*52\r\n
$GPGGA,082201.45,5703.4277796,N,00952.0761140,E,2,9,1.2,-1.865,M,40.593,M,2.1,0123*58\r\n
$GPGGA,082201.50,5703.4277154,N,00952.0760949,E,2,9,1.2,-1.862,M,40.593,M,2.1,0123*53\r\n
$GPGGA,082201.55,5703.4276502,N,00952.0760735,E,2,9,1.2,-1.864,M,40.593,M,2.1,0123*53\r\n
$GPGGA,082201.60,5703.4275841,N,00952.0760500,E,2,9,1.2,-1.865,M,40.593,M,2.1,0123*59\r\n
$GPGGA,082201.65,5703.4275196,N,00952.0760269,E,2,9,1.2,-1.868,M,40.593,M,2.3,0123*58\r\n
$GPGGA,082201.70,5703.4274535,N,00952.0760011,E,2,9,1.2,-1.868,M,40.593,M,2.3,0123*5D\r\n
$GPGGA,082201.75,5703.4273873,N,00952.0759723,E,2,9,1.2,-1.870,M,40.593,M,2.3,0123*55\r\n
$GPGGA,082201.80,5703.4273217,N,00952.0759392,E,2,9,1.2,-1.870,M,40.593,M,2.3,0123*59\r\n
$GPGGA,082201.85,5703.4272570,N,00952.0759031,E,2,9,1.2,-1.872,M,40.593,M,2.6,0123*56\r\n
$GPGGA,082201.90,5703.4271943,N,00952.0758656,E,2,9,1.2,-1.874,M,40.593,M,2.6,0123*5D\r\n
$GPGGA,082201.95,5703.4271313,N,00952.0758273,E,2,9,1.2,-1.876,M,40.593,M,2.6,0123*56\r\n
$GPGGA,082202.00,5703.4270672,N,00952.0757856,E,2,9,1.2,-1.879,M,40.593,M,2.6,0123*57\r\n
$GPGGA,082202.05,5703.4270018,N,00952.0757420,E,2,9,1.2,-1.884,M,40.593,M,2.8,0123*59\r\n
$GPGGA,082202.10,5703.4269373,N,00952.0756944,E,2,9,1.2,-1.886,M,40.593,M,2.8,0123*57\r\n
$GPGGA,082202.15,5703.4268730,N,00952.0756455,E,2,9,1.2,-1.887,M,40.593,M,2.8,0123*5C\r\n
$GPGGA,082202.20,5703.4268097,N,00952.0755946,E,2,9,1.2,-1.889,M,40.593,M,2.8,0123*52\r\n
$GPGGA,082202.25,5703.4267462,N,00952.0755407,E,2,9,1.2,-1.891,M,40.593,M,3.0,0123*5E\r\n
$GPGGA,082202.30,5703.4266857,N,00952.0754816,E,2,9,1.2,-1.892,M,40.593,M,3.0,0123*5F\r\n
$GPGGA,082202.35,5703.4266252,N,00952.0754187,E,2,9,1.2,-1.890,M,40.593,M,3.0,0123*56\r\n
$GPGGA,082202.40,5703.4265651,N,00952.0753534,E,2,9,1.2,-1.888,M,40.593,M,3.0,0123*52\r\n
$GPGGA,082202.45,5703.4265053,N,00952.0752870,E,2,9,1.2,-1.891,M,40.593,M,3.2,0123*55\r\n
$GPGGA,082202.50,5703.4264459,N,00952.0752216,E,2,9,1.2,-1.894,M,40.593,M,3.2,0123*51\r\n
$GPGGA,082202.55,5703.4263893,N,00952.0751522,E,2,9,1.2,-1.889,M,40.593,M,3.2,0123*56\r\n
$GPGGA,082202.60,5703.4263323,N,00952.0750793,E,2,9,1.2,-1.882,M,40.593,M,3.2,0123*52\r\n
$GPGGA,082202.65,5703.4262778,N,00952.0750054,E,2,9,1.2,-1.869,M,40.593,M,3.4,0123*53\r\n
$GPGGA,082202.70,5703.4262233,N,00952.0749318,E,2,9,1.2,-1.863,M,40.593,M,3.4,0123*54\r\n
$GPGGA,082202.75,5703.4261684,N,00952.0748550,E,2,9,1.2,-1.857,M,40.593,M,3.4,0123*56\r\n
$GPGGA,082202.80,5703.4261131,N,00952.0747760,E,2,9,1.2,-1.853,M,40.593,M,3.4,0123*5F\r\n
$GPGGA,082202.85,5703.4260592,N,00952.0746948,E,2,9,1.2,-1.855,M,40.593,M,3.6,0123*57\r\n
$GPGGA,082202.90,5703.4260077,N,00952.0746121,E,2,9,1.2,-1.852,M,40.593,M,3.6,0123*5D\r\n
$GPGGA,082202.95,5703.4259559,N,00952.0745299,E,2,9,1.2,-1.851,M,40.593,M,3.6,0123*5B\r\n
$GPGGA,082203.00,5703.4259043,N,00952.0744453,E,2,9,1.2,-1.849,M,40.593,M,3.6,0123*50\r\n
$GPGGA,082203.05,5703.4258534,N,00952.0743589,E,2,9,1.2,-1.850,M,40.593,M,3.8,0123*56\r\n
$GPGGA,082203.10,5703.4258040,N,00952.0742686,E,2,9,1.2,-1.849,M,40.593,M,3.8,0123*51\r\n
$GPGGA,082203.15,5703.4257543,N,00952.0741784,E,2,9,1.2,-1.847,M,40.593,M,3.8,0123*53\r\n
$GPGGA,082203.20,5703.4257065,N,00952.0740868,E,2,9,1.2,-1.847,M,40.593,M,3.8,0123*58\r\n
$GPGGA,082203.25,5703.4256605,N,00952.0739929,E,2,9,1.2,-1.854,M,40.593,M,2.2,0123*5F\r\n
$GPGGA,082203.30,5703.4256151,N,00952.0738964,E,2,9,1.2,-1.854,M,40.593,M,2.2,0123*55\r\n
$GPGGA,082203.35,5703.4255708,N,00952.0738004,E,2,9,1.2,-1.855,M,40.593,M,2.2,0123*57\r\n
$GPGGA,082203.40,5703.4255267,N,00952.0737032,E,2,9,1.2,-1.856,M,40.593,M,2.2,0123*50\r\n
$GPGGA,082203.45,5703.4254845,N,00952.0736027,E,2,9,1.2,-1.857,M,40.593,M,2.4,0123*5C\r\n
$GPGGA,082203.50,5703.4254447,N,00952.0735017,E,2,9,1.2,-1.859,M,40.593,M,2.4,0123*58\r\n
$GPGGA,082203.55,5703.4254059,N,00952.0733991,E,2,9,1.2,-1.861,M,40.593,M,2.4,0123*5C\r\n
$GPGGA,082203.60,5703.4253657,N,00952.0732952,E,2,9,1.2,-1.863,M,40.593,M,2.4,0123*59\r\n
$GPGGA,082203.65,5703.4253274,N,00952.0731910,E,2,9,1.2,-1.867,M,40.593,M,2.7,0123*5B\r\n
$GPGGA,082203.70,5703.4252905,N,00952.0730855,E,2,9,1.2,-1.869,M,40.593,M,2.7,0123*5C\r\n
$GPGGA,082203.75,5703.4252562,N,00952.0729769,E,2,9,1.2,-1.869,M,40.593,M,2.7,0123*5C\r\n
$GPGGA,082203.80,5703.4252223,N,00952.0728672,E,2,9,1.2,-1.869,M,40.593,M,2.7,0123*5E\r\n
$GPGGA,082203.85,5703.4251900,N,00952.0727565,E,2,9,1.2,-1.871,M,40.593,M,2.9,0123*5F\r\n
$GPGGA,082203.90,5703.4251610,N,00952.0726458,E,2,9,1.2,-1.872,M,40.593,M,2.9,0123*58\r\n
$GPGGA,082203.95,5703.4251323,N,00952.0725345,E,2,9,1.2,-1.872,M,40.593,M,2.9,0123*50\r\n
$GPGGA,082204.00,5703.4251031,N,00952.0724231,E,2,9,1.2,-1.871,M,40.593,M,2.9,0123*5B\r\n
$GPGGA,082204.05,5703.4250744,N,00952.0723122,E,2,9,1.2,-1.878,M,40.593,M,3.2,0123*5F\r\n
$GPGGA,082204.10,5703.4250505,N,00952.0721987,E,2,9,1.2,-1.882,M,40.593,M,3.2,0123*5C\r\n
$GPGGA,082204.15,5703.4250268,N,00952.0720840,E,2,9,1.2,-1.884,M,40.593,M,3.2,0123*58\r\n
$GPGGA,082204.20,5703.4250048,N,00952.0719693,E,2,9,1.2,-1.884,M,40.593,M,3.2,0123*54\r\n
$GPGGA,082204.25,5703.4249834,N,00952.0718538,E,2,9,1.2,-1.881,M,40.593,M,2.0,0123*5F\r\n
$GPGGA,082204.30,5703.4249625,N,00952.0717380,E,2,9,1.2,-1.880,M,40.593,M,2.0,0123*5E\r\n
$GPGGA,082204.35,5703.4249430,N,00952.0716224,E,2,9,1.2,-1.881,M,40.593,M,2.0,0123*52\r\n
$GPGGA,082204.40,5703.4249252,N,00952.0715072,E,2,9,1.2,-1.880,M,40.593,M,2.0,0123*51\r\n
$GPGGA,082204.45,5703.4249090,N,00952.0713912,E,2,9,1.2,-1.879,M,40.593,M,2.2,0123*55\r\n
$GPGGA,082204.50,5703.4248955,N,00952.0712748,E,2,9,1.2,-1.880,M,40.593,M,2.2,0123*56\r\n
$GPGGA,082204.55,5703.4248821,N,00952.0711585,E,2,9,1.2,-1.878,M,40.593,M,2.2,0123*56\r\n
$GPGGA,082204.60,5703.4248677,N,00952.0710425,E,2,9,1.2,-1.875,M,40.593,M,2.2,0123*5A\r\n
$GPGGA,082204.65,5703.4248569,N,00952.0709269,E,2,9,1.2,-1.873,M,40.593,M,2.4,0123*55\r\n
$GPGGA,082204.70,5703.4248475,N,00952.0708119,E,2,9,1.2,-1.872,M,40.593,M,2.4,0123*59\r\n
$GPGGA,082204.75,5703.4248394,N,00952.0706963,E,2,9,1.2,-1.870,M,40.593,M,2.4,0123*5D\r\n
$GPGGA,082204.80,5703.4248317,N,00952.0705789,E,2,9,1.2,-1.867,M,40.593,M,2.4,0123*53\r\n
$GPGGA,082204.85,5703.4248255,N,00952.0704627,E,2,9,1.2,-1.870,M,40.593,M,2.7,0123*50\r\n
$GPGGA,082204.90,5703.4248219,N,00952.0703481,E,2,9,1.2,-1.871,M,40.593,M,2.7,0123*54\r\n
$GPGGA,082204.95,5703.4248208,N,00952.0702327,E,2,9,1.2,-1.869,M,40.593,M,2.7,0123*52\r\n
$GPGGA,082205.00,5703.4248185,N,00952.0701170,E,2,9,1.2,-1.871,M,40.593,M,2.7,0123*53\r\n
$GPGGA,082205.05,5703.4248177,N,00952.0700016,E,2,9,1.2,-1.874,M,40.593,M,2.9,0123*50\r\n
$GPGGA,082205.10,5703.4248180,N,00952.0698876,E,2,9,1.2,-1.874,M,40.593,M,2.9,0123*52\r\n
$GPGGA,082205.15,5703.4248207,N,00952.0697746,E,2,9,1.2,-1.873,M,40.593,M,2.9,0123*5F\r\n
$GPGGA,082205.20,5703.4248236,N,00952.0696619,E,2,9,1.2,-1.877,M,40.593,M,2.9,0123*55\r\n
$GPGGA,082205.25,5703.4248269,N,00952.0695478,E,2,9,1.2,-1.877,M,40.593,M,1.9,0123*5F\r\n
$GPGGA,082205.30,5703.4248320,N,00952.0694357,E,2,9,1.2,-1.877,M,40.593,M,1.9,0123*5C\r\n
$GPGGA,082205.35,5703.4248379,N,00952.0693235,E,2,9,1.2,-1.876,M,40.593,M,1.9,0123*56\r\n
$GPGGA,082205.40,5703.4248449,N,00952.0692117,E,2,9,1.2,-1.875,M,40.593,M,1.9,0123*51\r\n
$GPGGA,082205.45,5703.4248534,N,00952.0691005,E,2,9,1.2,-1.873,M,40.593,M,2.1,0123*53\r\n
$GPGGA,082205.50,5703.4248635,N,00952.0689895,E,2,9,1.2,-1.874,M,40.593,M,2.1,0123*5A\r\n
$GPGGA,082205.55,5703.4248753,N,00952.0688798,E,2,9,1.2,-1.873,M,40.593,M,2.1,0123*5A\r\n
$GPGGA,082205.60,5703.4248876,N,00952.0687727,E,2,9,1.2,-1.872,M,40.593,M,2.1,0123*5E\r\n
$GPGGA,082205.65,5703.4249015,N,00952.0686682,E,2,9,1.2,-1.876,M,40.593,M,2.3,0123*5E\r\n
$GPGGA,082205.70,5703.4249165,N,00952.0685637,E,2,9,1.2,-1.876,M,40.593,M,2.3,0123*51\r\n
$GPGGA,082205.75,5703.4249313,N,00952.0684590,E,2,9,1.2,-1.875,M,40.593,M,2.3,0123*5B\r\n
$GPGGA,082205.80,5703.4249472,N,00952.0683557,E,2,9,1.2,-1.872,M,40.593,M,2.3,0123*5A\r\n
$GPGGA,082205.85,5703.4249644,N,00952.0682553,E,2,9,1.2,-1.872,M,40.593,M,2.6,0123*58\r\n
$GPGGA,082205.90,5703.4249844,N,00952.0681548,E,2,9,1.2,-1.872,M,40.593,M,2.6,0123*5B\r\n
$GPGGA,082205.95,5703.4250035,N,00952.0680553,E,2,9,1.2,-1.872,M,40.593,M,2.6,0123*53\r\n
$GPGGA,082206.00,5703.4250228,N,00952.0679568,E,2,9,1.2,-1.871,M,40.593,M,2.6,0123*5F\r\n
$GPGGA,082206.05,5703.4250423,N,00952.0678589,E,2,9,1.2,-1.872,M,40.593,M,2.8,0123*54\r\n
$GPGGA,082206.10,5703.4250654,N,00952.0677632,E,2,9,1.2,-1.873,M,40.593,M,2.8,0123*5F\r\n
$GPGGA,082206.15,5703.4250891,N,00952.0676686,E,2,9,1.2,-1.875,M,40.593,M,2.8,0123*55\r\n
$GPGGA,082206.20,5703.4251135,N,00952.0675736,E,2,9,1.2,-1.875,M,40.593,M,2.8,0123*5C\r\n
$GPGGA,082206.25,5703.4251392,N,00952.0674808,E,2,9,1.2,-1.874,M,40.593,M,3.0,0123*5D\r\n
$GPGGA,082206.30,5703.4251667,N,00952.0673919,E,2,9,1.2,-1.875,M,40.593,M,3.0,0123*51\r\n
$GPGGA,082206.35,5703.4251952,N,00952.0673028,E,2,9,1.2,-1.877,M,40.593,M,3.0,0123*54\r\n
$GPGGA,082206.40,5703.4252242,N,00952.0672159,E,2,9,1.2,-1.880,M,40.593,M,3.0,0123*51\r\n
$GPGGA,082206.45,5703.4252528,N,00952.0671314,E,2,9,1.2,-1.884,M,40.593,M,3.2,0123*51\r\n
$GPGGA,082206.50,5703.4252829,N,00952.0670477,E,2,9,1.2,-1.885,M,40.593,M,3.2,0123*5B\r\n
$GPGGA,082206.55,5703.4253145,N,00952.0669676,E,2,9,1.2,-1.888,M,40.593,M,3.2,0123*5A\r\n
$GPGGA,082206.60,5703.4253479,N,00952.0668901,E,2,9,1.2,-1.889,M,40.593,M,3.2,0123*59\r\n
$GPGGA,082206.65,5703.4253826,N,00952.0668144,E,2,9,1.2,-1.888,M,40.593,M,3.4,0123*54\r\n
$GPGGA,082206.70,5703.4254160,N,00952.0667394,E,2,9,1.2,-1.887,M,40.593,M,3.4,0123*53\r\n
$GPGGA,082206.75,5703.4254508,N,00952.0666650,E,2,9,1.2,-1.887,M,40.593,M,3.4,0123*50\r\n
$GPGGA,082206.80,5703.4254866,N,00952.0665915,E,2,9,1.2,-1.887,M,40.593,M,3.4,0123*52\r\n
$GPGGA,082206.85,5703.4255242,N,00952.0665187,E,2,9,1.2,-1.886,M,40.593,M,3.6,0123*5A\r\n
$GPGGA,082206.90,5703.4255610,N,00952.0664495,E,2,9,1.2,-1.883,M,40.593,M,3.6,0123*5F\r\n
$GPGGA,082206.95,5703.4255975,N,00952.0663836,E,2,9,1.2,-1.883,M,40.593,M,3.6,0123*54\r\n
$GPGGA,082207.00,5703.4256358,N,00952.0663183,E,2,9,1.2,-1.883,M,40.593,M,3.6,0123*58\r\n
$GPGGA,082207.05,5703.4256739,N,00952.0662575,E,2,9,1.2,-1.890,M,40.593,M,3.8,0123*5E\r\n
$GPGGA,082207.10,5703.4257142,N,00952.0661957,E,2,9,1.2,-1.890,M,40.593,M,3.8,0123*5E\r\n
$GPGGA,082207.15,5703.4257555,N,00952.0661347,E,2,9,1.2,-1.890,M,40.593,M,3.8,0123*52\r\n
$GPGGA,082207.20,5703.4257943,N,00952.0660779,E,2,9,1.2,-1.894,M,40.593,M,3.8,0123*53\r\n
$GPGGA,082207.25,5703.4258351,N,00952.0660217,E,2,9,1.2,-1.891,M,40.593,M,2.2,0123*53\r\n
$GPGGA,082207.30,5703.4258785,N,00952.0659662,E,2,9,1.2,-1.890,M,40.593,M,2.2,0123*57\r\n
$GPGGA,082207.35,5703.4259218,N,00952.0659125,E,2,9,1.2,-1.889,M,40.593,M,2.2,0123*5E\r\n
$GPGGA,082207.40,5703.4259652,N,00952.0658603,E,2,9,1.2,-1.885,M,40.593,M,2.2,0123*58\r\n
$GPGGA,082207.45,5703.4260080,N,00952.0658112,E,2,9,1.2,-1.884,M,40.593,M,2.4,0123*5E\r\n
$GPGGA,082207.50,5703.4260518,N,00952.0657637,E,2,9,1.2,-1.885,M,40.593,M,2.4,0123*50\r\n
$GPGGA,082207.55,5703.4260952,N,00952.0657184,E,2,9,1.2,-1.883,M,40.593,M,2.4,0123*5E\r\n
$GPGGA,082207.60,5703.4261399,N,00952.0656744,E,2,9,1.2,-1.878,M,40.593,M,2.4,0123*5B\r\n
$GPGGA,082207.65,5703.4261858,N,00952.0656313,E,2,9,1.2,-1.871,M,40.593,M,2.7,0123*54\r\n
$GPGGA,082207.70,5703.4262308,N,00952.0655915,E,2,9,1.2,-1.868,M,40.593,M,2.7,0123*5A\r\n
$GPGGA,082207.75,5703.4262748,N,00952.0655549,E,2,9,1.2,-1.869,M,40.593,M,2.7,0123*5B\r\n
$GPGGA,082207.80,5703.4263191,N,00952.0655207,E,2,9,1.2,-1.869,M,40.593,M,2.7,0123*5F\r\n
$GPGGA,082207.85,5703.4263654,N,00952.0654859,E,2,9,1.2,-1.869,M,40.593,M,2.9,0123*5A\r\n
$GPGGA,082207.90,5703.4264132,N,00952.0654533,E,2,9,1.2,-1.867,M,40.593,M,2.9,0123*51\r\n
$GPGGA,082207.95,5703.4264605,N,00952.0654227,E,2,9,1.2,-1.867,M,40.593,M,2.9,0123*55\r\n
$GPGGA,082208.00,5703.4265079,N,00952.0653953,E,2,9,1.2,-1.868,M,40.593,M,2.9,0123*5A\r\n
$GPGGA,082208.05,5703.4265546,N,00952.0653696,E,2,9,1.2,-1.871,M,40.593,M,3.2,0123*52\r\n
$GPGGA,082208.10,5703.4266030,N,00952.0653446,E,2,9,1.2,-1.870,M,40.593,M,3.2,0123*5F\r\n
$GPGGA,082208.15,5703.4266519,N,00952.0653233,E,2,9,1.2,-1.872,M,40.593,M,3.2,0123*52\r\n
$GPGGA,082208.20,5703.4267007,N,00952.0653047,E,2,9,1.2,-1.874,M,40.593,M,3.2,0123*58\r\n
$GPGGA,082208.25,5703.4267486,N,00952.0652888,E,2,9,1.2,-1.883,M,40.593,M,2.0,0123*51\r\n
$GPGGA,082208.30,5703.4267979,N,00952.0652747,E,2,9,1.2,-1.883,M,40.593,M,2.0,0123*54\r\n
$GPGGA,082208.35,5703.4268471,N,00952.0652633,E,2,9,1.2,-1.884,M,40.593,M,2.0,0123*5E\r\n
$GPGGA,082208.40,5703.4268949,N,00952.0652532,E,2,9,1.2,-1.884,M,40.593,M,2.0,0123*58\r\n
$GPGGA,082208.45,5703.4269440,N,00952.0652443,E,2,9,1.2,-1.888,M,40.593,M,2.2,0123*51\r\n
$GPGGA,082208.50,5703.4269936,N,00952.0652364,E,2,9,1.2,-1.888,M,40.593,M,2.2,0123*5B\r\n
$GPGGA,082208.55,5703.4270425,N,00952.0652329,E,2,9,1.2,-1.888,M,40.593,M,2.2,0123*50\r\n
$GPGGA,082208.60,5703.4270906,N,00952.0652313,E,2,9,1.2,-1.887,M,40.593,M,2.2,0123*5C\r\n
$GPGGA,082208.65,5703.4271400,N,00952.0652305,E,2,9,1.2,-1.887,M,40.593,M,2.4,0123*52\r\n
$GPGGA,082208.70,5703.4271890,N,00952.0652324,E,2,9,1.2,-1.887,M,40.593,M,2.4,0123*50\r\n
$GPGGA,082208.75,5703.4272374,N,00952.0652370,E,2,9,1.2,-1.885,M,40.593,M,2.4,0123*54\r\n
$GPGGA,082208.80,5703.4272853,N,00952.0652443,E,2,9,1.2,-1.883,M,40.593,M,2.4,0123*51\r\n
$GPGGA,082208.85,5703.4273353,N,00952.0652517,E,2,9,1.2,-1.875,M,40.593,M,2.7,0123*54\r\n
$GPGGA,082208.90,5703.4273838,N,00952.0652609,E,2,9,1.2,-1.873,M,40.593,M,2.7,0123*5C\r\n
$GPGGA,082208.95,5703.4274311,N,00952.0652727,E,2,9,1.2,-1.870,M,40.593,M,2.7,0123*50\r\n
$GPGGA,082209.00,5703.4274796,N,00952.0652873,E,2,9,1.2,-1.866,M,40.593,M,2.7,0123*5F\r\n
$GPGGA,082209.05,5703.4275260,N,00952.0653059,E,2,9,1.2,-1.867,M,40.593,M,2.9,0123*59\r\n
$GPGGA,082209.10,5703.4275730,N,00952.0653262,E,2,9,1.2,-1.867,M,40.593,M,2.9,0123*57\r\n
$GPGGA,082209.15,5703.4276203,N,00952.0653480,E,2,9,1.2,-1.865,M,40.593,M,2.9,0123*5C\r\n
$GPGGA,082209.20,5703.4276680,N,00952.0653703,E,2,9,1.2,-1.863,M,40.593,M,2.9,0123*5B\r\n
$GPGGA,082209.25,5703.4277152,N,00952.0653950,E,2,9,1.2,-1.865,M,40.593,M,1.9,0123*5A\r\n
$GPGGA,082209.30,5703.4277629,N,00952.0654209,E,2,9,1.2,-1.864,M,40.593,M,1.9,0123*54\r\n
$GPGGA,082209.35,5703.4278099,N,00952.0654486,E,2,9,1.2,-1.865,M,40.593,M,1.9,0123*53\r\n
$GPGGA,082209.40,5703.4278565,N,00952.0654772,E,2,9,1.2,-1.865,M,40.593,M,1.9,0123*5F\r\n
$GPGGA,082209.45,5703.4279037,N,00952.0655060,E,2,9,1.2,-1.872,M,40.593,M,2.1,0123*51\r\n
$GPGGA,082209.50,5703.4279512,N,00952.0655378,E,2,9,1.2,-1.873,M,40.593,M,2.1,0123*5C\r\n
$GPGGA,082209.55,5703.4279964,N,00952.0655732,E,2,9,1.2,-1.872,M,40.593,M,2.1,0123*5F\r\n
$GPGGA,082209.60,5703.4280413,N,00952.0656106,E,2,9,1.2,-1.873,M,40.593,M,2.1,0123*51\r\n
$GPGGA,082209.65,5703.4280858,N,00952.0656501,E,2,9,1.2,-1.873,M,40.593,M,2.3,0123*56\r\n
$GPGGA,082209.70,5703.4281309,N,00952.0656904,E,2,9,1.2,-1.870,M,40.593,M,2.3,0123*56\r\n
$GPGGA,082209.75,5703.4281764,N,00952.0657311,E,2,9,1.2,-1.868,M,40.593,M,2.3,0123*5A\r\n
$GPGGA,082209.80,5703.4282217,N,00952.0657729,E,2,9,1.2,-1.866,M,40.593,M,2.3,0123*53\r\n
$GPGGA,082209.85,5703.4282654,N,00952.0658175,E,2,9,1.2,-1.862,M,40.593,M,2.6,0123*54\r\n
$GPGGA,082209.90,5703.4283091,N,00952.0658644,E,2,9,1.2,-1.863,M,40.593,M,2.6,0123*5A\r\n
$GPGGA,082209.95,5703.4283511,N,00952.0659143,E,2,9,1.2,-1.861,M,40.593,M,2.6,0123*51\r\n
$GPGGA,082210.00,5703.4283925,N,00952.0659650,E,2,9,1.2,-1.860,M,40.593,M,2.6,0123*5A\r\n
$GPGGA,082210.05,5703.4284320,N,00952.0660178,E,2,9,1.2,-1.864,M,40.593,M,2.8,0123*5A\r\n
$GPGGA,082210.10,5703.4284748,N,00952.0660712,E,2,9,1.2,-1.864,M,40.593,M,2.8,0123*5E\r\n
$GPGGA,082210.15,5703.4285174,N,00952.0661260,E,2,9,1.2,-1.865,M,40.593,M,2.8,0123*53\r\n
$GPGGA,082210.20,5703.4285581,N,00952.0661819,E,2,9,1.2,-1.866,M,40.593,M,2.8,0123*5C\r\n
$GPGGA,082210.25,5703.4285973,N,00952.0662398,E,2,9,1.2,-1.868,M,40.593,M,3.0,0123*5E\r\n
$GPGGA,082210.30,5703.4286360,N,00952.0663006,E,2,9,1.2,-1.869,M,40.593,M,3.0,0123*55\r\n
$GPGGA,082210.35,5703.4286744,N,00952.0663621,E,2,9,1.2,-1.870,M,40.593,M,3.0,0123*59\r\n
$GPGGA,082210.40,5703.4287124,N,00952.0664252,E,2,9,1.2,-1.870,M,40.593,M,3.0,0123*5D\r\n
$GPGGA,082210.45,5703.4287501,N,00952.0664892,E,2,9,1.2,-1.868,M,40.593,M,3.2,0123*56\r\n
$GPGGA,082210.50,5703.4287866,N,00952.0665565,E,2,9,1.2,-1.868,M,40.593,M,3.2,0123*5A\r\n
