$GPGGA,090022.45,5703.2877475,N,00952.3671860,E,2,9,1.2,-2.274,M,40.593,M,0.9,0123*51\r\n
$GPGGA,090022.50,5703.2877472,N,00952.3671857,E,2,9,1.2,-2.274,M,40.593,M,0.9,0123*56\r\n
$GPGGA,090022.55,5703.2877467,N,00952.3671851,E,2,9,1.2,-2.274,M,40.593,M,0.9,0123*51\r\n
$GPGGA,090022.60,5703.2877464,N,00952.3671849,E,2,9,1.2,-2.275,M,40.593,M,0.9,0123*5C\r\n
$GPGGA,090022.65,5703.2877467,N,00952.3671846,E,2,9,1.2,-2.272,M,40.593,M,1.3,0123*59\r\n
$GPGGA,090022.70,5703.2877462,N,00952.3671842,E,2,9,1.2,-2.272,M,40.593,M,1.3,0123*5C\r\n
$GPGGA,090022.75,5703.2877457,N,00952.3671836,E,2,9,1.2,-2.272,M,40.593,M,1.3,0123*5C\r\n
$GPGGA,090022.80,5703.2877452,N,00952.3671833,E,2,9,1.2,-2.272,M,40.593,M,1.3,0123*56\r\n
$GPGGA,090022.85,5703.2877447,N,00952.3671834,E,2,9,1.2,-2.273,M,40.593,M,1.6,0123*54\r\n
$GPGGA,090022.90,5703.2877443,N,00952.3671833,E,2,9,1.2,-2.273,M,40.593,M,1.6,0123*53\r\n
$GPGGA,090022.95,5703.2877440,N,00952.3671831,E,2,9,1.2,-2.273,M,40.593,M,1.6,0123*57\r\n
$GPGGA,090023.00,5703.2877433,N,00952.3671827,E,2,9,1.2,-2.273,M,40.593,M,1.6,0123*59\r\n
$GPGGA,090023.05,5703.2877424,N,00952.3671837,E,2,9,1.2,-2.270,M,40.593,M,1.9,0123*57\r\n
$GPGGA,090023.10,5703.2877417,N,00952.3671837,E,2,9,1.2,-2.270,M,40.593,M,1.9,0123*53\r\n
$GPGGA,090023.15,5703.2877413,N,00952.3671838,E,2,9,1.2,-2.270,M,40.593,M,1.9,0123*5D\r\n
$GPGGA,090023.20,5703.2877409,N,00952.3671837,E,2,9,1.2,-2.271,M,40.593,M,1.9,0123*5E\r\n
$GPGGA,090023.25,5703.2877414,N,00952.3671843,E,2,9,1.2,-2.268,M,40.593,M,2.2,0123*54\r\n
$GPGGA,090023.30,5703.2877409,N,00952.3671843,E,2,9,1.2,-2.268,M,40.593,M,2.2,0123*5C\r\n
$GPGGA,090023.35,5703.2877404,N,00952.3671842,E,2,9,1.2,-2.268,M,40.593,M,2.2,0123*55\r\n
$GPGGA,090023.40,5703.2877400,N,00952.3671843,E,2,9,1.2,-2.268,M,40.593,M,2.2,0123*52\r\n
$GPGGA,090023.45,5703.2877413,N,00952.3671838,E,2,9,1.2,-2.267,M,40.593,M,2.4,0123*50\r\n
$GPGGA,090023.50,5703.2877410,N,00952.3671840,E,2,9,1.2,-2.267,M,40.593,M,2.4,0123*58\r\n
$GPGGA,090023.55,5703.2877407,N,00952.3671842,E,2,9,1.2,-2.267,M,40.593,M,2.4,0123*59\r\n
$GPGGA,090023.60,5703.2877401,N,00952.3671841,E,2,9,1.2,-2.267,M,40.593,M,2.4,0123*5A\r\n
$GPGGA,090023.65,5703.2877401,N,00952.3671839,E,2,9,1.2,-2.267,M,40.593,M,2.7,0123*53\r\n
$GPGGA,090023.70,5703.2877400,N,00952.3671845,E,2,9,1.2,-2.267,M,40.593,M,2.7,0123*5D\r\n
$GPGGA,090023.75,5703.2877397,N,00952.3671850,E,2,9,1.2,-2.268,M,40.593,M,2.7,0123*5A\r\n
$GPGGA,090023.80,5703.2877393,N,00952.3671848,E,2,9,1.2,-2.268,M,40.593,M,2.7,0123*5D\r\n
$GPGGA,090023.85,5703.2877397,N,00952.3671858,E,2,9,1.2,-2.271,M,40.593,M,2.9,0123*5B\r\n
$GPGGA,090023.90,5703.2877395,N,00952.3671863,E,2,9,1.2,-2.271,M,40.593,M,2.9,0123*55\r\n
$GPGGA,090023.95,5703.2877392,N,00952.3671868,E,2,9,1.2,-2.271,M,40.593,M,2.9,0123*5C\r\n
$GPGGA,090024.00,5703.2877390,N,00952.3671871,E,2,9,1.2,-2.271,M,40.593,M,2.9,0123*5D\r\n
$GPGGA,090024.05,5703.2877390,N,00952.3671873,E,2,9,1.2,-2.262,M,40.593,M,3.2,0123*52\r\n
$GPGGA,090024.10,5703.2877389,N,00952.3671876,E,2,9,1.2,-2.263,M,40.593,M,3.2,0123*5A\r\n
$GPGGA,090024.15,5703.2877389,N,00952.3671884,E,2,9,1.2,-2.263,M,40.593,M,3.2,0123*52\r\n
$GPGGA,090024.20,5703.2877388,N,00952.3671889,E,2,8,1.2,-2.263,M,40.593,M,3.2,0123*59\r\n
$GPGGA,090024.25,5703.2877393,N,00952.3671895,E,2,8,1.2,-2.267,M,40.593,M,3.4,0123*59\r\n
$GPGGA,090024.30,5703.2877391,N,00952.3671897,E,2,8,1.2,-2.267,M,40.593,M,3.4,0123*5D\r\n
$GPGGA,090024.35,5703.2877389,N,00952.3671904,E,2,8,1.2,-2.268,M,40.593,M,3.4,0123*55\r\n
$GPGGA,090024.40,5703.2877388,N,00952.3671909,E,2,8,1.2,-2.268,M,40.593,M,3.4,0123*5B\r\n
$GPGGA,090024.45,5703.2877376,N,00952.3671906,E,2,8,1.2,-2.263,M,40.593,M,2.2,0123*5C\r\n
$GPGGA,090024.50,5703.2877377,N,00952.3671910,E,2,8,1.2,-2.263,M,40.593,M,2.2,0123*5E\r\n
$GPGGA,090024.55,5703.2877375,N,00952.3671913,E,2,8,1.2,-2.264,M,40.593,M,2.2,0123*5D\r\n
$GPGGA,090024.60,5703.2877377,N,00952.3671918,E,2,8,1.2,-2.264,M,40.593,M,2.2,0123*52\r\n
$GPGGA,090024.65,5703.2877391,N,00952.3671911,E,2,8,1.2,-2.266,M,40.593,M,2.4,0123*52\r\n
$GPGGA,090024.70,5703.2877393,N,00952.3671914,E,2,8,1.2,-2.266,M,40.593,M,2.4,0123*51\r\n
$GPGGA,090024.75,5703.2877391,N,00952.3671914,E,2,8,1.2,-2.267,M,40.593,M,2.4,0123*57\r\n
$GPGGA,090024.80,5703.2877394,N,00952.3671923,E,2,8,1.2,-2.267,M,40.593,M,2.4,0123*5C\r\n
$GPGGA,090024.85,5703.2877374,N,00952.3671928,E,2,9,1.2,-2.267,M,40.593,M,2.7,0123*5E\r\n
$GPGGA,090024.90,5703.2877374,N,00952.3671930,E,2,9,1.2,-2.267,M,40.593,M,2.7,0123*53\r\n
$GPGGA,090024.95,5703.2877373,N,00952.3671933,E,2,9,1.2,-2.267,M,40.593,M,2.7,0123*52\r\n
$GPGGA,090025.00,5703.2877372,N,00952.3671933,E,2,9,1.2,-2.268,M,40.593,M,2.7,0123*51\r\n
$GPGGA,090025.05,5703.2877344,N,00952.3671917,E,2,9,1.2,-2.265,M,40.593,M,2.9,0123*54\r\n
$GPGGA,090025.10,5703.2877342,N,00952.3671918,E,2,9,1.2,-2.265,M,40.593,M,2.9,0123*59\r\n
$GPGGA,090025.15,5703.2877341,N,00952.3671921,E,2,9,1.2,-2.265,M,40.593,M,2.9,0123*55\r\n
$GPGGA,090025.20,5703.2877340,N,00952.3671924,E,2,9,1.2,-2.266,M,40.593,M,2.9,0123*54\r\n
$GPGGA,090025.25,5703.2877337,N,00952.3671928,E,2,9,1.2,-2.265,M,40.593,M,3.1,0123*57\r\n
$GPGGA,090025.30,5703.2877335,N,00952.3671924,E,2,9,1.2,-2.266,M,40.593,M,3.1,0123*5E\r\n
$GPGGA,090025.35,5703.2877333,N,00952.3671923,E,2,9,1.2,-2.266,M,40.593,M,3.1,0123*5A\r\n
$GPGGA,090025.40,5703.2877331,N,00952.3671924,E,2,9,1.2,-2.266,M,40.593,M,3.1,0123*5D\r\n
$GPGGA,090025.45,5703.2877325,N,00952.3671913,E,2,9,1.2,-2.270,M,40.593,M,2.1,0123*5F\r\n
$GPGGA,090025.50,5703.2877323,N,00952.3671912,E,2,9,1.2,-2.270,M,40.593,M,2.1,0123*5C\r\n
$GPGGA,090025.55,5703.2877320,N,00952.3671911,E,2,9,1.2,-2.270,M,40.593,M,2.1,0123*59\r\n
$GPGGA,090025.60,5703.2877317,N,00952.3671910,E,2,9,1.2,-2.271,M,40.593,M,2.1,0123*5B\r\n
$GPGGA,090025.65,5703.2877302,N,00952.3671906,E,2,9,1.2,-2.268,M,40.593,M,2.3,0123*57\r\n
$GPGGA,090025.70,5703.2877302,N,00952.3671908,E,2,9,1.2,-2.269,M,40.593,M,2.3,0123*5C\r\n
$GPGGA,090025.75,5703.2877300,N,00952.3671908,E,2,9,1.2,-2.269,M,40.593,M,2.3,0123*5B\r\n
$GPGGA,090025.80,5703.2877298,N,00952.3671905,E,2,9,1.2,-2.269,M,40.593,M,2.3,0123*5C\r\n
$GPGGA,090025.85,5703.2877317,N,00952.3671903,E,2,9,1.2,-2.270,M,40.593,M,2.6,0123*54\r\n
$GPGGA,090025.90,5703.2877316,N,00952.3671903,E,2,9,1.2,-2.271,M,40.593,M,2.6,0123*50\r\n
$GPGGA,090025.95,5703.2877313,N,00952.3671903,E,2,9,1.2,-2.271,M,40.593,M,2.6,0123*50\r\n
$GPGGA,090026.00,5703.2877312,N,00952.3671903,E,2,9,1.2,-2.271,M,40.593,M,2.6,0123*5E\r\n
$GPGGA,090026.05,5703.2877298,N,00952.3671901,E,2,9,1.2,-2.268,M,40.593,M,2.8,0123*5C\r\n
$GPGGA,090026.10,5703.2877297,N,00952.3671901,E,2,9,1.2,-2.268,M,40.593,M,2.8,0123*57\r\n
$GPGGA,090026.15,5703.2877299,N,00952.3671900,E,2,9,1.2,-2.269,M,40.593,M,2.8,0123*5C\r\n
$GPGGA,090026.20,5703.2877297,N,00952.3671897,E,2,9,1.2,-2.269,M,40.593,M,2.8,0123*5B\r\n
$GPGGA,090026.25,5703.2877313,N,00952.3671886,E,2,9,1.2,-2.270,M,40.593,M,3.0,0123*52\r\n
$GPGGA,090026.30,5703.2877310,N,00952.3671882,E,2,9,1.2,-2.270,M,40.593,M,3.0,0123*51\r\n
$GPGGA,090026.35,5703.2877312,N,00952.3671878,E,2,9,1.2,-2.271,M,40.593,M,3.0,0123*52\r\n
$GPGGA,090026.40,5703.2877313,N,00952.3671873,E,2,9,1.2,-2.271,M,40.593,M,3.0,0123*5A\r\n
$GPGGA,090026.45,5703.2877314,N,00952.3671856,E,2,9,1.2,-2.269,M,40.593,M,3.2,0123*54\r\n
$GPGGA,090026.50,5703.2877315,N,00952.3671853,E,2,9,1.2,-2.269,M,40.593,M,3.2,0123*54\r\n
$GPGGA,090026.55,5703.2877315,N,00952.3671849,E,2,9,1.2,-2.269,M,40.593,M,3.2,0123*5A\r\n
$GPGGA,090026.60,5703.2877317,N,00952.3671841,E,2,9,1.2,-2.270,M,40.593,M,3.2,0123*5E\r\n
$GPGGA,090026.65,5703.2877330,N,00952.3671828,E,2,9,1.2,-2.267,M,40.593,M,3.4,0123*51\r\n
$GPGGA,090026.70,5703.2877332,N,00952.3671820,E,2,9,1.2,-2.267,M,40.593,M,3.4,0123*5F\r\n
$GPGGA,090026.75,5703.2877335,N,00952.3671812,E,2,9,1.2,-2.267,M,40.593,M,3.4,0123*5C\r\n
$GPGGA,090026.80,5703.2877338,N,00952.3671803,E,2,9,1.2,-2.267,M,40.593,M,3.4,0123*5B\r\n
$GPGGA,090026.85,5703.2877357,N,00952.3671780,E,2,9,1.2,-2.265,M,40.593,M,3.6,0123*53\r\n
$GPGGA,090026.90,5703.2877361,N,00952.3671773,E,2,9,1.2,-2.265,M,40.593,M,3.6,0123*5E\r\n
$GPGGA,090026.95,5703.2877364,N,00952.3671764,E,2,9,1.2,-2.265,M,40.593,M,3.6,0123*58\r\n
$GPGGA,090027.00,5703.2877368,N,00952.3671754,E,2,9,1.2,-2.265,M,40.593,M,3.6,0123*5A\r\n
$GPGGA,090027.05,5703.2877361,N,00952.3671740,E,2,9,1.2,-2.261,M,40.593,M,3.8,0123*59\r\n
$GPGGA,090027.10,5703.2877365,N,00952.3671732,E,2,9,1.2,-2.260,M,40.593,M,3.8,0123*5D\r\n
$GPGGA,090027.15,5703.2877373,N,00952.3671723,E,2,9,1.2,-2.260,M,40.593,M,3.8,0123*5F\r\n
$GPGGA,090027.20,5703.2877379,N,00952.3671715,E,2,9,1.2,-2.260,M,40.593,M,3.8,0123*56\r\n
$GPGGA,090027.25,5703.2877396,N,00952.3671712,E,2,9,1.2,-2.260,M,40.593,M,4.0,0123*5A\r\n
$GPGGA,090027.30,5703.2877401,N,00952.3671701,E,2,9,1.2,-2.259,M,40.593,M,4.0,0123*5F\r\n
$GPGGA,090027.35,5703.2877408,N,00952.3671695,E,2,9,1.2,-2.258,M,40.593,M,4.0,0123*5E\r\n
$GPGGA,090027.40,5703.2877417,N,00952.3671685,E,2,9,1.2,-2.258,M,40.593,M,4.0,0123*53\r\n
$GPGGA,090027.45,5703.2877423,N,00952.3671691,E,2,9,1.2,-2.256,M,40.593,M,2.4,0123*58\r\n
$GPGGA,090027.50,5703.2877432,N,00952.3671686,E,2,9,1.2,-2.255,M,40.593,M,2.4,0123*59\r\n
$GPGGA,090027.55,5703.2877440,N,00952.3671680,E,2,9,1.2,-2.255,M,40.593,M,2.4,0123*5F\r\n
$GPGGA,090027.60,5703.2877448,N,00952.3671674,E,2,9,1.2,-2.254,M,40.593,M,2.4,0123*5B\r\n
$GPGGA,090027.65,5703.2877471,N,00952.3671690,E,2,9,1.2,-2.253,M,40.593,M,2.7,0123*5A\r\n
$GPGGA,090027.70,5703.2877483,N,00952.3671687,E,2,9,1.2,-2.253,M,40.593,M,2.7,0123*55\r\n
$GPGGA,090027.75,5703.2877495,N,00952.3671688,E,2,9,1.2,-2.252,M,40.593,M,2.7,0123*59\r\n
$GPGGA,090027.80,5703.2877509,N,00952.3671686,E,2,9,1.2,-2.251,M,40.593,M,2.7,0123*5A\r\n
$GPGGA,090027.85,5703.2877554,N,00952.3671705,E,2,9,1.2,-2.258,M,40.593,M,2.9,0123*5A\r\n
$GPGGA,090027.90,5703.2877567,N,00952.3671701,E,2,9,1.2,-2.258,M,40.593,M,2.9,0123*5A\r\n
$GPGGA,090027.95,5703.2877581,N,00952.3671705,E,2,9,1.2,-2.257,M,40.593,M,2.9,0123*5C\r\n
$GPGGA,090028.00,5703.2877596,N,00952.3671705,E,2,9,1.2,-2.257,M,40.593,M,2.9,0123*59\r\n
$GPGGA,090028.05,5703.2877578,N,00952.3671712,E,2,9,1.2,-2.254,M,40.593,M,3.2,0123*53\r\n
$GPGGA,090028.10,5703.2877593,N,00952.3671710,E,2,9,1.2,-2.254,M,40.593,M,3.2,0123*50\r\n
$GPGGA,090028.15,5703.2877607,N,00952.3671706,E,2,9,1.2,-2.253,M,40.593,M,3.2,0123*5B\r\n
$GPGGA,090028.20,5703.2877622,N,00952.3671704,E,2,9,1.2,-2.253,M,40.593,M,3.2,0123*58\r\n
$GPGGA,090028.25,5703.2877638,N,00952.3671691,E,2,9,1.2,-2.260,M,40.593,M,3.4,0123*5D\r\n
$GPGGA,090028.30,5703.2877650,N,00952.3671688,E,2,9,1.2,-2.260,M,40.593,M,3.4,0123*5F\r\n
$GPGGA,090028.35,5703.2877666,N,00952.3671686,E,2,9,1.2,-2.260,M,40.593,M,3.4,0123*51\r\n
$GPGGA,090028.40,5703.2877678,N,00952.3671682,E,2,9,1.2,-2.260,M,40.593,M,3.4,0123*58\r\n
$GPGGA,090028.45,5703.2877638,N,00952.3671678,E,2,9,1.2,-2.255,M,40.593,M,2.2,0123*5D\r\n
$GPGGA,090028.50,5703.2877650,N,00952.3671677,E,2,9,1.2,-2.255,M,40.593,M,2.2,0123*58\r\n
$GPGGA,090028.55,5703.2877663,N,00952.3671679,E,2,9,1.2,-2.254,M,40.593,M,2.2,0123*52\r\n
$GPGGA,090028.60,5703.2877674,N,00952.3671678,E,2,9,1.2,-2.255,M,40.593,M,2.2,0123*52\r\n
$GPGGA,090028.65,5703.2877668,N,00952.3671686,E,2,9,1.2,-2.259,M,40.593,M,2.4,0123*51\r\n
$GPGGA,090028.70,5703.2877678,N,00952.3671686,E,2,9,1.2,-2.259,M,40.593,M,2.4,0123*54\r\n
$GPGGA,090028.75,5703.2877684,N,00952.3671686,E,2,9,1.2,-2.259,M,40.593,M,2.4,0123*52\r\n
$GPGGA,090028.80,5703.2877694,N,00952.3671686,E,2,9,1.2,-2.259,M,40.593,M,2.4,0123*59\r\n
$GPGGA,090028.85,5703.2877656,N,00952.3671683,E,2,9,1.2,-2.257,M,40.593,M,2.7,0123*5A\r\n
$GPGGA,090028.90,5703.2877661,N,00952.3671681,E,2,9,1.2,-2.257,M,40.593,M,2.7,0123*58\r\n
$GPGGA,090028.95,5703.2877665,N,00952.3671677,E,2,9,1.2,-2.257,M,40.593,M,2.7,0123*50\r\n
$GPGGA,090029.00,5703.2877672,N,00952.3671677,E,2,9,1.2,-2.257,M,40.593,M,2.7,0123*5B\r\n
$GPGGA,090029.05,5703.2877639,N,00952.3671664,E,2,9,1.2,-2.256,M,40.593,M,2.9,0123*5C\r\n
$GPGGA,090029.10,5703.2877642,N,00952.3671667,E,2,9,1.2,-2.256,M,40.593,M,2.9,0123*57\r\n
$GPGGA,090029.15,5703.2877644,N,00952.3671668,E,2,9,1.2,-2.256,M,40.593,M,2.9,0123*5B\r\n
$GPGGA,090029.20,5703.2877646,N,00952.3671668,E,2,9,1.2,-2.256,M,40.593,M,2.9,0123*5F\r\n
$GPGGA,090029.25,5703.2877622,N,00952.3671699,E,2,9,1.2,-2.258,M,40.593,M,3.1,0123*51\r\n
$GPGGA,090029.30,5703.2877624,N,00952.3671704,E,2,9,1.2,-2.259,M,40.593,M,3.1,0123*57\r\n
$GPGGA,090029.35,5703.2877624,N,00952.3671708,E,2,9,1.2,-2.259,M,40.593,M,3.1,0123*5E\r\n
$GPGGA,090029.40,5703.2877626,N,00952.3671712,E,2,9,1.2,-2.260,M,40.593,M,3.1,0123*5F\r\n
$GPGGA,090029.45,5703.2877648,N,00952.3671717,E,2,9,1.2,-2.258,M,40.593,M,2.1,0123*5D\r\n
$GPGGA,090029.50,5703.2877647,N,00952.3671719,E,2,9,1.2,-2.258,M,40.593,M,2.1,0123*58\r\n
$GPGGA,090029.55,5703.2877644,N,00952.3671722,E,2,9,1.2,-2.258,M,40.593,M,2.1,0123*56\r\n
$GPGGA,090029.60,5703.2877645,N,00952.3671725,E,2,9,1.2,-2.259,M,40.593,M,2.1,0123*57\r\n
$GPGGA,090029.65,5703.2877626,N,00952.3671723,E,2,9,1.2,-2.256,M,40.593,M,2.3,0123*5C\r\n
$GPGGA,090029.70,5703.2877624,N,00952.3671726,E,2,9,1.2,-2.257,M,40.593,M,2.3,0123*5E\r\n
$GPGGA,090029.75,5703.2877618,N,00952.3671728,E,2,9,1.2,-2.257,M,40.593,M,2.3,0123*5A\r\n
$GPGGA,090029.80,5703.2877614,N,00952.3671730,E,2,9,1.2,-2.257,M,40.593,M,2.3,0123*55\r\n
$GPGGA,090029.85,5703.2877602,N,00952.3671726,E,2,9,1.2,-2.256,M,40.593,M,2.6,0123*54\r\n
$GPGGA,090029.90,5703.2877596,N,00952.3671725,E,2,9,1.2,-2.256,M,40.593,M,2.6,0123*5D\r\n
$GPGGA,090029.95,5703.2877588,N,00952.3671723,E,2,9,1.2,-2.256,M,40.593,M,2.6,0123*51\r\n
$GPGGA,090030.00,5703.2877584,N,00952.3671723,E,2,9,1.2,-2.256,M,40.593,M,2.6,0123*59\r\n
$GPGGA,090030.05,5703.2877582,N,00952.3671690,E,2,9,1.2,-2.248,M,40.593,M,2.8,0123*52\r\n
$GPGGA,090030.10,5703.2877576,N,00952.3671689,E,2,9,1.2,-2.248,M,40.593,M,2.8,0123*55\r\n
$GPGGA,090030.15,5703.2877571,N,00952.3671686,E,2,9,1.2,-2.248,M,40.593,M,2.8,0123*58\r\n
$GPGGA,090030.20,5703.2877565,N,00952.3671685,E,2,9,1.2,-2.248,M,40.593,M,2.8,0123*58\r\n
$GPGGA,090030.25,5703.2877558,N,00952.3671677,E,2,9,1.2,-2.250,M,40.593,M,3.0,0123*5E\r\n
$GPGGA,090030.30,5703.2877548,N,00952.3671676,E,2,9,1.2,-2.250,M,40.593,M,3.0,0123*5A\r\n
$GPGGA,090030.35,5703.2877541,N,00952.3671675,E,2,9,1.2,-2.250,M,40.593,M,3.0,0123*55\r\n
$GPGGA,090030.40,5703.2877535,N,00952.3671674,E,2,9,1.2,-2.250,M,40.593,M,3.0,0123*55\r\n
$GPGGA,090030.45,5703.2877527,N,00952.3671677,E,2,9,1.2,-2.242,M,40.593,M,3.2,0123*51\r\n
$GPGGA,090030.50,5703.2877520,N,00952.3671676,E,2,9,1.2,-2.242,M,40.593,M,3.2,0123*53\r\n
$GPGGA,090030.55,5703.2877513,N,00952.3671674,E,2,9,1.2,-2.241,M,40.593,M,3.2,0123*57\r\n
$GPGGA,090030.60,5703.2877504,N,00952.3671673,E,2,9,1.2,-2.241,M,40.593,M,3.2,0123*50\r\n
$GPGGA,090030.65,5703.2877519,N,00952.3671674,E,2,9,1.2,-2.251,M,40.593,M,3.4,0123*59\r\n
$GPGGA,090030.70,5703.2877513,N,00952.3671677,E,2,9,1.2,-2.251,M,40.593,M,3.4,0123*54\r\n
$GPGGA,090030.75,5703.2877504,N,00952.3671678,E,2,9,1.2,-2.251,M,40.593,M,3.4,0123*58\r\n
$GPGGA,090030.80,5703.2877495,N,00952.3671677,E,2,9,1.2,-2.251,M,40.593,M,3.4,0123*54\r\n
$GPGGA,090030.85,5703.2877481,N,00952.3671697,E,2,9,1.2,-2.249,M,40.593,M,3.6,0123*51\r\n
$GPGGA,090030.90,5703.2877472,N,00952.3671700,E,2,9,1.2,-2.249,M,40.593,M,3.6,0123*56\r\n
$GPGGA,090030.95,5703.2877463,N,00952.3671700,E,2,9,1.2,-2.249,M,40.593,M,3.6,0123*53\r\n
$GPGGA,090031.00,5703.2877457,N,00952.3671705,E,2,9,1.2,-2.249,M,40.593,M,3.6,0123*5C\r\n
$GPGGA,090031.05,5703.2877466,N,00952.3671705,E,2,9,1.2,-2.239,M,40.593,M,3.8,0123*52\r\n
$GPGGA,090031.10,5703.2877462,N,00952.3671712,E,2,9,1.2,-2.239,M,40.593,M,3.8,0123*54\r\n
$GPGGA,090031.15,5703.2877454,N,00952.3671716,E,2,9,1.2,-2.239,M,40.593,M,3.8,0123*50\r\n
$GPGGA,090031.20,5703.2877449,N,00952.3671723,E,2,9,1.2,-2.239,M,40.593,M,3.8,0123*5C\r\n
$GPGGA,090031.25,5703.2877468,N,00952.3671741,E,2,9,1.2,-2.244,M,40.593,M,4.0,0123*5B\r\n
$GPGGA,090031.30,5703.2877463,N,00952.3671746,E,2,9,1.2,-2.245,M,40.593,M,4.0,0123*52\r\n
$GPGGA,090031.35,5703.2877460,N,00952.3671755,E,2,9,1.2,-2.245,M,40.593,M,4.0,0123*56\r\n
$GPGGA,090031.40,5703.2877457,N,00952.3671762,E,2,9,1.2,-2.245,M,40.593,M,4.0,0123*54\r\n
$GPGGA,090031.45,5703.2877468,N,00952.3671778,E,2,9,1.2,-2.247,M,40.593,M,0.9,0123*59\r\n
$GPGGA,090031.50,5703.2877465,N,00952.3671786,E,2,9,1.2,-2.247,M,40.593,M,0.9,0123*51\r\n
$GPGGA,090031.55,5703.2877463,N,00952.3671793,E,2,9,1.2,-2.247,M,40.593,M,0.9,0123*56\r\n
$GPGGA,090031.60,5703.2877461,N,00952.3671802,E,2,9,1.2,-2.248,M,40.593,M,0.9,0123*5A\r\n
$GPGGA,090031.65,5703.2877477,N,00952.3671803,E,2,9,1.2,-2.246,M,40.593,M,1.2,0123*5D\r\n
$GPGGA,090031.70,5703.2877474,N,00952.3671812,E,2,9,1.2,-2.247,M,40.593,M,1.2,0123*5B\r\n
$GPGGA,090031.75,5703.2877473,N,00952.3671817,E,2,9,1.2,-2.247,M,40.593,M,1.2,0123*5C\r\n
$GPGGA,090031.80,5703.2877474,N,00952.3671822,E,2,9,1.2,-2.247,M,40.593,M,1.2,0123*57\r\n
$GPGGA,090031.85,5703.2877478,N,00952.3671813,E,2,9,1.2,-2.243,M,40.593,M,1.5,0123*5F\r\n
$GPGGA,090031.90,5703.2877476,N,00952.3671818,E,2,9,1.2,-2.243,M,40.593,M,1.5,0123*5E\r\n
$GPGGA,090031.95,5703.2877475,N,00952.3671824,E,2,9,1.2,-2.243,M,40.593,M,1.5,0123*57\r\n
$GPGGA,090032.00,5703.2877476,N,00952.3671828,E,2,9,1.2,-2.243,M,40.593,M,1.5,0123*57\r\n
$GPGGA,090032.05,5703.2877433,N,00952.3671817,E,2,9,1.2,-2.236,M,40.593,M,1.7,0123*5F\r\n
$GPGGA,090032.10,5703.2877431,N,00952.3671818,E,2,9,1.2,-2.236,M,40.593,M,1.7,0123*56\r\n
$GPGGA,090032.15,5703.2877433,N,00952.3671821,E,2,9,1.2,-2.236,M,40.593,M,1.7,0123*5B\r\n
$GPGGA,090032.20,5703.2877431,N,00952.3671820,E,2,9,1.2,-2.236,M,40.593,M,1.7,0123*5E\r\n
$GPGGA,090032.25,5703.2877432,N,00952.3671791,E,2,9,1.2,-2.234,M,40.593,M,2.0,0123*5B\r\n
$GPGGA,090032.30,5703.2877431,N,00952.3671792,E,2,9,1.2,-2.234,M,40.593,M,2.0,0123*5F\r\n
$GPGGA,090032.35,5703.2877431,N,00952.3671794,E,2,9,1.2,-2.234,M,40.593,M,2.0,0123*5C\r\n
$GPGGA,090032.40,5703.2877429,N,00952.3671794,E,2,9,1.2,-2.233,M,40.593,M,2.0,0123*50\r\n
$GPGGA,090032.45,5703.2877414,N,00952.3671795,E,2,9,1.2,-2.236,M,40.593,M,0.8,0123*55\r\n
$GPGGA,090032.50,5703.2877416,N,00952.3671799,E,2,9,1.2,-2.236,M,40.593,M,0.8,0123*5F\r\n
$GPGGA,090032.55,5703.2877416,N,00952.3671802,E,2,9,1.2,-2.236,M,40.593,M,0.8,0123*57\r\n
$GPGGA,090032.60,5703.2877416,N,00952.3671799,E,2,9,1.2,-2.236,M,40.593,M,0.8,0123*5C\r\n
$GPGGA,090032.65,5703.2877434,N,00952.3671806,E,2,9,1.2,-2.236,M,40.593,M,1.1,0123*58\r\n
$GPGGA,090032.70,5703.2877436,N,00952.3671807,E,2,9,1.2,-2.236,M,40.593,M,1.1,0123*5F\r\n
$GPGGA,090032.75,5703.2877438,N,00952.3671811,E,2,9,1.2,-2.236,M,40.593,M,1.1,0123*53\r\n
$GPGGA,090032.80,5703.2877441,N,00952.3671814,E,2,9,1.2,-2.235,M,40.593,M,1.1,0123*51\r\n
$GPGGA,090032.85,5703.2877455,N,00952.3671826,E,2,9,1.2,-2.233,M,40.593,M,1.4,0123*53\r\n
$GPGGA,090032.90,5703.2877458,N,00952.3671829,E,2,9,1.2,-2.233,M,40.593,M,1.4,0123*55\r\n
$GPGGA,090032.95,5703.2877462,N,00952.3671829,E,2,9,1.2,-2.233,M,40.593,M,1.4,0123*59\r\n
$GPGGA,090033.00,5703.2877466,N,00952.3671833,E,2,9,1.2,-2.233,M,40.593,M,1.4,0123*5B\r\n
$GPGGA,090033.05,5703.2877439,N,00952.3671831,E,2,9,1.2,-2.229,M,40.593,M,1.6,0123*5F\r\n
$GPGGA,090033.10,5703.2877441,N,00952.3671832,E,2,9,1.2,-2.228,M,40.593,M,1.6,0123*56\r\n
$GPGGA,090033.15,5703.2877443,N,00952.3671833,E,2,9,1.2,-2.228,M,40.593,M,1.6,0123*50\r\n
$GPGGA,090033.20,5703.2877446,N,00952.3671836,E,2,9,1.2,-2.228,M,40.593,M,1.6,0123*56\r\n
$GPGGA,090033.25,5703.2877418,N,00952.3671841,E,2,9,1.2,-2.226,M,40.593,M,1.9,0123*59\r\n
$GPGGA,090033.30,5703.2877420,N,00952.3671843,E,2,9,1.2,-2.226,M,40.593,M,1.9,0123*54\r\n
$GPGGA,090033.35,5703.2877421,N,00952.3671843,E,2,9,1.2,-2.226,M,40.593,M,1.9,0123*50\r\n
$GPGGA,090033.40,5703.2877424,N,00952.3671846,E,2,9,1.2,-2.226,M,40.593,M,1.9,0123*52\r\n
$GPGGA,090033.45,5703.2877431,N,00952.3671849,E,2,9,1.2,-2.228,M,40.593,M,2.1,0123*59\r\n
$GPGGA,090033.50,5703.2877433,N,00952.3671846,E,2,9,1.2,-2.228,M,40.593,M,2.1,0123*50\r\n
$GPGGA,090033.55,5703.2877434,N,00952.3671841,E,2,9,1.2,-2.228,M,40.593,M,2.1,0123*55\r\n
$GPGGA,090033.60,5703.2877433,N,00952.3671837,E,2,9,1.2,-2.227,M,40.593,M,2.1,0123*5A\r\n
$GPGGA,090033.65,5703.2877413,N,00952.3671806,E,2,9,1.2,-2.222,M,40.593,M,2.3,0123*58\r\n
$GPGGA,090033.70,5703.2877414,N,00952.3671799,E,2,9,1.2,-2.221,M,40.593,M,2.3,0123*51\r\n
$GPGGA,090033.75,5703.2877412,N,00952.3671792,E,2,9,1.2,-2.221,M,40.593,M,2.3,0123*59\r\n
$GPGGA,090033.80,5703.2877413,N,00952.3671786,E,2,9,1.2,-2.220,M,40.593,M,2.3,0123*56\r\n
$GPGGA,090033.85,5703.2877402,N,00952.3671766,E,2,9,1.2,-2.220,M,40.593,M,2.6,0123*58\r\n
$GPGGA,090033.90,5703.2877400,N,00952.3671754,E,2,9,1.2,-2.219,M,40.593,M,2.6,0123*55\r\n
$GPGGA,090033.95,5703.2877397,N,00952.3671741,E,2,9,1.2,-2.219,M,40.593,M,2.6,0123*5D\r\n
$GPGGA,090034.00,5703.2877396,N,00952.3671728,E,2,9,1.2,-2.218,M,40.593,M,2.6,0123*59\r\n
$GPGGA,090034.05,5703.2877350,N,00952.3671686,E,2,9,1.2,-2.211,M,40.593,M,2.8,0123*54\r\n
$GPGGA,090034.10,5703.2877347,N,00952.3671668,E,2,9,1.2,-2.210,M,40.593,M,2.8,0123*57\r\n
$GPGGA,090034.15,5703.2877343,N,00952.3671654,E,2,9,1.2,-2.210,M,40.593,M,2.8,0123*59\r\n
$GPGGA,090034.20,5703.2877339,N,00952.3671638,E,2,9,1.2,-2.209,M,40.593,M,2.8,0123*50\r\n
$GPGGA,090034.25,5703.2877325,N,00952.3671614,E,2,9,1.2,-2.210,M,40.593,M,3.0,0123*57\r\n
$GPGGA,090034.30,5703.2877321,N,00952.3671601,E,2,9,1.2,-2.209,M,40.593,M,3.0,0123*5B\r\n
$GPGGA,090034.35,5703.2877315,N,00952.3671584,E,2,9,1.2,-2.208,M,40.593,M,3.0,0123*56\r\n
$GPGGA,090034.40,5703.2877310,N,00952.3671570,E,2,9,1.2,-2.208,M,40.593,M,3.0,0123*5A\r\n
$GPGGA,090034.45,5703.2877307,N,00952.3671587,E,2,9,1.2,-2.205,M,40.593,M,0.9,0123*56\r\n
$GPGGA,090034.50,5703.2877303,N,00952.3671576,E,2,9,1.2,-2.204,M,40.593,M,0.9,0123*59\r\n
$GPGGA,090034.55,5703.2877298,N,00952.3671571,E,2,9,1.2,-2.203,M,40.593,M,0.9,0123*5F\r\n
$GPGGA,090034.60,5703.2877294,N,00952.3671569,E,2,9,1.2,-2.202,M,40.593,M,0.9,0123*5D\r\n
$GPGGA,090034.65,5703.2877318,N,00952.3671627,E,2,9,1.2,-2.199,M,40.593,M,1.3,0123*5E\r\n
$GPGGA,090034.70,5703.2877315,N,00952.3671628,E,2,9,1.2,-2.198,M,40.593,M,1.3,0123*59\r\n
$GPGGA,090034.75,5703.2877314,N,00952.3671632,E,2,9,1.2,-2.198,M,40.593,M,1.3,0123*56\r\n
$GPGGA,090034.80,5703.2877314,N,00952.3671637,E,2,9,1.2,-2.197,M,40.593,M,1.3,0123*56\r\n
$GPGGA,090034.85,5703.2877330,N,00952.3671698,E,2,9,1.2,-2.217,M,40.593,M,1.6,0123*5E\r\n
$GPGGA,090034.90,5703.2877312,N,00952.3671705,E,2,9,1.2,-2.218,M,40.593,M,1.6,0123*50\r\n
$GPGGA,090034.95,5703.2877318,N,00952.3671708,E,2,9,1.2,-2.224,M,40.593,M,1.6,0123*5D\r\n
$GPGGA,090035.00,5703.2877309,N,00952.3671717,E,2,9,1.2,-2.227,M,40.593,M,1.6,0123*5D\r\n
$GPGGA,090035.05,5703.2877286,N,00952.3671712,E,2,9,1.2,-2.221,M,40.593,M,1.9,0123*52\r\n
$GPGGA,090035.10,5703.2877273,N,00952.3671710,E,2,9,1.2,-2.222,M,40.593,M,1.9,0123*5D\r\n
$GPGGA,090035.15,5703.2877267,N,00952.3671708,E,2,9,1.2,-2.223,M,40.593,M,1.9,0123*55\r\n
$GPGGA,090035.20,5703.2877259,N,00952.3671686,E,2,9,1.2,-2.223,M,40.593,M,1.9,0123*59\r\n
$GPGGA,090035.25,5703.2877247,N,00952.3671671,E,2,9,1.2,-2.225,M,40.593,M,2.2,0123*55\r\n
$GPGGA,090035.30,5703.2877239,N,00952.3671658,E,2,9,1.2,-2.226,M,40.593,M,2.2,0123*50\r\n
$GPGGA,090035.35,5703.2877228,N,00952.3671642,E,2,9,1.2,-2.226,M,40.593,M,2.2,0123*5E\r\n
$GPGGA,090035.40,5703.2877219,N,00952.3671625,E,2,9,1.2,-2.227,M,40.593,M,2.2,0123*5E\r\n
$GPGGA,090035.45,5703.2877202,N,00952.3671565,E,2,9,1.2,-2.217,M,40.593,M,2.4,0123*53\r\n
$GPGGA,090035.50,5703.2877191,N,00952.3671542,E,2,9,1.2,-2.217,M,40.593,M,2.4,0123*5B\r\n
$GPGGA,090035.55,5703.2877177,N,00952.3671515,E,2,9,1.2,-2.217,M,40.593,M,2.4,0123*54\r\n
$GPGGA,090035.60,5703.2877165,N,00952.3671486,E,2,9,1.2,-2.216,M,40.593,M,2.4,0123*5B\r\n
$GPGGA,090035.65,5703.2877151,N,00952.3671448,E,2,9,1.2,-2.212,M,40.593,M,2.7,0123*5C\r\n
$GPGGA,090035.70,5703.2877138,N,00952.3671420,E,2,9,1.2,-2.211,M,40.593,M,2.7,0123*5A\r\n
$GPGGA,090035.75,5703.2877123,N,00952.3671396,E,2,9,1.2,-2.209,M,40.593,M,2.7,0123*56\r\n
$GPGGA,090035.80,5703.2877110,N,00952.3671370,E,2,9,1.2,-2.207,M,40.593,M,2.7,0123*5A\r\n
$GPGGA,090035.85,5703.2877093,N,00952.3671388,E,2,9,1.2,-2.202,M,40.593,M,2.9,0123*59\r\n
$GPGGA,090035.90,5703.2877081,N,00952.3671379,E,2,9,1.2,-2.201,M,40.593,M,2.9,0123*53\r\n
$GPGGA,090035.95,5703.2877088,N,00952.3671383,E,2,9,1.2,-2.200,M,40.593,M,2.9,0123*5B\r\n
$GPGGA,090036.00,5703.2877094,N,00952.3671380,E,2,9,1.2,-2.198,M,40.593,M,2.9,0123*58\r\n
$GPGGA,090036.05,5703.2877072,N,00952.3671380,E,2,9,1.2,-2.192,M,40.593,M,3.2,0123*55\r\n
$GPGGA,090036.10,5703.2877068,N,00952.3671380,E,2,9,1.2,-2.191,M,40.593,M,3.2,0123*59\r\n
$GPGGA,090036.15,5703.2877064,N,00952.3671381,E,2,9,1.2,-2.190,M,40.593,M,3.2,0123*50\r\n
$GPGGA,090036.20,5703.2877063,N,00952.3671384,E,2,9,1.2,-2.189,M,40.593,M,3.2,0123*5C\r\n
$GPGGA,090036.25,5703.2877062,N,00952.3671425,E,2,9,1.2,-2.208,M,40.593,M,3.4,0123*58\r\n
$GPGGA,090036.30,5703.2877061,N,00952.3671435,E,2,9,1.2,-2.212,M,40.593,M,3.4,0123*55\r\n
$GPGGA,090036.35,5703.2877071,N,00952.3671447,E,2,9,1.2,-2.215,M,40.593,M,3.4,0123*53\r\n
$GPGGA,090036.40,5703.2877061,N,00952.3671453,E,2,9,1.2,-2.217,M,40.593,M,3.4,0123*57\r\n
$GPGGA,090036.45,5703.2877059,N,00952.3671456,E,2,9,1.2,-2.219,M,40.593,M,2.2,0123*55\r\n
$GPGGA,090036.50,5703.2877058,N,00952.3671456,E,2,9,1.2,-2.222,M,40.593,M,2.2,0123*58\r\n
$GPGGA,090036.55,5703.2877067,N,00952.3671441,E,2,9,1.2,-2.226,M,40.593,M,2.2,0123*53\r\n
$GPGGA,090036.60,5703.2877066,N,00952.3671426,E,2,9,1.2,-2.225,M,40.593,M,2.2,0123*56\r\n
$GPGGA,090036.65,5703.2877050,N,00952.3671413,E,2,9,1.2,-2.231,M,40.593,M,2.4,0123*53\r\n
$GPGGA,090036.70,5703.2877038,N,00952.3671391,E,2,9,1.2,-2.232,M,40.593,M,2.4,0123*57\r\n
$GPGGA,090036.75,5703.2877032,N,00952.3671375,E,2,9,1.2,-2.230,M,40.593,M,2.4,0123*50\r\n
$GPGGA,090036.80,5703.2877019,N,00952.3671350,E,2,9,1.2,-2.231,M,40.593,M,2.4,0123*55\r\n
$GPGGA,090036.85,5703.2877005,N,00952.3671322,E,2,9,1.2,-2.227,M,40.593,M,2.7,0123*5C\r\n
$GPGGA,090036.90,5703.2876993,N,00952.3671298,E,2,9,1.2,-2.227,M,40.593,M,2.7,0123*5F\r\n
$GPGGA,090036.95,5703.2876983,N,00952.3671276,E,2,9,1.2,-2.226,M,40.593,M,2.7,0123*5A\r\n
$GPGGA,090037.00,5703.2876973,N,00952.3671254,E,2,9,1.2,-2.225,M,40.593,M,2.7,0123*5B\r\n
$GPGGA,090037.05,5703.2876991,N,00952.3671218,E,2,9,1.2,-2.208,M,40.593,M,2.9,0123*5B\r\n
$GPGGA,090037.10,5703.2876990,N,00952.3671192,E,2,9,1.2,-2.206,M,40.593,M,2.9,0123*51\r\n
$GPGGA,090037.15,5703.2876994,N,00952.3671178,E,2,9,1.2,-2.204,M,40.593,M,2.9,0123*56\r\n
$GPGGA,090037.20,5703.2877001,N,00952.3671172,E,2,9,1.2,-2.202,M,40.593,M,2.9,0123*58\r\n
$GPGGA,090037.25,5703.2877006,N,00952.3671172,E,2,9,1.2,-2.200,M,40.593,M,3.1,0123*51\r\n
$GPGGA,090037.30,5703.2877002,N,00952.3671170,E,2,9,1.2,-2.197,M,40.593,M,3.1,0123*5E\r\n
$GPGGA,090037.35,5703.2877023,N,00952.3671175,E,2,9,1.2,-2.195,M,40.593,M,3.1,0123*5F\r\n
$GPGGA,090037.40,5703.2877029,N,00952.3671191,E,2,9,1.2,-2.195,M,40.593,M,3.1,0123*5D\r\n
$GPGGA,090037.45,5703.2877041,N,00952.3671207,E,2,9,1.2,-2.194,M,40.593,M,2.1,0123*5A\r\n
$GPGGA,090037.50,5703.2877051,N,00952.3671219,E,2,9,1.2,-2.193,M,40.593,M,2.1,0123*57\r\n
$GPGGA,090037.55,5703.2877061,N,00952.3671235,E,2,9,1.2,-2.191,M,40.593,M,2.1,0123*5D\r\n
$GPGGA,090037.60,5703.2877073,N,00952.3671254,E,2,9,1.2,-2.190,M,40.593,M,2.1,0123*5E\r\n
$GPGGA,090037.65,5703.2877098,N,00952.3671309,E,2,9,1.2,-2.206,M,40.593,M,2.3,0123*59\r\n
$GPGGA,090037.70,5703.2877114,N,00952.3671337,E,2,9,1.2,-2.208,M,40.593,M,2.3,0123*5B\r\n
$GPGGA,090037.75,5703.2877135,N,00952.3671357,E,2,9,1.2,-2.214,M,40.593,M,2.3,0123*56\r\n
$GPGGA,090037.80,5703.2877139,N,00952.3671387,E,2,9,1.2,-2.217,M,40.593,M,2.3,0123*5E\r\n
$GPGGA,090037.85,5703.2877153,N,00952.3671413,E,2,9,1.2,-2.218,M,40.593,M,2.6,0123*57\r\n
$GPGGA,090037.90,5703.2877172,N,00952.3671428,E,2,9,1.2,-2.219,M,40.593,M,2.6,0123*59\r\n
$GPGGA,090037.95,5703.2877187,N,00952.3671432,E,2,9,1.2,-2.219,M,40.593,M,2.6,0123*5D\r\n
$GPGGA,090038.00,5703.2877195,N,00952.3671437,E,2,9,1.2,-2.219,M,40.593,M,2.6,0123*58\r\n
$GPGGA,090038.05,5703.2877195,N,00952.3671431,E,2,9,1.2,-2.216,M,40.593,M,2.8,0123*5A\r\n
$GPGGA,090038.10,5703.2877207,N,00952.3671442,E,2,9,1.2,-2.217,M,40.593,M,2.8,0123*53\r\n
$GPGGA,090038.15,5703.2877220,N,00952.3671448,E,2,9,1.2,-2.219,M,40.593,M,2.8,0123*57\r\n
$GPGGA,090038.20,5703.2877232,N,00952.3671451,E,2,9,1.2,-2.220,M,40.593,M,2.8,0123*50\r\n
$GPGGA,090038.25,5703.2877219,N,00952.3671414,E,2,9,1.2,-2.213,M,40.593,M,3.0,0123*54\r\n
$GPGGA,090038.30,5703.2877228,N,00952.3671409,E,2,9,1.2,-2.214,M,40.593,M,3.0,0123*59\r\n
$GPGGA,090038.35,5703.2877236,N,00952.3671401,E,2,9,1.2,-2.214,M,40.593,M,3.0,0123*5B\r\n
$GPGGA,090038.40,5703.2877243,N,00952.3671391,E,2,9,1.2,-2.215,M,40.593,M,3.0,0123*54\r\n
$GPGGA,090038.45,5703.2877238,N,00952.3671347,E,2,9,1.2,-2.203,M,40.593,M,3.2,0123*53\r\n
$GPGGA,090038.50,5703.2877250,N,00952.3671331,E,2,9,1.2,-2.198,M,40.593,M,3.2,0123*59\r\n
$GPGGA,090038.55,5703.2877267,N,00952.3671317,E,2,9,1.2,-2.194,M,40.593,M,3.2,0123*50\r\n
$GPGGA,090038.60,5703.2877279,N,00952.3671310,E,2,9,1.2,-2.191,M,40.593,M,3.2,0123*5B\r\n
$GPGGA,090038.65,5703.2877301,N,00952.3671305,E,2,9,1.2,-2.191,M,40.593,M,3.4,0123*52\r\n
$GPGGA,090038.70,5703.2877321,N,00952.3671321,E,2,9,1.2,-2.188,M,40.593,M,3.4,0123*5A\r\n
$GPGGA,090038.75,5703.2877325,N,00952.3671339,E,2,9,1.2,-2.186,M,40.593,M,3.4,0123*5C\r\n
$GPGGA,090038.80,5703.2877330,N,00952.3671340,E,2,9,1.2,-2.186,M,40.593,M,3.4,0123*5C\r\n
$GPGGA,090038.85,5703.2877344,N,00952.3671354,E,2,9,1.2,-2.186,M,40.593,M,3.6,0123*5D\r\n
$GPGGA,090038.90,5703.2877357,N,00952.3671363,E,2,9,1.2,-2.185,M,40.593,M,3.6,0123*5C\r\n
$GPGGA,090038.95,5703.2877374,N,00952.3671380,E,2,9,1.2,-2.183,M,40.593,M,3.6,0123*53\r\n
$GPGGA,090039.00,5703.2877386,N,00952.3671393,E,2,9,1.2,-2.182,M,40.593,M,3.6,0123*50\r\n
$GPGGA,090039.05,5703.2877395,N,00952.3671419,E,2,9,1.2,-2.180,M,40.593,M,3.8,0123*5E\r\n
$GPGGA,090039.10,5703.2877411,N,00952.3671438,E,2,9,1.2,-2.179,M,40.593,M,3.8,0123*54\r\n
$GPGGA,090039.15,5703.2877428,N,00952.3671460,E,2,9,1.2,-2.178,M,40.593,M,3.8,0123*57\r\n
$GPGGA,090039.20,5703.2877442,N,00952.3671480,E,2,9,1.2,-2.177,M,40.593,M,3.8,0123*5C\r\n
$GPGGA,090039.25,5703.2877436,N,00952.3671510,E,2,9,1.2,-2.189,M,40.593,M,4.0,0123*5C\r\n
$GPGGA,090039.30,5703.2877448,N,00952.3671523,E,2,9,1.2,-2.190,M,40.593,M,4.0,0123*59\r\n
$GPGGA,090039.35,5703.2877460,N,00952.3671539,E,2,9,1.2,-2.190,M,40.593,M,4.0,0123*5D\r\n
$GPGGA,090039.40,5703.2877471,N,00952.3671548,E,2,9,1.2,-2.191,M,40.593,M,4.0,0123*58\r\n
$GPGGA,090039.45,5703.2877454,N,00952.3671487,E,2,9,1.2,-2.197,M,40.593,M,2.4,0123*5C\r\n
$GPGGA,090039.50,5703.2877459,N,00952.3671483,E,2,9,1.2,-2.199,M,40.593,M,2.4,0123*5F\r\n
$GPGGA,090039.55,5703.2877455,N,00952.3671474,E,2,9,1.2,-2.199,M,40.593,M,2.4,0123*5E\r\n
$GPGGA,090039.60,5703.2877455,N,00952.3671453,E,2,9,1.2,-2.203,M,40.593,M,2.4,0123*5D\r\n
$GPGGA,090039.65,5703.2877455,N,00952.3671434,E,2,9,1.2,-2.202,M,40.593,M,2.7,0123*5B\r\n
$GPGGA,090039.70,5703.2877456,N,00952.3671423,E,2,9,1.2,-2.204,M,40.593,M,2.7,0123*5C\r\n
$GPGGA,090039.75,5703.2877456,N,00952.3671404,E,2,9,1.2,-2.205,M,40.593,M,2.7,0123*5D\r\n
$GPGGA,090039.80,5703.2877457,N,00952.3671391,E,2,9,1.2,-2.207,M,40.593,M,2.7,0123*5F\r\n
$GPGGA,090039.85,5703.2877448,N,00952.3671358,E,2,9,1.2,-2.193,M,40.593,M,2.9,0123*51\r\n
$GPGGA,090039.90,5703.2877445,N,00952.3671337,E,2,9,1.2,-2.193,M,40.593,M,2.9,0123*51\r\n
$GPGGA,090039.95,5703.2877440,N,00952.3671315,E,2,9,1.2,-2.193,M,40.593,M,2.9,0123*51\r\n
$GPGGA,090040.00,5703.2877441,N,00952.3671299,E,2,9,1.2,-2.193,M,40.593,M,2.9,0123*57\r\n
$GPGGA,090040.05,5703.2877447,N,00952.3671294,E,2,9,1.2,-2.187,M,40.593,M,3.2,0123*56\r\n
$GPGGA,090040.10,5703.2877445,N,00952.3671280,E,2,9,1.2,-2.186,M,40.593,M,3.2,0123*54\r\n
$GPGGA,090040.15,5703.2877442,N,00952.3671267,E,2,9,1.2,-2.185,M,40.593,M,3.2,0123*5C\r\n
$GPGGA,090040.20,5703.2877444,N,00952.3671261,E,2,9,1.2,-2.184,M,40.593,M,3.2,0123*5B\r\n
$GPGGA,090040.25,5703.2877474,N,00952.3671327,E,2,9,1.2,-2.181,M,40.593,M,3.4,0123*5D\r\n
$GPGGA,090040.30,5703.2877476,N,00952.3671331,E,2,9,1.2,-2.179,M,40.593,M,3.4,0123*5B\r\n
$GPGGA,090040.35,5703.2877479,N,00952.3671338,E,2,9,1.2,-2.178,M,40.593,M,3.4,0123*59\r\n
$GPGGA,090040.40,5703.2877484,N,00952.3671352,E,2,9,1.2,-2.176,M,40.593,M,3.4,0123*5B\r\n
$GPGGA,090040.45,5703.2877486,N,00952.3671434,E,2,9,1.2,-2.187,M,40.593,M,2.2,0123*52\r\n
$GPGGA,090040.50,5703.2877488,N,00952.3671454,E,2,9,1.2,-2.187,M,40.593,M,2.2,0123*5E\r\n
$GPGGA,090040.55,5703.2877492,N,00952.3671475,E,2,9,1.2,-2.186,M,40.593,M,2.2,0123*52\r\n
$GPGGA,090040.60,5703.2877500,N,00952.3671497,E,2,9,1.2,-2.186,M,40.593,M,2.2,0123*52\r\n
$GPGGA,090040.65,5703.2877487,N,00952.3671502,E,2,9,1.2,-2.203,M,40.593,M,2.4,0123*5C\r\n
$GPGGA,090040.70,5703.2877498,N,00952.3671517,E,2,9,1.2,-2.205,M,40.593,M,2.4,0123*54\r\n
$GPGGA,090040.75,5703.2877489,N,00952.3671526,E,2,9,1.2,-2.206,M,40.593,M,2.4,0123*50\r\n
$GPGGA,090040.80,5703.2877493,N,00952.3671537,E,2,9,1.2,-2.207,M,40.593,M,2.4,0123*50\r\n
$GPGGA,090040.85,5703.2877490,N,00952.3671542,E,2,9,1.2,-2.208,M,40.593,M,2.7,0123*58\r\n
$GPGGA,090040.90,5703.2877492,N,00952.3671557,E,2,9,1.2,-2.209,M,40.593,M,2.7,0123*5B\r\n
$GPGGA,090040.95,5703.2877488,N,00952.3671568,E,2,9,1.2,-2.210,M,40.593,M,2.7,0123*51\r\n
$GPGGA,090041.00,5703.2877489,N,00952.3671582,E,2,9,1.2,-2.211,M,40.593,M,2.7,0123*58\r\n
$GPGGA,090041.05,5703.2877464,N,00952.3671557,E,2,9,1.2,-2.195,M,40.593,M,2.9,0123*57\r\n
$GPGGA,090041.10,5703.2877464,N,00952.3671569,E,2,9,1.2,-2.196,M,40.593,M,2.9,0123*5D\r\n
$GPGGA,090041.15,5703.2877461,N,00952.3671582,E,2,9,1.2,-2.196,M,40.593,M,2.9,0123*58\r\n
$GPGGA,090041.20,5703.2877460,N,00952.3671591,E,2,9,1.2,-2.197,M,40.593,M,2.9,0123*5C\r\n
$GPGGA,090041.25,5703.2877489,N,00952.3671594,E,2,9,1.2,-2.194,M,40.593,M,3.1,0123*51\r\n
$GPGGA,090041.30,5703.2877489,N,00952.3671608,E,2,9,1.2,-2.194,M,40.593,M,3.1,0123*53\r\n
$GPGGA,090041.35,5703.2877486,N,00952.3671615,E,2,9,1.2,-2.194,M,40.593,M,3.1,0123*55\r\n
$GPGGA,090041.40,5703.2877488,N,00952.3671630,E,2,9,1.2,-2.193,M,40.593,M,3.1,0123*59\r\n
$GPGGA,090041.45,5703.2877461,N,00952.3671675,E,2,9,1.2,-2.198,M,40.593,M,2.1,0123*50\r\n
$GPGGA,090041.50,5703.2877462,N,00952.3671692,E,2,9,1.2,-2.198,M,40.593,M,2.1,0123*5E\r\n
$GPGGA,090041.55,5703.2877459,N,00952.3671711,E,2,9,1.2,-2.198,M,40.593,M,2.1,0123*59\r\n
$GPGGA,090041.60,5703.2877458,N,00952.3671725,E,2,9,1.2,-2.198,M,40.593,M,2.1,0123*59\r\n
$GPGGA,090041.65,5703.2877472,N,00952.3671747,E,2,9,1.2,-2.204,M,40.593,M,2.3,0123*54\r\n
$GPGGA,090041.70,5703.2877469,N,00952.3671764,E,2,9,1.2,-2.204,M,40.593,M,2.3,0123*5B\r\n
$GPGGA,090041.75,5703.2877468,N,00952.3671781,E,2,9,1.2,-2.205,M,40.593,M,2.3,0123*55\r\n
$GPGGA,090041.80,5703.2877467,N,00952.3671801,E,2,9,1.2,-2.206,M,40.593,M,2.3,0123*54\r\n
$GPGGA,090041.85,5703.2877456,N,00952.3671815,E,2,9,1.2,-2.204,M,40.593,M,2.6,0123*51\r\n
$GPGGA,090041.90,5703.2877455,N,00952.3671833,E,2,9,1.2,-2.205,M,40.593,M,2.6,0123*53\r\n
$GPGGA,090041.95,5703.2877452,N,00952.3671846,E,2,9,1.2,-2.205,M,40.593,M,2.6,0123*53\r\n
$GPGGA,090042.00,5703.2877449,N,00952.3671862,E,2,9,1.2,-2.206,M,40.593,M,2.6,0123*53\r\n
$GPGGA,090042.05,5703.2877434,N,00952.3671850,E,2,9,1.2,-2.210,M,40.593,M,2.8,0123*54\r\n
$GPGGA,090042.10,5703.2877433,N,00952.3671860,E,2,9,1.2,-2.210,M,40.593,M,2.8,0123*54\r\n
$GPGGA,090042.15,5703.2877426,N,00952.3671873,E,2,9,1.2,-2.213,M,40.593,M,2.8,0123*54\r\n
$GPGGA,090042.20,5703.2877418,N,00952.3671874,E,2,9,1.2,-2.215,M,40.593,M,2.8,0123*5E\r\n
$GPGGA,090042.25,5703.2877414,N,00952.3671881,E,2,8,1.2,-2.213,M,40.593,M,3.0,0123*53\r\n
$GPGGA,090042.30,5703.2877409,N,00952.3671889,E,2,8,1.2,-2.213,M,40.593,M,3.0,0123*53\r\n
$GPGGA,090042.35,5703.2877405,N,00952.3671897,E,2,8,1.2,-2.214,M,40.593,M,3.0,0123*52\r\n
$GPGGA,090042.40,5703.2877401,N,00952.3671902,E,2,8,1.2,-2.215,M,40.593,M,3.0,0123*58\r\n
$GPGGA,090042.45,5703.2877430,N,00952.3671885,E,2,8,1.2,-2.213,M,40.593,M,0.9,0123*5D\r\n
$GPGGA,090042.50,5703.2877425,N,00952.3671884,E,2,8,1.2,-2.213,M,40.593,M,0.9,0123*5C\r\n
$GPGGA,090042.55,5703.2877424,N,00952.3671886,E,2,8,1.2,-2.213,M,40.593,M,0.9,0123*5A\r\n
$GPGGA,090042.60,5703.2877423,N,00952.3671886,E,2,8,1.2,-2.214,M,40.593,M,0.9,0123*5C\r\n
$GPGGA,090042.65,5703.2877420,N,00952.3671867,E,2,8,1.2,-2.205,M,40.593,M,1.3,0123*5E\r\n
$GPGGA,090042.70,5703.2877418,N,00952.3671864,E,2,8,1.2,-2.205,M,40.593,M,1.3,0123*52\r\n
$GPGGA,090042.75,5703.2877418,N,00952.3671861,E,2,8,1.2,-2.204,M,40.593,M,1.3,0123*53\r\n
$GPGGA,090042.80,5703.2877421,N,00952.3671860,E,2,8,1.2,-2.203,M,40.593,M,1.3,0123*55\r\n
$GPGGA,090042.85,5703.2877435,N,00952.3671878,E,2,8,1.2,-2.206,M,40.593,M,1.6,0123*5C\r\n
$GPGGA,090042.90,5703.2877435,N,00952.3671874,E,2,8,1.2,-2.205,M,40.593,M,1.6,0123*57\r\n
$GPGGA,090042.95,5703.2877435,N,00952.3671870,E,2,8,1.2,-2.203,M,40.593,M,1.6,0123*50\r\n
$GPGGA,090043.00,5703.2877440,N,00952.3671870,E,2,8,1.2,-2.202,M,40.593,M,1.6,0123*5E\r\n
$GPGGA,090043.05,5703.2877419,N,00952.3671864,E,2,8,1.2,-2.198,M,40.593,M,1.9,0123*5D\r\n
$GPGGA,090043.10,5703.2877421,N,00952.3671863,E,2,8,1.2,-2.197,M,40.593,M,1.9,0123*5A\r\n
$GPGGA,090043.15,5703.2877421,N,00952.3671859,E,2,8,1.2,-2.196,M,40.593,M,1.9,0123*57\r\n
$GPGGA,090043.20,5703.2877425,N,00952.3671861,E,2,8,1.2,-2.195,M,40.593,M,1.9,0123*5D\r\n
$GPGGA,090043.25,5703.2877416,N,00952.3671869,E,2,8,1.2,-2.197,M,40.593,M,2.2,0123*5A\r\n
$GPGGA,090043.30,5703.2877414,N,00952.3671864,E,2,8,1.2,-2.196,M,40.593,M,2.2,0123*50\r\n
$GPGGA,090043.35,5703.2877412,N,00952.3671858,E,2,8,1.2,-2.195,M,40.593,M,2.2,0123*5F\r\n
$GPGGA,090043.40,5703.2877413,N,00952.3671849,E,2,8,1.2,-2.194,M,40.593,M,2.2,0123*5D\r\n
$GPGGA,090043.45,5703.2877393,N,00952.3671822,E,2,8,1.2,-2.203,M,40.593,M,0.9,0123*5E\r\n
$GPGGA,090043.50,5703.2877389,N,00952.3671814,E,2,8,1.2,-2.204,M,40.593,M,0.9,0123*53\r\n
$GPGGA,090043.55,5703.2877388,N,00952.3671807,E,2,8,1.2,-2.204,M,40.593,M,0.9,0123*55\r\n
$GPGGA,090043.60,5703.2877387,N,00952.3671801,E,2,8,1.2,-2.205,M,40.593,M,0.9,0123*5B\r\n
$GPGGA,090043.65,5703.2877392,N,00952.3671805,E,2,8,1.2,-2.202,M,40.593,M,1.2,0123*53\r\n
$GPGGA,090043.70,5703.2877388,N,00952.3671797,E,2,8,1.2,-2.203,M,40.593,M,1.2,0123*59\r\n
$GPGGA,090043.75,5703.2877388,N,00952.3671793,E,2,8,1.2,-2.204,M,40.593,M,1.2,0123*5F\r\n
$GPGGA,090043.80,5703.2877383,N,00952.3671788,E,2,8,1.2,-2.205,M,40.593,M,1.2,0123*55\r\n
$GPGGA,090043.85,5703.2877386,N,00952.3671794,E,2,8,1.2,-2.202,M,40.593,M,1.5,0123*58\r\n
$GPGGA,090043.90,5703.2877384,N,00952.3671787,E,2,8,1.2,-2.203,M,40.593,M,1.5,0123*5D\r\n
$GPGGA,090043.95,5703.2877385,N,00952.3671788,E,2,8,1.2,-2.204,M,40.593,M,1.5,0123*51\r\n
$GPGGA,090044.00,5703.2877380,N,00952.3671783,E,2,8,1.2,-2.205,M,40.593,M,1.5,0123*55\r\n
$GPGGA,090044.05,5703.2877396,N,00952.3671771,E,2,8,1.2,-2.201,M,40.593,M,1.7,0123*5C\r\n
$GPGGA,090044.10,5703.2877396,N,00952.3671770,E,2,8,1.2,-2.202,M,40.593,M,1.7,0123*5A\r\n
$GPGGA,090044.15,5703.2877401,N,00952.3671775,E,2,8,1.2,-2.203,M,40.593,M,1.7,0123*52\r\n
$GPGGA,090044.20,5703.2877398,N,00952.3671774,E,2,8,1.2,-2.203,M,40.593,M,1.7,0123*52\r\n
$GPGGA,090044.25,5703.2877423,N,00952.3671785,E,2,8,1.2,-2.201,M,40.593,M,2.0,0123*58\r\n
$GPGGA,090044.30,5703.2877425,N,00952.3671789,E,2,8,1.2,-2.202,M,40.593,M,2.0,0123*55\r\n
$GPGGA,090044.35,5703.2877432,N,00952.3671795,E,2,8,1.2,-2.202,M,40.593,M,2.0,0123*5B\r\n
$GPGGA,090044.40,5703.2877436,N,00952.3671796,E,2,8,1.2,-2.203,M,40.593,M,2.0,0123*5F\r\n
$GPGGA,090044.45,5703.2877455,N,00952.3671795,E,2,8,1.2,-2.197,M,40.593,M,0.8,0123*58\r\n
$GPGGA,090044.50,5703.2877462,N,00952.3671798,E,2,8,1.2,-2.197,M,40.593,M,0.8,0123*55\r\n
$GPGGA,090044.55,5703.2877470,N,00952.3671802,E,2,8,1.2,-2.197,M,40.593,M,0.8,0123*5F\r\n
$GPGGA,090044.60,5703.2877478,N,00952.3671809,E,2,8,1.2,-2.196,M,40.593,M,0.8,0123*5B\r\n
$GPGGA,090044.65,5703.2877485,N,00952.3671809,E,2,8,1.2,-2.199,M,40.593,M,1.1,0123*5B\r\n
$GPGGA,090044.70,5703.2877494,N,00952.3671815,E,2,8,1.2,-2.198,M,40.593,M,1.1,0123*53\r\n
$GPGGA,090044.75,5703.2877502,N,00952.3671821,E,2,8,1.2,-2.198,M,40.593,M,1.1,0123*5F\r\n
$GPGGA,090044.80,5703.2877511,N,00952.3671823,E,2,8,1.2,-2.198,M,40.593,M,1.1,0123*55\r\n
$GPGGA,090044.85,5703.2877490,N,00952.3671831,E,2,8,1.2,-2.200,M,40.593,M,1.4,0123*5C\r\n
$GPGGA,090044.90,5703.2877499,N,00952.3671838,E,2,8,1.2,-2.199,M,40.593,M,1.4,0123*5B\r\n
$GPGGA,090044.95,5703.2877505,N,00952.3671843,E,2,8,1.2,-2.199,M,40.593,M,1.4,0123*56\r\n
$GPGGA,090045.00,5703.2877512,N,00952.3671847,E,2,8,1.2,-2.199,M,40.593,M,1.4,0123*59\r\n
$GPGGA,090045.05,5703.2877525,N,00952.3671833,E,2,8,1.2,-2.199,M,40.593,M,1.6,0123*59\r\n
$GPGGA,090045.10,5703.2877531,N,00952.3671834,E,2,8,1.2,-2.199,M,40.593,M,1.6,0123*5F\r\n
$GPGGA,090045.15,5703.2877537,N,00952.3671837,E,2,8,1.2,-2.199,M,40.593,M,1.6,0123*5F\r\n
$GPGGA,090045.20,5703.2877541,N,00952.3671839,E,2,8,1.2,-2.199,M,40.593,M,1.6,0123*56\r\n
$GPGGA,090045.25,5703.2877524,N,00952.3671829,E,2,8,1.2,-2.193,M,40.593,M,1.9,0123*54\r\n
$GPGGA,090045.30,5703.2877526,N,00952.3671828,E,2,8,1.2,-2.193,M,40.593,M,1.9,0123*53\r\n
$GPGGA,090045.35,5703.2877531,N,00952.3671834,E,2,8,1.2,-2.192,M,40.593,M,1.9,0123*5C\r\n
$GPGGA,090045.40,5703.2877534,N,00952.3671832,E,2,8,1.2,-2.192,M,40.593,M,1.9,0123*5D\r\n
$GPGGA,090045.45,5703.2877526,N,00952.3671839,E,2,8,1.2,-2.203,M,40.593,M,2.1,0123*50\r\n
$GPGGA,090045.50,5703.2877525,N,00952.3671839,E,2,8,1.2,-2.203,M,40.593,M,2.1,0123*57\r\n
$GPGGA,090045.55,5703.2877527,N,00952.3671836,E,2,8,1.2,-2.204,M,40.593,M,2.1,0123*58\r\n
$GPGGA,090045.60,5703.2877528,N,00952.3671836,E,2,8,1.2,-2.205,M,40.593,M,2.1,0123*50\r\n
$GPGGA,090045.65,5703.2877534,N,00952.3671832,E,2,8,1.2,-2.204,M,40.593,M,2.3,0123*5F\r\n
$GPGGA,090045.70,5703.2877534,N,00952.3671830,E,2,8,1.2,-2.205,M,40.593,M,2.3,0123*58\r\n
$GPGGA,090045.75,5703.2877532,N,00952.3671830,E,2,8,1.2,-2.207,M,40.593,M,2.3,0123*59\r\n
$GPGGA,090045.80,5703.2877528,N,00952.3671826,E,2,8,1.2,-2.208,M,40.593,M,2.3,0123*50\r\n
$GPGGA,090045.85,5703.2877496,N,00952.3671829,E,2,8,1.2,-2.204,M,40.593,M,2.7,0123*56\r\n
$GPGGA,090045.90,5703.2877491,N,00952.3671830,E,2,8,1.2,-2.205,M,40.593,M,2.7,0123*5C\r\n
$GPGGA,090045.95,5703.2877486,N,00952.3671827,E,2,8,1.2,-2.206,M,40.593,M,2.7,0123*5A\r\n
$GPGGA,090046.00,5703.2877481,N,00952.3671828,E,2,8,1.2,-2.207,M,40.593,M,2.7,0123*5C\r\n
$GPGGA,090046.05,5703.2877511,N,00952.3671803,E,2,8,1.2,-2.193,M,40.593,M,2.9,0123*58\r\n
$GPGGA,090046.10,5703.2877506,N,00952.3671798,E,2,8,1.2,-2.192,M,40.593,M,2.9,0123*56\r\n
$GPGGA,090046.15,5703.2877503,N,00952.3671800,E,2,8,1.2,-2.192,M,40.593,M,2.9,0123*58\r\n
$GPGGA,090046.20,5703.2877499,N,00952.3671801,E,2,8,1.2,-2.191,M,40.593,M,2.9,0123*5E\r\n
$GPGGA,090046.25,5703.2877505,N,00952.3671814,E,2,8,1.2,-2.204,M,40.593,M,3.1,0123*5D\r\n
$GPGGA,090046.30,5703.2877503,N,00952.3671814,E,2,8,1.2,-2.204,M,40.593,M,3.1,0123*5F\r\n
$GPGGA,090046.35,5703.2877502,N,00952.3671815,E,2,8,1.2,-2.204,M,40.593,M,3.1,0123*5A\r\n
$GPGGA,090046.40,5703.2877502,N,00952.3671816,E,2,8,1.2,-2.204,M,40.593,M,3.1,0123*5B\r\n
$GPGGA,090046.45,5703.2877526,N,00952.3671817,E,2,8,1.2,-2.199,M,40.593,M,0.9,0123*55\r\n
$GPGGA,090046.50,5703.2877527,N,00952.3671821,E,2,8,1.2,-2.199,M,40.593,M,0.9,0123*55\r\n
$GPGGA,090046.55,5703.2877526,N,00952.3671823,E,2,8,1.2,-2.199,M,40.593,M,0.9,0123*53\r\n
$GPGGA,090046.60,5703.2877532,N,00952.3671829,E,2,8,1.2,-2.199,M,40.593,M,0.9,0123*5A\r\n
$GPGGA,090046.65,5703.2877530,N,00952.3671853,E,2,8,1.2,-2.199,M,40.593,M,1.2,0123*5A\r\n
$GPGGA,090046.70,5703.2877532,N,00952.3671861,E,2,8,1.2,-2.199,M,40.593,M,1.2,0123*5D\r\n
$GPGGA,090046.75,5703.2877535,N,00952.3671863,E,2,8,1.2,-2.199,M,40.593,M,1.2,0123*5D\r\n
$GPGGA,090046.80,5703.2877541,N,00952.3671869,E,2,8,1.2,-2.198,M,40.593,M,1.2,0123*5F\r\n
$GPGGA,090046.85,5703.2877549,N,00952.3671867,E,2,8,1.2,-2.198,M,40.593,M,1.5,0123*5B\r\n
$GPGGA,090046.90,5703.2877552,N,00952.3671875,E,2,8,1.2,-2.198,M,40.593,M,1.5,0123*56\r\n
$GPGGA,090046.95,5703.2877555,N,00952.3671880,E,2,8,1.2,-2.198,M,40.593,M,1.5,0123*5E\r\n
$GPGGA,090047.00,5703.2877558,N,00952.3671883,E,2,8,1.2,-2.197,M,40.593,M,1.5,0123*52\r\n
$GPGGA,090047.05,5703.2877537,N,00952.3671874,E,2,8,1.2,-2.194,M,40.593,M,1.8,0123*58\r\n
$GPGGA,090047.10,5703.2877539,N,00952.3671878,E,2,8,1.2,-2.193,M,40.593,M,1.8,0123*59\r\n
$GPGGA,090047.15,5703.2877542,N,00952.3671888,E,2,8,1.2,-2.193,M,40.593,M,1.8,0123*5F\r\n
$GPGGA,090047.20,5703.2877543,N,00952.3671891,E,2,8,1.2,-2.193,M,40.593,M,1.8,0123*50\r\n
$GPGGA,090047.25,5703.2877557,N,00952.3671906,E,2,8,1.2,-2.201,M,40.593,M,2.1,0123*5D\r\n
$GPGGA,090047.30,5703.2877560,N,00952.3671911,E,2,8,1.2,-2.201,M,40.593,M,2.1,0123*5B\r\n
$GPGGA,090047.35,5703.2877562,N,00952.3671917,E,2,8,1.2,-2.202,M,40.593,M,2.1,0123*59\r\n
$GPGGA,090047.40,5703.2877565,N,00952.3671923,E,2,8,1.2,-2.202,M,40.593,M,2.1,0123*5B\r\n
$GPGGA,090047.45,5703.2877564,N,00952.3671920,E,2,8,1.2,-2.200,M,40.593,M,0.8,0123*55\r\n
$GPGGA,090047.50,5703.2877566,N,00952.3671925,E,2,8,1.2,-2.201,M,40.593,M,0.8,0123*57\r\n
$GPGGA,090047.55,5703.2877569,N,00952.3671927,E,2,8,1.2,-2.201,M,40.593,M,0.8,0123*5F\r\n
$GPGGA,090047.60,5703.2877571,N,00952.3671930,E,2,8,1.2,-2.202,M,40.593,M,0.8,0123*55\r\n
$GPGGA,090047.65,5703.2877566,N,00952.3671915,E,2,8,1.2,-2.205,M,40.593,M,1.1,0123*5E\r\n
$GPGGA,090047.70,5703.2877567,N,00952.3671919,E,2,8,1.2,-2.206,M,40.593,M,1.1,0123*54\r\n
$GPGGA,090047.75,5703.2877568,N,00952.3671920,E,2,8,1.2,-2.207,M,40.593,M,1.1,0123*55\r\n
$GPGGA,090047.80,5703.2877569,N,00952.3671918,E,2,8,1.2,-2.208,M,40.593,M,1.1,0123*5A\r\n
$GPGGA,090047.85,5703.2877560,N,00952.3671923,E,2,8,1.2,-2.205,M,40.593,M,1.3,0123*51\r\n
$GPGGA,090047.90,5703.2877560,N,00952.3671927,E,2,8,1.2,-2.206,M,40.593,M,1.3,0123*52\r\n
$GPGGA,090047.95,5703.2877559,N,00952.3671927,E,2,8,1.2,-2.207,M,40.593,M,1.3,0123*5C\r\n
$GPGGA,090048.00,5703.2877557,N,00952.3671930,E,2,8,1.2,-2.208,M,40.593,M,1.3,0123*58\r\n
$GPGGA,090048.05,5703.2877530,N,00952.3671931,E,2,8,1.2,-2.200,M,40.593,M,1.6,0123*50\r\n
$GPGGA,090048.10,5703.2877527,N,00952.3671933,E,2,8,1.2,-2.201,M,40.593,M,1.6,0123*51\r\n
$GPGGA,090048.15,5703.2877525,N,00952.3671938,E,2,8,1.2,-2.202,M,40.593,M,1.6,0123*5E\r\n
$GPGGA,090048.20,5703.2877521,N,00952.3671943,E,2,8,1.2,-2.202,M,40.593,M,1.6,0123*50\r\n
$GPGGA,090048.25,5703.2877536,N,00952.3671947,E,2,8,1.2,-2.201,M,40.593,M,1.8,0123*5A\r\n
$GPGGA,090048.30,5703.2877533,N,00952.3671953,E,2,8,1.2,-2.202,M,40.593,M,1.8,0123*5D\r\n
$GPGGA,090048.35,5703.2877532,N,00952.3671955,E,2,8,1.2,-2.203,M,40.593,M,1.8,0123*5E\r\n
$GPGGA,090048.40,5703.2877529,N,00952.3671957,E,2,8,1.2,-2.203,M,40.593,M,1.8,0123*54\r\n
$GPGGA,090048.45,5703.2877530,N,00952.3671961,E,2,8,1.2,-2.202,M,40.593,M,2.1,0123*57\r\n
$GPGGA,090048.50,5703.2877525,N,00952.3671961,E,2,8,1.2,-2.202,M,40.593,M,2.1,0123*57\r\n
$GPGGA,090048.55,5703.2877519,N,00952.3671961,E,2,8,1.2,-2.203,M,40.593,M,2.1,0123*5C\r\n
$GPGGA,090048.60,5703.2877518,N,00952.3671963,E,2,8,1.2,-2.203,M,40.593,M,2.1,0123*59\r\n
$GPGGA,090048.65,5703.2877511,N,00952.3671955,E,2,8,1.2,-2.203,M,40.593,M,2.3,0123*52\r\n
$GPGGA,090048.70,5703.2877508,N,00952.3671958,E,2,8,1.2,-2.203,M,40.593,M,2.3,0123*53\r\n
$GPGGA,090048.75,5703.2877502,N,00952.3671958,E,2,8,1.2,-2.204,M,40.593,M,2.3,0123*5B\r\n
$GPGGA,090048.80,5703.2877500,N,00952.3671960,E,2,8,1.2,-2.204,M,40.593,M,2.3,0123*58\r\n
$GPGGA,090048.85,5703.2877499,N,00952.3671967,E,2,8,1.2,-2.206,M,40.593,M,2.5,0123*5F\r\n
$GPGGA,090048.90,5703.2877496,N,00952.3671970,E,2,8,1.2,-2.206,M,40.593,M,2.5,0123*52\r\n
$GPGGA,090048.95,5703.2877490,N,00952.3671971,E,2,8,1.2,-2.207,M,40.593,M,2.5,0123*51\r\n
$GPGGA,090049.00,5703.2877486,N,00952.3671972,E,2,8,1.2,-2.207,M,40.593,M,2.5,0123*58\r\n
$GPGGA,090049.05,5703.2877469,N,00952.3671949,E,2,8,1.2,-2.202,M,40.593,M,2.8,0123*5C\r\n
$GPGGA,090049.10,5703.2877465,N,00952.3671951,E,2,8,1.2,-2.203,M,40.593,M,2.8,0123*5C\r\n
$GPGGA,090049.15,5703.2877462,N,00952.3671953,E,2,8,1.2,-2.203,M,40.593,M,2.8,0123*5C\r\n
$GPGGA,090049.20,5703.2877456,N,00952.3671955,E,2,8,1.2,-2.203,M,40.593,M,2.8,0123*5B\r\n
$GPGGA,090049.25,5703.2877479,N,00952.3671954,E,2,8,1.2,-2.202,M,40.593,M,3.0,0123*5A\r\n
$GPGGA,090049.30,5703.2877474,N,00952.3671954,E,2,8,1.2,-2.203,M,40.593,M,3.0,0123*52\r\n
$GPGGA,090049.35,5703.2877470,N,00952.3671956,E,2,8,1.2,-2.203,M,40.593,M,3.0,0123*51\r\n
$GPGGA,090049.40,5703.2877466,N,00952.3671955,E,2,8,1.2,-2.203,M,40.593,M,3.0,0123*57\r\n
$GPGGA,090049.45,5703.2877467,N,00952.3671952,E,2,8,1.2,-2.201,M,40.593,M,2.2,0123*55\r\n
$GPGGA,090049.50,5703.2877463,N,00952.3671954,E,2,8,1.2,-2.201,M,40.593,M,2.2,0123*53\r\n
$GPGGA,090049.55,5703.2877460,N,00952.3671956,E,2,8,1.2,-2.201,M,40.593,M,2.2,0123*57\r\n
$GPGGA,090049.60,5703.2877454,N,00952.3671957,E,2,8,1.2,-2.201,M,40.593,M,2.2,0123*57\r\n
$GPGGA,090049.65,5703.2877451,N,00952.3671969,E,2,8,1.2,-2.202,M,40.593,M,2.5,0123*5E\r\n
$GPGGA,090049.70,5703.2877448,N,00952.3671972,E,2,8,1.2,-2.202,M,40.593,M,2.5,0123*58\r\n
$GPGGA,090049.75,5703.2877445,N,00952.3671972,E,2,8,1.2,-2.202,M,40.593,M,2.5,0123*50\r\n
$GPGGA,090049.80,5703.2877442,N,00952.3671973,E,2,8,1.2,-2.201,M,40.593,M,2.5,0123*5F\r\n
$GPGGA,090049.85,5703.2877453,N,00952.3671962,E,2,8,1.2,-2.201,M,40.593,M,2.7,0123*58\r\n
$GPGGA,090049.90,5703.2877450,N,00952.3671961,E,2,8,1.2,-2.201,M,40.593,M,2.7,0123*5C\r\n
$GPGGA,090049.95,5703.2877447,N,00952.3671960,E,2,8,1.2,-2.201,M,40.593,M,2.7,0123*5E\r\n
$GPGGA,090050.00,5703.2877447,N,00952.3671959,E,2,8,1.2,-2.201,M,40.593,M,2.7,0123*50\r\n
$GPGGA,090050.05,5703.2877442,N,00952.3671929,E,2,8,1.2,-2.202,M,40.593,M,2.9,0123*5A\r\n
$GPGGA,090050.10,5703.2877441,N,00952.3671928,E,2,8,1.2,-2.202,M,40.593,M,2.9,0123*5C\r\n
$GPGGA,090050.15,5703.2877436,N,00952.3671927,E,2,8,1.2,-2.202,M,40.593,M,2.9,0123*56\r\n
$GPGGA,090050.20,5703.2877435,N,00952.3671928,E,2,8,1.2,-2.202,M,40.593,M,2.9,0123*5C\r\n
$GPGGA,090050.25,5703.2877440,N,00952.3671933,E,2,8,1.2,-2.197,M,40.593,M,3.1,0123*57\r\n
$GPGGA,090050.30,5703.2877438,N,00952.3671931,E,2,8,1.2,-2.197,M,40.593,M,3.1,0123*5E\r\n
$GPGGA,090050.35,5703.2877433,N,00952.3671928,E,2,8,1.2,-2.197,M,40.593,M,3.1,0123*58\r\n
$GPGGA,090050.40,5703.2877431,N,00952.3671926,E,2,8,1.2,-2.197,M,40.593,M,3.1,0123*56\r\n
$GPGGA,090050.45,5703.2877416,N,00952.3671918,E,2,8,1.2,-2.195,M,40.593,M,3.3,0123*5B\r\n
$GPGGA,090050.50,5703.2877414,N,00952.3671915,E,2,8,1.2,-2.195,M,40.593,M,3.3,0123*50\r\n
$GPGGA,090050.55,5703.2877413,N,00952.3671911,E,2,8,1.2,-2.194,M,40.593,M,3.3,0123*57\r\n
$GPGGA,090050.60,5703.2877409,N,00952.3671905,E,2,8,1.2,-2.194,M,40.593,M,3.3,0123*5F\r\n
$GPGGA,090050.65,5703.2877413,N,00952.3671887,E,2,8,1.2,-2.198,M,40.593,M,3.5,0123*50\r\n
$GPGGA,090050.70,5703.2877410,N,00952.3671880,E,2,8,1.2,-2.198,M,40.593,M,3.5,0123*50\r\n
$GPGGA,090050.75,5703.2877407,N,00952.3671872,E,2,8,1.2,-2.198,M,40.593,M,3.5,0123*5E\r\n
$GPGGA,090050.80,5703.2877403,N,00952.3671860,E,2,8,1.2,-2.197,M,40.593,M,3.5,0123*5C\r\n
$GPGGA,090050.85,5703.2877372,N,00952.3671835,E,2,8,1.2,-2.193,M,40.593,M,3.8,0123*51\r\n
$GPGGA,090050.90,5703.2877367,N,00952.3671823,E,2,8,1.2,-2.192,M,40.593,M,3.8,0123*57\r\n
$GPGGA,090050.95,5703.2877357,N,00952.3671806,E,2,8,1.2,-2.192,M,40.593,M,3.8,0123*56\r\n
$GPGGA,090051.00,5703.2877351,N,00952.3671786,E,2,8,1.2,-2.191,M,40.593,M,3.8,0123*59\r\n
$GPGGA,090051.05,5703.2877319,N,00952.3671716,E,2,8,1.2,-2.185,M,40.593,M,4.0,0123*53\r\n
$GPGGA,090051.10,5703.2877310,N,00952.3671700,E,2,8,1.2,-2.185,M,40.593,M,4.0,0123*59\r\n
$GPGGA,090051.15,5703.2877302,N,00952.3671683,E,2,8,1.2,-2.184,M,40.593,M,4.0,0123*54\r\n
$GPGGA,090051.20,5703.2877291,N,00952.3671661,E,2,8,1.2,-2.183,M,40.593,M,4.0,0123*52\r\n
$GPGGA,090051.25,5703.2877264,N,00952.3671645,E,2,8,1.2,-2.193,M,40.593,M,4.2,0123*58\r\n
$GPGGA,090051.30,5703.2877252,N,00952.3671625,E,2,8,1.2,-2.192,M,40.593,M,4.2,0123*5E\r\n
$GPGGA,090051.35,5703.2877244,N,00952.3671608,E,2,8,1.2,-2.192,M,40.593,M,4.2,0123*53\r\n
$GPGGA,090051.40,5703.2877235,N,00952.3671591,E,2,8,1.2,-2.192,M,40.593,M,4.2,0123*54\r\n
$GPGGA,090051.45,5703.2877237,N,00952.3671590,E,2,8,1.2,-2.192,M,40.593,M,2.3,0123*55\r\n
$GPGGA,090051.50,5703.2877228,N,00952.3671576,E,2,8,1.2,-2.192,M,40.593,M,2.3,0123*57\r\n
$GPGGA,090051.55,5703.2877219,N,00952.3671566,E,2,8,1.2,-2.192,M,40.593,M,2.3,0123*51\r\n
$GPGGA,090051.60,5703.2877211,N,00952.3671554,E,2,8,1.2,-2.192,M,40.593,M,2.3,0123*5E\r\n
$GPGGA,090051.65,5703.2877226,N,00952.3671604,E,2,8,1.2,-2.201,M,40.593,M,2.6,0123*55\r\n
$GPGGA,090051.70,5703.2877217,N,00952.3671594,E,2,8,1.2,-2.202,M,40.593,M,2.6,0123*5A\r\n
$GPGGA,090051.75,5703.2877209,N,00952.3671583,E,2,8,1.2,-2.202,M,40.593,M,2.6,0123*56\r\n
$GPGGA,090051.80,5703.2877201,N,00952.3671570,E,2,8,1.2,-2.203,M,40.593,M,2.6,0123*59\r\n
$GPGGA,090051.85,5703.2877213,N,00952.3671576,E,2,8,1.2,-2.199,M,40.593,M,2.8,0123*57\r\n
$GPGGA,090051.90,5703.2877205,N,00952.3671569,E,2,8,1.2,-2.199,M,40.593,M,2.8,0123*5A\r\n
$GPGGA,090051.95,5703.2877199,N,00952.3671566,E,2,8,1.2,-2.200,M,40.593,M,2.8,0123*55\r\n
$GPGGA,090052.00,5703.2877192,N,00952.3671570,E,2,8,1.2,-2.200,M,40.593,M,2.8,0123*56\r\n
$GPGGA,090052.05,5703.2877213,N,00952.3671599,E,2,8,1.2,-2.195,M,40.593,M,3.1,0123*59\r\n
$GPGGA,090052.10,5703.2877210,N,00952.3671604,E,2,8,1.2,-2.195,M,40.593,M,3.1,0123*59\r\n
$GPGGA,090052.15,5703.2877208,N,00952.3671618,E,2,8,1.2,-2.195,M,40.593,M,3.1,0123*58\r\n
$GPGGA,090052.20,5703.2877203,N,00952.3671628,E,2,8,1.2,-2.196,M,40.593,M,3.1,0123*55\r\n
$GPGGA,090052.25,5703.2877259,N,00952.3671685,E,2,8,1.2,-2.188,M,40.593,M,3.3,0123*55\r\n
$GPGGA,090052.30,5703.2877261,N,00952.3671702,E,2,8,1.2,-2.188,M,40.593,M,3.3,0123*54\r\n
$GPGGA,090052.35,5703.2877261,N,00952.3671719,E,2,8,1.2,-2.188,M,40.593,M,3.3,0123*5B\r\n
$GPGGA,090052.40,5703.2877260,N,00952.3671734,E,2,8,1.2,-2.188,M,40.593,M,3.3,0123*57\r\n
$GPGGA,090052.45,5703.2877289,N,00952.3671761,E,2,8,1.2,-2.182,M,40.593,M,2.1,0123*5C\r\n
$GPGGA,090052.50,5703.2877293,N,00952.3671779,E,2,8,1.2,-2.181,M,40.593,M,2.1,0123*59\r\n
$GPGGA,090052.55,5703.2877295,N,00952.3671793,E,2,8,1.2,-2.181,M,40.593,M,2.1,0123*5E\r\n
$GPGGA,090052.60,5703.2877297,N,00952.3671811,E,2,8,1.2,-2.180,M,40.593,M,2.1,0123*5E\r\n
$GPGGA,090052.65,5703.2877278,N,00952.3671812,E,2,8,1.2,-2.188,M,40.593,M,2.3,0123*53\r\n
$GPGGA,090052.70,5703.2877282,N,00952.3671826,E,2,8,1.2,-2.188,M,40.593,M,2.3,0123*55\r\n
$GPGGA,090052.75,5703.2877284,N,00952.3671836,E,2,8,1.2,-2.187,M,40.593,M,2.3,0123*58\r\n
$GPGGA,090052.80,5703.2877287,N,00952.3671850,E,2,8,1.2,-2.187,M,40.593,M,2.3,0123*51\r\n
$GPGGA,090052.85,5703.2877259,N,00952.3671818,E,2,8,1.2,-2.197,M,40.593,M,2.5,0123*5C\r\n
$GPGGA,090052.90,5703.2877243,N,00952.3671819,E,2,8,1.2,-2.200,M,40.593,M,2.5,0123*5F\r\n
$GPGGA,090052.95,5703.2877239,N,00952.3671823,E,2,8,1.2,-2.203,M,40.593,M,2.5,0123*5D\r\n
$GPGGA,090053.00,5703.2877235,N,00952.3671812,E,2,8,1.2,-2.204,M,40.593,M,2.5,0123*59\r\n
$GPGGA,090053.05,5703.2877227,N,00952.3671793,E,2,8,1.2,-2.204,M,40.593,M,2.8,0123*54\r\n
$GPGGA,090053.10,5703.2877222,N,00952.3671785,E,2,8,1.2,-2.206,M,40.593,M,2.8,0123*50\r\n
$GPGGA,090053.15,5703.2877207,N,00952.3671778,E,2,8,1.2,-2.206,M,40.593,M,2.8,0123*50\r\n
$GPGGA,090053.20,5703.2877196,N,00952.3671768,E,2,8,1.2,-2.207,M,40.593,M,2.8,0123*5D\r\n
$GPGGA,090053.25,5703.2877184,N,00952.3671764,E,2,8,1.2,-2.210,M,40.593,M,3.0,0123*58\r\n
$GPGGA,090053.30,5703.2877181,N,00952.3671764,E,2,8,1.2,-2.211,M,40.593,M,3.0,0123*58\r\n
$GPGGA,090053.35,5703.2877174,N,00952.3671761,E,2,8,1.2,-2.213,M,40.593,M,3.0,0123*50\r\n
$GPGGA,090053.40,5703.2877168,N,00952.3671753,E,2,8,1.2,-2.215,M,40.593,M,3.0,0123*58\r\n
$GPGGA,090053.45,5703.2877177,N,00952.3671755,E,2,8,1.2,-2.209,M,40.593,M,2.2,0123*5B\r\n
$GPGGA,090053.50,5703.2877173,N,00952.3671757,E,2,8,1.2,-2.210,M,40.593,M,2.2,0123*51\r\n
$GPGGA,090053.55,5703.2877168,N,00952.3671758,E,2,8,1.2,-2.211,M,40.593,M,2.2,0123*50\r\n
$GPGGA,090053.60,5703.2877161,N,00952.3671755,E,2,8,1.2,-2.212,M,40.593,M,2.2,0123*51\r\n
$GPGGA,090053.65,5703.2877184,N,00952.3671779,E,2,8,1.2,-2.199,M,40.593,M,2.5,0123*56\r\n
$GPGGA,090053.70,5703.2877180,N,00952.3671782,E,2,8,1.2,-2.198,M,40.593,M,2.5,0123*53\r\n
$GPGGA,090053.75,5703.2877178,N,00952.3671790,E,2,8,1.2,-2.198,M,40.593,M,2.5,0123*52\r\n
$GPGGA,090053.80,5703.2877177,N,00952.3671802,E,2,8,1.2,-2.197,M,40.593,M,2.5,0123*5C\r\n
$GPGGA,090053.85,5703.2877191,N,00952.3671845,E,2,8,1.2,-2.190,M,40.593,M,2.7,0123*57\r\n
$GPGGA,090053.90,5703.2877207,N,00952.3671869,E,2,8,1.2,-2.189,M,40.593,M,2.7,0123*59\r\n
$GPGGA,090053.95,5703.2877206,N,00952.3671888,E,2,8,1.2,-2.189,M,40.593,M,2.7,0123*52\r\n
$GPGGA,090054.00,5703.2877219,N,00952.3671913,E,2,8,1.2,-2.188,M,40.593,M,2.7,0123*55\r\n
$GPGGA,090054.05,5703.2877221,N,00952.3671925,E,2,8,1.2,-2.187,M,40.593,M,2.9,0123*5F\r\n
$GPGGA,090054.10,5703.2877225,N,00952.3671943,E,2,8,1.2,-2.186,M,40.593,M,2.9,0123*5E\r\n
$GPGGA,090054.15,5703.2877232,N,00952.3671959,E,2,8,1.2,-2.184,M,40.593,M,2.9,0123*54\r\n
$GPGGA,090054.20,5703.2877238,N,00952.3671972,E,2,8,1.2,-2.183,M,40.593,M,2.9,0123*56\r\n
$GPGGA,090054.25,5703.2877224,N,00952.3671950,E,2,8,1.2,-2.193,M,40.593,M,3.1,0123*56\r\n
$GPGGA,090054.30,5703.2877229,N,00952.3671960,E,2,8,1.2,-2.192,M,40.593,M,3.1,0123*5D\r\n
$GPGGA,090054.35,5703.2877237,N,00952.3671971,E,2,8,1.2,-2.192,M,40.593,M,3.1,0123*57\r\n
$GPGGA,090054.40,5703.2877239,N,00952.3671975,E,2,8,1.2,-2.192,M,40.593,M,3.1,0123*5F\r\n
$GPGGA,090054.45,5703.2877211,N,00952.3671934,E,2,8,1.2,-2.203,M,40.593,M,0.9,0123*55\r\n
$GPGGA,090054.50,5703.2877210,N,00952.3671920,E,2,8,1.2,-2.207,M,40.593,M,0.9,0123*51\r\n
$GPGGA,090054.55,5703.2877216,N,00952.3671918,E,2,8,1.2,-2.211,M,40.593,M,0.9,0123*5E\r\n
$GPGGA,090054.60,5703.2877215,N,00952.3671913,E,2,8,1.2,-2.213,M,40.593,M,0.9,0123*52\r\n
$GPGGA,090054.65,5703.2877207,N,00952.3671900,E,2,8,1.2,-2.214,M,40.593,M,1.2,0123*5B\r\n
$GPGGA,090054.70,5703.2877211,N,00952.3671896,E,2,8,1.2,-2.215,M,40.593,M,1.2,0123*57\r\n
$GPGGA,090054.75,5703.2877217,N,00952.3671897,E,2,8,1.2,-2.215,M,40.593,M,1.2,0123*55\r\n
$GPGGA,090054.80,5703.2877218,N,00952.3671891,E,2,8,1.2,-2.215,M,40.593,M,1.2,0123*56\r\n
$GPGGA,090054.85,5703.2877219,N,00952.3671885,E,2,8,1.2,-2.215,M,40.593,M,1.5,0123*50\r\n
$GPGGA,090054.90,5703.2877219,N,00952.3671877,E,2,8,1.2,-2.216,M,40.593,M,1.5,0123*5A\r\n
$GPGGA,090054.95,5703.2877217,N,00952.3671867,E,2,8,1.2,-2.216,M,40.593,M,1.5,0123*50\r\n
$GPGGA,090055.00,5703.2877218,N,00952.3671857,E,2,8,1.2,-2.217,M,40.593,M,1.5,0123*50\r\n
$GPGGA,090055.05,5703.2877209,N,00952.3671825,E,2,8,1.2,-2.211,M,40.593,M,1.8,0123*5B\r\n
$GPGGA,090055.10,5703.2877206,N,00952.3671811,E,2,8,1.2,-2.211,M,40.593,M,1.8,0123*57\r\n
$GPGGA,090055.15,5703.2877202,N,00952.3671795,E,2,8,1.2,-2.211,M,40.593,M,1.8,0123*55\r\n
$GPGGA,090055.20,5703.2877200,N,00952.3671786,E,2,8,1.2,-2.212,M,40.593,M,1.8,0123*50\r\n
$GPGGA,090055.25,5703.2877183,N,00952.3671773,E,2,8,1.2,-2.200,M,40.593,M,2.1,0123*5E\r\n
$GPGGA,090055.30,5703.2877172,N,00952.3671762,E,2,8,1.2,-2.198,M,40.593,M,2.1,0123*56\r\n
$GPGGA,090055.35,5703.2877181,N,00952.3671764,E,2,8,1.2,-2.196,M,40.593,M,2.1,0123*57\r\n
$GPGGA,090055.40,5703.2877172,N,00952.3671765,E,2,8,1.2,-2.192,M,40.593,M,2.1,0123*5C\r\n
$GPGGA,090055.45,5703.2877178,N,00952.3671774,E,2,8,1.2,-2.190,M,40.593,M,0.8,0123*5A\r\n
$GPGGA,090055.50,5703.2877185,N,00952.3671784,E,2,8,1.2,-2.188,M,40.593,M,0.8,0123*5A\r\n
$GPGGA,090055.55,5703.2877199,N,00952.3671784,E,2,8,1.2,-2.187,M,40.593,M,0.8,0123*5D\r\n
$GPGGA,090055.60,5703.2877192,N,00952.3671783,E,2,8,1.2,-2.187,M,40.593,M,0.8,0123*57\r\n
$GPGGA,090055.65,5703.2877199,N,00952.3671788,E,2,8,1.2,-2.187,M,40.593,M,1.1,0123*5A\r\n
$GPGGA,090055.70,5703.2877203,N,00952.3671786,E,2,8,1.2,-2.185,M,40.593,M,1.1,0123*52\r\n
