$GPGGA,111041.20,5703.3619482,N,00952.2385928,E,2,10,0.8,-0.986,M,40.593,M,2.4,0123*6A\r\n
$GPGGA,111041.25,5703.3619683,N,00952.2386038,E,2,10,0.8,-0.987,M,40.593,M,2.7,0123*65\r\n
$GPGGA,111041.30,5703.3619882,N,00952.2386146,E,2,10,0.8,-0.988,M,40.593,M,2.7,0123*69\r\n
$GPGGA,111041.35,5703.3620085,N,00952.2386264,E,2,10,0.8,-0.988,M,40.593,M,2.7,0123*6A\r\n
$GPGGA,111041.40,5703.3620296,N,00952.2386369,E,2,10,0.8,-0.987,M,40.593,M,2.7,0123*6B\r\n
$GPGGA,111041.45,5703.3620506,N,00952.2386478,E,2,10,0.8,-0.984,M,40.593,M,2.9,0123*6A\r\n
$GPGGA,111041.50,5703.3620715,N,00952.2386587,E,2,10,0.8,-0.984,M,40.593,M,2.9,0123*6F\r\n
$GPGGA,111041.55,5703.3620917,N,00952.2386691,E,2,10,0.8,-0.982,M,40.593,M,2.9,0123*64\r\n
$GPGGA,111041.60,5703.3621120,N,00952.2386801,E,2,10,0.8,-0.979,M,40.593,M,2.9,0123*6C\r\n
$GPGGA,111041.65,5703.3621316,N,00952.2386917,E,2,10,0.8,-0.980,M,40.593,M,3.1,0123*67\r\n
$GPGGA,111041.70,5703.3621531,N,00952.2387030,E,2,10,0.8,-0.980,M,40.593,M,3.1,0123*6D\r\n
$GPGGA,111041.75,5703.3621748,N,00952.2387150,E,2,10,0.8,-0.979,M,40.593,M,3.1,0123*65\r\n
$GPGGA,111041.80,5703.3621953,N,00952.2387270,E,2,10,0.8,-0.979,M,40.593,M,3.1,0123*6A\r\n
$GPGGA,111041.85,5703.3622156,N,00952.2387380,E,2,10,0.8,-0.982,M,40.593,M,3.3,0123*69\r\n
$GPGGA,111041.90,5703.3622366,N,00952.2387496,E,2,10,0.8,-0.984,M,40.593,M,3.3,0123*6A\r\n
$GPGGA,111041.95,5703.3622585,N,00952.2387605,E,2,10,0.8,-0.984,M,40.593,M,3.3,0123*6C\r\n
$GPGGA,111042.00,5703.3622797,N,00952.2387728,E,2,10,0.8,-0.985,M,40.593,M,3.3,0123*6D\r\n
$GPGGA,111042.05,5703.3623006,N,00952.2387843,E,2,10,0.8,-0.985,M,40.593,M,3.5,0123*62\r\n
$GPGGA,111042.10,5703.3623212,N,00952.2387948,E,2,10,0.8,-0.986,M,40.593,M,3.5,0123*68\r\n
$GPGGA,111042.15,5703.3623420,N,00952.2388060,E,2,10,0.8,-0.985,M,40.593,M,3.5,0123*65\r\n
$GPGGA,111042.20,5703.3623632,N,00952.2388167,E,2,10,0.8,-0.984,M,40.593,M,3.5,0123*65\r\n
$GPGGA,111042.25,5703.3623834,N,00952.2388278,E,2,10,0.8,-0.986,M,40.593,M,2.3,0123*60\r\n
$GPGGA,111042.30,5703.3624039,N,00952.2388394,E,2,10,0.8,-0.986,M,40.593,M,2.3,0123*65\r\n
$GPGGA,111042.35,5703.3624253,N,00952.2388500,E,2,10,0.8,-0.984,M,40.593,M,2.3,0123*67\r\n
$GPGGA,111042.40,5703.3624445,N,00952.2388614,E,2,10,0.8,-0.986,M,40.593,M,2.3,0123*60\r\n
$GPGGA,111042.45,5703.3624653,N,00952.2388730,E,2,10,0.8,-0.984,M,40.593,M,2.6,0123*60\r\n
$GPGGA,111042.50,5703.3624856,N,00952.2388845,E,2,10,0.8,-0.982,M,40.593,M,2.6,0123*64\r\n
$GPGGA,111042.55,5703.3625065,N,00952.2388963,E,2,10,0.8,-0.981,M,40.593,M,2.6,0123*6E\r\n
$GPGGA,111042.60,5703.3625274,N,00952.2389073,E,2,10,0.8,-0.981,M,40.593,M,2.6,0123*63\r\n
$GPGGA,111042.65,5703.3625484,N,00952.2389194,E,2,10,0.8,-0.981,M,40.593,M,2.8,0123*69\r\n
$GPGGA,111042.70,5703.3625689,N,00952.2389306,E,2,10,0.8,-0.983,M,40.593,M,2.8,0123*69\r\n
$GPGGA,111042.75,5703.3625895,N,00952.2389416,E,2,10,0.8,-0.985,M,40.593,M,2.8,0123*6F\r\n
$GPGGA,111042.80,5703.3626112,N,00952.2389538,E,2,10,0.8,-0.983,M,40.593,M,2.8,0123*6B\r\n
$GPGGA,111042.85,5703.3626319,N,00952.2389660,E,2,10,0.8,-0.982,M,40.593,M,3.1,0123*60\r\n
$GPGGA,111042.90,5703.3626532,N,00952.2389786,E,2,10,0.8,-0.982,M,40.593,M,3.1,0123*62\r\n
$GPGGA,111042.95,5703.3626744,N,00952.2389906,E,2,10,0.8,-0.982,M,40.593,M,3.1,0123*62\r\n
$GPGGA,111043.00,5703.3626950,N,00952.2390025,E,2,10,0.8,-0.983,M,40.593,M,3.1,0123*65\r\n
$GPGGA,111043.05,5703.3627149,N,00952.2390140,E,2,10,0.8,-0.986,M,40.593,M,3.3,0123*64\r\n
$GPGGA,111043.10,5703.3627364,N,00952.2390247,E,2,10,0.8,-0.987,M,40.593,M,3.3,0123*68\r\n
$GPGGA,111043.15,5703.3627572,N,00952.2390357,E,2,10,0.8,-0.987,M,40.593,M,3.3,0123*6C\r\n
$GPGGA,111043.20,5703.3627787,N,00952.2390471,E,2,10,0.8,-0.985,M,40.593,M,3.3,0123*63\r\n
$GPGGA,111043.25,5703.3627991,N,00952.2390567,E,2,10,0.8,-0.984,M,40.593,M,0.3,0123*6B\r\n
$GPGGA,111043.30,5703.3628204,N,00952.2390669,E,2,10,0.8,-0.984,M,40.593,M,0.3,0123*6A\r\n
$GPGGA,111043.35,5703.3628411,N,00952.2390771,E,2,10,0.8,-0.983,M,40.593,M,0.3,0123*62\r\n
$GPGGA,111043.40,5703.3628622,N,00952.2390883,E,2,10,0.8,-0.983,M,40.593,M,0.3,0123*60\r\n
$GPGGA,111043.45,5703.3628830,N,00952.2390996,E,2,10,0.8,-0.986,M,40.593,M,0.6,0123*6D\r\n
$GPGGA,111043.50,5703.3629032,N,00952.2391115,E,2,10,0.8,-0.988,M,40.593,M,0.6,0123*6E\r\n
$GPGGA,111043.55,5703.3629251,N,00952.2391214,E,2,10,0.8,-0.989,M,40.593,M,0.6,0123*6F\r\n
$GPGGA,111043.60,5703.3629467,N,00952.2391315,E,2,10,0.8,-0.988,M,40.593,M,0.6,0123*6B\r\n
$GPGGA,111043.65,5703.3629675,N,00952.2391423,E,2,10,0.8,-0.986,M,40.593,M,0.9,0123*6C\r\n
$GPGGA,111043.70,5703.3629884,N,00952.2391535,E,2,10,0.8,-0.986,M,40.593,M,0.9,0123*6E\r\n
$GPGGA,111043.75,5703.3630102,N,00952.2391637,E,2,10,0.8,-0.986,M,40.593,M,0.9,0123*65\r\n
$GPGGA,111043.80,5703.3630310,N,00952.2391747,E,2,10,0.8,-0.989,M,40.593,M,0.9,0123*67\r\n
$GPGGA,111043.85,5703.3630531,N,00952.2391857,E,2,10,0.8,-0.991,M,40.593,M,1.1,0123*69\r\n
$GPGGA,111043.90,5703.3630745,N,00952.2391961,E,2,10,0.8,-0.990,M,40.593,M,1.1,0123*69\r\n
$GPGGA,111043.95,5703.3630947,N,00952.2392071,E,2,10,0.8,-0.992,M,40.593,M,1.1,0123*69\r\n
$GPGGA,111044.00,5703.3631162,N,00952.2392179,E,2,10,0.8,-0.992,M,40.593,M,1.1,0123*65\r\n
$GPGGA,111044.05,5703.3631376,N,00952.2392299,E,2,10,0.8,-0.988,M,40.593,M,1.3,0123*63\r\n
$GPGGA,111044.10,5703.3631582,N,00952.2392411,E,2,10,0.8,-0.987,M,40.593,M,1.3,0123*63\r\n
$GPGGA,111044.15,5703.3631784,N,00952.2392514,E,2,10,0.8,-0.988,M,40.593,M,1.3,0123*69\r\n
$GPGGA,111044.20,5703.3631986,N,00952.2392633,E,2,10,0.8,-0.988,M,40.593,M,1.3,0123*65\r\n
$GPGGA,111044.25,5703.3632195,N,00952.2392733,E,2,10,0.8,-0.987,M,40.593,M,1.6,0123*62\r\n
$GPGGA,111044.30,5703.3632405,N,00952.2392841,E,2,10,0.8,-0.985,M,40.593,M,1.6,0123*62\r\n
$GPGGA,111044.35,5703.3632618,N,00952.2392946,E,2,10,0.8,-0.984,M,40.593,M,1.6,0123*6E\r\n
$GPGGA,111044.40,5703.3632824,N,00952.2393060,E,2,10,0.8,-0.983,M,40.593,M,1.6,0123*66\r\n
$GPGGA,111044.45,5703.3633032,N,00952.2393167,E,2,10,0.8,-0.982,M,40.593,M,1.8,0123*64\r\n
$GPGGA,111044.50,5703.3633248,N,00952.2393283,E,2,10,0.8,-0.982,M,40.593,M,1.8,0123*66\r\n
$GPGGA,111044.55,5703.3633464,N,00952.2393397,E,2,10,0.8,-0.983,M,40.593,M,1.8,0123*6E\r\n
$GPGGA,111044.60,5703.3633677,N,00952.2393507,E,2,10,0.8,-0.985,M,40.593,M,1.8,0123*61\r\n
$GPGGA,111044.65,5703.3633886,N,00952.2393614,E,2,10,0.8,-0.991,M,40.593,M,2.0,0123*6B\r\n
$GPGGA,111044.70,5703.3634102,N,00952.2393729,E,2,10,0.8,-0.993,M,40.593,M,2.0,0123*60\r\n
$GPGGA,111044.75,5703.3634326,N,00952.2393831,E,2,10,0.8,-0.994,M,40.593,M,2.0,0123*60\r\n
$GPGGA,111044.80,5703.3634538,N,00952.2393937,E,2,10,0.8,-0.997,M,40.593,M,2.0,0123*67\r\n
$GPGGA,111044.85,5703.3634748,N,00952.2394042,E,2,10,0.8,-0.993,M,40.593,M,2.2,0123*6D\r\n
$GPGGA,111044.90,5703.3634955,N,00952.2394153,E,2,10,0.8,-0.995,M,40.593,M,2.2,0123*6C\r\n
$GPGGA,111044.95,5703.3635169,N,00952.2394260,E,2,10,0.8,-0.996,M,40.593,M,2.2,0123*6F\r\n
$GPGGA,111045.00,5703.3635388,N,00952.2394364,E,2,10,0.8,-0.993,M,40.593,M,2.2,0123*6F\r\n
$GPGGA,111045.05,5703.3635597,N,00952.2394478,E,2,10,0.8,-0.989,M,40.593,M,2.4,0123*65\r\n
$GPGGA,111045.10,5703.3635803,N,00952.2394588,E,2,10,0.8,-0.989,M,40.593,M,2.4,0123*6F\r\n
$GPGGA,111045.15,5703.3636011,N,00952.2394696,E,2,10,0.8,-0.991,M,40.593,M,2.4,0123*67\r\n
$GPGGA,111045.20,5703.3636222,N,00952.2394803,E,2,10,0.8,-0.992,M,40.593,M,2.4,0123*62\r\n
$GPGGA,111045.25,5703.3636445,N,00952.2394904,E,2,10,0.8,-0.993,M,40.593,M,2.7,0123*64\r\n
$GPGGA,111045.30,5703.3636659,N,00952.2394998,E,2,10,0.8,-0.992,M,40.593,M,2.7,0123*6B\r\n
$GPGGA,111045.35,5703.3636866,N,00952.2395101,E,2,10,0.8,-0.991,M,40.593,M,2.7,0123*66\r\n
$GPGGA,111045.40,5703.3637078,N,00952.2395205,E,2,10,0.8,-0.990,M,40.593,M,2.7,0123*64\r\n
$GPGGA,111045.45,5703.3637294,N,00952.2395303,E,2,10,0.8,-0.986,M,40.593,M,2.9,0123*6F\r\n
$GPGGA,111045.50,5703.3637508,N,00952.2395412,E,2,10,0.8,-0.986,M,40.593,M,2.9,0123*6E\r\n
$GPGGA,111045.55,5703.3637718,N,00952.2395522,E,2,10,0.8,-0.985,M,40.593,M,2.9,0123*69\r\n
$GPGGA,111045.60,5703.3637936,N,00952.2395623,E,2,10,0.8,-0.984,M,40.593,M,2.9,0123*6E\r\n
$GPGGA,111045.65,5703.3638155,N,00952.2395735,E,2,10,0.8,-0.985,M,40.593,M,3.1,0123*67\r\n
$GPGGA,111045.70,5703.3638366,N,00952.2395846,E,2,10,0.8,-0.985,M,40.593,M,3.1,0123*6A\r\n
$GPGGA,111045.75,5703.3638580,N,00952.2395953,E,2,10,0.8,-0.983,M,40.593,M,3.1,0123*62\r\n
$GPGGA,111045.80,5703.3638794,N,00952.2396056,E,2,10,0.8,-0.981,M,40.593,M,3.1,0123*62\r\n
$GPGGA,111045.85,5703.3639011,N,00952.2396166,E,2,10,0.8,-0.981,M,40.593,M,3.3,0123*6C\r\n
$GPGGA,111045.90,5703.3639219,N,00952.2396277,E,2,10,0.8,-0.982,M,40.593,M,3.3,0123*62\r\n
$GPGGA,111045.95,5703.3639431,N,00952.2396388,E,2,10,0.8,-0.981,M,40.593,M,3.3,0123*69\r\n
$GPGGA,111046.00,5703.3639651,N,00952.2396491,E,2,10,0.8,-0.981,M,40.593,M,3.3,0123*6D\r\n
$GPGGA,111046.05,5703.3639866,N,00952.2396596,E,2,10,0.8,-0.981,M,40.593,M,3.5,0123*62\r\n
$GPGGA,111046.10,5703.3640078,N,00952.2396685,E,2,10,0.8,-0.983,M,40.593,M,3.5,0123*6C\r\n
$GPGGA,111046.15,5703.3640302,N,00952.2396790,E,2,10,0.8,-0.984,M,40.593,M,3.5,0123*65\r\n
$GPGGA,111046.20,5703.3640519,N,00952.2396885,E,2,10,0.8,-0.986,M,40.593,M,3.5,0123*66\r\n
$GPGGA,111046.25,5703.3640739,N,00952.2396977,E,2,10,0.8,-0.986,M,40.593,M,3.7,0123*6D\r\n
$GPGGA,111046.30,5703.3640953,N,00952.2397071,E,2,10,0.8,-0.986,M,40.593,M,3.7,0123*65\r\n
$GPGGA,111046.35,5703.3641171,N,00952.2397176,E,2,10,0.8,-0.985,M,40.593,M,3.7,0123*6C\r\n
$GPGGA,111046.40,5703.3641381,N,00952.2397279,E,2,10,0.8,-0.986,M,40.593,M,3.7,0123*6C\r\n
$GPGGA,111046.45,5703.3641589,N,00952.2397370,E,2,10,0.8,-0.988,M,40.593,M,2.6,0123*61\r\n
$GPGGA,111046.50,5703.3641808,N,00952.2397469,E,2,10,0.8,-0.989,M,40.593,M,2.6,0123*6F\r\n
$GPGGA,111046.55,5703.3642030,N,00952.2397571,E,2,10,0.8,-0.987,M,40.593,M,2.6,0123*6C\r\n
$GPGGA,111046.60,5703.3642233,N,00952.2397673,E,2,10,0.8,-0.988,M,40.593,M,2.6,0123*65\r\n
$GPGGA,111046.65,5703.3642439,N,00952.2397767,E,2,10,0.8,-0.985,M,40.593,M,2.8,0123*6B\r\n
$GPGGA,111046.70,5703.3642663,N,00952.2397850,E,2,10,0.8,-0.983,M,40.593,M,2.8,0123*6F\r\n
$GPGGA,111046.75,5703.3642874,N,00952.2397955,E,2,10,0.8,-0.982,M,40.593,M,2.8,0123*67\r\n
$GPGGA,111046.80,5703.3643096,N,00952.2398058,E,2,10,0.8,-0.980,M,40.593,M,2.8,0123*61\r\n
$GPGGA,111046.85,5703.3643304,N,00952.2398165,E,2,10,0.8,-0.984,M,40.593,M,3.1,0123*6F\r\n
$GPGGA,111046.90,5703.3643515,N,00952.2398267,E,2,10,0.8,-0.985,M,40.593,M,3.1,0123*6D\r\n
$GPGGA,111046.95,5703.3643720,N,00952.2398365,E,2,10,0.8,-0.985,M,40.593,M,3.1,0123*6F\r\n
$GPGGA,111047.00,5703.3643928,N,00952.2398463,E,2,10,0.8,-0.986,M,40.593,M,3.1,0123*66\r\n
$GPGGA,111047.05,5703.3644137,N,00952.2398565,E,2,10,0.8,-0.985,M,40.593,M,3.3,0123*64\r\n
$GPGGA,111047.10,5703.3644356,N,00952.2398673,E,2,10,0.8,-0.985,M,40.593,M,3.3,0123*61\r\n
$GPGGA,111047.15,5703.3644568,N,00952.2398786,E,2,10,0.8,-0.984,M,40.593,M,3.3,0123*65\r\n
$GPGGA,111047.20,5703.3644772,N,00952.2398887,E,2,10,0.8,-0.987,M,40.593,M,3.3,0123*67\r\n
$GPGGA,111047.25,5703.3644979,N,00952.2398989,E,2,10,0.8,-0.991,M,40.593,M,3.5,0123*69\r\n
$GPGGA,111047.30,5703.3645201,N,00952.2399097,E,2,10,0.8,-0.993,M,40.593,M,3.5,0123*6D\r\n
$GPGGA,111047.35,5703.3645416,N,00952.2399205,E,2,10,0.8,-0.993,M,40.593,M,3.5,0123*61\r\n
$GPGGA,111047.40,5703.3645622,N,00952.2399304,E,2,10,0.8,-0.993,M,40.593,M,3.5,0123*66\r\n
$GPGGA,111047.45,5703.3645833,N,00952.2399404,E,2,10,0.8,-0.992,M,40.593,M,2.8,0123*67\r\n
$GPGGA,111047.50,5703.3646040,N,00952.2399503,E,2,10,0.8,-0.992,M,40.593,M,2.8,0123*6A\r\n
$GPGGA,111047.55,5703.3646252,N,00952.2399590,E,2,10,0.8,-0.993,M,40.593,M,2.8,0123*65\r\n
$GPGGA,111047.60,5703.3646471,N,00952.2399682,E,2,10,0.8,-0.992,M,40.593,M,2.8,0123*65\r\n
$GPGGA,111047.65,5703.3646684,N,00952.2399772,E,2,10,0.8,-0.993,M,40.593,M,3.1,0123*6F\r\n
$GPGGA,111047.70,5703.3646892,N,00952.2399862,E,2,10,0.8,-0.994,M,40.593,M,3.1,0123*6B\r\n
$GPGGA,111047.75,5703.3647108,N,00952.2399962,E,2,10,0.8,-0.990,M,40.593,M,3.1,0123*60\r\n
$GPGGA,111047.80,5703.3647313,N,00952.2400057,E,2,10,0.8,-0.989,M,40.593,M,3.1,0123*62\r\n
$GPGGA,111047.85,5703.3647518,N,00952.2400154,E,2,10,0.8,-0.987,M,40.593,M,3.3,0123*64\r\n
$GPGGA,111047.90,5703.3647729,N,00952.2400255,E,2,10,0.8,-0.987,M,40.593,M,3.3,0123*62\r\n
$GPGGA,111047.95,5703.3647943,N,00952.2400353,E,2,10,0.8,-0.987,M,40.593,M,3.3,0123*62\r\n
$GPGGA,111048.00,5703.3648168,N,00952.2400453,E,2,10,0.8,-0.984,M,40.593,M,3.3,0123*6B\r\n
$GPGGA,111048.05,5703.3648375,N,00952.2400554,E,2,10,0.8,-0.987,M,40.593,M,3.5,0123*63\r\n
$GPGGA,111048.10,5703.3648594,N,00952.2400658,E,2,10,0.8,-0.989,M,40.593,M,3.5,0123*6F\r\n
$GPGGA,111048.15,5703.3648814,N,00952.2400753,E,2,10,0.8,-0.989,M,40.593,M,3.5,0123*65\r\n
$GPGGA,111048.20,5703.3649032,N,00952.2400841,E,2,10,0.8,-0.990,M,40.593,M,3.5,0123*6A\r\n
$GPGGA,111048.25,5703.3649251,N,00952.2400937,E,2,10,0.8,-0.991,M,40.593,M,3.8,0123*64\r\n
$GPGGA,111048.30,5703.3649463,N,00952.2401034,E,2,10,0.8,-0.992,M,40.593,M,3.8,0123*6F\r\n
$GPGGA,111048.35,5703.3649690,N,00952.2401119,E,2,10,0.8,-0.991,M,40.593,M,3.8,0123*69\r\n
$GPGGA,111048.40,5703.3649903,N,00952.2401217,E,2,10,0.8,-0.990,M,40.593,M,3.8,0123*62\r\n
$GPGGA,111048.45,5703.3650127,N,00952.2401311,E,2,10,0.8,-0.984,M,40.593,M,1.8,0123*61\r\n
$GPGGA,111048.50,5703.3650348,N,00952.2401405,E,2,10,0.8,-0.983,M,40.593,M,1.8,0123*6B\r\n
$GPGGA,111048.55,5703.3650565,N,00952.2401500,E,2,10,0.8,-0.982,M,40.593,M,1.8,0123*62\r\n
$GPGGA,111048.60,5703.3650768,N,00952.2401599,E,2,10,0.8,-0.981,M,40.593,M,1.8,0123*68\r\n
$GPGGA,111048.65,5703.3650974,N,00952.2401692,E,2,10,0.8,-0.982,M,40.593,M,2.0,0123*6E\r\n
$GPGGA,111048.70,5703.3651200,N,00952.2401771,E,2,10,0.8,-0.980,M,40.593,M,2.0,0123*6D\r\n
$GPGGA,111048.75,5703.3651415,N,00952.2401881,E,2,10,0.8,-0.978,M,40.593,M,2.0,0123*6D\r\n
$GPGGA,111048.80,5703.3651632,N,00952.2401992,E,2,10,0.8,-0.976,M,40.593,M,2.0,0123*6D\r\n
$GPGGA,111048.85,5703.3651837,N,00952.2402087,E,2,10,0.8,-0.977,M,40.593,M,2.2,0123*6E\r\n
$GPGGA,111048.90,5703.3652066,N,00952.2402185,E,2,10,0.8,-0.977,M,40.593,M,2.2,0123*66\r\n
$GPGGA,111048.95,5703.3652282,N,00952.2402273,E,2,10,0.8,-0.977,M,40.593,M,2.2,0123*61\r\n
$GPGGA,111049.00,5703.3652507,N,00952.2402365,E,2,10,0.8,-0.976,M,40.593,M,2.2,0123*61\r\n
$GPGGA,111049.05,5703.3652716,N,00952.2402452,E,2,10,0.8,-0.979,M,40.593,M,2.4,0123*6C\r\n
$GPGGA,111049.10,5703.3652927,N,00952.2402522,E,2,10,0.8,-0.980,M,40.593,M,2.4,0123*64\r\n
$GPGGA,111049.15,5703.3653142,N,00952.2402603,E,2,10,0.8,-0.980,M,40.593,M,2.4,0123*6B\r\n
$GPGGA,111049.20,5703.3653356,N,00952.2402674,E,2,10,0.8,-0.982,M,40.593,M,2.4,0123*68\r\n
$GPGGA,111049.25,5703.3653564,N,00952.2402751,E,2,10,0.8,-0.985,M,40.593,M,2.7,0123*68\r\n
$GPGGA,111049.30,5703.3653773,N,00952.2402829,E,2,10,0.8,-0.987,M,40.593,M,2.7,0123*6A\r\n
$GPGGA,111049.35,5703.3653994,N,00952.2402910,E,2,10,0.8,-0.985,M,40.593,M,2.7,0123*61\r\n
$GPGGA,111049.40,5703.3654215,N,00952.2402979,E,2,10,0.8,-0.984,M,40.593,M,2.7,0123*68\r\n
$GPGGA,111049.45,5703.3654439,N,00952.2403042,E,2,10,0.8,-0.978,M,40.593,M,2.9,0123*68\r\n
$GPGGA,111049.50,5703.3654654,N,00952.2403118,E,2,10,0.8,-0.976,M,40.593,M,2.9,0123*65\r\n
$GPGGA,111049.55,5703.3654871,N,00952.2403191,E,2,10,0.8,-0.976,M,40.593,M,2.9,0123*68\r\n
$GPGGA,111049.60,5703.3655095,N,00952.2403262,E,2,10,0.8,-0.975,M,40.593,M,2.9,0123*61\r\n
$GPGGA,111049.65,5703.3655322,N,00952.2403326,E,2,10,0.8,-0.975,M,40.593,M,3.1,0123*63\r\n
$GPGGA,111049.70,5703.3655545,N,00952.2403403,E,2,10,0.8,-0.975,M,40.593,M,3.1,0123*60\r\n
$GPGGA,111049.75,5703.3655767,N,00952.2403485,E,2,10,0.8,-0.976,M,40.593,M,3.1,0123*6A\r\n
$GPGGA,111049.80,5703.3655987,N,00952.2403555,E,2,10,0.8,-0.978,M,40.593,M,3.1,0123*62\r\n
$GPGGA,111049.85,5703.3656234,N,00952.2403625,E,2,10,0.8,-0.981,M,40.593,M,3.3,0123*67\r\n
$GPGGA,111049.90,5703.3656469,N,00952.2403709,E,2,10,0.8,-0.980,M,40.593,M,3.3,0123*63\r\n
$GPGGA,111049.95,5703.3656707,N,00952.2403791,E,2,10,0.8,-0.976,M,40.593,M,3.3,0123*65\r\n
$GPGGA,111050.00,5703.3656951,N,00952.2403874,E,2,10,0.8,-0.974,M,40.593,M,3.3,0123*6A\r\n
$GPGGA,111050.05,5703.3657195,N,00952.2403955,E,2,10,0.8,-0.973,M,40.593,M,3.5,0123*6D\r\n
$GPGGA,111050.10,5703.3657444,N,00952.2404033,E,2,10,0.8,-0.972,M,40.593,M,3.5,0123*6F\r\n
$GPGGA,111050.15,5703.3657709,N,00952.2404114,E,2,10,0.8,-0.969,M,40.593,M,3.5,0123*6E\r\n
$GPGGA,111050.20,5703.3657974,N,00952.2404197,E,2,10,0.8,-0.965,M,40.593,M,3.5,0123*6B\r\n
$GPGGA,111050.25,5703.3658239,N,00952.2404284,E,2,10,0.8,-0.960,M,40.593,M,3.7,0123*65\r\n
$GPGGA,111050.30,5703.3658511,N,00952.2404378,E,2,10,0.8,-0.956,M,40.593,M,3.7,0123*6B\r\n
$GPGGA,111050.35,5703.3658804,N,00952.2404475,E,2,10,0.8,-0.951,M,40.593,M,3.7,0123*6A\r\n
$GPGGA,111050.40,5703.3659100,N,00952.2404578,E,2,10,0.8,-0.947,M,40.593,M,3.7,0123*6F\r\n
$GPGGA,111050.45,5703.3659390,N,00952.2404675,E,2,10,0.8,-0.945,M,40.593,M,2.6,0123*6D\r\n
$GPGGA,111050.50,5703.3659702,N,00952.2404774,E,2,10,0.8,-0.939,M,40.593,M,2.6,0123*6D\r\n
$GPGGA,111050.55,5703.3660018,N,00952.2404868,E,2,10,0.8,-0.933,M,40.593,M,2.6,0123*66\r\n
$GPGGA,111050.60,5703.3660335,N,00952.2404978,E,2,10,0.8,-0.931,M,40.593,M,2.6,0123*6E\r\n
$GPGGA,111050.65,5703.3660653,N,00952.2405084,E,2,10,0.8,-0.930,M,40.593,M,2.8,0123*6A\r\n
$GPGGA,111050.70,5703.3660982,N,00952.2405189,E,2,10,0.8,-0.929,M,40.593,M,2.8,0123*69\r\n
$GPGGA,111050.75,5703.3661330,N,00952.2405299,E,2,10,0.8,-0.925,M,40.593,M,2.8,0123*60\r\n
$GPGGA,111050.80,5703.3661676,N,00952.2405402,E,2,10,0.8,-0.923,M,40.593,M,2.8,0123*6F\r\n
$GPGGA,111050.85,5703.3662029,N,00952.2405518,E,2,10,0.8,-0.921,M,40.593,M,3.1,0123*65\r\n
$GPGGA,111050.90,5703.3662389,N,00952.2405639,E,2,10,0.8,-0.921,M,40.593,M,3.1,0123*68\r\n
$GPGGA,111050.95,5703.3662755,N,00952.2405767,E,2,10,0.8,-0.922,M,40.593,M,3.1,0123*61\r\n
$GPGGA,111051.00,5703.3663129,N,00952.2405892,E,2,10,0.8,-0.925,M,40.593,M,3.1,0123*62\r\n
$GPGGA,111051.05,5703.3663518,N,00952.2406017,E,2,10,0.8,-0.926,M,40.593,M,3.3,0123*66\r\n
$GPGGA,111051.10,5703.3663897,N,00952.2406138,E,2,10,0.8,-0.929,M,40.593,M,3.3,0123*6B\r\n
$GPGGA,111051.15,5703.3664292,N,00952.2406236,E,2,10,0.8,-0.931,M,40.593,M,3.3,0123*62\r\n
$GPGGA,111051.20,5703.3664692,N,00952.2406337,E,2,10,0.8,-0.930,M,40.593,M,3.3,0123*61\r\n
$GPGGA,111051.25,5703.3665107,N,00952.2406443,E,2,10,0.8,-0.927,M,40.593,M,3.5,0123*6A\r\n
$GPGGA,111051.30,5703.3665526,N,00952.2406544,E,2,10,0.8,-0.927,M,40.593,M,3.5,0123*6F\r\n
$GPGGA,111051.35,5703.3665948,N,00952.2406643,E,2,10,0.8,-0.928,M,40.593,M,3.5,0123*65\r\n
$GPGGA,111051.40,5703.3666366,N,00952.2406741,E,2,10,0.8,-0.927,M,40.593,M,3.5,0123*6E\r\n
$GPGGA,111051.45,5703.3666785,N,00952.2406838,E,2,10,0.8,-0.928,M,40.593,M,2.8,0123*60\r\n
$GPGGA,111051.50,5703.3667210,N,00952.2406947,E,2,10,0.8,-0.928,M,40.593,M,2.8,0123*65\r\n
$GPGGA,111051.55,5703.3667657,N,00952.2407031,E,2,10,0.8,-0.927,M,40.593,M,2.8,0123*61\r\n
$GPGGA,111051.60,5703.3668096,N,00952.2407104,E,2,10,0.8,-0.927,M,40.593,M,2.8,0123*64\r\n
$GPGGA,111051.65,5703.3668537,N,00952.2407175,E,2,10,0.8,-0.921,M,40.593,M,3.1,0123*67\r\n
$GPGGA,111051.70,5703.3668987,N,00952.2407246,E,2,10,0.8,-0.921,M,40.593,M,3.1,0123*67\r\n
$GPGGA,111051.75,5703.3669458,N,00952.2407298,E,2,10,0.8,-0.919,M,40.593,M,3.1,0123*64\r\n
$GPGGA,111051.80,5703.3669911,N,00952.2407360,E,2,10,0.8,-0.919,M,40.593,M,3.1,0123*68\r\n
$GPGGA,111051.85,5703.3670365,N,00952.2407426,E,2,10,0.8,-0.919,M,40.593,M,3.3,0123*6B\r\n
$GPGGA,111051.90,5703.3670837,N,00952.2407479,E,2,10,0.8,-0.917,M,40.593,M,3.3,0123*67\r\n
$GPGGA,111051.95,5703.3671313,N,00952.2407511,E,2,10,0.8,-0.916,M,40.593,M,3.3,0123*60\r\n
$GPGGA,111052.00,5703.3671788,N,00952.2407537,E,2,10,0.8,-0.917,M,40.593,M,3.3,0123*6C\r\n
$GPGGA,111052.05,5703.3672269,N,00952.2407566,E,2,10,0.8,-0.917,M,40.593,M,3.5,0123*62\r\n
$GPGGA,111052.10,5703.3672762,N,00952.2407599,E,2,10,0.8,-0.916,M,40.593,M,3.5,0123*69\r\n
$GPGGA,111052.15,5703.3673252,N,00952.2407614,E,2,10,0.8,-0.914,M,40.593,M,3.5,0123*6F\r\n
$GPGGA,111052.20,5703.3673732,N,00952.2407604,E,2,10,0.8,-0.914,M,40.593,M,3.5,0123*6B\r\n
$GPGGA,111052.25,5703.3674213,N,00952.2407610,E,2,10,0.8,-0.912,M,40.593,M,3.8,0123*61\r\n
$GPGGA,111052.30,5703.3674706,N,00952.2407614,E,2,10,0.8,-0.912,M,40.593,M,3.8,0123*60\r\n
$GPGGA,111052.35,5703.3675201,N,00952.2407613,E,2,10,0.8,-0.911,M,40.593,M,3.8,0123*62\r\n
$GPGGA,111052.40,5703.3675709,N,00952.2407603,E,2,10,0.8,-0.910,M,40.593,M,3.8,0123*6D\r\n
$GPGGA,111052.45,5703.3676208,N,00952.2407581,E,2,10,0.8,-0.913,M,40.593,M,1.8,0123*67\r\n
$GPGGA,111052.50,5703.3676703,N,00952.2407559,E,2,10,0.8,-0.910,M,40.593,M,1.8,0123*6B\r\n
$GPGGA,111052.55,5703.3677212,N,00952.2407508,E,2,10,0.8,-0.906,M,40.593,M,1.8,0123*69\r\n
$GPGGA,111052.60,5703.3677727,N,00952.2407433,E,2,10,0.8,-0.905,M,40.593,M,1.8,0123*66\r\n
$GPGGA,111052.65,5703.3678233,N,00952.2407360,E,2,10,0.8,-0.906,M,40.593,M,2.0,0123*65\r\n
$GPGGA,111052.70,5703.3678739,N,00952.2407300,E,2,10,0.8,-0.908,M,40.593,M,2.0,0123*66\r\n
$GPGGA,111052.75,5703.3679255,N,00952.2407223,E,2,10,0.8,-0.908,M,40.593,M,2.0,0123*6D\r\n
$GPGGA,111052.80,5703.3679768,N,00952.2407142,E,2,10,0.8,-0.908,M,40.593,M,2.0,0123*68\r\n
$GPGGA,111052.85,5703.3680283,N,00952.2407052,E,2,10,0.8,-0.909,M,40.593,M,2.2,0123*68\r\n
$GPGGA,111052.90,5703.3680800,N,00952.2406952,E,2,10,0.8,-0.911,M,40.593,M,2.2,0123*6C\r\n
$GPGGA,111052.95,5703.3681309,N,00952.2406824,E,2,10,0.8,-0.913,M,40.593,M,2.2,0123*68\r\n
$GPGGA,111053.00,5703.3681816,N,00952.2406692,E,2,10,0.8,-0.917,M,40.593,M,2.2,0123*67\r\n
$GPGGA,111053.05,5703.3682331,N,00952.2406561,E,2,10,0.8,-0.917,M,40.593,M,2.4,0123*66\r\n
$GPGGA,111053.10,5703.3682848,N,00952.2406398,E,2,10,0.8,-0.918,M,40.593,M,2.4,0123*68\r\n
$GPGGA,111053.15,5703.3683370,N,00952.2406231,E,2,10,0.8,-0.919,M,40.593,M,2.4,0123*6F\r\n
$GPGGA,111053.20,5703.3683886,N,00952.2406049,E,2,10,0.8,-0.919,M,40.593,M,2.4,0123*66\r\n
$GPGGA,111053.25,5703.3684395,N,00952.2405853,E,2,10,0.8,-0.922,M,40.593,M,2.7,0123*66\r\n
$GPGGA,111053.30,5703.3684911,N,00952.2405661,E,2,10,0.8,-0.919,M,40.593,M,2.7,0123*63\r\n
$GPGGA,111053.35,5703.3685420,N,00952.2405455,E,2,10,0.8,-0.918,M,40.593,M,2.7,0123*6C\r\n
$GPGGA,111053.40,5703.3685947,N,00952.2405249,E,2,10,0.8,-0.918,M,40.593,M,2.7,0123*69\r\n
$GPGGA,111053.45,5703.3686465,N,00952.2405015,E,2,10,0.8,-0.921,M,40.593,M,2.9,0123*6D\r\n
$GPGGA,111053.50,5703.3686982,N,00952.2404791,E,2,10,0.8,-0.921,M,40.593,M,2.9,0123*67\r\n
$GPGGA,111053.55,5703.3687501,N,00952.2404543,E,2,10,0.8,-0.921,M,40.593,M,2.9,0123*69\r\n
$GPGGA,111053.60,5703.3688016,N,00952.2404300,E,2,10,0.8,-0.919,M,40.593,M,2.9,0123*69\r\n
$GPGGA,111053.65,5703.3688531,N,00952.2404040,E,2,10,0.8,-0.918,M,40.593,M,3.1,0123*63\r\n
$GPGGA,111053.70,5703.3689049,N,00952.2403744,E,2,10,0.8,-0.917,M,40.593,M,3.1,0123*67\r\n
$GPGGA,111053.75,5703.3689571,N,00952.2403444,E,2,10,0.8,-0.915,M,40.593,M,3.1,0123*6D\r\n
$GPGGA,111053.80,5703.3690084,N,00952.2403165,E,2,10,0.8,-0.915,M,40.593,M,3.1,0123*66\r\n
$GPGGA,111053.85,5703.3690607,N,00952.2402865,E,2,10,0.8,-0.917,M,40.593,M,3.3,0123*66\r\n
$GPGGA,111053.90,5703.3691131,N,00952.2402526,E,2,10,0.8,-0.918,M,40.593,M,3.3,0123*64\r\n
$GPGGA,111053.95,5703.3691659,N,00952.2402182,E,2,10,0.8,-0.918,M,40.593,M,3.3,0123*62\r\n
$GPGGA,111054.00,5703.3692173,N,00952.2401839,E,2,10,0.8,-0.917,M,40.593,M,3.3,0123*60\r\n
$GPGGA,111054.05,5703.3692682,N,00952.2401492,E,2,10,0.8,-0.917,M,40.593,M,3.5,0123*67\r\n
$GPGGA,111054.10,5703.3693193,N,00952.2401122,E,2,10,0.8,-0.917,M,40.593,M,3.5,0123*6B\r\n
$GPGGA,111054.15,5703.3693710,N,00952.2400762,E,2,10,0.8,-0.918,M,40.593,M,3.5,0123*6F\r\n
$GPGGA,111054.20,5703.3694224,N,00952.2400392,E,2,10,0.8,-0.919,M,40.593,M,3.5,0123*66\r\n
$GPGGA,111054.25,5703.3694738,N,00952.2400002,E,2,10,0.8,-0.925,M,40.593,M,3.7,0123*6C\r\n
$GPGGA,111054.30,5703.3695248,N,00952.2399596,E,2,10,0.8,-0.927,M,40.593,M,3.7,0123*66\r\n
$GPGGA,111054.35,5703.3695767,N,00952.2399176,E,2,10,0.8,-0.928,M,40.593,M,3.7,0123*6E\r\n
$GPGGA,111054.40,5703.3696275,N,00952.2398744,E,2,10,0.8,-0.930,M,40.593,M,3.7,0123*66\r\n
$GPGGA,111054.45,5703.3696788,N,00952.2398294,E,2,10,0.8,-0.926,M,40.593,M,1.3,0123*6D\r\n
$GPGGA,111054.50,5703.3697296,N,00952.2397856,E,2,10,0.8,-0.926,M,40.593,M,1.3,0123*69\r\n
$GPGGA,111054.55,5703.3697796,N,00952.2397430,E,2,10,0.8,-0.927,M,40.593,M,1.3,0123*64\r\n
$GPGGA,111054.60,5703.3698296,N,00952.2396965,E,2,10,0.8,-0.928,M,40.593,M,1.3,0123*6B\r\n
$GPGGA,111054.65,5703.3698792,N,00952.2396492,E,2,10,0.8,-0.932,M,40.593,M,1.7,0123*65\r\n
$GPGGA,111054.70,5703.3699297,N,00952.2396021,E,2,10,0.8,-0.934,M,40.593,M,1.7,0123*6A\r\n
$GPGGA,111054.75,5703.3699803,N,00952.2395517,E,2,10,0.8,-0.932,M,40.593,M,1.7,0123*6D\r\n
$GPGGA,111054.80,5703.3700307,N,00952.2395025,E,2,10,0.8,-0.932,M,40.593,M,1.7,0123*6D\r\n
$GPGGA,111054.85,5703.3700810,N,00952.2394536,E,2,10,0.8,-0.929,M,40.593,M,2.0,0123*6D\r\n
$GPGGA,111054.90,5703.3701303,N,00952.2394042,E,2,10,0.8,-0.930,M,40.593,M,2.0,0123*6F\r\n
$GPGGA,111054.95,5703.3701796,N,00952.2393516,E,2,10,0.8,-0.928,M,40.593,M,2.0,0123*68\r\n
$GPGGA,111055.00,5703.3702298,N,00952.2392973,E,2,10,0.8,-0.926,M,40.593,M,2.0,0123*6D\r\n
$GPGGA,111055.05,5703.3702793,N,00952.2392436,E,2,10,0.8,-0.929,M,40.593,M,2.3,0123*66\r\n
$GPGGA,111055.10,5703.3703286,N,00952.2391886,E,2,10,0.8,-0.930,M,40.593,M,2.3,0123*6E\r\n
$GPGGA,111055.15,5703.3703782,N,00952.2391339,E,2,10,0.8,-0.930,M,40.593,M,2.3,0123*65\r\n
$GPGGA,111055.20,5703.3704278,N,00952.2390774,E,2,10,0.8,-0.930,M,40.593,M,2.3,0123*68\r\n
$GPGGA,111055.25,5703.3704770,N,00952.2390218,E,2,10,0.8,-0.927,M,40.593,M,2.6,0123*6C\r\n
$GPGGA,111055.30,5703.3705257,N,00952.2389649,E,2,10,0.8,-0.929,M,40.593,M,2.6,0123*6F\r\n
$GPGGA,111055.35,5703.3705744,N,00952.2389055,E,2,10,0.8,-0.929,M,40.593,M,2.6,0123*66\r\n
$GPGGA,111055.40,5703.3706235,N,00952.2388454,E,2,10,0.8,-0.929,M,40.593,M,2.6,0123*60\r\n
$GPGGA,111055.45,5703.3706729,N,00952.2387862,E,2,10,0.8,-0.930,M,40.593,M,0.6,0123*61\r\n
$GPGGA,111055.50,5703.3707214,N,00952.2387264,E,2,10,0.8,-0.930,M,40.593,M,0.6,0123*63\r\n
$GPGGA,111055.55,5703.3707714,N,00952.2386653,E,2,10,0.8,-0.932,M,40.593,M,0.6,0123*60\r\n
$GPGGA,111055.60,5703.3708216,N,00952.2386034,E,2,10,0.8,-0.931,M,40.593,M,0.6,0123*6A\r\n
$GPGGA,111055.65,5703.3708714,N,00952.2385408,E,2,10,0.8,-0.926,M,40.593,M,0.9,0123*69\r\n
$GPGGA,111055.70,5703.3709203,N,00952.2384759,E,2,10,0.8,-0.926,M,40.593,M,0.9,0123*69\r\n
$GPGGA,111055.75,5703.3709688,N,00952.2384120,E,2,10,0.8,-0.929,M,40.593,M,0.9,0123*6C\r\n
$GPGGA,111055.80,5703.3710181,N,00952.2383468,E,2,10,0.8,-0.930,M,40.593,M,0.9,0123*66\r\n
$GPGGA,111055.85,5703.3710672,N,00952.2382818,E,2,10,0.8,-0.931,M,40.593,M,1.1,0123*6A\r\n
$GPGGA,111055.90,5703.3711159,N,00952.2382141,E,2,10,0.8,-0.931,M,40.593,M,1.1,0123*64\r\n
$GPGGA,111055.95,5703.3711655,N,00952.2381469,E,2,10,0.8,-0.930,M,40.593,M,1.1,0123*67\r\n
$GPGGA,111056.00,5703.3712139,N,00952.2380797,E,2,10,0.8,-0.926,M,40.593,M,1.1,0123*62\r\n
$GPGGA,111056.05,5703.3712619,N,00952.2380113,E,2,10,0.8,-0.922,M,40.593,M,1.3,0123*6E\r\n
$GPGGA,111056.10,5703.3713091,N,00952.2379401,E,2,10,0.8,-0.922,M,40.593,M,1.3,0123*6D\r\n
$GPGGA,111056.15,5703.3713574,N,00952.2378693,E,2,10,0.8,-0.922,M,40.593,M,1.3,0123*6E\r\n
$GPGGA,111056.20,5703.3714071,N,00952.2377979,E,2,10,0.8,-0.922,M,40.593,M,1.3,0123*6B\r\n
$GPGGA,111056.25,5703.3714552,N,00952.2377265,E,2,10,0.8,-0.920,M,40.593,M,1.6,0123*6B\r\n
$GPGGA,111056.30,5703.3715030,N,00952.2376565,E,2,10,0.8,-0.921,M,40.593,M,1.6,0123*68\r\n
$GPGGA,111056.35,5703.3715518,N,00952.2375824,E,2,10,0.8,-0.919,M,40.593,M,1.6,0123*62\r\n
$GPGGA,111056.40,5703.3716001,N,00952.2375074,E,2,10,0.8,-0.920,M,40.593,M,1.6,0123*69\r\n
$GPGGA,111056.45,5703.3716488,N,00952.2374348,E,2,10,0.8,-0.921,M,40.593,M,1.8,0123*6B\r\n
$GPGGA,111056.50,5703.3716970,N,00952.2373617,E,2,10,0.8,-0.921,M,40.593,M,1.8,0123*6D\r\n
$GPGGA,111056.55,5703.3717437,N,00952.2372860,E,2,10,0.8,-0.920,M,40.593,M,1.8,0123*69\r\n
$GPGGA,111056.60,5703.3717897,N,00952.2372086,E,2,10,0.8,-0.920,M,40.593,M,1.8,0123*69\r\n
$GPGGA,111056.65,5703.3718378,N,00952.2371312,E,2,10,0.8,-0.920,M,40.593,M,2.0,0123*6F\r\n
$GPGGA,111056.70,5703.3718865,N,00952.2370540,E,2,10,0.8,-0.920,M,40.593,M,2.0,0123*6C\r\n
$GPGGA,111056.75,5703.3719333,N,00952.2369761,E,2,10,0.8,-0.921,M,40.593,M,2.0,0123*68\r\n
$GPGGA,111056.80,5703.3719812,N,00952.2368988,E,2,10,0.8,-0.922,M,40.593,M,2.0,0123*61\r\n
$GPGGA,111056.85,5703.3720282,N,00952.2368199,E,2,10,0.8,-0.925,M,40.593,M,2.2,0123*60\r\n
$GPGGA,111056.90,5703.3720750,N,00952.2367406,E,2,10,0.8,-0.925,M,40.593,M,2.2,0123*62\r\n
$GPGGA,111056.95,5703.3721211,N,00952.2366608,E,2,10,0.8,-0.930,M,40.593,M,2.2,0123*6F\r\n
$GPGGA,111057.00,5703.3721675,N,00952.2365794,E,2,10,0.8,-0.931,M,40.593,M,2.2,0123*62\r\n
$GPGGA,111057.05,5703.3722139,N,00952.2364988,E,2,10,0.8,-0.935,M,40.593,M,2.4,0123*6B\r\n
$GPGGA,111057.10,5703.3722607,N,00952.2364166,E,2,10,0.8,-0.934,M,40.593,M,2.4,0123*6C\r\n
$GPGGA,111057.15,5703.3723066,N,00952.2363347,E,2,10,0.8,-0.934,M,40.593,M,2.4,0123*6F\r\n
$GPGGA,111057.20,5703.3723524,N,00952.2362524,E,2,10,0.8,-0.933,M,40.593,M,2.4,0123*6F\r\n
$GPGGA,111057.25,5703.3723983,N,00952.2361691,E,2,10,0.8,-0.929,M,40.593,M,2.7,0123*6D\r\n
$GPGGA,111057.30,5703.3724438,N,00952.2360849,E,2,10,0.8,-0.930,M,40.593,M,2.7,0123*61\r\n
$GPGGA,111057.35,5703.3724904,N,00952.2360008,E,2,10,0.8,-0.929,M,40.593,M,2.7,0123*63\r\n
$GPGGA,111057.40,5703.3725374,N,00952.2359191,E,2,10,0.8,-0.928,M,40.593,M,2.7,0123*67\r\n
$GPGGA,111057.45,5703.3725837,N,00952.2358360,E,2,10,0.8,-0.932,M,40.593,M,2.9,0123*66\r\n
$GPGGA,111057.50,5703.3726293,N,00952.2357516,E,2,10,0.8,-0.931,M,40.593,M,2.9,0123*6E\r\n
$GPGGA,111057.55,5703.3726744,N,00952.2356669,E,2,10,0.8,-0.931,M,40.593,M,2.9,0123*6E\r\n
$GPGGA,111057.60,5703.3727195,N,00952.2355824,E,2,10,0.8,-0.932,M,40.593,M,2.9,0123*64\r\n
$GPGGA,111057.65,5703.3727663,N,00952.2354972,E,2,10,0.8,-0.927,M,40.593,M,3.1,0123*61\r\n
$GPGGA,111057.70,5703.3728124,N,00952.2354121,E,2,10,0.8,-0.927,M,40.593,M,3.1,0123*60\r\n
$GPGGA,111057.75,5703.3728576,N,00952.2353256,E,2,10,0.8,-0.928,M,40.593,M,3.1,0123*6D\r\n
$GPGGA,111057.80,5703.3729047,N,00952.2352402,E,2,10,0.8,-0.926,M,40.593,M,3.1,0123*69\r\n
$GPGGA,111057.85,5703.3729509,N,00952.2351545,E,2,10,0.8,-0.926,M,40.593,M,3.3,0123*60\r\n
$GPGGA,111057.90,5703.3729974,N,00952.2350674,E,2,10,0.8,-0.926,M,40.593,M,3.3,0123*62\r\n
$GPGGA,111057.95,5703.3730447,N,00952.2349812,E,2,10,0.8,-0.926,M,40.593,M,3.3,0123*64\r\n
$GPGGA,111058.00,5703.3730905,N,00952.2348950,E,2,10,0.8,-0.927,M,40.593,M,3.3,0123*6B\r\n
$GPGGA,111058.05,5703.3731364,N,00952.2348091,E,2,10,0.8,-0.934,M,40.593,M,3.5,0123*62\r\n
$GPGGA,111058.10,5703.3731816,N,00952.2347227,E,2,10,0.8,-0.938,M,40.593,M,3.5,0123*64\r\n
$GPGGA,111058.15,5703.3732265,N,00952.2346343,E,2,10,0.8,-0.939,M,40.593,M,3.5,0123*6F\r\n
$GPGGA,111058.20,5703.3732711,N,00952.2345459,E,2,10,0.8,-0.937,M,40.593,M,3.5,0123*6E\r\n
$GPGGA,111058.25,5703.3733161,N,00952.2344577,E,2,10,0.8,-0.934,M,40.593,M,3.7,0123*66\r\n
$GPGGA,111058.30,5703.3733610,N,00952.2343699,E,2,10,0.8,-0.932,M,40.593,M,3.7,0123*61\r\n
$GPGGA,111058.35,5703.3734063,N,00952.2342825,E,2,10,0.8,-0.928,M,40.593,M,3.7,0123*62\r\n
$GPGGA,111058.40,5703.3734506,N,00952.2341954,E,2,10,0.8,-0.928,M,40.593,M,3.7,0123*62\r\n
$GPGGA,111058.45,5703.3734958,N,00952.2341090,E,2,10,0.8,-0.927,M,40.593,M,2.6,0123*6E\r\n
$GPGGA,111058.50,5703.3735411,N,00952.2340220,E,2,10,0.8,-0.927,M,40.593,M,2.6,0123*63\r\n
$GPGGA,111058.55,5703.3735861,N,00952.2339349,E,2,10,0.8,-0.928,M,40.593,M,2.6,0123*62\r\n
$GPGGA,111058.60,5703.3736308,N,00952.2338485,E,2,10,0.8,-0.927,M,40.593,M,2.6,0123*6A\r\n
$GPGGA,111058.65,5703.3736757,N,00952.2337631,E,2,10,0.8,-0.923,M,40.593,M,2.8,0123*69\r\n
$GPGGA,111058.70,5703.3737206,N,00952.2336767,E,2,10,0.8,-0.926,M,40.593,M,2.8,0123*6B\r\n
$GPGGA,111058.75,5703.3737657,N,00952.2335893,E,2,10,0.8,-0.929,M,40.593,M,2.8,0123*66\r\n
$GPGGA,111058.80,5703.3738107,N,00952.2335039,E,2,10,0.8,-0.933,M,40.593,M,2.8,0123*62\r\n
$GPGGA,111058.85,5703.3738551,N,00952.2334193,E,2,10,0.8,-0.936,M,40.593,M,3.1,0123*6D\r\n
$GPGGA,111058.90,5703.3739002,N,00952.2333336,E,2,10,0.8,-0.939,M,40.593,M,3.1,0123*6E\r\n
$GPGGA,111058.95,5703.3739457,N,00952.2332475,E,2,10,0.8,-0.944,M,40.593,M,3.1,0123*64\r\n
$GPGGA,111059.00,5703.3739917,N,00952.2331628,E,2,10,0.8,-0.949,M,40.593,M,3.1,0123*64\r\n
$GPGGA,111059.05,5703.3740366,N,00952.2330799,E,2,10,0.8,-0.958,M,40.593,M,3.3,0123*6B\r\n
$GPGGA,111059.10,5703.3740814,N,00952.2329962,E,2,10,0.8,-0.963,M,40.593,M,3.3,0123*6B\r\n
$GPGGA,111059.15,5703.3741256,N,00952.2329145,E,2,10,0.8,-0.967,M,40.593,M,3.3,0123*6A\r\n
$GPGGA,111059.20,5703.3741700,N,00952.2328322,E,2,10,0.8,-0.969,M,40.593,M,3.3,0123*66\r\n
$GPGGA,111059.25,5703.3742153,N,00952.2327494,E,2,10,0.8,-0.966,M,40.593,M,3.5,0123*6C\r\n
$GPGGA,111059.30,5703.3742598,N,00952.2326658,E,2,10,0.8,-0.966,M,40.593,M,3.5,0123*68\r\n
$GPGGA,111059.35,5703.3743035,N,00952.2325832,E,2,10,0.8,-0.968,M,40.593,M,3.5,0123*61\r\n
$GPGGA,111059.40,5703.3743472,N,00952.2324992,E,2,10,0.8,-0.966,M,40.593,M,3.5,0123*60\r\n
$GPGGA,111059.45,5703.3743911,N,00952.2324142,E,2,10,0.8,-0.963,M,40.593,M,2.8,0123*61\r\n
$GPGGA,111059.50,5703.3744346,N,00952.2323295,E,2,10,0.8,-0.962,M,40.593,M,2.8,0123*65\r\n
$GPGGA,111059.55,5703.3744779,N,00952.2322456,E,2,10,0.8,-0.960,M,40.593,M,2.8,0123*62\r\n
$GPGGA,111059.60,5703.3745217,N,00952.2321617,E,2,10,0.8,-0.961,M,40.593,M,2.8,0123*6D\r\n
$GPGGA,111059.65,5703.3745651,N,00952.2320788,E,2,10,0.8,-0.959,M,40.593,M,3.1,0123*6B\r\n
$GPGGA,111059.70,5703.3746098,N,00952.2319933,E,2,10,0.8,-0.960,M,40.593,M,3.1,0123*61\r\n
$GPGGA,111059.75,5703.3746546,N,00952.2319105,E,2,10,0.8,-0.959,M,40.593,M,3.1,0123*65\r\n
$GPGGA,111059.80,5703.3746990,N,00952.2318283,E,2,10,0.8,-0.959,M,40.593,M,3.1,0123*64\r\n
$GPGGA,111059.85,5703.3747428,N,00952.2317473,E,2,10,0.8,-0.957,M,40.593,M,3.3,0123*64\r\n
$GPGGA,111059.90,5703.3747882,N,00952.2316648,E,2,10,0.8,-0.955,M,40.593,M,3.3,0123*65\r\n
$GPGGA,111059.95,5703.3748341,N,00952.2315830,E,2,10,0.8,-0.955,M,40.593,M,3.3,0123*69\r\n
$GPGGA,111100.00,5703.3748796,N,00952.2315021,E,2,10,0.8,-0.957,M,40.593,M,3.3,0123*6C\r\n
$GPGGA,111100.05,5703.3749250,N,00952.2314200,E,2,10,0.8,-0.958,M,40.593,M,3.5,0123*6E\r\n
$GPGGA,111100.10,5703.3749698,N,00952.2313372,E,2,10,0.8,-0.962,M,40.593,M,3.5,0123*60\r\n
$GPGGA,111100.15,5703.3750147,N,00952.2312545,E,2,10,0.8,-0.966,M,40.593,M,3.5,0123*6F\r\n
$GPGGA,111100.20,5703.3750608,N,00952.2311726,E,2,10,0.8,-0.967,M,40.593,M,3.5,0123*60\r\n
$GPGGA,111100.25,5703.3751068,N,00952.2310886,E,2,10,0.8,-0.970,M,40.593,M,3.8,0123*6B\r\n
$GPGGA,111100.30,5703.3751530,N,00952.2310065,E,2,10,0.8,-0.975,M,40.593,M,3.8,0123*67\r\n
$GPGGA,111100.35,5703.3751992,N,00952.2309260,E,2,10,0.8,-0.980,M,40.593,M,3.8,0123*63\r\n
$GPGGA,111100.40,5703.3752450,N,00952.2308449,E,2,10,0.8,-0.980,M,40.593,M,3.8,0123*6D\r\n
$GPGGA,111100.45,5703.3752906,N,00952.2307644,E,2,10,0.8,-0.978,M,40.593,M,1.8,0123*63\r\n
$GPGGA,111100.50,5703.3753360,N,00952.2306834,E,2,10,0.8,-0.976,M,40.593,M,1.8,0123*6A\r\n
$GPGGA,111100.55,5703.3753805,N,00952.2306008,E,2,10,0.8,-0.974,M,40.593,M,1.8,0123*62\r\n
$GPGGA,111100.60,5703.3754245,N,00952.2305196,E,2,10,0.8,-0.971,M,40.593,M,1.8,0123*6D\r\n
$GPGGA,111100.65,5703.3754693,N,00952.2304375,E,2,10,0.8,-0.966,M,40.593,M,2.0,0123*64\r\n
$GPGGA,111100.70,5703.3755146,N,00952.2303553,E,2,10,0.8,-0.962,M,40.593,M,2.0,0123*6F\r\n
$GPGGA,111100.75,5703.3755596,N,00952.2302719,E,2,10,0.8,-0.960,M,40.593,M,2.0,0123*6C\r\n
$GPGGA,111100.80,5703.3756048,N,00952.2301881,E,2,10,0.8,-0.957,M,40.593,M,2.0,0123*6A\r\n
$GPGGA,111100.85,5703.3756502,N,00952.2301056,E,2,10,0.8,-0.953,M,40.593,M,2.2,0123*60\r\n
$GPGGA,111100.90,5703.3756967,N,00952.2300209,E,2,10,0.8,-0.951,M,40.593,M,2.2,0123*60\r\n
$GPGGA,111100.95,5703.3757425,N,00952.2299375,E,2,10,0.8,-0.951,M,40.593,M,2.2,0123*64\r\n
$GPGGA,111101.00,5703.3757885,N,00952.2298545,E,2,10,0.8,-0.952,M,40.593,M,2.2,0123*68\r\n
$GPGGA,111101.05,5703.3758336,N,00952.2297721,E,2,10,0.8,-0.952,M,40.593,M,2.4,0123*68\r\n
$GPGGA,111101.10,5703.3758797,N,00952.2296892,E,2,10,0.8,-0.954,M,40.593,M,2.4,0123*63\r\n
$GPGGA,111101.15,5703.3759262,N,00952.2296075,E,2,10,0.8,-0.956,M,40.593,M,2.4,0123*6B\r\n
$GPGGA,111101.20,5703.3759727,N,00952.2295265,E,2,10,0.8,-0.958,M,40.593,M,2.4,0123*67\r\n
$GPGGA,111101.25,5703.3760205,N,00952.2294451,E,2,10,0.8,-0.959,M,40.593,M,2.7,0123*6F\r\n
$GPGGA,111101.30,5703.3760666,N,00952.2293641,E,2,10,0.8,-0.960,M,40.593,M,2.7,0123*64\r\n
$GPGGA,111101.35,5703.3761126,N,00952.2292832,E,2,10,0.8,-0.960,M,40.593,M,2.7,0123*68\r\n
$GPGGA,111101.40,5703.3761595,N,00952.2292017,E,2,10,0.8,-0.962,M,40.593,M,2.7,0123*6B\r\n
$GPGGA,111101.45,5703.3762051,N,00952.2291208,E,2,10,0.8,-0.966,M,40.593,M,2.9,0123*65\r\n
$GPGGA,111101.50,5703.3762521,N,00952.2290407,E,2,10,0.8,-0.966,M,40.593,M,2.9,0123*6B\r\n
$GPGGA,111101.55,5703.3762995,N,00952.2289594,E,2,10,0.8,-0.968,M,40.593,M,2.9,0123*60\r\n
$GPGGA,111101.60,5703.3763470,N,00952.2288757,E,2,10,0.8,-0.968,M,40.593,M,2.9,0123*6D\r\n
$GPGGA,111101.65,5703.3763923,N,00952.2287934,E,2,10,0.8,-0.966,M,40.593,M,3.1,0123*60\r\n
$GPGGA,111101.70,5703.3764372,N,00952.2287110,E,2,10,0.8,-0.964,M,40.593,M,3.1,0123*61\r\n
$GPGGA,111101.75,5703.3764829,N,00952.2286281,E,2,10,0.8,-0.961,M,40.593,M,3.1,0123*6E\r\n
$GPGGA,111101.80,5703.3765279,N,00952.2285467,E,2,10,0.8,-0.958,M,40.593,M,3.1,0123*6D\r\n
$GPGGA,111101.85,5703.3765733,N,00952.2284642,E,2,10,0.8,-0.956,M,40.593,M,3.3,0123*6B\r\n
$GPGGA,111101.90,5703.3766167,N,00952.2283811,E,2,10,0.8,-0.952,M,40.593,M,3.3,0123*60\r\n
$GPGGA,111101.95,5703.3766623,N,00952.2282980,E,2,10,0.8,-0.948,M,40.593,M,3.3,0123*61\r\n
$GPGGA,111102.00,5703.3767085,N,00952.2282151,E,2,10,0.8,-0.946,M,40.593,M,3.3,0123*6F\r\n
$GPGGA,111102.05,5703.3767546,N,00952.2281322,E,2,10,0.8,-0.946,M,40.593,M,3.5,0123*63\r\n
$GPGGA,111102.10,5703.3768005,N,00952.2280496,E,2,10,0.8,-0.942,M,40.593,M,3.5,0123*67\r\n
$GPGGA,111102.15,5703.3768453,N,00952.2279676,E,2,10,0.8,-0.940,M,40.593,M,3.5,0123*6D\r\n
$GPGGA,111102.20,5703.3768906,N,00952.2278834,E,2,10,0.8,-0.941,M,40.593,M,3.5,0123*6E\r\n
$GPGGA,111102.25,5703.3769352,N,00952.2278009,E,2,10,0.8,-0.944,M,40.593,M,2.3,0123*65\r\n
$GPGGA,111102.30,5703.3769813,N,00952.2277176,E,2,10,0.8,-0.944,M,40.593,M,2.3,0123*69\r\n
$GPGGA,111102.35,5703.3770278,N,00952.2276331,E,2,10,0.8,-0.946,M,40.593,M,2.3,0123*61\r\n
$GPGGA,111102.40,5703.3770736,N,00952.2275490,E,2,10,0.8,-0.948,M,40.593,M,2.3,0123*6D\r\n
$GPGGA,111102.45,5703.3771196,N,00952.2274652,E,2,10,0.8,-0.954,M,40.593,M,2.6,0123*60\r\n
$GPGGA,111102.50,5703.3771650,N,00952.2273822,E,2,10,0.8,-0.958,M,40.593,M,2.6,0123*6B\r\n
$GPGGA,111102.55,5703.3772102,N,00952.2272984,E,2,10,0.8,-0.962,M,40.593,M,2.6,0123*68\r\n
$GPGGA,111102.60,5703.3772541,N,00952.2272157,E,2,10,0.8,-0.965,M,40.593,M,2.6,0123*6C\r\n
$GPGGA,111102.65,5703.3772988,N,00952.2271321,E,2,10,0.8,-0.960,M,40.593,M,2.8,0123*6B\r\n
$GPGGA,111102.70,5703.3773434,N,00952.2270495,E,2,10,0.8,-0.959,M,40.593,M,2.8,0123*67\r\n
$GPGGA,111102.75,5703.3773875,N,00952.2269663,E,2,10,0.8,-0.960,M,40.593,M,2.8,0123*62\r\n
$GPGGA,111102.80,5703.3774307,N,00952.2268811,E,2,10,0.8,-0.958,M,40.593,M,2.8,0123*60\r\n
$GPGGA,111102.85,5703.3774748,N,00952.2267962,E,2,10,0.8,-0.954,M,40.593,M,3.1,0123*64\r\n
$GPGGA,111102.90,5703.3775173,N,00952.2267110,E,2,10,0.8,-0.952,M,40.593,M,3.1,0123*64\r\n
$GPGGA,111102.95,5703.3775592,N,00952.2266262,E,2,10,0.8,-0.953,M,40.593,M,3.1,0123*6C\r\n
$GPGGA,111103.00,5703.3776017,N,00952.2265413,E,2,10,0.8,-0.951,M,40.593,M,3.1,0123*6B\r\n
$GPGGA,111103.05,5703.3776448,N,00952.2264545,E,2,10,0.8,-0.946,M,40.593,M,3.3,0123*67\r\n
$GPGGA,111103.10,5703.3776878,N,00952.2263682,E,2,10,0.8,-0.944,M,40.593,M,3.3,0123*61\r\n
$GPGGA,111103.15,5703.3777298,N,00952.2262815,E,2,10,0.8,-0.948,M,40.593,M,3.3,0123*6C\r\n
$GPGGA,111103.20,5703.3777711,N,00952.2261939,E,2,10,0.8,-0.951,M,40.593,M,3.3,0123*6A\r\n
$GPGGA,111103.25,5703.3778122,N,00952.2261058,E,2,10,0.8,-0.954,M,40.593,M,2.6,0123*69\r\n
$GPGGA,111103.30,5703.3778534,N,00952.2260182,E,2,10,0.8,-0.953,M,40.593,M,2.6,0123*6E\r\n
$GPGGA,111103.35,5703.3778955,N,00952.2259304,E,2,10,0.8,-0.955,M,40.593,M,2.6,0123*60\r\n
$GPGGA,111103.40,5703.3779361,N,00952.2258430,E,2,10,0.8,-0.958,M,40.593,M,2.6,0123*62\r\n
$GPGGA,111103.45,5703.3779771,N,00952.2257556,E,2,10,0.8,-0.961,M,40.593,M,2.8,0123*68\r\n
$GPGGA,111103.50,5703.3780196,N,00952.2256659,E,2,10,0.8,-0.962,M,40.593,M,2.8,0123*6B\r\n
$GPGGA,111103.55,5703.3780608,N,00952.2255778,E,2,10,0.8,-0.963,M,40.593,M,2.8,0123*6E\r\n
$GPGGA,111103.60,5703.3781012,N,00952.2254885,E,2,10,0.8,-0.964,M,40.593,M,2.8,0123*6F\r\n
$GPGGA,111103.65,5703.3781418,N,00952.2253975,E,2,10,0.8,-0.966,M,40.593,M,3.1,0123*67\r\n
$GPGGA,111103.70,5703.3781820,N,00952.2253077,E,2,10,0.8,-0.970,M,40.593,M,3.1,0123*68\r\n
$GPGGA,111103.75,5703.3782220,N,00952.2252183,E,2,10,0.8,-0.972,M,40.593,M,3.1,0123*6D\r\n
$GPGGA,111103.80,5703.3782603,N,00952.2251288,E,2,10,0.8,-0.974,M,40.593,M,3.1,0123*6F\r\n
$GPGGA,111103.85,5703.3782981,N,00952.2250358,E,2,10,0.8,-0.974,M,40.593,M,3.3,0123*60\r\n
$GPGGA,111103.90,5703.3783368,N,00952.2249428,E,2,10,0.8,-0.974,M,40.593,M,3.3,0123*60\r\n
$GPGGA,111103.95,5703.3783740,N,00952.2248496,E,2,10,0.8,-0.974,M,40.593,M,3.3,0123*6F\r\n
$GPGGA,111104.00,5703.3784096,N,00952.2247550,E,2,10,0.8,-0.974,M,40.593,M,3.3,0123*6B\r\n
$GPGGA,111104.05,5703.3784450,N,00952.2246593,E,2,10,0.8,-0.976,M,40.593,M,3.5,0123*6A\r\n
$GPGGA,111104.10,5703.3784814,N,00952.2245662,E,2,10,0.8,-0.975,M,40.593,M,3.5,0123*6F\r\n
$GPGGA,111104.15,5703.3785170,N,00952.2244714,E,2,10,0.8,-0.973,M,40.593,M,3.5,0123*67\r\n
$GPGGA,111104.20,5703.3785522,N,00952.2243768,E,2,10,0.8,-0.971,M,40.593,M,3.5,0123*6C\r\n
$GPGGA,111104.25,5703.3785863,N,00952.2242821,E,2,10,0.8,-0.966,M,40.593,M,1.6,0123*65\r\n
$GPGGA,111104.30,5703.3786206,N,00952.2241861,E,2,10,0.8,-0.964,M,40.593,M,1.6,0123*6E\r\n
$GPGGA,111104.35,5703.3786573,N,00952.2240914,E,2,10,0.8,-0.961,M,40.593,M,1.6,0123*69\r\n
$GPGGA,111104.40,5703.3786930,N,00952.2239961,E,2,10,0.8,-0.958,M,40.593,M,1.6,0123*66\r\n
$GPGGA,111104.45,5703.3787267,N,00952.2239013,E,2,10,0.8,-0.962,M,40.593,M,1.8,0123*60\r\n
$GPGGA,111104.50,5703.3787608,N,00952.2238065,E,2,10,0.8,-0.962,M,40.593,M,1.8,0123*69\r\n
$GPGGA,111104.55,5703.3787940,N,00952.2237100,E,2,10,0.8,-0.962,M,40.593,M,1.8,0123*62\r\n
$GPGGA,111104.60,5703.3788279,N,00952.2236139,E,2,10,0.8,-0.960,M,40.593,M,1.8,0123*63\r\n
$GPGGA,111104.65,5703.3788622,N,00952.2235162,E,2,10,0.8,-0.960,M,40.593,M,2.0,0123*6A\r\n
$GPGGA,111104.70,5703.3788953,N,00952.2234184,E,2,10,0.8,-0.961,M,40.593,M,2.0,0123*6F\r\n
$GPGGA,111104.75,5703.3789274,N,00952.2233214,E,2,10,0.8,-0.961,M,40.593,M,2.0,0123*68\r\n
$GPGGA,111104.80,5703.3789590,N,00952.2232221,E,2,10,0.8,-0.960,M,40.593,M,2.0,0123*69\r\n
$GPGGA,111104.85,5703.3789890,N,00952.2231231,E,2,10,0.8,-0.962,M,40.593,M,2.2,0123*63\r\n
$GPGGA,111104.90,5703.3790193,N,00952.2230245,E,2,10,0.8,-0.964,M,40.593,M,2.2,0123*61\r\n
$GPGGA,111104.95,5703.3790490,N,00952.2229246,E,2,10,0.8,-0.967,M,40.593,M,2.2,0123*6A\r\n
$GPGGA,111105.00,5703.3790779,N,00952.2228236,E,2,10,0.8,-0.970,M,40.593,M,2.2,0123*63\r\n
$GPGGA,111105.05,5703.3791064,N,00952.2227217,E,2,10,0.8,-0.974,M,40.593,M,2.4,0123*62\r\n
$GPGGA,111105.10,5703.3791335,N,00952.2226186,E,2,10,0.8,-0.974,M,40.593,M,2.4,0123*6B\r\n
$GPGGA,111105.15,5703.3791599,N,00952.2225161,E,2,10,0.8,-0.976,M,40.593,M,2.4,0123*66\r\n
$GPGGA,111105.20,5703.3791855,N,00952.2224137,E,2,10,0.8,-0.976,M,40.593,M,2.4,0123*6F\r\n
$GPGGA,111105.25,5703.3792109,N,00952.2223118,E,2,10,0.8,-0.977,M,40.593,M,2.7,0123*61\r\n
$GPGGA,111105.30,5703.3792373,N,00952.2222123,E,2,10,0.8,-0.975,M,40.593,M,2.7,0123*61\r\n
$GPGGA,111105.35,5703.3792634,N,00952.2221106,E,2,10,0.8,-0.971,M,40.593,M,2.7,0123*62\r\n
$GPGGA,111105.40,5703.3792880,N,00952.2220074,E,2,10,0.8,-0.968,M,40.593,M,2.7,0123*6C\r\n
$GPGGA,111105.45,5703.3793132,N,00952.2219061,E,2,10,0.8,-0.969,M,40.593,M,2.9,0123*69\r\n
$GPGGA,111105.50,5703.3793379,N,00952.2218035,E,2,10,0.8,-0.969,M,40.593,M,2.9,0123*60\r\n
$GPGGA,111105.55,5703.3793618,N,00952.2217009,E,2,10,0.8,-0.967,M,40.593,M,2.9,0123*69\r\n
$GPGGA,111105.60,5703.3793856,N,00952.2215985,E,2,10,0.8,-0.964,M,40.593,M,2.9,0123*67\r\n
$GPGGA,111105.65,5703.3794096,N,00952.2214955,E,2,10,0.8,-0.961,M,40.593,M,3.1,0123*61\r\n
$GPGGA,111105.70,5703.3794332,N,00952.2213924,E,2,10,0.8,-0.959,M,40.593,M,3.1,0123*62\r\n
$GPGGA,111105.75,5703.3794563,N,00952.2212876,E,2,10,0.8,-0.958,M,40.593,M,3.1,0123*63\r\n
$GPGGA,111105.80,5703.3794787,N,00952.2211846,E,2,10,0.8,-0.956,M,40.593,M,3.1,0123*6F\r\n
$GPGGA,111105.85,5703.3795012,N,00952.2210813,E,2,10,0.8,-0.956,M,40.593,M,3.3,0123*63\r\n
$GPGGA,111105.90,5703.3795231,N,00952.2209782,E,2,10,0.8,-0.957,M,40.593,M,3.3,0123*6A\r\n
$GPGGA,111105.95,5703.3795438,N,00952.2208734,E,2,10,0.8,-0.958,M,40.593,M,3.3,0123*63\r\n
$GPGGA,111106.00,5703.3795634,N,00952.2207673,E,2,10,0.8,-0.962,M,40.593,M,3.3,0123*66\r\n
$GPGGA,111106.05,5703.3795833,N,00952.2206616,E,2,10,0.8,-0.961,M,40.593,M,3.5,0123*6D\r\n
$GPGGA,111106.10,5703.3796028,N,00952.2205561,E,2,10,0.8,-0.961,M,40.593,M,3.5,0123*68\r\n
$GPGGA,111106.15,5703.3796207,N,00952.2204499,E,2,10,0.8,-0.962,M,40.593,M,3.5,0123*66\r\n
$GPGGA,111106.20,5703.3796383,N,00952.2203426,E,2,10,0.8,-0.965,M,40.593,M,3.5,0123*69\r\n
$GPGGA,111106.25,5703.3796557,N,00952.2202346,E,2,10,0.8,-0.965,M,40.593,M,2.3,0123*64\r\n
$GPGGA,111106.30,5703.3796720,N,00952.2201267,E,2,10,0.8,-0.968,M,40.593,M,2.3,0123*6E\r\n
$GPGGA,111106.35,5703.3796877,N,00952.2200182,E,2,10,0.8,-0.970,M,40.593,M,2.3,0123*66\r\n
$GPGGA,111106.40,5703.3797035,N,00952.2199090,E,2,10,0.8,-0.974,M,40.593,M,2.3,0123*6E\r\n
$GPGGA,111106.45,5703.3797178,N,00952.2198005,E,2,10,0.8,-0.985,M,40.593,M,2.6,0123*65\r\n
$GPGGA,111106.50,5703.3797323,N,00952.2196921,E,2,10,0.8,-0.988,M,40.593,M,2.6,0123*61\r\n
$GPGGA,111106.55,5703.3797464,N,00952.2195827,E,2,10,0.8,-0.990,M,40.593,M,2.6,0123*6D\r\n
$GPGGA,111106.60,5703.3797599,N,00952.2194738,E,2,10,0.8,-0.990,M,40.593,M,2.6,0123*68\r\n
$GPGGA,111106.65,5703.3797721,N,00952.2193649,E,2,10,0.8,-0.989,M,40.593,M,2.8,0123*6A\r\n
$GPGGA,111106.70,5703.3797838,N,00952.2192556,E,2,10,0.8,-0.989,M,40.593,M,2.8,0123*65\r\n
$GPGGA,111106.75,5703.3797946,N,00952.2191459,E,2,10,0.8,-0.988,M,40.593,M,2.8,0123*64\r\n
$GPGGA,111106.80,5703.3798063,N,00952.2190377,E,2,10,0.8,-0.987,M,40.593,M,2.8,0123*6A\r\n
$GPGGA,111106.85,5703.3798184,N,00952.2189300,E,2,10,0.8,-0.982,M,40.593,M,3.1,0123*62\r\n
$GPGGA,111106.90,5703.3798291,N,00952.2188219,E,2,10,0.8,-0.977,M,40.593,M,3.1,0123*63\r\n
$GPGGA,111106.95,5703.3798385,N,00952.2187140,E,2,10,0.8,-0.973,M,40.593,M,3.1,0123*66\r\n
$GPGGA,111107.00,5703.3798474,N,00952.2186046,E,2,10,0.8,-0.970,M,40.593,M,3.1,0123*67\r\n
$GPGGA,111107.05,5703.3798561,N,00952.2184944,E,2,10,0.8,-0.965,M,40.593,M,3.3,0123*68\r\n
$GPGGA,111107.10,5703.3798645,N,00952.2183843,E,2,10,0.8,-0.960,M,40.593,M,3.3,0123*6D\r\n
$GPGGA,111107.15,5703.3798736,N,00952.2182757,E,2,10,0.8,-0.953,M,40.593,M,3.3,0123*66\r\n
$GPGGA,111107.20,5703.3798819,N,00952.2181670,E,2,10,0.8,-0.949,M,40.593,M,3.3,0123*6E\r\n
$GPGGA,111107.25,5703.3798884,N,00952.2180579,E,2,10,0.8,-0.947,M,40.593,M,2.6,0123*6E\r\n
$GPGGA,111107.30,5703.3798955,N,00952.2179480,E,2,10,0.8,-0.945,M,40.593,M,2.6,0123*64\r\n
$GPGGA,111107.35,5703.3799027,N,00952.2178382,E,2,10,0.8,-0.943,M,40.593,M,2.6,0123*6E\r\n
$GPGGA,111107.40,5703.3799091,N,00952.2177276,E,2,10,0.8,-0.946,M,40.593,M,2.6,0123*61\r\n
$GPGGA,111107.45,5703.3799158,N,00952.2176180,E,2,10,0.8,-0.944,M,40.593,M,2.8,0123*67\r\n
$GPGGA,111107.50,5703.3799217,N,00952.2175079,E,2,10,0.8,-0.942,M,40.593,M,2.8,0123*69\r\n
$GPGGA,111107.55,5703.3799264,N,00952.2173978,E,2,10,0.8,-0.942,M,40.593,M,2.8,0123*66\r\n
$GPGGA,111107.60,5703.3799309,N,00952.2172864,E,2,10,0.8,-0.942,M,40.593,M,2.8,0123*67\r\n
$GPGGA,111107.65,5703.3799331,N,00952.2171771,E,2,10,0.8,-0.947,M,40.593,M,3.1,0123*6C\r\n
$GPGGA,111107.70,5703.3799346,N,00952.2170680,E,2,10,0.8,-0.952,M,40.593,M,3.1,0123*62\r\n
$GPGGA,111107.75,5703.3799356,N,00952.2169574,E,2,10,0.8,-0.958,M,40.593,M,3.1,0123*6C\r\n
$GPGGA,111107.80,5703.3799358,N,00952.2168462,E,2,10,0.8,-0.962,M,40.593,M,3.1,0123*66\r\n
$GPGGA,111107.85,5703.3799363,N,00952.2167364,E,2,10,0.8,-0.966,M,40.593,M,3.3,0123*63\r\n
$GPGGA,111107.90,5703.3799365,N,00952.2166266,E,2,10,0.8,-0.969,M,40.593,M,3.3,0123*6C\r\n
$GPGGA,111107.95,5703.3799363,N,00952.2165177,E,2,10,0.8,-0.972,M,40.593,M,3.3,0123*65\r\n
$GPGGA,111108.00,5703.3799358,N,00952.2164083,E,2,10,0.8,-0.976,M,40.593,M,3.3,0123*61\r\n
$GPGGA,111108.05,5703.3799351,N,00952.2162998,E,2,10,0.8,-0.984,M,40.593,M,3.5,0123*63\r\n
$GPGGA,111108.10,5703.3799331,N,00952.2161912,E,2,10,0.8,-0.990,M,40.593,M,3.5,0123*65\r\n
$GPGGA,111108.15,5703.3799294,N,00952.2160821,E,2,10,0.8,-0.994,M,40.593,M,3.5,0123*6A\r\n
$GPGGA,111108.20,5703.3799269,N,00952.2159734,E,2,10,0.8,-0.994,M,40.593,M,3.5,0123*6F\r\n
$GPGGA,111108.25,5703.3799246,N,00952.2158664,E,2,10,0.8,-0.993,M,40.593,M,1.6,0123*64\r\n
$GPGGA,111108.30,5703.3799215,N,00952.2157589,E,2,10,0.8,-0.992,M,40.593,M,1.6,0123*68\r\n
$GPGGA,111108.35,5703.3799186,N,00952.2156515,E,2,10,0.8,-0.990,M,40.593,M,1.6,0123*62\r\n
$GPGGA,111108.40,5703.3799151,N,00952.2155457,E,2,10,0.8,-0.985,M,40.593,M,1.6,0123*6A\r\n
$GPGGA,111108.45,5703.3799107,N,00952.2154390,E,2,10,0.8,-0.978,M,40.593,M,1.8,0123*6D\r\n
$GPGGA,111108.50,5703.3799068,N,00952.2153324,E,2,10,0.8,-0.972,M,40.593,M,1.8,0123*63\r\n
$GPGGA,111108.55,5703.3799014,N,00952.2152266,E,2,10,0.8,-0.969,M,40.593,M,1.8,0123*61\r\n
$GPGGA,111108.60,5703.3798954,N,00952.2151205,E,2,10,0.8,-0.965,M,40.593,M,1.8,0123*61\r\n
$GPGGA,111108.65,5703.3798896,N,00952.2150140,E,2,10,0.8,-0.965,M,40.593,M,2.0,0123*63\r\n
$GPGGA,111108.70,5703.3798831,N,00952.2149062,E,2,10,0.8,-0.961,M,40.593,M,2.0,0123*67\r\n
$GPGGA,111108.75,5703.3798766,N,00952.2147994,E,2,10,0.8,-0.957,M,40.593,M,2.0,0123*64\r\n
$GPGGA,111108.80,5703.3798697,N,00952.2146913,E,2,10,0.8,-0.954,M,40.593,M,2.0,0123*6C\r\n
$GPGGA,111108.85,5703.3798593,N,00952.2145855,E,2,10,0.8,-0.949,M,40.593,M,2.2,0123*60\r\n
$GPGGA,111108.90,5703.3798500,N,00952.2144802,E,2,10,0.8,-0.948,M,40.593,M,2.2,0123*6C\r\n
$GPGGA,111108.95,5703.3798397,N,00952.2143741,E,2,10,0.8,-0.948,M,40.593,M,2.2,0123*6E\r\n
$GPGGA,111109.00,5703.3798301,N,00952.2142663,E,2,10,0.8,-0.950,M,40.593,M,2.2,0123*65\r\n
$GPGGA,111109.05,5703.3798187,N,00952.2141610,E,2,10,0.8,-0.955,M,40.593,M,2.4,0123*68\r\n
$GPGGA,111109.10,5703.3798076,N,00952.2140555,E,2,10,0.8,-0.954,M,40.593,M,2.4,0123*61\r\n
$GPGGA,111109.15,5703.3797957,N,00952.2139512,E,2,10,0.8,-0.956,M,40.593,M,2.4,0123*6E\r\n
$GPGGA,111109.20,5703.3797830,N,00952.2138465,E,2,10,0.8,-0.957,M,40.593,M,2.4,0123*69\r\n
$GPGGA,111109.25,5703.3797687,N,00952.2137406,E,2,10,0.8,-0.964,M,40.593,M,2.7,0123*67\r\n
$GPGGA,111109.30,5703.3797548,N,00952.2136352,E,2,10,0.8,-0.967,M,40.593,M,2.7,0123*67\r\n
$GPGGA,111109.35,5703.3797396,N,00952.2135324,E,2,10,0.8,-0.973,M,40.593,M,2.7,0123*60\r\n
$GPGGA,111109.40,5703.3797245,N,00952.2134286,E,2,10,0.8,-0.976,M,40.593,M,2.7,0123*60\r\n
$GPGGA,111109.45,5703.3797093,N,00952.2133239,E,2,10,0.8,-0.978,M,40.593,M,2.9,0123*6F\r\n
$GPGGA,111109.50,5703.3796933,N,00952.2132200,E,2,10,0.8,-0.981,M,40.593,M,2.9,0123*64\r\n
$GPGGA,111109.55,5703.3796776,N,00952.2131180,E,2,10,0.8,-0.984,M,40.593,M,2.9,0123*63\r\n
$GPGGA,111109.60,5703.3796599,N,00952.2130159,E,2,10,0.8,-0.985,M,40.593,M,2.9,0123*62\r\n
$GPGGA,111109.65,5703.3796420,N,00952.2129146,E,2,10,0.8,-0.986,M,40.593,M,3.1,0123*68\r\n
$GPGGA,111109.70,5703.3796243,N,00952.2128137,E,2,10,0.8,-0.984,M,40.593,M,3.1,0123*6A\r\n
$GPGGA,111109.75,5703.3796058,N,00952.2127129,E,2,10,0.8,-0.983,M,40.593,M,3.1,0123*60\r\n
$GPGGA,111109.80,5703.3795873,N,00952.2126132,E,2,10,0.8,-0.982,M,40.593,M,3.1,0123*62\r\n
$GPGGA,111109.85,5703.3795684,N,00952.2125138,E,2,10,0.8,-0.981,M,40.593,M,3.3,0123*69\r\n
$GPGGA,111109.90,5703.3795492,N,00952.2124145,E,2,10,0.8,-0.978,M,40.593,M,3.3,0123*65\r\n
$GPGGA,111109.95,5703.3795309,N,00952.2123167,E,2,10,0.8,-0.972,M,40.593,M,3.3,0123*68\r\n
$GPGGA,111110.00,5703.3795111,N,00952.2122182,E,2,10,0.8,-0.968,M,40.593,M,3.3,0123*66\r\n
$GPGGA,111110.05,5703.3794899,N,00952.2121197,E,2,10,0.8,-0.966,M,40.593,M,3.5,0123*64\r\n
$GPGGA,111110.10,5703.3794701,N,00952.2120209,E,2,10,0.8,-0.962,M,40.593,M,3.5,0123*6F\r\n
$GPGGA,111110.15,5703.3794499,N,00952.2119226,E,2,10,0.8,-0.957,M,40.593,M,3.5,0123*69\r\n
$GPGGA,111110.20,5703.3794291,N,00952.2118241,E,2,10,0.8,-0.949,M,40.593,M,3.5,0123*6E\r\n
$GPGGA,111110.25,5703.3794077,N,00952.2117263,E,2,10,0.8,-0.943,M,40.593,M,2.3,0123*63\r\n
$GPGGA,111110.30,5703.3793854,N,00952.2116293,E,2,10,0.8,-0.942,M,40.593,M,2.3,0123*66\r\n
$GPGGA,111110.35,5703.3793617,N,00952.2115310,E,2,10,0.8,-0.940,M,40.593,M,2.3,0123*61\r\n
$GPGGA,111110.40,5703.3793395,N,00952.2114341,E,2,10,0.8,-0.941,M,40.593,M,2.3,0123*68\r\n
$GPGGA,111110.45,5703.3793168,N,00952.2113360,E,2,10,0.8,-0.942,M,40.593,M,2.6,0123*6F\r\n
$GPGGA,111110.50,5703.3792929,N,00952.2112375,E,2,10,0.8,-0.946,M,40.593,M,2.6,0123*66\r\n
$GPGGA,111110.55,5703.3792688,N,00952.2111405,E,2,10,0.8,-0.950,M,40.593,M,2.6,0123*63\r\n
$GPGGA,111110.60,5703.3792445,N,00952.2110433,E,2,10,0.8,-0.956,M,40.593,M,2.6,0123*64\r\n
$GPGGA,111110.65,5703.3792202,N,00952.2109464,E,2,10,0.8,-0.961,M,40.593,M,2.8,0123*64\r\n
$GPGGA,111110.70,5703.3791945,N,00952.2108517,E,2,10,0.8,-0.968,M,40.593,M,2.8,0123*66\r\n
$GPGGA,111110.75,5703.3791674,N,00952.2107596,E,2,10,0.8,-0.973,M,40.593,M,2.8,0123*62\r\n
$GPGGA,111110.80,5703.3791385,N,00952.2106674,E,2,10,0.8,-0.976,M,40.593,M,2.8,0123*68\r\n
$GPGGA,111110.85,5703.3791102,N,00952.2105768,E,2,10,0.8,-0.984,M,40.593,M,3.1,0123*6A\r\n
$GPGGA,111110.90,5703.3790825,N,00952.2104851,E,2,10,0.8,-0.987,M,40.593,M,3.1,0123*64\r\n
$GPGGA,111110.95,5703.3790550,N,00952.2103946,E,2,10,0.8,-0.987,M,40.593,M,3.1,0123*6E\r\n
$GPGGA,111111.00,5703.3790264,N,00952.2103046,E,2,10,0.8,-0.988,M,40.593,M,3.1,0123*65\r\n
$GPGGA,111111.05,5703.3789977,N,00952.2102163,E,2,10,0.8,-0.987,M,40.593,M,3.3,0123*6B\r\n
$GPGGA,111111.10,5703.3789680,N,00952.2101274,E,2,10,0.8,-0.986,M,40.593,M,3.3,0123*6F\r\n
$GPGGA,111111.15,5703.3789374,N,00952.2100418,E,2,10,0.8,-0.983,M,40.593,M,3.3,0123*6C\r\n
$GPGGA,111111.20,5703.3789075,N,00952.2099551,E,2,10,0.8,-0.980,M,40.593,M,3.3,0123*66\r\n
$GPGGA,111111.25,5703.3788776,N,00952.2098682,E,2,10,0.8,-0.976,M,40.593,M,2.6,0123*67\r\n
$GPGGA,111111.30,5703.3788471,N,00952.2097821,E,2,10,0.8,-0.973,M,40.593,M,2.6,0123*6A\r\n
$GPGGA,111111.35,5703.3788157,N,00952.2096965,E,2,10,0.8,-0.968,M,40.593,M,2.6,0123*64\r\n
$GPGGA,111111.40,5703.3787851,N,00952.2096108,E,2,10,0.8,-0.963,M,40.593,M,2.6,0123*6E\r\n
$GPGGA,111111.45,5703.3787533,N,00952.2095252,E,2,10,0.8,-0.959,M,40.593,M,2.8,0123*6A\r\n
$GPGGA,111111.50,5703.3787208,N,00952.2094400,E,2,10,0.8,-0.955,M,40.593,M,2.8,0123*6D\r\n
$GPGGA,111111.55,5703.3786881,N,00952.2093558,E,2,10,0.8,-0.950,M,40.593,M,2.8,0123*6C\r\n
$GPGGA,111111.60,5703.3786568,N,00952.2092716,E,2,10,0.8,-0.947,M,40.593,M,2.8,0123*6F\r\n
$GPGGA,111111.65,5703.3786253,N,00952.2091867,E,2,10,0.8,-0.940,M,40.593,M,3.1,0123*60\r\n
$GPGGA,111111.70,5703.3785928,N,00952.2091026,E,2,10,0.8,-0.938,M,40.593,M,3.1,0123*62\r\n
$GPGGA,111111.75,5703.3785588,N,00952.2090215,E,2,10,0.8,-0.936,M,40.593,M,3.1,0123*6C\r\n
$GPGGA,111111.80,5703.3785246,N,00952.2089383,E,2,10,0.8,-0.937,M,40.593,M,3.1,0123*64\r\n
$GPGGA,111111.85,5703.3784904,N,00952.2088552,E,2,10,0.8,-0.940,M,40.593,M,3.3,0123*64\r\n
$GPGGA,111111.90,5703.3784566,N,00952.2087722,E,2,10,0.8,-0.943,M,40.593,M,3.3,0123*61\r\n
$GPGGA,111111.95,5703.3784223,N,00952.2086912,E,2,10,0.8,-0.949,M,40.593,M,3.3,0123*64\r\n
$GPGGA,111112.00,5703.3783858,N,00952.2086131,E,2,10,0.8,-0.956,M,40.593,M,3.3,0123*6D\r\n
$GPGGA,111112.05,5703.3783488,N,00952.2085373,E,2,10,0.8,-0.961,M,40.593,M,3.5,0123*6C\r\n
$GPGGA,111112.10,5703.3783118,N,00952.2084595,E,2,10,0.8,-0.963,M,40.593,M,3.5,0123*69\r\n
$GPGGA,111112.15,5703.3782752,N,00952.2083831,E,2,10,0.8,-0.966,M,40.593,M,3.5,0123*64\r\n
$GPGGA,111112.20,5703.3782380,N,00952.2083074,E,2,10,0.8,-0.970,M,40.593,M,3.5,0123*67\r\n
$GPGGA,111112.25,5703.3782009,N,00952.2082334,E,2,10,0.8,-0.975,M,40.593,M,1.6,0123*62\r\n
$GPGGA,111112.30,5703.3781652,N,00952.2081593,E,2,10,0.8,-0.976,M,40.593,M,1.6,0123*66\r\n
$GPGGA,111112.35,5703.3781272,N,00952.2080883,E,2,10,0.8,-0.978,M,40.593,M,1.6,0123*66\r\n
$GPGGA,111112.40,5703.3780878,N,00952.2080184,E,2,10,0.8,-0.977,M,40.593,M,1.6,0123*64\r\n
$GPGGA,111112.45,5703.3780490,N,00952.2079490,E,2,10,0.8,-0.977,M,40.593,M,1.8,0123*63\r\n
$GPGGA,111112.50,5703.3780101,N,00952.2078803,E,2,10,0.8,-0.974,M,40.593,M,1.8,0123*6E\r\n
$GPGGA,111112.55,5703.3779719,N,00952.2078114,E,2,10,0.8,-0.971,M,40.593,M,1.8,0123*68\r\n
$GPGGA,111112.60,5703.3779329,N,00952.2077437,E,2,10,0.8,-0.967,M,40.593,M,1.8,0123*65\r\n
$GPGGA,111112.65,5703.3778946,N,00952.2076767,E,2,10,0.8,-0.960,M,40.593,M,2.0,0123*69\r\n
$GPGGA,111112.70,5703.3778551,N,00952.2076128,E,2,10,0.8,-0.961,M,40.593,M,2.0,0123*6B\r\n
$GPGGA,111112.75,5703.3778166,N,00952.2075489,E,2,10,0.8,-0.959,M,40.593,M,2.0,0123*68\r\n
$GPGGA,111112.80,5703.3777774,N,00952.2074828,E,2,10,0.8,-0.956,M,40.593,M,2.0,0123*61\r\n
$GPGGA,111112.85,5703.3777368,N,00952.2074161,E,2,10,0.8,-0.954,M,40.593,M,2.2,0123*69\r\n
$GPGGA,111112.90,5703.3776973,N,00952.2073495,E,2,10,0.8,-0.953,M,40.593,M,2.2,0123*62\r\n
$GPGGA,111112.95,5703.3776567,N,00952.2072853,E,2,10,0.8,-0.954,M,40.593,M,2.2,0123*6E\r\n
$GPGGA,111113.00,5703.3776140,N,00952.2072229,E,2,10,0.8,-0.955,M,40.593,M,2.2,0123*64\r\n
$GPGGA,111113.05,5703.3775721,N,00952.2071595,E,2,10,0.8,-0.953,M,40.593,M,2.4,0123*60\r\n
$GPGGA,111113.10,5703.3775299,N,00952.2070968,E,2,10,0.8,-0.956,M,40.593,M,2.4,0123*68\r\n
$GPGGA,111113.15,5703.3774887,N,00952.2070341,E,2,10,0.8,-0.960,M,40.593,M,2.4,0123*6D\r\n
$GPGGA,111113.20,5703.3774464,N,00952.2069731,E,2,10,0.8,-0.964,M,40.593,M,2.4,0123*65\r\n
$GPGGA,111113.25,5703.3774030,N,00952.2069126,E,2,10,0.8,-0.964,M,40.593,M,2.7,0123*66\r\n
$GPGGA,111113.30,5703.3773596,N,00952.2068541,E,2,10,0.8,-0.966,M,40.593,M,2.7,0123*6A\r\n
$GPGGA,111113.35,5703.3773167,N,00952.2067979,E,2,10,0.8,-0.967,M,40.593,M,2.7,0123*6C\r\n
$GPGGA,111113.40,5703.3772743,N,00952.2067424,E,2,10,0.8,-0.969,M,40.593,M,2.7,0123*64\r\n
$GPGGA,111113.45,5703.3772307,N,00952.2066865,E,2,10,0.8,-0.970,M,40.593,M,2.9,0123*6B\r\n
$GPGGA,111113.50,5703.3771868,N,00952.2066307,E,2,10,0.8,-0.972,M,40.593,M,2.9,0123*63\r\n
$GPGGA,111113.55,5703.3771431,N,00952.2065771,E,2,10,0.8,-0.971,M,40.593,M,2.9,0123*63\r\n
$GPGGA,111113.60,5703.3770990,N,00952.2065231,E,2,10,0.8,-0.969,M,40.593,M,2.9,0123*6A\r\n
$GPGGA,111113.65,5703.3770553,N,00952.2064703,E,2,10,0.8,-0.969,M,40.593,M,3.1,0123*60\r\n
$GPGGA,111113.70,5703.3770105,N,00952.2064195,E,2,10,0.8,-0.969,M,40.593,M,3.1,0123*6A\r\n
$GPGGA,111113.75,5703.3769659,N,00952.2063669,E,2,10,0.8,-0.968,M,40.593,M,3.1,0123*6B\r\n
$GPGGA,111113.80,5703.3769217,N,00952.2063144,E,2,10,0.8,-0.969,M,40.593,M,3.1,0123*66\r\n
$GPGGA,111113.85,5703.3768780,N,00952.2062617,E,2,10,0.8,-0.970,M,40.593,M,3.3,0123*63\r\n
$GPGGA,111113.90,5703.3768340,N,00952.2062099,E,2,10,0.8,-0.966,M,40.593,M,3.3,0123*68\r\n
$GPGGA,111113.95,5703.3767897,N,00952.2061605,E,2,10,0.8,-0.964,M,40.593,M,3.3,0123*61\r\n
$GPGGA,111114.00,5703.3767443,N,00952.2061139,E,2,10,0.8,-0.963,M,40.593,M,3.3,0123*60\r\n
$GPGGA,111114.05,5703.3766984,N,00952.2060703,E,2,10,0.8,-0.958,M,40.593,M,3.5,0123*62\r\n
$GPGGA,111114.10,5703.3766527,N,00952.2060268,E,2,10,0.8,-0.956,M,40.593,M,3.5,0123*65\r\n
