$GPGGA,084402.35,5703.2913173,N,00952.3645351,E,2,11,0.8,-1.927,M,40.592,M,2.0,0123*6D\r\n
$GPGGA,084402.40,5703.2913190,N,00952.3645248,E,2,11,0.8,-1.928,M,40.592,M,2.0,0123*64\r\n
$GPGGA,084402.45,5703.2913208,N,00952.3645133,E,2,11,0.8,-1.932,M,40.592,M,2.2,0123*65\r\n
$GPGGA,084402.50,5703.2913231,N,00952.3645025,E,2,11,0.8,-1.932,M,40.592,M,2.2,0123*6D\r\n
$GPGGA,084402.55,5703.2913246,N,00952.3644919,E,2,11,0.8,-1.931,M,40.592,M,2.2,0123*6C\r\n
$GPGGA,084402.60,5703.2913259,N,00952.3644809,E,2,11,0.8,-1.931,M,40.592,M,2.2,0123*64\r\n
$GPGGA,084402.65,5703.2913275,N,00952.3644697,E,2,11,0.8,-1.929,M,40.592,M,2.5,0123*68\r\n
$GPGGA,084402.70,5703.2913300,N,00952.3644575,E,2,11,0.8,-1.929,M,40.592,M,2.5,0123*60\r\n
$GPGGA,084402.75,5703.2913326,N,00952.3644462,E,2,11,0.8,-1.928,M,40.592,M,2.5,0123*67\r\n
$GPGGA,084402.80,5703.2913348,N,00952.3644353,E,2,11,0.8,-1.926,M,40.592,M,2.5,0123*6E\r\n
$GPGGA,084402.85,5703.2913358,N,00952.3644246,E,2,11,0.8,-1.923,M,40.592,M,1.5,0123*69\r\n
$GPGGA,084402.90,5703.2913370,N,00952.3644131,E,2,11,0.8,-1.925,M,40.592,M,1.5,0123*62\r\n
$GPGGA,084402.95,5703.2913379,N,00952.3644011,E,2,11,0.8,-1.927,M,40.592,M,1.5,0123*6F\r\n
$GPGGA,084403.00,5703.2913409,N,00952.3643893,E,2,11,0.8,-1.926,M,40.592,M,1.5,0123*66\r\n
$GPGGA,084403.05,5703.2913409,N,00952.3643791,E,2,11,0.8,-1.927,M,40.592,M,1.7,0123*6D\r\n
$GPGGA,084403.10,5703.2913429,N,00952.3643685,E,2,11,0.8,-1.928,M,40.592,M,1.7,0123*60\r\n
$GPGGA,084403.15,5703.2913455,N,00952.3643578,E,2,11,0.8,-1.928,M,40.592,M,1.7,0123*6F\r\n
$GPGGA,084403.20,5703.2913478,N,00952.3643475,E,2,11,0.8,-1.927,M,40.592,M,1.7,0123*65\r\n
$GPGGA,084403.25,5703.2913496,N,00952.3643357,E,2,11,0.8,-1.926,M,40.592,M,2.0,0123*62\r\n
$GPGGA,084403.30,5703.2913512,N,00952.3643252,E,2,11,0.8,-1.925,M,40.592,M,2.0,0123*6C\r\n
$GPGGA,084403.35,5703.2913520,N,00952.3643137,E,2,11,0.8,-1.926,M,40.592,M,2.0,0123*6B\r\n
$GPGGA,084403.40,5703.2913534,N,00952.3643015,E,2,11,0.8,-1.926,M,40.592,M,2.0,0123*6D\r\n
$GPGGA,084403.45,5703.2913560,N,00952.3642904,E,2,11,0.8,-1.929,M,40.592,M,2.2,0123*6C\r\n
$GPGGA,084403.50,5703.2913578,N,00952.3642778,E,2,11,0.8,-1.927,M,40.592,M,2.2,0123*6A\r\n
$GPGGA,084403.55,5703.2913605,N,00952.3642664,E,2,11,0.8,-1.926,M,40.592,M,2.2,0123*6B\r\n
$GPGGA,084403.60,5703.2913618,N,00952.3642560,E,2,11,0.8,-1.927,M,40.592,M,2.2,0123*67\r\n
$GPGGA,084403.65,5703.2913640,N,00952.3642458,E,2,11,0.8,-1.927,M,40.592,M,2.4,0123*63\r\n
$GPGGA,084403.70,5703.2913672,N,00952.3642359,E,2,11,0.8,-1.926,M,40.592,M,2.4,0123*61\r\n
$GPGGA,084403.75,5703.2913699,N,00952.3642260,E,2,11,0.8,-1.927,M,40.592,M,2.4,0123*6B\r\n
$GPGGA,084403.80,5703.2913717,N,00952.3642156,E,2,11,0.8,-1.928,M,40.592,M,2.4,0123*6F\r\n
$GPGGA,084403.85,5703.2913736,N,00952.3642044,E,2,11,0.8,-1.929,M,40.592,M,2.6,0123*68\r\n
$GPGGA,084403.90,5703.2913744,N,00952.3641929,E,2,11,0.8,-1.930,M,40.592,M,2.6,0123*60\r\n
$GPGGA,084403.95,5703.2913763,N,00952.3641808,E,2,11,0.8,-1.929,M,40.592,M,2.6,0123*6A\r\n
$GPGGA,084404.00,5703.2913779,N,00952.3641698,E,2,11,0.8,-1.928,M,40.592,M,2.6,0123*6C\r\n
$GPGGA,084404.05,5703.2913790,N,00952.3641575,E,2,11,0.8,-1.924,M,40.592,M,2.9,0123*6D\r\n
$GPGGA,084404.10,5703.2913812,N,00952.3641464,E,2,11,0.8,-1.923,M,40.592,M,2.9,0123*6A\r\n
$GPGGA,084404.15,5703.2913839,N,00952.3641350,E,2,11,0.8,-1.923,M,40.592,M,2.9,0123*66\r\n
$GPGGA,084404.20,5703.2913864,N,00952.3641247,E,2,11,0.8,-1.921,M,40.592,M,2.9,0123*6D\r\n
$GPGGA,084404.25,5703.2913887,N,00952.3641140,E,2,11,0.8,-1.921,M,40.592,M,3.1,0123*68\r\n
$GPGGA,084404.30,5703.2913898,N,00952.3641034,E,2,11,0.8,-1.921,M,40.592,M,3.1,0123*60\r\n
$GPGGA,084404.35,5703.2913913,N,00952.3640926,E,2,11,0.8,-1.921,M,40.592,M,3.1,0123*6C\r\n
$GPGGA,084404.40,5703.2913930,N,00952.3640811,E,2,11,0.8,-1.922,M,40.592,M,3.1,0123*69\r\n
$GPGGA,084404.45,5703.2913948,N,00952.3640697,E,2,11,0.8,-1.927,M,40.592,M,3.3,0123*64\r\n
$GPGGA,084404.50,5703.2913958,N,00952.3640578,E,2,11,0.8,-1.929,M,40.592,M,3.3,0123*6D\r\n
$GPGGA,084404.55,5703.2913981,N,00952.3640452,E,2,11,0.8,-1.928,M,40.592,M,3.3,0123*64\r\n
$GPGGA,084404.60,5703.2914001,N,00952.3640340,E,2,11,0.8,-1.928,M,40.592,M,3.3,0123*60\r\n
$GPGGA,084404.65,5703.2914038,N,00952.3640212,E,2,11,0.8,-1.922,M,40.592,M,3.5,0123*65\r\n
$GPGGA,084404.70,5703.2914054,N,00952.3640089,E,2,11,0.8,-1.922,M,40.592,M,3.5,0123*6B\r\n
$GPGGA,084404.75,5703.2914072,N,00952.3639969,E,2,11,0.8,-1.925,M,40.592,M,3.5,0123*64\r\n
$GPGGA,084404.80,5703.2914094,N,00952.3639854,E,2,11,0.8,-1.924,M,40.592,M,3.5,0123*68\r\n
$GPGGA,084404.85,5703.2914102,N,00952.3639748,E,2,11,0.8,-1.928,M,40.592,M,1.5,0123*6F\r\n
$GPGGA,084404.90,5703.2914117,N,00952.3639623,E,2,11,0.8,-1.927,M,40.592,M,1.5,0123*6C\r\n
$GPGGA,084404.95,5703.2914136,N,00952.3639511,E,2,11,0.8,-1.924,M,40.592,M,1.5,0123*6B\r\n
$GPGGA,084405.00,5703.2914159,N,00952.3639376,E,2,11,0.8,-1.924,M,40.592,M,1.5,0123*68\r\n
$GPGGA,084405.05,5703.2914181,N,00952.3639243,E,2,11,0.8,-1.923,M,40.592,M,1.7,0123*6A\r\n
$GPGGA,084405.10,5703.2914209,N,00952.3639121,E,2,11,0.8,-1.923,M,40.592,M,1.7,0123*6A\r\n
$GPGGA,084405.15,5703.2914240,N,00952.3638996,E,2,11,0.8,-1.922,M,40.592,M,1.7,0123*66\r\n
$GPGGA,084405.20,5703.2914265,N,00952.3638871,E,2,11,0.8,-1.922,M,40.592,M,1.7,0123*6F\r\n
$GPGGA,084405.25,5703.2914287,N,00952.3638744,E,2,11,0.8,-1.919,M,40.592,M,2.0,0123*63\r\n
$GPGGA,084405.30,5703.2914299,N,00952.3638623,E,2,11,0.8,-1.920,M,40.592,M,2.0,0123*62\r\n
$GPGGA,084405.35,5703.2914327,N,00952.3638487,E,2,11,0.8,-1.920,M,40.592,M,2.0,0123*6F\r\n
$GPGGA,084405.40,5703.2914350,N,00952.3638354,E,2,11,0.8,-1.919,M,40.592,M,2.0,0123*6E\r\n
$GPGGA,084405.45,5703.2914368,N,00952.3638221,E,2,11,0.8,-1.920,M,40.592,M,2.3,0123*6A\r\n
$GPGGA,084405.50,5703.2914401,N,00952.3638074,E,2,11,0.8,-1.917,M,40.592,M,2.3,0123*60\r\n
$GPGGA,084405.55,5703.2914419,N,00952.3637950,E,2,11,0.8,-1.914,M,40.592,M,2.3,0123*6F\r\n
$GPGGA,084405.60,5703.2914435,N,00952.3637824,E,2,11,0.8,-1.912,M,40.592,M,2.3,0123*63\r\n
$GPGGA,084405.65,5703.2914450,N,00952.3637684,E,2,11,0.8,-1.909,M,40.592,M,2.5,0123*6D\r\n
$GPGGA,084405.70,5703.2914471,N,00952.3637539,E,2,11,0.8,-1.909,M,40.592,M,2.5,0123*6F\r\n
$GPGGA,084405.75,5703.2914481,N,00952.3637395,E,2,11,0.8,-1.908,M,40.592,M,2.5,0123*64\r\n
$GPGGA,084405.80,5703.2914498,N,00952.3637237,E,2,11,0.8,-1.908,M,40.592,M,2.5,0123*6F\r\n
$GPGGA,084405.85,5703.2914506,N,00952.3637079,E,2,11,0.8,-1.910,M,40.592,M,1.5,0123*6E\r\n
$GPGGA,084405.90,5703.2914526,N,00952.3636911,E,2,11,0.8,-1.907,M,40.592,M,1.5,0123*68\r\n
$GPGGA,084405.95,5703.2914543,N,00952.3636760,E,2,11,0.8,-1.906,M,40.592,M,1.5,0123*67\r\n
$GPGGA,084406.00,5703.2914567,N,00952.3636598,E,2,11,0.8,-1.908,M,40.592,M,1.5,0123*65\r\n
$GPGGA,084406.05,5703.2914585,N,00952.3636419,E,2,11,0.8,-1.905,M,40.592,M,1.7,0123*6B\r\n
$GPGGA,084406.10,5703.2914598,N,00952.3636246,E,2,11,0.8,-1.904,M,40.592,M,1.7,0123*6E\r\n
$GPGGA,084406.15,5703.2914616,N,00952.3636075,E,2,11,0.8,-1.904,M,40.592,M,1.7,0123*6C\r\n
$GPGGA,084406.20,5703.2914622,N,00952.3635910,E,2,11,0.8,-1.903,M,40.592,M,1.7,0123*63\r\n
$GPGGA,084406.25,5703.2914636,N,00952.3635752,E,2,11,0.8,-1.905,M,40.592,M,2.0,0123*69\r\n
$GPGGA,084406.30,5703.2914657,N,00952.3635581,E,2,11,0.8,-1.906,M,40.592,M,2.0,0123*65\r\n
$GPGGA,084406.35,5703.2914681,N,00952.3635400,E,2,11,0.8,-1.904,M,40.592,M,2.0,0123*61\r\n
$GPGGA,084406.40,5703.2914707,N,00952.3635216,E,2,11,0.8,-1.903,M,40.592,M,2.0,0123*6A\r\n
$GPGGA,084406.45,5703.2914740,N,00952.3635027,E,2,11,0.8,-1.900,M,40.592,M,2.2,0123*6D\r\n
$GPGGA,084406.50,5703.2914767,N,00952.3634843,E,2,11,0.8,-1.899,M,40.592,M,2.2,0123*66\r\n
$GPGGA,084406.55,5703.2914774,N,00952.3634658,E,2,11,0.8,-1.902,M,40.592,M,2.2,0123*66\r\n
$GPGGA,084406.60,5703.2914794,N,00952.3634476,E,2,11,0.8,-1.903,M,40.592,M,2.2,0123*61\r\n
$GPGGA,084406.65,5703.2914801,N,00952.3634286,E,2,11,0.8,-1.911,M,40.592,M,2.5,0123*6A\r\n
$GPGGA,084406.70,5703.2914831,N,00952.3634070,E,2,11,0.8,-1.912,M,40.592,M,2.5,0123*65\r\n
$GPGGA,084406.75,5703.2914873,N,00952.3633866,E,2,11,0.8,-1.912,M,40.592,M,2.5,0123*6E\r\n
$GPGGA,084406.80,5703.2914902,N,00952.3633661,E,2,11,0.8,-1.913,M,40.592,M,2.5,0123*6B\r\n
$GPGGA,084406.85,5703.2914927,N,00952.3633457,E,2,11,0.8,-1.908,M,40.592,M,1.5,0123*67\r\n
$GPGGA,084406.90,5703.2914935,N,00952.3633249,E,2,11,0.8,-1.908,M,40.592,M,1.5,0123*69\r\n
$GPGGA,084406.95,5703.2914939,N,00952.3633040,E,2,11,0.8,-1.910,M,40.592,M,1.5,0123*62\r\n
$GPGGA,084407.00,5703.2914957,N,00952.3632821,E,2,11,0.8,-1.909,M,40.592,M,1.5,0123*61\r\n
$GPGGA,084407.05,5703.2914964,N,00952.3632593,E,2,11,0.8,-1.908,M,40.592,M,1.7,0123*63\r\n
$GPGGA,084407.10,5703.2914971,N,00952.3632369,E,2,11,0.8,-1.909,M,40.592,M,1.7,0123*61\r\n
$GPGGA,084407.15,5703.2914994,N,00952.3632132,E,2,11,0.8,-1.909,M,40.592,M,1.7,0123*63\r\n
$GPGGA,084407.20,5703.2915024,N,00952.3631900,E,2,11,0.8,-1.909,M,40.592,M,1.7,0123*6C\r\n
$GPGGA,084407.25,5703.2915061,N,00952.3631672,E,2,11,0.8,-1.909,M,40.592,M,2.0,0123*66\r\n
$GPGGA,084407.30,5703.2915097,N,00952.3631459,E,2,11,0.8,-1.908,M,40.592,M,2.0,0123*61\r\n
$GPGGA,084407.35,5703.2915130,N,00952.3631251,E,2,11,0.8,-1.908,M,40.592,M,2.0,0123*66\r\n
$GPGGA,084407.40,5703.2915152,N,00952.3631025,E,2,11,0.8,-1.910,M,40.592,M,2.0,0123*68\r\n
$GPGGA,084407.45,5703.2915166,N,00952.3630768,E,2,11,0.8,-1.911,M,40.592,M,2.2,0123*66\r\n
$GPGGA,084407.50,5703.2915185,N,00952.3630504,E,2,11,0.8,-1.911,M,40.592,M,2.2,0123*67\r\n
$GPGGA,084407.55,5703.2915213,N,00952.3630268,E,2,11,0.8,-1.908,M,40.592,M,2.2,0123*6B\r\n
$GPGGA,084407.60,5703.2915257,N,00952.3630035,E,2,11,0.8,-1.905,M,40.592,M,2.2,0123*6A\r\n
$GPGGA,084407.65,5703.2915286,N,00952.3629792,E,2,11,0.8,-1.903,M,40.592,M,2.4,0123*61\r\n
$GPGGA,084407.70,5703.2915294,N,00952.3629549,E,2,11,0.8,-1.904,M,40.592,M,2.4,0123*65\r\n
$GPGGA,084407.75,5703.2915295,N,00952.3629287,E,2,11,0.8,-1.906,M,40.592,M,2.4,0123*66\r\n
$GPGGA,084407.80,5703.2915334,N,00952.3629022,E,2,11,0.8,-1.903,M,40.592,M,2.4,0123*6E\r\n
$GPGGA,084407.85,5703.2915375,N,00952.3628772,E,2,11,0.8,-1.903,M,40.592,M,2.6,0123*6F\r\n
$GPGGA,084407.90,5703.2915404,N,00952.3628528,E,2,11,0.8,-1.905,M,40.592,M,2.6,0123*61\r\n
$GPGGA,084407.95,5703.2915429,N,00952.3628270,E,2,11,0.8,-1.907,M,40.592,M,2.6,0123*63\r\n
$GPGGA,084408.00,5703.2915468,N,00952.3627987,E,2,11,0.8,-1.906,M,40.592,M,2.6,0123*68\r\n
$GPGGA,084408.05,5703.2915493,N,00952.3627690,E,2,11,0.8,-1.909,M,40.592,M,2.9,0123*60\r\n
$GPGGA,084408.10,5703.2915515,N,00952.3627429,E,2,11,0.8,-1.909,M,40.592,M,2.9,0123*6B\r\n
$GPGGA,084408.15,5703.2915517,N,00952.3627163,E,2,11,0.8,-1.911,M,40.592,M,2.9,0123*6E\r\n
$GPGGA,084408.20,5703.2915533,N,00952.3626861,E,2,11,0.8,-1.911,M,40.592,M,2.9,0123*64\r\n
$GPGGA,084408.25,5703.2915566,N,00952.3626567,E,2,11,0.8,-1.906,M,40.592,M,3.1,0123*65\r\n
$GPGGA,084408.30,5703.2915587,N,00952.3626295,E,2,11,0.8,-1.907,M,40.592,M,3.1,0123*65\r\n
$GPGGA,084408.35,5703.2915605,N,00952.3626027,E,2,11,0.8,-1.905,M,40.592,M,3.1,0123*60\r\n
$GPGGA,084408.40,5703.2915637,N,00952.3625725,E,2,11,0.8,-1.904,M,40.592,M,3.1,0123*64\r\n
$GPGGA,084408.45,5703.2915688,N,00952.3625422,E,2,11,0.8,-1.898,M,40.592,M,3.3,0123*67\r\n
$GPGGA,084408.50,5703.2915718,N,00952.3625127,E,2,11,0.8,-1.900,M,40.592,M,3.3,0123*6B\r\n
$GPGGA,084408.55,5703.2915751,N,00952.3624830,E,2,11,0.8,-1.900,M,40.592,M,3.3,0123*6D\r\n
$GPGGA,084408.60,5703.2915783,N,00952.3624514,E,2,11,0.8,-1.898,M,40.592,M,3.3,0123*6F\r\n
$GPGGA,084408.65,5703.2915800,N,00952.3624232,E,2,11,0.8,-1.905,M,40.592,M,3.5,0123*6E\r\n
$GPGGA,084408.70,5703.2915833,N,00952.3623942,E,2,11,0.8,-1.906,M,40.592,M,3.5,0123*62\r\n
$GPGGA,084408.75,5703.2915843,N,00952.3623649,E,2,11,0.8,-1.910,M,40.592,M,3.5,0123*63\r\n
$GPGGA,084408.80,5703.2915862,N,00952.3623350,E,2,11,0.8,-1.910,M,40.592,M,3.5,0123*67\r\n
$GPGGA,084408.85,5703.2915904,N,00952.3623026,E,2,11,0.8,-1.911,M,40.592,M,1.5,0123*62\r\n
$GPGGA,084408.90,5703.2915940,N,00952.3622726,E,2,11,0.8,-1.910,M,40.592,M,1.5,0123*61\r\n
$GPGGA,084408.95,5703.2915963,N,00952.3622423,E,2,11,0.8,-1.911,M,40.592,M,1.5,0123*62\r\n
$GPGGA,084409.00,5703.2915982,N,00952.3622108,E,2,11,0.8,-1.913,M,40.592,M,1.5,0123*6E\r\n
$GPGGA,084409.05,5703.2916018,N,00952.3621777,E,2,11,0.8,-1.907,M,40.592,M,1.7,0123*68\r\n
$GPGGA,084409.10,5703.2916050,N,00952.3621460,E,2,11,0.8,-1.906,M,40.592,M,1.7,0123*64\r\n
$GPGGA,084409.15,5703.2916088,N,00952.3621138,E,2,11,0.8,-1.908,M,40.592,M,1.7,0123*62\r\n
$GPGGA,084409.20,5703.2916132,N,00952.3620817,E,2,11,0.8,-1.912,M,40.592,M,1.7,0123*6A\r\n
$GPGGA,084409.25,5703.2916149,N,00952.3620501,E,2,11,0.8,-1.916,M,40.592,M,2.0,0123*69\r\n
$GPGGA,084409.30,5703.2916178,N,00952.3620159,E,2,11,0.8,-1.914,M,40.592,M,2.0,0123*64\r\n
$GPGGA,084409.35,5703.2916223,N,00952.3619829,E,2,11,0.8,-1.915,M,40.592,M,2.0,0123*69\r\n
$GPGGA,084409.40,5703.2916288,N,00952.3619499,E,2,11,0.8,-1.915,M,40.592,M,2.0,0123*6D\r\n
$GPGGA,084409.45,5703.2916356,N,00952.3619173,E,2,11,0.8,-1.911,M,40.592,M,2.3,0123*6C\r\n
$GPGGA,084409.50,5703.2916394,N,00952.3618850,E,2,11,0.8,-1.913,M,40.592,M,2.3,0123*6D\r\n
$GPGGA,084409.55,5703.2916414,N,00952.3618516,E,2,11,0.8,-1.913,M,40.592,M,2.3,0123*68\r\n
$GPGGA,084409.60,5703.2916432,N,00952.3618177,E,2,11,0.8,-1.913,M,40.592,M,2.3,0123*69\r\n
$GPGGA,084409.65,5703.2916459,N,00952.3617834,E,2,11,0.8,-1.914,M,40.592,M,2.5,0123*61\r\n
$GPGGA,084409.70,5703.2916497,N,00952.3617491,E,2,11,0.8,-1.916,M,40.592,M,2.5,0123*66\r\n
$GPGGA,084409.75,5703.2916536,N,00952.3617154,E,2,11,0.8,-1.917,M,40.592,M,2.5,0123*64\r\n
$GPGGA,084409.80,5703.2916571,N,00952.3616803,E,2,11,0.8,-1.916,M,40.592,M,2.5,0123*66\r\n
$GPGGA,084409.85,5703.2916615,N,00952.3616459,E,2,11,0.8,-1.917,M,40.592,M,1.5,0123*63\r\n
$GPGGA,084409.90,5703.2916667,N,00952.3616127,E,2,11,0.8,-1.917,M,40.592,M,1.5,0123*6E\r\n
$GPGGA,084409.95,5703.2916717,N,00952.3615785,E,2,11,0.8,-1.917,M,40.592,M,1.5,0123*60\r\n
$GPGGA,084410.00,5703.2916751,N,00952.3615429,E,2,11,0.8,-1.916,M,40.592,M,1.5,0123*62\r\n
$GPGGA,084410.05,5703.2916788,N,00952.3615067,E,2,11,0.8,-1.913,M,40.592,M,1.7,0123*6A\r\n
$GPGGA,084410.10,5703.2916830,N,00952.3614732,E,2,11,0.8,-1.914,M,40.592,M,1.7,0123*63\r\n
$GPGGA,084410.15,5703.2916877,N,00952.3614376,E,2,11,0.8,-1.914,M,40.592,M,1.7,0123*61\r\n
$GPGGA,084410.20,5703.2916908,N,00952.3614018,E,2,11,0.8,-1.917,M,40.592,M,1.7,0123*66\r\n
$GPGGA,084410.25,5703.2916934,N,00952.3613638,E,2,11,0.8,-1.914,M,40.592,M,2.0,0123*68\r\n
$GPGGA,084410.30,5703.2916984,N,00952.3613268,E,2,11,0.8,-1.912,M,40.592,M,2.0,0123*60\r\n
$GPGGA,084410.35,5703.2917034,N,00952.3612926,E,2,11,0.8,-1.911,M,40.592,M,2.0,0123*65\r\n
$GPGGA,084410.40,5703.2917074,N,00952.3612577,E,2,11,0.8,-1.910,M,40.592,M,2.0,0123*6A\r\n
$GPGGA,084410.45,5703.2917108,N,00952.3612198,E,2,11,0.8,-1.913,M,40.592,M,2.2,0123*61\r\n
$GPGGA,084410.50,5703.2917160,N,00952.3611839,E,2,11,0.8,-1.914,M,40.592,M,2.2,0123*6D\r\n
$GPGGA,084410.55,5703.2917220,N,00952.3611492,E,2,11,0.8,-1.913,M,40.592,M,2.2,0123*65\r\n
$GPGGA,084410.60,5703.2917252,N,00952.3611138,E,2,11,0.8,-1.913,M,40.592,M,2.2,0123*63\r\n
$GPGGA,084410.65,5703.2917288,N,00952.3610794,E,2,11,0.8,-1.917,M,40.592,M,2.5,0123*63\r\n
$GPGGA,084410.70,5703.2917350,N,00952.3610433,E,2,11,0.8,-1.917,M,40.592,M,2.5,0123*6D\r\n
$GPGGA,084410.75,5703.2917388,N,00952.3610079,E,2,11,0.8,-1.918,M,40.592,M,2.5,0123*68\r\n
$GPGGA,084410.80,5703.2917421,N,00952.3609716,E,2,11,0.8,-1.919,M,40.592,M,2.5,0123*61\r\n
$GPGGA,084410.85,5703.2917481,N,00952.3609318,E,2,11,0.8,-1.908,M,40.592,M,1.5,0123*67\r\n
$GPGGA,084410.90,5703.2917534,N,00952.3608933,E,2,11,0.8,-1.907,M,40.592,M,1.5,0123*61\r\n
$GPGGA,084410.95,5703.2917576,N,00952.3608569,E,2,11,0.8,-1.907,M,40.592,M,1.5,0123*61\r\n
$GPGGA,084411.00,5703.2917611,N,00952.3608226,E,2,11,0.8,-1.908,M,40.592,M,1.5,0123*6D\r\n
$GPGGA,084411.05,5703.2917643,N,00952.3607869,E,2,11,0.8,-1.914,M,40.592,M,1.7,0123*6E\r\n
$GPGGA,084411.10,5703.2917693,N,00952.3607483,E,2,11,0.8,-1.915,M,40.592,M,1.7,0123*6E\r\n
$GPGGA,084411.15,5703.2917739,N,00952.3607100,E,2,11,0.8,-1.915,M,40.592,M,1.7,0123*64\r\n
$GPGGA,084411.20,5703.2917794,N,00952.3606714,E,2,11,0.8,-1.911,M,40.592,M,1.7,0123*63\r\n
$GPGGA,084411.25,5703.2917841,N,00952.3606349,E,2,11,0.8,-1.906,M,40.592,M,2.0,0123*6F\r\n
$GPGGA,084411.30,5703.2917888,N,00952.3605993,E,2,11,0.8,-1.906,M,40.592,M,2.0,0123*60\r\n
$GPGGA,084411.35,5703.2917936,N,00952.3605647,E,2,11,0.8,-1.910,M,40.592,M,2.0,0123*60\r\n
$GPGGA,084411.40,5703.2917977,N,00952.3605273,E,2,11,0.8,-1.913,M,40.592,M,2.0,0123*67\r\n
$GPGGA,084411.45,5703.2917985,N,00952.3604877,E,2,11,0.8,-1.919,M,40.592,M,2.2,0123*68\r\n
$GPGGA,084411.50,5703.2918002,N,00952.3604492,E,2,11,0.8,-1.918,M,40.592,M,2.2,0123*63\r\n
$GPGGA,084411.55,5703.2918058,N,00952.3604111,E,2,11,0.8,-1.916,M,40.592,M,2.2,0123*69\r\n
$GPGGA,084411.60,5703.2918123,N,00952.3603738,E,2,11,0.8,-1.913,M,40.592,M,2.2,0123*6D\r\n
$GPGGA,084411.65,5703.2918169,N,00952.3603360,E,2,11,0.8,-1.912,M,40.592,M,2.4,0123*68\r\n
$GPGGA,084411.70,5703.2918200,N,00952.3602983,E,2,11,0.8,-1.913,M,40.592,M,2.4,0123*67\r\n
$GPGGA,084411.75,5703.2918233,N,00952.3602605,E,2,11,0.8,-1.914,M,40.592,M,2.4,0123*64\r\n
$GPGGA,084411.80,5703.2918277,N,00952.3602214,E,2,11,0.8,-1.913,M,40.592,M,2.4,0123*6D\r\n
$GPGGA,084411.85,5703.2918305,N,00952.3601824,E,2,11,0.8,-1.917,M,40.592,M,2.6,0123*60\r\n
$GPGGA,084411.90,5703.2918319,N,00952.3601463,E,2,11,0.8,-1.918,M,40.592,M,2.6,0123*69\r\n
$GPGGA,084411.95,5703.2918341,N,00952.3601102,E,2,11,0.8,-1.920,M,40.592,M,2.6,0123*68\r\n
$GPGGA,084412.00,5703.2918396,N,00952.3600721,E,2,11,0.8,-1.919,M,40.592,M,2.6,0123*61\r\n
$GPGGA,084412.05,5703.2918456,N,00952.3600322,E,2,11,0.8,-1.918,M,40.592,M,2.9,0123*66\r\n
$GPGGA,084412.10,5703.2918505,N,00952.3599932,E,2,11,0.8,-1.918,M,40.592,M,2.9,0123*6D\r\n
$GPGGA,084412.15,5703.2918533,N,00952.3599566,E,2,11,0.8,-1.919,M,40.592,M,2.9,0123*61\r\n
$GPGGA,084412.20,5703.2918576,N,00952.3599201,E,2,11,0.8,-1.922,M,40.592,M,2.9,0123*68\r\n
$GPGGA,084412.25,5703.2918635,N,00952.3598831,E,2,11,0.8,-1.915,M,40.592,M,3.1,0123*6C\r\n
$GPGGA,084412.30,5703.2918658,N,00952.3598449,E,2,11,0.8,-1.914,M,40.592,M,3.1,0123*61\r\n
$GPGGA,084412.35,5703.2918668,N,00952.3598068,E,2,11,0.8,-1.914,M,40.592,M,3.1,0123*60\r\n
$GPGGA,084412.40,5703.2918704,N,00952.3597680,E,2,11,0.8,-1.912,M,40.592,M,3.1,0123*60\r\n
$GPGGA,084412.45,5703.2918751,N,00952.3597304,E,2,11,0.8,-1.912,M,40.592,M,3.3,0123*6E\r\n
$GPGGA,084412.50,5703.2918805,N,00952.3596916,E,2,11,0.8,-1.912,M,40.592,M,3.3,0123*6C\r\n
$GPGGA,084412.55,5703.2918843,N,00952.3596519,E,2,11,0.8,-1.909,M,40.592,M,3.3,0123*62\r\n
$GPGGA,084412.60,5703.2918863,N,00952.3596143,E,2,11,0.8,-1.910,M,40.592,M,3.3,0123*65\r\n
$GPGGA,084412.65,5703.2918892,N,00952.3595748,E,2,11,0.8,-1.916,M,40.592,M,1.2,0123*65\r\n
$GPGGA,084412.70,5703.2918907,N,00952.3595390,E,2,11,0.8,-1.920,M,40.592,M,1.2,0123*68\r\n
$GPGGA,084412.75,5703.2918941,N,00952.3595011,E,2,11,0.8,-1.921,M,40.592,M,1.2,0123*64\r\n
$GPGGA,084412.80,5703.2918993,N,00952.3594621,E,2,11,0.8,-1.920,M,40.592,M,1.2,0123*64\r\n
$GPGGA,084412.85,5703.2919034,N,00952.3594227,E,2,11,0.8,-1.921,M,40.592,M,1.5,0123*60\r\n
$GPGGA,084412.90,5703.2919053,N,00952.3593832,E,2,11,0.8,-1.924,M,40.592,M,1.5,0123*69\r\n
$GPGGA,084412.95,5703.2919080,N,00952.3593444,E,2,11,0.8,-1.924,M,40.592,M,1.5,0123*6F\r\n
$GPGGA,084413.00,5703.2919107,N,00952.3593069,E,2,11,0.8,-1.925,M,40.592,M,1.5,0123*66\r\n
$GPGGA,084413.05,5703.2919119,N,00952.3592659,E,2,11,0.8,-1.923,M,40.592,M,1.7,0123*6C\r\n
$GPGGA,084413.10,5703.2919134,N,00952.3592269,E,2,11,0.8,-1.921,M,40.592,M,1.7,0123*62\r\n
$GPGGA,084413.15,5703.2919162,N,00952.3591900,E,2,11,0.8,-1.920,M,40.592,M,1.7,0123*62\r\n
$GPGGA,084413.20,5703.2919203,N,00952.3591509,E,2,11,0.8,-1.920,M,40.592,M,1.7,0123*65\r\n
$GPGGA,084413.25,5703.2919234,N,00952.3591118,E,2,11,0.8,-1.920,M,40.592,M,2.0,0123*64\r\n
$GPGGA,084413.30,5703.2919252,N,00952.3590719,E,2,11,0.8,-1.921,M,40.592,M,2.0,0123*67\r\n
$GPGGA,084413.35,5703.2919274,N,00952.3590333,E,2,11,0.8,-1.919,M,40.592,M,2.0,0123*61\r\n
$GPGGA,084413.40,5703.2919299,N,00952.3589957,E,2,11,0.8,-1.918,M,40.592,M,2.0,0123*61\r\n
$GPGGA,084413.45,5703.2919304,N,00952.3589571,E,2,11,0.8,-1.917,M,40.592,M,2.3,0123*65\r\n
$GPGGA,084413.50,5703.2919314,N,00952.3589186,E,2,11,0.8,-1.914,M,40.592,M,2.3,0123*6F\r\n
$GPGGA,084413.55,5703.2919355,N,00952.3588817,E,2,11,0.8,-1.912,M,40.592,M,2.3,0123*69\r\n
$GPGGA,084413.60,5703.2919396,N,00952.3588442,E,2,11,0.8,-1.912,M,40.592,M,2.3,0123*6C\r\n
$GPGGA,084413.65,5703.2919421,N,00952.3588033,E,2,11,0.8,-1.911,M,40.592,M,1.2,0123*61\r\n
$GPGGA,084413.70,5703.2919425,N,00952.3587641,E,2,11,0.8,-1.909,M,40.592,M,1.2,0123*64\r\n
$GPGGA,084413.75,5703.2919437,N,00952.3587261,E,2,11,0.8,-1.908,M,40.592,M,1.2,0123*65\r\n
$GPGGA,084413.80,5703.2919444,N,00952.3586878,E,2,11,0.8,-1.907,M,40.592,M,1.2,0123*67\r\n
$GPGGA,084413.85,5703.2919454,N,00952.3586501,E,2,11,0.8,-1.908,M,40.592,M,1.5,0123*68\r\n
$GPGGA,084413.90,5703.2919448,N,00952.3586116,E,2,11,0.8,-1.914,M,40.592,M,1.5,0123*6E\r\n
$GPGGA,084413.95,5703.2919453,N,00952.3585684,E,2,11,0.8,-1.917,M,40.592,M,1.5,0123*6D\r\n
$GPGGA,084414.00,5703.2919500,N,00952.3585262,E,2,11,0.8,-1.915,M,40.592,M,1.5,0123*6F\r\n
$GPGGA,084414.05,5703.2919515,N,00952.3584872,E,2,11,0.8,-1.919,M,40.592,M,1.7,0123*6A\r\n
$GPGGA,084414.10,5703.2919498,N,00952.3584496,E,2,11,0.8,-1.920,M,40.592,M,1.7,0123*66\r\n
$GPGGA,084414.15,5703.2919474,N,00952.3584122,E,2,11,0.8,-1.924,M,40.592,M,1.7,0123*6F\r\n
$GPGGA,084414.20,5703.2919476,N,00952.3583745,E,2,11,0.8,-1.926,M,40.592,M,1.7,0123*69\r\n
$GPGGA,084414.25,5703.2919491,N,00952.3583357,E,2,11,0.8,-1.924,M,40.592,M,2.0,0123*64\r\n
$GPGGA,084414.30,5703.2919508,N,00952.3582953,E,2,11,0.8,-1.922,M,40.592,M,2.0,0123*68\r\n
$GPGGA,084414.35,5703.2919518,N,00952.3582571,E,2,11,0.8,-1.924,M,40.592,M,2.0,0123*66\r\n
$GPGGA,084414.40,5703.2919522,N,00952.3582205,E,2,11,0.8,-1.927,M,40.592,M,2.0,0123*6A\r\n
$GPGGA,084414.45,5703.2919522,N,00952.3581817,E,2,11,0.8,-1.922,M,40.592,M,2.2,0123*62\r\n
$GPGGA,084414.50,5703.2919495,N,00952.3581435,E,2,11,0.8,-1.922,M,40.592,M,2.2,0123*67\r\n
$GPGGA,084414.55,5703.2919497,N,00952.3581030,E,2,11,0.8,-1.921,M,40.592,M,2.2,0123*62\r\n
$GPGGA,084414.60,5703.2919504,N,00952.3580652,E,2,11,0.8,-1.917,M,40.592,M,2.2,0123*69\r\n
$GPGGA,084414.65,5703.2919501,N,00952.3580296,E,2,11,0.8,-1.915,M,40.592,M,1.2,0123*64\r\n
$GPGGA,084414.70,5703.2919508,N,00952.3579910,E,2,11,0.8,-1.913,M,40.592,M,1.2,0123*6C\r\n
$GPGGA,084414.75,5703.2919526,N,00952.3579549,E,2,11,0.8,-1.914,M,40.592,M,1.2,0123*62\r\n
$GPGGA,084414.80,5703.2919519,N,00952.3579184,E,2,11,0.8,-1.914,M,40.592,M,1.2,0123*61\r\n
$GPGGA,084414.85,5703.2919471,N,00952.3578820,E,2,11,0.8,-1.921,M,40.592,M,1.5,0123*6C\r\n
$GPGGA,084414.90,5703.2919469,N,00952.3578434,E,2,11,0.8,-1.922,M,40.592,M,1.5,0123*6B\r\n
$GPGGA,084414.95,5703.2919496,N,00952.3578067,E,2,11,0.8,-1.919,M,40.592,M,1.5,0123*64\r\n
$GPGGA,084415.00,5703.2919485,N,00952.3577701,E,2,11,0.8,-1.918,M,40.592,M,1.5,0123*62\r\n
$GPGGA,084415.05,5703.2919451,N,00952.3577333,E,2,11,0.8,-1.913,M,40.592,M,1.7,0123*62\r\n
$GPGGA,084415.10,5703.2919433,N,00952.3576966,E,2,11,0.8,-1.914,M,40.592,M,1.7,0123*6E\r\n
$GPGGA,084415.15,5703.2919440,N,00952.3576580,E,2,11,0.8,-1.914,M,40.592,M,1.7,0123*6B\r\n
$GPGGA,084415.20,5703.2919418,N,00952.3576216,E,2,11,0.8,-1.916,M,40.592,M,1.7,0123*6A\r\n
$GPGGA,084415.25,5703.2919404,N,00952.3575851,E,2,11,0.8,-1.917,M,40.592,M,2.0,0123*6D\r\n
$GPGGA,084415.30,5703.2919389,N,00952.3575477,E,2,11,0.8,-1.917,M,40.592,M,2.0,0123*63\r\n
$GPGGA,084415.35,5703.2919364,N,00952.3575132,E,2,11,0.8,-1.916,M,40.592,M,2.0,0123*60\r\n
$GPGGA,084415.40,5703.2919356,N,00952.3574784,E,2,11,0.8,-1.913,M,40.592,M,2.0,0123*6C\r\n
$GPGGA,084415.45,5703.2919363,N,00952.3574414,E,2,11,0.8,-1.911,M,40.592,M,2.2,0123*65\r\n
$GPGGA,084415.50,5703.2919350,N,00952.3574050,E,2,11,0.8,-1.918,M,40.592,M,2.2,0123*6C\r\n
$GPGGA,084415.55,5703.2919320,N,00952.3573710,E,2,11,0.8,-1.919,M,40.592,M,2.2,0123*6B\r\n
$GPGGA,084415.60,5703.2919323,N,00952.3573332,E,2,11,0.8,-1.917,M,40.592,M,2.2,0123*64\r\n
$GPGGA,084415.65,5703.2919303,N,00952.3572972,E,2,11,0.8,-1.919,M,40.592,M,2.4,0123*64\r\n
$GPGGA,084415.70,5703.2919275,N,00952.3572638,E,2,11,0.8,-1.921,M,40.592,M,2.4,0123*6A\r\n
$GPGGA,084415.75,5703.2919255,N,00952.3572276,E,2,11,0.8,-1.920,M,40.592,M,2.4,0123*62\r\n
$GPGGA,084415.80,5703.2919236,N,00952.3571929,E,2,11,0.8,-1.923,M,40.592,M,2.4,0123*6C\r\n
$GPGGA,084415.85,5703.2919243,N,00952.3571590,E,2,11,0.8,-1.919,M,40.592,M,2.6,0123*6E\r\n
$GPGGA,084415.90,5703.2919242,N,00952.3571224,E,2,11,0.8,-1.917,M,40.592,M,2.6,0123*6D\r\n
$GPGGA,084415.95,5703.2919220,N,00952.3570856,E,2,11,0.8,-1.917,M,40.592,M,2.6,0123*62\r\n
$GPGGA,084416.00,5703.2919206,N,00952.3570510,E,2,11,0.8,-1.921,M,40.592,M,2.6,0123*63\r\n
$GPGGA,084416.05,5703.2919228,N,00952.3570125,E,2,11,0.8,-1.912,M,40.592,M,2.9,0123*67\r\n
$GPGGA,084416.10,5703.2919181,N,00952.3569809,E,2,11,0.8,-1.911,M,40.592,M,2.9,0123*6F\r\n
$GPGGA,084416.15,5703.2919116,N,00952.3569493,E,2,11,0.8,-1.912,M,40.592,M,2.9,0123*68\r\n
$GPGGA,084416.20,5703.2919118,N,00952.3569138,E,2,11,0.8,-1.909,M,40.592,M,2.9,0123*6E\r\n
$GPGGA,084416.25,5703.2919117,N,00952.3568811,E,2,11,0.8,-1.917,M,40.592,M,3.1,0123*61\r\n
$GPGGA,084416.30,5703.2919081,N,00952.3568476,E,2,11,0.8,-1.920,M,40.592,M,3.1,0123*62\r\n
$GPGGA,084416.35,5703.2919033,N,00952.3568114,E,2,11,0.8,-1.917,M,40.592,M,3.1,0123*6B\r\n
$GPGGA,084416.40,5703.2919018,N,00952.3567769,E,2,11,0.8,-1.914,M,40.592,M,3.1,0123*60\r\n
$GPGGA,084416.45,5703.2918995,N,00952.3567462,E,2,11,0.8,-1.914,M,40.592,M,3.3,0123*62\r\n
$GPGGA,084416.50,5703.2918966,N,00952.3567136,E,2,11,0.8,-1.914,M,40.592,M,3.3,0123*6E\r\n
$GPGGA,084416.55,5703.2918942,N,00952.3566802,E,2,11,0.8,-1.913,M,40.592,M,3.3,0123*65\r\n
$GPGGA,084416.60,5703.2918919,N,00952.3566493,E,2,11,0.8,-1.916,M,40.592,M,3.3,0123*6C\r\n
$GPGGA,084416.65,5703.2918892,N,00952.3566198,E,2,11,0.8,-1.926,M,40.592,M,1.2,0123*65\r\n
$GPGGA,084416.70,5703.2918861,N,00952.3565869,E,2,11,0.8,-1.926,M,40.592,M,1.2,0123*69\r\n
$GPGGA,084416.75,5703.2918844,N,00952.3565539,E,2,11,0.8,-1.925,M,40.592,M,1.2,0123*60\r\n
$GPGGA,084416.80,5703.2918830,N,00952.3565218,E,2,11,0.8,-1.929,M,40.592,M,1.2,0123*61\r\n
$GPGGA,084416.85,5703.2918817,N,00952.3564884,E,2,11,0.8,-1.929,M,40.592,M,1.5,0123*68\r\n
$GPGGA,084416.90,5703.2918751,N,00952.3564551,E,2,11,0.8,-1.931,M,40.592,M,1.5,0123*6D\r\n
$GPGGA,084416.95,5703.2918704,N,00952.3564237,E,2,11,0.8,-1.934,M,40.592,M,1.5,0123*6A\r\n
$GPGGA,084417.00,5703.2918703,N,00952.3563912,E,2,10,0.8,-1.937,M,40.592,M,1.5,0123*69\r\n
$GPGGA,084417.05,5703.2918671,N,00952.3563565,E,2,10,0.8,-1.932,M,40.592,M,1.7,0123*63\r\n
$GPGGA,084417.10,5703.2918626,N,00952.3563249,E,2,10,0.8,-1.933,M,40.592,M,1.7,0123*6D\r\n
$GPGGA,084417.15,5703.2918621,N,00952.3562903,E,2,10,0.8,-1.934,M,40.592,M,1.7,0123*6C\r\n
$GPGGA,084417.20,5703.2918613,N,00952.3562563,E,2,10,0.8,-1.930,M,40.592,M,1.7,0123*65\r\n
$GPGGA,084417.25,5703.2918541,N,00952.3562264,E,2,11,0.8,-1.932,M,40.592,M,2.0,0123*63\r\n
$GPGGA,084417.30,5703.2918462,N,00952.3561942,E,2,11,0.8,-1.931,M,40.592,M,2.0,0123*68\r\n
$GPGGA,084417.35,5703.2918443,N,00952.3561629,E,2,11,0.8,-1.932,M,40.592,M,2.0,0123*6F\r\n
$GPGGA,084417.40,5703.2918438,N,00952.3561321,E,2,11,0.8,-1.933,M,40.592,M,2.0,0123*6D\r\n
$GPGGA,084417.45,5703.2918331,N,00952.3561047,E,2,11,0.8,-1.935,M,40.592,M,2.3,0123*60\r\n
$GPGGA,084417.50,5703.2918287,N,00952.3560734,E,2,11,0.8,-1.935,M,40.592,M,2.3,0123*6A\r\n
$GPGGA,084417.55,5703.2918275,N,00952.3560411,E,2,10,0.8,-1.935,M,40.592,M,2.3,0123*67\r\n
$GPGGA,084417.60,5703.2918254,N,00952.3560102,E,2,10,0.8,-1.932,M,40.592,M,2.3,0123*62\r\n
$GPGGA,084417.65,5703.2918225,N,00952.3559799,E,2,10,0.8,-1.931,M,40.592,M,1.2,0123*6E\r\n
$GPGGA,084417.70,5703.2918188,N,00952.3559484,E,2,10,0.8,-1.927,M,40.592,M,1.2,0123*66\r\n
$GPGGA,084417.75,5703.2918150,N,00952.3559181,E,2,10,0.8,-1.925,M,40.592,M,1.2,0123*64\r\n
$GPGGA,084417.80,5703.2918100,N,00952.3558876,E,2,10,0.8,-1.924,M,40.592,M,1.2,0123*6A\r\n
$GPGGA,084417.85,5703.2918051,N,00952.3558574,E,2,10,0.8,-1.926,M,40.592,M,1.5,0123*60\r\n
$GPGGA,084417.90,5703.2918005,N,00952.3558274,E,2,10,0.8,-1.928,M,40.592,M,1.5,0123*6C\r\n
$GPGGA,084417.95,5703.2917958,N,00952.3557968,E,2,10,0.8,-1.925,M,40.592,M,1.5,0123*63\r\n
$GPGGA,084418.00,5703.2917908,N,00952.3557667,E,2,10,0.8,-1.922,M,40.592,M,1.5,0123*62\r\n
$GPGGA,084418.05,5703.2917857,N,00952.3557373,E,2,10,0.8,-1.924,M,40.592,M,1.7,0123*68\r\n
$GPGGA,084418.10,5703.2917821,N,00952.3557078,E,2,10,0.8,-1.921,M,40.592,M,1.7,0123*60\r\n
$GPGGA,084418.15,5703.2917780,N,00952.3556767,E,2,10,0.8,-1.920,M,40.592,M,1.7,0123*68\r\n
$GPGGA,084418.20,5703.2917738,N,00952.3556475,E,2,10,0.8,-1.921,M,40.592,M,1.7,0123*6C\r\n
$GPGGA,084418.25,5703.2917681,N,00952.3556182,E,2,11,0.8,-1.919,M,40.592,M,2.0,0123*69\r\n
$GPGGA,084418.30,5703.2917642,N,00952.3555913,E,2,11,0.8,-1.921,M,40.592,M,2.0,0123*6A\r\n
$GPGGA,084418.35,5703.2917579,N,00952.3555631,E,2,11,0.8,-1.920,M,40.592,M,2.0,0123*6A\r\n
$GPGGA,084418.40,5703.2917513,N,00952.3555330,E,2,11,0.8,-1.918,M,40.592,M,2.0,0123*6B\r\n
$GPGGA,084418.45,5703.2917478,N,00952.3555042,E,2,11,0.8,-1.917,M,40.592,M,2.2,0123*69\r\n
$GPGGA,084418.50,5703.2917445,N,00952.3554758,E,2,11,0.8,-1.917,M,40.592,M,2.2,0123*6E\r\n
$GPGGA,084418.55,5703.2917376,N,00952.3554481,E,2,11,0.8,-1.918,M,40.592,M,2.2,0123*64\r\n
$GPGGA,084418.60,5703.2917316,N,00952.3554202,E,2,11,0.8,-1.919,M,40.592,M,2.2,0123*68\r\n
$GPGGA,084418.65,5703.2917275,N,00952.3553935,E,2,11,0.8,-1.922,M,40.592,M,1.2,0123*6A\r\n
$GPGGA,084418.70,5703.2917248,N,00952.3553651,E,2,11,0.8,-1.922,M,40.592,M,1.2,0123*6D\r\n
$GPGGA,084418.75,5703.2917200,N,00952.3553381,E,2,11,0.8,-1.921,M,40.592,M,1.2,0123*6F\r\n
$GPGGA,084418.80,5703.2917126,N,00952.3553115,E,2,11,0.8,-1.920,M,40.592,M,1.2,0123*6C\r\n
$GPGGA,084418.85,5703.2917084,N,00952.3552845,E,2,11,0.8,-1.918,M,40.592,M,1.5,0123*61\r\n
$GPGGA,084418.90,5703.2917037,N,00952.3552570,E,2,11,0.8,-1.920,M,40.592,M,1.5,0123*6D\r\n
$GPGGA,084418.95,5703.2916984,N,00952.3552313,E,2,10,0.8,-1.921,M,40.592,M,1.5,0123*6B\r\n
$GPGGA,084419.00,5703.2916920,N,00952.3552064,E,2,10,0.8,-1.919,M,40.592,M,1.5,0123*60\r\n
$GPGGA,084419.05,5703.2916833,N,00952.3551798,E,2,11,0.8,-1.921,M,40.592,M,1.7,0123*69\r\n
$GPGGA,084419.10,5703.2916769,N,00952.3551538,E,2,11,0.8,-1.925,M,40.592,M,1.7,0123*61\r\n
$GPGGA,084419.15,5703.2916699,N,00952.3551280,E,2,11,0.8,-1.927,M,40.592,M,1.7,0123*6C\r\n
$GPGGA,084419.20,5703.2916639,N,00952.3551030,E,2,11,0.8,-1.925,M,40.592,M,1.7,0123*6B\r\n
$GPGGA,084419.25,5703.2916593,N,00952.3550760,E,2,11,0.8,-1.921,M,40.592,M,2.0,0123*6E\r\n
$GPGGA,084419.30,5703.2916538,N,00952.3550491,E,2,11,0.8,-1.919,M,40.592,M,2.0,0123*6D\r\n
$GPGGA,084419.35,5703.2916470,N,00952.3550240,E,2,11,0.8,-1.924,M,40.592,M,2.0,0123*61\r\n
$GPGGA,084419.40,5703.2916404,N,00952.3550001,E,2,11,0.8,-1.923,M,40.592,M,2.0,0123*60\r\n
$GPGGA,084419.45,5703.2916355,N,00952.3549761,E,2,11,0.8,-1.919,M,40.592,M,2.2,0123*64\r\n
$GPGGA,084419.50,5703.2916303,N,00952.3549510,E,2,11,0.8,-1.917,M,40.592,M,2.2,0123*69\r\n
$GPGGA,084419.55,5703.2916236,N,00952.3549244,E,2,11,0.8,-1.918,M,40.592,M,2.2,0123*62\r\n
$GPGGA,084419.60,5703.2916155,N,00952.3548995,E,2,11,0.8,-1.918,M,40.592,M,2.2,0123*64\r\n
$GPGGA,084419.65,5703.2916095,N,00952.3548762,E,2,11,0.8,-1.917,M,40.592,M,2.4,0123*63\r\n
$GPGGA,084419.70,5703.2916046,N,00952.3548522,E,2,11,0.8,-1.917,M,40.592,M,2.4,0123*6F\r\n
$GPGGA,084419.75,5703.2915969,N,00952.3548262,E,2,11,0.8,-1.918,M,40.592,M,2.4,0123*61\r\n
$GPGGA,084419.80,5703.2915884,N,00952.3548006,E,2,11,0.8,-1.917,M,40.592,M,2.4,0123*66\r\n
$GPGGA,084419.85,5703.2915833,N,00952.3547774,E,2,11,0.8,-1.922,M,40.592,M,2.6,0123*66\r\n
$GPGGA,084419.90,5703.2915764,N,00952.3547538,E,2,11,0.8,-1.923,M,40.592,M,2.6,0123*64\r\n
$GPGGA,084419.95,5703.2915689,N,00952.3547294,E,2,11,0.8,-1.925,M,40.592,M,2.6,0123*64\r\n
$GPGGA,084420.00,5703.2915613,N,00952.3547046,E,2,11,0.8,-1.925,M,40.592,M,2.6,0123*6C\r\n
$GPGGA,084420.05,5703.2915536,N,00952.3546794,E,2,11,0.8,-1.919,M,40.592,M,2.9,0123*64\r\n
$GPGGA,084420.10,5703.2915479,N,00952.3546561,E,2,11,0.8,-1.921,M,40.592,M,2.9,0123*69\r\n
$GPGGA,084420.15,5703.2915404,N,00952.3546334,E,2,11,0.8,-1.924,M,40.592,M,2.9,0123*65\r\n
$GPGGA,084420.20,5703.2915326,N,00952.3546098,E,2,11,0.8,-1.926,M,40.592,M,2.9,0123*63\r\n
$GPGGA,084420.25,5703.2915260,N,00952.3545857,E,2,11,0.8,-1.924,M,40.592,M,3.1,0123*66\r\n
$GPGGA,084420.30,5703.2915196,N,00952.3545618,E,2,11,0.8,-1.923,M,40.592,M,3.1,0123*6A\r\n
$GPGGA,084420.35,5703.2915129,N,00952.3545398,E,2,11,0.8,-1.923,M,40.592,M,3.1,0123*66\r\n
$GPGGA,084420.40,5703.2915055,N,00952.3545178,E,2,11,0.8,-1.925,M,40.592,M,3.1,0123*64\r\n
$GPGGA,084420.45,5703.2914984,N,00952.3544956,E,2,11,0.8,-1.928,M,40.592,M,3.3,0123*6F\r\n
$GPGGA,084420.50,5703.2914912,N,00952.3544745,E,2,11,0.8,-1.927,M,40.592,M,3.3,0123*67\r\n
$GPGGA,084420.55,5703.2914833,N,00952.3544521,E,2,11,0.8,-1.924,M,40.592,M,3.3,0123*63\r\n
$GPGGA,084420.60,5703.2914746,N,00952.3544298,E,2,11,0.8,-1.922,M,40.592,M,3.3,0123*6B\r\n
$GPGGA,084420.65,5703.2914684,N,00952.3544076,E,2,11,0.8,-1.919,M,40.592,M,1.2,0123*68\r\n
$GPGGA,084420.70,5703.2914605,N,00952.3543859,E,2,11,0.8,-1.920,M,40.592,M,1.2,0123*6D\r\n
$GPGGA,084420.75,5703.2914533,N,00952.3543649,E,2,11,0.8,-1.920,M,40.592,M,1.2,0123*61\r\n
$GPGGA,084420.80,5703.2914462,N,00952.3543432,E,2,11,0.8,-1.916,M,40.592,M,1.2,0123*65\r\n
$GPGGA,084420.85,5703.2914371,N,00952.3543210,E,2,11,0.8,-1.917,M,40.592,M,1.5,0123*65\r\n
$GPGGA,084420.90,5703.2914271,N,00952.3542985,E,2,11,0.8,-1.918,M,40.592,M,1.5,0123*69\r\n
$GPGGA,084420.95,5703.2914196,N,00952.3542764,E,2,11,0.8,-1.921,M,40.592,M,1.5,0123*6D\r\n
$GPGGA,084421.00,5703.2914156,N,00952.3542545,E,2,11,0.8,-1.923,M,40.592,M,1.5,0123*6F\r\n
$GPGGA,084421.05,5703.2914085,N,00952.3542331,E,2,11,0.8,-1.925,M,40.592,M,1.7,0123*64\r\n
$GPGGA,084421.10,5703.2914013,N,00952.3542119,E,2,11,0.8,-1.924,M,40.592,M,1.7,0123*66\r\n
$GPGGA,084421.15,5703.2913925,N,00952.3541908,E,2,11,0.8,-1.924,M,40.592,M,1.7,0123*63\r\n
$GPGGA,084421.20,5703.2913828,N,00952.3541715,E,2,11,0.8,-1.926,M,40.592,M,1.7,0123*69\r\n
$GPGGA,084421.25,5703.2913769,N,00952.3541507,E,2,11,0.8,-1.924,M,40.592,M,2.0,0123*61\r\n
$GPGGA,084421.30,5703.2913688,N,00952.3541296,E,2,11,0.8,-1.924,M,40.592,M,2.0,0123*64\r\n
$GPGGA,084421.35,5703.2913596,N,00952.3541076,E,2,11,0.8,-1.924,M,40.592,M,2.0,0123*61\r\n
$GPGGA,084421.40,5703.2913498,N,00952.3540874,E,2,11,0.8,-1.926,M,40.592,M,2.0,0123*65\r\n
$GPGGA,084421.45,5703.2913407,N,00952.3540675,E,2,11,0.8,-1.926,M,40.592,M,2.3,0123*6A\r\n
$GPGGA,084421.50,5703.2913328,N,00952.3540501,E,2,11,0.8,-1.923,M,40.592,M,2.3,0123*61\r\n
$GPGGA,084421.55,5703.2913245,N,00952.3540321,E,2,11,0.8,-1.922,M,40.592,M,2.3,0123*6B\r\n
$GPGGA,084421.60,5703.2913164,N,00952.3540110,E,2,11,0.8,-1.920,M,40.592,M,2.3,0123*6F\r\n
$GPGGA,084421.65,5703.2913080,N,00952.3539885,E,2,11,0.8,-1.921,M,40.592,M,1.2,0123*69\r\n
$GPGGA,084421.70,5703.2913007,N,00952.3539688,E,2,11,0.8,-1.921,M,40.592,M,1.2,0123*61\r\n
$GPGGA,084421.75,5703.2912936,N,00952.3539511,E,2,11,0.8,-1.923,M,40.592,M,1.2,0123*6F\r\n
$GPGGA,084421.80,5703.2912857,N,00952.3539326,E,2,11,0.8,-1.923,M,40.592,M,1.2,0123*61\r\n
$GPGGA,084421.85,5703.2912751,N,00952.3539138,E,2,11,0.8,-1.924,M,40.592,M,1.5,0123*60\r\n
$GPGGA,084421.90,5703.2912648,N,00952.3538934,E,2,11,0.8,-1.925,M,40.592,M,1.5,0123*69\r\n
$GPGGA,084421.95,5703.2912558,N,00952.3538746,E,2,11,0.8,-1.927,M,40.592,M,1.5,0123*67\r\n
$GPGGA,084422.00,5703.2912476,N,00952.3538568,E,2,11,0.8,-1.927,M,40.592,M,1.5,0123*6B\r\n
$GPGGA,084422.05,5703.2912379,N,00952.3538378,E,2,11,0.8,-1.925,M,40.592,M,1.7,0123*61\r\n
$GPGGA,084422.10,5703.2912276,N,00952.3538183,E,2,11,0.8,-1.924,M,40.592,M,1.7,0123*6C\r\n
$GPGGA,084422.15,5703.2912175,N,00952.3537986,E,2,11,0.8,-1.922,M,40.592,M,1.7,0123*6D\r\n
$GPGGA,084422.20,5703.2912104,N,00952.3537813,E,2,11,0.8,-1.921,M,40.592,M,1.7,0123*63\r\n
$GPGGA,084422.25,5703.2912025,N,00952.3537650,E,2,11,0.8,-1.917,M,40.592,M,2.0,0123*6C\r\n
$GPGGA,084422.30,5703.2911904,N,00952.3537499,E,2,11,0.8,-1.917,M,40.592,M,2.0,0123*66\r\n
$GPGGA,084422.35,5703.2911778,N,00952.3537327,E,2,11,0.8,-1.917,M,40.592,M,2.0,0123*64\r\n
$GPGGA,084422.40,5703.2911675,N,00952.3537146,E,2,11,0.8,-1.916,M,40.592,M,2.0,0123*6E\r\n
$GPGGA,084422.45,5703.2911575,N,00952.3536994,E,2,11,0.8,-1.919,M,40.592,M,2.2,0123*63\r\n
$GPGGA,084422.50,5703.2911484,N,00952.3536840,E,2,11,0.8,-1.921,M,40.592,M,2.2,0123*6B\r\n
$GPGGA,084422.55,5703.2911377,N,00952.3536690,E,2,11,0.8,-1.920,M,40.592,M,2.2,0123*67\r\n
$GPGGA,084422.60,5703.2911266,N,00952.3536533,E,2,11,0.8,-1.916,M,40.592,M,2.2,0123*6F\r\n
$GPGGA,084422.65,5703.2911176,N,00952.3536368,E,2,11,0.8,-1.912,M,40.592,M,1.2,0123*67\r\n
$GPGGA,084422.70,5703.2911080,N,00952.3536202,E,2,11,0.8,-1.911,M,40.592,M,1.2,0123*65\r\n
$GPGGA,084422.75,5703.2910961,N,00952.3536051,E,2,11,0.8,-1.913,M,40.592,M,1.2,0123*61\r\n
$GPGGA,084422.80,5703.2910832,N,00952.3535917,E,2,11,0.8,-1.914,M,40.592,M,1.2,0123*63\r\n
$GPGGA,084422.85,5703.2910709,N,00952.3535783,E,2,11,0.8,-1.916,M,40.592,M,1.5,0123*67\r\n
$GPGGA,084422.90,5703.2910580,N,00952.3535640,E,2,11,0.8,-1.914,M,40.592,M,1.5,0123*6C\r\n
$GPGGA,084422.95,5703.2910454,N,00952.3535475,E,2,11,0.8,-1.911,M,40.592,M,1.5,0123*60\r\n
$GPGGA,084423.00,5703.2910332,N,00952.3535330,E,2,11,0.8,-1.910,M,40.592,M,1.5,0123*6D\r\n
$GPGGA,084423.05,5703.2910188,N,00952.3535177,E,2,11,0.8,-1.915,M,40.592,M,1.7,0123*6D\r\n
$GPGGA,084423.10,5703.2910056,N,00952.3535035,E,2,11,0.8,-1.918,M,40.592,M,1.7,0123*61\r\n
$GPGGA,084423.15,5703.2909924,N,00952.3534912,E,2,11,0.8,-1.919,M,40.592,M,1.7,0123*6C\r\n
$GPGGA,084423.20,5703.2909800,N,00952.3534782,E,2,11,0.8,-1.920,M,40.592,M,1.7,0123*60\r\n
$GPGGA,084423.25,5703.2909668,N,00952.3534647,E,2,11,0.8,-1.923,M,40.592,M,2.0,0123*6A\r\n
$GPGGA,084423.30,5703.2909534,N,00952.3534507,E,2,11,0.8,-1.926,M,40.592,M,2.0,0123*66\r\n
$GPGGA,084423.35,5703.2909400,N,00952.3534389,E,2,11,0.8,-1.927,M,40.592,M,2.0,0123*64\r\n
$GPGGA,084423.40,5703.2909259,N,00952.3534255,E,2,11,0.8,-1.927,M,40.592,M,2.0,0123*6C\r\n
$GPGGA,084423.45,5703.2909120,N,00952.3534128,E,2,11,0.8,-1.925,M,40.592,M,2.2,0123*6D\r\n
$GPGGA,084423.50,5703.2908987,N,00952.3534027,E,2,11,0.8,-1.924,M,40.592,M,2.2,0123*62\r\n
$GPGGA,084423.55,5703.2908842,N,00952.3533930,E,2,11,0.8,-1.926,M,40.592,M,2.2,0123*65\r\n
$GPGGA,084423.60,5703.2908693,N,00952.3533820,E,2,11,0.8,-1.929,M,40.592,M,2.2,0123*6E\r\n
$GPGGA,084423.65,5703.2908558,N,00952.3533688,E,2,11,0.8,-1.930,M,40.592,M,2.4,0123*6D\r\n
$GPGGA,084423.70,5703.2908415,N,00952.3533580,E,2,10,0.8,-1.929,M,40.592,M,2.4,0123*63\r\n
$GPGGA,084423.75,5703.2908249,N,00952.3533491,E,2,10,0.8,-1.928,M,40.592,M,2.4,0123*69\r\n
$GPGGA,084423.80,5703.2908105,N,00952.3533422,E,2,10,0.8,-1.927,M,40.592,M,2.4,0123*6F\r\n
$GPGGA,084423.85,5703.2907973,N,00952.3533324,E,2,10,0.8,-1.925,M,40.592,M,2.6,0123*6D\r\n
$GPGGA,084423.90,5703.2907835,N,00952.3533219,E,2,10,0.8,-1.924,M,40.592,M,2.6,0123*64\r\n
$GPGGA,084423.95,5703.2907695,N,00952.3533110,E,2,10,0.8,-1.922,M,40.592,M,2.6,0123*69\r\n
$GPGGA,084424.00,5703.2907560,N,00952.3533014,E,2,10,0.8,-1.922,M,40.592,M,2.6,0123*6E\r\n
$GPGGA,084424.05,5703.2907398,N,00952.3532929,E,2,10,0.8,-1.920,M,40.592,M,2.9,0123*61\r\n
$GPGGA,084424.10,5703.2907231,N,00952.3532852,E,2,10,0.8,-1.916,M,40.592,M,2.9,0123*6F\r\n
$GPGGA,084424.15,5703.2907074,N,00952.3532780,E,2,10,0.8,-1.911,M,40.592,M,2.9,0123*6E\r\n
$GPGGA,084424.20,5703.2906906,N,00952.3532701,E,2,10,0.8,-1.911,M,40.592,M,2.9,0123*6C\r\n
$GPGGA,084424.25,5703.2906751,N,00952.3532624,E,2,11,0.8,-1.911,M,40.592,M,3.1,0123*6B\r\n
$GPGGA,084424.30,5703.2906614,N,00952.3532549,E,2,11,0.8,-1.910,M,40.592,M,3.1,0123*66\r\n
$GPGGA,084424.35,5703.2906478,N,00952.3532478,E,2,11,0.8,-1.910,M,40.592,M,3.1,0123*68\r\n
$GPGGA,084424.40,5703.2906350,N,00952.3532411,E,2,11,0.8,-1.906,M,40.592,M,3.1,0123*6F\r\n
$GPGGA,084424.45,5703.2906187,N,00952.3532348,E,2,11,0.8,-1.913,M,40.592,M,3.3,0123*6F\r\n
$GPGGA,084424.50,5703.2906017,N,00952.3532283,E,2,11,0.8,-1.915,M,40.592,M,3.3,0123*63\r\n
$GPGGA,084424.55,5703.2905864,N,00952.3532233,E,2,11,0.8,-1.914,M,40.592,M,3.3,0123*63\r\n
$GPGGA,084424.60,5703.2905694,N,00952.3532189,E,2,11,0.8,-1.913,M,40.592,M,3.3,0123*61\r\n
$GPGGA,084424.65,5703.2905534,N,00952.3532134,E,2,11,0.8,-1.911,M,40.592,M,1.2,0123*6A\r\n
$GPGGA,084424.70,5703.2905381,N,00952.3532085,E,2,11,0.8,-1.910,M,40.592,M,1.2,0123*6C\r\n
$GPGGA,084424.75,5703.2905209,N,00952.3532026,E,2,10,0.8,-1.913,M,40.592,M,1.2,0123*63\r\n
$GPGGA,084424.80,5703.2905049,N,00952.3531984,E,2,10,0.8,-1.915,M,40.592,M,1.2,0123*6B\r\n
$GPGGA,084424.85,5703.2904883,N,00952.3531967,E,2,10,0.8,-1.918,M,40.592,M,1.5,0123*66\r\n
$GPGGA,084424.90,5703.2904716,N,00952.3531937,E,2,10,0.8,-1.917,M,40.592,M,1.5,0123*6B\r\n
$GPGGA,084424.95,5703.2904528,N,00952.3531890,E,2,10,0.8,-1.920,M,40.592,M,1.5,0123*69\r\n
$GPGGA,084425.00,5703.2904352,N,00952.3531856,E,2,10,0.8,-1.922,M,40.592,M,1.5,0123*67\r\n
$GPGGA,084425.05,5703.2904172,N,00952.3531818,E,2,10,0.8,-1.917,M,40.592,M,1.7,0123*6C\r\n
$GPGGA,084425.10,5703.2904000,N,00952.3531778,E,2,10,0.8,-1.917,M,40.592,M,1.7,0123*65\r\n
$GPGGA,084425.15,5703.2903834,N,00952.3531748,E,2,10,0.8,-1.918,M,40.592,M,1.7,0123*64\r\n
$GPGGA,084425.20,5703.2903692,N,00952.3531740,E,2,10,0.8,-1.916,M,40.592,M,1.7,0123*66\r\n
$GPGGA,084425.25,5703.2903531,N,00952.3531723,E,2,10,0.8,-1.914,M,40.592,M,2.0,0123*6A\r\n
$GPGGA,084425.30,5703.2903349,N,00952.3531714,E,2,10,0.8,-1.915,M,40.592,M,2.0,0123*62\r\n
$GPGGA,084425.35,5703.2903181,N,00952.3531709,E,2,10,0.8,-1.920,M,40.592,M,2.0,0123*6B\r\n
$GPGGA,084425.40,5703.2903041,N,00952.3531696,E,2,10,0.8,-1.919,M,40.592,M,2.0,0123*69\r\n
$GPGGA,084425.45,5703.2902894,N,00952.3531700,E,2,10,0.8,-1.924,M,40.592,M,2.3,0123*6E\r\n
$GPGGA,084425.50,5703.2902714,N,00952.3531715,E,2,10,0.8,-1.920,M,40.592,M,2.3,0123*6D\r\n
$GPGGA,084425.55,5703.2902551,N,00952.3531734,E,2,10,0.8,-1.920,M,40.592,M,2.3,0123*68\r\n
$GPGGA,084425.60,5703.2902397,N,00952.3531737,E,2,10,0.8,-1.924,M,40.592,M,2.3,0123*65\r\n
$GPGGA,084425.65,5703.2902228,N,00952.3531728,E,2,10,0.8,-1.919,M,40.592,M,1.2,0123*67\r\n
$GPGGA,084425.70,5703.2902075,N,00952.3531738,E,2,10,0.8,-1.920,M,40.592,M,1.2,0123*62\r\n
$GPGGA,084425.75,5703.2901915,N,00952.3531758,E,2,10,0.8,-1.916,M,40.592,M,1.2,0123*68\r\n
$GPGGA,084425.80,5703.2901748,N,00952.3531764,E,2,10,0.8,-1.912,M,40.592,M,1.2,0123*6F\r\n
$GPGGA,084425.85,5703.2901581,N,00952.3531764,E,2,10,0.8,-1.912,M,40.592,M,1.5,0123*6A\r\n
$GPGGA,084425.90,5703.2901428,N,00952.3531771,E,2,10,0.8,-1.915,M,40.592,M,1.5,0123*6F\r\n
$GPGGA,084425.95,5703.2901286,N,00952.3531793,E,2,10,0.8,-1.918,M,40.592,M,1.5,0123*69\r\n
$GPGGA,084426.00,5703.2901120,N,00952.3531830,E,2,10,0.8,-1.918,M,40.592,M,1.5,0123*6F\r\n
$GPGGA,084426.05,5703.2900915,N,00952.3531881,E,2,11,0.8,-1.926,M,40.592,M,1.7,0123*61\r\n
$GPGGA,084426.10,5703.2900760,N,00952.3531921,E,2,11,0.8,-1.928,M,40.592,M,1.7,0123*6C\r\n
$GPGGA,084426.15,5703.2900603,N,00952.3531953,E,2,11,0.8,-1.929,M,40.592,M,1.7,0123*69\r\n
$GPGGA,084426.20,5703.2900442,N,00952.3531986,E,2,11,0.8,-1.928,M,40.592,M,1.7,0123*61\r\n
$GPGGA,084426.25,5703.2900280,N,00952.3532030,E,2,11,0.8,-1.923,M,40.592,M,2.0,0123*64\r\n
$GPGGA,084426.30,5703.2900104,N,00952.3532086,E,2,11,0.8,-1.923,M,40.592,M,2.0,0123*62\r\n
$GPGGA,084426.35,5703.2899946,N,00952.3532152,E,2,11,0.8,-1.926,M,40.592,M,2.0,0123*65\r\n
$GPGGA,084426.40,5703.2899785,N,00952.3532210,E,2,10,0.8,-1.930,M,40.592,M,2.0,0123*65\r\n
$GPGGA,084426.45,5703.2899622,N,00952.3532280,E,2,10,0.8,-1.936,M,40.592,M,2.2,0123*61\r\n
$GPGGA,084426.50,5703.2899446,N,00952.3532340,E,2,10,0.8,-1.934,M,40.592,M,2.2,0123*6A\r\n
$GPGGA,084426.55,5703.2899276,N,00952.3532405,E,2,10,0.8,-1.932,M,40.592,M,2.2,0123*6A\r\n
$GPGGA,084426.60,5703.2899126,N,00952.3532470,E,2,10,0.8,-1.935,M,40.592,M,2.2,0123*6F\r\n
$GPGGA,084426.65,5703.2898990,N,00952.3532524,E,2,10,0.8,-1.931,M,40.592,M,1.2,0123*69\r\n
$GPGGA,084426.70,5703.2898847,N,00952.3532602,E,2,10,0.8,-1.930,M,40.592,M,1.2,0123*60\r\n
$GPGGA,084426.75,5703.2898696,N,00952.3532686,E,2,10,0.8,-1.927,M,40.592,M,1.2,0123*6D\r\n
$GPGGA,084426.80,5703.2898531,N,00952.3532771,E,2,10,0.8,-1.923,M,40.592,M,1.2,0123*64\r\n
$GPGGA,084426.85,5703.2898372,N,00952.3532844,E,2,10,0.8,-1.930,M,40.592,M,1.5,0123*6C\r\n
$GPGGA,084426.90,5703.2898221,N,00952.3532902,E,2,10,0.8,-1.933,M,40.592,M,1.5,0123*6F\r\n
$GPGGA,084426.95,5703.2898057,N,00952.3532982,E,2,10,0.8,-1.935,M,40.592,M,1.5,0123*67\r\n
$GPGGA,084427.00,5703.2897896,N,00952.3533078,E,2,10,0.8,-1.936,M,40.592,M,1.5,0123*6E\r\n
$GPGGA,084427.05,5703.2897726,N,00952.3533159,E,2,10,0.8,-1.939,M,40.592,M,1.7,0123*60\r\n
$GPGGA,084427.10,5703.2897587,N,00952.3533264,E,2,10,0.8,-1.938,M,40.592,M,1.7,0123*61\r\n
$GPGGA,084427.15,5703.2897450,N,00952.3533363,E,2,10,0.8,-1.937,M,40.592,M,1.7,0123*66\r\n
$GPGGA,084427.20,5703.2897302,N,00952.3533479,E,2,10,0.8,-1.938,M,40.592,M,1.7,0123*63\r\n
$GPGGA,084427.25,5703.2897163,N,00952.3533600,E,2,10,0.8,-1.936,M,40.592,M,2.0,0123*65\r\n
$GPGGA,084427.30,5703.2897001,N,00952.3533724,E,2,10,0.8,-1.935,M,40.592,M,2.0,0123*60\r\n
$GPGGA,084427.35,5703.2896843,N,00952.3533831,E,2,10,0.8,-1.933,M,40.592,M,2.0,0123*67\r\n
$GPGGA,084427.40,5703.2896694,N,00952.3533937,E,2,10,0.8,-1.932,M,40.592,M,2.0,0123*67\r\n
$GPGGA,084427.45,5703.2896543,N,00952.3534062,E,2,11,0.8,-1.929,M,40.592,M,2.2,0123*6C\r\n
$GPGGA,084427.50,5703.2896398,N,00952.3534210,E,2,11,0.8,-1.928,M,40.592,M,2.2,0123*6E\r\n
$GPGGA,084427.55,5703.2896254,N,00952.3534334,E,2,11,0.8,-1.928,M,40.592,M,2.2,0123*6D\r\n
$GPGGA,084427.60,5703.2896126,N,00952.3534441,E,2,11,0.8,-1.927,M,40.592,M,2.2,0123*67\r\n
$GPGGA,084427.65,5703.2895989,N,00952.3534544,E,2,10,0.8,-1.930,M,40.592,M,2.4,0123*69\r\n
$GPGGA,084427.70,5703.2895851,N,00952.3534667,E,2,10,0.8,-1.930,M,40.592,M,2.4,0123*6B\r\n
$GPGGA,084427.75,5703.2895713,N,00952.3534832,E,2,10,0.8,-1.927,M,40.592,M,2.4,0123*6F\r\n
$GPGGA,084427.80,5703.2895582,N,00952.3534982,E,2,10,0.8,-1.926,M,40.592,M,2.4,0123*64\r\n
$GPGGA,084427.85,5703.2895462,N,00952.3535113,E,2,11,0.8,-1.925,M,40.592,M,2.6,0123*6F\r\n
$GPGGA,084427.90,5703.2895332,N,00952.3535248,E,2,10,0.8,-1.926,M,40.592,M,2.6,0123*66\r\n
$GPGGA,084427.95,5703.2895189,N,00952.3535392,E,2,10,0.8,-1.927,M,40.592,M,2.6,0123*66\r\n
$GPGGA,084428.00,5703.2895047,N,00952.3535553,E,2,10,0.8,-1.926,M,40.592,M,2.6,0123*6C\r\n
$GPGGA,084428.05,5703.2894877,N,00952.3535709,E,2,10,0.8,-1.936,M,40.592,M,2.9,0123*60\r\n
$GPGGA,084428.10,5703.2894759,N,00952.3535865,E,2,10,0.8,-1.935,M,40.592,M,2.9,0123*61\r\n
$GPGGA,084428.15,5703.2894634,N,00952.3536020,E,2,10,0.8,-1.935,M,40.592,M,2.9,0123*64\r\n
$GPGGA,084428.20,5703.2894491,N,00952.3536182,E,2,10,0.8,-1.937,M,40.592,M,2.9,0123*64\r\n
$GPGGA,084428.25,5703.2894361,N,00952.3536364,E,2,11,0.8,-1.929,M,40.592,M,3.1,0123*64\r\n
$GPGGA,084428.30,5703.2894224,N,00952.3536528,E,2,11,0.8,-1.927,M,40.592,M,3.1,0123*60\r\n
$GPGGA,084428.35,5703.2894112,N,00952.3536679,E,2,11,0.8,-1.928,M,40.592,M,3.1,0123*6B\r\n
$GPGGA,084428.40,5703.2894016,N,00952.3536846,E,2,11,0.8,-1.928,M,40.592,M,3.1,0123*6E\r\n
$GPGGA,084428.45,5703.2893889,N,00952.3537027,E,2,11,0.8,-1.935,M,40.592,M,3.3,0123*62\r\n
$GPGGA,084428.50,5703.2893745,N,00952.3537217,E,2,11,0.8,-1.936,M,40.592,M,3.3,0123*6B\r\n
$GPGGA,084428.55,5703.2893602,N,00952.3537395,E,2,11,0.8,-1.932,M,40.592,M,3.3,0123*63\r\n
$GPGGA,084428.60,5703.2893484,N,00952.3537574,E,2,11,0.8,-1.929,M,40.592,M,3.3,0123*6A\r\n
$GPGGA,084428.65,5703.2893369,N,00952.3537752,E,2,11,0.8,-1.932,M,40.592,M,1.2,0123*64\r\n
$GPGGA,084428.70,5703.2893249,N,00952.3537954,E,2,11,0.8,-1.930,M,40.592,M,1.2,0123*69\r\n
$GPGGA,084428.75,5703.2893120,N,00952.3538157,E,2,11,0.8,-1.929,M,40.592,M,1.2,0123*6C\r\n
$GPGGA,084428.80,5703.2892993,N,00952.3538342,E,2,11,0.8,-1.931,M,40.592,M,1.2,0123*68\r\n
$GPGGA,084428.85,5703.2892875,N,00952.3538524,E,2,11,0.8,-1.931,M,40.592,M,1.5,0123*65\r\n
$GPGGA,084428.90,5703.2892698,N,00952.3538749,E,2,11,0.8,-1.928,M,40.592,M,1.5,0123*6D\r\n
$GPGGA,084428.95,5703.2892597,N,00952.3538968,E,2,11,0.8,-1.924,M,40.592,M,1.5,0123*65\r\n
$GPGGA,084429.00,5703.2892501,N,00952.3539160,E,2,11,0.8,-1.923,M,40.592,M,1.5,0123*61\r\n
$GPGGA,084429.05,5703.2892464,N,00952.3539303,E,2,11,0.8,-1.931,M,40.592,M,1.7,0123*60\r\n
$GPGGA,084429.10,5703.2892365,N,00952.3539497,E,2,11,0.8,-1.930,M,40.592,M,1.7,0123*69\r\n
$GPGGA,084429.15,5703.2892248,N,00952.3539709,E,2,11,0.8,-1.930,M,40.592,M,1.7,0123*66\r\n
$GPGGA,084429.20,5703.2892149,N,00952.3539933,E,2,11,0.8,-1.928,M,40.592,M,1.7,0123*6C\r\n
$GPGGA,084429.25,5703.2892040,N,00952.3540134,E,2,11,0.8,-1.925,M,40.592,M,2.0,0123*69\r\n
$GPGGA,084429.30,5703.2891928,N,00952.3540349,E,2,11,0.8,-1.927,M,40.592,M,2.0,0123*63\r\n
$GPGGA,084429.35,5703.2891837,N,00952.3540573,E,2,11,0.8,-1.925,M,40.592,M,2.0,0123*64\r\n
$GPGGA,084429.40,5703.2891754,N,00952.3540792,E,2,11,0.8,-1.923,M,40.592,M,2.0,0123*67\r\n
$GPGGA,084429.45,5703.2891654,N,00952.3540997,E,2,11,0.8,-1.929,M,40.592,M,2.3,0123*61\r\n
$GPGGA,084429.50,5703.2891540,N,00952.3541226,E,2,11,0.8,-1.931,M,40.592,M,2.3,0123*6A\r\n
$GPGGA,084429.55,5703.2891460,N,00952.3541475,E,2,11,0.8,-1.926,M,40.592,M,2.3,0123*6A\r\n
$GPGGA,084429.60,5703.2891388,N,00952.3541699,E,2,11,0.8,-1.924,M,40.592,M,2.3,0123*6F\r\n
$GPGGA,084429.65,5703.2891278,N,00952.3541911,E,2,11,0.8,-1.928,M,40.592,M,1.2,0123*65\r\n
$GPGGA,084429.70,5703.2891154,N,00952.3542140,E,2,11,0.8,-1.929,M,40.592,M,1.2,0123*62\r\n
$GPGGA,084429.75,5703.2891052,N,00952.3542372,E,2,11,0.8,-1.931,M,40.592,M,1.2,0123*6A\r\n
$GPGGA,084429.80,5703.2891000,N,00952.3542594,E,2,11,0.8,-1.929,M,40.592,M,1.2,0123*60\r\n
$GPGGA,084429.85,5703.2890931,N,00952.3542834,E,2,11,0.8,-1.928,M,40.592,M,1.5,0123*6E\r\n
$GPGGA,084429.90,5703.2890829,N,00952.3543076,E,2,11,0.8,-1.926,M,40.592,M,1.5,0123*63\r\n
$GPGGA,084429.95,5703.2890727,N,00952.3543298,E,2,11,0.8,-1.927,M,40.592,M,1.5,0123*64\r\n
$GPGGA,084430.00,5703.2890656,N,00952.3543517,E,2,11,0.8,-1.931,M,40.592,M,1.5,0123*60\r\n
$GPGGA,084430.05,5703.2890595,N,00952.3543737,E,2,11,0.8,-1.938,M,40.592,M,1.7,0123*62\r\n
$GPGGA,084430.10,5703.2890532,N,00952.3543982,E,2,11,0.8,-1.935,M,40.592,M,1.7,0123*66\r\n
$GPGGA,084430.15,5703.2890450,N,00952.3544244,E,2,11,0.8,-1.933,M,40.592,M,1.7,0123*66\r\n
$GPGGA,084430.20,5703.2890382,N,00952.3544499,E,2,11,0.8,-1.933,M,40.592,M,1.7,0123*6E\r\n
$GPGGA,084430.25,5703.2890307,N,00952.3544739,E,2,11,0.8,-1.931,M,40.592,M,2.0,0123*69\r\n
$GPGGA,084430.30,5703.2890237,N,00952.3544976,E,2,11,0.8,-1.933,M,40.592,M,2.0,0123*68\r\n
$GPGGA,084430.35,5703.2890161,N,00952.3545207,E,2,11,0.8,-1.933,M,40.592,M,2.0,0123*61\r\n
$GPGGA,084430.40,5703.2890102,N,00952.3545447,E,2,11,0.8,-1.930,M,40.592,M,2.0,0123*67\r\n
$GPGGA,084430.45,5703.2890036,N,00952.3545717,E,2,11,0.8,-1.938,M,40.592,M,2.2,0123*68\r\n
$GPGGA,084430.50,5703.2889980,N,00952.3545966,E,2,11,0.8,-1.940,M,40.592,M,2.2,0123*67\r\n
$GPGGA,084430.55,5703.2889918,N,00952.3546222,E,2,11,0.8,-1.942,M,40.592,M,2.2,0123*69\r\n
$GPGGA,084430.60,5703.2889890,N,00952.3546504,E,2,11,0.8,-1.938,M,40.592,M,2.2,0123*60\r\n
$GPGGA,084430.65,5703.2889850,N,00952.3546763,E,2,11,0.8,-1.932,M,40.592,M,1.2,0123*63\r\n
$GPGGA,084430.70,5703.2889787,N,00952.3547015,E,2,11,0.8,-1.936,M,40.592,M,1.2,0123*61\r\n
$GPGGA,084430.75,5703.2889733,N,00952.3547278,E,2,11,0.8,-1.935,M,40.592,M,1.2,0123*61\r\n
$GPGGA,084430.80,5703.2889687,N,00952.3547554,E,2,11,0.8,-1.930,M,40.592,M,1.2,0123*69\r\n
$GPGGA,084430.85,5703.2889643,N,00952.3547809,E,2,11,0.8,-1.934,M,40.592,M,1.5,0123*62\r\n
$GPGGA,084430.90,5703.2889630,N,00952.3548081,E,2,11,0.8,-1.932,M,40.592,M,1.5,0123*63\r\n
$GPGGA,084430.95,5703.2889623,N,00952.3548372,E,2,11,0.8,-1.930,M,40.592,M,1.5,0123*69\r\n
$GPGGA,084431.00,5703.2889597,N,00952.3548663,E,2,11,0.8,-1.930,M,40.592,M,1.5,0123*6D\r\n
$GPGGA,084431.05,5703.2889584,N,00952.3548938,E,2,11,0.8,-1.924,M,40.592,M,1.7,0123*6C\r\n
$GPGGA,084431.10,5703.2889555,N,00952.3549233,E,2,11,0.8,-1.919,M,40.592,M,1.7,0123*6B\r\n
$GPGGA,084431.15,5703.2889575,N,00952.3549565,E,2,11,0.8,-1.911,M,40.592,M,1.7,0123*60\r\n
$GPGGA,084431.20,5703.2889587,N,00952.3549893,E,2,11,0.8,-1.906,M,40.592,M,1.7,0123*69\r\n
$GPGGA,084431.25,5703.2889587,N,00952.3550192,E,2,11,0.8,-1.904,M,40.592,M,2.0,0123*6A\r\n
$GPGGA,084431.30,5703.2889578,N,00952.3550512,E,2,11,0.8,-1.901,M,40.592,M,2.0,0123*67\r\n
$GPGGA,084431.35,5703.2889587,N,00952.3550860,E,2,11,0.8,-1.896,M,40.592,M,2.0,0123*65\r\n
$GPGGA,084431.40,5703.2889609,N,00952.3551188,E,2,11,0.8,-1.894,M,40.592,M,2.0,0123*6E\r\n
$GPGGA,084431.45,5703.2889646,N,00952.3551536,E,2,11,0.8,-1.895,M,40.592,M,2.2,0123*62\r\n
$GPGGA,084431.50,5703.2889679,N,00952.3551897,E,2,11,0.8,-1.894,M,40.592,M,2.2,0123*6D\r\n
$GPGGA,084431.55,5703.2889693,N,00952.3552270,E,2,11,0.8,-1.896,M,40.592,M,2.2,0123*6E\r\n
$GPGGA,084431.60,5703.2889704,N,00952.3552650,E,2,11,0.8,-1.893,M,40.592,M,2.2,0123*64\r\n
$GPGGA,084431.65,5703.2889716,N,00952.3553022,E,2,11,0.8,-1.898,M,40.592,M,2.4,0123*6D\r\n
$GPGGA,084431.70,5703.2889728,N,00952.3553366,E,2,11,0.8,-1.903,M,40.592,M,2.4,0123*64\r\n
$GPGGA,084431.75,5703.2889753,N,00952.3553713,E,2,11,0.8,-1.907,M,40.592,M,2.4,0123*6F\r\n
$GPGGA,084431.80,5703.2889767,N,00952.3554051,E,2,11,0.8,-1.912,M,40.592,M,2.4,0123*60\r\n
$GPGGA,084431.85,5703.2889780,N,00952.3554376,E,2,11,0.8,-1.920,M,40.592,M,2.6,0123*69\r\n
$GPGGA,084431.90,5703.2889811,N,00952.3554740,E,2,11,0.8,-1.924,M,40.592,M,2.6,0123*6F\r\n
$GPGGA,084431.95,5703.2889829,N,00952.3555088,E,2,11,0.8,-1.934,M,40.592,M,2.6,0123*62\r\n
$GPGGA,084432.00,5703.2889858,N,00952.3555404,E,2,11,0.8,-1.944,M,40.592,M,2.6,0123*6C\r\n
$GPGGA,084432.05,5703.2889883,N,00952.3555733,E,2,11,0.8,-1.951,M,40.592,M,2.9,0123*63\r\n
$GPGGA,084432.10,5703.2889910,N,00952.3556036,E,2,11,0.8,-1.956,M,40.592,M,2.9,0123*6A\r\n
$GPGGA,084432.15,5703.2889925,N,00952.3556344,E,2,11,0.8,-1.967,M,40.592,M,2.9,0123*6D\r\n
$GPGGA,084432.20,5703.2889981,N,00952.3556650,E,2,11,0.8,-1.972,M,40.592,M,2.9,0123*61\r\n
$GPGGA,084432.25,5703.2890067,N,00952.3556939,E,2,11,0.8,-1.957,M,40.592,M,3.1,0123*63\r\n
$GPGGA,084432.30,5703.2890106,N,00952.3557193,E,2,11,0.8,-1.958,M,40.592,M,3.1,0123*67\r\n
$GPGGA,084432.35,5703.2890117,N,00952.3557461,E,2,11,0.8,-1.962,M,40.592,M,3.1,0123*63\r\n
$GPGGA,084432.40,5703.2890168,N,00952.3557737,E,2,11,0.8,-1.960,M,40.592,M,3.1,0123*6B\r\n
$GPGGA,084432.45,5703.2890237,N,00952.3557996,E,2,11,0.8,-1.955,M,40.592,M,3.3,0123*66\r\n
$GPGGA,084432.50,5703.2890295,N,00952.3558240,E,2,11,0.8,-1.952,M,40.592,M,3.3,0123*62\r\n
$GPGGA,084432.55,5703.2890380,N,00952.3558494,E,2,11,0.8,-1.942,M,40.592,M,3.3,0123*6C\r\n
$GPGGA,084432.60,5703.2890458,N,00952.3558758,E,2,11,0.8,-1.932,M,40.592,M,3.3,0123*6C\r\n
$GPGGA,084432.65,5703.2890449,N,00952.3559005,E,2,10,0.8,-1.946,M,40.592,M,1.2,0123*66\r\n
$GPGGA,084432.70,5703.2890492,N,00952.3559267,E,2,10,0.8,-1.943,M,40.592,M,1.2,0123*67\r\n
$GPGGA,084432.75,5703.2890521,N,00952.3559517,E,2,10,0.8,-1.940,M,40.592,M,1.2,0123*68\r\n
$GPGGA,084432.80,5703.2890559,N,00952.3559769,E,2,10,0.8,-1.936,M,40.592,M,1.2,0123*67\r\n
$GPGGA,084432.85,5703.2890589,N,00952.3560053,E,2,10,0.8,-1.931,M,40.592,M,1.5,0123*6B\r\n
$GPGGA,084432.90,5703.2890617,N,00952.3560325,E,2,10,0.8,-1.930,M,40.592,M,1.5,0123*68\r\n
$GPGGA,084432.95,5703.2890661,N,00952.3560595,E,2,10,0.8,-1.928,M,40.592,M,1.5,0123*68\r\n
$GPGGA,084433.00,5703.2890711,N,00952.3560860,E,2,10,0.8,-1.925,M,40.592,M,1.5,0123*69\r\n
$GPGGA,084433.05,5703.2890745,N,00952.3561136,E,2,11,0.8,-1.920,M,40.592,M,1.7,0123*60\r\n
$GPGGA,084433.10,5703.2890779,N,00952.3561406,E,2,11,0.8,-1.920,M,40.592,M,1.7,0123*6D\r\n
$GPGGA,084433.15,5703.2890807,N,00952.3561676,E,2,11,0.8,-1.920,M,40.592,M,1.7,0123*6B\r\n
$GPGGA,084433.20,5703.2890836,N,00952.3561931,E,2,11,0.8,-1.923,M,40.592,M,1.7,0123*60\r\n
$GPGGA,084433.25,5703.2890872,N,00952.3562180,E,2,11,0.8,-1.928,M,40.592,M,2.0,0123*6B\r\n
$GPGGA,084433.30,5703.2890920,N,00952.3562435,E,2,11,0.8,-1.929,M,40.592,M,2.0,0123*63\r\n
$GPGGA,084433.35,5703.2890959,N,00952.3562703,E,2,11,0.8,-1.927,M,40.592,M,2.0,0123*60\r\n
$GPGGA,084433.40,5703.2891000,N,00952.3562945,E,2,11,0.8,-1.925,M,40.592,M,2.0,0123*68\r\n
$GPGGA,084433.45,5703.2891050,N,00952.3563174,E,2,11,0.8,-1.922,M,40.592,M,2.3,0123*67\r\n
$GPGGA,084433.50,5703.2891095,N,00952.3563415,E,2,11,0.8,-1.921,M,40.592,M,2.3,0123*6B\r\n
$GPGGA,084433.55,5703.2891139,N,00952.3563674,E,2,11,0.8,-1.920,M,40.592,M,2.3,0123*6D\r\n
$GPGGA,084433.60,5703.2891188,N,00952.3563916,E,2,11,0.8,-1.921,M,40.592,M,2.3,0123*6B\r\n
$GPGGA,084433.65,5703.2891234,N,00952.3564138,E,2,11,0.8,-1.925,M,40.592,M,1.2,0123*6F\r\n
$GPGGA,084433.70,5703.2891289,N,00952.3564365,E,2,11,0.8,-1.927,M,40.592,M,1.2,0123*65\r\n
$GPGGA,084433.75,5703.2891351,N,00952.3564602,E,2,11,0.8,-1.926,M,40.592,M,1.2,0123*61\r\n
$GPGGA,084433.80,5703.2891400,N,00952.3564827,E,2,11,0.8,-1.924,M,40.592,M,1.2,0123*63\r\n
$GPGGA,084433.85,5703.2891450,N,00952.3565052,E,2,11,0.8,-1.923,M,40.592,M,1.5,0123*68\r\n
$GPGGA,084433.90,5703.2891500,N,00952.3565276,E,2,11,0.8,-1.926,M,40.592,M,1.5,0123*69\r\n
$GPGGA,084433.95,5703.2891557,N,00952.3565503,E,2,11,0.8,-1.925,M,40.592,M,1.5,0123*68\r\n
$GPGGA,084434.00,5703.2891602,N,00952.3565710,E,2,11,0.8,-1.924,M,40.592,M,1.5,0123*61\r\n
$GPGGA,084434.05,5703.2891638,N,00952.3565921,E,2,11,0.8,-1.919,M,40.592,M,1.7,0123*6D\r\n
$GPGGA,084434.10,5703.2891677,N,00952.3566140,E,2,11,0.8,-1.923,M,40.592,M,1.7,0123*67\r\n
$GPGGA,084434.15,5703.2891739,N,00952.3566376,E,2,11,0.8,-1.926,M,40.592,M,1.7,0123*6B\r\n
$GPGGA,084434.20,5703.2891799,N,00952.3566615,E,2,11,0.8,-1.922,M,40.592,M,1.7,0123*63\r\n
$GPGGA,084434.25,5703.2891829,N,00952.3566833,E,2,11,0.8,-1.923,M,40.592,M,2.0,0123*6D\r\n
$GPGGA,084434.30,5703.2891875,N,00952.3567022,E,2,11,0.8,-1.922,M,40.592,M,2.0,0123*68\r\n
$GPGGA,084434.35,5703.2891926,N,00952.3567206,E,2,11,0.8,-1.922,M,40.592,M,2.0,0123*6E\r\n
$GPGGA,084434.40,5703.2891987,N,00952.3567417,E,2,11,0.8,-1.922,M,40.592,M,2.0,0123*61\r\n
$GPGGA,084434.45,5703.2892024,N,00952.3567659,E,2,11,0.8,-1.926,M,40.592,M,2.2,0123*69\r\n
$GPGGA,084434.50,5703.2892069,N,00952.3567894,E,2,11,0.8,-1.924,M,40.592,M,2.2,0123*69\r\n
$GPGGA,084434.55,5703.2892132,N,00952.3568093,E,2,11,0.8,-1.925,M,40.592,M,2.2,0123*62\r\n
$GPGGA,084434.60,5703.2892189,N,00952.3568301,E,2,11,0.8,-1.924,M,40.592,M,2.2,0123*6D\r\n
$GPGGA,084434.65,5703.2892252,N,00952.3568514,E,2,11,0.8,-1.920,M,40.592,M,1.2,0123*68\r\n
$GPGGA,084434.70,5703.2892299,N,00952.3568730,E,2,11,0.8,-1.918,M,40.592,M,1.2,0123*64\r\n
$GPGGA,084434.75,5703.2892347,N,00952.3568927,E,2,11,0.8,-1.921,M,40.592,M,1.2,0123*61\r\n
$GPGGA,084434.80,5703.2892414,N,00952.3569113,E,2,11,0.8,-1.922,M,40.592,M,1.2,0123*67\r\n
$GPGGA,084434.85,5703.2892504,N,00952.3569292,E,2,11,0.8,-1.927,M,40.592,M,1.5,0123*6A\r\n
$GPGGA,084434.90,5703.2892620,N,00952.3569480,E,2,11,0.8,-1.927,M,40.592,M,1.5,0123*6E\r\n
$GPGGA,084434.95,5703.2892709,N,00952.3569669,E,2,11,0.8,-1.926,M,40.592,M,1.5,0123*65\r\n
$GPGGA,084435.00,5703.2892770,N,00952.3569846,E,2,11,0.8,-1.931,M,40.592,M,1.5,0123*63\r\n
$GPGGA,084435.05,5703.2892836,N,00952.3570022,E,2,11,0.8,-1.934,M,40.592,M,1.7,0123*6E\r\n
$GPGGA,084435.10,5703.2892925,N,00952.3570204,E,2,11,0.8,-1.938,M,40.592,M,1.7,0123*63\r\n
$GPGGA,084435.15,5703.2893019,N,00952.3570405,E,2,11,0.8,-1.937,M,40.592,M,1.7,0123*69\r\n
$GPGGA,084435.20,5703.2893103,N,00952.3570610,E,2,11,0.8,-1.935,M,40.592,M,1.7,0123*61\r\n
$GPGGA,084435.25,5703.2893163,N,00952.3570841,E,2,11,0.8,-1.932,M,40.592,M,2.0,0123*6B\r\n
