$GPGGA,130256.10,5700.9262545,N,00959.2004269,E,2,7,1.6,11.941,M,40.582,M,2.7,0123*46\r\n
$GPGGA,130256.15,5700.9262562,N,00959.2004263,E,2,7,1.6,11.944,M,40.582,M,2.7,0123*49\r\n
$GPGGA,130256.20,5700.9262569,N,00959.2004271,E,2,7,1.6,11.946,M,40.582,M,2.7,0123*45\r\n
$GPGGA,130256.25,5700.9262563,N,00959.2004274,E,2,7,1.6,11.944,M,40.582,M,2.9,0123*43\r\n
$GPGGA,130256.30,5700.9262564,N,00959.2004270,E,2,7,1.6,11.945,M,40.582,M,2.9,0123*45\r\n
$GPGGA,130256.35,5700.9262555,N,00959.2004264,E,2,7,1.6,11.945,M,40.582,M,2.9,0123*47\r\n
$GPGGA,130256.40,5700.9262567,N,00959.2004269,E,2,7,1.6,11.947,M,40.582,M,2.9,0123*4B\r\n
$GPGGA,130256.45,5700.9262554,N,00959.2004269,E,2,7,1.6,11.943,M,40.582,M,3.2,0123*40\r\n
$GPGGA,130256.50,5700.9262555,N,00959.2004267,E,2,7,1.6,11.944,M,40.582,M,3.2,0123*4C\r\n
$GPGGA,130256.55,5700.9262554,N,00959.2004266,E,2,7,1.6,11.944,M,40.582,M,3.2,0123*49\r\n
$GPGGA,130256.60,5700.9262555,N,00959.2004269,E,2,7,1.6,11.944,M,40.582,M,3.2,0123*41\r\n
$GPGGA,130256.65,5700.9262566,N,00959.2004274,E,2,7,1.6,11.949,M,40.582,M,3.5,0123*42\r\n
$GPGGA,130256.70,5700.9262567,N,00959.2004271,E,2,7,1.6,11.950,M,40.582,M,3.5,0123*4A\r\n
$GPGGA,130256.75,5700.9262568,N,00959.2004268,E,2,7,1.6,11.951,M,40.582,M,3.5,0123*49\r\n
$GPGGA,130256.80,5700.9262568,N,00959.2004274,E,2,7,1.6,11.951,M,40.582,M,3.5,0123*4E\r\n
$GPGGA,130256.85,5700.9262528,N,00959.2004291,E,2,7,1.6,11.936,M,40.582,M,1.0,0123*42\r\n
$GPGGA,130256.90,5700.9262536,N,00959.2004282,E,2,7,1.6,11.938,M,40.582,M,1.0,0123*45\r\n
$GPGGA,130256.95,5700.9262533,N,00959.2004275,E,2,7,1.6,11.938,M,40.582,M,1.0,0123*4D\r\n
$GPGGA,130257.00,5700.9262524,N,00959.2004270,E,2,7,1.6,11.934,M,40.582,M,1.0,0123*4F\r\n
$GPGGA,130257.05,5700.9262513,N,00959.2004243,E,2,7,1.6,11.924,M,40.582,M,1.2,0123*4D\r\n
$GPGGA,130257.10,5700.9262518,N,00959.2004240,E,2,7,1.6,11.926,M,40.582,M,1.2,0123*43\r\n
$GPGGA,130257.15,5700.9262524,N,00959.2004240,E,2,7,1.6,11.928,M,40.582,M,1.2,0123*47\r\n
$GPGGA,130257.20,5700.9262527,N,00959.2004242,E,2,7,1.6,11.930,M,40.582,M,1.2,0123*49\r\n
$GPGGA,130257.25,5700.9262488,N,00959.2004238,E,2,7,1.6,11.914,M,40.582,M,1.4,0123*45\r\n
$GPGGA,130257.30,5700.9262490,N,00959.2004238,E,2,7,1.6,11.915,M,40.582,M,1.4,0123*49\r\n
$GPGGA,130257.35,5700.9262490,N,00959.2004236,E,2,7,1.6,11.915,M,40.582,M,1.4,0123*42\r\n
$GPGGA,130257.40,5700.9262493,N,00959.2004236,E,2,7,1.6,11.915,M,40.582,M,1.4,0123*43\r\n
$GPGGA,130257.45,5700.9262512,N,00959.2004250,E,2,7,1.6,11.925,M,40.582,M,1.6,0123*4F\r\n
$GPGGA,130257.50,5700.9262514,N,00959.2004250,E,2,7,1.6,11.926,M,40.582,M,1.6,0123*4E\r\n
$GPGGA,130257.55,5700.9262517,N,00959.2004251,E,2,7,1.6,11.927,M,40.582,M,1.6,0123*48\r\n
$GPGGA,130257.60,5700.9262520,N,00959.2004255,E,2,7,1.6,11.928,M,40.582,M,1.6,0123*41\r\n
$GPGGA,130257.65,5700.9262517,N,00959.2004253,E,2,7,1.6,11.923,M,40.582,M,1.8,0123*43\r\n
$GPGGA,130257.70,5700.9262519,N,00959.2004255,E,2,7,1.6,11.924,M,40.582,M,1.8,0123*48\r\n
$GPGGA,130257.75,5700.9262522,N,00959.2004255,E,2,7,1.6,11.924,M,40.582,M,1.8,0123*45\r\n
$GPGGA,130257.80,5700.9262525,N,00959.2004252,E,2,7,1.6,11.925,M,40.582,M,1.8,0123*4E\r\n
$GPGGA,130257.85,5700.9262494,N,00959.2004242,E,2,7,1.6,11.919,M,40.582,M,2.0,0123*45\r\n
$GPGGA,130257.90,5700.9262495,N,00959.2004243,E,2,7,1.6,11.919,M,40.582,M,2.0,0123*41\r\n
$GPGGA,130258.00,5700.9262492,N,00959.2004246,E\x00,2,7,1.6,11.919,M,40.582,M,2.0,0123*45\r\n
$GPGGA,130301.85,5700.9262330,N,00959.2004170,E,2,7,1.6,11.842,M,40.582,M,2.0,0123*43\r\n
$GPGGA,130301.90,5700.9262333,N,00959.2004170,E,2,7,1.6,11.843,M,40.582,M,2.0,0123*45\r\n
$GPGGA,130301.95,5700.9262334,N,00959.2004172,E,2,7,1.6,11.843,M,40.582,M,2.0,0123*45\r\n
$GPGGA,130302.00,5700.9262337,N,00959.2004170,E,2,7,1.6,11.844,M,40.582,M,2.0,0123*4C\r\n
$GPGGA,130302.05,5700.9262302,N,00959.2004127,E,2,7,1.6,11.825,M,40.582,M,2.2,0123*48\r\n
$GPGGA,130302.10,5700.9262305,N,00959.2004128,E,2,7,1.6,11.826,M,40.582,M,2.2,0123*47\r\n
$GPGGA,130302.15,5700.9262307,N,00959.2004131,E,2,7,1.6,11.827,M,40.582,M,2.2,0123*49\r\n
$GPGGA,130302.20,5700.9262313,N,00959.2004131,E,2,7,1.6,11.829,M,40.582,M,2.2,0123*44\r\n
$GPGGA,130302.25,5700.9262267,N,00959.2004153,E,2,7,1.6,11.821,M,40.582,M,2.4,0123*49\r\n
$GPGGA,130302.30,5700.9262271,N,00959.2004154,E,2,7,1.6,11.822,M,40.582,M,2.4,0123*4E\r\n
$GPGGA,130302.35,5700.9262276,N,00959.2004153,E,2,7,1.6,11.824,M,40.582,M,2.4,0123*4D\r\n
$GPGGA,130302.40,5700.9262281,N,00959.2004155,E,2,7,1.6,11.826,M,40.582,M,2.4,0123*43\r\n
$GPGGA,130302.45,5700.9262259,N,00959.2004130,E,2,7,1.6,11.812,M,40.582,M,2.6,0123*45\r\n
$GPGGA,130302.50,5700.9262264,N,00959.2004129,E,2,7,1.6,11.814,M,40.582,M,2.6,0123*41\r\n
$GPGGA,130302.55,5700.9262267,N,00959.2004130,E,2,7,1.6,11.816,M,40.582,M,2.6,0123*4D\r\n
$GPGGA,130302.60,5700.9262274,N,00959.2004131,E,2,7,1.6,11.818,M,40.582,M,2.6,0123*46\r\n
$GPGGA,130302.65,5700.9262306,N,00959.2004145,E,2,7,1.6,11.828,M,40.582,M,2.9,0123*48\r\n
$GPGGA,130302.70,5700.9262312,N,00959.2004145,E,2,7,1.6,11.830,M,40.582,M,2.9,0123*40\r\n
$GPGGA,130302.75,5700.9262318,N,00959.2004148,E,2,7,1.6,11.832,M,40.582,M,2.9,0123*40\r\n
$GPGGA,130302.80,5700.9262324,N,00959.2004150,E,2,7,1.6,11.834,M,40.582,M,2.9,0123*4A\r\n
$GPGGA,130302.85,5700.9262248,N,00959.2004131,E,2,7,1.6,11.807,M,40.582,M,2.2,0123*48\r\n
$GPGGA,130302.90,5700.9262237,N,00959.2004130,E,2,7,1.6,11.806,M,40.582,M,2.2,0123*44\r\n
$GPGGA,130302.95,5700.9262235,N,00959.2004127,E,2,7,1.6,11.805,M,40.582,M,2.2,0123*46\r\n
$GPGGA,130303.00,5700.9262235,N,00959.2004130,E,2,7,1.6,11.802,M,40.582,M,2.2,0123*4A\r\n
$GPGGA,130303.05,5700.9262212,N,00959.2004129,E,2,7,1.6,11.794,M,40.582,M,2.5,0123*45\r\n
$GPGGA,130303.10,5700.9262215,N,00959.2004130,E,2,7,1.6,11.796,M,40.582,M,2.5,0123*4C\r\n
$GPGGA,130303.15,5700.9262219,N,00959.2004134,E,2,7,1.6,11.798,M,40.582,M,2.5,0123*4F\r\n
$GPGGA,130303.20,5700.9262223,N,00959.2004137,E,2,7,1.6,11.800,M,40.582,M,2.5,0123*4D\r\n
$GPGGA,130303.25,5700.9262225,N,00959.2004132,E,2,7,1.6,11.797,M,40.582,M,2.7,0123*48\r\n
$GPGGA,130303.30,5700.9262228,N,00959.2004133,E,2,7,1.6,11.799,M,40.582,M,2.7,0123*4E\r\n
$GPGGA,130303.35,5700.9262231,N,00959.2004140,E,2,7,1.6,11.801,M,40.582,M,2.7,0123*49\r\n
$GPGGA,130303.40,5700.9262234,N,00959.2004140,E,2,7,1.6,11.802,M,40.582,M,2.7,0123*4D\r\n
$GPGGA,130303.45,5700.9262204,N,00959.2004131,E,2,7,1.6,11.793,M,40.582,M,3.0,0123*4C\r\n
$GPGGA,130303.50,5700.9262204,N,00959.2004130,E,2,7,1.6,11.794,M,40.582,M,3.0,0123*4E\r\n
$GPGGA,130303.55,5700.9262203,N,00959.2004130,E,2,7,1.6,11.794,M,40.582,M,3.0,0123*4C\r\n
$GPGGA,130303.60,5700.9262202,N,00959.2004130,E,2,7,1.6,11.794,M,40.582,M,3.0,0123*4B\r\n
$GPGGA,130303.65,5700.9262192,N,00959.2004110,E,2,7,1.6,11.788,M,40.582,M,3.2,0123*49\r\n
$GPGGA,130303.70,5700.9262190,N,00959.2004110,E,2,7,1.6,11.787,M,40.582,M,3.2,0123*40\r\n
$GPGGA,130303.75,5700.9262188,N,00959.2004104,E,2,7,1.6,11.786,M,40.582,M,3.2,0123*48\r\n
$GPGGA,130303.80,5700.9262185,N,00959.2004102,E,2,7,1.6,11.785,M,40.582,M,3.2,0123*4A\r\n
$GPGGA,130303.85,5700.9262220,N,00959.2004108,E,2,7,1.6,11.794,M,40.582,M,2.4,0123*4E\r\n
$GPGGA,130303.90,5700.9262220,N,00959.2004111,E,2,7,1.6,11.793,M,40.582,M,2.4,0123*45\r\n
$GPGGA,130303.95,5700.9262220,N,00959.2004108,E,2,7,1.6,11.792,M,40.582,M,2.4,0123*49\r\n
$GPGGA,130304.00,5700.9262221,N,00959.2004103,E,2,7,1.6,11.792,M,40.582,M,2.4,0123*48\r\n
$GPGGA,130304.05,5700.9262174,N,00959.2004098,E,2,7,1.6,11.774,M,40.582,M,2.7,0123*46\r\n
$GPGGA,130304.10,5700.9262177,N,00959.2004098,E,2,7,1.6,11.774,M,40.582,M,2.7,0123*41\r\n
$GPGGA,130304.15,5700.9262177,N,00959.2004097,E,2,7,1.6,11.774,M,40.582,M,2.7,0123*4B\r\n
$GPGGA,130304.20,5700.9262178,N,00959.2004096,E,2,7,1.6,11.774,M,40.582,M,2.7,0123*43\r\n
$GPGGA,130304.25,5700.9262155,N,00959.2004080,E,2,7,1.6,11.770,M,40.582,M,2.9,0123*44\r\n
$GPGGA,130304.30,5700.9262155,N,00959.2004081,E,2,7,1.6,11.770,M,40.582,M,2.9,0123*41\r\n
$GPGGA,130304.35,5700.9262155,N,00959.2004082,E,2,7,1.6,11.770,M,40.582,M,2.9,0123*47\r\n
$GPGGA,130304.40,5700.9262154,N,00959.2004083,E,2,7,1.6,11.769,M,40.582,M,2.9,0123*4D\r\n
$GPGGA,130304.45,5700.9262176,N,00959.2004104,E,2,7,1.6,11.779,M,40.582,M,3.2,0123*4D\r\n
$GPGGA,130304.55,5700.9262180,N,00959.2004098,E\x00,2,7,1.6,11.779,M,40.582,M,3.2,0123*41\r\n
$GPGGA,130307.40,5700.9262024,N,00959.2003994,E,2,7,1.6,11.711,M,40.582,M,2.4,0123*42\r\n
$GPGGA,130307.45,5700.9261990,N,00959.2004022,E,2,7,1.6,11.704,M,40.582,M,2.6,0123*47\r\n
$GPGGA,130307.50,5700.9261991,N,00959.2004023,E,2,7,1.6,11.704,M,40.582,M,2.6,0123*43\r\n
$GPGGA,130307.55,5700.9261988,N,00959.2004023,E,2,7,1.6,11.705,M,40.582,M,2.6,0123*4F\r\n
$GPGGA,130307.60,5700.9261986,N,00959.2004026,E,2,7,1.6,11.705,M,40.582,M,2.6,0123*42\r\n
$GPGGA,130307.65,5700.9261983,N,00959.2004018,E,2,7,1.6,11.700,M,40.582,M,2.9,0123*45\r\n
$GPGGA,130307.70,5700.9261979,N,00959.2004018,E,2,7,1.6,11.699,M,40.582,M,2.9,0123*45\r\n
$GPGGA,130307.75,5700.9261975,N,00959.2004016,E,2,7,1.6,11.698,M,40.582,M,2.9,0123*43\r\n
$GPGGA,130307.80,5700.9261973,N,00959.2004016,E,2,7,1.6,11.697,M,40.582,M,2.9,0123*40\r\n
$GPGGA,130307.85,5700.9261984,N,00959.2004013,E,2,7,1.6,11.702,M,40.582,M,2.3,0123*4F\r\n
$GPGGA,130307.90,5700.9261982,N,00959.2004015,E,2,7,1.6,11.701,M,40.582,M,2.3,0123*48\r\n
$GPGGA,130307.95,5700.9261979,N,00959.2004014,E,2,7,1.6,11.700,M,40.582,M,2.3,0123*49\r\n
$GPGGA,130308.00,5700.9261976,N,00959.2004015,E,2,7,1.6,11.699,M,40.582,M,2.3,0123*45\r\n
$GPGGA,130308.05,5700.9261962,N,00959.2004005,E,2,7,1.6,11.689,M,40.582,M,2.6,0123*40\r\n
$GPGGA,130308.10,5700.9261962,N,00959.2004007,E,2,7,1.6,11.689,M,40.582,M,2.6,0123*46\r\n
$GPGGA,130308.15,5700.9261961,N,00959.2004010,E,2,7,1.6,11.689,M,40.582,M,2.6,0123*46\r\n
$GPGGA,130308.20,5700.9261965,N,00959.2004010,E,2,7,1.6,11.689,M,40.582,M,2.6,0123*44\r\n
$GPGGA,130308.25,5700.9261971,N,00959.2004003,E,2,7,1.6,11.689,M,40.582,M,2.8,0123*48\r\n
$GPGGA,130308.30,5700.9261974,N,00959.2004002,E,2,7,1.6,11.690,M,40.582,M,2.8,0123*40\r\n
$GPGGA,130308.35,5700.9261977,N,00959.2004006,E,2,7,1.6,11.690,M,40.582,M,2.8,0123*42\r\n
$GPGGA,130308.40,5700.9261979,N,00959.2004006,E,2,7,1.6,11.691,M,40.582,M,2.8,0123*4F\r\n
$GPGGA,130308.45,5700.9261927,N,00959.2003995,E,2,7,1.6,11.678,M,40.582,M,3.1,0123*4A\r\n
$GPGGA,130308.50,5700.9261929,N,00959.2003996,E,2,7,1.6,11.678,M,40.582,M,3.1,0123*43\r\n
$GPGGA,130308.55,5700.9261930,N,00959.2004002,E,2,7,1.6,11.678,M,40.582,M,3.1,0123*4D\r\n
$GPGGA,130308.60,5700.9261929,N,00959.2004000,E,2,7,1.6,11.679,M,40.582,M,3.1,0123*40\r\n
$GPGGA,130308.65,5700.9261963,N,00959.2004009,E,2,7,1.6,11.690,M,40.582,M,3.3,0123*47\r\n
$GPGGA,130308.70,5700.9261964,N,00959.2004006,E,2,7,1.6,11.690,M,40.582,M,3.3,0123*4B\r\n
$GPGGA,130308.75,5700.9261966,N,00959.2004005,E,2,7,1.6,11.691,M,40.582,M,3.3,0123*4E\r\n
$GPGGA,130308.80,5700.9261968,N,00959.2004005,E,2,7,1.6,11.691,M,40.582,M,3.3,0123*4A\r\n
$GPGGA,130308.85,5700.9261955,N,00959.2003989,E,2,7,1.6,11.686,M,40.582,M,1.0,0123*4C\r\n
$GPGGA,130308.90,5700.9261957,N,00959.2003985,E,2,7,1.6,11.687,M,40.582,M,1.0,0123*47\r\n
$GPGGA,130308.95,5700.9261959,N,00959.2003984,E,2,7,1.6,11.687,M,40.582,M,1.0,0123*4D\r\n
$GPGGA,130309.00,5700.9261961,N,00959.2003987,E,2,7,1.6,11.688,M,40.582,M,1.0,0123*47\r\n
$GPGGA,130309.05,5700.9261930,N,00959.2003973,E,2,7,1.6,11.671,M,40.582,M,1.3,0123*48\r\n
$GPGGA,130309.10,5700.9261932,N,00959.2003971,E,2,7,1.6,11.672,M,40.582,M,1.3,0123*4F\r\n
$GPGGA,130309.15,5700.9261934,N,00959.2003973,E,2,7,1.6,11.672,M,40.582,M,1.3,0123*4E\r\n
$GPGGA,130309.20,5700.9261937,N,00959.2003973,E,2,7,1.6,11.673,M,40.582,M,1.3,0123*4A\r\n
$GPGGA,130309.25,5700.9261920,N,00959.2003977,E,2,7,1.6,11.668,M,40.582,M,1.5,0123*41\r\n
$GPGGA,130309.30,5700.9261922,N,00959.2003979,E,2,7,1.6,11.669,M,40.582,M,1.5,0123*48\r\n
$GPGGA,130309.35,5700.9261924,N,00959.2003979,E,2,7,1.6,11.669,M,40.582,M,1.5,0123*4B\r\n
$GPGGA,130309.40,5700.9261924,N,00959.2003979,E,2,7,1.6,11.670,M,40.582,M,1.5,0123*41\r\n
$GPGGA,130309.45,5700.9261916,N,00959.2003976,E,2,7,1.6,11.671,M,40.582,M,1.7,0123*49\r\n
$GPGGA,130309.50,5700.9261916,N,00959.2003975,E,2,7,1.6,11.672,M,40.582,M,1.7,0123*4D\r\n
$GPGGA,130309.55,5700.9261917,N,00959.2003978,E,2,7,1.6,11.672,M,40.582,M,1.7,0123*44\r\n
$GPGGA,130309.60,5700.9261917,N,00959.2003979,E,2,7,1.6,11.672,M,40.582,M,1.7,0123*43\r\n
$GPGGA,130309.65,5700.9261909,N,00959.2003972,E,2,7,1.6,11.664,M,40.582,M,1.9,0123*4B\r\n
$GPGGA,130309.70,5700.9261909,N,00959.2003975,E,2,7,1.6,11.664,M,40.582,M,1.9,0123*48\r\n
$GPGGA,130309.75,5700.9261908,N,00959.2003978,E,2,7,1.6,11.663,M,40.582,M,1.9,0123*46\r\n
$GPGGA,130309.80,5700.9261906,N,00959.2003973,E,2,7,1.6,11.663,M,40.582,M,1.9,0123*49\r\n
$GPGGA,130309.85,5700.9261911,N,00959.2003979,E,2,7,1.6,11.667,M,40.582,M,2.1,0123*4F\r\n
$GPGGA,130309.90,5700.9261910,N,00959.2003981,E,2,7,1.6,11.666,M,40.582,M,2.1,0123*4C\r\n
$GPGGA,130309.95,5700.9261908,N,00959.2003980,E,2,7,1.6,11.666,M,40.582,M,2.1,0123*41\r\n
$GPGGA,130310.00,5700.9261906,N,00959.2003980,E,2,7,1.6,11.665,M,40.582,M,2.1,0123*48\r\n
$GPGGA,130310.05,5700.9261884,N,00959.2003951,E,2,7,1.6,11.654,M,40.582,M,2.3,0123*4A\r\n
$GPGGA,130310.15,5700.9261884,N,00959.2003953,E\x00,2,7,1.6,11.654,M,40.582,M,2.3,0123*49\r\n
$GPGGA,130313.00,5700.9261774,N,00959.2003887,E,2,7,1.6,11.602,M,40.582,M,1.0,0123*45\r\n
$GPGGA,130313.05,5700.9261729,N,00959.2003846,E,2,7,1.6,11.581,M,40.582,M,1.3,0123*4E\r\n
$GPGGA,130313.10,5700.9261726,N,00959.2003846,E,2,7,1.6,11.580,M,40.582,M,1.3,0123*44\r\n
$GPGGA,130313.15,5700.9261724,N,00959.2003843,E,2,7,1.6,11.580,M,40.582,M,1.3,0123*46\r\n
$GPGGA,130313.20,5700.9261722,N,00959.2003841,E,2,7,1.6,11.579,M,40.582,M,1.3,0123*42\r\n
$GPGGA,130313.25,5700.9261747,N,00959.2003838,E,2,7,1.6,11.590,M,40.582,M,1.5,0123*4B\r\n
$GPGGA,130313.30,5700.9261745,N,00959.2003838,E,2,7,1.6,11.590,M,40.582,M,1.5,0123*4D\r\n
$GPGGA,130313.35,5700.9261741,N,00959.2003837,E,2,7,1.6,11.590,M,40.582,M,1.5,0123*43\r\n
$GPGGA,130313.40,5700.9261740,N,00959.2003831,E,2,7,1.6,11.590,M,40.582,M,1.5,0123*46\r\n
$GPGGA,130313.45,5700.9261744,N,00959.2003819,E,2,7,1.6,11.592,M,40.582,M,1.7,0123*4D\r\n
$GPGGA,130313.50,5700.9261743,N,00959.2003810,E,2,7,1.6,11.592,M,40.582,M,1.7,0123*47\r\n
$GPGGA,130313.55,5700.9261740,N,00959.2003799,E,2,7,1.6,11.592,M,40.582,M,1.7,0123*4F\r\n
$GPGGA,130313.60,5700.9261735,N,00959.2003782,E,2,7,1.6,11.593,M,40.582,M,1.7,0123*40\r\n
$GPGGA,130313.65,5700.9261790,N,00959.2003693,E,2,7,1.6,11.623,M,40.582,M,1.9,0123*4D\r\n
$GPGGA,130313.70,5700.9261799,N,00959.2003644,E,2,7,1.6,11.635,M,40.582,M,1.9,0123*4D\r\n
$GPGGA,130313.75,5700.9261798,N,00959.2003577,E,2,7,1.6,11.646,M,40.582,M,1.9,0123*4E\r\n
$GPGGA,130313.80,5700.9261779,N,00959.2003478,E,2,7,1.6,11.656,M,40.582,M,1.9,0123*44\r\n
$GPGGA,130313.85,5700.9261761,N,00959.2003348,E,2,7,1.6,11.670,M,40.582,M,2.1,0123*43\r\n
$GPGGA,130313.90,5700.9261749,N,00959.2003232,E,2,7,1.6,11.680,M,40.582,M,2.1,0123*4E\r\n
$GPGGA,130313.95,5700.9261747,N,00959.2003127,E,2,7,1.6,11.692,M,40.582,M,2.1,0123*41\r\n
$GPGGA,130314.00,5700.9261767,N,00959.2003026,E,2,7,1.6,11.707,M,40.582,M,2.1,0123*45\r\n
$GPGGA,130314.05,5700.9261646,N,00959.2002848,E,2,7,1.6,11.664,M,40.582,M,2.3,0123*45\r\n
$GPGGA,130314.10,5700.9261631,N,00959.2002741,E,2,7,1.6,11.670,M,40.582,M,2.3,0123*42\r\n
$GPGGA,130314.15,5700.9261615,N,00959.2002615,E,2,7,1.6,11.680,M,40.582,M,2.3,0123*4E\r\n
$GPGGA,130314.20,5700.9261591,N,00959.2002485,E,2,7,1.6,11.688,M,40.582,M,2.3,0123*44\r\n
$GPGGA,130314.25,5700.9261740,N,00959.2002330,E,2,7,1.7,11.783,M,40.582,M,2.6,0123*48\r\n
$GPGGA,130314.30,5700.9261765,N,00959.2002197,E,2,7,1.7,11.805,M,40.582,M,2.6,0123*45\r\n
$GPGGA,130314.35,5700.9261782,N,00959.2002080,E,2,7,1.7,11.826,M,40.582,M,2.6,0123*4F\r\n
$GPGGA,130314.40,5700.9261787,N,00959.2001933,E,2,7,1.7,11.847,M,40.582,M,2.6,0123*4D\r\n
$GPGGA,130314.45,5700.9261543,N,00959.2001603,E,2,7,1.6,11.793,M,40.582,M,2.8,0123*47\r\n
$GPGGA,130314.50,5700.9261519,N,00959.2001432,E,2,7,1.6,11.795,M,40.582,M,2.8,0123*4A\r\n
$GPGGA,130314.55,5700.9261554,N,00959.2001355,E,2,7,1.6,11.798,M,40.582,M,2.8,0123*4D\r\n
$GPGGA,130314.60,5700.9261587,N,00959.2001295,E,2,7,1.6,11.797,M,40.582,M,2.8,0123*47\r\n
$GPGGA,130314.65,5700.9261681,N,00959.2001287,E,2,7,1.6,11.831,M,40.582,M,3.0,0123*4E\r\n
$GPGGA,130314.70,5700.9261674,N,00959.2001247,E,2,7,1.6,11.832,M,40.582,M,3.0,0123*4F\r\n
$GPGGA,130314.75,5700.9261674,N,00959.2001207,E,2,7,1.6,11.831,M,40.582,M,3.0,0123*4D\r\n
$GPGGA,130314.80,5700.9261676,N,00959.2001178,E,2,7,1.6,11.829,M,40.582,M,3.0,0123*47\r\n
$GPGGA,130314.85,5700.9261678,N,00959.2001142,E,2,7,1.6,11.829,M,40.582,M,1.8,0123*4F\r\n
$GPGGA,130314.90,5700.9261690,N,00959.2001097,E,2,7,1.6,11.833,M,40.582,M,1.8,0123*4F\r\n
$GPGGA,130314.95,5700.9261687,N,00959.2001040,E,2,7,1.6,11.836,M,40.582,M,1.8,0123*43\r\n
$GPGGA,130315.00,5700.9261689,N,00959.2000989,E,2,7,1.6,11.839,M,40.582,M,1.8,0123*42\r\n
$GPGGA,130315.05,5700.9261649,N,00959.2000909,E,2,7,1.6,11.824,M,40.582,M,2.1,0123*45\r\n
$GPGGA,130315.10,5700.9261648,N,00959.2000874,E,2,7,1.6,11.828,M,40.582,M,2.1,0123*47\r\n
$GPGGA,130315.15,5700.9261642,N,00959.2000803,E,2,7,1.6,11.832,M,40.582,M,2.1,0123*43\r\n
$GPGGA,130315.20,5700.9261639,N,00959.2000739,E,2,7,1.6,11.836,M,40.582,M,2.1,0123*4B\r\n
$GPGGA,130315.25,5700.9261632,N,00959.2000677,E,2,7,1.6,11.841,M,40.582,M,2.4,0123*4B\r\n
$GPGGA,130315.30,5700.9261628,N,00959.2000608,E,2,7,1.6,11.844,M,40.582,M,2.4,0123*49\r\n
$GPGGA,130315.35,5700.9261619,N,00959.2000541,E,2,7,1.6,11.844,M,40.582,M,2.4,0123*40\r\n
$GPGGA,130315.40,5700.9261604,N,00959.2000473,E,2,7,1.6,11.843,M,40.582,M,2.4,0123*49\r\n
$GPGGA,130315.45,5700.9261602,N,00959.2000443,E,2,7,1.6,11.843,M,40.582,M,2.6,0123*4B\r\n
$GPGGA,130315.50,5700.9261612,N,00959.2000408,E,2,7,1.6,11.842,M,40.582,M,2.6,0123*40\r\n
$GPGGA,130315.55,5700.9261636,N,00959.2000363,E,2,7,1.6,11.842,M,40.582,M,2.6,0123*49\r\n
$GPGGA,130315.60,5700.9261655,N,00959.2000306,E,2,7,1.6,11.842,M,40.582,M,2.6,0123*49\r\n
$GPGGA,130315.65,5700.9261621,N,00959.2000249,E,2,7,1.6,11.829,M,40.582,M,2.9,0123*47\r\n
$GPGGA,130315.75,5700.9261611,N,00959.2000111,E\x00,2,7,1.6,11.829,M,40.582,M,2.9,0123*4B\r\n
$GPGGA,130318.60,5700.9261880,N,00959.1985499,E,2,7,1.6,11.820,M,40.582,M,2.8,0123*4E\r\n
$GPGGA,130318.65,5700.9261815,N,00959.1985091,E,2,7,1.6,11.798,M,40.582,M,3.0,0123*4E\r\n
$GPGGA,130318.70,5700.9261812,N,00959.1984659,E,2,7,1.6,11.795,M,40.582,M,3.0,0123*43\r\n
$GPGGA,130318.75,5700.9261792,N,00959.1984290,E,2,7,1.6,11.794,M,40.582,M,3.0,0123*41\r\n
$GPGGA,130318.80,5700.9261755,N,00959.1983886,E,2,7,1.6,11.789,M,40.582,M,3.0,0123*46\r\n
$GPGGA,130318.85,5700.9261779,N,00959.1983452,E,2,7,1.6,11.792,M,40.582,M,1.8,0123*48\r\n
$GPGGA,130318.90,5700.9261803,N,00959.1983048,E,2,7,1.6,11.785,M,40.582,M,1.8,0123*47\r\n
$GPGGA,130318.95,5700.9261880,N,00959.1982633,E,2,7,1.6,11.778,M,40.582,M,1.8,0123*40\r\n
$GPGGA,130319.00,5700.9261957,N,00959.1982237,E,2,7,1.6,11.776,M,40.582,M,1.8,0123*48\r\n
$GPGGA,130319.05,5700.9261706,N,00959.1981698,E,2,7,1.6,11.776,M,40.582,M,2.1,0123*4F\r\n
$GPGGA,130319.10,5700.9261702,N,00959.1981201,E,2,6,1.6,11.780,M,40.582,M,2.1,0123*43\r\n
$GPGGA,130319.15,5700.9261748,N,00959.1980820,E,2,6,1.6,11.773,M,40.582,M,2.1,0123*4C\r\n
$GPGGA,130319.20,5700.9261724,N,00959.1980366,E,2,6,1.6,11.770,M,40.582,M,2.1,0123*4A\r\n
$GPGGA,130319.25,5700.9261609,N,00959.1979892,E,2,6,1.6,11.766,M,40.582,M,2.4,0123*45\r\n
$GPGGA,130319.30,5700.9261657,N,00959.1979543,E,2,6,1.6,11.761,M,40.582,M,2.4,0123*4C\r\n
$GPGGA,130319.35,5700.9261623,N,00959.1979114,E,2,6,1.6,11.758,M,40.582,M,2.4,0123*46\r\n
$GPGGA,130319.40,5700.9261573,N,00959.1978662,E,2,6,1.6,11.751,M,40.582,M,2.4,0123*4C\r\n
$GPGGA,130319.45,5700.9261620,N,00959.1978310,E,2,6,1.6,11.755,M,40.582,M,2.6,0123*4A\r\n
$GPGGA,130319.50,5700.9261581,N,00959.1977875,E,2,6,1.6,11.750,M,40.582,M,2.6,0123*44\r\n
$GPGGA,130319.55,5700.9261574,N,00959.1977435,E,2,6,1.6,11.751,M,40.582,M,2.6,0123*42\r\n
$GPGGA,130319.60,5700.9261621,N,00959.1977064,E,2,6,1.6,11.748,M,40.582,M,2.6,0123*4F\r\n
$GPGGA,130319.65,5700.9261501,N,00959.1976632,E,2,6,1.6,11.728,M,40.582,M,2.9,0123*46\r\n
$GPGGA,130319.70,5700.9261462,N,00959.1976212,E,2,6,1.6,11.722,M,40.582,M,2.9,0123*4A\r\n
$GPGGA,130319.75,5700.9261481,N,00959.1975864,E,2,6,1.6,11.711,M,40.582,M,2.9,0123*4A\r\n
$GPGGA,130319.80,5700.9261358,N,00959.1975420,E,2,6,1.6,11.709,M,40.582,M,2.9,0123*46\r\n
$GPGGA,130319.85,5700.9261366,N,00959.1975030,E,2,6,1.6,11.724,M,40.582,M,2.3,0123*4E\r\n
$GPGGA,130319.90,5700.9261407,N,00959.1974671,E,2,6,1.6,11.722,M,40.582,M,2.3,0123*4E\r\n
$GPGGA,130319.95,5700.9261328,N,00959.1974191,E,2,6,1.6,11.723,M,40.582,M,2.3,0123*49\r\n
$GPGGA,130320.00,5700.9261337,N,00959.1973800,E,2,6,1.6,11.721,M,40.582,M,2.3,0123*45\r\n
$GPGGA,130320.05,5700.9261280,N,00959.1973328,E,2,6,1.6,11.703,M,40.582,M,2.6,0123*49\r\n
$GPGGA,130320.10,5700.9261197,N,00959.1972843,E,2,6,1.6,11.708,M,40.582,M,2.6,0123*44\r\n
$GPGGA,130320.15,5700.9261190,N,00959.1972476,E,2,6,1.6,11.706,M,40.582,M,2.6,0123*42\r\n
$GPGGA,130320.20,5700.9261092,N,00959.1972019,E,2,6,1.6,11.709,M,40.582,M,2.6,0123*45\r\n
$GPGGA,130320.25,5700.9261091,N,00959.1971584,E,2,7,1.6,11.713,M,40.582,M,2.8,0123*45\r\n
$GPGGA,130320.30,5700.9261141,N,00959.1971221,E,2,7,1.6,11.710,M,40.582,M,2.8,0123*46\r\n
$GPGGA,130320.35,5700.9261314,N,00959.1970968,E,2,7,1.6,11.703,M,40.582,M,2.8,0123*44\r\n
$GPGGA,130320.40,5700.9261423,N,00959.1970654,E,2,7,1.6,11.697,M,40.582,M,2.8,0123*49\r\n
$GPGGA,130320.45,5700.9261109,N,00959.1969993,E,2,7,1.7,11.719,M,40.582,M,3.1,0123*43\r\n
$GPGGA,130320.50,5700.9261123,N,00959.1969642,E,2,7,1.7,11.720,M,40.582,M,3.1,0123*46\r\n
$GPGGA,130320.55,5700.9261172,N,00959.1969284,E,2,7,1.7,11.718,M,40.582,M,3.1,0123*42\r\n
$GPGGA,130320.60,5700.9261241,N,00959.1968940,E,2,7,1.7,11.719,M,40.582,M,3.1,0123*44\r\n
$GPGGA,130320.65,5700.9260995,N,00959.1968360,E,2,7,1.7,11.730,M,40.582,M,3.3,0123*43\r\n
$GPGGA,130320.70,5700.9261026,N,00959.1968058,E,2,7,1.7,11.726,M,40.582,M,3.3,0123*48\r\n
$GPGGA,130320.75,5700.9261082,N,00959.1967737,E,2,7,1.7,11.724,M,40.582,M,3.3,0123*40\r\n
$GPGGA,130320.80,5700.9261190,N,00959.1967444,E,2,7,1.7,11.725,M,40.582,M,3.3,0123*4E\r\n
$GPGGA,130320.85,5700.9260677,N,00959.1966721,E,2,7,1.7,11.737,M,40.582,M,1.0,0123*47\r\n
$GPGGA,130320.90,5700.9260598,N,00959.1966367,E,2,6,1.7,11.743,M,40.582,M,1.0,0123*45\r\n
$GPGGA,130320.95,5700.9260583,N,00959.1966027,E,2,6,1.7,11.743,M,40.582,M,1.0,0123*4D\r\n
$GPGGA,130321.00,5700.9260548,N,00959.1965677,E,2,6,1.7,11.741,M,40.582,M,1.0,0123*45\r\n
$GPGGA,130321.05,5700.9260392,N,00959.1965230,E,2,6,1.6,11.734,M,40.582,M,1.3,0123*46\r\n
$GPGGA,130321.10,5700.9260408,N,00959.1964939,E,2,6,1.6,11.735,M,40.582,M,1.3,0123*44\r\n
$GPGGA,130321.15,5700.9260425,N,00959.1964656,E,2,6,1.6,11.736,M,40.582,M,1.3,0123*4B\r\n
$GPGGA,130321.20,5700.9260419,N,00959.1964377,E,2,6,1.6,11.737,M,40.582,M,1.3,0123*45\r\n
$GPGGA,130321.30,5700.9260541,N,00959.1963968,E\x00,2,6,1.6,11.726,M,40.582,M,1.5,0123*4D\r\n
$GPGGA,130324.10,5700.9259869,N,00959.1959432,E,2,6,1.6,11.661,M,40.582,M,2.6,0123*4E\r\n
$GPGGA,130324.15,5700.9259870,N,00959.1959445,E,2,6,1.6,11.662,M,40.582,M,2.6,0123*40\r\n
$GPGGA,130324.20,5700.9259872,N,00959.1959460,E,2,6,1.6,11.663,M,40.582,M,2.6,0123*42\r\n
$GPGGA,130324.25,5700.9259844,N,00959.1959456,E,2,7,1.6,11.652,M,40.582,M,2.8,0123*4A\r\n
$GPGGA,130324.30,5700.9259843,N,00959.1959471,E,2,7,1.6,11.652,M,40.582,M,2.8,0123*4C\r\n
$GPGGA,130324.35,5700.9259843,N,00959.1959481,E,2,7,1.6,11.652,M,40.582,M,2.8,0123*46\r\n
$GPGGA,130324.40,5700.9259842,N,00959.1959490,E,2,7,1.6,11.651,M,40.582,M,2.8,0123*46\r\n
$GPGGA,130324.45,5700.9259874,N,00959.1959453,E,2,7,1.6,11.663,M,40.582,M,3.1,0123*40\r\n
$GPGGA,130324.50,5700.9259876,N,00959.1959457,E,2,7,1.6,11.663,M,40.582,M,3.1,0123*42\r\n
$GPGGA,130324.55,5700.9259873,N,00959.1959466,E,2,7,1.6,11.663,M,40.582,M,3.1,0123*40\r\n
$GPGGA,130324.60,5700.9259879,N,00959.1959480,E,2,7,1.6,11.665,M,40.582,M,3.1,0123*42\r\n
$GPGGA,130324.65,5700.9259861,N,00959.1959486,E,2,7,1.6,11.658,M,40.582,M,3.3,0123*44\r\n
$GPGGA,130324.70,5700.9259856,N,00959.1959489,E,2,7,1.6,11.657,M,40.582,M,3.3,0123*44\r\n
$GPGGA,130324.75,5700.9259852,N,00959.1959495,E,2,7,1.6,11.656,M,40.582,M,3.3,0123*49\r\n
$GPGGA,130324.80,5700.9259849,N,00959.1959501,E,2,7,1.6,11.655,M,40.582,M,3.3,0123*46\r\n
$GPGGA,130324.85,5700.9259858,N,00959.1959486,E,2,7,1.6,11.658,M,40.582,M,1.0,0123*41\r\n
$GPGGA,130324.90,5700.9259854,N,00959.1959483,E,2,7,1.6,11.657,M,40.582,M,1.0,0123*43\r\n
$GPGGA,130324.95,5700.9259850,N,00959.1959481,E,2,7,1.6,11.656,M,40.582,M,1.0,0123*41\r\n
$GPGGA,130325.00,5700.9259846,N,00959.1959478,E,2,7,1.6,11.655,M,40.582,M,1.0,0123*4E\r\n
$GPGGA,130325.05,5700.9259786,N,00959.1959380,E,2,7,1.6,11.657,M,40.582,M,1.3,0123*49\r\n
$GPGGA,130325.10,5700.9259784,N,00959.1959377,E,2,7,1.6,11.657,M,40.582,M,1.3,0123*47\r\n
$GPGGA,130325.15,5700.9259782,N,00959.1959372,E,2,7,1.6,11.656,M,40.582,M,1.3,0123*40\r\n
$GPGGA,130325.20,5700.9259781,N,00959.1959368,E,2,7,1.6,11.656,M,40.582,M,1.3,0123*4E\r\n
$GPGGA,130325.25,5700.9259779,N,00959.1959391,E,2,7,1.6,11.653,M,40.582,M,1.5,0123*49\r\n
$GPGGA,130325.30,5700.9259777,N,00959.1959388,E,2,7,1.6,11.652,M,40.582,M,1.5,0123*4A\r\n
$GPGGA,130325.35,5700.9259775,N,00959.1959385,E,2,7,1.6,11.651,M,40.582,M,1.5,0123*43\r\n
$GPGGA,130325.40,5700.9259772,N,00959.1959378,E,2,7,1.6,11.651,M,40.582,M,1.5,0123*44\r\n
$GPGGA,130325.45,5700.9259780,N,00959.1959375,E,2,7,1.6,11.659,M,40.582,M,1.7,0123*4B\r\n
$GPGGA,130325.50,5700.9259779,N,00959.1959369,E,2,7,1.6,11.659,M,40.582,M,1.7,0123*44\r\n
$GPGGA,130325.55,5700.9259781,N,00959.1959367,E,2,7,1.6,11.659,M,40.582,M,1.7,0123*48\r\n
$GPGGA,130325.60,5700.9259781,N,00959.1959366,E,2,7,1.6,11.660,M,40.582,M,1.7,0123*45\r\n
$GPGGA,130325.65,5700.9259788,N,00959.1959372,E,2,7,1.6,11.654,M,40.582,M,1.9,0123*45\r\n
$GPGGA,130325.70,5700.9259789,N,00959.1959365,E,2,7,1.6,11.654,M,40.582,M,1.9,0123*46\r\n
$GPGGA,130325.75,5700.9259791,N,00959.1959357,E,2,7,1.6,11.655,M,40.582,M,1.9,0123*4A\r\n
$GPGGA,130325.80,5700.9259792,N,00959.1959347,E,2,7,1.6,11.655,M,40.582,M,1.9,0123*42\r\n
$GPGGA,130325.85,5700.9259806,N,00959.1959324,E,2,7,1.6,11.664,M,40.582,M,2.1,0123*49\r\n
$GPGGA,130325.90,5700.9259807,N,00959.1959335,E,2,7,1.6,11.664,M,40.582,M,2.1,0123*4C\r\n
$GPGGA,130325.95,5700.9259812,N,00959.1959341,E,2,7,1.6,11.666,M,40.582,M,2.1,0123*4C\r\n
$GPGGA,130326.00,5700.9259812,N,00959.1959337,E,2,7,1.6,11.665,M,40.582,M,2.1,0123*41\r\n
$GPGGA,130326.05,5700.9259731,N,00959.1959276,E,2,7,1.6,11.659,M,40.582,M,2.3,0123*43\r\n
$GPGGA,130326.10,5700.9259730,N,00959.1959276,E,2,7,1.6,11.658,M,40.582,M,2.3,0123*47\r\n
$GPGGA,130326.15,5700.9259730,N,00959.1959275,E,2,7,1.6,11.657,M,40.582,M,2.3,0123*4E\r\n
$GPGGA,130326.20,5700.9259727,N,00959.1959276,E,2,7,1.6,11.656,M,40.582,M,2.3,0123*4C\r\n
$GPGGA,130326.25,5700.9259741,N,00959.1959243,E,2,7,1.6,11.666,M,40.582,M,2.6,0123*49\r\n
$GPGGA,130326.30,5700.9259742,N,00959.1959244,E,2,7,1.6,11.666,M,40.582,M,2.6,0123*49\r\n
$GPGGA,130326.35,5700.9259741,N,00959.1959246,E,2,7,1.6,11.666,M,40.582,M,2.6,0123*4D\r\n
$GPGGA,130326.40,5700.9259741,N,00959.1959246,E,2,7,1.6,11.666,M,40.582,M,2.6,0123*4F\r\n
$GPGGA,130326.45,5700.9259722,N,00959.1959256,E,2,7,1.6,11.657,M,40.582,M,2.8,0123*42\r\n
$GPGGA,130326.50,5700.9259721,N,00959.1959259,E,2,7,1.6,11.657,M,40.582,M,2.8,0123*4A\r\n
$GPGGA,130326.55,5700.9259723,N,00959.1959265,E,2,7,1.6,11.656,M,40.582,M,2.8,0123*43\r\n
$GPGGA,130326.60,5700.9259713,N,00959.1959272,E,2,7,1.6,11.655,M,40.582,M,2.8,0123*43\r\n
$GPGGA,130326.65,5700.9259722,N,00959.1959276,E,2,7,1.6,11.660,M,40.582,M,3.0,0123*4F\r\n
$GPGGA,130326.70,5700.9259722,N,00959.1959278\x00,E,2,7,1.6,11.660,M,40.582,M,3.0,0123*45\r\n
$GPGGA,130326.75,5700.9259722,\x00N,00959.1959280,E,2,7,1.6,11.661,M,40.582,M,3.0,0123*46\r\n
$GPGGA,130326.80,5700.9\n
$GPGGA,130329.50,5700.9259542,N,00959.1959033,E,2,7,1.6,11.661,M,40.582,M,1.7,0123*45\r\n
$GPGGA,130329.55,5700.9259542,N,00959.1959032,E,2,7,1.6,11.660,M,40.582,M,1.7,0123*40\r\n
$GPGGA,130329.60,5700.9259540,N,00959.1959034,E,2,7,1.6,11.660,M,40.582,M,1.7,0123*42\r\n
$GPGGA,130329.65,5700.9259539,N,00959.1959048,E,2,7,1.6,11.662,M,40.582,M,1.9,0123*4E\r\n
$GPGGA,130329.70,5700.9259539,N,00959.1959046,E,2,7,1.6,11.661,M,40.582,M,1.9,0123*47\r\n
$GPGGA,130329.75,5700.9259538,N,00959.1959046,E,2,7,1.6,11.661,M,40.582,M,1.9,0123*43\r\n
$GPGGA,130329.80,5700.9259538,N,00959.1959049,E,2,7,1.6,11.661,M,40.582,M,1.9,0123*46\r\n
$GPGGA,130329.85,5700.9259541,N,00959.1959045,E,2,7,1.6,11.660,M,40.582,M,2.1,0123*4B\r\n
$GPGGA,130329.90,5700.9259541,N,00959.1959044,E,2,7,1.6,11.660,M,40.582,M,2.1,0123*4E\r\n
$GPGGA,130329.95,5700.9259540,N,00959.1959044,E,2,7,1.6,11.659,M,40.582,M,2.1,0123*40\r\n
$GPGGA,130330.00,5700.9259540,N,00959.1959046,E,2,7,1.6,11.659,M,40.582,M,2.1,0123*46\r\n
$GPGGA,130330.05,5700.9259488,N,00959.1958958,E,2,7,1.6,11.661,M,40.582,M,2.3,0123*48\r\n
$GPGGA,130330.10,5700.9259487,N,00959.1958960,E,2,7,1.6,11.661,M,40.582,M,2.3,0123*48\r\n
$GPGGA,130330.15,5700.9259487,N,00959.1958961,E,2,7,1.6,11.660,M,40.582,M,2.3,0123*4D\r\n
$GPGGA,130330.20,5700.9259487,N,00959.1958961,E,2,7,1.6,11.660,M,40.582,M,2.3,0123*4B\r\n
$GPGGA,130330.25,5700.9259497,N,00959.1958961,E,2,7,1.6,11.665,M,40.582,M,2.6,0123*4F\r\n
$GPGGA,130330.30,5700.9259497,N,00959.1958962,E,2,7,1.6,11.665,M,40.582,M,2.6,0123*48\r\n
$GPGGA,130330.35,5700.9259497,N,00959.1958964,E,2,7,1.6,11.665,M,40.582,M,2.6,0123*4B\r\n
$GPGGA,130330.40,5700.9259497,N,00959.1958964,E,2,7,1.6,11.665,M,40.582,M,2.6,0123*49\r\n
$GPGGA,130330.45,5700.9259484,N,00959.1958963,E,2,7,1.6,11.660,M,40.582,M,2.8,0123*42\r\n
$GPGGA,130330.50,5700.9259484,N,00959.1958965,E,2,7,1.6,11.660,M,40.582,M,2.8,0123*40\r\n
$GPGGA,130330.55,5700.9259484,N,00959.1958965,E,2,7,1.6,11.660,M,40.582,M,2.8,0123*45\r\n
$GPGGA,130330.60,5700.9259483,N,00959.1958966,E,2,7,1.6,11.660,M,40.582,M,2.8,0123*47\r\n
$GPGGA,130330.65,5700.9259500,N,00959.1958968,E,2,7,1.6,11.667,M,40.582,M,3.0,0123*48\r\n
$GPGGA,130330.70,5700.9259500,N,00959.1958966,E,2,7,1.6,11.668,M,40.582,M,3.0,0123*4D\r\n
$GPGGA,130330.75,5700.9259501,N,00959.1958965,E,2,7,1.6,11.668,M,40.582,M,3.0,0123*4A\r\n
$GPGGA,130330.80,5700.9259499,N,00959.1958965,E,2,7,1.6,11.669,M,40.582,M,3.0,0123*41\r\n
$GPGGA,130330.85,5700.9259490,N,00959.1958961,E,2,7,1.6,11.668,M,40.582,M,1.8,0123*42\r\n
$GPGGA,130330.90,5700.9259492,N,00959.1958963,E,2,7,1.6,11.668,M,40.582,M,1.8,0123*46\r\n
$GPGGA,130330.95,5700.9259493,N,00959.1958962,E,2,7,1.6,11.669,M,40.582,M,1.8,0123*42\r\n
$GPGGA,130331.00,5700.9259493,N,00959.1958960,E,2,7,1.6,11.670,M,40.582,M,1.8,0123*45\r\n
$GPGGA,130331.05,5700.9259460,N,00959.1958871,E,2,7,1.6,11.671,M,40.582,M,2.1,0123*46\r\n
$GPGGA,130331.10,5700.9259461,N,00959.1958871,E,2,7,1.6,11.672,M,40.582,M,2.1,0123*40\r\n
$GPGGA,130331.15,5700.9259463,N,00959.1958871,E,2,7,1.6,11.672,M,40.582,M,2.1,0123*47\r\n
$GPGGA,130331.20,5700.9259465,N,00959.1958869,E,2,7,1.6,11.673,M,40.582,M,2.1,0123*4F\r\n
$GPGGA,130331.25,5700.9259446,N,00959.1958878,E,2,7,1.6,11.669,M,40.582,M,2.4,0123*45\r\n
$GPGGA,130331.30,5700.9259445,N,00959.1958880,E,2,7,1.6,11.669,M,40.582,M,2.4,0123*45\r\n
$GPGGA,130331.35,5700.9259447,N,00959.1958878,E,2,7,1.6,11.670,M,40.582,M,2.4,0123*4D\r\n
$GPGGA,130331.40,5700.9259447,N,00959.1958876,E,2,7,1.6,11.670,M,40.582,M,2.4,0123*41\r\n
$GPGGA,130331.45,5700.9259453,N,00959.1958871,E,2,7,1.6,11.672,M,40.582,M,2.6,0123*46\r\n
$GPGGA,130331.50,5700.9259454,N,00959.1958871,E,2,7,1.6,11.673,M,40.582,M,2.6,0123*44\r\n
$GPGGA,130331.55,5700.9259455,N,00959.1958868,E,2,7,1.6,11.673,M,40.582,M,2.6,0123*48\r\n
$GPGGA,130331.60,5700.9259455,N,00959.1958866,E,2,7,1.6,11.673,M,40.582,M,2.6,0123*40\r\n
$GPGGA,130331.65,5700.9259445,N,00959.1958861,E,2,7,1.6,11.666,M,40.582,M,2.9,0123*48\r\n
$GPGGA,130331.70,5700.9259444,N,00959.1958862,E,2,7,1.6,11.666,M,40.582,M,2.9,0123*4E\r\n
$GPGGA,130331.75,5700.9259445,N,00959.1958862,E,2,7,1.6,11.665,M,40.582,M,2.9,0123*49\r\n
$GPGGA,130331.80,5700.9259445,N,00959.1958863,E,2,7,1.6,11.665,M,40.582,M,2.9,0123*42\r\n
$GPGGA,130331.85,5700.9259455,N,00959.1958878,E,2,7,1.6,11.669,M,40.582,M,2.3,0123*4A\r\n
$GPGGA,130331.90,5700.9259454,N,00959.1958875,E,2,7,1.6,11.668,M,40.582,M,2.3,0123*43\r\n
$GPGGA,130331.95,5700.9259453,N,00959.1958874,E,2,7,1.6,11.668,M,40.582,M,2.3,0123*40\r\n
$GPGGA,130332.00,5700.9259453,N,00959.1958874,E,2,7,1.6,11.667,M,40.582,M,2.3,0123*40\r\n
$GPGGA,130332.05,5700.9259406,N,00959.1958773,E,2,7,1.6,11.678,M,40.582,M,2.6,0123*46\r\n
$GPGGA,130332.15,5700.9259407,N,00959.1958778,E\x00,2,7,1.6,11.677,M,40.582,M,2.6,0123*42\r\n
$GPGGA,130334.95,5700.9259285,N,00959.1958603,E,2,7,1.6,11.697,M,40.582,M,1.8,0123*4E\r\n
$GPGGA,130335.00,5700.9259286,N,00959.1958600,E,2,7,1.6,11.697,M,40.582,M,1.8,0123*43\r\n
$GPGGA,130335.05,5700.9259202,N,00959.1958527,E,2,7,1.6,11.710,M,40.582,M,2.1,0123*48\r\n
$GPGGA,130335.10,5700.9259203,N,00959.1958526,E,2,7,1.6,11.710,M,40.582,M,2.1,0123*4C\r\n
$GPGGA,130335.15,5700.9259206,N,00959.1958525,E,2,7,1.6,11.711,M,40.582,M,2.1,0123*4E\r\n
$GPGGA,130335.20,5700.9259205,N,00959.1958524,E,2,7,1.6,11.711,M,40.582,M,2.1,0123*4A\r\n
$GPGGA,130335.25,5700.9259203,N,00959.1958524,E,2,7,1.6,11.711,M,40.582,M,2.4,0123*4C\r\n
$GPGGA,130335.30,5700.9259204,N,00959.1958522,E,2,7,1.6,11.711,M,40.582,M,2.4,0123*49\r\n
$GPGGA,130335.35,5700.9259204,N,00959.1958521,E,2,7,1.6,11.712,M,40.582,M,2.4,0123*4C\r\n
$GPGGA,130335.40,5700.9259206,N,00959.1958520,E,2,7,1.6,11.712,M,40.582,M,2.4,0123*4D\r\n
$GPGGA,130335.45,5700.9259224,N,00959.1958511,E,2,7,1.6,11.716,M,40.582,M,2.6,0123*4C\r\n
$GPGGA,130335.50,5700.9259224,N,00959.1958509,E,2,7,1.6,11.717,M,40.582,M,2.6,0123*40\r\n
$GPGGA,130335.55,5700.9259226,N,00959.1958508,E,2,7,1.6,11.717,M,40.582,M,2.6,0123*46\r\n
$GPGGA,130335.60,5700.9259228,N,00959.1958507,E,2,7,1.6,11.718,M,40.582,M,2.6,0123*4E\r\n
$GPGGA,130335.65,5700.9259230,N,00959.1958506,E,2,7,1.6,11.717,M,40.582,M,2.8,0123*42\r\n
$GPGGA,130335.70,5700.9259231,N,00959.1958505,E,2,7,1.6,11.718,M,40.582,M,2.8,0123*4B\r\n
$GPGGA,130335.75,5700.9259232,N,00959.1958503,E,2,7,1.6,11.718,M,40.582,M,2.8,0123*4B\r\n
$GPGGA,130335.80,5700.9259236,N,00959.1958503,E,2,7,1.6,11.719,M,40.582,M,2.8,0123*44\r\n
$GPGGA,130335.85,5700.9259212,N,00959.1958501,E,2,7,1.6,11.711,M,40.582,M,2.2,0123*47\r\n
$GPGGA,130335.90,5700.9259211,N,00959.1958501,E,2,7,1.6,11.712,M,40.582,M,2.2,0123*43\r\n
$GPGGA,130335.95,5700.9259211,N,00959.1958501,E,2,7,1.6,11.712,M,40.582,M,2.2,0123*46\r\n
$GPGGA,130336.00,5700.9259213,N,00959.1958499,E,2,7,1.6,11.712,M,40.582,M,2.2,0123*4B\r\n
$GPGGA,130336.05,5700.9259176,N,00959.1958421,E,2,7,1.6,11.705,M,40.582,M,2.5,0123*4C\r\n
$GPGGA,130336.10,5700.9259178,N,00959.1958421,E,2,7,1.6,11.705,M,40.582,M,2.5,0123*46\r\n
$GPGGA,130336.15,5700.9259180,N,00959.1958422,E,2,7,1.6,11.705,M,40.582,M,2.5,0123*47\r\n
$GPGGA,130336.20,5700.9259177,N,00959.1958420,E,2,7,1.6,11.705,M,40.582,M,2.5,0123*4B\r\n
$GPGGA,130336.25,5700.9259180,N,00959.1958429,E,2,7,1.6,11.704,M,40.582,M,2.7,0123*4C\r\n
$GPGGA,130336.30,5700.9259181,N,00959.1958431,E,2,7,1.6,11.704,M,40.582,M,2.7,0123*40\r\n
$GPGGA,130336.35,5700.9259181,N,00959.1958431,E,2,7,1.6,11.704,M,40.582,M,2.7,0123*45\r\n
$GPGGA,130336.40,5700.9259180,N,00959.1958435,E,2,7,1.6,11.704,M,40.582,M,2.7,0123*42\r\n
$GPGGA,130336.45,5700.9259182,N,00959.1958445,E,2,7,1.6,11.708,M,40.582,M,3.0,0123*48\r\n
$GPGGA,130336.50,5700.9259182,N,00959.1958447,E,2,7,1.6,11.708,M,40.582,M,3.0,0123*4E\r\n
$GPGGA,130336.55,5700.9259182,N,00959.1958447,E,2,7,1.6,11.708,M,40.582,M,3.0,0123*4B\r\n
$GPGGA,130336.60,5700.9259181,N,00959.1958447,E,2,7,1.6,11.708,M,40.582,M,3.0,0123*4E\r\n
$GPGGA,130336.65,5700.9259186,N,00959.1958424,E,2,7,1.6,11.710,M,40.582,M,3.2,0123*42\r\n
$GPGGA,130336.70,5700.9259185,N,00959.1958426,E,2,7,1.6,11.710,M,40.582,M,3.2,0123*47\r\n
$GPGGA,130336.75,5700.9259185,N,00959.1958427,E,2,7,1.6,11.710,M,40.582,M,3.2,0123*43\r\n
$GPGGA,130336.80,5700.9259185,N,00959.1958427,E,2,7,1.6,11.710,M,40.582,M,3.2,0123*49\r\n
$GPGGA,130336.85,5700.9259173,N,00959.1958436,E,2,7,1.6,11.706,M,40.582,M,1.1,0123*43\r\n
$GPGGA,130336.90,5700.9259173,N,00959.1958440,E,2,7,1.6,11.706,M,40.582,M,1.1,0123*46\r\n
$GPGGA,130336.95,5700.9259172,N,00959.1958437,E,2,7,1.6,11.706,M,40.582,M,1.1,0123*42\r\n
$GPGGA,130337.00,5700.9259172,N,00959.1958437,E,2,7,1.6,11.706,M,40.582,M,1.1,0123*4F\r\n
$GPGGA,130337.05,5700.9259164,N,00959.1958342,E,2,7,1.6,11.704,M,40.582,M,1.3,0123*48\r\n
$GPGGA,130337.10,5700.9259164,N,00959.1958344,E,2,7,1.6,11.704,M,40.582,M,1.3,0123*4A\r\n
$GPGGA,130337.15,5700.9259163,N,00959.1958344,E,2,7,1.6,11.704,M,40.582,M,1.3,0123*48\r\n
$GPGGA,130337.20,5700.9259163,N,00959.1958345,E,2,7,1.6,11.704,M,40.582,M,1.3,0123*4F\r\n
$GPGGA,130337.25,5700.9259135,N,00959.1958353,E,2,7,1.6,11.699,M,40.582,M,1.5,0123*4D\r\n
$GPGGA,130337.30,5700.9259136,N,00959.1958356,E,2,7,1.6,11.699,M,40.582,M,1.5,0123*4F\r\n
$GPGGA,130337.35,5700.9259135,N,00959.1958355,E,2,7,1.6,11.698,M,40.582,M,1.5,0123*4B\r\n
$GPGGA,130337.40,5700.9259134,N,00959.1958355,E,2,7,1.6,11.698,M,40.582,M,1.5,0123*48\r\n
$GPGGA,130337.45,5700.9259158,N,00959.1958356,E,2,7,1.6,11.702,M,40.582,M,1.7,0123*44\r\n
$GPGGA,130337.50,5700.9259158,N,00959.1958357,E,2,7,1.6,11.702,M,40.582,M,1.7,0123*41\r\n
$GPGGA,130337.55,5700.9259157,N,00959.1958358,E,2,7,1.6,11.702,M,40.582,M,1.7,0123*44\r\n
$GPGGA,130337.65,5700.9259147,N,00959.1958348,E,2,7,1.6,11.701,M,40.582,M,2.0,0123*40\r\n
$GPGGA,130340.50,5700.9259063,N,00959.1958108,E,2,7,1.6,11.682,M,40.582,M,3.0,0123*4C\r\n
$GPGGA,130340.55,5700.9259064,N,00959.1958105,E,2,7,1.6,11.682,M,40.582,M,3.0,0123*43\r\n
$GPGGA,130340.60,5700.9259065,N,00959.1958100,E,2,7,1.6,11.682,M,40.582,M,3.0,0123*41\r\n
$GPGGA,130340.65,5700.9259058,N,00959.1958083,E,2,7,1.6,11.678,M,40.582,M,3.2,0123*47\r\n
$GPGGA,130340.70,5700.9259057,N,00959.1958086,E,2,7,1.6,11.678,M,40.582,M,3.2,0123*49\r\n
$GPGGA,130340.75,5700.9259056,N,00959.1958087,E,2,7,1.6,11.678,M,40.582,M,3.2,0123*4C\r\n
$GPGGA,130340.80,5700.9259057,N,00959.1958086,E,2,7,1.6,11.677,M,40.582,M,3.2,0123*49\r\n
$GPGGA,130340.85,5700.9259053,N,00959.1958102,E,2,7,1.6,11.676,M,40.582,M,1.1,0123*45\r\n
$GPGGA,130340.90,5700.9259052,N,00959.1958104,E,2,7,1.6,11.676,M,40.582,M,1.1,0123*46\r\n
$GPGGA,130340.95,5700.9259051,N,00959.1958101,E,2,7,1.6,11.675,M,40.582,M,1.1,0123*46\r\n
$GPGGA,130341.00,5700.9259049,N,00959.1958100,E,2,7,1.6,11.675,M,40.582,M,1.1,0123*43\r\n
$GPGGA,130341.05,5700.9258994,N,00959.1958016,E,2,7,1.6,11.666,M,40.582,M,1.3,0123*48\r\n
$GPGGA,130341.10,5700.9258993,N,00959.1958019,E,2,7,1.6,11.666,M,40.582,M,1.3,0123*44\r\n
$GPGGA,130341.15,5700.9258990,N,00959.1958015,E,2,7,1.6,11.666,M,40.582,M,1.3,0123*4E\r\n
$GPGGA,130341.20,5700.9258991,N,00959.1958014,E,2,7,1.6,11.665,M,40.582,M,1.3,0123*4B\r\n
$GPGGA,130341.25,5700.9259011,N,00959.1958013,E,2,7,1.6,11.668,M,40.582,M,1.5,0123*42\r\n
$GPGGA,130341.30,5700.9259009,N,00959.1958012,E,2,7,1.6,11.668,M,40.582,M,1.5,0123*4E\r\n
$GPGGA,130341.35,5700.9259008,N,00959.1958013,E,2,7,1.6,11.667,M,40.582,M,1.5,0123*44\r\n
$GPGGA,130341.40,5700.9259008,N,00959.1958015,E,2,7,1.6,11.667,M,40.582,M,1.5,0123*40\r\n
$GPGGA,130341.45,5700.9258994,N,00959.1958034,E,2,7,1.6,11.667,M,40.582,M,1.7,0123*49\r\n
$GPGGA,130341.50,5700.9258993,N,00959.1958035,E,2,7,1.6,11.667,M,40.582,M,1.7,0123*4B\r\n
$GPGGA,130341.55,5700.9258992,N,00959.1958033,E,2,7,1.6,11.667,M,40.582,M,1.7,0123*49\r\n
$GPGGA,130341.60,5700.9258992,N,00959.1958034,E,2,7,1.6,11.667,M,40.582,M,1.7,0123*48\r\n
$GPGGA,130341.65,5700.9259000,N,00959.1958019,E,2,7,1.6,11.667,M,40.582,M,2.0,0123*45\r\n
$GPGGA,130341.70,5700.9258999,N,00959.1958017,E,2,7,1.6,11.667,M,40.582,M,2.0,0123*47\r\n
$GPGGA,130341.75,5700.9258999,N,00959.1958020,E,2,7,1.6,11.667,M,40.582,M,2.0,0123*46\r\n
$GPGGA,130341.80,5700.9258999,N,00959.1958021,E,2,7,1.6,11.667,M,40.582,M,2.0,0123*4D\r\n
$GPGGA,130341.85,5700.9258996,N,00959.1958029,E,2,7,1.6,11.666,M,40.582,M,2.2,0123*4C\r\n
$GPGGA,130341.90,5700.9258994,N,00959.1958030,E,2,7,1.6,11.666,M,40.582,M,2.2,0123*42\r\n
$GPGGA,130341.95,5700.9258994,N,00959.1958033,E,2,7,1.6,11.666,M,40.582,M,2.2,0123*44\r\n
$GPGGA,130342.00,5700.9258993,N,00959.1958034,E,2,7,1.6,11.666,M,40.582,M,2.2,0123*4B\r\n
$GPGGA,130342.05,5700.9258948,N,00959.1957964,E,2,7,1.6,11.660,M,40.582,M,2.4,0123*4B\r\n
$GPGGA,130342.10,5700.9258948,N,00959.1957968,E,2,7,1.6,11.660,M,40.582,M,2.4,0123*43\r\n
$GPGGA,130342.15,5700.9258948,N,00959.1957965,E,2,7,1.6,11.660,M,40.582,M,2.4,0123*4B\r\n
$GPGGA,130342.20,5700.9258947,N,00959.1957967,E,2,7,1.6,11.661,M,40.582,M,2.4,0123*41\r\n
$GPGGA,130342.25,5700.9258941,N,00959.1957956,E,2,7,1.6,11.657,M,40.582,M,2.6,0123*47\r\n
$GPGGA,130342.30,5700.9258941,N,00959.1957957,E,2,7,1.6,11.657,M,40.582,M,2.6,0123*42\r\n
$GPGGA,130342.35,5700.9258942,N,00959.1957958,E,2,7,1.6,11.657,M,40.582,M,2.6,0123*4B\r\n
$GPGGA,130342.40,5700.9258944,N,00959.1957955,E,2,7,1.6,11.657,M,40.582,M,2.6,0123*42\r\n
$GPGGA,130342.45,5700.9258950,N,00959.1957954,E,2,7,1.6,11.656,M,40.582,M,2.8,0123*4C\r\n
$GPGGA,130342.50,5700.9258951,N,00959.1957952,E,2,7,1.6,11.656,M,40.582,M,2.8,0123*4F\r\n
$GPGGA,130342.55,5700.9258949,N,00959.1957953,E,2,7,1.6,11.656,M,40.582,M,2.8,0123*42\r\n
$GPGGA,130342.60,5700.9258949,N,00959.1957950,E,2,7,1.6,11.656,M,40.582,M,2.8,0123*47\r\n
$GPGGA,130342.65,5700.9258943,N,00959.1957942,E,2,7,1.6,11.660,M,40.582,M,3.0,0123*47\r\n
$GPGGA,130342.70,5700.9258943,N,00959.1957941,E,2,7,1.6,11.660,M,40.582,M,3.0,0123*40\r\n
$GPGGA,130342.75,5700.9258944,N,00959.1957943,E,2,7,1.6,11.661,M,40.582,M,3.0,0123*41\r\n
$GPGGA,130342.80,5700.9258943,N,00959.1957942,E,2,7,1.6,11.661,M,40.582,M,3.0,0123*4D\r\n
$GPGGA,130342.85,5700.9258941,N,00959.1957944,E,2,7,1.6,11.656,M,40.582,M,1.8,0123*42\r\n
$GPGGA,130342.90,5700.9258942,N,00959.1957943,E,2,7,1.6,11.656,M,40.582,M,1.8,0123*42\r\n
$GPGGA,130342.95,5700.9258940,N,00959.1957939,E,2,7,1.6,11.657,M,40.582,M,1.8,0123*49\r\n
$GPGGA,130343.00,5700.9258940,N,00959.1957939,E,2,7,1.6,11.657,M,40.582,M,1.8,0123*44\r\n
$GPGGA,130343.05,5700.9258878,N,00959.1957855,E,2,7,1.6,11.644,M,40.582,M,2.1,0123*48\r\n
$GPGGA,130343.10,5700.9258879,N,00959.1957856,E,2,7,1.6,11.644,M,40.582,M,2.1,0123*4E\r\n
$GPGGA,130343.20,5700.9258878,N,00959.1957852,E,2,7,1.6,11.645,M,40.582,M,2.1,0123*49\r\n
$GPGGA,130346.05,5700.9258758,N,00959.1957687,E,2,7,1.6,11.620,M,40.582,M,2.3,0123*41\r\n
$GPGGA,130346.10,5700.9258757,N,00959.1957685,E,2,7,1.6,11.620,M,40.582,M,2.3,0123*48\r\n
$GPGGA,130346.15,5700.9258758,N,00959.1957687,E,2,7,1.6,11.620,M,40.582,M,2.3,0123*40\r\n
$GPGGA,130346.20,5700.9258759,N,00959.1957686,E,2,7,1.6,11.621,M,40.582,M,2.3,0123*47\r\n
$GPGGA,130346.25,5700.9258743,N,00959.1957688,E,2,7,1.6,11.613,M,40.582,M,2.6,0123*43\r\n
$GPGGA,130346.30,5700.9258744,N,00959.1957686,E,2,7,1.6,11.613,M,40.582,M,2.6,0123*4E\r\n
$GPGGA,130346.35,5700.9258743,N,00959.1957684,E,2,7,1.6,11.613,M,40.582,M,2.6,0123*4E\r\n
$GPGGA,130346.40,5700.9258744,N,00959.1957686,E,2,7,1.6,11.614,M,40.582,M,2.6,0123*4E\r\n
$GPGGA,130346.45,5700.9258762,N,00959.1957693,E,2,7,1.6,11.617,M,40.582,M,2.8,0123*46\r\n
$GPGGA,130346.50,5700.9258762,N,00959.1957694,E,2,7,1.6,11.617,M,40.582,M,2.8,0123*45\r\n
$GPGGA,130346.55,5700.9258762,N,00959.1957692,E,2,7,1.6,11.617,M,40.582,M,2.8,0123*46\r\n
$GPGGA,130346.60,5700.9258763,N,00959.1957691,E,2,7,1.6,11.617,M,40.582,M,2.8,0123*42\r\n
$GPGGA,130346.65,5700.9258741,N,00959.1957691,E,2,7,1.6,11.613,M,40.582,M,3.0,0123*4A\r\n
$GPGGA,130346.70,5700.9258740,N,00959.1957690,E,2,7,1.6,11.613,M,40.582,M,3.0,0123*4E\r\n
$GPGGA,130346.75,5700.9258740,N,00959.1957695,E,2,7,1.6,11.613,M,40.582,M,3.0,0123*4E\r\n
$GPGGA,130346.80,5700.9258741,N,00959.1957695,E,2,7,1.6,11.613,M,40.582,M,3.0,0123*45\r\n
$GPGGA,130346.85,5700.9258743,N,00959.1957712,E,2,7,1.6,11.612,M,40.582,M,1.8,0123*47\r\n
$GPGGA,130346.90,5700.9258742,N,00959.1957713,E,2,7,1.6,11.612,M,40.582,M,1.8,0123*43\r\n
$GPGGA,130346.95,5700.9258741,N,00959.1957715,E,2,7,1.6,11.612,M,40.582,M,1.8,0123*43\r\n
$GPGGA,130347.00,5700.9258739,N,00959.1957718,E,2,7,1.6,11.612,M,40.582,M,1.8,0123*4C\r\n
$GPGGA,130347.05,5700.9258718,N,00959.1957639,E,2,7,1.6,11.613,M,40.582,M,2.1,0123*43\r\n
$GPGGA,130347.10,5700.9258717,N,00959.1957637,E,2,7,1.6,11.613,M,40.582,M,2.1,0123*46\r\n
$GPGGA,130347.15,5700.9258717,N,00959.1957636,E,2,7,1.6,11.613,M,40.582,M,2.1,0123*42\r\n
$GPGGA,130347.20,5700.9258720,N,00959.1957638,E,2,7,1.6,11.613,M,40.582,M,2.1,0123*4E\r\n
$GPGGA,130347.25,5700.9258717,N,00959.1957631,E,2,7,1.6,11.603,M,40.582,M,2.4,0123*42\r\n
$GPGGA,130347.30,5700.9258717,N,00959.1957635,E,2,7,1.6,11.603,M,40.582,M,2.4,0123*42\r\n
$GPGGA,130347.35,5700.9258717,N,00959.1957634,E,2,7,1.6,11.603,M,40.582,M,2.4,0123*46\r\n
$GPGGA,130347.40,5700.9258719,N,00959.1957634,E,2,7,1.6,11.602,M,40.582,M,2.4,0123*4B\r\n
$GPGGA,130347.45,5700.9258726,N,00959.1957639,E,2,7,1.6,11.607,M,40.582,M,2.6,0123*48\r\n
$GPGGA,130347.50,5700.9258726,N,00959.1957640,E,2,7,1.6,11.607,M,40.582,M,2.6,0123*42\r\n
$GPGGA,130347.55,5700.9258727,N,00959.1957644,E,2,7,1.6,11.607,M,40.582,M,2.6,0123*42\r\n
$GPGGA,130347.60,5700.9258729,N,00959.1957643,E,2,7,1.6,11.607,M,40.582,M,2.6,0123*4D\r\n
$GPGGA,130347.65,5700.9258727,N,00959.1957642,E,2,7,1.6,11.609,M,40.582,M,2.9,0123*46\r\n
$GPGGA,130347.70,5700.9258726,N,00959.1957642,E,2,7,1.6,11.609,M,40.582,M,2.9,0123*43\r\n
$GPGGA,130347.75,5700.9258727,N,00959.1957644,E,2,7,1.6,11.609,M,40.582,M,2.9,0123*41\r\n
$GPGGA,130347.80,5700.9258729,N,00959.1957646,E,2,7,1.6,11.609,M,40.582,M,2.9,0123*47\r\n
$GPGGA,130347.85,5700.9258714,N,00959.1957646,E,2,7,1.6,11.607,M,40.582,M,2.3,0123*48\r\n
$GPGGA,130347.90,5700.9258713,N,00959.1957646,E,2,7,1.6,11.607,M,40.582,M,2.3,0123*4B\r\n
$GPGGA,130347.95,5700.9258712,N,00959.1957653,E,2,7,1.6,11.607,M,40.582,M,2.3,0123*4B\r\n
$GPGGA,130348.00,5700.9258713,N,00959.1957654,E,2,7,1.6,11.607,M,40.582,M,2.3,0123*4E\r\n
$GPGGA,130348.05,5700.9258661,N,00959.1957568,E,2,7,1.6,11.593,M,40.582,M,2.6,0123*48\r\n
$GPGGA,130348.10,5700.9258661,N,00959.1957568,E,2,7,1.6,11.593,M,40.582,M,2.6,0123*4C\r\n
$GPGGA,130348.15,5700.9258661,N,00959.1957567,E,2,7,1.6,11.593,M,40.582,M,2.6,0123*46\r\n
$GPGGA,130348.20,5700.9258659,N,00959.1957573,E,2,7,1.6,11.593,M,40.582,M,2.6,0123*4E\r\n
$GPGGA,130348.25,5700.9258679,N,00959.1957575,E,2,7,1.6,11.598,M,40.582,M,2.8,0123*4A\r\n
$GPGGA,130348.30,5700.9258678,N,00959.1957576,E,2,7,1.6,11.598,M,40.582,M,2.8,0123*4C\r\n
$GPGGA,130348.35,5700.9258678,N,00959.1957576,E,2,7,1.6,11.598,M,40.582,M,2.8,0123*49\r\n
$GPGGA,130348.40,5700.9258675,N,00959.1957583,E,2,7,1.6,11.597,M,40.582,M,2.8,0123*43\r\n
$GPGGA,130348.45,5700.9258635,N,00959.1957601,E,2,7,1.6,11.590,M,40.582,M,3.1,0123*44\r\n
$GPGGA,130348.50,5700.9258634,N,00959.1957604,E,2,7,1.6,11.589,M,40.582,M,3.1,0123*4C\r\n
$GPGGA,130348.55,5700.9258631,N,00959.1957607,E,2,7,1.6,11.589,M,40.582,M,3.1,0123*4F\r\n
$GPGGA,130348.60,5700.9258626,N,00959.1957610,E,2,7,1.6,11.588,M,40.582,M,3.1,0123*48\r\n
$GPGGA,130348.65,5700.9258658,N,00959.1957603,E,2,7,1.6,11.595,M,40.582,M,3.3,0123*48\r\n
$GPGGA,130348.75,5700.9258654,N,00959.1957599,E\x00,2,7,1.6,11.594,M,40.582,M,3.3,0123*44\r\n
$GPGGA,130351.60,5700.9258567,N,00959.1957395,E,2,7,1.6,11.564,M,40.582,M,2.6,0123*4A\r\n
$GPGGA,130351.65,5700.9258530,N,00959.1957380,E,2,7,1.6,11.558,M,40.582,M,2.9,0123*49\r\n
$GPGGA,130351.70,5700.9258528,N,00959.1957382,E,2,7,1.6,11.557,M,40.582,M,2.9,0123*49\r\n
$GPGGA,130351.75,5700.9258525,N,00959.1957379,E,2,7,1.6,11.556,M,40.582,M,2.9,0123*44\r\n
$GPGGA,130351.80,5700.9258522,N,00959.1957381,E,2,7,1.6,11.555,M,40.582,M,2.9,0123*4D\r\n
$GPGGA,130351.85,5700.9258545,N,00959.1957406,E,2,7,1.6,11.566,M,40.582,M,2.3,0123*4B\r\n
$GPGGA,130351.90,5700.9258542,N,00959.1957407,E,2,7,1.6,11.565,M,40.582,M,2.3,0123*4A\r\n
$GPGGA,130351.95,5700.9258540,N,00959.1957410,E,2,7,1.6,11.565,M,40.582,M,2.3,0123*4B\r\n
$GPGGA,130352.00,5700.9258539,N,00959.1957409,E,2,7,1.6,11.564,M,40.582,M,2.3,0123*43\r\n
$GPGGA,130352.05,5700.9258516,N,00959.1957317,E,2,7,1.6,11.558,M,40.582,M,2.6,0123*49\r\n
$GPGGA,130352.10,5700.9258513,N,00959.1957318,E,2,7,1.6,11.558,M,40.582,M,2.6,0123*47\r\n
$GPGGA,130352.15,5700.9258511,N,00959.1957317,E,2,7,1.6,11.557,M,40.582,M,2.6,0123*40\r\n
$GPGGA,130352.20,5700.9258510,N,00959.1957316,E,2,7,1.6,11.557,M,40.582,M,2.6,0123*46\r\n
$GPGGA,130352.25,5700.9258478,N,00959.1957320,E,2,7,1.6,11.550,M,40.582,M,2.8,0123*40\r\n
$GPGGA,130352.30,5700.9258475,N,00959.1957321,E,2,7,1.6,11.549,M,40.582,M,2.8,0123*40\r\n
$GPGGA,130352.35,5700.9258473,N,00959.1957317,E,2,7,1.6,11.549,M,40.582,M,2.8,0123*46\r\n
$GPGGA,130352.40,5700.9258471,N,00959.1957316,E,2,7,1.6,11.548,M,40.582,M,2.8,0123*46\r\n
$GPGGA,130352.45,5700.9258519,N,00959.1957303,E,2,7,1.6,11.564,M,40.582,M,3.1,0123*4E\r\n
$GPGGA,130352.50,5700.9258517,N,00959.1957297,E,2,7,1.6,11.564,M,40.582,M,3.1,0123*48\r\n
$GPGGA,130352.55,5700.9258515,N,00959.1957287,E,2,7,1.6,11.564,M,40.582,M,3.1,0123*4E\r\n
$GPGGA,130352.60,5700.9258516,N,00959.1957281,E,2,7,1.6,11.564,M,40.582,M,3.1,0123*4D\r\n
$GPGGA,130352.65,5700.9258526,N,00959.1957234,E,2,7,1.6,11.567,M,40.582,M,3.3,0123*44\r\n
$GPGGA,130352.70,5700.9258527,N,00959.1957228,E,2,7,1.6,11.568,M,40.582,M,3.3,0123*43\r\n
$GPGGA,130352.75,5700.9258526,N,00959.1957221,E,2,7,1.6,11.568,M,40.582,M,3.3,0123*4E\r\n
$GPGGA,130352.80,5700.9258525,N,00959.1957209,E,2,7,1.6,11.569,M,40.582,M,3.3,0123*4C\r\n
$GPGGA,130352.85,5700.9258559,N,00959.1957194,E,2,7,1.6,11.581,M,40.582,M,1.0,0123*42\r\n
$GPGGA,130352.90,5700.9258575,N,00959.1957180,E,2,7,1.6,11.584,M,40.582,M,1.0,0123*48\r\n
$GPGGA,130352.95,5700.9258572,N,00959.1957155,E,2,7,1.6,11.584,M,40.582,M,1.0,0123*42\r\n
$GPGGA,130353.00,5700.9258573,N,00959.1957141,E,2,7,1.6,11.585,M,40.582,M,1.0,0123*4A\r\n
$GPGGA,130353.05,5700.9258520,N,00959.1957047,E,2,7,1.6,11.570,M,40.582,M,1.3,0123*47\r\n
$GPGGA,130353.10,5700.9258523,N,00959.1957038,E,2,7,1.6,11.571,M,40.582,M,1.3,0123*49\r\n
$GPGGA,130353.15,5700.9258525,N,00959.1957024,E,2,7,1.6,11.572,M,40.582,M,1.3,0123*44\r\n
$GPGGA,130353.20,5700.9258529,N,00959.1957011,E,2,7,1.6,11.573,M,40.582,M,1.3,0123*49\r\n
$GPGGA,130353.25,5700.9258528,N,00959.1957031,E,2,7,1.6,11.576,M,40.582,M,1.5,0123*4C\r\n
$GPGGA,130353.30,5700.9258532,N,00959.1957020,E,2,7,1.6,11.577,M,40.582,M,1.5,0123*42\r\n
$GPGGA,130353.35,5700.9258537,N,00959.1957013,E,2,7,1.6,11.578,M,40.582,M,1.5,0123*4D\r\n
$GPGGA,130353.40,5700.9258540,N,00959.1957003,E,2,7,1.6,11.579,M,40.582,M,1.5,0123*4F\r\n
$GPGGA,130353.45,5700.9258518,N,00959.1957017,E,2,7,1.6,11.570,M,40.582,M,1.7,0123*49\r\n
$GPGGA,130353.50,5700.9258522,N,00959.1957017,E,2,7,1.6,11.571,M,40.582,M,1.7,0123*45\r\n
$GPGGA,130353.55,5700.9258524,N,00959.1957015,E,2,7,1.6,11.571,M,40.582,M,1.7,0123*44\r\n
$GPGGA,130353.60,5700.9258529,N,00959.1957017,E,2,7,1.6,11.571,M,40.582,M,1.7,0123*4D\r\n
$GPGGA,130353.65,5700.9258536,N,00959.1957053,E,2,7,1.6,11.572,M,40.582,M,1.9,0123*4B\r\n
$GPGGA,130353.70,5700.9258537,N,00959.1957057,E,2,7,1.6,11.572,M,40.582,M,1.9,0123*4A\r\n
$GPGGA,130353.75,5700.9258538,N,00959.1957063,E,2,7,1.6,11.572,M,40.582,M,1.9,0123*47\r\n
$GPGGA,130353.80,5700.9258540,N,00959.1957072,E,2,7,1.6,11.572,M,40.582,M,1.9,0123*42\r\n
$GPGGA,130353.85,5700.9258519,N,00959.1957082,E,2,7,1.6,11.572,M,40.582,M,2.1,0123*4F\r\n
$GPGGA,130353.90,5700.9258518,N,00959.1957093,E,2,7,1.6,11.572,M,40.582,M,2.1,0123*4A\r\n
$GPGGA,130353.95,5700.9258519,N,00959.1957108,E,2,7,1.6,11.572,M,40.582,M,2.1,0123*4D\r\n
$GPGGA,130354.00,5700.9258516,N,00959.1957116,E,2,7,1.6,11.571,M,40.582,M,2.1,0123*45\r\n
$GPGGA,130354.05,5700.9258465,N,00959.1957039,E,2,7,1.6,11.560,M,40.582,M,2.3,0123*4B\r\n
$GPGGA,130354.10,5700.9258462,N,00959.1957054,E,2,7,1.6,11.559,M,40.582,M,2.3,0123*49\r\n
$GPGGA,130354.15,5700.9258458,N,00959.1957071,E,2,7,1.6,11.558,M,40.582,M,2.3,0123*43\r\n
$GPGGA,130354.20,5700.9258456,N,00959.1957086,E,2,7,1.6,11.557,M,40.582,M,2.3,0123*4C\r\n
$GPGGA,130354.25,5700.9258452,N,00959.1957101,E,2,7,1.6,11.552,M,40.582,M,2.6,0123*43\r\n
$GPGGA,130354.35,5700.9258443,N,00959.1957131,E\x00,2,7,1.6,11.548,M,40.582,M,2.6,0123*4A\r\n
$GPGGA,130357.20,5700.9258324,N,00959.1956455,E,2,7,1.6,11.572,M,40.582,M,1.3,0123*42\r\n
$GPGGA,130357.25,5700.9258310,N,00959.1956442,E,2,7,1.6,11.571,M,40.582,M,1.5,0123*43\r\n
$GPGGA,130357.30,5700.9258305,N,00959.1956437,E,2,7,1.6,11.570,M,40.582,M,1.5,0123*40\r\n
$GPGGA,130357.35,5700.9258302,N,00959.1956428,E,2,7,1.6,11.570,M,40.582,M,1.5,0123*4C\r\n
$GPGGA,130357.40,5700.9258295,N,00959.1956422,E,2,7,1.6,11.570,M,40.582,M,1.5,0123*4B\r\n
$GPGGA,130357.45,5700.9258322,N,00959.1956403,E,2,7,1.6,11.580,M,40.582,M,1.7,0123*4D\r\n
$GPGGA,130357.50,5700.9258318,N,00959.1956395,E,2,7,1.6,11.580,M,40.582,M,1.7,0123*48\r\n
$GPGGA,130357.55,5700.9258315,N,00959.1956385,E,2,7,1.6,11.581,M,40.582,M,1.7,0123*40\r\n
$GPGGA,130357.60,5700.9258313,N,00959.1956381,E,2,7,1.6,11.581,M,40.582,M,1.7,0123*44\r\n
$GPGGA,130357.65,5700.9258307,N,00959.1956375,E,2,7,1.6,11.575,M,40.582,M,1.9,0123*4A\r\n
$GPGGA,130357.70,5700.9258305,N,00959.1956370,E,2,7,1.6,11.575,M,40.582,M,1.9,0123*49\r\n
$GPGGA,130357.75,5700.9258302,N,00959.1956362,E,2,7,1.6,11.575,M,40.582,M,1.9,0123*48\r\n
$GPGGA,130357.80,5700.9258299,N,00959.1956358,E,2,7,1.6,11.575,M,40.582,M,1.9,0123*48\r\n
$GPGGA,130357.85,5700.9258310,N,00959.1956366,E,2,7,1.6,11.582,M,40.582,M,2.1,0123*43\r\n
$GPGGA,130357.90,5700.9258308,N,00959.1956358,E,2,7,1.6,11.582,M,40.582,M,2.1,0123*43\r\n
$GPGGA,130357.95,5700.9258306,N,00959.1956351,E,2,7,1.6,11.583,M,40.582,M,2.1,0123*40\r\n
$GPGGA,130358.00,5700.9258304,N,00959.1956347,E,2,7,1.6,11.584,M,40.582,M,2.1,0123*41\r\n
$GPGGA,130358.05,5700.9258260,N,00959.1956246,E,2,7,1.6,11.574,M,40.582,M,2.3,0123*4A\r\n
$GPGGA,130358.10,5700.9258258,N,00959.1956240,E,2,7,1.6,11.575,M,40.582,M,2.3,0123*42\r\n
$GPGGA,130358.15,5700.9258254,N,00959.1956230,E,2,7,1.6,11.575,M,40.582,M,2.3,0123*4C\r\n
$GPGGA,130358.20,5700.9258253,N,00959.1956219,E,2,7,1.6,11.576,M,40.582,M,2.3,0123*45\r\n
$GPGGA,130358.25,5700.9258237,N,00959.1956200,E,2,7,1.6,11.583,M,40.582,M,2.6,0123*45\r\n
$GPGGA,130358.30,5700.9258234,N,00959.1956188,E,2,7,1.6,11.584,M,40.582,M,2.6,0123*46\r\n
$GPGGA,130358.35,5700.9258228,N,00959.1956172,E,2,7,1.6,11.585,M,40.582,M,2.6,0123*4A\r\n
$GPGGA,130358.40,5700.9258223,N,00959.1956160,E,2,7,1.6,11.587,M,40.582,M,2.6,0123*42\r\n
$GPGGA,130358.45,5700.9258226,N,00959.1956128,E,2,7,1.6,11.592,M,40.582,M,2.8,0123*44\r\n
$GPGGA,130358.50,5700.9258224,N,00959.1956115,E,2,7,1.6,11.593,M,40.582,M,2.8,0123*4D\r\n
$GPGGA,130358.55,5700.9258220,N,00959.1956103,E,2,7,1.6,11.595,M,40.582,M,2.8,0123*4D\r\n
$GPGGA,130358.60,5700.9258215,N,00959.1956090,E,2,7,1.6,11.597,M,40.582,M,2.8,0123*44\r\n
$GPGGA,130358.65,5700.9258215,N,00959.1956092,E,2,7,1.6,11.592,M,40.582,M,3.0,0123*4F\r\n
$GPGGA,130358.70,5700.9258213,N,00959.1956083,E,2,7,1.6,11.594,M,40.582,M,3.0,0123*4B\r\n
$GPGGA,130358.75,5700.9258210,N,00959.1956068,E,2,7,1.6,11.595,M,40.582,M,3.0,0123*49\r\n
$GPGGA,130358.80,5700.9258208,N,00959.1956059,E,2,7,1.6,11.597,M,40.582,M,3.0,0123*4A\r\n
$GPGGA,130358.85,5700.9258219,N,00959.1956074,E,2,7,1.6,11.596,M,40.582,M,1.8,0123*4B\r\n
$GPGGA,130358.90,5700.9258218,N,00959.1956069,E,2,7,1.6,11.598,M,40.582,M,1.8,0123*4C\r\n
$GPGGA,130358.95,5700.9258213,N,00959.1956059,E,2,7,1.6,11.599,M,40.582,M,1.8,0123*40\r\n
$GPGGA,130359.00,5700.9258212,N,00959.1956052,E,2,7,1.6,11.600,M,40.582,M,1.8,0123*44\r\n
$GPGGA,130359.05,5700.9258151,N,00959.1955982,E,2,7,1.6,11.595,M,40.582,M,2.1,0123*47\r\n
$GPGGA,130359.10,5700.9258149,N,00959.1955980,E,2,7,1.6,11.596,M,40.582,M,2.1,0123*4B\r\n
$GPGGA,130359.15,5700.9258147,N,00959.1955980,E,2,7,1.6,11.597,M,40.582,M,2.1,0123*41\r\n
$GPGGA,130359.20,5700.9258145,N,00959.1955980,E,2,7,1.6,11.598,M,40.582,M,2.1,0123*4A\r\n
$GPGGA,130359.25,5700.9258162,N,00959.1955986,E,2,7,1.6,11.590,M,40.582,M,2.4,0123*41\r\n
$GPGGA,130359.30,5700.9258161,N,00959.1955986,E,2,7,1.6,11.590,M,40.582,M,2.4,0123*46\r\n
$GPGGA,130359.35,5700.9258162,N,00959.1955987,E,2,7,1.6,11.590,M,40.582,M,2.4,0123*41\r\n
$GPGGA,130359.40,5700.9258163,N,00959.1955988,E,2,7,1.6,11.590,M,40.582,M,2.4,0123*4D\r\n
$GPGGA,130359.45,5700.9258180,N,00959.1955995,E,2,7,1.6,11.588,M,40.582,M,2.7,0123*43\r\n
$GPGGA,130359.50,5700.9258183,N,00959.1956000,E,2,7,1.6,11.587,M,40.582,M,2.7,0123*4D\r\n
$GPGGA,130359.55,5700.9258185,N,00959.1956008,E,2,7,1.6,11.586,M,40.582,M,2.7,0123*47\r\n
$GPGGA,130359.60,5700.9258187,N,00959.1956018,E,2,7,1.6,11.585,M,40.582,M,2.7,0123*41\r\n
$GPGGA,130359.65,5700.9258193,N,00959.1956062,E,2,7,1.6,11.581,M,40.582,M,2.9,0123*46\r\n
$GPGGA,130359.70,5700.9258197,N,00959.1956072,E,2,7,1.6,11.580,M,40.582,M,2.9,0123*46\r\n
$GPGGA,130359.75,5700.9258201,N,00959.1956081,E,2,7,1.6,11.578,M,40.582,M,2.9,0123*44\r\n
$GPGGA,130359.80,5700.9258203,N,00959.1956087,E,2\x00,7,1.6,11.576,M,40.582,M,2.9,0123*44\r\n
$GPGGA,130359.85,5700.9258204,N,00\x00959.1956045,E,2,7,1.6,11.584,M,40.582,M,2.4,0123*48\r\n
$GPGGA,130359.90,57\x0000.92582\n
$GPGGA,130402.60,5700.9257944,N,00959.1956401,E,2,7,1.6,11.445,M,40.582,M,2.7,0123*41\r\n
$GPGGA,130402.65,5700.9258000,N,00959.1956332,E,2,7,1.6,11.459,M,40.582,M,2.9,0123*46\r\n
$GPGGA,130402.70,5700.9258002,N,00959.1956262,E,2,7,1.6,11.458,M,40.582,M,2.9,0123*45\r\n
$GPGGA,130402.75,5700.9257999,N,00959.1956180,E,2,7,1.6,11.455,M,40.582,M,2.9,0123*46\r\n
$GPGGA,130402.80,5700.9257995,N,00959.1956083,E,2,7,1.6,11.452,M,40.582,M,2.9,0123*45\r\n
$GPGGA,130402.85,5700.9257924,N,00959.1955952,E,2,7,1.6,11.444,M,40.582,M,1.9,0123*48\r\n
$GPGGA,130402.90,5700.9257883,N,00959.1955806,E,2,7,1.6,11.442,M,40.582,M,1.9,0123*46\r\n
$GPGGA,130402.95,5700.9257856,N,00959.1955681,E,2,7,1.6,11.441,M,40.582,M,1.9,0123*49\r\n
$GPGGA,130403.00,5700.9257843,N,00959.1955560,E,2,7,1.6,11.438,M,40.582,M,1.9,0123*42\r\n
$GPGGA,130403.05,5700.9257865,N,00959.1955408,E,2,7,1.6,11.448,M,40.582,M,2.2,0123*43\r\n
$GPGGA,130403.10,5700.9257891,N,00959.1955328,E,2,7,1.6,11.451,M,40.582,M,2.2,0123*41\r\n
$GPGGA,130403.15,5700.9257912,N,00959.1955230,E,2,7,1.6,11.452,M,40.582,M,2.2,0123*45\r\n
$GPGGA,130403.20,5700.9257925,N,00959.1955133,E,2,7,1.6,11.451,M,40.582,M,2.2,0123*44\r\n
$GPGGA,130403.25,5700.9257939,N,00959.1955009,E,2,7,1.6,11.446,M,40.582,M,2.4,0123*44\r\n
$GPGGA,130403.30,5700.9257950,N,00959.1954869,E,2,7,1.6,11.445,M,40.582,M,2.4,0123*43\r\n
$GPGGA,130403.35,5700.9257943,N,00959.1954703,E,2,7,1.6,11.448,M,40.582,M,2.4,0123*4A\r\n
$GPGGA,130403.40,5700.9257923,N,00959.1954525,E,2,7,1.6,11.452,M,40.582,M,2.4,0123*43\r\n
$GPGGA,130403.45,5700.9257962,N,00959.1954358,E,2,7,1.8,11.459,M,40.582,M,2.6,0123*48\r\n
$GPGGA,130403.50,5700.9258044,N,00959.1954220,E,2,7,1.8,11.461,M,40.582,M,2.6,0123*4B\r\n
$GPGGA,130403.55,5700.9258082,N,00959.1954082,E,2,7,1.8,11.463,M,40.582,M,2.6,0123*4C\r\n
$GPGGA,130403.60,5700.9258099,N,00959.1953933,E,2,7,1.8,11.463,M,40.582,M,2.6,0123*44\r\n
$GPGGA,130403.65,5700.9257933,N,00959.1953730,E,2,7,1.8,11.463,M,40.582,M,2.9,0123*45\r\n
$GPGGA,130403.70,5700.9257949,N,00959.1953565,E,2,7,1.8,11.461,M,40.582,M,2.9,0123*4C\r\n
$GPGGA,130403.75,5700.9257969,N,00959.1953383,E,2,7,1.8,11.467,M,40.582,M,2.9,0123*43\r\n
$GPGGA,130403.80,5700.9257955,N,00959.1953180,E,2,7,1.8,11.472,M,40.582,M,2.9,0123*43\r\n
$GPGGA,130403.85,5700.9257995,N,00959.1953091,E,2,7,1.7,11.454,M,40.582,M,2.3,0123*4A\r\n
$GPGGA,130403.90,5700.9258009,N,00959.1952924,E,2,7,1.7,11.448,M,40.582,M,2.3,0123*46\r\n
$GPGGA,130403.95,5700.9258025,N,00959.1952769,E,2,7,1.7,11.446,M,40.582,M,2.3,0123*44\r\n
$GPGGA,130404.00,5700.9258065,N,00959.1952606,E,2,7,1.7,11.444,M,40.582,M,2.3,0123*41\r\n
$GPGGA,130404.05,5700.9258047,N,00959.1952345,E,2,7,1.6,11.430,M,40.582,M,2.6,0123*41\r\n
$GPGGA,130404.10,5700.9257999,N,00959.1952095,E,2,7,1.6,11.420,M,40.582,M,2.6,0123*4F\r\n
