$GPGGA,122150.60,5703.3653758,N,00952.2532443,E,2,11,0.8,-1.299,M,40.593,M,2.6,0123*68\r\n
$GPGGA,122150.65,5703.3653992,N,00952.2532116,E,2,11,0.8,-1.299,M,40.593,M,2.8,0123*6E\r\n
$GPGGA,122150.70,5703.3654218,N,00952.2531789,E,2,11,0.8,-1.300,M,40.593,M,2.8,0123*66\r\n
$GPGGA,122150.75,5703.3654449,N,00952.2531452,E,2,11,0.8,-1.301,M,40.593,M,2.8,0123*65\r\n
$GPGGA,122150.80,5703.3654669,N,00952.2531102,E,2,11,0.8,-1.302,M,40.593,M,2.8,0123*6C\r\n
$GPGGA,122150.85,5703.3654896,N,00952.2530768,E,2,11,0.8,-1.302,M,40.593,M,3.0,0123*65\r\n
$GPGGA,122150.90,5703.3655128,N,00952.2530427,E,2,11,0.8,-1.300,M,40.593,M,3.0,0123*66\r\n
$GPGGA,122150.95,5703.3655354,N,00952.2530076,E,2,11,0.8,-1.300,M,40.593,M,3.0,0123*6A\r\n
$GPGGA,122151.00,5703.3655572,N,00952.2529726,E,2,11,0.8,-1.298,M,40.593,M,3.0,0123*6F\r\n
$GPGGA,122151.05,5703.3655800,N,00952.2529388,E,2,11,0.8,-1.292,M,40.593,M,3.2,0123*6A\r\n
$GPGGA,122151.10,5703.3656028,N,00952.2529050,E,2,11,0.8,-1.289,M,40.593,M,3.2,0123*63\r\n
$GPGGA,122151.15,5703.3656255,N,00952.2528697,E,2,11,0.8,-1.289,M,40.593,M,3.2,0123*62\r\n
$GPGGA,122151.20,5703.3656480,N,00952.2528337,E,2,11,0.8,-1.288,M,40.593,M,3.2,0123*64\r\n
$GPGGA,122151.25,5703.3656705,N,00952.2527990,E,2,11,0.8,-1.286,M,40.593,M,3.5,0123*6E\r\n
$GPGGA,122151.30,5703.3656933,N,00952.2527643,E,2,11,0.8,-1.282,M,40.593,M,3.5,0123*64\r\n
$GPGGA,122151.35,5703.3657168,N,00952.2527303,E,2,11,0.8,-1.279,M,40.593,M,3.5,0123*63\r\n
$GPGGA,122151.40,5703.3657406,N,00952.2526968,E,2,11,0.8,-1.281,M,40.593,M,3.5,0123*6D\r\n
$GPGGA,122151.45,5703.3657638,N,00952.2526632,E,2,11,0.8,-1.284,M,40.593,M,3.7,0123*60\r\n
$GPGGA,122151.50,5703.3657866,N,00952.2526279,E,2,11,0.8,-1.284,M,40.593,M,3.7,0123*6A\r\n
$GPGGA,122151.55,5703.3658092,N,00952.2525927,E,2,11,0.8,-1.283,M,40.593,M,3.7,0123*67\r\n
$GPGGA,122151.60,5703.3658312,N,00952.2525567,E,2,11,0.8,-1.283,M,40.593,M,3.7,0123*62\r\n
$GPGGA,122151.65,5703.3658532,N,00952.2525205,E,2,11,0.8,-1.281,M,40.593,M,3.9,0123*6C\r\n
$GPGGA,122151.70,5703.3658749,N,00952.2524837,E,2,11,0.8,-1.281,M,40.593,M,3.9,0123*6C\r\n
$GPGGA,122151.75,5703.3658968,N,00952.2524478,E,2,11,0.8,-1.281,M,40.593,M,3.9,0123*63\r\n
$GPGGA,122151.80,5703.3659184,N,00952.2524115,E,2,11,0.8,-1.282,M,40.593,M,3.9,0123*6F\r\n
$GPGGA,122151.85,5703.3659400,N,00952.2523754,E,2,11,0.8,-1.278,M,40.593,M,4.1,0123*6D\r\n
$GPGGA,122151.90,5703.3659610,N,00952.2523378,E,2,11,0.8,-1.277,M,40.593,M,4.1,0123*6F\r\n
$GPGGA,122151.95,5703.3659823,N,00952.2523012,E,2,11,0.8,-1.275,M,40.593,M,4.1,0123*69\r\n
$GPGGA,122152.00,5703.3660036,N,00952.2522652,E,2,11,0.8,-1.276,M,40.593,M,4.1,0123*60\r\n
$GPGGA,122152.05,5703.3660258,N,00952.2522296,E,2,11,0.8,-1.276,M,40.593,M,4.3,0123*61\r\n
$GPGGA,122152.10,5703.3660487,N,00952.2521946,E,2,11,0.8,-1.277,M,40.593,M,4.3,0123*65\r\n
$GPGGA,122152.15,5703.3660709,N,00952.2521595,E,2,11,0.8,-1.279,M,40.593,M,4.3,0123*69\r\n
$GPGGA,122152.20,5703.3660932,N,00952.2521246,E,2,11,0.8,-1.282,M,40.593,M,4.3,0123*64\r\n
$GPGGA,122152.25,5703.3661160,N,00952.2520889,E,2,11,0.8,-1.288,M,40.593,M,4.5,0123*6B\r\n
$GPGGA,122152.30,5703.3661387,N,00952.2520537,E,2,11,0.8,-1.290,M,40.593,M,4.5,0123*65\r\n
$GPGGA,122152.35,5703.3661613,N,00952.2520182,E,2,11,0.8,-1.292,M,40.593,M,4.5,0123*60\r\n
$GPGGA,122152.40,5703.3661839,N,00952.2519834,E,2,11,0.8,-1.296,M,40.593,M,4.5,0123*6E\r\n
$GPGGA,122152.45,5703.3662068,N,00952.2519494,E,2,11,0.8,-1.296,M,40.593,M,2.1,0123*60\r\n
$GPGGA,122152.50,5703.3662293,N,00952.2519143,E,2,11,0.8,-1.297,M,40.593,M,2.1,0123*6C\r\n
$GPGGA,122152.55,5703.3662510,N,00952.2518784,E,2,11,0.8,-1.299,M,40.593,M,2.1,0123*67\r\n
$GPGGA,122152.60,5703.3662737,N,00952.2518436,E,2,11,0.8,-1.303,M,40.593,M,2.1,0123*6E\r\n
$GPGGA,122152.65,5703.3662971,N,00952.2518084,E,2,11,0.8,-1.304,M,40.593,M,2.3,0123*6F\r\n
$GPGGA,122152.70,5703.3663196,N,00952.2517726,E,2,11,0.8,-1.303,M,40.593,M,2.3,0123*6C\r\n
$GPGGA,122152.75,5703.3663418,N,00952.2517377,E,2,11,0.8,-1.305,M,40.593,M,2.3,0123*6C\r\n
$GPGGA,122152.80,5703.3663644,N,00952.2517041,E,2,11,0.8,-1.306,M,40.593,M,2.3,0123*68\r\n
$GPGGA,122152.85,5703.3663871,N,00952.2516692,E,2,11,0.8,-1.303,M,40.593,M,2.6,0123*6C\r\n
$GPGGA,122152.90,5703.3664095,N,00952.2516346,E,2,11,0.8,-1.302,M,40.593,M,2.6,0123*60\r\n
$GPGGA,122152.95,5703.3664324,N,00952.2515989,E,2,11,0.8,-1.299,M,40.593,M,2.6,0123*65\r\n
$GPGGA,122153.00,5703.3664551,N,00952.2515633,E,2,11,0.8,-1.298,M,40.593,M,2.6,0123*63\r\n
$GPGGA,122153.05,5703.3664794,N,00952.2515299,E,2,11,0.8,-1.292,M,40.593,M,2.8,0123*6D\r\n
$GPGGA,122153.10,5703.3665016,N,00952.2514965,E,2,11,0.8,-1.289,M,40.593,M,2.8,0123*66\r\n
$GPGGA,122153.15,5703.3665234,N,00952.2514636,E,2,11,0.8,-1.287,M,40.593,M,2.8,0123*66\r\n
$GPGGA,122153.20,5703.3665469,N,00952.2514304,E,2,11,0.8,-1.283,M,40.593,M,2.8,0123*6E\r\n
$GPGGA,122153.25,5703.3665705,N,00952.2513961,E,2,11,0.8,-1.281,M,40.593,M,3.0,0123*67\r\n
$GPGGA,122153.30,5703.3665933,N,00952.2513611,E,2,11,0.8,-1.278,M,40.593,M,3.0,0123*66\r\n
$GPGGA,122153.35,5703.3666159,N,00952.2513252,E,2,11,0.8,-1.276,M,40.593,M,3.0,0123*69\r\n
$GPGGA,122153.40,5703.3666386,N,00952.2512896,E,2,11,0.8,-1.272,M,40.593,M,3.0,0123*6C\r\n
$GPGGA,122153.45,5703.3666608,N,00952.2512538,E,2,11,0.8,-1.270,M,40.593,M,1.9,0123*6A\r\n
$GPGGA,122153.50,5703.3666825,N,00952.2512171,E,2,11,0.8,-1.268,M,40.593,M,1.9,0123*6F\r\n
$GPGGA,122153.55,5703.3667039,N,00952.2511797,E,2,11,0.8,-1.269,M,40.593,M,1.9,0123*62\r\n
$GPGGA,122153.60,5703.3667255,N,00952.2511434,E,2,11,0.8,-1.268,M,40.593,M,1.9,0123*67\r\n
$GPGGA,122153.65,5703.3667463,N,00952.2511052,E,2,11,0.8,-1.268,M,40.593,M,2.2,0123*6D\r\n
$GPGGA,122153.70,5703.3667680,N,00952.2510684,E,2,11,0.8,-1.268,M,40.593,M,2.2,0123*6A\r\n
$GPGGA,122153.75,5703.3667902,N,00952.2510318,E,2,11,0.8,-1.270,M,40.593,M,2.2,0123*63\r\n
$GPGGA,122153.80,5703.3668127,N,00952.2509944,E,2,11,0.8,-1.272,M,40.593,M,2.2,0123*60\r\n
$GPGGA,122153.85,5703.3668347,N,00952.2509574,E,2,11,0.8,-1.277,M,40.593,M,2.4,0123*6D\r\n
$GPGGA,122153.90,5703.3668566,N,00952.2509214,E,2,11,0.8,-1.279,M,40.593,M,2.4,0123*63\r\n
$GPGGA,122153.95,5703.3668792,N,00952.2508848,E,2,11,0.8,-1.280,M,40.593,M,2.4,0123*6B\r\n
$GPGGA,122154.00,5703.3669016,N,00952.2508495,E,2,11,0.8,-1.284,M,40.593,M,2.4,0123*62\r\n
$GPGGA,122154.05,5703.3669249,N,00952.2508147,E,2,11,0.8,-1.285,M,40.593,M,2.6,0123*66\r\n
$GPGGA,122154.10,5703.3669476,N,00952.2507792,E,2,11,0.8,-1.286,M,40.593,M,2.6,0123*6A\r\n
$GPGGA,122154.15,5703.3669706,N,00952.2507440,E,2,11,0.8,-1.289,M,40.593,M,2.6,0123*68\r\n
$GPGGA,122154.20,5703.3669932,N,00952.2507078,E,2,11,0.8,-1.290,M,40.593,M,2.6,0123*60\r\n
$GPGGA,122154.25,5703.3670157,N,00952.2506722,E,2,11,0.8,-1.291,M,40.593,M,2.8,0123*60\r\n
$GPGGA,122154.30,5703.3670380,N,00952.2506376,E,2,11,0.8,-1.291,M,40.593,M,2.8,0123*69\r\n
$GPGGA,122154.35,5703.3670599,N,00952.2506021,E,2,11,0.8,-1.292,M,40.593,M,2.8,0123*60\r\n
$GPGGA,122154.40,5703.3670819,N,00952.2505668,E,2,11,0.8,-1.292,M,40.593,M,2.8,0123*6F\r\n
$GPGGA,122154.45,5703.3671037,N,00952.2505314,E,2,11,0.8,-1.292,M,40.593,M,2.6,0123*6F\r\n
$GPGGA,122154.50,5703.3671259,N,00952.2504952,E,2,11,0.8,-1.291,M,40.593,M,2.6,0123*6B\r\n
$GPGGA,122154.55,5703.3671479,N,00952.2504586,E,2,11,0.8,-1.291,M,40.593,M,2.6,0123*6F\r\n
$GPGGA,122154.60,5703.3671699,N,00952.2504227,E,2,11,0.8,-1.289,M,40.593,M,2.6,0123*60\r\n
$GPGGA,122154.65,5703.3671922,N,00952.2503872,E,2,11,0.8,-1.288,M,40.593,M,2.8,0123*68\r\n
$GPGGA,122154.70,5703.3672141,N,00952.2503512,E,2,11,0.8,-1.285,M,40.593,M,2.8,0123*64\r\n
$GPGGA,122154.75,5703.3672372,N,00952.2503157,E,2,11,0.8,-1.286,M,40.593,M,2.8,0123*65\r\n
$GPGGA,122154.80,5703.3672607,N,00952.2502811,E,2,11,0.8,-1.286,M,40.593,M,2.8,0123*62\r\n
$GPGGA,122154.85,5703.3672835,N,00952.2502464,E,2,11,0.8,-1.286,M,40.593,M,3.0,0123*6F\r\n
$GPGGA,122154.90,5703.3673047,N,00952.2502107,E,2,11,0.8,-1.284,M,40.593,M,3.0,0123*65\r\n
$GPGGA,122154.95,5703.3673264,N,00952.2501743,E,2,11,0.8,-1.282,M,40.593,M,3.0,0123*60\r\n
$GPGGA,122155.00,5703.3673493,N,00952.2501383,E,2,11,0.8,-1.281,M,40.593,M,3.0,0123*68\r\n
$GPGGA,122155.05,5703.3673725,N,00952.2501023,E,2,11,0.8,-1.283,M,40.593,M,3.2,0123*6A\r\n
$GPGGA,122155.10,5703.3673951,N,00952.2500673,E,2,11,0.8,-1.280,M,40.593,M,3.2,0123*62\r\n
$GPGGA,122155.15,5703.3674172,N,00952.2500313,E,2,11,0.8,-1.278,M,40.593,M,3.2,0123*6D\r\n
$GPGGA,122155.20,5703.3674392,N,00952.2499951,E,2,11,0.8,-1.277,M,40.593,M,3.2,0123*65\r\n
$GPGGA,122155.25,5703.3674602,N,00952.2499590,E,2,11,0.8,-1.276,M,40.593,M,3.5,0123*6B\r\n
$GPGGA,122155.30,5703.3674815,N,00952.2499231,E,2,11,0.8,-1.273,M,40.593,M,3.5,0123*6E\r\n
$GPGGA,122155.35,5703.3675036,N,00952.2498883,E,2,11,0.8,-1.270,M,40.593,M,3.5,0123*62\r\n
$GPGGA,122155.40,5703.3675264,N,00952.2498523,E,2,11,0.8,-1.267,M,40.593,M,3.5,0123*64\r\n
$GPGGA,122155.45,5703.3675492,N,00952.2498160,E,2,11,0.8,-1.268,M,40.593,M,3.7,0123*60\r\n
$GPGGA,122155.50,5703.3675709,N,00952.2497794,E,2,11,0.8,-1.268,M,40.593,M,3.7,0123*67\r\n
$GPGGA,122155.55,5703.3675918,N,00952.2497441,E,2,11,0.8,-1.268,M,40.593,M,3.7,0123*67\r\n
$GPGGA,122155.60,5703.3676133,N,00952.2497072,E,2,11,0.8,-1.268,M,40.593,M,3.7,0123*67\r\n
$GPGGA,122155.65,5703.3676347,N,00952.2496709,E,2,11,0.8,-1.267,M,40.593,M,3.9,0123*68\r\n
$GPGGA,122155.70,5703.3676567,N,00952.2496333,E,2,11,0.8,-1.268,M,40.593,M,3.9,0123*6A\r\n
$GPGGA,122155.75,5703.3676785,N,00952.2495959,E,2,11,0.8,-1.269,M,40.593,M,3.9,0123*65\r\n
$GPGGA,122155.80,5703.3676996,N,00952.2495584,E,2,11,0.8,-1.269,M,40.593,M,3.9,0123*6F\r\n
$GPGGA,122155.85,5703.3677209,N,00952.2495199,E,2,11,0.8,-1.274,M,40.593,M,4.1,0123*6D\r\n
$GPGGA,122155.90,5703.3677423,N,00952.2494808,E,2,11,0.8,-1.276,M,40.593,M,4.1,0123*65\r\n
$GPGGA,122155.95,5703.3677638,N,00952.2494420,E,2,11,0.8,-1.277,M,40.593,M,4.1,0123*6F\r\n
$GPGGA,122156.00,5703.3677850,N,00952.2494033,E,2,11,0.8,-1.279,M,40.593,M,4.1,0123*68\r\n
$GPGGA,122156.05,5703.3678056,N,00952.2493650,E,2,11,0.8,-1.279,M,40.593,M,4.3,0123*6A\r\n
$GPGGA,122156.10,5703.3678271,N,00952.2493246,E,2,11,0.8,-1.278,M,40.593,M,4.3,0123*6B\r\n
$GPGGA,122156.15,5703.3678490,N,00952.2492853,E,2,11,0.8,-1.279,M,40.593,M,4.3,0123*69\r\n
$GPGGA,122156.20,5703.3678710,N,00952.2492458,E,2,11,0.8,-1.280,M,40.593,M,4.3,0123*65\r\n
$GPGGA,122156.25,5703.3678932,N,00952.2492069,E,2,11,0.8,-1.277,M,40.593,M,4.5,0123*66\r\n
$GPGGA,122156.30,5703.3679159,N,00952.2491668,E,2,11,0.8,-1.275,M,40.593,M,4.5,0123*60\r\n
$GPGGA,122156.35,5703.3679384,N,00952.2491256,E,2,11,0.8,-1.273,M,40.593,M,4.5,0123*68\r\n
$GPGGA,122156.40,5703.3679604,N,00952.2490850,E,2,11,0.8,-1.273,M,40.593,M,4.5,0123*6A\r\n
$GPGGA,122156.45,5703.3679840,N,00952.2490426,E,2,11,0.8,-1.273,M,40.593,M,2.1,0123*6E\r\n
$GPGGA,122156.50,5703.3680078,N,00952.2489995,E,2,11,0.8,-1.270,M,40.593,M,2.1,0123*61\r\n
$GPGGA,122156.55,5703.3680298,N,00952.2489563,E,2,11,0.8,-1.271,M,40.593,M,2.1,0123*6C\r\n
$GPGGA,122156.60,5703.3680527,N,00952.2489129,E,2,11,0.8,-1.270,M,40.593,M,2.1,0123*62\r\n
$GPGGA,122156.65,5703.3680766,N,00952.2488680,E,2,11,0.8,-1.272,M,40.593,M,2.3,0123*65\r\n
$GPGGA,122156.70,5703.3681007,N,00952.2488217,E,2,11,0.8,-1.269,M,40.593,M,2.3,0123*60\r\n
$GPGGA,122156.75,5703.3681252,N,00952.2487757,E,2,11,0.8,-1.266,M,40.593,M,2.3,0123*66\r\n
$GPGGA,122156.80,5703.3681496,N,00952.2487272,E,2,11,0.8,-1.263,M,40.593,M,2.3,0123*65\r\n
$GPGGA,122156.85,5703.3681734,N,00952.2486785,E,2,11,0.8,-1.261,M,40.593,M,2.6,0123*60\r\n
$GPGGA,122156.90,5703.3681964,N,00952.2486276,E,2,11,0.8,-1.257,M,40.593,M,2.6,0123*63\r\n
$GPGGA,122156.95,5703.3682212,N,00952.2485764,E,2,11,0.8,-1.251,M,40.593,M,2.6,0123*6C\r\n
$GPGGA,122157.00,5703.3682455,N,00952.2485222,E,2,11,0.8,-1.247,M,40.593,M,2.6,0123*64\r\n
$GPGGA,122157.05,5703.3682702,N,00952.2484675,E,2,11,0.8,-1.246,M,40.593,M,2.8,0123*68\r\n
$GPGGA,122157.10,5703.3682948,N,00952.2484125,E,2,11,0.8,-1.242,M,40.593,M,2.8,0123*6A\r\n
$GPGGA,122157.15,5703.3683202,N,00952.2483564,E,2,11,0.8,-1.238,M,40.593,M,2.8,0123*60\r\n
$GPGGA,122157.20,5703.3683461,N,00952.2482994,E,2,11,0.8,-1.234,M,40.593,M,2.8,0123*6B\r\n
$GPGGA,122157.25,5703.3683708,N,00952.2482412,E,2,11,0.8,-1.232,M,40.593,M,3.0,0123*6E\r\n
$GPGGA,122157.30,5703.3683960,N,00952.2481814,E,2,11,0.8,-1.231,M,40.593,M,3.0,0123*60\r\n
$GPGGA,122157.35,5703.3684228,N,00952.2481206,E,2,11,0.8,-1.231,M,40.593,M,3.0,0123*6C\r\n
$GPGGA,122157.40,5703.3684495,N,00952.2480617,E,2,11,0.8,-1.230,M,40.593,M,3.0,0123*6A\r\n
$GPGGA,122157.45,5703.3684753,N,00952.2479995,E,2,11,0.8,-1.232,M,40.593,M,1.9,0123*6C\r\n
$GPGGA,122157.50,5703.3685011,N,00952.2479360,E,2,11,0.8,-1.230,M,40.593,M,1.9,0123*6A\r\n
$GPGGA,122157.55,5703.3685279,N,00952.2478734,E,2,11,0.8,-1.229,M,40.593,M,1.9,0123*6F\r\n
$GPGGA,122157.60,5703.3685550,N,00952.2478082,E,2,11,0.8,-1.231,M,40.593,M,1.9,0123*66\r\n
$GPGGA,122157.65,5703.3685798,N,00952.2477420,E,2,11,0.8,-1.237,M,40.593,M,2.2,0123*68\r\n
$GPGGA,122157.70,5703.3686050,N,00952.2476751,E,2,11,0.8,-1.236,M,40.593,M,2.2,0123*69\r\n
$GPGGA,122157.75,5703.3686316,N,00952.2476078,E,2,11,0.8,-1.236,M,40.593,M,2.2,0123*61\r\n
$GPGGA,122157.80,5703.3686577,N,00952.2475389,E,2,11,0.8,-1.237,M,40.593,M,2.2,0123*65\r\n
$GPGGA,122157.85,5703.3686833,N,00952.2474702,E,2,11,0.8,-1.234,M,40.593,M,2.4,0123*6E\r\n
$GPGGA,122157.90,5703.3687084,N,00952.2474015,E,2,11,0.8,-1.235,M,40.593,M,2.4,0123*6F\r\n
$GPGGA,122157.95,5703.3687340,N,00952.2473312,E,2,11,0.8,-1.234,M,40.593,M,2.4,0123*63\r\n
$GPGGA,122158.00,5703.3687608,N,00952.2472606,E,2,11,0.8,-1.234,M,40.593,M,2.4,0123*68\r\n
$GPGGA,122158.05,5703.3687879,N,00952.2471884,E,2,11,0.8,-1.236,M,40.593,M,2.6,0123*62\r\n
$GPGGA,122158.10,5703.3688135,N,00952.2471148,E,2,11,0.8,-1.237,M,40.593,M,2.6,0123*60\r\n
$GPGGA,122158.15,5703.3688390,N,00952.2470409,E,2,11,0.8,-1.238,M,40.593,M,2.6,0123*66\r\n
$GPGGA,122158.20,5703.3688655,N,00952.2469676,E,2,11,0.8,-1.239,M,40.593,M,2.6,0123*6F\r\n
$GPGGA,122158.25,5703.3688919,N,00952.2468923,E,2,11,0.8,-1.241,M,40.593,M,2.8,0123*62\r\n
$GPGGA,122158.30,5703.3689179,N,00952.2468169,E,2,11,0.8,-1.242,M,40.593,M,2.8,0123*6C\r\n
$GPGGA,122158.35,5703.3689437,N,00952.2467417,E,2,11,0.8,-1.242,M,40.593,M,2.8,0123*65\r\n
$GPGGA,122158.40,5703.3689695,N,00952.2466649,E,2,11,0.8,-1.244,M,40.593,M,2.8,0123*63\r\n
$GPGGA,122158.45,5703.3689963,N,00952.2465882,E,2,11,0.8,-1.246,M,40.593,M,2.6,0123*66\r\n
$GPGGA,122158.50,5703.3690226,N,00952.2465115,E,2,11,0.8,-1.248,M,40.593,M,2.6,0123*69\r\n
$GPGGA,122158.55,5703.3690489,N,00952.2464317,E,2,11,0.8,-1.251,M,40.593,M,2.6,0123*66\r\n
$GPGGA,122158.60,5703.3690746,N,00952.2463517,E,2,11,0.8,-1.252,M,40.593,M,2.6,0123*62\r\n
$GPGGA,122158.65,5703.3691014,N,00952.2462730,E,2,11,0.8,-1.246,M,40.593,M,2.8,0123*6B\r\n
$GPGGA,122158.70,5703.3691274,N,00952.2461932,E,2,11,0.8,-1.246,M,40.593,M,2.8,0123*64\r\n
$GPGGA,122158.75,5703.3691530,N,00952.2461127,E,2,11,0.8,-1.247,M,40.593,M,2.8,0123*6B\r\n
$GPGGA,122158.80,5703.3691777,N,00952.2460302,E,2,11,0.8,-1.249,M,40.593,M,2.8,0123*6A\r\n
$GPGGA,122158.85,5703.3692023,N,00952.2459468,E,2,11,0.8,-1.255,M,40.593,M,3.0,0123*6F\r\n
$GPGGA,122158.90,5703.3692273,N,00952.2458623,E,2,11,0.8,-1.256,M,40.593,M,3.0,0123*63\r\n
$GPGGA,122158.95,5703.3692523,N,00952.2457785,E,2,11,0.8,-1.255,M,40.593,M,3.0,0123*65\r\n
$GPGGA,122159.00,5703.3692768,N,00952.2456946,E,2,11,0.8,-1.254,M,40.593,M,3.0,0123*64\r\n
$GPGGA,122159.05,5703.3693028,N,00952.2456101,E,2,11,0.8,-1.254,M,40.593,M,3.2,0123*6A\r\n
$GPGGA,122159.10,5703.3693282,N,00952.2455246,E,2,11,0.8,-1.255,M,40.593,M,3.2,0123*6E\r\n
$GPGGA,122159.15,5703.3693530,N,00952.2454379,E,2,11,0.8,-1.256,M,40.593,M,3.2,0123*6A\r\n
$GPGGA,122159.20,5703.3693778,N,00952.2453512,E,2,11,0.8,-1.255,M,40.593,M,3.2,0123*6D\r\n
$GPGGA,122159.25,5703.3694025,N,00952.2452649,E,2,11,0.8,-1.255,M,40.593,M,3.5,0123*6B\r\n
$GPGGA,122159.30,5703.3694282,N,00952.2451775,E,2,11,0.8,-1.254,M,40.593,M,3.5,0123*6C\r\n
$GPGGA,122159.35,5703.3694530,N,00952.2450884,E,2,11,0.8,-1.257,M,40.593,M,3.5,0123*64\r\n
$GPGGA,122159.40,5703.3694776,N,00952.2449978,E,2,11,0.8,-1.259,M,40.593,M,3.5,0123*62\r\n
$GPGGA,122159.45,5703.3695025,N,00952.2449084,E,2,11,0.8,-1.257,M,40.593,M,3.7,0123*61\r\n
$GPGGA,122159.50,5703.3695266,N,00952.2448175,E,2,11,0.8,-1.257,M,40.593,M,3.7,0123*6E\r\n
$GPGGA,122159.55,5703.3695506,N,00952.2447250,E,2,11,0.8,-1.260,M,40.593,M,3.7,0123*65\r\n
$GPGGA,122159.60,5703.3695760,N,00952.2446323,E,2,11,0.8,-1.259,M,40.593,M,3.7,0123*6F\r\n
$GPGGA,122159.65,5703.3696009,N,00952.2445399,E,2,11,0.8,-1.258,M,40.593,M,3.9,0123*6C\r\n
$GPGGA,122159.70,5703.3696250,N,00952.2444472,E,2,11,0.8,-1.260,M,40.593,M,3.9,0123*6E\r\n
$GPGGA,122159.75,5703.3696479,N,00952.2443533,E,2,11,0.8,-1.262,M,40.593,M,3.9,0123*67\r\n
$GPGGA,122159.80,5703.3696709,N,00952.2442591,E,2,11,0.8,-1.262,M,40.593,M,3.9,0123*60\r\n
$GPGGA,122159.85,5703.3696948,N,00952.2441652,E,2,11,0.8,-1.258,M,40.593,M,4.1,0123*67\r\n
$GPGGA,122159.90,5703.3697189,N,00952.2440715,E,2,11,0.8,-1.257,M,40.593,M,4.1,0123*6B\r\n
$GPGGA,122159.95,5703.3697436,N,00952.2439774,E,2,11,0.8,-1.253,M,40.593,M,4.1,0123*62\r\n
$GPGGA,122200.00,5703.3697674,N,00952.2438824,E,2,11,0.8,-1.253,M,40.593,M,4.1,0123*6E\r\n
$GPGGA,122200.05,5703.3697912,N,00952.2437865,E,2,11,0.8,-1.251,M,40.593,M,4.3,0123*6E\r\n
$GPGGA,122200.10,5703.3698153,N,00952.2436907,E,2,11,0.8,-1.250,M,40.593,M,4.3,0123*6D\r\n
$GPGGA,122200.15,5703.3698403,N,00952.2435941,E,2,11,0.8,-1.247,M,40.593,M,4.3,0123*6F\r\n
$GPGGA,122200.20,5703.3698644,N,00952.2434968,E,2,11,0.8,-1.244,M,40.593,M,4.3,0123*61\r\n
$GPGGA,122200.25,5703.3698876,N,00952.2433989,E,2,11,0.8,-1.241,M,40.593,M,4.5,0123*60\r\n
$GPGGA,122200.30,5703.3699103,N,00952.2433014,E,2,11,0.8,-1.240,M,40.593,M,4.5,0123*62\r\n
$GPGGA,122200.35,5703.3699339,N,00952.2432029,E,2,11,0.8,-1.240,M,40.593,M,4.5,0123*63\r\n
$GPGGA,122200.40,5703.3699567,N,00952.2431042,E,2,11,0.8,-1.243,M,40.593,M,4.5,0123*61\r\n
$GPGGA,122200.45,5703.3699784,N,00952.2430054,E,2,11,0.8,-1.244,M,40.593,M,2.1,0123*68\r\n
$GPGGA,122200.50,5703.3700002,N,00952.2429058,E,2,11,0.8,-1.244,M,40.593,M,2.1,0123*60\r\n
$GPGGA,122200.55,5703.3700221,N,00952.2428047,E,2,11,0.8,-1.245,M,40.593,M,2.1,0123*68\r\n
$GPGGA,122200.60,5703.3700441,N,00952.2427061,E,2,11,0.8,-1.243,M,40.593,M,2.1,0123*63\r\n
$GPGGA,122200.65,5703.3700667,N,00952.2426059,E,2,11,0.8,-1.243,M,40.593,M,2.3,0123*68\r\n
$GPGGA,122200.70,5703.3700882,N,00952.2425052,E,2,11,0.8,-1.245,M,40.593,M,2.3,0123*67\r\n
$GPGGA,122200.75,5703.3701100,N,00952.2424042,E,2,11,0.8,-1.247,M,40.593,M,2.3,0123*62\r\n
$GPGGA,122200.80,5703.3701315,N,00952.2423023,E,2,11,0.8,-1.249,M,40.593,M,2.3,0123*60\r\n
$GPGGA,122200.85,5703.3701536,N,00952.2422008,E,2,11,0.8,-1.250,M,40.593,M,2.6,0123*67\r\n
$GPGGA,122200.90,5703.3701746,N,00952.2420983,E,2,11,0.8,-1.252,M,40.593,M,2.6,0123*6C\r\n
$GPGGA,122200.95,5703.3701965,N,00952.2419967,E,2,11,0.8,-1.253,M,40.593,M,2.6,0123*67\r\n
$GPGGA,122201.00,5703.3702187,N,00952.2418942,E,2,11,0.8,-1.256,M,40.593,M,2.6,0123*6E\r\n
$GPGGA,122201.05,5703.3702402,N,00952.2417922,E,2,11,0.8,-1.258,M,40.593,M,2.8,0123*6A\r\n
$GPGGA,122201.10,5703.3702623,N,00952.2416901,E,2,11,0.8,-1.261,M,40.593,M,2.8,0123*65\r\n
$GPGGA,122201.15,5703.3702846,N,00952.2415880,E,2,11,0.8,-1.261,M,40.593,M,2.8,0123*66\r\n
$GPGGA,122201.20,5703.3703078,N,00952.2414865,E,2,11,0.8,-1.261,M,40.593,M,2.8,0123*6E\r\n
$GPGGA,122201.25,5703.3703296,N,00952.2413820,E,2,11,0.8,-1.263,M,40.593,M,3.0,0123*64\r\n
$GPGGA,122201.30,5703.3703519,N,00952.2412789,E,2,11,0.8,-1.267,M,40.593,M,3.0,0123*69\r\n
$GPGGA,122201.35,5703.3703738,N,00952.2411749,E,2,11,0.8,-1.267,M,40.593,M,3.0,0123*62\r\n
$GPGGA,122201.40,5703.3703972,N,00952.2410721,E,2,11,0.8,-1.268,M,40.593,M,3.0,0123*60\r\n
$GPGGA,122201.45,5703.3704199,N,00952.2409709,E,2,11,0.8,-1.265,M,40.593,M,1.3,0123*61\r\n
$GPGGA,122201.50,5703.3704419,N,00952.2408668,E,2,11,0.8,-1.264,M,40.593,M,1.3,0123*6E\r\n
$GPGGA,122201.55,5703.3704642,N,00952.2407633,E,2,11,0.8,-1.265,M,40.593,M,1.3,0123*67\r\n
$GPGGA,122201.60,5703.3704854,N,00952.2406595,E,2,11,0.8,-1.266,M,40.593,M,1.3,0123*65\r\n
$GPGGA,122201.65,5703.3705069,N,00952.2405559,E,2,11,0.8,-1.263,M,40.593,M,1.6,0123*64\r\n
$GPGGA,122201.70,5703.3705281,N,00952.2404519,E,2,11,0.8,-1.261,M,40.593,M,1.6,0123*63\r\n
$GPGGA,122201.75,5703.3705501,N,00952.2403478,E,2,11,0.8,-1.261,M,40.593,M,1.6,0123*68\r\n
$GPGGA,122201.80,5703.3705713,N,00952.2402441,E,2,11,0.8,-1.262,M,40.593,M,1.6,0123*6B\r\n
$GPGGA,122201.85,5703.3705925,N,00952.2401399,E,2,11,0.8,-1.260,M,40.593,M,1.9,0123*69\r\n
$GPGGA,122201.90,5703.3706132,N,00952.2400352,E,2,11,0.8,-1.260,M,40.593,M,1.9,0123*66\r\n
$GPGGA,122201.95,5703.3706342,N,00952.2399300,E,2,11,0.8,-1.261,M,40.593,M,1.9,0123*67\r\n
$GPGGA,122202.00,5703.3706549,N,00952.2398240,E,2,11,0.8,-1.264,M,40.593,M,1.9,0123*64\r\n
$GPGGA,122202.05,5703.3706769,N,00952.2397197,E,2,11,0.8,-1.265,M,40.593,M,2.1,0123*6D\r\n
$GPGGA,122202.10,5703.3706976,N,00952.2396148,E,2,11,0.8,-1.262,M,40.593,M,2.1,0123*6D\r\n
$GPGGA,122202.15,5703.3707189,N,00952.2395095,E,2,11,0.8,-1.264,M,40.593,M,2.1,0123*65\r\n
$GPGGA,122202.20,5703.3707392,N,00952.2394048,E,2,11,0.8,-1.264,M,40.593,M,2.1,0123*6A\r\n
$GPGGA,122202.25,5703.3707611,N,00952.2392999,E,2,11,0.8,-1.266,M,40.593,M,2.4,0123*65\r\n
$GPGGA,122202.30,5703.3707827,N,00952.2391957,E,2,11,0.8,-1.267,M,40.593,M,2.4,0123*6A\r\n
$GPGGA,122202.35,5703.3708044,N,00952.2390907,E,2,11,0.8,-1.268,M,40.593,M,2.4,0123*66\r\n
$GPGGA,122202.40,5703.3708253,N,00952.2389874,E,2,11,0.8,-1.269,M,40.593,M,2.4,0123*6C\r\n
$GPGGA,122202.45,5703.3708463,N,00952.2388813,E,2,11,0.8,-1.271,M,40.593,M,2.6,0123*67\r\n
$GPGGA,122202.50,5703.3708671,N,00952.2387763,E,2,11,0.8,-1.271,M,40.593,M,2.6,0123*65\r\n
$GPGGA,122202.55,5703.3708887,N,00952.2386718,E,2,11,0.8,-1.272,M,40.593,M,2.6,0123*69\r\n
$GPGGA,122202.60,5703.3709087,N,00952.2385663,E,2,11,0.8,-1.274,M,40.593,M,2.6,0123*6E\r\n
$GPGGA,122202.65,5703.3709288,N,00952.2384621,E,2,11,0.8,-1.273,M,40.593,M,2.8,0123*68\r\n
$GPGGA,122202.70,5703.3709484,N,00952.2383568,E,2,11,0.8,-1.272,M,40.593,M,2.8,0123*6E\r\n
$GPGGA,122202.75,5703.3709684,N,00952.2382525,E,2,11,0.8,-1.271,M,40.593,M,2.8,0123*62\r\n
$GPGGA,122202.80,5703.3709879,N,00952.2381480,E,2,11,0.8,-1.270,M,40.593,M,2.8,0123*68\r\n
$GPGGA,122202.85,5703.3710084,N,00952.2380428,E,2,11,0.8,-1.274,M,40.593,M,3.0,0123*61\r\n
$GPGGA,122202.90,5703.3710295,N,00952.2379387,E,2,11,0.8,-1.275,M,40.593,M,3.0,0123*62\r\n
$GPGGA,122202.95,5703.3710494,N,00952.2378330,E,2,11,0.8,-1.276,M,40.593,M,3.0,0123*6E\r\n
$GPGGA,122203.00,5703.3710693,N,00952.2377284,E,2,11,0.8,-1.274,M,40.593,M,3.0,0123*65\r\n
$GPGGA,122203.05,5703.3710896,N,00952.2376248,E,2,11,0.8,-1.272,M,40.593,M,3.2,0123*6E\r\n
$GPGGA,122203.10,5703.3711093,N,00952.2375215,E,2,11,0.8,-1.271,M,40.593,M,3.2,0123*6E\r\n
$GPGGA,122203.15,5703.3711285,N,00952.2374170,E,2,11,0.8,-1.268,M,40.593,M,3.2,0123*67\r\n
$GPGGA,122203.20,5703.3711477,N,00952.2373129,E,2,11,0.8,-1.267,M,40.593,M,3.2,0123*6E\r\n
$GPGGA,122203.25,5703.3711673,N,00952.2372084,E,2,11,0.8,-1.271,M,40.593,M,3.5,0123*6A\r\n
$GPGGA,122203.30,5703.3711873,N,00952.2371037,E,2,11,0.8,-1.274,M,40.593,M,3.5,0123*6E\r\n
$GPGGA,122203.35,5703.3712061,N,00952.2370005,E,2,11,0.8,-1.272,M,40.593,M,3.5,0123*65\r\n
$GPGGA,122203.40,5703.3712264,N,00952.2368971,E,2,11,0.8,-1.270,M,40.593,M,3.5,0123*61\r\n
$GPGGA,122203.45,5703.3712461,N,00952.2367939,E,2,11,0.8,-1.273,M,40.593,M,0.7,0123*66\r\n
$GPGGA,122203.50,5703.3712666,N,00952.2366900,E,2,11,0.8,-1.274,M,40.593,M,0.7,0123*6B\r\n
$GPGGA,122203.55,5703.3712863,N,00952.2365851,E,2,11,0.8,-1.272,M,40.593,M,0.7,0123*65\r\n
$GPGGA,122203.60,5703.3713057,N,00952.2364803,E,2,11,0.8,-1.272,M,40.593,M,0.7,0123*6B\r\n
$GPGGA,122203.65,5703.3713237,N,00952.2363757,E,2,11,0.8,-1.277,M,40.593,M,1.0,0123*60\r\n
$GPGGA,122203.70,5703.3713426,N,00952.2362720,E,2,11,0.8,-1.278,M,40.593,M,1.0,0123*6C\r\n
$GPGGA,122203.75,5703.3713619,N,00952.2361682,E,2,11,0.8,-1.276,M,40.593,M,1.0,0123*63\r\n
$GPGGA,122203.80,5703.3713810,N,00952.2360639,E,2,11,0.8,-1.277,M,40.593,M,1.0,0123*6E\r\n
$GPGGA,122203.85,5703.3713997,N,00952.2359586,E,2,11,0.8,-1.279,M,40.593,M,1.3,0123*65\r\n
$GPGGA,122203.90,5703.3714181,N,00952.2358542,E,2,11,0.8,-1.279,M,40.593,M,1.3,0123*60\r\n
$GPGGA,122203.95,5703.3714378,N,00952.2357512,E,2,11,0.8,-1.279,M,40.593,M,1.3,0123*6B\r\n
$GPGGA,122204.00,5703.3714569,N,00952.2356480,E,2,11,0.8,-1.278,M,40.593,M,1.3,0123*6C\r\n
$GPGGA,122204.05,5703.3714752,N,00952.2355434,E,2,11,0.8,-1.280,M,40.593,M,1.6,0123*6D\r\n
$GPGGA,122204.10,5703.3714934,N,00952.2354376,E,2,11,0.8,-1.283,M,40.593,M,1.6,0123*64\r\n
$GPGGA,122204.15,5703.3715129,N,00952.2353326,E,2,11,0.8,-1.284,M,40.593,M,1.6,0123*61\r\n
$GPGGA,122204.20,5703.3715318,N,00952.2352281,E,2,11,0.8,-1.285,M,40.593,M,1.6,0123*6B\r\n
$GPGGA,122204.25,5703.3715513,N,00952.2351232,E,2,11,0.8,-1.283,M,40.593,M,1.8,0123*60\r\n
$GPGGA,122204.30,5703.3715695,N,00952.2350173,E,2,11,0.8,-1.284,M,40.593,M,1.8,0123*69\r\n
$GPGGA,122204.35,5703.3715880,N,00952.2349110,E,2,11,0.8,-1.285,M,40.593,M,1.8,0123*6A\r\n
$GPGGA,122204.40,5703.3716070,N,00952.2348050,E,2,11,0.8,-1.287,M,40.593,M,1.8,0123*6A\r\n
$GPGGA,122204.45,5703.3716251,N,00952.2346986,E,2,11,0.8,-1.291,M,40.593,M,2.1,0123*6F\r\n
$GPGGA,122204.50,5703.3716425,N,00952.2345921,E,2,11,0.8,-1.292,M,40.593,M,2.1,0123*63\r\n
$GPGGA,122204.55,5703.3716611,N,00952.2344870,E,2,11,0.8,-1.291,M,40.593,M,2.1,0123*64\r\n
$GPGGA,122204.60,5703.3716783,N,00952.2343820,E,2,11,0.8,-1.291,M,40.593,M,2.1,0123*6A\r\n
$GPGGA,122204.65,5703.3716969,N,00952.2342759,E,2,11,0.8,-1.289,M,40.593,M,2.3,0123*6E\r\n
$GPGGA,122204.70,5703.3717142,N,00952.2341694,E,2,11,0.8,-1.287,M,40.593,M,2.3,0123*67\r\n
$GPGGA,122204.75,5703.3717320,N,00952.2340630,E,2,11,0.8,-1.288,M,40.593,M,2.3,0123*64\r\n
$GPGGA,122204.80,5703.3717497,N,00952.2339558,E,2,11,0.8,-1.290,M,40.593,M,2.3,0123*6F\r\n
$GPGGA,122204.85,5703.3717673,N,00952.2338510,E,2,11,0.8,-1.285,M,40.593,M,2.6,0123*6E\r\n
$GPGGA,122204.90,5703.3717837,N,00952.2337444,E,2,11,0.8,-1.284,M,40.593,M,2.6,0123*6A\r\n
$GPGGA,122204.95,5703.3717993,N,00952.2336366,E,2,11,0.8,-1.283,M,40.593,M,2.6,0123*61\r\n
$GPGGA,122205.00,5703.3718156,N,00952.2335304,E,2,11,0.8,-1.282,M,40.593,M,2.6,0123*64\r\n
$GPGGA,122205.05,5703.3718341,N,00952.2334247,E,2,11,0.8,-1.280,M,40.593,M,2.8,0123*6E\r\n
$GPGGA,122205.10,5703.3718507,N,00952.2333175,E,2,11,0.8,-1.279,M,40.593,M,2.8,0123*6D\r\n
$GPGGA,122205.15,5703.3718668,N,00952.2332101,E,2,11,0.8,-1.278,M,40.593,M,2.8,0123*61\r\n
$GPGGA,122205.20,5703.3718833,N,00952.2331030,E,2,11,0.8,-1.278,M,40.593,M,2.8,0123*67\r\n
$GPGGA,122205.25,5703.3718988,N,00952.2329962,E,2,11,0.8,-1.278,M,40.593,M,3.0,0123*6D\r\n
$GPGGA,122205.30,5703.3719140,N,00952.2328889,E,2,11,0.8,-1.279,M,40.593,M,3.0,0123*60\r\n
$GPGGA,122205.35,5703.3719292,N,00952.2327813,E,2,11,0.8,-1.279,M,40.593,M,3.0,0123*65\r\n
$GPGGA,122205.40,5703.3719447,N,00952.2326729,E,2,11,0.8,-1.280,M,40.593,M,3.0,0123*68\r\n
$GPGGA,122205.45,5703.3719595,N,00952.2325653,E,2,11,0.8,-1.279,M,40.593,M,1.9,0123*61\r\n
$GPGGA,122205.50,5703.3719744,N,00952.2324582,E,2,11,0.8,-1.278,M,40.593,M,1.9,0123*64\r\n
$GPGGA,122205.55,5703.3719885,N,00952.2323527,E,2,11,0.8,-1.279,M,40.593,M,1.9,0123*6A\r\n
$GPGGA,122205.60,5703.3720032,N,00952.2322463,E,2,11,0.8,-1.281,M,40.593,M,1.9,0123*65\r\n
$GPGGA,122205.65,5703.3720193,N,00952.2321398,E,2,11,0.8,-1.280,M,40.593,M,2.2,0123*63\r\n
$GPGGA,122205.70,5703.3720340,N,00952.2320344,E,2,11,0.8,-1.279,M,40.593,M,2.2,0123*6D\r\n
$GPGGA,122205.75,5703.3720472,N,00952.2319263,E,2,11,0.8,-1.282,M,40.593,M,2.2,0123*64\r\n
$GPGGA,122205.80,5703.3720608,N,00952.2318182,E,2,11,0.8,-1.282,M,40.593,M,2.2,0123*6C\r\n
$GPGGA,122205.85,5703.3720755,N,00952.2317125,E,2,11,0.8,-1.279,M,40.593,M,2.4,0123*60\r\n
$GPGGA,122205.90,5703.3720907,N,00952.2316076,E,2,11,0.8,-1.278,M,40.593,M,2.4,0123*6A\r\n
$GPGGA,122205.95,5703.3721049,N,00952.2315019,E,2,11,0.8,-1.279,M,40.593,M,2.4,0123*66\r\n
$GPGGA,122206.00,5703.3721173,N,00952.2313941,E,2,11,0.8,-1.280,M,40.593,M,2.4,0123*65\r\n
$GPGGA,122206.05,5703.3721308,N,00952.2312876,E,2,11,0.8,-1.281,M,40.593,M,2.6,0123*69\r\n
$GPGGA,122206.10,5703.3721441,N,00952.2311825,E,2,11,0.8,-1.280,M,40.593,M,2.6,0123*63\r\n
$GPGGA,122206.15,5703.3721570,N,00952.2310759,E,2,11,0.8,-1.279,M,40.593,M,2.6,0123*66\r\n
$GPGGA,122206.20,5703.3721695,N,00952.2309688,E,2,11,0.8,-1.278,M,40.593,M,2.6,0123*6C\r\n
$GPGGA,122206.25,5703.3721812,N,00952.2308631,E,2,11,0.8,-1.278,M,40.593,M,2.8,0123*65\r\n
$GPGGA,122206.30,5703.3721922,N,00952.2307560,E,2,11,0.8,-1.278,M,40.593,M,2.8,0123*6B\r\n
$GPGGA,122206.35,5703.3722024,N,00952.2306494,E,2,11,0.8,-1.279,M,40.593,M,2.8,0123*68\r\n
$GPGGA,122206.40,5703.3722139,N,00952.2305431,E,2,11,0.8,-1.282,M,40.593,M,2.8,0123*6F\r\n
$GPGGA,122206.45,5703.3722248,N,00952.2304349,E,2,11,0.8,-1.286,M,40.593,M,2.6,0123*6C\r\n
$GPGGA,122206.50,5703.3722357,N,00952.2303280,E,2,11,0.8,-1.284,M,40.593,M,2.6,0123*66\r\n
$GPGGA,122206.55,5703.3722460,N,00952.2302201,E,2,11,0.8,-1.284,M,40.593,M,2.6,0123*68\r\n
$GPGGA,122206.60,5703.3722560,N,00952.2301137,E,2,11,0.8,-1.283,M,40.593,M,2.6,0123*6D\r\n
$GPGGA,122206.65,5703.3722667,N,00952.2300076,E,2,11,0.8,-1.281,M,40.593,M,2.8,0123*65\r\n
$GPGGA,122206.70,5703.3722767,N,00952.2298998,E,2,11,0.8,-1.281,M,40.593,M,2.8,0123*69\r\n
$GPGGA,122206.75,5703.3722865,N,00952.2297921,E,2,11,0.8,-1.278,M,40.593,M,2.8,0123*6A\r\n
$GPGGA,122206.80,5703.3722967,N,00952.2296862,E,2,11,0.8,-1.277,M,40.593,M,2.8,0123*6B\r\n
$GPGGA,122206.85,5703.3723054,N,00952.2295798,E,2,11,0.8,-1.283,M,40.593,M,3.0,0123*6D\r\n
$GPGGA,122206.90,5703.3723142,N,00952.2294724,E,2,11,0.8,-1.283,M,40.593,M,3.0,0123*69\r\n
$GPGGA,122206.95,5703.3723236,N,00952.2293645,E,2,11,0.8,-1.282,M,40.593,M,3.0,0123*6C\r\n
$GPGGA,122207.00,5703.3723317,N,00952.2292579,E,2,11,0.8,-1.282,M,40.593,M,3.0,0123*6E\r\n
$GPGGA,122207.05,5703.3723392,N,00952.2291500,E,2,11,0.8,-1.283,M,40.593,M,3.2,0123*68\r\n
$GPGGA,122207.10,5703.3723463,N,00952.2290421,E,2,11,0.8,-1.285,M,40.593,M,3.2,0123*60\r\n
$GPGGA,122207.15,5703.3723536,N,00952.2289359,E,2,11,0.8,-1.287,M,40.593,M,3.2,0123*66\r\n
$GPGGA,122207.20,5703.3723615,N,00952.2288273,E,2,11,0.8,-1.287,M,40.593,M,3.2,0123*6A\r\n
$GPGGA,122207.25,5703.3723691,N,00952.2287202,E,2,11,0.8,-1.285,M,40.593,M,3.5,0123*6F\r\n
$GPGGA,122207.30,5703.3723757,N,00952.2286124,E,2,11,0.8,-1.285,M,40.593,M,3.5,0123*66\r\n
$GPGGA,122207.35,5703.3723809,N,00952.2285042,E,2,11,0.8,-1.285,M,40.593,M,3.5,0123*65\r\n
$GPGGA,122207.40,5703.3723866,N,00952.2283956,E,2,11,0.8,-1.283,M,40.593,M,3.5,0123*62\r\n
$GPGGA,122207.45,5703.3723931,N,00952.2282883,E,2,11,0.8,-1.287,M,40.593,M,3.7,0123*6A\r\n
$GPGGA,122207.50,5703.3723993,N,00952.2281801,E,2,11,0.8,-1.287,M,40.593,M,3.7,0123*6F\r\n
$GPGGA,122207.55,5703.3724041,N,00952.2280717,E,2,11,0.8,-1.288,M,40.593,M,3.7,0123*6D\r\n
$GPGGA,122207.60,5703.3724090,N,00952.2279641,E,2,11,0.8,-1.287,M,40.593,M,3.7,0123*6C\r\n
$GPGGA,122207.65,5703.3724140,N,00952.2278571,E,2,11,0.8,-1.286,M,40.593,M,3.9,0123*6B\r\n
$GPGGA,122207.70,5703.3724198,N,00952.2277488,E,2,11,0.8,-1.284,M,40.593,M,3.9,0123*60\r\n
$GPGGA,122207.75,5703.3724252,N,00952.2276405,E,2,11,0.8,-1.283,M,40.593,M,3.9,0123*63\r\n
$GPGGA,122207.80,5703.3724291,N,00952.2275322,E,2,11,0.8,-1.286,M,40.593,M,3.9,0123*62\r\n
$GPGGA,122207.85,5703.3724332,N,00952.2274244,E,2,11,0.8,-1.290,M,40.593,M,4.1,0123*67\r\n
$GPGGA,122207.90,5703.3724377,N,00952.2273169,E,2,11,0.8,-1.289,M,40.593,M,4.1,0123*61\r\n
$GPGGA,122207.95,5703.3724411,N,00952.2272096,E,2,11,0.8,-1.291,M,40.593,M,4.1,0123*6A\r\n
$GPGGA,122208.00,5703.3724461,N,00952.2271021,E,2,11,0.8,-1.292,M,40.593,M,4.1,0123*62\r\n
$GPGGA,122208.05,5703.3724500,N,00952.2269944,E,2,11,0.8,-1.287,M,40.593,M,4.3,0123*64\r\n
$GPGGA,122208.10,5703.3724528,N,00952.2268872,E,2,11,0.8,-1.287,M,40.593,M,4.3,0123*6F\r\n
$GPGGA,122208.15,5703.3724561,N,00952.2267788,E,2,11,0.8,-1.287,M,40.593,M,4.3,0123*62\r\n
$GPGGA,122208.20,5703.3724590,N,00952.2266719,E,2,11,0.8,-1.286,M,40.593,M,4.3,0123*62\r\n
$GPGGA,122208.25,5703.3724622,N,00952.2265643,E,2,11,0.8,-1.287,M,40.593,M,1.8,0123*6F\r\n
$GPGGA,122208.30,5703.3724650,N,00952.2264572,E,2,11,0.8,-1.288,M,40.593,M,1.8,0123*61\r\n
$GPGGA,122208.35,5703.3724680,N,00952.2263500,E,2,11,0.8,-1.288,M,40.593,M,1.8,0123*6B\r\n
$GPGGA,122208.40,5703.3724709,N,00952.2262418,E,2,11,0.8,-1.288,M,40.593,M,1.8,0123*60\r\n
$GPGGA,122208.45,5703.3724733,N,00952.2261344,E,2,11,0.8,-1.291,M,40.593,M,2.1,0123*63\r\n
$GPGGA,122208.50,5703.3724751,N,00952.2260285,E,2,11,0.8,-1.291,M,40.593,M,2.1,0123*6E\r\n
$GPGGA,122208.55,5703.3724768,N,00952.2259221,E,2,11,0.8,-1.291,M,40.593,M,2.1,0123*65\r\n
$GPGGA,122208.60,5703.3724782,N,00952.2258146,E,2,11,0.8,-1.292,M,40.593,M,2.1,0123*67\r\n
$GPGGA,122208.65,5703.3724799,N,00952.2257100,E,2,11,0.8,-1.292,M,40.593,M,2.3,0123*67\r\n
$GPGGA,122208.70,5703.3724816,N,00952.2256032,E,2,11,0.8,-1.293,M,40.593,M,2.3,0123*6B\r\n
$GPGGA,122208.75,5703.3724832,N,00952.2254966,E,2,11,0.8,-1.294,M,40.593,M,2.3,0123*65\r\n
$GPGGA,122208.80,5703.3724845,N,00952.2253906,E,2,11,0.8,-1.294,M,40.593,M,2.3,0123*6E\r\n
$GPGGA,122208.85,5703.3724860,N,00952.2252842,E,2,11,0.8,-1.293,M,40.593,M,2.6,0123*6E\r\n
$GPGGA,122208.90,5703.3724872,N,00952.2251788,E,2,11,0.8,-1.294,M,40.593,M,2.6,0123*64\r\n
$GPGGA,122208.95,5703.3724885,N,00952.2250751,E,2,11,0.8,-1.296,M,40.593,M,2.6,0123*6E\r\n
$GPGGA,122209.00,5703.3724893,N,00952.2249684,E,2,11,0.8,-1.298,M,40.593,M,2.6,0123*6B\r\n
$GPGGA,122209.05,5703.3724896,N,00952.2248624,E,2,11,0.8,-1.297,M,40.593,M,2.8,0123*61\r\n
$GPGGA,122209.10,5703.3724906,N,00952.2247562,E,2,11,0.8,-1.298,M,40.593,M,2.8,0123*6C\r\n
$GPGGA,122209.15,5703.3724926,N,00952.2246507,E,2,11,0.8,-1.299,M,40.593,M,2.8,0123*68\r\n
$GPGGA,122209.20,5703.3724928,N,00952.2245469,E,2,11,0.8,-1.297,M,40.593,M,2.8,0123*64\r\n
$GPGGA,122209.25,5703.3724940,N,00952.2244421,E,2,11,0.8,-1.292,M,40.593,M,1.7,0123*6B\r\n
$GPGGA,122209.30,5703.3724946,N,00952.2243366,E,2,11,0.8,-1.291,M,40.593,M,1.7,0123*69\r\n
$GPGGA,122209.35,5703.3724945,N,00952.2242317,E,2,11,0.8,-1.291,M,40.593,M,1.7,0123*68\r\n
$GPGGA,122209.40,5703.3724945,N,00952.2241263,E,2,11,0.8,-1.291,M,40.593,M,1.7,0123*6B\r\n
$GPGGA,122209.45,5703.3724951,N,00952.2240212,E,2,11,0.8,-1.295,M,40.593,M,1.9,0123*66\r\n
$GPGGA,122209.50,5703.3724955,N,00952.2239159,E,2,11,0.8,-1.295,M,40.593,M,1.9,0123*64\r\n
$GPGGA,122209.55,5703.3724973,N,00952.2238119,E,2,11,0.8,-1.296,M,40.593,M,1.9,0123*63\r\n
$GPGGA,122209.60,5703.3724975,N,00952.2237069,E,2,11,0.8,-1.299,M,40.593,M,1.9,0123*65\r\n
$GPGGA,122209.65,5703.3724973,N,00952.2236002,E,2,11,0.8,-1.299,M,40.593,M,2.2,0123*62\r\n
$GPGGA,122209.70,5703.3724975,N,00952.2234941,E,2,11,0.8,-1.299,M,40.593,M,2.2,0123*6C\r\n
$GPGGA,122209.75,5703.3724987,N,00952.2233903,E,2,11,0.8,-1.300,M,40.593,M,2.2,0123*64\r\n
$GPGGA,122209.80,5703.3725002,N,00952.2232850,E,2,11,0.8,-1.298,M,40.593,M,2.2,0123*6D\r\n
$GPGGA,122209.85,5703.3725013,N,00952.2231790,E,2,11,0.8,-1.299,M,40.593,M,2.4,0123*6F\r\n
$GPGGA,122209.90,5703.3725009,N,00952.2230749,E,2,11,0.8,-1.300,M,40.593,M,2.4,0123*64\r\n
$GPGGA,122209.95,5703.3725015,N,00952.2229715,E,2,11,0.8,-1.304,M,40.593,M,2.4,0123*69\r\n
$GPGGA,122210.00,5703.3725026,N,00952.2228662,E,2,11,0.8,-1.305,M,40.593,M,2.4,0123*6C\r\n
$GPGGA,122210.05,5703.3725039,N,00952.2227589,E,2,11,0.8,-1.304,M,40.593,M,2.6,0123*6D\r\n
$GPGGA,122210.10,5703.3725060,N,00952.2226539,E,2,11,0.8,-1.303,M,40.593,M,2.6,0123*68\r\n
$GPGGA,122210.15,5703.3725071,N,00952.2225495,E,2,11,0.8,-1.307,M,40.593,M,2.6,0123*6D\r\n
$GPGGA,122210.20,5703.3725073,N,00952.2224448,E,2,11,0.8,-1.310,M,40.593,M,2.6,0123*6E\r\n
$GPGGA,122210.25,5703.3725079,N,00952.2223396,E,2,11,0.8,-1.304,M,40.593,M,2.4,0123*65\r\n
$GPGGA,122210.30,5703.3725090,N,00952.2222339,E,2,11,0.8,-1.303,M,40.593,M,2.4,0123*65\r\n
$GPGGA,122210.35,5703.3725100,N,00952.2221281,E,2,11,0.8,-1.302,M,40.593,M,2.4,0123*68\r\n
$GPGGA,122210.40,5703.3725115,N,00952.2220225,E,2,11,0.8,-1.303,M,40.593,M,2.4,0123*60\r\n
$GPGGA,122210.45,5703.3725124,N,00952.2219164,E,2,11,0.8,-1.308,M,40.593,M,2.6,0123*62\r\n
$GPGGA,122210.50,5703.3725127,N,00952.2218116,E,2,11,0.8,-1.310,M,40.593,M,2.6,0123*68\r\n
$GPGGA,122210.55,5703.3725139,N,00952.2217056,E,2,11,0.8,-1.311,M,40.593,M,2.6,0123*69\r\n
$GPGGA,122210.60,5703.3725162,N,00952.2215991,E,2,11,0.8,-1.311,M,40.593,M,2.6,0123*61\r\n
$GPGGA,122210.65,5703.3725176,N,00952.2214946,E,2,11,0.8,-1.308,M,40.593,M,2.8,0123*6C\r\n
$GPGGA,122210.70,5703.3725186,N,00952.2213903,E,2,11,0.8,-1.306,M,40.593,M,2.8,0123*6F\r\n
$GPGGA,122210.75,5703.3725199,N,00952.2212861,E,2,11,0.8,-1.306,M,40.593,M,2.8,0123*60\r\n
$GPGGA,122210.80,5703.3725215,N,00952.2211786,E,2,11,0.8,-1.305,M,40.593,M,2.8,0123*6B\r\n
$GPGGA,122210.85,5703.3725222,N,00952.2210731,E,2,11,0.8,-1.306,M,40.593,M,3.0,0123*6D\r\n
$GPGGA,122210.90,5703.3725238,N,00952.2209674,E,2,11,0.8,-1.304,M,40.593,M,3.0,0123*68\r\n
$GPGGA,122210.95,5703.3725261,N,00952.2208622,E,2,11,0.8,-1.303,M,40.593,M,3.0,0123*64\r\n
$GPGGA,122211.00,5703.3725275,N,00952.2207583,E,2,11,0.8,-1.302,M,40.593,M,3.0,0123*6A\r\n
$GPGGA,122211.05,5703.3725295,N,00952.2206523,E,2,11,0.8,-1.295,M,40.593,M,3.2,0123*67\r\n
$GPGGA,122211.10,5703.3725319,N,00952.2205481,E,2,11,0.8,-1.292,M,40.593,M,3.2,0123*6B\r\n
$GPGGA,122211.15,5703.3725325,N,00952.2204437,E,2,11,0.8,-1.293,M,40.593,M,3.2,0123*6C\r\n
$GPGGA,122211.20,5703.3725337,N,00952.2203389,E,2,11,0.8,-1.293,M,40.593,M,3.2,0123*6C\r\n
$GPGGA,122211.25,5703.3725351,N,00952.2202327,E,2,11,0.8,-1.295,M,40.593,M,3.5,0123*6D\r\n
$GPGGA,122211.30,5703.3725363,N,00952.2201257,E,2,11,0.8,-1.295,M,40.593,M,3.5,0123*6D\r\n
$GPGGA,122211.35,5703.3725379,N,00952.2200200,E,2,11,0.8,-1.294,M,40.593,M,3.5,0123*61\r\n
$GPGGA,122211.40,5703.3725399,N,00952.2199153,E,2,11,0.8,-1.295,M,40.593,M,3.5,0123*6A\r\n
$GPGGA,122211.45,5703.3725422,N,00952.2198112,E,2,11,0.8,-1.295,M,40.593,M,3.7,0123*6E\r\n
$GPGGA,122211.50,5703.3725432,N,00952.2197061,E,2,11,0.8,-1.295,M,40.593,M,3.7,0123*61\r\n
$GPGGA,122211.55,5703.3725451,N,00952.2195993,E,2,11,0.8,-1.295,M,40.593,M,3.7,0123*67\r\n
$GPGGA,122211.60,5703.3725475,N,00952.2194939,E,2,11,0.8,-1.294,M,40.593,M,3.7,0123*67\r\n
$GPGGA,122211.65,5703.3725488,N,00952.2193904,E,2,11,0.8,-1.297,M,40.593,M,3.9,0123*64\r\n
$GPGGA,122211.70,5703.3725509,N,00952.2192850,E,2,11,0.8,-1.297,M,40.593,M,3.9,0123*69\r\n
$GPGGA,122211.75,5703.3725526,N,00952.2191795,E,2,11,0.8,-1.298,M,40.593,M,3.9,0123*6B\r\n
$GPGGA,122211.80,5703.3725537,N,00952.2190745,E,2,11,0.8,-1.299,M,40.593,M,3.9,0123*6C\r\n
$GPGGA,122211.85,5703.3725557,N,00952.2189702,E,2,11,0.8,-1.298,M,40.593,M,4.1,0123*6A\r\n
$GPGGA,122211.90,5703.3725566,N,00952.2188667,E,2,11,0.8,-1.298,M,40.593,M,4.1,0123*6F\r\n
$GPGGA,122211.95,5703.3725588,N,00952.2187619,E,2,11,0.8,-1.296,M,40.593,M,4.1,0123*62\r\n
$GPGGA,122212.00,5703.3725611,N,00952.2186560,E,2,11,0.8,-1.295,M,40.593,M,4.1,0123*61\r\n
$GPGGA,122212.05,5703.3725644,N,00952.2185526,E,2,11,0.8,-1.295,M,40.593,M,4.3,0123*67\r\n
$GPGGA,122212.10,5703.3725659,N,00952.2184474,E,2,11,0.8,-1.296,M,40.593,M,4.3,0123*6B\r\n
$GPGGA,122212.15,5703.3725688,N,00952.2183434,E,2,11,0.8,-1.295,M,40.593,M,4.3,0123*62\r\n
$GPGGA,122212.20,5703.3725701,N,00952.2182392,E,2,11,0.8,-1.295,M,40.593,M,4.3,0123*6E\r\n
$GPGGA,122212.25,5703.3725712,N,00952.2181352,E,2,11,0.8,-1.295,M,40.593,M,1.8,0123*68\r\n
$GPGGA,122212.30,5703.3725736,N,00952.2180292,E,2,11,0.8,-1.296,M,40.593,M,1.8,0123*65\r\n
$GPGGA,122212.35,5703.3725759,N,00952.2179255,E,2,11,0.8,-1.296,M,40.593,M,1.8,0123*64\r\n
$GPGGA,122212.40,5703.3725787,N,00952.2178219,E,2,11,0.8,-1.296,M,40.593,M,1.8,0123*6C\r\n
$GPGGA,122212.45,5703.3725801,N,00952.2177175,E,2,11,0.8,-1.295,M,40.593,M,2.1,0123*67\r\n
$GPGGA,122212.50,5703.3725819,N,00952.2176127,E,2,11,0.8,-1.294,M,40.593,M,2.1,0123*6D\r\n
$GPGGA,122212.55,5703.3725840,N,00952.2175069,E,2,11,0.8,-1.296,M,40.593,M,2.1,0123*6E\r\n
$GPGGA,122212.60,5703.3725865,N,00952.2174015,E,2,11,0.8,-1.296,M,40.593,M,2.1,0123*65\r\n
$GPGGA,122212.65,5703.3725882,N,00952.2172962,E,2,11,0.8,-1.299,M,40.593,M,2.3,0123*6B\r\n
$GPGGA,122212.70,5703.3725895,N,00952.2171914,E,2,11,0.8,-1.300,M,40.593,M,2.3,0123*6A\r\n
$GPGGA,122212.75,5703.3725908,N,00952.2170862,E,2,11,0.8,-1.301,M,40.593,M,2.3,0123*6A\r\n
$GPGGA,122212.80,5703.3725908,N,00952.2169818,E,2,11,0.8,-1.303,M,40.593,M,2.3,0123*67\r\n
$GPGGA,122212.85,5703.3725922,N,00952.2168772,E,2,11,0.8,-1.302,M,40.593,M,2.6,0123*6C\r\n
$GPGGA,122212.90,5703.3725937,N,00952.2167717,E,2,11,0.8,-1.303,M,40.593,M,2.6,0123*61\r\n
$GPGGA,122212.95,5703.3725955,N,00952.2166664,E,2,11,0.8,-1.303,M,40.593,M,2.6,0123*64\r\n
$GPGGA,122213.00,5703.3725968,N,00952.2165628,E,2,11,0.8,-1.303,M,40.593,M,2.6,0123*6C\r\n
$GPGGA,122213.05,5703.3725978,N,00952.2164592,E,2,11,0.8,-1.302,M,40.593,M,2.8,0123*64\r\n
$GPGGA,122213.10,5703.3725988,N,00952.2163536,E,2,11,0.8,-1.302,M,40.593,M,2.8,0123*66\r\n
$GPGGA,122213.15,5703.3726005,N,00952.2162488,E,2,11,0.8,-1.301,M,40.593,M,2.8,0123*6A\r\n
$GPGGA,122213.20,5703.3726019,N,00952.2161437,E,2,11,0.8,-1.304,M,40.593,M,2.8,0123*63\r\n
$GPGGA,122213.25,5703.3726030,N,00952.2160397,E,2,11,0.8,-1.301,M,40.593,M,1.7,0123*68\r\n
$GPGGA,122213.30,5703.3726038,N,00952.2159347,E,2,11,0.8,-1.301,M,40.593,M,1.7,0123*63\r\n
$GPGGA,122213.35,5703.3726062,N,00952.2158293,E,2,11,0.8,-1.299,M,40.593,M,1.7,0123*60\r\n
$GPGGA,122213.40,5703.3726075,N,00952.2157251,E,2,11,0.8,-1.298,M,40.593,M,1.7,0123*64\r\n
$GPGGA,122213.45,5703.3726073,N,00952.2156197,E,2,11,0.8,-1.300,M,40.593,M,1.9,0123*61\r\n
$GPGGA,122213.50,5703.3726075,N,00952.2155149,E,2,11,0.8,-1.302,M,40.593,M,1.9,0123*61\r\n
$GPGGA,122213.55,5703.3726084,N,00952.2154097,E,2,11,0.8,-1.303,M,40.593,M,1.9,0123*68\r\n
$GPGGA,122213.60,5703.3726099,N,00952.2153051,E,2,11,0.8,-1.302,M,40.593,M,1.9,0123*6E\r\n
$GPGGA,122213.65,5703.3726110,N,00952.2151999,E,2,11,0.8,-1.302,M,40.593,M,2.2,0123*6C\r\n
$GPGGA,122213.70,5703.3726109,N,00952.2150951,E,2,11,0.8,-1.303,M,40.593,M,2.2,0123*64\r\n
$GPGGA,122213.75,5703.3726112,N,00952.2149912,E,2,11,0.8,-1.304,M,40.593,M,2.2,0123*63\r\n
$GPGGA,122213.80,5703.3726110,N,00952.2148876,E,2,11,0.8,-1.304,M,40.593,M,2.2,0123*69\r\n
$GPGGA,122213.85,5703.3726110,N,00952.2147835,E,2,11,0.8,-1.301,M,40.593,M,2.4,0123*67\r\n
$GPGGA,122213.90,5703.3726109,N,00952.2146793,E,2,11,0.8,-1.299,M,40.593,M,2.4,0123*69\r\n
$GPGGA,122213.95,5703.3726099,N,00952.2145749,E,2,11,0.8,-1.298,M,40.593,M,2.4,0123*61\r\n
$GPGGA,122214.00,5703.3726089,N,00952.2144722,E,2,11,0.8,-1.296,M,40.593,M,2.4,0123*69\r\n
$GPGGA,122214.05,5703.3726089,N,00952.2143674,E,2,11,0.8,-1.294,M,40.593,M,2.6,0123*69\r\n
$GPGGA,122214.10,5703.3726070,N,00952.2142624,E,2,11,0.8,-1.295,M,40.593,M,2.6,0123*6E\r\n
$GPGGA,122214.15,5703.3726052,N,00952.2141588,E,2,11,0.8,-1.296,M,40.593,M,2.6,0123*6E\r\n
$GPGGA,122214.20,5703.3726053,N,00952.2140551,E,2,11,0.8,-1.295,M,40.593,M,2.6,0123*6F\r\n
$GPGGA,122214.25,5703.3726047,N,00952.2139523,E,2,11,0.8,-1.296,M,40.593,M,2.4,0123*65\r\n
$GPGGA,122214.30,5703.3726031,N,00952.2138479,E,2,11,0.8,-1.296,M,40.593,M,2.4,0123*6F\r\n
$GPGGA,122214.35,5703.3726008,N,00952.2137440,E,2,11,0.8,-1.292,M,40.593,M,2.4,0123*61\r\n
$GPGGA,122214.40,5703.3725974,N,00952.2136406,E,2,11,0.8,-1.292,M,40.593,M,2.4,0123*61\r\n
$GPGGA,122214.45,5703.3725941,N,00952.2135361,E,2,11,0.8,-1.295,M,40.593,M,2.6,0123*62\r\n
$GPGGA,122214.50,5703.3725921,N,00952.2134332,E,2,10,0.8,-1.294,M,40.593,M,2.6,0123*67\r\n
$GPGGA,122214.55,5703.3725885,N,00952.2133310,E,2,10,0.8,-1.293,M,40.593,M,2.6,0123*6D\r\n
$GPGGA,122214.60,5703.3725849,N,00952.2132275,E,2,10,0.8,-1.291,M,40.593,M,2.6,0123*6A\r\n
$GPGGA,122214.65,5703.3725811,N,00952.2131250,E,2,10,0.8,-1.292,M,40.593,M,2.8,0123*6B\r\n
$GPGGA,122214.70,5703.3725781,N,00952.2130235,E,2,10,0.8,-1.291,M,40.593,M,2.8,0123*68\r\n
$GPGGA,122214.75,5703.3725732,N,00952.2129222,E,2,10,0.8,-1.290,M,40.593,M,2.8,0123*6A\r\n
$GPGGA,122214.80,5703.3725688,N,00952.2128196,E,2,10,0.8,-1.289,M,40.593,M,2.8,0123*65\r\n
$GPGGA,122214.85,5703.3725638,N,00952.2127181,E,2,10,0.8,-1.294,M,40.593,M,3.0,0123*67\r\n
$GPGGA,122214.90,5703.3725591,N,00952.2126154,E,2,10,0.8,-1.296,M,40.593,M,3.0,0123*68\r\n
$GPGGA,122214.95,5703.3725546,N,00952.2125147,E,2,10,0.8,-1.294,M,40.593,M,3.0,0123*64\r\n
$GPGGA,122215.00,5703.3725493,N,00952.2124140,E,2,10,0.8,-1.293,M,40.593,M,3.0,0123*61\r\n
$GPGGA,122215.05,5703.3725433,N,00952.2123127,E,2,10,0.8,-1.291,M,40.593,M,3.2,0123*68\r\n
$GPGGA,122215.10,5703.3725375,N,00952.2122122,E,2,10,0.8,-1.292,M,40.593,M,3.2,0123*6E\r\n
$GPGGA,122215.15,5703.3725316,N,00952.2121100,E,2,10,0.8,-1.291,M,40.593,M,3.2,0123*6E\r\n
$GPGGA,122215.20,5703.3725255,N,00952.2120076,E,2,10,0.8,-1.289,M,40.593,M,3.2,0123*66\r\n
$GPGGA,122215.25,5703.3725182,N,00952.2119068,E,2,11,0.8,-1.290,M,40.593,M,3.5,0123*61\r\n
$GPGGA,122215.30,5703.3725112,N,00952.2118076,E,2,11,0.8,-1.292,M,40.593,M,3.5,0123*60\r\n
$GPGGA,122215.35,5703.3725043,N,00952.2117075,E,2,11,0.8,-1.291,M,40.593,M,3.5,0123*6F\r\n
$GPGGA,122215.40,5703.3724983,N,00952.2116073,E,2,11,0.8,-1.288,M,40.593,M,3.5,0123*66\r\n
$GPGGA,122215.45,5703.3724917,N,00952.2115068,E,2,11,0.8,-1.290,M,40.593,M,3.7,0123*6C\r\n
$GPGGA,122215.50,5703.3724843,N,00952.2114055,E,2,11,0.8,-1.290,M,40.593,M,3.7,0123*67\r\n
$GPGGA,122215.55,5703.3724784,N,00952.2113052,E,2,11,0.8,-1.290,M,40.593,M,3.7,0123*66\r\n
$GPGGA,122215.60,5703.3724712,N,00952.2112048,E,2,11,0.8,-1.291,M,40.593,M,3.7,0123*64\r\n
$GPGGA,122215.65,5703.3724640,N,00952.2111064,E,2,11,0.8,-1.289,M,40.593,M,3.9,0123*6D\r\n
$GPGGA,122215.70,5703.3724560,N,00952.2110075,E,2,11,0.8,-1.291,M,40.593,M,3.9,0123*60\r\n
$GPGGA,122215.75,5703.3724474,N,00952.2109068,E,2,11,0.8,-1.294,M,40.593,M,3.9,0123*60\r\n
$GPGGA,122215.80,5703.3724386,N,00952.2108083,E,2,11,0.8,-1.296,M,40.593,M,3.9,0123*66\r\n
$GPGGA,122215.85,5703.3724310,N,00952.2107096,E,2,11,0.8,-1.300,M,40.593,M,4.1,0123*66\r\n
$GPGGA,122215.90,5703.3724229,N,00952.2106100,E,2,11,0.8,-1.302,M,40.593,M,4.1,0123*64\r\n
$GPGGA,122215.95,5703.3724130,N,00952.2105105,E,2,11,0.8,-1.303,M,40.593,M,4.1,0123*6D\r\n
$GPGGA,122216.00,5703.3724033,N,00952.2104124,E,2,11,0.8,-1.304,M,40.593,M,4.1,0123*65\r\n
$GPGGA,122216.05,5703.3723946,N,00952.2103147,E,2,11,0.8,-1.300,M,40.593,M,4.3,0123*68\r\n
$GPGGA,122216.10,5703.3723851,N,00952.2102163,E,2,11,0.8,-1.300,M,40.593,M,4.3,0123*6C\r\n
$GPGGA,122216.15,5703.3723754,N,00952.2101171,E,2,11,0.8,-1.302,M,40.593,M,4.3,0123*61\r\n
$GPGGA,122216.20,5703.3723656,N,00952.2100187,E,2,11,0.8,-1.304,M,40.593,M,4.3,0123*6A\r\n
$GPGGA,122216.25,5703.3723548,N,00952.2099191,E,2,11,0.8,-1.308,M,40.593,M,1.8,0123*67\r\n
$GPGGA,122216.30,5703.3723451,N,00952.2098206,E,2,11,0.8,-1.306,M,40.593,M,1.8,0123*68\r\n
$GPGGA,122216.35,5703.3723344,N,00952.2097226,E,2,11,0.8,-1.306,M,40.593,M,1.8,0123*63\r\n
$GPGGA,122216.40,5703.3723230,N,00952.2096246,E,2,11,0.8,-1.309,M,40.593,M,1.8,0123*6B\r\n
$GPGGA,122216.45,5703.3723117,N,00952.2095284,E,2,11,0.8,-1.307,M,40.593,M,2.1,0123*61\r\n
$GPGGA,122216.50,5703.3722992,N,00952.2094296,E,2,11,0.8,-1.308,M,40.593,M,2.1,0123*6C\r\n
$GPGGA,122216.55,5703.3722871,N,00952.2093313,E,2,11,0.8,-1.307,M,40.593,M,2.1,0123*61\r\n
$GPGGA,122216.60,5703.3722755,N,00952.2092333,E,2,11,0.8,-1.307,M,40.593,M,2.1,0123*6D\r\n
$GPGGA,122216.65,5703.3722627,N,00952.2091366,E,2,11,0.8,-1.304,M,40.593,M,2.3,0123*6E\r\n
$GPGGA,122216.70,5703.3722500,N,00952.2090400,E,2,11,0.8,-1.304,M,40.593,M,2.3,0123*6A\r\n
$GPGGA,122216.75,5703.3722373,N,00952.2089427,E,2,11,0.8,-1.305,M,40.593,M,2.3,0123*61\r\n
$GPGGA,122216.80,5703.3722235,N,00952.2088453,E,2,11,0.8,-1.306,M,40.593,M,2.3,0123*69\r\n
$GPGGA,122216.85,5703.3722097,N,00952.2087488,E,2,11,0.8,-1.307,M,40.593,M,2.6,0123*6B\r\n
$GPGGA,122216.90,5703.3721966,N,00952.2086522,E,2,11,0.8,-1.308,M,40.593,M,2.6,0123*64\r\n
$GPGGA,122216.95,5703.3721834,N,00952.2085553,E,2,11,0.8,-1.307,M,40.593,M,2.6,0123*6D\r\n
$GPGGA,122217.00,5703.3721689,N,00952.2084597,E,2,11,0.8,-1.307,M,40.593,M,2.6,0123*61\r\n
$GPGGA,122217.05,5703.3721534,N,00952.2083642,E,2,11,0.8,-1.303,M,40.593,M,2.8,0123*67\r\n
$GPGGA,122217.10,5703.3721376,N,00952.2082686,E,2,11,0.8,-1.304,M,40.593,M,2.8,0123*6D\r\n
$GPGGA,122217.15,5703.3721219,N,00952.2081716,E,2,11,0.8,-1.304,M,40.593,M,2.8,0123*6B\r\n
$GPGGA,122217.20,5703.3721054,N,00952.2080752,E,2,11,0.8,-1.302,M,40.593,M,2.8,0123*61\r\n
$GPGGA,122217.25,5703.3720899,N,00952.2079802,E,2,11,0.8,-1.302,M,40.593,M,1.7,0123*6C\r\n
$GPGGA,122217.30,5703.3720735,N,00952.2078857,E,2,11,0.8,-1.302,M,40.593,M,1.7,0123*60\r\n
$GPGGA,122217.35,5703.3720562,N,00952.2077912,E,2,11,0.8,-1.303,M,40.593,M,1.7,0123*6B\r\n
$GPGGA,122217.40,5703.3720385,N,00952.2076971,E,2,11,0.8,-1.303,M,40.593,M,1.7,0123*62\r\n
$GPGGA,122217.45,5703.3720214,N,00952.2076024,E,2,11,0.8,-1.299,M,40.593,M,1.9,0123*6B\r\n
$GPGGA,122217.50,5703.3720043,N,00952.2075076,E,2,11,0.8,-1.298,M,40.593,M,1.9,0123*6A\r\n
$GPGGA,122217.55,5703.3719859,N,00952.2074136,E,2,11,0.8,-1.300,M,40.593,M,1.9,0123*62\r\n
$GPGGA,122217.60,5703.3719686,N,00952.2073214,E,2,11,0.8,-1.301,M,40.593,M,1.9,0123*6D\r\n
$GPGGA,122217.65,5703.3719513,N,00952.2072288,E,2,11,0.8,-1.299,M,40.593,M,2.2,0123*6B\r\n
$GPGGA,122217.70,5703.3719327,N,00952.2071351,E,2,11,0.8,-1.299,M,40.593,M,2.2,0123*68\r\n
$GPGGA,122217.75,5703.3719127,N,00952.2070415,E,2,11,0.8,-1.299,M,40.593,M,2.2,0123*69\r\n
$GPGGA,122217.80,5703.3718926,N,00952.2069499,E,2,11,0.8,-1.298,M,40.593,M,2.2,0123*66\r\n
$GPGGA,122217.85,5703.3718736,N,00952.2068601,E,2,11,0.8,-1.295,M,40.593,M,2.4,0123*65\r\n
$GPGGA,122217.90,5703.3718535,N,00952.2067700,E,2,11,0.8,-1.297,M,40.593,M,2.4,0123*6D\r\n
$GPGGA,122217.95,5703.3718324,N,00952.2066801,E,2,11,0.8,-1.295,M,40.593,M,2.4,0123*63\r\n
$GPGGA,122218.00,5703.3718120,N,00952.2065902,E,2,11,0.8,-1.294,M,40.593,M,2.4,0123*66\r\n
$GPGGA,122218.05,5703.3717918,N,00952.2065013,E,2,11,0.8,-1.293,M,40.593,M,2.6,0123*63\r\n
$GPGGA,122218.10,5703.3717708,N,00952.2064122,E,2,11,0.8,-1.292,M,40.593,M,2.6,0123*6B\r\n
$GPGGA,122218.15,5703.3717486,N,00952.2063240,E,2,11,0.8,-1.292,M,40.593,M,2.6,0123*6B\r\n
$GPGGA,122218.20,5703.3717269,N,00952.2062378,E,2,11,0.8,-1.290,M,40.593,M,2.6,0123*63\r\n
$GPGGA,122218.25,5703.3717046,N,00952.2061511,E,2,11,0.8,-1.290,M,40.593,M,2.4,0123*61\r\n
$GPGGA,122218.30,5703.3716825,N,00952.2060641,E,2,11,0.8,-1.290,M,40.593,M,2.4,0123*6E\r\n
$GPGGA,122218.35,5703.3716600,N,00952.2059768,E,2,11,0.8,-1.292,M,40.593,M,2.4,0123*60\r\n
$GPGGA,122218.40,5703.3716381,N,00952.2058906,E,2,11,0.8,-1.293,M,40.593,M,2.4,0123*68\r\n
$GPGGA,122218.45,5703.3716143,N,00952.2058047,E,2,11,0.8,-1.297,M,40.593,M,2.6,0123*6B\r\n
$GPGGA,122218.50,5703.3715892,N,00952.2057199,E,2,11,0.8,-1.299,M,40.593,M,2.6,0123*6A\r\n
$GPGGA,122218.55,5703.3715643,N,00952.2056353,E,2,11,0.8,-1.300,M,40.593,M,2.6,0123*69\r\n
$GPGGA,122218.60,5703.3715400,N,00952.2055519,E,2,11,0.8,-1.299,M,40.593,M,2.6,0123*60\r\n
$GPGGA,122218.65,5703.3715157,N,00952.2054687,E,2,11,0.8,-1.296,M,40.593,M,2.8,0123*66\r\n
$GPGGA,122218.70,5703.3714908,N,00952.2053868,E,2,11,0.8,-1.298,M,40.593,M,2.8,0123*67\r\n
$GPGGA,122218.75,5703.3714650,N,00952.2053063,E,2,11,0.8,-1.298,M,40.593,M,2.8,0123*63\r\n
$GPGGA,122218.80,5703.3714400,N,00952.2052250,E,2,11,0.8,-1.297,M,40.593,M,2.8,0123*62\r\n
$GPGGA,122218.85,5703.3714140,N,00952.2051428,E,2,11,0.8,-1.299,M,40.593,M,3.0,0123*6B\r\n
$GPGGA,122218.90,5703.3713877,N,00952.2050619,E,2,11,0.8,-1.298,M,40.593,M,3.0,0123*65\r\n
$GPGGA,122218.95,5703.3713605,N,00952.2049813,E,2,11,0.8,-1.299,M,40.593,M,3.0,0123*66\r\n
$GPGGA,122219.00,5703.3713332,N,00952.2049014,E,2,11,0.8,-1.298,M,40.593,M,3.0,0123*64\r\n
$GPGGA,122219.05,5703.3713070,N,00952.2048235,E,2,11,0.8,-1.298,M,40.593,M,3.2,0123*66\r\n
$GPGGA,122219.10,5703.3712798,N,00952.2047460,E,2,11,0.8,-1.297,M,40.593,M,3.2,0123*64\r\n
$GPGGA,122219.15,5703.3712520,N,00952.2046691,E,2,11,0.8,-1.295,M,40.593,M,3.2,0123*6F\r\n
$GPGGA,122219.20,5703.3712238,N,00952.2045921,E,2,11,0.8,-1.295,M,40.593,M,3.2,0123*60\r\n
$GPGGA,122219.25,5703.3711957,N,00952.2045163,E,2,11,0.8,-1.296,M,40.593,M,3.5,0123*6E\r\n
$GPGGA,122219.30,5703.3711671,N,00952.2044400,E,2,11,0.8,-1.295,M,40.593,M,3.5,0123*63\r\n
$GPGGA,122219.35,5703.3711376,N,00952.2043667,E,2,11,0.8,-1.295,M,40.593,M,3.5,0123*60\r\n
$GPGGA,122219.40,5703.3711078,N,00952.2042923,E,2,11,0.8,-1.296,M,40.593,M,3.5,0123*62\r\n
$GPGGA,122219.45,5703.3710771,N,00952.2042188,E,2,11,0.8,-1.297,M,40.593,M,3.7,0123*62\r\n
$GPGGA,122219.50,5703.3710470,N,00952.2041461,E,2,11,0.8,-1.294,M,40.593,M,3.7,0123*66\r\n
$GPGGA,122219.55,5703.3710165,N,00952.2040755,E,2,11,0.8,-1.294,M,40.593,M,3.7,0123*67\r\n
$GPGGA,122219.60,5703.3709858,N,00952.2040048,E,2,11,0.8,-1.295,M,40.593,M,3.7,0123*64\r\n
$GPGGA,122219.65,5703.3709556,N,00952.2039354,E,2,11,0.8,-1.298,M,40.593,M,3.9,0123*61\r\n
$GPGGA,122219.70,5703.3709248,N,00952.2038664,E,2,11,0.8,-1.296,M,40.593,M,3.9,0123*64\r\n
$GPGGA,122219.75,5703.3708932,N,00952.2037968,E,2,11,0.8,-1.296,M,40.593,M,3.9,0123*6A\r\n
$GPGGA,122219.80,5703.3708610,N,00952.2037297,E,2,11,0.8,-1.297,M,40.593,M,3.9,0123*65\r\n
$GPGGA,122219.85,5703.3708286,N,00952.2036634,E,2,11,0.8,-1.301,M,40.593,M,4.1,0123*66\r\n
$GPGGA,122219.90,5703.3707958,N,00952.2035974,E,2,11,0.8,-1.301,M,40.593,M,4.1,0123*6D\r\n
$GPGGA,122219.95,5703.3707643,N,00952.2035332,E,2,11,0.8,-1.301,M,40.593,M,4.1,0123*65\r\n
$GPGGA,122220.00,5703.3707313,N,00952.2034689,E,2,11,0.8,-1.299,M,40.593,M,4.1,0123*67\r\n
$GPGGA,122220.05,5703.3706984,N,00952.2034061,E,2,11,0.8,-1.298,M,40.593,M,4.3,0123*64\r\n
$GPGGA,122220.10,5703.3706648,N,00952.2033436,E,2,11,0.8,-1.299,M,40.593,M,4.3,0123*6F\r\n
$GPGGA,122220.15,5703.3706304,N,00952.2032815,E,2,11,0.8,-1.297,M,40.593,M,4.3,0123*65\r\n
$GPGGA,122220.20,5703.3705968,N,00952.2032196,E,2,11,0.8,-1.296,M,40.593,M,4.3,0123*63\r\n
$GPGGA,122220.25,5703.3705625,N,00952.2031591,E,2,11,0.8,-1.298,M,40.593,M,1.8,0123*60\r\n
$GPGGA,122220.30,5703.3705270,N,00952.2031010,E,2,11,0.8,-1.299,M,40.593,M,1.8,0123*6D\r\n
$GPGGA,122220.35,5703.3704908,N,00952.2030429,E,2,11,0.8,-1.299,M,40.593,M,1.8,0123*62\r\n
$GPGGA,122220.40,5703.3704553,N,00952.2029868,E,2,11,0.8,-1.296,M,40.593,M,1.8,0123*6C\r\n
$GPGGA,122220.45,5703.3704196,N,00952.2029305,E,2,11,0.8,-1.287,M,40.593,M,2.1,0123*6E\r\n
$GPGGA,122220.50,5703.3703829,N,00952.2028726,E,2,11,0.8,-1.285,M,40.593,M,2.1,0123*66\r\n
$GPGGA,122220.55,5703.3703456,N,00952.2028181,E,2,11,0.8,-1.282,M,40.593,M,2.1,0123*6B\r\n
$GPGGA,122220.60,5703.3703089,N,00952.2027642,E,2,11,0.8,-1.280,M,40.593,M,2.1,0123*6E\r\n
$GPGGA,122220.65,5703.3702712,N,00952.2027103,E,2,11,0.8,-1.283,M,40.593,M,2.3,0123*6C\r\n
$GPGGA,122220.70,5703.3702330,N,00952.2026590,E,2,11,0.8,-1.283,M,40.593,M,2.3,0123*63\r\n
$GPGGA,122220.75,5703.3701943,N,00952.2026094,E,2,11,0.8,-1.278,M,40.593,M,2.3,0123*6E\r\n
$GPGGA,122220.80,5703.3701562,N,00952.2025585,E,2,11,0.8,-1.276,M,40.593,M,2.3,0123*63\r\n
$GPGGA,122220.85,5703.3701192,N,00952.2025086,E,2,11,0.8,-1.275,M,40.593,M,2.6,0123*6D\r\n
$GPGGA,122220.90,5703.3700805,N,00952.2024599,E,2,11,0.8,-1.274,M,40.593,M,2.6,0123*64\r\n
$GPGGA,122220.95,5703.3700413,N,00952.2024122,E,2,11,0.8,-1.271,M,40.593,M,2.6,0123*6B\r\n
$GPGGA,122221.00,5703.3700029,N,00952.2023652,E,2,11,0.8,-1.270,M,40.593,M,2.6,0123*6D\r\n
$GPGGA,122221.05,5703.3699634,N,00952.2023181,E,2,11,0.8,-1.275,M,40.593,M,2.8,0123*61\r\n
$GPGGA,122221.10,5703.3699229,N,00952.2022739,E,2,11,0.8,-1.277,M,40.593,M,2.8,0123*6B\r\n
$GPGGA,122221.15,5703.3698815,N,00952.2022314,E,2,11,0.8,-1.280,M,40.593,M,2.8,0123*69\r\n
$GPGGA,122221.20,5703.3698407,N,00952.2021900,E,2,11,0.8,-1.280,M,40.593,M,2.8,0123*6C\r\n
$GPGGA,122221.25,5703.3698003,N,00952.2021503,E,2,11,0.8,-1.274,M,40.593,M,1.7,0123*61\r\n
$GPGGA,122221.30,5703.3697599,N,00952.2021121,E,2,11,0.8,-1.273,M,40.593,M,1.7,0123*6F\r\n
$GPGGA,122221.35,5703.3697178,N,00952.2020746,E,2,11,0.8,-1.272,M,40.593,M,1.7,0123*66\r\n
$GPGGA,122221.40,5703.3696756,N,00952.2020377,E,2,11,0.8,-1.271,M,40.593,M,1.7,0123*6A\r\n
$GPGGA,122221.45,5703.3696332,N,00952.2019989,E,2,11,0.8,-1.270,M,40.593,M,1.9,0123*67\r\n
$GPGGA,122221.50,5703.3695897,N,00952.2019634,E,2,11,0.8,-1.271,M,40.593,M,1.9,0123*6C\r\n
$GPGGA,122221.55,5703.3695464,N,00952.2019319,E,2,11,0.8,-1.271,M,40.593,M,1.9,0123*63\r\n
$GPGGA,122221.60,5703.3695046,N,00952.2019026,E,2,11,0.8,-1.266,M,40.593,M,1.9,0123*68\r\n
$GPGGA,122221.65,5703.3694627,N,00952.2018721,E,2,11,0.8,-1.265,M,40.593,M,2.2,0123*67\r\n
$GPGGA,122221.70,5703.3694198,N,00952.2018392,E,2,11,0.8,-1.267,M,40.593,M,2.2,0123*6E\r\n
$GPGGA,122221.75,5703.3693766,N,00952.2018107,E,2,11,0.8,-1.266,M,40.593,M,2.2,0123*64\r\n
$GPGGA,122221.80,5703.3693330,N,00952.2017841,E,2,11,0.8,-1.264,M,40.593,M,2.2,0123*6F\r\n
$GPGGA,122221.85,5703.3692899,N,00952.2017587,E,2,11,0.8,-1.256,M,40.593,M,2.4,0123*63\r\n
$GPGGA,122221.90,5703.3692461,N,00952.2017339,E,2,11,0.8,-1.253,M,40.593,M,2.4,0123*6A\r\n
$GPGGA,122221.95,5703.3692011,N,00952.2017102,E,2,11,0.8,-1.252,M,40.593,M,2.4,0123*67\r\n
$GPGGA,122222.00,5703.3691572,N,00952.2016875,E,2,11,0.8,-1.253,M,40.593,M,2.4,0123*62\r\n
$GPGGA,122222.05,5703.3691137,N,00952.2016665,E,2,11,0.8,-1.248,M,40.593,M,2.6,0123*65\r\n
$GPGGA,122222.10,5703.3690690,N,00952.2016458,E,2,11,0.8,-1.250,M,40.593,M,2.6,0123*6F\r\n
$GPGGA,122222.15,5703.3690252,N,00952.2016272,E,2,11,0.8,-1.250,M,40.593,M,2.6,0123*6E\r\n
$GPGGA,122222.20,5703.3689800,N,00952.2016114,E,2,11,0.8,-1.247,M,40.593,M,2.6,0123*68\r\n
$GPGGA,122222.25,5703.3689345,N,00952.2015967,E,2,11,0.8,-1.248,M,40.593,M,2.4,0123*65\r\n
$GPGGA,122222.30,5703.3688893,N,00952.2015832,E,2,11,0.8,-1.247,M,40.593,M,2.4,0123*6E\r\n
$GPGGA,122222.35,5703.3688445,N,00952.2015694,E,2,11,0.8,-1.248,M,40.593,M,2.4,0123*61\r\n
$GPGGA,122222.40,5703.3687998,N,00952.2015573,E,2,11,0.8,-1.251,M,40.593,M,2.4,0123*63\r\n
$GPGGA,122222.45,5703.3687550,N,00952.2015488,E,2,11,0.8,-1.254,M,40.593,M,2.6,0123*6C\r\n
$GPGGA,122222.50,5703.3687104,N,00952.2015419,E,2,11,0.8,-1.255,M,40.593,M,2.6,0123*64\r\n
$GPGGA,122222.55,5703.3686649,N,00952.2015343,E,2,11,0.8,-1.258,M,40.593,M,2.6,0123*6B\r\n
$GPGGA,122222.60,5703.3686209,N,00952.2015287,E,2,11,0.8,-1.260,M,40.593,M,2.6,0123*6F\r\n
$GPGGA,122222.65,5703.3685761,N,00952.2015241,E,2,11,0.8,-1.258,M,40.593,M,2.8,0123*6D\r\n
$GPGGA,122222.70,5703.3685319,N,00952.2015200,E,2,11,0.8,-1.256,M,40.593,M,2.8,0123*69\r\n
$GPGGA,122222.75,5703.3684871,N,00952.2015194,E,2,11,0.8,-1.258,M,40.593,M,2.8,0123*68\r\n
$GPGGA,122222.80,5703.3684413,N,00952.2015197,E,2,11,0.8,-1.260,M,40.593,M,2.8,0123*62\r\n
$GPGGA,122222.85,5703.3683958,N,00952.2015193,E,2,11,0.8,-1.262,M,40.593,M,3.0,0123*6D\r\n
$GPGGA,122222.90,5703.3683510,N,00952.2015217,E,2,11,0.8,-1.260,M,40.593,M,3.0,0123*64\r\n
$GPGGA,122222.95,5703.3683075,N,00952.2015271,E,2,11,0.8,-1.260,M,40.593,M,3.0,0123*67\r\n
$GPGGA,122223.00,5703.3682637,N,00952.2015322,E,2,11,0.8,-1.260,M,40.593,M,3.0,0123*6C\r\n
$GPGGA,122223.05,5703.3682199,N,00952.2015381,E,2,11,0.8,-1.258,M,40.593,M,3.2,0123*6A\r\n
$GPGGA,122223.10,5703.3681749,N,00952.2015448,E,2,11,0.8,-1.258,M,40.593,M,3.2,0123*64\r\n
$GPGGA,122223.15,5703.3681304,N,00952.2015540,E,2,11,0.8,-1.257,M,40.593,M,3.2,0123*6A\r\n
$GPGGA,122223.20,5703.3680872,N,00952.2015650,E,2,11,0.8,-1.255,M,40.593,M,3.2,0123*67\r\n
$GPGGA,122223.25,5703.3680420,N,00952.2015756,E,2,11,0.8,-1.256,M,40.593,M,3.5,0123*6A\r\n
$GPGGA,122223.30,5703.3679969,N,00952.2015871,E,2,11,0.8,-1.256,M,40.593,M,3.5,0123*62\r\n
$GPGGA,122223.35,5703.3679532,N,00952.2016016,E,2,11,0.8,-1.252,M,40.593,M,3.5,0123*6B\r\n
$GPGGA,122223.40,5703.3679096,N,00952.2016180,E,2,11,0.8,-1.250,M,40.593,M,3.5,0123*6E\r\n
$GPGGA,122223.45,5703.3678660,N,00952.2016341,E,2,11,0.8,-1.251,M,40.593,M,3.7,0123*69\r\n
$GPGGA,122223.50,5703.3678223,N,00952.2016516,E,2,11,0.8,-1.251,M,40.593,M,3.7,0123*6A\r\n
