$GPGGA,122913.15,5703.3721381,N,00952.2542771,E,2,12,0.8,-1.433,M,40.593,M,2.7,0123*60\r\n
$GPGGA,122913.20,5703.3721690,N,00952.2542883,E,2,12,0.8,-1.441,M,40.593,M,2.7,0123*64\r\n
$GPGGA,122913.25,5703.3721998,N,00952.2542995,E,2,12,0.8,-1.453,M,40.593,M,1.6,0123*61\r\n
$GPGGA,122913.30,5703.3722294,N,00952.2543106,E,2,12,0.8,-1.461,M,40.593,M,1.6,0123*63\r\n
$GPGGA,122913.35,5703.3722595,N,00952.2543222,E,2,12,0.8,-1.466,M,40.593,M,1.6,0123*62\r\n
$GPGGA,122913.40,5703.3722892,N,00952.2543367,E,2,12,0.8,-1.468,M,40.593,M,1.6,0123*64\r\n
$GPGGA,122913.45,5703.3723195,N,00952.2543518,E,2,12,0.8,-1.465,M,40.593,M,1.8,0123*63\r\n
$GPGGA,122913.50,5703.3723489,N,00952.2543670,E,2,12,0.8,-1.464,M,40.593,M,1.8,0123*63\r\n
$GPGGA,122913.55,5703.3723777,N,00952.2543833,E,2,12,0.8,-1.462,M,40.593,M,1.8,0123*6B\r\n
$GPGGA,122913.60,5703.3724066,N,00952.2543996,E,2,12,0.8,-1.460,M,40.593,M,1.8,0123*61\r\n
$GPGGA,122913.65,5703.3724349,N,00952.2544161,E,2,12,0.8,-1.459,M,40.593,M,2.0,0123*6C\r\n
$GPGGA,122913.70,5703.3724631,N,00952.2544327,E,2,12,0.8,-1.457,M,40.593,M,2.0,0123*6C\r\n
$GPGGA,122913.75,5703.3724919,N,00952.2544502,E,2,12,0.8,-1.453,M,40.593,M,2.0,0123*69\r\n
$GPGGA,122913.80,5703.3725218,N,00952.2544661,E,2,12,0.8,-1.447,M,40.593,M,2.0,0123*6B\r\n
$GPGGA,122913.85,5703.3725522,N,00952.2544828,E,2,12,0.8,-1.438,M,40.593,M,2.2,0123*69\r\n
$GPGGA,122913.90,5703.3725816,N,00952.2544977,E,2,12,0.8,-1.435,M,40.593,M,2.2,0123*61\r\n
$GPGGA,122913.95,5703.3726114,N,00952.2545108,E,2,12,0.8,-1.431,M,40.593,M,2.2,0123*69\r\n
$GPGGA,122914.00,5703.3726411,N,00952.2545240,E,2,12,0.8,-1.428,M,40.593,M,2.2,0123*65\r\n
$GPGGA,122914.05,5703.3726715,N,00952.2545359,E,2,12,0.8,-1.423,M,40.593,M,2.5,0123*62\r\n
$GPGGA,122914.10,5703.3727017,N,00952.2545474,E,2,12,0.8,-1.422,M,40.593,M,2.5,0123*6B\r\n
$GPGGA,122914.15,5703.3727319,N,00952.2545586,E,2,12,0.8,-1.420,M,40.593,M,2.5,0123*6D\r\n
$GPGGA,122914.20,5703.3727618,N,00952.2545690,E,2,12,0.8,-1.419,M,40.593,M,2.5,0123*61\r\n
$GPGGA,122914.25,5703.3727919,N,00952.2545791,E,2,12,0.8,-1.419,M,40.593,M,2.7,0123*68\r\n
$GPGGA,122914.30,5703.3728214,N,00952.2545897,E,2,12,0.8,-1.421,M,40.593,M,2.7,0123*67\r\n
$GPGGA,122914.35,5703.3728516,N,00952.2545997,E,2,12,0.8,-1.424,M,40.593,M,2.7,0123*63\r\n
$GPGGA,122914.40,5703.3728823,N,00952.2546111,E,2,12,0.8,-1.426,M,40.593,M,2.7,0123*6D\r\n
$GPGGA,122914.45,5703.3729129,N,00952.2546253,E,2,12,0.8,-1.430,M,40.593,M,2.9,0123*66\r\n
$GPGGA,122914.50,5703.3729431,N,00952.2546382,E,2,12,0.8,-1.433,M,40.593,M,2.9,0123*60\r\n
$GPGGA,122914.55,5703.3729732,N,00952.2546521,E,2,12,0.8,-1.435,M,40.593,M,2.9,0123*6C\r\n
$GPGGA,122914.60,5703.3730024,N,00952.2546684,E,2,12,0.8,-1.437,M,40.593,M,2.9,0123*6C\r\n
$GPGGA,122914.65,5703.3730321,N,00952.2546880,E,2,12,0.8,-1.434,M,40.593,M,3.1,0123*6F\r\n
$GPGGA,122914.70,5703.3730619,N,00952.2547051,E,2,12,0.8,-1.434,M,40.593,M,3.1,0123*60\r\n
$GPGGA,122914.75,5703.3730905,N,00952.2547207,E,2,12,0.8,-1.436,M,40.593,M,3.1,0123*64\r\n
$GPGGA,122914.80,5703.3731197,N,00952.2547368,E,2,12,0.8,-1.435,M,40.593,M,3.1,0123*67\r\n
$GPGGA,122914.85,5703.3731489,N,00952.2547538,E,2,12,0.8,-1.441,M,40.593,M,3.3,0123*6A\r\n
$GPGGA,122914.90,5703.3731782,N,00952.2547697,E,2,12,0.8,-1.441,M,40.593,M,3.3,0123*60\r\n
$GPGGA,122914.95,5703.3732075,N,00952.2547846,E,2,12,0.8,-1.441,M,40.593,M,3.3,0123*6B\r\n
$GPGGA,122915.00,5703.3732374,N,00952.2547979,E,2,12,0.8,-1.440,M,40.593,M,3.3,0123*68\r\n
$GPGGA,122915.05,5703.3732680,N,00952.2548111,E,2,12,0.8,-1.433,M,40.593,M,3.5,0123*68\r\n
$GPGGA,122915.10,5703.3732970,N,00952.2548236,E,2,12,0.8,-1.434,M,40.593,M,3.5,0123*6D\r\n
$GPGGA,122915.15,5703.3733272,N,00952.2548345,E,2,12,0.8,-1.436,M,40.593,M,3.5,0123*67\r\n
$GPGGA,122915.20,5703.3733580,N,00952.2548458,E,2,12,0.8,-1.436,M,40.593,M,3.5,0123*60\r\n
$GPGGA,122915.25,5703.3733891,N,00952.2548572,E,2,12,0.8,-1.432,M,40.593,M,3.7,0123*67\r\n
$GPGGA,122915.30,5703.3734194,N,00952.2548677,E,2,12,0.8,-1.434,M,40.593,M,3.7,0123*68\r\n
$GPGGA,122915.35,5703.3734493,N,00952.2548788,E,2,12,0.8,-1.435,M,40.593,M,3.7,0123*6F\r\n
$GPGGA,122915.40,5703.3734797,N,00952.2548888,E,2,12,0.8,-1.436,M,40.593,M,3.7,0123*66\r\n
$GPGGA,122915.45,5703.3735097,N,00952.2549000,E,2,12,0.8,-1.438,M,40.593,M,3.9,0123*6C\r\n
$GPGGA,122915.50,5703.3735393,N,00952.2549123,E,2,12,0.8,-1.438,M,40.593,M,3.9,0123*6F\r\n
$GPGGA,122915.55,5703.3735698,N,00952.2549262,E,2,12,0.8,-1.438,M,40.593,M,3.9,0123*62\r\n
$GPGGA,122915.60,5703.3735997,N,00952.2549417,E,2,12,0.8,-1.435,M,40.593,M,3.9,0123*6D\r\n
$GPGGA,122915.65,5703.3736293,N,00952.2549596,E,2,12,0.8,-1.430,M,40.593,M,4.1,0123*66\r\n
$GPGGA,122915.70,5703.3736594,N,00952.2549786,E,2,12,0.8,-1.429,M,40.593,M,4.1,0123*69\r\n
$GPGGA,122915.75,5703.3736888,N,00952.2549974,E,2,12,0.8,-1.426,M,40.593,M,4.1,0123*60\r\n
$GPGGA,122915.80,5703.3737175,N,00952.2550158,E,2,12,0.8,-1.425,M,40.593,M,4.1,0123*6D\r\n
$GPGGA,122915.85,5703.3737469,N,00952.2550344,E,2,12,0.8,-1.422,M,40.593,M,4.3,0123*6A\r\n
$GPGGA,122915.90,5703.3737766,N,00952.2550527,E,2,12,0.8,-1.419,M,40.593,M,4.3,0123*69\r\n
$GPGGA,122915.95,5703.3738062,N,00952.2550707,E,2,12,0.8,-1.414,M,40.593,M,4.3,0123*6D\r\n
$GPGGA,122916.00,5703.3738350,N,00952.2550872,E,2,12,0.8,-1.410,M,40.593,M,4.3,0123*69\r\n
$GPGGA,122916.05,5703.3738654,N,00952.2551025,E,2,12,0.8,-1.401,M,40.593,M,4.5,0123*60\r\n
$GPGGA,122916.10,5703.3738938,N,00952.2551153,E,2,12,0.8,-1.402,M,40.593,M,4.5,0123*62\r\n
$GPGGA,122916.15,5703.3739232,N,00952.2551276,E,2,12,0.8,-1.400,M,40.593,M,4.5,0123*61\r\n
$GPGGA,122916.20,5703.3739533,N,00952.2551396,E,2,12,0.8,-1.400,M,40.593,M,4.5,0123*6E\r\n
$GPGGA,122916.25,5703.3739835,N,00952.2551502,E,2,12,0.8,-1.403,M,40.593,M,1.8,0123*60\r\n
$GPGGA,122916.30,5703.3740139,N,00952.2551599,E,2,12,0.8,-1.407,M,40.593,M,1.8,0123*69\r\n
$GPGGA,122916.35,5703.3740444,N,00952.2551681,E,2,12,0.8,-1.412,M,40.593,M,1.8,0123*6D\r\n
$GPGGA,122916.40,5703.3740744,N,00952.2551777,E,2,12,0.8,-1.418,M,40.593,M,1.8,0123*6E\r\n
$GPGGA,122916.45,5703.3741044,N,00952.2551896,E,2,12,0.8,-1.425,M,40.593,M,2.0,0123*68\r\n
$GPGGA,122916.50,5703.3741344,N,00952.2552012,E,2,12,0.8,-1.433,M,40.593,M,2.0,0123*6F\r\n
$GPGGA,122916.55,5703.3741643,N,00952.2552122,E,2,12,0.8,-1.440,M,40.593,M,2.0,0123*6E\r\n
$GPGGA,122916.60,5703.3741950,N,00952.2552248,E,2,12,0.8,-1.445,M,40.593,M,2.0,0123*6F\r\n
$GPGGA,122916.65,5703.3742252,N,00952.2552392,E,2,12,0.8,-1.444,M,40.593,M,2.3,0123*64\r\n
$GPGGA,122916.70,5703.3742554,N,00952.2552547,E,2,12,0.8,-1.445,M,40.593,M,2.3,0123*6E\r\n
$GPGGA,122916.75,5703.3742842,N,00952.2552713,E,2,12,0.8,-1.446,M,40.593,M,2.3,0123*61\r\n
$GPGGA,122916.80,5703.3743128,N,00952.2552898,E,2,12,0.8,-1.447,M,40.593,M,2.3,0123*62\r\n
$GPGGA,122916.85,5703.3743419,N,00952.2553094,E,2,12,0.8,-1.439,M,40.593,M,2.5,0123*6A\r\n
$GPGGA,122916.90,5703.3743708,N,00952.2553273,E,2,12,0.8,-1.435,M,40.593,M,2.5,0123*6A\r\n
$GPGGA,122916.95,5703.3743988,N,00952.2553446,E,2,12,0.8,-1.433,M,40.593,M,2.5,0123*6F\r\n
$GPGGA,122917.00,5703.3744263,N,00952.2553638,E,2,12,0.8,-1.428,M,40.593,M,2.5,0123*6A\r\n
$GPGGA,122917.05,5703.3744558,N,00952.2553834,E,2,12,0.8,-1.417,M,40.593,M,2.7,0123*6C\r\n
$GPGGA,122917.10,5703.3744840,N,00952.2554016,E,2,12,0.8,-1.412,M,40.593,M,2.7,0123*66\r\n
$GPGGA,122917.15,5703.3745134,N,00952.2554175,E,2,12,0.8,-1.407,M,40.593,M,2.7,0123*68\r\n
$GPGGA,122917.20,5703.3745425,N,00952.2554332,E,2,12,0.8,-1.402,M,40.593,M,2.7,0123*6F\r\n
$GPGGA,122917.25,5703.3745723,N,00952.2554475,E,2,12,0.8,-1.400,M,40.593,M,1.6,0123*6B\r\n
$GPGGA,122917.30,5703.3746022,N,00952.2554625,E,2,12,0.8,-1.396,M,40.593,M,1.6,0123*65\r\n
$GPGGA,122917.35,5703.3746322,N,00952.2554768,E,2,12,0.8,-1.395,M,40.593,M,1.6,0123*68\r\n
$GPGGA,122917.40,5703.3746614,N,00952.2554896,E,2,12,0.8,-1.395,M,40.593,M,1.6,0123*64\r\n
$GPGGA,122917.45,5703.3746917,N,00952.2555014,E,2,12,0.8,-1.398,M,40.593,M,1.8,0123*6D\r\n
$GPGGA,122917.50,5703.3747212,N,00952.2555135,E,2,12,0.8,-1.402,M,40.593,M,1.8,0123*60\r\n
$GPGGA,122917.55,5703.3747516,N,00952.2555267,E,2,12,0.8,-1.405,M,40.593,M,1.8,0123*65\r\n
$GPGGA,122917.60,5703.3747832,N,00952.2555384,E,2,12,0.8,-1.409,M,40.593,M,1.8,0123*68\r\n
$GPGGA,122917.65,5703.3748143,N,00952.2555503,E,2,12,0.8,-1.417,M,40.593,M,2.0,0123*60\r\n
$GPGGA,122917.70,5703.3748450,N,00952.2555632,E,2,12,0.8,-1.419,M,40.593,M,2.0,0123*6C\r\n
$GPGGA,122917.75,5703.3748765,N,00952.2555757,E,2,12,0.8,-1.421,M,40.593,M,2.0,0123*65\r\n
$GPGGA,122917.80,5703.3749085,N,00952.2555915,E,2,12,0.8,-1.422,M,40.593,M,2.0,0123*6C\r\n
$GPGGA,122917.85,5703.3749408,N,00952.2556089,E,2,12,0.8,-1.421,M,40.593,M,2.2,0123*66\r\n
$GPGGA,122917.90,5703.3749726,N,00952.2556247,E,2,12,0.8,-1.422,M,40.593,M,2.2,0123*6E\r\n
$GPGGA,122917.95,5703.3750046,N,00952.2556417,E,2,12,0.8,-1.419,M,40.593,M,2.2,0123*69\r\n
$GPGGA,122918.00,5703.3750362,N,00952.2556595,E,2,12,0.8,-1.417,M,40.593,M,2.2,0123*6A\r\n
$GPGGA,122918.05,5703.3750697,N,00952.2556782,E,2,12,0.8,-1.412,M,40.593,M,2.5,0123*66\r\n
$GPGGA,122918.10,5703.3751020,N,00952.2556967,E,2,12,0.8,-1.409,M,40.593,M,2.5,0123*66\r\n
$GPGGA,122918.15,5703.3751352,N,00952.2557140,E,2,12,0.8,-1.403,M,40.593,M,2.5,0123*63\r\n
$GPGGA,122918.20,5703.3751690,N,00952.2557326,E,2,12,0.8,-1.398,M,40.593,M,2.5,0123*69\r\n
$GPGGA,122918.25,5703.3752042,N,00952.2557502,E,2,12,0.8,-1.395,M,40.593,M,2.7,0123*69\r\n
$GPGGA,122918.30,5703.3752395,N,00952.2557679,E,2,12,0.8,-1.391,M,40.593,M,2.7,0123*6F\r\n
$GPGGA,122918.35,5703.3752750,N,00952.2557859,E,2,12,0.8,-1.388,M,40.593,M,2.7,0123*63\r\n
$GPGGA,122918.40,5703.3753118,N,00952.2558033,E,2,12,0.8,-1.383,M,40.593,M,2.7,0123*6A\r\n
$GPGGA,122918.45,5703.3753490,N,00952.2558225,E,2,12,0.8,-1.375,M,40.593,M,2.9,0123*68\r\n
$GPGGA,122918.50,5703.3753865,N,00952.2558419,E,2,12,0.8,-1.370,M,40.593,M,2.9,0123*66\r\n
$GPGGA,122918.55,5703.3754247,N,00952.2558604,E,2,12,0.8,-1.366,M,40.593,M,2.9,0123*67\r\n
$GPGGA,122918.60,5703.3754640,N,00952.2558799,E,2,12,0.8,-1.364,M,40.593,M,2.9,0123*65\r\n
$GPGGA,122918.65,5703.3755044,N,00952.2559002,E,2,12,0.8,-1.363,M,40.593,M,3.1,0123*69\r\n
$GPGGA,122918.70,5703.3755449,N,00952.2559213,E,2,12,0.8,-1.360,M,40.593,M,3.1,0123*65\r\n
$GPGGA,122918.75,5703.3755858,N,00952.2559420,E,2,12,0.8,-1.355,M,40.593,M,3.1,0123*6C\r\n
$GPGGA,122918.80,5703.3756259,N,00952.2559634,E,2,12,0.8,-1.352,M,40.593,M,3.1,0123*6E\r\n
$GPGGA,122918.85,5703.3756670,N,00952.2559855,E,2,12,0.8,-1.351,M,40.593,M,3.3,0123*6C\r\n
$GPGGA,122918.90,5703.3757096,N,00952.2560083,E,2,12,0.8,-1.349,M,40.593,M,3.3,0123*67\r\n
$GPGGA,122918.95,5703.3757522,N,00952.2560310,E,2,12,0.8,-1.351,M,40.593,M,3.3,0123*68\r\n
$GPGGA,122919.00,5703.3757952,N,00952.2560528,E,2,12,0.8,-1.351,M,40.593,M,3.3,0123*63\r\n
$GPGGA,122919.05,5703.3758409,N,00952.2560750,E,2,12,0.8,-1.346,M,40.593,M,3.5,0123*67\r\n
$GPGGA,122919.10,5703.3758865,N,00952.2560993,E,2,12,0.8,-1.346,M,40.593,M,3.5,0123*64\r\n
$GPGGA,122919.15,5703.3759321,N,00952.2561236,E,2,12,0.8,-1.347,M,40.593,M,3.5,0123*6F\r\n
$GPGGA,122919.20,5703.3759792,N,00952.2561482,E,2,12,0.8,-1.350,M,40.593,M,3.5,0123*6A\r\n
$GPGGA,122919.25,5703.3760268,N,00952.2561720,E,2,12,0.8,-1.356,M,40.593,M,3.7,0123*6A\r\n
$GPGGA,122919.30,5703.3760748,N,00952.2561945,E,2,12,0.8,-1.361,M,40.593,M,3.7,0123*60\r\n
$GPGGA,122919.35,5703.3761226,N,00952.2562152,E,2,12,0.8,-1.366,M,40.593,M,3.7,0123*63\r\n
$GPGGA,122919.40,5703.3761716,N,00952.2562367,E,2,12,0.8,-1.368,M,40.593,M,3.7,0123*6D\r\n
$GPGGA,122919.45,5703.3762202,N,00952.2562590,E,2,12,0.8,-1.372,M,40.593,M,3.9,0123*60\r\n
$GPGGA,122919.50,5703.3762702,N,00952.2562840,E,2,12,0.8,-1.373,M,40.593,M,3.9,0123*60\r\n
$GPGGA,122919.55,5703.3763207,N,00952.2563065,E,2,12,0.8,-1.375,M,40.593,M,3.9,0123*6C\r\n
$GPGGA,122919.60,5703.3763717,N,00952.2563294,E,2,12,0.8,-1.378,M,40.593,M,3.9,0123*6F\r\n
$GPGGA,122919.65,5703.3764224,N,00952.2563521,E,2,12,0.8,-1.381,M,40.593,M,4.1,0123*68\r\n
$GPGGA,122919.70,5703.3764737,N,00952.2563770,E,2,12,0.8,-1.381,M,40.593,M,4.1,0123*6D\r\n
$GPGGA,122919.75,5703.3765250,N,00952.2564023,E,2,12,0.8,-1.379,M,40.593,M,4.1,0123*6C\r\n
$GPGGA,122919.80,5703.3765761,N,00952.2564273,E,2,12,0.8,-1.377,M,40.593,M,4.1,0123*68\r\n
$GPGGA,122919.85,5703.3766276,N,00952.2564520,E,2,12,0.8,-1.374,M,40.593,M,4.3,0123*6D\r\n
$GPGGA,122919.90,5703.3766796,N,00952.2564787,E,2,12,0.8,-1.373,M,40.593,M,4.3,0123*6A\r\n
$GPGGA,122919.95,5703.3767323,N,00952.2565060,E,2,12,0.8,-1.370,M,40.593,M,4.3,0123*68\r\n
$GPGGA,122920.00,5703.3767858,N,00952.2565330,E,2,12,0.8,-1.365,M,40.593,M,4.3,0123*6B\r\n
$GPGGA,122920.05,5703.3768396,N,00952.2565582,E,2,12,0.8,-1.355,M,40.593,M,4.5,0123*62\r\n
$GPGGA,122920.10,5703.3768933,N,00952.2565857,E,2,12,0.8,-1.352,M,40.593,M,4.5,0123*61\r\n
$GPGGA,122920.15,5703.3769475,N,00952.2566137,E,2,12,0.8,-1.349,M,40.593,M,4.5,0123*6C\r\n
$GPGGA,122920.20,5703.3770027,N,00952.2566412,E,2,12,0.8,-1.345,M,40.593,M,4.5,0123*6F\r\n
$GPGGA,122920.25,5703.3770580,N,00952.2566671,E,2,12,0.8,-1.344,M,40.593,M,1.8,0123*6C\r\n
$GPGGA,122920.30,5703.3771139,N,00952.2566920,E,2,12,0.8,-1.344,M,40.593,M,1.8,0123*64\r\n
$GPGGA,122920.35,5703.3771697,N,00952.2567165,E,2,12,0.8,-1.344,M,40.593,M,1.8,0123*6A\r\n
$GPGGA,122920.40,5703.3772258,N,00952.2567406,E,2,12,0.8,-1.344,M,40.593,M,1.8,0123*6C\r\n
$GPGGA,122920.45,5703.3772839,N,00952.2567625,E,2,12,0.8,-1.347,M,40.593,M,2.0,0123*6F\r\n
$GPGGA,122920.50,5703.3773426,N,00952.2567843,E,2,12,0.8,-1.350,M,40.593,M,2.0,0123*60\r\n
$GPGGA,122920.55,5703.3774010,N,00952.2568062,E,2,12,0.8,-1.351,M,40.593,M,2.0,0123*66\r\n
$GPGGA,122920.60,5703.3774600,N,00952.2568286,E,2,12,0.8,-1.353,M,40.593,M,2.0,0123*6D\r\n
$GPGGA,122920.65,5703.3775194,N,00952.2568507,E,2,12,0.8,-1.355,M,40.593,M,2.3,0123*68\r\n
$GPGGA,122920.70,5703.3775798,N,00952.2568729,E,2,12,0.8,-1.358,M,40.593,M,2.3,0123*65\r\n
$GPGGA,122920.75,5703.3776395,N,00952.2568950,E,2,12,0.8,-1.362,M,40.593,M,2.3,0123*63\r\n
$GPGGA,122920.80,5703.3776985,N,00952.2569186,E,2,12,0.8,-1.366,M,40.593,M,2.3,0123*64\r\n
$GPGGA,122920.85,5703.3777584,N,00952.2569426,E,2,12,0.8,-1.374,M,40.593,M,2.5,0123*67\r\n
$GPGGA,122920.90,5703.3778182,N,00952.2569656,E,2,12,0.8,-1.376,M,40.593,M,2.5,0123*69\r\n
$GPGGA,122920.95,5703.3778781,N,00952.2569896,E,2,12,0.8,-1.373,M,40.593,M,2.5,0123*6E\r\n
$GPGGA,122921.00,5703.3779382,N,00952.2570146,E,2,12,0.8,-1.368,M,40.593,M,2.5,0123*63\r\n
$GPGGA,122921.05,5703.3779991,N,00952.2570393,E,2,12,0.8,-1.360,M,40.593,M,2.7,0123*6E\r\n
$GPGGA,122921.10,5703.3780578,N,00952.2570639,E,2,12,0.8,-1.358,M,40.593,M,2.7,0123*69\r\n
$GPGGA,122921.15,5703.3781175,N,00952.2570887,E,2,12,0.8,-1.356,M,40.593,M,2.7,0123*61\r\n
$GPGGA,122921.20,5703.3781774,N,00952.2571130,E,2,12,0.8,-1.352,M,40.593,M,2.7,0123*60\r\n
$GPGGA,122921.25,5703.3782374,N,00952.2571381,E,2,12,0.8,-1.347,M,40.593,M,1.6,0123*6C\r\n
$GPGGA,122921.30,5703.3782981,N,00952.2571624,E,2,12,0.8,-1.343,M,40.593,M,1.6,0123*66\r\n
$GPGGA,122921.35,5703.3783603,N,00952.2571873,E,2,12,0.8,-1.340,M,40.593,M,1.6,0123*68\r\n
$GPGGA,122921.40,5703.3784226,N,00952.2572129,E,2,12,0.8,-1.337,M,40.593,M,1.6,0123*6B\r\n
$GPGGA,122921.45,5703.3784845,N,00952.2572352,E,2,12,0.8,-1.338,M,40.593,M,1.8,0123*6E\r\n
$GPGGA,122921.50,5703.3785480,N,00952.2572552,E,2,12,0.8,-1.338,M,40.593,M,1.8,0123*68\r\n
$GPGGA,122921.55,5703.3786112,N,00952.2572742,E,2,12,0.8,-1.336,M,40.593,M,1.8,0123*6D\r\n
$GPGGA,122921.60,5703.3786740,N,00952.2572910,E,2,12,0.8,-1.337,M,40.593,M,1.8,0123*62\r\n
$GPGGA,122921.65,5703.3787368,N,00952.2573062,E,2,12,0.8,-1.337,M,40.593,M,2.0,0123*6E\r\n
$GPGGA,122921.70,5703.3788000,N,00952.2573205,E,2,12,0.8,-1.339,M,40.593,M,2.0,0123*65\r\n
$GPGGA,122921.75,5703.3788637,N,00952.2573360,E,2,12,0.8,-1.340,M,40.593,M,2.0,0123*6E\r\n
$GPGGA,122921.80,5703.3789279,N,00952.2573498,E,2,12,0.8,-1.343,M,40.593,M,2.0,0123*68\r\n
$GPGGA,122921.85,5703.3789924,N,00952.2573633,E,2,12,0.8,-1.348,M,40.593,M,2.2,0123*64\r\n
$GPGGA,122921.90,5703.3790572,N,00952.2573766,E,2,12,0.8,-1.352,M,40.593,M,2.2,0123*6D\r\n
$GPGGA,122921.95,5703.3791218,N,00952.2573906,E,2,12,0.8,-1.355,M,40.593,M,2.2,0123*6D\r\n
$GPGGA,122922.00,5703.3791860,N,00952.2574069,E,2,12,0.8,-1.357,M,40.593,M,2.2,0123*62\r\n
$GPGGA,122922.05,5703.3792510,N,00952.2574216,E,2,12,0.8,-1.353,M,40.593,M,2.5,0123*67\r\n
$GPGGA,122922.10,5703.3793141,N,00952.2574357,E,2,12,0.8,-1.354,M,40.593,M,2.5,0123*61\r\n
$GPGGA,122922.15,5703.3793786,N,00952.2574509,E,2,12,0.8,-1.353,M,40.593,M,2.5,0123*63\r\n
$GPGGA,122922.20,5703.3794436,N,00952.2574659,E,2,12,0.8,-1.351,M,40.593,M,2.5,0123*6E\r\n
$GPGGA,122922.25,5703.3795081,N,00952.2574815,E,2,12,0.8,-1.349,M,40.593,M,2.7,0123*6F\r\n
$GPGGA,122922.30,5703.3795719,N,00952.2574957,E,2,12,0.8,-1.349,M,40.593,M,2.7,0123*6A\r\n
$GPGGA,122922.35,5703.3796368,N,00952.2575097,E,2,12,0.8,-1.347,M,40.593,M,2.7,0123*64\r\n
$GPGGA,122922.40,5703.3797020,N,00952.2575221,E,2,12,0.8,-1.344,M,40.593,M,2.7,0123*64\r\n
$GPGGA,122922.45,5703.3797666,N,00952.2575349,E,2,12,0.8,-1.338,M,40.593,M,2.9,0123*6F\r\n
$GPGGA,122922.50,5703.3798307,N,00952.2575464,E,2,12,0.8,-1.339,M,40.593,M,2.9,0123*6F\r\n
$GPGGA,122922.55,5703.3798958,N,00952.2575557,E,2,12,0.8,-1.337,M,40.593,M,2.9,0123*65\r\n
$GPGGA,122922.60,5703.3799608,N,00952.2575648,E,2,12,0.8,-1.334,M,40.593,M,2.9,0123*66\r\n
$GPGGA,122922.65,5703.3800260,N,00952.2575715,E,2,12,0.8,-1.332,M,40.593,M,3.1,0123*60\r\n
$GPGGA,122922.70,5703.3800909,N,00952.2575768,E,2,12,0.8,-1.332,M,40.593,M,3.1,0123*6A\r\n
$GPGGA,122922.75,5703.3801558,N,00952.2575803,E,2,12,0.8,-1.333,M,40.593,M,3.1,0123*65\r\n
$GPGGA,122922.80,5703.3802215,N,00952.2575852,E,2,12,0.8,-1.332,M,40.593,M,3.1,0123*67\r\n
$GPGGA,122922.85,5703.3802866,N,00952.2575881,E,2,12,0.8,-1.331,M,40.593,M,3.3,0123*63\r\n
$GPGGA,122922.90,5703.3803525,N,00952.2575900,E,2,12,0.8,-1.329,M,40.593,M,3.3,0123*6D\r\n
$GPGGA,122922.95,5703.3804185,N,00952.2575915,E,2,12,0.8,-1.328,M,40.593,M,3.3,0123*64\r\n
$GPGGA,122923.00,5703.3804840,N,00952.2575932,E,2,12,0.8,-1.331,M,40.593,M,3.3,0123*64\r\n
$GPGGA,122923.05,5703.3805496,N,00952.2575956,E,2,12,0.8,-1.329,M,40.593,M,3.5,0123*6A\r\n
$GPGGA,122923.10,5703.3806155,N,00952.2575960,E,2,12,0.8,-1.329,M,40.593,M,3.5,0123*62\r\n
$GPGGA,122923.15,5703.3806811,N,00952.2575954,E,2,12,0.8,-1.329,M,40.593,M,3.5,0123*69\r\n
$GPGGA,122923.20,5703.3807476,N,00952.2575952,E,2,12,0.8,-1.331,M,40.593,M,3.5,0123*6C\r\n
$GPGGA,122923.25,5703.3808139,N,00952.2575926,E,2,12,0.8,-1.332,M,40.593,M,3.7,0123*6A\r\n
$GPGGA,122923.30,5703.3808787,N,00952.2575884,E,2,12,0.8,-1.336,M,40.593,M,3.7,0123*60\r\n
$GPGGA,122923.35,5703.3809439,N,00952.2575818,E,2,12,0.8,-1.340,M,40.593,M,3.7,0123*66\r\n
$GPGGA,122923.40,5703.3810092,N,00952.2575750,E,2,12,0.8,-1.341,M,40.593,M,3.7,0123*6B\r\n
$GPGGA,122923.45,5703.3810746,N,00952.2575676,E,2,12,0.8,-1.349,M,40.593,M,3.9,0123*63\r\n
$GPGGA,122923.50,5703.3811395,N,00952.2575611,E,2,12,0.8,-1.353,M,40.593,M,3.9,0123*66\r\n
$GPGGA,122923.55,5703.3812046,N,00952.2575544,E,2,12,0.8,-1.354,M,40.593,M,3.9,0123*69\r\n
$GPGGA,122923.60,5703.3812701,N,00952.2575457,E,2,12,0.8,-1.353,M,40.593,M,3.9,0123*6F\r\n
$GPGGA,122923.65,5703.3813350,N,00952.2575354,E,2,12,0.8,-1.352,M,40.593,M,4.1,0123*61\r\n
$GPGGA,122923.70,5703.3813995,N,00952.2575271,E,2,12,0.8,-1.350,M,40.593,M,4.1,0123*62\r\n
$GPGGA,122923.75,5703.3814641,N,00952.2575183,E,2,12,0.8,-1.347,M,40.593,M,4.1,0123*6E\r\n
$GPGGA,122923.80,5703.3815291,N,00952.2575097,E,2,12,0.8,-1.343,M,40.593,M,4.1,0123*6C\r\n
$GPGGA,122923.85,5703.3815939,N,00952.2575015,E,2,12,0.8,-1.335,M,40.593,M,4.3,0123*69\r\n
$GPGGA,122923.90,5703.3816582,N,00952.2574914,E,2,12,0.8,-1.334,M,40.593,M,4.3,0123*6A\r\n
$GPGGA,122923.95,5703.3817234,N,00952.2574828,E,2,12,0.8,-1.329,M,40.593,M,4.3,0123*66\r\n
$GPGGA,122924.00,5703.3817887,N,00952.2574700,E,2,12,0.8,-1.326,M,40.593,M,4.3,0123*65\r\n
$GPGGA,122924.05,5703.3818536,N,00952.2574564,E,2,12,0.8,-1.326,M,40.593,M,4.5,0123*6E\r\n
$GPGGA,122924.10,5703.3819174,N,00952.2574413,E,2,12,0.8,-1.327,M,40.593,M,4.5,0123*69\r\n
$GPGGA,122924.15,5703.3819831,N,00952.2574231,E,2,12,0.8,-1.327,M,40.593,M,4.5,0123*62\r\n
$GPGGA,122924.20,5703.3820483,N,00952.2574017,E,2,12,0.8,-1.329,M,40.593,M,4.5,0123*63\r\n
$GPGGA,122924.25,5703.3821126,N,00952.2573799,E,2,12,0.8,-1.329,M,40.593,M,1.8,0123*63\r\n
$GPGGA,122924.30,5703.3821772,N,00952.2573577,E,2,12,0.8,-1.332,M,40.593,M,1.8,0123*68\r\n
$GPGGA,122924.35,5703.3822421,N,00952.2573343,E,2,12,0.8,-1.337,M,40.593,M,1.8,0123*6F\r\n
$GPGGA,122924.40,5703.3823064,N,00952.2573094,E,2,12,0.8,-1.342,M,40.593,M,1.8,0123*62\r\n
$GPGGA,122924.45,5703.3823707,N,00952.2572851,E,2,12,0.8,-1.349,M,40.593,M,2.0,0123*65\r\n
$GPGGA,122924.50,5703.3824337,N,00952.2572596,E,2,12,0.8,-1.353,M,40.593,M,2.0,0123*6C\r\n
$GPGGA,122924.55,5703.3824974,N,00952.2572361,E,2,12,0.8,-1.355,M,40.593,M,2.0,0123*6C\r\n
$GPGGA,122924.60,5703.3825614,N,00952.2572146,E,2,12,0.8,-1.352,M,40.593,M,2.0,0123*62\r\n
$GPGGA,122924.65,5703.3826246,N,00952.2571913,E,2,12,0.8,-1.350,M,40.593,M,2.3,0123*6D\r\n
$GPGGA,122924.70,5703.3826886,N,00952.2571677,E,2,12,0.8,-1.346,M,40.593,M,2.3,0123*65\r\n
$GPGGA,122924.75,5703.3827525,N,00952.2571437,E,2,12,0.8,-1.343,M,40.593,M,2.3,0123*66\r\n
$GPGGA,122924.80,5703.3828167,N,00952.2571195,E,2,12,0.8,-1.341,M,40.593,M,2.3,0123*6E\r\n
$GPGGA,122924.85,5703.3828799,N,00952.2570933,E,2,12,0.8,-1.342,M,40.593,M,2.5,0123*6C\r\n
$GPGGA,122924.90,5703.3829438,N,00952.2570661,E,2,12,0.8,-1.344,M,40.593,M,2.5,0123*6F\r\n
$GPGGA,122924.95,5703.3830079,N,00952.2570393,E,2,12,0.8,-1.342,M,40.593,M,2.5,0123*6D\r\n
$GPGGA,122925.00,5703.3830729,N,00952.2570106,E,2,12,0.8,-1.341,M,40.593,M,2.5,0123*6F\r\n
$GPGGA,122925.05,5703.3831380,N,00952.2569818,E,2,12,0.8,-1.337,M,40.593,M,2.7,0123*61\r\n
$GPGGA,122925.10,5703.3832012,N,00952.2569509,E,2,12,0.8,-1.336,M,40.593,M,2.7,0123*62\r\n
$GPGGA,122925.15,5703.3832652,N,00952.2569197,E,2,12,0.8,-1.337,M,40.593,M,2.7,0123*67\r\n
$GPGGA,122925.20,5703.3833284,N,00952.2568877,E,2,12,0.8,-1.338,M,40.593,M,2.7,0123*66\r\n
$GPGGA,122925.25,5703.3833918,N,00952.2568563,E,2,12,0.8,-1.337,M,40.593,M,1.6,0123*68\r\n
$GPGGA,122925.30,5703.3834545,N,00952.2568243,E,2,12,0.8,-1.336,M,40.593,M,1.6,0123*6B\r\n
$GPGGA,122925.35,5703.3835172,N,00952.2567900,E,2,12,0.8,-1.336,M,40.593,M,1.6,0123*6C\r\n
$GPGGA,122925.40,5703.3835807,N,00952.2567555,E,2,12,0.8,-1.333,M,40.593,M,1.6,0123*6C\r\n
$GPGGA,122925.45,5703.3836438,N,00952.2567202,E,2,12,0.8,-1.332,M,40.593,M,1.8,0123*60\r\n
$GPGGA,122925.50,5703.3837061,N,00952.2566848,E,2,12,0.8,-1.333,M,40.593,M,1.8,0123*69\r\n
$GPGGA,122925.55,5703.3837688,N,00952.2566489,E,2,12,0.8,-1.335,M,40.593,M,1.8,0123*6A\r\n
$GPGGA,122925.60,5703.3838312,N,00952.2566112,E,2,12,0.8,-1.335,M,40.593,M,1.8,0123*62\r\n
$GPGGA,122925.65,5703.3838930,N,00952.2565716,E,2,12,0.8,-1.336,M,40.593,M,2.0,0123*64\r\n
$GPGGA,122925.70,5703.3839559,N,00952.2565337,E,2,12,0.8,-1.337,M,40.593,M,2.0,0123*64\r\n
$GPGGA,122925.75,5703.3840191,N,00952.2564958,E,2,12,0.8,-1.335,M,40.593,M,2.0,0123*6F\r\n
$GPGGA,122925.80,5703.3840817,N,00952.2564572,E,2,12,0.8,-1.336,M,40.593,M,2.0,0123*65\r\n
$GPGGA,122925.85,5703.3841441,N,00952.2564186,E,2,12,0.8,-1.336,M,40.593,M,2.2,0123*63\r\n
$GPGGA,122925.90,5703.3842068,N,00952.2563787,E,2,12,0.8,-1.336,M,40.593,M,2.2,0123*6B\r\n
$GPGGA,122925.95,5703.3842688,N,00952.2563390,E,2,12,0.8,-1.336,M,40.593,M,2.2,0123*64\r\n
$GPGGA,122926.00,5703.3843305,N,00952.2562967,E,2,12,0.8,-1.337,M,40.593,M,2.2,0123*68\r\n
$GPGGA,122926.05,5703.3843937,N,00952.2562546,E,2,12,0.8,-1.336,M,40.593,M,2.5,0123*6F\r\n
$GPGGA,122926.10,5703.3844567,N,00952.2562114,E,2,12,0.8,-1.335,M,40.593,M,2.5,0123*65\r\n
$GPGGA,122926.15,5703.3845187,N,00952.2561672,E,2,12,0.8,-1.338,M,40.593,M,2.5,0123*62\r\n
$GPGGA,122926.20,5703.3845808,N,00952.2561238,E,2,12,0.8,-1.337,M,40.593,M,2.5,0123*6F\r\n
$GPGGA,122926.25,5703.3846431,N,00952.2560784,E,2,12,0.8,-1.330,M,40.593,M,2.7,0123*69\r\n
$GPGGA,122926.30,5703.3847037,N,00952.2560302,E,2,12,0.8,-1.332,M,40.593,M,2.7,0123*66\r\n
$GPGGA,122926.35,5703.3847632,N,00952.2559814,E,2,12,0.8,-1.332,M,40.593,M,2.7,0123*66\r\n
$GPGGA,122926.40,5703.3848240,N,00952.2559345,E,2,12,0.8,-1.329,M,40.593,M,2.7,0123*6F\r\n
$GPGGA,122926.45,5703.3848843,N,00952.2558865,E,2,12,0.8,-1.330,M,40.593,M,2.9,0123*6D\r\n
$GPGGA,122926.50,5703.3849439,N,00952.2558377,E,2,12,0.8,-1.331,M,40.593,M,2.9,0123*60\r\n
$GPGGA,122926.55,5703.3850046,N,00952.2557886,E,2,12,0.8,-1.329,M,40.593,M,2.9,0123*62\r\n
$GPGGA,122926.60,5703.3850649,N,00952.2557391,E,2,12,0.8,-1.325,M,40.593,M,2.9,0123*6C\r\n
$GPGGA,122926.65,5703.3851245,N,00952.2556887,E,2,12,0.8,-1.320,M,40.593,M,3.1,0123*61\r\n
$GPGGA,122926.70,5703.3851845,N,00952.2556366,E,2,12,0.8,-1.319,M,40.593,M,3.1,0123*61\r\n
$GPGGA,122926.75,5703.3852428,N,00952.2555828,E,2,12,0.8,-1.319,M,40.593,M,3.1,0123*62\r\n
$GPGGA,122926.80,5703.3853012,N,00952.2555297,E,2,12,0.8,-1.315,M,40.593,M,3.1,0123*66\r\n
$GPGGA,122926.85,5703.3853596,N,00952.2554759,E,2,12,0.8,-1.316,M,40.593,M,3.3,0123*6D\r\n
$GPGGA,122926.90,5703.3854169,N,00952.2554212,E,2,12,0.8,-1.317,M,40.593,M,3.3,0123*61\r\n
$GPGGA,122926.95,5703.3854740,N,00952.2553645,E,2,12,0.8,-1.317,M,40.593,M,3.3,0123*68\r\n
$GPGGA,122927.00,5703.3855309,N,00952.2553057,E,2,12,0.8,-1.314,M,40.593,M,3.3,0123*6B\r\n
$GPGGA,122927.05,5703.3855881,N,00952.2552475,E,2,12,0.8,-1.308,M,40.593,M,3.5,0123*6B\r\n
$GPGGA,122927.10,5703.3856442,N,00952.2551881,E,2,12,0.8,-1.309,M,40.593,M,3.5,0123*6A\r\n
$GPGGA,122927.15,5703.3857001,N,00952.2551293,E,2,12,0.8,-1.309,M,40.593,M,3.5,0123*64\r\n
$GPGGA,122927.20,5703.3857554,N,00952.2550695,E,2,12,0.8,-1.310,M,40.593,M,3.5,0123*6C\r\n
$GPGGA,122927.25,5703.3858110,N,00952.2550101,E,2,12,0.8,-1.316,M,40.593,M,3.7,0123*6C\r\n
$GPGGA,122927.30,5703.3858667,N,00952.2549514,E,2,12,0.8,-1.318,M,40.593,M,3.7,0123*69\r\n
$GPGGA,122927.35,5703.3859220,N,00952.2548913,E,2,12,0.8,-1.320,M,40.593,M,3.7,0123*6B\r\n
$GPGGA,122927.40,5703.3859767,N,00952.2548306,E,2,12,0.8,-1.322,M,40.593,M,3.7,0123*63\r\n
$GPGGA,122927.45,5703.3860313,N,00952.2547686,E,2,12,0.8,-1.322,M,40.593,M,3.9,0123*67\r\n
$GPGGA,122927.50,5703.3860843,N,00952.2547068,E,2,12,0.8,-1.321,M,40.593,M,3.9,0123*68\r\n
$GPGGA,122927.55,5703.3861364,N,00952.2546424,E,2,12,0.8,-1.319,M,40.593,M,3.9,0123*64\r\n
$GPGGA,122927.60,5703.3861908,N,00952.2545786,E,2,12,0.8,-1.317,M,40.593,M,3.9,0123*64\r\n
$GPGGA,122927.65,5703.3862457,N,00952.2545116,E,2,12,0.8,-1.316,M,40.593,M,4.1,0123*64\r\n
$GPGGA,122927.70,5703.3862991,N,00952.2544421,E,2,12,0.8,-1.318,M,40.593,M,4.1,0123*69\r\n
$GPGGA,122927.75,5703.3863515,N,00952.2543737,E,2,12,0.8,-1.322,M,40.593,M,4.1,0123*67\r\n
$GPGGA,122927.80,5703.3864045,N,00952.2543071,E,2,12,0.8,-1.323,M,40.593,M,4.1,0123*6E\r\n
$GPGGA,122927.85,5703.3864573,N,00952.2542424,E,2,12,0.8,-1.321,M,40.593,M,4.3,0123*6E\r\n
$GPGGA,122927.90,5703.3865093,N,00952.2541733,E,2,12,0.8,-1.323,M,40.593,M,4.3,0123*64\r\n
$GPGGA,122927.95,5703.3865632,N,00952.2541041,E,2,12,0.8,-1.322,M,40.593,M,4.3,0123*6F\r\n
$GPGGA,122928.00,5703.3866151,N,00952.2540329,E,2,12,0.8,-1.326,M,40.593,M,4.3,0123*65\r\n
$GPGGA,122928.05,5703.3866680,N,00952.2539596,E,2,12,0.8,-1.328,M,40.593,M,4.5,0123*6F\r\n
$GPGGA,122928.10,5703.3867190,N,00952.2538854,E,2,12,0.8,-1.330,M,40.593,M,4.5,0123*67\r\n
$GPGGA,122928.15,5703.3867699,N,00952.2538126,E,2,12,0.8,-1.329,M,40.593,M,4.5,0123*68\r\n
$GPGGA,122928.20,5703.3868216,N,00952.2537386,E,2,12,0.8,-1.329,M,40.593,M,4.5,0123*65\r\n
$GPGGA,122928.25,5703.3868716,N,00952.2536645,E,2,12,0.8,-1.333,M,40.593,M,1.8,0123*6D\r\n
$GPGGA,122928.30,5703.3869196,N,00952.2535900,E,2,12,0.8,-1.331,M,40.593,M,1.8,0123*69\r\n
$GPGGA,122928.35,5703.3869664,N,00952.2535173,E,2,12,0.8,-1.327,M,40.593,M,1.8,0123*6D\r\n
$GPGGA,122928.40,5703.3870144,N,00952.2534442,E,2,12,0.8,-1.322,M,40.593,M,1.8,0123*61\r\n
$GPGGA,122928.45,5703.3870634,N,00952.2533677,E,2,12,0.8,-1.324,M,40.593,M,2.0,0123*6A\r\n
$GPGGA,122928.50,5703.3871139,N,00952.2532887,E,2,12,0.8,-1.325,M,40.593,M,2.0,0123*64\r\n
$GPGGA,122928.55,5703.3871647,N,00952.2532094,E,2,12,0.8,-1.321,M,40.593,M,2.0,0123*61\r\n
$GPGGA,122928.60,5703.3872139,N,00952.2531314,E,2,12,0.8,-1.322,M,40.593,M,2.0,0123*61\r\n
$GPGGA,122928.65,5703.3872616,N,00952.2530526,E,2,12,0.8,-1.320,M,40.593,M,2.3,0123*69\r\n
$GPGGA,122928.70,5703.3873075,N,00952.2529724,E,2,12,0.8,-1.321,M,40.593,M,2.3,0123*66\r\n
$GPGGA,122928.75,5703.3873535,N,00952.2528914,E,2,12,0.8,-1.319,M,40.593,M,2.3,0123*65\r\n
$GPGGA,122928.80,5703.3873999,N,00952.2528094,E,2,12,0.8,-1.319,M,40.593,M,2.3,0123*64\r\n
$GPGGA,122928.85,5703.3874459,N,00952.2527259,E,2,12,0.8,-1.325,M,40.593,M,2.5,0123*62\r\n
$GPGGA,122928.90,5703.3874926,N,00952.2526441,E,2,12,0.8,-1.326,M,40.593,M,2.5,0123*6E\r\n
$GPGGA,122928.95,5703.3875390,N,00952.2525609,E,2,12,0.8,-1.326,M,40.593,M,2.5,0123*60\r\n
$GPGGA,122929.00,5703.3875857,N,00952.2524770,E,2,12,0.8,-1.327,M,40.593,M,2.5,0123*62\r\n
$GPGGA,122929.05,5703.3876334,N,00952.2523952,E,2,12,0.8,-1.319,M,40.593,M,2.7,0123*6C\r\n
$GPGGA,122929.10,5703.3876785,N,00952.2523116,E,2,12,0.8,-1.318,M,40.593,M,2.7,0123*6F\r\n
$GPGGA,122929.15,5703.3877218,N,00952.2522285,E,2,12,0.8,-1.315,M,40.593,M,2.7,0123*6F\r\n
$GPGGA,122929.20,5703.3877643,N,00952.2521437,E,2,12,0.8,-1.312,M,40.593,M,2.7,0123*68\r\n
$GPGGA,122929.25,5703.3878070,N,00952.2520580,E,2,12,0.8,-1.318,M,40.593,M,1.6,0123*60\r\n
$GPGGA,122929.30,5703.3878499,N,00952.2519707,E,2,12,0.8,-1.318,M,40.593,M,1.6,0123*60\r\n
$GPGGA,122929.35,5703.3878932,N,00952.2518840,E,2,12,0.8,-1.317,M,40.593,M,1.6,0123*6B\r\n
$GPGGA,122929.40,5703.3879365,N,00952.2517988,E,2,12,0.8,-1.315,M,40.593,M,1.6,0123*68\r\n
$GPGGA,122929.45,5703.3879789,N,00952.2517149,E,2,12,0.8,-1.305,M,40.593,M,1.8,0123*61\r\n
$GPGGA,122929.50,5703.3880203,N,00952.2516271,E,2,12,0.8,-1.303,M,40.593,M,1.8,0123*6B\r\n
$GPGGA,122929.55,5703.3880618,N,00952.2515405,E,2,12,0.8,-1.300,M,40.593,M,1.8,0123*65\r\n
$GPGGA,122929.60,5703.3881026,N,00952.2514527,E,2,12,0.8,-1.299,M,40.593,M,1.8,0123*68\r\n
$GPGGA,122929.65,5703.3881425,N,00952.2513631,E,2,12,0.8,-1.301,M,40.593,M,2.0,0123*62\r\n
$GPGGA,122929.70,5703.3881833,N,00952.2512722,E,2,12,0.8,-1.302,M,40.593,M,2.0,0123*6C\r\n
$GPGGA,122929.75,5703.3882235,N,00952.2511801,E,2,12,0.8,-1.305,M,40.593,M,2.0,0123*6C\r\n
$GPGGA,122929.80,5703.3882648,N,00952.2510896,E,2,12,0.8,-1.307,M,40.593,M,2.0,0123*65\r\n
$GPGGA,122929.85,5703.3883045,N,00952.2509998,E,2,12,0.8,-1.307,M,40.593,M,2.2,0123*6F\r\n
$GPGGA,122929.90,5703.3883427,N,00952.2509063,E,2,12,0.8,-1.309,M,40.593,M,2.2,0123*68\r\n
$GPGGA,122929.95,5703.3883797,N,00952.2508109,E,2,12,0.8,-1.312,M,40.593,M,2.2,0123*63\r\n
$GPGGA,122930.00,5703.3884167,N,00952.2507145,E,2,12,0.8,-1.316,M,40.593,M,2.2,0123*6A\r\n
$GPGGA,122930.05,5703.3884544,N,00952.2506221,E,2,12,0.8,-1.318,M,40.593,M,2.5,0123*63\r\n
$GPGGA,122930.10,5703.3884907,N,00952.2505251,E,2,12,0.8,-1.320,M,40.593,M,2.5,0123*63\r\n
$GPGGA,122930.15,5703.3885256,N,00952.2504296,E,2,12,0.8,-1.321,M,40.593,M,2.5,0123*63\r\n
$GPGGA,122930.20,5703.3885595,N,00952.2503333,E,2,12,0.8,-1.322,M,40.593,M,2.5,0123*67\r\n
$GPGGA,122930.25,5703.3885940,N,00952.2502360,E,2,12,0.8,-1.322,M,40.593,M,2.7,0123*63\r\n
$GPGGA,122930.30,5703.3886281,N,00952.2501400,E,2,12,0.8,-1.320,M,40.593,M,2.7,0123*62\r\n
$GPGGA,122930.35,5703.3886609,N,00952.2500429,E,2,12,0.8,-1.321,M,40.593,M,2.7,0123*68\r\n
$GPGGA,122930.40,5703.3886946,N,00952.2499461,E,2,12,0.8,-1.320,M,40.593,M,2.7,0123*62\r\n
$GPGGA,122930.45,5703.3887280,N,00952.2498479,E,2,12,0.8,-1.322,M,40.593,M,2.9,0123*63\r\n
$GPGGA,122930.50,5703.3887599,N,00952.2497488,E,2,12,0.8,-1.322,M,40.593,M,2.9,0123*69\r\n
$GPGGA,122930.55,5703.3887933,N,00952.2496499,E,2,12,0.8,-1.322,M,40.593,M,2.9,0123*61\r\n
$GPGGA,122930.60,5703.3888251,N,00952.2495500,E,2,12,0.8,-1.322,M,40.593,M,2.9,0123*65\r\n
$GPGGA,122930.65,5703.3888575,N,00952.2494523,E,2,12,0.8,-1.315,M,40.593,M,3.1,0123*6C\r\n
$GPGGA,122930.70,5703.3888887,N,00952.2493518,E,2,12,0.8,-1.316,M,40.593,M,3.1,0123*64\r\n
$GPGGA,122930.75,5703.3889188,N,00952.2492509,E,2,12,0.8,-1.319,M,40.593,M,3.1,0123*68\r\n
$GPGGA,122930.80,5703.3889498,N,00952.2491489,E,2,12,0.8,-1.318,M,40.593,M,3.1,0123*6D\r\n
$GPGGA,122930.85,5703.3889792,N,00952.2490462,E,2,12,0.8,-1.319,M,40.593,M,3.3,0123*66\r\n
$GPGGA,122930.90,5703.3890076,N,00952.2489445,E,2,12,0.8,-1.318,M,40.593,M,3.3,0123*6B\r\n
$GPGGA,122930.95,5703.3890356,N,00952.2488408,E,2,12,0.8,-1.320,M,40.593,M,3.3,0123*6C\r\n
$GPGGA,122931.00,5703.3890638,N,00952.2487378,E,2,12,0.8,-1.319,M,40.593,M,3.3,0123*69\r\n
$GPGGA,122931.05,5703.3890897,N,00952.2486356,E,2,12,0.8,-1.316,M,40.593,M,3.5,0123*63\r\n
$GPGGA,122931.10,5703.3891162,N,00952.2485311,E,2,12,0.8,-1.314,M,40.593,M,3.5,0123*67\r\n
$GPGGA,122931.15,5703.3891416,N,00952.2484272,E,2,12,0.8,-1.312,M,40.593,M,3.5,0123*67\r\n
$GPGGA,122931.20,5703.3891663,N,00952.2483243,E,2,12,0.8,-1.311,M,40.593,M,3.5,0123*67\r\n
$GPGGA,122931.25,5703.3891911,N,00952.2482188,E,2,12,0.8,-1.308,M,40.593,M,3.7,0123*67\r\n
$GPGGA,122931.30,5703.3892150,N,00952.2481116,E,2,12,0.8,-1.307,M,40.593,M,3.7,0123*66\r\n
$GPGGA,122931.35,5703.3892385,N,00952.2480059,E,2,12,0.8,-1.306,M,40.593,M,3.7,0123*63\r\n
$GPGGA,122931.40,5703.3892613,N,00952.2479012,E,2,12,0.8,-1.306,M,40.593,M,3.7,0123*62\r\n
$GPGGA,122931.45,5703.3892844,N,00952.2477969,E,2,12,0.8,-1.299,M,40.593,M,3.9,0123*69\r\n
$GPGGA,122931.50,5703.3893059,N,00952.2476920,E,2,12,0.8,-1.298,M,40.593,M,3.9,0123*65\r\n
$GPGGA,122931.55,5703.3893284,N,00952.2475854,E,2,12,0.8,-1.298,M,40.593,M,3.9,0123*63\r\n
$GPGGA,122931.60,5703.3893510,N,00952.2474792,E,2,12,0.8,-1.296,M,40.593,M,3.9,0123*65\r\n
$GPGGA,122931.65,5703.3893729,N,00952.2473725,E,2,12,0.8,-1.296,M,40.593,M,4.1,0123*6C\r\n
$GPGGA,122931.70,5703.3893937,N,00952.2472652,E,2,12,0.8,-1.295,M,40.593,M,4.1,0123*6A\r\n
$GPGGA,122931.75,5703.3894140,N,00952.2471571,E,2,12,0.8,-1.293,M,40.593,M,4.1,0123*67\r\n
$GPGGA,122931.80,5703.3894338,N,00952.2470503,E,2,12,0.8,-1.293,M,40.593,M,4.1,0123*64\r\n
$GPGGA,122931.85,5703.3894532,N,00952.2469429,E,2,12,0.8,-1.291,M,40.593,M,4.3,0123*6C\r\n
$GPGGA,122931.90,5703.3894706,N,00952.2468343,E,2,12,0.8,-1.289,M,40.593,M,4.3,0123*6E\r\n
$GPGGA,122931.95,5703.3894881,N,00952.2467270,E,2,12,0.8,-1.288,M,40.593,M,4.3,0123*64\r\n
$GPGGA,122932.00,5703.3895049,N,00952.2466173,E,2,12,0.8,-1.288,M,40.593,M,4.3,0123*67\r\n
$GPGGA,122932.05,5703.3895212,N,00952.2465100,E,2,12,0.8,-1.290,M,40.593,M,4.5,0123*66\r\n
$GPGGA,122932.10,5703.3895362,N,00952.2464008,E,2,12,0.8,-1.288,M,40.593,M,4.5,0123*65\r\n
$GPGGA,122932.15,5703.3895507,N,00952.2462918,E,2,12,0.8,-1.291,M,40.593,M,4.5,0123*63\r\n
$GPGGA,122932.20,5703.3895662,N,00952.2461820,E,2,12,0.8,-1.293,M,40.593,M,4.5,0123*6E\r\n
$GPGGA,122932.25,5703.3895812,N,00952.2460728,E,2,12,0.8,-1.288,M,40.593,M,1.8,0123*66\r\n
$GPGGA,122932.30,5703.3895937,N,00952.2459634,E,2,12,0.8,-1.290,M,40.593,M,1.8,0123*6B\r\n
$GPGGA,122932.35,5703.3896056,N,00952.2458543,E,2,12,0.8,-1.290,M,40.593,M,1.8,0123*61\r\n
$GPGGA,122932.40,5703.3896174,N,00952.2457438,E,2,12,0.8,-1.291,M,40.593,M,1.8,0123*61\r\n
$GPGGA,122932.45,5703.3896296,N,00952.2456327,E,2,12,0.8,-1.291,M,40.593,M,2.0,0123*68\r\n
$GPGGA,122932.50,5703.3896401,N,00952.2455224,E,2,12,0.8,-1.292,M,40.593,M,2.0,0123*66\r\n
$GPGGA,122932.55,5703.3896511,N,00952.2454113,E,2,12,0.8,-1.292,M,40.593,M,2.0,0123*65\r\n
$GPGGA,122932.60,5703.3896619,N,00952.2453006,E,2,12,0.8,-1.292,M,40.593,M,2.0,0123*6A\r\n
$GPGGA,122932.65,5703.3896726,N,00952.2451901,E,2,12,0.8,-1.291,M,40.593,M,2.3,0123*6E\r\n
$GPGGA,122932.70,5703.3896815,N,00952.2450772,E,2,12,0.8,-1.294,M,40.593,M,2.3,0123*6B\r\n
$GPGGA,122932.75,5703.3896908,N,00952.2449657,E,2,12,0.8,-1.295,M,40.593,M,2.3,0123*6C\r\n
$GPGGA,122932.80,5703.3897000,N,00952.2448532,E,2,12,0.8,-1.298,M,40.593,M,2.3,0123*6A\r\n
$GPGGA,122932.85,5703.3897081,N,00952.2447413,E,2,12,0.8,-1.301,M,40.593,M,2.5,0123*6C\r\n
$GPGGA,122932.90,5703.3897163,N,00952.2446305,E,2,12,0.8,-1.301,M,40.593,M,2.5,0123*64\r\n
$GPGGA,122932.95,5703.3897232,N,00952.2445164,E,2,12,0.8,-1.305,M,40.593,M,2.5,0123*64\r\n
$GPGGA,122933.00,5703.3897297,N,00952.2444024,E,2,12,0.8,-1.305,M,40.593,M,2.5,0123*62\r\n
$GPGGA,122933.05,5703.3897371,N,00952.2442917,E,2,12,0.8,-1.300,M,40.593,M,2.7,0123*66\r\n
$GPGGA,122933.10,5703.3897445,N,00952.2441792,E,2,12,0.8,-1.299,M,40.593,M,2.7,0123*63\r\n
$GPGGA,122933.15,5703.3897500,N,00952.2440659,E,2,12,0.8,-1.299,M,40.593,M,2.7,0123*61\r\n
$GPGGA,122933.20,5703.3897561,N,00952.2439522,E,2,12,0.8,-1.298,M,40.593,M,2.7,0123*60\r\n
$GPGGA,122933.25,5703.3897611,N,00952.2438374,E,2,12,0.8,-1.301,M,40.593,M,3.0,0123*62\r\n
$GPGGA,122933.30,5703.3897652,N,00952.2437232,E,2,12,0.8,-1.301,M,40.593,M,3.0,0123*6D\r\n
$GPGGA,122933.35,5703.3897694,N,00952.2436088,E,2,12,0.8,-1.302,M,40.593,M,3.0,0123*63\r\n
$GPGGA,122933.40,5703.3897735,N,00952.2434948,E,2,12,0.8,-1.302,M,40.593,M,3.0,0123*6C\r\n
$GPGGA,122933.45,5703.3897780,N,00952.2433803,E,2,12,0.8,-1.299,M,40.593,M,1.8,0123*67\r\n
$GPGGA,122933.50,5703.3897819,N,00952.2432652,E,2,12,0.8,-1.299,M,40.593,M,1.8,0123*67\r\n
$GPGGA,122933.55,5703.3897841,N,00952.2431499,E,2,12,0.8,-1.299,M,40.593,M,1.8,0123*69\r\n
$GPGGA,122933.60,5703.3897862,N,00952.2430333,E,2,12,0.8,-1.299,M,40.593,M,1.8,0123*68\r\n
$GPGGA,122933.65,5703.3897884,N,00952.2429178,E,2,12,0.8,-1.291,M,40.593,M,2.0,0123*63\r\n
$GPGGA,122933.70,5703.3897904,N,00952.2428019,E,2,12,0.8,-1.288,M,40.593,M,2.0,0123*61\r\n
$GPGGA,122933.75,5703.3897917,N,00952.2426852,E,2,12,0.8,-1.286,M,40.593,M,2.0,0123*61\r\n
$GPGGA,122933.80,5703.3897932,N,00952.2425695,E,2,12,0.8,-1.283,M,40.593,M,2.0,0123*6F\r\n
$GPGGA,122933.85,5703.3897936,N,00952.2424534,E,2,12,0.8,-1.286,M,40.593,M,2.2,0123*60\r\n
$GPGGA,122933.90,5703.3897944,N,00952.2423375,E,2,12,0.8,-1.285,M,40.593,M,2.2,0123*66\r\n
$GPGGA,122933.95,5703.3897952,N,00952.2422210,E,2,12,0.8,-1.283,M,40.593,M,2.2,0123*61\r\n
$GPGGA,122934.00,5703.3897955,N,00952.2421039,E,2,12,0.8,-1.280,M,40.593,M,2.2,0123*64\r\n
$GPGGA,122934.05,5703.3897961,N,00952.2419868,E,2,12,0.8,-1.277,M,40.593,M,2.5,0123*6E\r\n
$GPGGA,122934.10,5703.3897956,N,00952.2418687,E,2,12,0.8,-1.277,M,40.593,M,2.5,0123*60\r\n
$GPGGA,122934.15,5703.3897939,N,00952.2417515,E,2,12,0.8,-1.276,M,40.593,M,2.5,0123*6A\r\n
$GPGGA,122934.20,5703.3897918,N,00952.2416354,E,2,12,0.8,-1.275,M,40.593,M,2.5,0123*6E\r\n
$GPGGA,122934.25,5703.3897898,N,00952.2415178,E,2,12,0.8,-1.271,M,40.593,M,2.7,0123*6B\r\n
$GPGGA,122934.30,5703.3897889,N,00952.2414006,E,2,12,0.8,-1.269,M,40.593,M,2.7,0123*6F\r\n
$GPGGA,122934.35,5703.3897869,N,00952.2412815,E,2,12,0.8,-1.268,M,40.593,M,2.7,0123*69\r\n
$GPGGA,122934.40,5703.3897850,N,00952.2411632,E,2,12,0.8,-1.268,M,40.593,M,2.7,0123*69\r\n
$GPGGA,122934.45,5703.3897821,N,00952.2410472,E,2,12,0.8,-1.264,M,40.593,M,2.9,0123*6F\r\n
$GPGGA,122934.50,5703.3897790,N,00952.2409294,E,2,12,0.8,-1.264,M,40.593,M,2.9,0123*68\r\n
$GPGGA,122934.55,5703.3897758,N,00952.2408102,E,2,12,0.8,-1.264,M,40.593,M,2.9,0123*64\r\n
$GPGGA,122934.60,5703.3897736,N,00952.2406913,E,2,12,0.8,-1.262,M,40.593,M,2.9,0123*6A\r\n
$GPGGA,122934.65,5703.3897693,N,00952.2405730,E,2,12,0.8,-1.261,M,40.593,M,3.1,0123*67\r\n
$GPGGA,122934.70,5703.3897648,N,00952.2404554,E,2,12,0.8,-1.260,M,40.593,M,3.1,0123*65\r\n
$GPGGA,122934.75,5703.3897615,N,00952.2403378,E,2,12,0.8,-1.259,M,40.593,M,3.1,0123*6D\r\n
$GPGGA,122934.80,5703.3897573,N,00952.2402198,E,2,12,0.8,-1.261,M,40.593,M,3.1,0123*62\r\n
$GPGGA,122934.85,5703.3897540,N,00952.2400996,E,2,12,0.8,-1.263,M,40.593,M,3.3,0123*63\r\n
$GPGGA,122934.90,5703.3897496,N,00952.2399806,E,2,12,0.8,-1.264,M,40.593,M,3.3,0123*65\r\n
$GPGGA,122934.95,5703.3897458,N,00952.2398627,E,2,12,0.8,-1.263,M,40.593,M,3.3,0123*69\r\n
$GPGGA,122935.00,5703.3897409,N,00952.2397460,E,2,12,0.8,-1.263,M,40.593,M,3.3,0123*6E\r\n
$GPGGA,122935.05,5703.3897357,N,00952.2396277,E,2,12,0.8,-1.264,M,40.593,M,3.5,0123*67\r\n
$GPGGA,122935.10,5703.3897317,N,00952.2395085,E,2,12,0.8,-1.264,M,40.593,M,3.5,0123*6B\r\n
$GPGGA,122935.15,5703.3897264,N,00952.2393901,E,2,12,0.8,-1.265,M,40.593,M,3.5,0123*69\r\n
$GPGGA,122935.20,5703.3897205,N,00952.2392704,E,2,12,0.8,-1.266,M,40.593,M,3.5,0123*61\r\n
$GPGGA,122935.25,5703.3897160,N,00952.2391508,E,2,12,0.8,-1.266,M,40.593,M,3.7,0123*6B\r\n
$GPGGA,122935.30,5703.3897106,N,00952.2390323,E,2,12,0.8,-1.269,M,40.593,M,3.7,0123*6E\r\n
$GPGGA,122935.35,5703.3897040,N,00952.2389134,E,2,12,0.8,-1.272,M,40.593,M,3.7,0123*6E\r\n
$GPGGA,122935.40,5703.3896976,N,00952.2387937,E,2,12,0.8,-1.275,M,40.593,M,3.7,0123*63\r\n
$GPGGA,122935.45,5703.3896907,N,00952.2386726,E,2,12,0.8,-1.276,M,40.593,M,3.9,0123*62\r\n
$GPGGA,122935.50,5703.3896845,N,00952.2385513,E,2,12,0.8,-1.277,M,40.593,M,3.9,0123*67\r\n
$GPGGA,122935.55,5703.3896779,N,00952.2384317,E,2,12,0.8,-1.281,M,40.593,M,3.9,0123*68\r\n
$GPGGA,122935.60,5703.3896715,N,00952.2383119,E,2,12,0.8,-1.280,M,40.593,M,3.9,0123*6E\r\n
$GPGGA,122935.65,5703.3896649,N,00952.2381934,E,2,12,0.8,-1.276,M,40.593,M,4.1,0123*60\r\n
$GPGGA,122935.70,5703.3896584,N,00952.2380739,E,2,12,0.8,-1.278,M,40.593,M,4.1,0123*6A\r\n
$GPGGA,122935.75,5703.3896512,N,00952.2379547,E,2,12,0.8,-1.275,M,40.593,M,4.1,0123*60\r\n
$GPGGA,122935.80,5703.3896433,N,00952.2378344,E,2,12,0.8,-1.276,M,40.593,M,4.1,0123*6F\r\n
$GPGGA,122935.85,5703.3896351,N,00952.2377141,E,2,12,0.8,-1.281,M,40.593,M,4.3,0123*6B\r\n
$GPGGA,122935.90,5703.3896278,N,00952.2375937,E,2,12,0.8,-1.280,M,40.593,M,4.3,0123*6F\r\n
$GPGGA,122935.95,5703.3896205,N,00952.2374741,E,2,12,0.8,-1.278,M,40.593,M,4.3,0123*69\r\n
$GPGGA,122936.00,5703.3896120,N,00952.2373544,E,2,12,0.8,-1.279,M,40.593,M,4.3,0123*63\r\n
$GPGGA,122936.05,5703.3896028,N,00952.2372360,E,2,12,0.8,-1.278,M,40.593,M,4.5,0123*69\r\n
$GPGGA,122936.10,5703.3895928,N,00952.2371163,E,2,12,0.8,-1.277,M,40.593,M,4.5,0123*6A\r\n
$GPGGA,122936.15,5703.3895839,N,00952.2369955,E,2,12,0.8,-1.277,M,40.593,M,4.5,0123*6A\r\n
$GPGGA,122936.20,5703.3895752,N,00952.2368758,E,2,12,0.8,-1.276,M,40.593,M,4.5,0123*6D\r\n
$GPGGA,122936.25,5703.3895667,N,00952.2367574,E,2,12,0.8,-1.271,M,40.593,M,4.7,0123*69\r\n
$GPGGA,122936.30,5703.3895587,N,00952.2366381,E,2,12,0.8,-1.268,M,40.593,M,4.7,0123*65\r\n
$GPGGA,122936.35,5703.3895503,N,00952.2365176,E,2,12,0.8,-1.266,M,40.593,M,4.7,0123*6B\r\n
$GPGGA,122936.40,5703.3895418,N,00952.2363974,E,2,12,0.8,-1.265,M,40.593,M,4.7,0123*6D\r\n
$GPGGA,122936.45,5703.3895317,N,00952.2362770,E,2,12,0.8,-1.265,M,40.593,M,2.0,0123*6A\r\n
$GPGGA,122936.50,5703.3895231,N,00952.2361579,E,2,12,0.8,-1.262,M,40.593,M,2.0,0123*64\r\n
$GPGGA,122936.55,5703.3895143,N,00952.2360391,E,2,12,0.8,-1.261,M,40.593,M,2.0,0123*65\r\n
$GPGGA,122936.60,5703.3895055,N,00952.2359181,E,2,12,0.8,-1.259,M,40.593,M,2.0,0123*67\r\n
$GPGGA,122936.65,5703.3894960,N,00952.2357980,E,2,12,0.8,-1.257,M,40.593,M,2.3,0123*66\r\n
$GPGGA,122936.70,5703.3894860,N,00952.2356785,E,2,12,0.8,-1.257,M,40.593,M,2.3,0123*69\r\n
$GPGGA,122936.75,5703.3894770,N,00952.2355591,E,2,12,0.8,-1.255,M,40.593,M,2.3,0123*64\r\n
$GPGGA,122936.80,5703.3894666,N,00952.2354381,E,2,12,0.8,-1.256,M,40.593,M,2.3,0123*6D\r\n
$GPGGA,122936.85,5703.3894567,N,00952.2353174,E,2,12,0.8,-1.258,M,40.593,M,2.5,0123*6D\r\n
$GPGGA,122936.90,5703.3894458,N,00952.2351985,E,2,12,0.8,-1.255,M,40.593,M,2.5,0123*6D\r\n
$GPGGA,122936.95,5703.3894341,N,00952.2350807,E,2,12,0.8,-1.253,M,40.593,M,2.5,0123*6B\r\n
$GPGGA,122937.00,5703.3894223,N,00952.2349603,E,2,12,0.8,-1.254,M,40.593,M,2.5,0123*66\r\n
$GPGGA,122937.05,5703.3894101,N,00952.2348413,E,2,12,0.8,-1.253,M,40.593,M,2.7,0123*67\r\n
$GPGGA,122937.10,5703.3893983,N,00952.2347211,E,2,12,0.8,-1.252,M,40.593,M,2.7,0123*6C\r\n
$GPGGA,122937.15,5703.3893866,N,00952.2346017,E,2,12,0.8,-1.251,M,40.593,M,2.7,0123*65\r\n
$GPGGA,122937.20,5703.3893741,N,00952.2344835,E,2,12,0.8,-1.250,M,40.593,M,2.7,0123*62\r\n
$GPGGA,122937.25,5703.3893605,N,00952.2343644,E,2,12,0.8,-1.253,M,40.593,M,3.0,0123*6C\r\n
$GPGGA,122937.30,5703.3893468,N,00952.2342462,E,2,12,0.8,-1.255,M,40.593,M,3.0,0123*60\r\n
$GPGGA,122937.35,5703.3893336,N,00952.2341276,E,2,12,0.8,-1.254,M,40.593,M,3.0,0123*68\r\n
$GPGGA,122937.40,5703.3893207,N,00952.2340075,E,2,12,0.8,-1.254,M,40.593,M,3.0,0123*69\r\n
$GPGGA,122937.45,5703.3893073,N,00952.2338892,E,2,12,0.8,-1.258,M,40.593,M,1.8,0123*65\r\n
$GPGGA,122937.50,5703.3892941,N,00952.2337704,E,2,12,0.8,-1.259,M,40.593,M,1.8,0123*66\r\n
$GPGGA,122937.55,5703.3892807,N,00952.2336508,E,2,12,0.8,-1.260,M,40.593,M,1.8,0123*65\r\n
$GPGGA,122937.60,5703.3892669,N,00952.2335320,E,2,12,0.8,-1.261,M,40.593,M,1.8,0123*6B\r\n
$GPGGA,122937.65,5703.3892527,N,00952.2334143,E,2,12,0.8,-1.263,M,40.593,M,2.0,0123*68\r\n
$GPGGA,122937.70,5703.3892370,N,00952.2332965,E,2,12,0.8,-1.264,M,40.593,M,2.0,0123*65\r\n
$GPGGA,122937.75,5703.3892215,N,00952.2331763,E,2,12,0.8,-1.266,M,40.593,M,2.0,0123*6B\r\n
$GPGGA,122937.80,5703.3892061,N,00952.2330568,E,2,12,0.8,-1.269,M,40.593,M,2.0,0123*67\r\n
$GPGGA,122937.85,5703.3891894,N,00952.2329390,E,2,12,0.8,-1.269,M,40.593,M,2.2,0123*68\r\n
$GPGGA,122937.90,5703.3891732,N,00952.2328229,E,2,12,0.8,-1.269,M,40.593,M,2.2,0123*6D\r\n
$GPGGA,122937.95,5703.3891568,N,00952.2327064,E,2,12,0.8,-1.267,M,40.593,M,2.2,0123*6F\r\n
$GPGGA,122938.00,5703.3891388,N,00952.2325891,E,2,12,0.8,-1.269,M,40.593,M,2.2,0123*6A\r\n
$GPGGA,122938.05,5703.3891213,N,00952.2324736,E,2,12,0.8,-1.270,M,40.593,M,2.5,0123*60\r\n
$GPGGA,122938.10,5703.3891044,N,00952.2323574,E,2,12,0.8,-1.268,M,40.593,M,2.5,0123*6E\r\n
$GPGGA,122938.15,5703.3890864,N,00952.2322420,E,2,12,0.8,-1.266,M,40.593,M,2.5,0123*6F\r\n
$GPGGA,122938.20,5703.3890688,N,00952.2321279,E,2,12,0.8,-1.262,M,40.593,M,2.5,0123*68\r\n
$GPGGA,122938.25,5703.3890498,N,00952.2320111,E,2,12,0.8,-1.265,M,40.593,M,2.7,0123*67\r\n
$GPGGA,122938.30,5703.3890301,N,00952.2318954,E,2,12,0.8,-1.265,M,40.593,M,2.7,0123*66\r\n
$GPGGA,122938.35,5703.3890099,N,00952.2317803,E,2,12,0.8,-1.262,M,40.593,M,2.7,0123*6A\r\n
$GPGGA,122938.40,5703.3889893,N,00952.2316655,E,2,12,0.8,-1.264,M,40.593,M,2.7,0123*68\r\n
$GPGGA,122938.45,5703.3889692,N,00952.2315509,E,2,12,0.8,-1.266,M,40.593,M,2.9,0123*67\r\n
$GPGGA,122938.50,5703.3889497,N,00952.2314375,E,2,12,0.8,-1.262,M,40.593,M,2.9,0123*6C\r\n
$GPGGA,122938.55,5703.3889289,N,00952.2313242,E,2,12,0.8,-1.260,M,40.593,M,2.9,0123*60\r\n
$GPGGA,122938.60,5703.3889068,N,00952.2312114,E,2,12,0.8,-1.260,M,40.593,M,2.9,0123*6A\r\n
$GPGGA,122938.65,5703.3888854,N,00952.2310987,E,2,12,0.8,-1.257,M,40.593,M,3.1,0123*64\r\n
$GPGGA,122938.70,5703.3888633,N,00952.2309876,E,2,12,0.8,-1.256,M,40.593,M,3.1,0123*69\r\n
$GPGGA,122938.75,5703.3888411,N,00952.2308745,E,2,12,0.8,-1.255,M,40.593,M,3.1,0123*63\r\n
$GPGGA,122938.80,5703.3888188,N,00952.2307625,E,2,12,0.8,-1.252,M,40.593,M,3.1,0123*63\r\n
$GPGGA,122938.85,5703.3887957,N,00952.2306523,E,2,12,0.8,-1.248,M,40.593,M,3.3,0123*6E\r\n
$GPGGA,122938.90,5703.3887726,N,00952.2305414,E,2,12,0.8,-1.247,M,40.593,M,3.3,0123*6B\r\n
$GPGGA,122938.95,5703.3887484,N,00952.2304312,E,2,12,0.8,-1.247,M,40.593,M,3.3,0123*65\r\n
$GPGGA,122939.00,5703.3887239,N,00952.2303212,E,2,12,0.8,-1.247,M,40.593,M,3.3,0123*6E\r\n
$GPGGA,122939.05,5703.3887003,N,00952.2302130,E,2,12,0.8,-1.242,M,40.593,M,3.5,0123*61\r\n
$GPGGA,122939.10,5703.3886763,N,00952.2301039,E,2,12,0.8,-1.241,M,40.593,M,3.5,0123*6D\r\n
$GPGGA,122939.15,5703.3886511,N,00952.2299955,E,2,12,0.8,-1.243,M,40.593,M,3.5,0123*6E\r\n
$GPGGA,122939.20,5703.3886255,N,00952.2298863,E,2,12,0.8,-1.246,M,40.593,M,3.5,0123*6F\r\n
$GPGGA,122939.25,5703.3885998,N,00952.2297782,E,2,12,0.8,-1.244,M,40.593,M,3.7,0123*6C\r\n
$GPGGA,122939.30,5703.3885755,N,00952.2296707,E,2,12,0.8,-1.244,M,40.593,M,3.7,0123*6B\r\n
$GPGGA,122939.35,5703.3885502,N,00952.2295628,E,2,12,0.8,-1.244,M,40.593,M,3.7,0123*61\r\n
$GPGGA,122939.40,5703.3885230,N,00952.2294564,E,2,12,0.8,-1.243,M,40.593,M,3.7,0123*68\r\n
$GPGGA,122939.45,5703.3884961,N,00952.2293493,E,2,12,0.8,-1.247,M,40.593,M,0.7,0123*6A\r\n
$GPGGA,122939.50,5703.3884679,N,00952.2292441,E,2,12,0.8,-1.251,M,40.593,M,0.7,0123*61\r\n
$GPGGA,122939.55,5703.3884401,N,00952.2291398,E,2,12,0.8,-1.254,M,40.593,M,0.7,0123*6C\r\n
$GPGGA,122939.60,5703.3884112,N,00952.2290368,E,2,12,0.8,-1.256,M,40.593,M,0.7,0123*61\r\n
$GPGGA,122939.65,5703.3883824,N,00952.2289326,E,2,12,0.8,-1.254,M,40.593,M,1.0,0123*69\r\n
$GPGGA,122939.70,5703.3883537,N,00952.2288283,E,2,12,0.8,-1.257,M,40.593,M,1.0,0123*6E\r\n
$GPGGA,122939.75,5703.3883248,N,00952.2287230,E,2,12,0.8,-1.257,M,40.593,M,1.0,0123*63\r\n
$GPGGA,122939.80,5703.3882964,N,00952.2286206,E,2,12,0.8,-1.259,M,40.593,M,1.0,0123*67\r\n
$GPGGA,122939.85,5703.3882665,N,00952.2285166,E,2,12,0.8,-1.266,M,40.593,M,1.2,0123*64\r\n
$GPGGA,122939.90,5703.3882364,N,00952.2284132,E,2,12,0.8,-1.268,M,40.593,M,1.2,0123*6A\r\n
$GPGGA,122939.95,5703.3882051,N,00952.2283104,E,2,12,0.8,-1.270,M,40.593,M,1.2,0123*61\r\n
$GPGGA,122940.00,5703.3881740,N,00952.2282081,E,2,12,0.8,-1.270,M,40.593,M,1.2,0123*6A\r\n
$GPGGA,122940.05,5703.3881434,N,00952.2281088,E,2,12,0.8,-1.263,M,40.593,M,1.5,0123*60\r\n
$GPGGA,122940.10,5703.3881119,N,00952.2280081,E,2,12,0.8,-1.263,M,40.593,M,1.5,0123*66\r\n
$GPGGA,122940.15,5703.3880793,N,00952.2279072,E,2,12,0.8,-1.265,M,40.593,M,1.5,0123*6A\r\n
$GPGGA,122940.20,5703.3880456,N,00952.2278065,E,2,12,0.8,-1.264,M,40.593,M,1.5,0123*60\r\n
$GPGGA,122940.25,5703.3880124,N,00952.2277075,E,2,12,0.8,-1.264,M,40.593,M,1.8,0123*66\r\n
$GPGGA,122940.30,5703.3879790,N,00952.2276083,E,2,12,0.8,-1.265,M,40.593,M,1.8,0123*64\r\n
$GPGGA,122940.35,5703.3879448,N,00952.2275080,E,2,12,0.8,-1.267,M,40.593,M,1.8,0123*65\r\n
$GPGGA,122940.40,5703.3879108,N,00952.2274092,E,2,12,0.8,-1.265,M,40.593,M,1.8,0123*66\r\n
$GPGGA,122940.45,5703.3878749,N,00952.2273116,E,2,12,0.8,-1.265,M,40.593,M,0.7,0123*65\r\n
$GPGGA,122940.50,5703.3878393,N,00952.2272148,E,2,12,0.8,-1.266,M,40.593,M,0.7,0123*6B\r\n
$GPGGA,122940.55,5703.3878029,N,00952.2271189,E,2,12,0.8,-1.264,M,40.593,M,0.7,0123*60\r\n
$GPGGA,122940.60,5703.3877673,N,00952.2270237,E,2,12,0.8,-1.264,M,40.593,M,0.7,0123*67\r\n
$GPGGA,122940.65,5703.3877314,N,00952.2269279,E,2,12,0.8,-1.265,M,40.593,M,0.9,0123*6B\r\n
$GPGGA,122940.70,5703.3876946,N,00952.2268321,E,2,12,0.8,-1.264,M,40.593,M,0.9,0123*6F\r\n
$GPGGA,122940.75,5703.3876578,N,00952.2267360,E,2,12,0.8,-1.264,M,40.593,M,0.9,0123*61\r\n
$GPGGA,122940.80,5703.3876211,N,00952.2266415,E,2,12,0.8,-1.264,M,40.593,M,0.9,0123*67\r\n
$GPGGA,122940.85,5703.3875842,N,00952.2265468,E,2,12,0.8,-1.262,M,40.593,M,1.2,0123*68\r\n
$GPGGA,122940.90,5703.3875479,N,00952.2264520,E,2,12,0.8,-1.259,M,40.593,M,1.2,0123*6C\r\n
$GPGGA,122940.95,5703.3875113,N,00952.2263571,E,2,12,0.8,-1.255,M,40.593,M,1.2,0123*6F\r\n
$GPGGA,122941.00,5703.3874736,N,00952.2262628,E,2,12,0.8,-1.255,M,40.593,M,1.2,0123*6C\r\n
$GPGGA,122941.05,5703.3874351,N,00952.2261703,E,2,12,0.8,-1.252,M,40.593,M,1.4,0123*66\r\n
$GPGGA,122941.10,5703.3873971,N,00952.2260765,E,2,12,0.8,-1.251,M,40.593,M,1.4,0123*6F\r\n
$GPGGA,122941.15,5703.3873585,N,00952.2259824,E,2,12,0.8,-1.249,M,40.593,M,1.4,0123*64\r\n
$GPGGA,122941.20,5703.3873205,N,00952.2258901,E,2,12,0.8,-1.246,M,40.593,M,1.4,0123*65\r\n
$GPGGA,122941.25,5703.3872817,N,00952.2257996,E,2,12,0.8,-1.241,M,40.593,M,1.6,0123*6C\r\n
$GPGGA,122941.30,5703.3872419,N,00952.2257073,E,2,12,0.8,-1.242,M,40.593,M,1.6,0123*6B\r\n
$GPGGA,122941.35,5703.3872013,N,00952.2256151,E,2,12,0.8,-1.242,M,40.593,M,1.6,0123*60\r\n
$GPGGA,122941.40,5703.3871610,N,00952.2255235,E,2,12,0.8,-1.241,M,40.593,M,1.6,0123*65\r\n
$GPGGA,122941.45,5703.3871205,N,00952.2254324,E,2,12,0.8,-1.246,M,40.593,M,1.8,0123*69\r\n
$GPGGA,122941.50,5703.3870809,N,00952.2253422,E,2,12,0.8,-1.244,M,40.593,M,1.8,0123*6E\r\n
$GPGGA,122941.55,5703.3870400,N,00952.2252531,E,2,12,0.8,-1.247,M,40.593,M,1.8,0123*6F\r\n
$GPGGA,122941.60,5703.3869990,N,00952.2251639,E,2,12,0.8,-1.250,M,40.593,M,1.8,0123*6B\r\n
$GPGGA,122941.65,5703.3869587,N,00952.2250755,E,2,12,0.8,-1.247,M,40.593,M,2.0,0123*63\r\n
$GPGGA,122941.70,5703.3869170,N,00952.2249861,E,2,12,0.8,-1.248,M,40.593,M,2.0,0123*64\r\n
$GPGGA,122941.75,5703.3868762,N,00952.2248977,E,2,12,0.8,-1.248,M,40.593,M,2.0,0123*62\r\n
$GPGGA,122941.80,5703.3868348,N,00952.2248099,E,2,12,0.8,-1.250,M,40.593,M,2.0,0123*64\r\n
$GPGGA,122941.85,5703.3867931,N,00952.2247219,E,2,12,0.8,-1.255,M,40.593,M,2.2,0123*68\r\n
$GPGGA,122941.90,5703.3867507,N,00952.2246338,E,2,12,0.8,-1.256,M,40.593,M,2.2,0123*65\r\n
$GPGGA,122941.95,5703.3867086,N,00952.2245453,E,2,12,0.8,-1.256,M,40.593,M,2.2,0123*65\r\n
$GPGGA,122942.00,5703.3866657,N,00952.2244569,E,2,12,0.8,-1.261,M,40.593,M,2.2,0123*6C\r\n
$GPGGA,122942.05,5703.3866244,N,00952.2243712,E,2,12,0.8,-1.263,M,40.593,M,2.5,0123*63\r\n
$GPGGA,122942.10,5703.3865827,N,00952.2242856,E,2,12,0.8,-1.263,M,40.593,M,2.5,0123*65\r\n
$GPGGA,122942.15,5703.3865395,N,00952.2241996,E,2,12,0.8,-1.268,M,40.593,M,2.5,0123*67\r\n
$GPGGA,122942.20,5703.3864966,N,00952.2241125,E,2,12,0.8,-1.270,M,40.593,M,2.5,0123*6F\r\n
$GPGGA,122942.25,5703.3864532,N,00952.2240251,E,2,12,0.8,-1.269,M,40.593,M,2.7,0123*6C\r\n
$GPGGA,122942.30,5703.3864103,N,00952.2239388,E,2,12,0.8,-1.270,M,40.593,M,2.7,0123*6D\r\n
$GPGGA,122942.35,5703.3863671,N,00952.2238544,E,2,12,0.8,-1.273,M,40.593,M,2.7,0123*69\r\n
$GPGGA,122942.40,5703.3863247,N,00952.2237678,E,2,12,0.8,-1.274,M,40.593,M,2.7,0123*6E\r\n
$GPGGA,122942.45,5703.3862816,N,00952.2236824,E,2,12,0.8,-1.275,M,40.593,M,2.9,0123*6D\r\n
$GPGGA,122942.50,5703.3862379,N,00952.2235990,E,2,12,0.8,-1.277,M,40.593,M,2.9,0123*64\r\n
$GPGGA,122942.55,5703.3861954,N,00952.2235153,E,2,12,0.8,-1.278,M,40.593,M,2.9,0123*6F\r\n
$GPGGA,122942.60,5703.3861520,N,00952.2234302,E,2,12,0.8,-1.281,M,40.593,M,2.9,0123*67\r\n
$GPGGA,122942.65,5703.3861075,N,00952.2233443,E,2,12,0.8,-1.283,M,40.593,M,3.1,0123*69\r\n
$GPGGA,122942.70,5703.3860636,N,00952.2232610,E,2,12,0.8,-1.280,M,40.593,M,3.1,0123*6B\r\n
$GPGGA,122942.75,5703.3860198,N,00952.2231778,E,2,12,0.8,-1.281,M,40.593,M,3.1,0123*60\r\n
$GPGGA,122942.80,5703.3859771,N,00952.2230943,E,2,12,0.8,-1.279,M,40.593,M,3.1,0123*61\r\n
$GPGGA,122942.85,5703.3859347,N,00952.2230111,E,2,12,0.8,-1.276,M,40.593,M,3.3,0123*67\r\n
$GPGGA,122942.90,5703.3858911,N,00952.2229285,E,2,12,0.8,-1.275,M,40.593,M,3.3,0123*6E\r\n
$GPGGA,122942.95,5703.3858463,N,00952.2228459,E,2,12,0.8,-1.275,M,40.593,M,3.3,0123*65\r\n
$GPGGA,122943.00,5703.3858022,N,00952.2227635,E,2,12,0.8,-1.274,M,40.593,M,3.3,0123*6F\r\n
$GPGGA,122943.05,5703.3857591,N,00952.2226827,E,2,12,0.8,-1.270,M,40.593,M,3.5,0123*66\r\n
$GPGGA,122943.10,5703.3857147,N,00952.2225998,E,2,12,0.8,-1.270,M,40.593,M,3.5,0123*6B\r\n
$GPGGA,122943.15,5703.3856710,N,00952.2225178,E,2,12,0.8,-1.272,M,40.593,M,3.5,0123*6F\r\n
$GPGGA,122943.20,5703.3856268,N,00952.2224360,E,2,12,0.8,-1.272,M,40.593,M,3.5,0123*69\r\n
$GPGGA,122943.25,5703.3855830,N,00952.2223535,E,2,12,0.8,-1.266,M,40.593,M,3.7,0123*6E\r\n
$GPGGA,122943.30,5703.3855384,N,00952.2222719,E,2,12,0.8,-1.265,M,40.593,M,3.7,0123*60\r\n
$GPGGA,122943.35,5703.3854943,N,00952.2221905,E,2,12,0.8,-1.264,M,40.593,M,3.7,0123*64\r\n
$GPGGA,122943.40,5703.3854506,N,00952.2221074,E,2,12,0.8,-1.265,M,40.593,M,3.7,0123*65\r\n
$GPGGA,122943.45,5703.3854064,N,00952.2220236,E,2,12,0.8,-1.267,M,40.593,M,3.9,0123*68\r\n
$GPGGA,122943.50,5703.3853631,N,00952.2219406,E,2,12,0.8,-1.265,M,40.593,M,3.9,0123*60\r\n
$GPGGA,122943.55,5703.3853196,N,00952.2218596,E,2,12,0.8,-1.262,M,40.593,M,3.9,0123*61\r\n
$GPGGA,122943.60,5703.3852763,N,00952.2217783,E,2,12,0.8,-1.261,M,40.593,M,3.9,0123*60\r\n
$GPGGA,122943.65,5703.3852322,N,00952.2216953,E,2,12,0.8,-1.264,M,40.593,M,4.1,0123*6C\r\n
$GPGGA,122943.70,5703.3851872,N,00952.2216115,E,2,12,0.8,-1.265,M,40.593,M,4.1,0123*6E\r\n
$GPGGA,122943.75,5703.3851428,N,00952.2215295,E,2,12,0.8,-1.268,M,40.593,M,4.1,0123*6D\r\n
$GPGGA,122943.80,5703.3850996,N,00952.2214493,E,2,12,0.8,-1.269,M,40.593,M,4.1,0123*6E\r\n
$GPGGA,122943.85,5703.3850558,N,00952.2213689,E,2,12,0.8,-1.268,M,40.593,M,4.3,0123*68\r\n
$GPGGA,122943.90,5703.3850110,N,00952.2212863,E,2,12,0.8,-1.270,M,40.593,M,4.3,0123*66\r\n
$GPGGA,122943.95,5703.3849659,N,00952.2212030,E,2,12,0.8,-1.271,M,40.593,M,4.3,0123*6E\r\n
$GPGGA,122944.00,5703.3849212,N,00952.2211206,E,2,12,0.8,-1.273,M,40.593,M,4.3,0123*68\r\n
$GPGGA,122944.05,5703.3848785,N,00952.2210398,E,2,12,0.8,-1.274,M,40.593,M,4.5,0123*61\r\n
$GPGGA,122944.10,5703.3848343,N,00952.2209593,E,2,12,0.8,-1.273,M,40.593,M,4.5,0123*69\r\n
$GPGGA,122944.15,5703.3847887,N,00952.2208790,E,2,12,0.8,-1.275,M,40.593,M,4.5,0123*66\r\n
$GPGGA,122944.20,5703.3847434,N,00952.2207955,E,2,12,0.8,-1.278,M,40.593,M,4.5,0123*61\r\n
$GPGGA,122944.25,5703.3846988,N,00952.2207122,E,2,12,0.8,-1.282,M,40.593,M,4.7,0123*60\r\n
$GPGGA,122944.30,5703.3846540,N,00952.2206291,E,2,12,0.8,-1.284,M,40.593,M,4.7,0123*60\r\n
$GPGGA,122944.35,5703.3846096,N,00952.2205470,E,2,12,0.8,-1.285,M,40.593,M,4.7,0123*60\r\n
$GPGGA,122944.40,5703.3845648,N,00952.2204652,E,2,12,0.8,-1.285,M,40.593,M,4.7,0123*67\r\n
$GPGGA,122944.45,5703.3845196,N,00952.2203854,E,2,12,0.8,-1.283,M,40.593,M,2.0,0123*6E\r\n
$GPGGA,122944.50,5703.3844734,N,00952.2203020,E,2,12,0.8,-1.287,M,40.593,M,2.0,0123*6A\r\n
$GPGGA,122944.55,5703.3844283,N,00952.2202192,E,2,12,0.8,-1.289,M,40.593,M,2.0,0123*61\r\n
$GPGGA,122944.60,5703.3843837,N,00952.2201367,E,2,12,0.8,-1.288,M,40.593,M,2.0,0123*6F\r\n
$GPGGA,122944.65,5703.3843387,N,00952.2200556,E,2,12,0.8,-1.288,M,40.593,M,2.3,0123*6C\r\n
$GPGGA,122944.70,5703.3842929,N,00952.2199738,E,2,12,0.8,-1.289,M,40.593,M,2.3,0123*6F\r\n
$GPGGA,122944.75,5703.3842464,N,00952.2198918,E,2,12,0.8,-1.291,M,40.593,M,2.3,0123*6A\r\n
$GPGGA,122944.80,5703.3842004,N,00952.2198092,E,2,12,0.8,-1.290,M,40.593,M,2.3,0123*68\r\n
$GPGGA,122944.85,5703.3841543,N,00952.2197288,E,2,12,0.8,-1.289,M,40.593,M,2.5,0123*60\r\n
$GPGGA,122944.90,5703.3841078,N,00952.2196466,E,2,12,0.8,-1.289,M,40.593,M,2.5,0123*6E\r\n
$GPGGA,122944.95,5703.3840619,N,00952.2195653,E,2,12,0.8,-1.289,M,40.593,M,2.5,0123*6C\r\n
$GPGGA,122945.00,5703.3840156,N,00952.2194846,E,2,12,0.8,-1.291,M,40.593,M,2.5,0123*6F\r\n
$GPGGA,122945.05,5703.3839696,N,00952.2194038,E,2,12,0.8,-1.284,M,40.593,M,2.7,0123*68\r\n
$GPGGA,122945.10,5703.3839229,N,00952.2193227,E,2,12,0.8,-1.284,M,40.593,M,2.7,0123*67\r\n
$GPGGA,122945.15,5703.3838766,N,00952.2192423,E,2,12,0.8,-1.281,M,40.593,M,2.7,0123*6B\r\n
$GPGGA,122945.20,5703.3838302,N,00952.2191612,E,2,12,0.8,-1.279,M,40.593,M,2.7,0123*6F\r\n
$GPGGA,122945.25,5703.3837844,N,00952.2190794,E,2,12,0.8,-1.277,M,40.593,M,3.0,0123*6A\r\n
$GPGGA,122945.30,5703.3837377,N,00952.2189984,E,2,12,0.8,-1.277,M,40.593,M,3.0,0123*62\r\n
$GPGGA,122945.35,5703.3836913,N,00952.2189205,E,2,12,0.8,-1.273,M,40.593,M,3.0,0123*68\r\n
$GPGGA,122945.40,5703.3836449,N,00952.2188411,E,2,12,0.8,-1.270,M,40.593,M,3.0,0123*69\r\n
$GPGGA,122945.45,5703.3835979,N,00952.2187618,E,2,12,0.8,-1.269,M,40.593,M,1.8,0123*67\r\n
$GPGGA,122945.50,5703.3835503,N,00952.2186820,E,2,12,0.8,-1.266,M,40.593,M,1.8,0123*69\r\n
$GPGGA,122945.55,5703.3835028,N,00952.2186025,E,2,12,0.8,-1.264,M,40.593,M,1.8,0123*6F\r\n
$GPGGA,122945.60,5703.3834563,N,00952.2185244,E,2,12,0.8,-1.262,M,40.593,M,1.8,0123*62\r\n
$GPGGA,122945.65,5703.3834093,N,00952.2184477,E,2,12,0.8,-1.259,M,40.593,M,2.0,0123*69\r\n
$GPGGA,122945.70,5703.3833617,N,00952.2183709,E,2,12,0.8,-1.258,M,40.593,M,2.0,0123*6C\r\n
$GPGGA,122945.75,5703.3833148,N,00952.2182933,E,2,12,0.8,-1.254,M,40.593,M,2.0,0123*6E\r\n
$GPGGA,122945.80,5703.3832666,N,00952.2182166,E,2,12,0.8,-1.252,M,40.593,M,2.0,0123*60\r\n
$GPGGA,122945.85,5703.3832176,N,00952.2181396,E,2,12,0.8,-1.253,M,40.593,M,2.2,0123*6E\r\n
$GPGGA,122945.90,5703.3831689,N,00952.2180632,E,2,12,0.8,-1.253,M,40.593,M,2.2,0123*64\r\n
$GPGGA,122945.95,5703.3831216,N,00952.2179872,E,2,12,0.8,-1.253,M,40.593,M,2.2,0123*6F\r\n
$GPGGA,122946.00,5703.3830736,N,00952.2179113,E,2,12,0.8,-1.251,M,40.593,M,2.2,0123*6A\r\n
$GPGGA,122946.05,5703.3830259,N,00952.2178376,E,2,12,0.8,-1.251,M,40.593,M,2.5,0123*64\r\n
