$GPGGA,113954.30,5703.4348527,N,00952.1221930,E,2,8,1.0,-0.898,M,40.593,M,2.6,0123*55\r\n
$GPGGA,113954.35,5703.4348385,N,00952.1222121,E,2,8,1.0,-0.893,M,40.593,M,2.6,0123*5E\r\n
$GPGGA,113954.40,5703.4348259,N,00952.1222335,E,2,8,1.0,-0.890,M,40.593,M,2.6,0123*58\r\n
$GPGGA,113954.45,5703.4348134,N,00952.1222544,E,2,8,1.0,-0.889,M,40.593,M,2.8,0123*53\r\n
$GPGGA,113954.50,5703.4347990,N,00952.1222748,E,2,8,1.0,-0.890,M,40.593,M,2.8,0123*58\r\n
$GPGGA,113954.55,5703.4347848,N,00952.1222952,E,2,8,1.0,-0.891,M,40.593,M,2.8,0123*5D\r\n
$GPGGA,113954.60,5703.4347713,N,00952.1223144,E,2,8,1.0,-0.895,M,40.593,M,2.8,0123*50\r\n
$GPGGA,113954.65,5703.4347580,N,00952.1223366,E,2,8,1.0,-0.899,M,40.593,M,3.0,0123*5A\r\n
$GPGGA,113954.70,5703.4347451,N,00952.1223599,E,2,8,1.0,-0.902,M,40.593,M,3.0,0123*56\r\n
$GPGGA,113954.75,5703.4347318,N,00952.1223810,E,2,8,1.0,-0.905,M,40.593,M,3.0,0123*52\r\n
$GPGGA,113954.80,5703.4347178,N,00952.1224013,E,2,8,1.0,-0.906,M,40.593,M,3.0,0123*53\r\n
$GPGGA,113954.85,5703.4347037,N,00952.1224214,E,2,8,1.0,-0.910,M,40.593,M,3.2,0123*5C\r\n
$GPGGA,113954.90,5703.4346899,N,00952.1224407,E,2,8,1.0,-0.912,M,40.593,M,3.2,0123*53\r\n
$GPGGA,113954.95,5703.4346767,N,00952.1224619,E,2,8,1.0,-0.915,M,40.593,M,3.2,0123*52\r\n
$GPGGA,113955.00,5703.4346645,N,00952.1224828,E,2,8,1.0,-0.921,M,40.593,M,3.2,0123*55\r\n
$GPGGA,113955.05,5703.4346505,N,00952.1225017,E,2,8,1.0,-0.927,M,40.593,M,3.4,0123*52\r\n
$GPGGA,113955.10,5703.4346363,N,00952.1225212,E,2,8,1.0,-0.932,M,40.593,M,3.4,0123*53\r\n
$GPGGA,113955.15,5703.4346212,N,00952.1225424,E,2,8,1.0,-0.939,M,40.593,M,3.4,0123*59\r\n
$GPGGA,113955.20,5703.4346058,N,00952.1225625,E,2,8,1.0,-0.948,M,40.593,M,3.4,0123*56\r\n
$GPGGA,113955.25,5703.4345903,N,00952.1225830,E,2,8,1.0,-0.952,M,40.593,M,3.6,0123*54\r\n
$GPGGA,113955.30,5703.4345760,N,00952.1226032,E,2,8,1.0,-0.957,M,40.593,M,3.6,0123*57\r\n
$GPGGA,113955.35,5703.4345616,N,00952.1226245,E,2,8,1.0,-0.958,M,40.593,M,3.6,0123*5F\r\n
$GPGGA,113955.40,5703.4345468,N,00952.1226435,E,2,8,1.0,-0.960,M,40.593,M,3.6,0123*5C\r\n
$GPGGA,113955.45,5703.4345316,N,00952.1226619,E,2,8,1.0,-0.966,M,40.593,M,3.0,0123*5B\r\n
$GPGGA,113955.50,5703.4345158,N,00952.1226809,E,2,8,1.0,-0.968,M,40.593,M,3.0,0123*56\r\n
$GPGGA,113955.55,5703.4345005,N,00952.1227010,E,2,8,1.0,-0.966,M,40.593,M,3.0,0123*55\r\n
$GPGGA,113955.60,5703.4344847,N,00952.1227198,E,2,8,1.0,-0.965,M,40.593,M,3.0,0123*5E\r\n
$GPGGA,113955.65,5703.4344686,N,00952.1227382,E,2,8,1.0,-0.961,M,40.593,M,3.3,0123*56\r\n
$GPGGA,113955.70,5703.4344525,N,00952.1227543,E,2,8,1.0,-0.958,M,40.593,M,3.3,0123*59\r\n
$GPGGA,113955.75,5703.4344355,N,00952.1227718,E,2,8,1.0,-0.953,M,40.593,M,3.3,0123*5A\r\n
$GPGGA,113955.80,5703.4344184,N,00952.1227896,E,2,8,1.0,-0.948,M,40.593,M,3.3,0123*5D\r\n
$GPGGA,113955.85,5703.4344028,N,00952.1228071,E,2,8,1.0,-0.938,M,40.593,M,3.5,0123*50\r\n
$GPGGA,113955.90,5703.4343876,N,00952.1228240,E,2,8,1.0,-0.931,M,40.593,M,3.5,0123*59\r\n
$GPGGA,113955.95,5703.4343722,N,00952.1228405,E,2,8,1.0,-0.923,M,40.593,M,3.5,0123*56\r\n
$GPGGA,113956.00,5703.4343563,N,00952.1228579,E,2,8,1.0,-0.916,M,40.593,M,3.5,0123*52\r\n
$GPGGA,113956.05,5703.4343416,N,00952.1228735,E,2,8,1.0,-0.911,M,40.593,M,3.7,0123*5B\r\n
$GPGGA,113956.10,5703.4343268,N,00952.1228915,E,2,8,1.0,-0.905,M,40.593,M,3.7,0123*59\r\n
$GPGGA,113956.15,5703.4343128,N,00952.1229101,E,2,8,1.0,-0.901,M,40.593,M,3.7,0123*53\r\n
$GPGGA,113956.20,5703.4342981,N,00952.1229287,E,2,8,1.0,-0.899,M,40.593,M,3.7,0123*52\r\n
$GPGGA,113956.25,5703.4342845,N,00952.1229492,E,2,8,1.0,-0.899,M,40.593,M,3.9,0123*52\r\n
$GPGGA,113956.30,5703.4342701,N,00952.1229682,E,2,8,1.0,-0.900,M,40.593,M,3.9,0123*5B\r\n
$GPGGA,113956.35,5703.4342574,N,00952.1229882,E,2,8,1.0,-0.901,M,40.593,M,3.9,0123*51\r\n
$GPGGA,113956.40,5703.4342438,N,00952.1230081,E,2,8,1.0,-0.905,M,40.593,M,3.9,0123*5D\r\n
$GPGGA,113956.45,5703.4342293,N,00952.1230290,E,2,8,1.0,-0.910,M,40.593,M,2.7,0123*56\r\n
$GPGGA,113956.50,5703.4342153,N,00952.1230501,E,2,8,1.0,-0.915,M,40.593,M,2.7,0123*57\r\n
$GPGGA,113956.55,5703.4342006,N,00952.1230703,E,2,8,1.0,-0.922,M,40.593,M,2.7,0123*57\r\n
$GPGGA,113956.60,5703.4341868,N,00952.1230901,E,2,8,1.0,-0.928,M,40.593,M,2.7,0123*54\r\n
$GPGGA,113956.65,5703.4341721,N,00952.1231080,E,2,8,1.0,-0.934,M,40.593,M,2.9,0123*51\r\n
$GPGGA,113956.70,5703.4341571,N,00952.1231279,E,2,8,1.0,-0.940,M,40.593,M,2.9,0123*55\r\n
$GPGGA,113956.75,5703.4341425,N,00952.1231480,E,2,8,1.0,-0.945,M,40.593,M,2.9,0123*55\r\n
$GPGGA,113956.80,5703.4341272,N,00952.1231689,E,2,8,1.0,-0.951,M,40.593,M,2.9,0123*55\r\n
$GPGGA,113956.85,5703.4341107,N,00952.1231872,E,2,8,1.0,-0.960,M,40.593,M,3.2,0123*53\r\n
$GPGGA,113956.90,5703.4340943,N,00952.1232053,E,2,8,1.0,-0.967,M,40.593,M,3.2,0123*51\r\n
$GPGGA,113956.95,5703.4340782,N,00952.1232244,E,2,8,1.0,-0.973,M,40.593,M,3.2,0123*56\r\n
$GPGGA,113957.00,5703.4340635,N,00952.1232419,E,2,8,1.0,-0.976,M,40.593,M,3.2,0123*5D\r\n
$GPGGA,113957.05,5703.4340492,N,00952.1232585,E,2,8,1.0,-0.976,M,40.593,M,3.4,0123*55\r\n
$GPGGA,113957.10,5703.4340339,N,00952.1232764,E,2,8,1.0,-0.975,M,40.593,M,3.4,0123*59\r\n
$GPGGA,113957.15,5703.4340188,N,00952.1232939,E,2,8,1.0,-0.974,M,40.593,M,3.4,0123*53\r\n
$GPGGA,113957.20,5703.4340032,N,00952.1233108,E,2,8,1.0,-0.973,M,40.593,M,3.4,0123*59\r\n
$GPGGA,113957.25,5703.4339877,N,00952.1233278,E,2,8,1.0,-0.968,M,40.593,M,3.7,0123*56\r\n
$GPGGA,113957.30,5703.4339718,N,00952.1233451,E,2,8,1.0,-0.963,M,40.593,M,3.7,0123*52\r\n
$GPGGA,113957.35,5703.4339541,N,00952.1233633,E,2,8,1.0,-0.956,M,40.593,M,3.7,0123*59\r\n
$GPGGA,113957.40,5703.4339383,N,00952.1233817,E,2,8,1.0,-0.950,M,40.593,M,3.7,0123*5D\r\n
$GPGGA,113957.45,5703.4339228,N,00952.1234011,E,2,8,1.0,-0.938,M,40.593,M,1.7,0123*5D\r\n
$GPGGA,113957.50,5703.4339078,N,00952.1234210,E,2,8,1.0,-0.930,M,40.593,M,1.7,0123*55\r\n
$GPGGA,113957.55,5703.4338913,N,00952.1234409,E,2,8,1.0,-0.923,M,40.593,M,1.7,0123*59\r\n
$GPGGA,113957.60,5703.4338753,N,00952.1234590,E,2,8,1.0,-0.918,M,40.593,M,1.7,0123*5C\r\n
$GPGGA,113957.65,5703.4338603,N,00952.1234797,E,2,8,1.0,-0.916,M,40.593,M,1.9,0123*58\r\n
$GPGGA,113957.70,5703.4338452,N,00952.1235003,E,2,8,1.0,-0.911,M,40.593,M,1.9,0123*56\r\n
$GPGGA,113957.75,5703.4338304,N,00952.1235214,E,2,8,1.0,-0.906,M,40.593,M,1.9,0123*55\r\n
$GPGGA,113957.80,5703.4338155,N,00952.1235415,E,2,8,1.0,-0.902,M,40.593,M,1.9,0123*5A\r\n
$GPGGA,113957.85,5703.4338008,N,00952.1235623,E,2,8,1.0,-0.896,M,40.593,M,2.1,0123*56\r\n
$GPGGA,113957.90,5703.4337850,N,00952.1235841,E,2,8,1.0,-0.891,M,40.593,M,2.1,0123*55\r\n
$GPGGA,113957.95,5703.4337701,N,00952.1236073,E,2,8,1.0,-0.887,M,40.593,M,2.1,0123*56\r\n
$GPGGA,113958.00,5703.4337550,N,00952.1236286,E,2,8,1.0,-0.887,M,40.593,M,2.1,0123*5B\r\n
$GPGGA,113958.05,5703.4337394,N,00952.1236514,E,2,8,1.0,-0.888,M,40.593,M,2.3,0123*51\r\n
$GPGGA,113958.10,5703.4337240,N,00952.1236747,E,2,8,1.0,-0.887,M,40.593,M,2.3,0123*56\r\n
$GPGGA,113958.15,5703.4337086,N,00952.1236979,E,2,8,1.0,-0.889,M,40.593,M,2.3,0123*56\r\n
$GPGGA,113958.20,5703.4336948,N,00952.1237200,E,2,8,1.0,-0.890,M,40.593,M,2.3,0123*56\r\n
$GPGGA,113958.25,5703.4336812,N,00952.1237405,E,2,8,1.0,-0.892,M,40.593,M,2.6,0123*59\r\n
$GPGGA,113958.30,5703.4336661,N,00952.1237637,E,2,8,1.0,-0.893,M,40.593,M,2.6,0123*55\r\n
$GPGGA,113958.35,5703.4336507,N,00952.1237865,E,2,8,1.0,-0.893,M,40.593,M,2.6,0123*5A\r\n
$GPGGA,113958.40,5703.4336365,N,00952.1238101,E,2,8,1.0,-0.895,M,40.593,M,2.6,0123*58\r\n
$GPGGA,113958.45,5703.4336218,N,00952.1238350,E,2,8,1.0,-0.891,M,40.593,M,2.8,0123*5A\r\n
$GPGGA,113958.50,5703.4336073,N,00952.1238585,E,2,8,1.0,-0.895,M,40.593,M,2.8,0123*5B\r\n
$GPGGA,113958.55,5703.4335935,N,00952.1238823,E,2,8,1.0,-0.898,M,40.593,M,2.8,0123*5A\r\n
$GPGGA,113958.60,5703.4335798,N,00952.1239051,E,2,8,1.0,-0.902,M,40.593,M,2.8,0123*5B\r\n
$GPGGA,113958.65,5703.4335654,N,00952.1239268,E,2,8,1.0,-0.911,M,40.593,M,3.0,0123*5C\r\n
$GPGGA,113958.70,5703.4335511,N,00952.1239493,E,2,8,1.0,-0.909,M,40.593,M,3.0,0123*51\r\n
$GPGGA,113958.75,5703.4335366,N,00952.1239720,E,2,8,1.0,-0.908,M,40.593,M,3.0,0123*58\r\n
$GPGGA,113958.80,5703.4335229,N,00952.1239943,E,2,8,1.0,-0.910,M,40.593,M,3.0,0123*5A\r\n
$GPGGA,113958.85,5703.4335087,N,00952.1240180,E,2,8,1.0,-0.906,M,40.593,M,3.2,0123*55\r\n
$GPGGA,113958.90,5703.4334925,N,00952.1240390,E,2,8,1.0,-0.908,M,40.593,M,3.2,0123*5C\r\n
$GPGGA,113958.95,5703.4334757,N,00952.1240599,E,2,8,1.0,-0.906,M,40.593,M,3.2,0123*53\r\n
$GPGGA,113959.00,5703.4334586,N,00952.1240823,E,2,8,1.0,-0.905,M,40.593,M,3.2,0123*5F\r\n
$GPGGA,113959.05,5703.4334407,N,00952.1241017,E,2,8,1.0,-0.910,M,40.593,M,3.4,0123*5E\r\n
$GPGGA,113959.10,5703.4334224,N,00952.1241243,E,2,8,1.0,-0.911,M,40.593,M,3.4,0123*5F\r\n
$GPGGA,113959.15,5703.4334035,N,00952.1241494,E,2,8,1.0,-0.910,M,40.593,M,3.4,0123*55\r\n
$GPGGA,113959.20,5703.4333857,N,00952.1241758,E,2,8,1.0,-0.913,M,40.593,M,3.4,0123*58\r\n
$GPGGA,113959.25,5703.4333682,N,00952.1242017,E,2,8,1.0,-0.915,M,40.593,M,3.6,0123*50\r\n
$GPGGA,113959.30,5703.4333503,N,00952.1242273,E,2,8,1.0,-0.917,M,40.593,M,3.6,0123*5C\r\n
$GPGGA,113959.35,5703.4333318,N,00952.1242547,E,2,8,1.0,-0.918,M,40.593,M,3.6,0123*5A\r\n
$GPGGA,113959.40,5703.4333117,N,00952.1242851,E,2,8,1.0,-0.918,M,40.593,M,3.6,0123*5F\r\n
$GPGGA,113959.45,5703.4332910,N,00952.1243145,E,2,8,1.0,-0.924,M,40.593,M,3.0,0123*50\r\n
$GPGGA,113959.50,5703.4332695,N,00952.1243450,E,2,8,1.0,-0.927,M,40.593,M,3.0,0123*54\r\n
$GPGGA,113959.55,5703.4332475,N,00952.1243795,E,2,8,1.0,-0.929,M,40.593,M,3.0,0123*59\r\n
$GPGGA,113959.60,5703.4332262,N,00952.1244157,E,2,8,1.0,-0.932,M,40.593,M,3.0,0123*5A\r\n
$GPGGA,113959.65,5703.4332045,N,00952.1244523,E,2,8,1.0,-0.935,M,40.593,M,3.3,0123*5B\r\n
$GPGGA,113959.70,5703.4331807,N,00952.1244888,E,2,8,1.0,-0.937,M,40.593,M,3.3,0123*5C\r\n
$GPGGA,113959.75,5703.4331563,N,00952.1245266,E,2,8,1.0,-0.938,M,40.593,M,3.3,0123*52\r\n
$GPGGA,113959.80,5703.4331321,N,00952.1245642,E,2,8,1.0,-0.937,M,40.593,M,3.3,0123*55\r\n
$GPGGA,113959.85,5703.4331080,N,00952.1246042,E,2,8,1.0,-0.936,M,40.593,M,3.5,0123*5A\r\n
$GPGGA,113959.90,5703.4330829,N,00952.1246442,E,2,8,1.0,-0.933,M,40.593,M,3.5,0123*55\r\n
$GPGGA,113959.95,5703.4330573,N,00952.1246842,E,2,8,1.0,-0.928,M,40.593,M,3.5,0123*54\r\n
$GPGGA,114000.00,5703.4330327,N,00952.1247255,E,2,8,1.0,-0.921,M,40.593,M,3.5,0123*59\r\n
$GPGGA,114000.05,5703.4330065,N,00952.1247679,E,2,8,1.0,-0.907,M,40.593,M,3.7,0123*55\r\n
$GPGGA,114000.10,5703.4329813,N,00952.1248122,E,2,8,1.0,-0.898,M,40.593,M,3.7,0123*51\r\n
$GPGGA,114000.15,5703.4329565,N,00952.1248564,E,2,8,1.0,-0.889,M,40.593,M,3.7,0123*5E\r\n
$GPGGA,114000.20,5703.4329325,N,00952.1249026,E,2,8,1.0,-0.878,M,40.593,M,3.7,0123*56\r\n
$GPGGA,114000.25,5703.4329075,N,00952.1249498,E,2,8,1.0,-0.870,M,40.593,M,3.9,0123*52\r\n
$GPGGA,114000.30,5703.4328810,N,00952.1250002,E,2,8,1.0,-0.861,M,40.593,M,3.9,0123*53\r\n
$GPGGA,114000.35,5703.4328535,N,00952.1250506,E,2,8,1.0,-0.856,M,40.593,M,3.9,0123*59\r\n
$GPGGA,114000.40,5703.4328254,N,00952.1251027,E,2,8,1.0,-0.852,M,40.593,M,3.9,0123*58\r\n
$GPGGA,114000.45,5703.4327973,N,00952.1251579,E,2,8,1.0,-0.851,M,40.593,M,2.7,0123*5E\r\n
$GPGGA,114000.50,5703.4327689,N,00952.1252142,E,2,8,1.0,-0.854,M,40.593,M,2.7,0123*5A\r\n
$GPGGA,114000.55,5703.4327400,N,00952.1252719,E,2,8,1.0,-0.859,M,40.593,M,2.7,0123*59\r\n
$GPGGA,114000.60,5703.4327087,N,00952.1253298,E,2,8,1.0,-0.862,M,40.593,M,2.7,0123*51\r\n
$GPGGA,114000.65,5703.4326762,N,00952.1253868,E,2,8,1.0,-0.875,M,40.593,M,2.9,0123*54\r\n
$GPGGA,114000.70,5703.4326422,N,00952.1254460,E,2,8,1.0,-0.878,M,40.593,M,2.9,0123*59\r\n
$GPGGA,114000.75,5703.4326117,N,00952.1255071,E,2,8,1.0,-0.881,M,40.593,M,2.9,0123*5C\r\n
$GPGGA,114000.80,5703.4325824,N,00952.1255659,E,2,8,1.0,-0.883,M,40.593,M,2.9,0123*52\r\n
$GPGGA,114000.85,5703.4325518,N,00952.1256264,E,2,8,1.0,-0.882,M,40.593,M,3.2,0123*57\r\n
$GPGGA,114000.90,5703.4325194,N,00952.1256875,E,2,8,1.0,-0.881,M,40.593,M,3.2,0123*5A\r\n
$GPGGA,114000.95,5703.4324876,N,00952.1257473,E,2,8,1.0,-0.881,M,40.593,M,3.2,0123*50\r\n
$GPGGA,114001.00,5703.4324540,N,00952.1258080,E,2,8,1.0,-0.878,M,40.593,M,3.2,0123*54\r\n
$GPGGA,114001.05,5703.4324216,N,00952.1258665,E,2,8,1.0,-0.878,M,40.593,M,3.4,0123*5E\r\n
$GPGGA,114001.10,5703.4323886,N,00952.1259283,E,2,8,1.0,-0.873,M,40.593,M,3.4,0123*58\r\n
$GPGGA,114001.15,5703.4323545,N,00952.1259909,E,2,8,1.0,-0.868,M,40.593,M,3.4,0123*5C\r\n
$GPGGA,114001.20,5703.4323193,N,00952.1260537,E,2,8,1.0,-0.864,M,40.593,M,3.4,0123*52\r\n
$GPGGA,114001.25,5703.4322840,N,00952.1261156,E,2,8,1.0,-0.861,M,40.593,M,3.7,0123*55\r\n
$GPGGA,114001.30,5703.4322475,N,00952.1261778,E,2,8,1.0,-0.858,M,40.593,M,3.7,0123*5B\r\n
$GPGGA,114001.35,5703.4322101,N,00952.1262415,E,2,8,1.0,-0.855,M,40.593,M,3.7,0123*5E\r\n
$GPGGA,114001.40,5703.4321738,N,00952.1263084,E,2,8,1.0,-0.852,M,40.593,M,3.7,0123*59\r\n
$GPGGA,114001.45,5703.4321372,N,00952.1263762,E,2,8,1.0,-0.853,M,40.593,M,1.7,0123*5A\r\n
$GPGGA,114001.50,5703.4321004,N,00952.1264441,E,2,8,1.0,-0.855,M,40.593,M,1.7,0123*5F\r\n
$GPGGA,114001.55,5703.4320620,N,00952.1265112,E,2,8,1.0,-0.854,M,40.593,M,1.7,0123*58\r\n
$GPGGA,114001.60,5703.4320239,N,00952.1265800,E,2,8,1.0,-0.856,M,40.593,M,1.7,0123*5A\r\n
$GPGGA,114001.65,5703.4319860,N,00952.1266498,E,2,8,1.0,-0.859,M,40.593,M,1.9,0123*5C\r\n
$GPGGA,114001.70,5703.4319494,N,00952.1267191,E,2,8,1.0,-0.863,M,40.593,M,1.9,0123*5B\r\n
$GPGGA,114001.75,5703.4319103,N,00952.1267889,E,2,8,1.0,-0.865,M,40.593,M,1.9,0123*53\r\n
$GPGGA,114001.80,5703.4318702,N,00952.1268586,E,2,8,1.0,-0.867,M,40.593,M,1.9,0123*50\r\n
$GPGGA,114001.85,5703.4318299,N,00952.1269267,E,2,8,1.0,-0.871,M,40.593,M,2.1,0123*57\r\n
$GPGGA,114001.90,5703.4317891,N,00952.1269944,E,2,8,1.0,-0.872,M,40.593,M,2.1,0123*57\r\n
$GPGGA,114001.95,5703.4317477,N,00952.1270630,E,2,8,1.0,-0.873,M,40.593,M,2.1,0123*53\r\n
$GPGGA,114002.00,5703.4317068,N,00952.1271309,E,2,8,1.0,-0.872,M,40.593,M,2.1,0123*59\r\n
$GPGGA,114002.05,5703.4316650,N,00952.1271984,E,2,8,1.0,-0.869,M,40.593,M,2.3,0123*57\r\n
$GPGGA,114002.10,5703.4316221,N,00952.1272666,E,2,8,1.0,-0.863,M,40.593,M,2.3,0123*5B\r\n
$GPGGA,114002.15,5703.4315801,N,00952.1273342,E,2,8,1.0,-0.861,M,40.593,M,2.3,0123*55\r\n
$GPGGA,114002.20,5703.4315374,N,00952.1274025,E,2,8,1.0,-0.859,M,40.593,M,2.3,0123*54\r\n
$GPGGA,114002.25,5703.4314934,N,00952.1274713,E,2,8,1.0,-0.854,M,40.593,M,2.6,0123*54\r\n
$GPGGA,114002.30,5703.4314491,N,00952.1275410,E,2,8,1.0,-0.849,M,40.593,M,2.6,0123*5F\r\n
$GPGGA,114002.35,5703.4314051,N,00952.1276106,E,2,8,1.0,-0.846,M,40.593,M,2.6,0123*5C\r\n
$GPGGA,114002.40,5703.4313609,N,00952.1276794,E,2,8,1.0,-0.845,M,40.593,M,2.6,0123*5C\r\n
$GPGGA,114002.45,5703.4313151,N,00952.1277500,E,2,8,1.0,-0.844,M,40.593,M,2.8,0123*52\r\n
$GPGGA,114002.50,5703.4312706,N,00952.1278197,E,2,8,1.0,-0.847,M,40.593,M,2.8,0123*55\r\n
$GPGGA,114002.55,5703.4312251,N,00952.1278901,E,2,8,1.0,-0.852,M,40.593,M,2.8,0123*54\r\n
$GPGGA,114002.60,5703.4311771,N,00952.1279631,E,2,8,1.0,-0.856,M,40.593,M,2.8,0123*5F\r\n
$GPGGA,114002.65,5703.4311321,N,00952.1280352,E,2,8,1.0,-0.867,M,40.593,M,3.0,0123*56\r\n
$GPGGA,114002.70,5703.4310846,N,00952.1281071,E,2,8,1.0,-0.870,M,40.593,M,3.0,0123*5C\r\n
$GPGGA,114002.75,5703.4310373,N,00952.1281777,E,2,8,1.0,-0.874,M,40.593,M,3.0,0123*51\r\n
$GPGGA,114002.80,5703.4309918,N,00952.1282486,E,2,8,1.0,-0.881,M,40.593,M,3.0,0123*50\r\n
$GPGGA,114002.85,5703.4309469,N,00952.1283197,E,2,8,1.0,-0.887,M,40.593,M,3.2,0123*5E\r\n
$GPGGA,114002.90,5703.4309011,N,00952.1283903,E,2,8,1.0,-0.889,M,40.593,M,3.2,0123*5A\r\n
$GPGGA,114002.95,5703.4308543,N,00952.1284586,E,2,8,1.0,-0.889,M,40.593,M,3.2,0123*5A\r\n
$GPGGA,114003.00,5703.4308075,N,00952.1285278,E,2,8,1.0,-0.886,M,40.593,M,3.2,0123*5F\r\n
$GPGGA,114003.05,5703.4307609,N,00952.1285966,E,2,8,1.0,-0.883,M,40.593,M,3.4,0123*5F\r\n
$GPGGA,114003.10,5703.4307140,N,00952.1286646,E,2,8,1.0,-0.881,M,40.593,M,3.4,0123*5D\r\n
$GPGGA,114003.15,5703.4306676,N,00952.1287314,E,2,8,1.0,-0.880,M,40.593,M,3.4,0123*59\r\n
$GPGGA,114003.20,5703.4306201,N,00952.1287990,E,2,8,1.0,-0.880,M,40.593,M,3.4,0123*5D\r\n
$GPGGA,114003.25,5703.4305721,N,00952.1288656,E,2,8,1.0,-0.878,M,40.593,M,3.6,0123*53\r\n
$GPGGA,114003.30,5703.4305234,N,00952.1289340,E,2,8,1.0,-0.875,M,40.593,M,3.6,0123*58\r\n
$GPGGA,114003.35,5703.4304747,N,00952.1290001,E,2,8,1.0,-0.874,M,40.593,M,3.6,0123*52\r\n
$GPGGA,114003.40,5703.4304264,N,00952.1290648,E,2,8,1.0,-0.872,M,40.593,M,3.6,0123*59\r\n
$GPGGA,114003.45,5703.4303778,N,00952.1291287,E,2,8,1.0,-0.870,M,40.593,M,1.1,0123*52\r\n
$GPGGA,114003.50,5703.4303282,N,00952.1291946,E,2,8,1.0,-0.870,M,40.593,M,1.1,0123*50\r\n
$GPGGA,114003.55,5703.4302791,N,00952.1292624,E,2,8,1.0,-0.869,M,40.593,M,1.1,0123*53\r\n
$GPGGA,114003.60,5703.4302304,N,00952.1293305,E,2,8,1.0,-0.872,M,40.593,M,1.1,0123*50\r\n
$GPGGA,114003.65,5703.4301809,N,00952.1293969,E,2,8,1.0,-0.875,M,40.593,M,1.5,0123*53\r\n
$GPGGA,114003.70,5703.4301314,N,00952.1294621,E,2,8,1.0,-0.877,M,40.593,M,1.5,0123*56\r\n
$GPGGA,114003.75,5703.4300809,N,00952.1295268,E,2,8,1.0,-0.880,M,40.593,M,1.5,0123*55\r\n
$GPGGA,114003.80,5703.4300312,N,00952.1295916,E,2,8,1.0,-0.880,M,40.593,M,1.5,0123*5C\r\n
$GPGGA,114003.85,5703.4299817,N,00952.1296569,E,2,8,1.0,-0.882,M,40.593,M,1.8,0123*5E\r\n
$GPGGA,114003.90,5703.4299313,N,00952.1297222,E,2,8,1.0,-0.886,M,40.593,M,1.8,0123*58\r\n
$GPGGA,114003.95,5703.4298811,N,00952.1297866,E,2,8,1.0,-0.890,M,40.593,M,1.8,0123*58\r\n
$GPGGA,114004.00,5703.4298305,N,00952.1298507,E,2,8,1.0,-0.893,M,40.593,M,1.8,0123*5B\r\n
$GPGGA,114004.05,5703.4297794,N,00952.1299142,E,2,8,1.0,-0.896,M,40.593,M,2.1,0123*56\r\n
$GPGGA,114004.10,5703.4297286,N,00952.1299800,E,2,8,1.0,-0.897,M,40.593,M,2.1,0123*5A\r\n
$GPGGA,114004.15,5703.4296781,N,00952.1300451,E,2,8,1.0,-0.899,M,40.593,M,2.1,0123*5B\r\n
$GPGGA,114004.20,5703.4296264,N,00952.1301085,E,2,8,1.0,-0.903,M,40.593,M,2.1,0123*5D\r\n
$GPGGA,114004.25,5703.4295751,N,00952.1301723,E,2,8,1.0,-0.905,M,40.593,M,2.4,0123*50\r\n
$GPGGA,114004.30,5703.4295249,N,00952.1302361,E,2,8,1.0,-0.906,M,40.593,M,2.4,0123*5A\r\n
$GPGGA,114004.35,5703.4294738,N,00952.1303009,E,2,8,1.0,-0.905,M,40.593,M,2.4,0123*52\r\n
$GPGGA,114004.40,5703.4294222,N,00952.1303654,E,2,8,1.0,-0.902,M,40.593,M,2.4,0123*57\r\n
$GPGGA,114004.45,5703.4293715,N,00952.1304299,E,2,8,1.0,-0.898,M,40.593,M,0.6,0123*54\r\n
$GPGGA,114004.50,5703.4293212,N,00952.1304930,E,2,8,1.0,-0.895,M,40.593,M,0.6,0123*57\r\n
$GPGGA,114004.55,5703.4292701,N,00952.1305560,E,2,8,1.0,-0.890,M,40.593,M,0.6,0123*59\r\n
$GPGGA,114004.60,5703.4292192,N,00952.1306213,E,2,8,1.0,-0.884,M,40.593,M,0.6,0123*56\r\n
$GPGGA,114004.65,5703.4291677,N,00952.1306853,E,2,8,1.0,-0.884,M,40.593,M,0.8,0123*5C\r\n
$GPGGA,114004.70,5703.4291157,N,00952.1307483,E,2,8,1.0,-0.882,M,40.593,M,0.8,0123*5B\r\n
$GPGGA,114004.75,5703.4290632,N,00952.1308108,E,2,8,1.0,-0.881,M,40.593,M,0.8,0123*51\r\n
$GPGGA,114004.80,5703.4290103,N,00952.1308749,E,2,8,1.0,-0.882,M,40.593,M,0.8,0123*5E\r\n
$GPGGA,114004.85,5703.4289571,N,00952.1309397,E,2,8,1.0,-0.882,M,40.593,M,1.0,0123*5D\r\n
$GPGGA,114004.90,5703.4289019,N,00952.1310057,E,2,8,1.0,-0.883,M,40.593,M,1.0,0123*54\r\n
$GPGGA,114004.95,5703.4288467,N,00952.1310718,E,2,8,1.0,-0.888,M,40.593,M,1.0,0123*5A\r\n
$GPGGA,114005.00,5703.4287926,N,00952.1311388,E,2,8,1.0,-0.892,M,40.593,M,1.0,0123*57\r\n
$GPGGA,114005.05,5703.4287378,N,00952.1312030,E,2,8,1.0,-0.895,M,40.593,M,1.3,0123*54\r\n
$GPGGA,114005.10,5703.4286831,N,00952.1312662,E,2,8,1.0,-0.900,M,40.593,M,1.3,0123*5B\r\n
$GPGGA,114005.15,5703.4286281,N,00952.1313319,E,2,8,1.0,-0.904,M,40.593,M,1.3,0123*53\r\n
$GPGGA,114005.20,5703.4285724,N,00952.1313978,E,2,8,1.0,-0.905,M,40.593,M,1.3,0123*50\r\n
$GPGGA,114005.25,5703.4285188,N,00952.1314642,E,2,8,1.0,-0.904,M,40.593,M,1.5,0123*53\r\n
$GPGGA,114005.30,5703.4284647,N,00952.1315292,E,2,8,1.0,-0.902,M,40.593,M,1.5,0123*5C\r\n
$GPGGA,114005.35,5703.4284098,N,00952.1315954,E,2,8,1.0,-0.899,M,40.593,M,1.5,0123*5F\r\n
$GPGGA,114005.40,5703.4283532,N,00952.1316610,E,2,8,1.0,-0.895,M,40.593,M,1.5,0123*5F\r\n
$GPGGA,114005.45,5703.4282998,N,00952.1317307,E,2,8,1.0,-0.891,M,40.593,M,1.7,0123*53\r\n
$GPGGA,114005.50,5703.4282462,N,00952.1318028,E,2,8,1.0,-0.885,M,40.593,M,1.7,0123*5B\r\n
$GPGGA,114005.55,5703.4281912,N,00952.1318748,E,2,8,1.0,-0.880,M,40.593,M,1.7,0123*53\r\n
$GPGGA,114005.60,5703.4281367,N,00952.1319467,E,2,8,1.0,-0.878,M,40.593,M,1.7,0123*55\r\n
$GPGGA,114005.65,5703.4280816,N,00952.1320221,E,2,8,1.0,-0.877,M,40.593,M,1.9,0123*53\r\n
$GPGGA,114005.70,5703.4280264,N,00952.1320956,E,2,8,1.0,-0.874,M,40.593,M,1.9,0123*50\r\n
$GPGGA,114005.75,5703.4279711,N,00952.1321674,E,2,8,1.0,-0.871,M,40.593,M,1.9,0123*5F\r\n
$GPGGA,114005.80,5703.4279157,N,00952.1322399,E,2,8,1.0,-0.870,M,40.593,M,1.9,0123*55\r\n
$GPGGA,114005.85,5703.4278600,N,00952.1323145,E,2,8,1.0,-0.868,M,40.593,M,2.1,0123*54\r\n
$GPGGA,114005.90,5703.4278044,N,00952.1323903,E,2,8,1.0,-0.864,M,40.593,M,2.1,0123*50\r\n
$GPGGA,114005.95,5703.4277507,N,00952.1324655,E,2,8,1.0,-0.862,M,40.593,M,2.1,0123*55\r\n
$GPGGA,114006.00,5703.4276950,N,00952.1325420,E,2,8,1.0,-0.856,M,40.593,M,2.1,0123*53\r\n
$GPGGA,114006.05,5703.4276389,N,00952.1326154,E,2,8,1.0,-0.853,M,40.593,M,2.3,0123*5A\r\n
$GPGGA,114006.10,5703.4275826,N,00952.1326887,E,2,8,1.0,-0.847,M,40.593,M,2.3,0123*51\r\n
$GPGGA,114006.15,5703.4275266,N,00952.1327629,E,2,8,1.0,-0.842,M,40.593,M,2.3,0123*54\r\n
$GPGGA,114006.20,5703.4274700,N,00952.1328380,E,2,8,1.0,-0.839,M,40.593,M,2.3,0123*53\r\n
$GPGGA,114006.25,5703.4274157,N,00952.1329139,E,2,8,1.0,-0.842,M,40.593,M,2.6,0123*5A\r\n
$GPGGA,114006.30,5703.4273605,N,00952.1329899,E,2,8,1.0,-0.843,M,40.593,M,2.6,0123*5B\r\n
$GPGGA,114006.35,5703.4273044,N,00952.1330658,E,2,8,1.0,-0.841,M,40.593,M,2.6,0123*54\r\n
$GPGGA,114006.40,5703.4272486,N,00952.1331433,E,2,8,1.0,-0.842,M,40.593,M,2.6,0123*50\r\n
$GPGGA,114006.45,5703.4271949,N,00952.1332215,E,2,8,1.0,-0.847,M,40.593,M,2.8,0123*52\r\n
$GPGGA,114006.50,5703.4271411,N,00952.1333003,E,2,8,1.0,-0.846,M,40.593,M,2.8,0123*53\r\n
$GPGGA,114006.55,5703.4270868,N,00952.1333798,E,2,8,1.0,-0.847,M,40.593,M,2.8,0123*51\r\n
$GPGGA,114006.60,5703.4270348,N,00952.1334589,E,2,8,1.0,-0.849,M,40.593,M,2.8,0123*55\r\n
$GPGGA,114006.65,5703.4269834,N,00952.1335402,E,2,8,1.0,-0.847,M,40.593,M,3.0,0123*5C\r\n
$GPGGA,114006.70,5703.4269312,N,00952.1336207,E,2,8,1.0,-0.847,M,40.593,M,3.0,0123*57\r\n
$GPGGA,114006.75,5703.4268794,N,00952.1336997,E,2,8,1.0,-0.845,M,40.593,M,3.0,0123*59\r\n
$GPGGA,114006.80,5703.4268281,N,00952.1337799,E,2,8,1.0,-0.843,M,40.593,M,3.0,0123*55\r\n
$GPGGA,114006.85,5703.4267776,N,00952.1338619,E,2,8,1.0,-0.842,M,40.593,M,3.2,0123*57\r\n
$GPGGA,114006.90,5703.4267263,N,00952.1339410,E,2,8,1.0,-0.841,M,40.593,M,3.2,0123*5B\r\n
$GPGGA,114006.95,5703.4266756,N,00952.1340201,E,2,8,1.0,-0.842,M,40.593,M,3.2,0123*57\r\n
$GPGGA,114007.00,5703.4266248,N,00952.1341017,E,2,8,1.0,-0.841,M,40.593,M,3.2,0123*57\r\n
$GPGGA,114007.05,5703.4265762,N,00952.1341804,E,2,8,1.0,-0.836,M,40.593,M,3.4,0123*50\r\n
$GPGGA,114007.10,5703.4265268,N,00952.1342592,E,2,8,1.0,-0.834,M,40.593,M,3.4,0123*58\r\n
$GPGGA,114007.15,5703.4264781,N,00952.1343376,E,2,8,1.0,-0.831,M,40.593,M,3.4,0123*56\r\n
$GPGGA,114007.20,5703.4264305,N,00952.1344173,E,2,8,1.0,-0.828,M,40.593,M,3.4,0123*50\r\n
$GPGGA,114007.25,5703.4263838,N,00952.1344962,E,2,8,1.0,-0.828,M,40.593,M,3.6,0123*5D\r\n
$GPGGA,114007.30,5703.4263371,N,00952.1345735,E,2,8,1.0,-0.823,M,40.593,M,3.6,0123*59\r\n
$GPGGA,114007.35,5703.4262899,N,00952.1346523,E,2,8,1.0,-0.821,M,40.593,M,3.6,0123*54\r\n
$GPGGA,114007.40,5703.4262435,N,00952.1347299,E,2,8,1.0,-0.820,M,40.593,M,3.6,0123*5A\r\n
$GPGGA,114007.45,5703.4261986,N,00952.1348092,E,2,8,1.0,-0.814,M,40.593,M,3.0,0123*5E\r\n
$GPGGA,114007.50,5703.4261536,N,00952.1348890,E,2,8,1.0,-0.810,M,40.593,M,3.0,0123*53\r\n
$GPGGA,114007.55,5703.4261086,N,00952.1349676,E,2,8,1.0,-0.811,M,40.593,M,3.0,0123*5E\r\n
$GPGGA,114007.60,5703.4260641,N,00952.1350471,E,2,8,1.0,-0.811,M,40.593,M,3.0,0123*59\r\n
$GPGGA,114007.65,5703.4260195,N,00952.1351256,E,2,8,1.0,-0.819,M,40.593,M,3.3,0123*5B\r\n
$GPGGA,114007.70,5703.4259746,N,00952.1352064,E,2,8,1.0,-0.822,M,40.593,M,3.3,0123*55\r\n
$GPGGA,114007.75,5703.4259309,N,00952.1352875,E,2,8,1.0,-0.827,M,40.593,M,3.3,0123*52\r\n
$GPGGA,114007.80,5703.4258884,N,00952.1353676,E,2,8,1.0,-0.834,M,40.593,M,3.3,0123*59\r\n
$GPGGA,114007.85,5703.4258466,N,00952.1354500,E,2,8,1.0,-0.832,M,40.593,M,3.5,0123*59\r\n
$GPGGA,114007.90,5703.4258049,N,00952.1355310,E,2,8,1.0,-0.835,M,40.593,M,3.5,0123*55\r\n
$GPGGA,114007.95,5703.4257624,N,00952.1356136,E,2,8,1.0,-0.840,M,40.593,M,3.5,0123*55\r\n
$GPGGA,114008.00,5703.4257202,N,00952.1356959,E,2,8,1.0,-0.845,M,40.593,M,3.5,0123*52\r\n
$GPGGA,114008.05,5703.4256791,N,00952.1357748,E,2,8,1.0,-0.856,M,40.593,M,3.7,0123*56\r\n
$GPGGA,114008.10,5703.4256374,N,00952.1358557,E,2,8,1.0,-0.861,M,40.593,M,3.7,0123*5A\r\n
$GPGGA,114008.15,5703.4255959,N,00952.1359362,E,2,8,1.0,-0.866,M,40.593,M,3.7,0123*5F\r\n
$GPGGA,114008.20,5703.4255550,N,00952.1360176,E,2,8,1.0,-0.870,M,40.593,M,3.7,0123*56\r\n
$GPGGA,114008.25,5703.4255136,N,00952.1361011,E,2,8,1.0,-0.865,M,40.593,M,3.9,0123*5C\r\n
$GPGGA,114008.30,5703.4254720,N,00952.1361828,E,2,8,1.0,-0.866,M,40.593,M,3.9,0123*59\r\n
$GPGGA,114008.35,5703.4254318,N,00952.1362649,E,2,8,1.0,-0.866,M,40.593,M,3.9,0123*59\r\n
$GPGGA,114008.40,5703.4253915,N,00952.1363478,E,2,8,1.0,-0.866,M,40.593,M,3.9,0123*5A\r\n
$GPGGA,114008.45,5703.4253509,N,00952.1364295,E,2,8,1.0,-0.868,M,40.593,M,2.7,0123*5D\r\n
$GPGGA,114008.50,5703.4253110,N,00952.1365118,E,2,8,1.0,-0.864,M,40.593,M,2.7,0123*5E\r\n
$GPGGA,114008.55,5703.4252729,N,00952.1365953,E,2,8,1.0,-0.861,M,40.593,M,2.7,0123*54\r\n
$GPGGA,114008.60,5703.4252320,N,00952.1366788,E,2,8,1.0,-0.856,M,40.593,M,2.7,0123*50\r\n
$GPGGA,114008.65,5703.4251930,N,00952.1367631,E,2,8,1.0,-0.850,M,40.593,M,2.9,0123*57\r\n
$GPGGA,114008.70,5703.4251531,N,00952.1368493,E,2,8,1.0,-0.847,M,40.593,M,2.9,0123*5D\r\n
$GPGGA,114008.75,5703.4251130,N,00952.1369364,E,2,8,1.0,-0.847,M,40.593,M,2.9,0123*53\r\n
$GPGGA,114008.80,5703.4250738,N,00952.1370253,E,2,8,1.0,-0.847,M,40.593,M,2.9,0123*5B\r\n
$GPGGA,114008.85,5703.4250334,N,00952.1371152,E,2,8,1.0,-0.845,M,40.593,M,3.2,0123*5D\r\n
$GPGGA,114008.90,5703.4249938,N,00952.1372056,E,2,8,1.0,-0.845,M,40.593,M,3.2,0123*51\r\n
$GPGGA,114008.95,5703.4249547,N,00952.1372967,E,2,8,1.0,-0.846,M,40.593,M,3.2,0123*58\r\n
$GPGGA,114009.00,5703.4249164,N,00952.1373892,E,2,8,1.0,-0.847,M,40.593,M,3.2,0123*5B\r\n
$GPGGA,114009.05,5703.4248779,N,00952.1374792,E,2,8,1.0,-0.845,M,40.593,M,3.4,0123*59\r\n
$GPGGA,114009.10,5703.4248387,N,00952.1375695,E,2,8,1.0,-0.845,M,40.593,M,3.4,0123*5F\r\n
$GPGGA,114009.15,5703.4248001,N,00952.1376607,E,2,8,1.0,-0.842,M,40.593,M,3.4,0123*58\r\n
$GPGGA,114009.20,5703.4247611,N,00952.1377540,E,2,8,1.0,-0.839,M,40.593,M,3.4,0123*5B\r\n
$GPGGA,114009.25,5703.4247207,N,00952.1378452,E,2,8,1.0,-0.835,M,40.593,M,3.7,0123*5F\r\n
$GPGGA,114009.30,5703.4246803,N,00952.1379385,E,2,8,1.0,-0.829,M,40.593,M,3.7,0123*55\r\n
$GPGGA,114009.35,5703.4246414,N,00952.1380312,E,2,8,1.0,-0.827,M,40.593,M,3.7,0123*5C\r\n
$GPGGA,114009.40,5703.4246028,N,00952.1381248,E,2,8,1.0,-0.825,M,40.593,M,3.7,0123*58\r\n
$GPGGA,114009.45,5703.4245642,N,00952.1382182,E,2,8,1.0,-0.820,M,40.593,M,1.7,0123*55\r\n
$GPGGA,114009.50,5703.4245233,N,00952.1383129,E,2,8,1.0,-0.816,M,40.593,M,1.7,0123*56\r\n
$GPGGA,114009.55,5703.4244834,N,00952.1384075,E,2,8,1.0,-0.811,M,40.593,M,1.7,0123*57\r\n
$GPGGA,114009.60,5703.4244432,N,00952.1385022,E,2,8,1.0,-0.810,M,40.593,M,1.7,0123*59\r\n
$GPGGA,114009.65,5703.4244039,N,00952.1385986,E,2,8,1.0,-0.818,M,40.593,M,1.9,0123*52\r\n
$GPGGA,114009.70,5703.4243636,N,00952.1386950,E,2,8,1.0,-0.823,M,40.593,M,1.9,0123*58\r\n
$GPGGA,114009.75,5703.4243230,N,00952.1387927,E,2,8,1.0,-0.829,M,40.593,M,1.9,0123*54\r\n
$GPGGA,114009.80,5703.4242827,N,00952.1388917,E,2,8,1.0,-0.837,M,40.593,M,1.9,0123*50\r\n
$GPGGA,114009.85,5703.4242402,N,00952.1389911,E,2,8,1.0,-0.840,M,40.593,M,2.1,0123*52\r\n
$GPGGA,114009.90,5703.4241993,N,00952.1390888,E,2,8,1.0,-0.844,M,40.593,M,2.1,0123*5D\r\n
$GPGGA,114009.95,5703.4241588,N,00952.1391859,E,2,8,1.0,-0.848,M,40.593,M,2.1,0123*5F\r\n
$GPGGA,114010.00,5703.4241194,N,00952.1392820,E,2,8,1.0,-0.852,M,40.593,M,2.1,0123*54\r\n
$GPGGA,114010.05,5703.4240797,N,00952.1393776,E,2,8,1.0,-0.855,M,40.593,M,2.3,0123*5D\r\n
$GPGGA,114010.10,5703.4240398,N,00952.1394740,E,2,8,1.0,-0.856,M,40.593,M,2.3,0123*53\r\n
$GPGGA,114010.15,5703.4239986,N,00952.1395692,E,2,8,1.0,-0.856,M,40.593,M,2.3,0123*52\r\n
$GPGGA,114010.20,5703.4239563,N,00952.1396628,E,2,8,1.0,-0.857,M,40.593,M,2.3,0123*50\r\n
$GPGGA,114010.25,5703.4239155,N,00952.1397564,E,2,8,1.0,-0.852,M,40.593,M,2.6,0123*5E\r\n
$GPGGA,114010.30,5703.4238740,N,00952.1398517,E,2,8,1.0,-0.850,M,40.593,M,2.6,0123*50\r\n
$GPGGA,114010.35,5703.4238323,N,00952.1399461,E,2,8,1.0,-0.849,M,40.593,M,2.6,0123*5D\r\n
$GPGGA,114010.40,5703.4237909,N,00952.1400398,E,2,8,1.0,-0.849,M,40.593,M,2.6,0123*54\r\n
$GPGGA,114010.45,5703.4237483,N,00952.1401328,E,2,8,1.0,-0.852,M,40.593,M,2.8,0123*50\r\n
$GPGGA,114010.50,5703.4237060,N,00952.1402259,E,2,8,1.0,-0.853,M,40.593,M,2.8,0123*58\r\n
$GPGGA,114010.55,5703.4236636,N,00952.1403178,E,2,8,1.0,-0.854,M,40.593,M,2.8,0123*5F\r\n
$GPGGA,114010.60,5703.4236217,N,00952.1404107,E,2,8,1.0,-0.857,M,40.593,M,2.8,0123*52\r\n
$GPGGA,114010.65,5703.4235799,N,00952.1405058,E,2,8,1.0,-0.856,M,40.593,M,3.0,0123*55\r\n
$GPGGA,114010.70,5703.4235384,N,00952.1406000,E,2,8,1.0,-0.859,M,40.593,M,3.0,0123*58\r\n
$GPGGA,114010.75,5703.4234957,N,00952.1406925,E,2,8,1.0,-0.863,M,40.593,M,3.0,0123*5F\r\n
$GPGGA,114010.80,5703.4234531,N,00952.1407854,E,2,8,1.0,-0.864,M,40.593,M,3.0,0123*58\r\n
$GPGGA,114010.85,5703.4234120,N,00952.1408780,E,2,8,1.0,-0.869,M,40.593,M,3.2,0123*5F\r\n
$GPGGA,114010.90,5703.4233706,N,00952.1409720,E,2,8,1.0,-0.870,M,40.593,M,3.2,0123*5D\r\n
$GPGGA,114010.95,5703.4233272,N,00952.1410627,E,2,8,1.0,-0.872,M,40.593,M,3.2,0123*52\r\n
$GPGGA,114011.00,5703.4232865,N,00952.1411530,E,2,8,1.0,-0.874,M,40.593,M,3.2,0123*50\r\n
$GPGGA,114011.05,5703.4232447,N,00952.1412431,E,2,8,1.0,-0.871,M,40.593,M,3.4,0123*59\r\n
$GPGGA,114011.10,5703.4232027,N,00952.1413337,E,2,8,1.0,-0.871,M,40.593,M,3.4,0123*5F\r\n
$GPGGA,114011.15,5703.4231606,N,00952.1414221,E,2,8,1.0,-0.869,M,40.593,M,3.4,0123*54\r\n
$GPGGA,114011.20,5703.4231196,N,00952.1415113,E,2,8,1.0,-0.866,M,40.593,M,3.4,0123*50\r\n
$GPGGA,114011.25,5703.4230784,N,00952.1415995,E,2,8,1.0,-0.860,M,40.593,M,3.6,0123*53\r\n
$GPGGA,114011.30,5703.4230355,N,00952.1416872,E,2,8,1.0,-0.856,M,40.593,M,3.6,0123*51\r\n
$GPGGA,114011.35,5703.4229919,N,00952.1417732,E,2,8,1.0,-0.852,M,40.593,M,3.6,0123*50\r\n
$GPGGA,114011.40,5703.4229482,N,00952.1418581,E,2,8,1.0,-0.851,M,40.593,M,3.6,0123*5B\r\n
$GPGGA,114011.45,5703.4229050,N,00952.1419438,E,2,8,1.0,-0.855,M,40.593,M,3.0,0123*55\r\n
$GPGGA,114011.50,5703.4228604,N,00952.1420318,E,2,8,1.0,-0.854,M,40.593,M,3.0,0123*59\r\n
$GPGGA,114011.55,5703.4228162,N,00952.1421176,E,2,8,1.0,-0.855,M,40.593,M,3.0,0123*51\r\n
$GPGGA,114011.60,5703.4227716,N,00952.1422048,E,2,8,1.0,-0.859,M,40.593,M,3.0,0123*5E\r\n
$GPGGA,114011.65,5703.4227247,N,00952.1422921,E,2,8,1.0,-0.857,M,40.593,M,3.3,0123*51\r\n
$GPGGA,114011.70,5703.4226784,N,00952.1423788,E,2,8,1.0,-0.860,M,40.593,M,3.3,0123*56\r\n
$GPGGA,114011.75,5703.4226340,N,00952.1424641,E,2,8,1.0,-0.865,M,40.593,M,3.3,0123*59\r\n
$GPGGA,114011.80,5703.4225874,N,00952.1425479,E,2,8,1.0,-0.870,M,40.593,M,3.3,0123*50\r\n
$GPGGA,114011.85,5703.4225415,N,00952.1426314,E,2,8,1.0,-0.877,M,40.593,M,3.5,0123*50\r\n
$GPGGA,114011.90,5703.4224962,N,00952.1427154,E,2,8,1.0,-0.880,M,40.593,M,3.5,0123*57\r\n
$GPGGA,114011.95,5703.4224503,N,00952.1427979,E,2,8,1.0,-0.881,M,40.593,M,3.5,0123*5F\r\n
$GPGGA,114012.00,5703.4224039,N,00952.1428812,E,2,8,1.0,-0.880,M,40.593,M,3.5,0123*5E\r\n
$GPGGA,114012.05,5703.4223566,N,00952.1429621,E,2,8,1.0,-0.879,M,40.593,M,3.7,0123*58\r\n
$GPGGA,114012.10,5703.4223092,N,00952.1430421,E,2,8,1.0,-0.880,M,40.593,M,3.7,0123*5E\r\n
$GPGGA,114012.15,5703.4222627,N,00952.1431235,E,2,8,1.0,-0.877,M,40.593,M,3.7,0123*58\r\n
$GPGGA,114012.20,5703.4222166,N,00952.1432048,E,2,8,1.0,-0.874,M,40.593,M,3.7,0123*54\r\n
$GPGGA,114012.25,5703.4221697,N,00952.1432843,E,2,8,1.0,-0.871,M,40.593,M,3.9,0123*53\r\n
$GPGGA,114012.30,5703.4221215,N,00952.1433635,E,2,8,1.0,-0.870,M,40.593,M,3.9,0123*56\r\n
$GPGGA,114012.35,5703.4220736,N,00952.1434442,E,2,8,1.0,-0.865,M,40.593,M,3.9,0123*57\r\n
$GPGGA,114012.40,5703.4220254,N,00952.1435246,E,2,8,1.0,-0.862,M,40.593,M,3.9,0123*50\r\n
$GPGGA,114012.45,5703.4219768,N,00952.1436063,E,2,8,1.0,-0.858,M,40.593,M,2.7,0123*55\r\n
$GPGGA,114012.50,5703.4219290,N,00952.1436862,E,2,8,1.0,-0.855,M,40.593,M,2.7,0123*57\r\n
$GPGGA,114012.55,5703.4218806,N,00952.1437666,E,2,8,1.0,-0.853,M,40.593,M,2.7,0123*5B\r\n
$GPGGA,114012.60,5703.4218320,N,00952.1438462,E,2,8,1.0,-0.850,M,40.593,M,2.7,0123*58\r\n
$GPGGA,114012.65,5703.4217830,N,00952.1439270,E,2,8,1.0,-0.844,M,40.593,M,2.9,0123*57\r\n
$GPGGA,114012.70,5703.4217336,N,00952.1440074,E,2,8,1.0,-0.837,M,40.593,M,2.9,0123*52\r\n
$GPGGA,114012.75,5703.4216856,N,00952.1440862,E,2,8,1.0,-0.833,M,40.593,M,2.9,0123*50\r\n
$GPGGA,114012.80,5703.4216370,N,00952.1441641,E,2,8,1.0,-0.825,M,40.593,M,2.9,0123*5C\r\n
$GPGGA,114012.85,5703.4215869,N,00952.1442414,E,2,8,1.0,-0.819,M,40.593,M,3.2,0123*5D\r\n
$GPGGA,114012.90,5703.4215377,N,00952.1443197,E,2,8,1.0,-0.813,M,40.593,M,3.2,0123*58\r\n
$GPGGA,114012.95,5703.4214882,N,00952.1443954,E,2,8,1.0,-0.805,M,40.593,M,3.2,0123*5D\r\n
$GPGGA,114013.00,5703.4214380,N,00952.1444707,E,2,8,1.0,-0.796,M,40.593,M,3.2,0123*53\r\n
$GPGGA,114013.05,5703.4213881,N,00952.1445473,E,2,8,1.0,-0.786,M,40.593,M,3.4,0123*5D\r\n
$GPGGA,114013.10,5703.4213378,N,00952.1446262,E,2,8,1.0,-0.783,M,40.593,M,3.4,0123*54\r\n
$GPGGA,114013.15,5703.4212863,N,00952.1447038,E,2,8,1.0,-0.781,M,40.593,M,3.4,0123*5F\r\n
$GPGGA,114013.20,5703.4212345,N,00952.1447817,E,2,8,1.0,-0.778,M,40.593,M,3.4,0123*55\r\n
$GPGGA,114013.25,5703.4211828,N,00952.1448579,E,2,8,1.0,-0.782,M,40.593,M,1.5,0123*5F\r\n
$GPGGA,114013.30,5703.4211316,N,00952.1449381,E,2,8,1.0,-0.786,M,40.593,M,1.5,0123*59\r\n
$GPGGA,114013.35,5703.4210790,N,00952.1450173,E,2,8,1.0,-0.789,M,40.593,M,1.5,0123*5F\r\n
$GPGGA,114013.40,5703.4210274,N,00952.1450958,E,2,8,1.0,-0.790,M,40.593,M,1.5,0123*5B\r\n
$GPGGA,114013.45,5703.4209742,N,00952.1451738,E,2,8,1.0,-0.796,M,40.593,M,1.7,0123*5B\r\n
$GPGGA,114013.50,5703.4209214,N,00952.1452493,E,2,8,1.0,-0.801,M,40.593,M,1.7,0123*59\r\n
$GPGGA,114013.55,5703.4208697,N,00952.1453253,E,2,8,1.0,-0.803,M,40.593,M,1.7,0123*5B\r\n
$GPGGA,114013.60,5703.4208165,N,00952.1453994,E,2,8,1.0,-0.806,M,40.593,M,1.7,0123*52\r\n
$GPGGA,114013.65,5703.4207634,N,00952.1454732,E,2,8,1.0,-0.806,M,40.593,M,1.9,0123*50\r\n
$GPGGA,114013.70,5703.4207101,N,00952.1455457,E,2,8,1.0,-0.805,M,40.593,M,1.9,0123*57\r\n
$GPGGA,114013.75,5703.4206575,N,00952.1456186,E,2,8,1.0,-0.806,M,40.593,M,1.9,0123*5D\r\n
$GPGGA,114013.80,5703.4206034,N,00952.1456893,E,2,8,1.0,-0.807,M,40.593,M,1.9,0123*5B\r\n
$GPGGA,114013.85,5703.4205501,N,00952.1457620,E,2,8,1.0,-0.807,M,40.593,M,2.1,0123*52\r\n
$GPGGA,114013.90,5703.4204957,N,00952.1458351,E,2,8,1.0,-0.808,M,40.593,M,2.1,0123*5B\r\n
$GPGGA,114013.95,5703.4204409,N,00952.1459076,E,2,8,1.0,-0.809,M,40.593,M,2.1,0123*5E\r\n
$GPGGA,114014.00,5703.4203869,N,00952.1459833,E,2,8,1.0,-0.813,M,40.593,M,2.1,0123*5A\r\n
$GPGGA,114014.05,5703.4203333,N,00952.1460555,E,2,8,1.0,-0.817,M,40.593,M,2.3,0123*5A\r\n
$GPGGA,114014.10,5703.4202801,N,00952.1461293,E,2,8,1.0,-0.822,M,40.593,M,2.3,0123*5F\r\n
$GPGGA,114014.15,5703.4202263,N,00952.1462022,E,2,8,1.0,-0.828,M,40.593,M,2.3,0123*55\r\n
$GPGGA,114014.20,5703.4201723,N,00952.1462757,E,2,8,1.0,-0.832,M,40.593,M,2.3,0123*5F\r\n
$GPGGA,114014.25,5703.4201170,N,00952.1463469,E,2,8,1.0,-0.836,M,40.593,M,2.6,0123*54\r\n
$GPGGA,114014.30,5703.4200620,N,00952.1464183,E,2,8,1.0,-0.841,M,40.593,M,2.6,0123*55\r\n
$GPGGA,114014.35,5703.4200059,N,00952.1464886,E,2,8,1.0,-0.845,M,40.593,M,2.6,0123*50\r\n
$GPGGA,114014.40,5703.4199490,N,00952.1465567,E,2,8,1.0,-0.850,M,40.593,M,2.6,0123*57\r\n
$GPGGA,114014.45,5703.4198927,N,00952.1466218,E,2,8,1.0,-0.858,M,40.593,M,2.8,0123*58\r\n
$GPGGA,114014.50,5703.4198358,N,00952.1466889,E,2,8,1.0,-0.864,M,40.593,M,2.8,0123*53\r\n
$GPGGA,114014.55,5703.4197788,N,00952.1467548,E,2,8,1.0,-0.869,M,40.593,M,2.8,0123*5C\r\n
$GPGGA,114014.60,5703.4197222,N,00952.1468216,E,2,8,1.0,-0.875,M,40.593,M,2.8,0123*51\r\n
$GPGGA,114014.65,5703.4196644,N,00952.1468875,E,2,8,1.0,-0.877,M,40.593,M,3.0,0123*55\r\n
$GPGGA,114014.70,5703.4196077,N,00952.1469541,E,2,8,1.0,-0.881,M,40.593,M,3.0,0123*55\r\n
$GPGGA,114014.75,5703.4195522,N,00952.1470208,E,2,8,1.0,-0.884,M,40.593,M,3.0,0123*51\r\n
$GPGGA,114014.80,5703.4194955,N,00952.1470900,E,2,8,1.0,-0.889,M,40.593,M,3.0,0123*58\r\n
$GPGGA,114014.85,5703.4194396,N,00952.1471581,E,2,8,1.0,-0.890,M,40.593,M,3.2,0123*56\r\n
$GPGGA,114014.90,5703.4193835,N,00952.1472244,E,2,8,1.0,-0.893,M,40.593,M,3.2,0123*59\r\n
$GPGGA,114014.95,5703.4193277,N,00952.1472913,E,2,8,1.0,-0.896,M,40.593,M,3.2,0123*5C\r\n
$GPGGA,114015.00,5703.4192725,N,00952.1473584,E,2,8,1.0,-0.897,M,40.593,M,3.2,0123*50\r\n
$GPGGA,114015.05,5703.4192172,N,00952.1474262,E,2,8,1.0,-0.893,M,40.593,M,3.4,0123*5B\r\n
$GPGGA,114015.10,5703.4191602,N,00952.1474926,E,2,8,1.0,-0.894,M,40.593,M,3.4,0123*50\r\n
$GPGGA,114015.15,5703.4191049,N,00952.1475611,E,2,8,1.0,-0.896,M,40.593,M,3.4,0123*54\r\n
$GPGGA,114015.20,5703.4190489,N,00952.1476289,E,2,8,1.0,-0.895,M,40.593,M,3.4,0123*5E\r\n
$GPGGA,114015.25,5703.4189933,N,00952.1476960,E,2,8,1.0,-0.894,M,40.593,M,2.8,0123*5F\r\n
$GPGGA,114015.30,5703.4189380,N,00952.1477644,E,2,8,1.0,-0.890,M,40.593,M,2.8,0123*55\r\n
$GPGGA,114015.35,5703.4188823,N,00952.1478298,E,2,8,1.0,-0.887,M,40.593,M,2.8,0123*5F\r\n
$GPGGA,114015.40,5703.4188276,N,00952.1478971,E,2,8,1.0,-0.884,M,40.593,M,2.8,0123*58\r\n
$GPGGA,114015.45,5703.4187726,N,00952.1479642,E,2,8,1.0,-0.877,M,40.593,M,3.0,0123*59\r\n
$GPGGA,114015.50,5703.4187160,N,00952.1480287,E,2,8,1.0,-0.871,M,40.593,M,3.0,0123*54\r\n
$GPGGA,114015.55,5703.4186607,N,00952.1480957,E,2,8,1.0,-0.862,M,40.593,M,3.0,0123*52\r\n
$GPGGA,114015.60,5703.4186043,N,00952.1481605,E,2,8,1.0,-0.857,M,40.593,M,3.0,0123*5D\r\n
$GPGGA,114015.65,5703.4185484,N,00952.1482272,E,2,8,1.0,-0.854,M,40.593,M,3.3,0123*53\r\n
$GPGGA,114015.70,5703.4184935,N,00952.1482940,E,2,8,1.0,-0.849,M,40.593,M,3.3,0123*57\r\n
$GPGGA,114015.75,5703.4184389,N,00952.1483617,E,2,8,1.0,-0.844,M,40.593,M,3.3,0123*5E\r\n
$GPGGA,114015.80,5703.4183845,N,00952.1484302,E,2,8,1.0,-0.837,M,40.593,M,3.3,0123*5A\r\n
$GPGGA,114015.85,5703.4183301,N,00952.1484994,E,2,8,1.0,-0.828,M,40.593,M,3.5,0123*59\r\n
$GPGGA,114015.90,5703.4182772,N,00952.1485694,E,2,8,1.0,-0.823,M,40.593,M,3.5,0123*59\r\n
$GPGGA,114015.95,5703.4182234,N,00952.1486390,E,2,8,1.0,-0.819,M,40.593,M,3.5,0123*50\r\n
$GPGGA,114016.00,5703.4181695,N,00952.1487098,E,2,8,1.0,-0.815,M,40.593,M,3.5,0123*55\r\n
$GPGGA,114016.05,5703.4181161,N,00952.1487812,E,2,8,1.0,-0.815,M,40.593,M,3.7,0123*54\r\n
$GPGGA,114016.10,5703.4180620,N,00952.1488508,E,2,8,1.0,-0.813,M,40.593,M,3.7,0123*5C\r\n
$GPGGA,114016.15,5703.4180090,N,00952.1489232,E,2,8,1.0,-0.811,M,40.593,M,3.7,0123*59\r\n
$GPGGA,114016.20,5703.4179568,N,00952.1489974,E,2,8,1.0,-0.808,M,40.593,M,3.7,0123*5A\r\n
$GPGGA,114016.25,5703.4179037,N,00952.1490706,E,2,8,1.0,-0.811,M,40.593,M,2.4,0123*59\r\n
$GPGGA,114016.30,5703.4178508,N,00952.1491434,E,2,8,1.0,-0.810,M,40.593,M,2.4,0123*57\r\n
$GPGGA,114016.35,5703.4177982,N,00952.1492155,E,2,8,1.0,-0.809,M,40.593,M,2.4,0123*5A\r\n
$GPGGA,114016.40,5703.4177457,N,00952.1492896,E,2,8,1.0,-0.808,M,40.593,M,2.4,0123*5A\r\n
$GPGGA,114016.45,5703.4176933,N,00952.1493615,E,2,8,1.0,-0.805,M,40.593,M,2.7,0123*5B\r\n
$GPGGA,114016.50,5703.4176402,N,00952.1494353,E,2,8,1.0,-0.801,M,40.593,M,2.7,0123*54\r\n
$GPGGA,114016.55,5703.4175875,N,00952.1495069,E,2,8,1.0,-0.799,M,40.593,M,2.7,0123*5B\r\n
$GPGGA,114016.60,5703.4175357,N,00952.1495805,E,2,8,1.0,-0.799,M,40.593,M,2.7,0123*54\r\n
$GPGGA,114016.65,5703.4174843,N,00952.1496537,E,2,8,1.0,-0.800,M,40.593,M,2.9,0123*50\r\n
$GPGGA,114016.70,5703.4174339,N,00952.1497299,E,2,8,1.0,-0.799,M,40.593,M,2.9,0123*5F\r\n
$GPGGA,114016.75,5703.4173815,N,00952.1498039,E,2,8,1.0,-0.797,M,40.593,M,2.9,0123*51\r\n
$GPGGA,114016.80,5703.4173300,N,00952.1498782,E,2,8,1.0,-0.798,M,40.593,M,2.9,0123*5C\r\n
$GPGGA,114016.85,5703.4172786,N,00952.1499537,E,2,8,1.0,-0.798,M,40.593,M,3.2,0123*55\r\n
$GPGGA,114016.90,5703.4172269,N,00952.1500287,E,2,8,1.0,-0.798,M,40.593,M,3.2,0123*58\r\n
$GPGGA,114016.95,5703.4171766,N,00952.1501047,E,2,8,1.0,-0.803,M,40.593,M,3.2,0123*56\r\n
$GPGGA,114017.00,5703.4171261,N,00952.1501808,E,2,8,1.0,-0.804,M,40.593,M,3.2,0123*5D\r\n
$GPGGA,114017.05,5703.4170757,N,00952.1502573,E,2,8,1.0,-0.801,M,40.593,M,3.4,0123*58\r\n
$GPGGA,114017.10,5703.4170247,N,00952.1503343,E,2,8,1.0,-0.804,M,40.593,M,3.4,0123*59\r\n
$GPGGA,114017.15,5703.4169733,N,00952.1504116,E,2,8,1.0,-0.802,M,40.593,M,3.4,0123*51\r\n
$GPGGA,114017.20,5703.4169224,N,00952.1504883,E,2,8,1.0,-0.802,M,40.593,M,3.4,0123*51\r\n
$GPGGA,114017.25,5703.4168718,N,00952.1505649,E,2,8,1.0,-0.808,M,40.593,M,1.5,0123*5F\r\n
$GPGGA,114017.30,5703.4168217,N,00952.1506403,E,2,8,1.0,-0.813,M,40.593,M,1.5,0123*54\r\n
$GPGGA,114017.35,5703.4167701,N,00952.1507160,E,2,8,1.0,-0.813,M,40.593,M,1.5,0123*5D\r\n
$GPGGA,114017.40,5703.4167190,N,00952.1507924,E,2,8,1.0,-0.817,M,40.593,M,1.5,0123*5D\r\n
$GPGGA,114017.45,5703.4166682,N,00952.1508670,E,2,8,1.0,-0.823,M,40.593,M,1.7,0123*59\r\n
$GPGGA,114017.50,5703.4166166,N,00952.1509428,E,2,8,1.0,-0.827,M,40.593,M,1.7,0123*5A\r\n
$GPGGA,114017.55,5703.4165654,N,00952.1510191,E,2,8,1.0,-0.831,M,40.593,M,1.7,0123*52\r\n
$GPGGA,114017.60,5703.4165127,N,00952.1510946,E,2,8,1.0,-0.837,M,40.593,M,1.7,0123*53\r\n
$GPGGA,114017.65,5703.4164615,N,00952.1511704,E,2,8,1.0,-0.838,M,40.593,M,1.9,0123*59\r\n
$GPGGA,114017.70,5703.4164111,N,00952.1512453,E,2,8,1.0,-0.843,M,40.593,M,1.9,0123*50\r\n
$GPGGA,114017.75,5703.4163594,N,00952.1513204,E,2,8,1.0,-0.846,M,40.593,M,1.9,0123*5B\r\n
$GPGGA,114017.80,5703.4163073,N,00952.1513941,E,2,8,1.0,-0.852,M,40.593,M,1.9,0123*52\r\n
$GPGGA,114017.85,5703.4162559,N,00952.1514695,E,2,8,1.0,-0.863,M,40.593,M,2.1,0123*53\r\n
$GPGGA,114017.90,5703.4162040,N,00952.1515446,E,2,8,1.0,-0.868,M,40.593,M,2.1,0123*5C\r\n
$GPGGA,114017.95,5703.4161536,N,00952.1516216,E,2,8,1.0,-0.875,M,40.593,M,2.1,0123*52\r\n
$GPGGA,114018.00,5703.4161024,N,00952.1516973,E,2,8,1.0,-0.881,M,40.593,M,2.1,0123*54\r\n
$GPGGA,114018.05,5703.4160524,N,00952.1517710,E,2,8,1.0,-0.886,M,40.593,M,2.3,0123*5A\r\n
$GPGGA,114018.10,5703.4160004,N,00952.1518453,E,2,8,1.0,-0.892,M,40.593,M,2.3,0123*57\r\n
$GPGGA,114018.15,5703.4159485,N,00952.1519182,E,2,8,1.0,-0.897,M,40.593,M,2.3,0123*58\r\n
$GPGGA,114018.20,5703.4158987,N,00952.1519932,E,2,8,1.0,-0.901,M,40.593,M,2.3,0123*5D\r\n
$GPGGA,114018.25,5703.4158481,N,00952.1520662,E,2,8,1.0,-0.906,M,40.593,M,2.6,0123*51\r\n
$GPGGA,114018.30,5703.4157964,N,00952.1521392,E,2,8,1.0,-0.909,M,40.593,M,2.6,0123*58\r\n
$GPGGA,114018.35,5703.4157450,N,00952.1522121,E,2,8,1.0,-0.915,M,40.593,M,2.6,0123*53\r\n
$GPGGA,114018.40,5703.4156951,N,00952.1522858,E,2,8,1.0,-0.915,M,40.593,M,2.6,0123*5B\r\n
$GPGGA,114018.45,5703.4156446,N,00952.1523578,E,2,8,1.0,-0.910,M,40.593,M,2.8,0123*50\r\n
$GPGGA,114018.50,5703.4155943,N,00952.1524312,E,2,8,1.0,-0.907,M,40.593,M,2.8,0123*54\r\n
$GPGGA,114018.55,5703.4155446,N,00952.1525050,E,2,8,1.0,-0.905,M,40.593,M,2.8,0123*5F\r\n
$GPGGA,114018.60,5703.4154950,N,00952.1525775,E,2,8,1.0,-0.904,M,40.593,M,2.8,0123*53\r\n
$GPGGA,114018.65,5703.4154471,N,00952.1526522,E,2,8,1.0,-0.902,M,40.593,M,3.0,0123*54\r\n
$GPGGA,114018.70,5703.4153986,N,00952.1527256,E,2,8,1.0,-0.897,M,40.593,M,3.0,0123*5A\r\n
$GPGGA,114018.75,5703.4153507,N,00952.1527987,E,2,8,1.0,-0.893,M,40.593,M,3.0,0123*59\r\n
$GPGGA,114018.80,5703.4153022,N,00952.1528743,E,2,8,1.0,-0.886,M,40.593,M,3.0,0123*5C\r\n
$GPGGA,114018.85,5703.4152527,N,00952.1529491,E,2,8,1.0,-0.878,M,40.593,M,3.2,0123*56\r\n
$GPGGA,114018.90,5703.4152039,N,00952.1530238,E,2,8,1.0,-0.872,M,40.593,M,3.2,0123*5F\r\n
$GPGGA,114018.95,5703.4151567,N,00952.1530986,E,2,8,1.0,-0.867,M,40.593,M,3.2,0123*5D\r\n
$GPGGA,114019.00,5703.4151087,N,00952.1531735,E,2,8,1.0,-0.863,M,40.593,M,3.2,0123*58\r\n
$GPGGA,114019.05,5703.4150616,N,00952.1532483,E,2,8,1.0,-0.861,M,40.593,M,3.4,0123*5B\r\n
$GPGGA,114019.10,5703.4150139,N,00952.1533246,E,2,8,1.0,-0.859,M,40.593,M,3.4,0123*50\r\n
$GPGGA,114019.15,5703.4149663,N,00952.1534028,E,2,8,1.0,-0.858,M,40.593,M,3.4,0123*59\r\n
$GPGGA,114019.20,5703.4149190,N,00952.1534797,E,2,8,1.0,-0.859,M,40.593,M,3.4,0123*56\r\n
$GPGGA,114019.25,5703.4148726,N,00952.1535581,E,2,8,1.0,-0.855,M,40.593,M,2.8,0123*5C\r\n
$GPGGA,114019.30,5703.4148258,N,00952.1536370,E,2,8,1.0,-0.855,M,40.593,M,2.8,0123*5F\r\n
$GPGGA,114019.35,5703.4147810,N,00952.1537159,E,2,8,1.0,-0.856,M,40.593,M,2.8,0123*58\r\n
$GPGGA,114019.40,5703.4147361,N,00952.1537948,E,2,8,1.0,-0.855,M,40.593,M,2.8,0123*5C\r\n
$GPGGA,114019.45,5703.4146922,N,00952.1538757,E,2,8,1.0,-0.856,M,40.593,M,3.0,0123*50\r\n
$GPGGA,114019.50,5703.4146468,N,00952.1539544,E,2,8,1.0,-0.854,M,40.593,M,3.0,0123*54\r\n
$GPGGA,114019.55,5703.4146022,N,00952.1540350,E,2,8,1.0,-0.854,M,40.593,M,3.0,0123*56\r\n
$GPGGA,114019.60,5703.4145579,N,00952.1541151,E,2,8,1.0,-0.854,M,40.593,M,3.0,0123*5A\r\n
$GPGGA,114019.65,5703.4145160,N,00952.1541952,E,2,8,1.0,-0.854,M,40.593,M,3.3,0123*5B\r\n
$GPGGA,114019.70,5703.4144728,N,00952.1542756,E,2,8,1.0,-0.853,M,40.593,M,3.3,0123*5A\r\n
$GPGGA,114019.75,5703.4144298,N,00952.1543547,E,2,8,1.0,-0.853,M,40.593,M,3.3,0123*52\r\n
$GPGGA,114019.80,5703.4143859,N,00952.1544353,E,2,8,1.0,-0.852,M,40.593,M,3.3,0123*5D\r\n
$GPGGA,114019.85,5703.4143413,N,00952.1545139,E,2,8,1.0,-0.857,M,40.593,M,3.5,0123*56\r\n
$GPGGA,114019.90,5703.4142970,N,00952.1545922,E,2,8,1.0,-0.858,M,40.593,M,3.5,0123*56\r\n
$GPGGA,114019.95,5703.4142533,N,00952.1546696,E,2,8,1.0,-0.859,M,40.593,M,3.5,0123*5A\r\n
$GPGGA,114020.00,5703.4142097,N,00952.1547481,E,2,8,1.0,-0.860,M,40.593,M,3.5,0123*58\r\n
$GPGGA,114020.05,5703.4141673,N,00952.1548252,E,2,8,1.0,-0.866,M,40.593,M,3.7,0123*51\r\n
$GPGGA,114020.10,5703.4141236,N,00952.1549030,E,2,8,1.0,-0.866,M,40.593,M,3.7,0123*57\r\n
$GPGGA,114020.15,5703.4140809,N,00952.1549821,E,2,8,1.0,-0.869,M,40.593,M,3.7,0123*52\r\n
$GPGGA,114020.20,5703.4140380,N,00952.1550596,E,2,8,1.0,-0.871,M,40.593,M,3.7,0123*5E\r\n
$GPGGA,114020.25,5703.4139964,N,00952.1551382,E,2,8,1.0,-0.871,M,40.593,M,2.4,0123*55\r\n
$GPGGA,114020.30,5703.4139542,N,00952.1552164,E,2,8,1.0,-0.872,M,40.593,M,2.4,0123*53\r\n
$GPGGA,114020.35,5703.4139128,N,00952.1552935,E,2,8,1.0,-0.875,M,40.593,M,2.4,0123*55\r\n
$GPGGA,114020.40,5703.4138710,N,00952.1553711,E,2,8,1.0,-0.875,M,40.593,M,2.4,0123*52\r\n
$GPGGA,114020.45,5703.4138294,N,00952.1554490,E,2,8,1.0,-0.874,M,40.593,M,2.7,0123*51\r\n
$GPGGA,114020.50,5703.4137883,N,00952.1555272,E,2,8,1.0,-0.872,M,40.593,M,2.7,0123*5B\r\n
$GPGGA,114020.55,5703.4137465,N,00952.1556024,E,2,8,1.0,-0.872,M,40.593,M,2.7,0123*58\r\n
$GPGGA,114020.60,5703.4137049,N,00952.1556783,E,2,8,1.0,-0.872,M,40.593,M,2.7,0123*5E\r\n
$GPGGA,114020.65,5703.4136633,N,00952.1557535,E,2,8,1.0,-0.872,M,40.593,M,2.9,0123*51\r\n
$GPGGA,114020.70,5703.4136234,N,00952.1558288,E,2,8,1.0,-0.871,M,40.593,M,2.9,0123*5B\r\n
$GPGGA,114020.75,5703.4135814,N,00952.1559046,E,2,8,1.0,-0.871,M,40.593,M,2.9,0123*54\r\n
$GPGGA,114020.80,5703.4135399,N,00952.1559817,E,2,8,1.0,-0.873,M,40.593,M,2.9,0123*5E\r\n
$GPGGA,114020.85,5703.4134996,N,00952.1560592,E,2,8,1.0,-0.875,M,40.593,M,3.2,0123*59\r\n
$GPGGA,114020.90,5703.4134580,N,00952.1561359,E,2,8,1.0,-0.879,M,40.593,M,3.2,0123*5A\r\n
$GPGGA,114020.95,5703.4134170,N,00952.1562116,E,2,8,1.0,-0.885,M,40.593,M,3.2,0123*5D\r\n
$GPGGA,114021.00,5703.4133759,N,00952.1562887,E,2,8,1.0,-0.891,M,40.593,M,3.2,0123*5E\r\n
$GPGGA,114021.05,5703.4133355,N,00952.1563633,E,2,8,1.0,-0.899,M,40.593,M,3.4,0123*5D\r\n
$GPGGA,114021.10,5703.4132945,N,00952.1564380,E,2,8,1.0,-0.905,M,40.593,M,3.4,0123*5D\r\n
$GPGGA,114021.15,5703.4132529,N,00952.1565133,E,2,8,1.0,-0.912,M,40.593,M,3.4,0123*53\r\n
$GPGGA,114021.20,5703.4132117,N,00952.1565882,E,2,8,1.0,-0.918,M,40.593,M,3.4,0123*55\r\n
$GPGGA,114021.25,5703.4131707,N,00952.1566614,E,2,8,1.0,-0.923,M,40.593,M,1.5,0123*5D\r\n
$GPGGA,114021.30,5703.4131291,N,00952.1567349,E,2,8,1.0,-0.927,M,40.593,M,1.5,0123*5B\r\n
$GPGGA,114021.35,5703.4130872,N,00952.1568090,E,2,8,1.0,-0.930,M,40.593,M,1.5,0123*56\r\n
$GPGGA,114021.40,5703.4130455,N,00952.1568816,E,2,8,1.0,-0.933,M,40.593,M,1.5,0123*58\r\n
$GPGGA,114021.45,5703.4130042,N,00952.1569543,E,2,8,1.0,-0.933,M,40.593,M,1.7,0123*51\r\n
$GPGGA,114021.50,5703.4129620,N,00952.1570254,E,2,8,1.0,-0.936,M,40.593,M,1.7,0123*53\r\n
$GPGGA,114021.55,5703.4129190,N,00952.1570961,E,2,8,1.0,-0.935,M,40.593,M,1.7,0123*54\r\n
$GPGGA,114021.60,5703.4128770,N,00952.1571671,E,2,8,1.0,-0.936,M,40.593,M,1.7,0123*57\r\n
$GPGGA,114021.65,5703.4128350,N,00952.1572367,E,2,8,1.0,-0.934,M,40.593,M,1.9,0123*59\r\n
$GPGGA,114021.70,5703.4127919,N,00952.1573062,E,2,8,1.0,-0.936,M,40.593,M,1.9,0123*50\r\n
$GPGGA,114021.75,5703.4127481,N,00952.1573780,E,2,8,1.0,-0.935,M,40.593,M,1.9,0123*51\r\n
$GPGGA,114021.80,5703.4127049,N,00952.1574487,E,2,8,1.0,-0.935,M,40.593,M,1.9,0123*58\r\n
$GPGGA,114021.85,5703.4126621,N,00952.1575188,E,2,8,1.0,-0.938,M,40.593,M,2.1,0123*59\r\n
$GPGGA,114021.90,5703.4126195,N,00952.1575896,E,2,8,1.0,-0.941,M,40.593,M,2.1,0123*5D\r\n
$GPGGA,114021.95,5703.4125773,N,00952.1576617,E,2,8,1.0,-0.942,M,40.593,M,2.1,0123*52\r\n
$GPGGA,114022.00,5703.4125344,N,00952.1577325,E,2,8,1.0,-0.944,M,40.593,M,2.1,0123*5E\r\n
$GPGGA,114022.05,5703.4124921,N,00952.1578022,E,2,8,1.0,-0.939,M,40.593,M,2.3,0123*50\r\n
$GPGGA,114022.10,5703.4124491,N,00952.1578717,E,2,8,1.0,-0.939,M,40.593,M,2.3,0123*53\r\n
$GPGGA,114022.15,5703.4124054,N,00952.1579410,E,2,8,1.0,-0.938,M,40.593,M,2.3,0123*5F\r\n
$GPGGA,114022.20,5703.4123622,N,00952.1580100,E,2,8,1.0,-0.933,M,40.593,M,2.3,0123*50\r\n
$GPGGA,114022.25,5703.4123188,N,00952.1580787,E,2,8,1.0,-0.932,M,40.593,M,2.6,0123*5F\r\n
$GPGGA,114022.30,5703.4122750,N,00952.1581472,E,2,8,1.0,-0.931,M,40.593,M,2.6,0123*52\r\n
$GPGGA,114022.35,5703.4122299,N,00952.1582145,E,2,8,1.0,-0.929,M,40.593,M,2.6,0123*5C\r\n
$GPGGA,114022.40,5703.4121854,N,00952.1582814,E,2,8,1.0,-0.930,M,40.593,M,2.6,0123*53\r\n
$GPGGA,114022.45,5703.4121426,N,00952.1583509,E,2,8,1.0,-0.931,M,40.593,M,2.8,0123*50\r\n
$GPGGA,114022.50,5703.4120987,N,00952.1584193,E,2,8,1.0,-0.932,M,40.593,M,2.8,0123*50\r\n
$GPGGA,114022.55,5703.4120546,N,00952.1584886,E,2,8,1.0,-0.933,M,40.593,M,2.8,0123*58\r\n
$GPGGA,114022.60,5703.4120108,N,00952.1585585,E,2,8,1.0,-0.934,M,40.593,M,2.8,0123*58\r\n
$GPGGA,114022.65,5703.4119671,N,00952.1586297,E,2,8,1.0,-0.929,M,40.593,M,3.0,0123*5C\r\n
$GPGGA,114022.70,5703.4119240,N,00952.1586995,E,2,8,1.0,-0.928,M,40.593,M,3.0,0123*56\r\n
$GPGGA,114022.75,5703.4118796,N,00952.1587717,E,2,8,1.0,-0.929,M,40.593,M,3.0,0123*58\r\n
$GPGGA,114022.80,5703.4118358,N,00952.1588407,E,2,8,1.0,-0.929,M,40.593,M,3.0,0123*59\r\n
$GPGGA,114022.85,5703.4117919,N,00952.1589098,E,2,8,1.0,-0.930,M,40.593,M,3.2,0123*55\r\n
$GPGGA,114022.90,5703.4117476,N,00952.1589768,E,2,8,1.0,-0.928,M,40.593,M,3.2,0123*54\r\n
$GPGGA,114022.95,5703.4117034,N,00952.1590439,E,2,8,1.0,-0.923,M,40.593,M,3.2,0123*57\r\n
$GPGGA,114023.00,5703.4116598,N,00952.1591108,E,2,8,1.0,-0.918,M,40.593,M,3.2,0123*56\r\n
$GPGGA,114023.05,5703.4116157,N,00952.1591789,E,2,8,1.0,-0.907,M,40.593,M,3.4,0123*53\r\n
$GPGGA,114023.10,5703.4115709,N,00952.1592461,E,2,8,1.0,-0.902,M,40.593,M,3.4,0123*5A\r\n
$GPGGA,114023.15,5703.4115265,N,00952.1593134,E,2,8,1.0,-0.896,M,40.593,M,3.4,0123*58\r\n
$GPGGA,114023.20,5703.4114825,N,00952.1593809,E,2,8,1.0,-0.888,M,40.593,M,3.4,0123*59\r\n
$GPGGA,114023.25,5703.4114391,N,00952.1594486,E,2,8,1.0,-0.883,M,40.593,M,2.8,0123*52\r\n
$GPGGA,114023.30,5703.4113955,N,00952.1595170,E,2,8,1.0,-0.878,M,40.593,M,2.8,0123*5A\r\n
$GPGGA,114023.35,5703.4113515,N,00952.1595855,E,2,8,1.0,-0.874,M,40.593,M,2.8,0123*55\r\n
$GPGGA,114023.40,5703.4113081,N,00952.1596554,E,2,8,1.0,-0.870,M,40.593,M,2.8,0123*54\r\n
$GPGGA,114023.45,5703.4112647,N,00952.1597236,E,2,8,1.0,-0.868,M,40.593,M,3.0,0123*5E\r\n
$GPGGA,114023.50,5703.4112206,N,00952.1597922,E,2,8,1.0,-0.865,M,40.593,M,3.0,0123*58\r\n
$GPGGA,114023.55,5703.4111775,N,00952.1598622,E,2,8,1.0,-0.864,M,40.593,M,3.0,0123*5E\r\n
$GPGGA,114023.60,5703.4111351,N,00952.1599322,E,2,8,1.0,-0.862,M,40.593,M,3.0,0123*58\r\n
$GPGGA,114023.65,5703.4110917,N,00952.1600000,E,2,8,1.0,-0.863,M,40.593,M,3.3,0123*56\r\n
$GPGGA,114023.70,5703.4110482,N,00952.1600694,E,2,8,1.0,-0.860,M,40.593,M,3.3,0123*5B\r\n
$GPGGA,114023.75,5703.4110059,N,00952.1601380,E,2,8,1.0,-0.858,M,40.593,M,3.3,0123*56\r\n
$GPGGA,114023.80,5703.4109635,N,00952.1602067,E,2,8,1.0,-0.857,M,40.593,M,3.3,0123*5E\r\n
$GPGGA,114023.85,5703.4109210,N,00952.1602742,E,2,8,1.0,-0.860,M,40.593,M,3.5,0123*5A\r\n
$GPGGA,114023.90,5703.4108786,N,00952.1603429,E,2,8,1.0,-0.859,M,40.593,M,3.5,0123*50\r\n
$GPGGA,114023.95,5703.4108358,N,00952.1604108,E,2,8,1.0,-0.858,M,40.593,M,3.5,0123*52\r\n
$GPGGA,114024.00,5703.4107935,N,00952.1604783,E,2,8,1.0,-0.859,M,40.593,M,3.5,0123*53\r\n
$GPGGA,114024.05,5703.4107511,N,00952.1605443,E,2,8,1.0,-0.864,M,40.593,M,3.7,0123*5E\r\n
$GPGGA,114024.10,5703.4107075,N,00952.1606115,E,2,8,1.0,-0.867,M,40.593,M,3.7,0123*5B\r\n
$GPGGA,114024.15,5703.4106638,N,00952.1606783,E,2,8,1.0,-0.870,M,40.593,M,3.7,0123*5F\r\n
$GPGGA,114024.20,5703.4106206,N,00952.1607428,E,2,8,1.0,-0.874,M,40.593,M,3.7,0123*57\r\n
$GPGGA,114024.25,5703.4105764,N,00952.1608095,E,2,8,1.0,-0.877,M,40.593,M,2.4,0123*5C\r\n
$GPGGA,114024.30,5703.4105337,N,00952.1608745,E,2,8,1.0,-0.879,M,40.593,M,2.4,0123*5E\r\n
$GPGGA,114024.35,5703.4104897,N,00952.1609375,E,2,8,1.0,-0.882,M,40.593,M,2.4,0123*59\r\n
$GPGGA,114024.40,5703.4104455,N,00952.1610014,E,2,8,1.0,-0.884,M,40.593,M,2.4,0123*53\r\n
$GPGGA,114024.45,5703.4104017,N,00952.1610649,E,2,8,1.0,-0.888,M,40.593,M,2.7,0123*55\r\n
$GPGGA,114024.50,5703.4103579,N,00952.1611274,E,2,8,1.0,-0.892,M,40.593,M,2.7,0123*5B\r\n
$GPGGA,114024.55,5703.4103137,N,00952.1611905,E,2,8,1.0,-0.894,M,40.593,M,2.7,0123*5B\r\n
$GPGGA,114024.60,5703.4102692,N,00952.1612531,E,2,8,1.0,-0.897,M,40.593,M,2.7,0123*5F\r\n
$GPGGA,114024.65,5703.4102254,N,00952.1613157,E,2,8,1.0,-0.901,M,40.593,M,2.9,0123*51\r\n
$GPGGA,114024.70,5703.4101808,N,00952.1613787,E,2,8,1.0,-0.907,M,40.593,M,2.9,0123*58\r\n
$GPGGA,114024.75,5703.4101348,N,00952.1614401,E,2,8,1.0,-0.914,M,40.593,M,2.9,0123*5A\r\n
$GPGGA,114024.80,5703.4100889,N,00952.1615024,E,2,8,1.0,-0.920,M,40.593,M,2.9,0123*52\r\n
$GPGGA,114024.85,5703.4100446,N,00952.1615643,E,2,8,1.0,-0.931,M,40.593,M,3.2,0123*55\r\n
$GPGGA,114024.90,5703.4100009,N,00952.1616273,E,2,8,1.0,-0.939,M,40.593,M,3.2,0123*52\r\n
$GPGGA,114024.95,5703.4099555,N,00952.1616890,E,2,8,1.0,-0.950,M,40.593,M,3.2,0123*52\r\n
$GPGGA,114025.00,5703.4099097,N,00952.1617508,E,2,8,1.0,-0.957,M,40.593,M,3.2,0123*5E\r\n
$GPGGA,114025.05,5703.4098646,N,00952.1618126,E,2,8,1.0,-0.961,M,40.593,M,3.4,0123*54\r\n
$GPGGA,114025.10,5703.4098195,N,00952.1618755,E,2,8,1.0,-0.968,M,40.593,M,3.4,0123*52\r\n
$GPGGA,114025.15,5703.4097746,N,00952.1619392,E,2,8,1.0,-0.974,M,40.593,M,3.4,0123*53\r\n
$GPGGA,114025.20,5703.4097301,N,00952.1620012,E,2,8,1.0,-0.979,M,40.593,M,3.4,0123*5E\r\n
$GPGGA,114025.25,5703.4096854,N,00952.1620617,E,2,8,1.0,-0.985,M,40.593,M,1.5,0123*52\r\n
$GPGGA,114025.30,5703.4096414,N,00952.1621229,E,2,8,1.0,-0.987,M,40.593,M,1.5,0123*54\r\n
$GPGGA,114025.35,5703.4095967,N,00952.1621838,E,2,8,1.0,-0.987,M,40.593,M,1.5,0123*51\r\n
$GPGGA,114025.40,5703.4095518,N,00952.1622450,E,2,8,1.0,-0.986,M,40.593,M,1.5,0123*57\r\n
$GPGGA,114025.45,5703.4095071,N,00952.1623034,E,2,8,1.0,-0.979,M,40.593,M,1.7,0123*5D\r\n
$GPGGA,114025.50,5703.4094618,N,00952.1623613,E,2,8,1.0,-0.972,M,40.593,M,1.7,0123*59\r\n
$GPGGA,114025.55,5703.4094169,N,00952.1624202,E,2,8,1.0,-0.963,M,40.593,M,1.7,0123*5E\r\n
$GPGGA,114025.60,5703.4093715,N,00952.1624789,E,2,8,1.0,-0.956,M,40.593,M,1.7,0123*52\r\n
$GPGGA,114025.65,5703.4093267,N,00952.1625373,E,2,8,1.0,-0.946,M,40.593,M,1.9,0123*58\r\n
$GPGGA,114025.70,5703.4092818,N,00952.1625980,E,2,8,1.0,-0.938,M,40.593,M,1.9,0123*50\r\n
$GPGGA,114025.75,5703.4092368,N,00952.1626578,E,2,8,1.0,-0.929,M,40.593,M,1.9,0123*51\r\n
$GPGGA,114025.80,5703.4091920,N,00952.1627170,E,2,8,1.0,-0.924,M,40.593,M,1.9,0123*5E\r\n
$GPGGA,114025.85,5703.4091483,N,00952.1627784,E,2,8,1.0,-0.914,M,40.593,M,2.1,0123*5A\r\n
$GPGGA,114025.90,5703.4091037,N,00952.1628407,E,2,8,1.0,-0.910,M,40.593,M,2.1,0123*56\r\n
$GPGGA,114025.95,5703.4090599,N,00952.1629034,E,2,8,1.0,-0.909,M,40.593,M,2.1,0123*5E\r\n
$GPGGA,114026.00,5703.4090157,N,00952.1629660,E,2,8,1.0,-0.907,M,40.593,M,2.1,0123*5E\r\n
$GPGGA,114026.05,5703.4089721,N,00952.1630294,E,2,8,1.0,-0.909,M,40.593,M,2.3,0123*5F\r\n
$GPGGA,114026.10,5703.4089282,N,00952.1630947,E,2,8,1.0,-0.911,M,40.593,M,2.3,0123*5B\r\n
$GPGGA,114026.15,5703.4088838,N,00952.1631598,E,2,8,1.0,-0.915,M,40.593,M,2.3,0123*5F\r\n
$GPGGA,114026.20,5703.4088399,N,00952.1632244,E,2,8,1.0,-0.920,M,40.593,M,2.3,0123*5A\r\n
$GPGGA,114026.25,5703.4087971,N,00952.1632886,E,2,8,1.0,-0.920,M,40.593,M,2.6,0123*5D\r\n
$GPGGA,114026.30,5703.4087540,N,00952.1633533,E,2,8,1.0,-0.922,M,40.593,M,2.6,0123*57\r\n
$GPGGA,114026.35,5703.4087111,N,00952.1634187,E,2,8,1.0,-0.923,M,40.593,M,2.6,0123*5F\r\n
$GPGGA,114026.40,5703.4086676,N,00952.1634837,E,2,8,1.0,-0.920,M,40.593,M,2.6,0123*5B\r\n
$GPGGA,114026.45,5703.4086256,N,00952.1635486,E,2,8,1.0,-0.918,M,40.593,M,2.8,0123*5A\r\n
$GPGGA,114026.50,5703.4085843,N,00952.1636134,E,2,8,1.0,-0.915,M,40.593,M,2.8,0123*51\r\n
$GPGGA,114026.55,5703.4085428,N,00952.1636793,E,2,8,1.0,-0.907,M,40.593,M,2.8,0123*5D\r\n
$GPGGA,114026.60,5703.4085008,N,00952.1637458,E,2,8,1.0,-0.900,M,40.593,M,2.8,0123*5F\r\n
$GPGGA,114026.65,5703.4084601,N,00952.1638113,E,2,8,1.0,-0.891,M,40.593,M,3.0,0123*51\r\n
$GPGGA,114026.70,5703.4084198,N,00952.1638770,E,2,8,1.0,-0.885,M,40.593,M,3.0,0123*54\r\n
$GPGGA,114026.75,5703.4083789,N,00952.1639444,E,2,8,1.0,-0.880,M,40.593,M,3.0,0123*50\r\n
$GPGGA,114026.80,5703.4083378,N,00952.1640121,E,2,8,1.0,-0.874,M,40.593,M,3.0,0123*53\r\n
$GPGGA,114026.85,5703.4082966,N,00952.1640807,E,2,8,1.0,-0.867,M,40.593,M,3.2,0123*5F\r\n
$GPGGA,114026.90,5703.4082564,N,00952.1641493,E,2,8,1.0,-0.862,M,40.593,M,3.2,0123*50\r\n
$GPGGA,114026.95,5703.4082161,N,00952.1642181,E,2,8,1.0,-0.855,M,40.593,M,3.2,0123*55\r\n
$GPGGA,114027.00,5703.4081773,N,00952.1642888,E,2,8,1.0,-0.852,M,40.593,M,3.2,0123*59\r\n
$GPGGA,114027.05,5703.4081396,N,00952.1643589,E,2,8,1.0,-0.849,M,40.593,M,3.4,0123*52\r\n
$GPGGA,114027.10,5703.4081000,N,00952.1644304,E,2,8,1.0,-0.849,M,40.593,M,3.4,0123*5E\r\n
$GPGGA,114027.15,5703.4080601,N,00952.1645025,E,2,8,1.0,-0.848,M,40.593,M,3.4,0123*5D\r\n
$GPGGA,114027.20,5703.4080207,N,00952.1645733,E,2,8,1.0,-0.847,M,40.593,M,3.4,0123*56\r\n
$GPGGA,114027.25,5703.4079826,N,00952.1646429,E,2,8,1.0,-0.847,M,40.593,M,2.8,0123*5A\r\n
$GPGGA,114027.30,5703.4079441,N,00952.1647128,E,2,8,1.0,-0.847,M,40.593,M,2.8,0123*56\r\n
$GPGGA,114027.35,5703.4079058,N,00952.1647826,E,2,8,1.0,-0.846,M,40.593,M,2.8,0123*59\r\n
$GPGGA,114027.40,5703.4078669,N,00952.1648523,E,2,8,1.0,-0.849,M,40.593,M,2.8,0123*56\r\n
$GPGGA,114027.45,5703.4078281,N,00952.1649211,E,2,8,1.0,-0.848,M,40.593,M,3.0,0123*5E\r\n
$GPGGA,114027.50,5703.4077887,N,00952.1649909,E,2,8,1.0,-0.848,M,40.593,M,3.0,0123*5B\r\n
$GPGGA,114027.55,5703.4077491,N,00952.1650607,E,2,8,1.0,-0.849,M,40.593,M,3.0,0123*5D\r\n
