$GPGGA,095139.75,5700.9091399,N,00959.1401130,E,2,7,0.9,10.557,M,40.582,M,2.2,0136*40\r\n
$GPGGA,095139.80,5700.9091398,N,00959.1401136,E,2,7,0.9,10.557,M,40.582,M,2.2,0136*4D\r\n
$GPGGA,095139.85,5700.9091388,N,00959.1401162,E,2,7,0.9,10.552,M,40.582,M,2.4,0136*4B\r\n
$GPGGA,095139.90,5700.9091386,N,00959.1401167,E,2,7,0.9,10.552,M,40.582,M,2.4,0136*44\r\n
$GPGGA,095139.95,5700.9091387,N,00959.1401169,E,2,7,0.9,10.552,M,40.582,M,2.4,0136*4E\r\n
$GPGGA,095140.00,5700.9091389,N,00959.1401166,E,2,7,0.9,10.552,M,40.582,M,2.4,0136*4D\r\n
$GPGGA,095140.05,5700.9091392,N,00959.1401145,E,2,7,0.9,10.550,M,40.582,M,1.7,0136*41\r\n
$GPGGA,095140.10,5700.9091390,N,00959.1401147,E,2,7,0.9,10.550,M,40.582,M,1.7,0136*45\r\n
$GPGGA,095140.15,5700.9091390,N,00959.1401151,E,2,7,0.9,10.550,M,40.582,M,1.7,0136*47\r\n
$GPGGA,095140.20,5700.9091391,N,00959.1401155,E,2,7,0.9,10.549,M,40.582,M,1.7,0136*4C\r\n
$GPGGA,095140.25,5700.9091400,N,00959.1401151,E,2,7,0.9,10.550,M,40.582,M,1.9,0136*44\r\n
$GPGGA,095140.30,5700.9091400,N,00959.1401151,E,2,7,0.9,10.550,M,40.582,M,1.9,0136*40\r\n
$GPGGA,095140.35,5700.9091399,N,00959.1401152,E,2,7,0.9,10.550,M,40.582,M,1.9,0136*41\r\n
$GPGGA,095140.40,5700.9091398,N,00959.1401153,E,2,7,0.9,10.550,M,40.582,M,1.9,0136*43\r\n
$GPGGA,095140.45,5700.9091397,N,00959.1401128,E,2,7,0.9,10.554,M,40.582,M,2.2,0136*49\r\n
$GPGGA,095140.50,5700.9091396,N,00959.1401134,E,2,7,0.9,10.554,M,40.582,M,2.2,0136*41\r\n
$GPGGA,095140.55,5700.9091397,N,00959.1401137,E,2,7,0.9,10.554,M,40.582,M,2.2,0136*46\r\n
$GPGGA,095140.60,5700.9091399,N,00959.1401130,E,2,7,0.9,10.554,M,40.582,M,2.2,0136*49\r\n
$GPGGA,095140.65,5700.9091402,N,00959.1401131,E,2,7,0.9,10.554,M,40.582,M,2.4,0136*4E\r\n
$GPGGA,095140.70,5700.9091402,N,00959.1401129,E,2,7,0.9,10.555,M,40.582,M,2.4,0136*42\r\n
$GPGGA,095140.75,5700.9091403,N,00959.1401127,E,2,7,0.9,10.555,M,40.582,M,2.4,0136*48\r\n
$GPGGA,095140.80,5700.9091404,N,00959.1401126,E,2,7,0.9,10.555,M,40.582,M,2.4,0136*44\r\n
$GPGGA,095140.85,5700.9091407,N,00959.1401115,E,2,7,0.9,10.554,M,40.582,M,2.6,0136*41\r\n
$GPGGA,095140.90,5700.9091408,N,00959.1401117,E,2,7,0.9,10.554,M,40.582,M,2.6,0136*48\r\n
$GPGGA,095140.95,5700.9091409,N,00959.1401122,E,2,7,0.9,10.554,M,40.582,M,2.6,0136*4A\r\n
$GPGGA,095141.00,5700.9091409,N,00959.1401118,E,2,7,0.9,10.555,M,40.582,M,2.6,0136*4F\r\n
$GPGGA,095141.05,5700.9091419,N,00959.1401133,E,2,7,0.9,10.554,M,40.582,M,2.8,0136*4D\r\n
$GPGGA,095141.10,5700.9091419,N,00959.1401132,E,2,7,0.9,10.554,M,40.582,M,2.8,0136*48\r\n
$GPGGA,095141.15,5700.9091419,N,00959.1401138,E,2,7,0.9,10.554,M,40.582,M,2.8,0136*47\r\n
$GPGGA,095141.20,5700.9091418,N,00959.1401143,E,2,7,0.9,10.555,M,40.582,M,2.8,0136*4D\r\n
$GPGGA,095141.25,5700.9091409,N,00959.1401131,E,2,7,0.9,10.551,M,40.582,M,3.0,0136*40\r\n
$GPGGA,095141.30,5700.9091411,N,00959.1401131,E,2,7,0.9,10.551,M,40.582,M,3.0,0136*4D\r\n
$GPGGA,095141.35,5700.9091412,N,00959.1401129,E,2,7,0.9,10.551,M,40.582,M,3.0,0136*42\r\n
$GPGGA,095141.40,5700.9091415,N,00959.1401127,E,2,7,0.9,10.552,M,40.582,M,3.0,0136*4A\r\n
$GPGGA,095141.45,5700.9091436,N,00959.1401105,E,2,7,0.9,10.556,M,40.582,M,3.2,0136*48\r\n
$GPGGA,095141.50,5700.9091436,N,00959.1401110,E,2,7,0.9,10.557,M,40.582,M,3.2,0136*49\r\n
$GPGGA,095141.55,5700.9091435,N,00959.1401115,E,2,7,0.9,10.557,M,40.582,M,3.2,0136*4A\r\n
$GPGGA,095141.60,5700.9091438,N,00959.1401116,E,2,7,0.9,10.557,M,40.582,M,3.2,0136*42\r\n
$GPGGA,095141.65,5700.9091422,N,00959.1401154,E,2,7,0.9,10.553,M,40.582,M,3.5,0136*49\r\n
$GPGGA,095141.70,5700.9091422,N,00959.1401152,E,2,7,0.9,10.553,M,40.582,M,3.5,0136*4B\r\n
$GPGGA,095141.75,5700.9091422,N,00959.1401151,E,2,7,0.9,10.553,M,40.582,M,3.5,0136*4D\r\n
$GPGGA,095141.80,5700.9091423,N,00959.1401153,E,2,7,0.9,10.553,M,40.582,M,3.5,0136*44\r\n
$GPGGA,095141.85,5700.9091410,N,00959.1401116,E,2,7,0.9,10.546,M,40.582,M,3.7,0136*46\r\n
$GPGGA,095141.90,5700.9091411,N,00959.1401118,E,2,7,0.9,10.545,M,40.582,M,3.7,0136*4E\r\n
$GPGGA,095141.95,5700.9091413,N,00959.1401118,E,2,7,0.9,10.545,M,40.582,M,3.7,0136*49\r\n
$GPGGA,095142.00,5700.9091413,N,00959.1401113,E,2,7,0.9,10.545,M,40.582,M,3.7,0136*4D\r\n
$GPGGA,095142.05,5700.9091439,N,00959.1401083,E,2,7,0.9,10.555,M,40.582,M,2.2,0136*4D\r\n
$GPGGA,095142.10,5700.9091438,N,00959.1401086,E,2,7,0.9,10.555,M,40.582,M,2.2,0136*4D\r\n
$GPGGA,095142.15,5700.9091437,N,00959.1401082,E,2,7,0.9,10.555,M,40.582,M,2.2,0136*43\r\n
$GPGGA,095142.20,5700.9091438,N,00959.1401083,E,2,7,0.9,10.555,M,40.582,M,2.2,0136*4B\r\n
$GPGGA,095142.25,5700.9091424,N,00959.1401092,E,2,7,0.9,10.555,M,40.582,M,2.5,0136*44\r\n
$GPGGA,095142.30,5700.9091426,N,00959.1401094,E,2,7,0.9,10.555,M,40.582,M,2.5,0136*44\r\n
$GPGGA,095142.35,5700.9091425,N,00959.1401092,E,2,7,0.9,10.556,M,40.582,M,2.5,0136*47\r\n
$GPGGA,095142.40,5700.9091425,N,00959.1401095,E,2,7,0.9,10.556,M,40.582,M,2.5,0136*42\r\n
$GPGGA,095142.45,5700.9091423,N,00959.1401098,E,2,7,0.9,10.552,M,40.582,M,2.7,0136*4A\r\n
$GPGGA,095142.50,5700.9091425,N,00959.1401098,E,2,7,0.9,10.552,M,40.582,M,2.7,0136*48\r\n
$GPGGA,095142.55,5700.9091426,N,00959.1401096,E,2,7,0.9,10.552,M,40.582,M,2.7,0136*40\r\n
$GPGGA,095142.60,5700.9091426,N,00959.1401097,E,2,7,0.9,10.552,M,40.582,M,2.7,0136*47\r\n
$GPGGA,095142.65,5700.9091440,N,00959.1401095,E,2,7,0.9,10.556,M,40.582,M,3.0,0136*42\r\n
$GPGGA,095142.70,5700.9091441,N,00959.1401094,E,2,7,0.9,10.556,M,40.582,M,3.0,0136*46\r\n
$GPGGA,095142.75,5700.9091442,N,00959.1401091,E,2,7,0.9,10.556,M,40.582,M,3.0,0136*45\r\n
$GPGGA,095142.80,5700.9091445,N,00959.1401090,E,2,7,0.9,10.556,M,40.582,M,3.0,0136*49\r\n
$GPGGA,095142.85,5700.9091445,N,00959.1401088,E,2,7,0.9,10.558,M,40.582,M,3.2,0136*49\r\n
$GPGGA,095142.90,5700.9091445,N,00959.1401089,E,2,7,0.9,10.558,M,40.582,M,3.2,0136*4C\r\n
$GPGGA,095142.95,5700.9091447,N,00959.1401085,E,2,7,0.9,10.559,M,40.582,M,3.2,0136*46\r\n
$GPGGA,095143.00,5700.9091447,N,00959.1401089,E,2,7,0.9,10.559,M,40.582,M,3.2,0136*47\r\n
$GPGGA,095143.05,5700.9091428,N,00959.1401063,E,2,7,0.9,10.553,M,40.582,M,1.5,0136*40\r\n
$GPGGA,095143.10,5700.9091428,N,00959.1401063,E,2,7,0.9,10.553,M,40.582,M,1.5,0136*44\r\n
$GPGGA,095143.15,5700.9091428,N,00959.1401064,E,2,7,0.9,10.554,M,40.582,M,1.5,0136*41\r\n
$GPGGA,095143.20,5700.9091429,N,00959.1401065,E,2,7,0.9,10.554,M,40.582,M,1.5,0136*47\r\n
$GPGGA,095143.25,5700.9091446,N,00959.1401064,E,2,7,0.9,10.558,M,40.582,M,1.7,0136*44\r\n
$GPGGA,095143.30,5700.9091448,N,00959.1401062,E,2,7,0.9,10.559,M,40.582,M,1.7,0136*49\r\n
$GPGGA,095143.35,5700.9091448,N,00959.1401063,E,2,7,0.9,10.559,M,40.582,M,1.7,0136*4D\r\n
$GPGGA,095143.40,5700.9091446,N,00959.1401065,E,2,7,0.9,10.559,M,40.582,M,1.7,0136*47\r\n
$GPGGA,095143.45,5700.9091449,N,00959.1401062,E,2,7,0.9,10.557,M,40.582,M,1.9,0136*4A\r\n
$GPGGA,095143.50,5700.9091450,N,00959.1401062,E,2,7,0.9,10.557,M,40.582,M,1.9,0136*46\r\n
$GPGGA,095143.55,5700.9091449,N,00959.1401065,E,2,7,0.9,10.557,M,40.582,M,1.9,0136*4C\r\n
$GPGGA,095143.60,5700.9091450,N,00959.1401064,E,2,7,0.9,10.557,M,40.582,M,1.9,0136*43\r\n
$GPGGA,095143.65,5700.9091446,N,00959.1401075,E,2,7,0.9,10.559,M,40.582,M,2.2,0136*47\r\n
$GPGGA,095143.70,5700.9091444,N,00959.1401077,E,2,7,0.9,10.559,M,40.582,M,2.2,0136*43\r\n
$GPGGA,095143.75,5700.9091446,N,00959.1401080,E,2,7,0.9,10.559,M,40.582,M,2.2,0136*4C\r\n
$GPGGA,095143.80,5700.9091447,N,00959.1401079,E,2,7,0.9,10.559,M,40.582,M,2.2,0136*41\r\n
$GPGGA,095143.85,5700.9091440,N,00959.1401097,E,2,7,0.9,10.559,M,40.582,M,2.4,0136*45\r\n
$GPGGA,095143.90,5700.9091439,N,00959.1401097,E,2,7,0.9,10.560,M,40.582,M,2.4,0136*45\r\n
$GPGGA,095143.95,5700.9091439,N,00959.1401099,E,2,7,0.9,10.560,M,40.582,M,2.4,0136*4E\r\n
$GPGGA,095144.00,5700.9091438,N,00959.1401102,E,2,7,0.9,10.560,M,40.582,M,2.4,0136*47\r\n
$GPGGA,095144.05,5700.9091439,N,00959.1401062,E,2,7,0.9,10.556,M,40.582,M,1.7,0136*41\r\n
$GPGGA,095144.10,5700.9091437,N,00959.1401064,E,2,7,0.9,10.556,M,40.582,M,1.7,0136*4D\r\n
$GPGGA,095144.15,5700.9091437,N,00959.1401064,E,2,7,0.9,10.556,M,40.582,M,1.7,0136*48\r\n
$GPGGA,095144.20,5700.9091438,N,00959.1401064,E,2,7,0.9,10.556,M,40.582,M,1.7,0136*41\r\n
$GPGGA,095144.25,5700.9091450,N,00959.1401057,E,2,7,0.9,10.560,M,40.582,M,1.9,0136*41\r\n
$GPGGA,095144.30,5700.9091451,N,00959.1401059,E,2,7,0.9,10.560,M,40.582,M,1.9,0136*4A\r\n
$GPGGA,095144.35,5700.9091451,N,00959.1401057,E,2,7,0.9,10.560,M,40.582,M,1.9,0136*41\r\n
$GPGGA,095144.40,5700.9091450,N,00959.1401057,E,2,7,0.9,10.560,M,40.582,M,1.9,0136*42\r\n
$GPGGA,095144.45,5700.9091446,N,00959.1401038,E,2,7,0.9,10.556,M,40.582,M,2.2,0136*44\r\n
$GPGGA,095144.50,5700.9091447,N,00959.1401040,E,2,7,0.9,10.556,M,40.582,M,2.2,0136*4E\r\n
$GPGGA,095144.55,5700.9091445,N,00959.1401041,E,2,7,0.9,10.556,M,40.582,M,2.2,0136*48\r\n
$GPGGA,095144.60,5700.9091443,N,00959.1401038,E,2,7,0.9,10.556,M,40.582,M,2.2,0136*46\r\n
$GPGGA,095144.65,5700.9091438,N,00959.1401044,E,2,7,0.9,10.558,M,40.582,M,2.4,0136*4C\r\n
$GPGGA,095144.70,5700.9091440,N,00959.1401040,E,2,7,0.9,10.559,M,40.582,M,2.4,0136*42\r\n
$GPGGA,095144.75,5700.9091441,N,00959.1401038,E,2,7,0.9,10.558,M,40.582,M,2.4,0136*48\r\n
$GPGGA,095144.80,5700.9091440,N,00959.1401039,E,2,7,0.9,10.558,M,40.582,M,2.4,0136*42\r\n
$GPGGA,095144.85,5700.9091447,N,00959.1401022,E,2,7,0.9,10.558,M,40.582,M,2.6,0136*48\r\n
$GPGGA,095144.90,5700.9091448,N,00959.1401020,E,2,7,0.9,10.558,M,40.582,M,2.6,0136*41\r\n
$GPGGA,095144.95,5700.9091448,N,00959.1401014,E,2,7,0.9,10.558,M,40.582,M,2.6,0136*43\r\n
$GPGGA,095145.00,5700.9091451,N,00959.1401014,E,2,7,0.9,10.558,M,40.582,M,2.6,0136*46\r\n
$GPGGA,095145.05,5700.9091462,N,00959.1400989,E,2,7,0.9,10.558,M,40.582,M,2.8,0136*41\r\n
$GPGGA,095145.10,5700.9091463,N,00959.1400986,E,2,7,0.9,10.558,M,40.582,M,2.8,0136*4B\r\n
$GPGGA,095145.15,5700.9091464,N,00959.1400989,E,2,7,0.9,10.558,M,40.582,M,2.8,0136*46\r\n
$GPGGA,095145.20,5700.9091461,N,00959.1400991,E,2,7,0.9,10.558,M,40.582,M,2.8,0136*4C\r\n
$GPGGA,095145.25,5700.9091444,N,00959.1401011,E,2,7,0.9,10.557,M,40.582,M,3.0,0136*48\r\n
$GPGGA,095145.30,5700.9091444,N,00959.1401007,E,2,7,0.9,10.556,M,40.582,M,3.0,0136*4A\r\n
$GPGGA,095145.35,5700.9091443,N,00959.1401007,E,2,7,0.9,10.556,M,40.582,M,3.0,0136*48\r\n
$GPGGA,095145.40,5700.9091444,N,00959.1401009,E,2,7,0.9,10.557,M,40.582,M,3.0,0136*42\r\n
$GPGGA,095145.45,5700.9091447,N,00959.1400991,E,2,7,0.9,10.557,M,40.582,M,3.2,0136*4F\r\n
$GPGGA,095145.50,5700.9091447,N,00959.1400988,E,2,7,0.9,10.557,M,40.582,M,3.2,0136*43\r\n
$GPGGA,095145.55,5700.9091444,N,00959.1400987,E,2,7,0.9,10.557,M,40.582,M,3.2,0136*4A\r\n
$GPGGA,095145.60,5700.9091443,N,00959.1400983,E,2,7,0.9,10.557,M,40.582,M,3.2,0136*4F\r\n
$GPGGA,095145.65,5700.9091430,N,00959.1400982,E,2,7,0.9,10.554,M,40.582,M,3.5,0136*4B\r\n
$GPGGA,095145.70,5700.9091431,N,00959.1400981,E,2,7,0.9,10.554,M,40.582,M,3.5,0136*4D\r\n
$GPGGA,095145.75,5700.9091432,N,00959.1400979,E,2,7,0.9,10.554,M,40.582,M,3.5,0136*4C\r\n
$GPGGA,095145.80,5700.9091433,N,00959.1400978,E,2,7,0.9,10.554,M,40.582,M,3.5,0136*46\r\n
$GPGGA,095145.85,5700.9091454,N,00959.1400985,E,2,7,0.9,10.556,M,40.582,M,3.7,0136*40\r\n
$GPGGA,095145.90,5700.9091454,N,00959.1400984,E,2,7,0.9,10.556,M,40.582,M,3.7,0136*45\r\n
$GPGGA,095145.95,5700.9091453,N,00959.1400984,E,2,7,0.9,10.556,M,40.582,M,3.7,0136*47\r\n
$GPGGA,095146.00,5700.9091453,N,00959.1400983,E,2,7,0.9,10.556,M,40.582,M,3.7,0136*4F\r\n
$GPGGA,095146.05,5700.9091457,N,00959.1400966,E,2,7,0.9,10.560,M,40.582,M,2.2,0136*44\r\n
$GPGGA,095146.10,5700.9091457,N,00959.1400969,E,2,7,0.9,10.560,M,40.582,M,2.2,0136*4F\r\n
$GPGGA,095146.15,5700.9091459,N,00959.1400975,E,2,7,0.9,10.560,M,40.582,M,2.2,0136*49\r\n
$GPGGA,095146.20,5700.9091461,N,00959.1400975,E,2,7,0.9,10.561,M,40.582,M,2.2,0136*45\r\n
$GPGGA,095146.25,5700.9091474,N,00959.1400989,E,2,7,0.9,10.561,M,40.582,M,2.5,0136*40\r\n
$GPGGA,095146.30,5700.9091476,N,00959.1400992,E,2,7,0.9,10.562,M,40.582,M,2.5,0136*4F\r\n
$GPGGA,095146.35,5700.9091475,N,00959.1400993,E,2,7,0.9,10.562,M,40.582,M,2.5,0136*48\r\n
$GPGGA,095146.40,5700.9091476,N,00959.1400994,E,2,7,0.9,10.562,M,40.582,M,2.5,0136*4E\r\n
$GPGGA,095146.45,5700.9091456,N,00959.1400995,E,2,7,0.9,10.556,M,40.582,M,2.7,0136*4D\r\n
$GPGGA,095146.50,5700.9091456,N,00959.1401001,E,2,7,0.9,10.556,M,40.582,M,2.7,0136*4C\r\n
$GPGGA,095146.55,5700.9091456,N,00959.1401010,E,2,7,0.9,10.557,M,40.582,M,2.7,0136*48\r\n
$GPGGA,095146.60,5700.9091457,N,00959.1401014,E,2,7,0.9,10.557,M,40.582,M,2.7,0136*4B\r\n
$GPGGA,095146.65,5700.9091468,N,00959.1401036,E,2,7,0.9,10.563,M,40.582,M,3.0,0136*43\r\n
$GPGGA,095146.70,5700.9091469,N,00959.1401035,E,2,7,0.9,10.564,M,40.582,M,3.0,0136*42\r\n
$GPGGA,095146.75,5700.9091470,N,00959.1401031,E,2,7,0.9,10.564,M,40.582,M,3.0,0136*4B\r\n
$GPGGA,095146.80,5700.9091472,N,00959.1401033,E,2,7,0.9,10.564,M,40.582,M,3.0,0136*41\r\n
$GPGGA,095146.85,5700.9091474,N,00959.1400958,E,2,7,0.9,10.558,M,40.582,M,1.2,0136*48\r\n
$GPGGA,095146.90,5700.9091475,N,00959.1400960,E,2,7,0.9,10.558,M,40.582,M,1.2,0136*46\r\n
$GPGGA,095146.95,5700.9091475,N,00959.1400961,E,2,7,0.9,10.558,M,40.582,M,1.2,0136*42\r\n
$GPGGA,095147.00,5700.9091476,N,00959.1400964,E,2,7,0.9,10.558,M,40.582,M,1.2,0136*49\r\n
$GPGGA,095147.05,5700.9091472,N,00959.1400981,E,2,7,0.9,10.558,M,40.582,M,1.5,0136*44\r\n
$GPGGA,095147.10,5700.9091474,N,00959.1400978,E,2,7,0.9,10.559,M,40.582,M,1.5,0136*41\r\n
$GPGGA,095147.15,5700.9091470,N,00959.1400979,E,2,7,0.9,10.559,M,40.582,M,1.5,0136*41\r\n
$GPGGA,095147.20,5700.9091470,N,00959.1400982,E,2,7,0.9,10.559,M,40.582,M,1.5,0136*43\r\n
$GPGGA,095147.25,5700.9091463,N,00959.1400962,E,2,7,0.9,10.560,M,40.582,M,1.7,0136*42\r\n
$GPGGA,095147.30,5700.9091463,N,00959.1400962,E,2,7,0.9,10.560,M,40.582,M,1.7,0136*46\r\n
$GPGGA,095147.35,5700.9091461,N,00959.1400955,E,2,7,0.9,10.560,M,40.582,M,1.7,0136*45\r\n
$GPGGA,095147.40,5700.9091461,N,00959.1400948,E,2,7,0.9,10.560,M,40.582,M,1.7,0136*4B\r\n
$GPGGA,095147.45,5700.9091460,N,00959.1400913,E,2,7,0.9,10.557,M,40.582,M,1.9,0136*4B\r\n
$GPGGA,095147.50,5700.9091458,N,00959.1400916,E,2,7,0.9,10.557,M,40.582,M,1.9,0136*41\r\n
$GPGGA,095147.55,5700.9091458,N,00959.1400915,E,2,7,0.9,10.557,M,40.582,M,1.9,0136*47\r\n
$GPGGA,095147.60,5700.9091456,N,00959.1400920,E,2,7,0.9,10.557,M,40.582,M,1.9,0136*49\r\n
$GPGGA,095147.65,5700.9091463,N,00959.1400981,E,2,7,0.9,10.562,M,40.582,M,2.2,0136*4F\r\n
$GPGGA,095147.70,5700.9091465,N,00959.1400980,E,2,7,0.9,10.563,M,40.582,M,2.2,0136*4D\r\n
$GPGGA,095147.75,5700.9091465,N,00959.1400976,E,2,7,0.9,10.563,M,40.582,M,2.2,0136*41\r\n
$GPGGA,095147.80,5700.9091464,N,00959.1400974,E,2,7,0.9,10.563,M,40.582,M,2.2,0136*48\r\n
$GPGGA,095147.85,5700.9091473,N,00959.1400941,E,2,7,0.9,10.560,M,40.582,M,1.5,0136*4A\r\n
$GPGGA,095147.90,5700.9091473,N,00959.1400942,E,2,7,0.9,10.560,M,40.582,M,1.5,0136*4D\r\n
$GPGGA,095147.95,5700.9091474,N,00959.1400945,E,2,7,0.9,10.560,M,40.582,M,1.5,0136*48\r\n
$GPGGA,095148.00,5700.9091476,N,00959.1400945,E,2,7,0.9,10.560,M,40.582,M,1.5,0136*49\r\n
$GPGGA,095148.05,5700.9091478,N,00959.1400946,E,2,7,0.9,10.558,M,40.582,M,1.7,0136*48\r\n
$GPGGA,095148.10,5700.9091476,N,00959.1400947,E,2,7,0.9,10.558,M,40.582,M,1.7,0136*43\r\n
$GPGGA,095148.15,5700.9091478,N,00959.1400948,E,2,7,0.9,10.559,M,40.582,M,1.7,0136*46\r\n
$GPGGA,095148.20,5700.9091479,N,00959.1400951,E,2,7,0.9,10.559,M,40.582,M,1.7,0136*49\r\n
$GPGGA,095148.25,5700.9091473,N,00959.1400953,E,2,7,0.9,10.562,M,40.582,M,1.9,0136*42\r\n
$GPGGA,095148.30,5700.9091473,N,00959.1400954,E,2,7,0.9,10.563,M,40.582,M,1.9,0136*40\r\n
$GPGGA,095148.35,5700.9091475,N,00959.1400955,E,2,7,0.9,10.563,M,40.582,M,1.9,0136*42\r\n
$GPGGA,095148.40,5700.9091475,N,00959.1400954,E,2,7,0.9,10.563,M,40.582,M,1.9,0136*41\r\n
$GPGGA,095148.45,5700.9091481,N,00959.1400940,E,2,7,0.9,10.561,M,40.582,M,2.2,0136*40\r\n
$GPGGA,095148.50,5700.9091481,N,00959.1400941,E,2,7,0.9,10.561,M,40.582,M,2.2,0136*45\r\n
$GPGGA,095148.55,5700.9091480,N,00959.1400941,E,2,7,0.9,10.561,M,40.582,M,2.2,0136*41\r\n
$GPGGA,095148.60,5700.9091482,N,00959.1400941,E,2,7,0.9,10.561,M,40.582,M,2.2,0136*45\r\n
$GPGGA,095148.65,5700.9091475,N,00959.1400947,E,2,7,0.9,10.561,M,40.582,M,2.4,0136*48\r\n
$GPGGA,095148.70,5700.9091476,N,00959.1400946,E,2,7,0.9,10.561,M,40.582,M,2.4,0136*4E\r\n
$GPGGA,095148.75,5700.9091474,N,00959.1400949,E,2,7,0.9,10.561,M,40.582,M,2.4,0136*46\r\n
$GPGGA,095148.80,5700.9091471,N,00959.1400951,E,2,7,0.9,10.561,M,40.582,M,2.4,0136*40\r\n
$GPGGA,095148.85,5700.9091455,N,00959.1400956,E,2,7,0.9,10.558,M,40.582,M,2.6,0136*4C\r\n
$GPGGA,095148.90,5700.9091457,N,00959.1400960,E,2,7,0.9,10.557,M,40.582,M,2.6,0136*40\r\n
$GPGGA,095148.95,5700.9091456,N,00959.1400962,E,2,7,0.9,10.557,M,40.582,M,2.6,0136*46\r\n
$GPGGA,095149.00,5700.9091454,N,00959.1400961,E,2,7,0.9,10.557,M,40.582,M,2.6,0136*4A\r\n
$GPGGA,095149.05,5700.9091478,N,00959.1400919,E,2,7,0.9,10.563,M,40.582,M,2.8,0136*47\r\n
$GPGGA,095149.10,5700.9091479,N,00959.1400922,E,2,7,0.9,10.563,M,40.582,M,2.8,0136*4A\r\n
$GPGGA,095149.15,5700.9091478,N,00959.1400925,E,2,7,0.9,10.564,M,40.582,M,2.8,0136*4E\r\n
$GPGGA,095149.20,5700.9091479,N,00959.1400927,E,2,7,0.9,10.564,M,40.582,M,2.8,0136*4B\r\n
$GPGGA,095149.25,5700.9091476,N,00959.1400927,E,2,7,0.9,10.560,M,40.582,M,3.0,0136*4C\r\n
$GPGGA,095149.30,5700.9091476,N,00959.1400928,E,2,7,0.9,10.560,M,40.582,M,3.0,0136*47\r\n
$GPGGA,095149.35,5700.9091478,N,00959.1400926,E,2,7,0.9,10.560,M,40.582,M,3.0,0136*42\r\n
$GPGGA,095149.40,5700.9091478,N,00959.1400925,E,2,7,0.9,10.560,M,40.582,M,3.0,0136*43\r\n
$GPGGA,095149.45,5700.9091480,N,00959.1400901,E,2,7,0.9,10.560,M,40.582,M,3.2,0136*45\r\n
$GPGGA,095149.50,5700.9091480,N,00959.1400900,E,2,7,0.9,10.560,M,40.582,M,3.2,0136*40\r\n
$GPGGA,095149.55,5700.9091482,N,00959.1400897,E,2,7,0.9,10.560,M,40.582,M,3.2,0136*48\r\n
$GPGGA,095149.60,5700.9091485,N,00959.1400895,E,2,7,0.9,10.560,M,40.582,M,3.2,0136*4B\r\n
$GPGGA,095149.65,5700.9091498,N,00959.1400900,E,2,7,0.9,10.561,M,40.582,M,3.5,0136*49\r\n
$GPGGA,095149.70,5700.9091498,N,00959.1400899,E,2,7,0.9,10.561,M,40.582,M,3.5,0136*4C\r\n
$GPGGA,095149.75,5700.9091498,N,00959.1400897,E,2,7,0.9,10.561,M,40.582,M,3.5,0136*47\r\n
$GPGGA,095149.80,5700.9091497,N,00959.1400896,E,2,7,0.9,10.561,M,40.582,M,3.5,0136*43\r\n
$GPGGA,095149.85,5700.9091483,N,00959.1400900,E,2,7,0.9,10.562,M,40.582,M,1.9,0136*40\r\n
$GPGGA,095149.90,5700.9091482,N,00959.1400901,E,2,7,0.9,10.562,M,40.582,M,1.9,0136*44\r\n
$GPGGA,095149.95,5700.9091483,N,00959.1400901,E,2,7,0.9,10.562,M,40.582,M,1.9,0136*40\r\n
$GPGGA,095150.00,5700.9091483,N,00959.1400899,E,2,7,0.9,10.562,M,40.582,M,1.9,0136*44\r\n
$GPGGA,095150.05,5700.9091478,N,00959.1400884,E,2,7,0.9,10.558,M,40.582,M,2.2,0136*48\r\n
$GPGGA,095150.10,5700.9091478,N,00959.1400882,E,2,7,0.9,10.558,M,40.582,M,2.2,0136*4A\r\n
$GPGGA,095150.15,5700.9091478,N,00959.1400883,E,2,7,0.9,10.558,M,40.582,M,2.2,0136*4E\r\n
$GPGGA,095150.20,5700.9091477,N,00959.1400881,E,2,7,0.9,10.558,M,40.582,M,2.2,0136*45\r\n
$GPGGA,095150.25,5700.9091480,N,00959.1400868,E,2,7,0.9,10.560,M,40.582,M,2.5,0136*43\r\n
$GPGGA,095150.30,5700.9091481,N,00959.1400866,E,2,7,0.9,10.560,M,40.582,M,2.5,0136*48\r\n
$GPGGA,095150.35,5700.9091482,N,00959.1400863,E,2,7,0.9,10.560,M,40.582,M,2.5,0136*4B\r\n
$GPGGA,095150.40,5700.9091483,N,00959.1400864,E,2,7,0.9,10.560,M,40.582,M,2.5,0136*4F\r\n
$GPGGA,095150.45,5700.9091491,N,00959.1400862,E,2,7,0.9,10.560,M,40.582,M,2.7,0136*4D\r\n
$GPGGA,095150.50,5700.9091492,N,00959.1400859,E,2,7,0.9,10.560,M,40.582,M,2.7,0136*42\r\n
$GPGGA,095150.55,5700.9091491,N,00959.1400861,E,2,7,0.9,10.560,M,40.582,M,2.7,0136*4F\r\n
$GPGGA,095150.60,5700.9091492,N,00959.1400859,E,2,7,0.9,10.560,M,40.582,M,2.7,0136*41\r\n
$GPGGA,095150.65,5700.9091487,N,00959.1400860,E,2,7,0.9,10.560,M,40.582,M,3.0,0136*4C\r\n
$GPGGA,095150.70,5700.9091486,N,00959.1400860,E,2,7,0.9,10.560,M,40.582,M,3.0,0136*49\r\n
$GPGGA,095150.75,5700.9091486,N,00959.1400855,E,2,7,0.9,10.560,M,40.582,M,3.0,0136*4A\r\n
$GPGGA,095150.80,5700.9091485,N,00959.1400852,E,2,7,0.9,10.561,M,40.582,M,3.0,0136*45\r\n
$GPGGA,095150.85,5700.9091475,N,00959.1400850,E,2,7,0.9,10.562,M,40.582,M,1.2,0136*4E\r\n
$GPGGA,095150.90,5700.9091476,N,00959.1400851,E,2,7,0.9,10.562,M,40.582,M,1.2,0136*48\r\n
$GPGGA,095150.95,5700.9091475,N,00959.1400852,E,2,7,0.9,10.562,M,40.582,M,1.2,0136*4D\r\n
$GPGGA,095151.00,5700.9091474,N,00959.1400852,E,2,7,0.9,10.562,M,40.582,M,1.2,0136*41\r\n
$GPGGA,095151.05,5700.9091486,N,00959.1400857,E,2,7,0.9,10.562,M,40.582,M,1.5,0136*4B\r\n
$GPGGA,095151.10,5700.9091487,N,00959.1400852,E,2,7,0.9,10.562,M,40.582,M,1.5,0136*4B\r\n
$GPGGA,095151.15,5700.9091486,N,00959.1400851,E,2,7,0.9,10.562,M,40.582,M,1.5,0136*4C\r\n
$GPGGA,095151.20,5700.9091490,N,00959.1400852,E,2,7,0.9,10.562,M,40.582,M,1.5,0136*4E\r\n
$GPGGA,095151.25,5700.9091507,N,00959.1400812,E,2,7,0.9,10.566,M,40.582,M,1.7,0136*46\r\n
$GPGGA,095151.30,5700.9091508,N,00959.1400813,E,2,7,0.9,10.567,M,40.582,M,1.7,0136*4D\r\n
$GPGGA,095151.35,5700.9091506,N,00959.1400815,E,2,7,0.9,10.567,M,40.582,M,1.7,0136*40\r\n
$GPGGA,095151.40,5700.9091504,N,00959.1400816,E,2,7,0.9,10.568,M,40.582,M,1.7,0136*4C\r\n
$GPGGA,095151.45,5700.9091480,N,00959.1400838,E,2,7,0.9,10.564,M,40.582,M,1.9,0136*4A\r\n
$GPGGA,095151.50,5700.9091481,N,00959.1400838,E,2,7,0.9,10.564,M,40.582,M,1.9,0136*4F\r\n
$GPGGA,095151.55,5700.9091482,N,00959.1400839,E,2,7,0.9,10.565,M,40.582,M,1.9,0136*49\r\n
$GPGGA,095151.60,5700.9091485,N,00959.1400837,E,2,7,0.9,10.565,M,40.582,M,1.9,0136*46\r\n
$GPGGA,095151.65,5700.9091510,N,00959.1400834,E,2,7,0.9,10.565,M,40.582,M,2.2,0136*45\r\n
$GPGGA,095151.70,5700.9091511,N,00959.1400839,E,2,7,0.9,10.565,M,40.582,M,2.2,0136*4D\r\n
$GPGGA,095151.75,5700.9091511,N,00959.1400843,E,2,7,0.9,10.565,M,40.582,M,2.2,0136*45\r\n
$GPGGA,095151.80,5700.9091511,N,00959.1400844,E,2,7,0.9,10.566,M,40.582,M,2.2,0136*4B\r\n
$GPGGA,095151.85,5700.9091490,N,00959.1400856,E,2,7,0.9,10.563,M,40.582,M,1.5,0136*44\r\n
$GPGGA,095151.90,5700.9091492,N,00959.1400859,E,2,7,0.9,10.563,M,40.582,M,1.5,0136*4D\r\n
$GPGGA,095151.95,5700.9091492,N,00959.1400861,E,2,7,0.9,10.563,M,40.582,M,1.5,0136*43\r\n
$GPGGA,095152.00,5700.9091493,N,00959.1400863,E,2,7,0.9,10.563,M,40.582,M,1.5,0136*4F\r\n
$GPGGA,095152.05,5700.9091504,N,00959.1400825,E,2,7,0.9,10.563,M,40.582,M,1.7,0136*45\r\n
$GPGGA,095152.10,5700.9091504,N,00959.1400826,E,2,7,0.9,10.563,M,40.582,M,1.7,0136*42\r\n
$GPGGA,095152.15,5700.9091503,N,00959.1400828,E,2,7,0.9,10.564,M,40.582,M,1.7,0136*49\r\n
$GPGGA,095152.20,5700.9091505,N,00959.1400833,E,2,7,0.9,10.564,M,40.582,M,1.7,0136*43\r\n
$GPGGA,095152.25,5700.9091499,N,00959.1400828,E,2,7,0.9,10.562,M,40.582,M,1.9,0136*40\r\n
$GPGGA,095152.30,5700.9091500,N,00959.1400826,E,2,7,0.9,10.562,M,40.582,M,1.9,0136*4B\r\n
$GPGGA,095152.35,5700.9091498,N,00959.1400825,E,2,7,0.9,10.561,M,40.582,M,1.9,0136*4E\r\n
$GPGGA,095152.40,5700.9091498,N,00959.1400824,E,2,7,0.9,10.561,M,40.582,M,1.9,0136*4D\r\n
$GPGGA,095152.45,5700.9091484,N,00959.1400801,E,2,7,0.9,10.560,M,40.582,M,2.2,0136*4B\r\n
$GPGGA,095152.50,5700.9091484,N,00959.1400799,E,2,7,0.9,10.560,M,40.582,M,2.2,0136*41\r\n
$GPGGA,095152.55,5700.9091485,N,00959.1400805,E,2,7,0.9,10.560,M,40.582,M,2.2,0136*4F\r\n
$GPGGA,095152.60,5700.9091483,N,00959.1400808,E,2,7,0.9,10.560,M,40.582,M,2.2,0136*42\r\n
$GPGGA,095152.65,5700.9091503,N,00959.1400834,E,2,7,0.9,10.564,M,40.582,M,2.4,0136*43\r\n
$GPGGA,095152.70,5700.9091506,N,00959.1400831,E,2,7,0.9,10.564,M,40.582,M,2.4,0136*47\r\n
$GPGGA,095152.75,5700.9091507,N,00959.1400832,E,2,7,0.9,10.564,M,40.582,M,2.4,0136*40\r\n
$GPGGA,095152.80,5700.9091508,N,00959.1400836,E,2,7,0.9,10.564,M,40.582,M,2.4,0136*41\r\n
$GPGGA,095152.85,5700.9091510,N,00959.1400827,E,2,7,0.9,10.563,M,40.582,M,2.6,0136*48\r\n
$GPGGA,095152.90,5700.9091513,N,00959.1400825,E,2,7,0.9,10.563,M,40.582,M,2.6,0136*4D\r\n
$GPGGA,095152.95,5700.9091515,N,00959.1400825,E,2,7,0.9,10.563,M,40.582,M,2.6,0136*4E\r\n
$GPGGA,095153.00,5700.9091514,N,00959.1400826,E,2,7,0.9,10.563,M,40.582,M,2.6,0136*41\r\n
$GPGGA,095153.05,5700.9091515,N,00959.1400775,E,2,7,0.9,10.560,M,40.582,M,2.8,0136*41\r\n
$GPGGA,095153.10,5700.9091515,N,00959.1400772,E,2,7,0.9,10.560,M,40.582,M,2.8,0136*42\r\n
$GPGGA,095153.15,5700.9091518,N,00959.1400773,E,2,7,0.9,10.560,M,40.582,M,2.8,0136*4B\r\n
$GPGGA,095153.20,5700.9091519,N,00959.1400776,E,2,7,0.9,10.560,M,40.582,M,2.8,0136*49\r\n
$GPGGA,095153.25,5700.9091515,N,00959.1400788,E,2,7,0.9,10.561,M,40.582,M,3.0,0136*49\r\n
$GPGGA,095153.30,5700.9091516,N,00959.1400786,E,2,7,0.9,10.560,M,40.582,M,3.0,0136*41\r\n
$GPGGA,095153.35,5700.9091516,N,00959.1400785,E,2,7,0.9,10.560,M,40.582,M,3.0,0136*47\r\n
$GPGGA,095153.40,5700.9091516,N,00959.1400789,E,2,7,0.9,10.560,M,40.582,M,3.0,0136*49\r\n
$GPGGA,095153.45,5700.9091515,N,00959.1400796,E,2,7,0.9,10.563,M,40.582,M,3.2,0136*40\r\n
$GPGGA,095153.50,5700.9091514,N,00959.1400795,E,2,7,0.9,10.563,M,40.582,M,3.2,0136*46\r\n
$GPGGA,095153.55,5700.9091514,N,00959.1400794,E,2,7,0.9,10.563,M,40.582,M,3.2,0136*42\r\n
$GPGGA,095153.60,5700.9091516,N,00959.1400793,E,2,7,0.9,10.563,M,40.582,M,3.2,0136*41\r\n
$GPGGA,095153.65,5700.9091510,N,00959.1400779,E,2,7,0.9,10.563,M,40.582,M,3.5,0136*41\r\n
$GPGGA,095153.70,5700.9091510,N,00959.1400777,E,2,7,0.9,10.563,M,40.582,M,3.5,0136*4B\r\n
$GPGGA,095153.75,5700.9091510,N,00959.1400779,E,2,7,0.9,10.564,M,40.582,M,3.5,0136*47\r\n
$GPGGA,095153.80,5700.9091511,N,00959.1400781,E,2,7,0.9,10.564,M,40.582,M,3.5,0136*4B\r\n
$GPGGA,095153.85,5700.9091521,N,00959.1400784,E,2,7,0.9,10.568,M,40.582,M,1.9,0136*4A\r\n
$GPGGA,095153.90,5700.9091522,N,00959.1400782,E,2,7,0.9,10.568,M,40.582,M,1.9,0136*4B\r\n
$GPGGA,095153.95,5700.9091523,N,00959.1400778,E,2,7,0.9,10.569,M,40.582,M,1.9,0136*4B\r\n
$GPGGA,095154.00,5700.9091524,N,00959.1400775,E,2,7,0.9,10.569,M,40.582,M,1.9,0136*4A\r\n
$GPGGA,095154.05,5700.9091513,N,00959.1400715,E,2,7,0.9,10.556,M,40.582,M,2.2,0136*49\r\n
$GPGGA,095154.10,5700.9091515,N,00959.1400713,E,2,7,0.9,10.556,M,40.582,M,2.2,0136*4D\r\n
$GPGGA,095154.15,5700.9091514,N,00959.1400717,E,2,7,0.9,10.556,M,40.582,M,2.2,0136*4D\r\n
$GPGGA,095154.20,5700.9091513,N,00959.1400718,E,2,7,0.9,10.556,M,40.582,M,2.2,0136*43\r\n
$GPGGA,095154.25,5700.9091518,N,00959.1400747,E,2,7,0.9,10.561,M,40.582,M,2.5,0136*44\r\n
$GPGGA,095154.30,5700.9091516,N,00959.1400750,E,2,7,0.9,10.561,M,40.582,M,2.5,0136*48\r\n
$GPGGA,095154.35,5700.9091517,N,00959.1400752,E,2,7,0.9,10.561,M,40.582,M,2.5,0136*4E\r\n
$GPGGA,095154.40,5700.9091516,N,00959.1400750,E,2,7,0.9,10.561,M,40.582,M,2.5,0136*4F\r\n
$GPGGA,095154.45,5700.9091508,N,00959.1400769,E,2,7,0.9,10.562,M,40.582,M,2.7,0136*4E\r\n
$GPGGA,095154.50,5700.9091508,N,00959.1400768,E,2,7,0.9,10.562,M,40.582,M,2.7,0136*4B\r\n
$GPGGA,095154.55,5700.9091507,N,00959.1400773,E,2,7,0.9,10.562,M,40.582,M,2.7,0136*4B\r\n
$GPGGA,095154.60,5700.9091508,N,00959.1400780,E,2,7,0.9,10.563,M,40.582,M,2.7,0136*4F\r\n
$GPGGA,095154.65,5700.9091524,N,00959.1400783,E,2,7,0.9,10.569,M,40.582,M,3.0,0136*4B\r\n
$GPGGA,095154.70,5700.9091524,N,00959.1400780,E,2,7,0.9,10.570,M,40.582,M,3.0,0136*44\r\n
$GPGGA,095154.75,5700.9091525,N,00959.1400780,E,2,7,0.9,10.570,M,40.582,M,3.0,0136*40\r\n
$GPGGA,095154.80,5700.9091525,N,00959.1400782,E,2,7,0.9,10.571,M,40.582,M,3.0,0136*49\r\n
$GPGGA,095154.85,5700.9091528,N,00959.1400762,E,2,7,0.9,10.566,M,40.582,M,1.2,0136*49\r\n
$GPGGA,095154.90,5700.9091529,N,00959.1400766,E,2,7,0.9,10.567,M,40.582,M,1.2,0136*49\r\n
$GPGGA,095154.95,5700.9091527,N,00959.1400773,E,2,7,0.9,10.567,M,40.582,M,1.2,0136*46\r\n
$GPGGA,095155.00,5700.9091526,N,00959.1400777,E,2,7,0.9,10.567,M,40.582,M,1.2,0136*4E\r\n
$GPGGA,095155.05,5700.9091514,N,00959.1400767,E,2,7,0.9,10.565,M,40.582,M,1.5,0136*4E\r\n
$GPGGA,095155.10,5700.9091517,N,00959.1400765,E,2,7,0.9,10.565,M,40.582,M,1.5,0136*4B\r\n
$GPGGA,095155.15,5700.9091518,N,00959.1400767,E,2,7,0.9,10.565,M,40.582,M,1.5,0136*43\r\n
$GPGGA,095155.20,5700.9091518,N,00959.1400772,E,2,7,0.9,10.565,M,40.582,M,1.5,0136*41\r\n
$GPGGA,095155.25,5700.9091527,N,00959.1400740,E,2,7,0.9,10.560,M,40.582,M,1.7,0136*4E\r\n
$GPGGA,095155.30,5700.9091527,N,00959.1400747,E,2,7,0.9,10.560,M,40.582,M,1.7,0136*4D\r\n
$GPGGA,095155.35,5700.9091528,N,00959.1400746,E,2,7,0.9,10.560,M,40.582,M,1.7,0136*46\r\n
$GPGGA,095155.40,5700.9091529,N,00959.1400737,E,2,7,0.9,10.560,M,40.582,M,1.7,0136*43\r\n
$GPGGA,095155.45,5700.9091525,N,00959.1400731,E,2,7,0.9,10.566,M,40.582,M,1.9,0136*44\r\n
$GPGGA,095155.50,5700.9091525,N,00959.1400731,E,2,7,0.9,10.566,M,40.582,M,1.9,0136*40\r\n
$GPGGA,095155.55,5700.9091526,N,00959.1400735,E,2,7,0.9,10.566,M,40.582,M,1.9,0136*42\r\n
$GPGGA,095155.60,5700.9091525,N,00959.1400743,E,2,7,0.9,10.566,M,40.582,M,1.9,0136*46\r\n
$GPGGA,095155.65,5700.9091529,N,00959.1400759,E,2,7,0.9,10.564,M,40.582,M,2.2,0136*4E\r\n
$GPGGA,095155.70,5700.9091529,N,00959.1400761,E,2,7,0.9,10.564,M,40.582,M,2.2,0136*41\r\n
$GPGGA,095155.75,5700.9091530,N,00959.1400758,E,2,7,0.9,10.564,M,40.582,M,2.2,0136*46\r\n
$GPGGA,095155.80,5700.9091529,N,00959.1400754,E,2,7,0.9,10.564,M,40.582,M,2.2,0136*48\r\n
$GPGGA,095155.85,5700.9091518,N,00959.1400731,E,2,7,0.9,10.561,M,40.582,M,2.4,0136*4F\r\n
$GPGGA,095155.90,5700.9091517,N,00959.1400731,E,2,7,0.9,10.561,M,40.582,M,2.4,0136*44\r\n
$GPGGA,095155.95,5700.9091519,N,00959.1400733,E,2,7,0.9,10.560,M,40.582,M,2.4,0136*4C\r\n
$GPGGA,095156.00,5700.9091520,N,00959.1400732,E,2,7,0.9,10.560,M,40.582,M,2.4,0136*48\r\n
$GPGGA,095156.05,5700.9091532,N,00959.1400717,E,2,7,0.9,10.564,M,40.582,M,1.7,0136*4D\r\n
$GPGGA,095156.10,5700.9091530,N,00959.1400718,E,2,7,0.9,10.564,M,40.582,M,1.7,0136*44\r\n
$GPGGA,095156.15,5700.9091528,N,00959.1400717,E,2,7,0.9,10.564,M,40.582,M,1.7,0136*47\r\n
$GPGGA,095156.20,5700.9091527,N,00959.1400712,E,2,7,0.9,10.563,M,40.582,M,1.7,0136*4C\r\n
$GPGGA,095156.25,5700.9091507,N,00959.1400698,E,2,7,0.9,10.561,M,40.582,M,1.9,0136*44\r\n
$GPGGA,095156.30,5700.9091506,N,00959.1400698,E,2,7,0.9,10.561,M,40.582,M,1.9,0136*41\r\n
$GPGGA,095156.35,5700.9091507,N,00959.1400699,E,2,7,0.9,10.561,M,40.582,M,1.9,0136*44\r\n
$GPGGA,095156.40,5700.9091507,N,00959.1400694,E,2,7,0.9,10.560,M,40.582,M,1.9,0136*4A\r\n
$GPGGA,095156.45,5700.9091533,N,00959.1400704,E,2,7,0.9,10.569,M,40.582,M,2.2,0136*41\r\n
$GPGGA,095156.50,5700.9091531,N,00959.1400702,E,2,7,0.9,10.569,M,40.582,M,2.2,0136*41\r\n
$GPGGA,095156.55,5700.9091531,N,00959.1400705,E,2,7,0.9,10.570,M,40.582,M,2.2,0136*4B\r\n
$GPGGA,095156.60,5700.9091534,N,00959.1400707,E,2,7,0.9,10.570,M,40.582,M,2.2,0136*4A\r\n
$GPGGA,095156.65,5700.9091531,N,00959.1400719,E,2,7,0.9,10.565,M,40.582,M,2.4,0136*47\r\n
$GPGGA,095156.70,5700.9091533,N,00959.1400720,E,2,7,0.9,10.565,M,40.582,M,2.4,0136*4B\r\n
$GPGGA,095156.75,5700.9091531,N,00959.1400722,E,2,7,0.9,10.565,M,40.582,M,2.4,0136*4E\r\n
$GPGGA,095156.80,5700.9091530,N,00959.1400722,E,2,7,0.9,10.566,M,40.582,M,2.4,0136*46\r\n
$GPGGA,095156.85,5700.9091519,N,00959.1400710,E,2,8,0.9,10.564,M,40.582,M,2.6,0136*46\r\n
$GPGGA,095156.90,5700.9091520,N,00959.1400712,E,2,8,0.9,10.564,M,40.582,M,2.6,0136*4A\r\n
$GPGGA,095156.95,5700.9091521,N,00959.1400715,E,2,8,0.9,10.564,M,40.582,M,2.6,0136*49\r\n
$GPGGA,095157.00,5700.9091521,N,00959.1400719,E,2,8,0.9,10.564,M,40.582,M,2.6,0136*48\r\n
$GPGGA,095157.05,5700.9091543,N,00959.1400698,E,2,8,0.9,10.573,M,40.582,M,2.8,0136*49\r\n
$GPGGA,095157.10,5700.9091545,N,00959.1400695,E,2,8,0.9,10.573,M,40.582,M,2.8,0136*46\r\n
$GPGGA,095157.15,5700.9091542,N,00959.1400698,E,2,8,0.9,10.573,M,40.582,M,2.8,0136*49\r\n
$GPGGA,095157.20,5700.9091542,N,00959.1400702,E,2,8,0.9,10.573,M,40.582,M,2.8,0136*4D\r\n
$GPGGA,095157.25,5700.9091531,N,00959.1400699,E,2,8,0.9,10.565,M,40.582,M,3.0,0136*41\r\n
$GPGGA,095157.30,5700.9091529,N,00959.1400696,E,2,8,0.9,10.565,M,40.582,M,3.0,0136*43\r\n
$GPGGA,095157.35,5700.9091528,N,00959.1400693,E,2,8,0.9,10.565,M,40.582,M,3.0,0136*42\r\n
$GPGGA,095157.40,5700.9091528,N,00959.1400697,E,2,8,0.9,10.565,M,40.582,M,3.0,0136*44\r\n
$GPGGA,095157.45,5700.9091525,N,00959.1400689,E,2,8,0.9,10.566,M,40.582,M,3.2,0136*42\r\n
$GPGGA,095157.50,5700.9091525,N,00959.1400692,E,2,8,0.9,10.566,M,40.582,M,3.2,0136*4C\r\n
$GPGGA,095157.55,5700.9091526,N,00959.1400693,E,2,8,0.9,10.566,M,40.582,M,3.2,0136*4B\r\n
$GPGGA,095157.60,5700.9091524,N,00959.1400692,E,2,8,0.9,10.565,M,40.582,M,3.2,0136*4D\r\n
$GPGGA,095157.65,5700.9091539,N,00959.1400709,E,2,8,0.9,10.567,M,40.582,M,3.5,0136*42\r\n
$GPGGA,095157.70,5700.9091539,N,00959.1400709,E,2,8,0.9,10.567,M,40.582,M,3.5,0136*46\r\n
$GPGGA,095157.75,5700.9091539,N,00959.1400704,E,2,8,0.9,10.566,M,40.582,M,3.5,0136*4F\r\n
$GPGGA,095157.80,5700.9091539,N,00959.1400711,E,2,8,0.9,10.566,M,40.582,M,3.5,0136*41\r\n
$GPGGA,095157.85,5700.9091540,N,00959.1400707,E,2,8,0.9,10.568,M,40.582,M,3.7,0136*41\r\n
$GPGGA,095157.90,5700.9091540,N,00959.1400706,E,2,8,0.9,10.568,M,40.582,M,3.7,0136*44\r\n
$GPGGA,095157.95,5700.9091543,N,00959.1400711,E,2,8,0.9,10.568,M,40.582,M,3.7,0136*44\r\n
$GPGGA,095158.00,5700.9091546,N,00959.1400707,E,2,8,0.9,10.568,M,40.582,M,3.7,0136*45\r\n
$GPGGA,095158.05,5700.9091579,N,00959.1400684,E,2,8,0.9,10.579,M,40.582,M,2.2,0136*42\r\n
$GPGGA,095158.10,5700.9091579,N,00959.1400685,E,2,8,0.9,10.579,M,40.582,M,2.2,0136*47\r\n
$GPGGA,095158.15,5700.9091580,N,00959.1400687,E,2,8,0.9,10.580,M,40.582,M,2.2,0136*40\r\n
$GPGGA,095158.20,5700.9091582,N,00959.1400689,E,2,8,0.9,10.580,M,40.582,M,2.2,0136*4A\r\n
$GPGGA,095158.25,5700.9091567,N,00959.1400693,E,2,8,0.9,10.579,M,40.582,M,2.5,0136*4E\r\n
$GPGGA,095158.30,5700.9091568,N,00959.1400694,E,2,8,0.9,10.579,M,40.582,M,2.5,0136*42\r\n
$GPGGA,095158.35,5700.9091567,N,00959.1400692,E,2,8,0.9,10.579,M,40.582,M,2.5,0136*4E\r\n
$GPGGA,095158.40,5700.9091568,N,00959.1400690,E,2,8,0.9,10.580,M,40.582,M,2.5,0136*47\r\n
$GPGGA,095158.45,5700.9091555,N,00959.1400670,E,2,8,0.9,10.574,M,40.582,M,2.7,0136*4B\r\n
$GPGGA,095158.50,5700.9091555,N,00959.1400672,E,2,8,0.9,10.574,M,40.582,M,2.7,0136*4D\r\n
$GPGGA,095158.55,5700.9091556,N,00959.1400672,E,2,8,0.9,10.574,M,40.582,M,2.7,0136*4B\r\n
$GPGGA,095158.60,5700.9091557,N,00959.1400674,E,2,8,0.9,10.574,M,40.582,M,2.7,0136*4A\r\n
$GPGGA,095158.65,5700.9091560,N,00959.1400700,E,2,8,0.9,10.575,M,40.582,M,3.0,0136*4E\r\n
$GPGGA,095158.70,5700.9091561,N,00959.1400701,E,2,8,0.9,10.575,M,40.582,M,3.0,0136*4A\r\n
$GPGGA,095158.75,5700.9091560,N,00959.1400702,E,2,8,0.9,10.575,M,40.582,M,3.0,0136*4D\r\n
$GPGGA,095158.80,5700.9091560,N,00959.1400699,E,2,8,0.9,10.575,M,40.582,M,3.0,0136*44\r\n
$GPGGA,095158.85,5700.9091566,N,00959.1400683,E,2,8,0.9,10.578,M,40.582,M,3.2,0136*43\r\n
$GPGGA,095158.90,5700.9091567,N,00959.1400687,E,2,8,0.9,10.578,M,40.582,M,3.2,0136*42\r\n
$GPGGA,095158.95,5700.9091567,N,00959.1400690,E,2,8,0.9,10.578,M,40.582,M,3.2,0136*41\r\n
$GPGGA,095159.00,5700.9091566,N,00959.1400690,E,2,8,0.9,10.578,M,40.582,M,3.2,0136*4D\r\n
$GPGGA,095159.05,5700.9091582,N,00959.1400696,E,2,8,0.9,10.584,M,40.582,M,1.5,0136*42\r\n
$GPGGA,095159.10,5700.9091580,N,00959.1400696,E,2,8,0.9,10.584,M,40.582,M,1.5,0136*44\r\n
$GPGGA,095159.15,5700.9091580,N,00959.1400693,E,2,8,0.9,10.584,M,40.582,M,1.5,0136*44\r\n
$GPGGA,095159.20,5700.9091581,N,00959.1400697,E,2,8,0.9,10.584,M,40.582,M,1.5,0136*47\r\n
$GPGGA,095159.25,5700.9091578,N,00959.1400684,E,2,8,0.9,10.581,M,40.582,M,1.7,0136*41\r\n
$GPGGA,095159.30,5700.9091579,N,00959.1400687,E,2,8,0.9,10.581,M,40.582,M,1.7,0136*47\r\n
$GPGGA,095159.35,5700.9091580,N,00959.1400689,E,2,8,0.9,10.581,M,40.582,M,1.7,0136*4A\r\n
$GPGGA,095159.40,5700.9091580,N,00959.1400688,E,2,8,0.9,10.581,M,40.582,M,1.7,0136*49\r\n
$GPGGA,095159.45,5700.9091584,N,00959.1400699,E,2,8,0.9,10.582,M,40.582,M,1.9,0136*45\r\n
$GPGGA,095159.50,5700.9091583,N,00959.1400704,E,2,8,0.9,10.582,M,40.582,M,1.9,0136*43\r\n
$GPGGA,095159.55,5700.9091584,N,00959.1400707,E,2,8,0.9,10.581,M,40.582,M,1.9,0136*41\r\n
$GPGGA,095159.60,5700.9091584,N,00959.1400706,E,2,8,0.9,10.581,M,40.582,M,1.9,0136*46\r\n
$GPGGA,095159.65,5700.9091573,N,00959.1400705,E,2,8,0.9,10.580,M,40.582,M,2.2,0136*41\r\n
$GPGGA,095159.70,5700.9091574,N,00959.1400708,E,2,8,0.9,10.580,M,40.582,M,2.2,0136*4F\r\n
$GPGGA,095159.75,5700.9091572,N,00959.1400708,E,2,8,0.9,10.580,M,40.582,M,2.2,0136*4C\r\n
$GPGGA,095159.80,5700.9091571,N,00959.1400706,E,2,8,0.9,10.580,M,40.582,M,2.2,0136*4B\r\n
$GPGGA,095159.85,5700.9091575,N,00959.1400703,E,2,8,0.9,10.580,M,40.582,M,2.4,0136*49\r\n
$GPGGA,095159.90,5700.9091576,N,00959.1400705,E,2,8,0.9,10.580,M,40.582,M,2.4,0136*48\r\n
$GPGGA,095159.95,5700.9091578,N,00959.1400704,E,2,8,0.9,10.579,M,40.582,M,2.4,0136*44\r\n
$GPGGA,095200.00,5700.9091577,N,00959.1400701,E,2,8,0.9,10.579,M,40.582,M,2.4,0136*4D\r\n
$GPGGA,095200.05,5700.9091611,N,00959.1400659,E,2,8,0.9,10.593,M,40.582,M,1.7,0136*43\r\n
$GPGGA,095200.10,5700.9091612,N,00959.1400658,E,2,8,0.9,10.593,M,40.582,M,1.7,0136*45\r\n
$GPGGA,095200.15,5700.9091610,N,00959.1400659,E,2,8,0.9,10.593,M,40.582,M,1.7,0136*43\r\n
$GPGGA,095200.20,5700.9091610,N,00959.1400659,E,2,8,0.9,10.593,M,40.582,M,1.7,0136*45\r\n
$GPGGA,095200.25,5700.9091594,N,00959.1400671,E,2,8,0.9,10.588,M,40.582,M,1.9,0136*41\r\n
$GPGGA,095200.30,5700.9091591,N,00959.1400670,E,2,8,0.9,10.588,M,40.582,M,1.9,0136*41\r\n
$GPGGA,095200.35,5700.9091593,N,00959.1400666,E,2,8,0.9,10.588,M,40.582,M,1.9,0136*41\r\n
$GPGGA,095200.40,5700.9091597,N,00959.1400663,E,2,8,0.9,10.588,M,40.582,M,1.9,0136*42\r\n
$GPGGA,095200.45,5700.9091608,N,00959.1400650,E,2,8,0.9,10.589,M,40.582,M,2.2,0136*4B\r\n
$GPGGA,095200.50,5700.9091608,N,00959.1400648,E,2,8,0.9,10.589,M,40.582,M,2.2,0136*46\r\n
$GPGGA,095200.55,5700.9091605,N,00959.1400644,E,2,8,0.9,10.589,M,40.582,M,2.2,0136*42\r\n
$GPGGA,095200.60,5700.9091602,N,00959.1400645,E,2,8,0.9,10.589,M,40.582,M,2.2,0136*42\r\n
$GPGGA,095200.65,5700.9091591,N,00959.1400651,E,2,8,0.9,10.588,M,40.582,M,2.4,0136*4C\r\n
$GPGGA,095200.70,5700.9091591,N,00959.1400649,E,2,8,0.9,10.588,M,40.582,M,2.4,0136*41\r\n
$GPGGA,095200.75,5700.9091594,N,00959.1400648,E,2,8,0.9,10.588,M,40.582,M,2.4,0136*40\r\n
$GPGGA,095200.80,5700.9091593,N,00959.1400650,E,2,8,0.9,10.588,M,40.582,M,2.4,0136*44\r\n
$GPGGA,095200.85,5700.9091614,N,00959.1400663,E,2,8,0.9,10.592,M,40.582,M,2.6,0136*44\r\n
$GPGGA,095200.90,5700.9091616,N,00959.1400663,E,2,8,0.9,10.592,M,40.582,M,2.6,0136*42\r\n
$GPGGA,095200.95,5700.9091617,N,00959.1400664,E,2,8,0.9,10.592,M,40.582,M,2.6,0136*41\r\n
$GPGGA,095201.00,5700.9091617,N,00959.1400663,E,2,8,0.9,10.592,M,40.582,M,2.6,0136*4B\r\n
$GPGGA,095201.05,5700.9091639,N,00959.1400646,E,2,8,0.9,10.603,M,40.582,M,2.8,0136*40\r\n
$GPGGA,095201.10,5700.9091637,N,00959.1400645,E,2,8,0.9,10.603,M,40.582,M,2.8,0136*49\r\n
$GPGGA,095201.15,5700.9091639,N,00959.1400646,E,2,8,0.9,10.603,M,40.582,M,2.8,0136*41\r\n
$GPGGA,095201.20,5700.9091642,N,00959.1400646,E,2,8,0.9,10.604,M,40.582,M,2.8,0136*4C\r\n
$GPGGA,095201.25,5700.9091628,N,00959.1400644,E,2,8,0.9,10.598,M,40.582,M,3.0,0136*48\r\n
$GPGGA,095201.30,5700.9091629,N,00959.1400648,E,2,8,0.9,10.598,M,40.582,M,3.0,0136*41\r\n
$GPGGA,095201.35,5700.9091629,N,00959.1400649,E,2,8,0.9,10.598,M,40.582,M,3.0,0136*45\r\n
$GPGGA,095201.40,5700.9091630,N,00959.1400652,E,2,8,0.9,10.598,M,40.582,M,3.0,0136*45\r\n
$GPGGA,095201.45,5700.9091629,N,00959.1400671,E,2,8,0.9,10.599,M,40.582,M,3.2,0136*4A\r\n
$GPGGA,095201.50,5700.9091630,N,00959.1400670,E,2,8,0.9,10.599,M,40.582,M,3.2,0136*47\r\n
$GPGGA,095201.55,5700.9091630,N,00959.1400668,E,2,8,0.9,10.599,M,40.582,M,3.2,0136*4B\r\n
$GPGGA,095201.60,5700.9091629,N,00959.1400667,E,2,8,0.9,10.599,M,40.582,M,3.2,0136*4A\r\n
$GPGGA,095201.65,5700.9091632,N,00959.1400641,E,2,8,0.9,10.597,M,40.582,M,3.5,0136*48\r\n
$GPGGA,095201.70,5700.9091633,N,00959.1400645,E,2,8,0.9,10.597,M,40.582,M,3.5,0136*49\r\n
$GPGGA,095201.75,5700.9091635,N,00959.1400643,E,2,8,0.9,10.597,M,40.582,M,3.5,0136*4C\r\n
$GPGGA,095201.80,5700.9091635,N,00959.1400642,E,2,8,0.9,10.596,M,40.582,M,3.5,0136*46\r\n
$GPGGA,095201.85,5700.9091647,N,00959.1400651,E,2,8,0.9,10.605,M,40.582,M,3.7,0136*4F\r\n
$GPGGA,095201.90,5700.9091646,N,00959.1400651,E,2,8,0.9,10.605,M,40.582,M,3.7,0136*4A\r\n
$GPGGA,095201.95,5700.9091647,N,00959.1400651,E,2,8,0.9,10.605,M,40.582,M,3.7,0136*4E\r\n
$GPGGA,095202.00,5700.9091649,N,00959.1400648,E,2,8,0.9,10.606,M,40.582,M,3.7,0136*44\r\n
$GPGGA,095202.05,5700.9091652,N,00959.1400621,E,2,8,0.9,10.613,M,40.582,M,2.2,0136*44\r\n
$GPGGA,095202.10,5700.9091652,N,00959.1400626,E,2,8,0.9,10.613,M,40.582,M,2.2,0136*47\r\n
$GPGGA,095202.15,5700.9091653,N,00959.1400628,E,2,8,0.9,10.614,M,40.582,M,2.2,0136*4A\r\n
$GPGGA,095202.20,5700.9091658,N,00959.1400623,E,2,8,0.9,10.614,M,40.582,M,2.2,0136*4C\r\n
$GPGGA,095202.25,5700.9091682,N,00959.1400633,E,2,8,0.9,10.617,M,40.582,M,2.5,0136*4B\r\n
$GPGGA,095202.30,5700.9091683,N,00959.1400636,E,2,8,0.9,10.618,M,40.582,M,2.5,0136*44\r\n
$GPGGA,095202.35,5700.9091680,N,00959.1400641,E,2,8,0.9,10.619,M,40.582,M,2.5,0136*43\r\n
$GPGGA,095202.40,5700.9091682,N,00959.1400645,E,2,8,0.9,10.619,M,40.582,M,2.5,0136*47\r\n
$GPGGA,095202.45,5700.9091652,N,00959.1400663,E,2,8,0.9,10.609,M,40.582,M,2.7,0136*48\r\n
$GPGGA,095202.50,5700.9091652,N,00959.1400668,E,2,8,0.9,10.609,M,40.582,M,2.7,0136*47\r\n
$GPGGA,095202.55,5700.9091653,N,00959.1400670,E,2,8,0.9,10.609,M,40.582,M,2.7,0136*4A\r\n
$GPGGA,095202.60,5700.9091652,N,00959.1400672,E,2,8,0.9,10.610,M,40.582,M,2.7,0136*47\r\n
$GPGGA,095202.65,5700.9091662,N,00959.1400668,E,2,8,0.9,10.612,M,40.582,M,3.0,0136*4E\r\n
$GPGGA,095202.70,5700.9091662,N,00959.1400673,E,2,8,0.9,10.612,M,40.582,M,3.0,0136*40\r\n
$GPGGA,095202.75,5700.9091660,N,00959.1400677,E,2,8,0.9,10.612,M,40.582,M,3.0,0136*43\r\n
$GPGGA,095202.80,5700.9091664,N,00959.1400679,E,2,8,0.9,10.612,M,40.582,M,3.0,0136*43\r\n
$GPGGA,095202.85,5700.9091673,N,00959.1400674,E,2,8,0.9,10.613,M,40.582,M,3.2,0136*4E\r\n
$GPGGA,095202.90,5700.9091672,N,00959.1400675,E,2,8,0.9,10.613,M,40.582,M,3.2,0136*4A\r\n
$GPGGA,095202.95,5700.9091672,N,00959.1400676,E,2,8,0.9,10.613,M,40.582,M,3.2,0136*4C\r\n
$GPGGA,095203.00,5700.9091673,N,00959.1400679,E,2,8,0.9,10.613,M,40.582,M,3.2,0136*4F\r\n
$GPGGA,095203.05,5700.9091681,N,00959.1400643,E,2,8,0.9,10.623,M,40.582,M,1.5,0136*48\r\n
$GPGGA,095203.10,5700.9091680,N,00959.1400644,E,2,8,0.9,10.623,M,40.582,M,1.5,0136*4A\r\n
$GPGGA,095203.15,5700.9091681,N,00959.1400647,E,2,8,0.9,10.624,M,40.582,M,1.5,0136*4A\r\n
$GPGGA,095203.20,5700.9091681,N,00959.1400651,E,2,8,0.9,10.624,M,40.582,M,1.5,0136*4B\r\n
$GPGGA,095203.25,5700.9091674,N,00959.1400674,E,2,8,0.9,10.615,M,40.582,M,1.7,0136*43\r\n
$GPGGA,095203.30,5700.9091672,N,00959.1400676,E,2,8,0.9,10.615,M,40.582,M,1.7,0136*43\r\n
$GPGGA,095203.35,5700.9091674,N,00959.1400670,E,2,8,0.9,10.615,M,40.582,M,1.7,0136*46\r\n
$GPGGA,095203.40,5700.9091676,N,00959.1400668,E,2,8,0.9,10.614,M,40.582,M,1.7,0136*4E\r\n
$GPGGA,095203.45,5700.9091684,N,00959.1400627,E,2,8,0.9,10.618,M,40.582,M,1.9,0136*4F\r\n
$GPGGA,095203.50,5700.9091682,N,00959.1400633,E,2,8,0.9,10.618,M,40.582,M,1.9,0136*48\r\n
$GPGGA,095203.55,5700.9091680,N,00959.1400636,E,2,8,0.9,10.617,M,40.582,M,1.9,0136*45\r\n
$GPGGA,095203.60,5700.9091682,N,00959.1400633,E,2,8,0.9,10.617,M,40.582,M,1.9,0136*44\r\n
$GPGGA,095203.65,5700.9091670,N,00959.1400674,E,2,8,0.9,10.620,M,40.582,M,2.2,0136*43\r\n
$GPGGA,095203.70,5700.9091670,N,00959.1400674,E,2,8,0.9,10.620,M,40.582,M,2.2,0136*47\r\n
$GPGGA,095203.75,5700.9091668,N,00959.1400674,E,2,8,0.9,10.620,M,40.582,M,2.2,0136*4B\r\n
$GPGGA,095203.80,5700.9091667,N,00959.1400673,E,2,8,0.9,10.619,M,40.582,M,2.2,0136*43\r\n
$GPGGA,095203.85,5700.9091669,N,00959.1400655,E,2,8,0.9,10.615,M,40.582,M,2.4,0136*46\r\n
$GPGGA,095203.90,5700.9091669,N,00959.1400658,E,2,8,0.9,10.615,M,40.582,M,2.4,0136*4F\r\n
$GPGGA,095203.95,5700.9091670,N,00959.1400661,E,2,8,0.9,10.615,M,40.582,M,2.4,0136*48\r\n
$GPGGA,095204.00,5700.9091669,N,00959.1400659,E,2,8,0.9,10.615,M,40.582,M,2.4,0136*40\r\n
$GPGGA,095204.05,5700.9091713,N,00959.1400659,E,2,8,0.9,10.630,M,40.582,M,1.7,0136*4E\r\n
$GPGGA,095204.10,5700.9091713,N,00959.1400660,E,2,8,0.9,10.629,M,40.582,M,1.7,0136*48\r\n
$GPGGA,095204.15,5700.9091715,N,00959.1400659,E,2,8,0.9,10.629,M,40.582,M,1.7,0136*41\r\n
$GPGGA,095204.20,5700.9091715,N,00959.1400664,E,2,8,0.9,10.629,M,40.582,M,1.7,0136*49\r\n
$GPGGA,095204.25,5700.9091706,N,00959.1400663,E,2,8,0.9,10.624,M,40.582,M,1.9,0136*4A\r\n
$GPGGA,095204.30,5700.9091705,N,00959.1400661,E,2,8,0.9,10.624,M,40.582,M,1.9,0136*4F\r\n
$GPGGA,095204.35,5700.9091704,N,00959.1400658,E,2,8,0.9,10.624,M,40.582,M,1.9,0136*41\r\n
$GPGGA,095204.40,5700.9091705,N,00959.1400663,E,2,8,0.9,10.623,M,40.582,M,1.9,0136*4D\r\n
$GPGGA,095204.45,5700.9091703,N,00959.1400648,E,2,8,0.9,10.631,M,40.582,M,2.2,0136*4C\r\n
$GPGGA,095204.50,5700.9091703,N,00959.1400647,E,2,8,0.9,10.631,M,40.582,M,2.2,0136*47\r\n
$GPGGA,095204.55,5700.9091703,N,00959.1400645,E,2,8,0.9,10.632,M,40.582,M,2.2,0136*43\r\n
$GPGGA,095204.60,5700.9091703,N,00959.1400642,E,2,8,0.9,10.632,M,40.582,M,2.2,0136*42\r\n
$GPGGA,095204.65,5700.9091698,N,00959.1400624,E,2,8,0.9,10.621,M,40.582,M,2.4,0136*40\r\n
$GPGGA,095204.70,5700.9091701,N,00959.1400625,E,2,8,0.9,10.621,M,40.582,M,2.4,0136*44\r\n
$GPGGA,095204.75,5700.9091700,N,00959.1400625,E,2,8,0.9,10.621,M,40.582,M,2.4,0136*40\r\n
$GPGGA,095204.80,5700.9091697,N,00959.1400625,E,2,8,0.9,10.620,M,40.582,M,2.4,0136*44\r\n
$GPGGA,095204.85,5700.9091696,N,00959.1400642,E,2,8,0.9,10.622,M,40.582,M,2.6,0136*41\r\n
$GPGGA,095204.90,5700.9091696,N,00959.1400643,E,2,8,0.9,10.622,M,40.582,M,2.6,0136*44\r\n
$GPGGA,095204.95,5700.9091695,N,00959.1400642,E,2,8,0.9,10.622,M,40.582,M,2.6,0136*43\r\n
$GPGGA,095205.00,5700.9091695,N,00959.1400639,E,2,8,0.9,10.621,M,40.582,M,2.6,0136*41\r\n
$GPGGA,095205.05,5700.9091717,N,00959.1400617,E,2,8,0.9,10.640,M,40.582,M,2.8,0136*4A\r\n
$GPGGA,095205.10,5700.9091715,N,00959.1400617,E,2,8,0.9,10.640,M,40.582,M,2.8,0136*4C\r\n
$GPGGA,095205.15,5700.9091714,N,00959.1400616,E,2,8,0.9,10.640,M,40.582,M,2.8,0136*49\r\n
$GPGGA,095205.20,5700.9091713,N,00959.1400613,E,2,8,0.9,10.640,M,40.582,M,2.8,0136*4D\r\n
$GPGGA,095205.25,5700.9091701,N,00959.1400612,E,2,8,0.9,10.639,M,40.582,M,3.0,0136*4D\r\n
$GPGGA,095205.30,5700.9091699,N,00959.1400612,E,2,8,0.9,10.640,M,40.582,M,3.0,0136*47\r\n
$GPGGA,095205.35,5700.9091698,N,00959.1400613,E,2,8,0.9,10.640,M,40.582,M,3.0,0136*42\r\n
$GPGGA,095205.40,5700.9091697,N,00959.1400614,E,2,8,0.9,10.640,M,40.582,M,3.0,0136*48\r\n
$GPGGA,095205.45,5700.9091706,N,00959.1400642,E,2,8,0.9,10.639,M,40.582,M,3.2,0136*4B\r\n
$GPGGA,095205.50,5700.9091707,N,00959.1400646,E,2,8,0.9,10.640,M,40.582,M,3.2,0136*44\r\n
$GPGGA,095205.55,5700.9091709,N,00959.1400647,E,2,8,0.9,10.640,M,40.582,M,3.2,0136*4E\r\n
$GPGGA,095205.60,5700.9091708,N,00959.1400643,E,2,8,0.9,10.641,M,40.582,M,3.2,0136*4C\r\n
$GPGGA,095205.65,5700.9091722,N,00959.1400638,E,2,8,0.9,10.640,M,40.582,M,3.5,0136*4B\r\n
$GPGGA,095205.70,5700.9091724,N,00959.1400639,E,2,8,0.9,10.640,M,40.582,M,3.5,0136*48\r\n
$GPGGA,095205.75,5700.9091725,N,00959.1400639,E,2,8,0.9,10.640,M,40.582,M,3.5,0136*4C\r\n
$GPGGA,095205.80,5700.9091722,N,00959.1400645,E,2,8,0.9,10.641,M,40.582,M,3.5,0136*4B\r\n
$GPGGA,095205.85,5700.9091718,N,00959.1400638,E,2,8,0.9,10.640,M,40.582,M,3.7,0136*4E\r\n
$GPGGA,095205.90,5700.9091720,N,00959.1400641,E,2,8,0.9,10.640,M,40.582,M,3.7,0136*4F\r\n
$GPGGA,095205.95,5700.9091720,N,00959.1400637,E,2,8,0.9,10.641,M,40.582,M,3.7,0136*4A\r\n
$GPGGA,095206.00,5700.9091721,N,00959.1400635,E,2,8,0.9,10.641,M,40.582,M,3.7,0136*46\r\n
$GPGGA,095206.05,5700.9091743,N,00959.1400614,E,2,8,0.9,10.650,M,40.582,M,2.2,0136*40\r\n
$GPGGA,095206.10,5700.9091744,N,00959.1400614,E,2,8,0.9,10.650,M,40.582,M,2.2,0136*43\r\n
$GPGGA,095206.15,5700.9091747,N,00959.1400618,E,2,8,0.9,10.650,M,40.582,M,2.2,0136*49\r\n
$GPGGA,095206.20,5700.9091749,N,00959.1400620,E,2,8,0.9,10.651,M,40.582,M,2.2,0136*4B\r\n
$GPGGA,095206.25,5700.9091756,N,00959.1400630,E,2,8,0.9,10.648,M,40.582,M,2.5,0136*4E\r\n
$GPGGA,095206.30,5700.9091757,N,00959.1400627,E,2,8,0.9,10.648,M,40.582,M,2.5,0136*4D\r\n
$GPGGA,095206.35,5700.9091758,N,00959.1400623,E,2,8,0.9,10.648,M,40.582,M,2.5,0136*43\r\n
$GPGGA,095206.40,5700.9091759,N,00959.1400625,E,2,8,0.9,10.648,M,40.582,M,2.5,0136*46\r\n
$GPGGA,095206.45,5700.9091747,N,00959.1400589,E,2,8,0.9,10.647,M,40.582,M,2.7,0136*44\r\n
$GPGGA,095206.50,5700.9091749,N,00959.1400589,E,2,8,0.9,10.647,M,40.582,M,2.7,0136*4E\r\n
$GPGGA,095206.55,5700.9091751,N,00959.1400588,E,2,8,0.9,10.647,M,40.582,M,2.7,0136*43\r\n
$GPGGA,095206.60,5700.9091750,N,00959.1400583,E,2,8,0.9,10.647,M,40.582,M,2.7,0136*4F\r\n
$GPGGA,095206.65,5700.9091751,N,00959.1400607,E,2,8,0.9,10.647,M,40.582,M,3.0,0136*42\r\n
$GPGGA,095206.70,5700.9091750,N,00959.1400609,E,2,8,0.9,10.646,M,40.582,M,3.0,0136*48\r\n
$GPGGA,095206.75,5700.9091747,N,00959.1400612,E,2,8,0.9,10.646,M,40.582,M,3.0,0136*41\r\n
$GPGGA,095206.80,5700.9091750,N,00959.1400612,E,2,8,0.9,10.646,M,40.582,M,3.0,0136*4D\r\n
$GPGGA,095206.85,5700.9091739,N,00959.1400620,E,2,8,0.9,10.645,M,40.582,M,3.2,0136*47\r\n
$GPGGA,095206.90,5700.9091737,N,00959.1400620,E,2,8,0.9,10.645,M,40.582,M,3.2,0136*4D\r\n
$GPGGA,095206.95,5700.9091736,N,00959.1400620,E,2,8,0.9,10.644,M,40.582,M,3.2,0136*48\r\n
$GPGGA,095207.00,5700.9091739,N,00959.1400621,E,2,8,0.9,10.644,M,40.582,M,3.2,0136*4B\r\n
$GPGGA,095207.05,5700.9091772,N,00959.1400590,E,2,8,0.9,10.658,M,40.582,M,1.5,0136*40\r\n
$GPGGA,095207.10,5700.9091773,N,00959.1400589,E,2,8,0.9,10.658,M,40.582,M,1.5,0136*4D\r\n
$GPGGA,095207.15,5700.9091774,N,00959.1400592,E,2,8,0.9,10.658,M,40.582,M,1.5,0136*45\r\n
$GPGGA,095207.20,5700.9091775,N,00959.1400596,E,2,8,0.9,10.658,M,40.582,M,1.5,0136*46\r\n
$GPGGA,095207.25,5700.9091783,N,00959.1400614,E,2,8,0.9,10.656,M,40.582,M,1.7,0136*4F\r\n
$GPGGA,095207.30,5700.9091784,N,00959.1400614,E,2,8,0.9,10.656,M,40.582,M,1.7,0136*4C\r\n
$GPGGA,095207.35,5700.9091782,N,00959.1400614,E,2,8,0.9,10.655,M,40.582,M,1.7,0136*4C\r\n
$GPGGA,095207.40,5700.9091783,N,00959.1400615,E,2,8,0.9,10.655,M,40.582,M,1.7,0136*4E\r\n
$GPGGA,095207.45,5700.9091768,N,00959.1400602,E,2,8,0.9,10.657,M,40.582,M,1.9,0136*44\r\n
$GPGGA,095207.50,5700.9091768,N,00959.1400603,E,2,8,0.9,10.657,M,40.582,M,1.9,0136*41\r\n
$GPGGA,095207.55,5700.9091768,N,00959.1400599,E,2,8,0.9,10.656,M,40.582,M,1.9,0136*45\r\n
$GPGGA,095207.60,5700.9091766,N,00959.1400601,E,2,8,0.9,10.656,M,40.582,M,1.9,0136*4F\r\n
$GPGGA,095207.65,5700.9091768,N,00959.1400603,E,2,8,0.9,10.650,M,40.582,M,2.2,0136*48\r\n
$GPGGA,095207.70,5700.9091768,N,00959.1400603,E,2,8,0.9,10.650,M,40.582,M,2.2,0136*4C\r\n
$GPGGA,095207.75,5700.9091770,N,00959.1400603,E,2,8,0.9,10.649,M,40.582,M,2.2,0136*48\r\n
$GPGGA,095207.80,5700.9091771,N,00959.1400604,E,2,8,0.9,10.648,M,40.582,M,2.2,0136*45\r\n
$GPGGA,095207.85,5700.9091782,N,00959.1400608,E,2,8,0.9,10.654,M,40.582,M,2.4,0136*4B\r\n
$GPGGA,095207.90,5700.9091782,N,00959.1400611,E,2,8,0.9,10.654,M,40.582,M,2.4,0136*47\r\n
$GPGGA,095207.95,5700.9091783,N,00959.1400615,E,2,8,0.9,10.653,M,40.582,M,2.4,0136*40\r\n
$GPGGA,095208.00,5700.9091783,N,00959.1400616,E,2,8,0.9,10.653,M,40.582,M,2.4,0136*40\r\n
$GPGGA,095208.05,5700.9091816,N,00959.1400615,E,2,8,0.9,10.676,M,40.582,M,1.7,0136*42\r\n
$GPGGA,095208.10,5700.9091816,N,00959.1400615,E,2,8,0.9,10.676,M,40.582,M,1.7,0136*46\r\n
$GPGGA,095208.15,5700.9091816,N,00959.1400616,E,2,8,0.9,10.676,M,40.582,M,1.7,0136*40\r\n
$GPGGA,095208.20,5700.9091817,N,00959.1400618,E,2,8,0.9,10.676,M,40.582,M,1.7,0136*49\r\n
$GPGGA,095208.25,5700.9091807,N,00959.1400610,E,2,8,0.9,10.668,M,40.582,M,1.9,0136*44\r\n
$GPGGA,095208.30,5700.9091809,N,00959.1400610,E,2,8,0.9,10.668,M,40.582,M,1.9,0136*4E\r\n
$GPGGA,095208.35,5700.9091810,N,00959.1400612,E,2,8,0.9,10.668,M,40.582,M,1.9,0136*41\r\n
$GPGGA,095208.40,5700.9091811,N,00959.1400616,E,2,8,0.9,10.669,M,40.582,M,1.9,0136*47\r\n
$GPGGA,095208.45,5700.9091820,N,00959.1400626,E,2,8,0.9,10.669,M,40.582,M,2.2,0136*4B\r\n
$GPGGA,095208.50,5700.9091821,N,00959.1400628,E,2,8,0.9,10.669,M,40.582,M,2.2,0136*40\r\n
$GPGGA,095208.55,5700.9091822,N,00959.1400627,E,2,8,0.9,10.669,M,40.582,M,2.2,0136*49\r\n
$GPGGA,095208.60,5700.9091822,N,00959.1400628,E,2,8,0.9,10.669,M,40.582,M,2.2,0136*40\r\n
$GPGGA,095208.65,5700.9091807,N,00959.1400624,E,2,8,0.9,10.668,M,40.582,M,2.4,0136*49\r\n
$GPGGA,095208.70,5700.9091806,N,00959.1400628,E,2,8,0.9,10.669,M,40.582,M,2.4,0136*41\r\n
$GPGGA,095208.75,5700.9091806,N,00959.1400626,E,2,8,0.9,10.669,M,40.582,M,2.4,0136*4A\r\n
$GPGGA,095208.80,5700.9091807,N,00959.1400630,E,2,8,0.9,10.669,M,40.582,M,2.4,0136*46\r\n
$GPGGA,095208.85,5700.9091811,N,00959.1400633,E,2,8,0.9,10.671,M,40.582,M,2.6,0136*4C\r\n
$GPGGA,095208.90,5700.9091811,N,00959.1400634,E,2,8,0.9,10.671,M,40.582,M,2.6,0136*4F\r\n
$GPGGA,095208.95,5700.9091808,N,00959.1400636,E,2,8,0.9,10.671,M,40.582,M,2.6,0136*40\r\n
$GPGGA,095209.00,5700.9091807,N,00959.1400636,E,2,8,0.9,10.672,M,40.582,M,2.6,0136*41\r\n
$GPGGA,095209.05,5700.9091818,N,00959.1400612,E,2,8,0.9,10.679,M,40.582,M,2.8,0136*49\r\n
$GPGGA,095209.10,5700.9091817,N,00959.1400613,E,2,8,0.9,10.679,M,40.582,M,2.8,0136*43\r\n
$GPGGA,095209.15,5700.9091818,N,00959.1400610,E,2,8,0.9,10.679,M,40.582,M,2.8,0136*4A\r\n
$GPGGA,095209.20,5700.9091818,N,00959.1400610,E,2,8,0.9,10.679,M,40.582,M,2.8,0136*4C\r\n
$GPGGA,095209.25,5700.9091828,N,00959.1400616,E,2,8,0.9,10.675,M,40.582,M,3.0,0136*49\r\n
$GPGGA,095209.30,5700.9091827,N,00959.1400614,E,2,8,0.9,10.675,M,40.582,M,3.0,0136*40\r\n
$GPGGA,095209.35,5700.9091827,N,00959.1400617,E,2,8,0.9,10.675,M,40.582,M,3.0,0136*46\r\n
$GPGGA,095209.40,5700.9091827,N,00959.1400616,E,2,8,0.9,10.675,M,40.582,M,3.0,0136*45\r\n
$GPGGA,095209.45,5700.9091842,N,00959.1400619,E,2,8,0.9,10.688,M,40.582,M,3.2,0136*4C\r\n
$GPGGA,095209.50,5700.9091843,N,00959.1400617,E,2,8,0.9,10.688,M,40.582,M,3.2,0136*47\r\n
$GPGGA,095209.55,5700.9091844,N,00959.1400613,E,2,8,0.9,10.689,M,40.582,M,3.2,0136*40\r\n
$GPGGA,095209.60,5700.9091844,N,00959.1400618,E,2,8,0.9,10.689,M,40.582,M,3.2,0136*4D\r\n
$GPGGA,095209.65,5700.9091842,N,00959.1400632,E,2,8,0.9,10.689,M,40.582,M,3.5,0136*41\r\n
$GPGGA,095209.70,5700.9091840,N,00959.1400634,E,2,8,0.9,10.689,M,40.582,M,3.5,0136*41\r\n
$GPGGA,095209.75,5700.9091842,N,00959.1400632,E,2,8,0.9,10.690,M,40.582,M,3.5,0136*48\r\n
$GPGGA,095209.80,5700.9091845,N,00959.1400630,E,2,8,0.9,10.691,M,40.582,M,3.5,0136*46\r\n
$GPGGA,095209.85,5700.9091835,N,00959.1400621,E,2,8,0.9,10.680,M,40.582,M,3.7,0136*46\r\n
$GPGGA,095209.90,5700.9091833,N,00959.1400624,E,2,8,0.9,10.680,M,40.582,M,3.7,0136*41\r\n
$GPGGA,095209.95,5700.9091834,N,00959.1400620,E,2,8,0.9,10.680,M,40.582,M,3.7,0136*47\r\n
$GPGGA,095210.00,5700.9091834,N,00959.1400617,E,2,8,0.9,10.680,M,40.582,M,3.7,0136*47\r\n
$GPGGA,095210.05,5700.9091851,N,00959.1400608,E,2,8,0.9,10.690,M,40.582,M,2.2,0136*4A\r\n
$GPGGA,095210.10,5700.9091850,N,00959.1400609,E,2,8,0.9,10.690,M,40.582,M,2.2,0136*4E\r\n
$GPGGA,095210.15,5700.9091849,N,00959.1400603,E,2,8,0.9,10.689,M,40.582,M,2.2,0136*41\r\n
$GPGGA,095210.20,5700.9091850,N,00959.1400598,E,2,8,0.9,10.689,M,40.582,M,2.2,0136*4E\r\n
$GPGGA,095210.25,5700.9091856,N,00959.1400599,E,2,8,0.9,10.692,M,40.582,M,2.5,0136*41\r\n
$GPGGA,095210.30,5700.9091855,N,00959.1400601,E,2,8,0.9,10.692,M,40.582,M,2.5,0136*44\r\n
$GPGGA,095210.35,5700.9091856,N,00959.1400602,E,2,8,0.9,10.692,M,40.582,M,2.5,0136*41\r\n
$GPGGA,095210.40,5700.9091857,N,00959.1400602,E,2,8,0.9,10.691,M,40.582,M,2.5,0136*41\r\n
$GPGGA,095210.45,5700.9091865,N,00959.1400630,E,2,8,0.9,10.698,M,40.582,M,2.7,0136*4F\r\n
$GPGGA,095210.50,5700.9091864,N,00959.1400630,E,2,8,0.9,10.698,M,40.582,M,2.7,0136*4A\r\n
$GPGGA,095210.55,5700.9091866,N,00959.1400628,E,2,8,0.9,10.698,M,40.582,M,2.7,0136*44\r\n
$GPGGA,095210.60,5700.9091868,N,00959.1400627,E,2,8,0.9,10.698,M,40.582,M,2.7,0136*43\r\n
$GPGGA,095210.65,5700.9091864,N,00959.1400622,E,2,8,0.9,10.688,M,40.582,M,3.0,0136*48\r\n
$GPGGA,095210.70,5700.9091863,N,00959.1400627,E,2,8,0.9,10.688,M,40.582,M,3.0,0136*4E\r\n
$GPGGA,095210.75,5700.9091864,N,00959.1400623,E,2,8,0.9,10.687,M,40.582,M,3.0,0136*47\r\n
$GPGGA,095210.80,5700.9091865,N,00959.1400618,E,2,8,0.9,10.687,M,40.582,M,3.0,0136*44\r\n
$GPGGA,095210.85,5700.9091857,N,00959.1400598,E,2,8,0.9,10.690,M,40.582,M,3.2,0136*4F\r\n
$GPGGA,095210.90,5700.9091858,N,00959.1400594,E,2,8,0.9,10.690,M,40.582,M,3.2,0136*48\r\n
$GPGGA,095210.95,5700.9091857,N,00959.1400604,E,2,8,0.9,10.690,M,40.582,M,3.2,0136*48\r\n
$GPGGA,095211.00,5700.9091857,N,00959.1400608,E,2,8,0.9,10.690,M,40.582,M,3.2,0136*49\r\n
$GPGGA,095211.05,5700.9091877,N,00959.1400632,E,2,8,0.9,10.703,M,40.582,M,1.5,0136*49\r\n
$GPGGA,095211.10,5700.9091876,N,00959.1400628,E,2,8,0.9,10.703,M,40.582,M,1.5,0136*47\r\n
$GPGGA,095211.15,5700.9091873,N,00959.1400630,E,2,8,0.9,10.703,M,40.582,M,1.5,0136*4E\r\n
$GPGGA,095211.20,5700.9091873,N,00959.1400635,E,2,8,0.9,10.703,M,40.582,M,1.5,0136*4D\r\n
$GPGGA,095211.25,5700.9091866,N,00959.1400626,E,2,8,0.9,10.705,M,40.582,M,1.7,0136*4A\r\n
$GPGGA,095211.30,5700.9091864,N,00959.1400627,E,2,8,0.9,10.706,M,40.582,M,1.7,0136*4E\r\n
$GPGGA,095211.35,5700.9091866,N,00959.1400625,E,2,8,0.9,10.706,M,40.582,M,1.7,0136*4B\r\n
$GPGGA,095211.40,5700.9091869,N,00959.1400626,E,2,8,0.9,10.706,M,40.582,M,1.7,0136*45\r\n
$GPGGA,095211.45,5700.9091891,N,00959.1400608,E,2,8,0.9,10.703,M,40.582,M,1.9,0136*40\r\n
$GPGGA,095211.50,5700.9091890,N,00959.1400608,E,2,8,0.9,10.703,M,40.582,M,1.9,0136*45\r\n
$GPGGA,095211.55,5700.9091891,N,00959.1400608,E,2,8,0.9,10.703,M,40.582,M,1.9,0136*41\r\n
$GPGGA,095211.60,5700.9091894,N,00959.1400609,E,2,7,0.9,10.703,M,40.582,M,1.9,0136*4C\r\n
$GPGGA,095211.65,5700.9091890,N,00959.1400615,E,2,7,0.9,10.701,M,40.582,M,2.2,0136*4A\r\n
$GPGGA,095211.70,5700.9091889,N,00959.1400617,E,2,7,0.9,10.701,M,40.582,M,2.2,0136*44\r\n
$GPGGA,095211.75,5700.9091890,N,00959.1400617,E,2,7,0.9,10.701,M,40.582,M,2.2,0136*49\r\n
$GPGGA,095211.80,5700.9091893,N,00959.1400612,E,2,7,0.9,10.701,M,40.582,M,2.2,0136*45\r\n
$GPGGA,095211.85,5700.9091886,N,00959.1400607,E,2,7,0.9,10.701,M,40.582,M,2.4,0136*46\r\n
$GPGGA,095211.90,5700.9091885,N,00959.1400603,E,2,7,0.9,10.701,M,40.582,M,2.4,0136*45\r\n
$GPGGA,095211.95,5700.9091881,N,00959.1400606,E,2,7,0.9,10.701,M,40.582,M,2.4,0136*41\r\n
$GPGGA,095212.00,5700.9091879,N,00959.1400616,E,2,7,0.9,10.701,M,40.582,M,2.4,0136*48\r\n
$GPGGA,095212.05,5700.9091847,N,00959.1400605,E,2,8,0.9,10.698,M,40.582,M,1.7,0136*4C\r\n
$GPGGA,095212.10,5700.9091847,N,00959.1400602,E,2,8,0.9,10.698,M,40.582,M,1.7,0136*4F\r\n
$GPGGA,095212.15,5700.9091846,N,00959.1400605,E,2,8,0.9,10.697,M,40.582,M,1.7,0136*43\r\n
$GPGGA,095212.20,5700.9091845,N,00959.1400607,E,2,8,0.9,10.697,M,40.582,M,1.7,0136*44\r\n
$GPGGA,095212.25,5700.9091875,N,00959.1400604,E,2,8,0.9,10.701,M,40.582,M,1.9,0136*41\r\n
$GPGGA,095212.30,5700.9091876,N,00959.1400601,E,2,8,0.9,10.700,M,40.582,M,1.9,0136*42\r\n
$GPGGA,095212.35,5700.9091879,N,00959.1400605,E,2,8,0.9,10.700,M,40.582,M,1.9,0136*4C\r\n
$GPGGA,095212.40,5700.9091881,N,00959.1400603,E,2,8,0.9,10.699,M,40.582,M,1.9,0136*4E\r\n
$GPGGA,095212.45,5700.9091908,N,00959.1400594,E,2,8,0.9,10.697,M,40.582,M,2.2,0136*40\r\n
$GPGGA,095212.50,5700.9091907,N,00959.1400594,E,2,8,0.9,10.696,M,40.582,M,2.2,0136*4A\r\n
$GPGGA,095212.55,5700.9091906,N,00959.1400594,E,2,8,0.9,10.696,M,40.582,M,2.2,0136*4E\r\n
$GPGGA,095212.60,5700.9091906,N,00959.1400590,E,2,8,0.9,10.695,M,40.582,M,2.2,0136*4F\r\n
$GPGGA,095212.65,5700.9091883,N,00959.1400569,E,2,8,0.9,10.706,M,40.582,M,2.4,0136*4D\r\n
$GPGGA,095212.70,5700.9091884,N,00959.1400571,E,2,8,0.9,10.706,M,40.582,M,2.4,0136*47\r\n
$GPGGA,095212.75,5700.9091885,N,00959.1400573,E,2,8,0.9,10.706,M,40.582,M,2.4,0136*41\r\n
$GPGGA,095212.80,5700.9091888,N,00959.1400574,E,2,8,0.9,10.706,M,40.582,M,2.4,0136*41\r\n
$GPGGA,095212.85,5700.9091899,N,00959.1400601,E,2,8,0.9,10.699,M,40.582,M,2.6,0136*40\r\n
$GPGGA,095212.90,5700.9091900,N,00959.1400601,E,2,8,0.9,10.699,M,40.582,M,2.6,0136*45\r\n
$GPGGA,095212.95,5700.9091901,N,00959.1400599,E,2,8,0.9,10.699,M,40.582,M,2.6,0136*43\r\n
$GPGGA,095213.00,5700.9091907,N,00959.1400603,E,2,8,0.9,10.699,M,40.582,M,2.6,0136*48\r\n
