$GPGGA,085812.20,5703.2930187,N,00952.3708384,E,2,10,1.0,-1.305,M,40.592,M,2.6,0123*6B\r\n
$GPGGA,085812.25,5703.2930361,N,00952.3708202,E,2,10,1.0,-1.315,M,40.592,M,2.9,0123*65\r\n
$GPGGA,085812.30,5703.2930528,N,00952.3707999,E,2,10,1.0,-1.317,M,40.592,M,2.9,0123*6E\r\n
$GPGGA,085812.35,5703.2930698,N,00952.3707790,E,2,10,1.0,-1.316,M,40.592,M,2.9,0123*65\r\n
$GPGGA,085812.40,5703.2930881,N,00952.3707596,E,2,10,1.0,-1.318,M,40.592,M,2.9,0123*6B\r\n
$GPGGA,085812.45,5703.2931097,N,00952.3707413,E,2,10,1.0,-1.314,M,40.592,M,3.1,0123*69\r\n
$GPGGA,085812.50,5703.2931312,N,00952.3707222,E,2,10,1.0,-1.310,M,40.592,M,3.1,0123*63\r\n
$GPGGA,085812.55,5703.2931498,N,00952.3707023,E,2,10,1.0,-1.313,M,40.592,M,3.1,0123*63\r\n
$GPGGA,085812.60,5703.2931674,N,00952.3706804,E,2,10,1.0,-1.317,M,40.592,M,3.1,0123*6D\r\n
$GPGGA,085812.65,5703.2931866,N,00952.3706582,E,2,10,1.0,-1.316,M,40.592,M,1.2,0123*66\r\n
$GPGGA,085812.70,5703.2932051,N,00952.3706398,E,2,10,1.0,-1.315,M,40.592,M,1.2,0123*63\r\n
$GPGGA,085812.75,5703.2932240,N,00952.3706220,E,2,10,1.0,-1.315,M,40.592,M,1.2,0123*66\r\n
$GPGGA,085812.80,5703.2932448,N,00952.3705991,E,2,10,1.0,-1.310,M,40.592,M,1.2,0123*65\r\n
$GPGGA,085812.85,5703.2932666,N,00952.3705777,E,2,10,1.0,-1.301,M,40.592,M,1.5,0123*6F\r\n
$GPGGA,085812.90,5703.2932863,N,00952.3705579,E,2,10,1.0,-1.305,M,40.592,M,1.5,0123*68\r\n
$GPGGA,085812.95,5703.2933078,N,00952.3705371,E,2,10,1.0,-1.305,M,40.592,M,1.5,0123*60\r\n
$GPGGA,085813.00,5703.2933282,N,00952.3705170,E,2,10,1.0,-1.303,M,40.592,M,1.5,0123*6F\r\n
$GPGGA,085813.05,5703.2933433,N,00952.3704958,E,2,10,1.0,-1.307,M,40.592,M,1.8,0123*6C\r\n
$GPGGA,085813.10,5703.2933647,N,00952.3704734,E,2,10,1.0,-1.307,M,40.592,M,1.8,0123*6D\r\n
$GPGGA,085813.15,5703.2933848,N,00952.3704531,E,2,10,1.0,-1.307,M,40.592,M,1.8,0123*6E\r\n
$GPGGA,085813.20,5703.2934035,N,00952.3704340,E,2,10,1.0,-1.307,M,40.592,M,1.8,0123*6D\r\n
$GPGGA,085813.25,5703.2934246,N,00952.3704129,E,2,10,1.0,-1.303,M,40.592,M,2.0,0123*6C\r\n
$GPGGA,085813.30,5703.2934437,N,00952.3703912,E,2,10,1.0,-1.303,M,40.592,M,2.0,0123*6F\r\n
$GPGGA,085813.35,5703.2934646,N,00952.3703712,E,2,10,1.0,-1.305,M,40.592,M,2.0,0123*66\r\n
$GPGGA,085813.40,5703.2934860,N,00952.3703510,E,2,10,1.0,-1.307,M,40.592,M,2.0,0123*6C\r\n
$GPGGA,085813.45,5703.2935048,N,00952.3703308,E,2,10,1.0,-1.312,M,40.592,M,2.3,0123*62\r\n
$GPGGA,085813.50,5703.2935247,N,00952.3703077,E,2,10,1.0,-1.312,M,40.592,M,2.3,0123*60\r\n
$GPGGA,085813.55,5703.2935454,N,00952.3702859,E,2,10,1.0,-1.310,M,40.592,M,2.3,0123*66\r\n
$GPGGA,085813.60,5703.2935659,N,00952.3702651,E,2,10,1.0,-1.308,M,40.592,M,2.3,0123*60\r\n
$GPGGA,085813.65,5703.2935884,N,00952.3702407,E,2,10,1.0,-1.300,M,40.592,M,1.5,0123*67\r\n
$GPGGA,085813.70,5703.2936089,N,00952.3702191,E,2,10,1.0,-1.303,M,40.592,M,1.5,0123*6C\r\n
$GPGGA,085813.75,5703.2936275,N,00952.3701985,E,2,10,1.0,-1.306,M,40.592,M,1.5,0123*63\r\n
$GPGGA,085813.80,5703.2936484,N,00952.3701780,E,2,10,1.0,-1.305,M,40.592,M,1.5,0123*69\r\n
$GPGGA,085813.85,5703.2936693,N,00952.3701548,E,2,10,1.0,-1.307,M,40.592,M,1.8,0123*61\r\n
$GPGGA,085813.90,5703.2936897,N,00952.3701307,E,2,10,1.0,-1.309,M,40.592,M,1.8,0123*6C\r\n
$GPGGA,085813.95,5703.2937097,N,00952.3701094,E,2,10,1.0,-1.313,M,40.592,M,1.8,0123*62\r\n
$GPGGA,085814.00,5703.2937313,N,00952.3700883,E,2,10,1.0,-1.316,M,40.592,M,1.8,0123*6C\r\n
$GPGGA,085814.05,5703.2937522,N,00952.3700667,E,2,10,1.0,-1.311,M,40.592,M,2.1,0123*64\r\n
$GPGGA,085814.10,5703.2937747,N,00952.3700454,E,2,10,1.0,-1.310,M,40.592,M,2.1,0123*62\r\n
$GPGGA,085814.15,5703.2937961,N,00952.3700208,E,2,10,1.0,-1.311,M,40.592,M,2.1,0123*63\r\n
$GPGGA,085814.20,5703.2938155,N,00952.3699958,E,2,10,1.0,-1.313,M,40.592,M,2.1,0123*68\r\n
$GPGGA,085814.25,5703.2938372,N,00952.3699746,E,2,10,1.0,-1.310,M,40.592,M,2.4,0123*6D\r\n
$GPGGA,085814.30,5703.2938606,N,00952.3699536,E,2,10,1.0,-1.309,M,40.592,M,2.4,0123*62\r\n
$GPGGA,085814.35,5703.2938811,N,00952.3699326,E,2,10,1.0,-1.308,M,40.592,M,2.4,0123*69\r\n
$GPGGA,085814.40,5703.2939017,N,00952.3699090,E,2,10,1.0,-1.307,M,40.592,M,2.4,0123*65\r\n
$GPGGA,085814.45,5703.2939212,N,00952.3698846,E,2,10,1.0,-1.308,M,40.592,M,2.6,0123*68\r\n
$GPGGA,085814.50,5703.2939425,N,00952.3698624,E,2,10,1.0,-1.309,M,40.592,M,2.6,0123*65\r\n
$GPGGA,085814.55,5703.2939655,N,00952.3698402,E,2,10,1.0,-1.310,M,40.592,M,2.6,0123*6B\r\n
$GPGGA,085814.60,5703.2939869,N,00952.3698168,E,2,10,1.0,-1.309,M,40.592,M,2.6,0123*6D\r\n
$GPGGA,085814.65,5703.2940098,N,00952.3697928,E,2,10,1.0,-1.305,M,40.592,M,1.0,0123*6A\r\n
$GPGGA,085814.70,5703.2940330,N,00952.3697673,E,2,10,1.0,-1.305,M,40.592,M,1.0,0123*6E\r\n
$GPGGA,085814.75,5703.2940534,N,00952.3697431,E,2,10,1.0,-1.305,M,40.592,M,1.0,0123*6D\r\n
$GPGGA,085814.80,5703.2940732,N,00952.3697191,E,2,10,1.0,-1.307,M,40.592,M,1.0,0123*6E\r\n
$GPGGA,085814.85,5703.2940956,N,00952.3696952,E,2,10,1.0,-1.302,M,40.592,M,1.3,0123*67\r\n
$GPGGA,085814.90,5703.2941185,N,00952.3696721,E,2,10,1.0,-1.302,M,40.592,M,1.3,0123*6E\r\n
$GPGGA,085814.95,5703.2941404,N,00952.3696471,E,2,10,1.0,-1.303,M,40.592,M,1.3,0123*60\r\n
$GPGGA,085815.00,5703.2941616,N,00952.3696207,E,2,10,1.0,-1.301,M,40.592,M,1.3,0123*69\r\n
$GPGGA,085815.05,5703.2941808,N,00952.3695967,E,2,10,1.0,-1.303,M,40.592,M,1.5,0123*67\r\n
$GPGGA,085815.10,5703.2942048,N,00952.3695760,E,2,10,1.0,-1.302,M,40.592,M,1.5,0123*64\r\n
$GPGGA,085815.15,5703.2942280,N,00952.3695535,E,2,10,1.0,-1.300,M,40.592,M,1.5,0123*67\r\n
$GPGGA,085815.20,5703.2942498,N,00952.3695287,E,2,10,1.0,-1.300,M,40.592,M,1.5,0123*60\r\n
$GPGGA,085815.25,5703.2942690,N,00952.3695031,E,2,10,1.0,-1.306,M,40.592,M,1.7,0123*64\r\n
$GPGGA,085815.30,5703.2942914,N,00952.3694773,E,2,10,1.0,-1.305,M,40.592,M,1.7,0123*60\r\n
$GPGGA,085815.35,5703.2943149,N,00952.3694513,E,2,10,1.0,-1.305,M,40.592,M,1.7,0123*60\r\n
$GPGGA,085815.40,5703.2943352,N,00952.3694257,E,2,10,1.0,-1.308,M,40.592,M,1.7,0123*60\r\n
$GPGGA,085815.45,5703.2943565,N,00952.3694005,E,2,10,1.0,-1.306,M,40.592,M,2.0,0123*68\r\n
$GPGGA,085815.50,5703.2943780,N,00952.3693760,E,2,10,1.0,-1.307,M,40.592,M,2.0,0123*67\r\n
$GPGGA,085815.55,5703.2944000,N,00952.3693516,E,2,10,1.0,-1.307,M,40.592,M,2.0,0123*69\r\n
$GPGGA,085815.60,5703.2944240,N,00952.3693262,E,2,10,1.0,-1.306,M,40.592,M,2.0,0123*6C\r\n
$GPGGA,085815.65,5703.2944447,N,00952.3693038,E,2,10,1.0,-1.311,M,40.592,M,2.2,0123*61\r\n
$GPGGA,085815.70,5703.2944696,N,00952.3692776,E,2,10,1.0,-1.310,M,40.592,M,2.2,0123*66\r\n
$GPGGA,085815.75,5703.2944948,N,00952.3692516,E,2,10,1.0,-1.307,M,40.592,M,2.2,0123*6D\r\n
$GPGGA,085815.80,5703.2945180,N,00952.3692287,E,2,10,1.0,-1.308,M,40.592,M,2.2,0123*6A\r\n
$GPGGA,085815.85,5703.2945402,N,00952.3692045,E,2,10,1.0,-1.301,M,40.592,M,2.4,0123*63\r\n
$GPGGA,085815.90,5703.2945614,N,00952.3691802,E,2,10,1.0,-1.300,M,40.592,M,2.4,0123*6B\r\n
$GPGGA,085815.95,5703.2945852,N,00952.3691563,E,2,10,1.0,-1.303,M,40.592,M,2.4,0123*6B\r\n
$GPGGA,085816.00,5703.2946095,N,00952.3691332,E,2,10,1.0,-1.304,M,40.592,M,2.4,0123*61\r\n
$GPGGA,085816.05,5703.2946296,N,00952.3691087,E,2,10,1.0,-1.304,M,40.592,M,2.6,0123*6A\r\n
$GPGGA,085816.10,5703.2946514,N,00952.3690799,E,2,10,1.0,-1.301,M,40.592,M,2.6,0123*6F\r\n
$GPGGA,085816.15,5703.2946711,N,00952.3690559,E,2,10,1.0,-1.305,M,40.592,M,2.6,0123*67\r\n
$GPGGA,085816.20,5703.2946936,N,00952.3690315,E,2,10,1.0,-1.310,M,40.592,M,2.6,0123*60\r\n
$GPGGA,085816.25,5703.2947171,N,00952.3690090,E,2,10,1.0,-1.304,M,40.592,M,2.9,0123*6B\r\n
$GPGGA,085816.30,5703.2947412,N,00952.3689818,E,2,10,1.0,-1.300,M,40.592,M,2.9,0123*6B\r\n
$GPGGA,085816.35,5703.2947654,N,00952.3689550,E,2,10,1.0,-1.297,M,40.592,M,2.9,0123*60\r\n
$GPGGA,085816.40,5703.2947868,N,00952.3689292,E,2,10,1.0,-1.301,M,40.592,M,2.9,0123*64\r\n
$GPGGA,085816.45,5703.2948098,N,00952.3689045,E,2,10,1.0,-1.304,M,40.592,M,3.1,0123*6D\r\n
$GPGGA,085816.50,5703.2948330,N,00952.3688787,E,2,10,1.0,-1.307,M,40.592,M,3.1,0123*63\r\n
$GPGGA,085816.55,5703.2948576,N,00952.3688521,E,2,10,1.0,-1.304,M,40.592,M,3.1,0123*6F\r\n
$GPGGA,085816.60,5703.2948794,N,00952.3688293,E,2,10,1.0,-1.305,M,40.592,M,3.1,0123*68\r\n
$GPGGA,085816.65,5703.2949006,N,00952.3688024,E,2,10,1.0,-1.309,M,40.592,M,1.2,0123*63\r\n
$GPGGA,085816.70,5703.2949253,N,00952.3687744,E,2,10,1.0,-1.304,M,40.592,M,1.2,0123*66\r\n
$GPGGA,085816.75,5703.2949488,N,00952.3687474,E,2,10,1.0,-1.305,M,40.592,M,1.2,0123*62\r\n
$GPGGA,085816.80,5703.2949733,N,00952.3687219,E,2,10,1.0,-1.306,M,40.592,M,1.2,0123*65\r\n
$GPGGA,085816.85,5703.2949970,N,00952.3686979,E,2,10,1.0,-1.303,M,40.592,M,1.5,0123*67\r\n
$GPGGA,085816.90,5703.2950205,N,00952.3686713,E,2,10,1.0,-1.300,M,40.592,M,1.5,0123*63\r\n
$GPGGA,085816.95,5703.2950430,N,00952.3686452,E,2,10,1.0,-1.298,M,40.592,M,1.5,0123*60\r\n
$GPGGA,085817.00,5703.2950664,N,00952.3686187,E,2,10,1.0,-1.302,M,40.592,M,1.5,0123*61\r\n
$GPGGA,085817.05,5703.2950873,N,00952.3685949,E,2,10,1.0,-1.301,M,40.592,M,1.8,0123*6B\r\n
$GPGGA,085817.10,5703.2951115,N,00952.3685673,E,2,10,1.0,-1.298,M,40.592,M,1.8,0123*60\r\n
$GPGGA,085817.15,5703.2951350,N,00952.3685408,E,2,10,1.0,-1.299,M,40.592,M,1.8,0123*69\r\n
$GPGGA,085817.20,5703.2951583,N,00952.3685147,E,2,10,1.0,-1.302,M,40.592,M,1.8,0123*6A\r\n
$GPGGA,085817.25,5703.2951839,N,00952.3684872,E,2,10,1.0,-1.303,M,40.592,M,2.0,0123*67\r\n
$GPGGA,085817.30,5703.2952060,N,00952.3684625,E,2,10,1.0,-1.305,M,40.592,M,2.0,0123*6E\r\n
$GPGGA,085817.35,5703.2952294,N,00952.3684375,E,2,10,1.0,-1.305,M,40.592,M,2.0,0123*62\r\n
$GPGGA,085817.40,5703.2952533,N,00952.3684120,E,2,10,1.0,-1.304,M,40.592,M,2.0,0123*69\r\n
$GPGGA,085817.45,5703.2952788,N,00952.3683866,E,2,10,1.0,-1.297,M,40.592,M,2.3,0123*6A\r\n
$GPGGA,085817.50,5703.2953026,N,00952.3683572,E,2,10,1.0,-1.295,M,40.592,M,2.3,0123*66\r\n
$GPGGA,085817.55,5703.2953260,N,00952.3683313,E,2,10,1.0,-1.294,M,40.592,M,2.3,0123*63\r\n
$GPGGA,085817.60,5703.2953515,N,00952.3683066,E,2,10,1.0,-1.292,M,40.592,M,2.3,0123*67\r\n
$GPGGA,085817.65,5703.2953741,N,00952.3682800,E,2,10,1.0,-1.295,M,40.592,M,1.5,0123*6A\r\n
$GPGGA,085817.70,5703.2953984,N,00952.3682533,E,2,10,1.0,-1.296,M,40.592,M,1.5,0123*67\r\n
$GPGGA,085817.75,5703.2954229,N,00952.3682280,E,2,10,1.0,-1.298,M,40.592,M,1.5,0123*68\r\n
$GPGGA,085817.80,5703.2954472,N,00952.3682006,E,2,10,1.0,-1.300,M,40.592,M,1.5,0123*66\r\n
$GPGGA,085817.85,5703.2954695,N,00952.3681731,E,2,10,1.0,-1.302,M,40.592,M,1.8,0123*67\r\n
$GPGGA,085817.90,5703.2954920,N,00952.3681456,E,2,10,1.0,-1.303,M,40.592,M,1.8,0123*61\r\n
$GPGGA,085817.95,5703.2955158,N,00952.3681199,E,2,10,1.0,-1.303,M,40.592,M,1.8,0123*64\r\n
$GPGGA,085818.00,5703.2955422,N,00952.3680935,E,2,10,1.0,-1.304,M,40.592,M,1.8,0123*67\r\n
$GPGGA,085818.05,5703.2955664,N,00952.3680667,E,2,10,1.0,-1.302,M,40.592,M,2.1,0123*66\r\n
$GPGGA,085818.10,5703.2955895,N,00952.3680385,E,2,10,1.0,-1.301,M,40.592,M,2.1,0123*68\r\n
$GPGGA,085818.15,5703.2956139,N,00952.3680114,E,2,10,1.0,-1.302,M,40.592,M,2.1,0123*68\r\n
$GPGGA,085818.20,5703.2956373,N,00952.3679872,E,2,10,1.0,-1.305,M,40.592,M,2.1,0123*6A\r\n
$GPGGA,085818.25,5703.2956618,N,00952.3679615,E,2,10,1.0,-1.303,M,40.592,M,2.4,0123*6B\r\n
$GPGGA,085818.30,5703.2956887,N,00952.3679318,E,2,10,1.0,-1.300,M,40.592,M,2.4,0123*6C\r\n
$GPGGA,085818.35,5703.2957138,N,00952.3679039,E,2,10,1.0,-1.300,M,40.592,M,2.4,0123*65\r\n
$GPGGA,085818.40,5703.2957383,N,00952.3678768,E,2,10,1.0,-1.301,M,40.592,M,2.4,0123*66\r\n
$GPGGA,085818.45,5703.2957633,N,00952.3678512,E,2,10,1.0,-1.296,M,40.592,M,2.6,0123*6F\r\n
$GPGGA,085818.50,5703.2957889,N,00952.3678230,E,2,10,1.0,-1.294,M,40.592,M,2.6,0123*61\r\n
$GPGGA,085818.55,5703.2958130,N,00952.3677958,E,2,10,1.0,-1.296,M,40.592,M,2.6,0123*68\r\n
$GPGGA,085818.60,5703.2958373,N,00952.3677676,E,2,10,1.0,-1.296,M,40.592,M,2.6,0123*68\r\n
$GPGGA,085818.65,5703.2958608,N,00952.3677389,E,2,10,1.0,-1.293,M,40.592,M,1.0,0123*61\r\n
$GPGGA,085818.70,5703.2958856,N,00952.3677114,E,2,10,1.0,-1.290,M,40.592,M,1.0,0123*65\r\n
$GPGGA,085818.75,5703.2959093,N,00952.3676837,E,2,10,1.0,-1.290,M,40.592,M,1.0,0123*69\r\n
$GPGGA,085818.80,5703.2959329,N,00952.3676572,E,2,10,1.0,-1.297,M,40.592,M,1.0,0123*6A\r\n
$GPGGA,085818.85,5703.2959559,N,00952.3676283,E,2,10,1.0,-1.299,M,40.592,M,1.3,0123*6A\r\n
$GPGGA,085818.90,5703.2959806,N,00952.3676002,E,2,10,1.0,-1.297,M,40.592,M,1.3,0123*6C\r\n
$GPGGA,085818.95,5703.2960063,N,00952.3675737,E,2,10,1.0,-1.293,M,40.592,M,1.3,0123*6E\r\n
$GPGGA,085819.00,5703.2960321,N,00952.3675474,E,2,10,1.0,-1.292,M,40.592,M,1.3,0123*63\r\n
$GPGGA,085819.05,5703.2960549,N,00952.3675224,E,2,10,1.0,-1.290,M,40.592,M,1.5,0123*69\r\n
$GPGGA,085819.10,5703.2960805,N,00952.3674946,E,2,10,1.0,-1.291,M,40.592,M,1.5,0123*67\r\n
$GPGGA,085819.15,5703.2961067,N,00952.3674652,E,2,10,1.0,-1.288,M,40.592,M,1.5,0123*6D\r\n
$GPGGA,085819.20,5703.2961320,N,00952.3674351,E,2,10,1.0,-1.286,M,40.592,M,1.5,0123*63\r\n
$GPGGA,085819.25,5703.2961561,N,00952.3674079,E,2,10,1.0,-1.284,M,40.592,M,1.7,0123*6C\r\n
$GPGGA,085819.30,5703.2961804,N,00952.3673855,E,2,10,1.0,-1.287,M,40.592,M,1.7,0123*64\r\n
$GPGGA,085819.35,5703.2962056,N,00952.3673610,E,2,10,1.0,-1.290,M,40.592,M,1.7,0123*64\r\n
$GPGGA,085819.40,5703.2962282,N,00952.3673340,E,2,10,1.0,-1.294,M,40.592,M,1.7,0123*69\r\n
$GPGGA,085819.45,5703.2962510,N,00952.3673046,E,2,10,1.0,-1.300,M,40.592,M,2.0,0123*6D\r\n
$GPGGA,085819.50,5703.2962771,N,00952.3672775,E,2,10,1.0,-1.298,M,40.592,M,2.0,0123*6A\r\n
$GPGGA,085819.55,5703.2963028,N,00952.3672500,E,2,10,1.0,-1.301,M,40.592,M,2.0,0123*64\r\n
$GPGGA,085819.60,5703.2963287,N,00952.3672229,E,2,10,1.0,-1.300,M,40.592,M,2.0,0123*68\r\n
$GPGGA,085819.65,5703.2963587,N,00952.3671924,E,2,10,1.0,-1.283,M,40.592,M,2.2,0123*67\r\n
$GPGGA,085819.70,5703.2963834,N,00952.3671679,E,2,10,1.0,-1.287,M,40.592,M,2.2,0123*65\r\n
$GPGGA,085819.75,5703.2964081,N,00952.3671427,E,2,10,1.0,-1.290,M,40.592,M,2.2,0123*6E\r\n
$GPGGA,085819.80,5703.2964339,N,00952.3671178,E,2,10,1.0,-1.291,M,40.592,M,2.2,0123*6A\r\n
$GPGGA,085819.85,5703.2964571,N,00952.3670939,E,2,10,1.0,-1.300,M,40.592,M,2.4,0123*66\r\n
$GPGGA,085819.90,5703.2964838,N,00952.3670671,E,2,10,1.0,-1.297,M,40.592,M,2.4,0123*6E\r\n
$GPGGA,085819.95,5703.2965093,N,00952.3670384,E,2,10,1.0,-1.298,M,40.592,M,2.4,0123*63\r\n
$GPGGA,085820.00,5703.2965339,N,00952.3670107,E,2,10,1.0,-1.298,M,40.592,M,2.4,0123*6F\r\n
$GPGGA,085820.05,5703.2965590,N,00952.3669862,E,2,10,1.0,-1.286,M,40.592,M,2.6,0123*60\r\n
$GPGGA,085820.10,5703.2965843,N,00952.3669624,E,2,10,1.0,-1.285,M,40.592,M,2.6,0123*68\r\n
$GPGGA,085820.15,5703.2966101,N,00952.3669385,E,2,10,1.0,-1.287,M,40.592,M,2.6,0123*6D\r\n
$GPGGA,085820.20,5703.2966370,N,00952.3669131,E,2,10,1.0,-1.289,M,40.592,M,2.6,0123*6C\r\n
$GPGGA,085820.25,5703.2966633,N,00952.3668879,E,2,10,1.0,-1.292,M,40.592,M,2.9,0123*6A\r\n
$GPGGA,085820.30,5703.2966899,N,00952.3668618,E,2,10,1.0,-1.293,M,40.592,M,2.9,0123*68\r\n
$GPGGA,085820.35,5703.2967137,N,00952.3668379,E,2,10,1.0,-1.295,M,40.592,M,2.9,0123*65\r\n
$GPGGA,085820.40,5703.2967382,N,00952.3668099,E,2,10,1.0,-1.296,M,40.592,M,2.9,0123*65\r\n
$GPGGA,085820.45,5703.2967643,N,00952.3667842,E,2,10,1.0,-1.295,M,40.592,M,3.1,0123*63\r\n
$GPGGA,085820.50,5703.2967923,N,00952.3667594,E,2,10,1.0,-1.293,M,40.592,M,3.1,0123*6E\r\n
$GPGGA,085820.55,5703.2968193,N,00952.3667360,E,2,10,1.0,-1.291,M,40.592,M,3.1,0123*68\r\n
$GPGGA,085820.60,5703.2968440,N,00952.3667128,E,2,10,1.0,-1.293,M,40.592,M,3.1,0123*69\r\n
$GPGGA,085820.65,5703.2968725,N,00952.3666871,E,2,10,1.0,-1.291,M,40.592,M,1.2,0123*6B\r\n
$GPGGA,085820.70,5703.2968997,N,00952.3666594,E,2,10,1.0,-1.291,M,40.592,M,1.2,0123*6E\r\n
$GPGGA,085820.75,5703.2969276,N,00952.3666337,E,2,10,1.0,-1.287,M,40.592,M,1.2,0123*66\r\n
$GPGGA,085820.80,5703.2969524,N,00952.3666114,E,2,10,1.0,-1.284,M,40.592,M,1.2,0123*6C\r\n
$GPGGA,085820.85,5703.2969782,N,00952.3665886,E,2,10,1.0,-1.288,M,40.592,M,1.5,0123*6D\r\n
$GPGGA,085820.90,5703.2970058,N,00952.3665629,E,2,10,1.0,-1.288,M,40.592,M,1.5,0123*6A\r\n
$GPGGA,085820.95,5703.2970347,N,00952.3665334,E,2,10,1.0,-1.285,M,40.592,M,1.5,0123*66\r\n
$GPGGA,085821.00,5703.2970626,N,00952.3665078,E,2,10,1.0,-1.287,M,40.592,M,1.5,0123*60\r\n
$GPGGA,085821.05,5703.2970905,N,00952.3664836,E,2,10,1.0,-1.279,M,40.592,M,1.8,0123*64\r\n
$GPGGA,085821.10,5703.2971189,N,00952.3664619,E,2,10,1.0,-1.278,M,40.592,M,1.8,0123*6F\r\n
$GPGGA,085821.15,5703.2971460,N,00952.3664388,E,2,10,1.0,-1.275,M,40.592,M,1.8,0123*68\r\n
$GPGGA,085821.20,5703.2971721,N,00952.3664152,E,2,10,1.0,-1.276,M,40.592,M,1.8,0123*6E\r\n
$GPGGA,085821.25,5703.2972008,N,00952.3663947,E,2,10,1.0,-1.276,M,40.592,M,2.0,0123*64\r\n
$GPGGA,085821.30,5703.2972294,N,00952.3663723,E,2,10,1.0,-1.277,M,40.592,M,2.0,0123*6A\r\n
$GPGGA,085821.35,5703.2972599,N,00952.3663469,E,2,10,1.0,-1.272,M,40.592,M,2.0,0123*6D\r\n
$GPGGA,085821.40,5703.2972899,N,00952.3663238,E,2,10,1.0,-1.270,M,40.592,M,2.0,0123*62\r\n
$GPGGA,085821.45,5703.2973174,N,00952.3663022,E,2,10,1.0,-1.278,M,40.592,M,2.3,0123*6E\r\n
$GPGGA,085821.50,5703.2973469,N,00952.3662790,E,2,10,1.0,-1.276,M,40.592,M,2.3,0123*62\r\n
$GPGGA,085821.55,5703.2973750,N,00952.3662560,E,2,10,1.0,-1.277,M,40.592,M,2.3,0123*62\r\n
$GPGGA,085821.60,5703.2974023,N,00952.3662345,E,2,10,1.0,-1.283,M,40.592,M,2.3,0123*6A\r\n
$GPGGA,085821.65,5703.2974312,N,00952.3662119,E,2,10,1.0,-1.287,M,40.592,M,1.5,0123*64\r\n
$GPGGA,085821.70,5703.2974606,N,00952.3661877,E,2,10,1.0,-1.289,M,40.592,M,1.5,0123*6C\r\n
$GPGGA,085821.75,5703.2974894,N,00952.3661645,E,2,10,1.0,-1.288,M,40.592,M,1.5,0123*62\r\n
$GPGGA,085821.80,5703.2975219,N,00952.3661464,E,2,10,1.0,-1.286,M,40.592,M,1.5,0123*69\r\n
$GPGGA,085821.85,5703.2975537,N,00952.3661273,E,2,10,1.0,-1.282,M,40.592,M,1.8,0123*6E\r\n
$GPGGA,085821.90,5703.2975823,N,00952.3661052,E,2,10,1.0,-1.283,M,40.592,M,1.8,0123*62\r\n
$GPGGA,085821.95,5703.2976107,N,00952.3660807,E,2,10,1.0,-1.286,M,40.592,M,1.8,0123*67\r\n
$GPGGA,085822.00,5703.2976424,N,00952.3660602,E,2,10,1.0,-1.283,M,40.592,M,1.8,0123*62\r\n
$GPGGA,085822.05,5703.2976718,N,00952.3660389,E,2,10,1.0,-1.282,M,40.592,M,2.1,0123*66\r\n
$GPGGA,085822.10,5703.2977007,N,00952.3660201,E,2,10,1.0,-1.284,M,40.592,M,2.1,0123*6D\r\n
$GPGGA,085822.15,5703.2977315,N,00952.3660021,E,2,10,1.0,-1.286,M,40.592,M,2.1,0123*6A\r\n
$GPGGA,085822.20,5703.2977649,N,00952.3659828,E,2,10,1.0,-1.285,M,40.592,M,2.1,0123*68\r\n
$GPGGA,085822.25,5703.2977970,N,00952.3659626,E,2,10,1.0,-1.281,M,40.592,M,2.4,0123*69\r\n
$GPGGA,085822.30,5703.2978271,N,00952.3659442,E,2,10,1.0,-1.285,M,40.592,M,2.4,0123*6C\r\n
$GPGGA,085822.35,5703.2978604,N,00952.3659262,E,2,10,1.0,-1.284,M,40.592,M,2.4,0123*6A\r\n
$GPGGA,085822.40,5703.2978955,N,00952.3659114,E,2,10,1.0,-1.283,M,40.592,M,2.4,0123*66\r\n
$GPGGA,085822.45,5703.2979284,N,00952.3658939,E,2,10,1.0,-1.283,M,40.592,M,2.6,0123*61\r\n
$GPGGA,085822.50,5703.2979599,N,00952.3658765,E,2,10,1.0,-1.283,M,40.592,M,2.6,0123*69\r\n
$GPGGA,085822.55,5703.2979911,N,00952.3658579,E,2,10,1.0,-1.285,M,40.592,M,2.6,0123*69\r\n
$GPGGA,085822.60,5703.2980244,N,00952.3658415,E,2,10,1.0,-1.283,M,40.592,M,2.6,0123*6F\r\n
$GPGGA,085822.65,5703.2980611,N,00952.3658263,E,2,10,1.0,-1.271,M,40.592,M,1.0,0123*61\r\n
$GPGGA,085822.70,5703.2980931,N,00952.3658116,E,2,10,1.0,-1.276,M,40.592,M,1.0,0123*6E\r\n
$GPGGA,085822.75,5703.2981271,N,00952.3657982,E,2,10,1.0,-1.275,M,40.592,M,1.0,0123*6C\r\n
$GPGGA,085822.80,5703.2981622,N,00952.3657840,E,2,10,1.0,-1.271,M,40.592,M,1.0,0123*6F\r\n
$GPGGA,085822.85,5703.2981954,N,00952.3657659,E,2,10,1.0,-1.281,M,40.592,M,1.3,0123*6E\r\n
$GPGGA,085822.90,5703.2982305,N,00952.3657482,E,2,10,1.0,-1.281,M,40.592,M,1.3,0123*63\r\n
$GPGGA,085822.95,5703.2982657,N,00952.3657305,E,2,10,1.0,-1.282,M,40.592,M,1.3,0123*6F\r\n
$GPGGA,085823.00,5703.2983025,N,00952.3657183,E,2,10,1.0,-1.278,M,40.592,M,1.3,0123*69\r\n
$GPGGA,085823.05,5703.2983395,N,00952.3657035,E,2,10,1.0,-1.267,M,40.592,M,1.5,0123*60\r\n
$GPGGA,085823.10,5703.2983740,N,00952.3656854,E,2,10,1.0,-1.273,M,40.592,M,1.5,0123*63\r\n
$GPGGA,085823.15,5703.2984104,N,00952.3656713,E,2,10,1.0,-1.274,M,40.592,M,1.5,0123*6C\r\n
$GPGGA,085823.20,5703.2984459,N,00952.3656543,E,2,10,1.0,-1.276,M,40.592,M,1.5,0123*62\r\n
$GPGGA,085823.25,5703.2984816,N,00952.3656381,E,2,10,1.0,-1.282,M,40.592,M,1.7,0123*61\r\n
$GPGGA,085823.30,5703.2985227,N,00952.3656208,E,2,10,1.0,-1.279,M,40.592,M,1.7,0123*68\r\n
$GPGGA,085823.35,5703.2985606,N,00952.3656043,E,2,10,1.0,-1.281,M,40.592,M,1.7,0123*60\r\n
$GPGGA,085823.40,5703.2985977,N,00952.3655891,E,2,10,1.0,-1.286,M,40.592,M,1.7,0123*68\r\n
$GPGGA,085823.45,5703.2986391,N,00952.3655720,E,2,10,1.0,-1.277,M,40.592,M,2.0,0123*63\r\n
$GPGGA,085823.50,5703.2986817,N,00952.3655576,E,2,10,1.0,-1.271,M,40.592,M,2.0,0123*65\r\n
$GPGGA,085823.55,5703.2987216,N,00952.3655416,E,2,10,1.0,-1.269,M,40.592,M,2.0,0123*64\r\n
$GPGGA,085823.60,5703.2987601,N,00952.3655214,E,2,10,1.0,-1.271,M,40.592,M,2.0,0123*6D\r\n
$GPGGA,085823.65,5703.2987975,N,00952.3655014,E,2,10,1.0,-1.277,M,40.592,M,2.2,0123*62\r\n
$GPGGA,085823.70,5703.2988363,N,00952.3654826,E,2,10,1.0,-1.279,M,40.592,M,2.2,0123*62\r\n
$GPGGA,085823.75,5703.2988741,N,00952.3654669,E,2,10,1.0,-1.280,M,40.592,M,2.2,0123*60\r\n
$GPGGA,085823.80,5703.2989141,N,00952.3654479,E,2,10,1.0,-1.280,M,40.592,M,2.2,0123*6E\r\n
$GPGGA,085823.85,5703.2989533,N,00952.3654267,E,2,10,1.0,-1.286,M,40.592,M,2.4,0123*63\r\n
$GPGGA,085823.90,5703.2989967,N,00952.3654021,E,2,10,1.0,-1.284,M,40.592,M,2.4,0123*68\r\n
$GPGGA,085823.95,5703.2990399,N,00952.3653780,E,2,10,1.0,-1.280,M,40.592,M,2.4,0123*61\r\n
$GPGGA,085824.00,5703.2990799,N,00952.3653552,E,2,10,1.0,-1.282,M,40.592,M,2.4,0123*61\r\n
$GPGGA,085824.05,5703.2991193,N,00952.3653305,E,2,10,1.0,-1.276,M,40.592,M,2.6,0123*64\r\n
$GPGGA,085824.10,5703.2991594,N,00952.3653039,E,2,10,1.0,-1.273,M,40.592,M,2.6,0123*6A\r\n
$GPGGA,085824.15,5703.2992003,N,00952.3652775,E,2,10,1.0,-1.273,M,40.592,M,2.6,0123*69\r\n
$GPGGA,085824.20,5703.2992400,N,00952.3652484,E,2,10,1.0,-1.278,M,40.592,M,2.6,0123*6E\r\n
$GPGGA,085824.25,5703.2992793,N,00952.3652191,E,2,10,1.0,-1.287,M,40.592,M,2.9,0123*6C\r\n
$GPGGA,085824.30,5703.2993207,N,00952.3651922,E,2,10,1.0,-1.284,M,40.592,M,2.9,0123*61\r\n
$GPGGA,085824.35,5703.2993591,N,00952.3651629,E,2,10,1.0,-1.288,M,40.592,M,2.9,0123*64\r\n
$GPGGA,085824.40,5703.2993991,N,00952.3651268,E,2,10,1.0,-1.286,M,40.592,M,2.9,0123*65\r\n
$GPGGA,085824.45,5703.2994375,N,00952.3650939,E,2,10,1.0,-1.284,M,40.592,M,3.1,0123*62\r\n
$GPGGA,085824.50,5703.2994747,N,00952.3650643,E,2,10,1.0,-1.281,M,40.592,M,3.1,0123*64\r\n
$GPGGA,085824.55,5703.2995149,N,00952.3650349,E,2,10,1.0,-1.277,M,40.592,M,3.1,0123*6E\r\n
$GPGGA,085824.60,5703.2995545,N,00952.3650007,E,2,10,1.0,-1.277,M,40.592,M,3.1,0123*69\r\n
$GPGGA,085824.65,5703.2995924,N,00952.3649664,E,2,10,1.0,-1.278,M,40.592,M,1.2,0123*62\r\n
$GPGGA,085824.70,5703.2996302,N,00952.3649295,E,2,10,1.0,-1.283,M,40.592,M,1.2,0123*65\r\n
$GPGGA,085824.75,5703.2996690,N,00952.3648906,E,2,10,1.0,-1.280,M,40.592,M,1.2,0123*6D\r\n
$GPGGA,085824.80,5703.2997082,N,00952.3648532,E,2,10,1.0,-1.279,M,40.592,M,1.2,0123*6E\r\n
$GPGGA,085824.85,5703.2997456,N,00952.3648158,E,2,10,1.0,-1.288,M,40.592,M,1.5,0123*67\r\n
$GPGGA,085824.90,5703.2997864,N,00952.3647779,E,2,10,1.0,-1.281,M,40.592,M,1.5,0123*6D\r\n
$GPGGA,085824.95,5703.2998252,N,00952.3647380,E,2,10,1.0,-1.280,M,40.592,M,1.5,0123*6B\r\n
$GPGGA,085825.00,5703.2998568,N,00952.3647028,E,2,10,1.0,-1.289,M,40.592,M,1.5,0123*60\r\n
$GPGGA,085825.05,5703.2998906,N,00952.3646650,E,2,10,1.0,-1.281,M,40.592,M,1.8,0123*6C\r\n
$GPGGA,085825.10,5703.2999255,N,00952.3646283,E,2,10,1.0,-1.279,M,40.592,M,1.8,0123*69\r\n
$GPGGA,085825.15,5703.2999606,N,00952.3645933,E,2,10,1.0,-1.278,M,40.592,M,1.8,0123*6C\r\n
$GPGGA,085825.20,5703.2999964,N,00952.3645600,E,2,10,1.0,-1.280,M,40.592,M,1.8,0123*69\r\n
$GPGGA,085825.25,5703.3000289,N,00952.3645216,E,2,11,1.0,-1.283,M,40.592,M,2.0,0123*66\r\n
$GPGGA,085825.30,5703.3000604,N,00952.3644804,E,2,11,1.0,-1.284,M,40.592,M,2.0,0123*6C\r\n
$GPGGA,085825.35,5703.3000942,N,00952.3644363,E,2,11,1.0,-1.283,M,40.592,M,2.0,0123*69\r\n
$GPGGA,085825.40,5703.3001260,N,00952.3643971,E,2,11,1.0,-1.285,M,40.592,M,2.0,0123*69\r\n
$GPGGA,085825.45,5703.3001548,N,00952.3643563,E,2,11,0.7,-1.294,M,40.592,M,2.3,0123*6B\r\n
$GPGGA,085825.50,5703.3001845,N,00952.3643182,E,2,11,0.7,-1.298,M,40.592,M,2.3,0123*68\r\n
$GPGGA,085825.55,5703.3002168,N,00952.3642801,E,2,11,0.7,-1.300,M,40.592,M,2.3,0123*6B\r\n
$GPGGA,085825.60,5703.3002459,N,00952.3642391,E,2,11,0.7,-1.298,M,40.592,M,2.3,0123*68\r\n
$GPGGA,085825.65,5703.3002724,N,00952.3641977,E,2,11,0.7,-1.302,M,40.592,M,1.5,0123*62\r\n
$GPGGA,085825.70,5703.3002977,N,00952.3641557,E,2,11,0.7,-1.310,M,40.592,M,1.5,0123*63\r\n
$GPGGA,085825.75,5703.3003229,N,00952.3641150,E,2,11,0.7,-1.310,M,40.592,M,1.5,0123*64\r\n
$GPGGA,085825.80,5703.3003491,N,00952.3640757,E,2,11,0.7,-1.308,M,40.592,M,1.5,0123*62\r\n
$GPGGA,085825.85,5703.3003746,N,00952.3640339,E,2,11,0.7,-1.311,M,40.592,M,1.8,0123*67\r\n
$GPGGA,085825.90,5703.3003987,N,00952.3639953,E,2,11,0.7,-1.311,M,40.592,M,1.8,0123*68\r\n
$GPGGA,085825.95,5703.3004254,N,00952.3639557,E,2,11,0.7,-1.310,M,40.592,M,1.8,0123*66\r\n
$GPGGA,085826.00,5703.3004501,N,00952.3639172,E,2,11,0.7,-1.310,M,40.592,M,1.8,0123*6D\r\n
$GPGGA,085826.05,5703.3004719,N,00952.3638781,E,2,11,0.7,-1.305,M,40.592,M,2.1,0123*66\r\n
$GPGGA,085826.10,5703.3004973,N,00952.3638408,E,2,11,0.7,-1.306,M,40.592,M,2.1,0123*61\r\n
$GPGGA,085826.15,5703.3005219,N,00952.3638018,E,2,11,0.7,-1.305,M,40.592,M,2.1,0123*64\r\n
$GPGGA,085826.20,5703.3005463,N,00952.3637635,E,2,11,0.7,-1.301,M,40.592,M,2.1,0123*6B\r\n
$GPGGA,085826.25,5703.3005674,N,00952.3637241,E,2,11,0.7,-1.301,M,40.592,M,2.4,0123*68\r\n
$GPGGA,085826.30,5703.3005911,N,00952.3636866,E,2,11,0.7,-1.297,M,40.592,M,2.4,0123*60\r\n
$GPGGA,085826.35,5703.3006145,N,00952.3636509,E,2,11,0.7,-1.295,M,40.592,M,2.4,0123*69\r\n
$GPGGA,085826.40,5703.3006394,N,00952.3636131,E,2,11,0.7,-1.293,M,40.592,M,2.4,0123*6C\r\n
$GPGGA,085826.45,5703.3006619,N,00952.3635770,E,2,11,0.7,-1.291,M,40.592,M,2.6,0123*69\r\n
$GPGGA,085826.50,5703.3006831,N,00952.3635396,E,2,11,0.7,-1.289,M,40.592,M,2.6,0123*6C\r\n
$GPGGA,085826.55,5703.3007028,N,00952.3635043,E,2,11,0.7,-1.289,M,40.592,M,2.6,0123*63\r\n
$GPGGA,085826.60,5703.3007250,N,00952.3634668,E,2,11,0.7,-1.288,M,40.592,M,2.6,0123*67\r\n
$GPGGA,085826.65,5703.3007464,N,00952.3634299,E,2,11,0.7,-1.290,M,40.592,M,1.0,0123*65\r\n
$GPGGA,085826.70,5703.3007681,N,00952.3633943,E,2,11,0.7,-1.291,M,40.592,M,1.0,0123*62\r\n
$GPGGA,085826.75,5703.3007896,N,00952.3633564,E,2,11,0.7,-1.291,M,40.592,M,1.0,0123*66\r\n
$GPGGA,085826.80,5703.3008114,N,00952.3633197,E,2,11,0.7,-1.289,M,40.592,M,1.0,0123*61\r\n
$GPGGA,085826.85,5703.3008328,N,00952.3632859,E,2,11,0.7,-1.283,M,40.592,M,1.3,0123*6A\r\n
$GPGGA,085826.90,5703.3008534,N,00952.3632515,E,2,11,0.7,-1.283,M,40.592,M,1.3,0123*60\r\n
$GPGGA,085826.95,5703.3008741,N,00952.3632148,E,2,11,0.7,-1.283,M,40.592,M,1.3,0123*69\r\n
$GPGGA,085827.00,5703.3008939,N,00952.3631788,E,2,11,0.7,-1.286,M,40.592,M,1.3,0123*69\r\n
$GPGGA,085827.05,5703.3009134,N,00952.3631442,E,2,11,0.7,-1.283,M,40.592,M,1.5,0123*6E\r\n
$GPGGA,085827.10,5703.3009347,N,00952.3631091,E,2,11,0.7,-1.283,M,40.592,M,1.5,0123*66\r\n
$GPGGA,085827.15,5703.3009547,N,00952.3630772,E,2,11,0.7,-1.288,M,40.592,M,1.5,0123*65\r\n
$GPGGA,085827.20,5703.3009747,N,00952.3630431,E,2,11,0.7,-1.289,M,40.592,M,1.5,0123*64\r\n
$GPGGA,085827.25,5703.3009945,N,00952.3630048,E,2,11,0.7,-1.283,M,40.592,M,1.7,0123*6F\r\n
$GPGGA,085827.30,5703.3010123,N,00952.3629714,E,2,11,0.7,-1.285,M,40.592,M,1.7,0123*6B\r\n
$GPGGA,085827.35,5703.3010312,N,00952.3629380,E,2,11,0.7,-1.286,M,40.592,M,1.7,0123*64\r\n
$GPGGA,085827.40,5703.3010501,N,00952.3629033,E,2,11,0.7,-1.288,M,40.592,M,1.7,0123*67\r\n
$GPGGA,085827.45,5703.3010715,N,00952.3628684,E,2,11,0.7,-1.289,M,40.592,M,2.0,0123*6B\r\n
$GPGGA,085827.50,5703.3010921,N,00952.3628377,E,2,11,0.7,-1.287,M,40.592,M,2.0,0123*61\r\n
$GPGGA,085827.55,5703.3011118,N,00952.3628027,E,2,11,0.7,-1.286,M,40.592,M,2.0,0123*60\r\n
$GPGGA,085827.60,5703.3011278,N,00952.3627682,E,2,11,0.7,-1.290,M,40.592,M,2.0,0123*62\r\n
$GPGGA,085827.65,5703.3011445,N,00952.3627335,E,2,11,0.7,-1.291,M,40.592,M,2.2,0123*65\r\n
$GPGGA,085827.70,5703.3011637,N,00952.3626975,E,2,11,0.7,-1.293,M,40.592,M,2.2,0123*6B\r\n
$GPGGA,085827.75,5703.3011822,N,00952.3626653,E,2,11,0.7,-1.297,M,40.592,M,2.2,0123*6B\r\n
$GPGGA,085827.80,5703.3012017,N,00952.3626304,E,2,11,0.7,-1.294,M,40.592,M,2.2,0123*68\r\n
$GPGGA,085827.85,5703.3012188,N,00952.3625961,E,2,11,0.7,-1.297,M,40.592,M,2.4,0123*65\r\n
$GPGGA,085827.90,5703.3012359,N,00952.3625617,E,2,11,0.7,-1.301,M,40.592,M,2.4,0123*6F\r\n
$GPGGA,085827.95,5703.3012535,N,00952.3625284,E,2,11,0.7,-1.302,M,40.592,M,2.4,0123*6B\r\n
$GPGGA,085828.00,5703.3012705,N,00952.3624957,E,2,11,0.7,-1.305,M,40.592,M,2.4,0123*6A\r\n
$GPGGA,085828.05,5703.3012855,N,00952.3624643,E,2,11,0.7,-1.305,M,40.592,M,2.6,0123*6D\r\n
$GPGGA,085828.10,5703.3013012,N,00952.3624320,E,2,11,0.7,-1.302,M,40.592,M,2.6,0123*64\r\n
$GPGGA,085828.15,5703.3013167,N,00952.3623969,E,2,11,0.7,-1.301,M,40.592,M,2.6,0123*61\r\n
$GPGGA,085828.20,5703.3013349,N,00952.3623625,E,2,11,0.7,-1.302,M,40.592,M,2.6,0123*6D\r\n
$GPGGA,085828.25,5703.3013508,N,00952.3623287,E,2,11,0.7,-1.307,M,40.592,M,2.9,0123*6D\r\n
$GPGGA,085828.30,5703.3013668,N,00952.3622934,E,2,11,0.7,-1.303,M,40.592,M,2.9,0123*6A\r\n
$GPGGA,085828.35,5703.3013833,N,00952.3622597,E,2,11,0.7,-1.301,M,40.592,M,2.9,0123*68\r\n
$GPGGA,085828.40,5703.3013995,N,00952.3622249,E,2,11,0.7,-1.302,M,40.592,M,2.9,0123*60\r\n
$GPGGA,085828.45,5703.3014146,N,00952.3621932,E,2,11,0.7,-1.304,M,40.592,M,3.1,0123*6F\r\n
$GPGGA,085828.50,5703.3014294,N,00952.3621572,E,2,11,0.7,-1.302,M,40.592,M,3.1,0123*69\r\n
$GPGGA,085828.55,5703.3014423,N,00952.3621210,E,2,11,0.7,-1.304,M,40.592,M,3.1,0123*63\r\n
$GPGGA,085828.60,5703.3014569,N,00952.3620893,E,2,11,0.7,-1.301,M,40.592,M,3.1,0123*6F\r\n
$GPGGA,085828.65,5703.3014741,N,00952.3620585,E,2,11,0.7,-1.299,M,40.592,M,1.2,0123*69\r\n
$GPGGA,085828.70,5703.3014912,N,00952.3620249,E,2,11,0.7,-1.297,M,40.592,M,1.2,0123*6C\r\n
$GPGGA,085828.75,5703.3015044,N,00952.3619916,E,2,11,0.7,-1.300,M,40.592,M,1.2,0123*66\r\n
$GPGGA,085828.80,5703.3015167,N,00952.3619558,E,2,11,0.7,-1.301,M,40.592,M,1.2,0123*6B\r\n
$GPGGA,085828.85,5703.3015298,N,00952.3619178,E,2,11,0.7,-1.302,M,40.592,M,1.5,0123*6F\r\n
$GPGGA,085828.90,5703.3015449,N,00952.3618834,E,2,11,0.7,-1.304,M,40.592,M,1.5,0123*67\r\n
$GPGGA,085828.95,5703.3015599,N,00952.3618498,E,2,11,0.7,-1.303,M,40.592,M,1.5,0123*63\r\n
$GPGGA,085829.00,5703.3015730,N,00952.3618162,E,2,11,0.7,-1.301,M,40.592,M,1.5,0123*6D\r\n
$GPGGA,085829.05,5703.3015838,N,00952.3617828,E,2,11,0.7,-1.297,M,40.592,M,1.8,0123*64\r\n
$GPGGA,085829.10,5703.3015965,N,00952.3617466,E,2,11,0.7,-1.295,M,40.592,M,1.8,0123*6D\r\n
$GPGGA,085829.15,5703.3016086,N,00952.3617110,E,2,11,0.7,-1.295,M,40.592,M,1.8,0123*6B\r\n
$GPGGA,085829.20,5703.3016218,N,00952.3616760,E,2,11,0.7,-1.294,M,40.592,M,1.8,0123*69\r\n
$GPGGA,085829.25,5703.3016328,N,00952.3616414,E,2,11,0.7,-1.297,M,40.592,M,2.0,0123*66\r\n
$GPGGA,085829.30,5703.3016443,N,00952.3616059,E,2,11,0.7,-1.297,M,40.592,M,2.0,0123*65\r\n
$GPGGA,085829.35,5703.3016584,N,00952.3615707,E,2,11,0.7,-1.294,M,40.592,M,2.0,0123*66\r\n
$GPGGA,085829.40,5703.3016726,N,00952.3615380,E,2,11,0.7,-1.293,M,40.592,M,2.0,0123*62\r\n
$GPGGA,085829.45,5703.3016852,N,00952.3615045,E,2,11,0.7,-1.289,M,40.592,M,2.3,0123*69\r\n
$GPGGA,085829.50,5703.3017000,N,00952.3614687,E,2,11,0.7,-1.287,M,40.592,M,2.3,0123*64\r\n
$GPGGA,085829.55,5703.3017139,N,00952.3614360,E,2,11,0.7,-1.285,M,40.592,M,2.3,0123*64\r\n
$GPGGA,085829.60,5703.3017233,N,00952.3614029,E,2,11,0.7,-1.289,M,40.592,M,2.3,0123*69\r\n
$GPGGA,085829.65,5703.3017330,N,00952.3613678,E,2,11,0.7,-1.294,M,40.592,M,1.5,0123*62\r\n
$GPGGA,085829.70,5703.3017447,N,00952.3613322,E,2,11,0.7,-1.295,M,40.592,M,1.5,0123*6A\r\n
$GPGGA,085829.75,5703.3017574,N,00952.3612964,E,2,11,0.7,-1.295,M,40.592,M,1.5,0123*67\r\n
$GPGGA,085829.80,5703.3017685,N,00952.3612618,E,2,11,0.7,-1.295,M,40.592,M,1.5,0123*64\r\n
$GPGGA,085829.85,5703.3017800,N,00952.3612296,E,2,11,0.7,-1.289,M,40.592,M,1.8,0123*60\r\n
$GPGGA,085829.90,5703.3017920,N,00952.3611943,E,2,11,0.7,-1.289,M,40.592,M,1.8,0123*67\r\n
$GPGGA,085829.95,5703.3018047,N,00952.3611603,E,2,11,0.7,-1.287,M,40.592,M,1.8,0123*60\r\n
$GPGGA,085830.00,5703.3018154,N,00952.3611281,E,2,11,0.7,-1.285,M,40.592,M,1.8,0123*6B\r\n
$GPGGA,085830.05,5703.3018229,N,00952.3610964,E,2,11,0.7,-1.287,M,40.592,M,2.1,0123*6E\r\n
$GPGGA,085830.10,5703.3018300,N,00952.3610625,E,2,11,0.7,-1.290,M,40.592,M,2.1,0123*6C\r\n
$GPGGA,085830.15,5703.3018397,N,00952.3610258,E,2,11,0.7,-1.290,M,40.592,M,2.1,0123*69\r\n
