$GPGGA,113036.60,5703.3555113,N,00952.2418317,E,2,9,0.9,-1.022,M,40.593,M,2.6,0123*52\r\n
$GPGGA,113036.65,5703.3555297,N,00952.2418285,E,2,9,0.9,-1.023,M,40.593,M,2.9,0123*5C\r\n
$GPGGA,113036.70,5703.3555467,N,00952.2418267,E,2,9,0.9,-1.024,M,40.593,M,2.9,0123*5A\r\n
$GPGGA,113036.75,5703.3555648,N,00952.2418239,E,2,9,0.9,-1.023,M,40.593,M,2.9,0123*5C\r\n
$GPGGA,113036.80,5703.3555837,N,00952.2418213,E,2,9,0.9,-1.023,M,40.593,M,2.9,0123*58\r\n
$GPGGA,113036.85,5703.3556025,N,00952.2418179,E,2,9,0.9,-1.021,M,40.593,M,3.1,0123*51\r\n
$GPGGA,113036.90,5703.3556207,N,00952.2418154,E,2,9,0.9,-1.022,M,40.593,M,3.1,0123*5B\r\n
$GPGGA,113036.95,5703.3556373,N,00952.2418130,E,2,9,0.9,-1.024,M,40.593,M,3.1,0123*58\r\n
$GPGGA,113037.00,5703.3556558,N,00952.2418110,E,2,9,0.9,-1.023,M,40.593,M,3.1,0123*5F\r\n
$GPGGA,113037.05,5703.3556752,N,00952.2418083,E,2,9,0.9,-1.018,M,40.593,M,3.4,0123*54\r\n
$GPGGA,113037.10,5703.3556938,N,00952.2418038,E,2,9,0.9,-1.016,M,40.593,M,3.4,0123*5C\r\n
$GPGGA,113037.15,5703.3557132,N,00952.2417999,E,2,9,0.9,-1.015,M,40.593,M,3.4,0123*54\r\n
$GPGGA,113037.20,5703.3557317,N,00952.2417955,E,2,9,0.9,-1.016,M,40.593,M,3.4,0123*54\r\n
$GPGGA,113037.25,5703.3557496,N,00952.2417914,E,2,9,0.9,-1.015,M,40.593,M,1.6,0123*59\r\n
$GPGGA,113037.30,5703.3557676,N,00952.2417866,E,2,9,0.9,-1.016,M,40.593,M,1.6,0123*56\r\n
$GPGGA,113037.35,5703.3557872,N,00952.2417822,E,2,9,0.9,-1.015,M,40.593,M,1.6,0123*5A\r\n
$GPGGA,113037.40,5703.3558064,N,00952.2417783,E,2,9,0.9,-1.016,M,40.593,M,1.6,0123*5F\r\n
$GPGGA,113037.45,5703.3558250,N,00952.2417738,E,2,9,0.9,-1.018,M,40.593,M,1.8,0123*5F\r\n
$GPGGA,113037.50,5703.3558431,N,00952.2417681,E,2,9,0.9,-1.019,M,40.593,M,1.8,0123*58\r\n
$GPGGA,113037.55,5703.3558615,N,00952.2417635,E,2,9,0.9,-1.019,M,40.593,M,1.8,0123*56\r\n
$GPGGA,113037.60,5703.3558817,N,00952.2417587,E,2,9,0.9,-1.018,M,40.593,M,1.8,0123*57\r\n
$GPGGA,113037.65,5703.3559015,N,00952.2417545,E,2,9,0.9,-1.021,M,40.593,M,2.0,0123*56\r\n
$GPGGA,113037.70,5703.3559209,N,00952.2417508,E,2,9,0.9,-1.020,M,40.593,M,2.0,0123*55\r\n
$GPGGA,113037.75,5703.3559390,N,00952.2417479,E,2,9,0.9,-1.022,M,40.593,M,2.0,0123*54\r\n
$GPGGA,113037.80,5703.3559570,N,00952.2417455,E,2,9,0.9,-1.023,M,40.593,M,2.0,0123*59\r\n
$GPGGA,113037.85,5703.3559765,N,00952.2417433,E,2,9,0.9,-1.026,M,40.593,M,2.2,0123*5D\r\n
$GPGGA,113037.90,5703.3559962,N,00952.2417414,E,2,9,0.9,-1.026,M,40.593,M,2.2,0123*55\r\n
$GPGGA,113037.95,5703.3560162,N,00952.2417384,E,2,9,0.9,-1.024,M,40.593,M,2.2,0123*5E\r\n
$GPGGA,113038.00,5703.3560346,N,00952.2417345,E,2,9,0.9,-1.024,M,40.593,M,2.2,0123*54\r\n
$GPGGA,113038.05,5703.3560536,N,00952.2417316,E,2,9,0.9,-1.020,M,40.593,M,2.5,0123*55\r\n
$GPGGA,113038.10,5703.3560730,N,00952.2417282,E,2,9,0.9,-1.022,M,40.593,M,2.5,0123*5B\r\n
$GPGGA,113038.15,5703.3560932,N,00952.2417240,E,2,9,0.9,-1.021,M,40.593,M,2.5,0123*5F\r\n
$GPGGA,113038.20,5703.3561139,N,00952.2417201,E,2,9,0.9,-1.019,M,40.593,M,2.5,0123*55\r\n
$GPGGA,113038.25,5703.3561331,N,00952.2417165,E,2,9,0.9,-1.018,M,40.593,M,2.7,0123*58\r\n
$GPGGA,113038.30,5703.3561526,N,00952.2417121,E,2,9,0.9,-1.017,M,40.593,M,2.7,0123*53\r\n
$GPGGA,113038.35,5703.3561713,N,00952.2417077,E,2,9,0.9,-1.017,M,40.593,M,2.7,0123*50\r\n
$GPGGA,113038.40,5703.3561913,N,00952.2417022,E,2,9,0.9,-1.016,M,40.593,M,2.7,0123*5D\r\n
$GPGGA,113038.45,5703.3562109,N,00952.2416970,E,2,9,0.9,-1.019,M,40.593,M,2.9,0123*56\r\n
$GPGGA,113038.50,5703.3562312,N,00952.2416928,E,2,9,0.9,-1.018,M,40.593,M,2.9,0123*56\r\n
$GPGGA,113038.55,5703.3562501,N,00952.2416880,E,2,9,0.9,-1.020,M,40.593,M,2.9,0123*5F\r\n
$GPGGA,113038.60,5703.3562702,N,00952.2416846,E,2,9,0.9,-1.019,M,40.593,M,2.9,0123*58\r\n
$GPGGA,113038.65,5703.3562907,N,00952.2416795,E,2,9,0.9,-1.017,M,40.593,M,3.1,0123*50\r\n
$GPGGA,113038.70,5703.3563112,N,00952.2416737,E,2,9,0.9,-1.016,M,40.593,M,3.1,0123*50\r\n
$GPGGA,113038.75,5703.3563308,N,00952.2416698,E,2,9,0.9,-1.014,M,40.593,M,3.1,0123*5A\r\n
$GPGGA,113038.80,5703.3563504,N,00952.2416653,E,2,9,0.9,-1.014,M,40.593,M,3.1,0123*5D\r\n
$GPGGA,113038.85,5703.3563707,N,00952.2416616,E,2,9,0.9,-1.015,M,40.593,M,3.3,0123*5B\r\n
$GPGGA,113038.90,5703.3563909,N,00952.2416570,E,2,9,0.9,-1.014,M,40.593,M,3.3,0123*5D\r\n
$GPGGA,113038.95,5703.3564117,N,00952.2416530,E,2,9,0.9,-1.014,M,40.593,M,3.3,0123*5C\r\n
$GPGGA,113039.00,5703.3564318,N,00952.2416485,E,2,9,0.9,-1.014,M,40.593,M,3.3,0123*53\r\n
$GPGGA,113039.05,5703.3564532,N,00952.2416446,E,2,9,0.9,-1.016,M,40.593,M,3.5,0123*53\r\n
$GPGGA,113039.10,5703.3564738,N,00952.2416406,E,2,9,0.9,-1.016,M,40.593,M,3.5,0123*5B\r\n
$GPGGA,113039.15,5703.3564943,N,00952.2416365,E,2,9,0.9,-1.015,M,40.593,M,3.5,0123*5D\r\n
$GPGGA,113039.20,5703.3565149,N,00952.2416328,E,2,9,0.9,-1.016,M,40.593,M,3.5,0123*52\r\n
$GPGGA,113039.25,5703.3565344,N,00952.2416297,E,2,9,0.9,-1.015,M,40.593,M,2.4,0123*5E\r\n
$GPGGA,113039.30,5703.3565536,N,00952.2416280,E,2,9,0.9,-1.014,M,40.593,M,2.4,0123*5E\r\n
$GPGGA,113039.35,5703.3565736,N,00952.2416247,E,2,9,0.9,-1.012,M,40.593,M,2.4,0123*54\r\n
$GPGGA,113039.40,5703.3565947,N,00952.2416204,E,2,9,0.9,-1.009,M,40.593,M,2.4,0123*53\r\n
$GPGGA,113039.45,5703.3566157,N,00952.2416164,E,2,9,0.9,-1.010,M,40.593,M,2.7,0123*52\r\n
$GPGGA,113039.50,5703.3566373,N,00952.2416122,E,2,9,0.9,-1.008,M,40.593,M,2.7,0123*59\r\n
$GPGGA,113039.55,5703.3566580,N,00952.2416078,E,2,9,0.9,-1.007,M,40.593,M,2.7,0123*57\r\n
$GPGGA,113039.60,5703.3566772,N,00952.2416045,E,2,9,0.9,-1.008,M,40.593,M,2.7,0123*5F\r\n
$GPGGA,113039.65,5703.3566974,N,00952.2416006,E,2,9,0.9,-1.011,M,40.593,M,2.9,0123*53\r\n
$GPGGA,113039.70,5703.3567185,N,00952.2415957,E,2,9,0.9,-1.009,M,40.593,M,2.9,0123*57\r\n
$GPGGA,113039.75,5703.3567398,N,00952.2415901,E,2,9,0.9,-1.009,M,40.593,M,2.9,0123*5F\r\n
$GPGGA,113039.80,5703.3567606,N,00952.2415849,E,2,9,0.9,-1.008,M,40.593,M,2.9,0123*5B\r\n
$GPGGA,113039.85,5703.3567801,N,00952.2415786,E,2,9,0.9,-1.008,M,40.593,M,3.2,0123*51\r\n
$GPGGA,113039.90,5703.3568001,N,00952.2415728,E,2,9,0.9,-1.009,M,40.593,M,3.2,0123*57\r\n
$GPGGA,113039.95,5703.3568211,N,00952.2415674,E,2,9,0.9,-1.008,M,40.593,M,3.2,0123*58\r\n
$GPGGA,113040.00,5703.3568415,N,00952.2415632,E,2,9,0.9,-1.008,M,40.593,M,3.2,0123*5A\r\n
$GPGGA,113040.05,5703.3568638,N,00952.2415573,E,2,9,0.9,-1.012,M,40.593,M,3.4,0123*59\r\n
$GPGGA,113040.10,5703.3568846,N,00952.2415516,E,2,9,0.9,-1.012,M,40.593,M,3.4,0123*59\r\n
$GPGGA,113040.15,5703.3569054,N,00952.2415464,E,2,9,0.9,-1.013,M,40.593,M,3.4,0123*53\r\n
$GPGGA,113040.20,5703.3569267,N,00952.2415415,E,2,9,0.9,-1.014,M,40.593,M,3.4,0123*56\r\n
$GPGGA,113040.25,5703.3569476,N,00952.2415360,E,2,9,0.9,-1.015,M,40.593,M,2.4,0123*50\r\n
$GPGGA,113040.30,5703.3569681,N,00952.2415308,E,2,9,0.9,-1.014,M,40.593,M,2.4,0123*51\r\n
$GPGGA,113040.35,5703.3569888,N,00952.2415258,E,2,9,0.9,-1.015,M,40.593,M,2.4,0123*56\r\n
$GPGGA,113040.40,5703.3570097,N,00952.2415212,E,2,9,0.9,-1.016,M,40.593,M,2.4,0123*57\r\n
$GPGGA,113040.45,5703.3570321,N,00952.2415141,E,2,9,0.9,-1.018,M,40.593,M,2.6,0123*55\r\n
$GPGGA,113040.50,5703.3570522,N,00952.2415094,E,2,9,0.9,-1.018,M,40.593,M,2.6,0123*5D\r\n
$GPGGA,113040.55,5703.3570728,N,00952.2415047,E,2,9,0.9,-1.019,M,40.593,M,2.6,0123*5F\r\n
$GPGGA,113040.60,5703.3570940,N,00952.2414986,E,2,9,0.9,-1.018,M,40.593,M,2.6,0123*5D\r\n
$GPGGA,113040.65,5703.3571156,N,00952.2414920,E,2,9,0.9,-1.016,M,40.593,M,2.9,0123*5B\r\n
$GPGGA,113040.70,5703.3571375,N,00952.2414862,E,2,9,0.9,-1.014,M,40.593,M,2.9,0123*59\r\n
$GPGGA,113040.75,5703.3571599,N,00952.2414789,E,2,9,0.9,-1.014,M,40.593,M,2.9,0123*52\r\n
$GPGGA,113040.80,5703.3571822,N,00952.2414716,E,2,9,0.9,-1.016,M,40.593,M,2.9,0123*51\r\n
$GPGGA,113040.85,5703.3572031,N,00952.2414639,E,2,9,0.9,-1.015,M,40.593,M,3.1,0123*5B\r\n
$GPGGA,113040.90,5703.3572230,N,00952.2414588,E,2,9,0.9,-1.015,M,40.593,M,3.1,0123*55\r\n
$GPGGA,113040.95,5703.3572450,N,00952.2414540,E,2,9,0.9,-1.014,M,40.593,M,3.1,0123*55\r\n
$GPGGA,113041.00,5703.3572674,N,00952.2414482,E,2,9,0.9,-1.009,M,40.593,M,3.1,0123*5F\r\n
$GPGGA,113041.05,5703.3572906,N,00952.2414428,E,2,9,0.9,-1.002,M,40.593,M,3.4,0123*5E\r\n
$GPGGA,113041.10,5703.3573130,N,00952.2414370,E,2,9,0.9,-1.002,M,40.593,M,3.4,0123*5C\r\n
$GPGGA,113041.15,5703.3573368,N,00952.2414305,E,2,9,0.9,-0.998,M,40.593,M,3.4,0123*5F\r\n
$GPGGA,113041.20,5703.3573600,N,00952.2414234,E,2,9,0.9,-0.996,M,40.593,M,3.4,0123*5F\r\n
$GPGGA,113041.25,5703.3573845,N,00952.2414163,E,2,9,0.9,-0.996,M,40.593,M,1.6,0123*54\r\n
$GPGGA,113041.30,5703.3574085,N,00952.2414094,E,2,9,0.9,-0.992,M,40.593,M,1.6,0123*5E\r\n
$GPGGA,113041.35,5703.3574329,N,00952.2414007,E,2,9,0.9,-0.990,M,40.593,M,1.6,0123*56\r\n
$GPGGA,113041.40,5703.3574568,N,00952.2413929,E,2,9,0.9,-0.987,M,40.593,M,1.6,0123*53\r\n
$GPGGA,113041.45,5703.3574825,N,00952.2413836,E,2,9,0.9,-0.983,M,40.593,M,1.8,0123*57\r\n
$GPGGA,113041.50,5703.3575089,N,00952.2413751,E,2,9,0.9,-0.980,M,40.593,M,1.8,0123*51\r\n
$GPGGA,113041.55,5703.3575342,N,00952.2413676,E,2,9,0.9,-0.977,M,40.593,M,1.8,0123*5C\r\n
$GPGGA,113041.60,5703.3575610,N,00952.2413588,E,2,9,0.9,-0.976,M,40.593,M,1.8,0123*5B\r\n
$GPGGA,113041.65,5703.3575887,N,00952.2413490,E,2,9,0.9,-0.977,M,40.593,M,2.0,0123*5C\r\n
$GPGGA,113041.70,5703.3576161,N,00952.2413396,E,2,9,0.9,-0.976,M,40.593,M,2.0,0123*5A\r\n
$GPGGA,113041.75,5703.3576451,N,00952.2413302,E,2,9,0.9,-0.974,M,40.593,M,2.0,0123*56\r\n
$GPGGA,113041.80,5703.3576743,N,00952.2413205,E,2,9,0.9,-0.971,M,40.593,M,2.0,0123*5F\r\n
$GPGGA,113041.85,5703.3577037,N,00952.2413106,E,2,9,0.9,-0.965,M,40.593,M,2.2,0123*58\r\n
$GPGGA,113041.90,5703.3577336,N,00952.2413012,E,2,9,0.9,-0.965,M,40.593,M,2.2,0123*5A\r\n
$GPGGA,113041.95,5703.3577640,N,00952.2412907,E,2,9,0.9,-0.965,M,40.593,M,2.2,0123*57\r\n
$GPGGA,113042.00,5703.3577966,N,00952.2412794,E,2,9,0.9,-0.961,M,40.593,M,2.2,0123*53\r\n
$GPGGA,113042.05,5703.3578291,N,00952.2412696,E,2,9,0.9,-0.959,M,40.593,M,2.5,0123*55\r\n
$GPGGA,113042.10,5703.3578622,N,00952.2412574,E,2,9,0.9,-0.958,M,40.593,M,2.5,0123*53\r\n
$GPGGA,113042.15,5703.3578961,N,00952.2412450,E,2,9,0.9,-0.957,M,40.593,M,2.5,0123*56\r\n
$GPGGA,113042.20,5703.3579310,N,00952.2412299,E,2,9,0.9,-0.956,M,40.593,M,2.5,0123*5F\r\n
$GPGGA,113042.25,5703.3579660,N,00952.2412158,E,2,9,0.9,-0.955,M,40.593,M,2.7,0123*57\r\n
$GPGGA,113042.30,5703.3580017,N,00952.2412010,E,2,9,0.9,-0.955,M,40.593,M,2.7,0123*5E\r\n
$GPGGA,113042.35,5703.3580379,N,00952.2411854,E,2,9,0.9,-0.957,M,40.593,M,2.7,0123*59\r\n
$GPGGA,113042.40,5703.3580752,N,00952.2411695,E,2,9,0.9,-0.958,M,40.593,M,2.7,0123*5A\r\n
$GPGGA,113042.45,5703.3581119,N,00952.2411538,E,2,9,0.9,-0.958,M,40.593,M,2.9,0123*5D\r\n
$GPGGA,113042.50,5703.3581501,N,00952.2411370,E,2,9,0.9,-0.957,M,40.593,M,2.9,0123*51\r\n
$GPGGA,113042.55,5703.3581891,N,00952.2411190,E,2,9,0.9,-0.959,M,40.593,M,2.9,0123*52\r\n
$GPGGA,113042.60,5703.3582276,N,00952.2411024,E,2,9,0.9,-0.960,M,40.593,M,2.9,0123*50\r\n
$GPGGA,113042.65,5703.3582671,N,00952.2410855,E,2,9,0.9,-0.956,M,40.593,M,3.1,0123*55\r\n
$GPGGA,113042.70,5703.3583070,N,00952.2410671,E,2,9,0.9,-0.955,M,40.593,M,3.1,0123*5C\r\n
$GPGGA,113042.75,5703.3583475,N,00952.2410488,E,2,9,0.9,-0.955,M,40.593,M,3.1,0123*5C\r\n
$GPGGA,113042.80,5703.3583887,N,00952.2410279,E,2,9,0.9,-0.955,M,40.593,M,3.1,0123*5F\r\n
$GPGGA,113042.85,5703.3584305,N,00952.2410058,E,2,9,0.9,-0.952,M,40.593,M,3.3,0123*58\r\n
$GPGGA,113042.90,5703.3584713,N,00952.2409859,E,2,9,0.9,-0.950,M,40.593,M,3.3,0123*5C\r\n
$GPGGA,113042.95,5703.3585129,N,00952.2409647,E,2,9,0.9,-0.951,M,40.593,M,3.3,0123*57\r\n
$GPGGA,113043.00,5703.3585549,N,00952.2409431,E,2,9,0.9,-0.951,M,40.593,M,3.3,0123*5B\r\n
$GPGGA,113043.05,5703.3585978,N,00952.2409208,E,2,9,0.9,-0.954,M,40.593,M,3.5,0123*5F\r\n
$GPGGA,113043.10,5703.3586405,N,00952.2408970,E,2,9,0.9,-0.952,M,40.593,M,3.5,0123*5C\r\n
$GPGGA,113043.15,5703.3586843,N,00952.2408710,E,2,9,0.9,-0.949,M,40.593,M,3.5,0123*55\r\n
$GPGGA,113043.20,5703.3587279,N,00952.2408465,E,2,9,0.9,-0.949,M,40.593,M,3.5,0123*50\r\n
$GPGGA,113043.25,5703.3587718,N,00952.2408213,E,2,9,0.9,-0.949,M,40.593,M,2.4,0123*50\r\n
$GPGGA,113043.30,5703.3588150,N,00952.2407940,E,2,9,0.9,-0.949,M,40.593,M,2.4,0123*53\r\n
$GPGGA,113043.35,5703.3588588,N,00952.2407667,E,2,9,0.9,-0.948,M,40.593,M,2.4,0123*5C\r\n
$GPGGA,113043.40,5703.3589028,N,00952.2407376,E,2,9,0.9,-0.948,M,40.593,M,2.4,0123*55\r\n
$GPGGA,113043.45,5703.3589472,N,00952.2407096,E,2,9,0.9,-0.944,M,40.593,M,2.7,0123*59\r\n
$GPGGA,113043.50,5703.3589915,N,00952.2406790,E,2,9,0.9,-0.944,M,40.593,M,2.7,0123*51\r\n
$GPGGA,113043.55,5703.3590364,N,00952.2406469,E,2,9,0.9,-0.943,M,40.593,M,2.7,0123*52\r\n
$GPGGA,113043.60,5703.3590808,N,00952.2406167,E,2,9,0.9,-0.942,M,40.593,M,2.7,0123*5F\r\n
$GPGGA,113043.65,5703.3591249,N,00952.2405847,E,2,9,0.9,-0.942,M,40.593,M,2.9,0123*52\r\n
$GPGGA,113043.70,5703.3591709,N,00952.2405492,E,2,9,0.9,-0.944,M,40.593,M,2.9,0123*55\r\n
$GPGGA,113043.75,5703.3592157,N,00952.2405135,E,2,9,0.9,-0.945,M,40.593,M,2.9,0123*57\r\n
$GPGGA,113043.80,5703.3592598,N,00952.2404768,E,2,9,0.9,-0.942,M,40.593,M,2.9,0123*52\r\n
$GPGGA,113043.85,5703.3593050,N,00952.2404372,E,2,9,0.9,-0.945,M,40.593,M,3.2,0123*55\r\n
$GPGGA,113043.90,5703.3593501,N,00952.2403993,E,2,9,0.9,-0.949,M,40.593,M,3.2,0123*5E\r\n
$GPGGA,113043.95,5703.3593958,N,00952.2403612,E,2,9,0.9,-0.950,M,40.593,M,3.2,0123*55\r\n
$GPGGA,113044.00,5703.3594409,N,00952.2403225,E,2,9,0.9,-0.947,M,40.593,M,3.2,0123*56\r\n
$GPGGA,113044.05,5703.3594848,N,00952.2402826,E,2,9,0.9,-0.949,M,40.593,M,3.4,0123*5A\r\n
$GPGGA,113044.10,5703.3595299,N,00952.2402406,E,2,9,0.9,-0.951,M,40.593,M,3.4,0123*5E\r\n
$GPGGA,113044.15,5703.3595743,N,00952.2401962,E,2,9,0.9,-0.953,M,40.593,M,3.4,0123*57\r\n
$GPGGA,113044.20,5703.3596175,N,00952.2401510,E,2,9,0.9,-0.954,M,40.593,M,3.4,0123*5F\r\n
$GPGGA,113044.25,5703.3596610,N,00952.2401064,E,2,9,0.9,-0.953,M,40.593,M,2.4,0123*5E\r\n
$GPGGA,113044.30,5703.3597052,N,00952.2400593,E,2,9,0.9,-0.954,M,40.593,M,2.4,0123*50\r\n
$GPGGA,113044.35,5703.3597482,N,00952.2400112,E,2,9,0.9,-0.955,M,40.593,M,2.4,0123*50\r\n
$GPGGA,113044.40,5703.3597912,N,00952.2399625,E,2,9,0.9,-0.957,M,40.593,M,2.4,0123*50\r\n
$GPGGA,113044.45,5703.3598337,N,00952.2399121,E,2,9,0.9,-0.959,M,40.593,M,2.6,0123*58\r\n
$GPGGA,113044.50,5703.3598773,N,00952.2398590,E,2,9,0.9,-0.959,M,40.593,M,2.6,0123*57\r\n
$GPGGA,113044.55,5703.3599208,N,00952.2398061,E,2,9,0.9,-0.957,M,40.593,M,2.6,0123*5F\r\n
$GPGGA,113044.60,5703.3599628,N,00952.2397537,E,2,9,0.9,-0.958,M,40.593,M,2.6,0123*59\r\n
$GPGGA,113044.65,5703.3600045,N,00952.2396982,E,2,9,0.9,-0.954,M,40.593,M,2.9,0123*52\r\n
$GPGGA,113044.70,5703.3600462,N,00952.2396426,E,2,9,0.9,-0.952,M,40.593,M,2.9,0123*52\r\n
$GPGGA,113044.75,5703.3600873,N,00952.2395871,E,2,9,0.9,-0.949,M,40.593,M,2.9,0123*5C\r\n
$GPGGA,113044.80,5703.3601267,N,00952.2395317,E,2,9,0.9,-0.949,M,40.593,M,2.9,0123*53\r\n
$GPGGA,113044.85,5703.3601676,N,00952.2394750,E,2,9,0.9,-0.949,M,40.593,M,3.1,0123*5D\r\n
$GPGGA,113044.90,5703.3602078,N,00952.2394165,E,2,9,0.9,-0.950,M,40.593,M,3.1,0123*5A\r\n
$GPGGA,113044.95,5703.3602473,N,00952.2393556,E,2,9,0.9,-0.951,M,40.593,M,3.1,0123*52\r\n
$GPGGA,113045.00,5703.3602877,N,00952.2392942,E,2,9,0.9,-0.952,M,40.593,M,3.1,0123*5C\r\n
$GPGGA,113045.05,5703.3603278,N,00952.2392338,E,2,9,0.9,-0.954,M,40.593,M,3.4,0123*59\r\n
$GPGGA,113045.10,5703.3603662,N,00952.2391727,E,2,9,0.9,-0.952,M,40.593,M,3.4,0123*5D\r\n
$GPGGA,113045.15,5703.3604051,N,00952.2391097,E,2,9,0.9,-0.951,M,40.593,M,3.4,0123*56\r\n
$GPGGA,113045.20,5703.3604436,N,00952.2390458,E,2,9,0.9,-0.952,M,40.593,M,3.4,0123*50\r\n
$GPGGA,113045.25,5703.3604811,N,00952.2389802,E,2,9,0.9,-0.954,M,40.593,M,1.6,0123*51\r\n
$GPGGA,113045.30,5703.3605196,N,00952.2389149,E,2,9,0.9,-0.953,M,40.593,M,1.6,0123*53\r\n
$GPGGA,113045.35,5703.3605582,N,00952.2388505,E,2,9,0.9,-0.952,M,40.593,M,1.6,0123*5B\r\n
$GPGGA,113045.40,5703.3605953,N,00952.2387847,E,2,9,0.9,-0.951,M,40.593,M,1.6,0123*5E\r\n
$GPGGA,113045.45,5703.3606312,N,00952.2387168,E,2,9,0.9,-0.953,M,40.593,M,1.8,0123*5F\r\n
$GPGGA,113045.50,5703.3606672,N,00952.2386484,E,2,9,0.9,-0.955,M,40.593,M,1.8,0123*58\r\n
$GPGGA,113045.55,5703.3607030,N,00952.2385783,E,2,9,0.9,-0.952,M,40.593,M,1.8,0123*5C\r\n
$GPGGA,113045.60,5703.3607383,N,00952.2385084,E,2,9,0.9,-0.951,M,40.593,M,1.8,0123*52\r\n
$GPGGA,113045.65,5703.3607744,N,00952.2384375,E,2,9,0.9,-0.951,M,40.593,M,2.0,0123*5F\r\n
$GPGGA,113045.70,5703.3608104,N,00952.2383671,E,2,9,0.9,-0.950,M,40.593,M,2.0,0123*51\r\n
$GPGGA,113045.75,5703.3608454,N,00952.2382944,E,2,9,0.9,-0.949,M,40.593,M,2.0,0123*54\r\n
$GPGGA,113045.80,5703.3608804,N,00952.2382183,E,2,9,0.9,-0.951,M,40.593,M,2.0,0123*5D\r\n
$GPGGA,113045.85,5703.3609138,N,00952.2381430,E,2,9,0.9,-0.956,M,40.593,M,2.2,0123*54\r\n
$GPGGA,113045.90,5703.3609471,N,00952.2380655,E,2,9,0.9,-0.956,M,40.593,M,2.2,0123*58\r\n
$GPGGA,113045.95,5703.3609800,N,00952.2379896,E,2,9,0.9,-0.957,M,40.593,M,2.2,0123*51\r\n
$GPGGA,113046.00,5703.3610127,N,00952.2379099,E,2,9,0.9,-0.957,M,40.593,M,2.2,0123*5D\r\n
$GPGGA,113046.05,5703.3610466,N,00952.2378309,E,2,9,0.9,-0.955,M,40.593,M,2.5,0123*56\r\n
$GPGGA,113046.10,5703.3610783,N,00952.2377526,E,2,9,0.9,-0.954,M,40.593,M,2.5,0123*5F\r\n
$GPGGA,113046.15,5703.3611085,N,00952.2376724,E,2,9,0.9,-0.951,M,40.593,M,2.5,0123*5E\r\n
$GPGGA,113046.20,5703.3611391,N,00952.2375918,E,2,9,0.9,-0.950,M,40.593,M,2.5,0123*5D\r\n
$GPGGA,113046.25,5703.3611702,N,00952.2375112,E,2,9,0.9,-0.952,M,40.593,M,2.7,0123*54\r\n
$GPGGA,113046.30,5703.3612013,N,00952.2374284,E,2,9,0.9,-0.952,M,40.593,M,2.7,0123*59\r\n
$GPGGA,113046.35,5703.3612321,N,00952.2373458,E,2,9,0.9,-0.950,M,40.593,M,2.7,0123*5C\r\n
$GPGGA,113046.40,5703.3612616,N,00952.2372636,E,2,9,0.9,-0.949,M,40.593,M,2.7,0123*5C\r\n
$GPGGA,113046.45,5703.3612903,N,00952.2371798,E,2,9,0.9,-0.952,M,40.593,M,2.9,0123*50\r\n
$GPGGA,113046.50,5703.3613211,N,00952.2370954,E,2,9,0.9,-0.952,M,40.593,M,2.9,0123*52\r\n
$GPGGA,113046.55,5703.3613521,N,00952.2370093,E,2,9,0.9,-0.950,M,40.593,M,2.9,0123*53\r\n
$GPGGA,113046.60,5703.3613795,N,00952.2369228,E,2,9,0.9,-0.949,M,40.593,M,2.9,0123*5A\r\n
$GPGGA,113046.65,5703.3614071,N,00952.2368351,E,2,9,0.9,-0.953,M,40.593,M,3.1,0123*59\r\n
$GPGGA,113046.70,5703.3614338,N,00952.2367475,E,2,9,0.9,-0.954,M,40.593,M,3.1,0123*5A\r\n
$GPGGA,113046.75,5703.3614624,N,00952.2366594,E,2,9,0.9,-0.954,M,40.593,M,3.1,0123*58\r\n
$GPGGA,113046.80,5703.3614898,N,00952.2365707,E,2,9,0.9,-0.953,M,40.593,M,3.1,0123*57\r\n
$GPGGA,113046.85,5703.3615164,N,00952.2364823,E,2,9,0.9,-0.949,M,40.593,M,3.3,0123*58\r\n
$GPGGA,113046.90,5703.3615427,N,00952.2363925,E,2,9,0.9,-0.946,M,40.593,M,3.3,0123*51\r\n
$GPGGA,113046.95,5703.3615685,N,00952.2363015,E,2,9,0.9,-0.945,M,40.593,M,3.3,0123*57\r\n
$GPGGA,113047.00,5703.3615944,N,00952.2362096,E,2,9,0.9,-0.943,M,40.593,M,3.3,0123*54\r\n
$GPGGA,113047.05,5703.3616206,N,00952.2361174,E,2,9,0.9,-0.942,M,40.593,M,3.5,0123*56\r\n
$GPGGA,113047.10,5703.3616453,N,00952.2360253,E,2,9,0.9,-0.944,M,40.593,M,3.5,0123*55\r\n
$GPGGA,113047.15,5703.3616695,N,00952.2359335,E,2,9,0.9,-0.942,M,40.593,M,3.5,0123*55\r\n
$GPGGA,113047.20,5703.3616930,N,00952.2358408,E,2,9,0.9,-0.941,M,40.593,M,3.5,0123*58\r\n
$GPGGA,113047.25,5703.3617166,N,00952.2357468,E,2,9,0.9,-0.942,M,40.593,M,2.4,0123*5D\r\n
$GPGGA,113047.30,5703.3617402,N,00952.2356523,E,2,9,0.9,-0.941,M,40.593,M,2.4,0123*52\r\n
$GPGGA,113047.35,5703.3617624,N,00952.2355557,E,2,9,0.9,-0.941,M,40.593,M,2.4,0123*51\r\n
$GPGGA,113047.40,5703.3617853,N,00952.2354595,E,2,9,0.9,-0.941,M,40.593,M,2.4,0123*52\r\n
$GPGGA,113047.45,5703.3618072,N,00952.2353629,E,2,9,0.9,-0.940,M,40.593,M,2.7,0123*52\r\n
$GPGGA,113047.50,5703.3618276,N,00952.2352643,E,2,9,0.9,-0.940,M,40.593,M,2.7,0123*5D\r\n
$GPGGA,113047.55,5703.3618494,N,00952.2351661,E,2,9,0.9,-0.940,M,40.593,M,2.7,0123*51\r\n
$GPGGA,113047.60,5703.3618712,N,00952.2350683,E,2,9,0.9,-0.939,M,40.593,M,2.7,0123*59\r\n
$GPGGA,113047.65,5703.3618914,N,00952.2349692,E,2,9,0.9,-0.943,M,40.593,M,2.9,0123*5F\r\n
$GPGGA,113047.70,5703.3619112,N,00952.2348694,E,2,9,0.9,-0.942,M,40.593,M,2.9,0123*52\r\n
$GPGGA,113047.75,5703.3619318,N,00952.2347702,E,2,9,0.9,-0.942,M,40.593,M,2.9,0123*5E\r\n
$GPGGA,113047.80,5703.3619511,N,00952.2346712,E,2,9,0.9,-0.944,M,40.593,M,2.9,0123*5D\r\n
$GPGGA,113047.85,5703.3619702,N,00952.2345718,E,2,9,0.9,-0.942,M,40.593,M,3.2,0123*5D\r\n
$GPGGA,113047.90,5703.3619889,N,00952.2344705,E,2,9,0.9,-0.943,M,40.593,M,3.2,0123*59\r\n
$GPGGA,113047.95,5703.3620077,N,00952.2343692,E,2,9,0.9,-0.943,M,40.593,M,3.2,0123*57\r\n
$GPGGA,113048.00,5703.3620251,N,00952.2342677,E,2,9,0.9,-0.944,M,40.593,M,3.2,0123*5F\r\n
$GPGGA,113048.05,5703.3620444,N,00952.2341645,E,2,9,0.9,-0.948,M,40.593,M,3.4,0123*50\r\n
$GPGGA,113048.10,5703.3620621,N,00952.2340612,E,2,9,0.9,-0.951,M,40.593,M,3.4,0123*5E\r\n
$GPGGA,113048.15,5703.3620792,N,00952.2339570,E,2,9,0.9,-0.952,M,40.593,M,3.4,0123*58\r\n
$GPGGA,113048.20,5703.3620957,N,00952.2338530,E,2,9,0.9,-0.953,M,40.593,M,3.4,0123*5D\r\n
$GPGGA,113048.25,5703.3621123,N,00952.2337475,E,2,9,0.9,-0.956,M,40.593,M,2.4,0123*59\r\n
$GPGGA,113048.30,5703.3621291,N,00952.2336438,E,2,9,0.9,-0.956,M,40.593,M,2.4,0123*5F\r\n
$GPGGA,113048.35,5703.3621444,N,00952.2335388,E,2,9,0.9,-0.955,M,40.593,M,2.4,0123*58\r\n
$GPGGA,113048.40,5703.3621585,N,00952.2334328,E,2,9,0.9,-0.956,M,40.593,M,2.4,0123*5E\r\n
$GPGGA,113048.45,5703.3621722,N,00952.2333273,E,2,9,0.9,-0.954,M,40.593,M,2.6,0123*5C\r\n
$GPGGA,113048.50,5703.3621864,N,00952.2332221,E,2,9,0.9,-0.952,M,40.593,M,2.6,0123*55\r\n
$GPGGA,113048.55,5703.3621999,N,00952.2331143,E,2,9,0.9,-0.953,M,40.593,M,2.6,0123*56\r\n
$GPGGA,113048.60,5703.3622147,N,00952.2330066,E,2,9,0.9,-0.954,M,40.593,M,2.6,0123*58\r\n
$GPGGA,113048.65,5703.3622280,N,00952.2328973,E,2,9,0.9,-0.955,M,40.593,M,2.9,0123*5F\r\n
$GPGGA,113048.70,5703.3622413,N,00952.2327875,E,2,9,0.9,-0.954,M,40.593,M,2.9,0123*5E\r\n
$GPGGA,113048.75,5703.3622527,N,00952.2326769,E,2,9,0.9,-0.953,M,40.593,M,2.9,0123*59\r\n
$GPGGA,113048.80,5703.3622650,N,00952.2325689,E,2,9,0.9,-0.952,M,40.593,M,2.9,0123*5D\r\n
$GPGGA,113048.85,5703.3622762,N,00952.2324595,E,2,9,0.9,-0.952,M,40.593,M,3.1,0123*5E\r\n
$GPGGA,113048.90,5703.3622874,N,00952.2323512,E,2,9,0.9,-0.951,M,40.593,M,3.1,0123*59\r\n
$GPGGA,113048.95,5703.3622986,N,00952.2322416,E,2,9,0.9,-0.951,M,40.593,M,3.1,0123*54\r\n
$GPGGA,113049.00,5703.3623115,N,00952.2321324,E,2,9,0.9,-0.950,M,40.593,M,3.1,0123*5E\r\n
$GPGGA,113049.05,5703.3623242,N,00952.2320204,E,2,9,0.9,-0.947,M,40.593,M,3.4,0123*5B\r\n
$GPGGA,113049.10,5703.3623349,N,00952.2319090,E,2,9,0.9,-0.945,M,40.593,M,3.4,0123*52\r\n
$GPGGA,113049.15,5703.3623449,N,00952.2317960,E,2,9,0.9,-0.944,M,40.593,M,3.4,0123*59\r\n
$GPGGA,113049.20,5703.3623545,N,00952.2316862,E,2,9,0.9,-0.943,M,40.593,M,3.4,0123*57\r\n
$GPGGA,113049.25,5703.3623656,N,00952.2315735,E,2,9,0.9,-0.944,M,40.593,M,1.6,0123*5A\r\n
$GPGGA,113049.30,5703.3623751,N,00952.2314590,E,2,9,0.9,-0.944,M,40.593,M,1.6,0123*54\r\n
$GPGGA,113049.35,5703.3623830,N,00952.2313458,E,2,9,0.9,-0.944,M,40.593,M,1.6,0123*5B\r\n
$GPGGA,113049.40,5703.3623916,N,00952.2312309,E,2,9,0.9,-0.947,M,40.593,M,1.6,0123*5D\r\n
$GPGGA,113049.45,5703.3623996,N,00952.2311167,E,2,9,0.9,-0.950,M,40.593,M,1.8,0123*51\r\n
$GPGGA,113049.50,5703.3624068,N,00952.2310022,E,2,9,0.9,-0.949,M,40.593,M,1.8,0123*53\r\n
$GPGGA,113049.55,5703.3624138,N,00952.2308881,E,2,9,0.9,-0.951,M,40.593,M,1.8,0123*53\r\n
$GPGGA,113049.60,5703.3624231,N,00952.2307732,E,2,9,0.9,-0.952,M,40.593,M,1.8,0123*54\r\n
$GPGGA,113049.65,5703.3624303,N,00952.2306573,E,2,9,0.9,-0.955,M,40.593,M,2.0,0123*5B\r\n
$GPGGA,113049.70,5703.3624376,N,00952.2305408,E,2,9,0.9,-0.959,M,40.593,M,2.0,0123*5F\r\n
$GPGGA,113049.75,5703.3624444,N,00952.2304249,E,2,9,0.9,-0.959,M,40.593,M,2.0,0123*5E\r\n
$GPGGA,113049.80,5703.3624502,N,00952.2303094,E,2,9,0.9,-0.959,M,40.593,M,2.0,0123*52\r\n
$GPGGA,113049.85,5703.3624562,N,00952.2301937,E,2,9,0.9,-0.959,M,40.593,M,2.2,0123*51\r\n
$GPGGA,113049.90,5703.3624624,N,00952.2300783,E,2,9,0.9,-0.958,M,40.593,M,2.2,0123*55\r\n
$GPGGA,113049.95,5703.3624678,N,00952.2299605,E,2,9,0.9,-0.957,M,40.593,M,2.2,0123*58\r\n
$GPGGA,113050.00,5703.3624732,N,00952.2298445,E,2,9,0.9,-0.954,M,40.593,M,2.2,0123*57\r\n
$GPGGA,113050.05,5703.3624785,N,00952.2297298,E,2,9,0.9,-0.955,M,40.593,M,2.5,0123*51\r\n
$GPGGA,113050.10,5703.3624833,N,00952.2296128,E,2,9,0.9,-0.957,M,40.593,M,2.5,0123*5C\r\n
$GPGGA,113050.15,5703.3624887,N,00952.2294957,E,2,9,0.9,-0.954,M,40.593,M,2.5,0123*57\r\n
$GPGGA,113050.20,5703.3624944,N,00952.2293781,E,2,9,0.9,-0.953,M,40.593,M,2.5,0123*5A\r\n
$GPGGA,113050.25,5703.3625006,N,00952.2292599,E,2,9,0.9,-0.949,M,40.593,M,2.7,0123*52\r\n
$GPGGA,113050.30,5703.3625050,N,00952.2291408,E,2,9,0.9,-0.946,M,40.593,M,2.7,0123*50\r\n
$GPGGA,113050.35,5703.3625094,N,00952.2290215,E,2,9,0.9,-0.945,M,40.593,M,2.7,0123*55\r\n
$GPGGA,113050.40,5703.3625146,N,00952.2289030,E,2,9,0.9,-0.947,M,40.593,M,2.7,0123*56\r\n
$GPGGA,113050.45,5703.3625186,N,00952.2287843,E,2,9,0.9,-0.949,M,40.593,M,2.9,0123*5D\r\n
$GPGGA,113050.50,5703.3625219,N,00952.2286656,E,2,9,0.9,-0.951,M,40.593,M,2.9,0123*5E\r\n
$GPGGA,113050.55,5703.3625253,N,00952.2285480,E,2,9,0.9,-0.951,M,40.593,M,2.9,0123*5F\r\n
$GPGGA,113050.60,5703.3625283,N,00952.2284277,E,2,9,0.9,-0.952,M,40.593,M,2.9,0123*58\r\n
$GPGGA,113050.65,5703.3625315,N,00952.2283070,E,2,9,0.9,-0.954,M,40.593,M,3.1,0123*5E\r\n
$GPGGA,113050.70,5703.3625364,N,00952.2281866,E,2,9,0.9,-0.954,M,40.593,M,3.1,0123*51\r\n
$GPGGA,113050.75,5703.3625402,N,00952.2280653,E,2,9,0.9,-0.954,M,40.593,M,3.1,0123*5A\r\n
$GPGGA,113050.80,5703.3625422,N,00952.2279462,E,2,9,0.9,-0.954,M,40.593,M,3.1,0123*54\r\n
$GPGGA,113050.85,5703.3625440,N,00952.2278274,E,2,9,0.9,-0.953,M,40.593,M,3.3,0123*50\r\n
$GPGGA,113050.90,5703.3625458,N,00952.2277084,E,2,9,0.9,-0.953,M,40.593,M,3.3,0123*5F\r\n
$GPGGA,113050.95,5703.3625479,N,00952.2275894,E,2,9,0.9,-0.954,M,40.593,M,3.3,0123*55\r\n
$GPGGA,113051.00,5703.3625508,N,00952.2274702,E,2,9,0.9,-0.953,M,40.593,M,3.3,0123*59\r\n
$GPGGA,113051.05,5703.3625545,N,00952.2273501,E,2,9,0.9,-0.957,M,40.593,M,3.5,0123*51\r\n
$GPGGA,113051.10,5703.3625582,N,00952.2272294,E,2,9,0.9,-0.957,M,40.593,M,3.5,0123*54\r\n
$GPGGA,113051.15,5703.3625614,N,00952.2271088,E,2,9,0.9,-0.955,M,40.593,M,3.5,0123*53\r\n
$GPGGA,113051.20,5703.3625640,N,00952.2269882,E,2,9,0.9,-0.956,M,40.593,M,3.5,0123*5C\r\n
$GPGGA,113051.25,5703.3625681,N,00952.2268677,E,2,9,0.9,-0.951,M,40.593,M,2.4,0123*56\r\n
$GPGGA,113051.30,5703.3625708,N,00952.2267471,E,2,9,0.9,-0.952,M,40.593,M,2.4,0123*5A\r\n
$GPGGA,113051.35,5703.3625743,N,00952.2266258,E,2,9,0.9,-0.951,M,40.593,M,2.4,0123*5F\r\n
$GPGGA,113051.40,5703.3625767,N,00952.2265037,E,2,9,0.9,-0.948,M,40.593,M,2.4,0123*5B\r\n
$GPGGA,113051.45,5703.3625788,N,00952.2263827,E,2,9,0.9,-0.952,M,40.593,M,2.7,0123*58\r\n
$GPGGA,113051.50,5703.3625814,N,00952.2262604,E,2,9,0.9,-0.955,M,40.593,M,2.7,0123*5F\r\n
$GPGGA,113051.55,5703.3625847,N,00952.2261386,E,2,9,0.9,-0.956,M,40.593,M,2.7,0123*53\r\n
$GPGGA,113051.60,5703.3625874,N,00952.2260185,E,2,9,0.9,-0.957,M,40.593,M,2.7,0123*54\r\n
$GPGGA,113051.65,5703.3625892,N,00952.2258982,E,2,9,0.9,-0.954,M,40.593,M,2.9,0123*50\r\n
$GPGGA,113051.70,5703.3625923,N,00952.2257760,E,2,9,0.9,-0.954,M,40.593,M,2.9,0123*52\r\n
$GPGGA,113051.75,5703.3625961,N,00952.2256547,E,2,9,0.9,-0.957,M,40.593,M,2.9,0123*54\r\n
$GPGGA,113051.80,5703.3625987,N,00952.2255329,E,2,9,0.9,-0.958,M,40.593,M,2.9,0123*54\r\n
$GPGGA,113051.85,5703.3626025,N,00952.2254122,E,2,9,0.9,-0.960,M,40.593,M,3.2,0123*5A\r\n
$GPGGA,113051.90,5703.3626058,N,00952.2252917,E,2,9,0.9,-0.959,M,40.593,M,3.2,0123*56\r\n
$GPGGA,113051.95,5703.3626078,N,00952.2251723,E,2,9,0.9,-0.956,M,40.593,M,3.2,0123*54\r\n
$GPGGA,113052.00,5703.3626123,N,00952.2250515,E,2,9,0.9,-0.954,M,40.593,M,3.2,0123*50\r\n
$GPGGA,113052.05,5703.3626166,N,00952.2249320,E,2,9,0.9,-0.949,M,40.593,M,3.4,0123*56\r\n
$GPGGA,113052.10,5703.3626204,N,00952.2248110,E,2,9,0.9,-0.951,M,40.593,M,3.4,0123*5C\r\n
$GPGGA,113052.15,5703.3626230,N,00952.2246914,E,2,9,0.9,-0.950,M,40.593,M,3.4,0123*5D\r\n
$GPGGA,113052.20,5703.3626252,N,00952.2245723,E,2,9,0.9,-0.948,M,40.593,M,3.4,0123*5F\r\n
$GPGGA,113052.25,5703.3626296,N,00952.2244512,E,2,9,0.9,-0.950,M,40.593,M,2.4,0123*5B\r\n
$GPGGA,113052.30,5703.3626334,N,00952.2243303,E,2,9,0.9,-0.948,M,40.593,M,2.4,0123*5E\r\n
$GPGGA,113052.35,5703.3626374,N,00952.2242100,E,2,9,0.9,-0.949,M,40.593,M,2.4,0123*5E\r\n
$GPGGA,113052.40,5703.3626419,N,00952.2240890,E,2,9,0.9,-0.950,M,40.593,M,2.4,0123*5A\r\n
$GPGGA,113052.45,5703.3626464,N,00952.2239692,E,2,9,0.9,-0.947,M,40.593,M,2.6,0123*53\r\n
$GPGGA,113052.50,5703.3626514,N,00952.2238488,E,2,9,0.9,-0.948,M,40.593,M,2.6,0123*56\r\n
$GPGGA,113052.55,5703.3626561,N,00952.2237275,E,2,9,0.9,-0.949,M,40.593,M,2.6,0123*5B\r\n
$GPGGA,113052.60,5703.3626608,N,00952.2236061,E,2,9,0.9,-0.950,M,40.593,M,2.6,0123*5F\r\n
$GPGGA,113052.65,5703.3626656,N,00952.2234855,E,2,9,0.9,-0.949,M,40.593,M,2.9,0123*5B\r\n
$GPGGA,113052.70,5703.3626711,N,00952.2233654,E,2,9,0.9,-0.952,M,40.593,M,2.9,0123*5F\r\n
$GPGGA,113052.75,5703.3626757,N,00952.2232460,E,2,9,0.9,-0.954,M,40.593,M,2.9,0123*5A\r\n
$GPGGA,113052.80,5703.3626810,N,00952.2231257,E,2,9,0.9,-0.956,M,40.593,M,2.9,0123*5F\r\n
$GPGGA,113052.85,5703.3626873,N,00952.2230038,E,2,9,0.9,-0.958,M,40.593,M,3.1,0123*52\r\n
$GPGGA,113052.90,5703.3626931,N,00952.2228835,E,2,9,0.9,-0.958,M,40.593,M,3.1,0123*5D\r\n
$GPGGA,113052.95,5703.3627012,N,00952.2227644,E,2,9,0.9,-0.957,M,40.593,M,3.1,0123*59\r\n
$GPGGA,113053.00,5703.3627091,N,00952.2226444,E,2,9,0.9,-0.955,M,40.593,M,3.1,0123*5E\r\n
$GPGGA,113053.05,5703.3627181,N,00952.2225252,E,2,9,0.9,-0.954,M,40.593,M,3.4,0123*5D\r\n
$GPGGA,113053.10,5703.3627258,N,00952.2224060,E,2,9,0.9,-0.956,M,40.593,M,3.4,0123*5E\r\n
$GPGGA,113053.15,5703.3627322,N,00952.2222870,E,2,9,0.9,-0.953,M,40.593,M,3.4,0123*5D\r\n
$GPGGA,113053.20,5703.3627398,N,00952.2221669,E,2,9,0.9,-0.952,M,40.593,M,3.4,0123*5E\r\n
$GPGGA,113053.25,5703.3627484,N,00952.2220474,E,2,9,0.9,-0.951,M,40.593,M,1.6,0123*5D\r\n
$GPGGA,113053.30,5703.3627564,N,00952.2219268,E,2,9,0.9,-0.952,M,40.593,M,1.6,0123*54\r\n
$GPGGA,113053.35,5703.3627646,N,00952.2218072,E,2,9,0.9,-0.951,M,40.593,M,1.6,0123*59\r\n
$GPGGA,113053.40,5703.3627741,N,00952.2216864,E,2,9,0.9,-0.952,M,40.593,M,1.6,0123*5F\r\n
$GPGGA,113053.45,5703.3627840,N,00952.2215665,E,2,9,0.9,-0.956,M,40.593,M,1.8,0123*52\r\n
$GPGGA,113053.50,5703.3627936,N,00952.2214474,E,2,9,0.9,-0.954,M,40.593,M,1.8,0123*57\r\n
$GPGGA,113053.55,5703.3628046,N,00952.2213277,E,2,9,0.9,-0.955,M,40.593,M,1.8,0123*50\r\n
$GPGGA,113053.60,5703.3628149,N,00952.2212084,E,2,9,0.9,-0.958,M,40.593,M,1.8,0123*5A\r\n
$GPGGA,113053.65,5703.3628262,N,00952.2210888,E,2,9,0.9,-0.954,M,40.593,M,2.0,0123*54\r\n
$GPGGA,113053.70,5703.3628376,N,00952.2209707,E,2,9,0.9,-0.953,M,40.593,M,2.0,0123*53\r\n
$GPGGA,113053.75,5703.3628510,N,00952.2208535,E,2,9,0.9,-0.951,M,40.593,M,2.0,0123*50\r\n
$GPGGA,113053.80,5703.3628644,N,00952.2207355,E,2,9,0.9,-0.952,M,40.593,M,2.0,0123*54\r\n
$GPGGA,113053.85,5703.3628781,N,00952.2206165,E,2,9,0.9,-0.953,M,40.593,M,2.2,0123*5A\r\n
$GPGGA,113053.90,5703.3628917,N,00952.2204981,E,2,9,0.9,-0.954,M,40.593,M,2.2,0123*58\r\n
$GPGGA,113053.95,5703.3629061,N,00952.2203819,E,2,9,0.9,-0.953,M,40.593,M,2.2,0123*54\r\n
$GPGGA,113054.00,5703.3629202,N,00952.2202640,E,2,9,0.9,-0.953,M,40.593,M,2.2,0123*5B\r\n
$GPGGA,113054.05,5703.3629354,N,00952.2201477,E,2,9,0.9,-0.950,M,40.593,M,2.5,0123*5D\r\n
$GPGGA,113054.10,5703.3629501,N,00952.2200318,E,2,9,0.9,-0.949,M,40.593,M,2.5,0123*58\r\n
$GPGGA,113054.15,5703.3629649,N,00952.2199155,E,2,9,0.9,-0.948,M,40.593,M,2.5,0123*5B\r\n
$GPGGA,113054.20,5703.3629808,N,00952.2197983,E,2,9,0.9,-0.947,M,40.593,M,2.5,0123*54\r\n
$GPGGA,113054.25,5703.3629963,N,00952.2196823,E,2,9,0.9,-0.941,M,40.593,M,2.7,0123*53\r\n
$GPGGA,113054.30,5703.3630129,N,00952.2195681,E,2,9,0.9,-0.939,M,40.593,M,2.7,0123*53\r\n
$GPGGA,113054.35,5703.3630300,N,00952.2194528,E,2,9,0.9,-0.938,M,40.593,M,2.7,0123*5F\r\n
$GPGGA,113054.40,5703.3630463,N,00952.2193366,E,2,9,0.9,-0.937,M,40.593,M,2.7,0123*5B\r\n
$GPGGA,113054.45,5703.3630650,N,00952.2192223,E,2,9,0.9,-0.938,M,40.593,M,2.9,0123*5C\r\n
$GPGGA,113054.50,5703.3630832,N,00952.2191085,E,2,9,0.9,-0.940,M,40.593,M,2.9,0123*50\r\n
$GPGGA,113054.55,5703.3631024,N,00952.2189943,E,2,9,0.9,-0.942,M,40.593,M,2.9,0123*53\r\n
$GPGGA,113054.60,5703.3631211,N,00952.2188805,E,2,9,0.9,-0.944,M,40.593,M,2.9,0123*55\r\n
$GPGGA,113054.65,5703.3631416,N,00952.2187653,E,2,9,0.9,-0.949,M,40.593,M,3.1,0123*57\r\n
$GPGGA,113054.70,5703.3631632,N,00952.2186510,E,2,9,0.9,-0.953,M,40.593,M,3.1,0123*59\r\n
$GPGGA,113054.75,5703.3631850,N,00952.2185396,E,2,9,0.9,-0.957,M,40.593,M,3.1,0123*59\r\n
$GPGGA,113054.80,5703.3632069,N,00952.2184290,E,2,9,0.9,-0.959,M,40.593,M,3.1,0123*5A\r\n
$GPGGA,113054.85,5703.3632296,N,00952.2183188,E,2,9,0.9,-0.956,M,40.593,M,3.3,0123*5D\r\n
$GPGGA,113054.90,5703.3632528,N,00952.2182098,E,2,9,0.9,-0.957,M,40.593,M,3.3,0123*5B\r\n
$GPGGA,113054.95,5703.3632770,N,00952.2181023,E,2,9,0.9,-0.961,M,40.593,M,3.3,0123*57\r\n
$GPGGA,113055.00,5703.3633016,N,00952.2179955,E,2,9,0.9,-0.961,M,40.593,M,3.3,0123*53\r\n
$GPGGA,113055.05,5703.3633268,N,00952.2178886,E,2,9,0.9,-0.959,M,40.593,M,3.5,0123*5E\r\n
$GPGGA,113055.10,5703.3633521,N,00952.2177832,E,2,9,0.9,-0.957,M,40.593,M,3.5,0123*5E\r\n
$GPGGA,113055.15,5703.3633774,N,00952.2176789,E,2,9,0.9,-0.955,M,40.593,M,3.5,0123*55\r\n
$GPGGA,113055.20,5703.3634033,N,00952.2175744,E,2,9,0.9,-0.954,M,40.593,M,3.5,0123*53\r\n
$GPGGA,113055.25,5703.3634307,N,00952.2174723,E,2,9,0.9,-0.945,M,40.593,M,3.7,0123*50\r\n
$GPGGA,113055.30,5703.3634566,N,00952.2173705,E,2,9,0.9,-0.940,M,40.593,M,3.7,0123*53\r\n
$GPGGA,113055.35,5703.3634850,N,00952.2172682,E,2,9,0.9,-0.935,M,40.593,M,3.7,0123*53\r\n
$GPGGA,113055.40,5703.3635123,N,00952.2171676,E,2,9,0.9,-0.931,M,40.593,M,3.7,0123*51\r\n
$GPGGA,113055.45,5703.3635404,N,00952.2170672,E,2,9,0.9,-0.924,M,40.593,M,2.7,0123*54\r\n
$GPGGA,113055.50,5703.3635688,N,00952.2169685,E,2,9,0.9,-0.920,M,40.593,M,2.7,0123*52\r\n
$GPGGA,113055.55,5703.3635984,N,00952.2168712,E,2,9,0.9,-0.915,M,40.593,M,2.7,0123*5C\r\n
$GPGGA,113055.60,5703.3636289,N,00952.2167743,E,2,9,0.9,-0.916,M,40.593,M,2.7,0123*57\r\n
$GPGGA,113055.65,5703.3636594,N,00952.2166746,E,2,9,0.9,-0.922,M,40.593,M,2.9,0123*54\r\n
$GPGGA,113055.70,5703.3636905,N,00952.2165776,E,2,9,0.9,-0.926,M,40.593,M,2.9,0123*50\r\n
$GPGGA,113055.75,5703.3637213,N,00952.2164815,E,2,9,0.9,-0.931,M,40.593,M,2.9,0123*55\r\n
$GPGGA,113055.80,5703.3637530,N,00952.2163848,E,2,9,0.9,-0.936,M,40.593,M,2.9,0123*51\r\n
$GPGGA,113055.85,5703.3637854,N,00952.2162866,E,2,9,0.9,-0.946,M,40.593,M,3.2,0123*5B\r\n
$GPGGA,113055.90,5703.3638180,N,00952.2161905,E,2,9,0.9,-0.958,M,40.593,M,3.2,0123*58\r\n
$GPGGA,113055.95,5703.3638503,N,00952.2160977,E,2,9,0.9,-0.964,M,40.593,M,3.2,0123*59\r\n
$GPGGA,113056.00,5703.3638840,N,00952.2160050,E,2,9,0.9,-0.969,M,40.593,M,3.2,0123*5D\r\n
$GPGGA,113056.05,5703.3639184,N,00952.2159157,E,2,9,0.9,-0.979,M,40.593,M,3.4,0123*53\r\n
$GPGGA,113056.10,5703.3639536,N,00952.2158255,E,2,9,0.9,-0.984,M,40.593,M,3.4,0123*58\r\n
$GPGGA,113056.15,5703.3639887,N,00952.2157376,E,2,9,0.9,-0.988,M,40.593,M,3.4,0123*59\r\n
$GPGGA,113056.20,5703.3640248,N,00952.2156520,E,2,9,0.9,-0.987,M,40.593,M,3.4,0123*53\r\n
$GPGGA,113056.25,5703.3640618,N,00952.2155692,E,2,9,0.9,-0.983,M,40.593,M,3.6,0123*58\r\n
$GPGGA,113056.30,5703.3640970,N,00952.2154901,E,2,9,0.9,-0.980,M,40.593,M,3.6,0123*5A\r\n
$GPGGA,113056.35,5703.3641358,N,00952.2154096,E,2,9,0.9,-0.974,M,40.593,M,3.6,0123*52\r\n
$GPGGA,113056.40,5703.3641751,N,00952.2153318,E,2,9,0.9,-0.967,M,40.593,M,3.6,0123*5D\r\n
$GPGGA,113056.45,5703.3642134,N,00952.2152554,E,2,9,0.9,-0.959,M,40.593,M,2.6,0123*5D\r\n
$GPGGA,113056.50,5703.3642522,N,00952.2151817,E,2,9,0.9,-0.951,M,40.593,M,2.6,0123*5B\r\n
$GPGGA,113056.55,5703.3642904,N,00952.2151098,E,2,9,0.9,-0.941,M,40.593,M,2.6,0123*58\r\n
$GPGGA,113056.60,5703.3643274,N,00952.2150379,E,2,9,0.9,-0.933,M,40.593,M,2.6,0123*5B\r\n
$GPGGA,113056.65,5703.3643670,N,00952.2149656,E,2,9,0.9,-0.922,M,40.593,M,2.9,0123*51\r\n
$GPGGA,113056.70,5703.3644069,N,00952.2148931,E,2,9,0.9,-0.916,M,40.593,M,2.9,0123*54\r\n
$GPGGA,113056.75,5703.3644471,N,00952.2148195,E,2,9,0.9,-0.916,M,40.593,M,2.9,0123*5A\r\n
$GPGGA,113056.80,5703.3644867,N,00952.2147465,E,2,9,0.9,-0.914,M,40.593,M,2.9,0123*5C\r\n
$GPGGA,113056.85,5703.3645275,N,00952.2146739,E,2,9,0.9,-0.916,M,40.593,M,3.1,0123*51\r\n
$GPGGA,113056.90,5703.3645683,N,00952.2146008,E,2,9,0.9,-0.917,M,40.593,M,3.1,0123*5C\r\n
$GPGGA,113056.95,5703.3646088,N,00952.2145285,E,2,9,0.9,-0.922,M,40.593,M,3.1,0123*55\r\n
$GPGGA,113057.00,5703.3646494,N,00952.2144563,E,2,9,0.9,-0.929,M,40.593,M,3.1,0123*54\r\n
$GPGGA,113057.05,5703.3646916,N,00952.2143880,E,2,9,0.9,-0.939,M,40.593,M,3.4,0123*55\r\n
$GPGGA,113057.10,5703.3647340,N,00952.2143220,E,2,9,0.9,-0.945,M,40.593,M,3.4,0123*52\r\n
$GPGGA,113057.15,5703.3647760,N,00952.2142561,E,2,9,0.9,-0.955,M,40.593,M,3.4,0123*53\r\n
$GPGGA,113057.20,5703.3648180,N,00952.2141910,E,2,9,0.9,-0.963,M,40.593,M,3.4,0123*5E\r\n
$GPGGA,113057.25,5703.3648602,N,00952.2141276,E,2,9,0.9,-0.969,M,40.593,M,3.6,0123*55\r\n
$GPGGA,113057.30,5703.3649034,N,00952.2140658,E,2,9,0.9,-0.971,M,40.593,M,3.6,0123*53\r\n
$GPGGA,113057.35,5703.3649453,N,00952.2140064,E,2,9,0.9,-0.976,M,40.593,M,3.6,0123*5D\r\n
$GPGGA,113057.40,5703.3649902,N,00952.2139488,E,2,9,0.9,-0.980,M,40.593,M,3.6,0123*57\r\n
$GPGGA,113057.45,5703.3650341,N,00952.2138936,E,2,9,0.9,-0.980,M,40.593,M,1.8,0123*52\r\n
$GPGGA,113057.50,5703.3650773,N,00952.2138406,E,2,9,0.9,-0.983,M,40.593,M,1.8,0123*5E\r\n
$GPGGA,113057.55,5703.3651217,N,00952.2137884,E,2,9,0.9,-0.983,M,40.593,M,1.8,0123*54\r\n
$GPGGA,113057.60,5703.3651666,N,00952.2137377,E,2,9,0.9,-0.979,M,40.593,M,1.8,0123*52\r\n
$GPGGA,113057.65,5703.3652116,N,00952.2136893,E,2,9,0.9,-0.976,M,40.593,M,2.0,0123*50\r\n
$GPGGA,113057.70,5703.3652565,N,00952.2136422,E,2,9,0.9,-0.971,M,40.593,M,2.0,0123*55\r\n
$GPGGA,113057.75,5703.3653010,N,00952.2135980,E,2,9,0.9,-0.967,M,40.593,M,2.0,0123*57\r\n
$GPGGA,113057.80,5703.3653455,N,00952.2135573,E,2,9,0.9,-0.963,M,40.593,M,2.0,0123*5C\r\n
$GPGGA,113057.85,5703.3653912,N,00952.2135161,E,2,9,0.9,-0.953,M,40.593,M,2.2,0123*51\r\n
$GPGGA,113057.90,5703.3654357,N,00952.2134725,E,2,9,0.9,-0.950,M,40.593,M,2.2,0123*5D\r\n
$GPGGA,113057.95,5703.3654815,N,00952.2134307,E,2,9,0.9,-0.943,M,40.593,M,2.2,0123*53\r\n
$GPGGA,113058.00,5703.3655273,N,00952.2133913,E,2,9,0.9,-0.937,M,40.593,M,2.2,0123*50\r\n
$GPGGA,113058.05,5703.3655737,N,00952.2133543,E,2,9,0.9,-0.929,M,40.593,M,2.5,0123*51\r\n
$GPGGA,113058.10,5703.3656197,N,00952.2133144,E,2,9,0.9,-0.927,M,40.593,M,2.5,0123*57\r\n
$GPGGA,113058.15,5703.3656668,N,00952.2132745,E,2,9,0.9,-0.927,M,40.593,M,2.5,0123*53\r\n
$GPGGA,113058.20,5703.3657135,N,00952.2132363,E,2,9,0.9,-0.925,M,40.593,M,2.5,0123*59\r\n
$GPGGA,113058.25,5703.3657598,N,00952.2132007,E,2,9,0.9,-0.924,M,40.593,M,2.7,0123*5D\r\n
$GPGGA,113058.30,5703.3658062,N,00952.2131651,E,2,9,0.9,-0.925,M,40.593,M,2.7,0123*51\r\n
$GPGGA,113058.35,5703.3658544,N,00952.2131278,E,2,9,0.9,-0.926,M,40.593,M,2.7,0123*59\r\n
$GPGGA,113058.40,5703.3659020,N,00952.2130938,E,2,9,0.9,-0.928,M,40.593,M,2.7,0123*5D\r\n
$GPGGA,113058.45,5703.3659489,N,00952.2130609,E,2,9,0.9,-0.933,M,40.593,M,2.9,0123*56\r\n
$GPGGA,113058.50,5703.3659960,N,00952.2130300,E,2,9,0.9,-0.936,M,40.593,M,2.9,0123*51\r\n
$GPGGA,113058.55,5703.3660436,N,00952.2129993,E,2,9,0.9,-0.938,M,40.593,M,2.9,0123*56\r\n
$GPGGA,113058.60,5703.3660902,N,00952.2129725,E,2,9,0.9,-0.944,M,40.593,M,2.9,0123*52\r\n
$GPGGA,113058.65,5703.3661370,N,00952.2129446,E,2,9,0.9,-0.954,M,40.593,M,3.1,0123*57\r\n
$GPGGA,113058.70,5703.3661854,N,00952.2129166,E,2,9,0.9,-0.959,M,40.593,M,3.1,0123*54\r\n
$GPGGA,113058.75,5703.3662333,N,00952.2128908,E,2,9,0.9,-0.962,M,40.593,M,3.1,0123*51\r\n
$GPGGA,113058.80,5703.3662805,N,00952.2128648,E,2,9,0.9,-0.966,M,40.593,M,3.1,0123*5A\r\n
$GPGGA,113058.85,5703.3663275,N,00952.2128405,E,2,9,0.9,-0.965,M,40.593,M,3.3,0123*59\r\n
$GPGGA,113058.90,5703.3663746,N,00952.2128190,E,2,9,0.9,-0.966,M,40.593,M,3.3,0123*52\r\n
$GPGGA,113058.95,5703.3664224,N,00952.2127990,E,2,9,0.9,-0.969,M,40.593,M,3.3,0123*59\r\n
$GPGGA,113059.00,5703.3664694,N,00952.2127785,E,2,9,0.9,-0.972,M,40.593,M,3.3,0123*5B\r\n
$GPGGA,113059.05,5703.3665184,N,00952.2127580,E,2,9,0.9,-0.970,M,40.593,M,3.5,0123*5A\r\n
$GPGGA,113059.10,5703.3665662,N,00952.2127388,E,2,9,0.9,-0.969,M,40.593,M,3.5,0123*57\r\n
$GPGGA,113059.15,5703.3666126,N,00952.2127215,E,2,9,0.9,-0.966,M,40.593,M,3.5,0123*5C\r\n
$GPGGA,113059.20,5703.3666590,N,00952.2127037,E,2,9,0.9,-0.965,M,40.593,M,3.5,0123*52\r\n
$GPGGA,113059.25,5703.3667065,N,00952.2126868,E,2,9,0.9,-0.966,M,40.593,M,3.7,0123*5B\r\n
$GPGGA,113059.30,5703.3667535,N,00952.2126687,E,2,9,0.9,-0.968,M,40.593,M,3.7,0123*5E\r\n
$GPGGA,113059.35,5703.3668020,N,00952.2126511,E,2,9,0.9,-0.967,M,40.593,M,3.7,0123*56\r\n
$GPGGA,113059.40,5703.3668509,N,00952.2126374,E,2,9,0.9,-0.966,M,40.593,M,3.7,0123*5E\r\n
$GPGGA,113059.45,5703.3669002,N,00952.2126226,E,2,9,0.9,-0.970,M,40.593,M,1.1,0123*51\r\n
$GPGGA,113059.50,5703.3669486,N,00952.2126087,E,2,9,0.9,-0.970,M,40.593,M,1.1,0123*54\r\n
$GPGGA,113059.55,5703.3669980,N,00952.2125956,E,2,9,0.9,-0.970,M,40.593,M,1.1,0123*5C\r\n
$GPGGA,113059.60,5703.3670484,N,00952.2125853,E,2,9,0.9,-0.971,M,40.593,M,1.1,0123*5E\r\n
$GPGGA,113059.65,5703.3670976,N,00952.2125783,E,2,9,0.9,-0.968,M,40.593,M,1.5,0123*55\r\n
$GPGGA,113059.70,5703.3671465,N,00952.2125709,E,2,9,0.9,-0.966,M,40.593,M,1.5,0123*53\r\n
$GPGGA,113059.75,5703.3671961,N,00952.2125648,E,2,9,0.9,-0.966,M,40.593,M,1.5,0123*5B\r\n
$GPGGA,113059.80,5703.3672457,N,00952.2125602,E,2,9,0.9,-0.964,M,40.593,M,1.5,0123*56\r\n
$GPGGA,113059.85,5703.3672944,N,00952.2125577,E,2,9,0.9,-0.961,M,40.593,M,1.8,0123*55\r\n
$GPGGA,113059.90,5703.3673425,N,00952.2125560,E,2,9,0.9,-0.956,M,40.593,M,1.8,0123*58\r\n
$GPGGA,113059.95,5703.3673907,N,00952.2125569,E,2,9,0.9,-0.951,M,40.593,M,1.8,0123*5E\r\n
$GPGGA,113100.00,5703.3674399,N,00952.2125583,E,2,9,0.9,-0.946,M,40.593,M,1.8,0123*57\r\n
$GPGGA,113100.05,5703.3674894,N,00952.2125599,E,2,9,0.9,-0.946,M,40.593,M,2.1,0123*55\r\n
$GPGGA,113100.10,5703.3675380,N,00952.2125635,E,2,9,0.9,-0.943,M,40.593,M,2.1,0123*5E\r\n
$GPGGA,113100.15,5703.3675861,N,00952.2125688,E,2,9,0.9,-0.939,M,40.593,M,2.1,0123*54\r\n
$GPGGA,113100.20,5703.3676358,N,00952.2125739,E,2,9,0.9,-0.936,M,40.593,M,2.1,0123*54\r\n
$GPGGA,113100.25,5703.3676854,N,00952.2125807,E,2,9,0.9,-0.930,M,40.593,M,2.4,0123*57\r\n
$GPGGA,113100.30,5703.3677339,N,00952.2125882,E,2,9,0.9,-0.930,M,40.593,M,2.4,0123*5F\r\n
$GPGGA,113100.35,5703.3677837,N,00952.2125978,E,2,9,0.9,-0.928,M,40.593,M,2.4,0123*52\r\n
$GPGGA,113100.40,5703.3678316,N,00952.2126085,E,2,9,0.9,-0.926,M,40.593,M,2.4,0123*51\r\n
$GPGGA,113100.45,5703.3678809,N,00952.2126188,E,2,9,0.9,-0.930,M,40.593,M,0.6,0123*5A\r\n
$GPGGA,113100.50,5703.3679306,N,00952.2126291,E,2,9,0.9,-0.930,M,40.593,M,0.6,0123*50\r\n
$GPGGA,113100.55,5703.3679789,N,00952.2126405,E,2,9,0.9,-0.933,M,40.593,M,0.6,0123*5E\r\n
$GPGGA,113100.60,5703.3680279,N,00952.2126536,E,2,9,0.9,-0.935,M,40.593,M,0.6,0123*53\r\n
$GPGGA,113100.65,5703.3680758,N,00952.2126664,E,2,9,0.9,-0.939,M,40.593,M,0.9,0123*57\r\n
$GPGGA,113100.70,5703.3681240,N,00952.2126798,E,2,9,0.9,-0.941,M,40.593,M,0.9,0123*53\r\n
$GPGGA,113100.75,5703.3681740,N,00952.2126939,E,2,9,0.9,-0.937,M,40.593,M,0.9,0123*57\r\n
$GPGGA,113100.80,5703.3682235,N,00952.2127087,E,2,9,0.9,-0.934,M,40.593,M,0.9,0123*57\r\n
$GPGGA,113100.85,5703.3682727,N,00952.2127256,E,2,9,0.9,-0.935,M,40.593,M,1.1,0123*52\r\n
$GPGGA,113100.90,5703.3683209,N,00952.2127411,E,2,9,0.9,-0.937,M,40.593,M,1.1,0123*59\r\n
$GPGGA,113100.95,5703.3683676,N,00952.2127579,E,2,9,0.9,-0.935,M,40.593,M,1.1,0123*5D\r\n
$GPGGA,113101.00,5703.3684146,N,00952.2127777,E,2,9,0.9,-0.931,M,40.593,M,1.1,0123*5B\r\n
$GPGGA,113101.05,5703.3684628,N,00952.2127979,E,2,9,0.9,-0.932,M,40.593,M,1.3,0123*50\r\n
$GPGGA,113101.10,5703.3685101,N,00952.2128175,E,2,9,0.9,-0.930,M,40.593,M,1.3,0123*50\r\n
$GPGGA,113101.15,5703.3685559,N,00952.2128393,E,2,9,0.9,-0.929,M,40.593,M,1.3,0123*5E\r\n
$GPGGA,113101.20,5703.3686026,N,00952.2128614,E,2,9,0.9,-0.927,M,40.593,M,1.3,0123*52\r\n
$GPGGA,113101.25,5703.3686491,N,00952.2128845,E,2,9,0.9,-0.921,M,40.593,M,1.6,0123*56\r\n
$GPGGA,113101.30,5703.3686937,N,00952.2129094,E,2,9,0.9,-0.919,M,40.593,M,1.6,0123*5D\r\n
$GPGGA,113101.35,5703.3687397,N,00952.2129348,E,2,9,0.9,-0.917,M,40.593,M,1.6,0123*55\r\n
$GPGGA,113101.40,5703.3687841,N,00952.2129605,E,2,9,0.9,-0.917,M,40.593,M,1.6,0123*5B\r\n
$GPGGA,113101.45,5703.3688293,N,00952.2129869,E,2,9,0.9,-0.921,M,40.593,M,1.8,0123*5B\r\n
$GPGGA,113101.50,5703.3688743,N,00952.2130165,E,2,9,0.9,-0.921,M,40.593,M,1.8,0123*5A\r\n
$GPGGA,113101.55,5703.3689184,N,00952.2130454,E,2,9,0.9,-0.924,M,40.593,M,1.8,0123*51\r\n
$GPGGA,113101.60,5703.3689629,N,00952.2130741,E,2,9,0.9,-0.928,M,40.593,M,1.8,0123*5C\r\n
$GPGGA,113101.65,5703.3690082,N,00952.2131049,E,2,9,0.9,-0.929,M,40.593,M,2.0,0123*52\r\n
$GPGGA,113101.70,5703.3690521,N,00952.2131370,E,2,9,0.9,-0.935,M,40.593,M,2.0,0123*5E\r\n
$GPGGA,113101.75,5703.3690961,N,00952.2131697,E,2,9,0.9,-0.939,M,40.593,M,2.0,0123*53\r\n
$GPGGA,113101.80,5703.3691406,N,00952.2132014,E,2,9,0.9,-0.947,M,40.593,M,2.0,0123*53\r\n
$GPGGA,113101.85,5703.3691838,N,00952.2132345,E,2,9,0.9,-0.956,M,40.593,M,2.2,0123*52\r\n
$GPGGA,113101.90,5703.3692269,N,00952.2132704,E,2,9,0.9,-0.963,M,40.593,M,2.2,0123*5C\r\n
$GPGGA,113101.95,5703.3692707,N,00952.2133051,E,2,9,0.9,-0.968,M,40.593,M,2.2,0123*59\r\n
$GPGGA,113102.00,5703.3693151,N,00952.2133398,E,2,9,0.9,-0.974,M,40.593,M,2.2,0123*59\r\n
$GPGGA,113102.05,5703.3693604,N,00952.2133753,E,2,9,0.9,-0.981,M,40.593,M,2.5,0123*55\r\n
$GPGGA,113102.10,5703.3694047,N,00952.2134110,E,2,9,0.9,-0.989,M,40.593,M,2.5,0123*59\r\n
$GPGGA,113102.15,5703.3694489,N,00952.2134485,E,2,9,0.9,-0.995,M,40.593,M,2.5,0123*5E\r\n
$GPGGA,113102.20,5703.3694930,N,00952.2134866,E,2,9,0.9,-0.998,M,40.593,M,2.5,0123*5B\r\n
$GPGGA,113102.25,5703.3695377,N,00952.2135240,E,2,9,0.9,-1.002,M,40.593,M,2.7,0123*50\r\n
$GPGGA,113102.30,5703.3695829,N,00952.2135624,E,2,9,0.9,-1.004,M,40.593,M,2.7,0123*54\r\n
$GPGGA,113102.35,5703.3696292,N,00952.2135993,E,2,9,0.9,-1.008,M,40.593,M,2.7,0123*57\r\n
$GPGGA,113102.40,5703.3696744,N,00952.2136384,E,2,9,0.9,-1.012,M,40.593,M,2.7,0123*5F\r\n
$GPGGA,113102.45,5703.3697196,N,00952.2136792,E,2,9,0.9,-1.013,M,40.593,M,2.9,0123*5E\r\n
$GPGGA,113102.50,5703.3697651,N,00952.2137206,E,2,9,0.9,-1.015,M,40.593,M,2.9,0123*59\r\n
$GPGGA,113102.55,5703.3698103,N,00952.2137631,E,2,9,0.9,-1.014,M,40.593,M,2.9,0123*52\r\n
$GPGGA,113102.60,5703.3698553,N,00952.2138061,E,2,9,0.9,-1.014,M,40.593,M,2.9,0123*59\r\n
$GPGGA,113102.65,5703.3699009,N,00952.2138523,E,2,9,0.9,-1.008,M,40.593,M,3.1,0123*50\r\n
$GPGGA,113102.70,5703.3699456,N,00952.2138996,E,2,9,0.9,-1.004,M,40.593,M,3.1,0123*54\r\n
$GPGGA,113102.75,5703.3699913,N,00952.2139482,E,2,9,0.9,-1.001,M,40.593,M,3.1,0123*51\r\n
$GPGGA,113102.80,5703.3700359,N,00952.2139965,E,2,9,0.9,-0.997,M,40.593,M,3.1,0123*5D\r\n
$GPGGA,113102.85,5703.3700796,N,00952.2140478,E,2,9,0.9,-0.993,M,40.593,M,3.3,0123*56\r\n
$GPGGA,113102.90,5703.3701241,N,00952.2140995,E,2,9,0.9,-0.989,M,40.593,M,3.3,0123*59\r\n
$GPGGA,113102.95,5703.3701683,N,00952.2141523,E,2,9,0.9,-0.984,M,40.593,M,3.3,0123*5B\r\n
$GPGGA,113103.00,5703.3702121,N,00952.2142077,E,2,9,0.9,-0.978,M,40.593,M,3.3,0123*5E\r\n
$GPGGA,113103.05,5703.3702563,N,00952.2142638,E,2,9,0.9,-0.970,M,40.593,M,3.5,0123*5A\r\n
$GPGGA,113103.10,5703.3703002,N,00952.2143199,E,2,9,0.9,-0.962,M,40.593,M,3.5,0123*53\r\n
$GPGGA,113103.15,5703.3703444,N,00952.2143764,E,2,9,0.9,-0.955,M,40.593,M,3.5,0123*50\r\n
$GPGGA,113103.20,5703.3703876,N,00952.2144351,E,2,9,0.9,-0.949,M,40.593,M,3.5,0123*53\r\n
$GPGGA,113103.25,5703.3704294,N,00952.2144961,E,2,9,0.9,-0.945,M,40.593,M,3.7,0123*50\r\n
$GPGGA,113103.30,5703.3704703,N,00952.2145575,E,2,9,0.9,-0.940,M,40.593,M,3.7,0123*52\r\n
$GPGGA,113103.35,5703.3705120,N,00952.2146196,E,2,9,0.9,-0.934,M,40.593,M,3.7,0123*58\r\n
$GPGGA,113103.40,5703.3705537,N,00952.2146817,E,2,9,0.9,-0.929,M,40.593,M,3.7,0123*54\r\n
$GPGGA,113103.45,5703.3705956,N,00952.2147418,E,2,9,0.9,-0.930,M,40.593,M,2.7,0123*51\r\n
$GPGGA,113103.50,5703.3706363,N,00952.2148040,E,2,9,0.9,-0.929,M,40.593,M,2.7,0123*54\r\n
$GPGGA,113103.55,5703.3706763,N,00952.2148686,E,2,9,0.9,-0.923,M,40.593,M,2.7,0123*53\r\n
$GPGGA,113103.60,5703.3707158,N,00952.2149335,E,2,9,0.9,-0.920,M,40.593,M,2.7,0123*55\r\n
$GPGGA,113103.65,5703.3707563,N,00952.2149973,E,2,9,0.9,-0.916,M,40.593,M,2.9,0123*5F\r\n
$GPGGA,113103.70,5703.3707960,N,00952.2150609,E,2,9,0.9,-0.916,M,40.593,M,2.9,0123*5E\r\n
$GPGGA,113103.75,5703.3708345,N,00952.2151255,E,2,9,0.9,-0.914,M,40.593,M,2.9,0123*57\r\n
$GPGGA,113103.80,5703.3708724,N,00952.2151892,E,2,9,0.9,-0.914,M,40.593,M,2.9,0123*5F\r\n
$GPGGA,113103.85,5703.3709112,N,00952.2152523,E,2,9,0.9,-0.910,M,40.593,M,3.2,0123*52\r\n
$GPGGA,113103.90,5703.3709481,N,00952.2153173,E,2,9,0.9,-0.909,M,40.593,M,3.2,0123*51\r\n
$GPGGA,113103.95,5703.3709863,N,00952.2153817,E,2,9,0.9,-0.909,M,40.593,M,3.2,0123*5F\r\n
$GPGGA,113104.00,5703.3710253,N,00952.2154460,E,2,9,0.9,-0.907,M,40.593,M,3.2,0123*50\r\n
$GPGGA,113104.05,5703.3710639,N,00952.2155103,E,2,9,0.9,-0.909,M,40.593,M,3.4,0123*54\r\n
$GPGGA,113104.10,5703.3711021,N,00952.2155740,E,2,9,0.9,-0.908,M,40.593,M,3.4,0123*5E\r\n
$GPGGA,113104.15,5703.3711385,N,00952.2156389,E,2,9,0.9,-0.908,M,40.593,M,3.4,0123*54\r\n
$GPGGA,113104.20,5703.3711741,N,00952.2157058,E,2,9,0.9,-0.911,M,40.593,M,3.4,0123*58\r\n
$GPGGA,113104.25,5703.3712090,N,00952.2157718,E,2,9,0.9,-0.921,M,40.593,M,3.6,0123*57\r\n
$GPGGA,113104.30,5703.3712455,N,00952.2158378,E,2,9,0.9,-0.926,M,40.593,M,3.6,0123*54\r\n
$GPGGA,113104.35,5703.3712810,N,00952.2159039,E,2,9,0.9,-0.931,M,40.593,M,3.6,0123*5D\r\n
$GPGGA,113104.40,5703.3713164,N,00952.2159708,E,2,9,0.9,-0.932,M,40.593,M,3.6,0123*52\r\n
$GPGGA,113104.45,5703.3713536,N,00952.2160378,E,2,9,0.9,-0.937,M,40.593,M,2.6,0123*59\r\n
$GPGGA,113104.50,5703.3713881,N,00952.2161051,E,2,9,0.9,-0.940,M,40.593,M,2.6,0123*55\r\n
$GPGGA,113104.55,5703.3714229,N,00952.2161726,E,2,9,0.9,-0.944,M,40.593,M,2.6,0123*5C\r\n
$GPGGA,113104.60,5703.3714575,N,00952.2162396,E,2,9,0.9,-0.950,M,40.593,M,2.6,0123*5D\r\n
$GPGGA,113104.65,5703.3714919,N,00952.2163066,E,2,9,0.9,-0.953,M,40.593,M,2.9,0123*5F\r\n
$GPGGA,113104.70,5703.3715248,N,00952.2163735,E,2,9,0.9,-0.955,M,40.593,M,2.9,0123*52\r\n
$GPGGA,113104.75,5703.3715584,N,00952.2164426,E,2,9,0.9,-0.960,M,40.593,M,2.9,0123*50\r\n
$GPGGA,113104.80,5703.3715917,N,00952.2165124,E,2,9,0.9,-0.963,M,40.593,M,2.9,0123*59\r\n
$GPGGA,113104.85,5703.3716253,N,00952.2165801,E,2,9,0.9,-0.967,M,40.593,M,3.1,0123*57\r\n
$GPGGA,113104.90,5703.3716597,N,00952.2166480,E,2,9,0.9,-0.969,M,40.593,M,3.1,0123*54\r\n
$GPGGA,113104.95,5703.3716928,N,00952.2167164,E,2,9,0.9,-0.969,M,40.593,M,3.1,0123*57\r\n
$GPGGA,113105.00,5703.3717260,N,00952.2167850,E,2,9,0.9,-0.968,M,40.593,M,3.1,0123*53\r\n
$GPGGA,113105.05,5703.3717606,N,00952.2168548,E,2,9,0.9,-0.966,M,40.593,M,3.4,0123*52\r\n
$GPGGA,113105.10,5703.3717942,N,00952.2169245,E,2,9,0.9,-0.966,M,40.593,M,3.4,0123*52\r\n
$GPGGA,113105.15,5703.3718265,N,00952.2169943,E,2,9,0.9,-0.968,M,40.593,M,3.4,0123*55\r\n
$GPGGA,113105.20,5703.3718597,N,00952.2170645,E,2,9,0.9,-0.967,M,40.593,M,3.4,0123*57\r\n
$GPGGA,113105.25,5703.3718935,N,00952.2171346,E,2,9,0.9,-0.967,M,40.593,M,3.6,0123*53\r\n
$GPGGA,113105.30,5703.3719259,N,00952.2172056,E,2,9,0.9,-0.968,M,40.593,M,3.6,0123*59\r\n
$GPGGA,113105.35,5703.3719587,N,00952.2172761,E,2,9,0.9,-0.967,M,40.593,M,3.6,0123*54\r\n
$GPGGA,113105.40,5703.3719911,N,00952.2173470,E,2,9,0.9,-0.967,M,40.593,M,3.6,0123*57\r\n
$GPGGA,113105.45,5703.3720244,N,00952.2174189,E,2,9,0.9,-0.965,M,40.593,M,1.8,0123*59\r\n
$GPGGA,113105.50,5703.3720574,N,00952.2174907,E,2,9,0.9,-0.965,M,40.593,M,1.8,0123*57\r\n
$GPGGA,113105.55,5703.3720902,N,00952.2175644,E,2,9,0.9,-0.964,M,40.593,M,1.8,0123*57\r\n
$GPGGA,113105.60,5703.3721228,N,00952.2176370,E,2,9,0.9,-0.964,M,40.593,M,1.8,0123*52\r\n
$GPGGA,113105.65,5703.3721551,N,00952.2177096,E,2,9,0.9,-0.965,M,40.593,M,2.0,0123*5E\r\n
$GPGGA,113105.70,5703.3721878,N,00952.2177827,E,2,9,0.9,-0.966,M,40.593,M,2.0,0123*5D\r\n
$GPGGA,113105.75,5703.3722214,N,00952.2178574,E,2,9,0.9,-0.967,M,40.593,M,2.0,0123*5E\r\n
$GPGGA,113105.80,5703.3722535,N,00952.2179324,E,2,9,0.9,-0.969,M,40.593,M,2.0,0123*5C\r\n
$GPGGA,113105.85,5703.3722854,N,00952.2180078,E,2,9,0.9,-0.972,M,40.593,M,2.2,0123*57\r\n
$GPGGA,113105.90,5703.3723178,N,00952.2180824,E,2,9,0.9,-0.975,M,40.593,M,2.2,0123*53\r\n
$GPGGA,113105.95,5703.3723509,N,00952.2181564,E,2,9,0.9,-0.976,M,40.593,M,2.2,0123*5F\r\n
$GPGGA,113106.00,5703.3723845,N,00952.2182318,E,2,9,0.9,-0.978,M,40.593,M,2.2,0123*55\r\n
$GPGGA,113106.05,5703.3724187,N,00952.2183076,E,2,9,0.9,-0.978,M,40.593,M,2.5,0123*5D\r\n
$GPGGA,113106.10,5703.3724521,N,00952.2183832,E,2,9,0.9,-0.979,M,40.593,M,2.5,0123*58\r\n
$GPGGA,113106.15,5703.3724851,N,00952.2184584,E,2,9,0.9,-0.980,M,40.593,M,2.5,0123*56\r\n
$GPGGA,113106.20,5703.3725184,N,00952.2185344,E,2,9,0.9,-0.982,M,40.593,M,2.5,0123*59\r\n
$GPGGA,113106.25,5703.3725524,N,00952.2186107,E,2,9,0.9,-0.983,M,40.593,M,2.7,0123*57\r\n
$GPGGA,113106.30,5703.3725857,N,00952.2186859,E,2,9,0.9,-0.985,M,40.593,M,2.7,0123*5E\r\n
$GPGGA,113106.35,5703.3726188,N,00952.2187618,E,2,9,0.9,-0.988,M,40.593,M,2.7,0123*54\r\n
$GPGGA,113106.40,5703.3726523,N,00952.2188385,E,2,9,0.9,-0.987,M,40.593,M,2.7,0123*52\r\n
$GPGGA,113106.45,5703.3726865,N,00952.2189167,E,2,9,0.9,-0.987,M,40.593,M,2.9,0123*59\r\n
$GPGGA,113106.50,5703.3727199,N,00952.2189926,E,2,9,0.9,-0.988,M,40.593,M,2.9,0123*54\r\n
$GPGGA,113106.55,5703.3727547,N,00952.2190697,E,2,9,0.9,-0.987,M,40.593,M,2.9,0123*54\r\n
$GPGGA,113106.60,5703.3727886,N,00952.2191471,E,2,9,0.9,-0.986,M,40.593,M,2.9,0123*58\r\n
$GPGGA,113106.65,5703.3728228,N,00952.2192242,E,2,9,0.9,-0.987,M,40.593,M,3.1,0123*51\r\n
$GPGGA,113106.70,5703.3728568,N,00952.2193014,E,2,9,0.9,-0.986,M,40.593,M,3.1,0123*57\r\n
$GPGGA,113106.75,5703.3728912,N,00952.2193783,E,2,9,0.9,-0.985,M,40.593,M,3.1,0123*59\r\n
$GPGGA,113106.80,5703.3729258,N,00952.2194563,E,2,9,0.9,-0.982,M,40.593,M,3.1,0123*5B\r\n
$GPGGA,113106.85,5703.3729617,N,00952.2195339,E,2,9,0.9,-0.983,M,40.593,M,3.3,0123*5A\r\n
$GPGGA,113106.90,5703.3729969,N,00952.2196105,E,2,9,0.9,-0.983,M,40.593,M,3.3,0123*56\r\n
$GPGGA,113106.95,5703.3730324,N,00952.2196883,E,2,9,0.9,-0.982,M,40.593,M,3.3,0123*5E\r\n
$GPGGA,113107.00,5703.3730682,N,00952.2197668,E,2,9,0.9,-0.983,M,40.593,M,3.3,0123*51\r\n
$GPGGA,113107.05,5703.3731033,N,00952.2198468,E,2,9,0.9,-0.978,M,40.593,M,3.5,0123*56\r\n
$GPGGA,113107.10,5703.3731378,N,00952.2199255,E,2,9,0.9,-0.978,M,40.593,M,3.5,0123*57\r\n
$GPGGA,113107.15,5703.3731732,N,00952.2200029,E,2,9,0.9,-0.979,M,40.593,M,3.5,0123*53\r\n
$GPGGA,113107.20,5703.3732103,N,00952.2200801,E,2,9,0.9,-0.977,M,40.593,M,3.5,0123*5E\r\n
$GPGGA,113107.25,5703.3732473,N,00952.2201585,E,2,9,0.9,-0.975,M,40.593,M,3.7,0123*59\r\n
$GPGGA,113107.30,5703.3732830,N,00952.2202365,E,2,9,0.9,-0.973,M,40.593,M,3.7,0123*5B\r\n
$GPGGA,113107.35,5703.3733183,N,00952.2203148,E,2,9,0.9,-0.974,M,40.593,M,3.7,0123*55\r\n
$GPGGA,113107.40,5703.3733533,N,00952.2203945,E,2,9,0.9,-0.979,M,40.593,M,3.7,0123*50\r\n
$GPGGA,113107.45,5703.3733905,N,00952.2204747,E,2,9,0.9,-0.975,M,40.593,M,2.7,0123*5A\r\n
$GPGGA,113107.50,5703.3734272,N,00952.2205534,E,2,9,0.9,-0.974,M,40.593,M,2.7,0123*54\r\n
$GPGGA,113107.55,5703.3734640,N,00952.2206302,E,2,9,0.9,-0.974,M,40.593,M,2.7,0123*54\r\n
$GPGGA,113107.60,5703.3735020,N,00952.2207062,E,2,9,0.9,-0.974,M,40.593,M,2.7,0123*57\r\n
$GPGGA,113107.65,5703.3735398,N,00952.2207825,E,2,9,0.9,-0.972,M,40.593,M,2.9,0123*51\r\n
$GPGGA,113107.70,5703.3735783,N,00952.2208580,E,2,9,0.9,-0.972,M,40.593,M,2.9,0123*56\r\n
$GPGGA,113107.75,5703.3736165,N,00952.2209351,E,2,9,0.9,-0.974,M,40.593,M,2.9,0123*53\r\n
$GPGGA,113107.80,5703.3736540,N,00952.2210107,E,2,9,0.9,-0.976,M,40.593,M,2.9,0123*51\r\n
$GPGGA,113107.85,5703.3736927,N,00952.2210849,E,2,9,0.9,-0.978,M,40.593,M,3.2,0123*5E\r\n
$GPGGA,113107.90,5703.3737309,N,00952.2211600,E,2,9,0.9,-0.979,M,40.593,M,3.2,0123*5E\r\n
$GPGGA,113107.95,5703.3737708,N,00952.2212329,E,2,9,0.9,-0.979,M,40.593,M,3.2,0123*53\r\n
$GPGGA,113108.00,5703.3738103,N,00952.2213080,E,2,9,0.9,-0.978,M,40.593,M,3.2,0123*52\r\n
$GPGGA,113108.05,5703.3738505,N,00952.2213844,E,2,9,0.9,-0.971,M,40.593,M,3.4,0123*5A\r\n
$GPGGA,113108.10,5703.3738903,N,00952.2214564,E,2,9,0.9,-0.973,M,40.593,M,3.4,0123*5E\r\n
$GPGGA,113108.15,5703.3739291,N,00952.2215296,E,2,9,0.9,-0.974,M,40.593,M,3.4,0123*56\r\n
$GPGGA,113108.20,5703.3739691,N,00952.2216017,E,2,9,0.9,-0.972,M,40.593,M,3.4,0123*5A\r\n
$GPGGA,113108.25,5703.3740088,N,00952.2216729,E,2,9,0.9,-0.971,M,40.593,M,3.6,0123*54\r\n
$GPGGA,113108.30,5703.3740486,N,00952.2217462,E,2,9,0.9,-0.970,M,40.593,M,3.6,0123*56\r\n
$GPGGA,113108.35,5703.3740895,N,00952.2218186,E,2,9,0.9,-0.969,M,40.593,M,3.6,0123*55\r\n
$GPGGA,113108.40,5703.3741305,N,00952.2218886,E,2,9,0.9,-0.968,M,40.593,M,3.6,0123*5C\r\n
$GPGGA,113108.45,5703.3741710,N,00952.2219597,E,2,9,0.9,-0.961,M,40.593,M,2.6,0123*5D\r\n
$GPGGA,113108.50,5703.3742111,N,00952.2220291,E,2,9,0.9,-0.959,M,40.593,M,2.6,0123*5D\r\n
$GPGGA,113108.55,5703.3742526,N,00952.2220985,E,2,9,0.9,-0.959,M,40.593,M,2.6,0123*56\r\n
$GPGGA,113108.60,5703.3742939,N,00952.2221676,E,2,9,0.9,-0.961,M,40.593,M,2.6,0123*5B\r\n
$GPGGA,113108.65,5703.3743365,N,00952.2222354,E,2,9,0.9,-0.957,M,40.593,M,2.9,0123*50\r\n
$GPGGA,113108.70,5703.3743790,N,00952.2223029,E,2,9,0.9,-0.955,M,40.593,M,2.9,0123*50\r\n
$GPGGA,113108.75,5703.3744216,N,00952.2223695,E,2,9,0.9,-0.954,M,40.593,M,2.9,0123*59\r\n
$GPGGA,113108.80,5703.3744640,N,00952.2224364,E,2,9,0.9,-0.952,M,40.593,M,2.9,0123*5E\r\n
$GPGGA,113108.85,5703.3745074,N,00952.2225031,E,2,9,0.9,-0.948,M,40.593,M,3.1,0123*5B\r\n
$GPGGA,113108.90,5703.3745505,N,00952.2225686,E,2,9,0.9,-0.947,M,40.593,M,3.1,0123*59\r\n
$GPGGA,113108.95,5703.3745939,N,00952.2226325,E,2,9,0.9,-0.947,M,40.593,M,3.1,0123*50\r\n
$GPGGA,113109.00,5703.3746368,N,00952.2226971,E,2,9,0.9,-0.946,M,40.593,M,3.1,0123*5A\r\n
$GPGGA,113109.05,5703.3746801,N,00952.2227633,E,2,9,0.9,-0.940,M,40.593,M,3.4,0123*50\r\n
$GPGGA,113109.10,5703.3747240,N,00952.2228277,E,2,9,0.9,-0.939,M,40.593,M,3.4,0123*5F\r\n
$GPGGA,113109.15,5703.3747681,N,00952.2228915,E,2,9,0.9,-0.938,M,40.593,M,3.4,0123*5D\r\n
$GPGGA,113109.20,5703.3748124,N,00952.2229521,E,2,9,0.9,-0.939,M,40.593,M,3.4,0123*57\r\n
$GPGGA,113109.25,5703.3748567,N,00952.2230139,E,2,9,0.9,-0.941,M,40.593,M,3.6,0123*59\r\n
$GPGGA,113109.30,5703.3749014,N,00952.2230738,E,2,9,0.9,-0.940,M,40.593,M,3.6,0123*5B\r\n
$GPGGA,113109.35,5703.3749468,N,00952.2231331,E,2,9,0.9,-0.939,M,40.593,M,3.6,0123*53\r\n
$GPGGA,113109.40,5703.3749928,N,00952.2231912,E,2,9,0.9,-0.936,M,40.593,M,3.6,0123*5C\r\n
$GPGGA,113109.45,5703.3750387,N,00952.2232483,E,2,9,0.9,-0.934,M,40.593,M,1.8,0123*56\r\n
$GPGGA,113109.50,5703.3750848,N,00952.2233027,E,2,9,0.9,-0.933,M,40.593,M,1.8,0123*56\r\n
$GPGGA,113109.55,5703.3751296,N,00952.2233605,E,2,9,0.9,-0.932,M,40.593,M,1.8,0123*5C\r\n
$GPGGA,113109.60,5703.3751751,N,00952.2234164,E,2,9,0.9,-0.930,M,40.593,M,1.8,0123*51\r\n
$GPGGA,113109.65,5703.3752210,N,00952.2234714,E,2,9,0.9,-0.931,M,40.593,M,2.0,0123*5C\r\n
$GPGGA,113109.70,5703.3752679,N,00952.2235272,E,2,9,0.9,-0.928,M,40.593,M,2.0,0123*5F\r\n
$GPGGA,113109.75,5703.3753142,N,00952.2235807,E,2,9,0.9,-0.930,M,40.593,M,2.0,0123*55\r\n
$GPGGA,113109.80,5703.3753621,N,00952.2236329,E,2,9,0.9,-0.929,M,40.593,M,2.0,0123*51\r\n
$GPGGA,113109.85,5703.3754090,N,00952.2236853,E,2,9,0.9,-0.923,M,40.593,M,2.2,0123*51\r\n
