$GPGGA,094153.05,5703.4479841,N,00952.4173730,E,2,10,0.8,-1.248,M,40.593,M,2.9,0123*6C\r\n
$GPGGA,094153.10,5703.4480162,N,00952.4173748,E,2,10,0.8,-1.251,M,40.593,M,2.9,0123*61\r\n
$GPGGA,094153.15,5703.4480493,N,00952.4173788,E,2,10,0.8,-1.253,M,40.593,M,2.9,0123*61\r\n
$GPGGA,094153.20,5703.4480805,N,00952.4173817,E,2,10,0.8,-1.259,M,40.593,M,2.9,0123*67\r\n
$GPGGA,094153.25,5703.4481134,N,00952.4173844,E,2,10,0.8,-1.256,M,40.593,M,3.2,0123*6B\r\n
$GPGGA,094153.30,5703.4481447,N,00952.4173895,E,2,10,0.8,-1.256,M,40.593,M,3.2,0123*62\r\n
$GPGGA,094153.35,5703.4481761,N,00952.4173936,E,2,10,0.8,-1.254,M,40.593,M,3.2,0123*6A\r\n
$GPGGA,094153.40,5703.4482079,N,00952.4174001,E,2,10,0.8,-1.253,M,40.593,M,3.2,0123*68\r\n
$GPGGA,094153.45,5703.4482381,N,00952.4174051,E,2,10,0.8,-1.255,M,40.593,M,3.4,0123*6C\r\n
$GPGGA,094153.50,5703.4482690,N,00952.4174101,E,2,10,0.8,-1.252,M,40.593,M,3.4,0123*6E\r\n
$GPGGA,094153.55,5703.4483016,N,00952.4174172,E,2,10,0.8,-1.246,M,40.593,M,3.4,0123*63\r\n
$GPGGA,094153.60,5703.4483327,N,00952.4174214,E,2,10,0.8,-1.240,M,40.593,M,3.4,0123*61\r\n
$GPGGA,094153.65,5703.4483641,N,00952.4174248,E,2,10,0.8,-1.232,M,40.593,M,3.6,0123*6F\r\n
$GPGGA,094153.70,5703.4483956,N,00952.4174305,E,2,10,0.8,-1.229,M,40.593,M,3.6,0123*60\r\n
$GPGGA,094153.75,5703.4484257,N,00952.4174363,E,2,10,0.8,-1.223,M,40.593,M,3.6,0123*62\r\n
$GPGGA,094153.80,5703.4484571,N,00952.4174421,E,2,10,0.8,-1.219,M,40.593,M,3.6,0123*63\r\n
$GPGGA,094153.85,5703.4484892,N,00952.4174473,E,2,10,0.8,-1.216,M,40.593,M,3.8,0123*60\r\n
$GPGGA,094153.90,5703.4485201,N,00952.4174530,E,2,10,0.8,-1.215,M,40.593,M,3.8,0123*60\r\n
$GPGGA,094153.95,5703.4485523,N,00952.4174586,E,2,10,0.8,-1.212,M,40.593,M,3.8,0123*68\r\n
$GPGGA,094154.00,5703.4485846,N,00952.4174647,E,2,10,0.8,-1.210,M,40.593,M,3.8,0123*61\r\n
$GPGGA,094154.05,5703.4486156,N,00952.4174688,E,2,10,0.8,-1.207,M,40.593,M,4.0,0123*65\r\n
$GPGGA,094154.10,5703.4486482,N,00952.4174723,E,2,10,0.8,-1.208,M,40.593,M,4.0,0123*62\r\n
$GPGGA,094154.15,5703.4486805,N,00952.4174755,E,2,10,0.8,-1.208,M,40.593,M,4.0,0123*65\r\n
$GPGGA,094154.20,5703.4487131,N,00952.4174790,E,2,10,0.8,-1.207,M,40.593,M,4.0,0123*6A\r\n
$GPGGA,094154.25,5703.4487441,N,00952.4174834,E,2,10,0.8,-1.213,M,40.593,M,4.2,0123*6B\r\n
$GPGGA,094154.30,5703.4487760,N,00952.4174892,E,2,10,0.8,-1.216,M,40.593,M,4.2,0123*66\r\n
$GPGGA,094154.35,5703.4488088,N,00952.4174951,E,2,10,0.8,-1.221,M,40.593,M,4.2,0123*67\r\n
$GPGGA,094154.40,5703.4488415,N,00952.4175001,E,2,10,0.8,-1.224,M,40.593,M,4.2,0123*6D\r\n
$GPGGA,094154.45,5703.4488726,N,00952.4175055,E,2,10,0.8,-1.231,M,40.593,M,2.1,0123*6B\r\n
$GPGGA,094154.50,5703.4489052,N,00952.4175110,E,2,10,0.8,-1.237,M,40.593,M,2.1,0123*6C\r\n
$GPGGA,094154.55,5703.4489374,N,00952.4175158,E,2,10,0.8,-1.240,M,40.593,M,2.1,0123*62\r\n
$GPGGA,094154.60,5703.4489690,N,00952.4175206,E,2,10,0.8,-1.244,M,40.593,M,2.1,0123*67\r\n
$GPGGA,094154.65,5703.4490012,N,00952.4175257,E,2,10,0.8,-1.249,M,40.593,M,2.4,0123*6A\r\n
$GPGGA,094154.70,5703.4490335,N,00952.4175299,E,2,10,0.8,-1.250,M,40.593,M,2.4,0123*62\r\n
$GPGGA,094154.75,5703.4490651,N,00952.4175342,E,2,10,0.8,-1.251,M,40.593,M,2.4,0123*66\r\n
$GPGGA,094154.80,5703.4490967,N,00952.4175391,E,2,10,0.8,-1.253,M,40.593,M,2.4,0123*6A\r\n
$GPGGA,094154.85,5703.4491300,N,00952.4175452,E,2,10,0.8,-1.250,M,40.593,M,2.6,0123*6C\r\n
$GPGGA,094154.90,5703.4491635,N,00952.4175503,E,2,10,0.8,-1.250,M,40.593,M,2.6,0123*6E\r\n
$GPGGA,094154.95,5703.4491954,N,00952.4175569,E,2,10,0.8,-1.250,M,40.593,M,2.6,0123*6F\r\n
$GPGGA,094155.00,5703.4492266,N,00952.4175646,E,2,10,0.8,-1.249,M,40.593,M,2.6,0123*6D\r\n
$GPGGA,094155.05,5703.4492579,N,00952.4175724,E,2,10,0.8,-1.249,M,40.593,M,2.9,0123*6B\r\n
$GPGGA,094155.10,5703.4492910,N,00952.4175804,E,2,10,0.8,-1.245,M,40.593,M,2.9,0123*6D\r\n
$GPGGA,094155.15,5703.4493239,N,00952.4175889,E,2,10,0.8,-1.242,M,40.593,M,2.9,0123*6B\r\n
$GPGGA,094155.20,5703.4493553,N,00952.4175960,E,2,10,0.8,-1.239,M,40.593,M,2.9,0123*6C\r\n
$GPGGA,094155.25,5703.4493883,N,00952.4176049,E,2,10,0.8,-1.233,M,40.593,M,3.1,0123*6B\r\n
$GPGGA,094155.30,5703.4494205,N,00952.4176124,E,2,10,0.8,-1.229,M,40.593,M,3.1,0123*6D\r\n
$GPGGA,094155.35,5703.4494530,N,00952.4176189,E,2,10,0.8,-1.225,M,40.593,M,3.1,0123*62\r\n
$GPGGA,094155.40,5703.4494852,N,00952.4176250,E,2,10,0.8,-1.224,M,40.593,M,3.1,0123*6F\r\n
$GPGGA,094155.45,5703.4495166,N,00952.4176304,E,2,10,0.8,-1.227,M,40.593,M,2.2,0123*64\r\n
$GPGGA,094155.50,5703.4495493,N,00952.4176351,E,2,10,0.8,-1.226,M,40.593,M,2.2,0123*6E\r\n
$GPGGA,094155.55,5703.4495813,N,00952.4176395,E,2,10,0.8,-1.227,M,40.593,M,2.2,0123*66\r\n
$GPGGA,094155.60,5703.4496138,N,00952.4176435,E,2,10,0.8,-1.230,M,40.593,M,2.2,0123*68\r\n
$GPGGA,094155.65,5703.4496476,N,00952.4176490,E,2,10,0.8,-1.231,M,40.593,M,2.5,0123*6B\r\n
$GPGGA,094155.70,5703.4496810,N,00952.4176549,E,2,10,0.8,-1.233,M,40.593,M,2.5,0123*64\r\n
$GPGGA,094155.75,5703.4497124,N,00952.4176594,E,2,10,0.8,-1.236,M,40.593,M,2.5,0123*6B\r\n
$GPGGA,094155.80,5703.4497458,N,00952.4176628,E,2,10,0.8,-1.236,M,40.593,M,2.5,0123*6B\r\n
$GPGGA,094155.85,5703.4497782,N,00952.4176666,E,2,10,0.8,-1.238,M,40.593,M,2.7,0123*6C\r\n
$GPGGA,094155.90,5703.4498111,N,00952.4176714,E,2,10,0.8,-1.236,M,40.593,M,2.7,0123*61\r\n
$GPGGA,094155.95,5703.4498442,N,00952.4176769,E,2,10,0.8,-1.234,M,40.593,M,2.7,0123*6F\r\n
$GPGGA,094156.00,5703.4498776,N,00952.4176831,E,2,10,0.8,-1.234,M,40.593,M,2.7,0123*66\r\n
$GPGGA,094156.05,5703.4499087,N,00952.4176894,E,2,10,0.8,-1.233,M,40.593,M,2.9,0123*6D\r\n
$GPGGA,094156.10,5703.4499419,N,00952.4176974,E,2,10,0.8,-1.232,M,40.593,M,2.9,0123*64\r\n
$GPGGA,094156.15,5703.4499739,N,00952.4177033,E,2,10,0.8,-1.229,M,40.593,M,2.9,0123*61\r\n
$GPGGA,094156.20,5703.4500063,N,00952.4177116,E,2,10,0.8,-1.227,M,40.593,M,2.9,0123*66\r\n
$GPGGA,094156.25,5703.4500387,N,00952.4177189,E,2,10,0.8,-1.231,M,40.593,M,3.1,0123*62\r\n
$GPGGA,094156.30,5703.4500716,N,00952.4177261,E,2,10,0.8,-1.231,M,40.593,M,3.1,0123*6F\r\n
$GPGGA,094156.35,5703.4501046,N,00952.4177327,E,2,10,0.8,-1.228,M,40.593,M,3.1,0123*62\r\n
$GPGGA,094156.40,5703.4501378,N,00952.4177406,E,2,10,0.8,-1.225,M,40.593,M,3.1,0123*67\r\n
$GPGGA,094156.45,5703.4501699,N,00952.4177475,E,2,10,0.8,-1.220,M,40.593,M,2.3,0123*6A\r\n
$GPGGA,094156.50,5703.4502015,N,00952.4177530,E,2,10,0.8,-1.220,M,40.593,M,2.3,0123*6F\r\n
$GPGGA,094156.55,5703.4502341,N,00952.4177600,E,2,10,0.8,-1.222,M,40.593,M,2.3,0123*6A\r\n
$GPGGA,094156.60,5703.4502682,N,00952.4177683,E,2,10,0.8,-1.221,M,40.593,M,2.3,0123*6E\r\n
$GPGGA,094156.65,5703.4503013,N,00952.4177755,E,2,10,0.8,-1.223,M,40.593,M,2.5,0123*6A\r\n
$GPGGA,094156.70,5703.4503347,N,00952.4177829,E,2,10,0.8,-1.225,M,40.593,M,2.5,0123*6E\r\n
$GPGGA,094156.75,5703.4503686,N,00952.4177901,E,2,10,0.8,-1.226,M,40.593,M,2.5,0123*6B\r\n
$GPGGA,094156.80,5703.4504004,N,00952.4177969,E,2,10,0.8,-1.228,M,40.593,M,2.5,0123*6A\r\n
$GPGGA,094156.85,5703.4504324,N,00952.4178028,E,2,10,0.8,-1.234,M,40.593,M,2.7,0123*62\r\n
$GPGGA,094156.90,5703.4504655,N,00952.4178089,E,2,10,0.8,-1.238,M,40.593,M,2.7,0123*62\r\n
$GPGGA,094156.95,5703.4504985,N,00952.4178165,E,2,10,0.8,-1.243,M,40.593,M,2.7,0123*6A\r\n
$GPGGA,094157.00,5703.4505312,N,00952.4178227,E,2,10,0.8,-1.245,M,40.593,M,2.7,0123*61\r\n
$GPGGA,094157.05,5703.4505649,N,00952.4178305,E,2,10,0.8,-1.248,M,40.593,M,2.9,0123*6D\r\n
$GPGGA,094157.10,5703.4505971,N,00952.4178388,E,2,10,0.8,-1.251,M,40.593,M,2.9,0123*60\r\n
$GPGGA,094157.15,5703.4506299,N,00952.4178471,E,2,10,0.8,-1.255,M,40.593,M,2.9,0123*6E\r\n
$GPGGA,094157.20,5703.4506635,N,00952.4178556,E,2,10,0.8,-1.258,M,40.593,M,2.9,0123*63\r\n
$GPGGA,094157.25,5703.4506976,N,00952.4178637,E,2,10,0.8,-1.257,M,40.593,M,3.2,0123*6F\r\n
$GPGGA,094157.30,5703.4507311,N,00952.4178730,E,2,10,0.8,-1.257,M,40.593,M,3.2,0123*67\r\n
$GPGGA,094157.35,5703.4507633,N,00952.4178811,E,2,10,0.8,-1.257,M,40.593,M,3.2,0123*6B\r\n
$GPGGA,094157.40,5703.4507965,N,00952.4178895,E,2,10,0.8,-1.255,M,40.593,M,3.2,0123*6B\r\n
$GPGGA,094157.45,5703.4508310,N,00952.4178959,E,2,10,0.8,-1.249,M,40.593,M,0.8,0123*6C\r\n
$GPGGA,094157.50,5703.4508634,N,00952.4179035,E,2,10,0.8,-1.246,M,40.593,M,0.8,0123*66\r\n
$GPGGA,094157.55,5703.4508956,N,00952.4179115,E,2,10,0.8,-1.242,M,40.593,M,0.8,0123*6F\r\n
$GPGGA,094157.60,5703.4509284,N,00952.4179197,E,2,10,0.8,-1.238,M,40.593,M,0.8,0123*6B\r\n
$GPGGA,094157.65,5703.4509624,N,00952.4179273,E,2,10,0.8,-1.233,M,40.593,M,1.1,0123*6A\r\n
$GPGGA,094157.70,5703.4509945,N,00952.4179349,E,2,10,0.8,-1.229,M,40.593,M,1.1,0123*65\r\n
$GPGGA,094157.75,5703.4510276,N,00952.4179435,E,2,10,0.8,-1.225,M,40.593,M,1.1,0123*63\r\n
$GPGGA,094157.80,5703.4510598,N,00952.4179503,E,2,10,0.8,-1.220,M,40.593,M,1.1,0123*6F\r\n
$GPGGA,094157.85,5703.4510932,N,00952.4179575,E,2,10,0.8,-1.216,M,40.593,M,1.4,0123*67\r\n
$GPGGA,094157.90,5703.4511253,N,00952.4179655,E,2,10,0.8,-1.214,M,40.593,M,1.4,0123*6D\r\n
$GPGGA,094157.95,5703.4511577,N,00952.4179736,E,2,10,0.8,-1.213,M,40.593,M,1.4,0123*6A\r\n
$GPGGA,094158.00,5703.4511903,N,00952.4179815,E,2,10,0.8,-1.211,M,40.593,M,1.4,0123*6A\r\n
$GPGGA,094158.05,5703.4512240,N,00952.4179883,E,2,10,0.8,-1.212,M,40.593,M,1.6,0123*6E\r\n
$GPGGA,094158.10,5703.4512569,N,00952.4179948,E,2,10,0.8,-1.212,M,40.593,M,1.6,0123*60\r\n
$GPGGA,094158.15,5703.4512896,N,00952.4180010,E,2,10,0.8,-1.213,M,40.593,M,1.6,0123*6B\r\n
$GPGGA,094158.20,5703.4513235,N,00952.4180094,E,2,10,0.8,-1.214,M,40.593,M,1.6,0123*64\r\n
$GPGGA,094158.25,5703.4513572,N,00952.4180182,E,2,10,0.8,-1.210,M,40.593,M,1.9,0123*68\r\n
$GPGGA,094158.30,5703.4513897,N,00952.4180281,E,2,10,0.8,-1.212,M,40.593,M,1.9,0123*68\r\n
$GPGGA,094158.35,5703.4514220,N,00952.4180369,E,2,10,0.8,-1.215,M,40.593,M,1.9,0123*6C\r\n
$GPGGA,094158.40,5703.4514542,N,00952.4180463,E,2,10,0.8,-1.220,M,40.593,M,1.9,0123*66\r\n
$GPGGA,094158.45,5703.4514885,N,00952.4180553,E,2,10,0.8,-1.224,M,40.593,M,2.1,0123*68\r\n
$GPGGA,094158.50,5703.4515208,N,00952.4180654,E,2,10,0.8,-1.230,M,40.593,M,2.1,0123*63\r\n
$GPGGA,094158.55,5703.4515540,N,00952.4180752,E,2,10,0.8,-1.237,M,40.593,M,2.1,0123*6D\r\n
$GPGGA,094158.60,5703.4515896,N,00952.4180842,E,2,10,0.8,-1.240,M,40.593,M,2.1,0123*63\r\n
$GPGGA,094158.65,5703.4516249,N,00952.4180947,E,2,10,0.8,-1.245,M,40.593,M,2.4,0123*69\r\n
$GPGGA,094158.70,5703.4516576,N,00952.4181058,E,2,10,0.8,-1.251,M,40.593,M,2.4,0123*65\r\n
$GPGGA,094158.75,5703.4516905,N,00952.4181161,E,2,10,0.8,-1.256,M,40.593,M,2.4,0123*64\r\n
$GPGGA,094158.80,5703.4517239,N,00952.4181255,E,2,10,0.8,-1.260,M,40.593,M,2.4,0123*6A\r\n
$GPGGA,094158.85,5703.4517569,N,00952.4181333,E,2,10,0.8,-1.263,M,40.593,M,2.6,0123*6D\r\n
$GPGGA,094158.90,5703.4517901,N,00952.4181405,E,2,10,0.8,-1.264,M,40.593,M,2.6,0123*6E\r\n
$GPGGA,094158.95,5703.4518225,N,00952.4181453,E,2,10,0.8,-1.265,M,40.593,M,2.6,0123*6B\r\n
$GPGGA,094159.00,5703.4518554,N,00952.4181504,E,2,10,0.8,-1.265,M,40.593,M,2.6,0123*64\r\n
$GPGGA,094159.05,5703.4518863,N,00952.4181561,E,2,10,0.8,-1.265,M,40.593,M,2.9,0123*64\r\n
$GPGGA,094159.10,5703.4519181,N,00952.4181620,E,2,10,0.8,-1.263,M,40.593,M,2.9,0123*64\r\n
$GPGGA,094159.15,5703.4519522,N,00952.4181686,E,2,10,0.8,-1.259,M,40.593,M,2.9,0123*69\r\n
$GPGGA,094159.20,5703.4519848,N,00952.4181757,E,2,10,0.8,-1.256,M,40.593,M,2.9,0123*6C\r\n
$GPGGA,094159.25,5703.4520165,N,00952.4181834,E,2,10,0.8,-1.253,M,40.593,M,3.1,0123*63\r\n
$GPGGA,094159.30,5703.4520489,N,00952.4181915,E,2,10,0.8,-1.250,M,40.593,M,3.1,0123*61\r\n
$GPGGA,094159.35,5703.4520821,N,00952.4182009,E,2,10,0.8,-1.243,M,40.593,M,3.1,0123*6F\r\n
$GPGGA,094159.40,5703.4521146,N,00952.4182095,E,2,10,0.8,-1.238,M,40.593,M,3.1,0123*6D\r\n
$GPGGA,094159.45,5703.4521496,N,00952.4182203,E,2,10,0.8,-1.229,M,40.593,M,2.2,0123*6F\r\n
$GPGGA,094159.50,5703.4521839,N,00952.4182318,E,2,10,0.8,-1.225,M,40.593,M,2.2,0123*65\r\n
$GPGGA,094159.55,5703.4522162,N,00952.4182419,E,2,10,0.8,-1.223,M,40.593,M,2.2,0123*64\r\n
$GPGGA,094159.60,5703.4522486,N,00952.4182531,E,2,10,0.8,-1.219,M,40.593,M,2.2,0123*6F\r\n
$GPGGA,094159.65,5703.4522827,N,00952.4182648,E,2,10,0.8,-1.219,M,40.593,M,2.5,0123*67\r\n
$GPGGA,094159.70,5703.4523164,N,00952.4182766,E,2,10,0.8,-1.220,M,40.593,M,2.5,0123*6B\r\n
$GPGGA,094159.75,5703.4523510,N,00952.4182881,E,2,10,0.8,-1.220,M,40.593,M,2.5,0123*6F\r\n
$GPGGA,094159.80,5703.4523852,N,00952.4183003,E,2,10,0.8,-1.219,M,40.593,M,2.5,0123*67\r\n
$GPGGA,094159.85,5703.4524190,N,00952.4183119,E,2,10,0.8,-1.222,M,40.593,M,2.7,0123*62\r\n
$GPGGA,094159.90,5703.4524523,N,00952.4183241,E,2,10,0.8,-1.225,M,40.593,M,2.7,0123*63\r\n
$GPGGA,094159.95,5703.4524866,N,00952.4183349,E,2,10,0.8,-1.227,M,40.593,M,2.7,0123*61\r\n
$GPGGA,094200.00,5703.4525193,N,00952.4183448,E,2,10,0.8,-1.233,M,40.593,M,2.7,0123*63\r\n
$GPGGA,094200.05,5703.4525509,N,00952.4183545,E,2,10,0.8,-1.241,M,40.593,M,2.9,0123*66\r\n
$GPGGA,094200.10,5703.4525850,N,00952.4183634,E,2,10,0.8,-1.244,M,40.593,M,2.9,0123*63\r\n
$GPGGA,094200.15,5703.4526196,N,00952.4183703,E,2,10,0.8,-1.247,M,40.593,M,2.9,0123*60\r\n
$GPGGA,094200.20,5703.4526520,N,00952.4183764,E,2,10,0.8,-1.249,M,40.593,M,2.9,0123*60\r\n
$GPGGA,094200.25,5703.4526847,N,00952.4183833,E,2,10,0.8,-1.253,M,40.593,M,3.1,0123*66\r\n
$GPGGA,094200.30,5703.4527172,N,00952.4183899,E,2,10,0.8,-1.257,M,40.593,M,3.1,0123*68\r\n
$GPGGA,094200.35,5703.4527501,N,00952.4183972,E,2,10,0.8,-1.261,M,40.593,M,3.1,0123*6C\r\n
$GPGGA,094200.40,5703.4527840,N,00952.4184032,E,2,10,0.8,-1.263,M,40.593,M,3.1,0123*6E\r\n
$GPGGA,094200.45,5703.4528171,N,00952.4184115,E,2,10,0.8,-1.263,M,40.593,M,2.3,0123*68\r\n
$GPGGA,094200.50,5703.4528494,N,00952.4184196,E,2,10,0.8,-1.263,M,40.593,M,2.3,0123*69\r\n
$GPGGA,094200.55,5703.4528822,N,00952.4184285,E,2,10,0.8,-1.261,M,40.593,M,2.3,0123*6E\r\n
$GPGGA,094200.60,5703.4529163,N,00952.4184382,E,2,10,0.8,-1.258,M,40.593,M,2.3,0123*69\r\n
$GPGGA,094200.65,5703.4529500,N,00952.4184484,E,2,10,0.8,-1.253,M,40.593,M,2.5,0123*61\r\n
$GPGGA,094200.70,5703.4529840,N,00952.4184584,E,2,10,0.8,-1.250,M,40.593,M,2.5,0123*6E\r\n
$GPGGA,094200.75,5703.4530173,N,00952.4184685,E,2,10,0.8,-1.248,M,40.593,M,2.5,0123*61\r\n
$GPGGA,094200.80,5703.4530515,N,00952.4184794,E,2,10,0.8,-1.246,M,40.593,M,2.5,0123*60\r\n
$GPGGA,094200.85,5703.4530847,N,00952.4184908,E,2,10,0.8,-1.246,M,40.593,M,2.7,0123*66\r\n
$GPGGA,094200.90,5703.4531179,N,00952.4185027,E,2,10,0.8,-1.245,M,40.593,M,2.7,0123*61\r\n
$GPGGA,094200.95,5703.4531531,N,00952.4185143,E,2,10,0.8,-1.244,M,40.593,M,2.7,0123*6E\r\n
$GPGGA,094201.00,5703.4531871,N,00952.4185277,E,2,10,0.8,-1.241,M,40.593,M,2.7,0123*6B\r\n
$GPGGA,094201.05,5703.4532207,N,00952.4185401,E,2,10,0.8,-1.241,M,40.593,M,2.9,0123*6F\r\n
$GPGGA,094201.10,5703.4532556,N,00952.4185525,E,2,10,0.8,-1.240,M,40.593,M,2.9,0123*6E\r\n
$GPGGA,094201.15,5703.4532895,N,00952.4185647,E,2,10,0.8,-1.240,M,40.593,M,2.9,0123*6E\r\n
$GPGGA,094201.20,5703.4533245,N,00952.4185771,E,2,10,0.8,-1.239,M,40.593,M,2.9,0123*64\r\n
$GPGGA,094201.25,5703.4533574,N,00952.4185883,E,2,10,0.8,-1.239,M,40.593,M,3.2,0123*6C\r\n
$GPGGA,094201.30,5703.4533912,N,00952.4185979,E,2,10,0.8,-1.238,M,40.593,M,3.2,0123*61\r\n
$GPGGA,094201.35,5703.4534246,N,00952.4186078,E,2,10,0.8,-1.239,M,40.593,M,3.2,0123*63\r\n
$GPGGA,094201.40,5703.4534585,N,00952.4186181,E,2,10,0.8,-1.239,M,40.593,M,3.2,0123*6E\r\n
$GPGGA,094201.45,5703.4534928,N,00952.4186279,E,2,10,0.8,-1.238,M,40.593,M,3.4,0123*63\r\n
$GPGGA,094201.50,5703.4535264,N,00952.4186377,E,2,10,0.8,-1.239,M,40.593,M,3.4,0123*6B\r\n
$GPGGA,094201.55,5703.4535599,N,00952.4186470,E,2,10,0.8,-1.242,M,40.593,M,3.4,0123*67\r\n
$GPGGA,094201.60,5703.4535939,N,00952.4186561,E,2,10,0.8,-1.243,M,40.593,M,3.4,0123*67\r\n
$GPGGA,094201.65,5703.4536272,N,00952.4186671,E,2,10,0.8,-1.248,M,40.593,M,3.6,0123*6E\r\n
$GPGGA,094201.70,5703.4536613,N,00952.4186781,E,2,10,0.8,-1.249,M,40.593,M,3.6,0123*66\r\n
$GPGGA,094201.75,5703.4536950,N,00952.4186883,E,2,10,0.8,-1.252,M,40.593,M,3.6,0123*6C\r\n
$GPGGA,094201.80,5703.4537288,N,00952.4186984,E,2,10,0.8,-1.256,M,40.593,M,3.6,0123*6B\r\n
$GPGGA,094201.85,5703.4537626,N,00952.4187073,E,2,10,0.8,-1.259,M,40.593,M,3.8,0123*6F\r\n
$GPGGA,094201.90,5703.4537971,N,00952.4187181,E,2,10,0.8,-1.262,M,40.593,M,3.8,0123*62\r\n
$GPGGA,094201.95,5703.4538318,N,00952.4187294,E,2,10,0.8,-1.264,M,40.593,M,3.8,0123*6C\r\n
$GPGGA,094202.00,5703.4538649,N,00952.4187424,E,2,10,0.8,-1.266,M,40.593,M,3.8,0123*6D\r\n
$GPGGA,094202.05,5703.4538995,N,00952.4187560,E,2,10,0.8,-1.268,M,40.593,M,4.0,0123*66\r\n
$GPGGA,094202.10,5703.4539338,N,00952.4187690,E,2,10,0.8,-1.267,M,40.593,M,4.0,0123*6D\r\n
$GPGGA,094202.15,5703.4539684,N,00952.4187835,E,2,10,0.8,-1.269,M,40.593,M,4.0,0123*65\r\n
$GPGGA,094202.20,5703.4540035,N,00952.4187978,E,2,10,0.8,-1.267,M,40.593,M,4.0,0123*67\r\n
$GPGGA,094202.25,5703.4540387,N,00952.4188135,E,2,10,0.8,-1.266,M,40.593,M,4.2,0123*65\r\n
$GPGGA,094202.30,5703.4540723,N,00952.4188282,E,2,10,0.8,-1.265,M,40.593,M,4.2,0123*67\r\n
$GPGGA,094202.35,5703.4541067,N,00952.4188415,E,2,10,0.8,-1.263,M,40.593,M,4.2,0123*6A\r\n
$GPGGA,094202.40,5703.4541418,N,00952.4188557,E,2,10,0.8,-1.260,M,40.593,M,4.2,0123*60\r\n
$GPGGA,094202.45,5703.4541771,N,00952.4188688,E,2,10,0.8,-1.257,M,40.593,M,2.1,0123*69\r\n
$GPGGA,094202.50,5703.4542110,N,00952.4188820,E,2,10,0.8,-1.255,M,40.593,M,2.1,0123*61\r\n
$GPGGA,094202.55,5703.4542440,N,00952.4188952,E,2,10,0.8,-1.253,M,40.593,M,2.1,0123*66\r\n
$GPGGA,094202.60,5703.4542771,N,00952.4189073,E,2,10,0.8,-1.251,M,40.593,M,2.1,0123*68\r\n
$GPGGA,094202.65,5703.4543115,N,00952.4189197,E,2,10,0.8,-1.249,M,40.593,M,2.3,0123*68\r\n
$GPGGA,094202.70,5703.4543465,N,00952.4189325,E,2,10,0.8,-1.247,M,40.593,M,2.3,0123*6B\r\n
$GPGGA,094202.75,5703.4543819,N,00952.4189436,E,2,10,0.8,-1.245,M,40.593,M,2.3,0123*6E\r\n
$GPGGA,094202.80,5703.4544162,N,00952.4189550,E,2,10,0.8,-1.243,M,40.593,M,2.3,0123*61\r\n
$GPGGA,094202.85,5703.4544494,N,00952.4189655,E,2,10,0.8,-1.245,M,40.593,M,2.5,0123*6E\r\n
$GPGGA,094202.90,5703.4544838,N,00952.4189753,E,2,10,0.8,-1.245,M,40.593,M,2.5,0123*67\r\n
$GPGGA,094202.95,5703.4545181,N,00952.4189857,E,2,10,0.8,-1.246,M,40.593,M,2.5,0123*60\r\n
$GPGGA,094203.00,5703.4545529,N,00952.4189957,E,2,10,0.8,-1.248,M,40.593,M,2.5,0123*64\r\n
$GPGGA,094203.05,5703.4545867,N,00952.4190057,E,2,10,0.8,-1.252,M,40.593,M,2.8,0123*61\r\n
$GPGGA,094203.10,5703.4546208,N,00952.4190166,E,2,10,0.8,-1.256,M,40.593,M,2.8,0123*62\r\n
$GPGGA,094203.15,5703.4546558,N,00952.4190287,E,2,10,0.8,-1.255,M,40.593,M,2.8,0123*6A\r\n
$GPGGA,094203.20,5703.4546896,N,00952.4190402,E,2,10,0.8,-1.255,M,40.593,M,2.8,0123*68\r\n
$GPGGA,094203.25,5703.4547247,N,00952.4190521,E,2,10,0.8,-1.253,M,40.593,M,3.0,0123*65\r\n
$GPGGA,094203.30,5703.4547597,N,00952.4190653,E,2,10,0.8,-1.252,M,40.593,M,3.0,0123*6C\r\n
$GPGGA,094203.35,5703.4547951,N,00952.4190769,E,2,10,0.8,-1.251,M,40.593,M,3.0,0123*64\r\n
$GPGGA,094203.40,5703.4548296,N,00952.4190913,E,2,10,0.8,-1.250,M,40.593,M,3.0,0123*6B\r\n
$GPGGA,094203.45,5703.4548640,N,00952.4191067,E,2,10,0.8,-1.252,M,40.593,M,2.1,0123*68\r\n
$GPGGA,094203.50,5703.4548975,N,00952.4191217,E,2,10,0.8,-1.250,M,40.593,M,2.1,0123*62\r\n
$GPGGA,094203.55,5703.4549329,N,00952.4191378,E,2,10,0.8,-1.247,M,40.593,M,2.1,0123*6B\r\n
$GPGGA,094203.60,5703.4549679,N,00952.4191531,E,2,10,0.8,-1.244,M,40.593,M,2.1,0123*65\r\n
$GPGGA,094203.65,5703.4550021,N,00952.4191693,E,2,10,0.8,-1.242,M,40.593,M,2.4,0123*6B\r\n
$GPGGA,094203.70,5703.4550361,N,00952.4191838,E,2,10,0.8,-1.242,M,40.593,M,2.4,0123*67\r\n
$GPGGA,094203.75,5703.4550715,N,00952.4191971,E,2,10,0.8,-1.242,M,40.593,M,2.4,0123*69\r\n
$GPGGA,094203.80,5703.4551053,N,00952.4192110,E,2,10,0.8,-1.241,M,40.593,M,2.4,0123*68\r\n
$GPGGA,094203.85,5703.4551388,N,00952.4192247,E,2,10,0.8,-1.240,M,40.593,M,2.6,0123*6A\r\n
$GPGGA,094203.90,5703.4551733,N,00952.4192389,E,2,10,0.8,-1.241,M,40.593,M,2.6,0123*68\r\n
$GPGGA,094203.95,5703.4552088,N,00952.4192535,E,2,10,0.8,-1.240,M,40.593,M,2.6,0123*69\r\n
$GPGGA,094204.00,5703.4552434,N,00952.4192674,E,2,10,0.8,-1.241,M,40.593,M,2.6,0123*66\r\n
$GPGGA,094204.05,5703.4552777,N,00952.4192808,E,2,10,0.8,-1.250,M,40.593,M,2.8,0123*6C\r\n
$GPGGA,094204.10,5703.4553116,N,00952.4192935,E,2,10,0.8,-1.254,M,40.593,M,2.8,0123*63\r\n
$GPGGA,094204.15,5703.4553456,N,00952.4193056,E,2,10,0.8,-1.259,M,40.593,M,2.8,0123*67\r\n
$GPGGA,094204.20,5703.4553810,N,00952.4193192,E,2,10,0.8,-1.262,M,40.593,M,2.8,0123*6E\r\n
$GPGGA,094204.25,5703.4554160,N,00952.4193321,E,2,10,0.8,-1.267,M,40.593,M,3.0,0123*64\r\n
$GPGGA,094204.30,5703.4554523,N,00952.4193467,E,2,10,0.8,-1.272,M,40.593,M,3.0,0123*62\r\n
$GPGGA,094204.35,5703.4554880,N,00952.4193612,E,2,10,0.8,-1.277,M,40.593,M,3.0,0123*66\r\n
$GPGGA,094204.40,5703.4555222,N,00952.4193752,E,2,10,0.8,-1.284,M,40.593,M,3.0,0123*6E\r\n
$GPGGA,094204.45,5703.4555585,N,00952.4193899,E,2,10,0.8,-1.289,M,40.593,M,2.4,0123*61\r\n
$GPGGA,094204.50,5703.4555935,N,00952.4194047,E,2,10,0.8,-1.289,M,40.593,M,2.4,0123*6E\r\n
$GPGGA,094204.55,5703.4556286,N,00952.4194193,E,2,10,0.8,-1.290,M,40.593,M,2.4,0123*6B\r\n
$GPGGA,094204.60,5703.4556629,N,00952.4194350,E,2,10,0.8,-1.289,M,40.593,M,2.4,0123*69\r\n
$GPGGA,094204.65,5703.4556980,N,00952.4194515,E,2,10,0.8,-1.284,M,40.593,M,2.6,0123*68\r\n
$GPGGA,094204.70,5703.4557323,N,00952.4194668,E,2,10,0.8,-1.280,M,40.593,M,2.6,0123*63\r\n
$GPGGA,094204.75,5703.4557675,N,00952.4194815,E,2,10,0.8,-1.276,M,40.593,M,2.6,0123*6D\r\n
$GPGGA,094204.80,5703.4558020,N,00952.4194971,E,2,10,0.8,-1.271,M,40.593,M,2.6,0123*6A\r\n
$GPGGA,094204.85,5703.4558371,N,00952.4195128,E,2,10,0.8,-1.261,M,40.593,M,2.9,0123*63\r\n
$GPGGA,094204.90,5703.4558713,N,00952.4195281,E,2,10,0.8,-1.252,M,40.593,M,2.9,0123*67\r\n
$GPGGA,094204.95,5703.4559042,N,00952.4195421,E,2,10,0.8,-1.245,M,40.593,M,2.9,0123*6A\r\n
$GPGGA,094205.00,5703.4559384,N,00952.4195563,E,2,10,0.8,-1.237,M,40.593,M,2.9,0123*6C\r\n
$GPGGA,094205.05,5703.4559718,N,00952.4195715,E,2,10,0.8,-1.234,M,40.593,M,3.1,0123*61\r\n
$GPGGA,094205.10,5703.4560065,N,00952.4195858,E,2,10,0.8,-1.229,M,40.593,M,3.1,0123*68\r\n
$GPGGA,094205.15,5703.4560413,N,00952.4196009,E,2,10,0.8,-1.226,M,40.593,M,3.1,0123*68\r\n
$GPGGA,094205.20,5703.4560773,N,00952.4196172,E,2,10,0.8,-1.222,M,40.593,M,3.1,0123*62\r\n
$GPGGA,094205.25,5703.4561129,N,00952.4196334,E,2,10,0.8,-1.218,M,40.593,M,3.3,0123*64\r\n
$GPGGA,094205.30,5703.4561485,N,00952.4196474,E,2,10,0.8,-1.217,M,40.593,M,3.3,0123*6F\r\n
$GPGGA,094205.35,5703.4561832,N,00952.4196615,E,2,10,0.8,-1.220,M,40.593,M,3.3,0123*6B\r\n
$GPGGA,094205.40,5703.4562181,N,00952.4196758,E,2,10,0.8,-1.225,M,40.593,M,3.3,0123*66\r\n
$GPGGA,094205.45,5703.4562547,N,00952.4196900,E,2,10,0.8,-1.233,M,40.593,M,3.5,0123*6F\r\n
$GPGGA,094205.50,5703.4562896,N,00952.4197043,E,2,10,0.8,-1.241,M,40.593,M,3.5,0123*60\r\n
$GPGGA,094205.55,5703.4563255,N,00952.4197175,E,2,10,0.8,-1.247,M,40.593,M,3.5,0123*63\r\n
$GPGGA,094205.60,5703.4563613,N,00952.4197303,E,2,10,0.8,-1.251,M,40.593,M,3.5,0123*67\r\n
$GPGGA,094205.65,5703.4563973,N,00952.4197443,E,2,10,0.8,-1.257,M,40.593,M,3.7,0123*6C\r\n
$GPGGA,094205.70,5703.4564323,N,00952.4197588,E,2,10,0.8,-1.267,M,40.593,M,3.7,0123*65\r\n
$GPGGA,094205.75,5703.4564679,N,00952.4197729,E,2,10,0.8,-1.273,M,40.593,M,3.7,0123*66\r\n
$GPGGA,094205.80,5703.4565042,N,00952.4197884,E,2,10,0.8,-1.275,M,40.593,M,3.7,0123*6D\r\n
$GPGGA,094205.85,5703.4565384,N,00952.4198037,E,2,10,0.8,-1.281,M,40.593,M,3.9,0123*6B\r\n
$GPGGA,094205.90,5703.4565727,N,00952.4198188,E,2,10,0.8,-1.285,M,40.593,M,3.9,0123*63\r\n
$GPGGA,094205.95,5703.4566083,N,00952.4198346,E,2,10,0.8,-1.284,M,40.593,M,3.9,0123*6D\r\n
$GPGGA,094206.00,5703.4566435,N,00952.4198501,E,2,10,0.8,-1.282,M,40.593,M,3.9,0123*68\r\n
$GPGGA,094206.05,5703.4566781,N,00952.4198656,E,2,10,0.8,-1.281,M,40.593,M,4.1,0123*6C\r\n
$GPGGA,094206.10,5703.4567123,N,00952.4198815,E,2,10,0.8,-1.280,M,40.593,M,4.1,0123*6F\r\n
$GPGGA,094206.15,5703.4567475,N,00952.4198985,E,2,10,0.8,-1.276,M,40.593,M,4.1,0123*6D\r\n
$GPGGA,094206.20,5703.4567820,N,00952.4199151,E,2,10,0.8,-1.270,M,40.593,M,4.1,0123*61\r\n
$GPGGA,094206.25,5703.4568172,N,00952.4199329,E,2,10,0.8,-1.266,M,40.593,M,4.3,0123*6D\r\n
$GPGGA,094206.30,5703.4568527,N,00952.4199514,E,2,10,0.8,-1.260,M,40.593,M,4.3,0123*63\r\n
$GPGGA,094206.35,5703.4568881,N,00952.4199690,E,2,10,0.8,-1.254,M,40.593,M,4.3,0123*6F\r\n
$GPGGA,094206.40,5703.4569234,N,00952.4199867,E,2,10,0.8,-1.250,M,40.593,M,4.3,0123*6A\r\n
$GPGGA,094206.45,5703.4569599,N,00952.4200032,E,2,10,0.8,-1.250,M,40.593,M,2.1,0123*60\r\n
$GPGGA,094206.50,5703.4569956,N,00952.4200191,E,2,10,0.8,-1.244,M,40.593,M,2.1,0123*66\r\n
$GPGGA,094206.55,5703.4570333,N,00952.4200333,E,2,10,0.8,-1.241,M,40.593,M,2.1,0123*6D\r\n
$GPGGA,094206.60,5703.4570715,N,00952.4200480,E,2,10,0.8,-1.238,M,40.593,M,2.1,0123*6A\r\n
$GPGGA,094206.65,5703.4571086,N,00952.4200629,E,2,10,0.8,-1.236,M,40.593,M,2.3,0123*6E\r\n
$GPGGA,094206.70,5703.4571463,N,00952.4200761,E,2,10,0.8,-1.235,M,40.593,M,2.3,0123*6B\r\n
$GPGGA,094206.75,5703.4571843,N,00952.4200896,E,2,10,0.8,-1.234,M,40.593,M,2.3,0123*66\r\n
$GPGGA,094206.80,5703.4572236,N,00952.4201033,E,2,10,0.8,-1.235,M,40.593,M,2.3,0123*60\r\n
$GPGGA,094206.85,5703.4572634,N,00952.4201160,E,2,10,0.8,-1.234,M,40.593,M,2.5,0123*63\r\n
$GPGGA,094206.90,5703.4573058,N,00952.4201280,E,2,10,0.8,-1.229,M,40.593,M,2.5,0123*6B\r\n
$GPGGA,094206.95,5703.4573477,N,00952.4201427,E,2,10,0.8,-1.226,M,40.593,M,2.5,0123*63\r\n
$GPGGA,094207.00,5703.4573891,N,00952.4201576,E,2,10,0.8,-1.224,M,40.593,M,2.5,0123*6D\r\n
$GPGGA,094207.05,5703.4574313,N,00952.4201722,E,2,10,0.8,-1.223,M,40.593,M,2.8,0123*67\r\n
$GPGGA,094207.10,5703.4574747,N,00952.4201864,E,2,10,0.8,-1.220,M,40.593,M,2.8,0123*68\r\n
$GPGGA,094207.15,5703.4575192,N,00952.4202007,E,2,10,0.8,-1.216,M,40.593,M,2.8,0123*69\r\n
$GPGGA,094207.20,5703.4575642,N,00952.4202151,E,2,10,0.8,-1.213,M,40.593,M,2.8,0123*62\r\n
$GPGGA,094207.25,5703.4576093,N,00952.4202311,E,2,10,0.8,-1.210,M,40.593,M,3.0,0123*62\r\n
$GPGGA,094207.30,5703.4576553,N,00952.4202481,E,2,10,0.8,-1.208,M,40.593,M,3.0,0123*68\r\n
$GPGGA,094207.35,5703.4577025,N,00952.4202655,E,2,10,0.8,-1.206,M,40.593,M,3.0,0123*6D\r\n
$GPGGA,094207.40,5703.4577507,N,00952.4202819,E,2,10,0.8,-1.204,M,40.593,M,3.0,0123*6E\r\n
$GPGGA,094207.45,5703.4578008,N,00952.4202982,E,2,10,0.8,-1.204,M,40.593,M,1.1,0123*6E\r\n
$GPGGA,094207.50,5703.4578509,N,00952.4203140,E,2,10,0.8,-1.208,M,40.593,M,1.1,0123*65\r\n
$GPGGA,094207.55,5703.4579027,N,00952.4203286,E,2,10,0.8,-1.210,M,40.593,M,1.1,0123*68\r\n
$GPGGA,094207.60,5703.4579549,N,00952.4203427,E,2,10,0.8,-1.211,M,40.593,M,1.1,0123*6F\r\n
$GPGGA,094207.65,5703.4580090,N,00952.4203542,E,2,10,0.8,-1.208,M,40.593,M,1.4,0123*62\r\n
$GPGGA,094207.70,5703.4580623,N,00952.4203647,E,2,10,0.8,-1.206,M,40.593,M,1.4,0123*60\r\n
$GPGGA,094207.75,5703.4581150,N,00952.4203746,E,2,10,0.8,-1.206,M,40.593,M,1.4,0123*67\r\n
$GPGGA,094207.80,5703.4581685,N,00952.4203839,E,2,10,0.8,-1.203,M,40.593,M,1.4,0123*60\r\n
$GPGGA,094207.85,5703.4582227,N,00952.4203914,E,2,10,0.8,-1.201,M,40.593,M,1.7,0123*65\r\n
$GPGGA,094207.90,5703.4582781,N,00952.4204007,E,2,10,0.8,-1.197,M,40.593,M,1.7,0123*68\r\n
$GPGGA,094207.95,5703.4583327,N,00952.4204084,E,2,10,0.8,-1.190,M,40.593,M,1.7,0123*68\r\n
$GPGGA,094208.00,5703.4583876,N,00952.4204166,E,2,10,0.8,-1.186,M,40.593,M,1.7,0123*6E\r\n
$GPGGA,094208.05,5703.4584434,N,00952.4204266,E,2,10,0.8,-1.186,M,40.593,M,1.9,0123*6B\r\n
$GPGGA,094208.10,5703.4585002,N,00952.4204357,E,2,10,0.8,-1.185,M,40.593,M,1.9,0123*6F\r\n
$GPGGA,094208.15,5703.4585579,N,00952.4204445,E,2,10,0.8,-1.182,M,40.593,M,1.9,0123*60\r\n
$GPGGA,094208.20,5703.4586169,N,00952.4204555,E,2,10,0.8,-1.182,M,40.593,M,1.9,0123*60\r\n
$GPGGA,094208.25,5703.4586760,N,00952.4204675,E,2,10,0.8,-1.178,M,40.593,M,2.2,0123*66\r\n
$GPGGA,094208.30,5703.4587353,N,00952.4204806,E,2,10,0.8,-1.177,M,40.593,M,2.2,0123*62\r\n
$GPGGA,094208.35,5703.4587959,N,00952.4204953,E,2,10,0.8,-1.178,M,40.593,M,2.2,0123*69\r\n
$GPGGA,094208.40,5703.4588573,N,00952.4205105,E,2,10,0.8,-1.183,M,40.593,M,2.2,0123*6E\r\n
$GPGGA,094208.45,5703.4589187,N,00952.4205270,E,2,10,0.8,-1.187,M,40.593,M,2.4,0123*66\r\n
$GPGGA,094208.50,5703.4589804,N,00952.4205445,E,2,10,0.8,-1.192,M,40.593,M,2.4,0123*64\r\n
$GPGGA,094208.55,5703.4590431,N,00952.4205618,E,2,10,0.8,-1.199,M,40.593,M,2.4,0123*62\r\n
$GPGGA,094208.60,5703.4591051,N,00952.4205794,E,2,10,0.8,-1.201,M,40.593,M,2.4,0123*60\r\n
$GPGGA,094208.65,5703.4591696,N,00952.4205957,E,2,10,0.8,-1.204,M,40.593,M,2.6,0123*6E\r\n
$GPGGA,094208.70,5703.4592341,N,00952.4206108,E,2,10,0.8,-1.204,M,40.593,M,2.6,0123*67\r\n
$GPGGA,094208.75,5703.4592972,N,00952.4206236,E,2,10,0.8,-1.204,M,40.593,M,2.6,0123*66\r\n
$GPGGA,094208.80,5703.4593611,N,00952.4206349,E,2,10,0.8,-1.204,M,40.593,M,2.6,0123*6E\r\n
$GPGGA,094208.85,5703.4594267,N,00952.4206457,E,2,10,0.8,-1.200,M,40.593,M,2.9,0123*6A\r\n
$GPGGA,094208.90,5703.4594914,N,00952.4206575,E,2,10,0.8,-1.197,M,40.593,M,2.9,0123*6D\r\n
$GPGGA,094208.95,5703.4595576,N,00952.4206675,E,2,10,0.8,-1.193,M,40.593,M,2.9,0123*66\r\n
$GPGGA,094209.00,5703.4596239,N,00952.4206771,E,2,10,0.8,-1.188,M,40.593,M,2.9,0123*6B\r\n
$GPGGA,094209.05,5703.4596896,N,00952.4206869,E,2,10,0.8,-1.191,M,40.593,M,3.1,0123*66\r\n
$GPGGA,094209.10,5703.4597555,N,00952.4206975,E,2,10,0.8,-1.188,M,40.593,M,3.1,0123*65\r\n
$GPGGA,094209.15,5703.4598233,N,00952.4207094,E,2,10,0.8,-1.186,M,40.593,M,3.1,0123*61\r\n
$GPGGA,094209.20,5703.4598912,N,00952.4207222,E,2,10,0.8,-1.184,M,40.593,M,3.1,0123*62\r\n
$GPGGA,094209.25,5703.4599596,N,00952.4207336,E,2,10,0.8,-1.179,M,40.593,M,3.3,0123*62\r\n
$GPGGA,094209.30,5703.4600288,N,00952.4207445,E,2,10,0.8,-1.179,M,40.593,M,3.3,0123*6E\r\n
$GPGGA,094209.35,5703.4600988,N,00952.4207575,E,2,10,0.8,-1.179,M,40.593,M,3.3,0123*62\r\n
$GPGGA,094209.40,5703.4601689,N,00952.4207712,E,2,10,0.8,-1.179,M,40.593,M,3.3,0123*6C\r\n
$GPGGA,094209.45,5703.4602401,N,00952.4207883,E,2,10,0.8,-1.183,M,40.593,M,0.7,0123*6D\r\n
$GPGGA,094209.50,5703.4603121,N,00952.4208043,E,2,10,0.8,-1.185,M,40.593,M,0.7,0123*62\r\n
$GPGGA,094209.55,5703.4603844,N,00952.4208200,E,2,10,0.8,-1.187,M,40.593,M,0.7,0123*6A\r\n
$GPGGA,094209.60,5703.4604556,N,00952.4208371,E,2,10,0.8,-1.190,M,40.593,M,0.7,0123*64\r\n
$GPGGA,094209.65,5703.4605287,N,00952.4208533,E,2,10,0.8,-1.197,M,40.593,M,1.0,0123*6A\r\n
$GPGGA,094209.70,5703.4606020,N,00952.4208676,E,2,10,0.8,-1.200,M,40.593,M,1.0,0123*6D\r\n
$GPGGA,094209.75,5703.4606751,N,00952.4208825,E,2,10,0.8,-1.200,M,40.593,M,1.0,0123*61\r\n
$GPGGA,094209.80,5703.4607474,N,00952.4208985,E,2,10,0.8,-1.200,M,40.593,M,1.0,0123*65\r\n
$GPGGA,094209.85,5703.4608213,N,00952.4209145,E,2,10,0.8,-1.198,M,40.593,M,1.3,0123*6C\r\n
$GPGGA,094209.90,5703.4608948,N,00952.4209286,E,2,10,0.8,-1.196,M,40.593,M,1.3,0123*6F\r\n
$GPGGA,094209.95,5703.4609690,N,00952.4209436,E,2,10,0.8,-1.194,M,40.593,M,1.3,0123*6E\r\n
$GPGGA,094210.00,5703.4610421,N,00952.4209580,E,2,10,0.8,-1.193,M,40.593,M,1.3,0123*61\r\n
$GPGGA,094210.05,5703.4611160,N,00952.4209732,E,2,10,0.8,-1.192,M,40.593,M,1.6,0123*6A\r\n
$GPGGA,094210.10,5703.4611906,N,00952.4209879,E,2,10,0.8,-1.185,M,40.593,M,1.6,0123*60\r\n
$GPGGA,094210.15,5703.4612647,N,00952.4210017,E,2,10,0.8,-1.178,M,40.593,M,1.6,0123*66\r\n
$GPGGA,094210.20,5703.4613375,N,00952.4210155,E,2,10,0.8,-1.174,M,40.593,M,1.6,0123*6E\r\n
$GPGGA,094210.25,5703.4614117,N,00952.4210285,E,2,10,0.8,-1.165,M,40.593,M,1.8,0123*6A\r\n
$GPGGA,094210.30,5703.4614881,N,00952.4210398,E,2,10,0.8,-1.156,M,40.593,M,1.8,0123*65\r\n
$GPGGA,094210.35,5703.4615612,N,00952.4210521,E,2,10,0.8,-1.149,M,40.593,M,1.8,0123*6F\r\n
$GPGGA,094210.40,5703.4616345,N,00952.4210657,E,2,10,0.8,-1.142,M,40.593,M,1.8,0123*60\r\n
$GPGGA,094210.45,5703.4617092,N,00952.4210807,E,2,10,0.8,-1.132,M,40.593,M,0.9,0123*61\r\n
$GPGGA,094210.50,5703.4617841,N,00952.4210960,E,2,10,0.8,-1.130,M,40.593,M,0.9,0123*61\r\n
$GPGGA,094210.55,5703.4618588,N,00952.4211139,E,2,10,0.8,-1.127,M,40.593,M,0.9,0123*60\r\n
$GPGGA,094210.60,5703.4619329,N,00952.4211323,E,2,10,0.8,-1.124,M,40.593,M,0.9,0123*60\r\n
$GPGGA,094210.65,5703.4620093,N,00952.4211498,E,2,10,0.8,-1.130,M,40.593,M,1.2,0123*65\r\n
$GPGGA,094210.70,5703.4620852,N,00952.4211682,E,2,10,0.8,-1.136,M,40.593,M,1.2,0123*6B\r\n
$GPGGA,094210.75,5703.4621633,N,00952.4211883,E,2,10,0.8,-1.140,M,40.593,M,1.2,0123*68\r\n
$GPGGA,094210.80,5703.4622405,N,00952.4212103,E,2,10,0.8,-1.147,M,40.593,M,1.2,0123*63\r\n
$GPGGA,094210.85,5703.4623180,N,00952.4212308,E,2,10,0.8,-1.159,M,40.593,M,1.4,0123*6F\r\n
$GPGGA,094210.90,5703.4623955,N,00952.4212518,E,2,10,0.8,-1.169,M,40.593,M,1.4,0123*6F\r\n
$GPGGA,094210.95,5703.4624718,N,00952.4212708,E,2,10,0.8,-1.180,M,40.593,M,1.4,0123*6E\r\n
$GPGGA,094211.00,5703.4625492,N,00952.4212904,E,2,10,0.8,-1.188,M,40.593,M,1.4,0123*69\r\n
$GPGGA,094211.05,5703.4626250,N,00952.4213087,E,2,10,0.8,-1.201,M,40.593,M,1.7,0123*65\r\n
$GPGGA,094211.10,5703.4627005,N,00952.4213278,E,2,10,0.8,-1.207,M,40.593,M,1.7,0123*66\r\n
$GPGGA,094211.15,5703.4627787,N,00952.4213446,E,2,10,0.8,-1.212,M,40.593,M,1.7,0123*61\r\n
$GPGGA,094211.20,5703.4628549,N,00952.4213602,E,2,10,0.8,-1.210,M,40.593,M,1.7,0123*68\r\n
$GPGGA,094211.25,5703.4629304,N,00952.4213753,E,2,10,0.8,-1.211,M,40.593,M,1.9,0123*69\r\n
$GPGGA,094211.30,5703.4630054,N,00952.4213932,E,2,10,0.8,-1.212,M,40.593,M,1.9,0123*69\r\n
$GPGGA,094211.35,5703.4630819,N,00952.4214100,E,2,10,0.8,-1.207,M,40.593,M,1.9,0123*67\r\n
$GPGGA,094211.40,5703.4631577,N,00952.4214261,E,2,10,0.8,-1.204,M,40.593,M,1.9,0123*66\r\n
$GPGGA,094211.45,5703.4632339,N,00952.4214434,E,2,10,0.8,-1.202,M,40.593,M,2.1,0123*67\r\n
$GPGGA,094211.50,5703.4633103,N,00952.4214609,E,2,10,0.8,-1.199,M,40.593,M,2.1,0123*64\r\n
$GPGGA,094211.55,5703.4633871,N,00952.4214793,E,2,10,0.8,-1.193,M,40.593,M,2.1,0123*65\r\n
$GPGGA,094211.60,5703.4634638,N,00952.4214993,E,2,10,0.8,-1.189,M,40.593,M,2.1,0123*62\r\n
$GPGGA,094211.65,5703.4635409,N,00952.4215198,E,2,10,0.8,-1.183,M,40.593,M,2.4,0123*6B\r\n
$GPGGA,094211.70,5703.4636177,N,00952.4215403,E,2,10,0.8,-1.179,M,40.593,M,2.4,0123*62\r\n
$GPGGA,094211.75,5703.4636949,N,00952.4215611,E,2,10,0.8,-1.176,M,40.593,M,2.4,0123*6C\r\n
$GPGGA,094211.80,5703.4637723,N,00952.4215825,E,2,10,0.8,-1.172,M,40.593,M,2.4,0123*68\r\n
$GPGGA,094211.85,5703.4638499,N,00952.4216051,E,2,10,0.8,-1.170,M,40.593,M,2.6,0123*68\r\n
$GPGGA,094211.90,5703.4639278,N,00952.4216290,E,2,10,0.8,-1.168,M,40.593,M,2.6,0123*62\r\n
$GPGGA,094211.95,5703.4640052,N,00952.4216512,E,2,10,0.8,-1.167,M,40.593,M,2.6,0123*61\r\n
$GPGGA,094212.00,5703.4640828,N,00952.4216727,E,2,10,0.8,-1.166,M,40.593,M,2.6,0123*6E\r\n
$GPGGA,094212.05,5703.4641602,N,00952.4216921,E,2,10,0.8,-1.171,M,40.593,M,2.8,0123*6C\r\n
$GPGGA,094212.10,5703.4642379,N,00952.4217127,E,2,10,0.8,-1.172,M,40.593,M,2.8,0123*6E\r\n
$GPGGA,094212.15,5703.4643169,N,00952.4217349,E,2,10,0.8,-1.172,M,40.593,M,2.8,0123*63\r\n
$GPGGA,094212.20,5703.4643960,N,00952.4217574,E,2,10,0.8,-1.174,M,40.593,M,2.8,0123*6A\r\n
$GPGGA,094212.25,5703.4644749,N,00952.4217803,E,2,10,0.8,-1.177,M,40.593,M,3.0,0123*6A\r\n
$GPGGA,094212.30,5703.4645541,N,00952.4218026,E,2,10,0.8,-1.182,M,40.593,M,3.0,0123*6F\r\n
$GPGGA,094212.35,5703.4646336,N,00952.4218232,E,2,10,0.8,-1.186,M,40.593,M,3.0,0123*6C\r\n
$GPGGA,094212.40,5703.4647119,N,00952.4218460,E,2,10,0.8,-1.189,M,40.593,M,3.0,0123*6E\r\n
$GPGGA,094212.45,5703.4647899,N,00952.4218701,E,2,10,0.8,-1.187,M,40.593,M,2.4,0123*65\r\n
$GPGGA,094212.50,5703.4648669,N,00952.4218937,E,2,10,0.8,-1.190,M,40.593,M,2.4,0123*62\r\n
$GPGGA,094212.55,5703.4649450,N,00952.4219171,E,2,10,0.8,-1.191,M,40.593,M,2.4,0123*64\r\n
$GPGGA,094212.60,5703.4650243,N,00952.4219421,E,2,10,0.8,-1.191,M,40.593,M,2.4,0123*6E\r\n
$GPGGA,094212.65,5703.4651034,N,00952.4219654,E,2,10,0.8,-1.196,M,40.593,M,2.6,0123*6D\r\n
$GPGGA,094212.70,5703.4651808,N,00952.4219890,E,2,10,0.8,-1.199,M,40.593,M,2.6,0123*67\r\n
$GPGGA,094212.75,5703.4652596,N,00952.4220134,E,2,10,0.8,-1.200,M,40.593,M,2.6,0123*65\r\n
$GPGGA,094212.80,5703.4653390,N,00952.4220374,E,2,10,0.8,-1.197,M,40.593,M,2.6,0123*65\r\n
$GPGGA,094212.85,5703.4654180,N,00952.4220611,E,2,10,0.8,-1.189,M,40.593,M,2.9,0123*62\r\n
$GPGGA,094212.90,5703.4654963,N,00952.4220834,E,2,10,0.8,-1.188,M,40.593,M,2.9,0123*6B\r\n
$GPGGA,094212.95,5703.4655753,N,00952.4221030,E,2,10,0.8,-1.183,M,40.593,M,2.9,0123*64\r\n
$GPGGA,094213.00,5703.4656543,N,00952.4221232,E,2,10,0.8,-1.177,M,40.593,M,2.9,0123*62\r\n
$GPGGA,094213.05,5703.4657323,N,00952.4221443,E,2,10,0.8,-1.175,M,40.593,M,3.1,0123*6D\r\n
$GPGGA,094213.10,5703.4658118,N,00952.4221664,E,2,10,0.8,-1.169,M,40.593,M,3.1,0123*66\r\n
$GPGGA,094213.15,5703.4658915,N,00952.4221905,E,2,10,0.8,-1.166,M,40.593,M,3.1,0123*61\r\n
$GPGGA,094213.20,5703.4659720,N,00952.4222163,E,2,10,0.8,-1.165,M,40.593,M,3.1,0123*66\r\n
$GPGGA,094213.25,5703.4660529,N,00952.4222429,E,2,10,0.8,-1.160,M,40.593,M,3.3,0123*6E\r\n
$GPGGA,094213.30,5703.4661347,N,00952.4222701,E,2,10,0.8,-1.163,M,40.593,M,3.3,0123*6F\r\n
$GPGGA,094213.35,5703.4662166,N,00952.4222993,E,2,10,0.8,-1.167,M,40.593,M,3.3,0123*69\r\n
$GPGGA,094213.40,5703.4662987,N,00952.4223310,E,2,10,0.8,-1.176,M,40.593,M,3.3,0123*6C\r\n
$GPGGA,094213.45,5703.4663814,N,00952.4223624,E,2,10,0.8,-1.183,M,40.593,M,3.5,0123*6D\r\n
$GPGGA,094213.50,5703.4664646,N,00952.4223933,E,2,10,0.8,-1.191,M,40.593,M,3.5,0123*6D\r\n
$GPGGA,094213.55,5703.4665475,N,00952.4224236,E,2,10,0.8,-1.197,M,40.593,M,3.5,0123*64\r\n
$GPGGA,094213.60,5703.4666296,N,00952.4224556,E,2,10,0.8,-1.202,M,40.593,M,3.5,0123*64\r\n
$GPGGA,094213.65,5703.4667108,N,00952.4224866,E,2,10,0.8,-1.203,M,40.593,M,3.7,0123*69\r\n
$GPGGA,094213.70,5703.4667932,N,00952.4225167,E,2,10,0.8,-1.205,M,40.593,M,3.7,0123*63\r\n
$GPGGA,094213.75,5703.4668749,N,00952.4225447,E,2,10,0.8,-1.204,M,40.593,M,3.7,0123*6D\r\n
$GPGGA,094213.80,5703.4669561,N,00952.4225716,E,2,10,0.8,-1.199,M,40.593,M,3.7,0123*6E\r\n
$GPGGA,094213.85,5703.4670368,N,00952.4225983,E,2,10,0.8,-1.200,M,40.593,M,3.9,0123*63\r\n
$GPGGA,094213.90,5703.4671174,N,00952.4226256,E,2,10,0.8,-1.194,M,40.593,M,3.9,0123*67\r\n
$GPGGA,094213.95,5703.4671985,N,00952.4226519,E,2,10,0.8,-1.187,M,40.593,M,3.9,0123*6A\r\n
$GPGGA,094214.00,5703.4672790,N,00952.4226770,E,2,10,0.8,-1.180,M,40.593,M,3.9,0123*62\r\n
$GPGGA,094214.05,5703.4673593,N,00952.4227028,E,2,10,0.8,-1.171,M,40.593,M,4.1,0123*6D\r\n
$GPGGA,094214.10,5703.4674392,N,00952.4227290,E,2,10,0.8,-1.161,M,40.593,M,4.1,0123*69\r\n
$GPGGA,094214.15,5703.4675201,N,00952.4227545,E,2,10,0.8,-1.152,M,40.593,M,4.1,0123*69\r\n
$GPGGA,094214.20,5703.4676002,N,00952.4227802,E,2,10,0.8,-1.145,M,40.593,M,4.1,0123*65\r\n
$GPGGA,094214.25,5703.4676809,N,00952.4228075,E,2,10,0.8,-1.137,M,40.593,M,4.3,0123*63\r\n
$GPGGA,094214.30,5703.4677629,N,00952.4228350,E,2,10,0.8,-1.129,M,40.593,M,4.3,0123*61\r\n
$GPGGA,094214.35,5703.4678447,N,00952.4228622,E,2,10,0.8,-1.124,M,40.593,M,4.3,0123*6C\r\n
$GPGGA,094214.40,5703.4679258,N,00952.4228904,E,2,10,0.8,-1.121,M,40.593,M,4.3,0123*69\r\n
$GPGGA,094214.45,5703.4680081,N,00952.4229187,E,2,10,0.8,-1.118,M,40.593,M,2.1,0123*60\r\n
$GPGGA,094214.50,5703.4680904,N,00952.4229467,E,2,10,0.8,-1.117,M,40.593,M,2.1,0123*64\r\n
$GPGGA,094214.55,5703.4681736,N,00952.4229763,E,2,10,0.8,-1.118,M,40.593,M,2.1,0123*67\r\n
$GPGGA,094214.60,5703.4682565,N,00952.4230070,E,2,10,0.8,-1.124,M,40.593,M,2.1,0123*64\r\n
$GPGGA,094214.65,5703.4683378,N,00952.4230396,E,2,10,0.8,-1.135,M,40.593,M,2.3,0123*63\r\n
$GPGGA,094214.70,5703.4684205,N,00952.4230713,E,2,10,0.8,-1.142,M,40.593,M,2.3,0123*62\r\n
$GPGGA,094214.75,5703.4685027,N,00952.4231029,E,2,10,0.8,-1.147,M,40.593,M,2.3,0123*6E\r\n
$GPGGA,094214.80,5703.4685850,N,00952.4231344,E,2,10,0.8,-1.153,M,40.593,M,2.3,0123*61\r\n
$GPGGA,094214.85,5703.4686678,N,00952.4231674,E,2,10,0.8,-1.160,M,40.593,M,2.5,0123*63\r\n
$GPGGA,094214.90,5703.4687500,N,00952.4232010,E,2,10,0.8,-1.165,M,40.593,M,2.5,0123*68\r\n
$GPGGA,094214.95,5703.4688301,N,00952.4232360,E,2,10,0.8,-1.173,M,40.593,M,2.5,0123*66\r\n
$GPGGA,094215.00,5703.4689117,N,00952.4232710,E,2,10,0.8,-1.176,M,40.593,M,2.5,0123*69\r\n
$GPGGA,094215.05,5703.4689930,N,00952.4233055,E,2,10,0.8,-1.180,M,40.593,M,2.8,0123*62\r\n
$GPGGA,094215.10,5703.4690747,N,00952.4233399,E,2,10,0.8,-1.185,M,40.593,M,2.8,0123*66\r\n
$GPGGA,094215.15,5703.4691560,N,00952.4233753,E,2,10,0.8,-1.187,M,40.593,M,2.8,0123*65\r\n
$GPGGA,094215.20,5703.4692387,N,00952.4234091,E,2,10,0.8,-1.191,M,40.593,M,2.8,0123*66\r\n
$GPGGA,094215.25,5703.4693191,N,00952.4234412,E,2,10,0.8,-1.193,M,40.593,M,3.0,0123*63\r\n
$GPGGA,094215.30,5703.4693998,N,00952.4234713,E,2,10,0.8,-1.193,M,40.593,M,3.0,0123*64\r\n
$GPGGA,094215.35,5703.4694810,N,00952.4235011,E,2,10,0.8,-1.189,M,40.593,M,3.0,0123*68\r\n
$GPGGA,094215.40,5703.4695620,N,00952.4235307,E,2,10,0.8,-1.187,M,40.593,M,3.0,0123*6C\r\n
$GPGGA,094215.45,5703.4696438,N,00952.4235601,E,2,10,0.8,-1.179,M,40.593,M,2.1,0123*63\r\n
$GPGGA,094215.50,5703.4697247,N,00952.4235890,E,2,10,0.8,-1.173,M,40.593,M,2.1,0123*64\r\n
$GPGGA,094215.55,5703.4698042,N,00952.4236187,E,2,10,0.8,-1.166,M,40.593,M,2.1,0123*61\r\n
$GPGGA,094215.60,5703.4698836,N,00952.4236480,E,2,10,0.8,-1.160,M,40.593,M,2.1,0123*68\r\n
$GPGGA,094215.65,5703.4699646,N,00952.4236774,E,2,10,0.8,-1.155,M,40.593,M,2.4,0123*6E\r\n
$GPGGA,094215.70,5703.4700448,N,00952.4237087,E,2,10,0.8,-1.152,M,40.593,M,2.4,0123*6A\r\n
$GPGGA,094215.75,5703.4701249,N,00952.4237397,E,2,10,0.8,-1.147,M,40.593,M,2.4,0123*6F\r\n
$GPGGA,094215.80,5703.4702045,N,00952.4237737,E,2,10,0.8,-1.143,M,40.593,M,2.4,0123*62\r\n
$GPGGA,094215.85,5703.4702841,N,00952.4238072,E,2,10,0.8,-1.136,M,40.593,M,2.6,0123*62\r\n
$GPGGA,094215.90,5703.4703649,N,00952.4238441,E,2,10,0.8,-1.135,M,40.593,M,2.6,0123*66\r\n
$GPGGA,094215.95,5703.4704455,N,00952.4238797,E,2,10,0.8,-1.135,M,40.593,M,2.6,0123*63\r\n
$GPGGA,094216.00,5703.4705262,N,00952.4239160,E,2,10,0.8,-1.138,M,40.593,M,2.6,0123*6D\r\n
$GPGGA,094216.05,5703.4706060,N,00952.4239521,E,2,10,0.8,-1.144,M,40.593,M,2.8,0123*6F\r\n
$GPGGA,094216.10,5703.4706870,N,00952.4239893,E,2,10,0.8,-1.145,M,40.593,M,2.8,0123*67\r\n
$GPGGA,094216.15,5703.4707680,N,00952.4240254,E,2,10,0.8,-1.146,M,40.593,M,2.8,0123*6E\r\n
$GPGGA,094216.20,5703.4708481,N,00952.4240635,E,2,10,0.8,-1.152,M,40.593,M,2.8,0123*62\r\n
$GPGGA,094216.25,5703.4709293,N,00952.4241017,E,2,10,0.8,-1.153,M,40.593,M,3.0,0123*6C\r\n
$GPGGA,094216.30,5703.4710114,N,00952.4241410,E,2,10,0.8,-1.157,M,40.593,M,3.0,0123*6B\r\n
$GPGGA,094216.35,5703.4710922,N,00952.4241801,E,2,10,0.8,-1.163,M,40.593,M,3.0,0123*68\r\n
$GPGGA,094216.40,5703.4711731,N,00952.4242184,E,2,10,0.8,-1.168,M,40.593,M,3.0,0123*6B\r\n
$GPGGA,094216.45,5703.4712538,N,00952.4242563,E,2,10,0.8,-1.174,M,40.593,M,2.4,0123*63\r\n
$GPGGA,094216.50,5703.4713350,N,00952.4242942,E,2,10,0.8,-1.179,M,40.593,M,2.4,0123*6C\r\n
$GPGGA,094216.55,5703.4714162,N,00952.4243333,E,2,10,0.8,-1.182,M,40.593,M,2.4,0123*64\r\n
$GPGGA,094216.60,5703.4714981,N,00952.4243726,E,2,10,0.8,-1.184,M,40.593,M,2.4,0123*61\r\n
$GPGGA,094216.65,5703.4715785,N,00952.4244106,E,2,10,0.8,-1.192,M,40.593,M,2.6,0123*69\r\n
$GPGGA,094216.70,5703.4716597,N,00952.4244484,E,2,10,0.8,-1.194,M,40.593,M,2.6,0123*66\r\n
$GPGGA,094216.75,5703.4717391,N,00952.4244853,E,2,10,0.8,-1.192,M,40.593,M,2.6,0123*62\r\n
$GPGGA,094216.80,5703.4718201,N,00952.4245223,E,2,10,0.8,-1.186,M,40.593,M,2.6,0123*66\r\n
$GPGGA,094216.85,5703.4719016,N,00952.4245595,E,2,10,0.8,-1.181,M,40.593,M,2.9,0123*64\r\n
$GPGGA,094216.90,5703.4719825,N,00952.4245980,E,2,10,0.8,-1.177,M,40.593,M,2.9,0123*69\r\n
$GPGGA,094216.95,5703.4720633,N,00952.4246362,E,2,10,0.8,-1.170,M,40.593,M,2.9,0123*6D\r\n
$GPGGA,094217.00,5703.4721437,N,00952.4246741,E,2,10,0.8,-1.166,M,40.593,M,2.9,0123*65\r\n
$GPGGA,094217.05,5703.4722258,N,00952.4247159,E,2,10,0.8,-1.161,M,40.593,M,3.1,0123*6C\r\n
$GPGGA,094217.10,5703.4723072,N,00952.4247595,E,2,10,0.8,-1.160,M,40.593,M,3.1,0123*66\r\n
$GPGGA,094217.15,5703.4723886,N,00952.4248046,E,2,10,0.8,-1.160,M,40.593,M,3.1,0123*64\r\n
$GPGGA,094217.20,5703.4724705,N,00952.4248484,E,2,10,0.8,-1.159,M,40.593,M,3.1,0123*61\r\n
$GPGGA,094217.25,5703.4725535,N,00952.4248920,E,2,10,0.8,-1.161,M,40.593,M,3.3,0123*6E\r\n
$GPGGA,094217.30,5703.4726378,N,00952.4249378,E,2,10,0.8,-1.167,M,40.593,M,3.3,0123*66\r\n
$GPGGA,094217.35,5703.4727213,N,00952.4249829,E,2,10,0.8,-1.172,M,40.593,M,3.3,0123*65\r\n
$GPGGA,094217.40,5703.4728050,N,00952.4250304,E,2,10,0.8,-1.176,M,40.593,M,3.3,0123*65\r\n
$GPGGA,094217.45,5703.4728868,N,00952.4250770,E,2,10,0.8,-1.184,M,40.593,M,3.5,0123*6F\r\n
$GPGGA,094217.50,5703.4729701,N,00952.4251207,E,2,10,0.8,-1.184,M,40.593,M,3.5,0123*6E\r\n
$GPGGA,094217.55,5703.4730521,N,00952.4251629,E,2,10,0.8,-1.184,M,40.593,M,3.5,0123*6B\r\n
$GPGGA,094217.60,5703.4731328,N,00952.4252064,E,2,10,0.8,-1.180,M,40.593,M,3.5,0123*6B\r\n
$GPGGA,094217.65,5703.4732127,N,00952.4252501,E,2,10,0.8,-1.176,M,40.593,M,3.7,0123*6D\r\n
$GPGGA,094217.70,5703.4732928,N,00952.4252930,E,2,10,0.8,-1.173,M,40.593,M,3.7,0123*65\r\n
$GPGGA,094217.75,5703.4733733,N,00952.4253346,E,2,10,0.8,-1.167,M,40.593,M,3.7,0123*6A\r\n
$GPGGA,094217.80,5703.4734544,N,00952.4253759,E,2,10,0.8,-1.160,M,40.593,M,3.7,0123*68\r\n
$GPGGA,094217.85,5703.4735350,N,00952.4254181,E,2,10,0.8,-1.151,M,40.593,M,3.9,0123*67\r\n
$GPGGA,094217.90,5703.4736162,N,00952.4254636,E,2,10,0.8,-1.146,M,40.593,M,3.9,0123*6E\r\n
$GPGGA,094217.95,5703.4736967,N,00952.4255097,E,2,10,0.8,-1.143,M,40.593,M,3.9,0123*6F\r\n
$GPGGA,094218.00,5703.4737755,N,00952.4255547,E,2,10,0.8,-1.145,M,40.593,M,3.9,0123*6C\r\n
$GPGGA,094218.05,5703.4738528,N,00952.4256003,E,2,10,0.8,-1.158,M,40.593,M,4.1,0123*6B\r\n
$GPGGA,094218.10,5703.4739305,N,00952.4256469,E,2,10,0.8,-1.167,M,40.593,M,4.1,0123*63\r\n
$GPGGA,094218.15,5703.4740086,N,00952.4256947,E,2,10,0.8,-1.179,M,40.593,M,4.1,0123*6E\r\n
$GPGGA,094218.20,5703.4740863,N,00952.4257432,E,2,10,0.8,-1.193,M,40.593,M,4.1,0123*61\r\n
$GPGGA,094218.25,5703.4741624,N,00952.4257917,E,2,10,0.8,-1.214,M,40.593,M,4.3,0123*6C\r\n
$GPGGA,094218.30,5703.4742360,N,00952.4258382,E,2,10,0.8,-1.228,M,40.593,M,4.3,0123*68\r\n
$GPGGA,094218.35,5703.4743082,N,00952.4258839,E,2,10,0.8,-1.242,M,40.593,M,4.3,0123*64\r\n
$GPGGA,094218.40,5703.4743786,N,00952.4259280,E,2,10,0.8,-1.257,M,40.593,M,4.3,0123*68\r\n
$GPGGA,094218.45,5703.4744480,N,00952.4259732,E,2,10,0.8,-1.275,M,40.593,M,0.9,0123*6D\r\n
$GPGGA,094218.50,5703.4745173,N,00952.4260191,E,2,10,0.8,-1.288,M,40.593,M,0.9,0123*66\r\n
$GPGGA,094218.55,5703.4745870,N,00952.4260641,E,2,10,0.8,-1.298,M,40.593,M,0.9,0123*62\r\n
$GPGGA,094218.60,5703.4746558,N,00952.4261091,E,2,10,0.8,-1.305,M,40.593,M,0.9,0123*6F\r\n
$GPGGA,094218.65,5703.4747236,N,00952.4261526,E,2,10,0.8,-1.309,M,40.593,M,1.2,0123*6B\r\n
$GPGGA,094218.70,5703.4747884,N,00952.4261963,E,2,10,0.8,-1.312,M,40.593,M,1.2,0123*6B\r\n
$GPGGA,094218.75,5703.4748530,N,00952.4262392,E,2,10,0.8,-1.313,M,40.593,M,1.2,0123*65\r\n
$GPGGA,094218.80,5703.4749180,N,00952.4262829,E,2,10,0.8,-1.313,M,40.593,M,1.2,0123*6A\r\n
$GPGGA,094218.85,5703.4749839,N,00952.4263265,E,2,10,0.8,-1.312,M,40.593,M,1.4,0123*60\r\n
$GPGGA,094218.90,5703.4750479,N,00952.4263700,E,2,10,0.8,-1.312,M,40.593,M,1.4,0123*62\r\n
$GPGGA,094218.95,5703.4751112,N,00952.4264135,E,2,10,0.8,-1.311,M,40.593,M,1.4,0123*6A\r\n
$GPGGA,094219.00,5703.4751745,N,00952.4264566,E,2,10,0.8,-1.310,M,40.593,M,1.4,0123*60\r\n
$GPGGA,094219.05,5703.4752382,N,00952.4265001,E,2,10,0.8,-1.307,M,40.593,M,1.7,0123*69\r\n
$GPGGA,094219.10,5703.4753004,N,00952.4265439,E,2,10,0.8,-1.304,M,40.593,M,1.7,0123*6D\r\n
$GPGGA,094219.15,5703.4753631,N,00952.4265885,E,2,10,0.8,-1.303,M,40.593,M,1.7,0123*64\r\n
$GPGGA,094219.20,5703.4754253,N,00952.4266332,E,2,10,0.8,-1.304,M,40.593,M,1.7,0123*66\r\n
$GPGGA,094219.25,5703.4754886,N,00952.4266785,E,2,10,0.8,-1.302,M,40.593,M,1.9,0123*61\r\n
$GPGGA,094219.30,5703.4755523,N,00952.4267244,E,2,10,0.8,-1.304,M,40.593,M,1.9,0123*69\r\n
$GPGGA,094219.35,5703.4756148,N,00952.4267710,E,2,10,0.8,-1.307,M,40.593,M,1.9,0123*61\r\n
$GPGGA,094219.40,5703.4756770,N,00952.4268182,E,2,10,0.8,-1.310,M,40.593,M,1.9,0123*6A\r\n
$GPGGA,094219.45,5703.4757397,N,00952.4268662,E,2,10,0.8,-1.315,M,40.593,M,1.1,0123*67\r\n
$GPGGA,094219.50,5703.4758023,N,00952.4269154,E,2,10,0.8,-1.322,M,40.593,M,1.1,0123*67\r\n
$GPGGA,094219.55,5703.4758649,N,00952.4269656,E,2,10,0.8,-1.331,M,40.593,M,1.1,0123*6F\r\n
$GPGGA,094219.60,5703.4759288,N,00952.4270187,E,2,10,0.8,-1.339,M,40.593,M,1.1,0123*6A\r\n
$GPGGA,094219.65,5703.4759918,N,00952.4270709,E,2,10,0.8,-1.347,M,40.593,M,1.4,0123*61\r\n
$GPGGA,094219.70,5703.4760561,N,00952.4271224,E,2,10,0.8,-1.355,M,40.593,M,1.4,0123*65\r\n
$GPGGA,094219.75,5703.4761199,N,00952.4271726,E,2,10,0.8,-1.358,M,40.593,M,1.4,0123*68\r\n
$GPGGA,094219.80,5703.4761815,N,00952.4272224,E,2,10,0.8,-1.360,M,40.593,M,1.4,0123*60\r\n
$GPGGA,094219.85,5703.4762420,N,00952.4272719,E,2,10,0.8,-1.361,M,40.593,M,1.7,0123*65\r\n
$GPGGA,094219.90,5703.4763033,N,00952.4273217,E,2,10,0.8,-1.358,M,40.593,M,1.7,0123*66\r\n
$GPGGA,094219.95,5703.4763639,N,00952.4273712,E,2,10,0.8,-1.354,M,40.593,M,1.7,0123*63\r\n
$GPGGA,094220.00,5703.4764259,N,00952.4274198,E,2,10,0.8,-1.349,M,40.593,M,1.7,0123*6F\r\n
$GPGGA,094220.05,5703.4764846,N,00952.4274679,E,2,10,0.8,-1.347,M,40.593,M,1.9,0123*66\r\n
$GPGGA,094220.10,5703.4765453,N,00952.4275170,E,2,10,0.8,-1.340,M,40.593,M,1.9,0123*63\r\n
$GPGGA,094220.15,5703.4766065,N,00952.4275675,E,2,10,0.8,-1.332,M,40.593,M,1.9,0123*63\r\n
$GPGGA,094220.20,5703.4766680,N,00952.4276192,E,2,10,0.8,-1.327,M,40.593,M,1.9,0123*61\r\n
$GPGGA,094220.25,5703.4767298,N,00952.4276717,E,2,10,0.8,-1.319,M,40.593,M,2.2,0123*66\r\n
$GPGGA,094220.30,5703.4767913,N,00952.4277248,E,2,10,0.8,-1.313,M,40.593,M,2.2,0123*6E\r\n
$GPGGA,094220.35,5703.4768506,N,00952.4277794,E,2,10,0.8,-1.307,M,40.593,M,2.2,0123*6D\r\n
$GPGGA,094220.40,5703.4769119,N,00952.4278315,E,2,10,0.8,-1.299,M,40.593,M,2.2,0123*60\r\n
$GPGGA,094220.45,5703.4769720,N,00952.4278839,E,2,10,0.8,-1.295,M,40.593,M,2.4,0123*66\r\n
$GPGGA,094220.50,5703.4770321,N,00952.4279367,E,2,10,0.8,-1.288,M,40.593,M,2.4,0123*62\r\n
$GPGGA,094220.55,5703.4770910,N,00952.4279909,E,2,10,0.8,-1.281,M,40.593,M,2.4,0123*64\r\n
$GPGGA,094220.60,5703.4771507,N,00952.4280451,E,2,10,0.8,-1.274,M,40.593,M,2.4,0123*65\r\n
$GPGGA,094220.65,5703.4772118,N,00952.4281003,E,2,10,0.8,-1.268,M,40.593,M,2.6,0123*64\r\n
$GPGGA,094220.70,5703.4772720,N,00952.4281567,E,2,10,0.8,-1.264,M,40.593,M,2.6,0123*66\r\n
$GPGGA,094220.75,5703.4773313,N,00952.4282131,E,2,10,0.8,-1.263,M,40.593,M,2.6,0123*65\r\n
$GPGGA,094220.80,5703.4773895,N,00952.4282701,E,2,10,0.8,-1.265,M,40.593,M,2.6,0123*69\r\n
$GPGGA,094220.85,5703.4774489,N,00952.4283278,E,2,10,0.8,-1.269,M,40.593,M,2.9,0123*63\r\n
$GPGGA,094220.90,5703.4775071,N,00952.4283858,E,2,10,0.8,-1.271,M,40.593,M,2.9,0123*64\r\n
$GPGGA,094220.95,5703.4775659,N,00952.4284433,E,2,10,0.8,-1.271,M,40.593,M,2.9,0123*6B\r\n
$GPGGA,094221.00,5703.4776234,N,00952.4285011,E,2,10,0.8,-1.275,M,40.593,M,2.9,0123*6B\r\n
$GPGGA,094221.05,5703.4776804,N,00952.4285586,E,2,10,0.8,-1.285,M,40.593,M,3.1,0123*6A\r\n
$GPGGA,094221.10,5703.4777380,N,00952.4286163,E,2,10,0.8,-1.290,M,40.593,M,3.1,0123*60\r\n
$GPGGA,094221.15,5703.4777955,N,00952.4286738,E,2,10,0.8,-1.296,M,40.593,M,3.1,0123*69\r\n
$GPGGA,094221.20,5703.4778533,N,00952.4287309,E,2,10,0.8,-1.299,M,40.593,M,3.1,0123*64\r\n
$GPGGA,094221.25,5703.4779087,N,00952.4287894,E,2,10,0.8,-1.304,M,40.593,M,3.3,0123*62\r\n
$GPGGA,094221.30,5703.4779647,N,00952.4288501,E,2,10,0.8,-1.308,M,40.593,M,3.3,0123*6E\r\n
$GPGGA,094221.35,5703.4780198,N,00952.4289086,E,2,10,0.8,-1.313,M,40.593,M,3.3,0123*69\r\n
$GPGGA,094221.40,5703.4780743,N,00952.4289679,E,2,10,0.8,-1.315,M,40.593,M,3.3,0123*6B\r\n
$GPGGA,094221.45,5703.4781288,N,00952.4290269,E,2,10,0.8,-1.310,M,40.593,M,0.7,0123*62\r\n
$GPGGA,094221.50,5703.4781826,N,00952.4290858,E,2,10,0.8,-1.307,M,40.593,M,0.7,0123*66\r\n
$GPGGA,094221.55,5703.4782354,N,00952.4291435,E,2,10,0.8,-1.304,M,40.593,M,0.7,0123*6B\r\n
$GPGGA,094221.60,5703.4782883,N,00952.4292010,E,2,10,0.8,-1.300,M,40.593,M,0.7,0123*68\r\n
$GPGGA,094221.65,5703.4783415,N,00952.4292580,E,2,10,0.8,-1.296,M,40.593,M,1.0,0123*6B\r\n
$GPGGA,094221.70,5703.4783944,N,00952.4293157,E,2,10,0.8,-1.290,M,40.593,M,1.0,0123*6F\r\n
$GPGGA,094221.75,5703.4784464,N,00952.4293734,E,2,10,0.8,-1.284,M,40.593,M,1.0,0123*64\r\n
$GPGGA,094221.80,5703.4784980,N,00952.4294308,E,2,10,0.8,-1.274,M,40.593,M,1.0,0123*6A\r\n
$GPGGA,094221.85,5703.4785511,N,00952.4294869,E,2,10,0.8,-1.260,M,40.593,M,1.3,0123*60\r\n
$GPGGA,094221.90,5703.4786022,N,00952.4295432,E,2,10,0.8,-1.252,M,40.593,M,1.3,0123*60\r\n
$GPGGA,094221.95,5703.4786523,N,00952.4296006,E,2,10,0.8,-1.245,M,40.593,M,1.3,0123*67\r\n
$GPGGA,094222.00,5703.4787036,N,00952.4296583,E,2,10,0.8,-1.237,M,40.593,M,1.3,0123*65\r\n
$GPGGA,094222.05,5703.4787553,N,00952.4297161,E,2,10,0.8,-1.231,M,40.593,M,1.6,0123*6C\r\n
$GPGGA,094222.10,5703.4788073,N,00952.4297744,E,2,10,0.8,-1.228,M,40.593,M,1.6,0123*69\r\n
$GPGGA,094222.15,5703.4788574,N,00952.4298334,E,2,10,0.8,-1.232,M,40.593,M,1.6,0123*69\r\n
$GPGGA,094222.20,5703.4789075,N,00952.4298939,E,2,10,0.8,-1.239,M,40.593,M,1.6,0123*66\r\n
$GPGGA,094222.25,5703.4789574,N,00952.4299574,E,2,10,0.8,-1.249,M,40.593,M,1.8,0123*6A\r\n
$GPGGA,094222.30,5703.4790070,N,00952.4300205,E,2,10,0.8,-1.255,M,40.593,M,1.8,0123*6A\r\n
$GPGGA,094222.35,5703.4790560,N,00952.4300851,E,2,10,0.8,-1.264,M,40.593,M,1.8,0123*62\r\n
$GPGGA,094222.40,5703.4791051,N,00952.4301493,E,2,10,0.8,-1.278,M,40.593,M,1.8,0123*68\r\n
$GPGGA,094222.45,5703.4791539,N,00952.4302110,E,2,10,0.8,-1.291,M,40.593,M,0.9,0123*6C\r\n
$GPGGA,094222.50,5703.4792017,N,00952.4302705,E,2,10,0.8,-1.299,M,40.593,M,0.9,0123*68\r\n
$GPGGA,094222.55,5703.4792485,N,00952.4303306,E,2,10,0.8,-1.306,M,40.593,M,0.9,0123*63\r\n
$GPGGA,094222.60,5703.4792956,N,00952.4303926,E,2,10,0.8,-1.310,M,40.593,M,0.9,0123*69\r\n
$GPGGA,094222.65,5703.4793409,N,00952.4304543,E,2,10,0.8,-1.316,M,40.593,M,1.2,0123*6E\r\n
$GPGGA,094222.70,5703.4793881,N,00952.4305141,E,2,10,0.8,-1.319,M,40.593,M,1.2,0123*6E\r\n
$GPGGA,094222.75,5703.4794349,N,00952.4305748,E,2,10,0.8,-1.321,M,40.593,M,1.2,0123*67\r\n
$GPGGA,094222.80,5703.4794803,N,00952.4306344,E,2,10,0.8,-1.321,M,40.593,M,1.2,0123*63\r\n
$GPGGA,094222.85,5703.4795264,N,00952.4306950,E,2,10,0.8,-1.314,M,40.593,M,1.4,0123*63\r\n
$GPGGA,094222.90,5703.4795722,N,00952.4307559,E,2,10,0.8,-1.312,M,40.593,M,1.4,0123*62\r\n
$GPGGA,094222.95,5703.4796175,N,00952.4308170,E,2,10,0.8,-1.307,M,40.593,M,1.4,0123*64\r\n
$GPGGA,094223.00,5703.4796624,N,00952.4308780,E,2,10,0.8,-1.302,M,40.593,M,1.4,0123*66\r\n
$GPGGA,094223.05,5703.4797077,N,00952.4309379,E,2,10,0.8,-1.296,M,40.593,M,1.7,0123*6E\r\n
$GPGGA,094223.10,5703.4797519,N,00952.4309973,E,2,10,0.8,-1.290,M,40.593,M,1.7,0123*61\r\n
$GPGGA,094223.15,5703.4797971,N,00952.4310553,E,2,10,0.8,-1.282,M,40.593,M,1.7,0123*63\r\n
$GPGGA,094223.20,5703.4798421,N,00952.4311155,E,2,10,0.8,-1.276,M,40.593,M,1.7,0123*6A\r\n
$GPGGA,094223.25,5703.4798867,N,00952.4311762,E,2,10,0.8,-1.272,M,40.593,M,1.9,0123*69\r\n
$GPGGA,094223.30,5703.4799306,N,00952.4312391,E,2,10,0.8,-1.269,M,40.593,M,1.9,0123*61\r\n
$GPGGA,094223.35,5703.4799750,N,00952.4313021,E,2,10,0.8,-1.267,M,40.593,M,1.9,0123*64\r\n
$GPGGA,094223.40,5703.4800187,N,00952.4313655,E,2,10,0.8,-1.266,M,40.593,M,1.9,0123*61\r\n
$GPGGA,094223.45,5703.4800617,N,00952.4314295,E,2,10,0.8,-1.267,M,40.593,M,2.1,0123*6F\r\n
$GPGGA,094223.50,5703.4801053,N,00952.4314939,E,2,10,0.8,-1.273,M,40.593,M,2.1,0123*64\r\n
$GPGGA,094223.55,5703.4801494,N,00952.4315590,E,2,10,0.8,-1.278,M,40.593,M,2.1,0123*6B\r\n
$GPGGA,094223.60,5703.4801929,N,00952.4316225,E,2,10,0.8,-1.282,M,40.593,M,2.1,0123*69\r\n
$GPGGA,094223.65,5703.4802360,N,00952.4316861,E,2,10,0.8,-1.290,M,40.593,M,2.4,0123*64\r\n
$GPGGA,094223.70,5703.4802780,N,00952.4317491,E,2,10,0.8,-1.292,M,40.593,M,2.4,0123*6A\r\n
$GPGGA,094223.75,5703.4803206,N,00952.4318117,E,2,10,0.8,-1.294,M,40.593,M,2.4,0123*67\r\n
$GPGGA,094223.80,5703.4803625,N,00952.4318768,E,2,10,0.8,-1.295,M,40.593,M,2.4,0123*67\r\n
$GPGGA,094223.85,5703.4804047,N,00952.4319413,E,2,10,0.8,-1.294,M,40.593,M,2.6,0123*6A\r\n
$GPGGA,094223.90,5703.4804462,N,00952.4320060,E,2,10,0.8,-1.296,M,40.593,M,2.6,0123*65\r\n
$GPGGA,094223.95,5703.4804882,N,00952.4320699,E,2,10,0.8,-1.299,M,40.593,M,2.6,0123*6D\r\n
$GPGGA,094224.00,5703.4805297,N,00952.4321346,E,2,10,0.8,-1.299,M,40.593,M,2.6,0123*6F\r\n
$GPGGA,094224.05,5703.4805690,N,00952.4322003,E,2,10,0.8,-1.298,M,40.593,M,2.8,0123*67\r\n
$GPGGA,094224.10,5703.4806094,N,00952.4322661,E,2,10,0.8,-1.300,M,40.593,M,2.8,0123*60\r\n
$GPGGA,094224.15,5703.4806494,N,00952.4323326,E,2,10,0.8,-1.300,M,40.593,M,2.8,0123*66\r\n
$GPGGA,094224.20,5703.4806903,N,00952.4323999,E,2,10,0.8,-1.298,M,40.593,M,2.8,0123*6D\r\n
$GPGGA,094224.25,5703.4807312,N,00952.4324648,E,2,10,0.8,-1.296,M,40.593,M,3.0,0123*60\r\n
$GPGGA,094224.30,5703.4807717,N,00952.4325303,E,2,10,0.8,-1.295,M,40.593,M,3.0,0123*6D\r\n
$GPGGA,094224.35,5703.4808127,N,00952.4325959,E,2,10,0.8,-1.297,M,40.593,M,3.0,0123*65\r\n
$GPGGA,094224.40,5703.4808537,N,00952.4326623,E,2,10,0.8,-1.296,M,40.593,M,3.0,0123*62\r\n
$GPGGA,094224.45,5703.4808931,N,00952.4327291,E,2,10,0.8,-1.295,M,40.593,M,2.4,0123*67\r\n
$GPGGA,094224.50,5703.4809322,N,00952.4327977,E,2,10,0.8,-1.295,M,40.593,M,2.4,0123*69\r\n
$GPGGA,094224.55,5703.4809716,N,00952.4328669,E,2,10,0.8,-1.296,M,40.593,M,2.4,0123*63\r\n
$GPGGA,094224.60,5703.4810107,N,00952.4329364,E,2,10,0.8,-1.294,M,40.593,M,2.4,0123*60\r\n
$GPGGA,094224.65,5703.4810491,N,00952.4330058,E,2,10,0.8,-1.296,M,40.593,M,2.6,0123*6B\r\n
$GPGGA,094224.70,5703.4810876,N,00952.4330739,E,2,10,0.8,-1.298,M,40.593,M,2.6,0123*64\r\n
$GPGGA,094224.75,5703.4811266,N,00952.4331429,E,2,10,0.8,-1.296,M,40.593,M,2.6,0123*66\r\n
$GPGGA,094224.80,5703.4811646,N,00952.4332116,E,2,10,0.8,-1.295,M,40.593,M,2.6,0123*63\r\n
$GPGGA,094224.85,5703.4812027,N,00952.4332804,E,2,10,0.8,-1.294,M,40.593,M,2.9,0123*60\r\n
$GPGGA,094224.90,5703.4812409,N,00952.4333496,E,2,10,0.8,-1.291,M,40.593,M,2.9,0123*6F\r\n
$GPGGA,094224.95,5703.4812792,N,00952.4334176,E,2,10,0.8,-1.288,M,40.593,M,2.9,0123*6F\r\n
$GPGGA,094225.00,5703.4813171,N,00952.4334863,E,2,10,0.8,-1.285,M,40.593,M,2.9,0123*68\r\n
$GPGGA,094225.05,5703.4813550,N,00952.4335545,E,2,10,0.8,-1.283,M,40.593,M,3.1,0123*6D\r\n
$GPGGA,094225.10,5703.4813918,N,00952.4336234,E,2,10,0.8,-1.280,M,40.593,M,3.1,0123*68\r\n
$GPGGA,094225.15,5703.4814280,N,00952.4336923,E,2,10,0.8,-1.276,M,40.593,M,3.1,0123*64\r\n
$GPGGA,094225.20,5703.4814650,N,00952.4337605,E,2,10,0.8,-1.272,M,40.593,M,3.1,0123*65\r\n
$GPGGA,094225.25,5703.4815028,N,00952.4338302,E,2,10,0.8,-1.267,M,40.593,M,3.3,0123*63\r\n
$GPGGA,094225.30,5703.4815396,N,00952.4338985,E,2,10,0.8,-1.267,M,40.593,M,3.3,0123*64\r\n
$GPGGA,094225.35,5703.4815764,N,00952.4339674,E,2,10,0.8,-1.266,M,40.593,M,3.3,0123*69\r\n
$GPGGA,094225.40,5703.4816127,N,00952.4340371,E,2,10,0.8,-1.264,M,40.593,M,3.3,0123*65\r\n
$GPGGA,094225.45,5703.4816495,N,00952.4341069,E,2,10,0.8,-1.266,M,40.593,M,3.5,0123*63\r\n
$GPGGA,094225.50,5703.4816856,N,00952.4341774,E,2,10,0.8,-1.269,M,40.593,M,3.5,0123*60\r\n
$GPGGA,094225.55,5703.4817224,N,00952.4342479,E,2,10,0.8,-1.270,M,40.593,M,3.5,0123*6E\r\n
$GPGGA,094225.60,5703.4817576,N,00952.4343174,E,2,10,0.8,-1.272,M,40.593,M,3.5,0123*63\r\n
$GPGGA,094225.65,5703.4817931,N,00952.4343871,E,2,10,0.8,-1.276,M,40.593,M,3.7,0123*63\r\n
$GPGGA,094225.70,5703.4818281,N,00952.4344566,E,2,10,0.8,-1.275,M,40.593,M,3.7,0123*67\r\n
$GPGGA,094225.75,5703.4818622,N,00952.4345278,E,2,10,0.8,-1.274,M,40.593,M,3.7,0123*67\r\n
$GPGGA,094225.80,5703.4818967,N,00952.4345966,E,2,10,0.8,-1.274,M,40.593,M,3.7,0123*67\r\n
$GPGGA,094225.85,5703.4819307,N,00952.4346662,E,2,10,0.8,-1.274,M,40.593,M,3.9,0123*69\r\n
$GPGGA,094225.90,5703.4819642,N,00952.4347354,E,2,10,0.8,-1.272,M,40.593,M,3.9,0123*6E\r\n
$GPGGA,094225.95,5703.4819974,N,00952.4348049,E,2,10,0.8,-1.271,M,40.593,M,3.9,0123*62\r\n
