$GPGGA,101631.30,5703.4381083,N,00952.4640778,E,2,10,0.8,-1.776,M,40.593,M,3.0,0123*69
$GPVTG,162.25,T,-477.65,M,004.792,N,008.875,K,D*04
$GPGGA,101631.35,5703.4380440,N,00952.4641149,E,2,10,0.8,-1.776,M,40.593,M,3.0,0123*63
$GPVTG,162.40,T,-477.50,M,004.822,N,008.930,K,D*05
$GPGGA,101631.40,5703.4379803,N,00952.4641523,E,2,10,0.8,-1.775,M,40.593,M,3.0,0123*67
$GPVTG,162.37,T,-477.53,M,004.829,N,008.942,K,D*08
$GPGGA,101631.45,5703.4379162,N,00952.4641881,E,2,10,0.8,-1.772,M,40.593,M,3.2,0123*6C
$GPVTG,162.76,T,-477.14,M,004.837,N,008.957,K,D*05
$GPGGA,101631.50,5703.4378522,N,00952.4642234,E,2,10,0.8,-1.773,M,40.593,M,3.2,0123*6F
$GPVTG,163.13,T,-476.77,M,004.833,N,008.951,K,D*01
$GPGGA,101631.55,5703.4377872,N,00952.4642579,E,2,10,0.8,-1.773,M,40.593,M,3.2,0123*63
$GPVTG,163.64,T,-476.26,M,004.855,N,008.992,K,D*0A
$GPGGA,101631.60,5703.4377222,N,00952.4642922,E,2,10,0.8,-1.775,M,40.593,M,3.2,0123*6E
$GPVTG,164.00,T,-475.90,M,004.872,N,009.022,K,D*07
$GPGGA,101631.65,5703.4376563,N,00952.4643281,E,2,10,0.8,-1.767,M,40.593,M,3.4,0123*6E
$GPVTG,163.85,T,-476.05,M,004.927,N,009.125,K,D*05
$GPGGA,101631.70,5703.4375901,N,00952.4643628,E,2,10,0.8,-1.767,M,40.593,M,3.4,0123*66
$GPVTG,164.07,T,-475.83,M,004.958,N,009.182,K,D*00
$GPGGA,101631.75,5703.4375235,N,00952.4643987,E,2,10,0.8,-1.766,M,40.593,M,3.4,0123*64
$GPVTG,163.97,T,-475.93,M,005.000,N,009.260,K,D*05
$GPGGA,101631.80,5703.4374564,N,00952.4644331,E,2,10,0.8,-1.769,M,40.593,M,3.4,0123*63
$GPVTG,164.27,T,-475.63,M,005.033,N,009.321,K,D*02
$GPGGA,101631.85,5703.4373889,N,00952.4644685,E,2,10,0.8,-1.774,M,40.593,M,3.6,0123*6B
$GPVTG,164.24,T,-475.66,M,005.070,N,009.391,K,D*08
$GPGGA,101631.90,5703.4373220,N,00952.4645041,E,2,10,0.8,-1.776,M,40.593,M,3.6,0123*6B
$GPVTG,164.12,T,-475.78,M,005.075,N,009.399,K,D*0F
$GPGGA,101631.95,5703.4372549,N,00952.4645397,E,2,10,0.8,-1.776,M,40.593,M,3.6,0123*6F
$GPVTG,164.05,T,-475.85,M,005.079,N,009.406,K,D*06
$GPGGA,101632.00,5703.4371872,N,00952.4645747,E,2,10,0.8,-1.775,M,40.593,M,3.6,0123*6C
$GPVTG,164.19,T,-475.71,M,005.092,N,009.431,K,D*01
$GPGGA,101632.05,5703.4371186,N,00952.4646080,E,2,10,0.8,-1.776,M,40.593,M,2.0,0123*60
$GPVTG,164.61,T,-475.29,M,005.125,N,009.491,K,D*04
$GPGGA,101632.10,5703.4370509,N,00952.4646404,E,2,10,0.8,-1.775,M,40.593,M,2.0,0123*6D
$GPVTG,165.14,T,-474.76,M,005.106,N,009.457,K,D*07
$GPGGA,101632.15,5703.4369836,N,00952.4646756,E,2,10,0.8,-1.773,M,40.593,M,2.0,0123*63
$GPVTG,164.80,T,-475.10,M,005.092,N,009.430,K,D*07
$GPGGA,101632.20,5703.4369162,N,00952.4647090,E,2,10,0.8,-1.774,M,40.593,M,2.0,0123*66
$GPVTG,164.93,T,-474.97,M,005.073,N,009.395,K,D*0C
$GPGGA,101632.25,5703.4368489,N,00952.4647433,E,2,10,0.8,-1.774,M,40.593,M,2.3,0123*6C
$GPVTG,164.81,T,-475.09,M,005.061,N,009.373,K,D*02
$GPGGA,101632.30,5703.4367807,N,00952.4647763,E,2,10,0.8,-1.770,M,40.593,M,2.3,0123*6F
$GPVTG,165.06,T,-474.84,M,005.073,N,009.395,K,D*03
$GPGGA,101632.35,5703.4367116,N,00952.4648093,E,2,10,0.8,-1.765,M,40.593,M,2.3,0123*60
$GPVTG,165.32,T,-474.58,M,005.107,N,009.458,K,D*01
$GPGGA,101632.40,5703.4366432,N,00952.4648417,E,2,10,0.8,-1.762,M,40.593,M,2.3,0123*6F
$GPVTG,165.52,T,-474.38,M,005.108,N,009.460,K,D*05
$GPGGA,101632.45,5703.4365748,N,00952.4648734,E,2,10,0.8,-1.756,M,40.593,M,2.5,0123*64
$GPVTG,165.77,T,-474.13,M,005.107,N,009.459,K,D*0E
$GPGGA,101632.50,5703.4365064,N,00952.4649061,E,2,10,0.8,-1.751,M,40.593,M,2.5,0123*68
$GPVTG,165.71,T,-474.19,M,005.110,N,009.464,K,D*0A
$GPGGA,101632.55,5703.4364375,N,00952.4649371,E,2,10,0.8,-1.745,M,40.593,M,2.5,0123*68
$GPVTG,166.07,T,-473.83,M,005.116,N,009.474,K,D*0B
$GPGGA,101632.60,5703.4363690,N,00952.4649686,E,2,10,0.8,-1.739,M,40.593,M,2.5,0123*61
$GPVTG,166.15,T,-473.75,M,005.112,N,009.468,K,D*08
$GPGGA,101632.65,5703.4363009,N,00952.4649990,E,2,10,0.8,-1.737,M,40.593,M,2.8,0123*69
$GPVTG,166.42,T,-473.48,M,005.089,N,009.425,K,D*0E
$GPGGA,101632.70,5703.4362322,N,00952.4650304,E,2,10,0.8,-1.735,M,40.593,M,2.8,0123*6B
$GPVTG,166.33,T,-473.57,M,005.097,N,009.439,K,D*04
$GPGGA,101632.75,5703.4361636,N,00952.4650624,E,2,10,0.8,-1.732,M,40.593,M,2.8,0123*6D
$GPVTG,166.11,T,-473.79,M,005.101,N,009.447,K,D*0F
$GPGGA,101632.80,5703.4360953,N,00952.4650937,E,2,10,0.8,-1.728,M,40.593,M,2.8,0123*6C
$GPVTG,166.06,T,-473.84,M,005.092,N,009.430,K,D*00
$GPGGA,101632.85,5703.4360265,N,00952.4651280,E,2,10,0.8,-1.722,M,40.593,M,3.0,0123*62
$GPVTG,165.35,T,-474.55,M,005.119,N,009.481,K,D*00
$GPGGA,101632.90,5703.4359578,N,00952.4651620,E,2,10,0.8,-1.721,M,40.593,M,3.0,0123*6A
$GPVTG,164.99,T,-474.91,M,005.132,N,009.505,K,D*0B
$GPGGA,101632.95,5703.4358900,N,00952.4651956,E,2,10,0.8,-1.719,M,40.593,M,3.0,0123*68
$GPVTG,164.79,T,-475.11,M,005.111,N,009.465,K,D*0A
$GPGGA,101633.00,5703.4358226,N,00952.4652276,E,2,10,0.8,-1.716,M,40.593,M,3.0,0123*6F
$GPVTG,165.02,T,-474.88,M,005.070,N,009.389,K,D*05
$GPGGA,101633.05,5703.4357534,N,00952.4652598,E,2,10,0.8,-1.719,M,40.593,M,1.6,0123*6D
$GPVTG,165.27,T,-474.63,M,005.104,N,009.453,K,D*05
$GPGGA,101633.10,5703.4356848,N,00952.4652939,E,2,10,0.8,-1.718,M,40.593,M,1.6,0123*68
$GPVTG,165.02,T,-474.88,M,005.114,N,009.472,K,D*05
$GPGGA,101633.15,5703.4356168,N,00952.4653258,E,2,10,0.8,-1.717,M,40.593,M,1.6,0123*64
$GPVTG,165.31,T,-474.59,M,005.093,N,009.433,K,D*02
$GPGGA,101633.20,5703.4355486,N,00952.4653579,E,2,10,0.8,-1.716,M,40.593,M,1.6,0123*61
$GPVTG,165.49,T,-474.41,M,005.085,N,009.417,K,D*05
$GPGGA,101633.25,5703.4354807,N,00952.4653919,E,2,10,0.8,-1.723,M,40.593,M,1.8,0123*62
$GPVTG,165.21,T,-474.69,M,005.077,N,009.402,K,D*08
$GPGGA,101633.30,5703.4354131,N,00952.4654252,E,2,10,0.8,-1.722,M,40.593,M,1.8,0123*68
$GPVTG,165.08,T,-474.82,M,005.062,N,009.375,K,D*05
$GPGGA,101633.35,5703.4353452,N,00952.4654579,E,2,10,0.8,-1.723,M,40.593,M,1.8,0123*65
$GPVTG,165.15,T,-474.75,M,005.056,N,009.364,K,D*06
$GPGGA,101633.40,5703.4352774,N,00952.4654890,E,2,10,0.8,-1.721,M,40.593,M,1.8,0123*69
$GPVTG,165.56,T,-474.34,M,005.043,N,009.340,K,D*06
$GPGGA,101633.45,5703.4352106,N,00952.4655219,E,2,10,0.8,-1.722,M,40.593,M,2.1,0123*6C
$GPVTG,165.36,T,-474.54,M,005.016,N,009.290,K,D*0A
$GPGGA,101633.50,5703.4351440,N,00952.4655542,E,2,10,0.8,-1.724,M,40.593,M,2.1,0123*63
$GPVTG,165.30,T,-474.60,M,004.986,N,009.235,K,D*05
$GPGGA,101633.55,5703.4350766,N,00952.4655868,E,2,10,0.8,-1.724,M,40.593,M,2.1,0123*65
$GPVTG,165.26,T,-474.64,M,004.992,N,009.244,K,D*05
$GPGGA,101633.60,5703.4350093,N,00952.4656184,E,2,10,0.8,-1.721,M,40.593,M,2.1,0123*63
$GPVTG,165.44,T,-474.46,M,004.993,N,009.246,K,D*02
$GPGGA,101633.65,5703.4349421,N,00952.4656516,E,2,10,0.8,-1.731,M,40.593,M,2.3,0123*6F
$GPVTG,165.27,T,-474.63,M,004.995,N,009.251,K,D*00
$GPGGA,101633.70,5703.4348753,N,00952.4656875,E,2,10,0.8,-1.735,M,40.593,M,2.3,0123*60
$GPVTG,164.42,T,-475.48,M,005.004,N,009.268,K,D*00
$GPGGA,101633.75,5703.4348090,N,00952.4657207,E,2,10,0.8,-1.738,M,40.593,M,2.3,0123*6E
$GPVTG,164.41,T,-475.49,M,004.982,N,009.226,K,D*0E
$GPGGA,101633.80,5703.4347410,N,00952.4657535,E,2,10,0.8,-1.743,M,40.593,M,2.3,0123*6D
$GPVTG,164.74,T,-475.16,M,005.016,N,009.291,K,D*0B
$GPGGA,101633.85,5703.4346750,N,00952.4657881,E,2,10,0.8,-1.751,M,40.593,M,2.6,0123*6A
$GPVTG,164.39,T,-475.51,M,004.987,N,009.235,K,D*0F
$GPGGA,101633.90,5703.4346085,N,00952.4658223,E,2,10,0.8,-1.754,M,40.593,M,2.6,0123*69
$GPVTG,164.28,T,-475.62,M,004.981,N,009.225,K,D*08
$GPGGA,101633.95,5703.4345419,N,00952.4658576,E,2,10,0.8,-1.758,M,40.593,M,2.6,0123*65
$GPVTG,163.97,T,-475.93,M,004.989,N,009.240,K,D*0E
$GPGGA,101634.00,5703.4344754,N,00952.4658944,E,2,10,0.8,-1.759,M,40.593,M,2.6,0123*69
$GPVTG,163.46,T,-476.44,M,004.998,N,009.256,K,D*0C
$GPGGA,101634.05,5703.4344100,N,00952.4659280,E,2,10,0.8,-1.758,M,40.593,M,1.7,0123*6A
$GPVTG,163.63,T,-476.27,M,004.964,N,009.194,K,D*00
$GPGGA,101634.10,5703.4343438,N,00952.4659627,E,2,10,0.8,-1.760,M,40.593,M,1.7,0123*65
$GPVTG,163.73,T,-476.17,M,004.959,N,009.185,K,D*0C
$GPGGA,101634.15,5703.4342786,N,00952.4659990,E,2,10,0.8,-1.762,M,40.593,M,1.7,0123*66
$GPVTG,163.37,T,-476.53,M,004.937,N,009.143,K,D*0E
$GPGGA,101634.20,5703.4342124,N,00952.4660352,E,2,10,0.8,-1.763,M,40.593,M,1.7,0123*61
$GPVTG,163.27,T,-476.63,M,004.947,N,009.162,K,D*08
$GPGGA,101634.25,5703.4341468,N,00952.4660708,E,2,10,0.8,-1.773,M,40.593,M,1.9,0123*6E
$GPVTG,163.37,T,-476.53,M,004.935,N,009.139,K,D*01
$GPGGA,101634.30,5703.4340805,N,00952.4661072,E,2,10,0.8,-1.775,M,40.593,M,1.9,0123*61
$GPVTG,163.29,T,-476.61,M,004.955,N,009.176,K,D*02
$GPGGA,101634.35,5703.4340131,N,00952.4661413,E,2,10,0.8,-1.777,M,40.593,M,1.9,0123*6B
$GPVTG,163.87,T,-476.03,M,004.989,N,009.240,K,D*05
$GPGGA,101634.40,5703.4339464,N,00952.4661744,E,2,10,0.8,-1.779,M,40.593,M,1.9,0123*6D
$GPVTG,164.47,T,-475.43,M,004.993,N,009.247,K,D*05
$GPGGA,101634.45,5703.4338802,N,00952.4662085,E,2,10,0.8,-1.779,M,40.593,M,2.1,0123*67
$GPVTG,164.55,T,-475.35,M,004.984,N,009.230,K,D*01
$GPGGA,101634.50,5703.4338125,N,00952.4662426,E,2,10,0.8,-1.780,M,40.593,M,2.1,0123*64
$GPVTG,164.72,T,-475.18,M,005.020,N,009.297,K,D*00
$GPGGA,101634.55,5703.4337452,N,00952.4662749,E,2,10,0.8,-1.783,M,40.593,M,2.1,0123*62
$GPVTG,165.18,T,-474.72,M,005.027,N,009.310,K,D*09
$GPGGA,101634.60,5703.4336782,N,00952.4663088,E,2,10,0.8,-1.782,M,40.593,M,2.1,0123*61
$GPVTG,165.04,T,-474.86,M,005.029,N,009.314,K,D*05
$GPGGA,101634.65,5703.4336107,N,00952.4663416,E,2,10,0.8,-1.780,M,40.593,M,2.4,0123*6B
$GPVTG,165.22,T,-474.68,M,005.043,N,009.340,K,D*0C
$GPGGA,101634.70,5703.4335423,N,00952.4663734,E,2,10,0.8,-1.778,M,40.593,M,2.4,0123*6B
$GPVTG,165.61,T,-474.29,M,005.070,N,009.389,K,D*0B
$GPGGA,101634.75,5703.4334750,N,00952.4664042,E,2,10,0.8,-1.777,M,40.593,M,2.4,0123*66
$GPVTG,165.99,T,-473.91,M,005.051,N,009.354,K,D*0B
$GPGGA,101634.80,5703.4334068,N,00952.4664357,E,2,10,0.8,-1.777,M,40.593,M,2.4,0123*67
$GPVTG,166.11,T,-473.79,M,005.065,N,009.380,K,D*00
$GPGGA,101634.85,5703.4333383,N,00952.4664678,E,2,10,0.8,-1.781,M,40.593,M,2.6,0123*60
$GPVTG,166.10,T,-473.80,M,005.088,N,009.423,K,D*0A
$GPGGA,101634.90,5703.4332696,N,00952.4664994,E,2,10,0.8,-1.777,M,40.593,M,2.6,0123*60
$GPVTG,166.11,T,-473.79,M,005.107,N,009.458,K,D*07
$GPGGA,101634.95,5703.4332021,N,00952.4665296,E,2,10,0.8,-1.774,M,40.593,M,2.6,0123*64
$GPVTG,166.32,T,-473.58,M,005.075,N,009.399,K,D*0B
$GPGGA,101635.00,5703.4331344,N,00952.4665603,E,2,10,0.8,-1.772,M,40.593,M,2.6,0123*64
$GPVTG,166.34,T,-473.56,M,005.059,N,009.370,K,D*0A
$GPGGA,101635.05,5703.4330665,N,00952.4665916,E,2,10,0.8,-1.766,M,40.593,M,2.8,0123*66
$GPVTG,166.08,T,-473.82,M,005.066,N,009.382,K,D*0D
$GPGGA,101635.10,5703.4329989,N,00952.4666230,E,2,10,0.8,-1.757,M,40.593,M,2.8,0123*69
$GPVTG,165.95,T,-473.95,M,005.052,N,009.357,K,D*03
$GPGGA,101635.15,5703.4329307,N,00952.4666522,E,2,10,0.8,-1.751,M,40.593,M,2.8,0123*62
$GPVTG,166.42,T,-473.48,M,005.048,N,009.349,K,D*0E
$GPGGA,101635.20,5703.4328618,N,00952.4666816,E,2,10,0.8,-1.744,M,40.593,M,2.8,0123*60
$GPVTG,166.74,T,-473.16,M,005.071,N,009.391,K,D*0F
$GPGGA,101635.25,5703.4327934,N,00952.4667115,E,2,10,0.8,-1.737,M,40.593,M,3.0,0123*6D
$GPVTG,166.78,T,-473.12,M,005.077,N,009.402,K,D*0C
$GPGGA,101635.30,5703.4327245,N,00952.4667422,E,2,10,0.8,-1.730,M,40.593,M,3.0,0123*62
$GPVTG,166.63,T,-473.27,M,005.096,N,009.438,K,D*06
$GPGGA,101635.35,5703.4326560,N,00952.4667734,E,2,10,0.8,-1.725,M,40.593,M,3.0,0123*66
$GPVTG,166.39,T,-473.51,M,005.101,N,009.447,K,D*0F
$GPGGA,101635.40,5703.4325871,N,00952.4668034,E,2,10,0.8,-1.722,M,40.593,M,3.0,0123*65
$GPVTG,166.50,T,-473.40,M,005.111,N,009.466,K,D*02
$GPGGA,101635.45,5703.4325179,N,00952.4668337,E,2,10,0.8,-1.726,M,40.593,M,3.2,0123*67
$GPVTG,166.61,T,-473.29,M,005.125,N,009.492,K,D*03
$GPGGA,101635.50,5703.4324478,N,00952.4668629,E,2,10,0.8,-1.722,M,40.593,M,3.2,0123*68
$GPVTG,166.94,T,-472.96,M,005.158,N,009.552,K,D*0B
$GPGGA,101635.55,5703.4323787,N,00952.4668924,E,2,10,0.8,-1.719,M,40.593,M,3.2,0123*63
$GPVTG,167.01,T,-472.89,M,005.152,N,009.541,K,D*00
$GPGGA,101635.60,5703.4323078,N,00952.4669223,E,2,10,0.8,-1.720,M,40.593,M,3.2,0123*65
$GPVTG,167.11,T,-472.79,M,005.203,N,009.636,K,D*0A
$GPGGA,101635.65,5703.4322374,N,00952.4669507,E,2,10,0.8,-1.721,M,40.593,M,3.4,0123*68
$GPVTG,167.43,T,-472.47,M,005.214,N,009.657,K,D*01
$GPGGA,101635.70,5703.4321671,N,00952.4669803,E,2,10,0.8,-1.726,M,40.593,M,3.4,0123*61
$GPVTG,167.37,T,-472.53,M,005.225,N,009.676,K,D*06
$GPGGA,101635.75,5703.4320974,N,00952.4670093,E,2,10,0.8,-1.727,M,40.593,M,3.4,0123*67
$GPVTG,167.38,T,-472.52,M,005.206,N,009.641,K,D*0D
$GPGGA,101635.80,5703.4320274,N,00952.4670369,E,2,10,0.8,-1.727,M,40.593,M,3.4,0123*60
$GPVTG,167.71,T,-472.19,M,005.194,N,009.620,K,D*00
$GPGGA,101635.85,5703.4319579,N,00952.4670632,E,2,10,0.8,-1.721,M,40.593,M,3.6,0123*6A
$GPVTG,168.13,T,-471.77,M,005.166,N,009.567,K,D*0D
$GPGGA,101635.90,5703.4318884,N,00952.4670914,E,2,10,0.8,-1.718,M,40.593,M,3.6,0123*61
$GPVTG,167.99,T,-471.91,M,005.150,N,009.537,K,D*08
$GPGGA,101635.95,5703.4318184,N,00952.4671183,E,2,10,0.8,-1.716,M,40.593,M,3.6,0123*64
$GPVTG,168.17,T,-471.73,M,005.149,N,009.535,K,D*07
$GPGGA,101636.00,5703.4317500,N,00952.4671459,E,2,10,0.8,-1.717,M,40.593,M,3.6,0123*6F
$GPVTG,168.01,T,-471.89,M,005.106,N,009.456,K,D*0A
$GPGGA,101636.05,5703.4316810,N,00952.4671722,E,2,10,0.8,-1.719,M,40.593,M,2.0,0123*61
$GPVTG,168.09,T,-471.81,M,005.093,N,009.432,K,D*05
$GPGGA,101636.10,5703.4316122,N,00952.4671989,E,2,10,0.8,-1.718,M,40.593,M,2.0,0123*63
$GPVTG,168.13,T,-471.77,M,005.073,N,009.396,K,D*00
$GPGGA,101636.15,5703.4315426,N,00952.4672236,E,2,10,0.8,-1.715,M,40.593,M,2.0,0123*65
$GPVTG,168.65,T,-471.25,M,005.081,N,009.409,K,D*0A
$GPGGA,101636.20,5703.4314732,N,00952.4672508,E,2,10,0.8,-1.715,M,40.593,M,2.0,0123*6E
$GPVTG,168.41,T,-471.49,M,005.090,N,009.427,K,D*0A
$GPGGA,101636.25,5703.4314052,N,00952.4672784,E,2,10,0.8,-1.710,M,40.593,M,2.3,0123*6A
$GPVTG,167.97,T,-471.93,M,005.063,N,009.377,K,D*07
$GPGGA,101636.30,5703.4313351,N,00952.4673047,E,2,10,0.8,-1.710,M,40.593,M,2.3,0123*60
$GPVTG,168.15,T,-471.75,M,005.099,N,009.443,K,D*0F
$GPGGA,101636.35,5703.4312670,N,00952.4673318,E,2,10,0.8,-1.710,M,40.593,M,2.3,0123*6B
$GPVTG,167.95,T,-471.95,M,005.067,N,009.385,K,D*0A
$GPGGA,101636.40,5703.4311989,N,00952.4673610,E,2,10,0.8,-1.713,M,40.593,M,2.3,0123*6D
$GPVTG,167.35,T,-472.55,M,005.055,N,009.361,K,D*04
$GPGGA,101636.45,5703.4311290,N,00952.4673877,E,2,10,0.8,-1.715,M,40.593,M,2.5,0123*64
$GPVTG,167.69,T,-472.21,M,005.088,N,009.423,K,D*0F
$GPGGA,101636.50,5703.4310601,N,00952.4674135,E,2,10,0.8,-1.718,M,40.593,M,2.5,0123*68
$GPVTG,168.06,T,-471.84,M,005.082,N,009.412,K,D*0D
$GPGGA,101636.55,5703.4309926,N,00952.4674388,E,2,10,0.8,-1.719,M,40.593,M,2.5,0123*6A
$GPVTG,168.32,T,-471.58,M,005.033,N,009.320,K,D*07
$GPGGA,101636.60,5703.4309240,N,00952.4674650,E,2,10,0.8,-1.721,M,40.593,M,2.5,0123*6C
$GPVTG,168.36,T,-471.54,M,005.033,N,009.321,K,D*0E
$GPGGA,101636.65,5703.4308571,N,00952.4674918,E,2,10,0.8,-1.724,M,40.593,M,2.8,0123*66
$GPVTG,168.08,T,-471.82,M,004.987,N,009.235,K,D*0B
$GPGGA,101636.70,5703.4307896,N,00952.4675187,E,2,10,0.8,-1.724,M,40.593,M,2.8,0123*66
$GPVTG,167.91,T,-471.99,M,004.971,N,009.207,K,D*06
$GPGGA,101636.75,5703.4307221,N,00952.4675449,E,2,10,0.8,-1.725,M,40.593,M,2.8,0123*63
$GPVTG,167.96,T,-471.95,M,004.962,N,009.189,K,D*0A
$GPGGA,101636.80,5703.4306551,N,00952.4675704,E,2,10,0.8,-1.729,M,40.593,M,2.8,0123*6E
$GPVTG,168.11,T,-471.79,M,004.941,N,009.151,K,D*0C
$GPGGA,101636.85,5703.4305882,N,00952.4675960,E,2,10,0.8,-1.730,M,40.593,M,3.0,0123*66
$GPVTG,168.16,T,-471.74,M,004.925,N,009.121,K,D*03
$GPGGA,101636.90,5703.4305210,N,00952.4676222,E,2,10,0.8,-1.731,M,40.593,M,3.0,0123*6C
$GPVTG,168.11,T,-471.79,M,004.925,N,009.122,K,D*0A
$GPGGA,101636.95,5703.4304539,N,00952.4676476,E,2,10,0.8,-1.733,M,40.593,M,3.0,0123*61
$GPVTG,168.23,T,-471.67,M,004.923,N,009.118,K,D*0B
$GPGGA,101637.00,5703.4303864,N,00952.4676711,E,2,10,0.8,-1.733,M,40.593,M,3.0,0123*6C
$GPVTG,168.81,T,-471.09,M,004.931,N,009.132,K,D*00
$GPGGA,101637.05,5703.4303201,N,00952.4676960,E,2,10,0.8,-1.735,M,40.593,M,1.6,0123*6A
$GPVTG,168.57,T,-471.33,M,004.915,N,009.102,K,D*07
$GPGGA,101637.10,5703.4302536,N,00952.4677210,E,2,10,0.8,-1.738,M,40.593,M,1.6,0123*6C
$GPVTG,168.55,T,-471.35,M,004.901,N,009.077,K,D*05
$GPGGA,101637.15,5703.4301865,N,00952.4677445,E,2,10,0.8,-1.741,M,40.593,M,1.6,0123*69
$GPVTG,168.92,T,-470.98,M,004.905,N,009.085,K,D*01
$GPGGA,101637.20,5703.4301197,N,00952.4677697,E,2,10,0.8,-1.743,M,40.593,M,1.6,0123*64
$GPVTG,168.73,T,-471.17,M,004.909,N,009.091,K,D*01
$GPGGA,101637.25,5703.4300530,N,00952.4677937,E,2,10,0.8,-1.746,M,40.593,M,1.8,0123*67
$GPVTG,168.88,T,-471.02,M,004.904,N,009.082,K,D*0E
$GPGGA,101637.30,5703.4299862,N,00952.4678199,E,2,10,0.8,-1.748,M,40.593,M,1.8,0123*65
$GPVTG,168.43,T,-471.47,M,004.913,N,009.099,K,D*04
$GPGGA,101637.35,5703.4299195,N,00952.4678451,E,2,10,0.8,-1.750,M,40.593,M,1.8,0123*69
$GPVTG,168.34,T,-471.56,M,004.912,N,009.098,K,D*04
$GPGGA,101637.40,5703.4298530,N,00952.4678691,E,2,10,0.8,-1.754,M,40.593,M,1.8,0123*6B
$GPVTG,168.57,T,-471.33,M,004.900,N,009.074,K,D*03
$GPGGA,101637.45,5703.4297865,N,00952.4678933,E,2,10,0.8,-1.757,M,40.593,M,2.1,0123*62
$GPVTG,168.70,T,-471.20,M,004.892,N,009.060,K,D*0B
$GPGGA,101637.50,5703.4297200,N,00952.4679182,E,2,10,0.8,-1.758,M,40.593,M,2.1,0123*63
$GPVTG,168.60,T,-471.30,M,004.891,N,009.058,K,D*03
$GPGGA,101637.55,5703.4296522,N,00952.4679425,E,2,10,0.8,-1.765,M,40.593,M,2.1,0123*66
$GPVTG,168.77,T,-471.13,M,004.929,N,009.128,K,D*00
$GPGGA,101637.60,5703.4295851,N,00952.4679678,E,2,10,0.8,-1.770,M,40.593,M,2.1,0123*64
$GPVTG,168.61,T,-471.29,M,004.942,N,009.153,K,D*0F
$GPGGA,101637.65,5703.4295183,N,00952.4679939,E,2,10,0.8,-1.771,M,40.593,M,2.3,0123*6E
$GPVTG,168.24,T,-471.66,M,004.943,N,009.154,K,D*03
$GPGGA,101637.70,5703.4294502,N,00952.4680197,E,2,10,0.8,-1.773,M,40.593,M,2.3,0123*6E
$GPVTG,168.20,T,-471.70,M,004.983,N,009.228,K,D*04
$GPGGA,101637.75,5703.4293821,N,00952.4680432,E,2,10,0.8,-1.774,M,40.593,M,2.3,0123*6D
$GPVTG,168.75,T,-471.15,M,004.996,N,009.253,K,D*0F
$GPGGA,101637.80,5703.4293149,N,00952.4680677,E,2,10,0.8,-1.778,M,40.593,M,2.3,0123*6F
$GPVTG,168.82,T,-471.08,M,004.984,N,009.230,K,D*0D
$GPGGA,101637.85,5703.4292483,N,00952.4680925,E,2,10,0.8,-1.776,M,40.593,M,2.6,0123*6B
$GPVTG,168.72,T,-471.18,M,004.957,N,009.180,K,D*05
$GPGGA,101637.90,5703.4291805,N,00952.4681178,E,2,10,0.8,-1.777,M,40.593,M,2.6,0123*6E
$GPVTG,168.63,T,-471.27,M,004.971,N,009.207,K,D*01
$GPGGA,101637.95,5703.4291121,N,00952.4681423,E,2,10,0.8,-1.777,M,40.593,M,2.6,0123*6F
$GPVTG,168.79,T,-471.11,M,005.000,N,009.261,K,D*01
$GPGGA,101638.00,5703.4290440,N,00952.4681678,E,2,10,0.8,-1.778,M,40.593,M,2.6,0123*6C
$GPVTG,168.64,T,-471.26,M,005.013,N,009.284,K,D*00
$GPGGA,101638.05,5703.4289763,N,00952.4681932,E,2,10,0.8,-1.771,M,40.593,M,1.7,0123*69
$GPVTG,168.35,T,-471.55,M,005.025,N,009.307,K,D*0F
$GPGGA,101638.10,5703.4289082,N,00952.4682198,E,2,10,0.8,-1.771,M,40.593,M,1.7,0123*6E
$GPVTG,168.09,T,-471.81,M,005.033,N,009.321,K,D*0A
$GPGGA,101638.15,5703.4288397,N,00952.4682457,E,2,10,0.8,-1.770,M,40.593,M,1.7,0123*6A
$GPVTG,168.14,T,-471.76,M,005.046,N,009.346,K,D*0D
$GPGGA,101638.20,5703.4287718,N,00952.4682726,E,2,10,0.8,-1.767,M,40.593,M,1.7,0123*63
$GPVTG,167.91,T,-471.99,M,005.040,N,009.333,K,D*0A
$GPGGA,101638.25,5703.4287029,N,00952.4682984,E,2,10,0.8,-1.767,M,40.593,M,1.9,0123*6B
$GPVTG,168.12,T,-471.78,M,005.061,N,009.372,K,D*07
$GPGGA,101638.30,5703.4286349,N,00952.4683250,E,2,10,0.8,-1.763,M,40.593,M,1.9,0123*6C
$GPVTG,168.02,T,-471.88,M,005.049,N,009.351,K,D*02
$GPGGA,101638.35,5703.4285655,N,00952.4683503,E,2,10,0.8,-1.760,M,40.593,M,1.9,0123*60
$GPVTG,168.38,T,-471.52,M,005.075,N,009.399,K,D*07
$GPGGA,101638.40,5703.4284956,N,00952.4683751,E,2,10,0.8,-1.757,M,40.593,M,1.9,0123*6E
$GPVTG,168.77,T,-471.13,M,005.110,N,009.464,K,D*0E
$GPGGA,101638.45,5703.4284253,N,00952.4684005,E,2,10,0.8,-1.762,M,40.593,M,2.1,0123*69
$GPVTG,169.06,T,-470.84,M,005.154,N,009.545,K,D*04
$GPGGA,101638.50,5703.4283561,N,00952.4684269,E,2,10,0.8,-1.763,M,40.593,M,2.1,0123*65
$GPVTG,168.80,T,-471.10,M,005.150,N,009.538,K,D*09
$GPGGA,101638.55,5703.4282870,N,00952.4684520,E,2,10,0.8,-1.762,M,40.593,M,2.1,0123*67
$GPVTG,168.88,T,-471.02,M,005.137,N,009.514,K,D*0D
$GPGGA,101638.60,5703.4282171,N,00952.4684757,E,2,10,0.8,-1.764,M,40.593,M,2.1,0123*6D
$GPVTG,169.25,T,-470.65,M,005.138,N,009.516,K,D*06
$GPGGA,101638.65,5703.4281475,N,00952.4685010,E,2,10,0.8,-1.756,M,40.593,M,2.4,0123*6B
$GPVTG,169.13,T,-470.77,M,005.151,N,009.540,K,D*0C
$GPGGA,101638.70,5703.4280765,N,00952.4685255,E,2,10,0.8,-1.753,M,40.593,M,2.4,0123*6A
$GPVTG,169.29,T,-470.61,M,005.186,N,009.604,K,D*0B
$GPGGA,101638.75,5703.4280065,N,00952.4685501,E,2,10,0.8,-1.752,M,40.593,M,2.4,0123*6F
$GPVTG,169.31,T,-470.59,M,005.178,N,009.590,K,D*06
$GPGGA,101638.80,5703.4279369,N,00952.4685747,E,2,10,0.8,-1.747,M,40.593,M,2.4,0123*68
$GPVTG,169.28,T,-470.62,M,005.157,N,009.550,K,D*07
$GPGGA,101638.85,5703.4278670,N,00952.4685994,E,2,10,0.8,-1.742,M,40.593,M,2.6,0123*66
$GPVTG,169.22,T,-470.68,M,005.154,N,009.546,K,D*03
$GPGGA,101638.90,5703.4277982,N,00952.4686234,E,2,10,0.8,-1.739,M,40.593,M,2.6,0123*61
$GPVTG,169.29,T,-470.61,M,005.116,N,009.475,K,D*06
$GPGGA,101638.95,5703.4277283,N,00952.4686467,E,2,10,0.8,-1.738,M,40.593,M,2.6,0123*6F
$GPVTG,169.52,T,-470.38,M,005.113,N,009.469,K,D*0E
$GPGGA,101639.00,5703.4276580,N,00952.4686704,E,2,10,0.8,-1.732,M,40.593,M,2.6,0123*6B
$GPVTG,169.62,T,-470.29,M,005.126,N,009.493,K,D*0E
$GPGGA,101639.05,5703.4275892,N,00952.4686929,E,2,10,0.8,-1.729,M,40.593,M,2.8,0123*66
$GPVTG,169.73,T,-470.17,M,005.102,N,009.448,K,D*03
$GPGGA,101639.10,5703.4275189,N,00952.4687149,E,2,10,0.8,-1.725,M,40.593,M,2.8,0123*62
$GPVTG,170.11,T,-469.79,M,005.118,N,009.479,K,D*06
$GPGGA,101639.15,5703.4274486,N,00952.4687370,E,2,10,0.8,-1.723,M,40.593,M,2.8,0123*62
$GPVTG,170.34,T,-469.56,M,005.128,N,009.498,K,D*00
$GPGGA,101639.20,5703.4273788,N,00952.4687583,E,2,10,0.8,-1.720,M,40.593,M,2.8,0123*67
$GPVTG,170.58,T,-469.32,M,005.118,N,009.478,K,D*05
$GPGGA,101639.25,5703.4273083,N,00952.4687805,E,2,10,0.8,-1.718,M,40.593,M,3.0,0123*6F
$GPVTG,170.56,T,-469.34,M,005.139,N,009.518,K,D*09
$GPGGA,101639.30,5703.4272381,N,00952.4688026,E,2,10,0.8,-1.715,M,40.593,M,3.0,0123*60
$GPVTG,170.51,T,-469.39,M,005.143,N,009.524,K,D*01
$GPGGA,101639.35,5703.4271686,N,00952.4688246,E,2,10,0.8,-1.714,M,40.593,M,3.0,0123*61
$GPVTG,170.42,T,-469.48,M,005.121,N,009.484,K,D*0A
$GPGGA,101639.40,5703.4270990,N,00952.4688471,E,2,10,0.8,-1.712,M,40.593,M,3.0,0123*6E
$GPVTG,170.25,T,-469.65,M,005.111,N,009.465,K,D*08
$GPGGA,101639.45,5703.4270295,N,00952.4688699,E,2,10,0.8,-1.714,M,40.593,M,3.2,0123*65
$GPVTG,170.05,T,-469.85,M,005.100,N,009.446,K,D*05
$GPGGA,101639.50,5703.4269597,N,00952.4688924,E,2,10,0.8,-1.714,M,40.593,M,3.2,0123*65
$GPVTG,170.00,T,-469.90,M,005.102,N,009.448,K,D*08
$GPGGA,101639.55,5703.4268903,N,00952.4689136,E,2,10,0.8,-1.715,M,40.593,M,3.2,0123*6B
$GPVTG,170.25,T,-469.65,M,005.087,N,009.421,K,D*06
$GPGGA,101639.60,5703.4268200,N,00952.4689352,E,2,10,0.8,-1.716,M,40.593,M,3.2,0123*66
$GPVTG,170.40,T,-469.50,M,005.107,N,009.457,K,D*0B
$GPGGA,101639.65,5703.4267513,N,00952.4689558,E,2,10,0.8,-1.711,M,40.593,M,3.4,0123*64
$GPVTG,170.56,T,-469.34,M,005.071,N,009.391,K,D*03
$GPGGA,101639.70,5703.4266810,N,00952.4689749,E,2,10,0.8,-1.712,M,40.593,M,3.4,0123*6E
$GPVTG,171.17,T,-468.73,M,005.089,N,009.425,K,D*0A
$GPGGA,101639.75,5703.4266113,N,00952.4689956,E,2,10,0.8,-1.711,M,40.593,M,3.4,0123*62
$GPVTG,171.13,T,-468.77,M,005.092,N,009.430,K,D*04
$GPGGA,101639.80,5703.4265412,N,00952.4690138,E,2,10,0.8,-1.712,M,40.593,M,3.4,0123*64
$GPVTG,171.68,T,-468.22,M,005.096,N,009.438,K,D*04
$GPGGA,101639.85,5703.4264728,N,00952.4690324,E,2,10,0.8,-1.717,M,40.593,M,3.6,0123*62
$GPVTG,171.84,T,-468.06,M,005.047,N,009.347,K,D*03
$GPGGA,101639.90,5703.4264034,N,00952.4690496,E,2,10,0.8,-1.718,M,40.593,M,3.6,0123*6D
$GPVTG,172.25,T,-467.65,M,005.041,N,009.336,K,D*01
$GPGGA,101639.95,5703.4263343,N,00952.4690685,E,2,10,0.8,-1.720,M,40.593,M,3.6,0123*67
$GPVTG,172.08,T,-467.82,M,005.034,N,009.324,K,D*06
$GPGGA,101640.00,5703.4262649,N,00952.4690878,E,2,10,0.8,-1.723,M,40.593,M,3.6,0123*64
$GPVTG,171.83,T,-468.07,M,005.043,N,009.339,K,D*08
$GPGGA,101640.05,5703.4261961,N,00952.4691034,E,2,10,0.8,-1.722,M,40.593,M,2.0,0123*60
$GPVTG,172.18,T,-467.72,M,005.026,N,009.309,K,D*04
$GPGGA,101640.10,5703.4261266,N,00952.4691212,E,2,10,0.8,-1.724,M,40.593,M,2.0,0123*68
$GPVTG,172.20,T,-467.70,M,005.033,N,009.322,K,D*00
$GPGGA,101640.15,5703.4260585,N,00952.4691390,E,2,10,0.8,-1.727,M,40.593,M,2.0,0123*6E
$GPVTG,172.13,T,-467.77,M,005.004,N,009.266,K,D*02
$GPGGA,101640.20,5703.4259898,N,00952.4691573,E,2,10,0.8,-1.728,M,40.593,M,2.0,0123*67
$GPVTG,171.99,T,-467.91,M,004.998,N,009.257,K,D*04
$GPGGA,101640.25,5703.4259216,N,00952.4691747,E,2,10,0.8,-1.730,M,40.593,M,2.3,0123*61
$GPVTG,172.06,T,-467.84,M,004.978,N,009.220,K,D*0B
$GPGGA,101640.30,5703.4258538,N,00952.4691925,E,2,10,0.8,-1.735,M,40.593,M,2.3,0123*60
$GPVTG,171.98,T,-467.92,M,004.954,N,009.175,K,D*05
$GPGGA,101640.35,5703.4257856,N,00952.4692097,E,2,10,0.8,-1.736,M,40.593,M,2.3,0123*6F
$GPVTG,172.09,T,-467.81,M,004.951,N,009.168,K,D*05
$GPGGA,101640.40,5703.4257181,N,00952.4692287,E,2,10,0.8,-1.739,M,40.593,M,2.3,0123*62
$GPVTG,171.69,T,-468.21,M,004.931,N,009.132,K,D*0C
$GPGGA,101640.45,5703.4256506,N,00952.4692462,E,2,10,0.8,-1.739,M,40.593,M,2.5,0123*66
$GPVTG,171.74,T,-468.16,M,004.915,N,009.103,K,D*00
$GPGGA,101640.50,5703.4255831,N,00952.4692637,E,2,10,0.8,-1.739,M,40.593,M,2.5,0123*6A
$GPVTG,171.83,T,-468.07,M,004.907,N,009.088,K,D*09
$GPGGA,101640.55,5703.4255152,N,00952.4692804,E,2,10,0.8,-1.739,M,40.593,M,2.5,0123*6D
$GPVTG,172.11,T,-467.79,M,004.913,N,009.098,K,D*03
$GPGGA,101640.60,5703.4254474,N,00952.4692975,E,2,10,0.8,-1.744,M,40.593,M,2.5,0123*66
$GPVTG,172.18,T,-467.72,M,004.918,N,009.108,K,D*02
$GPGGA,101640.65,5703.4253789,N,00952.4693116,E,2,10,0.8,-1.749,M,40.593,M,2.8,0123*69
$GPVTG,172.98,T,-466.92,M,004.935,N,009.140,K,D*06
$GPGGA,101640.70,5703.4253109,N,00952.4693265,E,2,10,0.8,-1.749,M,40.593,M,2.8,0123*64
$GPVTG,173.28,T,-466.62,M,004.938,N,009.144,K,D*0A
$GPGGA,101640.75,5703.4252429,N,00952.4693439,E,2,10,0.8,-1.751,M,40.593,M,2.8,0123*61
$GPVTG,172.84,T,-467.06,M,004.948,N,009.164,K,D*0B
$GPGGA,101640.80,5703.4251746,N,00952.4693609,E,2,10,0.8,-1.752,M,40.593,M,2.8,0123*60
$GPVTG,172.60,T,-467.30,M,004.959,N,009.184,K,D*0A
$GPGGA,101640.85,5703.4251071,N,00952.4693746,E,2,10,0.8,-1.747,M,40.593,M,3.0,0123*61
$GPVTG,173.10,T,-466.80,M,004.940,N,009.148,K,D*0E
$GPGGA,101640.90,5703.4250398,N,00952.4693888,E,2,10,0.8,-1.747,M,40.593,M,3.0,0123*6D
$GPVTG,173.40,T,-466.50,M,004.916,N,009.105,K,D*0C
$GPGGA,101640.95,5703.4249720,N,00952.4694025,E,2,10,0.8,-1.747,M,40.593,M,3.0,0123*6F
$GPVTG,173.67,T,-466.23,M,004.915,N,009.103,K,D*08
$GPGGA,101641.00,5703.4249046,N,00952.4694154,E,2,10,0.8,-1.744,M,40.593,M,3.0,0123*61
$GPVTG,174.02,T,-465.88,M,004.900,N,009.075,K,D*0A
$GPGGA,101641.05,5703.4248374,N,00952.4694288,E,2,10,0.8,-1.745,M,40.593,M,1.6,0123*60
$GPVTG,173.95,T,-465.95,M,004.893,N,009.061,K,D*01
$GPGGA,101641.10,5703.4247704,N,00952.4694411,E,2,10,0.8,-1.744,M,40.593,M,1.6,0123*6F
$GPVTG,174.26,T,-465.64,M,004.872,N,009.023,K,D*09
$GPGGA,101641.15,5703.4247022,N,00952.4694539,E,2,10,0.8,-1.743,M,40.593,M,1.6,0123*65
$GPVTG,174.34,T,-465.56,M,004.898,N,009.070,K,D*09
$GPGGA,101641.20,5703.4246342,N,00952.4694661,E,2,10,0.8,-1.742,M,40.593,M,1.6,0123*68
$GPVTG,174.51,T,-465.39,M,004.910,N,009.094,K,D*08
$GPGGA,101641.25,5703.4245669,N,00952.4694781,E,2,10,0.8,-1.738,M,40.593,M,1.8,0123*6E
$GPVTG,174.58,T,-465.32,M,004.900,N,009.074,K,D*05
$GPGGA,101641.30,5703.4244994,N,00952.4694900,E,2,10,0.8,-1.737,M,40.593,M,1.8,0123*6E
$GPVTG,174.64,T,-465.26,M,004.896,N,009.067,K,D*03
$GPGGA,101641.35,5703.4244315,N,00952.4695007,E,2,10,0.8,-1.734,M,40.593,M,1.8,0123*64
$GPVTG,174.99,T,-464.91,M,004.904,N,009.081,K,D*0E
$GPGGA,101641.40,5703.4243637,N,00952.4695106,E,2,10,0.8,-1.731,M,40.593,M,1.8,0123*61
$GPVTG,175.35,T,-464.55,M,004.902,N,009.079,K,D*00
$GPGGA,101641.45,5703.4242953,N,00952.4695210,E,2,10,0.8,-1.733,M,40.593,M,2.1,0123*64
$GPVTG,175.51,T,-464.39,M,004.927,N,009.125,K,D*07
$GPGGA,101641.50,5703.4242272,N,00952.4695335,E,2,10,0.8,-1.734,M,40.593,M,2.1,0123*69
$GPVTG,175.00,T,-464.90,M,004.937,N,009.142,K,D*00
$GPGGA,101641.55,5703.4241589,N,00952.4695452,E,2,10,0.8,-1.734,M,40.593,M,2.1,0123*6A
$GPVTG,174.85,T,-465.05,M,004.946,N,009.159,K,D*0D
$GPGGA,101641.60,5703.4240906,N,00952.4695568,E,2,10,0.8,-1.732,M,40.593,M,2.1,0123*68
$GPVTG,174.76,T,-465.14,M,004.953,N,009.173,K,D*0D
$GPGGA,101641.65,5703.4240217,N,00952.4695686,E,2,10,0.8,-1.736,M,40.593,M,2.3,0123*63
$GPVTG,174.71,T,-465.19,M,004.978,N,009.219,K,D*01
$GPGGA,101641.70,5703.4239532,N,00952.4695808,E,2,10,0.8,-1.737,M,40.593,M,2.3,0123*60
$GPVTG,174.55,T,-465.35,M,004.980,N,009.223,K,D*07
$GPGGA,101641.75,5703.4238850,N,00952.4695908,E,2,10,0.8,-1.737,M,40.593,M,2.3,0123*6C
$GPVTG,174.96,T,-464.94,M,004.967,N,009.198,K,D*08
$GPGGA,101641.80,5703.4238167,N,00952.4696007,E,2,10,0.8,-1.738,M,40.593,M,2.3,0123*61
$GPVTG,175.26,T,-464.64,M,004.961,N,009.188,K,D*0A
$GPGGA,101641.85,5703.4237477,N,00952.4696100,E,2,10,0.8,-1.743,M,40.593,M,2.6,0123*60
$GPVTG,175.66,T,-464.24,M,004.973,N,009.211,K,D*0A
$GPGGA,101641.90,5703.4236782,N,00952.4696207,E,2,10,0.8,-1.745,M,40.593,M,2.6,0123*6E
$GPVTG,175.55,T,-464.35,M,005.003,N,009.266,K,D*05
$GPGGA,101641.95,5703.4236094,N,00952.4696295,E,2,10,0.8,-1.744,M,40.593,M,2.6,0123*61
$GPVTG,175.87,T,-464.03,M,004.999,N,009.258,K,D*09
$GPGGA,101642.00,5703.4235399,N,00952.4696395,E,2,10,0.8,-1.745,M,40.593,M,2.6,0123*63
$GPVTG,175.81,T,-464.09,M,005.019,N,009.295,K,D*04
$GPGGA,101642.05,5703.4234709,N,00952.4696489,E,2,10,0.8,-1.741,M,40.593,M,1.7,0123*66
$GPVTG,175.64,T,-464.26,M,005.025,N,009.306,K,D*06
$GPGGA,101642.10,5703.4234004,N,00952.4696565,E,2,10,0.8,-1.740,M,40.593,M,1.7,0123*6A
$GPVTG,176.20,T,-463.70,M,005.063,N,009.376,K,D*04
$GPGGA,101642.15,5703.4233311,N,00952.4696654,E,2,10,0.8,-1.743,M,40.593,M,1.7,0123*6D
$GPVTG,176.23,T,-463.67,M,005.055,N,009.362,K,D*01
$GPGGA,101642.20,5703.4232628,N,00952.4696747,E,2,10,0.8,-1.744,M,40.593,M,1.7,0123*61
$GPVTG,176.07,T,-463.83,M,005.011,N,009.281,K,D*01
$GPGGA,101642.25,5703.4231929,N,00952.4696835,E,2,10,0.8,-1.748,M,40.593,M,1.9,0123*61
$GPVTG,176.16,T,-463.74,M,005.031,N,009.317,K,D*05
$GPGGA,101642.30,5703.4231234,N,00952.4696923,E,2,10,0.8,-1.748,M,40.593,M,1.9,0123*64
$GPVTG,176.15,T,-463.75,M,005.030,N,009.315,K,D*04
$GPGGA,101642.35,5703.4230538,N,00952.4697025,E,2,10,0.8,-1.751,M,40.593,M,1.9,0123*6D
$GPVTG,175.81,T,-464.09,M,005.036,N,009.327,K,D*01
$GPGGA,101642.40,5703.4229839,N,00952.4697114,E,2,10,0.8,-1.751,M,40.593,M,1.9,0123*68
$GPVTG,175.87,T,-464.03,M,005.047,N,009.347,K,D*0D
$GPGGA,101642.45,5703.4229142,N,00952.4697202,E,2,10,0.8,-1.746,M,40.593,M,2.1,0123*61
$GPVTG,175.92,T,-463.98,M,005.052,N,009.356,K,D*08
$GPGGA,101642.50,5703.4228441,N,00952.4697293,E,2,10,0.8,-1.745,M,40.593,M,2.1,0123*69
$GPVTG,175.94,T,-463.96,M,005.062,N,009.375,K,D*02
$GPGGA,101642.55,5703.4227739,N,00952.4697371,E,2,10,0.8,-1.747,M,40.593,M,2.1,0123*60
$GPVTG,176.26,T,-463.64,M,005.073,N,009.395,K,D*0B
$GPGGA,101642.60,5703.4227047,N,00952.4697451,E,2,10,0.8,-1.745,M,40.593,M,2.1,0123*6F
$GPVTG,176.40,T,-463.50,M,005.049,N,009.350,K,D*0C
$GPGGA,101642.65,5703.4226344,N,00952.4697530,E,2,10,0.8,-1.745,M,40.593,M,2.4,0123*68
$GPVTG,176.52,T,-463.38,M,005.064,N,009.379,K,D*05
$GPGGA,101642.70,5703.4225647,N,00952.4697622,E,2,10,0.8,-1.745,M,40.593,M,2.4,0123*69
$GPVTG,176.25,T,-463.65,M,005.056,N,009.364,K,D*00
$GPGGA,101642.75,5703.4224943,N,00952.4697723,E,2,10,0.8,-1.746,M,40.593,M,2.4,0123*65
$GPVTG,175.88,T,-464.02,M,005.074,N,009.398,K,D*01
$GPGGA,101642.80,5703.4224243,N,00952.4697827,E,2,10,0.8,-1.745,M,40.593,M,2.4,0123*6C
$GPVTG,175.55,T,-464.35,M,005.075,N,009.400,K,D*02
$GPGGA,101642.85,5703.4223541,N,00952.4697928,E,2,10,0.8,-1.747,M,40.593,M,2.6,0123*65
$GPVTG,175.45,T,-464.45,M,005.080,N,009.408,K,D*06
$GPGGA,101642.90,5703.4222843,N,00952.4698033,E,2,10,0.8,-1.747,M,40.593,M,2.6,0123*63
$GPVTG,175.26,T,-464.64,M,005.073,N,009.395,K,D*0F
$GPGGA,101642.95,5703.4222136,N,00952.4698134,E,2,10,0.8,-1.748,M,40.593,M,2.6,0123*64
$GPVTG,175.32,T,-464.58,M,005.095,N,009.437,K,D*02
$GPGGA,101643.00,5703.4221433,N,00952.4698231,E,2,10,0.8,-1.750,M,40.593,M,2.6,0123*65
$GPVTG,175.44,T,-464.46,M,005.096,N,009.437,K,D*0F
$GPGGA,101643.05,5703.4220734,N,00952.4698330,E,2,10,0.8,-1.742,M,40.593,M,2.8,0123*68
$GPVTG,175.24,T,-464.66,M,005.095,N,009.437,K,D*08
$GPGGA,101643.10,5703.4220017,N,00952.4698440,E,2,10,0.8,-1.744,M,40.593,M,2.8,0123*6C
$GPVTG,175.17,T,-464.73,M,005.140,N,009.519,K,D*08
$GPGGA,101643.15,5703.4219309,N,00952.4698548,E,2,10,0.8,-1.744,M,40.593,M,2.8,0123*66
$GPVTG,175.15,T,-464.75,M,005.146,N,009.530,K,D*01
$GPGGA,101643.20,5703.4218603,N,00952.4698646,E,2,10,0.8,-1.745,M,40.593,M,2.8,0123*62
$GPVTG,175.39,T,-464.51,M,005.136,N,009.511,K,D*0D
$GPGGA,101643.25,5703.4217898,N,00952.4698746,E,2,10,0.8,-1.747,M,40.593,M,3.0,0123*6E
$GPVTG,175.50,T,-464.40,M,005.126,N,009.494,K,D*0F
$GPGGA,101643.30,5703.4217192,N,00952.4698834,E,2,10,0.8,-1.749,M,40.593,M,3.0,0123*6D
$GPVTG,175.86,T,-464.04,M,005.120,N,009.483,K,D*04
$GPGGA,101643.35,5703.4216474,N,00952.4698918,E,2,10,0.8,-1.750,M,40.593,M,3.0,0123*63
$GPVTG,176.22,T,-463.68,M,005.152,N,009.542,K,D*0D
$GPGGA,101643.40,5703.4215768,N,00952.4699020,E,2,10,0.8,-1.750,M,40.593,M,3.0,0123*6F
$GPVTG,175.97,T,-463.93,M,005.139,N,009.518,K,D*06
$GPGGA,101643.45,5703.4215061,N,00952.4699118,E,2,10,0.8,-1.754,M,40.593,M,3.2,0123*68
$GPVTG,175.90,T,-464.00,M,005.131,N,009.502,K,D*0F
$GPGGA,101643.50,5703.4214355,N,00952.4699215,E,2,10,0.8,-1.755,M,40.593,M,3.2,0123*66
$GPVTG,175.83,T,-464.07,M,005.122,N,009.486,K,D*05
$GPGGA,101643.55,5703.4213644,N,00952.4699319,E,2,10,0.8,-1.755,M,40.593,M,3.2,0123*6C
$GPVTG,175.62,T,-464.28,M,005.131,N,009.503,K,D*09
$GPGGA,101643.60,5703.4212936,N,00952.4699418,E,2,10,0.8,-1.756,M,40.593,M,3.2,0123*64
$GPVTG,175.60,T,-464.30,M,005.128,N,009.498,K,D*09
$GPGGA,101643.65,5703.4212232,N,00952.4699518,E,2,10,0.8,-1.750,M,40.593,M,3.4,0123*6F
$GPVTG,175.51,T,-464.39,M,005.117,N,009.477,K,D*0F
$GPGGA,101643.70,5703.4211524,N,00952.4699620,E,2,10,0.8,-1.750,M,40.593,M,3.4,0123*60
$GPVTG,175.47,T,-464.43,M,005.118,N,009.478,K,D*05
$GPGGA,101643.75,5703.4210815,N,00952.4699704,E,2,10,0.8,-1.746,M,40.593,M,3.4,0123*6B
$GPVTG,175.88,T,-464.02,M,005.121,N,009.485,K,D*0B
$GPGGA,101643.80,5703.4210105,N,00952.4699797,E,2,10,0.8,-1.743,M,40.593,M,3.4,0123*66
$GPVTG,175.94,T,-463.96,M,005.128,N,009.498,K,D*09
$GPGGA,101643.85,5703.4209398,N,00952.4699906,E,2,10,0.8,-1.745,M,40.593,M,3.6,0123*6F
$GPVTG,175.61,T,-464.29,M,005.126,N,009.493,K,D*05
$GPGGA,101643.90,5703.4208685,N,00952.4700011,E,2,10,0.8,-1.742,M,40.593,M,3.6,0123*6A
$GPVTG,175.47,T,-464.43,M,005.140,N,009.520,K,D*04
$GPGGA,101643.95,5703.4207969,N,00952.4700120,E,2,10,0.8,-1.742,M,40.593,M,3.6,0123*6E
$GPVTG,175.32,T,-464.58,M,005.162,N,009.560,K,D*08
$GPGGA,101644.00,5703.4207263,N,00952.4700214,E,2,10,0.8,-1.742,M,40.593,M,3.6,0123*60
$GPVTG,175.54,T,-464.36,M,005.146,N,009.530,K,D*03
$GPGGA,101644.05,5703.4206553,N,00952.4700320,E,2,10,0.8,-1.738,M,40.593,M,2.0,0123*6C
$GPVTG,175.23,T,-464.67,M,005.155,N,009.547,K,D*05
$GPGGA,101644.10,5703.4205833,N,00952.4700435,E,2,10,0.8,-1.737,M,40.593,M,2.0,0123*6C
$GPVTG,175.07,T,-464.83,M,005.186,N,009.605,K,D*02
$GPGGA,101644.15,5703.4205112,N,00952.4700533,E,2,10,0.8,-1.736,M,40.593,M,2.0,0123*65
$GPVTG,175.36,T,-464.54,M,005.206,N,009.641,K,D*01
$GPGGA,101644.20,5703.4204397,N,00952.4700648,E,2,10,0.8,-1.736,M,40.593,M,2.0,0123*62
$GPVTG,175.16,T,-464.74,M,005.203,N,009.636,K,D*04
$GPGGA,101644.25,5703.4203690,N,00952.4700758,E,2,10,0.8,-1.735,M,40.593,M,2.3,0123*62
$GPVTG,175.12,T,-464.78,M,005.173,N,009.581,K,D*07
$GPGGA,101644.30,5703.4202984,N,00952.4700874,E,2,10,0.8,-1.736,M,40.593,M,2.3,0123*6F
$GPVTG,174.96,T,-464.94,M,005.148,N,009.535,K,D*0F
$GPGGA,101644.35,5703.4202265,N,00952.4700967,E,2,10,0.8,-1.730,M,40.593,M,2.3,0123*6B
$GPVTG,175.44,T,-464.46,M,005.167,N,009.569,K,D*0A
$GPGGA,101644.40,5703.4201549,N,00952.4701051,E,2,10,0.8,-1.725,M,40.593,M,2.3,0123*6A
$GPVTG,175.96,T,-463.94,M,005.171,N,009.577,K,D*05
$GPGGA,101644.45,5703.4200840,N,00952.4701153,E,2,10,0.8,-1.724,M,40.593,M,2.5,0123*6E
$GPVTG,175.85,T,-464.05,M,005.156,N,009.548,K,D*01
$GPGGA,101644.50,5703.4200129,N,00952.4701246,E,2,10,0.8,-1.724,M,40.593,M,2.5,0123*6B
$GPVTG,175.96,T,-463.94,M,005.149,N,009.536,K,D*0B
$GPGGA,101644.55,5703.4199411,N,00952.4701346,E,2,10,0.8,-1.723,M,40.593,M,2.5,0123*65
$GPVTG,175.89,T,-464.01,M,005.166,N,009.568,K,D*08
$GPGGA,101644.60,5703.4198693,N,00952.4701433,E,2,10,0.8,-1.723,M,40.593,M,2.5,0123*6F
$GPVTG,176.10,T,-463.80,M,005.177,N,009.589,K,D*0A
$GPGGA,101644.65,5703.4197974,N,00952.4701533,E,2,10,0.8,-1.726,M,40.593,M,2.8,0123*6A
$GPVTG,175.99,T,-463.91,M,005.192,N,009.615,K,D*05
$GPGGA,101644.70,5703.4197264,N,00952.4701633,E,2,10,0.8,-1.725,M,40.593,M,2.8,0123*64
$GPVTG,175.84,T,-464.06,M,005.173,N,009.581,K,D*01
$GPGGA,101644.75,5703.4196555,N,00952.4701727,E,2,10,0.8,-1.723,M,40.593,M,2.8,0123*67
$GPVTG,175.83,T,-464.07,M,005.153,N,009.543,K,D*0B
$GPGGA,101644.80,5703.4195841,N,00952.4701801,E,2,10,0.8,-1.720,M,40.593,M,2.8,0123*6E
$GPVTG,176.33,T,-463.57,M,005.153,N,009.543,K,D*01
$GPGGA,101644.85,5703.4195130,N,00952.4701874,E,2,10,0.8,-1.710,M,40.593,M,3.0,0123*6C
$GPVTG,176.61,T,-463.29,M,005.147,N,009.531,K,D*0F
$GPGGA,101644.90,5703.4194415,N,00952.4701967,E,2,10,0.8,-1.706,M,40.593,M,3.0,0123*6F
$GPVTG,176.37,T,-463.53,M,005.156,N,009.549,K,D*0E
$GPGGA,101644.95,5703.4193710,N,00952.4702057,E,2,10,0.8,-1.704,M,40.593,M,3.0,0123*60
$GPVTG,176.25,T,-463.65,M,005.130,N,009.501,K,D*04
$GPGGA,101645.00,5703.4193003,N,00952.4702136,E,2,10,0.8,-1.702,M,40.593,M,3.0,0123*68
$GPVTG,176.39,T,-463.51,M,005.116,N,009.475,K,D*08
$GPGGA,101645.05,5703.4192295,N,00952.4702206,E,2,10,0.8,-1.703,M,40.593,M,1.6,0123*64
$GPVTG,176.58,T,-463.32,M,005.119,N,009.480,K,D*0F
$GPGGA,101645.10,5703.4191591,N,00952.4702271,E,2,10,0.8,-1.699,M,40.593,M,1.6,0123*62
$GPVTG,176.92,T,-462.98,M,005.100,N,009.446,K,D*0A
$GPGGA,101645.15,5703.4190883,N,00952.4702347,E,2,10,0.8,-1.699,M,40.593,M,1.6,0123*6C
$GPVTG,176.90,T,-463.00,M,005.101,N,009.447,K,D*08
$GPGGA,101645.20,5703.4190178,N,00952.4702424,E,2,10,0.8,-1.701,M,40.593,M,1.6,0123*65
$GPVTG,176.82,T,-463.08,M,005.094,N,009.434,K,D*0A
$GPGGA,101645.25,5703.4189468,N,00952.4702490,E,2,10,0.8,-1.694,M,40.593,M,1.8,0123*60
$GPVTG,176.93,T,-462.97,M,005.106,N,009.456,K,D*03
$GPGGA,101645.30,5703.4188763,N,00952.4702554,E,2,10,0.8,-1.691,M,40.593,M,1.8,0123*61
$GPVTG,177.11,T,-462.79,M,005.099,N,009.443,K,D*0B
$GPGGA,101645.35,5703.4188056,N,00952.4702621,E,2,10,0.8,-1.692,M,40.593,M,1.8,0123*67
$GPVTG,177.16,T,-462.74,M,005.099,N,009.443,K,D*01
$GPGGA,101645.40,5703.4187348,N,00952.4702688,E,2,10,0.8,-1.693,M,40.593,M,1.8,0123*64
$GPVTG,177.16,T,-462.74,M,005.104,N,009.453,K,D*05
$GPGGA,101645.45,5703.4186652,N,00952.4702764,E,2,10,0.8,-1.699,M,40.593,M,2.1,0123*6D
$GPVTG,176.99,T,-462.91,M,005.071,N,009.392,K,D*01
$GPGGA,101645.50,5703.4185955,N,00952.4702824,E,2,10,0.8,-1.701,M,40.593,M,2.1,0123*69
$GPVTG,177.16,T,-462.74,M,005.048,N,009.349,K,D*00
$GPGGA,101645.55,5703.4185259,N,00952.4702883,E,2,10,0.8,-1.701,M,40.593,M,2.1,0123*66
$GPVTG,177.30,T,-462.60,M,005.029,N,009.313,K,D*09
$GPGGA,101645.60,5703.4184559,N,00952.4702939,E,2,10,0.8,-1.701,M,40.593,M,2.1,0123*66
$GPVTG,177.46,T,-462.44,M,005.032,N,009.320,K,D*04
$GPGGA,101645.65,5703.4183873,N,00952.4702972,E,2,10,0.8,-1.699,M,40.593,M,2.3,0123*6C
$GPVTG,178.05,T,-461.85,M,004.988,N,009.238,K,D*03
$GPGGA,101645.70,5703.4183170,N,00952.4703008,E,2,10,0.8,-1.700,M,40.593,M,2.3,0123*66
$GPVTG,178.40,T,-461.50,M,005.013,N,009.284,K,D*07
$GPGGA,101645.75,5703.4182474,N,00952.4703047,E,2,10,0.8,-1.702,M,40.593,M,2.3,0123*6A
$GPVTG,178.52,T,-461.38,M,005.013,N,009.284,K,D*0A
$GPGGA,101645.80,5703.4181782,N,00952.4703090,E,2,10,0.8,-1.703,M,40.593,M,2.3,0123*62
$GPVTG,178.44,T,-461.46,M,005.002,N,009.264,K,D*0A
$GPGGA,101645.85,5703.4181092,N,00952.4703133,E,2,10,0.8,-1.705,M,40.593,M,2.6,0123*6A
$GPVTG,178.34,T,-461.56,M,004.989,N,009.239,K,D*0F
$GPGGA,101645.90,5703.4180394,N,00952.4703188,E,2,10,0.8,-1.709,M,40.593,M,2.6,0123*66
$GPVTG,177.99,T,-461.91,M,005.003,N,009.265,K,D*0F
$GPGGA,101645.95,5703.4179705,N,00952.4703233,E,2,10,0.8,-1.714,M,40.593,M,2.6,0123*66
$GPVTG,177.95,T,-461.95,M,004.988,N,009.239,K,D*05
$GPGGA,101646.00,5703.4179015,N,00952.4703273,E,2,10,0.8,-1.718,M,40.593,M,2.6,0123*67
$GPVTG,178.06,T,-461.84,M,004.981,N,009.224,K,D*05
$GPGGA,101646.05,5703.4178331,N,00952.4703316,E,2,10,0.8,-1.722,M,40.593,M,1.7,0123*6F
$GPVTG,177.87,T,-462.03,M,004.967,N,009.199,K,D*02
$GPGGA,101646.10,5703.4177639,N,00952.4703370,E,2,10,0.8,-1.723,M,40.593,M,1.7,0123*68
$GPVTG,177.69,T,-462.21,M,004.973,N,009.209,K,D*0D
$GPGGA,101646.15,5703.4176947,N,00952.4703417,E,2,10,0.8,-1.726,M,40.593,M,1.7,0123*69
$GPVTG,177.73,T,-462.17,M,004.980,N,009.224,K,D*00
$GPGGA,101646.20,5703.4176256,N,00952.4703461,E,2,10,0.8,-1.727,M,40.593,M,1.7,0123*64
$GPVTG,177.82,T,-462.08,M,004.983,N,009.229,K,D*0E
$GPGGA,101646.25,5703.4175572,N,00952.4703516,E,2,10,0.8,-1.730,M,40.593,M,1.9,0123*6A
$GPVTG,177.66,T,-462.24,M,004.962,N,009.190,K,D*04
$GPGGA,101646.30,5703.4174896,N,00952.4703567,E,2,10,0.8,-1.734,M,40.593,M,1.9,0123*6A
$GPVTG,177.62,T,-462.28,M,004.924,N,009.120,K,D*05
$GPGGA,101646.35,5703.4174216,N,00952.4703623,E,2,10,0.8,-1.736,M,40.593,M,1.9,0123*6C
$GPVTG,177.47,T,-462.43,M,004.909,N,009.091,K,D*0B
$GPGGA,101646.40,5703.4173543,N,00952.4703670,E,2,10,0.8,-1.737,M,40.593,M,1.9,0123*69
$GPVTG,177.60,T,-462.30,M,004.874,N,009.027,K,D*0C
$GPGGA,101646.45,5703.4172855,N,00952.4703702,E,2,10,0.8,-1.736,M,40.593,M,2.1,0123*69
$GPVTG,178.06,T,-461.84,M,004.905,N,009.084,K,D*01
$GPGGA,101646.50,5703.4172188,N,00952.4703744,E,2,10,0.8,-1.733,M,40.593,M,2.1,0123*63
$GPVTG,178.13,T,-461.78,M,004.861,N,009.002,K,D*0B
$GPGGA,101646.55,5703.4171508,N,00952.4703801,E,2,10,0.8,-1.733,M,40.593,M,2.1,0123*67
$GPVTG,177.81,T,-462.09,M,004.870,N,009.020,K,D*0A
$GPGGA,101646.60,5703.4170834,N,00952.4703847,E,2,10,0.8,-1.735,M,40.593,M,2.1,0123*66
$GPVTG,177.82,T,-462.08,M,004.861,N,009.003,K,D*09
$GPGGA,101646.65,5703.4170155,N,00952.4703900,E,2,10,0.8,-1.740,M,40.593,M,2.4,0123*68
$GPVTG,177.71,T,-462.19,M,004.871,N,009.022,K,D*07
$GPGGA,101646.70,5703.4169470,N,00952.4703962,E,2,10,0.8,-1.743,M,40.593,M,2.4,0123*61
$GPVTG,177.40,T,-462.50,M,004.901,N,009.076,K,D*0F
$GPGGA,101646.75,5703.4168784,N,00952.4704023,E,2,10,0.8,-1.744,M,40.593,M,2.4,0123*61
$GPVTG,177.23,T,-462.67,M,004.929,N,009.128,K,D*0E
$GPGGA,101646.80,5703.4168099,N,00952.4704082,E,2,10,0.8,-1.748,M,40.593,M,2.4,0123*67
$GPVTG,177.19,T,-462.71,M,004.944,N,009.156,K,D*02
$GPGGA,101646.85,5703.4167419,N,00952.4704125,E,2,10,0.8,-1.747,M,40.593,M,2.6,0123*60
$GPVTG,177.48,T,-462.42,M,004.937,N,009.142,K,D*07
$GPGGA,101646.90,5703.4166731,N,00952.4704179,E,2,10,0.8,-1.750,M,40.593,M,2.6,0123*63
$GPVTG,177.53,T,-462.37,M,004.958,N,009.182,K,D*0A
$GPGGA,101646.95,5703.4166034,N,00952.4704220,E,2,10,0.8,-1.755,M,40.593,M,2.6,0123*6E
$GPVTG,177.88,T,-462.02,M,004.996,N,009.252,K,D*06
$GPGGA,101647.00,5703.4165341,N,00952.4704268,E,2,10,0.8,-1.758,M,40.593,M,2.6,0123*60
$GPVTG,177.92,T,-461.98,M,005.011,N,009.280,K,D*05
$GPGGA,101647.05,5703.4164657,N,00952.4704316,E,2,10,0.8,-1.765,M,40.593,M,2.8,0123*6E
$GPVTG,177.76,T,-462.14,M,005.000,N,009.260,K,D*06
$GPGGA,101647.10,5703.4163967,N,00952.4704366,E,2,10,0.8,-1.766,M,40.593,M,2.8,0123*65
$GPVTG,177.77,T,-462.13,M,005.000,N,009.259,K,D*0A
$GPGGA,101647.15,5703.4163271,N,00952.4704411,E,2,10,0.8,-1.769,M,40.593,M,2.8,0123*64
$GPVTG,177.89,T,-462.01,M,005.019,N,009.295,K,D*00
$GPGGA,101647.20,5703.4162582,N,00952.4704469,E,2,10,0.8,-1.773,M,40.593,M,2.8,0123*6C
$GPVTG,177.66,T,-462.24,M,005.007,N,009.273,K,D*01
$GPGGA,101647.25,5703.4161888,N,00952.4704524,E,2,10,0.8,-1.776,M,40.593,M,3.0,0123*69
$GPVTG,177.56,T,-462.34,M,005.015,N,009.288,K,D*04
$GPGGA,101647.30,5703.4161174,N,00952.4704574,E,2,10,0.8,-1.778,M,40.593,M,3.0,0123*6C
$GPVTG,177.65,T,-462.25,M,005.081,N,009.409,K,D*06
$GPGGA,101647.35,5703.4160477,N,00952.4704631,E,2,10,0.8,-1.779,M,40.593,M,3.0,0123*6D
$GPVTG,177.56,T,-462.34,M,005.077,N,009.402,K,D*04
$GPGGA,101647.40,5703.4159779,N,00952.4704695,E,2,10,0.8,-1.778,M,40.593,M,3.0,0123*67
$GPVTG,177.30,T,-462.60,M,005.073,N,009.394,K,D*09
$GPGGA,101647.45,5703.4159078,N,00952.4704757,E,2,10,0.8,-1.776,M,40.593,M,3.2,0123*67
$GPVTG,177.18,T,-462.72,M,005.089,N,009.424,K,D*09
$GPGGA,101647.50,5703.4158364,N,00952.4704845,E,2,10,0.8,-1.778,M,40.593,M,3.2,0123*6E
$GPVTG,176.57,T,-463.33,M,005.129,N,009.500,K,D*0B
$GPGGA,101647.55,5703.4157661,N,00952.4704913,E,2,10,0.8,-1.779,M,40.593,M,3.2,0123*67
$GPVTG,176.62,T,-463.28,M,005.121,N,009.484,K,D*02
$GPGGA,101647.60,5703.4156951,N,00952.4704977,E,2,10,0.8,-1.781,M,40.593,M,3.2,0123*69
$GPVTG,176.81,T,-463.09,M,005.134,N,009.508,K,D*0D
$GPGGA,101647.65,5703.4156240,N,00952.4705047,E,2,10,0.8,-1.781,M,40.593,M,3.4,0123*6A
$GPVTG,176.82,T,-463.08,M,005.145,N,009.529,K,D*0A
$GPGGA,101647.70,5703.4155519,N,00952.4705105,E,2,10,0.8,-1.781,M,40.593,M,3.4,0123*61
$GPVTG,177.15,T,-462.75,M,005.182,N,009.598,K,D*0F
$GPGGA,101647.75,5703.4154799,N,00952.4705165,E,2,10,0.8,-1.784,M,40.593,M,3.4,0123*6C
$GPVTG,177.31,T,-462.59,M,005.205,N,009.640,K,D*0D
$GPGGA,101647.80,5703.4154095,N,00952.4705211,E,2,10,0.8,-1.786,M,40.593,M,3.4,0123*6F
$GPVTG,177.72,T,-462.18,M,005.166,N,009.567,K,D*0F
$GPGGA,101647.85,5703.4153382,N,00952.4705267,E,2,10,0.8,-1.778,M,40.593,M,3.6,0123*6A
$GPVTG,177.68,T,-462.22,M,005.161,N,009.557,K,D*09
$GPGGA,101647.90,5703.4152657,N,00952.4705358,E,2,10,0.8,-1.779,M,40.593,M,3.6,0123*6E
$GPVTG,176.92,T,-462.98,M,005.200,N,009.631,K,D*0B
$GPGGA,101647.95,5703.4151930,N,00952.4705437,E,2,10,0.8,-1.777,M,40.593,M,3.6,0123*66
$GPVTG,176.66,T,-463.24,M,005.234,N,009.693,K,D*09
$GPGGA,101648.00,5703.4151200,N,00952.4705477,E,2,10,0.8,-1.771,M,40.593,M,3.6,0123*6F
$GPVTG,177.42,T,-462.48,M,005.262,N,009.745,K,D*0C
$GPGGA,101648.05,5703.4150484,N,00952.4705526,E,2,10,0.8,-1.767,M,40.593,M,2.0,0123*64
$GPVTG,177.54,T,-462.36,M,005.248,N,009.720,K,D*09
$GPGGA,101648.10,5703.4149766,N,00952.4705606,E,2,10,0.8,-1.770,M,40.593,M,2.0,0123*60
$GPVTG,177.08,T,-462.82,M,005.232,N,009.689,K,D*00
$GPGGA,101648.15,5703.4149051,N,00952.4705685,E,2,10,0.8,-1.772,M,40.593,M,2.0,0123*6F
$GPVTG,176.77,T,-463.13,M,005.209,N,009.648,K,D*05
$GPGGA,101648.20,5703.4148306,N,00952.4705763,E,2,10,0.8,-1.768,M,40.593,M,2.0,0123*6B
$GPVTG,176.67,T,-463.23,M,005.286,N,009.791,K,D*05
$GPGGA,101648.25,5703.4147558,N,00952.4705845,E,2,10,0.8,-1.763,M,40.593,M,2.3,0123*6F
$GPVTG,176.53,T,-463.37,M,005.352,N,009.912,K,D*0A
$GPGGA,101648.30,5703.4146829,N,00952.4705911,E,2,10,0.8,-1.764,M,40.593,M,2.3,0123*66
$GPVTG,176.77,T,-463.13,M,005.334,N,009.878,K,D*07
$GPGGA,101648.35,5703.4146115,N,00952.4705998,E,2,10,0.8,-1.762,M,40.593,M,2.3,0123*62
$GPVTG,176.48,T,-463.42,M,005.275,N,009.768,K,D*05
$GPGGA,101648.40,5703.4145386,N,00952.4706072,E,2,10,0.8,-1.757,M,40.593,M,2.3,0123*63
$GPVTG,176.60,T,-463.30,M,005.273,N,009.766,K,D*02
$GPGGA,101648.45,5703.4144647,N,00952.4706124,E,2,10,0.8,-1.750,M,40.593,M,2.5,0123*6C
$GPVTG,177.16,T,-462.74,M,005.300,N,009.816,K,D*0E
$GPGGA,101648.50,5703.4143920,N,00952.4706198,E,2,10,0.8,-1.749,M,40.593,M,2.5,0123*6E
$GPVTG,177.07,T,-462.83,M,005.285,N,009.788,K,D*02
$GPGGA,101648.55,5703.4143182,N,00952.4706281,E,2,10,0.8,-1.745,M,40.593,M,2.5,0123*6C
$GPVTG,176.81,T,-463.09,M,005.309,N,009.832,K,D*05
$GPGGA,101648.60,5703.4142443,N,00952.4706357,E,2,10,0.8,-1.742,M,40.593,M,2.5,0123*6E
$GPVTG,176.78,T,-463.12,M,005.325,N,009.863,K,D*03
$GPGGA,101648.65,5703.4141718,N,00952.4706436,E,2,10,0.8,-1.739,M,40.593,M,2.8,0123*64
$GPVTG,176.70,T,-463.20,M,005.299,N,009.813,K,D*0B
$GPGGA,101648.70,5703.4140998,N,00952.4706519,E,2,10,0.8,-1.738,M,40.593,M,2.8,0123*6A
$GPVTG,176.51,T,-463.39,M,005.259,N,009.739,K,D*0B
$GPGGA,101648.75,5703.4140269,N,00952.4706597,E,2,10,0.8,-1.736,M,40.593,M,2.8,0123*62
$GPVTG,176.54,T,-463.36,M,005.258,N,009.737,K,D*0E
$GPGGA,101648.80,5703.4139531,N,00952.4706681,E,2,10,0.8,-1.736,M,40.593,M,2.8,0123*68
$GPVTG,176.45,T,-463.45,M,005.287,N,009.791,K,D*04
$GPGGA,101648.85,5703.4138780,N,00952.4706748,E,2,10,0.8,-1.740,M,40.593,M,3.0,0123*68
$GPVTG,176.87,T,-463.03,M,005.348,N,009.905,K,D*09
$GPGGA,101648.90,5703.4138051,N,00952.4706814,E,2,10,0.8,-1.741,M,40.593,M,3.0,0123*60
$GPVTG,177.06,T,-462.84,M,005.322,N,009.857,K,D*05
$GPGGA,101648.95,5703.4137325,N,00952.4706891,E,2,10,0.8,-1.739,M,40.593,M,3.0,0123*68
$GPVTG,176.94,T,-462.96,M,005.295,N,009.807,K,D*04
$GPGGA,101649.00,5703.4136600,N,00952.4706991,E,2,10,0.8,-1.737,M,40.593,M,3.0,0123*69
$GPVTG,176.33,T,-463.57,M,005.272,N,009.763,K,D*01
$GPGGA,101649.05,5703.4135862,N,00952.4707066,E,2,10,0.8,-1.726,M,40.593,M,1.6,0123*61
$GPVTG,176.22,T,-463.68,M,005.310,N,009.834,K,D*05
$GPGGA,101649.10,5703.4135120,N,00952.4707147,E,2,10,0.8,-1.723,M,40.593,M,1.6,0123*6D
$GPVTG,176.31,T,-463.59,M,005.334,N,009.879,K,D*0A
$GPGGA,101649.15,5703.4134393,N,00952.4707249,E,2,10,0.8,-1.722,M,40.593,M,1.6,0123*6F
$GPVTG,175.91,T,-463.99,M,005.310,N,009.834,K,D*00
$GPGGA,101649.20,5703.4133653,N,00952.4707336,E,2,10,0.8,-1.723,M,40.593,M,1.6,0123*6F
$GPVTG,176.02,T,-463.88,M,005.328,N,009.867,K,D*04
$GPGGA,101649.25,5703.4132923,N,00952.4707415,E,2,10,0.8,-1.727,M,40.593,M,1.8,0123*6F
$GPVTG,176.34,T,-463.56,M,005.305,N,009.825,K,D*0B
$GPGGA,101649.30,5703.4132204,N,00952.4707508,E,2,10,0.8,-1.726,M,40.593,M,1.8,0123*69
$GPVTG,176.17,T,-463.73,M,005.259,N,009.740,K,D*09
$GPGGA,101649.35,5703.4131473,N,00952.4707594,E,2,10,0.8,-1.726,M,40.593,M,1.8,0123*6C
$GPVTG,176.24,T,-463.66,M,005.263,N,009.747,K,D*03
$GPGGA,101649.40,5703.4130740,N,00952.4707680,E,2,10,0.8,-1.726,M,40.593,M,1.8,0123*6A
$GPVTG,176.28,T,-463.62,M,005.273,N,009.766,K,D*09
$GPGGA,101649.45,5703.4130016,N,00952.4707776,E,2,10,0.8,-1.722,M,40.593,M,2.1,0123*6D
$GPVTG,176.00,T,-463.90,M,005.248,N,009.720,K,D*04
$GPGGA,101649.50,5703.4129306,N,00952.4707864,E,2,10,0.8,-1.722,M,40.593,M,2.1,0123*6F
$GPVTG,176.01,T,-463.89,M,005.198,N,009.626,K,D*04
$GPGGA,101649.55,5703.4128587,N,00952.4707926,E,2,10,0.8,-1.722,M,40.593,M,2.1,0123*63
$GPVTG,176.64,T,-463.26,M,005.180,N,009.594,K,D*01
$GPGGA,101649.60,5703.4127856,N,00952.4707998,E,2,10,0.8,-1.721,M,40.593,M,2.1,0123*6D
$GPVTG,176.89,T,-463.01,M,005.207,N,009.643,K,D*02
$GPGGA,101649.65,5703.4127124,N,00952.4708085,E,2,10,0.8,-1.714,M,40.593,M,2.3,0123*6A
$GPVTG,176.42,T,-463.48,M,005.219,N,009.666,K,D*00
$GPGGA,101649.70,5703.4126405,N,00952.4708178,E,2,10,0.8,-1.710,M,40.593,M,2.3,0123*6E
$GPVTG,176.20,T,-463.70,M,005.208,N,009.646,K,D*0D
$GPGGA,101649.75,5703.4125671,N,00952.4708271,E,2,10,0.8,-1.710,M,40.593,M,2.3,0123*63
$GPVTG,176.06,T,-463.84,M,005.248,N,009.720,K,D*07
$GPGGA,101649.80,5703.4124938,N,00952.4708366,E,2,10,0.8,-1.713,M,40.593,M,2.3,0123*6E
$GPVTG,175.95,T,-463.95,M,005.276,N,009.771,K,D*07
$GPGGA,101649.85,5703.4124211,N,00952.4708465,E,2,10,0.8,-1.719,M,40.593,M,2.6,0123*60
$GPVTG,175.79,T,-464.11,M,005.276,N,009.771,K,D*0E
$GPGGA,101649.90,5703.4123493,N,00952.4708558,E,2,10,0.8,-1.720,M,40.593,M,2.6,0123*6A
$GPVTG,175.82,T,-464.08,M,005.246,N,009.715,K,D*03
$GPGGA,101649.95,5703.4122772,N,00952.4708667,E,2,10,0.8,-1.719,M,40.593,M,2.6,0123*67
$GPVTG,175.48,T,-464.42,M,005.233,N,009.691,K,D*04
$GPGGA,101650.00,5703.4122056,N,00952.4708764,E,2,10,0.8,-1.721,M,40.593,M,2.6,0123*6B
$GPVTG,175.55,T,-464.35,M,005.209,N,009.648,K,D*05
$GPGGA,101650.05,5703.4121333,N,00952.4708847,E,2,10,0.8,-1.715,M,40.593,M,1.7,0123*66
$GPVTG,175.65,T,-464.25,M,005.216,N,009.660,K,D*03
$GPGGA,101650.10,5703.4120611,N,00952.4708932,E,2,10,0.8,-1.717,M,40.593,M,1.7,0123*67
$GPVTG,175.98,T,-463.92,M,005.215,N,009.658,K,D*02
$GPGGA,101650.15,5703.4119897,N,00952.4709025,E,2,10,0.8,-1.717,M,40.593,M,1.7,0123*66
$GPVTG,176.02,T,-463.88,M,005.188,N,009.608,K,D*0B
$GPGGA,101650.20,5703.4119183,N,00952.4709122,E,2,10,0.8,-1.716,M,40.593,M,1.7,0123*6B
$GPVTG,175.93,T,-463.97,M,005.173,N,009.580,K,D*09
$GPGGA,101650.25,5703.4118475,N,00952.4709215,E,2,10,0.8,-1.712,M,40.593,M,1.9,0123*6E
$GPVTG,175.90,T,-464.00,M,005.144,N,009.526,K,D*0B
$GPGGA,101650.30,5703.4117776,N,00952.4709316,E,2,10,0.8,-1.713,M,40.593,M,1.9,0123*66
$GPVTG,175.71,T,-464.19,M,005.095,N,009.436,K,D*01
$GPGGA,101650.35,5703.4117057,N,00952.4709408,E,2,10,0.8,-1.713,M,40.593,M,1.9,0123*6F
$GPVTG,175.81,T,-464.09,M,005.126,N,009.493,K,D*09
$GPGGA,101650.40,5703.4116340,N,00952.4709498,E,2,10,0.8,-1.711,M,40.593,M,1.9,0123*62
$GPVTG,175.96,T,-463.94,M,005.141,N,009.522,K,D*06
$GPGGA,101650.45,5703.4115628,N,00952.4709605,E,2,10,0.8,-1.713,M,40.593,M,2.1,0123*60
$GPVTG,175.65,T,-464.25,M,005.145,N,009.528,K,D*09
$GPGGA,101650.50,5703.4114914,N,00952.4709691,E,2,10,0.8,-1.713,M,40.593,M,2.1,0123*68
$GPVTG,175.94,T,-463.96,M,005.151,N,009.539,K,D*0D
$GPGGA,101650.55,5703.4114200,N,00952.4709800,E,2,10,0.8,-1.714,M,40.593,M,2.1,0123*62
$GPVTG,175.58,T,-464.32,M,005.160,N,009.557,K,D*0E
$GPGGA,101650.60,5703.4113479,N,00952.4709897,E,2,10,0.8,-1.719,M,40.593,M,2.1,0123*68
$GPVTG,175.64,T,-464.26,M,005.186,N,009.604,K,D*09
$GPGGA,101650.65,5703.4112759,N,00952.4709980,E,2,10,0.8,-1.721,M,40.593,M,2.4,0123*64
$GPVTG,176.03,T,-463.87,M,005.199,N,009.628,K,D*07
$GPGGA,101650.70,5703.4112041,N,00952.4710084,E,2,10,0.8,-1.722,M,40.593,M,2.4,0123*68
$GPVTG,175.79,T,-464.11,M,005.204,N,009.637,K,D*08
$GPGGA,101650.75,5703.4111338,N,00952.4710173,E,2,10,0.8,-1.724,M,40.593,M,2.4,0123*6C
$GPVTG,175.94,T,-463.96,M,005.157,N,009.551,K,D*05
$GPGGA,101650.80,5703.4110632,N,00952.4710251,E,2,10,0.8,-1.724,M,40.593,M,2.4,0123*6B
$GPVTG,176.28,T,-463.62,M,005.129,N,009.498,K,D*07
$GPGGA,101650.85,5703.4109914,N,00952.4710347,E,2,10,0.8,-1.724,M,40.593,M,2.6,0123*69
$GPVTG,176.13,T,-463.77,M,005.152,N,009.542,K,D*01
$GPGGA,101650.90,5703.4109212,N,00952.4710441,E,2,10,0.8,-1.725,M,40.593,M,2.6,0123*60
$GPVTG,176.01,T,-463.89,M,005.120,N,009.481,K,D*08
$GPGGA,101650.95,5703.4108502,N,00952.4710523,E,2,10,0.8,-1.725,M,40.593,M,2.6,0123*67
$GPVTG,176.22,T,-463.68,M,005.118,N,009.479,K,D*0A
$GPGGA,101651.00,5703.4107780,N,00952.4710605,E,2,10,0.8,-1.727,M,40.593,M,2.6,0123*68
$GPVTG,176.38,T,-463.52,M,005.157,N,009.550,K,D*09
$GPGGA,101651.05,5703.4107065,N,00952.4710692,E,2,10,0.8,-1.723,M,40.593,M,2.8,0123*65
$GPVTG,176.10,T,-463.80,M,005.169,N,009.573,K,D*00
$GPGGA,101651.10,5703.4106368,N,00952.4710786,E,2,10,0.8,-1.725,M,40.593,M,2.8,0123*6C
$GPVTG,175.94,T,-463.96,M,005.118,N,009.479,K,D*05
$GPGGA,101651.15,5703.4105655,N,00952.4710874,E,2,10,0.8,-1.727,M,40.593,M,2.8,0123*61
$GPVTG,176.03,T,-463.87,M,005.127,N,009.496,K,D*05
$GPGGA,101651.20,5703.4104943,N,00952.4710968,E,2,10,0.8,-1.728,M,40.593,M,2.8,0123*6D
$GPVTG,175.93,T,-463.97,M,005.135,N,009.510,K,D*02
$GPGGA,101651.25,5703.4104226,N,00952.4711065,E,2,10,0.8,-1.732,M,40.593,M,3.0,0123*67
$GPVTG,175.85,T,-464.05,M,005.160,N,009.556,K,D*0B
$GPGGA,101651.30,5703.4103514,N,00952.4711155,E,2,10,0.8,-1.733,M,40.593,M,3.0,0123*61
$GPVTG,175.91,T,-463.99,M,005.156,N,009.550,K,D*0F
$GPGGA,101651.35,5703.4102806,N,00952.4711256,E,2,10,0.8,-1.732,M,40.593,M,3.0,0123*6A
$GPVTG,175.72,T,-464.18,M,005.147,N,009.532,K,D*08
$GPGGA,101651.40,5703.4102089,N,00952.4711365,E,2,10,0.8,-1.731,M,40.593,M,3.0,0123*65
$GPVTG,175.43,T,-464.47,M,005.166,N,009.568,K,D*0C
$GPGGA,101651.45,5703.4101377,N,00952.4711474,E,2,10,0.8,-1.733,M,40.593,M,3.2,0123*66
$GPVTG,175.23,T,-464.67,M,005.167,N,009.568,K,D*09
$GPGGA,101651.50,5703.4100667,N,00952.4711570,E,2,10,0.8,-1.734,M,40.593,M,3.2,0123*65
$GPVTG,175.43,T,-464.47,M,005.154,N,009.544,K,D*03
$GPGGA,101651.55,5703.4099963,N,00952.4711666,E,2,10,0.8,-1.735,M,40.593,M,3.2,0123*6F
$GPVTG,175.55,T,-464.35,M,005.129,N,009.499,K,D*0A
$GPGGA,101651.60,5703.4099254,N,00952.4711784,E,2,10,0.8,-1.737,M,40.593,M,3.2,0123*69
$GPVTG,175.16,T,-464.74,M,005.126,N,009.493,K,D*0D
$GPGGA,101651.65,5703.4098535,N,00952.4711894,E,2,10,0.8,-1.740,M,40.593,M,3.4,0123*65
$GPVTG,175.14,T,-464.76,M,005.166,N,009.568,K,D*0C
$GPGGA,101651.70,5703.4097822,N,00952.4711983,E,2,10,0.8,-1.738,M,40.593,M,3.4,0123*6D
$GPVTG,175.57,T,-464.33,M,005.162,N,009.561,K,D*07
$GPGGA,101651.75,5703.4097113,N,00952.4712096,E,2,10,0.8,-1.737,M,40.593,M,3.4,0123*62
$GPVTG,175.33,T,-464.57,M,005.154,N,009.546,K,D*07
$GPGGA,101651.80,5703.4096399,N,00952.4712186,E,2,10,0.8,-1.736,M,40.593,M,3.4,0123*68
$GPVTG,175.72,T,-464.18,M,005.159,N,009.554,K,D*07
$GPGGA,101651.85,5703.4095691,N,00952.4712272,E,2,10,0.8,-1.738,M,40.593,M,3.6,0123*67
$GPVTG,176.04,T,-463.86,M,005.141,N,009.522,K,D*0D
$GPGGA,101651.90,5703.4094983,N,00952.4712347,E,2,10,0.8,-1.739,M,40.593,M,3.6,0123*68
$GPVTG,176.50,T,-463.40,M,005.131,N,009.503,K,D*02
$GPGGA,101651.95,5703.4094277,N,00952.4712438,E,2,10,0.8,-1.740,M,40.593,M,3.6,0123*6C
$GPVTG,176.40,T,-463.50,M,005.116,N,009.475,K,D*07
$GPGGA,101652.00,5703.4093558,N,00952.4712527,E,2,10,0.8,-1.740,M,40.593,M,3.6,0123*61
$GPVTG,176.34,T,-463.56,M,005.149,N,009.536,K,D*0E
$GPGGA,101652.05,5703.4092832,N,00952.4712601,E,2,10,0.8,-1.739,M,40.593,M,2.0,0123*6A
$GPVTG,176.46,T,-463.44,M,005.196,N,009.622,K,D*0C
$GPGGA,101652.10,5703.4092119,N,00952.4712669,E,2,10,0.8,-1.737,M,40.593,M,2.0,0123*6E
$GPVTG,176.84,T,-463.06,M,005.187,N,009.607,K,D*03
$GPGGA,101652.15,5703.4091406,N,00952.4712756,E,2,10,0.8,-1.740,M,40.593,M,2.0,0123*6E
$GPVTG,176.62,T,-463.28,M,005.180,N,009.593,K,D*0E
$GPGGA,101652.20,5703.4090684,N,00952.4712858,E,2,10,0.8,-1.742,M,40.593,M,2.0,0123*62
$GPVTG,176.13,T,-463.77,M,005.201,N,009.632,K,D*00
$GPGGA,101652.25,5703.4089971,N,00952.4712958,E,2,10,0.8,-1.742,M,40.593,M,2.3,0123*68
$GPVTG,175.85,T,-464.05,M,005.191,N,009.613,K,D*07
$GPGGA,101652.30,5703.4089252,N,00952.4713048,E,2,10,0.8,-1.744,M,40.593,M,2.3,0123*69
$GPVTG,175.88,T,-464.02,M,005.199,N,009.628,K,D*0D
$GPGGA,101652.35,5703.4088541,N,00952.4713145,E,2,10,0.8,-1.747,M,40.593,M,2.3,0123*67
$GPVTG,175.76,T,-464.14,M,005.179,N,009.592,K,D*07
$GPGGA,101652.40,5703.4087835,N,00952.4713234,E,2,10,0.8,-1.749,M,40.593,M,2.3,0123*6F
$GPVTG,175.85,T,-464.05,M,005.148,N,009.534,K,D*05
$GPGGA,101652.45,5703.4087120,N,00952.4713318,E,2,10,0.8,-1.741,M,40.593,M,2.5,0123*66
$GPVTG,176.04,T,-463.86,M,005.153,N,009.543,K,D*09
$GPGGA,101652.50,5703.4086394,N,00952.4713412,E,2,10,0.8,-1.740,M,40.593,M,2.5,0123*62
$GPVTG,175.99,T,-463.91,M,005.190,N,009.612,K,D*00
$GPGGA,101652.55,5703.4085672,N,00952.4713496,E,2,10,0.8,-1.739,M,40.593,M,2.5,0123*6B
$GPVTG,176.20,T,-463.70,M,005.207,N,009.644,K,D*00
$GPGGA,101652.60,5703.4084963,N,00952.4713575,E,2,10,0.8,-1.739,M,40.593,M,2.5,0123*6F
$GPVTG,176.40,T,-463.50,M,005.176,N,009.586,K,D*0C
$GPGGA,101652.65,5703.4084253,N,00952.4713667,E,2,10,0.8,-1.742,M,40.593,M,2.8,0123*63
$GPVTG,176.26,T,-463.64,M,005.161,N,009.559,K,D*0F
