$GPGGA,124402.40,5703.3830257,N,00952.2573688,E,2,10,0.9,-0.848,M,40.593,M,2.9,0123*67\r\n
$GPGGA,124402.45,5703.3830555,N,00952.2573812,E,2,10,0.9,-0.845,M,40.593,M,2.7,0123*69\r\n
$GPGGA,124402.50,5703.3830851,N,00952.2573941,E,2,10,0.9,-0.843,M,40.593,M,2.7,0123*65\r\n
$GPGGA,124402.55,5703.3831140,N,00952.2574082,E,2,10,0.9,-0.845,M,40.593,M,2.7,0123*6F\r\n
$GPGGA,124402.60,5703.3831441,N,00952.2574208,E,2,10,0.9,-0.845,M,40.593,M,2.7,0123*6D\r\n
$GPGGA,124402.65,5703.3831747,N,00952.2574337,E,2,10,0.9,-0.845,M,40.593,M,2.9,0123*6E\r\n
$GPGGA,124402.70,5703.3832043,N,00952.2574470,E,2,10,0.9,-0.846,M,40.593,M,2.9,0123*6D\r\n
$GPGGA,124402.75,5703.3832358,N,00952.2574613,E,2,10,0.9,-0.846,M,40.593,M,2.9,0123*66\r\n
$GPGGA,124402.80,5703.3832667,N,00952.2574758,E,2,10,0.9,-0.847,M,40.593,M,2.9,0123*6A\r\n
$GPGGA,124402.85,5703.3832970,N,00952.2574884,E,2,10,0.9,-0.850,M,40.593,M,3.1,0123*67\r\n
$GPGGA,124402.90,5703.3833268,N,00952.2575033,E,2,10,0.9,-0.851,M,40.593,M,3.1,0123*64\r\n
$GPGGA,124402.95,5703.3833563,N,00952.2575185,E,2,10,0.9,-0.852,M,40.593,M,3.1,0123*62\r\n
$GPGGA,124403.00,5703.3833864,N,00952.2575321,E,2,10,0.9,-0.851,M,40.593,M,3.1,0123*6A\r\n
$GPGGA,124403.05,5703.3834167,N,00952.2575448,E,2,10,0.9,-0.857,M,40.593,M,3.3,0123*6E\r\n
$GPGGA,124403.10,5703.3834467,N,00952.2575578,E,2,10,0.9,-0.856,M,40.593,M,3.3,0123*6C\r\n
$GPGGA,124403.15,5703.3834771,N,00952.2575724,E,2,10,0.9,-0.855,M,40.593,M,3.3,0123*65\r\n
$GPGGA,124403.20,5703.3835074,N,00952.2575889,E,2,10,0.9,-0.855,M,40.593,M,3.3,0123*68\r\n
$GPGGA,124403.25,5703.3835385,N,00952.2576021,E,2,10,0.9,-0.859,M,40.593,M,3.5,0123*63\r\n
$GPGGA,124403.30,5703.3835692,N,00952.2576174,E,2,10,0.9,-0.861,M,40.593,M,3.5,0123*6E\r\n
$GPGGA,124403.35,5703.3835988,N,00952.2576330,E,2,10,0.9,-0.860,M,40.593,M,3.5,0123*6C\r\n
$GPGGA,124403.40,5703.3836287,N,00952.2576487,E,2,10,0.9,-0.860,M,40.593,M,3.5,0123*62\r\n
$GPGGA,124403.45,5703.3836591,N,00952.2576640,E,2,10,0.9,-0.860,M,40.593,M,0.6,0123*6E\r\n
$GPGGA,124403.50,5703.3836901,N,00952.2576777,E,2,10,0.9,-0.859,M,40.593,M,0.6,0123*60\r\n
$GPGGA,124403.55,5703.3837203,N,00952.2576913,E,2,10,0.9,-0.858,M,40.593,M,0.6,0123*60\r\n
$GPGGA,124403.60,5703.3837503,N,00952.2577063,E,2,10,0.9,-0.857,M,40.593,M,0.6,0123*61\r\n
$GPGGA,124403.65,5703.3837804,N,00952.2577211,E,2,10,0.9,-0.851,M,40.593,M,0.9,0123*60\r\n
$GPGGA,124403.70,5703.3838101,N,00952.2577362,E,2,10,0.9,-0.851,M,40.593,M,0.9,0123*62\r\n
$GPGGA,124403.75,5703.3838408,N,00952.2577531,E,2,10,0.9,-0.853,M,40.593,M,0.9,0123*69\r\n
$GPGGA,124403.80,5703.3838725,N,00952.2577688,E,2,10,0.9,-0.852,M,40.593,M,0.9,0123*6F\r\n
$GPGGA,124403.85,5703.3839037,N,00952.2577854,E,2,10,0.9,-0.855,M,40.593,M,1.2,0123*6D\r\n
$GPGGA,124403.90,5703.3839346,N,00952.2578021,E,2,10,0.9,-0.856,M,40.593,M,1.2,0123*6A\r\n
$GPGGA,124403.95,5703.3839654,N,00952.2578169,E,2,10,0.9,-0.858,M,40.593,M,1.2,0123*6A\r\n
$GPGGA,124404.00,5703.3839963,N,00952.2578336,E,2,10,0.9,-0.862,M,40.593,M,1.2,0123*6B\r\n
$GPGGA,124404.05,5703.3840272,N,00952.2578498,E,2,10,0.9,-0.867,M,40.593,M,1.4,0123*6B\r\n
$GPGGA,124404.10,5703.3840583,N,00952.2578672,E,2,10,0.9,-0.868,M,40.593,M,1.4,0123*6F\r\n
$GPGGA,124404.15,5703.3840887,N,00952.2578835,E,2,10,0.9,-0.869,M,40.593,M,1.4,0123*6F\r\n
$GPGGA,124404.20,5703.3841195,N,00952.2578977,E,2,10,0.9,-0.868,M,40.593,M,1.4,0123*64\r\n
$GPGGA,124404.25,5703.3841504,N,00952.2579120,E,2,10,0.9,-0.868,M,40.593,M,1.7,0123*65\r\n
$GPGGA,124404.30,5703.3841809,N,00952.2579284,E,2,10,0.9,-0.868,M,40.593,M,1.7,0123*6C\r\n
$GPGGA,124404.35,5703.3842119,N,00952.2579427,E,2,10,0.9,-0.867,M,40.593,M,1.7,0123*62\r\n
$GPGGA,124404.40,5703.3842421,N,00952.2579580,E,2,10,0.9,-0.867,M,40.593,M,1.7,0123*62\r\n
$GPGGA,124404.45,5703.3842719,N,00952.2579745,E,2,10,0.9,-0.861,M,40.593,M,0.8,0123*6C\r\n
$GPGGA,124404.50,5703.3843023,N,00952.2579905,E,2,10,0.9,-0.857,M,40.593,M,0.8,0123*68\r\n
$GPGGA,124404.55,5703.3843315,N,00952.2580075,E,2,10,0.9,-0.852,M,40.593,M,0.8,0123*66\r\n
$GPGGA,124404.60,5703.3843622,N,00952.2580222,E,2,10,0.9,-0.847,M,40.593,M,0.8,0123*65\r\n
$GPGGA,124404.65,5703.3843920,N,00952.2580373,E,2,10,0.9,-0.847,M,40.593,M,1.1,0123*60\r\n
$GPGGA,124404.70,5703.3844230,N,00952.2580531,E,2,10,0.9,-0.846,M,40.593,M,1.1,0123*68\r\n
$GPGGA,124404.75,5703.3844531,N,00952.2580690,E,2,10,0.9,-0.847,M,40.593,M,1.1,0123*62\r\n
$GPGGA,124404.80,5703.3844829,N,00952.2580854,E,2,10,0.9,-0.849,M,40.593,M,1.1,0123*64\r\n
$GPGGA,124404.85,5703.3845135,N,00952.2581008,E,2,10,0.9,-0.850,M,40.593,M,1.4,0123*69\r\n
$GPGGA,124404.90,5703.3845447,N,00952.2581158,E,2,10,0.9,-0.849,M,40.593,M,1.4,0123*61\r\n
$GPGGA,124404.95,5703.3845757,N,00952.2581311,E,2,10,0.9,-0.849,M,40.593,M,1.4,0123*69\r\n
$GPGGA,124405.00,5703.3846059,N,00952.2581463,E,2,10,0.9,-0.850,M,40.593,M,1.4,0123*64\r\n
$GPGGA,124405.05,5703.3846349,N,00952.2581607,E,2,10,0.9,-0.852,M,40.593,M,1.6,0123*63\r\n
$GPGGA,124405.10,5703.3846650,N,00952.2581756,E,2,10,0.9,-0.852,M,40.593,M,1.6,0123*6F\r\n
$GPGGA,124405.15,5703.3846952,N,00952.2581895,E,2,10,0.9,-0.854,M,40.593,M,1.6,0123*61\r\n
$GPGGA,124405.20,5703.3847242,N,00952.2582047,E,2,10,0.9,-0.856,M,40.593,M,1.6,0123*6A\r\n
$GPGGA,124405.25,5703.3847534,N,00952.2582198,E,2,10,0.9,-0.862,M,40.593,M,1.8,0123*63\r\n
$GPGGA,124405.30,5703.3847839,N,00952.2582348,E,2,10,0.9,-0.862,M,40.593,M,1.8,0123*68\r\n
$GPGGA,124405.35,5703.3848149,N,00952.2582499,E,2,10,0.9,-0.863,M,40.593,M,1.8,0123*66\r\n
$GPGGA,124405.40,5703.3848460,N,00952.2582646,E,2,10,0.9,-0.864,M,40.593,M,1.8,0123*6D\r\n
$GPGGA,124405.45,5703.3848762,N,00952.2582803,E,2,10,0.9,-0.864,M,40.593,M,2.1,0123*6C\r\n
$GPGGA,124405.50,5703.3849068,N,00952.2582961,E,2,10,0.9,-0.868,M,40.593,M,2.1,0123*6D\r\n
$GPGGA,124405.55,5703.3849375,N,00952.2583119,E,2,10,0.9,-0.870,M,40.593,M,2.1,0123*68\r\n
$GPGGA,124405.60,5703.3849690,N,00952.2583280,E,2,10,0.9,-0.872,M,40.593,M,2.1,0123*61\r\n
$GPGGA,124405.65,5703.3849995,N,00952.2583436,E,2,10,0.9,-0.878,M,40.593,M,2.3,0123*6D\r\n
$GPGGA,124405.70,5703.3850289,N,00952.2583591,E,2,10,0.9,-0.879,M,40.593,M,2.3,0123*6A\r\n
$GPGGA,124405.75,5703.3850583,N,00952.2583752,E,2,10,0.9,-0.879,M,40.593,M,2.3,0123*6F\r\n
$GPGGA,124405.80,5703.3850880,N,00952.2583902,E,2,10,0.9,-0.880,M,40.593,M,2.3,0123*66\r\n
$GPGGA,124405.85,5703.3851191,N,00952.2584049,E,2,10,0.9,-0.877,M,40.593,M,2.5,0123*64\r\n
$GPGGA,124405.90,5703.3851494,N,00952.2584211,E,2,10,0.9,-0.874,M,40.593,M,2.5,0123*6C\r\n
$GPGGA,124405.95,5703.3851800,N,00952.2584374,E,2,10,0.9,-0.871,M,40.593,M,2.5,0123*6F\r\n
$GPGGA,124406.00,5703.3852098,N,00952.2584517,E,2,10,0.9,-0.870,M,40.593,M,2.5,0123*68\r\n
$GPGGA,124406.05,5703.3852397,N,00952.2584659,E,2,10,0.9,-0.869,M,40.593,M,2.7,0123*62\r\n
$GPGGA,124406.10,5703.3852697,N,00952.2584810,E,2,10,0.9,-0.869,M,40.593,M,2.7,0123*60\r\n
$GPGGA,124406.15,5703.3853000,N,00952.2584975,E,2,10,0.9,-0.870,M,40.593,M,2.7,0123*66\r\n
$GPGGA,124406.20,5703.3853307,N,00952.2585128,E,2,10,0.9,-0.868,M,40.593,M,2.7,0123*6C\r\n
$GPGGA,124406.25,5703.3853623,N,00952.2585287,E,2,10,0.9,-0.860,M,40.593,M,2.9,0123*6A\r\n
$GPGGA,124406.30,5703.3853926,N,00952.2585450,E,2,10,0.9,-0.861,M,40.593,M,2.9,0123*69\r\n
$GPGGA,124406.35,5703.3854223,N,00952.2585631,E,2,10,0.9,-0.862,M,40.593,M,2.9,0123*63\r\n
$GPGGA,124406.40,5703.3854524,N,00952.2585787,E,2,10,0.9,-0.865,M,40.593,M,2.9,0123*6A\r\n
$GPGGA,124406.45,5703.3854832,N,00952.2585932,E,2,10,0.9,-0.868,M,40.593,M,2.7,0123*66\r\n
$GPGGA,124406.50,5703.3855146,N,00952.2586076,E,2,10,0.9,-0.869,M,40.593,M,2.7,0123*62\r\n
$GPGGA,124406.55,5703.3855461,N,00952.2586241,E,2,10,0.9,-0.870,M,40.593,M,2.7,0123*69\r\n
$GPGGA,124406.60,5703.3855764,N,00952.2586390,E,2,10,0.9,-0.873,M,40.593,M,2.7,0123*67\r\n
$GPGGA,124406.65,5703.3856071,N,00952.2586518,E,2,10,0.9,-0.872,M,40.593,M,2.9,0123*6B\r\n
$GPGGA,124406.70,5703.3856377,N,00952.2586638,E,2,10,0.9,-0.872,M,40.593,M,2.9,0123*6B\r\n
$GPGGA,124406.75,5703.3856677,N,00952.2586758,E,2,10,0.9,-0.871,M,40.593,M,2.9,0123*6F\r\n
$GPGGA,124406.80,5703.3856979,N,00952.2586891,E,2,10,0.9,-0.870,M,40.593,M,2.9,0123*6F\r\n
$GPGGA,124406.85,5703.3857287,N,00952.2587033,E,2,10,0.9,-0.869,M,40.593,M,3.1,0123*61\r\n
$GPGGA,124406.90,5703.3857592,N,00952.2587167,E,2,10,0.9,-0.869,M,40.593,M,3.1,0123*66\r\n
$GPGGA,124406.95,5703.3857890,N,00952.2587293,E,2,10,0.9,-0.868,M,40.593,M,3.1,0123*65\r\n
$GPGGA,124407.00,5703.3858187,N,00952.2587429,E,2,10,0.9,-0.869,M,40.593,M,3.1,0123*6E\r\n
$GPGGA,124407.05,5703.3858490,N,00952.2587566,E,2,10,0.9,-0.871,M,40.593,M,3.3,0123*69\r\n
$GPGGA,124407.10,5703.3858801,N,00952.2587699,E,2,10,0.9,-0.872,M,40.593,M,3.3,0123*69\r\n
$GPGGA,124407.15,5703.3859115,N,00952.2587839,E,2,10,0.9,-0.873,M,40.593,M,3.3,0123*64\r\n
$GPGGA,124407.20,5703.3859421,N,00952.2588005,E,2,10,0.9,-0.876,M,40.593,M,3.3,0123*6D\r\n
$GPGGA,124407.25,5703.3859735,N,00952.2588169,E,2,10,0.9,-0.877,M,40.593,M,3.5,0123*62\r\n
$GPGGA,124407.30,5703.3860050,N,00952.2588308,E,2,10,0.9,-0.879,M,40.593,M,3.5,0123*63\r\n
$GPGGA,124407.35,5703.3860362,N,00952.2588449,E,2,10,0.9,-0.880,M,40.593,M,3.5,0123*60\r\n
$GPGGA,124407.40,5703.3860669,N,00952.2588604,E,2,10,0.9,-0.880,M,40.593,M,3.5,0123*67\r\n
$GPGGA,124407.45,5703.3860978,N,00952.2588765,E,2,10,0.9,-0.874,M,40.593,M,3.8,0123*6D\r\n
$GPGGA,124407.50,5703.3861271,N,00952.2588908,E,2,10,0.9,-0.873,M,40.593,M,3.8,0123*68\r\n
$GPGGA,124407.55,5703.3861570,N,00952.2589043,E,2,10,0.9,-0.872,M,40.593,M,3.8,0123*6D\r\n
$GPGGA,124407.60,5703.3861861,N,00952.2589174,E,2,10,0.9,-0.869,M,40.593,M,3.8,0123*69\r\n
$GPGGA,124407.65,5703.3862163,N,00952.2589308,E,2,10,0.9,-0.861,M,40.593,M,4.0,0123*6A\r\n
$GPGGA,124407.70,5703.3862470,N,00952.2589428,E,2,10,0.9,-0.857,M,40.593,M,4.0,0123*69\r\n
$GPGGA,124407.75,5703.3862781,N,00952.2589526,E,2,10,0.9,-0.855,M,40.593,M,4.0,0123*6C\r\n
$GPGGA,124407.80,5703.3863087,N,00952.2589635,E,2,10,0.9,-0.854,M,40.593,M,4.0,0123*66\r\n
$GPGGA,124407.85,5703.3863401,N,00952.2589752,E,2,10,0.9,-0.852,M,40.593,M,4.2,0123*6D\r\n
$GPGGA,124407.90,5703.3863727,N,00952.2589859,E,2,10,0.9,-0.850,M,40.593,M,4.2,0123*68\r\n
$GPGGA,124407.95,5703.3864059,N,00952.2589988,E,2,10,0.9,-0.849,M,40.593,M,4.2,0123*61\r\n
$GPGGA,124408.00,5703.3864391,N,00952.2590119,E,2,10,0.9,-0.851,M,40.593,M,4.2,0123*64\r\n
$GPGGA,124408.05,5703.3864713,N,00952.2590249,E,2,10,0.9,-0.857,M,40.593,M,4.4,0123*69\r\n
$GPGGA,124408.10,5703.3865052,N,00952.2590412,E,2,10,0.9,-0.861,M,40.593,M,4.4,0123*63\r\n
$GPGGA,124408.15,5703.3865392,N,00952.2590569,E,2,10,0.9,-0.864,M,40.593,M,4.4,0123*61\r\n
$GPGGA,124408.20,5703.3865732,N,00952.2590724,E,2,10,0.9,-0.862,M,40.593,M,4.4,0123*64\r\n
$GPGGA,124408.25,5703.3866075,N,00952.2590853,E,2,10,0.9,-0.857,M,40.593,M,4.6,0123*6D\r\n
$GPGGA,124408.30,5703.3866418,N,00952.2590962,E,2,10,0.9,-0.853,M,40.593,M,4.6,0123*61\r\n
$GPGGA,124408.35,5703.3866759,N,00952.2591100,E,2,10,0.9,-0.848,M,40.593,M,4.6,0123*65\r\n
$GPGGA,124408.40,5703.3867100,N,00952.2591238,E,2,10,0.9,-0.844,M,40.593,M,4.6,0123*68\r\n
$GPGGA,124408.45,5703.3867457,N,00952.2591359,E,2,10,0.9,-0.840,M,40.593,M,1.9,0123*62\r\n
$GPGGA,124408.50,5703.3867827,N,00952.2591488,E,2,10,0.9,-0.833,M,40.593,M,1.9,0123*62\r\n
$GPGGA,124408.55,5703.3868209,N,00952.2591604,E,2,10,0.9,-0.829,M,40.593,M,1.9,0123*63\r\n
$GPGGA,124408.60,5703.3868597,N,00952.2591717,E,2,10,0.9,-0.825,M,40.593,M,1.9,0123*6A\r\n
$GPGGA,124408.65,5703.3868996,N,00952.2591847,E,2,10,0.9,-0.816,M,40.593,M,2.1,0123*63\r\n
$GPGGA,124408.70,5703.3869401,N,00952.2591974,E,2,10,0.9,-0.811,M,40.593,M,2.1,0123*63\r\n
$GPGGA,124408.75,5703.3869819,N,00952.2592109,E,2,10,0.9,-0.810,M,40.593,M,2.1,0123*63\r\n
$GPGGA,124408.80,5703.3870253,N,00952.2592251,E,2,10,0.9,-0.813,M,40.593,M,2.1,0123*68\r\n
$GPGGA,124408.85,5703.3870688,N,00952.2592401,E,2,10,0.9,-0.822,M,40.593,M,2.4,0123*6B\r\n
$GPGGA,124408.90,5703.3871123,N,00952.2592530,E,2,10,0.9,-0.830,M,40.593,M,2.4,0123*68\r\n
$GPGGA,124408.95,5703.3871557,N,00952.2592659,E,2,10,0.9,-0.833,M,40.593,M,2.4,0123*65\r\n
$GPGGA,124409.00,5703.3871991,N,00952.2592789,E,2,10,0.9,-0.834,M,40.593,M,2.4,0123*65\r\n
$GPGGA,124409.05,5703.3872418,N,00952.2592931,E,2,10,0.9,-0.832,M,40.593,M,2.6,0123*66\r\n
$GPGGA,124409.10,5703.3872859,N,00952.2593067,E,2,10,0.9,-0.831,M,40.593,M,2.6,0123*63\r\n
$GPGGA,124409.15,5703.3873309,N,00952.2593190,E,2,10,0.9,-0.828,M,40.593,M,2.6,0123*68\r\n
$GPGGA,124409.20,5703.3873779,N,00952.2593323,E,2,10,0.9,-0.824,M,40.593,M,2.6,0123*6B\r\n
$GPGGA,124409.25,5703.3874262,N,00952.2593455,E,2,10,0.9,-0.819,M,40.593,M,2.8,0123*60\r\n
$GPGGA,124409.30,5703.3874743,N,00952.2593602,E,2,10,0.9,-0.820,M,40.593,M,2.8,0123*68\r\n
$GPGGA,124409.35,5703.3875222,N,00952.2593733,E,2,10,0.9,-0.822,M,40.593,M,2.8,0123*6F\r\n
$GPGGA,124409.40,5703.3875713,N,00952.2593878,E,2,10,0.9,-0.824,M,40.593,M,2.8,0123*6C\r\n
$GPGGA,124409.45,5703.3876219,N,00952.2594006,E,2,10,0.9,-0.831,M,40.593,M,2.1,0123*6E\r\n
$GPGGA,124409.50,5703.3876729,N,00952.2594122,E,2,10,0.9,-0.834,M,40.593,M,2.1,0123*6E\r\n
$GPGGA,124409.55,5703.3877242,N,00952.2594238,E,2,10,0.9,-0.837,M,40.593,M,2.1,0123*69\r\n
$GPGGA,124409.60,5703.3877764,N,00952.2594359,E,2,10,0.9,-0.840,M,40.593,M,2.1,0123*68\r\n
$GPGGA,124409.65,5703.3878278,N,00952.2594474,E,2,10,0.9,-0.844,M,40.593,M,2.3,0123*64\r\n
$GPGGA,124409.70,5703.3878802,N,00952.2594605,E,2,10,0.9,-0.846,M,40.593,M,2.3,0123*61\r\n
$GPGGA,124409.75,5703.3879334,N,00952.2594720,E,2,10,0.9,-0.847,M,40.593,M,2.3,0123*6C\r\n
$GPGGA,124409.80,5703.3879867,N,00952.2594823,E,2,10,0.9,-0.846,M,40.593,M,2.3,0123*66\r\n
$GPGGA,124409.85,5703.3880402,N,00952.2594938,E,2,10,0.9,-0.844,M,40.593,M,2.5,0123*65\r\n
$GPGGA,124409.90,5703.3880941,N,00952.2595058,E,2,10,0.9,-0.842,M,40.593,M,2.5,0123*63\r\n
$GPGGA,124409.95,5703.3881490,N,00952.2595165,E,2,10,0.9,-0.840,M,40.593,M,2.5,0123*6B\r\n
$GPGGA,124410.00,5703.3882040,N,00952.2595298,E,2,10,0.9,-0.839,M,40.593,M,2.5,0123*6A\r\n
$GPGGA,124410.05,5703.3882591,N,00952.2595419,E,2,10,0.9,-0.841,M,40.593,M,2.7,0123*64\r\n
$GPGGA,124410.10,5703.3883155,N,00952.2595528,E,2,10,0.9,-0.840,M,40.593,M,2.7,0123*6F\r\n
$GPGGA,124410.15,5703.3883726,N,00952.2595629,E,2,10,0.9,-0.842,M,40.593,M,2.7,0123*68\r\n
$GPGGA,124410.20,5703.3884302,N,00952.2595735,E,2,10,0.9,-0.843,M,40.593,M,2.7,0123*66\r\n
$GPGGA,124410.25,5703.3884881,N,00952.2595827,E,2,10,0.9,-0.840,M,40.593,M,2.9,0123*62\r\n
$GPGGA,124410.30,5703.3885455,N,00952.2595909,E,2,10,0.9,-0.844,M,40.593,M,2.9,0123*6B\r\n
$GPGGA,124410.35,5703.3886045,N,00952.2595987,E,2,10,0.9,-0.845,M,40.593,M,2.9,0123*6F\r\n
$GPGGA,124410.40,5703.3886638,N,00952.2596044,E,2,10,0.9,-0.844,M,40.593,M,2.9,0123*65\r\n
$GPGGA,124410.45,5703.3887220,N,00952.2596073,E,2,10,0.9,-0.848,M,40.593,M,2.7,0123*6A\r\n
$GPGGA,124410.50,5703.3887802,N,00952.2596129,E,2,10,0.9,-0.849,M,40.593,M,2.7,0123*6B\r\n
$GPGGA,124410.55,5703.3888381,N,00952.2596179,E,2,10,0.9,-0.850,M,40.593,M,2.7,0123*6C\r\n
$GPGGA,124410.60,5703.3888967,N,00952.2596220,E,2,10,0.9,-0.847,M,40.593,M,2.7,0123*61\r\n
$GPGGA,124410.65,5703.3889561,N,00952.2596252,E,2,10,0.9,-0.844,M,40.593,M,2.9,0123*67\r\n
$GPGGA,124410.70,5703.3890168,N,00952.2596286,E,2,10,0.9,-0.841,M,40.593,M,2.9,0123*6A\r\n
$GPGGA,124410.75,5703.3890774,N,00952.2596327,E,2,10,0.9,-0.836,M,40.593,M,2.9,0123*6E\r\n
$GPGGA,124410.80,5703.3891376,N,00952.2596360,E,2,10,0.9,-0.834,M,40.593,M,2.9,0123*62\r\n
$GPGGA,124410.85,5703.3891985,N,00952.2596371,E,2,10,0.9,-0.828,M,40.593,M,3.1,0123*65\r\n
$GPGGA,124410.90,5703.3892599,N,00952.2596406,E,2,10,0.9,-0.829,M,40.593,M,3.1,0123*65\r\n
$GPGGA,124410.95,5703.3893208,N,00952.2596422,E,2,10,0.9,-0.830,M,40.593,M,3.1,0123*60\r\n
$GPGGA,124411.00,5703.3893834,N,00952.2596437,E,2,10,0.9,-0.832,M,40.593,M,3.1,0123*6E\r\n
$GPGGA,124411.05,5703.3894451,N,00952.2596429,E,2,10,0.9,-0.843,M,40.593,M,3.3,0123*68\r\n
$GPGGA,124411.10,5703.3895067,N,00952.2596402,E,2,10,0.9,-0.845,M,40.593,M,3.3,0123*63\r\n
$GPGGA,124411.15,5703.3895684,N,00952.2596341,E,2,10,0.9,-0.847,M,40.593,M,3.3,0123*6F\r\n
$GPGGA,124411.20,5703.3896290,N,00952.2596283,E,2,10,0.9,-0.848,M,40.593,M,3.3,0123*6B\r\n
$GPGGA,124411.25,5703.3896906,N,00952.2596235,E,2,10,0.9,-0.851,M,40.593,M,3.5,0123*69\r\n
$GPGGA,124411.30,5703.3897529,N,00952.2596189,E,2,10,0.9,-0.849,M,40.593,M,3.5,0123*60\r\n
$GPGGA,124411.35,5703.3898151,N,00952.2596137,E,2,10,0.9,-0.848,M,40.593,M,3.5,0123*65\r\n
$GPGGA,124411.40,5703.3898777,N,00952.2596063,E,2,10,0.9,-0.846,M,40.593,M,3.5,0123*6B\r\n
$GPGGA,124411.45,5703.3899391,N,00952.2595987,E,2,10,0.9,-0.844,M,40.593,M,3.8,0123*6C\r\n
$GPGGA,124411.50,5703.3900005,N,00952.2595924,E,2,10,0.9,-0.843,M,40.593,M,3.8,0123*69\r\n
$GPGGA,124411.55,5703.3900632,N,00952.2595846,E,2,10,0.9,-0.841,M,40.593,M,3.8,0123*69\r\n
$GPGGA,124411.60,5703.3901255,N,00952.2595757,E,2,10,0.9,-0.843,M,40.593,M,3.8,0123*66\r\n
$GPGGA,124411.65,5703.3901880,N,00952.2595656,E,2,10,0.9,-0.851,M,40.593,M,4.0,0123*6D\r\n
$GPGGA,124411.70,5703.3902498,N,00952.2595564,E,2,10,0.9,-0.853,M,40.593,M,4.0,0123*6F\r\n
$GPGGA,124411.75,5703.3903109,N,00952.2595442,E,2,10,0.9,-0.855,M,40.593,M,4.0,0123*65\r\n
$GPGGA,124411.80,5703.3903722,N,00952.2595283,E,2,10,0.9,-0.854,M,40.593,M,4.0,0123*6A\r\n
$GPGGA,124411.85,5703.3904337,N,00952.2595121,E,2,10,0.9,-0.850,M,40.593,M,4.2,0123*65\r\n
$GPGGA,124411.90,5703.3904950,N,00952.2594955,E,2,10,0.9,-0.849,M,40.593,M,4.2,0123*68\r\n
$GPGGA,124411.95,5703.3905570,N,00952.2594793,E,2,10,0.9,-0.848,M,40.593,M,4.2,0123*67\r\n
$GPGGA,124412.00,5703.3906188,N,00952.2594615,E,2,10,0.9,-0.848,M,40.593,M,4.2,0123*67\r\n
$GPGGA,124412.05,5703.3906804,N,00952.2594413,E,2,10,0.9,-0.853,M,40.593,M,4.4,0123*67\r\n
$GPGGA,124412.10,5703.3907419,N,00952.2594241,E,2,10,0.9,-0.852,M,40.593,M,4.4,0123*62\r\n
$GPGGA,124412.15,5703.3908036,N,00952.2594058,E,2,10,0.9,-0.854,M,40.593,M,4.4,0123*6D\r\n
$GPGGA,124412.20,5703.3908665,N,00952.2593875,E,2,10,0.9,-0.853,M,40.593,M,4.4,0123*6C\r\n
$GPGGA,124412.25,5703.3909291,N,00952.2593667,E,2,10,0.9,-0.862,M,40.593,M,4.6,0123*6A\r\n
$GPGGA,124412.30,5703.3909916,N,00952.2593459,E,2,10,0.9,-0.862,M,40.593,M,4.6,0123*65\r\n
$GPGGA,124412.35,5703.3910532,N,00952.2593228,E,2,10,0.9,-0.863,M,40.593,M,4.6,0123*63\r\n
$GPGGA,124412.40,5703.3911144,N,00952.2592985,E,2,10,0.9,-0.863,M,40.593,M,4.6,0123*68\r\n
$GPGGA,124412.45,5703.3911754,N,00952.2592734,E,2,10,0.9,-0.861,M,40.593,M,1.9,0123*66\r\n
$GPGGA,124412.50,5703.3912369,N,00952.2592491,E,2,10,0.9,-0.861,M,40.593,M,1.9,0123*67\r\n
$GPGGA,124412.55,5703.3912989,N,00952.2592233,E,2,10,0.9,-0.858,M,40.593,M,1.9,0123*62\r\n
$GPGGA,124412.60,5703.3913600,N,00952.2591950,E,2,10,0.9,-0.855,M,40.593,M,1.9,0123*6B\r\n
$GPGGA,124412.65,5703.3914201,N,00952.2591658,E,2,10,0.9,-0.864,M,40.593,M,2.1,0123*62\r\n
$GPGGA,124412.70,5703.3914803,N,00952.2591373,E,2,10,0.9,-0.866,M,40.593,M,2.1,0123*60\r\n
$GPGGA,124412.75,5703.3915407,N,00952.2591073,E,2,10,0.9,-0.864,M,40.593,M,2.1,0123*6D\r\n
$GPGGA,124412.80,5703.3916001,N,00952.2590772,E,2,10,0.9,-0.866,M,40.593,M,2.1,0123*63\r\n
$GPGGA,124412.85,5703.3916608,N,00952.2590471,E,2,10,0.9,-0.866,M,40.593,M,2.4,0123*6C\r\n
$GPGGA,124412.90,5703.3917218,N,00952.2590167,E,2,10,0.9,-0.864,M,40.593,M,2.4,0123*6C\r\n
$GPGGA,124412.95,5703.3917823,N,00952.2589845,E,2,10,0.9,-0.862,M,40.593,M,2.4,0123*6C\r\n
$GPGGA,124413.00,5703.3918421,N,00952.2589502,E,2,10,0.9,-0.863,M,40.593,M,2.4,0123*6F\r\n
$GPGGA,124413.05,5703.3919006,N,00952.2589166,E,2,10,0.9,-0.866,M,40.593,M,2.6,0123*6B\r\n
$GPGGA,124413.10,5703.3919610,N,00952.2588823,E,2,10,0.9,-0.870,M,40.593,M,2.6,0123*60\r\n
$GPGGA,124413.15,5703.3920219,N,00952.2588466,E,2,10,0.9,-0.872,M,40.593,M,2.6,0123*6D\r\n
$GPGGA,124413.20,5703.3920828,N,00952.2588108,E,2,10,0.9,-0.876,M,40.593,M,2.6,0123*6A\r\n
$GPGGA,124413.25,5703.3921419,N,00952.2587758,E,2,10,0.9,-0.877,M,40.593,M,2.8,0123*63\r\n
$GPGGA,124413.30,5703.3922011,N,00952.2587376,E,2,10,0.9,-0.879,M,40.593,M,2.8,0123*6E\r\n
$GPGGA,124413.35,5703.3922597,N,00952.2586960,E,2,10,0.9,-0.880,M,40.593,M,2.8,0123*6A\r\n
$GPGGA,124413.40,5703.3923164,N,00952.2586539,E,2,10,0.9,-0.879,M,40.593,M,2.8,0123*67\r\n
$GPGGA,124413.45,5703.3923733,N,00952.2586121,E,2,10,0.9,-0.875,M,40.593,M,2.1,0123*6E\r\n
$GPGGA,124413.50,5703.3924304,N,00952.2585674,E,2,10,0.9,-0.870,M,40.593,M,2.1,0123*6C\r\n
$GPGGA,124413.55,5703.3924869,N,00952.2585217,E,2,10,0.9,-0.868,M,40.593,M,2.1,0123*61\r\n
$GPGGA,124413.60,5703.3925442,N,00952.2584757,E,2,10,0.9,-0.867,M,40.593,M,2.1,0123*6C\r\n
$GPGGA,124413.65,5703.3926022,N,00952.2584306,E,2,10,0.9,-0.866,M,40.593,M,2.3,0123*6B\r\n
$GPGGA,124413.70,5703.3926609,N,00952.2583850,E,2,10,0.9,-0.864,M,40.593,M,2.3,0123*6D\r\n
$GPGGA,124413.75,5703.3927191,N,00952.2583392,E,2,10,0.9,-0.865,M,40.593,M,2.3,0123*6B\r\n
$GPGGA,124413.80,5703.3927788,N,00952.2582919,E,2,10,0.9,-0.866,M,40.593,M,2.3,0123*64\r\n
$GPGGA,124413.85,5703.3928388,N,00952.2582454,E,2,10,0.9,-0.875,M,40.593,M,2.5,0123*6A\r\n
$GPGGA,124413.90,5703.3928982,N,00952.2581979,E,2,10,0.9,-0.881,M,40.593,M,2.5,0123*64\r\n
$GPGGA,124413.95,5703.3929553,N,00952.2581488,E,2,10,0.9,-0.885,M,40.593,M,2.5,0123*67\r\n
$GPGGA,124414.00,5703.3930111,N,00952.2580982,E,2,10,0.9,-0.886,M,40.593,M,2.5,0123*63\r\n
$GPGGA,124414.05,5703.3930640,N,00952.2580462,E,2,10,0.9,-0.886,M,40.593,M,2.7,0123*64\r\n
$GPGGA,124414.10,5703.3931191,N,00952.2579935,E,2,10,0.9,-0.879,M,40.593,M,2.7,0123*63\r\n
$GPGGA,124414.15,5703.3931724,N,00952.2579382,E,2,10,0.9,-0.877,M,40.593,M,2.7,0123*66\r\n
$GPGGA,124414.20,5703.3932255,N,00952.2578834,E,2,10,0.9,-0.877,M,40.593,M,2.7,0123*67\r\n
$GPGGA,124414.25,5703.3932787,N,00952.2578293,E,2,10,0.9,-0.873,M,40.593,M,2.9,0123*65\r\n
$GPGGA,124414.30,5703.3933339,N,00952.2577744,E,2,10,0.9,-0.868,M,40.593,M,2.9,0123*6B\r\n
$GPGGA,124414.35,5703.3933889,N,00952.2577204,E,2,10,0.9,-0.866,M,40.593,M,2.9,0123*61\r\n
$GPGGA,124414.40,5703.3934449,N,00952.2576655,E,2,10,0.9,-0.867,M,40.593,M,2.9,0123*64\r\n
$GPGGA,124414.45,5703.3935006,N,00952.2576102,E,2,10,0.9,-0.862,M,40.593,M,2.7,0123*61\r\n
$GPGGA,124414.50,5703.3935570,N,00952.2575531,E,2,10,0.9,-0.862,M,40.593,M,2.7,0123*66\r\n
$GPGGA,124414.55,5703.3936120,N,00952.2574953,E,2,10,0.9,-0.863,M,40.593,M,2.7,0123*69\r\n
$GPGGA,124414.60,5703.3936679,N,00952.2574381,E,2,10,0.9,-0.864,M,40.593,M,2.7,0123*66\r\n
$GPGGA,124414.65,5703.3937225,N,00952.2573792,E,2,10,0.9,-0.868,M,40.593,M,2.9,0123*6C\r\n
$GPGGA,124414.70,5703.3937772,N,00952.2573186,E,2,10,0.9,-0.869,M,40.593,M,2.9,0123*6D\r\n
$GPGGA,124414.75,5703.3938312,N,00952.2572573,E,2,10,0.9,-0.871,M,40.593,M,2.9,0123*63\r\n
$GPGGA,124414.80,5703.3938842,N,00952.2571944,E,2,10,0.9,-0.871,M,40.593,M,2.9,0123*6C\r\n
$GPGGA,124414.85,5703.3939355,N,00952.2571293,E,2,10,0.9,-0.872,M,40.593,M,3.1,0123*6E\r\n
$GPGGA,124414.90,5703.3939866,N,00952.2570648,E,2,10,0.9,-0.874,M,40.593,M,3.1,0123*64\r\n
$GPGGA,124414.95,5703.3940366,N,00952.2569997,E,2,10,0.9,-0.873,M,40.593,M,3.1,0123*66\r\n
$GPGGA,124415.00,5703.3940883,N,00952.2569340,E,2,10,0.9,-0.869,M,40.593,M,3.1,0123*60\r\n
$GPGGA,124415.05,5703.3941366,N,00952.2568685,E,2,10,0.9,-0.865,M,40.593,M,3.3,0123*67\r\n
$GPGGA,124415.10,5703.3941865,N,00952.2568006,E,2,10,0.9,-0.860,M,40.593,M,3.3,0123*63\r\n
$GPGGA,124415.15,5703.3942370,N,00952.2567344,E,2,10,0.9,-0.858,M,40.593,M,3.3,0123*6B\r\n
$GPGGA,124415.20,5703.3942879,N,00952.2566670,E,2,10,0.9,-0.853,M,40.593,M,3.3,0123*67\r\n
$GPGGA,124415.25,5703.3943391,N,00952.2565986,E,2,10,0.9,-0.851,M,40.593,M,3.5,0123*6F\r\n
$GPGGA,124415.30,5703.3943907,N,00952.2565298,E,2,10,0.9,-0.852,M,40.593,M,3.5,0123*69\r\n
$GPGGA,124415.35,5703.3944417,N,00952.2564600,E,2,10,0.9,-0.855,M,40.593,M,3.5,0123*64\r\n
$GPGGA,124415.40,5703.3944933,N,00952.2563892,E,2,10,0.9,-0.856,M,40.593,M,3.5,0123*6C\r\n
$GPGGA,124415.45,5703.3945435,N,00952.2563167,E,2,10,0.9,-0.862,M,40.593,M,0.6,0123*67\r\n
$GPGGA,124415.50,5703.3945923,N,00952.2562432,E,2,10,0.9,-0.869,M,40.593,M,0.6,0123*66\r\n
$GPGGA,124415.55,5703.3946418,N,00952.2561688,E,2,10,0.9,-0.873,M,40.593,M,0.6,0123*6E\r\n
$GPGGA,124415.60,5703.3946903,N,00952.2560930,E,2,10,0.9,-0.873,M,40.593,M,0.6,0123*62\r\n
$GPGGA,124415.65,5703.3947374,N,00952.2560164,E,2,10,0.9,-0.871,M,40.593,M,0.9,0123*68\r\n
$GPGGA,124415.70,5703.3947828,N,00952.2559371,E,2,10,0.9,-0.876,M,40.593,M,0.9,0123*65\r\n
$GPGGA,124415.75,5703.3948287,N,00952.2558586,E,2,10,0.9,-0.877,M,40.593,M,0.9,0123*6E\r\n
$GPGGA,124415.80,5703.3948750,N,00952.2557809,E,2,10,0.9,-0.876,M,40.593,M,0.9,0123*6F\r\n
$GPGGA,124415.85,5703.3949211,N,00952.2557021,E,2,10,0.9,-0.877,M,40.593,M,1.2,0123*62\r\n
$GPGGA,124415.90,5703.3949675,N,00952.2556222,E,2,10,0.9,-0.875,M,40.593,M,1.2,0123*62\r\n
$GPGGA,124415.95,5703.3950131,N,00952.2555422,E,2,10,0.9,-0.873,M,40.593,M,1.2,0123*6B\r\n
$GPGGA,124416.00,5703.3950582,N,00952.2554616,E,2,10,0.9,-0.872,M,40.593,M,1.2,0123*6D\r\n
$GPGGA,124416.05,5703.3951025,N,00952.2553782,E,2,10,0.9,-0.868,M,40.593,M,1.4,0123*67\r\n
$GPGGA,124416.10,5703.3951460,N,00952.2552954,E,2,10,0.9,-0.870,M,40.593,M,1.4,0123*6B\r\n
$GPGGA,124416.15,5703.3951903,N,00952.2552125,E,2,10,0.9,-0.870,M,40.593,M,1.4,0123*68\r\n
$GPGGA,124416.20,5703.3952350,N,00952.2551297,E,2,10,0.9,-0.867,M,40.593,M,1.4,0123*6E\r\n
$GPGGA,124416.25,5703.3952792,N,00952.2550446,E,2,10,0.9,-0.867,M,40.593,M,1.7,0123*69\r\n
$GPGGA,124416.30,5703.3953233,N,00952.2549590,E,2,10,0.9,-0.867,M,40.593,M,1.7,0123*60\r\n
$GPGGA,124416.35,5703.3953662,N,00952.2548734,E,2,10,0.9,-0.866,M,40.593,M,1.7,0123*69\r\n
$GPGGA,124416.40,5703.3954086,N,00952.2547886,E,2,10,0.9,-0.866,M,40.593,M,1.7,0123*69\r\n
$GPGGA,124416.45,5703.3954509,N,00952.2547015,E,2,10,0.9,-0.866,M,40.593,M,1.9,0123*62\r\n
$GPGGA,124416.50,5703.3954925,N,00952.2546142,E,2,10,0.9,-0.869,M,40.593,M,1.9,0123*69\r\n
$GPGGA,124416.55,5703.3955348,N,00952.2545242,E,2,10,0.9,-0.871,M,40.593,M,1.9,0123*65\r\n
$GPGGA,124416.60,5703.3955772,N,00952.2544363,E,2,10,0.9,-0.870,M,40.593,M,1.9,0123*6C\r\n
$GPGGA,124416.65,5703.3956191,N,00952.2543491,E,2,10,0.9,-0.871,M,40.593,M,2.1,0123*66\r\n
$GPGGA,124416.70,5703.3956600,N,00952.2542591,E,2,10,0.9,-0.874,M,40.593,M,2.1,0123*68\r\n
$GPGGA,124416.75,5703.3957011,N,00952.2541687,E,2,10,0.9,-0.872,M,40.593,M,2.1,0123*6B\r\n
$GPGGA,124416.80,5703.3957408,N,00952.2540770,E,2,10,0.9,-0.870,M,40.593,M,2.1,0123*67\r\n
$GPGGA,124416.85,5703.3957797,N,00952.2539860,E,2,10,0.9,-0.867,M,40.593,M,2.4,0123*64\r\n
$GPGGA,124416.90,5703.3958180,N,00952.2538957,E,2,10,0.9,-0.866,M,40.593,M,2.4,0123*6A\r\n
$GPGGA,124416.95,5703.3958555,N,00952.2538032,E,2,10,0.9,-0.864,M,40.593,M,2.4,0123*6B\r\n
$GPGGA,124417.00,5703.3958920,N,00952.2537115,E,2,10,0.9,-0.862,M,40.593,M,2.4,0123*65\r\n
$GPGGA,124417.05,5703.3959263,N,00952.2536190,E,2,10,0.9,-0.858,M,40.593,M,2.6,0123*6A\r\n
$GPGGA,124417.10,5703.3959622,N,00952.2535246,E,2,10,0.9,-0.854,M,40.593,M,2.6,0123*68\r\n
$GPGGA,124417.15,5703.3959986,N,00952.2534304,E,2,10,0.9,-0.852,M,40.593,M,2.6,0123*6C\r\n
$GPGGA,124417.20,5703.3960341,N,00952.2533353,E,2,10,0.9,-0.854,M,40.593,M,2.6,0123*62\r\n
$GPGGA,124417.25,5703.3960691,N,00952.2532384,E,2,10,0.9,-0.860,M,40.593,M,1.8,0123*6E\r\n
$GPGGA,124417.30,5703.3961042,N,00952.2531405,E,2,10,0.9,-0.864,M,40.593,M,1.8,0123*6A\r\n
$GPGGA,124417.35,5703.3961398,N,00952.2530435,E,2,10,0.9,-0.866,M,40.593,M,1.8,0123*6B\r\n
$GPGGA,124417.40,5703.3961748,N,00952.2529456,E,2,10,0.9,-0.869,M,40.593,M,1.8,0123*62\r\n
$GPGGA,124417.45,5703.3962100,N,00952.2528504,E,2,10,0.9,-0.868,M,40.593,M,2.1,0123*62\r\n
$GPGGA,124417.50,5703.3962445,N,00952.2527501,E,2,10,0.9,-0.874,M,40.593,M,2.1,0123*65\r\n
$GPGGA,124417.55,5703.3962779,N,00952.2526498,E,2,10,0.9,-0.878,M,40.593,M,2.1,0123*60\r\n
$GPGGA,124417.60,5703.3963118,N,00952.2525514,E,2,10,0.9,-0.877,M,40.593,M,2.1,0123*6F\r\n
$GPGGA,124417.65,5703.3963431,N,00952.2524511,E,2,10,0.9,-0.881,M,40.593,M,2.3,0123*6B\r\n
$GPGGA,124417.70,5703.3963743,N,00952.2523512,E,2,10,0.9,-0.881,M,40.593,M,2.3,0123*6D\r\n
$GPGGA,124417.75,5703.3964046,N,00952.2522527,E,2,10,0.9,-0.878,M,40.593,M,2.3,0123*6C\r\n
$GPGGA,124417.80,5703.3964339,N,00952.2521519,E,2,10,0.9,-0.877,M,40.593,M,2.3,0123*6C\r\n
$GPGGA,124417.85,5703.3964620,N,00952.2520517,E,2,10,0.9,-0.877,M,40.593,M,2.5,0123*6D\r\n
$GPGGA,124417.90,5703.3964911,N,00952.2519518,E,2,10,0.9,-0.873,M,40.593,M,2.5,0123*65\r\n
$GPGGA,124417.95,5703.3965186,N,00952.2518522,E,2,10,0.9,-0.870,M,40.593,M,2.5,0123*6C\r\n
$GPGGA,124418.00,5703.3965462,N,00952.2517490,E,2,10,0.9,-0.868,M,40.593,M,2.5,0123*6E\r\n
$GPGGA,124418.05,5703.3965741,N,00952.2516457,E,2,10,0.9,-0.865,M,40.593,M,2.7,0123*6C\r\n
$GPGGA,124418.10,5703.3966028,N,00952.2515435,E,2,10,0.9,-0.864,M,40.593,M,2.7,0123*65\r\n
$GPGGA,124418.15,5703.3966303,N,00952.2514394,E,2,10,0.9,-0.863,M,40.593,M,2.7,0123*60\r\n
$GPGGA,124418.20,5703.3966575,N,00952.2513352,E,2,10,0.9,-0.864,M,40.593,M,2.7,0123*6B\r\n
$GPGGA,124418.25,5703.3966852,N,00952.2512314,E,2,10,0.9,-0.863,M,40.593,M,2.5,0123*60\r\n
$GPGGA,124418.30,5703.3967138,N,00952.2511276,E,2,10,0.9,-0.866,M,40.593,M,2.5,0123*63\r\n
$GPGGA,124418.35,5703.3967409,N,00952.2510234,E,2,10,0.9,-0.866,M,40.593,M,2.5,0123*66\r\n
$GPGGA,124418.40,5703.3967679,N,00952.2509188,E,2,10,0.9,-0.863,M,40.593,M,2.5,0123*68\r\n
$GPGGA,124418.45,5703.3967933,N,00952.2508139,E,2,10,0.9,-0.864,M,40.593,M,2.7,0123*62\r\n
$GPGGA,124418.50,5703.3968194,N,00952.2507082,E,2,10,0.9,-0.863,M,40.593,M,2.7,0123*65\r\n
$GPGGA,124418.55,5703.3968431,N,00952.2506015,E,2,10,0.9,-0.866,M,40.593,M,2.7,0123*60\r\n
$GPGGA,124418.60,5703.3968670,N,00952.2504937,E,2,10,0.9,-0.870,M,40.593,M,2.7,0123*6D\r\n
$GPGGA,124418.65,5703.3968893,N,00952.2503859,E,2,10,0.9,-0.876,M,40.593,M,2.9,0123*6D\r\n
$GPGGA,124418.70,5703.3969111,N,00952.2502787,E,2,10,0.9,-0.877,M,40.593,M,2.9,0123*67\r\n
$GPGGA,124418.75,5703.3969346,N,00952.2501725,E,2,10,0.9,-0.876,M,40.593,M,2.9,0123*68\r\n
$GPGGA,124418.80,5703.3969566,N,00952.2500641,E,2,10,0.9,-0.876,M,40.593,M,2.9,0123*64\r\n
$GPGGA,124418.85,5703.3969787,N,00952.2499556,E,2,10,0.9,-0.872,M,40.593,M,3.1,0123*65\r\n
$GPGGA,124418.90,5703.3969996,N,00952.2498468,E,2,10,0.9,-0.872,M,40.593,M,3.1,0123*62\r\n
$GPGGA,124418.95,5703.3970198,N,00952.2497382,E,2,10,0.9,-0.872,M,40.593,M,3.1,0123*65\r\n
$GPGGA,124419.00,5703.3970402,N,00952.2496292,E,2,10,0.9,-0.870,M,40.593,M,3.1,0123*6D\r\n
$GPGGA,124419.05,5703.3970592,N,00952.2495185,E,2,10,0.9,-0.876,M,40.593,M,3.3,0123*62\r\n
$GPGGA,124419.10,5703.3970799,N,00952.2494106,E,2,10,0.9,-0.873,M,40.593,M,3.3,0123*60\r\n
$GPGGA,124419.15,5703.3970985,N,00952.2492998,E,2,10,0.9,-0.872,M,40.593,M,3.3,0123*6E\r\n
$GPGGA,124419.20,5703.3971173,N,00952.2491890,E,2,10,0.9,-0.872,M,40.593,M,3.3,0123*62\r\n
$GPGGA,124419.25,5703.3971359,N,00952.2490790,E,2,10,0.9,-0.872,M,40.593,M,3.5,0123*65\r\n
$GPGGA,124419.30,5703.3971542,N,00952.2489693,E,2,10,0.9,-0.871,M,40.593,M,3.5,0123*64\r\n
$GPGGA,124419.35,5703.3971738,N,00952.2488595,E,2,10,0.9,-0.869,M,40.593,M,3.5,0123*63\r\n
$GPGGA,124419.40,5703.3971935,N,00952.2487490,E,2,10,0.9,-0.870,M,40.593,M,3.5,0123*61\r\n
$GPGGA,124419.45,5703.3972130,N,00952.2486380,E,2,10,0.9,-0.867,M,40.593,M,3.8,0123*66\r\n
$GPGGA,124419.50,5703.3972321,N,00952.2485261,E,2,10,0.9,-0.865,M,40.593,M,3.8,0123*6F\r\n
$GPGGA,124419.55,5703.3972516,N,00952.2484152,E,2,10,0.9,-0.866,M,40.593,M,3.8,0123*69\r\n
$GPGGA,124419.60,5703.3972704,N,00952.2483033,E,2,10,0.9,-0.868,M,40.593,M,3.8,0123*61\r\n
$GPGGA,124419.65,5703.3972880,N,00952.2481911,E,2,10,0.9,-0.874,M,40.593,M,4.0,0123*6E\r\n
$GPGGA,124419.70,5703.3973062,N,00952.2480805,E,2,10,0.9,-0.877,M,40.593,M,4.0,0123*69\r\n
$GPGGA,124419.75,5703.3973240,N,00952.2479678,E,2,10,0.9,-0.876,M,40.593,M,4.0,0123*6D\r\n
$GPGGA,124419.80,5703.3973405,N,00952.2478547,E,2,10,0.9,-0.879,M,40.593,M,4.0,0123*61\r\n
$GPGGA,124419.85,5703.3973585,N,00952.2477425,E,2,10,0.9,-0.878,M,40.593,M,4.2,0123*64\r\n
$GPGGA,124419.90,5703.3973753,N,00952.2476294,E,2,10,0.9,-0.879,M,40.593,M,4.2,0123*65\r\n
$GPGGA,124419.95,5703.3973906,N,00952.2475161,E,2,10,0.9,-0.882,M,40.593,M,4.2,0123*60\r\n
$GPGGA,124420.00,5703.3974051,N,00952.2474019,E,2,10,0.9,-0.885,M,40.593,M,4.2,0123*62\r\n
$GPGGA,124420.05,5703.3974202,N,00952.2472889,E,2,10,0.9,-0.884,M,40.593,M,4.4,0123*63\r\n
$GPGGA,124420.10,5703.3974361,N,00952.2471739,E,2,10,0.9,-0.885,M,40.593,M,4.4,0123*65\r\n
$GPGGA,124420.15,5703.3974515,N,00952.2470604,E,2,10,0.9,-0.888,M,40.593,M,4.4,0123*66\r\n
$GPGGA,124420.20,5703.3974660,N,00952.2469457,E,2,10,0.9,-0.890,M,40.593,M,4.4,0123*64\r\n
$GPGGA,124420.25,5703.3974814,N,00952.2468293,E,2,10,0.9,-0.894,M,40.593,M,1.7,0123*61\r\n
$GPGGA,124420.30,5703.3974967,N,00952.2467131,E,2,10,0.9,-0.894,M,40.593,M,1.7,0123*64\r\n
$GPGGA,124420.35,5703.3975123,N,00952.2465984,E,2,10,0.9,-0.892,M,40.593,M,1.7,0123*6A\r\n
$GPGGA,124420.40,5703.3975249,N,00952.2464839,E,2,10,0.9,-0.893,M,40.593,M,1.7,0123*60\r\n
$GPGGA,124420.45,5703.3975381,N,00952.2463699,E,2,10,0.9,-0.892,M,40.593,M,1.9,0123*6C\r\n
$GPGGA,124420.50,5703.3975520,N,00952.2462543,E,2,10,0.9,-0.891,M,40.593,M,1.9,0123*63\r\n
$GPGGA,124420.55,5703.3975670,N,00952.2461385,E,2,10,0.9,-0.889,M,40.593,M,1.9,0123*66\r\n
$GPGGA,124420.60,5703.3975811,N,00952.2460226,E,2,10,0.9,-0.886,M,40.593,M,1.9,0123*6F\r\n
$GPGGA,124420.65,5703.3975953,N,00952.2459062,E,2,10,0.9,-0.885,M,40.593,M,2.1,0123*6D\r\n
$GPGGA,124420.70,5703.3976091,N,00952.2457903,E,2,10,0.9,-0.884,M,40.593,M,2.1,0123*6C\r\n
$GPGGA,124420.75,5703.3976241,N,00952.2456746,E,2,10,0.9,-0.881,M,40.593,M,2.1,0123*6D\r\n
$GPGGA,124420.80,5703.3976368,N,00952.2455558,E,2,10,0.9,-0.881,M,40.593,M,2.1,0123*63\r\n
$GPGGA,124420.85,5703.3976500,N,00952.2454385,E,2,10,0.9,-0.882,M,40.593,M,2.4,0123*6F\r\n
$GPGGA,124420.90,5703.3976629,N,00952.2453204,E,2,10,0.9,-0.882,M,40.593,M,2.4,0123*6C\r\n
$GPGGA,124420.95,5703.3976734,N,00952.2452016,E,2,10,0.9,-0.883,M,40.593,M,2.4,0123*65\r\n
$GPGGA,124421.00,5703.3976851,N,00952.2450852,E,2,10,0.9,-0.881,M,40.593,M,2.4,0123*6C\r\n
$GPGGA,124421.05,5703.3976953,N,00952.2449683,E,2,10,0.9,-0.872,M,40.593,M,2.6,0123*6E\r\n
$GPGGA,124421.10,5703.3977055,N,00952.2448499,E,2,10,0.9,-0.869,M,40.593,M,2.6,0123*66\r\n
$GPGGA,124421.15,5703.3977158,N,00952.2447332,E,2,10,0.9,-0.865,M,40.593,M,2.6,0123*6A\r\n
$GPGGA,124421.20,5703.3977247,N,00952.2446157,E,2,10,0.9,-0.860,M,40.593,M,2.6,0123*64\r\n
$GPGGA,124421.25,5703.3977331,N,00952.2444981,E,2,10,0.9,-0.852,M,40.593,M,1.7,0123*63\r\n
$GPGGA,124421.30,5703.3977406,N,00952.2443810,E,2,10,0.9,-0.854,M,40.593,M,1.7,0123*6C\r\n
$GPGGA,124421.35,5703.3977491,N,00952.2442647,E,2,10,0.9,-0.853,M,40.593,M,1.7,0123*6D\r\n
$GPGGA,124421.40,5703.3977576,N,00952.2441474,E,2,10,0.9,-0.852,M,40.593,M,1.7,0123*67\r\n
$GPGGA,124421.45,5703.3977650,N,00952.2440290,E,2,10,0.9,-0.858,M,40.593,M,2.0,0123*66\r\n
$GPGGA,124421.50,5703.3977727,N,00952.2439123,E,2,10,0.9,-0.862,M,40.593,M,2.0,0123*6F\r\n
$GPGGA,124421.55,5703.3977806,N,00952.2437956,E,2,10,0.9,-0.864,M,40.593,M,2.0,0123*64\r\n
$GPGGA,124421.60,5703.3977890,N,00952.2436789,E,2,10,0.9,-0.865,M,40.593,M,2.0,0123*61\r\n
$GPGGA,124421.65,5703.3977963,N,00952.2435612,E,2,10,0.9,-0.864,M,40.593,M,2.2,0123*6A\r\n
$GPGGA,124421.70,5703.3978045,N,00952.2434446,E,2,10,0.9,-0.865,M,40.593,M,2.2,0123*6F\r\n
$GPGGA,124421.75,5703.3978113,N,00952.2433302,E,2,10,0.9,-0.866,M,40.593,M,2.2,0123*6B\r\n
$GPGGA,124421.80,5703.3978172,N,00952.2432145,E,2,10,0.9,-0.862,M,40.593,M,2.2,0123*62\r\n
$GPGGA,124421.85,5703.3978232,N,00952.2430993,E,2,10,0.9,-0.861,M,40.593,M,2.4,0123*64\r\n
$GPGGA,124421.90,5703.3978295,N,00952.2429859,E,2,10,0.9,-0.859,M,40.593,M,2.4,0123*69\r\n
$GPGGA,124421.95,5703.3978347,N,00952.2428705,E,2,10,0.9,-0.857,M,40.593,M,2.4,0123*6B\r\n
$GPGGA,124422.00,5703.3978409,N,00952.2427544,E,2,10,0.9,-0.859,M,40.593,M,2.4,0123*6F\r\n
$GPGGA,124422.05,5703.3978462,N,00952.2426374,E,2,10,0.9,-0.866,M,40.593,M,2.6,0123*6D\r\n
$GPGGA,124422.10,5703.3978540,N,00952.2425200,E,2,10,0.9,-0.866,M,40.593,M,2.6,0123*69\r\n
$GPGGA,124422.15,5703.3978606,N,00952.2424027,E,2,10,0.9,-0.868,M,40.593,M,2.6,0123*65\r\n
$GPGGA,124422.20,5703.3978658,N,00952.2422870,E,2,10,0.9,-0.873,M,40.593,M,2.6,0123*6E\r\n
$GPGGA,124422.25,5703.3978715,N,00952.2421693,E,2,10,0.9,-0.884,M,40.593,M,2.4,0123*69\r\n
$GPGGA,124422.30,5703.3978770,N,00952.2420501,E,2,10,0.9,-0.888,M,40.593,M,2.4,0123*6B\r\n
$GPGGA,124422.35,5703.3978806,N,00952.2419311,E,2,10,0.9,-0.894,M,40.593,M,2.4,0123*60\r\n
$GPGGA,124422.40,5703.3978825,N,00952.2418154,E,2,10,0.9,-0.899,M,40.593,M,2.4,0123*6C\r\n
$GPGGA,124422.45,5703.3978850,N,00952.2417011,E,2,10,0.9,-0.898,M,40.593,M,2.7,0123*66\r\n
$GPGGA,124422.50,5703.3978857,N,00952.2415874,E,2,10,0.9,-0.896,M,40.593,M,2.7,0123*62\r\n
$GPGGA,124422.55,5703.3978851,N,00952.2414723,E,2,10,0.9,-0.894,M,40.593,M,2.7,0123*6F\r\n
$GPGGA,124422.60,5703.3978846,N,00952.2413599,E,2,10,0.9,-0.890,M,40.593,M,2.7,0123*6F\r\n
$GPGGA,124422.65,5703.3978840,N,00952.2412458,E,2,10,0.9,-0.889,M,40.593,M,2.9,0123*67\r\n
$GPGGA,124422.70,5703.3978827,N,00952.2411303,E,2,10,0.9,-0.888,M,40.593,M,2.9,0123*69\r\n
$GPGGA,124422.75,5703.3978811,N,00952.2410136,E,2,10,0.9,-0.886,M,40.593,M,2.9,0123*62\r\n
$GPGGA,124422.80,5703.3978801,N,00952.2408975,E,2,10,0.9,-0.883,M,40.593,M,2.9,0123*6A\r\n
$GPGGA,124422.85,5703.3978782,N,00952.2407803,E,2,10,0.9,-0.882,M,40.593,M,3.1,0123*6C\r\n
$GPGGA,124422.90,5703.3978774,N,00952.2406630,E,2,10,0.9,-0.880,M,40.593,M,3.1,0123*6C\r\n
$GPGGA,124422.95,5703.3978770,N,00952.2405468,E,2,10,0.9,-0.879,M,40.593,M,3.1,0123*67\r\n
$GPGGA,124423.00,5703.3978772,N,00952.2404299,E,2,10,0.9,-0.876,M,40.593,M,3.1,0123*6E\r\n
$GPGGA,124423.05,5703.3978751,N,00952.2403143,E,2,10,0.9,-0.870,M,40.593,M,3.3,0123*6D\r\n
$GPGGA,124423.10,5703.3978732,N,00952.2401990,E,2,10,0.9,-0.866,M,40.593,M,3.3,0123*6F\r\n
$GPGGA,124423.15,5703.3978709,N,00952.2400815,E,2,10,0.9,-0.865,M,40.593,M,3.3,0123*6C\r\n
$GPGGA,124423.20,5703.3978699,N,00952.2399651,E,2,10,0.9,-0.866,M,40.593,M,3.3,0123*68\r\n
$GPGGA,124423.25,5703.3978683,N,00952.2398477,E,2,10,0.9,-0.859,M,40.593,M,3.5,0123*6B\r\n
$GPGGA,124423.30,5703.3978656,N,00952.2397289,E,2,10,0.9,-0.863,M,40.593,M,3.5,0123*66\r\n
$GPGGA,124423.35,5703.3978632,N,00952.2396111,E,2,10,0.9,-0.866,M,40.593,M,3.5,0123*67\r\n
$GPGGA,124423.40,5703.3978617,N,00952.2394933,E,2,10,0.9,-0.870,M,40.593,M,3.5,0123*6F\r\n
$GPGGA,124423.45,5703.3978600,N,00952.2393739,E,2,10,0.9,-0.880,M,40.593,M,3.7,0123*62\r\n
$GPGGA,124423.50,5703.3978578,N,00952.2392547,E,2,10,0.9,-0.889,M,40.593,M,3.7,0123*69\r\n
$GPGGA,124423.55,5703.3978543,N,00952.2391354,E,2,10,0.9,-0.899,M,40.593,M,3.7,0123*62\r\n
$GPGGA,124423.60,5703.3978495,N,00952.2390159,E,2,10,0.9,-0.907,M,40.593,M,3.7,0123*66\r\n
$GPGGA,124423.65,5703.3978435,N,00952.2388991,E,2,10,0.9,-0.905,M,40.593,M,3.9,0123*60\r\n
$GPGGA,124423.70,5703.3978365,N,00952.2387833,E,2,10,0.9,-0.909,M,40.593,M,3.9,0123*6C\r\n
$GPGGA,124423.75,5703.3978275,N,00952.2386665,E,2,10,0.9,-0.914,M,40.593,M,3.9,0123*69\r\n
$GPGGA,124423.80,5703.3978187,N,00952.2385509,E,2,10,0.9,-0.919,M,40.593,M,3.9,0123*6A\r\n
$GPGGA,124423.85,5703.3978103,N,00952.2384362,E,2,10,0.9,-0.912,M,40.593,M,4.1,0123*6D\r\n
$GPGGA,124423.90,5703.3978005,N,00952.2383214,E,2,10,0.9,-0.912,M,40.593,M,4.1,0123*69\r\n
$GPGGA,124423.95,5703.3977904,N,00952.2382073,E,2,10,0.9,-0.910,M,40.593,M,4.1,0123*6B\r\n
$GPGGA,124424.00,5703.3977803,N,00952.2380916,E,2,10,0.9,-0.905,M,40.593,M,4.1,0123*6A\r\n
$GPGGA,124424.05,5703.3977699,N,00952.2379743,E,2,10,0.9,-0.901,M,40.593,M,4.3,0123*6C\r\n
$GPGGA,124424.10,5703.3977607,N,00952.2378592,E,2,10,0.9,-0.896,M,40.593,M,4.3,0123*6F\r\n
$GPGGA,124424.15,5703.3977529,N,00952.2377459,E,2,10,0.9,-0.890,M,40.593,M,4.3,0123*6A\r\n
$GPGGA,124424.20,5703.3977442,N,00952.2376334,E,2,10,0.9,-0.881,M,40.593,M,4.3,0123*6D\r\n
$GPGGA,124424.25,5703.3977361,N,00952.2375195,E,2,10,0.9,-0.864,M,40.593,M,1.8,0123*61\r\n
$GPGGA,124424.30,5703.3977279,N,00952.2374044,E,2,10,0.9,-0.854,M,40.593,M,1.8,0123*62\r\n
$GPGGA,124424.35,5703.3977187,N,00952.2372895,E,2,10,0.9,-0.843,M,40.593,M,1.8,0123*61\r\n
$GPGGA,124424.40,5703.3977080,N,00952.2371742,E,2,10,0.9,-0.836,M,40.593,M,1.8,0123*61\r\n
$GPGGA,124424.45,5703.3976967,N,00952.2370582,E,2,10,0.9,-0.833,M,40.593,M,2.0,0123*64\r\n
$GPGGA,124424.50,5703.3976867,N,00952.2369451,E,2,10,0.9,-0.826,M,40.593,M,2.0,0123*62\r\n
$GPGGA,124424.55,5703.3976775,N,00952.2368321,E,2,10,0.9,-0.818,M,40.593,M,2.0,0123*67\r\n
$GPGGA,124424.60,5703.3976687,N,00952.2367175,E,2,10,0.9,-0.813,M,40.593,M,2.0,0123*6A\r\n
$GPGGA,124424.65,5703.3976566,N,00952.2366013,E,2,10,0.9,-0.823,M,40.593,M,2.2,0123*62\r\n
$GPGGA,124424.70,5703.3976449,N,00952.2364866,E,2,10,0.9,-0.825,M,40.593,M,2.2,0123*64\r\n
$GPGGA,124424.75,5703.3976323,N,00952.2363714,E,2,10,0.9,-0.829,M,40.593,M,2.2,0123*6B\r\n
$GPGGA,124424.80,5703.3976180,N,00952.2362599,E,2,10,0.9,-0.835,M,40.593,M,2.2,0123*61\r\n
$GPGGA,124424.85,5703.3976023,N,00952.2361471,E,2,10,0.9,-0.835,M,40.593,M,2.5,0123*6F\r\n
$GPGGA,124424.90,5703.3975858,N,00952.2360353,E,2,10,0.9,-0.843,M,40.593,M,2.5,0123*6B\r\n
$GPGGA,124424.95,5703.3975692,N,00952.2359242,E,2,10,0.9,-0.850,M,40.593,M,2.5,0123*6F\r\n
$GPGGA,124425.00,5703.3975527,N,00952.2358143,E,2,10,0.9,-0.859,M,40.593,M,2.5,0123*65\r\n
$GPGGA,124425.05,5703.3975348,N,00952.2357034,E,2,10,0.9,-0.867,M,40.593,M,2.7,0123*6E\r\n
$GPGGA,124425.10,5703.3975164,N,00952.2355924,E,2,10,0.9,-0.875,M,40.593,M,2.7,0123*6F\r\n
$GPGGA,124425.15,5703.3974999,N,00952.2354809,E,2,10,0.9,-0.883,M,40.593,M,2.7,0123*67\r\n
$GPGGA,124425.20,5703.3974839,N,00952.2353694,E,2,10,0.9,-0.889,M,40.593,M,2.7,0123*6D\r\n
$GPGGA,124425.25,5703.3974685,N,00952.2352591,E,2,10,0.9,-0.892,M,40.593,M,1.7,0123*6F\r\n
$GPGGA,124425.30,5703.3974518,N,00952.2351471,E,2,10,0.9,-0.895,M,40.593,M,1.7,0123*67\r\n
$GPGGA,124425.35,5703.3974355,N,00952.2350349,E,2,10,0.9,-0.898,M,40.593,M,1.7,0123*6D\r\n
$GPGGA,124425.40,5703.3974185,N,00952.2349238,E,2,10,0.9,-0.905,M,40.593,M,1.7,0123*6A\r\n
$GPGGA,124425.45,5703.3974047,N,00952.2348125,E,2,10,0.9,-0.911,M,40.593,M,2.0,0123*6F\r\n
$GPGGA,124425.50,5703.3973913,N,00952.2346998,E,2,10,0.9,-0.910,M,40.593,M,2.0,0123*65\r\n
$GPGGA,124425.55,5703.3973791,N,00952.2345873,E,2,10,0.9,-0.909,M,40.593,M,2.0,0123*6B\r\n
$GPGGA,124425.60,5703.3973669,N,00952.2344742,E,2,10,0.9,-0.908,M,40.593,M,2.0,0123*66\r\n
$GPGGA,124425.65,5703.3973551,N,00952.2343615,E,2,10,0.9,-0.902,M,40.593,M,2.2,0123*67\r\n
$GPGGA,124425.70,5703.3973431,N,00952.2342462,E,2,10,0.9,-0.901,M,40.593,M,2.2,0123*64\r\n
$GPGGA,124425.75,5703.3973315,N,00952.2341306,E,2,10,0.9,-0.899,M,40.593,M,2.2,0123*66\r\n
$GPGGA,124425.80,5703.3973206,N,00952.2340167,E,2,10,0.9,-0.892,M,40.593,M,2.2,0123*60\r\n
$GPGGA,124425.85,5703.3973095,N,00952.2339022,E,2,10,0.9,-0.885,M,40.593,M,2.4,0123*63\r\n
$GPGGA,124425.90,5703.3972980,N,00952.2337891,E,2,10,0.9,-0.880,M,40.593,M,2.4,0123*60\r\n
$GPGGA,124425.95,5703.3972842,N,00952.2336765,E,2,10,0.9,-0.876,M,40.593,M,2.4,0123*66\r\n
$GPGGA,124426.00,5703.3972683,N,00952.2335648,E,2,10,0.9,-0.873,M,40.593,M,2.4,0123*62\r\n
$GPGGA,124426.05,5703.3972508,N,00952.2334527,E,2,10,0.9,-0.863,M,40.593,M,2.6,0123*6F\r\n
$GPGGA,124426.10,5703.3972336,N,00952.2333428,E,2,10,0.9,-0.855,M,40.593,M,2.6,0123*6C\r\n
$GPGGA,124426.15,5703.3972149,N,00952.2332345,E,2,10,0.9,-0.850,M,40.593,M,2.6,0123*6B\r\n
$GPGGA,124426.20,5703.3971942,N,00952.2331266,E,2,10,0.9,-0.849,M,40.593,M,2.6,0123*66\r\n
$GPGGA,124426.25,5703.3971715,N,00952.2330196,E,2,10,0.9,-0.836,M,40.593,M,2.4,0123*68\r\n
$GPGGA,124426.30,5703.3971485,N,00952.2329115,E,2,10,0.9,-0.832,M,40.593,M,2.4,0123*61\r\n
$GPGGA,124426.35,5703.3971256,N,00952.2328042,E,2,10,0.9,-0.829,M,40.593,M,2.4,0123*64\r\n
$GPGGA,124426.40,5703.3971026,N,00952.2326984,E,2,10,0.9,-0.827,M,40.593,M,2.4,0123*60\r\n
$GPGGA,124426.45,5703.3970794,N,00952.2325938,E,2,10,0.9,-0.829,M,40.593,M,2.7,0123*63\r\n
$GPGGA,124426.50,5703.3970559,N,00952.2324894,E,2,10,0.9,-0.828,M,40.593,M,2.7,0123*63\r\n
$GPGGA,124426.55,5703.3970326,N,00952.2323834,E,2,10,0.9,-0.828,M,40.593,M,2.7,0123*65\r\n
$GPGGA,124426.60,5703.3970089,N,00952.2322770,E,2,10,0.9,-0.830,M,40.593,M,2.7,0123*62\r\n
$GPGGA,124426.65,5703.3969859,N,00952.2321698,E,2,10,0.9,-0.835,M,40.593,M,2.9,0123*65\r\n
$GPGGA,124426.70,5703.3969632,N,00952.2320633,E,2,10,0.9,-0.837,M,40.593,M,2.9,0123*60\r\n
$GPGGA,124426.75,5703.3969391,N,00952.2319569,E,2,10,0.9,-0.844,M,40.593,M,2.9,0123*6B\r\n
$GPGGA,124426.80,5703.3969154,N,00952.2318507,E,2,10,0.9,-0.847,M,40.593,M,2.9,0123*60\r\n
$GPGGA,124426.85,5703.3968917,N,00952.2317434,E,2,10,0.9,-0.852,M,40.593,M,3.1,0123*68\r\n
$GPGGA,124426.90,5703.3968709,N,00952.2316359,E,2,10,0.9,-0.853,M,40.593,M,3.1,0123*61\r\n
$GPGGA,124426.95,5703.3968501,N,00952.2315273,E,2,10,0.9,-0.853,M,40.593,M,3.1,0123*64\r\n
$GPGGA,124427.00,5703.3968297,N,00952.2314158,E,2,10,0.9,-0.857,M,40.593,M,3.1,0123*6E\r\n
$GPGGA,124427.05,5703.3968096,N,00952.2313040,E,2,10,0.9,-0.859,M,40.593,M,3.3,0123*6B\r\n
$GPGGA,124427.10,5703.3967905,N,00952.2311920,E,2,10,0.9,-0.860,M,40.593,M,3.3,0123*64\r\n
$GPGGA,124427.15,5703.3967706,N,00952.2310814,E,2,10,0.9,-0.863,M,40.593,M,3.3,0123*68\r\n
$GPGGA,124427.20,5703.3967521,N,00952.2309703,E,2,10,0.9,-0.865,M,40.593,M,3.3,0123*6E\r\n
$GPGGA,124427.25,5703.3967340,N,00952.2308576,E,2,10,0.9,-0.862,M,40.593,M,3.5,0123*6A\r\n
$GPGGA,124427.30,5703.3967147,N,00952.2307441,E,2,10,0.9,-0.860,M,40.593,M,3.5,0123*63\r\n
$GPGGA,124427.35,5703.3966956,N,00952.2306301,E,2,10,0.9,-0.858,M,40.593,M,3.5,0123*66\r\n
$GPGGA,124427.40,5703.3966766,N,00952.2305158,E,2,10,0.9,-0.859,M,40.593,M,3.5,0123*65\r\n
$GPGGA,124427.45,5703.3966565,N,00952.2304016,E,2,10,0.9,-0.860,M,40.593,M,3.7,0123*63\r\n
$GPGGA,124427.50,5703.3966352,N,00952.2302879,E,2,10,0.9,-0.859,M,40.593,M,3.7,0123*68\r\n
$GPGGA,124427.55,5703.3966132,N,00952.2301764,E,2,10,0.9,-0.858,M,40.593,M,3.7,0123*68\r\n
$GPGGA,124427.60,5703.3965900,N,00952.2300660,E,2,10,0.9,-0.859,M,40.593,M,3.7,0123*61\r\n
$GPGGA,124427.65,5703.3965644,N,00952.2299537,E,2,10,0.9,-0.868,M,40.593,M,3.9,0123*67\r\n
$GPGGA,124427.70,5703.3965382,N,00952.2298416,E,2,10,0.9,-0.867,M,40.593,M,3.9,0123*60\r\n
$GPGGA,124427.75,5703.3965116,N,00952.2297327,E,2,10,0.9,-0.868,M,40.593,M,3.9,0123*6F\r\n
$GPGGA,124427.80,5703.3964837,N,00952.2296234,E,2,10,0.9,-0.871,M,40.593,M,3.9,0123*64\r\n
$GPGGA,124427.85,5703.3964547,N,00952.2295160,E,2,10,0.9,-0.870,M,40.593,M,4.1,0123*64\r\n
$GPGGA,124427.90,5703.3964252,N,00952.2294077,E,2,10,0.9,-0.869,M,40.593,M,4.1,0123*6D\r\n
$GPGGA,124427.95,5703.3963943,N,00952.2293005,E,2,10,0.9,-0.869,M,40.593,M,4.1,0123*66\r\n
$GPGGA,124428.00,5703.3963638,N,00952.2291914,E,2,10,0.9,-0.869,M,40.593,M,4.1,0123*6D\r\n
$GPGGA,124428.05,5703.3963328,N,00952.2290834,E,2,10,0.9,-0.867,M,40.593,M,4.3,0123*62\r\n
$GPGGA,124428.10,5703.3963028,N,00952.2289764,E,2,10,0.9,-0.865,M,40.593,M,4.3,0123*65\r\n
$GPGGA,124428.15,5703.3962731,N,00952.2288683,E,2,10,0.9,-0.860,M,40.593,M,4.3,0123*62\r\n
$GPGGA,124428.20,5703.3962427,N,00952.2287606,E,2,10,0.9,-0.856,M,40.593,M,4.3,0123*67\r\n
$GPGGA,124428.25,5703.3962131,N,00952.2286523,E,2,10,0.9,-0.852,M,40.593,M,1.8,0123*6F\r\n
$GPGGA,124428.30,5703.3961841,N,00952.2285443,E,2,10,0.9,-0.846,M,40.593,M,1.8,0123*67\r\n
$GPGGA,124428.35,5703.3961554,N,00952.2284336,E,2,10,0.9,-0.841,M,40.593,M,1.8,0123*68\r\n
$GPGGA,124428.40,5703.3961262,N,00952.2283218,E,2,10,0.9,-0.838,M,40.593,M,1.8,0123*6C\r\n
$GPGGA,124428.45,5703.3960995,N,00952.2282097,E,2,10,0.9,-0.837,M,40.593,M,2.0,0123*6B\r\n
$GPGGA,124428.50,5703.3960726,N,00952.2280954,E,2,10,0.9,-0.836,M,40.593,M,2.0,0123*6C\r\n
$GPGGA,124428.55,5703.3960466,N,00952.2279812,E,2,10,0.9,-0.833,M,40.593,M,2.0,0123*6E\r\n
$GPGGA,124428.60,5703.3960192,N,00952.2278673,E,2,10,0.9,-0.831,M,40.593,M,2.0,0123*6C\r\n
$GPGGA,124428.65,5703.3959916,N,00952.2277542,E,2,10,0.9,-0.831,M,40.593,M,2.2,0123*6B\r\n
$GPGGA,124428.70,5703.3959636,N,00952.2276404,E,2,10,0.9,-0.833,M,40.593,M,2.2,0123*62\r\n
$GPGGA,124428.75,5703.3959352,N,00952.2275272,E,2,10,0.9,-0.831,M,40.593,M,2.2,0123*66\r\n
$GPGGA,124428.80,5703.3959081,N,00952.2274169,E,2,10,0.9,-0.826,M,40.593,M,2.2,0123*6F\r\n
$GPGGA,124428.85,5703.3958792,N,00952.2273054,E,2,10,0.9,-0.826,M,40.593,M,2.5,0123*61\r\n
$GPGGA,124428.90,5703.3958510,N,00952.2271957,E,2,10,0.9,-0.822,M,40.593,M,2.5,0123*61\r\n
$GPGGA,124428.95,5703.3958194,N,00952.2270854,E,2,10,0.9,-0.823,M,40.593,M,2.5,0123*6E\r\n
$GPGGA,124429.00,5703.3957889,N,00952.2269794,E,2,10,0.9,-0.819,M,40.593,M,2.5,0123*6B\r\n
$GPGGA,124429.05,5703.3957571,N,00952.2268755,E,2,10,0.9,-0.813,M,40.593,M,2.7,0123*60\r\n
$GPGGA,124429.10,5703.3957235,N,00952.2267729,E,2,10,0.9,-0.811,M,40.593,M,2.7,0123*65\r\n
$GPGGA,124429.15,5703.3956888,N,00952.2266696,E,2,10,0.9,-0.807,M,40.593,M,2.7,0123*6E\r\n
$GPGGA,124429.20,5703.3956534,N,00952.2265668,E,2,10,0.9,-0.806,M,40.593,M,2.7,0123*61\r\n
$GPGGA,124429.25,5703.3956190,N,00952.2264657,E,2,10,0.9,-0.804,M,40.593,M,1.7,0123*62\r\n
$GPGGA,124429.30,5703.3955832,N,00952.2263680,E,2,10,0.9,-0.803,M,40.593,M,1.7,0123*6E\r\n
$GPGGA,124429.35,5703.3955461,N,00952.2262702,E,2,10,0.9,-0.805,M,40.593,M,1.7,0123*6D\r\n
$GPGGA,124429.40,5703.3955080,N,00952.2261729,E,2,10,0.9,-0.805,M,40.593,M,1.7,0123*6E\r\n
$GPGGA,124429.45,5703.3954698,N,00952.2260761,E,2,10,0.9,-0.805,M,40.593,M,2.0,0123*6C\r\n
$GPGGA,124429.50,5703.3954317,N,00952.2259800,E,2,10,0.9,-0.811,M,40.593,M,2.0,0123*6D\r\n
$GPGGA,124429.55,5703.3953947,N,00952.2258850,E,2,10,0.9,-0.816,M,40.593,M,2.0,0123*63\r\n
$GPGGA,124429.60,5703.3953589,N,00952.2257906,E,2,10,0.9,-0.818,M,40.593,M,2.0,0123*68\r\n
$GPGGA,124429.65,5703.3953240,N,00952.2256936,E,2,10,0.9,-0.822,M,40.593,M,2.2,0123*66\r\n
$GPGGA,124429.70,5703.3952900,N,00952.2255960,E,2,10,0.9,-0.823,M,40.593,M,2.2,0123*6D\r\n
$GPGGA,124429.75,5703.3952566,N,00952.2254973,E,2,10,0.9,-0.826,M,40.593,M,2.2,0123*62\r\n
$GPGGA,124429.80,5703.3952246,N,00952.2253986,E,2,10,0.9,-0.828,M,40.593,M,2.2,0123*6E\r\n
$GPGGA,124429.85,5703.3951924,N,00952.2252958,E,2,10,0.9,-0.831,M,40.593,M,2.4,0123*6B\r\n
$GPGGA,124429.90,5703.3951613,N,00952.2251952,E,2,10,0.9,-0.832,M,40.593,M,2.4,0123*6E\r\n
$GPGGA,124429.95,5703.3951311,N,00952.2250935,E,2,10,0.9,-0.835,M,40.593,M,2.4,0123*6B\r\n
$GPGGA,124430.00,5703.3951002,N,00952.2249914,E,2,10,0.9,-0.835,M,40.593,M,2.4,0123*65\r\n
$GPGGA,124430.05,5703.3950707,N,00952.2248919,E,2,10,0.9,-0.839,M,40.593,M,2.6,0123*61\r\n
$GPGGA,124430.10,5703.3950380,N,00952.2247925,E,2,10,0.9,-0.843,M,40.593,M,2.6,0123*63\r\n
$GPGGA,124430.15,5703.3950053,N,00952.2246939,E,2,10,0.9,-0.846,M,40.593,M,2.6,0123*62\r\n
$GPGGA,124430.20,5703.3949722,N,00952.2245970,E,2,10,0.9,-0.846,M,40.593,M,2.6,0123*63\r\n
$GPGGA,124430.25,5703.3949391,N,00952.2245009,E,2,10,0.9,-0.849,M,40.593,M,2.4,0123*60\r\n
$GPGGA,124430.30,5703.3949038,N,00952.2244038,E,2,10,0.9,-0.851,M,40.593,M,2.4,0123*6E\r\n
$GPGGA,124430.35,5703.3948680,N,00952.2243112,E,2,10,0.9,-0.853,M,40.593,M,2.4,0123*63\r\n
$GPGGA,124430.40,5703.3948310,N,00952.2242208,E,2,10,0.9,-0.855,M,40.593,M,2.4,0123*62\r\n
$GPGGA,124430.45,5703.3947926,N,00952.2241285,E,2,10,0.9,-0.856,M,40.593,M,2.7,0123*61\r\n
$GPGGA,124430.50,5703.3947547,N,00952.2240376,E,2,10,0.9,-0.857,M,40.593,M,2.7,0123*63\r\n
$GPGGA,124430.55,5703.3947148,N,00952.2239483,E,2,10,0.9,-0.860,M,40.593,M,2.7,0123*6A\r\n
$GPGGA,124430.60,5703.3946745,N,00952.2238614,E,2,10,0.9,-0.862,M,40.593,M,2.7,0123*69\r\n
$GPGGA,124430.65,5703.3946352,N,00952.2237748,E,2,10,0.9,-0.860,M,40.593,M,2.9,0123*65\r\n
$GPGGA,124430.70,5703.3945966,N,00952.2236882,E,2,10,0.9,-0.858,M,40.593,M,2.9,0123*6C\r\n
$GPGGA,124430.75,5703.3945566,N,00952.2235991,E,2,10,0.9,-0.860,M,40.593,M,2.9,0123*6E\r\n
$GPGGA,124430.80,5703.3945171,N,00952.2235097,E,2,10,0.9,-0.863,M,40.593,M,2.9,0123*6A\r\n
$GPGGA,124430.85,5703.3944782,N,00952.2234207,E,2,10,0.9,-0.861,M,40.593,M,3.1,0123*65\r\n
$GPGGA,124430.90,5703.3944396,N,00952.2233295,E,2,10,0.9,-0.860,M,40.593,M,3.1,0123*6D\r\n
$GPGGA,124430.95,5703.3944007,N,00952.2232383,E,2,10,0.9,-0.860,M,40.593,M,3.1,0123*64\r\n
$GPGGA,124431.00,5703.3943622,N,00952.2231446,E,2,10,0.9,-0.860,M,40.593,M,3.1,0123*62\r\n
$GPGGA,124431.05,5703.3943238,N,00952.2230503,E,2,10,0.9,-0.860,M,40.593,M,3.3,0123*6B\r\n
$GPGGA,124431.10,5703.3942855,N,00952.2229555,E,2,10,0.9,-0.862,M,40.593,M,3.3,0123*66\r\n
$GPGGA,124431.15,5703.3942469,N,00952.2228606,E,2,10,0.9,-0.864,M,40.593,M,3.3,0123*62\r\n
$GPGGA,124431.20,5703.3942087,N,00952.2227628,E,2,10,0.9,-0.865,M,40.593,M,3.3,0123*62\r\n
$GPGGA,124431.25,5703.3941684,N,00952.2226665,E,2,10,0.9,-0.868,M,40.593,M,3.5,0123*62\r\n
$GPGGA,124431.30,5703.3941293,N,00952.2225700,E,2,10,0.9,-0.871,M,40.593,M,3.5,0123*6D\r\n
$GPGGA,124431.35,5703.3940885,N,00952.2224721,E,2,10,0.9,-0.873,M,40.593,M,3.5,0123*64\r\n
$GPGGA,124431.40,5703.3940472,N,00952.2223782,E,2,10,0.9,-0.872,M,40.593,M,3.5,0123*6D\r\n
$GPGGA,124431.45,5703.3940064,N,00952.2222845,E,2,10,0.9,-0.871,M,40.593,M,3.7,0123*6F\r\n
$GPGGA,124431.50,5703.3939652,N,00952.2221901,E,2,10,0.9,-0.870,M,40.593,M,3.7,0123*65\r\n
$GPGGA,124431.55,5703.3939234,N,00952.2220953,E,2,10,0.9,-0.870,M,40.593,M,3.7,0123*62\r\n
$GPGGA,124431.60,5703.3938824,N,00952.2219984,E,2,10,0.9,-0.871,M,40.593,M,3.7,0123*6F\r\n
$GPGGA,124431.65,5703.3938404,N,00952.2219039,E,2,10,0.9,-0.866,M,40.593,M,3.9,0123*63\r\n
$GPGGA,124431.70,5703.3937977,N,00952.2218129,E,2,10,0.9,-0.865,M,40.593,M,3.9,0123*63\r\n
$GPGGA,124431.75,5703.3937563,N,00952.2217206,E,2,10,0.9,-0.861,M,40.593,M,3.9,0123*6A\r\n
$GPGGA,124431.80,5703.3937149,N,00952.2216289,E,2,10,0.9,-0.856,M,40.593,M,3.9,0123*6E\r\n
$GPGGA,124431.85,5703.3936725,N,00952.2215387,E,2,10,0.9,-0.851,M,40.593,M,4.1,0123*62\r\n
$GPGGA,124431.90,5703.3936303,N,00952.2214474,E,2,10,0.9,-0.849,M,40.593,M,4.1,0123*65\r\n
$GPGGA,124431.95,5703.3935878,N,00952.2213563,E,2,10,0.9,-0.849,M,40.593,M,4.1,0123*64\r\n
$GPGGA,124432.00,5703.3935435,N,00952.2212678,E,2,10,0.9,-0.846,M,40.593,M,4.1,0123*69\r\n
$GPGGA,124432.05,5703.3934994,N,00952.2211794,E,2,10,0.9,-0.842,M,40.593,M,4.3,0123*6D\r\n
$GPGGA,124432.10,5703.3934559,N,00952.2210896,E,2,10,0.9,-0.842,M,40.593,M,4.3,0123*68\r\n
$GPGGA,124432.15,5703.3934120,N,00952.2210013,E,2,10,0.9,-0.839,M,40.593,M,4.3,0123*6E\r\n
$GPGGA,124432.20,5703.3933680,N,00952.2209106,E,2,10,0.9,-0.835,M,40.593,M,4.3,0123*63\r\n
$GPGGA,124432.25,5703.3933251,N,00952.2208183,E,2,10,0.9,-0.836,M,40.593,M,1.8,0123*6F\r\n
$GPGGA,124432.30,5703.3932822,N,00952.2207265,E,2,10,0.9,-0.836,M,40.593,M,1.8,0123*60\r\n
$GPGGA,124432.35,5703.3932381,N,00952.2206363,E,2,10,0.9,-0.839,M,40.593,M,1.8,0123*6E\r\n
$GPGGA,124432.40,5703.3931947,N,00952.2205451,E,2,10,0.9,-0.840,M,40.593,M,1.8,0123*64\r\n
$GPGGA,124432.45,5703.3931514,N,00952.2204547,E,2,10,0.9,-0.843,M,40.593,M,2.0,0123*64\r\n
$GPGGA,124432.50,5703.3931065,N,00952.2203670,E,2,10,0.9,-0.845,M,40.593,M,2.0,0123*65\r\n
$GPGGA,124432.55,5703.3930624,N,00952.2202802,E,2,10,0.9,-0.845,M,40.593,M,2.0,0123*68\r\n
$GPGGA,124432.60,5703.3930183,N,00952.2201923,E,2,10,0.9,-0.848,M,40.593,M,2.0,0123*68\r\n
$GPGGA,124432.65,5703.3929738,N,00952.2201046,E,2,10,0.9,-0.848,M,40.593,M,2.2,0123*6B\r\n
$GPGGA,124432.70,5703.3929297,N,00952.2200195,E,2,10,0.9,-0.845,M,40.593,M,2.2,0123*6C\r\n
$GPGGA,124432.75,5703.3928848,N,00952.2199326,E,2,10,0.9,-0.845,M,40.593,M,2.2,0123*69\r\n
$GPGGA,124432.80,5703.3928405,N,00952.2198457,E,2,10,0.9,-0.846,M,40.593,M,2.2,0123*65\r\n
$GPGGA,124432.85,5703.3927956,N,00952.2197585,E,2,10,0.9,-0.850,M,40.593,M,2.5,0123*65\r\n
$GPGGA,124432.90,5703.3927517,N,00952.2196738,E,2,10,0.9,-0.846,M,40.593,M,2.5,0123*6A\r\n
$GPGGA,124432.95,5703.3927089,N,00952.2195867,E,2,10,0.9,-0.845,M,40.593,M,2.5,0123*68\r\n
$GPGGA,124433.00,5703.3926645,N,00952.2195000,E,2,10,0.9,-0.846,M,40.593,M,2.5,0123*68\r\n
$GPGGA,124433.05,5703.3926195,N,00952.2194135,E,2,10,0.9,-0.848,M,40.593,M,2.7,0123*6D\r\n
$GPGGA,124433.10,5703.3925753,N,00952.2193264,E,2,10,0.9,-0.849,M,40.593,M,2.7,0123*67\r\n
$GPGGA,124433.15,5703.3925314,N,00952.2192380,E,2,10,0.9,-0.850,M,40.593,M,2.7,0123*67\r\n
$GPGGA,124433.20,5703.3924862,N,00952.2191513,E,2,10,0.9,-0.852,M,40.593,M,2.7,0123*67\r\n
$GPGGA,124433.25,5703.3924395,N,00952.2190658,E,2,10,0.9,-0.854,M,40.593,M,1.7,0123*69\r\n
$GPGGA,124433.30,5703.3923941,N,00952.2189784,E,2,10,0.9,-0.857,M,40.593,M,1.7,0123*62\r\n
$GPGGA,124433.35,5703.3923490,N,00952.2188913,E,2,10,0.9,-0.862,M,40.593,M,1.7,0123*61\r\n
$GPGGA,124433.40,5703.3923034,N,00952.2188039,E,2,10,0.9,-0.863,M,40.593,M,1.7,0123*69\r\n
$GPGGA,124433.45,5703.3922573,N,00952.2187178,E,2,10,0.9,-0.864,M,40.593,M,2.0,0123*63\r\n
$GPGGA,124433.50,5703.3922117,N,00952.2186311,E,2,10,0.9,-0.864,M,40.593,M,2.0,0123*6D\r\n
$GPGGA,124433.55,5703.3921652,N,00952.2185435,E,2,10,0.9,-0.866,M,40.593,M,2.0,0123*6D\r\n
$GPGGA,124433.60,5703.3921186,N,00952.2184568,E,2,10,0.9,-0.865,M,40.593,M,2.0,0123*6E\r\n
$GPGGA,124433.65,5703.3920725,N,00952.2183709,E,2,10,0.9,-0.864,M,40.593,M,2.2,0123*64\r\n
$GPGGA,124433.70,5703.3920264,N,00952.2182854,E,2,10,0.9,-0.860,M,40.593,M,2.2,0123*62\r\n
$GPGGA,124433.75,5703.3919807,N,00952.2182009,E,2,10,0.9,-0.858,M,40.593,M,2.2,0123*69\r\n
$GPGGA,124433.80,5703.3919365,N,00952.2181188,E,2,10,0.9,-0.853,M,40.593,M,2.2,0123*6C\r\n
$GPGGA,124433.85,5703.3918922,N,00952.2180386,E,2,10,0.9,-0.848,M,40.593,M,2.4,0123*60\r\n
$GPGGA,124433.90,5703.3918497,N,00952.2179536,E,2,10,0.9,-0.843,M,40.593,M,2.4,0123*67\r\n
$GPGGA,124433.95,5703.3918050,N,00952.2178676,E,2,10,0.9,-0.840,M,40.593,M,2.4,0123*68\r\n
$GPGGA,124434.00,5703.3917599,N,00952.2177821,E,2,10,0.9,-0.837,M,40.593,M,2.4,0123*6F\r\n
$GPGGA,124434.05,5703.3917151,N,00952.2176969,E,2,10,0.9,-0.839,M,40.593,M,2.6,0123*6A\r\n
$GPGGA,124434.10,5703.3916702,N,00952.2176096,E,2,10,0.9,-0.837,M,40.593,M,2.6,0123*68\r\n
$GPGGA,124434.15,5703.3916267,N,00952.2175238,E,2,10,0.9,-0.836,M,40.593,M,2.6,0123*6F\r\n
$GPGGA,124434.20,5703.3915809,N,00952.2174404,E,2,10,0.9,-0.836,M,40.593,M,2.6,0123*60\r\n
$GPGGA,124434.25,5703.3915357,N,00952.2173575,E,2,10,0.9,-0.833,M,40.593,M,2.4,0123*62\r\n
$GPGGA,124434.30,5703.3914911,N,00952.2172725,E,2,10,0.9,-0.833,M,40.593,M,2.4,0123*69\r\n
$GPGGA,124434.35,5703.3914462,N,00952.2171885,E,2,10,0.9,-0.835,M,40.593,M,2.4,0123*65\r\n
$GPGGA,124434.40,5703.3914001,N,00952.2171057,E,2,10,0.9,-0.833,M,40.593,M,2.4,0123*67\r\n
$GPGGA,124434.45,5703.3913544,N,00952.2170222,E,2,10,0.9,-0.839,M,40.593,M,2.7,0123*69\r\n
$GPGGA,124434.50,5703.3913090,N,00952.2169368,E,2,10,0.9,-0.841,M,40.593,M,2.7,0123*69\r\n
$GPGGA,124434.55,5703.3912630,N,00952.2168536,E,2,10,0.9,-0.847,M,40.593,M,2.7,0123*6B\r\n
$GPGGA,124434.60,5703.3912166,N,00952.2167705,E,2,10,0.9,-0.848,M,40.593,M,2.7,0123*6B\r\n
$GPGGA,124434.65,5703.3911699,N,00952.2166878,E,2,10,0.9,-0.847,M,40.593,M,2.9,0123*6F\r\n
$GPGGA,124434.70,5703.3911244,N,00952.2166017,E,2,10,0.9,-0.848,M,40.593,M,2.9,0123*61\r\n
$GPGGA,124434.75,5703.3910790,N,00952.2165165,E,2,10,0.9,-0.851,M,40.593,M,2.9,0123*66\r\n
$GPGGA,124434.80,5703.3910331,N,00952.2164327,E,2,10,0.9,-0.851,M,40.593,M,2.9,0123*66\r\n
$GPGGA,124434.85,5703.3909875,N,00952.2163487,E,2,10,0.9,-0.852,M,40.593,M,3.1,0123*60\r\n
$GPGGA,124434.90,5703.3909422,N,00952.2162633,E,2,10,0.9,-0.852,M,40.593,M,3.1,0123*66\r\n
$GPGGA,124434.95,5703.3908960,N,00952.2161773,E,2,10,0.9,-0.854,M,40.593,M,3.1,0123*69\r\n
$GPGGA,124435.00,5703.3908504,N,00952.2160939,E,2,10,0.9,-0.851,M,40.593,M,3.1,0123*6E\r\n
$GPGGA,124435.05,5703.3908040,N,00952.2160098,E,2,10,0.9,-0.850,M,40.593,M,3.3,0123*6F\r\n
$GPGGA,124435.10,5703.3907588,N,00952.2159233,E,2,10,0.9,-0.848,M,40.593,M,3.3,0123*65\r\n
$GPGGA,124435.15,5703.3907131,N,00952.2158361,E,2,10,0.9,-0.849,M,40.593,M,3.3,0123*60\r\n
$GPGGA,124435.20,5703.3906666,N,00952.2157523,E,2,10,0.9,-0.850,M,40.593,M,3.3,0123*65\r\n
$GPGGA,124435.25,5703.3906204,N,00952.2156669,E,2,10,0.9,-0.848,M,40.593,M,3.5,0123*63\r\n
$GPGGA,124435.30,5703.3905744,N,00952.2155807,E,2,10,0.9,-0.849,M,40.593,M,3.5,0123*61\r\n
