$GPGGA,095621.05,5703.3380846,N,00952.1530430,E,2,11,0.9,-1.298,M,40.592,M,1.6,0123*6B\r\n
$GPGGA,095621.10,5703.3380913,N,00952.1530538,E,2,11,0.9,-1.298,M,40.592,M,1.6,0123*67\r\n
$GPGGA,095621.15,5703.3380991,N,00952.1530640,E,2,11,0.9,-1.294,M,40.592,M,1.6,0123*68\r\n
$GPGGA,095621.20,5703.3381064,N,00952.1530721,E,2,11,0.9,-1.289,M,40.592,M,1.6,0123*66\r\n
$GPGGA,095621.25,5703.3381142,N,00952.1530823,E,2,11,0.9,-1.281,M,40.592,M,1.9,0123*6C\r\n
$GPGGA,095621.30,5703.3381224,N,00952.1530926,E,2,11,0.9,-1.275,M,40.592,M,1.9,0123*64\r\n
$GPGGA,095621.35,5703.3381304,N,00952.1531010,E,2,11,0.9,-1.269,M,40.592,M,1.9,0123*62\r\n
$GPGGA,095621.40,5703.3381393,N,00952.1531086,E,2,11,0.9,-1.259,M,40.592,M,1.9,0123*62\r\n
$GPGGA,095621.45,5703.3381471,N,00952.1531165,E,2,11,0.9,-1.248,M,40.592,M,2.2,0123*68\r\n
$GPGGA,095621.50,5703.3381555,N,00952.1531252,E,2,11,0.9,-1.240,M,40.592,M,2.2,0123*64\r\n
$GPGGA,095621.55,5703.3381640,N,00952.1531353,E,2,11,0.9,-1.234,M,40.592,M,2.2,0123*65\r\n
$GPGGA,095621.60,5703.3381714,N,00952.1531445,E,2,11,0.9,-1.233,M,40.592,M,2.2,0123*64\r\n
$GPGGA,095621.65,5703.3381801,N,00952.1531528,E,2,11,0.9,-1.239,M,40.592,M,2.4,0123*6C\r\n
$GPGGA,095621.70,5703.3381905,N,00952.1531623,E,2,11,0.9,-1.238,M,40.592,M,2.4,0123*64\r\n
$GPGGA,095621.75,5703.3381999,N,00952.1531729,E,2,11,0.9,-1.240,M,40.592,M,2.4,0123*60\r\n
$GPGGA,095621.80,5703.3382093,N,00952.1531832,E,2,11,0.9,-1.246,M,40.592,M,2.4,0123*69\r\n
$GPGGA,095621.85,5703.3382197,N,00952.1531935,E,2,11,0.9,-1.246,M,40.592,M,1.3,0123*6B\r\n
$GPGGA,095621.90,5703.3382287,N,00952.1532043,E,2,11,0.9,-1.248,M,40.592,M,1.3,0123*68\r\n
$GPGGA,095621.95,5703.3382376,N,00952.1532147,E,2,11,0.9,-1.253,M,40.592,M,1.3,0123*6D\r\n
$GPGGA,095622.00,5703.3382466,N,00952.1532251,E,2,11,0.9,-1.257,M,40.592,M,1.3,0123*64\r\n
$GPGGA,095622.05,5703.3382550,N,00952.1532346,E,2,11,0.9,-1.265,M,40.592,M,1.6,0123*66\r\n
$GPGGA,095622.10,5703.3382648,N,00952.1532433,E,2,11,0.9,-1.267,M,40.592,M,1.6,0123*6F\r\n
$GPGGA,095622.15,5703.3382759,N,00952.1532530,E,2,11,0.9,-1.269,M,40.592,M,1.6,0123*67\r\n
$GPGGA,095622.20,5703.3382859,N,00952.1532618,E,2,11,0.9,-1.274,M,40.592,M,1.6,0123*6B\r\n
$GPGGA,095622.25,5703.3382946,N,00952.1532698,E,2,11,0.9,-1.281,M,40.592,M,1.8,0123*6D\r\n
$GPGGA,095622.30,5703.3383050,N,00952.1532787,E,2,11,0.9,-1.283,M,40.592,M,1.8,0123*6B\r\n
$GPGGA,095622.35,5703.3383142,N,00952.1532878,E,2,11,0.9,-1.288,M,40.592,M,1.8,0123*68\r\n
$GPGGA,095622.40,5703.3383234,N,00952.1532982,E,2,11,0.9,-1.291,M,40.592,M,1.8,0123*64\r\n
$GPGGA,095622.45,5703.3383305,N,00952.1533077,E,2,11,0.9,-1.295,M,40.592,M,2.0,0123*6F\r\n
$GPGGA,095622.50,5703.3383399,N,00952.1533160,E,2,11,0.9,-1.293,M,40.592,M,2.0,0123*6F\r\n
$GPGGA,095622.55,5703.3383490,N,00952.1533237,E,2,11,0.9,-1.291,M,40.592,M,2.0,0123*67\r\n
$GPGGA,095622.60,5703.3383572,N,00952.1533333,E,2,11,0.9,-1.291,M,40.592,M,2.0,0123*69\r\n
$GPGGA,095622.65,5703.3383665,N,00952.1533441,E,2,11,0.9,-1.283,M,40.592,M,2.3,0123*6B\r\n
$GPGGA,095622.70,5703.3383755,N,00952.1533527,E,2,11,0.9,-1.280,M,40.592,M,2.3,0123*6F\r\n
$GPGGA,095622.75,5703.3383843,N,00952.1533610,E,2,11,0.9,-1.275,M,40.592,M,2.3,0123*6F\r\n
$GPGGA,095622.80,5703.3383933,N,00952.1533699,E,2,11,0.9,-1.272,M,40.592,M,2.3,0123*65\r\n
$GPGGA,095622.85,5703.3384027,N,00952.1533793,E,2,11,0.9,-1.268,M,40.592,M,1.7,0123*6C\r\n
$GPGGA,095622.90,5703.3384117,N,00952.1533878,E,2,11,0.9,-1.266,M,40.592,M,1.7,0123*6E\r\n
$GPGGA,095622.95,5703.3384208,N,00952.1533966,E,2,11,0.9,-1.263,M,40.592,M,1.7,0123*6D\r\n
$GPGGA,095623.00,5703.3384306,N,00952.1534054,E,2,11,0.9,-1.258,M,40.592,M,1.7,0123*68\r\n
$GPGGA,095623.05,5703.3384387,N,00952.1534141,E,2,11,0.9,-1.258,M,40.592,M,1.9,0123*6F\r\n
$GPGGA,095623.10,5703.3384485,N,00952.1534223,E,2,11,0.9,-1.256,M,40.592,M,1.9,0123*67\r\n
$GPGGA,095623.15,5703.3384589,N,00952.1534310,E,2,11,0.9,-1.255,M,40.592,M,1.9,0123*6D\r\n
$GPGGA,095623.20,5703.3384683,N,00952.1534421,E,2,11,0.9,-1.255,M,40.592,M,1.9,0123*67\r\n
$GPGGA,095623.25,5703.3384784,N,00952.1534518,E,2,11,0.9,-1.255,M,40.592,M,2.2,0123*67\r\n
$GPGGA,095623.30,5703.3384869,N,00952.1534615,E,2,11,0.9,-1.254,M,40.592,M,2.2,0123*60\r\n
$GPGGA,095623.35,5703.3384956,N,00952.1534714,E,2,11,0.9,-1.253,M,40.592,M,2.2,0123*6F\r\n
$GPGGA,095623.40,5703.3385046,N,00952.1534801,E,2,11,0.9,-1.252,M,40.592,M,2.2,0123*6E\r\n
$GPGGA,095623.45,5703.3385139,N,00952.1534895,E,2,11,0.9,-1.250,M,40.592,M,2.4,0123*6B\r\n
$GPGGA,095623.50,5703.3385233,N,00952.1534977,E,2,11,0.9,-1.250,M,40.592,M,2.4,0123*6B\r\n
$GPGGA,095623.55,5703.3385328,N,00952.1535064,E,2,11,0.9,-1.252,M,40.592,M,2.4,0123*6D\r\n
$GPGGA,095623.60,5703.3385422,N,00952.1535154,E,2,11,0.9,-1.253,M,40.592,M,2.4,0123*65\r\n
$GPGGA,095623.65,5703.3385531,N,00952.1535228,E,2,11,0.9,-1.256,M,40.592,M,2.6,0123*6C\r\n
$GPGGA,095623.70,5703.3385628,N,00952.1535322,E,2,11,0.9,-1.258,M,40.592,M,2.6,0123*66\r\n
$GPGGA,095623.75,5703.3385727,N,00952.1535403,E,2,11,0.9,-1.262,M,40.592,M,2.6,0123*60\r\n
$GPGGA,095623.80,5703.3385828,N,00952.1535498,E,2,11,0.9,-1.265,M,40.592,M,2.6,0123*6F\r\n
$GPGGA,095623.85,5703.3385919,N,00952.1535596,E,2,11,0.9,-1.270,M,40.592,M,2.9,0123*6D\r\n
$GPGGA,095623.90,5703.3386015,N,00952.1535680,E,2,11,0.9,-1.275,M,40.592,M,2.9,0123*6E\r\n
$GPGGA,095623.95,5703.3386121,N,00952.1535765,E,2,11,0.9,-1.282,M,40.592,M,2.9,0123*6F\r\n
$GPGGA,095624.00,5703.3386221,N,00952.1535855,E,2,11,0.9,-1.288,M,40.592,M,2.9,0123*61\r\n
$GPGGA,095624.05,5703.3386316,N,00952.1535948,E,2,11,0.9,-1.289,M,40.592,M,3.1,0123*64\r\n
$GPGGA,095624.10,5703.3386414,N,00952.1536027,E,2,11,0.9,-1.288,M,40.592,M,3.1,0123*67\r\n
$GPGGA,095624.15,5703.3386498,N,00952.1536097,E,2,11,0.9,-1.291,M,40.592,M,3.1,0123*65\r\n
$GPGGA,095624.20,5703.3386580,N,00952.1536172,E,2,11,0.9,-1.293,M,40.592,M,3.1,0123*63\r\n
$GPGGA,095624.25,5703.3386673,N,00952.1536255,E,2,11,0.9,-1.293,M,40.592,M,3.3,0123*6D\r\n
$GPGGA,095624.30,5703.3386767,N,00952.1536336,E,2,11,0.9,-1.291,M,40.592,M,3.3,0123*6B\r\n
$GPGGA,095624.35,5703.3386876,N,00952.1536412,E,2,11,0.9,-1.285,M,40.592,M,3.3,0123*65\r\n
$GPGGA,095624.40,5703.3386992,N,00952.1536489,E,2,11,0.9,-1.280,M,40.592,M,3.3,0123*6B\r\n
$GPGGA,095624.45,5703.3387091,N,00952.1536572,E,2,11,0.9,-1.277,M,40.592,M,3.5,0123*6E\r\n
$GPGGA,095624.50,5703.3387187,N,00952.1536670,E,2,11,0.9,-1.269,M,40.592,M,3.5,0123*62\r\n
$GPGGA,095624.55,5703.3387290,N,00952.1536776,E,2,11,0.9,-1.261,M,40.592,M,3.5,0123*6D\r\n
$GPGGA,095624.60,5703.3387389,N,00952.1536879,E,2,11,0.9,-1.259,M,40.592,M,3.5,0123*69\r\n
$GPGGA,095624.65,5703.3387497,N,00952.1536986,E,2,11,0.9,-1.257,M,40.592,M,3.7,0123*69\r\n
$GPGGA,095624.70,5703.3387627,N,00952.1537082,E,2,11,0.9,-1.250,M,40.592,M,3.7,0123*6F\r\n
$GPGGA,095624.75,5703.3387756,N,00952.1537194,E,2,11,0.9,-1.242,M,40.592,M,3.7,0123*68\r\n
$GPGGA,095624.80,5703.3387869,N,00952.1537299,E,2,11,0.9,-1.239,M,40.592,M,3.7,0123*63\r\n
$GPGGA,095624.85,5703.3388001,N,00952.1537416,E,2,11,0.9,-1.234,M,40.592,M,1.4,0123*62\r\n
$GPGGA,095624.90,5703.3388146,N,00952.1537539,E,2,11,0.9,-1.227,M,40.592,M,1.4,0123*6A\r\n
$GPGGA,095624.95,5703.3388293,N,00952.1537667,E,2,11,0.9,-1.224,M,40.592,M,1.4,0123*6F\r\n
$GPGGA,095625.00,5703.3388458,N,00952.1537826,E,2,11,0.9,-1.221,M,40.592,M,1.4,0123*6D\r\n
$GPGGA,095625.05,5703.3388619,N,00952.1537986,E,2,11,0.9,-1.219,M,40.592,M,1.6,0123*6D\r\n
$GPGGA,095625.10,5703.3388752,N,00952.1538176,E,2,11,0.9,-1.211,M,40.592,M,1.6,0123*67\r\n
$GPGGA,095625.15,5703.3388880,N,00952.1538359,E,2,11,0.9,-1.205,M,40.592,M,1.6,0123*68\r\n
$GPGGA,095625.20,5703.3389040,N,00952.1538561,E,2,11,0.9,-1.199,M,40.592,M,1.6,0123*60\r\n
$GPGGA,095625.25,5703.3389213,N,00952.1538791,E,2,11,0.9,-1.189,M,40.592,M,1.9,0123*62\r\n
$GPGGA,095625.30,5703.3389406,N,00952.1539012,E,2,11,0.9,-1.181,M,40.592,M,1.9,0123*61\r\n
$GPGGA,095625.35,5703.3389606,N,00952.1539256,E,2,11,0.9,-1.176,M,40.592,M,1.9,0123*6C\r\n
$GPGGA,095625.40,5703.3389809,N,00952.1539504,E,2,11,0.9,-1.175,M,40.592,M,1.9,0123*6C\r\n
$GPGGA,095625.45,5703.3390047,N,00952.1539776,E,2,11,0.9,-1.174,M,40.592,M,2.2,0123*6D\r\n
$GPGGA,095625.50,5703.3390295,N,00952.1540066,E,2,11,0.9,-1.173,M,40.592,M,2.2,0123*6B\r\n
$GPGGA,095625.55,5703.3390567,N,00952.1540386,E,2,11,0.9,-1.176,M,40.592,M,2.2,0123*6C\r\n
$GPGGA,095625.60,5703.3390849,N,00952.1540720,E,2,11,0.9,-1.184,M,40.592,M,2.2,0123*6E\r\n
$GPGGA,095625.65,5703.3391128,N,00952.1541062,E,2,11,0.9,-1.192,M,40.592,M,2.4,0123*65\r\n
$GPGGA,095625.70,5703.3391390,N,00952.1541448,E,2,11,0.9,-1.193,M,40.592,M,2.4,0123*6D\r\n
$GPGGA,095625.75,5703.3391654,N,00952.1541823,E,2,11,0.9,-1.188,M,40.592,M,2.4,0123*6E\r\n
$GPGGA,095625.80,5703.3391924,N,00952.1542194,E,2,11,0.9,-1.185,M,40.592,M,2.4,0123*67\r\n
$GPGGA,095625.85,5703.3392215,N,00952.1542577,E,2,11,0.9,-1.180,M,40.592,M,1.3,0123*60\r\n
$GPGGA,095625.90,5703.3392516,N,00952.1542965,E,2,11,0.9,-1.176,M,40.592,M,1.3,0123*66\r\n
$GPGGA,095625.95,5703.3392819,N,00952.1543363,E,2,11,0.9,-1.173,M,40.592,M,1.3,0123*69\r\n
$GPGGA,095626.00,5703.3393130,N,00952.1543770,E,2,11,0.9,-1.170,M,40.592,M,1.3,0123*60\r\n
$GPGGA,095626.05,5703.3393458,N,00952.1544194,E,2,11,0.9,-1.161,M,40.592,M,1.6,0123*60\r\n
$GPGGA,095626.10,5703.3393796,N,00952.1544666,E,2,11,0.9,-1.155,M,40.592,M,1.6,0123*68\r\n
$GPGGA,095626.15,5703.3394131,N,00952.1545144,E,2,11,0.9,-1.153,M,40.592,M,1.6,0123*61\r\n
$GPGGA,095626.20,5703.3394480,N,00952.1545603,E,2,11,0.9,-1.149,M,40.592,M,1.6,0123*67\r\n
$GPGGA,095626.25,5703.3394838,N,00952.1546083,E,2,11,0.9,-1.139,M,40.592,M,1.8,0123*69\r\n
$GPGGA,095626.30,5703.3395189,N,00952.1546562,E,2,11,0.9,-1.131,M,40.592,M,1.8,0123*6D\r\n
$GPGGA,095626.35,5703.3395548,N,00952.1547039,E,2,11,0.9,-1.127,M,40.592,M,1.8,0123*6C\r\n
$GPGGA,095626.40,5703.3395914,N,00952.1547505,E,2,11,0.9,-1.120,M,40.592,M,1.8,0123*66\r\n
$GPGGA,095626.45,5703.3396307,N,00952.1547993,E,2,11,0.9,-1.114,M,40.592,M,2.0,0123*67\r\n
$GPGGA,095626.50,5703.3396701,N,00952.1548516,E,2,11,0.9,-1.111,M,40.592,M,2.0,0123*6A\r\n
$GPGGA,095626.55,5703.3397107,N,00952.1549051,E,2,11,0.9,-1.112,M,40.592,M,2.0,0123*6A\r\n
$GPGGA,095626.60,5703.3397519,N,00952.1549587,E,2,11,0.9,-1.115,M,40.592,M,2.0,0123*6E\r\n
$GPGGA,095626.65,5703.3397940,N,00952.1550118,E,2,11,0.9,-1.120,M,40.592,M,2.3,0123*64\r\n
$GPGGA,095626.70,5703.3398367,N,00952.1550660,E,2,11,0.9,-1.124,M,40.592,M,2.3,0123*6C\r\n
$GPGGA,095626.75,5703.3398788,N,00952.1551224,E,2,11,0.9,-1.127,M,40.592,M,2.3,0123*6A\r\n
$GPGGA,095626.80,5703.3399182,N,00952.1551789,E,2,11,0.9,-1.128,M,40.592,M,2.3,0123*60\r\n
$GPGGA,095626.85,5703.3399585,N,00952.1552328,E,2,11,0.9,-1.134,M,40.592,M,1.7,0123*60\r\n
$GPGGA,095626.90,5703.3400025,N,00952.1552843,E,2,11,0.9,-1.134,M,40.592,M,1.7,0123*6A\r\n
$GPGGA,095626.95,5703.3400465,N,00952.1553374,E,2,11,0.9,-1.134,M,40.592,M,1.7,0123*61\r\n
$GPGGA,095627.00,5703.3400911,N,00952.1553921,E,2,11,0.9,-1.137,M,40.592,M,1.7,0123*6B\r\n
$GPGGA,095627.05,5703.3401346,N,00952.1554469,E,2,11,0.9,-1.137,M,40.592,M,1.9,0123*6F\r\n
$GPGGA,095627.10,5703.3401793,N,00952.1555013,E,2,11,0.9,-1.136,M,40.592,M,1.9,0123*6E\r\n
$GPGGA,095627.15,5703.3402241,N,00952.1555587,E,2,11,0.9,-1.137,M,40.592,M,1.9,0123*6B\r\n
$GPGGA,095627.20,5703.3402679,N,00952.1556170,E,2,11,0.9,-1.137,M,40.592,M,1.9,0123*6D\r\n
$GPGGA,095627.25,5703.3403125,N,00952.1556753,E,2,11,0.9,-1.134,M,40.592,M,2.2,0123*6B\r\n
$GPGGA,095627.30,5703.3403587,N,00952.1557291,E,2,11,0.9,-1.128,M,40.592,M,2.2,0123*64\r\n
$GPGGA,095627.35,5703.3404039,N,00952.1557832,E,2,11,0.9,-1.122,M,40.592,M,2.2,0123*6F\r\n
$GPGGA,095627.40,5703.3404480,N,00952.1558380,E,2,11,0.9,-1.119,M,40.592,M,2.2,0123*6E\r\n
$GPGGA,095627.45,5703.3404944,N,00952.1558924,E,2,11,0.9,-1.107,M,40.592,M,2.4,0123*63\r\n
$GPGGA,095627.50,5703.3405407,N,00952.1559482,E,2,11,0.9,-1.100,M,40.592,M,2.4,0123*6B\r\n
$GPGGA,095627.55,5703.3405876,N,00952.1560046,E,2,11,0.9,-1.095,M,40.592,M,2.4,0123*6F\r\n
$GPGGA,095627.60,5703.3406351,N,00952.1560612,E,2,11,0.9,-1.093,M,40.592,M,2.4,0123*65\r\n
$GPGGA,095627.65,5703.3406838,N,00952.1561189,E,2,11,0.9,-1.093,M,40.592,M,2.6,0123*62\r\n
$GPGGA,095627.70,5703.3407323,N,00952.1561771,E,2,11,0.9,-1.095,M,40.592,M,2.6,0123*61\r\n
$GPGGA,095627.75,5703.3407802,N,00952.1562347,E,2,11,0.9,-1.100,M,40.592,M,2.6,0123*63\r\n
$GPGGA,095627.80,5703.3408300,N,00952.1562931,E,2,11,0.9,-1.100,M,40.592,M,2.6,0123*64\r\n
$GPGGA,095627.85,5703.3408804,N,00952.1563503,E,2,11,0.9,-1.102,M,40.592,M,2.9,0123*6F\r\n
$GPGGA,095627.90,5703.3409292,N,00952.1564082,E,2,11,0.9,-1.104,M,40.592,M,2.9,0123*62\r\n
$GPGGA,095627.95,5703.3409778,N,00952.1564655,E,2,11,0.9,-1.107,M,40.592,M,2.9,0123*69\r\n
$GPGGA,095628.00,5703.3410274,N,00952.1565224,E,2,11,0.9,-1.109,M,40.592,M,2.9,0123*66\r\n
$GPGGA,095628.05,5703.3410769,N,00952.1565783,E,2,11,0.9,-1.111,M,40.592,M,3.1,0123*62\r\n
$GPGGA,095628.10,5703.3411273,N,00952.1566373,E,2,11,0.9,-1.117,M,40.592,M,3.1,0123*67\r\n
$GPGGA,095628.15,5703.3411788,N,00952.1566954,E,2,11,0.9,-1.122,M,40.592,M,3.1,0123*6A\r\n
$GPGGA,095628.20,5703.3412306,N,00952.1567547,E,2,11,0.9,-1.127,M,40.592,M,3.1,0123*67\r\n
$GPGGA,095628.25,5703.3412817,N,00952.1568139,E,2,11,0.9,-1.136,M,40.592,M,3.3,0123*69\r\n
$GPGGA,095628.30,5703.3413325,N,00952.1568726,E,2,11,0.9,-1.137,M,40.592,M,3.3,0123*6F\r\n
$GPGGA,095628.35,5703.3413813,N,00952.1569305,E,2,11,0.9,-1.132,M,40.592,M,3.3,0123*65\r\n
$GPGGA,095628.40,5703.3414275,N,00952.1569847,E,2,11,0.9,-1.128,M,40.592,M,3.3,0123*6C\r\n
$GPGGA,095628.45,5703.3414748,N,00952.1570380,E,2,11,0.9,-1.114,M,40.592,M,3.5,0123*63\r\n
$GPGGA,095628.50,5703.3415245,N,00952.1570927,E,2,11,0.9,-1.104,M,40.592,M,3.5,0123*68\r\n
$GPGGA,095628.55,5703.3415767,N,00952.1571487,E,2,11,0.9,-1.099,M,40.592,M,3.5,0123*6B\r\n
$GPGGA,095628.60,5703.3416285,N,00952.1572056,E,2,11,0.9,-1.100,M,40.592,M,3.5,0123*6D\r\n
$GPGGA,095628.65,5703.3416800,N,00952.1572656,E,2,11,0.9,-1.094,M,40.592,M,1.1,0123*63\r\n
$GPGGA,095628.70,5703.3417306,N,00952.1573254,E,2,11,0.9,-1.092,M,40.592,M,1.1,0123*6A\r\n
$GPGGA,095628.75,5703.3417817,N,00952.1573827,E,2,11,0.9,-1.088,M,40.592,M,1.1,0123*61\r\n
$GPGGA,095628.80,5703.3418330,N,00952.1574410,E,2,11,0.9,-1.085,M,40.592,M,1.1,0123*68\r\n
$GPGGA,095628.85,5703.3418844,N,00952.1575000,E,2,11,0.9,-1.081,M,40.592,M,1.4,0123*60\r\n
$GPGGA,095628.90,5703.3419369,N,00952.1575597,E,2,11,0.9,-1.083,M,40.592,M,1.4,0123*68\r\n
$GPGGA,095628.95,5703.3419901,N,00952.1576197,E,2,11,0.9,-1.085,M,40.592,M,1.4,0123*68\r\n
$GPGGA,095629.00,5703.3420433,N,00952.1576785,E,2,11,0.9,-1.093,M,40.592,M,1.4,0123*61\r\n
$GPGGA,095629.05,5703.3420958,N,00952.1577361,E,2,11,0.9,-1.100,M,40.592,M,1.6,0123*62\r\n
$GPGGA,095629.10,5703.3421487,N,00952.1577979,E,2,11,0.9,-1.109,M,40.592,M,1.6,0123*62\r\n
$GPGGA,095629.15,5703.3422015,N,00952.1578615,E,2,11,0.9,-1.117,M,40.592,M,1.6,0123*6E\r\n
$GPGGA,095629.20,5703.3422529,N,00952.1579249,E,2,11,0.9,-1.121,M,40.592,M,1.6,0123*6B\r\n
$GPGGA,095629.25,5703.3423037,N,00952.1579857,E,2,11,0.9,-1.118,M,40.592,M,1.9,0123*65\r\n
$GPGGA,095629.30,5703.3423546,N,00952.1580460,E,2,11,0.9,-1.117,M,40.592,M,1.9,0123*63\r\n
$GPGGA,095629.35,5703.3424062,N,00952.1581049,E,2,11,0.9,-1.116,M,40.592,M,1.9,0123*6D\r\n
$GPGGA,095629.40,5703.3424587,N,00952.1581655,E,2,11,0.9,-1.116,M,40.592,M,1.9,0123*6A\r\n
$GPGGA,095629.45,5703.3425097,N,00952.1582276,E,2,11,0.9,-1.114,M,40.592,M,2.2,0123*66\r\n
$GPGGA,095629.50,5703.3425599,N,00952.1582891,E,2,11,0.9,-1.109,M,40.592,M,2.2,0123*66\r\n
$GPGGA,095629.55,5703.3426106,N,00952.1583524,E,2,11,0.9,-1.107,M,40.592,M,2.2,0123*6E\r\n
$GPGGA,095629.60,5703.3426621,N,00952.1584162,E,2,11,0.9,-1.103,M,40.592,M,2.2,0123*6F\r\n
$GPGGA,095629.65,5703.3427154,N,00952.1584793,E,2,11,0.9,-1.095,M,40.592,M,1.1,0123*68\r\n
$GPGGA,095629.70,5703.3427669,N,00952.1585403,E,2,11,0.9,-1.092,M,40.592,M,1.1,0123*69\r\n
$GPGGA,095629.75,5703.3428180,N,00952.1586022,E,2,11,0.9,-1.088,M,40.592,M,1.1,0123*6C\r\n
$GPGGA,095629.80,5703.3428701,N,00952.1586637,E,2,11,0.9,-1.086,M,40.592,M,1.1,0123*65\r\n
$GPGGA,095629.85,5703.3429214,N,00952.1587264,E,2,11,0.9,-1.081,M,40.592,M,1.3,0123*66\r\n
$GPGGA,095629.90,5703.3429717,N,00952.1587892,E,2,11,0.9,-1.077,M,40.592,M,1.3,0123*6E\r\n
$GPGGA,095629.95,5703.3430242,N,00952.1588511,E,2,11,0.9,-1.074,M,40.592,M,1.3,0123*6C\r\n
$GPGGA,095630.00,5703.3430772,N,00952.1589141,E,2,11,0.9,-1.074,M,40.592,M,1.3,0123*6E\r\n
$GPGGA,095630.05,5703.3431320,N,00952.1589783,E,2,11,0.9,-1.071,M,40.592,M,1.6,0123*61\r\n
$GPGGA,095630.10,5703.3431874,N,00952.1590415,E,2,11,0.9,-1.075,M,40.592,M,1.6,0123*6F\r\n
$GPGGA,095630.15,5703.3432416,N,00952.1591044,E,2,11,0.9,-1.082,M,40.592,M,1.6,0123*68\r\n
$GPGGA,095630.20,5703.3432969,N,00952.1591667,E,2,11,0.9,-1.088,M,40.592,M,1.6,0123*66\r\n
$GPGGA,095630.25,5703.3433505,N,00952.1592298,E,2,11,0.9,-1.098,M,40.592,M,1.8,0123*6C\r\n
$GPGGA,095630.30,5703.3434047,N,00952.1592960,E,2,11,0.9,-1.101,M,40.592,M,1.8,0123*61\r\n
$GPGGA,095630.35,5703.3434581,N,00952.1593617,E,2,11,0.9,-1.105,M,40.592,M,1.8,0123*61\r\n
$GPGGA,095630.40,5703.3435120,N,00952.1594268,E,2,11,0.9,-1.108,M,40.592,M,1.8,0123*6B\r\n
$GPGGA,095630.45,5703.3435648,N,00952.1594929,E,2,11,0.9,-1.105,M,40.592,M,2.0,0123*6F\r\n
$GPGGA,095630.50,5703.3436175,N,00952.1595564,E,2,11,0.9,-1.101,M,40.592,M,2.0,0123*61\r\n
$GPGGA,095630.55,5703.3436695,N,00952.1596180,E,2,11,0.9,-1.097,M,40.592,M,2.0,0123*6E\r\n
$GPGGA,095630.60,5703.3437218,N,00952.1596818,E,2,11,0.9,-1.092,M,40.592,M,2.0,0123*65\r\n
$GPGGA,095630.65,5703.3437739,N,00952.1597456,E,2,11,0.9,-1.092,M,40.592,M,1.4,0123*66\r\n
$GPGGA,095630.70,5703.3438259,N,00952.1598101,E,2,11,0.9,-1.087,M,40.592,M,1.4,0123*62\r\n
$GPGGA,095630.75,5703.3438784,N,00952.1598742,E,2,11,0.9,-1.080,M,40.592,M,1.4,0123*64\r\n
$GPGGA,095630.80,5703.3439304,N,00952.1599394,E,2,11,0.9,-1.077,M,40.592,M,1.4,0123*65\r\n
$GPGGA,095630.85,5703.3439840,N,00952.1600016,E,2,11,0.9,-1.072,M,40.592,M,1.7,0123*67\r\n
$GPGGA,095630.90,5703.3440386,N,00952.1600638,E,2,11,0.9,-1.067,M,40.592,M,1.7,0123*62\r\n
$GPGGA,095630.95,5703.3440925,N,00952.1601290,E,2,11,0.9,-1.067,M,40.592,M,1.7,0123*63\r\n
$GPGGA,095631.00,5703.3441466,N,00952.1601927,E,2,11,0.9,-1.067,M,40.592,M,1.7,0123*62\r\n
$GPGGA,095631.05,5703.3441998,N,00952.1602531,E,2,11,0.9,-1.068,M,40.592,M,1.9,0123*62\r\n
$GPGGA,095631.10,5703.3442542,N,00952.1603155,E,2,11,0.9,-1.066,M,40.592,M,1.9,0123*67\r\n
$GPGGA,095631.15,5703.3443077,N,00952.1603784,E,2,11,0.9,-1.069,M,40.592,M,1.9,0123*65\r\n
$GPGGA,095631.20,5703.3443611,N,00952.1604420,E,2,11,0.9,-1.074,M,40.592,M,1.9,0123*63\r\n
$GPGGA,095631.25,5703.3444156,N,00952.1605064,E,2,11,0.9,-1.076,M,40.592,M,2.2,0123*6A\r\n
$GPGGA,095631.30,5703.3444717,N,00952.1605696,E,2,11,0.9,-1.079,M,40.592,M,2.2,0123*69\r\n
$GPGGA,095631.35,5703.3445286,N,00952.1606346,E,2,11,0.9,-1.089,M,40.592,M,2.2,0123*64\r\n
$GPGGA,095631.40,5703.3445850,N,00952.1606987,E,2,11,0.9,-1.097,M,40.592,M,2.2,0123*6F\r\n
$GPGGA,095631.45,5703.3446402,N,00952.1607610,E,2,11,0.9,-1.105,M,40.592,M,2.4,0123*6E\r\n
$GPGGA,095631.50,5703.3446933,N,00952.1608212,E,2,11,0.9,-1.107,M,40.592,M,2.4,0123*6E\r\n
$GPGGA,095631.55,5703.3447477,N,00952.1608774,E,2,11,0.9,-1.102,M,40.592,M,2.4,0123*67\r\n
$GPGGA,095631.60,5703.3448021,N,00952.1609359,E,2,11,0.9,-1.097,M,40.592,M,2.4,0123*6E\r\n
$GPGGA,095631.65,5703.3448557,N,00952.1609937,E,2,11,0.9,-1.096,M,40.592,M,2.6,0123*6E\r\n
$GPGGA,095631.70,5703.3449081,N,00952.1610526,E,2,11,0.9,-1.091,M,40.592,M,2.6,0123*66\r\n
$GPGGA,095631.75,5703.3449618,N,00952.1611127,E,2,11,0.9,-1.082,M,40.592,M,2.6,0123*63\r\n
$GPGGA,095631.80,5703.3450146,N,00952.1611734,E,2,11,0.9,-1.077,M,40.592,M,2.6,0123*63\r\n
$GPGGA,095631.85,5703.3450672,N,00952.1612346,E,2,11,0.9,-1.070,M,40.592,M,2.9,0123*6C\r\n
$GPGGA,095631.90,5703.3451217,N,00952.1612959,E,2,11,0.9,-1.064,M,40.592,M,2.9,0123*6F\r\n
$GPGGA,095631.95,5703.3451767,N,00952.1613568,E,2,11,0.9,-1.062,M,40.592,M,2.9,0123*61\r\n
$GPGGA,095632.00,5703.3452318,N,00952.1614172,E,2,11,0.9,-1.064,M,40.592,M,2.9,0123*6F\r\n
$GPGGA,095632.05,5703.3452860,N,00952.1614764,E,2,11,0.9,-1.071,M,40.592,M,3.1,0123*62\r\n
$GPGGA,095632.10,5703.3453424,N,00952.1615342,E,2,11,0.9,-1.072,M,40.592,M,3.1,0123*69\r\n
$GPGGA,095632.15,5703.3453978,N,00952.1615915,E,2,11,0.9,-1.070,M,40.592,M,3.1,0123*62\r\n
$GPGGA,095632.20,5703.3454520,N,00952.1616505,E,2,11,0.9,-1.066,M,40.592,M,3.1,0123*6B\r\n
$GPGGA,095632.25,5703.3455082,N,00952.1617081,E,2,11,0.9,-1.064,M,40.592,M,3.3,0123*6A\r\n
$GPGGA,095632.30,5703.3455638,N,00952.1617660,E,2,11,0.9,-1.064,M,40.592,M,3.3,0123*60\r\n
$GPGGA,095632.35,5703.3456196,N,00952.1618255,E,2,11,0.9,-1.069,M,40.592,M,3.3,0123*65\r\n
$GPGGA,095632.40,5703.3456771,N,00952.1618846,E,2,11,0.9,-1.074,M,40.592,M,3.3,0123*6C\r\n
$GPGGA,095632.45,5703.3457352,N,00952.1619411,E,2,11,0.9,-1.087,M,40.592,M,3.5,0123*68\r\n
$GPGGA,095632.50,5703.3457935,N,00952.1619965,E,2,11,0.9,-1.091,M,40.592,M,3.5,0123*6E\r\n
$GPGGA,095632.55,5703.3458506,N,00952.1620480,E,2,11,0.9,-1.094,M,40.592,M,3.5,0123*61\r\n
$GPGGA,095632.60,5703.3459058,N,00952.1621012,E,2,11,0.9,-1.092,M,40.592,M,3.5,0123*60\r\n
$GPGGA,095632.65,5703.3459627,N,00952.1621553,E,2,11,0.9,-1.084,M,40.592,M,1.1,0123*6A\r\n
$GPGGA,095632.70,5703.3460191,N,00952.1622086,E,2,11,0.9,-1.085,M,40.592,M,1.1,0123*61\r\n
$GPGGA,095632.75,5703.3460751,N,00952.1622630,E,2,11,0.9,-1.086,M,40.592,M,1.1,0123*66\r\n
$GPGGA,095632.80,5703.3461335,N,00952.1623164,E,2,11,0.9,-1.086,M,40.592,M,1.1,0123*6C\r\n
$GPGGA,095632.85,5703.3461915,N,00952.1623702,E,2,11,0.9,-1.086,M,40.592,M,1.4,0123*62\r\n
$GPGGA,095632.90,5703.3462489,N,00952.1624234,E,2,11,0.9,-1.083,M,40.592,M,1.4,0123*6F\r\n
$GPGGA,095632.95,5703.3463069,N,00952.1624752,E,2,11,0.9,-1.082,M,40.592,M,1.4,0123*65\r\n
$GPGGA,095633.00,5703.3463632,N,00952.1625287,E,2,11,0.9,-1.079,M,40.592,M,1.4,0123*68\r\n
$GPGGA,095633.05,5703.3464191,N,00952.1625819,E,2,11,0.9,-1.080,M,40.592,M,1.6,0123*6D\r\n
$GPGGA,095633.10,5703.3464749,N,00952.1626352,E,2,11,0.9,-1.078,M,40.592,M,1.6,0123*6A\r\n
$GPGGA,095633.15,5703.3465314,N,00952.1626886,E,2,11,0.9,-1.070,M,40.592,M,1.6,0123*68\r\n
$GPGGA,095633.20,5703.3465890,N,00952.1627428,E,2,11,0.9,-1.063,M,40.592,M,1.6,0123*62\r\n
$GPGGA,095633.25,5703.3466470,N,00952.1627951,E,2,11,0.9,-1.056,M,40.592,M,1.9,0123*6C\r\n
$GPGGA,095633.30,5703.3467052,N,00952.1628454,E,2,11,0.9,-1.055,M,40.592,M,1.9,0123*69\r\n
$GPGGA,095633.35,5703.3467631,N,00952.1628981,E,2,11,0.9,-1.057,M,40.592,M,1.9,0123*68\r\n
$GPGGA,095633.40,5703.3468231,N,00952.1629503,E,2,11,0.9,-1.061,M,40.592,M,1.9,0123*63\r\n
$GPGGA,095633.45,5703.3468843,N,00952.1630023,E,2,11,0.9,-1.069,M,40.592,M,2.2,0123*66\r\n
$GPGGA,095633.50,5703.3469463,N,00952.1630530,E,2,11,0.9,-1.070,M,40.592,M,2.2,0123*62\r\n
$GPGGA,095633.55,5703.3470062,N,00952.1631044,E,2,11,0.9,-1.074,M,40.592,M,2.2,0123*69\r\n
$GPGGA,095633.60,5703.3470642,N,00952.1631551,E,2,11,0.9,-1.078,M,40.592,M,2.2,0123*66\r\n
$GPGGA,095633.65,5703.3471221,N,00952.1632060,E,2,11,0.9,-1.077,M,40.592,M,1.1,0123*68\r\n
$GPGGA,095633.70,5703.3471814,N,00952.1632575,E,2,11,0.9,-1.076,M,40.592,M,1.1,0123*60\r\n
$GPGGA,095633.75,5703.3472400,N,00952.1633090,E,2,11,0.9,-1.076,M,40.592,M,1.1,0123*60\r\n
$GPGGA,095633.80,5703.3472996,N,00952.1633603,E,2,11,0.9,-1.076,M,40.592,M,1.1,0123*64\r\n
$GPGGA,095633.85,5703.3473596,N,00952.1634116,E,2,11,0.9,-1.075,M,40.592,M,1.3,0123*69\r\n
$GPGGA,095633.90,5703.3474183,N,00952.1634616,E,2,11,0.9,-1.073,M,40.592,M,1.3,0123*6B\r\n
$GPGGA,095633.95,5703.3474765,N,00952.1635090,E,2,11,0.9,-1.070,M,40.592,M,1.3,0123*6A\r\n
$GPGGA,095634.00,5703.3475337,N,00952.1635565,E,2,11,0.9,-1.064,M,40.592,M,1.3,0123*69\r\n
$GPGGA,095634.05,5703.3475914,N,00952.1636027,E,2,11,0.9,-1.059,M,40.592,M,1.6,0123*6C\r\n
$GPGGA,095634.10,5703.3476486,N,00952.1636534,E,2,11,0.9,-1.052,M,40.592,M,1.6,0123*61\r\n
$GPGGA,095634.15,5703.3477062,N,00952.1637030,E,2,11,0.9,-1.047,M,40.592,M,1.6,0123*6F\r\n
$GPGGA,095634.20,5703.3477640,N,00952.1637503,E,2,11,0.9,-1.043,M,40.592,M,1.6,0123*6E\r\n
$GPGGA,095634.25,5703.3478234,N,00952.1637992,E,2,11,0.9,-1.035,M,40.592,M,1.8,0123*68\r\n
$GPGGA,095634.30,5703.3478839,N,00952.1638485,E,2,11,0.9,-1.034,M,40.592,M,1.8,0123*6E\r\n
$GPGGA,095634.35,5703.3479452,N,00952.1638997,E,2,11,0.9,-1.038,M,40.592,M,1.8,0123*69\r\n
$GPGGA,095634.40,5703.3480069,N,00952.1639523,E,2,11,0.9,-1.045,M,40.592,M,1.8,0123*69\r\n
$GPGGA,095634.45,5703.3480684,N,00952.1640041,E,2,11,0.9,-1.054,M,40.592,M,2.0,0123*6D\r\n
$GPGGA,095634.50,5703.3481277,N,00952.1640533,E,2,11,0.9,-1.058,M,40.592,M,2.0,0123*6C\r\n
$GPGGA,095634.55,5703.3481856,N,00952.1640990,E,2,11,0.9,-1.056,M,40.592,M,2.0,0123*6B\r\n
$GPGGA,095634.60,5703.3482419,N,00952.1641449,E,2,11,0.9,-1.051,M,40.592,M,2.0,0123*66\r\n
$GPGGA,095634.65,5703.3482997,N,00952.1641916,E,2,11,0.9,-1.047,M,40.592,M,1.4,0123*6F\r\n
$GPGGA,095634.70,5703.3483587,N,00952.1642401,E,2,11,0.9,-1.046,M,40.592,M,1.4,0123*6E\r\n
$GPGGA,095634.75,5703.3484189,N,00952.1642911,E,2,11,0.9,-1.048,M,40.592,M,1.4,0123*64\r\n
$GPGGA,095634.80,5703.3484802,N,00952.1643411,E,2,11,0.9,-1.055,M,40.592,M,1.4,0123*64\r\n
$GPGGA,095634.85,5703.3485410,N,00952.1643889,E,2,11,0.9,-1.066,M,40.592,M,1.7,0123*61\r\n
$GPGGA,095634.90,5703.3486021,N,00952.1644360,E,2,11,0.9,-1.072,M,40.592,M,1.7,0123*6E\r\n
$GPGGA,095634.95,5703.3486626,N,00952.1644866,E,2,11,0.9,-1.080,M,40.592,M,1.7,0123*6A\r\n
$GPGGA,095635.00,5703.3487216,N,00952.1645346,E,2,11,0.9,-1.082,M,40.592,M,1.7,0123*6B\r\n
$GPGGA,095635.05,5703.3487767,N,00952.1645820,E,2,11,0.9,-1.083,M,40.592,M,1.9,0123*69\r\n
$GPGGA,095635.10,5703.3488325,N,00952.1646272,E,2,11,0.9,-1.072,M,40.592,M,1.9,0123*60\r\n
$GPGGA,095635.15,5703.3488887,N,00952.1646713,E,2,11,0.9,-1.064,M,40.592,M,1.9,0123*63\r\n
$GPGGA,095635.20,5703.3489463,N,00952.1647164,E,2,11,0.9,-1.057,M,40.592,M,1.9,0123*65\r\n
$GPGGA,095635.25,5703.3490045,N,00952.1647640,E,2,11,0.9,-1.046,M,40.592,M,2.2,0123*61\r\n
$GPGGA,095635.30,5703.3490625,N,00952.1648123,E,2,11,0.9,-1.044,M,40.592,M,2.2,0123*6A\r\n
$GPGGA,095635.35,5703.3491216,N,00952.1648580,E,2,11,0.9,-1.043,M,40.592,M,2.2,0123*60\r\n
$GPGGA,095635.40,5703.3491819,N,00952.1649048,E,2,11,0.9,-1.046,M,40.592,M,2.2,0123*62\r\n
$GPGGA,095635.45,5703.3492426,N,00952.1649513,E,2,11,0.9,-1.057,M,40.592,M,2.4,0123*69\r\n
$GPGGA,095635.50,5703.3493046,N,00952.1650001,E,2,11,0.9,-1.062,M,40.592,M,2.4,0123*66\r\n
$GPGGA,095635.55,5703.3493665,N,00952.1650496,E,2,11,0.9,-1.068,M,40.592,M,2.4,0123*64\r\n
$GPGGA,095635.60,5703.3494271,N,00952.1650960,E,2,11,0.9,-1.072,M,40.592,M,2.4,0123*6B\r\n
$GPGGA,095635.65,5703.3494855,N,00952.1651412,E,2,11,0.9,-1.071,M,40.592,M,2.6,0123*6A\r\n
$GPGGA,095635.70,5703.3495444,N,00952.1651871,E,2,11,0.9,-1.071,M,40.592,M,2.6,0123*6A\r\n
$GPGGA,095635.75,5703.3496038,N,00952.1652347,E,2,11,0.9,-1.070,M,40.592,M,2.6,0123*6F\r\n
$GPGGA,095635.80,5703.3496630,N,00952.1652844,E,2,11,0.9,-1.069,M,40.592,M,2.6,0123*6B\r\n
$GPGGA,095635.85,5703.3497222,N,00952.1653305,E,2,11,0.9,-1.071,M,40.592,M,2.9,0123*61\r\n
$GPGGA,095635.90,5703.3497824,N,00952.1653752,E,2,11,0.9,-1.073,M,40.592,M,2.9,0123*6D\r\n
$GPGGA,095635.95,5703.3498428,N,00952.1654196,E,2,11,0.9,-1.075,M,40.592,M,2.9,0123*68\r\n
$GPGGA,095636.00,5703.3499042,N,00952.1654625,E,2,11,0.9,-1.075,M,40.592,M,2.9,0123*61\r\n
$GPGGA,095636.05,5703.3499648,N,00952.1655050,E,2,11,0.9,-1.077,M,40.592,M,3.1,0123*66\r\n
$GPGGA,095636.10,5703.3500245,N,00952.1655514,E,2,11,0.9,-1.079,M,40.592,M,3.1,0123*61\r\n
$GPGGA,095636.15,5703.3500824,N,00952.1655953,E,2,11,0.9,-1.078,M,40.592,M,3.1,0123*67\r\n
$GPGGA,095636.20,5703.3501415,N,00952.1656368,E,2,11,0.9,-1.074,M,40.592,M,3.1,0123*63\r\n
$GPGGA,095636.25,5703.3502014,N,00952.1656802,E,2,11,0.9,-1.071,M,40.592,M,3.3,0123*60\r\n
$GPGGA,095636.30,5703.3502599,N,00952.1657233,E,2,11,0.9,-1.067,M,40.592,M,3.3,0123*6A\r\n
$GPGGA,095636.35,5703.3503181,N,00952.1657661,E,2,11,0.9,-1.061,M,40.592,M,3.3,0123*66\r\n
$GPGGA,095636.40,5703.3503767,N,00952.1658075,E,2,11,0.9,-1.057,M,40.592,M,3.3,0123*63\r\n
$GPGGA,095636.45,5703.3504374,N,00952.1658483,E,2,11,0.9,-1.047,M,40.592,M,3.5,0123*6D\r\n
$GPGGA,095636.50,5703.3504985,N,00952.1658894,E,2,11,0.9,-1.044,M,40.592,M,3.5,0123*64\r\n
$GPGGA,095636.55,5703.3505592,N,00952.1659325,E,2,11,0.9,-1.045,M,40.592,M,3.5,0123*6B\r\n
$GPGGA,095636.60,5703.3506204,N,00952.1659751,E,2,11,0.9,-1.051,M,40.592,M,3.5,0123*64\r\n
$GPGGA,095636.65,5703.3506816,N,00952.1660175,E,2,11,0.9,-1.062,M,40.592,M,1.1,0123*64\r\n
$GPGGA,095636.70,5703.3507439,N,00952.1660615,E,2,11,0.9,-1.068,M,40.592,M,1.1,0123*6B\r\n
$GPGGA,095636.75,5703.3508042,N,00952.1661057,E,2,11,0.9,-1.069,M,40.592,M,1.1,0123*69\r\n
$GPGGA,095636.80,5703.3508631,N,00952.1661458,E,2,11,0.9,-1.067,M,40.592,M,1.1,0123*64\r\n
$GPGGA,095636.85,5703.3509199,N,00952.1661840,E,2,11,0.9,-1.061,M,40.592,M,1.4,0123*63\r\n
$GPGGA,095636.90,5703.3509787,N,00952.1662234,E,2,11,0.9,-1.058,M,40.592,M,1.4,0123*6E\r\n
$GPGGA,095636.95,5703.3510397,N,00952.1662655,E,2,11,0.9,-1.057,M,40.592,M,1.4,0123*6A\r\n
$GPGGA,095637.00,5703.3511016,N,00952.1663086,E,2,11,0.9,-1.062,M,40.592,M,1.4,0123*63\r\n
$GPGGA,095637.05,5703.3511636,N,00952.1663524,E,2,11,0.9,-1.070,M,40.592,M,1.6,0123*6E\r\n
$GPGGA,095637.10,5703.3512277,N,00952.1663940,E,2,11,0.9,-1.079,M,40.592,M,1.6,0123*6F\r\n
$GPGGA,095637.15,5703.3512906,N,00952.1664337,E,2,11,0.9,-1.086,M,40.592,M,1.6,0123*6A\r\n
$GPGGA,095637.20,5703.3513516,N,00952.1664746,E,2,11,0.9,-1.089,M,40.592,M,1.6,0123*6D\r\n
$GPGGA,095637.25,5703.3514127,N,00952.1665157,E,2,11,0.9,-1.094,M,40.592,M,1.9,0123*6D\r\n
$GPGGA,095637.30,5703.3514737,N,00952.1665557,E,2,11,0.9,-1.096,M,40.592,M,1.9,0123*68\r\n
$GPGGA,095637.35,5703.3515334,N,00952.1665951,E,2,11,0.9,-1.092,M,40.592,M,1.9,0123*65\r\n
$GPGGA,095637.40,5703.3515910,N,00952.1666337,E,2,11,0.9,-1.085,M,40.592,M,1.9,0123*64\r\n
$GPGGA,095637.45,5703.3516500,N,00952.1666723,E,2,11,0.9,-1.077,M,40.592,M,2.2,0123*6B\r\n
$GPGGA,095637.50,5703.3517094,N,00952.1667129,E,2,11,0.9,-1.072,M,40.592,M,2.2,0123*6E\r\n
$GPGGA,095637.55,5703.3517699,N,00952.1667492,E,2,11,0.9,-1.064,M,40.592,M,2.2,0123*62\r\n
$GPGGA,095637.60,5703.3518307,N,00952.1667840,E,2,11,0.9,-1.058,M,40.592,M,2.2,0123*65\r\n
$GPGGA,095637.65,5703.3518918,N,00952.1668209,E,2,11,0.9,-1.054,M,40.592,M,1.1,0123*60\r\n
$GPGGA,095637.70,5703.3519526,N,00952.1668609,E,2,11,0.9,-1.051,M,40.592,M,1.1,0123*65\r\n
$GPGGA,095637.75,5703.3520148,N,00952.1669008,E,2,11,0.9,-1.053,M,40.592,M,1.1,0123*62\r\n
$GPGGA,095637.80,5703.3520773,N,00952.1669435,E,2,11,0.9,-1.056,M,40.592,M,1.1,0123*69\r\n
$GPGGA,095637.85,5703.3521399,N,00952.1669859,E,2,11,0.9,-1.062,M,40.592,M,1.3,0123*6E\r\n
$GPGGA,095637.90,5703.3522027,N,00952.1670279,E,2,11,0.9,-1.066,M,40.592,M,1.3,0123*6B\r\n
$GPGGA,095637.95,5703.3522642,N,00952.1670687,E,2,11,0.9,-1.066,M,40.592,M,1.3,0123*6E\r\n
$GPGGA,095638.00,5703.3523246,N,00952.1671094,E,2,11,0.9,-1.068,M,40.592,M,1.3,0123*67\r\n
$GPGGA,095638.05,5703.3523857,N,00952.1671493,E,2,11,0.9,-1.067,M,40.592,M,1.6,0123*61\r\n
$GPGGA,095638.10,5703.3524477,N,00952.1671887,E,2,11,0.9,-1.070,M,40.592,M,1.6,0123*63\r\n
$GPGGA,095638.15,5703.3525094,N,00952.1672294,E,2,11,0.9,-1.073,M,40.592,M,1.6,0123*66\r\n
$GPGGA,095638.20,5703.3525704,N,00952.1672683,E,2,11,0.9,-1.073,M,40.592,M,1.6,0123*6C\r\n
$GPGGA,095638.25,5703.3526315,N,00952.1673049,E,2,11,0.9,-1.076,M,40.592,M,1.8,0123*64\r\n
$GPGGA,095638.30,5703.3526923,N,00952.1673432,E,2,11,0.9,-1.075,M,40.592,M,1.8,0123*64\r\n
$GPGGA,095638.35,5703.3527527,N,00952.1673844,E,2,11,0.9,-1.074,M,40.592,M,1.8,0123*64\r\n
$GPGGA,095638.40,5703.3528136,N,00952.1674244,E,2,11,0.9,-1.075,M,40.592,M,1.8,0123*61\r\n
$GPGGA,095638.45,5703.3528742,N,00952.1674637,E,2,11,0.9,-1.069,M,40.592,M,2.0,0123*67\r\n
$GPGGA,095638.50,5703.3529340,N,00952.1675016,E,2,11,0.9,-1.068,M,40.592,M,2.0,0123*61\r\n
$GPGGA,095638.55,5703.3529947,N,00952.1675418,E,2,11,0.9,-1.064,M,40.592,M,2.0,0123*6F\r\n
$GPGGA,095638.60,5703.3530550,N,00952.1675809,E,2,11,0.9,-1.055,M,40.592,M,2.0,0123*65\r\n
$GPGGA,095638.65,5703.3531143,N,00952.1676178,E,2,11,0.9,-1.051,M,40.592,M,1.4,0123*68\r\n
$GPGGA,095638.70,5703.3531738,N,00952.1676557,E,2,11,0.9,-1.045,M,40.592,M,1.4,0123*6A\r\n
$GPGGA,095638.75,5703.3532336,N,00952.1676931,E,2,11,0.9,-1.040,M,40.592,M,1.4,0123*6F\r\n
$GPGGA,095638.80,5703.3532942,N,00952.1677338,E,2,11,0.9,-1.042,M,40.592,M,1.4,0123*6C\r\n
$GPGGA,095638.85,5703.3533563,N,00952.1677761,E,2,11,0.9,-1.047,M,40.592,M,1.7,0123*69\r\n
$GPGGA,095638.90,5703.3534186,N,00952.1678157,E,2,11,0.9,-1.051,M,40.592,M,1.7,0123*6E\r\n
$GPGGA,095638.95,5703.3534788,N,00952.1678541,E,2,11,0.9,-1.052,M,40.592,M,1.7,0123*63\r\n
$GPGGA,095639.00,5703.3535383,N,00952.1678909,E,2,11,0.9,-1.052,M,40.592,M,1.7,0123*60\r\n
$GPGGA,095639.05,5703.3535978,N,00952.1679287,E,2,11,0.9,-1.051,M,40.592,M,1.9,0123*6A\r\n
$GPGGA,095639.10,5703.3536588,N,00952.1679685,E,2,11,0.9,-1.054,M,40.592,M,1.9,0123*6D\r\n
$GPGGA,095639.15,5703.3537211,N,00952.1680083,E,2,11,0.9,-1.057,M,40.592,M,1.9,0123*6B\r\n
$GPGGA,095639.20,5703.3537838,N,00952.1680489,E,2,11,0.9,-1.065,M,40.592,M,1.9,0123*63\r\n
$GPGGA,095639.25,5703.3538460,N,00952.1680885,E,2,11,0.9,-1.076,M,40.592,M,2.2,0123*62\r\n
$GPGGA,095639.30,5703.3539078,N,00952.1681294,E,2,11,0.9,-1.078,M,40.592,M,2.2,0123*6F\r\n
$GPGGA,095639.35,5703.3539677,N,00952.1681686,E,2,11,0.9,-1.079,M,40.592,M,2.2,0123*65\r\n
$GPGGA,095639.40,5703.3540278,N,00952.1682077,E,2,11,0.9,-1.080,M,40.592,M,2.2,0123*6F\r\n
$GPGGA,095639.45,5703.3540881,N,00952.1682466,E,2,11,0.9,-1.077,M,40.592,M,2.4,0123*6C\r\n
$GPGGA,095639.50,5703.3541485,N,00952.1682833,E,2,11,0.9,-1.078,M,40.592,M,2.4,0123*62\r\n
$GPGGA,095639.55,5703.3542095,N,00952.1683218,E,2,11,0.9,-1.076,M,40.592,M,2.4,0123*6D\r\n
$GPGGA,095639.60,5703.3542695,N,00952.1683614,E,2,11,0.9,-1.074,M,40.592,M,2.4,0123*67\r\n
$GPGGA,095639.65,5703.3543275,N,00952.1684011,E,2,11,0.9,-1.073,M,40.592,M,2.6,0123*68\r\n
$GPGGA,095639.70,5703.3543867,N,00952.1684406,E,2,11,0.9,-1.068,M,40.592,M,2.6,0123*6D\r\n
$GPGGA,095639.75,5703.3544468,N,00952.1684803,E,2,11,0.9,-1.064,M,40.592,M,2.6,0123*69\r\n
$GPGGA,095639.80,5703.3545076,N,00952.1685185,E,2,11,0.9,-1.066,M,40.592,M,2.6,0123*6D\r\n
$GPGGA,095639.85,5703.3545681,N,00952.1685572,E,2,11,0.9,-1.066,M,40.592,M,2.9,0123*65\r\n
$GPGGA,095639.90,5703.3546290,N,00952.1685960,E,2,11,0.9,-1.067,M,40.592,M,2.9,0123*68\r\n
$GPGGA,095639.95,5703.3546907,N,00952.1686349,E,2,11,0.9,-1.065,M,40.592,M,2.9,0123*68\r\n
$GPGGA,095640.00,5703.3547516,N,00952.1686756,E,2,11,0.9,-1.064,M,40.592,M,2.9,0123*6C\r\n
$GPGGA,095640.05,5703.3548132,N,00952.1687137,E,2,11,0.9,-1.063,M,40.592,M,3.1,0123*6A\r\n
$GPGGA,095640.10,5703.3548745,N,00952.1687530,E,2,11,0.9,-1.066,M,40.592,M,3.1,0123*6E\r\n
$GPGGA,095640.15,5703.3549358,N,00952.1687936,E,2,11,0.9,-1.072,M,40.592,M,3.1,0123*6D\r\n
$GPGGA,095640.20,5703.3549983,N,00952.1688350,E,2,11,0.9,-1.074,M,40.592,M,3.1,0123*64\r\n
$GPGGA,095640.25,5703.3550598,N,00952.1688726,E,2,11,0.9,-1.074,M,40.592,M,3.3,0123*68\r\n
$GPGGA,095640.30,5703.3551202,N,00952.1689072,E,2,11,0.9,-1.071,M,40.592,M,3.3,0123*6B\r\n
$GPGGA,095640.35,5703.3551809,N,00952.1689432,E,2,11,0.9,-1.065,M,40.592,M,3.3,0123*6A\r\n
$GPGGA,095640.40,5703.3552423,N,00952.1689803,E,2,11,0.9,-1.064,M,40.592,M,3.3,0123*60\r\n
$GPGGA,095640.45,5703.3553043,N,00952.1690185,E,2,11,0.9,-1.069,M,40.592,M,3.5,0123*62\r\n
$GPGGA,095640.50,5703.3553681,N,00952.1690572,E,2,11,0.9,-1.074,M,40.592,M,3.5,0123*6E\r\n
$GPGGA,095640.55,5703.3554324,N,00952.1690951,E,2,11,0.9,-1.080,M,40.592,M,3.5,0123*60\r\n
$GPGGA,095640.60,5703.3554950,N,00952.1691319,E,2,11,0.9,-1.086,M,40.592,M,3.5,0123*6E\r\n
$GPGGA,095640.65,5703.3555565,N,00952.1691653,E,2,11,0.9,-1.084,M,40.592,M,1.1,0123*6F\r\n
$GPGGA,095640.70,5703.3556171,N,00952.1691974,E,2,11,0.9,-1.080,M,40.592,M,1.1,0123*67\r\n
$GPGGA,095640.75,5703.3556781,N,00952.1692318,E,2,11,0.9,-1.074,M,40.592,M,1.1,0123*63\r\n
$GPGGA,095640.80,5703.3557376,N,00952.1692657,E,2,11,0.9,-1.069,M,40.592,M,1.1,0123*66\r\n
$GPGGA,095640.85,5703.3557978,N,00952.1693028,E,2,11,0.9,-1.060,M,40.592,M,1.4,0123*64\r\n
$GPGGA,095640.90,5703.3558595,N,00952.1693410,E,2,11,0.9,-1.054,M,40.592,M,1.4,0123*68\r\n
$GPGGA,095640.95,5703.3559210,N,00952.1693792,E,2,11,0.9,-1.056,M,40.592,M,1.4,0123*6D\r\n
$GPGGA,095641.00,5703.3559835,N,00952.1694157,E,2,11,0.9,-1.057,M,40.592,M,1.4,0123*64\r\n
$GPGGA,095641.05,5703.3560459,N,00952.1694467,E,2,11,0.9,-1.055,M,40.592,M,1.6,0123*6B\r\n
$GPGGA,095641.10,5703.3561078,N,00952.1694797,E,2,11,0.9,-1.055,M,40.592,M,1.6,0123*65\r\n
$GPGGA,095641.15,5703.3561702,N,00952.1695133,E,2,11,0.9,-1.054,M,40.592,M,1.6,0123*62\r\n
$GPGGA,095641.20,5703.3562332,N,00952.1695509,E,2,11,0.9,-1.053,M,40.592,M,1.6,0123*6A\r\n
$GPGGA,095641.25,5703.3562952,N,00952.1695876,E,2,11,0.9,-1.058,M,40.592,M,1.9,0123*62\r\n
$GPGGA,095641.30,5703.3563586,N,00952.1696235,E,2,11,0.9,-1.062,M,40.592,M,1.9,0123*65\r\n
$GPGGA,095641.35,5703.3564232,N,00952.1696584,E,2,11,0.9,-1.064,M,40.592,M,1.9,0123*64\r\n
$GPGGA,095641.40,5703.3564870,N,00952.1696903,E,2,11,0.9,-1.067,M,40.592,M,1.9,0123*6A\r\n
$GPGGA,095641.45,5703.3565499,N,00952.1697238,E,2,11,0.9,-1.069,M,40.592,M,2.2,0123*61\r\n
$GPGGA,095641.50,5703.3566124,N,00952.1697595,E,2,11,0.9,-1.074,M,40.592,M,2.2,0123*69\r\n
$GPGGA,095641.55,5703.3566750,N,00952.1697938,E,2,11,0.9,-1.079,M,40.592,M,2.2,0123*6F\r\n
$GPGGA,095641.60,5703.3567388,N,00952.1698265,E,2,11,0.9,-1.079,M,40.592,M,2.2,0123*65\r\n
$GPGGA,095641.65,5703.3568026,N,00952.1698558,E,2,11,0.9,-1.081,M,40.592,M,1.1,0123*66\r\n
$GPGGA,095641.70,5703.3568665,N,00952.1698862,E,2,11,0.9,-1.083,M,40.592,M,1.1,0123*65\r\n
$GPGGA,095641.75,5703.3569316,N,00952.1699170,E,2,11,0.9,-1.084,M,40.592,M,1.1,0123*6C\r\n
$GPGGA,095641.80,5703.3569961,N,00952.1699496,E,2,11,0.9,-1.083,M,40.592,M,1.1,0123*66\r\n
$GPGGA,095641.85,5703.3570588,N,00952.1699828,E,2,11,0.9,-1.081,M,40.592,M,1.3,0123*69\r\n
$GPGGA,095641.90,5703.3571199,N,00952.1700117,E,2,11,0.9,-1.078,M,40.592,M,1.3,0123*6A\r\n
$GPGGA,095641.95,5703.3571812,N,00952.1700403,E,2,11,0.9,-1.069,M,40.592,M,1.3,0123*65\r\n
$GPGGA,095642.00,5703.3572431,N,00952.1700695,E,2,11,0.9,-1.063,M,40.592,M,1.3,0123*63\r\n
$GPGGA,095642.05,5703.3573068,N,00952.1700970,E,2,11,0.9,-1.057,M,40.592,M,1.6,0123*69\r\n
$GPGGA,095642.10,5703.3573732,N,00952.1701237,E,2,11,0.9,-1.055,M,40.592,M,1.6,0123*6E\r\n
$GPGGA,095642.15,5703.3574389,N,00952.1701536,E,2,11,0.9,-1.058,M,40.592,M,1.6,0123*63\r\n
$GPGGA,095642.20,5703.3575053,N,00952.1701844,E,2,11,0.9,-1.061,M,40.592,M,1.6,0123*62\r\n
$GPGGA,095642.25,5703.3575725,N,00952.1702145,E,2,11,0.9,-1.066,M,40.592,M,1.8,0123*63\r\n
$GPGGA,095642.30,5703.3576385,N,00952.1702444,E,2,11,0.9,-1.071,M,40.592,M,1.8,0123*68\r\n
$GPGGA,095642.35,5703.3577012,N,00952.1702725,E,2,11,0.9,-1.071,M,40.592,M,1.8,0123*65\r\n
$GPGGA,095642.40,5703.3577628,N,00952.1703003,E,2,11,0.9,-1.068,M,40.592,M,1.8,0123*62\r\n
$GPGGA,095642.45,5703.3578252,N,00952.1703278,E,2,11,0.9,-1.067,M,40.592,M,2.0,0123*6B\r\n
$GPGGA,095642.50,5703.3578880,N,00952.1703551,E,2,11,0.9,-1.061,M,40.592,M,2.0,0123*60\r\n
$GPGGA,095642.55,5703.3579514,N,00952.1703827,E,2,11,0.9,-1.055,M,40.592,M,2.0,0123*6F\r\n
$GPGGA,095642.60,5703.3580161,N,00952.1704125,E,2,11,0.9,-1.057,M,40.592,M,2.0,0123*67\r\n
$GPGGA,095642.65,5703.3580835,N,00952.1704424,E,2,11,0.9,-1.054,M,40.592,M,1.4,0123*6A\r\n
$GPGGA,095642.70,5703.3581504,N,00952.1704733,E,2,11,0.9,-1.060,M,40.592,M,1.4,0123*62\r\n
$GPGGA,095642.75,5703.3582166,N,00952.1705059,E,2,11,0.9,-1.073,M,40.592,M,1.4,0123*6C\r\n
$GPGGA,095642.80,5703.3582817,N,00952.1705372,E,2,11,0.9,-1.079,M,40.592,M,1.4,0123*69\r\n
$GPGGA,095642.85,5703.3583442,N,00952.1705600,E,2,11,0.9,-1.079,M,40.592,M,1.7,0123*62\r\n
$GPGGA,095642.90,5703.3584033,N,00952.1705851,E,2,11,0.9,-1.071,M,40.592,M,1.7,0123*61\r\n
$GPGGA,095642.95,5703.3584662,N,00952.1706132,E,2,11,0.9,-1.064,M,40.592,M,1.7,0123*6D\r\n
$GPGGA,095643.00,5703.3585305,N,00952.1706454,E,2,11,0.9,-1.059,M,40.592,M,1.7,0123*6E\r\n
$GPGGA,095643.05,5703.3585941,N,00952.1706755,E,2,11,0.9,-1.054,M,40.592,M,1.9,0123*60\r\n
$GPGGA,095643.10,5703.3586569,N,00952.1707054,E,2,11,0.9,-1.053,M,40.592,M,1.9,0123*61\r\n
$GPGGA,095643.15,5703.3587194,N,00952.1707326,E,2,11,0.9,-1.050,M,40.592,M,1.9,0123*66\r\n
$GPGGA,095643.20,5703.3587834,N,00952.1707588,E,2,11,0.9,-1.047,M,40.592,M,1.9,0123*67\r\n
$GPGGA,095643.25,5703.3588466,N,00952.1707862,E,2,11,0.9,-1.047,M,40.592,M,2.2,0123*67\r\n
$GPGGA,095643.30,5703.3589094,N,00952.1708159,E,2,11,0.9,-1.042,M,40.592,M,2.2,0123*60\r\n
$GPGGA,095643.35,5703.3589714,N,00952.1708462,E,2,11,0.9,-1.042,M,40.592,M,2.2,0123*67\r\n
$GPGGA,095643.40,5703.3590347,N,00952.1708770,E,2,11,0.9,-1.044,M,40.592,M,2.2,0123*69\r\n
$GPGGA,095643.45,5703.3590992,N,00952.1709094,E,2,11,0.9,-1.045,M,40.592,M,2.4,0123*65\r\n
$GPGGA,095643.50,5703.3591642,N,00952.1709411,E,2,11,0.9,-1.049,M,40.592,M,2.4,0123*67\r\n
$GPGGA,095643.55,5703.3592280,N,00952.1709723,E,2,11,0.9,-1.055,M,40.592,M,2.4,0123*64\r\n
$GPGGA,095643.60,5703.3592927,N,00952.1710031,E,2,11,0.9,-1.063,M,40.592,M,2.4,0123*6D\r\n
$GPGGA,095643.65,5703.3593579,N,00952.1710310,E,2,11,0.9,-1.074,M,40.592,M,2.6,0123*6A\r\n
$GPGGA,095643.70,5703.3594219,N,00952.1710610,E,2,11,0.9,-1.076,M,40.592,M,2.6,0123*6F\r\n
$GPGGA,095643.75,5703.3594838,N,00952.1710901,E,2,11,0.9,-1.076,M,40.592,M,2.6,0123*6C\r\n
$GPGGA,095643.80,5703.3595454,N,00952.1711196,E,2,11,0.9,-1.075,M,40.592,M,2.6,0123*65\r\n
$GPGGA,095643.85,5703.3596091,N,00952.1711508,E,2,11,0.9,-1.075,M,40.592,M,2.9,0123*62\r\n
$GPGGA,095643.90,5703.3596732,N,00952.1711815,E,2,11,0.9,-1.076,M,40.592,M,2.9,0123*6A\r\n
$GPGGA,095643.95,5703.3597361,N,00952.1712134,E,2,11,0.9,-1.078,M,40.592,M,2.9,0123*6B\r\n
$GPGGA,095644.00,5703.3597997,N,00952.1712452,E,2,11,0.9,-1.079,M,40.592,M,2.9,0123*67\r\n
$GPGGA,095644.05,5703.3598627,N,00952.1712746,E,2,11,0.9,-1.076,M,40.592,M,3.1,0123*69\r\n
$GPGGA,095644.10,5703.3599249,N,00952.1713044,E,2,11,0.9,-1.074,M,40.592,M,3.1,0123*66\r\n
$GPGGA,095644.15,5703.3599878,N,00952.1713359,E,2,11,0.9,-1.071,M,40.592,M,3.1,0123*61\r\n
$GPGGA,095644.20,5703.3600505,N,00952.1713678,E,2,11,0.9,-1.065,M,40.592,M,3.1,0123*60\r\n
$GPGGA,095644.25,5703.3601105,N,00952.1713983,E,2,11,0.9,-1.061,M,40.592,M,3.3,0123*6D\r\n
$GPGGA,095644.30,5703.3601698,N,00952.1714269,E,2,11,0.9,-1.055,M,40.592,M,3.3,0123*65\r\n
$GPGGA,095644.35,5703.3602316,N,00952.1714587,E,2,11,0.9,-1.048,M,40.592,M,3.3,0123*6B\r\n
$GPGGA,095644.40,5703.3602952,N,00952.1714902,E,2,11,0.9,-1.047,M,40.592,M,3.3,0123*6D\r\n
$GPGGA,095644.45,5703.3603598,N,00952.1715219,E,2,11,0.9,-1.050,M,40.592,M,3.5,0123*63\r\n
$GPGGA,095644.50,5703.3604238,N,00952.1715552,E,2,11,0.9,-1.058,M,40.592,M,3.5,0123*6D\r\n
$GPGGA,095644.55,5703.3604876,N,00952.1715892,E,2,11,0.9,-1.061,M,40.592,M,3.5,0123*63\r\n
$GPGGA,095644.60,5703.3605507,N,00952.1716227,E,2,11,0.9,-1.063,M,40.592,M,3.5,0123*6A\r\n
$GPGGA,095644.65,5703.3606143,N,00952.1716542,E,2,11,0.9,-1.067,M,40.592,M,1.1,0123*6E\r\n
$GPGGA,095644.70,5703.3606779,N,00952.1716861,E,2,11,0.9,-1.072,M,40.592,M,1.1,0123*6D\r\n
$GPGGA,095644.75,5703.3607413,N,00952.1717191,E,2,11,0.9,-1.074,M,40.592,M,1.1,0123*67\r\n
$GPGGA,095644.80,5703.3608045,N,00952.1717506,E,2,11,0.9,-1.074,M,40.592,M,1.1,0123*6F\r\n
$GPGGA,095644.85,5703.3608670,N,00952.1717800,E,2,11,0.9,-1.075,M,40.592,M,1.4,0123*65\r\n
$GPGGA,095644.90,5703.3609304,N,00952.1718097,E,2,11,0.9,-1.074,M,40.592,M,1.4,0123*6E\r\n
$GPGGA,095644.95,5703.3609928,N,00952.1718386,E,2,11,0.9,-1.075,M,40.592,M,1.4,0123*6D\r\n
$GPGGA,095645.00,5703.3610556,N,00952.1718665,E,2,11,0.9,-1.076,M,40.592,M,1.4,0123*66\r\n
$GPGGA,095645.05,5703.3611190,N,00952.1718959,E,2,11,0.9,-1.071,M,40.592,M,1.6,0123*69\r\n
$GPGGA,095645.10,5703.3611834,N,00952.1719273,E,2,11,0.9,-1.070,M,40.592,M,1.6,0123*69\r\n
$GPGGA,095645.15,5703.3612464,N,00952.1719577,E,2,11,0.9,-1.070,M,40.592,M,1.6,0123*65\r\n
$GPGGA,095645.20,5703.3613094,N,00952.1719858,E,2,11,0.9,-1.068,M,40.592,M,1.6,0123*60\r\n
$GPGGA,095645.25,5703.3613720,N,00952.1720135,E,2,11,0.9,-1.067,M,40.592,M,1.9,0123*65\r\n
$GPGGA,095645.30,5703.3614358,N,00952.1720399,E,2,11,0.9,-1.065,M,40.592,M,1.9,0123*6B\r\n
$GPGGA,095645.35,5703.3614984,N,00952.1720693,E,2,11,0.9,-1.064,M,40.592,M,1.9,0123*6B\r\n
$GPGGA,095645.40,5703.3615609,N,00952.1720998,E,2,11,0.9,-1.062,M,40.592,M,1.9,0123*60\r\n
$GPGGA,095645.45,5703.3616240,N,00952.1721293,E,2,11,0.9,-1.059,M,40.592,M,2.2,0123*6E\r\n
$GPGGA,095645.50,5703.3616876,N,00952.1721569,E,2,11,0.9,-1.060,M,40.592,M,2.2,0123*6D\r\n
$GPGGA,095645.55,5703.3617511,N,00952.1721816,E,2,11,0.9,-1.057,M,40.592,M,2.2,0123*64\r\n
$GPGGA,095645.60,5703.3618168,N,00952.1722069,E,2,11,0.9,-1.057,M,40.592,M,2.2,0123*64\r\n
$GPGGA,095645.65,5703.3618824,N,00952.1722332,E,2,11,0.9,-1.065,M,40.592,M,1.1,0123*6C\r\n
$GPGGA,095645.70,5703.3619475,N,00952.1722606,E,2,11,0.9,-1.067,M,40.592,M,1.1,0123*61\r\n
$GPGGA,095645.75,5703.3620120,N,00952.1722889,E,2,11,0.9,-1.072,M,40.592,M,1.1,0123*66\r\n
$GPGGA,095645.80,5703.3620755,N,00952.1723188,E,2,11,0.9,-1.076,M,40.592,M,1.1,0123*65\r\n
$GPGGA,095645.85,5703.3621391,N,00952.1723447,E,2,11,0.9,-1.077,M,40.592,M,1.3,0123*68\r\n
$GPGGA,095645.90,5703.3622027,N,00952.1723711,E,2,11,0.9,-1.077,M,40.592,M,1.3,0123*61\r\n
$GPGGA,095645.95,5703.3622680,N,00952.1723983,E,2,11,0.9,-1.080,M,40.592,M,1.3,0123*62\r\n
$GPGGA,095646.00,5703.3623341,N,00952.1724238,E,2,11,0.9,-1.080,M,40.592,M,1.3,0123*68\r\n
$GPGGA,095646.05,5703.3623993,N,00952.1724457,E,2,11,0.9,-1.077,M,40.592,M,1.6,0123*6A\r\n
$GPGGA,095646.10,5703.3624639,N,00952.1724670,E,2,11,0.9,-1.077,M,40.592,M,1.6,0123*61\r\n
$GPGGA,095646.15,5703.3625273,N,00952.1724875,E,2,11,0.9,-1.076,M,40.592,M,1.6,0123*65\r\n
$GPGGA,095646.20,5703.3625906,N,00952.1725072,E,2,11,0.9,-1.077,M,40.592,M,1.6,0123*65\r\n
$GPGGA,095646.25,5703.3626540,N,00952.1725275,E,2,11,0.9,-1.080,M,40.592,M,1.8,0123*6E\r\n
$GPGGA,095646.30,5703.3627205,N,00952.1725481,E,2,11,0.9,-1.077,M,40.592,M,1.8,0123*68\r\n
$GPGGA,095646.35,5703.3627873,N,00952.1725675,E,2,11,0.9,-1.077,M,40.592,M,1.8,0123*6F\r\n
$GPGGA,095646.40,5703.3628524,N,00952.1725835,E,2,11,0.9,-1.077,M,40.592,M,1.8,0123*67\r\n
$GPGGA,095646.45,5703.3629172,N,00952.1725989,E,2,11,0.9,-1.069,M,40.592,M,2.0,0123*66\r\n
$GPGGA,095646.50,5703.3629812,N,00952.1726164,E,2,11,0.9,-1.063,M,40.592,M,2.0,0123*6F\r\n
$GPGGA,095646.55,5703.3630451,N,00952.1726353,E,2,11,0.9,-1.061,M,40.592,M,2.0,0123*6D\r\n
$GPGGA,095646.60,5703.3631095,N,00952.1726528,E,2,11,0.9,-1.059,M,40.592,M,2.0,0123*67\r\n
$GPGGA,095646.65,5703.3631741,N,00952.1726697,E,2,11,0.9,-1.059,M,40.592,M,1.4,0123*6C\r\n
$GPGGA,095646.70,5703.3632398,N,00952.1726862,E,2,11,0.9,-1.058,M,40.592,M,1.4,0123*6E\r\n
$GPGGA,095646.75,5703.3633061,N,00952.1727005,E,2,11,0.9,-1.060,M,40.592,M,1.4,0123*6C\r\n
$GPGGA,095646.80,5703.3633719,N,00952.1727148,E,2,11,0.9,-1.060,M,40.592,M,1.4,0123*66\r\n
$GPGGA,095646.85,5703.3634373,N,00952.1727295,E,2,11,0.9,-1.063,M,40.592,M,1.7,0123*6F\r\n
$GPGGA,095646.90,5703.3635035,N,00952.1727424,E,2,11,0.9,-1.064,M,40.592,M,1.7,0123*60\r\n
$GPGGA,095646.95,5703.3635700,N,00952.1727555,E,2,11,0.9,-1.065,M,40.592,M,1.7,0123*62\r\n
$GPGGA,095647.00,5703.3636367,N,00952.1727681,E,2,11,0.9,-1.067,M,40.592,M,1.7,0123*61\r\n
$GPGGA,095647.05,5703.3637031,N,00952.1727827,E,2,11,0.9,-1.071,M,40.592,M,1.9,0123*6E\r\n
$GPGGA,095647.10,5703.3637708,N,00952.1727948,E,2,11,0.9,-1.073,M,40.592,M,1.9,0123*6D\r\n
$GPGGA,095647.15,5703.3638385,N,00952.1728036,E,2,11,0.9,-1.074,M,40.592,M,1.9,0123*6E\r\n
$GPGGA,095647.20,5703.3639043,N,00952.1728118,E,2,11,0.9,-1.077,M,40.592,M,1.9,0123*6E\r\n
$GPGGA,095647.25,5703.3639694,N,00952.1728192,E,2,11,0.9,-1.082,M,40.592,M,2.2,0123*67\r\n
$GPGGA,095647.30,5703.3640367,N,00952.1728262,E,2,11,0.9,-1.080,M,40.592,M,2.2,0123*6A\r\n
$GPGGA,095647.35,5703.3641024,N,00952.1728298,E,2,11,0.9,-1.074,M,40.592,M,2.2,0123*64\r\n
$GPGGA,095647.40,5703.3641671,N,00952.1728324,E,2,11,0.9,-1.067,M,40.592,M,2.2,0123*64\r\n
$GPGGA,095647.45,5703.3642312,N,00952.1728363,E,2,11,0.9,-1.058,M,40.592,M,2.4,0123*6B\r\n
$GPGGA,095647.50,5703.3642965,N,00952.1728410,E,2,11,0.9,-1.054,M,40.592,M,2.4,0123*6A\r\n
$GPGGA,095647.55,5703.3643647,N,00952.1728465,E,2,11,0.9,-1.054,M,40.592,M,2.4,0123*63\r\n
$GPGGA,095647.60,5703.3644340,N,00952.1728525,E,2,11,0.9,-1.058,M,40.592,M,2.4,0123*69\r\n
$GPGGA,095647.65,5703.3645023,N,00952.1728570,E,2,11,0.9,-1.063,M,40.592,M,2.6,0123*61\r\n
$GPGGA,095647.70,5703.3645702,N,00952.1728593,E,2,11,0.9,-1.064,M,40.592,M,2.6,0123*6B\r\n
$GPGGA,095647.75,5703.3646379,N,00952.1728597,E,2,11,0.9,-1.063,M,40.592,M,2.6,0123*66\r\n
$GPGGA,095647.80,5703.3647049,N,00952.1728617,E,2,11,0.9,-1.067,M,40.592,M,2.6,0123*62\r\n
$GPGGA,095647.85,5703.3647725,N,00952.1728662,E,2,11,0.9,-1.066,M,40.592,M,2.9,0123*66\r\n
$GPGGA,095647.90,5703.3648397,N,00952.1728712,E,2,11,0.9,-1.066,M,40.592,M,2.9,0123*66\r\n
$GPGGA,095647.95,5703.3649084,N,00952.1728736,E,2,11,0.9,-1.064,M,40.592,M,2.9,0123*67\r\n
$GPGGA,095648.00,5703.3649755,N,00952.1728732,E,2,11,0.9,-1.061,M,40.592,M,2.9,0123*6E\r\n
$GPGGA,095648.05,5703.3650427,N,00952.1728684,E,2,11,0.9,-1.060,M,40.592,M,3.1,0123*61\r\n
$GPGGA,095648.10,5703.3651110,N,00952.1728670,E,2,11,0.9,-1.059,M,40.592,M,3.1,0123*64\r\n
$GPGGA,095648.15,5703.3651797,N,00952.1728682,E,2,11,0.9,-1.061,M,40.592,M,3.1,0123*6E\r\n
$GPGGA,095648.20,5703.3652495,N,00952.1728705,E,2,11,0.9,-1.064,M,40.592,M,3.1,0123*61\r\n
$GPGGA,095648.25,5703.3653188,N,00952.1728703,E,2,11,0.9,-1.071,M,40.592,M,3.3,0123*6C\r\n
$GPGGA,095648.30,5703.3653887,N,00952.1728677,E,2,11,0.9,-1.070,M,40.592,M,3.3,0123*6D\r\n
$GPGGA,095648.35,5703.3654569,N,00952.1728636,E,2,11,0.9,-1.072,M,40.592,M,3.3,0123*65\r\n
$GPGGA,095648.40,5703.3655247,N,00952.1728591,E,2,11,0.9,-1.073,M,40.592,M,3.3,0123*62\r\n
$GPGGA,095648.45,5703.3655933,N,00952.1728556,E,2,11,0.9,-1.070,M,40.592,M,3.5,0123*61\r\n
$GPGGA,095648.50,5703.3656622,N,00952.1728513,E,2,11,0.9,-1.070,M,40.592,M,3.5,0123*68\r\n
$GPGGA,095648.55,5703.3657320,N,00952.1728468,E,2,11,0.9,-1.071,M,40.592,M,3.5,0123*67\r\n
$GPGGA,095648.60,5703.3658008,N,00952.1728420,E,2,11,0.9,-1.070,M,40.592,M,3.5,0123*6A\r\n
$GPGGA,095648.65,5703.3658686,N,00952.1728362,E,2,11,0.9,-1.069,M,40.592,M,1.1,0123*60\r\n
$GPGGA,095648.70,5703.3659370,N,00952.1728284,E,2,11,0.9,-1.064,M,40.592,M,1.1,0123*6D\r\n
$GPGGA,095648.75,5703.3660043,N,00952.1728202,E,2,11,0.9,-1.061,M,40.592,M,1.1,0123*6A\r\n
$GPGGA,095648.80,5703.3660720,N,00952.1728103,E,2,11,0.9,-1.058,M,40.592,M,1.1,0123*6A\r\n
$GPGGA,095648.85,5703.3661398,N,00952.1728020,E,2,11,0.9,-1.048,M,40.592,M,1.4,0123*6D\r\n
$GPGGA,095648.90,5703.3662076,N,00952.1727933,E,2,11,0.9,-1.043,M,40.592,M,1.4,0123*66\r\n
$GPGGA,095648.95,5703.3662754,N,00952.1727845,E,2,11,0.9,-1.037,M,40.592,M,1.4,0123*67\r\n
$GPGGA,095649.00,5703.3663450,N,00952.1727760,E,2,11,0.9,-1.035,M,40.592,M,1.4,0123*66\r\n
$GPGGA,095649.05,5703.3664142,N,00952.1727662,E,2,11,0.9,-1.036,M,40.592,M,1.6,0123*60\r\n
$GPGGA,095649.10,5703.3664834,N,00952.1727553,E,2,11,0.9,-1.043,M,40.592,M,1.6,0123*6F\r\n
$GPGGA,095649.15,5703.3665524,N,00952.1727423,E,2,11,0.9,-1.047,M,40.592,M,1.6,0123*65\r\n
$GPGGA,095649.20,5703.3666208,N,00952.1727275,E,2,11,0.9,-1.047,M,40.592,M,1.6,0123*6C\r\n
$GPGGA,095649.25,5703.3666904,N,00952.1727099,E,2,11,0.9,-1.050,M,40.592,M,1.9,0123*67\r\n
$GPGGA,095649.30,5703.3667601,N,00952.1726961,E,2,11,0.9,-1.051,M,40.592,M,1.9,0123*66\r\n
$GPGGA,095649.35,5703.3668289,N,00952.1726825,E,2,11,0.9,-1.057,M,40.592,M,1.9,0123*6F\r\n
$GPGGA,095649.40,5703.3668971,N,00952.1726687,E,2,11,0.9,-1.063,M,40.592,M,1.9,0123*60\r\n
$GPGGA,095649.45,5703.3669647,N,00952.1726526,E,2,11,0.9,-1.062,M,40.592,M,2.2,0123*6F\r\n
$GPGGA,095649.50,5703.3670316,N,00952.1726311,E,2,11,0.9,-1.060,M,40.592,M,2.2,0123*62\r\n
$GPGGA,095649.55,5703.3670986,N,00952.1726099,E,2,11,0.9,-1.056,M,40.592,M,2.2,0123*62\r\n
$GPGGA,095649.60,5703.3671653,N,00952.1725889,E,2,11,0.9,-1.054,M,40.592,M,2.2,0123*6A\r\n
$GPGGA,095649.65,5703.3672331,N,00952.1725701,E,2,11,0.9,-1.051,M,40.592,M,1.1,0123*67\r\n
$GPGGA,095649.70,5703.3673024,N,00952.1725524,E,2,11,0.9,-1.053,M,40.592,M,1.1,0123*62\r\n
$GPGGA,095649.75,5703.3673725,N,00952.1725317,E,2,11,0.9,-1.056,M,40.592,M,1.1,0123*62\r\n
$GPGGA,095649.80,5703.3674440,N,00952.1725094,E,2,11,0.9,-1.062,M,40.592,M,1.1,0123*60\r\n
$GPGGA,095649.85,5703.3675125,N,00952.1724860,E,2,11,0.9,-1.074,M,40.592,M,1.3,0123*65\r\n
$GPGGA,095649.90,5703.3675793,N,00952.1724594,E,2,11,0.9,-1.077,M,40.592,M,1.3,0123*6F\r\n
$GPGGA,095649.95,5703.3676454,N,00952.1724326,E,2,11,0.9,-1.071,M,40.592,M,1.3,0123*68\r\n
$GPGGA,095650.00,5703.3677111,N,00952.1724059,E,2,11,0.9,-1.066,M,40.592,M,1.3,0123*64\r\n
$GPGGA,095650.05,5703.3677760,N,00952.1723783,E,2,11,0.9,-1.063,M,40.592,M,1.6,0123*66\r\n
$GPGGA,095650.10,5703.3678412,N,00952.1723495,E,2,11,0.9,-1.057,M,40.592,M,1.6,0123*68\r\n
$GPGGA,095650.15,5703.3679079,N,00952.1723189,E,2,11,0.9,-1.051,M,40.592,M,1.6,0123*6B\r\n
$GPGGA,095650.20,5703.3679758,N,00952.1722879,E,2,11,0.9,-1.050,M,40.592,M,1.6,0123*6F\r\n
$GPGGA,095650.25,5703.3680444,N,00952.1722551,E,2,11,0.9,-1.048,M,40.592,M,1.8,0123*62\r\n
$GPGGA,095650.30,5703.3681123,N,00952.1722184,E,2,11,0.9,-1.053,M,40.592,M,1.8,0123*65\r\n
$GPGGA,095650.35,5703.3681792,N,00952.1721807,E,2,11,0.9,-1.057,M,40.592,M,1.8,0123*69\r\n
$GPGGA,095650.40,5703.3682459,N,00952.1721437,E,2,11,0.9,-1.056,M,40.592,M,1.8,0123*62\r\n
$GPGGA,095650.45,5703.3683122,N,00952.1721068,E,2,11,0.9,-1.055,M,40.592,M,2.0,0123*69\r\n
$GPGGA,095650.50,5703.3683811,N,00952.1720721,E,2,11,0.9,-1.056,M,40.592,M,2.0,0123*6C\r\n
$GPGGA,095650.55,5703.3684490,N,00952.1720382,E,2,11,0.9,-1.062,M,40.592,M,2.0,0123*61\r\n
$GPGGA,095650.60,5703.3685168,N,00952.1720024,E,2,11,0.9,-1.071,M,40.592,M,2.0,0123*69\r\n
$GPGGA,095650.65,5703.3685836,N,00952.1719622,E,2,11,0.9,-1.080,M,40.592,M,1.4,0123*6D\r\n
$GPGGA,095650.70,5703.3686500,N,00952.1719169,E,2,11,0.9,-1.080,M,40.592,M,1.4,0123*6A\r\n
$GPGGA,095650.75,5703.3687148,N,00952.1718677,E,2,11,0.9,-1.074,M,40.592,M,1.4,0123*64\r\n
$GPGGA,095650.80,5703.3687783,N,00952.1718172,E,2,11,0.9,-1.069,M,40.592,M,1.4,0123*61\r\n
$GPGGA,095650.85,5703.3688427,N,00952.1717695,E,2,11,0.9,-1.065,M,40.592,M,1.7,0123*68\r\n
$GPGGA,095650.90,5703.3689078,N,00952.1717224,E,2,11,0.9,-1.063,M,40.592,M,1.7,0123*6B\r\n
$GPGGA,095650.95,5703.3689740,N,00952.1716744,E,2,11,0.9,-1.063,M,40.592,M,1.7,0123*60\r\n
$GPGGA,095651.00,5703.3690412,N,00952.1716242,E,2,11,0.9,-1.065,M,40.592,M,1.7,0123*64\r\n
$GPGGA,095651.05,5703.3691082,N,00952.1715698,E,2,11,0.9,-1.070,M,40.592,M,1.9,0123*67\r\n
$GPGGA,095651.10,5703.3691733,N,00952.1715124,E,2,11,0.9,-1.075,M,40.592,M,1.9,0123*6B\r\n
$GPGGA,095651.15,5703.3692373,N,00952.1714543,E,2,11,0.9,-1.076,M,40.592,M,1.9,0123*6A\r\n
$GPGGA,095651.20,5703.3693001,N,00952.1713942,E,2,11,0.9,-1.075,M,40.592,M,1.9,0123*62\r\n
$GPGGA,095651.25,5703.3693631,N,00952.1713333,E,2,11,0.9,-1.065,M,40.592,M,2.2,0123*67\r\n
$GPGGA,095651.30,5703.3694248,N,00952.1712717,E,2,11,0.9,-1.059,M,40.592,M,2.2,0123*62\r\n
$GPGGA,095651.35,5703.3694869,N,00952.1712100,E,2,11,0.9,-1.050,M,40.592,M,2.2,0123*67\r\n
$GPGGA,095651.40,5703.3695481,N,00952.1711461,E,2,11,0.9,-1.046,M,40.592,M,2.2,0123*68\r\n
$GPGGA,095651.45,5703.3696096,N,00952.1710790,E,2,11,0.9,-1.045,M,40.592,M,2.4,0123*65\r\n
$GPGGA,095651.50,5703.3696709,N,00952.1710098,E,2,11,0.9,-1.043,M,40.592,M,2.4,0123*69\r\n
$GPGGA,095651.55,5703.3697337,N,00952.1709385,E,2,11,0.9,-1.045,M,40.592,M,2.4,0123*65\r\n
$GPGGA,095651.60,5703.3697955,N,00952.1708677,E,2,11,0.9,-1.050,M,40.592,M,2.4,0123*60\r\n
$GPGGA,095651.65,5703.3698571,N,00952.1707947,E,2,11,0.9,-1.050,M,40.592,M,2.6,0123*61\r\n
$GPGGA,095651.70,5703.3699176,N,00952.1707208,E,2,11,0.9,-1.051,M,40.592,M,2.6,0123*66\r\n
$GPGGA,095651.75,5703.3699785,N,00952.1706466,E,2,11,0.9,-1.052,M,40.592,M,2.6,0123*65\r\n
$GPGGA,095651.80,5703.3700396,N,00952.1705725,E,2,11,0.9,-1.054,M,40.592,M,2.6,0123*69\r\n
$GPGGA,095651.85,5703.3700995,N,00952.1704959,E,2,11,0.9,-1.058,M,40.592,M,2.9,0123*62\r\n
$GPGGA,095651.90,5703.3701599,N,00952.1704153,E,2,11,0.9,-1.060,M,40.592,M,2.9,0123*6E\r\n
$GPGGA,095651.95,5703.3702192,N,00952.1703303,E,2,11,0.9,-1.062,M,40.592,M,2.9,0123*65\r\n
$GPGGA,095652.00,5703.3702759,N,00952.1702466,E,2,11,0.9,-1.067,M,40.592,M,2.9,0123*6B\r\n
$GPGGA,095652.05,5703.3703318,N,00952.1701597,E,2,11,0.9,-1.066,M,40.592,M,3.1,0123*6A\r\n
$GPGGA,095652.10,5703.3703878,N,00952.1700718,E,2,11,0.9,-1.064,M,40.592,M,3.1,0123*65\r\n
$GPGGA,095652.15,5703.3704424,N,00952.1699815,E,2,11,0.9,-1.063,M,40.592,M,3.1,0123*66\r\n
$GPGGA,095652.20,5703.3704970,N,00952.1698920,E,2,11,0.9,-1.058,M,40.592,M,3.1,0123*62\r\n
$GPGGA,095652.25,5703.3705505,N,00952.1698021,E,2,11,0.9,-1.062,M,40.592,M,3.3,0123*6B\r\n
$GPGGA,095652.30,5703.3706052,N,00952.1697112,E,2,11,0.9,-1.064,M,40.592,M,3.3,0123*63\r\n
$GPGGA,095652.35,5703.3706604,N,00952.1696190,E,2,11,0.9,-1.062,M,40.592,M,3.3,0123*6E\r\n
$GPGGA,095652.40,5703.3707146,N,00952.1695252,E,2,11,0.9,-1.063,M,40.592,M,3.3,0123*63\r\n
$GPGGA,095652.45,5703.3707655,N,00952.1694283,E,2,11,0.9,-1.072,M,40.592,M,3.5,0123*68\r\n
$GPGGA,095652.50,5703.3708161,N,00952.1693291,E,2,11,0.9,-1.075,M,40.592,M,3.5,0123*60\r\n
$GPGGA,095652.55,5703.3708644,N,00952.1692280,E,2,11,0.9,-1.076,M,40.592,M,3.5,0123*67\r\n
$GPGGA,095652.60,5703.3709124,N,00952.1691253,E,2,11,0.9,-1.070,M,40.592,M,3.5,0123*6A\r\n
$GPGGA,095652.65,5703.3709602,N,00952.1690219,E,2,11,0.9,-1.062,M,40.592,M,1.1,0123*66\r\n
$GPGGA,095652.70,5703.3710076,N,00952.1689170,E,2,11,0.9,-1.059,M,40.592,M,1.1,0123*63\r\n
$GPGGA,095652.75,5703.3710526,N,00952.1688103,E,2,11,0.9,-1.058,M,40.592,M,1.1,0123*62\r\n
$GPGGA,095652.80,5703.3710967,N,00952.1687031,E,2,11,0.9,-1.054,M,40.592,M,1.1,0123*62\r\n
$GPGGA,095652.85,5703.3711418,N,00952.1685945,E,2,11,0.9,-1.051,M,40.592,M,1.4,0123*6B\r\n
$GPGGA,095652.90,5703.3711869,N,00952.1684845,E,2,11,0.9,-1.049,M,40.592,M,1.4,0123*6C\r\n
$GPGGA,095652.95,5703.3712311,N,00952.1683738,E,2,11,0.9,-1.051,M,40.592,M,1.4,0123*65\r\n
$GPGGA,095653.00,5703.3712748,N,00952.1682622,E,2,11,0.9,-1.056,M,40.592,M,1.4,0123*6C\r\n
$GPGGA,095653.05,5703.3713182,N,00952.1681471,E,2,11,0.9,-1.063,M,40.592,M,1.6,0123*6B\r\n
$GPGGA,095653.10,5703.3713606,N,00952.1680310,E,2,11,0.9,-1.064,M,40.592,M,1.6,0123*62\r\n
$GPGGA,095653.15,5703.3714013,N,00952.1679149,E,2,11,0.9,-1.067,M,40.592,M,1.6,0123*69\r\n
$GPGGA,095653.20,5703.3714399,N,00952.1677969,E,2,11,0.9,-1.073,M,40.592,M,1.6,0123*6F\r\n
$GPGGA,095653.25,5703.3714760,N,00952.1676756,E,2,11,0.9,-1.081,M,40.592,M,1.9,0123*69\r\n
$GPGGA,095653.30,5703.3715114,N,00952.1675520,E,2,11,0.9,-1.085,M,40.592,M,1.9,0123*6D\r\n
$GPGGA,095653.35,5703.3715456,N,00952.1674250,E,2,11,0.9,-1.088,M,40.592,M,1.9,0123*67\r\n
$GPGGA,095653.40,5703.3715776,N,00952.1672979,E,2,11,0.9,-1.089,M,40.592,M,1.9,0123*63\r\n
$GPGGA,095653.45,5703.3716083,N,00952.1671710,E,2,11,0.9,-1.085,M,40.592,M,2.2,0123*6E\r\n
$GPGGA,095653.50,5703.3716383,N,00952.1670452,E,2,11,0.9,-1.085,M,40.592,M,2.2,0123*6D\r\n
$GPGGA,095653.55,5703.3716683,N,00952.1669196,E,2,11,0.9,-1.080,M,40.592,M,2.2,0123*6D\r\n
$GPGGA,095653.60,5703.3716963,N,00952.1667916,E,2,11,0.9,-1.076,M,40.592,M,2.2,0123*6D\r\n
$GPGGA,095653.65,5703.3717220,N,00952.1666630,E,2,11,0.9,-1.072,M,40.592,M,1.1,0123*6B\r\n
$GPGGA,095653.70,5703.3717491,N,00952.1665342,E,2,11,0.9,-1.068,M,40.592,M,1.1,0123*6B\r\n
$GPGGA,095653.75,5703.3717742,N,00952.1664032,E,2,11,0.9,-1.067,M,40.592,M,1.1,0123*69\r\n
$GPGGA,095653.80,5703.3717976,N,00952.1662712,E,2,11,0.9,-1.065,M,40.592,M,1.1,0123*6B\r\n
$GPGGA,095653.85,5703.3718203,N,00952.1661393,E,2,11,0.9,-1.067,M,40.592,M,1.3,0123*66\r\n
$GPGGA,095653.90,5703.3718413,N,00952.1660067,E,2,11,0.9,-1.067,M,40.592,M,1.3,0123*6C\r\n
$GPGGA,095653.95,5703.3718617,N,00952.1658728,E,2,11,0.9,-1.071,M,40.592,M,1.3,0123*6F\r\n
