$GPGGA,113149.40,5703.4485661,N,00952.4389421,E,2,10,0.8,-1.872,M,40.593,M,2.7,0123*6E\r\n
$GPGGA,113149.45,5703.4485846,N,00952.4389062,E,2,10,0.8,-1.870,M,40.593,M,1.0,0123*65\r\n
$GPGGA,113149.50,5703.4486036,N,00952.4388699,E,2,10,0.8,-1.870,M,40.593,M,1.0,0123*6E\r\n
$GPGGA,113149.55,5703.4486232,N,00952.4388352,E,2,10,0.8,-1.870,M,40.593,M,1.0,0123*6F\r\n
$GPGGA,113149.60,5703.4486427,N,00952.4388009,E,2,10,0.8,-1.872,M,40.593,M,1.0,0123*64\r\n
$GPGGA,113149.65,5703.4486620,N,00952.4387664,E,2,10,0.8,-1.875,M,40.593,M,1.4,0123*65\r\n
$GPGGA,113149.70,5703.4486815,N,00952.4387323,E,2,10,0.8,-1.876,M,40.593,M,1.4,0123*6C\r\n
$GPGGA,113149.75,5703.4487012,N,00952.4386981,E,2,10,0.8,-1.876,M,40.593,M,1.4,0123*64\r\n
$GPGGA,113149.80,5703.4487215,N,00952.4386644,E,2,10,0.8,-1.879,M,40.593,M,1.4,0123*62\r\n
$GPGGA,113149.85,5703.4487417,N,00952.4386305,E,2,10,0.8,-1.879,M,40.593,M,1.7,0123*60\r\n
$GPGGA,113149.90,5703.4487618,N,00952.4385937,E,2,10,0.8,-1.880,M,40.593,M,1.7,0123*67\r\n
$GPGGA,113149.95,5703.4487818,N,00952.4385557,E,2,10,0.8,-1.881,M,40.593,M,1.7,0123*67\r\n
$GPGGA,113150.00,5703.4488007,N,00952.4385192,E,2,10,0.8,-1.885,M,40.593,M,1.7,0123*63\r\n
$GPGGA,113150.05,5703.4488212,N,00952.4384784,E,2,10,0.8,-1.886,M,40.593,M,2.0,0123*67\r\n
$GPGGA,113150.10,5703.4488405,N,00952.4384392,E,2,10,0.8,-1.886,M,40.593,M,2.0,0123*60\r\n
$GPGGA,113150.15,5703.4488599,N,00952.4383998,E,2,10,0.8,-1.886,M,40.593,M,2.0,0123*66\r\n
$GPGGA,113150.20,5703.4488793,N,00952.4383618,E,2,10,0.8,-1.887,M,40.593,M,2.0,0123*6E\r\n
$GPGGA,113150.25,5703.4488981,N,00952.4383261,E,2,10,0.8,-1.890,M,40.593,M,2.3,0123*69\r\n
$GPGGA,113150.30,5703.4489168,N,00952.4382892,E,2,10,0.8,-1.890,M,40.593,M,2.3,0123*64\r\n
$GPGGA,113150.35,5703.4489354,N,00952.4382514,E,2,10,0.8,-1.889,M,40.593,M,2.3,0123*67\r\n
$GPGGA,113150.40,5703.4489551,N,00952.4382136,E,2,10,0.8,-1.884,M,40.593,M,2.3,0123*6F\r\n
$GPGGA,113150.45,5703.4489730,N,00952.4381769,E,2,10,0.8,-1.881,M,40.593,M,1.2,0123*67\r\n
$GPGGA,113150.50,5703.4489915,N,00952.4381401,E,2,10,0.8,-1.878,M,40.593,M,1.2,0123*61\r\n
$GPGGA,113150.55,5703.4490105,N,00952.4381034,E,2,10,0.8,-1.878,M,40.593,M,1.2,0123*67\r\n
$GPGGA,113150.60,5703.4490288,N,00952.4380669,E,2,10,0.8,-1.874,M,40.593,M,1.2,0123*64\r\n
$GPGGA,113150.65,5703.4490487,N,00952.4380301,E,2,10,0.8,-1.870,M,40.593,M,1.6,0123*63\r\n
$GPGGA,113150.70,5703.4490685,N,00952.4379947,E,2,10,0.8,-1.869,M,40.593,M,1.6,0123*61\r\n
$GPGGA,113150.75,5703.4490875,N,00952.4379594,E,2,10,0.8,-1.870,M,40.593,M,1.6,0123*6F\r\n
$GPGGA,113150.80,5703.4491064,N,00952.4379230,E,2,10,0.8,-1.868,M,40.593,M,1.6,0123*6C\r\n
$GPGGA,113150.85,5703.4491254,N,00952.4378855,E,2,10,0.8,-1.867,M,40.593,M,1.9,0123*60\r\n
$GPGGA,113150.90,5703.4491457,N,00952.4378482,E,2,10,0.8,-1.865,M,40.593,M,1.9,0123*65\r\n
$GPGGA,113150.95,5703.4491653,N,00952.4378114,E,2,10,0.8,-1.865,M,40.593,M,1.9,0123*6C\r\n
$GPGGA,113151.00,5703.4491850,N,00952.4377759,E,2,10,0.8,-1.864,M,40.593,M,1.9,0123*6D\r\n
$GPGGA,113151.05,5703.4492055,N,00952.4377383,E,2,10,0.8,-1.863,M,40.593,M,2.2,0123*6A\r\n
$GPGGA,113151.10,5703.4492248,N,00952.4377025,E,2,10,0.8,-1.862,M,40.593,M,2.2,0123*6E\r\n
$GPGGA,113151.15,5703.4492441,N,00952.4376651,E,2,10,0.8,-1.862,M,40.593,M,2.2,0123*60\r\n
$GPGGA,113151.20,5703.4492635,N,00952.4376283,E,2,10,0.8,-1.865,M,40.593,M,2.2,0123*6B\r\n
$GPGGA,113151.25,5703.4492817,N,00952.4375901,E,2,10,0.8,-1.869,M,40.593,M,2.5,0123*69\r\n
$GPGGA,113151.30,5703.4493009,N,00952.4375541,E,2,10,0.8,-1.871,M,40.593,M,2.5,0123*6A\r\n
$GPGGA,113151.35,5703.4493193,N,00952.4375169,E,2,10,0.8,-1.871,M,40.593,M,2.5,0123*63\r\n
$GPGGA,113151.40,5703.4493387,N,00952.4374802,E,2,10,0.8,-1.871,M,40.593,M,2.5,0123*63\r\n
$GPGGA,113151.45,5703.4493578,N,00952.4374434,E,2,10,0.8,-1.873,M,40.593,M,0.6,0123*6A\r\n
$GPGGA,113151.50,5703.4493760,N,00952.4374059,E,2,10,0.8,-1.873,M,40.593,M,0.6,0123*6A\r\n
$GPGGA,113151.55,5703.4493939,N,00952.4373698,E,2,10,0.8,-1.871,M,40.593,M,0.6,0123*63\r\n
$GPGGA,113151.60,5703.4494116,N,00952.4373322,E,2,10,0.8,-1.870,M,40.593,M,0.6,0123*62\r\n
$GPGGA,113151.65,5703.4494298,N,00952.4372955,E,2,10,0.8,-1.870,M,40.593,M,0.9,0123*66\r\n
$GPGGA,113151.70,5703.4494481,N,00952.4372576,E,2,10,0.8,-1.870,M,40.593,M,0.9,0123*61\r\n
$GPGGA,113151.75,5703.4494661,N,00952.4372207,E,2,10,0.8,-1.871,M,40.593,M,0.9,0123*68\r\n
$GPGGA,113151.80,5703.4494838,N,00952.4371834,E,2,10,0.8,-1.872,M,40.593,M,0.9,0123*6A\r\n
$GPGGA,113151.85,5703.4495015,N,00952.4371456,E,2,10,0.8,-1.874,M,40.593,M,1.1,0123*6E\r\n
$GPGGA,113151.90,5703.4495199,N,00952.4371099,E,2,10,0.8,-1.875,M,40.593,M,1.1,0123*69\r\n
$GPGGA,113151.95,5703.4495385,N,00952.4370733,E,2,10,0.8,-1.874,M,40.593,M,1.1,0123*64\r\n
$GPGGA,113152.00,5703.4495568,N,00952.4370364,E,2,10,0.8,-1.873,M,40.593,M,1.1,0123*6F\r\n
$GPGGA,113152.05,5703.4495757,N,00952.4369987,E,2,10,0.8,-1.870,M,40.593,M,1.4,0123*6D\r\n
$GPGGA,113152.10,5703.4495944,N,00952.4369610,E,2,10,0.8,-1.868,M,40.593,M,1.4,0123*6D\r\n
$GPGGA,113152.15,5703.4496135,N,00952.4369259,E,2,10,0.8,-1.869,M,40.593,M,1.4,0123*6D\r\n
$GPGGA,113152.20,5703.4496325,N,00952.4368881,E,2,10,0.8,-1.869,M,40.593,M,1.4,0123*66\r\n
$GPGGA,113152.25,5703.4496500,N,00952.4368517,E,2,10,0.8,-1.873,M,40.593,M,1.6,0123*69\r\n
$GPGGA,113152.30,5703.4496678,N,00952.4368151,E,2,10,0.8,-1.874,M,40.593,M,1.6,0123*60\r\n
$GPGGA,113152.35,5703.4496863,N,00952.4367787,E,2,10,0.8,-1.874,M,40.593,M,1.6,0123*63\r\n
$GPGGA,113152.40,5703.4497042,N,00952.4367424,E,2,10,0.8,-1.877,M,40.593,M,1.6,0123*62\r\n
$GPGGA,113152.45,5703.4497223,N,00952.4367048,E,2,10,0.8,-1.879,M,40.593,M,1.8,0123*6C\r\n
$GPGGA,113152.50,5703.4497408,N,00952.4366680,E,2,10,0.8,-1.879,M,40.593,M,1.8,0123*64\r\n
$GPGGA,113152.55,5703.4497594,N,00952.4366313,E,2,10,0.8,-1.879,M,40.593,M,1.8,0123*6A\r\n
$GPGGA,113152.60,5703.4497775,N,00952.4365944,E,2,10,0.8,-1.881,M,40.593,M,1.8,0123*6D\r\n
$GPGGA,113152.65,5703.4497952,N,00952.4365581,E,2,10,0.8,-1.879,M,40.593,M,2.1,0123*6B\r\n
$GPGGA,113152.70,5703.4498128,N,00952.4365215,E,2,10,0.8,-1.879,M,40.593,M,2.1,0123*6F\r\n
$GPGGA,113152.75,5703.4498304,N,00952.4364861,E,2,10,0.8,-1.880,M,40.593,M,2.1,0123*68\r\n
$GPGGA,113152.80,5703.4498484,N,00952.4364490,E,2,10,0.8,-1.880,M,40.593,M,2.1,0123*6F\r\n
$GPGGA,113152.85,5703.4498676,N,00952.4364109,E,2,10,0.8,-1.878,M,40.593,M,2.3,0123*65\r\n
$GPGGA,113152.90,5703.4498860,N,00952.4363739,E,2,10,0.8,-1.879,M,40.593,M,2.3,0123*6B\r\n
$GPGGA,113152.95,5703.4499035,N,00952.4363369,E,2,10,0.8,-1.881,M,40.593,M,2.3,0123*61\r\n
$GPGGA,113153.00,5703.4499218,N,00952.4362992,E,2,10,0.8,-1.880,M,40.593,M,2.3,0123*6F\r\n
$GPGGA,113153.05,5703.4499404,N,00952.4362614,E,2,10,0.8,-1.880,M,40.593,M,2.5,0123*66\r\n
$GPGGA,113153.10,5703.4499586,N,00952.4362228,E,2,10,0.8,-1.880,M,40.593,M,2.5,0123*62\r\n
$GPGGA,113153.15,5703.4499775,N,00952.4361857,E,2,10,0.8,-1.879,M,40.593,M,2.5,0123*6E\r\n
$GPGGA,113153.20,5703.4499954,N,00952.4361473,E,2,10,0.8,-1.881,M,40.593,M,2.5,0123*68\r\n
$GPGGA,113153.25,5703.4500134,N,00952.4361095,E,2,10,0.8,-1.884,M,40.593,M,2.7,0123*69\r\n
$GPGGA,113153.30,5703.4500314,N,00952.4360733,E,2,10,0.8,-1.885,M,40.593,M,2.7,0123*66\r\n
$GPGGA,113153.35,5703.4500503,N,00952.4360343,E,2,10,0.8,-1.884,M,40.593,M,2.7,0123*61\r\n
$GPGGA,113153.40,5703.4500687,N,00952.4359954,E,2,10,0.8,-1.883,M,40.593,M,2.7,0123*6D\r\n
$GPGGA,113153.45,5703.4500866,N,00952.4359572,E,2,10,0.8,-1.880,M,40.593,M,1.0,0123*66\r\n
$GPGGA,113153.50,5703.4501041,N,00952.4359188,E,2,10,0.8,-1.880,M,40.593,M,1.0,0123*6F\r\n
$GPGGA,113153.55,5703.4501213,N,00952.4358800,E,2,10,0.8,-1.881,M,40.593,M,1.0,0123*66\r\n
$GPGGA,113153.60,5703.4501398,N,00952.4358427,E,2,10,0.8,-1.880,M,40.593,M,1.0,0123*6A\r\n
$GPGGA,113153.65,5703.4501580,N,00952.4358050,E,2,10,0.8,-1.878,M,40.593,M,1.4,0123*67\r\n
$GPGGA,113153.70,5703.4501761,N,00952.4357679,E,2,10,0.8,-1.878,M,40.593,M,1.4,0123*6C\r\n
$GPGGA,113153.75,5703.4501927,N,00952.4357295,E,2,10,0.8,-1.878,M,40.593,M,1.4,0123*63\r\n
$GPGGA,113153.80,5703.4502107,N,00952.4356915,E,2,10,0.8,-1.877,M,40.593,M,1.4,0123*6D\r\n
$GPGGA,113153.85,5703.4502282,N,00952.4356538,E,2,10,0.8,-1.876,M,40.593,M,1.7,0123*67\r\n
$GPGGA,113153.90,5703.4502459,N,00952.4356158,E,2,10,0.8,-1.876,M,40.593,M,1.7,0123*61\r\n
$GPGGA,113153.95,5703.4502633,N,00952.4355784,E,2,10,0.8,-1.876,M,40.593,M,1.7,0123*6E\r\n
$GPGGA,113154.00,5703.4502808,N,00952.4355405,E,2,10,0.8,-1.876,M,40.593,M,1.7,0123*69\r\n
$GPGGA,113154.05,5703.4502992,N,00952.4355016,E,2,10,0.8,-1.876,M,40.593,M,2.0,0123*6C\r\n
$GPGGA,113154.10,5703.4503163,N,00952.4354635,E,2,10,0.8,-1.875,M,40.593,M,2.0,0123*6A\r\n
$GPGGA,113154.15,5703.4503334,N,00952.4354254,E,2,10,0.8,-1.872,M,40.593,M,2.0,0123*6B\r\n
$GPGGA,113154.20,5703.4503510,N,00952.4353865,E,2,10,0.8,-1.871,M,40.593,M,2.0,0123*61\r\n
$GPGGA,113154.25,5703.4503685,N,00952.4353481,E,2,10,0.8,-1.871,M,40.593,M,2.3,0123*6E\r\n
$GPGGA,113154.30,5703.4503862,N,00952.4353104,E,2,10,0.8,-1.871,M,40.593,M,2.3,0123*65\r\n
$GPGGA,113154.35,5703.4504032,N,00952.4352726,E,2,10,0.8,-1.874,M,40.593,M,2.3,0123*68\r\n
$GPGGA,113154.40,5703.4504192,N,00952.4352339,E,2,10,0.8,-1.877,M,40.593,M,2.3,0123*68\r\n
$GPGGA,113154.45,5703.4504357,N,00952.4351952,E,2,10,0.8,-1.878,M,40.593,M,1.2,0123*6F\r\n
$GPGGA,113154.50,5703.4504521,N,00952.4351567,E,2,10,0.8,-1.879,M,40.593,M,1.2,0123*67\r\n
$GPGGA,113154.55,5703.4504699,N,00952.4351180,E,2,10,0.8,-1.876,M,40.593,M,1.2,0123*60\r\n
$GPGGA,113154.60,5703.4504869,N,00952.4350810,E,2,10,0.8,-1.876,M,40.593,M,1.2,0123*66\r\n
$GPGGA,113154.65,5703.4505041,N,00952.4350436,E,2,10,0.8,-1.876,M,40.593,M,1.6,0123*6C\r\n
$GPGGA,113154.70,5703.4505216,N,00952.4350064,E,2,10,0.8,-1.875,M,40.593,M,1.6,0123*68\r\n
$GPGGA,113154.75,5703.4505382,N,00952.4349708,E,2,10,0.8,-1.874,M,40.593,M,1.6,0123*65\r\n
$GPGGA,113154.80,5703.4505554,N,00952.4349341,E,2,10,0.8,-1.875,M,40.593,M,1.6,0123*6A\r\n
$GPGGA,113154.85,5703.4505726,N,00952.4348956,E,2,10,0.8,-1.876,M,40.593,M,1.9,0123*69\r\n
$GPGGA,113154.90,5703.4505891,N,00952.4348556,E,2,10,0.8,-1.877,M,40.593,M,1.9,0123*63\r\n
$GPGGA,113154.95,5703.4506042,N,00952.4348164,E,2,10,0.8,-1.881,M,40.593,M,1.9,0123*6F\r\n
$GPGGA,113155.00,5703.4506195,N,00952.4347772,E,2,10,0.8,-1.883,M,40.593,M,1.9,0123*65\r\n
$GPGGA,113155.05,5703.4506362,N,00952.4347386,E,2,10,0.8,-1.884,M,40.593,M,2.2,0123*6A\r\n
$GPGGA,113155.10,5703.4506524,N,00952.4346996,E,2,10,0.8,-1.884,M,40.593,M,2.2,0123*60\r\n
$GPGGA,113155.15,5703.4506672,N,00952.4346632,E,2,10,0.8,-1.888,M,40.593,M,2.2,0123*68\r\n
$GPGGA,113155.20,5703.4506833,N,00952.4346247,E,2,10,0.8,-1.887,M,40.593,M,2.2,0123*6C\r\n
$GPGGA,113155.25,5703.4506999,N,00952.4345867,E,2,10,0.8,-1.885,M,40.593,M,2.5,0123*66\r\n
$GPGGA,113155.30,5703.4507169,N,00952.4345495,E,2,10,0.8,-1.884,M,40.593,M,2.5,0123*64\r\n
$GPGGA,113155.35,5703.4507332,N,00952.4345122,E,2,10,0.8,-1.884,M,40.593,M,2.5,0123*64\r\n
$GPGGA,113155.40,5703.4507487,N,00952.4344758,E,2,10,0.8,-1.883,M,40.593,M,2.5,0123*62\r\n
$GPGGA,113155.45,5703.4507655,N,00952.4344383,E,2,10,0.8,-1.884,M,40.593,M,0.6,0123*6E\r\n
$GPGGA,113155.50,5703.4507824,N,00952.4344011,E,2,10,0.8,-1.884,M,40.593,M,0.6,0123*6A\r\n
$GPGGA,113155.55,5703.4507988,N,00952.4343646,E,2,10,0.8,-1.885,M,40.593,M,0.6,0123*6A\r\n
$GPGGA,113155.60,5703.4508154,N,00952.4343271,E,2,10,0.8,-1.886,M,40.593,M,0.6,0123*69\r\n
$GPGGA,113155.65,5703.4508321,N,00952.4342897,E,2,10,0.8,-1.882,M,40.593,M,0.9,0123*64\r\n
$GPGGA,113155.70,5703.4508490,N,00952.4342522,E,2,10,0.8,-1.880,M,40.593,M,0.9,0123*6C\r\n
$GPGGA,113155.75,5703.4508650,N,00952.4342157,E,2,10,0.8,-1.879,M,40.593,M,0.9,0123*67\r\n
$GPGGA,113155.80,5703.4508825,N,00952.4341786,E,2,10,0.8,-1.876,M,40.593,M,0.9,0123*67\r\n
$GPGGA,113155.85,5703.4508987,N,00952.4341410,E,2,10,0.8,-1.877,M,40.593,M,1.1,0123*6F\r\n
$GPGGA,113155.90,5703.4509149,N,00952.4341049,E,2,10,0.8,-1.879,M,40.593,M,1.1,0123*66\r\n
$GPGGA,113155.95,5703.4509315,N,00952.4340694,E,2,10,0.8,-1.880,M,40.593,M,1.1,0123*69\r\n
$GPGGA,113156.00,5703.4509472,N,00952.4340329,E,2,10,0.8,-1.880,M,40.593,M,1.1,0123*63\r\n
$GPGGA,113156.05,5703.4509646,N,00952.4339948,E,2,10,0.8,-1.878,M,40.593,M,1.4,0123*62\r\n
$GPGGA,113156.10,5703.4509807,N,00952.4339576,E,2,10,0.8,-1.878,M,40.593,M,1.4,0123*6C\r\n
$GPGGA,113156.15,5703.4509974,N,00952.4339220,E,2,10,0.8,-1.878,M,40.593,M,1.4,0123*68\r\n
$GPGGA,113156.20,5703.4510141,N,00952.4338857,E,2,10,0.8,-1.881,M,40.593,M,1.4,0123*65\r\n
$GPGGA,113156.25,5703.4510298,N,00952.4338491,E,2,10,0.8,-1.879,M,40.593,M,1.6,0123*64\r\n
$GPGGA,113156.30,5703.4510463,N,00952.4338127,E,2,10,0.8,-1.879,M,40.593,M,1.6,0123*6A\r\n
$GPGGA,113156.35,5703.4510623,N,00952.4337741,E,2,10,0.8,-1.881,M,40.593,M,1.6,0123*67\r\n
$GPGGA,113156.40,5703.4510787,N,00952.4337370,E,2,10,0.8,-1.882,M,40.593,M,1.6,0123*6F\r\n
$GPGGA,113156.45,5703.4510963,N,00952.4336996,E,2,10,0.8,-1.878,M,40.593,M,1.8,0123*66\r\n
$GPGGA,113156.50,5703.4511129,N,00952.4336641,E,2,10,0.8,-1.877,M,40.593,M,1.8,0123*6F\r\n
$GPGGA,113156.55,5703.4511294,N,00952.4336275,E,2,10,0.8,-1.877,M,40.593,M,1.8,0123*6C\r\n
$GPGGA,113156.60,5703.4511457,N,00952.4335903,E,2,10,0.8,-1.879,M,40.593,M,1.8,0123*64\r\n
$GPGGA,113156.65,5703.4511615,N,00952.4335531,E,2,10,0.8,-1.883,M,40.593,M,2.1,0123*67\r\n
$GPGGA,113156.70,5703.4511776,N,00952.4335172,E,2,10,0.8,-1.884,M,40.593,M,2.1,0123*63\r\n
$GPGGA,113156.75,5703.4511950,N,00952.4334810,E,2,10,0.8,-1.883,M,40.593,M,2.1,0123*67\r\n
$GPGGA,113156.80,5703.4512115,N,00952.4334435,E,2,10,0.8,-1.883,M,40.593,M,2.1,0123*6C\r\n
$GPGGA,113156.85,5703.4512277,N,00952.4334066,E,2,10,0.8,-1.882,M,40.593,M,2.3,0123*6F\r\n
$GPGGA,113156.90,5703.4512442,N,00952.4333699,E,2,10,0.8,-1.884,M,40.593,M,2.3,0123*6C\r\n
$GPGGA,113156.95,5703.4512603,N,00952.4333336,E,2,10,0.8,-1.885,M,40.593,M,2.3,0123*6F\r\n
$GPGGA,113157.00,5703.4512766,N,00952.4332974,E,2,10,0.8,-1.884,M,40.593,M,2.3,0123*6C\r\n
$GPGGA,113157.05,5703.4512933,N,00952.4332605,E,2,10,0.8,-1.888,M,40.593,M,2.5,0123*64\r\n
$GPGGA,113157.10,5703.4513098,N,00952.4332234,E,2,10,0.8,-1.888,M,40.593,M,2.5,0123*6F\r\n
$GPGGA,113157.15,5703.4513260,N,00952.4331873,E,2,10,0.8,-1.889,M,40.593,M,2.5,0123*64\r\n
$GPGGA,113157.20,5703.4513423,N,00952.4331510,E,2,10,0.8,-1.888,M,40.593,M,2.5,0123*6A\r\n
$GPGGA,113157.25,5703.4513582,N,00952.4331141,E,2,10,0.8,-1.882,M,40.593,M,2.7,0123*6D\r\n
$GPGGA,113157.30,5703.4513743,N,00952.4330774,E,2,10,0.8,-1.881,M,40.593,M,2.7,0123*64\r\n
$GPGGA,113157.35,5703.4513910,N,00952.4330412,E,2,10,0.8,-1.881,M,40.593,M,2.7,0123*6A\r\n
$GPGGA,113157.40,5703.4514074,N,00952.4330040,E,2,10,0.8,-1.882,M,40.593,M,2.7,0123*64\r\n
$GPGGA,113157.45,5703.4514233,N,00952.4329673,E,2,10,0.8,-1.886,M,40.593,M,2.9,0123*64\r\n
$GPGGA,113157.50,5703.4514389,N,00952.4329317,E,2,10,0.8,-1.887,M,40.593,M,2.9,0123*66\r\n
$GPGGA,113157.55,5703.4514546,N,00952.4328956,E,2,10,0.8,-1.887,M,40.593,M,2.9,0123*68\r\n
$GPGGA,113157.60,5703.4514704,N,00952.4328585,E,2,10,0.8,-1.886,M,40.593,M,2.9,0123*69\r\n
$GPGGA,113157.65,5703.4514866,N,00952.4328216,E,2,10,0.8,-1.883,M,40.593,M,3.1,0123*66\r\n
$GPGGA,113157.70,5703.4515030,N,00952.4327850,E,2,10,0.8,-1.882,M,40.593,M,3.1,0123*6E\r\n
$GPGGA,113157.75,5703.4515197,N,00952.4327488,E,2,10,0.8,-1.881,M,40.593,M,3.1,0123*6D\r\n
$GPGGA,113157.80,5703.4515358,N,00952.4327121,E,2,10,0.8,-1.881,M,40.593,M,3.1,0123*60\r\n
$GPGGA,113157.85,5703.4515509,N,00952.4326755,E,2,10,0.8,-1.881,M,40.593,M,3.3,0123*61\r\n
$GPGGA,113157.90,5703.4515664,N,00952.4326383,E,2,10,0.8,-1.881,M,40.593,M,3.3,0123*62\r\n
$GPGGA,113157.95,5703.4515829,N,00952.4326025,E,2,10,0.8,-1.879,M,40.593,M,3.3,0123*68\r\n
$GPGGA,113158.00,5703.4516002,N,00952.4325669,E,2,10,0.8,-1.879,M,40.593,M,3.3,0123*64\r\n
$GPGGA,113158.05,5703.4516177,N,00952.4325293,E,2,10,0.8,-1.880,M,40.593,M,3.5,0123*63\r\n
$GPGGA,113158.10,5703.4516336,N,00952.4324912,E,2,10,0.8,-1.878,M,40.593,M,3.5,0123*64\r\n
$GPGGA,113158.15,5703.4516483,N,00952.4324540,E,2,10,0.8,-1.878,M,40.593,M,3.5,0123*63\r\n
$GPGGA,113158.20,5703.4516641,N,00952.4324186,E,2,10,0.8,-1.879,M,40.593,M,3.5,0123*66\r\n
$GPGGA,113158.25,5703.4516795,N,00952.4323816,E,2,10,0.8,-1.879,M,40.593,M,2.3,0123*6B\r\n
$GPGGA,113158.30,5703.4516951,N,00952.4323449,E,2,10,0.8,-1.880,M,40.593,M,2.3,0123*69\r\n
$GPGGA,113158.35,5703.4517117,N,00952.4323082,E,2,10,0.8,-1.878,M,40.593,M,2.3,0123*63\r\n
$GPGGA,113158.40,5703.4517272,N,00952.4322729,E,2,10,0.8,-1.879,M,40.593,M,2.3,0123*67\r\n
$GPGGA,113158.45,5703.4517427,N,00952.4322372,E,2,10,0.8,-1.880,M,40.593,M,2.5,0123*6E\r\n
$GPGGA,113158.50,5703.4517602,N,00952.4322011,E,2,10,0.8,-1.878,M,40.593,M,2.5,0123*6E\r\n
$GPGGA,113158.55,5703.4517756,N,00952.4321642,E,2,10,0.8,-1.881,M,40.593,M,2.5,0123*6E\r\n
$GPGGA,113158.60,5703.4517916,N,00952.4321266,E,2,10,0.8,-1.881,M,40.593,M,2.5,0123*60\r\n
$GPGGA,113158.65,5703.4518080,N,00952.4320898,E,2,10,0.8,-1.878,M,40.593,M,2.8,0123*6D\r\n
$GPGGA,113158.70,5703.4518239,N,00952.4320543,E,2,10,0.8,-1.878,M,40.593,M,2.8,0123*62\r\n
$GPGGA,113158.75,5703.4518405,N,00952.4320188,E,2,10,0.8,-1.876,M,40.593,M,2.8,0123*63\r\n
$GPGGA,113158.80,5703.4518562,N,00952.4319819,E,2,10,0.8,-1.876,M,40.593,M,2.8,0123*62\r\n
$GPGGA,113158.85,5703.4518723,N,00952.4319455,E,2,10,0.8,-1.881,M,40.593,M,3.0,0123*65\r\n
$GPGGA,113158.90,5703.4518886,N,00952.4319093,E,2,10,0.8,-1.881,M,40.593,M,3.0,0123*6F\r\n
$GPGGA,113158.95,5703.4519049,N,00952.4318734,E,2,10,0.8,-1.882,M,40.593,M,3.0,0123*68\r\n
$GPGGA,113159.00,5703.4519207,N,00952.4318369,E,2,10,0.8,-1.882,M,40.593,M,3.0,0123*61\r\n
$GPGGA,113159.05,5703.4519382,N,00952.4317998,E,2,10,0.8,-1.883,M,40.593,M,3.2,0123*60\r\n
$GPGGA,113159.10,5703.4519556,N,00952.4317638,E,2,10,0.8,-1.883,M,40.593,M,3.2,0123*6E\r\n
$GPGGA,113159.15,5703.4519720,N,00952.4317269,E,2,10,0.8,-1.884,M,40.593,M,3.2,0123*6F\r\n
$GPGGA,113159.20,5703.4519877,N,00952.4316908,E,2,10,0.8,-1.884,M,40.593,M,3.2,0123*69\r\n
$GPGGA,113159.25,5703.4520039,N,00952.4316544,E,2,10,0.8,-1.884,M,40.593,M,0.3,0123*62\r\n
$GPGGA,113159.30,5703.4520200,N,00952.4316184,E,2,10,0.8,-1.887,M,40.593,M,0.3,0123*65\r\n
$GPGGA,113159.35,5703.4520362,N,00952.4315820,E,2,10,0.8,-1.887,M,40.593,M,0.3,0123*61\r\n
$GPGGA,113159.40,5703.4520530,N,00952.4315460,E,2,10,0.8,-1.884,M,40.593,M,0.3,0123*69\r\n
$GPGGA,113159.45,5703.4520695,N,00952.4315105,E,2,10,0.8,-1.884,M,40.593,M,0.6,0123*63\r\n
$GPGGA,113159.50,5703.4520862,N,00952.4314736,E,2,10,0.8,-1.885,M,40.593,M,0.6,0123*67\r\n
$GPGGA,113159.55,5703.4521025,N,00952.4314375,E,2,10,0.8,-1.884,M,40.593,M,0.6,0123*6A\r\n
$GPGGA,113159.60,5703.4521191,N,00952.4314003,E,2,10,0.8,-1.883,M,40.593,M,0.6,0123*67\r\n
$GPGGA,113159.65,5703.4521357,N,00952.4313637,E,2,10,0.8,-1.882,M,40.593,M,0.9,0123*62\r\n
$GPGGA,113159.70,5703.4521516,N,00952.4313276,E,2,10,0.8,-1.879,M,40.593,M,0.9,0123*60\r\n
$GPGGA,113159.75,5703.4521673,N,00952.4312918,E,2,10,0.8,-1.877,M,40.593,M,0.9,0123*69\r\n
$GPGGA,113159.80,5703.4521835,N,00952.4312544,E,2,10,0.8,-1.878,M,40.593,M,0.9,0123*65\r\n
$GPGGA,113159.85,5703.4522001,N,00952.4312180,E,2,10,0.8,-1.876,M,40.593,M,1.1,0123*67\r\n
$GPGGA,113159.90,5703.4522157,N,00952.4311820,E,2,10,0.8,-1.877,M,40.593,M,1.1,0123*60\r\n
$GPGGA,113159.95,5703.4522319,N,00952.4311446,E,2,10,0.8,-1.876,M,40.593,M,1.1,0123*60\r\n
$GPGGA,113200.00,5703.4522477,N,00952.4311068,E,2,10,0.8,-1.873,M,40.593,M,1.1,0123*61\r\n
$GPGGA,113200.05,5703.4522645,N,00952.4310662,E,2,10,0.8,-1.873,M,40.593,M,1.4,0123*6F\r\n
$GPGGA,113200.10,5703.4522798,N,00952.4310287,E,2,10,0.8,-1.871,M,40.593,M,1.4,0123*67\r\n
$GPGGA,113200.15,5703.4522965,N,00952.4309904,E,2,10,0.8,-1.870,M,40.593,M,1.4,0123*67\r\n
$GPGGA,113200.20,5703.4523120,N,00952.4309515,E,2,10,0.8,-1.870,M,40.593,M,1.4,0123*65\r\n
$GPGGA,113200.25,5703.4523284,N,00952.4309104,E,2,10,0.8,-1.862,M,40.593,M,1.6,0123*68\r\n
$GPGGA,113200.30,5703.4523450,N,00952.4308681,E,2,10,0.8,-1.860,M,40.593,M,1.6,0123*6A\r\n
$GPGGA,113200.35,5703.4523612,N,00952.4308242,E,2,10,0.8,-1.855,M,40.593,M,1.6,0123*66\r\n
$GPGGA,113200.40,5703.4523779,N,00952.4307818,E,2,10,0.8,-1.851,M,40.593,M,1.6,0123*66\r\n
$GPGGA,113200.45,5703.4523948,N,00952.4307364,E,2,10,0.8,-1.848,M,40.593,M,1.8,0123*69\r\n
$GPGGA,113200.50,5703.4524121,N,00952.4306883,E,2,10,0.8,-1.843,M,40.593,M,1.8,0123*65\r\n
$GPGGA,113200.55,5703.4524287,N,00952.4306400,E,2,10,0.8,-1.840,M,40.593,M,1.8,0123*6B\r\n
$GPGGA,113200.60,5703.4524461,N,00952.4305907,E,2,10,0.8,-1.837,M,40.593,M,1.8,0123*6A\r\n
$GPGGA,113200.65,5703.4524638,N,00952.4305401,E,2,10,0.8,-1.837,M,40.593,M,2.1,0123*60\r\n
$GPGGA,113200.70,5703.4524806,N,00952.4304865,E,2,10,0.8,-1.835,M,40.593,M,2.1,0123*6A\r\n
$GPGGA,113200.75,5703.4524982,N,00952.4304314,E,2,10,0.8,-1.834,M,40.593,M,2.1,0123*6E\r\n
$GPGGA,113200.80,5703.4525159,N,00952.4303745,E,2,10,0.8,-1.831,M,40.593,M,2.1,0123*69\r\n
$GPGGA,113200.85,5703.4525347,N,00952.4303160,E,2,10,0.8,-1.823,M,40.593,M,2.3,0123*61\r\n
$GPGGA,113200.90,5703.4525533,N,00952.4302546,E,2,10,0.8,-1.818,M,40.593,M,2.3,0123*69\r\n
$GPGGA,113200.95,5703.4525728,N,00952.4301920,E,2,10,0.8,-1.813,M,40.593,M,2.3,0123*60\r\n
$GPGGA,113201.00,5703.4525923,N,00952.4301285,E,2,10,0.8,-1.808,M,40.593,M,2.3,0123*66\r\n
$GPGGA,113201.05,5703.4526130,N,00952.4300614,E,2,10,0.8,-1.803,M,40.593,M,2.5,0123*6A\r\n
$GPGGA,113201.10,5703.4526331,N,00952.4299931,E,2,10,0.8,-1.801,M,40.593,M,2.5,0123*66\r\n
$GPGGA,113201.15,5703.4526535,N,00952.4299230,E,2,10,0.8,-1.798,M,40.593,M,2.5,0123*64\r\n
$GPGGA,113201.20,5703.4526732,N,00952.4298525,E,2,10,0.8,-1.794,M,40.593,M,2.5,0123*69\r\n
$GPGGA,113201.25,5703.4526933,N,00952.4297785,E,2,10,0.8,-1.791,M,40.593,M,2.7,0123*63\r\n
$GPGGA,113201.30,5703.4527136,N,00952.4297028,E,2,10,0.8,-1.788,M,40.593,M,2.7,0123*63\r\n
$GPGGA,113201.35,5703.4527337,N,00952.4296260,E,2,10,0.8,-1.786,M,40.593,M,2.7,0123*64\r\n
$GPGGA,113201.40,5703.4527543,N,00952.4295482,E,2,10,0.8,-1.784,M,40.593,M,2.7,0123*68\r\n
$GPGGA,113201.45,5703.4527754,N,00952.4294687,E,2,10,0.8,-1.786,M,40.593,M,2.9,0123*63\r\n
$GPGGA,113201.50,5703.4527966,N,00952.4293886,E,2,10,0.8,-1.781,M,40.593,M,2.9,0123*67\r\n
$GPGGA,113201.55,5703.4528171,N,00952.4293062,E,2,10,0.8,-1.780,M,40.593,M,2.9,0123*60\r\n
$GPGGA,113201.60,5703.4528376,N,00952.4292215,E,2,10,0.8,-1.781,M,40.593,M,2.9,0123*61\r\n
$GPGGA,113201.65,5703.4528576,N,00952.4291367,E,2,10,0.8,-1.777,M,40.593,M,3.1,0123*65\r\n
$GPGGA,113201.70,5703.4528781,N,00952.4290503,E,2,10,0.8,-1.775,M,40.593,M,3.1,0123*6C\r\n
$GPGGA,113201.75,5703.4528994,N,00952.4289620,E,2,10,0.8,-1.774,M,40.593,M,3.1,0123*68\r\n
$GPGGA,113201.80,5703.4529201,N,00952.4288724,E,2,10,0.8,-1.772,M,40.593,M,3.1,0123*66\r\n
$GPGGA,113201.85,5703.4529414,N,00952.4287834,E,2,10,0.8,-1.774,M,40.593,M,3.3,0123*64\r\n
$GPGGA,113201.90,5703.4529614,N,00952.4286922,E,2,10,0.8,-1.772,M,40.593,M,3.3,0123*63\r\n
$GPGGA,113201.95,5703.4529809,N,00952.4286014,E,2,10,0.8,-1.772,M,40.593,M,3.3,0123*68\r\n
$GPGGA,113202.00,5703.4530014,N,00952.4285091,E,2,10,0.8,-1.771,M,40.593,M,3.3,0123*66\r\n
$GPGGA,113202.05,5703.4530234,N,00952.4284160,E,2,10,0.8,-1.765,M,40.593,M,3.5,0123*6E\r\n
$GPGGA,113202.10,5703.4530440,N,00952.4283211,E,2,10,0.8,-1.764,M,40.593,M,3.5,0123*6C\r\n
$GPGGA,113202.15,5703.4530647,N,00952.4282247,E,2,10,0.8,-1.762,M,40.593,M,3.5,0123*68\r\n
$GPGGA,113202.20,5703.4530842,N,00952.4281294,E,2,10,0.8,-1.760,M,40.593,M,3.5,0123*6A\r\n
$GPGGA,113202.25,5703.4531043,N,00952.4280325,E,2,10,0.8,-1.762,M,40.593,M,3.8,0123*62\r\n
$GPGGA,113202.30,5703.4531235,N,00952.4279350,E,2,10,0.8,-1.762,M,40.593,M,3.8,0123*61\r\n
$GPGGA,113202.35,5703.4531424,N,00952.4278377,E,2,10,0.8,-1.765,M,40.593,M,3.8,0123*61\r\n
$GPGGA,113202.40,5703.4531624,N,00952.4277407,E,2,10,0.8,-1.764,M,40.593,M,3.8,0123*6F\r\n
$GPGGA,113202.45,5703.4531821,N,00952.4276422,E,2,10,0.8,-1.763,M,40.593,M,2.5,0123*6C\r\n
$GPGGA,113202.50,5703.4532011,N,00952.4275425,E,2,10,0.8,-1.763,M,40.593,M,2.5,0123*64\r\n
$GPGGA,113202.55,5703.4532209,N,00952.4274448,E,2,10,0.8,-1.763,M,40.593,M,2.5,0123*60\r\n
$GPGGA,113202.60,5703.4532401,N,00952.4273439,E,2,10,0.8,-1.763,M,40.593,M,2.5,0123*69\r\n
$GPGGA,113202.65,5703.4532593,N,00952.4272439,E,2,10,0.8,-1.766,M,40.593,M,2.8,0123*6F\r\n
$GPGGA,113202.70,5703.4532781,N,00952.4271442,E,2,10,0.8,-1.767,M,40.593,M,2.8,0123*64\r\n
$GPGGA,113202.75,5703.4532974,N,00952.4270434,E,2,10,0.8,-1.769,M,40.593,M,2.8,0123*6B\r\n
$GPGGA,113202.80,5703.4533168,N,00952.4269425,E,2,10,0.8,-1.772,M,40.593,M,2.8,0123*67\r\n
$GPGGA,113202.85,5703.4533343,N,00952.4268397,E,2,10,0.8,-1.776,M,40.593,M,3.0,0123*6B\r\n
$GPGGA,113202.90,5703.4533537,N,00952.4267361,E,2,10,0.8,-1.776,M,40.593,M,3.0,0123*6C\r\n
$GPGGA,113202.95,5703.4533731,N,00952.4266336,E,2,10,0.8,-1.780,M,40.593,M,3.0,0123*67\r\n
$GPGGA,113203.00,5703.4533921,N,00952.4265305,E,2,10,0.8,-1.781,M,40.593,M,3.0,0123*67\r\n
$GPGGA,113203.05,5703.4534119,N,00952.4264269,E,2,10,0.8,-1.778,M,40.593,M,3.2,0123*68\r\n
$GPGGA,113203.10,5703.4534301,N,00952.4263236,E,2,10,0.8,-1.778,M,40.593,M,3.2,0123*6A\r\n
$GPGGA,113203.15,5703.4534481,N,00952.4262193,E,2,10,0.8,-1.781,M,40.593,M,3.2,0123*6B\r\n
$GPGGA,113203.20,5703.4534653,N,00952.4261141,E,2,10,0.8,-1.780,M,40.593,M,3.2,0123*6D\r\n
$GPGGA,113203.25,5703.4534834,N,00952.4260093,E,2,10,0.8,-1.781,M,40.593,M,3.5,0123*6E\r\n
$GPGGA,113203.30,5703.4535016,N,00952.4259028,E,2,10,0.8,-1.782,M,40.593,M,3.5,0123*6A\r\n
$GPGGA,113203.35,5703.4535188,N,00952.4257963,E,2,10,0.8,-1.783,M,40.593,M,3.5,0123*60\r\n
$GPGGA,113203.40,5703.4535350,N,00952.4256905,E,2,10,0.8,-1.787,M,40.593,M,3.5,0123*60\r\n
$GPGGA,113203.45,5703.4535502,N,00952.4255845,E,2,10,0.8,-1.790,M,40.593,M,2.7,0123*67\r\n
$GPGGA,113203.50,5703.4535671,N,00952.4254776,E,2,10,0.8,-1.790,M,40.593,M,2.7,0123*6A\r\n
$GPGGA,113203.55,5703.4535829,N,00952.4253686,E,2,10,0.8,-1.790,M,40.593,M,2.7,0123*65\r\n
$GPGGA,113203.60,5703.4535994,N,00952.4252610,E,2,10,0.8,-1.790,M,40.593,M,2.7,0123*6A\r\n
$GPGGA,113203.65,5703.4536155,N,00952.4251533,E,2,10,0.8,-1.789,M,40.593,M,3.0,0123*66\r\n
$GPGGA,113203.70,5703.4536312,N,00952.4250438,E,2,10,0.8,-1.789,M,40.593,M,3.0,0123*68\r\n
$GPGGA,113203.75,5703.4536461,N,00952.4249351,E,2,10,0.8,-1.789,M,40.593,M,3.0,0123*6E\r\n
$GPGGA,113203.80,5703.4536617,N,00952.4248244,E,2,10,0.8,-1.788,M,40.593,M,3.0,0123*62\r\n
$GPGGA,113203.85,5703.4536768,N,00952.4247141,E,2,10,0.8,-1.787,M,40.593,M,3.2,0123*6A\r\n
$GPGGA,113203.90,5703.4536911,N,00952.4246031,E,2,10,0.8,-1.786,M,40.593,M,3.2,0123*68\r\n
$GPGGA,113203.95,5703.4537063,N,00952.4244933,E,2,10,0.8,-1.786,M,40.593,M,3.2,0123*69\r\n
$GPGGA,113204.00,5703.4537205,N,00952.4243824,E,2,10,0.8,-1.787,M,40.593,M,3.2,0123*61\r\n
$GPGGA,113204.05,5703.4537360,N,00952.4242687,E,2,10,0.8,-1.787,M,40.593,M,3.4,0123*66\r\n
$GPGGA,113204.10,5703.4537500,N,00952.4241567,E,2,10,0.8,-1.786,M,40.593,M,3.4,0123*6D\r\n
$GPGGA,113204.15,5703.4537631,N,00952.4240443,E,2,10,0.8,-1.784,M,40.593,M,3.4,0123*6D\r\n
$GPGGA,113204.20,5703.4537765,N,00952.4239303,E,2,10,0.8,-1.784,M,40.593,M,3.4,0123*66\r\n
$GPGGA,113204.25,5703.4537896,N,00952.4238159,E,2,10,0.8,-1.785,M,40.593,M,3.7,0123*6E\r\n
$GPGGA,113204.30,5703.4538037,N,00952.4237014,E,2,10,0.8,-1.785,M,40.593,M,3.7,0123*61\r\n
$GPGGA,113204.35,5703.4538179,N,00952.4235882,E,2,10,0.8,-1.781,M,40.593,M,3.7,0123*6E\r\n
$GPGGA,113204.40,5703.4538317,N,00952.4234728,E,2,10,0.8,-1.782,M,40.593,M,3.7,0123*6B\r\n
$GPGGA,113204.45,5703.4538444,N,00952.4233573,E,2,10,0.8,-1.785,M,40.593,M,1.8,0123*6E\r\n
$GPGGA,113204.50,5703.4538573,N,00952.4232416,E,2,10,0.8,-1.784,M,40.593,M,1.8,0123*6D\r\n
$GPGGA,113204.55,5703.4538700,N,00952.4231254,E,2,10,0.8,-1.783,M,40.593,M,1.8,0123*6A\r\n
$GPGGA,113204.60,5703.4538816,N,00952.4230080,E,2,10,0.8,-1.784,M,40.593,M,1.8,0123*69\r\n
$GPGGA,113204.65,5703.4538942,N,00952.4228909,E,2,10,0.8,-1.786,M,40.593,M,2.1,0123*65\r\n
$GPGGA,113204.70,5703.4539049,N,00952.4227736,E,2,10,0.8,-1.787,M,40.593,M,2.1,0123*6E\r\n
$GPGGA,113204.75,5703.4539163,N,00952.4226564,E,2,10,0.8,-1.785,M,40.593,M,2.1,0123*64\r\n
$GPGGA,113204.80,5703.4539272,N,00952.4225378,E,2,10,0.8,-1.784,M,40.593,M,2.1,0123*64\r\n
$GPGGA,113204.85,5703.4539391,N,00952.4224189,E,2,10,0.8,-1.779,M,40.593,M,2.3,0123*60\r\n
$GPGGA,113204.90,5703.4539508,N,00952.4223018,E,2,10,0.8,-1.777,M,40.593,M,2.3,0123*62\r\n
$GPGGA,113204.95,5703.4539617,N,00952.4221849,E,2,10,0.8,-1.777,M,40.593,M,2.3,0123*64\r\n
$GPGGA,113205.00,5703.4539713,N,00952.4220652,E,2,10,0.8,-1.774,M,40.593,M,2.3,0123*6A\r\n
$GPGGA,113205.05,5703.4539834,N,00952.4219451,E,2,10,0.8,-1.767,M,40.593,M,2.5,0123*6A\r\n
$GPGGA,113205.10,5703.4539935,N,00952.4218258,E,2,10,0.8,-1.763,M,40.593,M,2.5,0123*64\r\n
$GPGGA,113205.15,5703.4540027,N,00952.4217053,E,2,10,0.8,-1.763,M,40.593,M,2.5,0123*63\r\n
$GPGGA,113205.20,5703.4540114,N,00952.4215871,E,2,10,0.8,-1.762,M,40.593,M,2.5,0123*6F\r\n
$GPGGA,113205.25,5703.4540199,N,00952.4214671,E,2,10,0.8,-1.760,M,40.593,M,2.7,0123*60\r\n
$GPGGA,113205.30,5703.4540292,N,00952.4213470,E,2,10,0.8,-1.757,M,40.593,M,2.7,0123*6C\r\n
$GPGGA,113205.35,5703.4540377,N,00952.4212269,E,2,10,0.8,-1.754,M,40.593,M,2.7,0123*6F\r\n
$GPGGA,113205.40,5703.4540447,N,00952.4211083,E,2,10,0.8,-1.753,M,40.593,M,2.7,0123*6B\r\n
$GPGGA,113205.45,5703.4540527,N,00952.4209882,E,2,10,0.8,-1.754,M,40.593,M,2.9,0123*60\r\n
$GPGGA,113205.50,5703.4540599,N,00952.4208677,E,2,10,0.8,-1.752,M,40.593,M,2.9,0123*62\r\n
$GPGGA,113205.55,5703.4540675,N,00952.4207476,E,2,10,0.8,-1.748,M,40.593,M,2.9,0123*61\r\n
$GPGGA,113205.60,5703.4540758,N,00952.4206252,E,2,10,0.8,-1.746,M,40.593,M,2.9,0123*66\r\n
$GPGGA,113205.65,5703.4540819,N,00952.4205050,E,2,10,0.8,-1.744,M,40.593,M,3.1,0123*61\r\n
$GPGGA,113205.70,5703.4540879,N,00952.4203850,E,2,10,0.8,-1.747,M,40.593,M,3.1,0123*6E\r\n
$GPGGA,113205.75,5703.4540950,N,00952.4202639,E,2,10,0.8,-1.745,M,40.593,M,3.1,0123*63\r\n
$GPGGA,113205.80,5703.4541007,N,00952.4201421,E,2,10,0.8,-1.744,M,40.593,M,3.1,0123*6A\r\n
$GPGGA,113205.85,5703.4541059,N,00952.4200231,E,2,10,0.8,-1.747,M,40.593,M,3.3,0123*63\r\n
$GPGGA,113205.90,5703.4541109,N,00952.4199037,E,2,10,0.8,-1.747,M,40.593,M,3.3,0123*64\r\n
$GPGGA,113205.95,5703.4541160,N,00952.4197835,E,2,10,0.8,-1.748,M,40.593,M,3.3,0123*65\r\n
$GPGGA,113206.00,5703.4541208,N,00952.4196617,E,2,10,0.8,-1.749,M,40.593,M,3.3,0123*69\r\n
$GPGGA,113206.05,5703.4541266,N,00952.4195390,E,2,10,0.8,-1.748,M,40.593,M,3.5,0123*6A\r\n
$GPGGA,113206.10,5703.4541323,N,00952.4194173,E,2,10,0.8,-1.747,M,40.593,M,3.5,0123*6F\r\n
$GPGGA,113206.15,5703.4541370,N,00952.4192962,E,2,10,0.8,-1.747,M,40.593,M,3.5,0123*62\r\n
$GPGGA,113206.20,5703.4541412,N,00952.4191750,E,2,10,0.8,-1.747,M,40.593,M,3.5,0123*6B\r\n
$GPGGA,113206.25,5703.4541451,N,00952.4190516,E,2,10,0.8,-1.749,M,40.593,M,3.8,0123*6B\r\n
$GPGGA,113206.30,5703.4541485,N,00952.4189297,E,2,10,0.8,-1.747,M,40.593,M,3.8,0123*6E\r\n
$GPGGA,113206.35,5703.4541506,N,00952.4188107,E,2,10,0.8,-1.745,M,40.593,M,3.8,0123*68\r\n
$GPGGA,113206.40,5703.4541531,N,00952.4186901,E,2,10,0.8,-1.740,M,40.593,M,3.8,0123*6B\r\n
$GPGGA,113206.45,5703.4541561,N,00952.4185675,E,2,10,0.8,-1.738,M,40.593,M,2.5,0123*67\r\n
$GPGGA,113206.50,5703.4541584,N,00952.4184455,E,2,10,0.8,-1.737,M,40.593,M,2.5,0123*66\r\n
$GPGGA,113206.55,5703.4541592,N,00952.4183269,E,2,10,0.8,-1.735,M,40.593,M,2.5,0123*68\r\n
$GPGGA,113206.60,5703.4541605,N,00952.4182099,E,2,10,0.8,-1.733,M,40.593,M,2.5,0123*69\r\n
$GPGGA,113206.65,5703.4541618,N,00952.4180916,E,2,10,0.8,-1.731,M,40.593,M,2.8,0123*63\r\n
$GPGGA,113206.70,5703.4541632,N,00952.4179731,E,2,10,0.8,-1.728,M,40.593,M,2.8,0123*6A\r\n
$GPGGA,113206.75,5703.4541643,N,00952.4178549,E,2,10,0.8,-1.724,M,40.593,M,2.8,0123*69\r\n
$GPGGA,113206.80,5703.4541646,N,00952.4177358,E,2,10,0.8,-1.719,M,40.593,M,2.8,0123*61\r\n
$GPGGA,113206.85,5703.4541654,N,00952.4176148,E,2,10,0.8,-1.714,M,40.593,M,3.0,0123*61\r\n
$GPGGA,113206.90,5703.4541667,N,00952.4174929,E,2,10,0.8,-1.717,M,40.593,M,3.0,0123*6B\r\n
$GPGGA,113206.95,5703.4541682,N,00952.4173734,E,2,10,0.8,-1.717,M,40.593,M,3.0,0123*60\r\n
$GPGGA,113207.00,5703.4541687,N,00952.4172540,E,2,10,0.8,-1.718,M,40.593,M,3.0,0123*67\r\n
$GPGGA,113207.05,5703.4541690,N,00952.4171336,E,2,10,0.8,-1.723,M,40.593,M,3.2,0123*6A\r\n
$GPGGA,113207.10,5703.4541686,N,00952.4170133,E,2,10,0.8,-1.725,M,40.593,M,3.2,0123*69\r\n
$GPGGA,113207.15,5703.4541680,N,00952.4168942,E,2,10,0.8,-1.727,M,40.593,M,3.2,0123*6F\r\n
$GPGGA,113207.20,5703.4541666,N,00952.4167753,E,2,10,0.8,-1.730,M,40.593,M,3.2,0123*66\r\n
$GPGGA,113207.25,5703.4541668,N,00952.4166555,E,2,10,0.8,-1.734,M,40.593,M,3.5,0123*6B\r\n
$GPGGA,113207.30,5703.4541663,N,00952.4165362,E,2,10,0.8,-1.736,M,40.593,M,3.5,0123*67\r\n
$GPGGA,113207.35,5703.4541649,N,00952.4164170,E,2,10,0.8,-1.736,M,40.593,M,3.5,0123*6A\r\n
$GPGGA,113207.40,5703.4541635,N,00952.4162965,E,2,10,0.8,-1.736,M,40.593,M,3.5,0123*69\r\n
$GPGGA,113207.45,5703.4541609,N,00952.4161767,E,2,10,0.8,-1.737,M,40.593,M,2.7,0123*6E\r\n
$GPGGA,113207.50,5703.4541579,N,00952.4160578,E,2,10,0.8,-1.740,M,40.593,M,2.7,0123*63\r\n
$GPGGA,113207.55,5703.4541541,N,00952.4159383,E,2,10,0.8,-1.740,M,40.593,M,2.7,0123*65\r\n
$GPGGA,113207.60,5703.4541520,N,00952.4158181,E,2,10,0.8,-1.740,M,40.593,M,2.7,0123*65\r\n
$GPGGA,113207.65,5703.4541497,N,00952.4156972,E,2,10,0.8,-1.737,M,40.593,M,3.0,0123*61\r\n
$GPGGA,113207.70,5703.4541458,N,00952.4155775,E,2,10,0.8,-1.737,M,40.593,M,3.0,0123*6C\r\n
$GPGGA,113207.75,5703.4541432,N,00952.4154577,E,2,10,0.8,-1.737,M,40.593,M,3.0,0123*64\r\n
$GPGGA,113207.80,5703.4541402,N,00952.4153376,E,2,10,0.8,-1.735,M,40.593,M,3.0,0123*6F\r\n
$GPGGA,113207.85,5703.4541366,N,00952.4152175,E,2,10,0.8,-1.735,M,40.593,M,3.2,0123*6D\r\n
$GPGGA,113207.90,5703.4541340,N,00952.4150956,E,2,10,0.8,-1.737,M,40.593,M,3.2,0123*64\r\n
$GPGGA,113207.95,5703.4541302,N,00952.4149758,E,2,10,0.8,-1.736,M,40.593,M,3.2,0123*6E\r\n
$GPGGA,113208.00,5703.4541265,N,00952.4148562,E,2,10,0.8,-1.734,M,40.593,M,3.2,0123*65\r\n
$GPGGA,113208.05,5703.4541239,N,00952.4147348,E,2,10,0.8,-1.725,M,40.593,M,3.4,0123*6E\r\n
$GPGGA,113208.10,5703.4541189,N,00952.4146131,E,2,10,0.8,-1.726,M,40.593,M,3.4,0123*6C\r\n
$GPGGA,113208.15,5703.4541143,N,00952.4144924,E,2,10,0.8,-1.725,M,40.593,M,3.4,0123*62\r\n
$GPGGA,113208.20,5703.4541102,N,00952.4143714,E,2,10,0.8,-1.725,M,40.593,M,3.4,0123*6B\r\n
$GPGGA,113208.25,5703.4541070,N,00952.4142490,E,2,10,0.8,-1.726,M,40.593,M,3.7,0123*64\r\n
$GPGGA,113208.30,5703.4541021,N,00952.4141274,E,2,10,0.8,-1.725,M,40.593,M,3.7,0123*68\r\n
$GPGGA,113208.35,5703.4540964,N,00952.4140060,E,2,10,0.8,-1.724,M,40.593,M,3.7,0123*63\r\n
$GPGGA,113208.40,5703.4540906,N,00952.4138837,E,2,10,0.8,-1.725,M,40.593,M,3.7,0123*61\r\n
$GPGGA,113208.45,5703.4540855,N,00952.4137623,E,2,10,0.8,-1.724,M,40.593,M,1.8,0123*6B\r\n
$GPGGA,113208.50,5703.4540802,N,00952.4136386,E,2,10,0.8,-1.723,M,40.593,M,1.8,0123*61\r\n
$GPGGA,113208.55,5703.4540748,N,00952.4135162,E,2,10,0.8,-1.724,M,40.593,M,1.8,0123*69\r\n
$GPGGA,113208.60,5703.4540692,N,00952.4133935,E,2,10,0.8,-1.725,M,40.593,M,1.8,0123*64\r\n
$GPGGA,113208.65,5703.4540627,N,00952.4132719,E,2,10,0.8,-1.725,M,40.593,M,2.1,0123*64\r\n
$GPGGA,113208.70,5703.4540570,N,00952.4131493,E,2,10,0.8,-1.722,M,40.593,M,2.1,0123*64\r\n
$GPGGA,113208.75,5703.4540519,N,00952.4130255,E,2,10,0.8,-1.722,M,40.593,M,2.1,0123*63\r\n
$GPGGA,113208.80,5703.4540450,N,00952.4129029,E,2,10,0.8,-1.722,M,40.593,M,2.1,0123*64\r\n
$GPGGA,113208.85,5703.4540369,N,00952.4127807,E,2,10,0.8,-1.724,M,40.593,M,2.3,0123*62\r\n
$GPGGA,113208.90,5703.4540299,N,00952.4126581,E,2,10,0.8,-1.724,M,40.593,M,2.3,0123*6A\r\n
$GPGGA,113208.95,5703.4540243,N,00952.4125360,E,2,10,0.8,-1.722,M,40.593,M,2.3,0123*64\r\n
$GPGGA,113209.00,5703.4540179,N,00952.4124143,E,2,10,0.8,-1.724,M,40.593,M,2.3,0123*67\r\n
$GPGGA,113209.05,5703.4540114,N,00952.4122914,E,2,10,0.8,-1.719,M,40.593,M,2.5,0123*6D\r\n
$GPGGA,113209.10,5703.4540021,N,00952.4121692,E,2,10,0.8,-1.719,M,40.593,M,2.5,0123*6C\r\n
$GPGGA,113209.15,5703.4539944,N,00952.4120478,E,2,10,0.8,-1.719,M,40.593,M,2.5,0123*6A\r\n
$GPGGA,113209.20,5703.4539859,N,00952.4119240,E,2,10,0.8,-1.717,M,40.593,M,2.5,0123*68\r\n
$GPGGA,113209.25,5703.4539774,N,00952.4118006,E,2,10,0.8,-1.716,M,40.593,M,2.7,0123*6F\r\n
$GPGGA,113209.30,5703.4539702,N,00952.4116779,E,2,10,0.8,-1.716,M,40.593,M,2.7,0123*6B\r\n
$GPGGA,113209.35,5703.4539613,N,00952.4115563,E,2,10,0.8,-1.716,M,40.593,M,2.7,0123*65\r\n
$GPGGA,113209.40,5703.4539510,N,00952.4114359,E,2,10,0.8,-1.716,M,40.593,M,2.7,0123*69\r\n
$GPGGA,113209.45,5703.4539411,N,00952.4113126,E,2,10,0.8,-1.717,M,40.593,M,2.9,0123*6E\r\n
$GPGGA,113209.50,5703.4539311,N,00952.4111905,E,2,10,0.8,-1.714,M,40.593,M,2.9,0123*65\r\n
$GPGGA,113209.55,5703.4539219,N,00952.4110690,E,2,10,0.8,-1.711,M,40.593,M,2.9,0123*6E\r\n
$GPGGA,113209.60,5703.4539115,N,00952.4109469,E,2,10,0.8,-1.711,M,40.593,M,2.9,0123*6B\r\n
$GPGGA,113209.65,5703.4539014,N,00952.4108234,E,2,10,0.8,-1.711,M,40.593,M,3.1,0123*68\r\n
$GPGGA,113209.70,5703.4538909,N,00952.4107026,E,2,10,0.8,-1.712,M,40.593,M,3.1,0123*65\r\n
$GPGGA,113209.75,5703.4538803,N,00952.4105812,E,2,10,0.8,-1.711,M,40.593,M,3.1,0123*65\r\n
$GPGGA,113209.80,5703.4538688,N,00952.4104608,E,2,10,0.8,-1.710,M,40.593,M,3.1,0123*67\r\n
$GPGGA,113209.85,5703.4538568,N,00952.4103402,E,2,10,0.8,-1.710,M,40.593,M,3.3,0123*62\r\n
$GPGGA,113209.90,5703.4538448,N,00952.4102179,E,2,10,0.8,-1.711,M,40.593,M,3.3,0123*6C\r\n
$GPGGA,113209.95,5703.4538321,N,00952.4100962,E,2,10,0.8,-1.713,M,40.593,M,3.3,0123*63\r\n
$GPGGA,113210.00,5703.4538206,N,00952.4099744,E,2,10,0.8,-1.711,M,40.593,M,3.3,0123*6A\r\n
$GPGGA,113210.05,5703.4538109,N,00952.4098509,E,2,10,0.8,-1.705,M,40.593,M,3.5,0123*6A\r\n
$GPGGA,113210.10,5703.4537983,N,00952.4097300,E,2,10,0.8,-1.705,M,40.593,M,3.5,0123*6B\r\n
$GPGGA,113210.15,5703.4537858,N,00952.4096095,E,2,10,0.8,-1.705,M,40.593,M,3.5,0123*67\r\n
$GPGGA,113210.20,5703.4537723,N,00952.4094904,E,2,10,0.8,-1.706,M,40.593,M,3.5,0123*62\r\n
$GPGGA,113210.25,5703.4537577,N,00952.4093694,E,2,10,0.8,-1.704,M,40.593,M,3.8,0123*6A\r\n
$GPGGA,113210.30,5703.4537434,N,00952.4092492,E,2,10,0.8,-1.706,M,40.593,M,3.8,0123*6F\r\n
$GPGGA,113210.35,5703.4537290,N,00952.4091304,E,2,10,0.8,-1.705,M,40.593,M,3.8,0123*6A\r\n
$GPGGA,113210.40,5703.4537152,N,00952.4090123,E,2,10,0.8,-1.705,M,40.593,M,3.8,0123*63\r\n
$GPGGA,113210.45,5703.4537011,N,00952.4088932,E,2,10,0.8,-1.701,M,40.593,M,1.2,0123*6D\r\n
$GPGGA,113210.50,5703.4536866,N,00952.4087744,E,2,10,0.8,-1.698,M,40.593,M,1.2,0123*61\r\n
$GPGGA,113210.55,5703.4536731,N,00952.4086555,E,2,10,0.8,-1.699,M,40.593,M,1.2,0123*6B\r\n
$GPGGA,113210.60,5703.4536590,N,00952.4085357,E,2,10,0.8,-1.700,M,40.593,M,1.2,0123*62\r\n
$GPGGA,113210.65,5703.4536453,N,00952.4084142,E,2,10,0.8,-1.699,M,40.593,M,1.6,0123*6B\r\n
$GPGGA,113210.70,5703.4536298,N,00952.4082976,E,2,10,0.8,-1.696,M,40.593,M,1.6,0123*68\r\n
$GPGGA,113210.75,5703.4536152,N,00952.4081802,E,2,10,0.8,-1.697,M,40.593,M,1.6,0123*68\r\n
$GPGGA,113210.80,5703.4536009,N,00952.4080614,E,2,10,0.8,-1.696,M,40.593,M,1.6,0123*64\r\n
$GPGGA,113210.85,5703.4535874,N,00952.4079430,E,2,10,0.8,-1.695,M,40.593,M,1.9,0123*6E\r\n
$GPGGA,113210.90,5703.4535724,N,00952.4078274,E,2,10,0.8,-1.696,M,40.593,M,1.9,0123*64\r\n
$GPGGA,113210.95,5703.4535568,N,00952.4077104,E,2,10,0.8,-1.696,M,40.593,M,1.9,0123*60\r\n
$GPGGA,113211.00,5703.4535422,N,00952.4075916,E,2,10,0.8,-1.694,M,40.593,M,1.9,0123*69\r\n
$GPGGA,113211.05,5703.4535289,N,00952.4074729,E,2,10,0.8,-1.694,M,40.593,M,2.2,0123*60\r\n
$GPGGA,113211.10,5703.4535110,N,00952.4073573,E,2,10,0.8,-1.696,M,40.593,M,2.2,0123*6F\r\n
$GPGGA,113211.15,5703.4534953,N,00952.4072397,E,2,10,0.8,-1.698,M,40.593,M,2.2,0123*67\r\n
$GPGGA,113211.20,5703.4534797,N,00952.4071239,E,2,10,0.8,-1.698,M,40.593,M,2.2,0123*61\r\n
$GPGGA,113211.25,5703.4534635,N,00952.4070072,E,2,10,0.8,-1.699,M,40.593,M,2.5,0123*67\r\n
$GPGGA,113211.30,5703.4534471,N,00952.4068918,E,2,10,0.8,-1.700,M,40.593,M,2.5,0123*6C\r\n
$GPGGA,113211.35,5703.4534318,N,00952.4067762,E,2,10,0.8,-1.699,M,40.593,M,2.5,0123*6C\r\n
$GPGGA,113211.40,5703.4534152,N,00952.4066602,E,2,10,0.8,-1.700,M,40.593,M,2.5,0123*65\r\n
$GPGGA,113211.45,5703.4533988,N,00952.4065449,E,2,10,0.8,-1.703,M,40.593,M,0.6,0123*64\r\n
$GPGGA,113211.50,5703.4533819,N,00952.4064289,E,2,10,0.8,-1.703,M,40.593,M,0.6,0123*62\r\n
$GPGGA,113211.55,5703.4533646,N,00952.4063133,E,2,10,0.8,-1.703,M,40.593,M,0.6,0123*66\r\n
$GPGGA,113211.60,5703.4533488,N,00952.4061984,E,2,10,0.8,-1.702,M,40.593,M,0.6,0123*67\r\n
$GPGGA,113211.65,5703.4533323,N,00952.4060840,E,2,10,0.8,-1.699,M,40.593,M,0.9,0123*60\r\n
$GPGGA,113211.70,5703.4533156,N,00952.4059683,E,2,10,0.8,-1.700,M,40.593,M,0.9,0123*6E\r\n
$GPGGA,113211.75,5703.4532987,N,00952.4058517,E,2,10,0.8,-1.702,M,40.593,M,0.9,0123*63\r\n
$GPGGA,113211.80,5703.4532819,N,00952.4057357,E,2,10,0.8,-1.702,M,40.593,M,0.9,0123*62\r\n
$GPGGA,113211.85,5703.4532646,N,00952.4056202,E,2,10,0.8,-1.703,M,40.593,M,1.1,0123*6B\r\n
$GPGGA,113211.90,5703.4532470,N,00952.4055056,E,2,10,0.8,-1.704,M,40.593,M,1.1,0123*6F\r\n
$GPGGA,113211.95,5703.4532297,N,00952.4053895,E,2,10,0.8,-1.706,M,40.593,M,1.1,0123*66\r\n
$GPGGA,113212.00,5703.4532108,N,00952.4052745,E,2,10,0.8,-1.709,M,40.593,M,1.1,0123*60\r\n
$GPGGA,113212.05,5703.4531931,N,00952.4051592,E,2,10,0.8,-1.710,M,40.593,M,1.4,0123*62\r\n
$GPGGA,113212.10,5703.4531752,N,00952.4050430,E,2,10,0.8,-1.711,M,40.593,M,1.4,0123*64\r\n
$GPGGA,113212.15,5703.4531568,N,00952.4049286,E,2,10,0.8,-1.711,M,40.593,M,1.4,0123*69\r\n
$GPGGA,113212.20,5703.4531390,N,00952.4048129,E,2,10,0.8,-1.710,M,40.593,M,1.4,0123*68\r\n
$GPGGA,113212.25,5703.4531204,N,00952.4046974,E,2,10,0.8,-1.711,M,40.593,M,1.6,0123*6C\r\n
$GPGGA,113212.30,5703.4531005,N,00952.4045834,E,2,10,0.8,-1.710,M,40.593,M,1.6,0123*6C\r\n
$GPGGA,113212.35,5703.4530800,N,00952.4044681,E,2,10,0.8,-1.714,M,40.593,M,1.6,0123*60\r\n
$GPGGA,113212.40,5703.4530602,N,00952.4043523,E,2,10,0.8,-1.714,M,40.593,M,1.6,0123*62\r\n
$GPGGA,113212.45,5703.4530413,N,00952.4042360,E,2,10,0.8,-1.716,M,40.593,M,1.8,0123*69\r\n
$GPGGA,113212.50,5703.4530226,N,00952.4041209,E,2,10,0.8,-1.715,M,40.593,M,1.8,0123*63\r\n
$GPGGA,113212.55,5703.4530032,N,00952.4040058,E,2,10,0.8,-1.717,M,40.593,M,1.8,0123*64\r\n
$GPGGA,113212.60,5703.4529843,N,00952.4038890,E,2,10,0.8,-1.718,M,40.593,M,1.8,0123*68\r\n
$GPGGA,113212.65,5703.4529652,N,00952.4037738,E,2,10,0.8,-1.713,M,40.593,M,2.1,0123*60\r\n
$GPGGA,113212.70,5703.4529451,N,00952.4036575,E,2,10,0.8,-1.713,M,40.593,M,2.1,0123*6F\r\n
$GPGGA,113212.75,5703.4529256,N,00952.4035393,E,2,10,0.8,-1.713,M,40.593,M,2.1,0123*66\r\n
$GPGGA,113212.80,5703.4529053,N,00952.4034232,E,2,10,0.8,-1.711,M,40.593,M,2.1,0123*62\r\n
$GPGGA,113212.85,5703.4528848,N,00952.4033080,E,2,10,0.8,-1.711,M,40.593,M,2.3,0123*6A\r\n
$GPGGA,113212.90,5703.4528639,N,00952.4031926,E,2,10,0.8,-1.709,M,40.593,M,2.3,0123*68\r\n
$GPGGA,113212.95,5703.4528419,N,00952.4030774,E,2,10,0.8,-1.709,M,40.593,M,2.3,0123*65\r\n
$GPGGA,113213.00,5703.4528204,N,00952.4029622,E,2,10,0.8,-1.707,M,40.593,M,2.3,0123*66\r\n
$GPGGA,113213.05,5703.4527990,N,00952.4028492,E,2,10,0.8,-1.706,M,40.593,M,2.5,0123*65\r\n
$GPGGA,113213.10,5703.4527776,N,00952.4027341,E,2,10,0.8,-1.706,M,40.593,M,2.5,0123*61\r\n
$GPGGA,113213.15,5703.4527556,N,00952.4026194,E,2,10,0.8,-1.706,M,40.593,M,2.5,0123*6F\r\n
$GPGGA,113213.20,5703.4527339,N,00952.4025034,E,2,10,0.8,-1.708,M,40.593,M,2.5,0123*60\r\n
$GPGGA,113213.25,5703.4527126,N,00952.4023889,E,2,10,0.8,-1.705,M,40.593,M,2.7,0123*6E\r\n
$GPGGA,113213.30,5703.4526904,N,00952.4022758,E,2,10,0.8,-1.705,M,40.593,M,2.7,0123*61\r\n
$GPGGA,113213.35,5703.4526682,N,00952.4021625,E,2,10,0.8,-1.704,M,40.593,M,2.7,0123*6C\r\n
$GPGGA,113213.40,5703.4526467,N,00952.4020497,E,2,10,0.8,-1.700,M,40.593,M,2.7,0123*69\r\n
$GPGGA,113213.45,5703.4526240,N,00952.4019361,E,2,10,0.8,-1.699,M,40.593,M,2.9,0123*64\r\n
$GPGGA,113213.50,5703.4526011,N,00952.4018224,E,2,10,0.8,-1.700,M,40.593,M,2.9,0123*66\r\n
$GPGGA,113213.55,5703.4525776,N,00952.4017090,E,2,10,0.8,-1.700,M,40.593,M,2.9,0123*64\r\n
$GPGGA,113213.60,5703.4525548,N,00952.4015937,E,2,10,0.8,-1.700,M,40.593,M,2.9,0123*6B\r\n
$GPGGA,113213.65,5703.4525309,N,00952.4014802,E,2,10,0.8,-1.704,M,40.593,M,3.1,0123*66\r\n
$GPGGA,113213.70,5703.4525082,N,00952.4013655,E,2,10,0.8,-1.706,M,40.593,M,3.1,0123*6B\r\n
$GPGGA,113213.75,5703.4524836,N,00952.4012517,E,2,10,0.8,-1.707,M,40.593,M,3.1,0123*6D\r\n
$GPGGA,113213.80,5703.4524604,N,00952.4011390,E,2,10,0.8,-1.710,M,40.593,M,3.1,0123*64\r\n
$GPGGA,113213.85,5703.4524369,N,00952.4010257,E,2,10,0.8,-1.711,M,40.593,M,3.3,0123*67\r\n
$GPGGA,113213.90,5703.4524127,N,00952.4009116,E,2,10,0.8,-1.713,M,40.593,M,3.3,0123*67\r\n
$GPGGA,113213.95,5703.4523882,N,00952.4007973,E,2,10,0.8,-1.716,M,40.593,M,3.3,0123*63\r\n
$GPGGA,113214.00,5703.4523641,N,00952.4006831,E,2,10,0.8,-1.714,M,40.593,M,3.3,0123*6D\r\n
$GPGGA,113214.05,5703.4523394,N,00952.4005714,E,2,10,0.8,-1.714,M,40.593,M,3.5,0123*68\r\n
$GPGGA,113214.10,5703.4523152,N,00952.4004577,E,2,10,0.8,-1.712,M,40.593,M,3.5,0123*64\r\n
$GPGGA,113214.15,5703.4522896,N,00952.4003451,E,2,10,0.8,-1.713,M,40.593,M,3.5,0123*62\r\n
$GPGGA,113214.20,5703.4522649,N,00952.4002319,E,2,10,0.8,-1.712,M,40.593,M,3.5,0123*63\r\n
$GPGGA,113214.25,5703.4522404,N,00952.4001207,E,2,10,0.8,-1.713,M,40.593,M,3.8,0123*6C\r\n
$GPGGA,113214.30,5703.4522149,N,00952.4000098,E,2,10,0.8,-1.711,M,40.593,M,3.8,0123*63\r\n
$GPGGA,113214.35,5703.4521896,N,00952.3998963,E,2,10,0.8,-1.709,M,40.593,M,3.8,0123*65\r\n
$GPGGA,113214.40,5703.4521638,N,00952.3997833,E,2,10,0.8,-1.707,M,40.593,M,3.8,0123*68\r\n
$GPGGA,113214.45,5703.4521394,N,00952.3996708,E,2,10,0.8,-1.706,M,40.593,M,2.5,0123*65\r\n
$GPGGA,113214.50,5703.4521139,N,00952.3995593,E,2,10,0.8,-1.707,M,40.593,M,2.5,0123*66\r\n
$GPGGA,113214.55,5703.4520880,N,00952.3994473,E,2,10,0.8,-1.709,M,40.593,M,2.5,0123*69\r\n
$GPGGA,113214.60,5703.4520617,N,00952.3993350,E,2,10,0.8,-1.709,M,40.593,M,2.5,0123*6E\r\n
$GPGGA,113214.65,5703.4520361,N,00952.3992208,E,2,10,0.8,-1.707,M,40.593,M,2.8,0123*61\r\n
$GPGGA,113214.70,5703.4520095,N,00952.3991086,E,2,10,0.8,-1.707,M,40.593,M,2.8,0123*6A\r\n
$GPGGA,113214.75,5703.4519832,N,00952.3989975,E,2,10,0.8,-1.707,M,40.593,M,2.8,0123*6C\r\n
$GPGGA,113214.80,5703.4519569,N,00952.3988853,E,2,10,0.8,-1.708,M,40.593,M,2.8,0123*6E\r\n
$GPGGA,113214.85,5703.4519302,N,00952.3987734,E,2,10,0.8,-1.711,M,40.593,M,3.0,0123*60\r\n
$GPGGA,113214.90,5703.4519036,N,00952.3986620,E,2,10,0.8,-1.709,M,40.593,M,3.0,0123*6C\r\n
$GPGGA,113214.95,5703.4518771,N,00952.3985511,E,2,10,0.8,-1.709,M,40.593,M,3.0,0123*6E\r\n
$GPGGA,113215.00,5703.4518502,N,00952.3984389,E,2,10,0.8,-1.708,M,40.593,M,3.0,0123*62\r\n
$GPGGA,113215.05,5703.4518234,N,00952.3983278,E,2,10,0.8,-1.707,M,40.593,M,3.2,0123*60\r\n
$GPGGA,113215.10,5703.4517960,N,00952.3982160,E,2,10,0.8,-1.708,M,40.593,M,3.2,0123*65\r\n
$GPGGA,113215.15,5703.4517693,N,00952.3981045,E,2,10,0.8,-1.708,M,40.593,M,3.2,0123*66\r\n
$GPGGA,113215.20,5703.4517417,N,00952.3979935,E,2,10,0.8,-1.708,M,40.593,M,3.2,0123*67\r\n
$GPGGA,113215.25,5703.4517137,N,00952.3978819,E,2,10,0.8,-1.707,M,40.593,M,3.5,0123*63\r\n
$GPGGA,113215.30,5703.4516856,N,00952.3977717,E,2,10,0.8,-1.708,M,40.593,M,3.5,0123*69\r\n
$GPGGA,113215.35,5703.4516586,N,00952.3976607,E,2,10,0.8,-1.710,M,40.593,M,3.5,0123*64\r\n
$GPGGA,113215.40,5703.4516305,N,00952.3975499,E,2,10,0.8,-1.712,M,40.593,M,3.5,0123*6F\r\n
$GPGGA,113215.45,5703.4516020,N,00952.3974408,E,2,10,0.8,-1.708,M,40.593,M,2.7,0123*6F\r\n
$GPGGA,113215.50,5703.4515729,N,00952.3973287,E,2,10,0.8,-1.711,M,40.593,M,2.7,0123*68\r\n
$GPGGA,113215.55,5703.4515445,N,00952.3972172,E,2,10,0.8,-1.712,M,40.593,M,2.7,0123*6F\r\n
$GPGGA,113215.60,5703.4515165,N,00952.3971068,E,2,10,0.8,-1.711,M,40.593,M,2.7,0123*64\r\n
$GPGGA,113215.65,5703.4514880,N,00952.3969984,E,2,10,0.8,-1.712,M,40.593,M,3.0,0123*65\r\n
$GPGGA,113215.70,5703.4514594,N,00952.3968884,E,2,10,0.8,-1.709,M,40.593,M,3.0,0123*63\r\n
$GPGGA,113215.75,5703.4514314,N,00952.3967778,E,2,10,0.8,-1.711,M,40.593,M,3.0,0123*62\r\n
$GPGGA,113215.80,5703.4514027,N,00952.3966683,E,2,10,0.8,-1.710,M,40.593,M,3.0,0123*6E\r\n
$GPGGA,113215.85,5703.4513745,N,00952.3965592,E,2,10,0.8,-1.709,M,40.593,M,3.2,0123*65\r\n
$GPGGA,113215.90,5703.4513461,N,00952.3964488,E,2,10,0.8,-1.708,M,40.593,M,3.2,0123*6E\r\n
$GPGGA,113215.95,5703.4513179,N,00952.3963385,E,2,10,0.8,-1.709,M,40.593,M,3.2,0123*6B\r\n
$GPGGA,113216.00,5703.4512892,N,00952.3962280,E,2,10,0.8,-1.708,M,40.593,M,3.2,0123*6D\r\n
$GPGGA,113216.05,5703.4512609,N,00952.3961210,E,2,10,0.8,-1.707,M,40.593,M,3.4,0123*67\r\n
$GPGGA,113216.10,5703.4512322,N,00952.3960119,E,2,10,0.8,-1.705,M,40.593,M,3.4,0123*66\r\n
$GPGGA,113216.15,5703.4512027,N,00952.3959027,E,2,10,0.8,-1.705,M,40.593,M,3.4,0123*63\r\n
$GPGGA,113216.20,5703.4511719,N,00952.3957944,E,2,10,0.8,-1.706,M,40.593,M,3.4,0123*6D\r\n
$GPGGA,113216.25,5703.4511413,N,00952.3956862,E,2,10,0.8,-1.703,M,40.593,M,3.7,0123*63\r\n
$GPGGA,113216.30,5703.4511111,N,00952.3955766,E,2,10,0.8,-1.704,M,40.593,M,3.7,0123*6F\r\n
$GPGGA,113216.35,5703.4510823,N,00952.3954673,E,2,10,0.8,-1.704,M,40.593,M,3.7,0123*67\r\n
$GPGGA,113216.40,5703.4510537,N,00952.3953602,E,2,10,0.8,-1.702,M,40.593,M,3.7,0123*6A\r\n
$GPGGA,113216.45,5703.4510231,N,00952.3952526,E,2,10,0.8,-1.699,M,40.593,M,1.8,0123*64\r\n
$GPGGA,113216.50,5703.4509925,N,00952.3951439,E,2,10,0.8,-1.699,M,40.593,M,1.8,0123*6A\r\n
$GPGGA,113216.55,5703.4509629,N,00952.3950366,E,2,10,0.8,-1.702,M,40.593,M,1.8,0123*63\r\n
$GPGGA,113216.60,5703.4509324,N,00952.3949306,E,2,10,0.8,-1.702,M,40.593,M,1.8,0123*63\r\n
$GPGGA,113216.65,5703.4509006,N,00952.3948248,E,2,10,0.8,-1.703,M,40.593,M,2.1,0123*64\r\n
$GPGGA,113216.70,5703.4508700,N,00952.3947186,E,2,10,0.8,-1.702,M,40.593,M,2.1,0123*6F\r\n
$GPGGA,113216.75,5703.4508397,N,00952.3946112,E,2,10,0.8,-1.705,M,40.593,M,2.1,0123*6B\r\n
$GPGGA,113216.80,5703.4508085,N,00952.3945046,E,2,10,0.8,-1.706,M,40.593,M,2.1,0123*61\r\n
$GPGGA,113216.85,5703.4507790,N,00952.3943996,E,2,10,0.8,-1.704,M,40.593,M,2.3,0123*6A\r\n
$GPGGA,113216.90,5703.4507489,N,00952.3942947,E,2,10,0.8,-1.705,M,40.593,M,2.3,0123*69\r\n
$GPGGA,113216.95,5703.4507187,N,00952.3941873,E,2,10,0.8,-1.704,M,40.593,M,2.3,0123*63\r\n
$GPGGA,113217.00,5703.4506884,N,00952.3940784,E,2,10,0.8,-1.705,M,40.593,M,2.3,0123*62\r\n
$GPGGA,113217.05,5703.4506590,N,00952.3939727,E,2,10,0.8,-1.707,M,40.593,M,2.5,0123*6C\r\n
$GPGGA,113217.10,5703.4506286,N,00952.3938676,E,2,10,0.8,-1.707,M,40.593,M,2.5,0123*6C\r\n
$GPGGA,113217.15,5703.4505989,N,00952.3937618,E,2,10,0.8,-1.707,M,40.593,M,2.5,0123*69\r\n
$GPGGA,113217.20,5703.4505692,N,00952.3936573,E,2,10,0.8,-1.706,M,40.593,M,2.5,0123*64\r\n
$GPGGA,113217.25,5703.4505390,N,00952.3935531,E,2,10,0.8,-1.706,M,40.593,M,2.7,0123*61\r\n
$GPGGA,113217.30,5703.4505085,N,00952.3934467,E,2,10,0.8,-1.709,M,40.593,M,2.7,0123*6E\r\n
$GPGGA,113217.35,5703.4504774,N,00952.3933401,E,2,10,0.8,-1.710,M,40.593,M,2.7,0123*6C\r\n
$GPGGA,113217.40,5703.4504477,N,00952.3932337,E,2,10,0.8,-1.711,M,40.593,M,2.7,0123*6C\r\n
$GPGGA,113217.45,5703.4504169,N,00952.3931300,E,2,10,0.8,-1.712,M,40.593,M,2.9,0123*69\r\n
$GPGGA,113217.50,5703.4503857,N,00952.3930246,E,2,10,0.8,-1.712,M,40.593,M,2.9,0123*6C\r\n
$GPGGA,113217.55,5703.4503552,N,00952.3929195,E,2,10,0.8,-1.712,M,40.593,M,2.9,0123*64\r\n
$GPGGA,113217.60,5703.4503244,N,00952.3928155,E,2,10,0.8,-1.710,M,40.593,M,2.9,0123*6D\r\n
$GPGGA,113217.65,5703.4502922,N,00952.3927140,E,2,10,0.8,-1.710,M,40.593,M,3.1,0123*60\r\n
$GPGGA,113217.70,5703.4502607,N,00952.3926111,E,2,10,0.8,-1.711,M,40.593,M,3.1,0123*68\r\n
$GPGGA,113217.75,5703.4502290,N,00952.3925074,E,2,10,0.8,-1.711,M,40.593,M,3.1,0123*66\r\n
$GPGGA,113217.80,5703.4501970,N,00952.3924047,E,2,10,0.8,-1.709,M,40.593,M,3.1,0123*62\r\n
$GPGGA,113217.85,5703.4501645,N,00952.3923009,E,2,10,0.8,-1.712,M,40.593,M,3.3,0123*6B\r\n
$GPGGA,113217.90,5703.4501328,N,00952.3921954,E,2,10,0.8,-1.715,M,40.593,M,3.3,0123*65\r\n
$GPGGA,113217.95,5703.4501011,N,00952.3920919,E,2,10,0.8,-1.717,M,40.593,M,3.3,0123*63\r\n
$GPGGA,113218.00,5703.4500688,N,00952.3919899,E,2,10,0.8,-1.718,M,40.593,M,3.3,0123*6B\r\n
$GPGGA,113218.05,5703.4500381,N,00952.3918904,E,2,10,0.8,-1.720,M,40.593,M,3.5,0123*6B\r\n
$GPGGA,113218.10,5703.4500070,N,00952.3917852,E,2,10,0.8,-1.719,M,40.593,M,3.5,0123*65\r\n
$GPGGA,113218.15,5703.4499758,N,00952.3916807,E,2,10,0.8,-1.720,M,40.593,M,3.5,0123*67\r\n
$GPGGA,113218.20,5703.4499427,N,00952.3915787,E,2,10,0.8,-1.721,M,40.593,M,3.5,0123*6F\r\n
$GPGGA,113218.25,5703.4499102,N,00952.3914748,E,2,10,0.8,-1.718,M,40.593,M,3.8,0123*6D\r\n
$GPGGA,113218.30,5703.4498779,N,00952.3913714,E,2,10,0.8,-1.718,M,40.593,M,3.8,0123*6C\r\n
$GPGGA,113218.35,5703.4498466,N,00952.3912681,E,2,10,0.8,-1.717,M,40.593,M,3.8,0123*67\r\n
$GPGGA,113218.40,5703.4498136,N,00952.3911648,E,2,10,0.8,-1.718,M,40.593,M,3.8,0123*6C\r\n
$GPGGA,113218.45,5703.4497799,N,00952.3910629,E,2,10,0.8,-1.719,M,40.593,M,2.5,0123*6E\r\n
$GPGGA,113218.50,5703.4497466,N,00952.3909608,E,2,10,0.8,-1.720,M,40.593,M,2.5,0123*68\r\n
$GPGGA,113218.55,5703.4497145,N,00952.3908580,E,2,10,0.8,-1.721,M,40.593,M,2.5,0123*6A\r\n
$GPGGA,113218.60,5703.4496819,N,00952.3907561,E,2,10,0.8,-1.721,M,40.593,M,2.5,0123*6D\r\n
$GPGGA,113218.65,5703.4496493,N,00952.3906530,E,2,10,0.8,-1.721,M,40.593,M,2.8,0123*6E\r\n
$GPGGA,113218.70,5703.4496158,N,00952.3905487,E,2,10,0.8,-1.720,M,40.593,M,2.8,0123*67\r\n
$GPGGA,113218.75,5703.4495824,N,00952.3904456,E,2,10,0.8,-1.721,M,40.593,M,2.8,0123*6F\r\n
$GPGGA,113218.80,5703.4495488,N,00952.3903448,E,2,10,0.8,-1.722,M,40.593,M,2.8,0123*64\r\n
$GPGGA,113218.85,5703.4495158,N,00952.3902416,E,2,10,0.8,-1.719,M,40.593,M,3.0,0123*62\r\n
$GPGGA,113218.90,5703.4494825,N,00952.3901382,E,2,10,0.8,-1.718,M,40.593,M,3.0,0123*6C\r\n
$GPGGA,113218.95,5703.4494478,N,00952.3900346,E,2,10,0.8,-1.716,M,40.593,M,3.0,0123*6A\r\n
$GPGGA,113219.00,5703.4494147,N,00952.3899314,E,2,10,0.8,-1.718,M,40.593,M,3.0,0123*66\r\n
$GPGGA,113219.05,5703.4493824,N,00952.3898308,E,2,10,0.8,-1.723,M,40.593,M,3.2,0123*6E\r\n
$GPGGA,113219.10,5703.4493485,N,00952.3897268,E,2,10,0.8,-1.722,M,40.593,M,3.2,0123*64\r\n
$GPGGA,113219.15,5703.4493144,N,00952.3896229,E,2,10,0.8,-1.723,M,40.593,M,3.2,0123*6C\r\n
$GPGGA,113219.20,5703.4492811,N,00952.3895199,E,2,10,0.8,-1.721,M,40.593,M,3.2,0123*6B\r\n
$GPGGA,113219.25,5703.4492466,N,00952.3894180,E,2,10,0.8,-1.718,M,40.593,M,3.5,0123*66\r\n
$GPGGA,113219.30,5703.4492122,N,00952.3893158,E,2,10,0.8,-1.718,M,40.593,M,3.5,0123*65\r\n
$GPGGA,113219.35,5703.4491771,N,00952.3892127,E,2,10,0.8,-1.718,M,40.593,M,3.5,0123*6A\r\n
$GPGGA,113219.40,5703.4491426,N,00952.3891095,E,2,10,0.8,-1.718,M,40.593,M,3.5,0123*62\r\n
$GPGGA,113219.45,5703.4491083,N,00952.3890055,E,2,10,0.8,-1.720,M,40.593,M,2.7,0123*69\r\n
$GPGGA,113219.50,5703.4490741,N,00952.3889036,E,2,10,0.8,-1.719,M,40.593,M,2.7,0123*62\r\n
$GPGGA,113219.55,5703.4490381,N,00952.3888016,E,2,10,0.8,-1.719,M,40.593,M,2.7,0123*6C\r\n
$GPGGA,113219.60,5703.4490025,N,00952.3886975,E,2,10,0.8,-1.721,M,40.593,M,2.7,0123*6E\r\n
$GPGGA,113219.65,5703.4489667,N,00952.3885933,E,2,10,0.8,-1.721,M,40.593,M,3.0,0123*64\r\n
$GPGGA,113219.70,5703.4489318,N,00952.3884908,E,2,10,0.8,-1.722,M,40.593,M,3.0,0123*67\r\n
$GPGGA,113219.75,5703.4488983,N,00952.3883888,E,2,10,0.8,-1.719,M,40.593,M,3.0,0123*6D\r\n
$GPGGA,113219.80,5703.4488639,N,00952.3882863,E,2,10,0.8,-1.717,M,40.593,M,3.0,0123*63\r\n
$GPGGA,113219.85,5703.4488295,N,00952.3881838,E,2,10,0.8,-1.718,M,40.593,M,3.2,0123*64\r\n
$GPGGA,113219.90,5703.4487944,N,00952.3880792,E,2,10,0.8,-1.718,M,40.593,M,3.2,0123*66\r\n
$GPGGA,113219.95,5703.4487583,N,00952.3879732,E,2,10,0.8,-1.718,M,40.593,M,3.2,0123*68\r\n
$GPGGA,113220.00,5703.4487233,N,00952.3878701,E,2,10,0.8,-1.720,M,40.593,M,3.2,0123*68\r\n
$GPGGA,113220.05,5703.4486893,N,00952.3877694,E,2,10,0.8,-1.721,M,40.593,M,3.4,0123*69\r\n
$GPGGA,113220.10,5703.4486550,N,00952.3876670,E,2,10,0.8,-1.721,M,40.593,M,3.4,0123*64\r\n
$GPGGA,113220.15,5703.4486194,N,00952.3875631,E,2,10,0.8,-1.720,M,40.593,M,3.4,0123*6A\r\n
$GPGGA,113220.20,5703.4485839,N,00952.3874576,E,2,10,0.8,-1.718,M,40.593,M,3.4,0123*6B\r\n
$GPGGA,113220.25,5703.4485480,N,00952.3873531,E,2,10,0.8,-1.717,M,40.593,M,3.7,0123*68\r\n
$GPGGA,113220.30,5703.4485131,N,00952.3872512,E,2,10,0.8,-1.716,M,40.593,M,3.7,0123*62\r\n
$GPGGA,113220.35,5703.4484781,N,00952.3871491,E,2,10,0.8,-1.714,M,40.593,M,3.7,0123*60\r\n
$GPGGA,113220.40,5703.4484421,N,00952.3870430,E,2,10,0.8,-1.713,M,40.593,M,3.7,0123*66\r\n
$GPGGA,113220.45,5703.4484069,N,00952.3869407,E,2,10,0.8,-1.715,M,40.593,M,1.8,0123*6C\r\n
$GPGGA,113220.50,5703.4483710,N,00952.3868384,E,2,10,0.8,-1.715,M,40.593,M,1.8,0123*6B\r\n
$GPGGA,113220.55,5703.4483354,N,00952.3867354,E,2,10,0.8,-1.716,M,40.593,M,1.8,0123*6B\r\n
$GPGGA,113220.60,5703.4482996,N,00952.3866322,E,2,10,0.8,-1.714,M,40.593,M,1.8,0123*6A\r\n
$GPGGA,113220.65,5703.4482643,N,00952.3865301,E,2,10,0.8,-1.714,M,40.593,M,2.1,0123*60\r\n
$GPGGA,113220.70,5703.4482288,N,00952.3864285,E,2,10,0.8,-1.713,M,40.593,M,2.1,0123*6C\r\n
$GPGGA,113220.75,5703.4481947,N,00952.3863251,E,2,10,0.8,-1.712,M,40.593,M,2.1,0123*6D\r\n
$GPGGA,113220.80,5703.4481588,N,00952.3862219,E,2,10,0.8,-1.712,M,40.593,M,2.1,0123*65\r\n
$GPGGA,113220.85,5703.4481226,N,00952.3861202,E,2,10,0.8,-1.709,M,40.593,M,2.3,0123*62\r\n
$GPGGA,113220.90,5703.4480867,N,00952.3860176,E,2,10,0.8,-1.710,M,40.593,M,2.3,0123*61\r\n
$GPGGA,113220.95,5703.4480511,N,00952.3859135,E,2,10,0.8,-1.711,M,40.593,M,2.3,0123*64\r\n
$GPGGA,113221.00,5703.4480155,N,00952.3858115,E,2,10,0.8,-1.713,M,40.593,M,2.3,0123*6C\r\n
$GPGGA,113221.05,5703.4479813,N,00952.3857110,E,2,10,0.8,-1.713,M,40.593,M,2.5,0123*68\r\n
$GPGGA,113221.10,5703.4479448,N,00952.3856073,E,2,10,0.8,-1.713,M,40.593,M,2.5,0123*6B\r\n
$GPGGA,113221.15,5703.4479090,N,00952.3855036,E,2,10,0.8,-1.714,M,40.593,M,2.5,0123*6A\r\n
$GPGGA,113221.20,5703.4478727,N,00952.3854011,E,2,10,0.8,-1.717,M,40.593,M,2.5,0123*61\r\n
$GPGGA,113221.25,5703.4478366,N,00952.3853011,E,2,10,0.8,-1.717,M,40.593,M,2.7,0123*60\r\n
$GPGGA,113221.30,5703.4478006,N,00952.3851984,E,2,10,0.8,-1.719,M,40.593,M,2.7,0123*68\r\n
$GPGGA,113221.35,5703.4477658,N,00952.3850940,E,2,10,0.8,-1.719,M,40.593,M,2.7,0123*66\r\n
$GPGGA,113221.40,5703.4477301,N,00952.3849918,E,2,10,0.8,-1.719,M,40.593,M,2.7,0123*68\r\n
$GPGGA,113221.45,5703.4476938,N,00952.3848901,E,2,10,0.8,-1.719,M,40.593,M,1.0,0123*61\r\n
$GPGGA,113221.50,5703.4476579,N,00952.3847883,E,2,10,0.8,-1.719,M,40.593,M,1.0,0123*68\r\n
$GPGGA,113221.55,5703.4476227,N,00952.3846867,E,2,10,0.8,-1.717,M,40.593,M,1.0,0123*64\r\n
$GPGGA,113221.60,5703.4475868,N,00952.3845860,E,2,10,0.8,-1.718,M,40.593,M,1.0,0123*6B\r\n
$GPGGA,113221.65,5703.4475502,N,00952.3844858,E,2,10,0.8,-1.721,M,40.593,M,1.4,0123*6B\r\n
$GPGGA,113221.70,5703.4475139,N,00952.3843846,E,2,10,0.8,-1.723,M,40.593,M,1.4,0123*69\r\n
$GPGGA,113221.75,5703.4474782,N,00952.3842832,E,2,10,0.8,-1.722,M,40.593,M,1.4,0123*68\r\n
$GPGGA,113221.80,5703.4474429,N,00952.3841823,E,2,10,0.8,-1.720,M,40.593,M,1.4,0123*61\r\n
$GPGGA,113221.85,5703.4474075,N,00952.3840811,E,2,10,0.8,-1.717,M,40.593,M,1.7,0123*6E\r\n
$GPGGA,113221.90,5703.4473712,N,00952.3839810,E,2,10,0.8,-1.717,M,40.593,M,1.7,0123*64\r\n
$GPGGA,113221.95,5703.4473359,N,00952.3838793,E,2,10,0.8,-1.718,M,40.593,M,1.7,0123*60\r\n
$GPGGA,113222.00,5703.4472989,N,00952.3837783,E,2,10,0.8,-1.718,M,40.593,M,1.7,0123*67\r\n
$GPGGA,113222.05,5703.4472651,N,00952.3836805,E,2,10,0.8,-1.720,M,40.593,M,2.0,0123*67\r\n
$GPGGA,113222.10,5703.4472291,N,00952.3835801,E,2,10,0.8,-1.721,M,40.593,M,2.0,0123*6D\r\n
$GPGGA,113222.15,5703.4471927,N,00952.3834793,E,2,10,0.8,-1.720,M,40.593,M,2.0,0123*69\r\n
$GPGGA,113222.20,5703.4471563,N,00952.3833802,E,2,10,0.8,-1.720,M,40.593,M,2.0,0123*63\r\n
$GPGGA,113222.25,5703.4471195,N,00952.3832822,E,2,10,0.8,-1.718,M,40.593,M,2.3,0123*60\r\n
$GPGGA,113222.30,5703.4470834,N,00952.3831822,E,2,10,0.8,-1.719,M,40.593,M,2.3,0123*65\r\n
