$GPGGA,094234.00,5700.9208842,N,00959.1372675,E,2,9,0.8,10.931,M,40.582,M,3.7,0136*40\r\n
$GPGGA,094234.05,5700.9208826,N,00959.1372684,E,2,9,0.8,10.929,M,40.582,M,2.3,0136*45\r\n
$GPGGA,094234.10,5700.9208824,N,00959.1372683,E,2,9,0.8,10.929,M,40.582,M,2.3,0136*44\r\n
$GPGGA,094234.15,5700.9208825,N,00959.1372679,E,2,9,0.8,10.929,M,40.582,M,2.3,0136*45\r\n
$GPGGA,094234.20,5700.9208826,N,00959.1372684,E,2,9,0.8,10.928,M,40.582,M,2.3,0136*43\r\n
$GPGGA,094234.25,5700.9208830,N,00959.1372664,E,2,9,0.8,10.931,M,40.582,M,2.6,0136*42\r\n
$GPGGA,094234.30,5700.9208829,N,00959.1372662,E,2,9,0.8,10.931,M,40.582,M,2.6,0136*48\r\n
$GPGGA,094234.35,5700.9208830,N,00959.1372663,E,2,9,0.8,10.931,M,40.582,M,2.6,0136*44\r\n
$GPGGA,094234.40,5700.9208831,N,00959.1372665,E,2,9,0.8,10.931,M,40.582,M,2.6,0136*41\r\n
$GPGGA,094234.45,5700.9208828,N,00959.1372669,E,2,9,0.8,10.931,M,40.582,M,2.9,0136*4F\r\n
$GPGGA,094234.50,5700.9208830,N,00959.1372671,E,2,9,0.8,10.931,M,40.582,M,2.9,0136*4B\r\n
$GPGGA,094234.55,5700.9208829,N,00959.1372674,E,2,9,0.8,10.931,M,40.582,M,2.9,0136*43\r\n
$GPGGA,094234.60,5700.9208831,N,00959.1372675,E,2,9,0.8,10.931,M,40.582,M,2.9,0136*4D\r\n
$GPGGA,094234.65,5700.9208835,N,00959.1372684,E,2,9,0.8,10.934,M,40.582,M,3.1,0136*4E\r\n
$GPGGA,094234.70,5700.9208835,N,00959.1372688,E,2,9,0.8,10.934,M,40.582,M,3.1,0136*46\r\n
$GPGGA,094234.75,5700.9208837,N,00959.1372690,E,2,9,0.8,10.934,M,40.582,M,3.1,0136*48\r\n
$GPGGA,094234.80,5700.9208839,N,00959.1372693,E,2,9,0.8,10.934,M,40.582,M,3.1,0136*4F\r\n
$GPGGA,094234.85,5700.9208839,N,00959.1372704,E,2,9,0.8,10.932,M,40.582,M,3.4,0136*46\r\n
$GPGGA,094234.90,5700.9208840,N,00959.1372704,E,2,9,0.8,10.932,M,40.582,M,3.4,0136*4C\r\n
$GPGGA,094234.95,5700.9208841,N,00959.1372704,E,2,9,0.8,10.932,M,40.582,M,3.4,0136*48\r\n
$GPGGA,094235.00,5700.9208840,N,00959.1372707,E,2,9,0.8,10.933,M,40.582,M,3.4,0136*46\r\n
$GPGGA,094235.05,5700.9208817,N,00959.1372686,E,2,9,0.8,10.937,M,40.582,M,1.4,0136*4F\r\n
$GPGGA,094235.10,5700.9208816,N,00959.1372686,E,2,9,0.8,10.937,M,40.582,M,1.4,0136*4A\r\n
$GPGGA,094235.15,5700.9208817,N,00959.1372687,E,2,9,0.8,10.938,M,40.582,M,1.4,0136*40\r\n
$GPGGA,094235.20,5700.9208817,N,00959.1372688,E,2,9,0.8,10.938,M,40.582,M,1.4,0136*49\r\n
$GPGGA,094235.25,5700.9208817,N,00959.1372673,E,2,9,0.8,10.933,M,40.582,M,1.6,0136*41\r\n
$GPGGA,094235.30,5700.9208817,N,00959.1372674,E,2,9,0.8,10.934,M,40.582,M,1.6,0136*45\r\n
$GPGGA,094235.35,5700.9208816,N,00959.1372676,E,2,9,0.8,10.934,M,40.582,M,1.6,0136*43\r\n
$GPGGA,094235.40,5700.9208816,N,00959.1372678,E,2,9,0.8,10.934,M,40.582,M,1.6,0136*4F\r\n
$GPGGA,094235.45,5700.9208809,N,00959.1372699,E,2,9,0.8,10.933,M,40.582,M,1.9,0136*43\r\n
$GPGGA,094235.50,5700.9208809,N,00959.1372699,E,2,9,0.8,10.933,M,40.582,M,1.9,0136*47\r\n
$GPGGA,094235.55,5700.9208807,N,00959.1372703,E,2,9,0.8,10.933,M,40.582,M,1.9,0136*4E\r\n
$GPGGA,094235.60,5700.9208808,N,00959.1372702,E,2,9,0.8,10.933,M,40.582,M,1.9,0136*46\r\n
$GPGGA,094235.65,5700.9208805,N,00959.1372707,E,2,9,0.8,10.930,M,40.582,M,2.1,0136*43\r\n
$GPGGA,094235.70,5700.9208803,N,00959.1372709,E,2,9,0.8,10.930,M,40.582,M,2.1,0136*4F\r\n
$GPGGA,094235.75,5700.9208804,N,00959.1372709,E,2,9,0.8,10.930,M,40.582,M,2.1,0136*4D\r\n
$GPGGA,094235.80,5700.9208803,N,00959.1372706,E,2,9,0.8,10.930,M,40.582,M,2.1,0136*4F\r\n
$GPGGA,094235.85,5700.9208810,N,00959.1372690,E,2,9,0.8,10.932,M,40.582,M,2.3,0136*46\r\n
$GPGGA,094235.90,5700.9208809,N,00959.1372691,E,2,9,0.8,10.932,M,40.582,M,2.3,0136*4B\r\n
$GPGGA,094235.95,5700.9208806,N,00959.1372689,E,2,9,0.8,10.932,M,40.582,M,2.3,0136*48\r\n
$GPGGA,094236.00,5700.9208807,N,00959.1372688,E,2,9,0.8,10.932,M,40.582,M,2.3,0136*47\r\n
$GPGGA,094236.05,5700.9208800,N,00959.1372653,E,2,9,0.8,10.937,M,40.582,M,1.7,0136*41\r\n
$GPGGA,094236.10,5700.9208800,N,00959.1372654,E,2,9,0.8,10.937,M,40.582,M,1.7,0136*42\r\n
$GPGGA,094236.15,5700.9208803,N,00959.1372657,E,2,9,0.8,10.936,M,40.582,M,1.7,0136*46\r\n
$GPGGA,094236.20,5700.9208804,N,00959.1372657,E,2,9,0.8,10.936,M,40.582,M,1.7,0136*47\r\n
$GPGGA,094236.25,5700.9208821,N,00959.1372668,E,2,9,0.8,10.927,M,40.582,M,2.0,0136*4D\r\n
$GPGGA,094236.30,5700.9208822,N,00959.1372666,E,2,9,0.8,10.926,M,40.582,M,2.0,0136*45\r\n
$GPGGA,094236.35,5700.9208822,N,00959.1372661,E,2,9,0.8,10.926,M,40.582,M,2.0,0136*47\r\n
$GPGGA,094236.40,5700.9208824,N,00959.1372661,E,2,9,0.8,10.926,M,40.582,M,2.0,0136*43\r\n
$GPGGA,094236.45,5700.9208836,N,00959.1372657,E,2,9,0.8,10.935,M,40.582,M,2.2,0136*40\r\n
$GPGGA,094236.50,5700.9208839,N,00959.1372659,E,2,9,0.8,10.935,M,40.582,M,2.2,0136*45\r\n
$GPGGA,094236.55,5700.9208840,N,00959.1372657,E,2,9,0.8,10.935,M,40.582,M,2.2,0136*40\r\n
$GPGGA,094236.60,5700.9208841,N,00959.1372658,E,2,9,0.8,10.935,M,40.582,M,2.2,0136*48\r\n
$GPGGA,094236.65,5700.9208846,N,00959.1372676,E,2,9,0.8,10.934,M,40.582,M,2.4,0136*41\r\n
$GPGGA,094236.70,5700.9208848,N,00959.1372679,E,2,9,0.8,10.934,M,40.582,M,2.4,0136*44\r\n
$GPGGA,094236.75,5700.9208851,N,00959.1372680,E,2,9,0.8,10.935,M,40.582,M,2.4,0136*4E\r\n
$GPGGA,094236.80,5700.9208854,N,00959.1372684,E,2,9,0.8,10.935,M,40.582,M,2.4,0136*45\r\n
$GPGGA,094236.85,5700.9208863,N,00959.1372711,E,2,9,0.8,10.933,M,40.582,M,2.6,0136*4D\r\n
$GPGGA,094236.90,5700.9208865,N,00959.1372714,E,2,9,0.8,10.933,M,40.582,M,2.6,0136*4A\r\n
$GPGGA,094236.95,5700.9208865,N,00959.1372721,E,2,9,0.8,10.933,M,40.582,M,2.6,0136*49\r\n
$GPGGA,094237.00,5700.9208866,N,00959.1372727,E,2,9,0.8,10.934,M,40.582,M,2.6,0136*46\r\n
$GPGGA,094237.05,5700.9208828,N,00959.1372722,E,2,9,0.8,10.934,M,40.582,M,2.8,0136*42\r\n
$GPGGA,094237.10,5700.9208830,N,00959.1372727,E,2,9,0.8,10.934,M,40.582,M,2.8,0136*4A\r\n
$GPGGA,094237.15,5700.9208829,N,00959.1372731,E,2,9,0.8,10.934,M,40.582,M,2.8,0136*40\r\n
$GPGGA,094237.20,5700.9208831,N,00959.1372737,E,2,9,0.8,10.934,M,40.582,M,2.8,0136*49\r\n
$GPGGA,094237.25,5700.9208831,N,00959.1372735,E,2,9,0.8,10.929,M,40.582,M,3.1,0136*4A\r\n
$GPGGA,094237.30,5700.9208831,N,00959.1372740,E,2,9,0.8,10.929,M,40.582,M,3.1,0136*4C\r\n
$GPGGA,094237.35,5700.9208831,N,00959.1372745,E,2,9,0.8,10.929,M,40.582,M,3.1,0136*4C\r\n
$GPGGA,094237.40,5700.9208831,N,00959.1372750,E,2,9,0.8,10.928,M,40.582,M,3.1,0136*4B\r\n
$GPGGA,094237.45,5700.9208820,N,00959.1372751,E,2,9,0.8,10.926,M,40.582,M,3.3,0136*43\r\n
$GPGGA,094237.50,5700.9208817,N,00959.1372759,E,2,9,0.8,10.925,M,40.582,M,3.3,0136*48\r\n
$GPGGA,094237.55,5700.9208816,N,00959.1372767,E,2,9,0.8,10.925,M,40.582,M,3.3,0136*41\r\n
$GPGGA,094237.60,5700.9208815,N,00959.1372772,E,2,9,0.8,10.924,M,40.582,M,3.3,0136*41\r\n
$GPGGA,094237.65,5700.9208795,N,00959.1372792,E,2,9,0.8,10.919,M,40.582,M,3.5,0136*45\r\n
$GPGGA,094237.70,5700.9208796,N,00959.1372807,E,2,9,0.8,10.918,M,40.582,M,3.5,0136*40\r\n
$GPGGA,094237.75,5700.9208794,N,00959.1372825,E,2,9,0.8,10.917,M,40.582,M,3.5,0136*48\r\n
$GPGGA,094237.80,5700.9208792,N,00959.1372843,E,2,9,0.8,10.916,M,40.582,M,3.5,0136*45\r\n
$GPGGA,094237.85,5700.9208785,N,00959.1372945,E,2,9,0.8,10.902,M,40.582,M,3.7,0136*46\r\n
$GPGGA,094237.90,5700.9208775,N,00959.1373002,E,2,9,0.8,10.894,M,40.582,M,3.7,0136*48\r\n
$GPGGA,094237.95,5700.9208767,N,00959.1373067,E,2,9,0.8,10.885,M,40.582,M,3.7,0136*4D\r\n
$GPGGA,094238.00,5700.9208757,N,00959.1373140,E,2,9,0.8,10.877,M,40.582,M,3.7,0136*44\r\n
$GPGGA,094238.05,5700.9208736,N,00959.1373199,E,2,9,0.8,10.872,M,40.582,M,2.3,0136*42\r\n
$GPGGA,094238.10,5700.9208719,N,00959.1373287,E,2,9,0.8,10.863,M,40.582,M,2.3,0136*47\r\n
$GPGGA,094238.15,5700.9208719,N,00959.1373365,E,2,9,0.8,10.856,M,40.582,M,2.3,0136*49\r\n
$GPGGA,094238.20,5700.9208698,N,00959.1373456,E,2,9,0.8,10.849,M,40.582,M,2.3,0136*4E\r\n
$GPGGA,094238.25,5700.9208681,N,00959.1373539,E,2,9,0.8,10.836,M,40.582,M,2.6,0136*46\r\n
$GPGGA,094238.30,5700.9208666,N,00959.1373616,E,2,9,0.8,10.823,M,40.582,M,2.6,0136*41\r\n
$GPGGA,094238.35,5700.9208652,N,00959.1373716,E,2,9,0.8,10.811,M,40.582,M,2.6,0136*43\r\n
$GPGGA,094238.40,5700.9208644,N,00959.1373823,E,2,9,0.8,10.800,M,40.582,M,2.6,0136*4F\r\n
$GPGGA,094238.45,5700.9208631,N,00959.1373931,E,2,9,0.8,10.788,M,40.582,M,2.9,0136*4A\r\n
$GPGGA,094238.50,5700.9208626,N,00959.1374028,E,2,9,0.8,10.775,M,40.582,M,2.9,0136*4C\r\n
$GPGGA,094238.55,5700.9208633,N,00959.1374112,E,2,9,0.8,10.763,M,40.582,M,2.9,0136*42\r\n
$GPGGA,094238.60,5700.9208630,N,00959.1374187,E,2,9,0.8,10.752,M,40.582,M,2.9,0136*49\r\n
$GPGGA,094238.65,5700.9208625,N,00959.1374267,E,2,9,0.8,10.736,M,40.582,M,3.1,0136*4E\r\n
$GPGGA,094238.70,5700.9208614,N,00959.1374367,E,2,9,0.8,10.724,M,40.582,M,3.1,0136*4A\r\n
$GPGGA,094238.75,5700.9208616,N,00959.1374466,E,2,9,0.8,10.712,M,40.582,M,3.1,0136*4E\r\n
$GPGGA,094238.80,5700.9208601,N,00959.1374570,E,2,9,0.8,10.700,M,40.582,M,3.1,0136*47\r\n
$GPGGA,094238.85,5700.9208594,N,00959.1374654,E,2,9,0.8,10.696,M,40.582,M,3.4,0136*43\r\n
$GPGGA,094238.90,5700.9208581,N,00959.1374743,E,2,9,0.8,10.688,M,40.582,M,3.4,0136*4B\r\n
$GPGGA,094238.95,5700.9208582,N,00959.1374824,E,2,9,0.8,10.678,M,40.582,M,3.4,0136*4C\r\n
$GPGGA,094239.00,5700.9208575,N,00959.1374896,E,2,9,0.8,10.668,M,40.582,M,3.4,0136*41\r\n
$GPGGA,094239.05,5700.9208559,N,00959.1374938,E,2,9,0.8,10.665,M,40.582,M,1.4,0136*40\r\n
$GPGGA,094239.10,5700.9208550,N,00959.1374999,E,2,9,0.8,10.656,M,40.582,M,1.4,0136*46\r\n
$GPGGA,094239.15,5700.9208541,N,00959.1375066,E,2,9,0.8,10.647,M,40.582,M,1.4,0136*4B\r\n
$GPGGA,094239.20,5700.9208536,N,00959.1375135,E,2,9,0.8,10.637,M,40.582,M,1.4,0136*4D\r\n
$GPGGA,094239.25,5700.9208529,N,00959.1375206,E,2,9,0.8,10.627,M,40.582,M,1.6,0136*46\r\n
$GPGGA,094239.30,5700.9208525,N,00959.1375267,E,2,9,0.8,10.621,M,40.582,M,1.6,0136*4F\r\n
$GPGGA,094239.35,5700.9208522,N,00959.1375315,E,2,9,0.8,10.616,M,40.582,M,1.6,0136*4D\r\n
$GPGGA,094239.40,5700.9208519,N,00959.1375371,E,2,9,0.8,10.608,M,40.582,M,1.6,0136*4A\r\n
$GPGGA,094239.45,5700.9208532,N,00959.1375429,E,2,9,0.8,10.608,M,40.582,M,1.9,0136*43\r\n
$GPGGA,094239.50,5700.9208525,N,00959.1375480,E,2,9,0.8,10.601,M,40.582,M,1.9,0136*4B\r\n
$GPGGA,094239.55,5700.9208522,N,00959.1375500,E,2,9,0.8,10.601,M,40.582,M,1.9,0136*40\r\n
$GPGGA,094239.60,5700.9208525,N,00959.1375457,E,2,9,0.8,10.607,M,40.582,M,1.9,0136*44\r\n
$GPGGA,094239.65,5700.9208537,N,00959.1375454,E,2,9,0.8,10.615,M,40.582,M,2.1,0136*49\r\n
$GPGGA,094239.70,5700.9208543,N,00959.1375465,E,2,9,0.8,10.617,M,40.582,M,2.1,0136*4E\r\n
$GPGGA,094239.75,5700.9208551,N,00959.1375484,E,2,9,0.8,10.619,M,40.582,M,2.1,0136*49\r\n
$GPGGA,094239.80,5700.9208553,N,00959.1375494,E,2,9,0.8,10.622,M,40.582,M,2.1,0136*48\r\n
$GPGGA,094239.85,5700.9208554,N,00959.1375547,E,2,9,0.8,10.613,M,40.582,M,2.3,0136*45\r\n
$GPGGA,094239.90,5700.9208562,N,00959.1375539,E,2,9,0.8,10.615,M,40.582,M,2.3,0136*4B\r\n
$GPGGA,094239.95,5700.9208568,N,00959.1375534,E,2,9,0.8,10.618,M,40.582,M,2.3,0136*44\r\n
$GPGGA,094240.00,5700.9208572,N,00959.1375530,E,2,9,0.8,10.622,M,40.582,M,2.3,0136*40\r\n
$GPGGA,094240.05,5700.9208533,N,00959.1375457,E,2,9,0.8,10.611,M,40.582,M,1.7,0136*47\r\n
$GPGGA,094240.10,5700.9208537,N,00959.1375449,E,2,9,0.8,10.613,M,40.582,M,1.7,0136*4A\r\n
$GPGGA,094240.15,5700.9208543,N,00959.1375441,E,2,9,0.8,10.615,M,40.582,M,1.7,0136*42\r\n
$GPGGA,094240.20,5700.9208547,N,00959.1375426,E,2,9,0.8,10.617,M,40.582,M,1.7,0136*43\r\n
$GPGGA,094240.25,5700.9208549,N,00959.1375489,E,2,9,0.8,10.611,M,40.582,M,2.0,0136*4F\r\n
$GPGGA,094240.30,5700.9208552,N,00959.1375480,E,2,9,0.8,10.612,M,40.582,M,2.0,0136*4B\r\n
$GPGGA,094240.35,5700.9208557,N,00959.1375478,E,2,9,0.8,10.613,M,40.582,M,2.0,0136*4D\r\n
$GPGGA,094240.40,5700.9208560,N,00959.1375477,E,2,9,0.8,10.614,M,40.582,M,2.0,0136*43\r\n
$GPGGA,094240.45,5700.9208547,N,00959.1375511,E,2,9,0.8,10.608,M,40.582,M,2.2,0136*4D\r\n
$GPGGA,094240.50,5700.9208550,N,00959.1375502,E,2,9,0.8,10.608,M,40.582,M,2.2,0136*4D\r\n
$GPGGA,094240.55,5700.9208551,N,00959.1375497,E,2,9,0.8,10.607,M,40.582,M,2.2,0136*4B\r\n
$GPGGA,094240.60,5700.9208552,N,00959.1375500,E,2,9,0.8,10.607,M,40.582,M,2.2,0136*41\r\n
$GPGGA,094240.65,5700.9208563,N,00959.1375487,E,2,9,0.8,10.610,M,40.582,M,2.4,0136*48\r\n
$GPGGA,094240.70,5700.9208564,N,00959.1375485,E,2,9,0.8,10.609,M,40.582,M,2.4,0136*41\r\n
$GPGGA,094240.75,5700.9208565,N,00959.1375484,E,2,9,0.8,10.609,M,40.582,M,2.4,0136*44\r\n
$GPGGA,094240.80,5700.9208564,N,00959.1375478,E,2,9,0.8,10.609,M,40.582,M,2.4,0136*4C\r\n
$GPGGA,094240.85,5700.9208550,N,00959.1375482,E,2,9,0.8,10.614,M,40.582,M,2.6,0136*45\r\n
$GPGGA,094240.90,5700.9208549,N,00959.1375481,E,2,9,0.8,10.614,M,40.582,M,2.6,0136*4A\r\n
$GPGGA,094240.95,5700.9208552,N,00959.1375485,E,2,9,0.8,10.614,M,40.582,M,2.6,0136*41\r\n
$GPGGA,094241.00,5700.9208555,N,00959.1375485,E,2,9,0.8,10.614,M,40.582,M,2.6,0136*4B\r\n
$GPGGA,094241.05,5700.9208567,N,00959.1375465,E,2,9,0.8,10.609,M,40.582,M,2.8,0136*43\r\n
$GPGGA,094241.10,5700.9208566,N,00959.1375469,E,2,9,0.8,10.608,M,40.582,M,2.8,0136*4B\r\n
$GPGGA,094241.15,5700.9208567,N,00959.1375472,E,2,9,0.8,10.608,M,40.582,M,2.8,0136*45\r\n
$GPGGA,094241.20,5700.9208566,N,00959.1375479,E,2,9,0.8,10.607,M,40.582,M,2.8,0136*46\r\n
$GPGGA,094241.25,5700.9208539,N,00959.1375492,E,2,9,0.8,10.611,M,40.582,M,3.1,0136*43\r\n
$GPGGA,094241.30,5700.9208539,N,00959.1375494,E,2,9,0.8,10.611,M,40.582,M,3.1,0136*41\r\n
$GPGGA,094241.35,5700.9208539,N,00959.1375492,E,2,9,0.8,10.611,M,40.582,M,3.1,0136*42\r\n
$GPGGA,094241.40,5700.9208537,N,00959.1375497,E,2,9,0.8,10.611,M,40.582,M,3.1,0136*4B\r\n
$GPGGA,094241.45,5700.9208562,N,00959.1375466,E,2,9,0.8,10.614,M,40.582,M,3.3,0136*47\r\n
$GPGGA,094241.50,5700.9208561,N,00959.1375463,E,2,9,0.8,10.614,M,40.582,M,3.3,0136*45\r\n
$GPGGA,094241.55,5700.9208559,N,00959.1375467,E,2,9,0.8,10.614,M,40.582,M,3.3,0136*4F\r\n
$GPGGA,094241.60,5700.9208559,N,00959.1375468,E,2,9,0.8,10.614,M,40.582,M,3.3,0136*46\r\n
$GPGGA,094241.65,5700.9208539,N,00959.1375482,E,2,9,0.8,10.613,M,40.582,M,3.5,0136*40\r\n
$GPGGA,094241.70,5700.9208539,N,00959.1375486,E,2,9,0.8,10.613,M,40.582,M,3.5,0136*40\r\n
$GPGGA,094241.75,5700.9208540,N,00959.1375488,E,2,9,0.8,10.613,M,40.582,M,3.5,0136*45\r\n
$GPGGA,094241.80,5700.9208538,N,00959.1375486,E,2,9,0.8,10.613,M,40.582,M,3.5,0136*4E\r\n
$GPGGA,094241.85,5700.9208562,N,00959.1375485,E,2,9,0.8,10.612,M,40.582,M,3.7,0136*44\r\n
$GPGGA,094241.90,5700.9208563,N,00959.1375486,E,2,9,0.8,10.612,M,40.582,M,3.7,0136*42\r\n
$GPGGA,094241.95,5700.9208565,N,00959.1375489,E,2,9,0.8,10.612,M,40.582,M,3.7,0136*4E\r\n
$GPGGA,094242.00,5700.9208566,N,00959.1375490,E,2,9,0.8,10.612,M,40.582,M,3.7,0136*4A\r\n
$GPGGA,094242.05,5700.9208547,N,00959.1375460,E,2,9,0.8,10.618,M,40.582,M,2.3,0136*4C\r\n
$GPGGA,094242.10,5700.9208549,N,00959.1375457,E,2,9,0.8,10.619,M,40.582,M,2.3,0136*43\r\n
$GPGGA,094242.15,5700.9208551,N,00959.1375453,E,2,9,0.8,10.619,M,40.582,M,2.3,0136*4B\r\n
$GPGGA,094242.20,5700.9208551,N,00959.1375457,E,2,9,0.8,10.620,M,40.582,M,2.3,0136*43\r\n
$GPGGA,094242.25,5700.9208545,N,00959.1375454,E,2,9,0.8,10.610,M,40.582,M,2.6,0136*46\r\n
$GPGGA,094242.30,5700.9208548,N,00959.1375450,E,2,9,0.8,10.611,M,40.582,M,2.6,0136*4A\r\n
$GPGGA,094242.35,5700.9208555,N,00959.1375455,E,2,9,0.8,10.611,M,40.582,M,2.6,0136*46\r\n
$GPGGA,094242.40,5700.9208554,N,00959.1375455,E,2,9,0.8,10.611,M,40.582,M,2.6,0136*45\r\n
$GPGGA,094242.45,5700.9208554,N,00959.1375459,E,2,9,0.8,10.612,M,40.582,M,2.9,0136*40\r\n
$GPGGA,094242.50,5700.9208556,N,00959.1375459,E,2,9,0.8,10.613,M,40.582,M,2.9,0136*47\r\n
$GPGGA,094242.55,5700.9208557,N,00959.1375462,E,2,9,0.8,10.615,M,40.582,M,2.9,0136*4D\r\n
$GPGGA,094242.60,5700.9208557,N,00959.1375466,E,2,9,0.8,10.616,M,40.582,M,2.9,0136*4C\r\n
$GPGGA,094242.65,5700.9208555,N,00959.1375469,E,2,9,0.8,10.615,M,40.582,M,3.1,0136*4E\r\n
$GPGGA,094242.70,5700.9208556,N,00959.1375472,E,2,9,0.8,10.616,M,40.582,M,3.1,0136*40\r\n
$GPGGA,094242.75,5700.9208554,N,00959.1375472,E,2,9,0.8,10.617,M,40.582,M,3.1,0136*46\r\n
$GPGGA,094242.80,5700.9208555,N,00959.1375472,E,2,9,0.8,10.618,M,40.582,M,3.1,0136*42\r\n
$GPGGA,094242.85,5700.9208550,N,00959.1375460,E,2,9,0.8,10.614,M,40.582,M,3.4,0136*48\r\n
$GPGGA,094242.90,5700.9208550,N,00959.1375462,E,2,9,0.8,10.614,M,40.582,M,3.4,0136*4E\r\n
$GPGGA,094242.95,5700.9208550,N,00959.1375460,E,2,9,0.8,10.614,M,40.582,M,3.4,0136*49\r\n
$GPGGA,094243.00,5700.9208553,N,00959.1375462,E,2,9,0.8,10.615,M,40.582,M,3.4,0136*44\r\n
$GPGGA,094243.05,5700.9208561,N,00959.1375436,E,2,9,0.8,10.610,M,40.582,M,1.4,0136*46\r\n
$GPGGA,094243.10,5700.9208561,N,00959.1375435,E,2,9,0.8,10.609,M,40.582,M,1.4,0136*49\r\n
$GPGGA,094243.15,5700.9208561,N,00959.1375433,E,2,9,0.8,10.608,M,40.582,M,1.4,0136*4B\r\n
$GPGGA,094243.20,5700.9208563,N,00959.1375438,E,2,9,0.8,10.607,M,40.582,M,1.4,0136*4B\r\n
$GPGGA,094243.25,5700.9208549,N,00959.1375449,E,2,9,0.8,10.615,M,40.582,M,1.6,0136*41\r\n
$GPGGA,094243.30,5700.9208548,N,00959.1375448,E,2,9,0.8,10.615,M,40.582,M,1.6,0136*45\r\n
$GPGGA,094243.35,5700.9208549,N,00959.1375446,E,2,9,0.8,10.615,M,40.582,M,1.6,0136*4F\r\n
$GPGGA,094243.40,5700.9208552,N,00959.1375446,E,2,9,0.8,10.615,M,40.582,M,1.6,0136*47\r\n
$GPGGA,094243.45,5700.9208565,N,00959.1375429,E,2,9,0.8,10.612,M,40.582,M,1.9,0136*47\r\n
$GPGGA,094243.50,5700.9208564,N,00959.1375429,E,2,9,0.8,10.612,M,40.582,M,1.9,0136*42\r\n
$GPGGA,094243.55,5700.9208564,N,00959.1375430,E,2,9,0.8,10.611,M,40.582,M,1.9,0136*4C\r\n
$GPGGA,094243.60,5700.9208567,N,00959.1375428,E,2,9,0.8,10.611,M,40.582,M,1.9,0136*40\r\n
$GPGGA,094243.65,5700.9208556,N,00959.1375450,E,2,9,0.8,10.612,M,40.582,M,2.1,0136*40\r\n
$GPGGA,094243.70,5700.9208556,N,00959.1375452,E,2,9,0.8,10.612,M,40.582,M,2.1,0136*46\r\n
$GPGGA,094243.75,5700.9208558,N,00959.1375454,E,2,9,0.8,10.611,M,40.582,M,2.1,0136*48\r\n
$GPGGA,094243.80,5700.9208558,N,00959.1375457,E,2,9,0.8,10.611,M,40.582,M,2.1,0136*41\r\n
$GPGGA,094243.85,5700.9208557,N,00959.1375459,E,2,9,0.8,10.608,M,40.582,M,2.3,0136*4F\r\n
$GPGGA,094243.90,5700.9208558,N,00959.1375457,E,2,9,0.8,10.607,M,40.582,M,2.3,0136*45\r\n
$GPGGA,094243.95,5700.9208559,N,00959.1375456,E,2,9,0.8,10.607,M,40.582,M,2.3,0136*40\r\n
$GPGGA,094244.00,5700.9208559,N,00959.1375461,E,2,9,0.8,10.606,M,40.582,M,2.3,0136*4E\r\n
$GPGGA,094244.05,5700.9208559,N,00959.1375423,E,2,9,0.8,10.617,M,40.582,M,1.7,0136*4A\r\n
$GPGGA,094244.10,5700.9208558,N,00959.1375421,E,2,9,0.8,10.618,M,40.582,M,1.7,0136*42\r\n
$GPGGA,094244.15,5700.9208560,N,00959.1375419,E,2,9,0.8,10.618,M,40.582,M,1.7,0136*47\r\n
$GPGGA,094244.20,5700.9208560,N,00959.1375419,E,2,9,0.8,10.619,M,40.582,M,1.7,0136*40\r\n
$GPGGA,094244.25,5700.9208543,N,00959.1375407,E,2,9,0.8,10.612,M,40.582,M,2.0,0136*44\r\n
$GPGGA,094244.30,5700.9208542,N,00959.1375406,E,2,9,0.8,10.612,M,40.582,M,2.0,0136*40\r\n
$GPGGA,094244.35,5700.9208543,N,00959.1375409,E,2,9,0.8,10.612,M,40.582,M,2.0,0136*4B\r\n
$GPGGA,094244.40,5700.9208544,N,00959.1375409,E,2,9,0.8,10.612,M,40.582,M,2.0,0136*4E\r\n
$GPGGA,094244.45,5700.9208560,N,00959.1375427,E,2,9,0.8,10.612,M,40.582,M,2.2,0136*43\r\n
$GPGGA,094244.50,5700.9208558,N,00959.1375433,E,2,9,0.8,10.611,M,40.582,M,2.2,0136*4A\r\n
$GPGGA,094244.55,5700.9208557,N,00959.1375437,E,2,9,0.8,10.611,M,40.582,M,2.2,0136*44\r\n
$GPGGA,094244.60,5700.9208558,N,00959.1375440,E,2,9,0.8,10.611,M,40.582,M,2.2,0136*4D\r\n
$GPGGA,094244.65,5700.9208537,N,00959.1375446,E,2,9,0.8,10.608,M,40.582,M,2.4,0136*49\r\n
$GPGGA,094244.70,5700.9208536,N,00959.1375448,E,2,9,0.8,10.608,M,40.582,M,2.4,0136*42\r\n
$GPGGA,094244.75,5700.9208536,N,00959.1375448,E,2,9,0.8,10.607,M,40.582,M,2.4,0136*48\r\n
$GPGGA,094244.80,5700.9208536,N,00959.1375451,E,2,9,0.8,10.606,M,40.582,M,2.4,0136*4B\r\n
$GPGGA,094244.85,5700.9208557,N,00959.1375433,E,2,9,0.8,10.610,M,40.582,M,2.6,0136*48\r\n
$GPGGA,094244.90,5700.9208558,N,00959.1375433,E,2,9,0.8,10.610,M,40.582,M,2.6,0136*43\r\n
$GPGGA,094244.95,5700.9208558,N,00959.1375439,E,2,9,0.8,10.610,M,40.582,M,2.6,0136*4C\r\n
$GPGGA,094245.00,5700.9208557,N,00959.1375439,E,2,9,0.8,10.610,M,40.582,M,2.6,0136*4E\r\n
$GPGGA,094245.05,5700.9208542,N,00959.1375421,E,2,9,0.8,10.611,M,40.582,M,2.8,0136*49\r\n
$GPGGA,094245.10,5700.9208541,N,00959.1375422,E,2,9,0.8,10.611,M,40.582,M,2.8,0136*4D\r\n
$GPGGA,094245.15,5700.9208541,N,00959.1375423,E,2,9,0.8,10.611,M,40.582,M,2.8,0136*49\r\n
$GPGGA,094245.20,5700.9208541,N,00959.1375424,E,2,9,0.8,10.611,M,40.582,M,2.8,0136*48\r\n
$GPGGA,094245.25,5700.9208539,N,00959.1375411,E,2,9,0.8,10.615,M,40.582,M,3.1,0136*48\r\n
$GPGGA,094245.30,5700.9208540,N,00959.1375409,E,2,9,0.8,10.615,M,40.582,M,3.1,0136*4B\r\n
$GPGGA,094245.35,5700.9208537,N,00959.1375411,E,2,9,0.8,10.616,M,40.582,M,3.1,0136*44\r\n
$GPGGA,094245.40,5700.9208532,N,00959.1375411,E,2,9,0.8,10.616,M,40.582,M,3.1,0136*43\r\n
$GPGGA,094245.45,5700.9208517,N,00959.1375408,E,2,9,0.8,10.612,M,40.582,M,3.3,0136*4F\r\n
$GPGGA,094245.50,5700.9208517,N,00959.1375413,E,2,9,0.8,10.612,M,40.582,M,3.3,0136*41\r\n
$GPGGA,094245.55,5700.9208515,N,00959.1375419,E,2,9,0.8,10.613,M,40.582,M,3.3,0136*4D\r\n
$GPGGA,094245.60,5700.9208512,N,00959.1375420,E,2,9,0.8,10.613,M,40.582,M,3.3,0136*46\r\n
$GPGGA,094245.65,5700.9208532,N,00959.1375440,E,2,9,0.8,10.609,M,40.582,M,3.5,0136*4A\r\n
$GPGGA,094245.70,5700.9208531,N,00959.1375441,E,2,9,0.8,10.608,M,40.582,M,3.5,0136*4D\r\n
$GPGGA,094245.75,5700.9208532,N,00959.1375438,E,2,9,0.8,10.608,M,40.582,M,3.5,0136*45\r\n
$GPGGA,094245.80,5700.9208532,N,00959.1375434,E,2,9,0.8,10.607,M,40.582,M,3.5,0136*4C\r\n
$GPGGA,094245.85,5700.9208539,N,00959.1375390,E,2,9,0.8,10.610,M,40.582,M,3.7,0136*4F\r\n
$GPGGA,094245.90,5700.9208540,N,00959.1375388,E,2,9,0.8,10.609,M,40.582,M,3.7,0136*44\r\n
$GPGGA,094245.95,5700.9208541,N,00959.1375386,E,2,9,0.8,10.609,M,40.582,M,3.7,0136*4E\r\n
$GPGGA,094246.00,5700.9208544,N,00959.1375383,E,2,9,0.8,10.608,M,40.582,M,3.7,0136*40\r\n
$GPGGA,094246.05,5700.9208539,N,00959.1375361,E,2,9,0.8,10.610,M,40.582,M,2.3,0136*4F\r\n
$GPGGA,094246.10,5700.9208542,N,00959.1375360,E,2,9,0.8,10.609,M,40.582,M,2.3,0136*4E\r\n
$GPGGA,094246.15,5700.9208542,N,00959.1375359,E,2,9,0.8,10.609,M,40.582,M,2.3,0136*41\r\n
$GPGGA,094246.20,5700.9208544,N,00959.1375358,E,2,9,0.8,10.608,M,40.582,M,2.3,0136*41\r\n
$GPGGA,094246.25,5700.9208535,N,00959.1375378,E,2,9,0.8,10.612,M,40.582,M,2.6,0136*4E\r\n
$GPGGA,094246.30,5700.9208537,N,00959.1375378,E,2,9,0.8,10.612,M,40.582,M,2.6,0136*48\r\n
$GPGGA,094246.35,5700.9208537,N,00959.1375374,E,2,9,0.8,10.613,M,40.582,M,2.6,0136*40\r\n
$GPGGA,094246.40,5700.9208534,N,00959.1375369,E,2,9,0.8,10.613,M,40.582,M,2.6,0136*4D\r\n
$GPGGA,094246.45,5700.9208514,N,00959.1375336,E,2,9,0.8,10.614,M,40.582,M,2.9,0136*48\r\n
$GPGGA,094246.50,5700.9208504,N,00959.1375326,E,2,9,0.8,10.615,M,40.582,M,2.9,0136*4D\r\n
$GPGGA,094246.55,5700.9208487,N,00959.1375305,E,2,9,0.8,10.616,M,40.582,M,2.9,0136*40\r\n
$GPGGA,094246.60,5700.9208462,N,00959.1375285,E,2,9,0.8,10.617,M,40.582,M,2.9,0136*45\r\n
$GPGGA,094246.65,5700.9208322,N,00959.1375179,E,2,9,0.8,10.654,M,40.582,M,3.1,0136*4D\r\n
$GPGGA,094246.70,5700.9208260,N,00959.1375100,E,2,9,0.8,10.667,M,40.582,M,3.1,0136*40\r\n
$GPGGA,094246.75,5700.9208200,N,00959.1375002,E,2,9,0.8,10.686,M,40.582,M,3.1,0136*4F\r\n
$GPGGA,094246.80,5700.9208143,N,00959.1374901,E,2,9,0.8,10.708,M,40.582,M,3.1,0136*4D\r\n
$GPGGA,094246.85,5700.9208074,N,00959.1374794,E,2,9,0.8,10.733,M,40.582,M,3.4,0136*42\r\n
$GPGGA,094246.90,5700.9208005,N,00959.1374685,E,2,9,0.8,10.758,M,40.582,M,3.4,0136*4C\r\n
$GPGGA,094246.95,5700.9207920,N,00959.1374571,E,2,9,0.8,10.777,M,40.582,M,3.4,0136*4D\r\n
$GPGGA,094247.00,5700.9207834,N,00959.1374438,E,2,9,0.8,10.793,M,40.582,M,3.4,0136*42\r\n
$GPGGA,094247.05,5700.9207729,N,00959.1374270,E,2,9,0.8,10.814,M,40.582,M,1.4,0136*4C\r\n
$GPGGA,094247.10,5700.9207645,N,00959.1374169,E,2,9,0.8,10.838,M,40.582,M,1.4,0136*46\r\n
$GPGGA,094247.15,5700.9207562,N,00959.1374101,E,2,9,0.8,10.859,M,40.582,M,1.4,0136*4C\r\n
$GPGGA,094247.20,5700.9207498,N,00959.1374036,E,2,9,0.8,10.872,M,40.582,M,1.4,0136*42\r\n
$GPGGA,094247.25,5700.9207432,N,00959.1373984,E,2,9,0.8,10.883,M,40.582,M,1.6,0136*4C\r\n
$GPGGA,094247.30,5700.9207359,N,00959.1373927,E,2,9,0.8,10.888,M,40.582,M,1.6,0136*40\r\n
$GPGGA,094247.35,5700.9207282,N,00959.1373890,E,2,9,0.8,10.894,M,40.582,M,1.6,0136*42\r\n
$GPGGA,094247.40,5700.9207202,N,00959.1373867,E,2,9,0.8,10.901,M,40.582,M,1.6,0136*4D\r\n
$GPGGA,094247.45,5700.9207104,N,00959.1373837,E,2,9,0.8,10.891,M,40.582,M,1.9,0136*4F\r\n
$GPGGA,094247.50,5700.9207034,N,00959.1373790,E,2,9,0.8,10.896,M,40.582,M,1.9,0136*4C\r\n
$GPGGA,094247.55,5700.9206966,N,00959.1373768,E,2,9,0.8,10.899,M,40.582,M,1.9,0136*4E\r\n
$GPGGA,094247.60,5700.9206895,N,00959.1373760,E,2,9,0.8,10.901,M,40.582,M,1.9,0136*4D\r\n
$GPGGA,094247.65,5700.9206831,N,00959.1373761,E,2,9,0.8,10.900,M,40.582,M,2.1,0136*4D\r\n
$GPGGA,094247.70,5700.9206758,N,00959.1373766,E,2,9,0.8,10.899,M,40.582,M,2.1,0136*4F\r\n
$GPGGA,094247.75,5700.9206681,N,00959.1373774,E,2,9,0.8,10.900,M,40.582,M,2.1,0136*4D\r\n
$GPGGA,094247.80,5700.9206601,N,00959.1373774,E,2,9,0.8,10.900,M,40.582,M,2.1,0136*4F\r\n
$GPGGA,094247.85,5700.9206507,N,00959.1373775,E,2,9,0.8,10.898,M,40.582,M,2.3,0136*4C\r\n
$GPGGA,094247.90,5700.9206399,N,00959.1373781,E,2,9,0.8,10.901,M,40.582,M,2.3,0136*43\r\n
$GPGGA,094247.95,5700.9206279,N,00959.1373789,E,2,9,0.8,10.904,M,40.582,M,2.3,0136*44\r\n
$GPGGA,094248.00,5700.9206159,N,00959.1373795,E,2,9,0.8,10.904,M,40.582,M,2.3,0136*4B\r\n
$GPGGA,094248.05,5700.9206042,N,00959.1373758,E,2,9,0.8,10.908,M,40.582,M,1.7,0136*4F\r\n
$GPGGA,094248.10,5700.9205951,N,00959.1373753,E,2,9,0.8,10.908,M,40.582,M,1.7,0136*48\r\n
$GPGGA,094248.15,5700.9205871,N,00959.1373760,E,2,9,0.8,10.908,M,40.582,M,1.7,0136*4E\r\n
$GPGGA,094248.20,5700.9205781,N,00959.1373782,E,2,9,0.8,10.906,M,40.582,M,1.7,0136*4A\r\n
$GPGGA,094248.25,5700.9205686,N,00959.1373831,E,2,9,0.8,10.897,M,40.582,M,2.0,0136*43\r\n
$GPGGA,094248.30,5700.9205576,N,00959.1373876,E,2,9,0.8,10.893,M,40.582,M,2.0,0136*4C\r\n
$GPGGA,094248.35,5700.9205457,N,00959.1373912,E,2,9,0.8,10.889,M,40.582,M,2.0,0136*43\r\n
$GPGGA,094248.40,5700.9205364,N,00959.1373927,E,2,9,0.8,10.886,M,40.582,M,2.0,0136*4F\r\n
$GPGGA,094248.45,5700.9205259,N,00959.1373945,E,2,9,0.8,10.886,M,40.582,M,2.2,0136*43\r\n
$GPGGA,094248.50,5700.9205154,N,00959.1373951,E,2,9,0.8,10.885,M,40.582,M,2.2,0136*4F\r\n
$GPGGA,094248.55,5700.9205069,N,00959.1373973,E,2,9,0.8,10.885,M,40.582,M,2.2,0136*45\r\n
$GPGGA,094248.60,5700.9204994,N,00959.1373998,E,2,9,0.8,10.885,M,40.582,M,2.2,0136*4C\r\n
$GPGGA,094248.65,5700.9204924,N,00959.1374018,E,2,9,0.8,10.889,M,40.582,M,2.4,0136*4E\r\n
$GPGGA,094248.70,5700.9204842,N,00959.1374037,E,2,9,0.8,10.888,M,40.582,M,2.4,0136*47\r\n
$GPGGA,094248.75,5700.9204747,N,00959.1374067,E,2,9,0.8,10.885,M,40.582,M,2.4,0136*40\r\n
$GPGGA,094248.80,5700.9204668,N,00959.1374093,E,2,9,0.8,10.884,M,40.582,M,2.4,0136*4C\r\n
$GPGGA,094248.85,5700.9204577,N,00959.1374128,E,2,9,0.8,10.876,M,40.582,M,2.6,0136*4A\r\n
$GPGGA,094248.90,5700.9204491,N,00959.1374177,E,2,9,0.8,10.873,M,40.582,M,2.6,0136*48\r\n
$GPGGA,094248.95,5700.9204406,N,00959.1374239,E,2,9,0.8,10.871,M,40.582,M,2.6,0136*48\r\n
$GPGGA,094249.00,5700.9204319,N,00959.1374292,E,2,9,0.8,10.870,M,40.582,M,2.6,0136*4C\r\n
$GPGGA,094249.05,5700.9204217,N,00959.1374296,E,2,9,0.8,10.876,M,40.582,M,2.8,0136*4A\r\n
$GPGGA,094249.10,5700.9204115,N,00959.1374340,E,2,9,0.8,10.876,M,40.582,M,2.8,0136*45\r\n
$GPGGA,094249.15,5700.9203999,N,00959.1374387,E,2,9,0.8,10.876,M,40.582,M,2.8,0136*40\r\n
$GPGGA,094249.20,5700.9203875,N,00959.1374438,E,2,9,0.8,10.874,M,40.582,M,2.8,0136*44\r\n
$GPGGA,094249.25,5700.9203775,N,00959.1374477,E,2,9,0.8,10.878,M,40.582,M,3.1,0136*41\r\n
$GPGGA,094249.30,5700.9203666,N,00959.1374524,E,2,9,0.8,10.879,M,40.582,M,3.1,0136*40\r\n
$GPGGA,094249.35,5700.9203531,N,00959.1374591,E,2,9,0.8,10.878,M,40.582,M,3.1,0136*4B\r\n
$GPGGA,094249.40,5700.9203389,N,00959.1374648,E,2,9,0.8,10.877,M,40.582,M,3.1,0136*44\r\n
$GPGGA,094249.45,5700.9203265,N,00959.1374691,E,2,9,0.8,10.875,M,40.582,M,3.3,0136*46\r\n
$GPGGA,094249.50,5700.9203157,N,00959.1374714,E,2,9,0.8,10.875,M,40.582,M,3.3,0136*4C\r\n
$GPGGA,094249.55,5700.9203021,N,00959.1374740,E,2,9,0.8,10.877,M,40.582,M,3.3,0136*4A\r\n
$GPGGA,094249.60,5700.9202863,N,00959.1374793,E,2,9,0.8,10.878,M,40.582,M,3.3,0136*42\r\n
$GPGGA,094249.65,5700.9202725,N,00959.1374860,E,2,9,0.8,10.880,M,40.582,M,3.5,0136*48\r\n
$GPGGA,094249.70,5700.9202608,N,00959.1374906,E,2,9,0.8,10.883,M,40.582,M,3.5,0136*40\r\n
$GPGGA,094249.75,5700.9202485,N,00959.1374934,E,2,9,0.8,10.887,M,40.582,M,3.5,0136*47\r\n
$GPGGA,094249.80,5700.9202329,N,00959.1374963,E,2,9,0.8,10.889,M,40.582,M,3.5,0136*40\r\n
$GPGGA,094249.85,5700.9202162,N,00959.1374980,E,2,9,0.8,10.891,M,40.582,M,3.7,0136*4E\r\n
$GPGGA,094249.90,5700.9202038,N,00959.1374993,E,2,9,0.8,10.891,M,40.582,M,3.7,0136*46\r\n
$GPGGA,094249.95,5700.9201924,N,00959.1375012,E,2,9,0.8,10.892,M,40.582,M,3.7,0136*46\r\n
$GPGGA,094250.00,5700.9201765,N,00959.1375030,E,2,9,0.8,10.898,M,40.582,M,3.7,0136*43\r\n
$GPGGA,094250.05,5700.9201609,N,00959.1374972,E,2,9,0.8,10.904,M,40.582,M,2.3,0136*42\r\n
$GPGGA,094250.10,5700.9201468,N,00959.1374929,E,2,9,0.8,10.901,M,40.582,M,2.3,0136*48\r\n
$GPGGA,094250.15,5700.9201320,N,00959.1374900,E,2,9,0.8,10.902,M,40.582,M,2.3,0136*4E\r\n
$GPGGA,094250.20,5700.9201149,N,00959.1374901,E,2,9,0.8,10.906,M,40.582,M,2.3,0136*40\r\n
$GPGGA,094250.25,5700.9200996,N,00959.1374919,E,2,9,0.8,10.904,M,40.582,M,2.6,0136*40\r\n
$GPGGA,094250.30,5700.9200878,N,00959.1374905,E,2,9,0.8,10.906,M,40.582,M,2.6,0136*4A\r\n
$GPGGA,094250.35,5700.9200742,N,00959.1374883,E,2,9,0.8,10.905,M,40.582,M,2.6,0136*45\r\n
$GPGGA,094250.40,5700.9200581,N,00959.1374874,E,2,9,0.8,10.903,M,40.582,M,2.6,0136*44\r\n
$GPGGA,094250.45,5700.9200428,N,00959.1374888,E,2,9,0.8,10.907,M,40.582,M,2.9,0136*4B\r\n
$GPGGA,094250.50,5700.9200308,N,00959.1374899,E,2,9,0.8,10.901,M,40.582,M,2.9,0136*4C\r\n
$GPGGA,094250.55,5700.9200192,N,00959.1374888,E,2,9,0.8,10.897,M,40.582,M,2.9,0136*46\r\n
$GPGGA,094250.60,5700.9200049,N,00959.1374879,E,2,9,0.8,10.897,M,40.582,M,2.9,0136*49\r\n
$GPGGA,094250.65,5700.9199890,N,00959.1374872,E,2,9,0.8,10.904,M,40.582,M,3.1,0136*4A\r\n
$GPGGA,094250.70,5700.9199761,N,00959.1374864,E,2,9,0.8,10.906,M,40.582,M,3.1,0136*4A\r\n
$GPGGA,094250.75,5700.9199641,N,00959.1374826,E,2,9,0.8,10.908,M,40.582,M,3.1,0136*44\r\n
$GPGGA,094250.80,5700.9199512,N,00959.1374798,E,2,9,0.8,10.909,M,40.582,M,3.1,0136*40\r\n
$GPGGA,094250.85,5700.9199374,N,00959.1374798,E,2,9,0.8,10.911,M,40.582,M,3.4,0136*4F\r\n
$GPGGA,094250.90,5700.9199245,N,00959.1374813,E,2,9,0.8,10.913,M,40.582,M,3.4,0136*46\r\n
$GPGGA,094250.95,5700.9199118,N,00959.1374806,E,2,9,0.8,10.913,M,40.582,M,3.4,0136*4C\r\n
$GPGGA,094251.00,5700.9198979,N,00959.1374781,E,2,9,0.8,10.911,M,40.582,M,3.4,0136*4D\r\n
$GPGGA,094251.05,5700.9198801,N,00959.1374709,E,2,9,0.8,10.916,M,40.582,M,1.4,0136*43\r\n
$GPGGA,094251.10,5700.9198636,N,00959.1374669,E,2,9,0.8,10.919,M,40.582,M,1.4,0136*45\r\n
$GPGGA,094251.15,5700.9198499,N,00959.1374594,E,2,9,0.8,10.922,M,40.582,M,1.4,0136*4E\r\n
$GPGGA,094251.20,5700.9198360,N,00959.1374513,E,2,9,0.8,10.924,M,40.582,M,1.4,0136*40\r\n
$GPGGA,094251.25,5700.9198200,N,00959.1374419,E,2,9,0.8,10.923,M,40.582,M,1.6,0136*4C\r\n
$GPGGA,094251.30,5700.9198054,N,00959.1374324,E,2,9,0.8,10.930,M,40.582,M,1.6,0136*40\r\n
$GPGGA,094251.35,5700.9197912,N,00959.1374269,E,2,9,0.8,10.931,M,40.582,M,1.6,0136*48\r\n
$GPGGA,094251.40,5700.9197766,N,00959.1374224,E,2,9,0.8,10.928,M,40.582,M,1.6,0136*46\r\n
$GPGGA,094251.45,5700.9197588,N,00959.1374178,E,2,9,0.8,10.935,M,40.582,M,1.9,0136*48\r\n
$GPGGA,094251.50,5700.9197395,N,00959.1374141,E,2,9,0.8,10.935,M,40.582,M,1.9,0136*4C\r\n
$GPGGA,094251.55,5700.9197238,N,00959.1374118,E,2,9,0.8,10.934,M,40.582,M,1.9,0136*42\r\n
$GPGGA,094251.60,5700.9197076,N,00959.1374078,E,2,9,0.8,10.934,M,40.582,M,1.9,0136*4B\r\n
$GPGGA,094251.65,5700.9196901,N,00959.1374016,E,2,9,0.8,10.931,M,40.582,M,2.1,0136*40\r\n
$GPGGA,094251.70,5700.9196746,N,00959.1373956,E,2,9,0.8,10.930,M,40.582,M,2.1,0136*42\r\n
$GPGGA,094251.75,5700.9196599,N,00959.1373934,E,2,9,0.8,10.931,M,40.582,M,2.1,0136*42\r\n
$GPGGA,094251.80,5700.9196457,N,00959.1373947,E,2,9,0.8,10.933,M,40.582,M,2.1,0136*4D\r\n
$GPGGA,094251.85,5700.9196305,N,00959.1373952,E,2,9,0.8,10.930,M,40.582,M,2.3,0136*4D\r\n
$GPGGA,094251.90,5700.9196145,N,00959.1373933,E,2,9,0.8,10.931,M,40.582,M,2.3,0136*49\r\n
$GPGGA,094251.95,5700.9196000,N,00959.1373896,E,2,9,0.8,10.935,M,40.582,M,2.3,0136*46\r\n
$GPGGA,094252.00,5700.9195842,N,00959.1373876,E,2,9,0.8,10.939,M,40.582,M,2.3,0136*46\r\n
$GPGGA,094252.05,5700.9195667,N,00959.1373854,E,2,9,0.8,10.953,M,40.582,M,1.7,0136*41\r\n
$GPGGA,094252.10,5700.9195518,N,00959.1373869,E,2,9,0.8,10.953,M,40.582,M,1.7,0136*40\r\n
$GPGGA,094252.15,5700.9195367,N,00959.1373888,E,2,9,0.8,10.953,M,40.582,M,1.7,0136*44\r\n
$GPGGA,094252.20,5700.9195216,N,00959.1373898,E,2,9,0.8,10.957,M,40.582,M,1.7,0136*40\r\n
$GPGGA,094252.25,5700.9195036,N,00959.1373903,E,2,9,0.8,10.958,M,40.582,M,2.0,0136*4D\r\n
$GPGGA,094252.30,5700.9194832,N,00959.1373897,E,2,9,0.8,10.954,M,40.582,M,2.0,0136*44\r\n
$GPGGA,094252.35,5700.9194660,N,00959.1373895,E,2,9,0.8,10.949,M,40.582,M,2.0,0136*46\r\n
$GPGGA,094252.40,5700.9194475,N,00959.1373914,E,2,9,0.8,10.950,M,40.582,M,2.0,0136*42\r\n
$GPGGA,094252.45,5700.9194266,N,00959.1373948,E,2,9,0.8,10.953,M,40.582,M,2.2,0136*4B\r\n
$GPGGA,094252.50,5700.9194087,N,00959.1373946,E,2,9,0.8,10.950,M,40.582,M,2.2,0136*4F\r\n
$GPGGA,094252.55,5700.9193905,N,00959.1373923,E,2,9,0.8,10.945,M,40.582,M,2.2,0136*49\r\n
$GPGGA,094252.60,5700.9193706,N,00959.1373916,E,2,9,0.8,10.943,M,40.582,M,2.2,0136*42\r\n
$GPGGA,094252.65,5700.9193488,N,00959.1373909,E,2,9,0.8,10.938,M,40.582,M,2.4,0136*46\r\n
$GPGGA,094252.70,5700.9193278,N,00959.1373894,E,2,9,0.8,10.937,M,40.582,M,2.4,0136*41\r\n
$GPGGA,094252.75,5700.9193074,N,00959.1373884,E,2,9,0.8,10.934,M,40.582,M,2.4,0136*48\r\n
$GPGGA,094252.80,5700.9192867,N,00959.1373859,E,2,9,0.8,10.930,M,40.582,M,2.4,0136*4D\r\n
$GPGGA,094252.85,5700.9192685,N,00959.1373825,E,2,9,0.8,10.933,M,40.582,M,2.6,0136*40\r\n
$GPGGA,094252.90,5700.9192498,N,00959.1373837,E,2,9,0.8,10.934,M,40.582,M,2.6,0136*4E\r\n
$GPGGA,094252.95,5700.9192279,N,00959.1373860,E,2,9,0.8,10.936,M,40.582,M,2.6,0136*42\r\n
$GPGGA,094253.00,5700.9192066,N,00959.1373850,E,2,9,0.8,10.942,M,40.582,M,2.6,0136*43\r\n
$GPGGA,094253.05,5700.9191858,N,00959.1373787,E,2,9,0.8,10.946,M,40.582,M,2.8,0136*4F\r\n
$GPGGA,094253.10,5700.9191677,N,00959.1373774,E,2,9,0.8,10.946,M,40.582,M,2.8,0136*44\r\n
$GPGGA,094253.15,5700.9191491,N,00959.1373796,E,2,9,0.8,10.951,M,40.582,M,2.8,0136*41\r\n
$GPGGA,094253.20,5700.9191271,N,00959.1373818,E,2,9,0.8,10.957,M,40.582,M,2.8,0136*40\r\n
$GPGGA,094253.25,5700.9191061,N,00959.1373835,E,2,9,0.8,10.958,M,40.582,M,3.1,0136*4E\r\n
$GPGGA,094253.30,5700.9190875,N,00959.1373859,E,2,9,0.8,10.961,M,40.582,M,3.1,0136*46\r\n
$GPGGA,094253.35,5700.9190663,N,00959.1373905,E,2,9,0.8,10.960,M,40.582,M,3.1,0136*43\r\n
$GPGGA,094253.40,5700.9190460,N,00959.1373944,E,2,9,0.8,10.959,M,40.582,M,3.1,0136*4F\r\n
$GPGGA,094253.45,5700.9190225,N,00959.1373928,E,2,9,0.8,10.957,M,40.582,M,3.3,0136*4B\r\n
$GPGGA,094253.50,5700.9189997,N,00959.1373916,E,2,9,0.8,10.952,M,40.582,M,3.3,0136*4D\r\n
$GPGGA,094253.55,5700.9189787,N,00959.1373980,E,2,9,0.8,10.946,M,40.582,M,3.3,0136*4D\r\n
$GPGGA,094253.60,5700.9189545,N,00959.1374075,E,2,9,0.8,10.944,M,40.582,M,3.3,0136*41\r\n
$GPGGA,094253.65,5700.9189311,N,00959.1374113,E,2,9,0.8,10.944,M,40.582,M,3.5,0136*44\r\n
$GPGGA,094253.70,5700.9189081,N,00959.1374123,E,2,9,0.8,10.940,M,40.582,M,3.5,0136*4D\r\n
$GPGGA,094253.75,5700.9188866,N,00959.1374104,E,2,9,0.8,10.936,M,40.582,M,3.5,0136*4C\r\n
$GPGGA,094253.80,5700.9188641,N,00959.1374124,E,2,9,0.8,10.933,M,40.582,M,3.5,0136*4A\r\n
$GPGGA,094253.85,5700.9188414,N,00959.1374195,E,2,9,0.8,10.935,M,40.582,M,3.7,0136*43\r\n
$GPGGA,094253.90,5700.9188201,N,00959.1374241,E,2,9,0.8,10.937,M,40.582,M,3.7,0136*4D\r\n
$GPGGA,094253.95,5700.9187956,N,00959.1374250,E,2,9,0.8,10.940,M,40.582,M,3.7,0136*4E\r\n
$GPGGA,094254.00,5700.9187749,N,00959.1374247,E,2,9,0.8,10.941,M,40.582,M,3.7,0136*42\r\n
$GPGGA,094254.05,5700.9187551,N,00959.1374271,E,2,9,0.8,10.946,M,40.582,M,2.3,0136*4B\r\n
$GPGGA,094254.10,5700.9187326,N,00959.1374372,E,2,9,0.8,10.955,M,40.582,M,2.3,0136*49\r\n
$GPGGA,094254.15,5700.9187140,N,00959.1374463,E,2,9,0.8,10.964,M,40.582,M,2.3,0136*4B\r\n
$GPGGA,094254.20,5700.9186928,N,00959.1374567,E,2,9,0.8,10.967,M,40.582,M,2.3,0136*4C\r\n
$GPGGA,094254.25,5700.9186683,N,00959.1374693,E,2,9,0.8,10.971,M,40.582,M,2.6,0136*4D\r\n
$GPGGA,094254.30,5700.9186458,N,00959.1374821,E,2,9,0.8,10.975,M,40.582,M,2.6,0136*4E\r\n
$GPGGA,094254.35,5700.9186254,N,00959.1374969,E,2,9,0.8,10.978,M,40.582,M,2.6,0136*41\r\n
$GPGGA,094254.40,5700.9186055,N,00959.1375091,E,2,9,0.8,10.976,M,40.582,M,2.6,0136*41\r\n
$GPGGA,094254.45,5700.9185833,N,00959.1375211,E,2,9,0.8,10.975,M,40.582,M,2.9,0136*49\r\n
$GPGGA,094254.50,5700.9185584,N,00959.1375369,E,2,9,0.8,10.974,M,40.582,M,2.9,0136*43\r\n
$GPGGA,094254.55,5700.9185336,N,00959.1375537,E,2,9,0.8,10.974,M,40.582,M,2.9,0136*44\r\n
$GPGGA,094254.60,5700.9185118,N,00959.1375685,E,2,9,0.8,10.978,M,40.582,M,2.9,0136*4A\r\n
$GPGGA,094254.65,5700.9184888,N,00959.1375896,E,2,9,0.8,10.978,M,40.582,M,3.1,0136*4B\r\n
$GPGGA,094254.70,5700.9184673,N,00959.1376088,E,2,9,0.8,10.975,M,40.582,M,3.1,0136*4C\r\n
$GPGGA,094254.75,5700.9184440,N,00959.1376265,E,2,9,0.8,10.976,M,40.582,M,3.1,0136*49\r\n
$GPGGA,094254.80,5700.9184201,N,00959.1376443,E,2,9,0.8,10.975,M,40.582,M,3.1,0136*41\r\n
$GPGGA,094254.85,5700.9183944,N,00959.1376630,E,2,9,0.8,10.965,M,40.582,M,3.4,0136*4B\r\n
$GPGGA,094254.90,5700.9183701,N,00959.1376797,E,2,9,0.8,10.959,M,40.582,M,3.4,0136*43\r\n
$GPGGA,094254.95,5700.9183448,N,00959.1376982,E,2,9,0.8,10.959,M,40.582,M,3.4,0136*42\r\n
$GPGGA,094255.00,5700.9183239,N,00959.1377141,E,2,9,0.8,10.958,M,40.582,M,3.4,0136*48\r\n
$GPGGA,094255.05,5700.9182988,N,00959.1377298,E,2,9,0.8,10.966,M,40.582,M,1.4,0136*45\r\n
$GPGGA,094255.10,5700.9182711,N,00959.1377491,E,2,9,0.8,10.967,M,40.582,M,1.4,0136*41\r\n
$GPGGA,094255.15,5700.9182438,N,00959.1377667,E,2,9,0.8,10.969,M,40.582,M,1.4,0136*49\r\n
$GPGGA,094255.20,5700.9182209,N,00959.1377865,E,2,9,0.8,10.970,M,40.582,M,1.4,0136*4F\r\n
$GPGGA,094255.25,5700.9182014,N,00959.1378062,E,2,9,0.8,10.974,M,40.582,M,1.6,0136*42\r\n
$GPGGA,094255.30,5700.9181772,N,00959.1378268,E,2,9,0.8,10.978,M,40.582,M,1.6,0136*46\r\n
$GPGGA,094255.35,5700.9181484,N,00959.1378467,E,2,9,0.8,10.977,M,40.582,M,1.6,0136*4F\r\n
$GPGGA,094255.40,5700.9181256,N,00959.1378644,E,2,9,0.8,10.980,M,40.582,M,1.6,0136*4F\r\n
$GPGGA,094255.45,5700.9181002,N,00959.1378877,E,2,9,0.8,10.981,M,40.582,M,1.9,0136*49\r\n
$GPGGA,094255.50,5700.9180780,N,00959.1379074,E,2,9,0.8,10.986,M,40.582,M,1.9,0136*4C\r\n
$GPGGA,094255.55,5700.9180522,N,00959.1379231,E,2,9,0.8,10.984,M,40.582,M,1.9,0136*42\r\n
$GPGGA,094255.60,5700.9180246,N,00959.1379396,E,2,9,0.8,10.982,M,40.582,M,1.9,0136*4B\r\n
$GPGGA,094255.65,5700.9179954,N,00959.1379640,E,2,9,0.8,10.991,M,40.582,M,2.1,0136*47\r\n
$GPGGA,094255.70,5700.9179708,N,00959.1379865,E,2,9,0.8,10.990,M,40.582,M,2.1,0136*4C\r\n
$GPGGA,094255.75,5700.9179457,N,00959.1380096,E,2,9,0.8,10.988,M,40.582,M,2.1,0136*4B\r\n
$GPGGA,094255.80,5700.9179199,N,00959.1380339,E,2,9,0.8,10.989,M,40.582,M,2.1,0136*41\r\n
$GPGGA,094255.85,5700.9178932,N,00959.1380584,E,2,9,0.8,10.984,M,40.582,M,2.3,0136*43\r\n
$GPGGA,094255.90,5700.9178655,N,00959.1380861,E,2,9,0.8,10.983,M,40.582,M,2.3,0136*48\r\n
$GPGGA,094255.95,5700.9178366,N,00959.1381094,E,2,9,0.8,10.974,M,40.582,M,2.3,0136*43\r\n
$GPGGA,094256.00,5700.9178080,N,00959.1381266,E,2,9,0.8,10.976,M,40.582,M,2.3,0136*4A\r\n
$GPGGA,094256.05,5700.9177809,N,00959.1381354,E,2,9,0.8,10.980,M,40.582,M,1.7,0136*47\r\n
$GPGGA,094256.10,5700.9177559,N,00959.1381590,E,2,9,0.8,10.986,M,40.582,M,1.7,0136*43\r\n
$GPGGA,094256.15,5700.9177288,N,00959.1381817,E,2,9,0.8,10.983,M,40.582,M,1.7,0136*4A\r\n
$GPGGA,094256.20,5700.9177018,N,00959.1382004,E,2,9,0.8,10.984,M,40.582,M,1.7,0136*49\r\n
$GPGGA,094256.25,5700.9176765,N,00959.1382216,E,2,9,0.8,10.995,M,40.582,M,2.0,0136*45\r\n
$GPGGA,094256.30,5700.9176488,N,00959.1382450,E,2,9,0.8,10.995,M,40.582,M,2.0,0136*45\r\n
$GPGGA,094256.35,5700.9176186,N,00959.1382696,E,2,9,0.8,10.992,M,40.582,M,2.0,0136*44\r\n
$GPGGA,094256.40,5700.9175937,N,00959.1382902,E,2,9,0.8,10.989,M,40.582,M,2.0,0136*4F\r\n
$GPGGA,094256.45,5700.9175656,N,00959.1383149,E,2,9,0.8,10.996,M,40.582,M,2.2,0136*48\r\n
$GPGGA,094256.50,5700.9175384,N,00959.1383327,E,2,9,0.8,10.990,M,40.582,M,2.2,0136*4A\r\n
$GPGGA,094256.55,5700.9175109,N,00959.1383513,E,2,9,0.8,10.993,M,40.582,M,2.2,0136*4A\r\n
$GPGGA,094256.60,5700.9174857,N,00959.1383680,E,2,9,0.8,10.996,M,40.582,M,2.2,0136*43\r\n
$GPGGA,094256.65,5700.9174577,N,00959.1383800,E,2,9,0.8,10.992,M,40.582,M,2.4,0136*4D\r\n
$GPGGA,094256.70,5700.9174312,N,00959.1383953,E,2,9,0.8,10.996,M,40.582,M,2.4,0136*4F\r\n
$GPGGA,094256.75,5700.9174039,N,00959.1384120,E,2,9,0.8,11.006,M,40.582,M,2.4,0136*4A\r\n
$GPGGA,094256.80,5700.9173757,N,00959.1384243,E,2,9,0.8,11.011,M,40.582,M,2.4,0136*48\r\n
$GPGGA,094256.85,5700.9173484,N,00959.1384390,E,2,9,0.8,11.016,M,40.582,M,2.6,0136*4A\r\n
$GPGGA,094256.90,5700.9173217,N,00959.1384584,E,2,9,0.8,11.022,M,40.582,M,2.6,0136*46\r\n
$GPGGA,094256.95,5700.9172931,N,00959.1384726,E,2,9,0.8,11.023,M,40.582,M,2.6,0136*46\r\n
$GPGGA,094257.00,5700.9172634,N,00959.1384826,E,2,9,0.8,11.021,M,40.582,M,2.6,0136*4C\r\n
$GPGGA,094257.05,5700.9172372,N,00959.1384886,E,2,9,0.8,11.031,M,40.582,M,2.8,0136*4B\r\n
$GPGGA,094257.10,5700.9172073,N,00959.1385007,E,2,9,0.8,11.028,M,40.582,M,2.8,0136*45\r\n
$GPGGA,094257.15,5700.9171766,N,00959.1385143,E,2,9,0.8,11.024,M,40.582,M,2.8,0136*4D\r\n
$GPGGA,094257.20,5700.9171440,N,00959.1385281,E,2,9,0.8,11.020,M,40.582,M,2.8,0136*45\r\n
$GPGGA,094257.25,5700.9171134,N,00959.1385400,E,2,9,0.8,11.003,M,40.582,M,3.1,0136*40\r\n
$GPGGA,094257.30,5700.9170866,N,00959.1385540,E,2,9,0.8,11.004,M,40.582,M,3.1,0136*49\r\n
$GPGGA,094257.35,5700.9170563,N,00959.1385625,E,2,9,0.8,11.001,M,40.582,M,3.1,0136*41\r\n
$GPGGA,094257.40,5700.9170252,N,00959.1385716,E,2,9,0.8,11.003,M,40.582,M,3.1,0136*45\r\n
$GPGGA,094257.45,5700.9169997,N,00959.1385799,E,2,9,0.8,11.008,M,40.582,M,3.3,0136*44\r\n
$GPGGA,094257.50,5700.9169674,N,00959.1385871,E,2,9,0.8,11.001,M,40.582,M,3.3,0136*42\r\n
$GPGGA,094257.55,5700.9169354,N,00959.1385896,E,2,9,0.8,10.995,M,40.582,M,3.3,0136*4C\r\n
$GPGGA,094257.60,5700.9169046,N,00959.1385920,E,2,9,0.8,10.994,M,40.582,M,3.3,0136*47\r\n
$GPGGA,094257.65,5700.9168731,N,00959.1385950,E,2,9,0.8,10.985,M,40.582,M,3.5,0136*45\r\n
$GPGGA,094257.70,5700.9168425,N,00959.1385944,E,2,9,0.8,10.985,M,40.582,M,3.5,0136*42\r\n
$GPGGA,094257.75,5700.9168120,N,00959.1385894,E,2,9,0.8,10.986,M,40.582,M,3.5,0136*48\r\n
$GPGGA,094257.80,5700.9167841,N,00959.1385821,E,2,9,0.8,10.988,M,40.582,M,3.5,0136*43\r\n
$GPGGA,094257.85,5700.9167522,N,00959.1385779,E,2,9,0.8,10.993,M,40.582,M,3.7,0136*44\r\n
$GPGGA,094257.90,5700.9167234,N,00959.1385717,E,2,9,0.8,10.994,M,40.582,M,3.7,0136*4F\r\n
$GPGGA,094257.95,5700.9166949,N,00959.1385605,E,2,9,0.8,11.002,M,40.582,M,3.7,0136*4F\r\n
$GPGGA,094258.00,5700.9166664,N,00959.1385525,E,2,9,0.8,11.001,M,40.582,M,3.7,0136*4E\r\n
$GPGGA,094258.05,5700.9166352,N,00959.1385429,E,2,8,0.8,11.002,M,40.582,M,2.3,0136*41\r\n
$GPGGA,094258.10,5700.9166058,N,00959.1385336,E,2,8,0.8,10.996,M,40.582,M,2.3,0136*40\r\n
$GPGGA,094258.15,5700.9165762,N,00959.1385230,E,2,8,0.8,10.990,M,40.582,M,2.3,0136*49\r\n
$GPGGA,094258.20,5700.9165455,N,00959.1385083,E,2,8,0.8,10.992,M,40.582,M,2.3,0136*40\r\n
$GPGGA,094258.25,5700.9165175,N,00959.1384900,E,2,8,0.8,10.989,M,40.582,M,2.6,0136*4E\r\n
$GPGGA,094258.30,5700.9164907,N,00959.1384755,E,2,8,0.8,10.987,M,40.582,M,2.6,0136*46\r\n
$GPGGA,094258.35,5700.9164603,N,00959.1384655,E,2,8,0.8,10.982,M,40.582,M,2.6,0136*4C\r\n
$GPGGA,094258.40,5700.9164324,N,00959.1384552,E,2,8,0.8,10.982,M,40.582,M,2.6,0136*4A\r\n
$GPGGA,094258.45,5700.9164048,N,00959.1384444,E,2,9,0.8,10.982,M,40.582,M,2.9,0136*4E\r\n
$GPGGA,094258.50,5700.9163763,N,00959.1384325,E,2,9,0.8,10.985,M,40.582,M,2.9,0136*44\r\n
$GPGGA,094258.55,5700.9163497,N,00959.1384170,E,2,9,0.8,10.992,M,40.582,M,2.9,0136*4D\r\n
$GPGGA,094258.60,5700.9163224,N,00959.1383971,E,2,9,0.8,10.996,M,40.582,M,2.9,0136*4F\r\n
$GPGGA,094258.65,5700.9162975,N,00959.1383787,E,2,9,0.8,11.012,M,40.582,M,3.1,0136*4E\r\n
$GPGGA,094258.70,5700.9162725,N,00959.1383654,E,2,9,0.8,11.018,M,40.582,M,3.1,0136*44\r\n
$GPGGA,094258.75,5700.9162488,N,00959.1383501,E,2,9,0.8,11.026,M,40.582,M,3.1,0136*4B\r\n
$GPGGA,094258.80,5700.9162210,N,00959.1383305,E,2,9,0.8,11.035,M,40.582,M,3.1,0136*46\r\n
$GPGGA,094258.85,5700.9161971,N,00959.1383148,E,2,9,0.8,11.029,M,40.582,M,3.4,0136*4F\r\n
$GPGGA,094258.90,5700.9161699,N,00959.1382964,E,2,9,0.8,11.030,M,40.582,M,3.4,0136*4D\r\n
$GPGGA,094258.95,5700.9161441,N,00959.1382807,E,2,9,0.8,11.026,M,40.582,M,3.4,0136*4C\r\n
$GPGGA,094259.00,5700.9161174,N,00959.1382569,E,2,9,0.8,11.019,M,40.582,M,3.4,0136*4B\r\n
$GPGGA,094259.05,5700.9160882,N,00959.1382304,E,2,9,0.8,11.009,M,40.582,M,1.4,0136*41\r\n
$GPGGA,094259.10,5700.9160602,N,00959.1382115,E,2,9,0.8,11.004,M,40.582,M,1.4,0136*4C\r\n
$GPGGA,094259.15,5700.9160317,N,00959.1381935,E,2,9,0.8,11.000,M,40.582,M,1.4,0136*45\r\n
$GPGGA,094259.20,5700.9160073,N,00959.1381784,E,2,9,0.8,10.999,M,40.582,M,1.4,0136*4E\r\n
$GPGGA,094259.25,5700.9159804,N,00959.1381664,E,2,9,0.8,10.999,M,40.582,M,1.6,0136*44\r\n
$GPGGA,094259.30,5700.9159563,N,00959.1381459,E,2,9,0.8,11.000,M,40.582,M,1.6,0136*48\r\n
$GPGGA,094259.35,5700.9159329,N,00959.1381223,E,2,9,0.8,11.002,M,40.582,M,1.6,0136*4C\r\n
$GPGGA,094259.40,5700.9159101,N,00959.1381026,E,2,9,0.8,11.002,M,40.582,M,1.6,0136*41\r\n
$GPGGA,094259.45,5700.9158859,N,00959.1380815,E,2,9,0.8,10.998,M,40.582,M,1.9,0136*4C\r\n
$GPGGA,094259.50,5700.9158622,N,00959.1380613,E,2,9,0.8,11.003,M,40.582,M,1.9,0136*48\r\n
$GPGGA,094259.55,5700.9158385,N,00959.1380410,E,2,9,0.8,11.008,M,40.582,M,1.9,0136*4F\r\n
$GPGGA,094259.60,5700.9158147,N,00959.1380182,E,2,9,0.8,11.016,M,40.582,M,1.9,0136*44\r\n
$GPGGA,094259.65,5700.9157925,N,00959.1379942,E,2,8,0.8,11.019,M,40.582,M,2.1,0136*45\r\n
$GPGGA,094259.70,5700.9157679,N,00959.1379759,E,2,8,0.8,11.016,M,40.582,M,2.1,0136*4C\r\n
$GPGGA,094259.75,5700.9157417,N,00959.1379585,E,2,8,0.8,11.019,M,40.582,M,2.1,0136*4F\r\n
$GPGGA,094259.80,5700.9157172,N,00959.1379382,E,2,8,0.8,11.019,M,40.582,M,2.1,0136*42\r\n
$GPGGA,094259.85,5700.9156910,N,00959.1379163,E,2,9,0.8,11.005,M,40.582,M,2.3,0136*49\r\n
$GPGGA,094259.90,5700.9156679,N,00959.1378922,E,2,9,0.8,11.002,M,40.582,M,2.3,0136*46\r\n
$GPGGA,094259.95,5700.9156438,N,00959.1378682,E,2,9,0.8,11.001,M,40.582,M,2.3,0136*42\r\n
$GPGGA,094300.00,5700.9156177,N,00959.1378452,E,2,9,0.8,10.998,M,40.582,M,2.3,0136*4A\r\n
$GPGGA,094300.05,5700.9155913,N,00959.1378237,E,2,9,0.8,11.000,M,40.582,M,1.7,0136*4D\r\n
$GPGGA,094300.10,5700.9155691,N,00959.1378001,E,2,9,0.8,10.997,M,40.582,M,1.7,0136*4D\r\n
$GPGGA,094300.15,5700.9155446,N,00959.1377759,E,2,9,0.8,10.998,M,40.582,M,1.7,0136*4A\r\n
$GPGGA,094300.20,5700.9155209,N,00959.1377570,E,2,9,0.8,10.998,M,40.582,M,1.7,0136*48\r\n
$GPGGA,094300.25,5700.9154968,N,00959.1377380,E,2,9,0.8,10.993,M,40.582,M,2.0,0136*46\r\n
$GPGGA,094300.30,5700.9154693,N,00959.1377134,E,2,9,0.8,10.998,M,40.582,M,2.0,0136*4F\r\n
$GPGGA,094300.35,5700.9154480,N,00959.1376850,E,2,9,0.8,10.997,M,40.582,M,2.0,0136*4F\r\n
$GPGGA,094300.40,5700.9154268,N,00959.1376570,E,2,9,0.8,10.998,M,40.582,M,2.0,0136*4D\r\n
$GPGGA,094300.45,5700.9154043,N,00959.1376329,E,2,9,0.8,10.997,M,40.582,M,2.2,0136*44\r\n
$GPGGA,094300.50,5700.9153831,N,00959.1376079,E,2,9,0.8,10.997,M,40.582,M,2.2,0136*4C\r\n
$GPGGA,094300.55,5700.9153596,N,00959.1375836,E,2,9,0.8,10.999,M,40.582,M,2.2,0136*47\r\n
$GPGGA,094300.60,5700.9153349,N,00959.1375559,E,2,9,0.8,11.003,M,40.582,M,2.2,0136*4A\r\n
$GPGGA,094300.65,5700.9153095,N,00959.1375283,E,2,9,0.8,11.004,M,40.582,M,2.4,0136*4C\r\n
$GPGGA,094300.70,5700.9152885,N,00959.1375021,E,2,9,0.8,11.002,M,40.582,M,2.4,0136*4C\r\n
$GPGGA,094300.75,5700.9152654,N,00959.1374731,E,2,9,0.8,11.003,M,40.582,M,2.4,0136*4D\r\n
$GPGGA,094300.80,5700.9152389,N,00959.1374465,E,2,9,0.8,10.999,M,40.582,M,2.4,0136*4B\r\n
$GPGGA,094300.85,5700.9152151,N,00959.1374187,E,2,9,0.8,10.997,M,40.582,M,2.6,0136*4C\r\n
$GPGGA,094300.90,5700.9151913,N,00959.1373873,E,2,9,0.8,11.001,M,40.582,M,2.6,0136*47\r\n
$GPGGA,094300.95,5700.9151686,N,00959.1373596,E,2,9,0.8,11.002,M,40.582,M,2.6,0136*44\r\n
$GPGGA,094301.00,5700.9151425,N,00959.1373345,E,2,9,0.8,11.001,M,40.582,M,2.6,0136*49\r\n
$GPGGA,094301.05,5700.9151149,N,00959.1373107,E,2,9,0.8,10.996,M,40.582,M,2.8,0136*4F\r\n
$GPGGA,094301.10,5700.9150903,N,00959.1372858,E,2,9,0.8,11.000,M,40.582,M,2.8,0136*49\r\n
$GPGGA,094301.15,5700.9150632,N,00959.1372598,E,2,9,0.8,11.001,M,40.582,M,2.8,0136*41\r\n
$GPGGA,094301.20,5700.9150418,N,00959.1372382,E,2,9,0.8,11.003,M,40.582,M,2.8,0136*42\r\n
$GPGGA,094301.25,5700.9150149,N,00959.1372215,E,2,9,0.8,11.001,M,40.582,M,3.1,0136*43\r\n
$GPGGA,094301.30,5700.9149888,N,00959.1371977,E,2,9,0.8,11.002,M,40.582,M,3.1,0136*44\r\n
$GPGGA,094301.35,5700.9149648,N,00959.1371706,E,2,9,0.8,11.007,M,40.582,M,3.1,0136*4E\r\n
$GPGGA,094301.40,5700.9149402,N,00959.1371542,E,2,9,0.8,11.007,M,40.582,M,3.1,0136*42\r\n
$GPGGA,094301.45,5700.9149110,N,00959.1371395,E,2,9,0.8,11.008,M,40.582,M,3.3,0136*40\r\n
$GPGGA,094301.50,5700.9148844,N,00959.1371195,E,2,9,0.8,11.008,M,40.582,M,3.3,0136*4F\r\n
$GPGGA,094301.55,5700.9148582,N,00959.1370991,E,2,9,0.8,11.007,M,40.582,M,3.3,0136*4F\r\n
$GPGGA,094301.60,5700.9148292,N,00959.1370858,E,2,9,0.8,11.008,M,40.582,M,3.3,0136*44\r\n
$GPGGA,094301.65,5700.9148027,N,00959.1370716,E,2,9,0.8,11.007,M,40.582,M,3.5,0136*41\r\n
$GPGGA,094301.70,5700.9147734,N,00959.1370551,E,2,9,0.8,11.007,M,40.582,M,3.5,0136*4E\r\n
$GPGGA,094301.75,5700.9147429,N,00959.1370421,E,2,9,0.8,11.006,M,40.582,M,3.5,0136*43\r\n
$GPGGA,094301.80,5700.9147096,N,00959.1370309,E,2,9,0.8,11.005,M,40.582,M,3.5,0136*47\r\n
$GPGGA,094301.85,5700.9146817,N,00959.1370193,E,2,9,0.8,10.998,M,40.582,M,3.7,0136*4D\r\n
$GPGGA,094301.90,5700.9146526,N,00959.1370070,E,2,9,0.8,10.997,M,40.582,M,3.7,0136*45\r\n
$GPGGA,094301.95,5700.9146219,N,00959.1369972,E,2,9,0.8,10.998,M,40.582,M,3.7,0136*47\r\n
$GPGGA,094302.00,5700.9145932,N,00959.1369854,E,2,9,0.8,11.003,M,40.582,M,3.7,0136*46\r\n
$GPGGA,094302.05,5700.9145640,N,00959.1369717,E,2,9,0.8,11.008,M,40.582,M,2.3,0136*4F\r\n
$GPGGA,094302.10,5700.9145317,N,00959.1369655,E,2,9,0.8,11.012,M,40.582,M,2.3,0136*40\r\n
$GPGGA,094302.15,5700.9144998,N,00959.1369571,E,2,9,0.8,11.018,M,40.582,M,2.3,0136*46\r\n
$GPGGA,094302.20,5700.9144723,N,00959.1369482,E,2,9,0.8,11.019,M,40.582,M,2.3,0136*42\r\n
$GPGGA,094302.25,5700.9144429,N,00959.1369419,E,2,9,0.8,11.013,M,40.582,M,2.6,0136*43\r\n
$GPGGA,094302.30,5700.9144142,N,00959.1369398,E,2,9,0.8,11.015,M,40.582,M,2.6,0136*47\r\n
$GPGGA,094302.35,5700.9143815,N,00959.1369342,E,2,9,0.8,11.018,M,40.582,M,2.6,0136*44\r\n
$GPGGA,094302.40,5700.9143480,N,00959.1369305,E,2,9,0.8,11.022,M,40.582,M,2.6,0136*4C\r\n
$GPGGA,094302.45,5700.9143166,N,00959.1369297,E,2,9,0.8,11.024,M,40.582,M,2.9,0136*47\r\n
$GPGGA,094302.50,5700.9142864,N,00959.1369298,E,2,9,0.8,11.019,M,40.582,M,2.9,0136*48\r\n
$GPGGA,094302.55,5700.9142544,N,00959.1369313,E,2,9,0.8,11.017,M,40.582,M,2.9,0136*4E\r\n
$GPGGA,094302.60,5700.9142198,N,00959.1369290,E,2,9,0.8,11.015,M,40.582,M,2.9,0136*45\r\n
$GPGGA,094302.65,5700.9141887,N,00959.1369267,E,2,9,0.8,11.012,M,40.582,M,3.1,0136*42\r\n
$GPGGA,094302.70,5700.9141557,N,00959.1369322,E,2,9,0.8,11.011,M,40.582,M,3.1,0136*45\r\n
$GPGGA,094302.75,5700.9141246,N,00959.1369388,E,2,9,0.8,11.011,M,40.582,M,3.1,0136*47\r\n
$GPGGA,094302.80,5700.9140909,N,00959.1369395,E,2,9,0.8,11.012,M,40.582,M,3.1,0136*43\r\n
$GPGGA,094302.85,5700.9140610,N,00959.1369405,E,2,9,0.8,11.021,M,40.582,M,3.4,0136*4A\r\n
$GPGGA,094302.90,5700.9140314,N,00959.1369419,E,2,9,0.8,11.021,M,40.582,M,3.4,0136*42\r\n
$GPGGA,094302.95,5700.9139985,N,00959.1369417,E,2,9,0.8,11.011,M,40.582,M,3.4,0136*46\r\n
$GPGGA,094303.00,5700.9139652,N,00959.1369454,E,2,9,0.8,11.011,M,40.582,M,3.4,0136*49\r\n
$GPGGA,094303.05,5700.9139341,N,00959.1369457,E,2,9,0.8,11.011,M,40.582,M,1.4,0136*4A\r\n
$GPGGA,094303.10,5700.9139024,N,00959.1369541,E,2,9,0.8,11.010,M,40.582,M,1.4,0136*49\r\n
$GPGGA,094303.15,5700.9138740,N,00959.1369599,E,2,9,0.8,11.010,M,40.582,M,1.4,0136*4D\r\n
$GPGGA,094303.20,5700.9138398,N,00959.1369633,E,2,9,0.8,11.015,M,40.582,M,1.4,0136*4C\r\n
$GPGGA,094303.25,5700.9138088,N,00959.1369709,E,2,9,0.8,11.025,M,40.582,M,1.7,0136*43\r\n
$GPGGA,094303.30,5700.9137782,N,00959.1369811,E,2,9,0.8,11.026,M,40.582,M,1.7,0136*40\r\n
$GPGGA,094303.35,5700.9137457,N,00959.1369910,E,2,9,0.8,11.020,M,40.582,M,1.7,0136*48\r\n
$GPGGA,094303.40,5700.9137151,N,00959.1369992,E,2,9,0.8,11.021,M,40.582,M,1.7,0136*42\r\n
$GPGGA,094303.45,5700.9136803,N,00959.1370099,E,2,10,0.8,11.018,M,40.582,M,1.9,0136*7E\r\n
$GPGGA,094303.50,5700.9136493,N,00959.1370204,E,2,10,0.8,11.014,M,40.582,M,1.9,0136*75\r\n
$GPGGA,094303.55,5700.9136190,N,00959.1370263,E,2,10,0.8,11.015,M,40.582,M,1.9,0136*76\r\n
$GPGGA,094303.60,5700.9135850,N,00959.1370355,E,2,10,0.8,11.018,M,40.582,M,1.9,0136*7F\r\n
$GPGGA,094303.65,5700.9135547,N,00959.1370452,E,2,10,0.8,11.016,M,40.582,M,2.1,0136*74\r\n
$GPGGA,094303.70,5700.9135232,N,00959.1370535,E,2,10,0.8,11.012,M,40.582,M,2.1,0136*71\r\n
$GPGGA,094303.75,5700.9134937,N,00959.1370647,E,2,10,0.8,11.014,M,40.582,M,2.1,0136*7B\r\n
$GPGGA,094303.80,5700.9134630,N,00959.1370767,E,2,10,0.8,11.019,M,40.582,M,2.1,0136*77\r\n
$GPGGA,094303.85,5700.9134293,N,00959.1370876,E,2,10,0.8,11.018,M,40.582,M,2.3,0136*73\r\n
$GPGGA,094303.90,5700.9133990,N,00959.1370982,E,2,10,0.8,11.020,M,40.582,M,2.3,0136*79\r\n
$GPGGA,094303.95,5700.9133627,N,00959.1371083,E,2,10,0.8,11.014,M,40.582,M,2.3,0136*71\r\n
$GPGGA,094304.00,5700.9133295,N,00959.1371186,E,2,10,0.8,11.011,M,40.582,M,2.3,0136*76\r\n
$GPGGA,094304.05,5700.9132994,N,00959.1371300,E,2,10,0.8,11.011,M,40.582,M,1.8,0136*7C\r\n
$GPGGA,094304.10,5700.9132703,N,00959.1371435,E,2,10,0.8,11.016,M,40.582,M,1.8,0136*7E\r\n
$GPGGA,094304.15,5700.9132406,N,00959.1371596,E,2,10,0.8,11.020,M,40.582,M,1.8,0136*70\r\n
$GPGGA,094304.20,5700.9132111,N,00959.1371763,E,2,10,0.8,11.024,M,40.582,M,1.8,0136*79\r\n
$GPGGA,094304.25,5700.9131803,N,00959.1371887,E,2,10,0.8,11.031,M,40.582,M,2.1,0136*7E\r\n
$GPGGA,094304.30,5700.9131476,N,00959.1372031,E,2,10,0.8,11.028,M,40.582,M,2.1,0136*7A\r\n
$GPGGA,094304.35,5700.9131160,N,00959.1372207,E,2,10,0.8,11.029,M,40.582,M,2.1,0136*7B\r\n
$GPGGA,094304.40,5700.9130872,N,00959.1372416,E,2,10,0.8,11.035,M,40.582,M,2.1,0136*79\r\n
$GPGGA,094304.45,5700.9130541,N,00959.1372563,E,2,10,0.8,11.024,M,40.582,M,2.3,0136*70\r\n
$GPGGA,094304.50,5700.9130209,N,00959.1372694,E,2,10,0.8,11.022,M,40.582,M,2.3,0136*72\r\n
$GPGGA,094304.55,5700.9129869,N,00959.1372853,E,2,10,0.8,11.018,M,40.582,M,2.3,0136*7F\r\n
$GPGGA,094304.60,5700.9129571,N,00959.1373048,E,2,10,0.8,11.016,M,40.582,M,2.3,0136*70\r\n
$GPGGA,094304.65,5700.9129285,N,00959.1373272,E,2,10,0.8,11.020,M,40.582,M,2.5,0136*71\r\n
$GPGGA,094304.70,5700.9128980,N,00959.1373443,E,2,10,0.8,11.020,M,40.582,M,2.5,0136*7E\r\n
$GPGGA,094304.75,5700.9128656,N,00959.1373606,E,2,10,0.8,11.028,M,40.582,M,2.5,0136*74\r\n
$GPGGA,094304.80,5700.9128356,N,00959.1373770,E,2,10,0.8,11.028,M,40.582,M,2.5,0136*7B\r\n
$GPGGA,094304.85,5700.9128052,N,00959.1373980,E,2,10,0.8,11.027,M,40.582,M,2.7,0136*75\r\n
$GPGGA,094304.90,5700.9127736,N,00959.1374174,E,2,10,0.8,11.027,M,40.582,M,2.7,0136*7F\r\n
$GPGGA,094304.95,5700.9127454,N,00959.1374337,E,2,10,0.8,11.030,M,40.582,M,2.7,0136*7E\r\n
$GPGGA,094305.00,5700.9127158,N,00959.1374576,E,2,10,0.8,11.032,M,40.582,M,2.7,0136*7B\r\n
$GPGGA,094305.05,5700.9126857,N,00959.1374779,E,2,10,0.8,11.024,M,40.582,M,2.9,0136*7D\r\n
$GPGGA,094305.10,5700.9126548,N,00959.1375022,E,2,9,0.8,11.029,M,40.582,M,2.9,0136*47\r\n
$GPGGA,094305.15,5700.9126254,N,00959.1375255,E,2,9,0.8,11.035,M,40.582,M,2.9,0136*47\r\n
$GPGGA,094305.20,5700.9125975,N,00959.1375443,E,2,9,0.8,11.040,M,40.582,M,2.9,0136*49\r\n
$GPGGA,094305.25,5700.9125680,N,00959.1375672,E,2,9,0.8,11.042,M,40.582,M,3.1,0136*42\r\n
$GPGGA,094305.30,5700.9125363,N,00959.1375915,E,2,9,0.8,11.046,M,40.582,M,3.1,0136*44\r\n
$GPGGA,094305.35,5700.9125067,N,00959.1376129,E,2,9,0.8,11.048,M,40.582,M,3.1,0136*4C\r\n
$GPGGA,094305.40,5700.9124762,N,00959.1376383,E,2,9,0.8,11.045,M,40.582,M,3.1,0136*42\r\n
$GPGGA,094305.45,5700.9124480,N,00959.1376611,E,2,9,0.8,11.037,M,40.582,M,3.3,0136*41\r\n
$GPGGA,094305.50,5700.9124142,N,00959.1376832,E,2,9,0.8,11.040,M,40.582,M,3.3,0136*41\r\n
$GPGGA,094305.55,5700.9123839,N,00959.1377049,E,2,9,0.8,11.045,M,40.582,M,3.3,0136*46\r\n
$GPGGA,094305.60,5700.9123552,N,00959.1377300,E,2,9,0.8,11.044,M,40.582,M,3.3,0136*4F\r\n
$GPGGA,094305.65,5700.9123268,N,00959.1377550,E,2,10,0.8,11.038,M,40.582,M,3.6,0136*71\r\n
$GPGGA,094305.70,5700.9122988,N,00959.1377813,E,2,10,0.8,11.037,M,40.582,M,3.6,0136*74\r\n
$GPGGA,094305.75,5700.9122711,N,00959.1378051,E,2,10,0.8,11.042,M,40.582,M,3.6,0136*7C\r\n
$GPGGA,094305.80,5700.9122388,N,00959.1378281,E,2,10,0.8,11.044,M,40.582,M,3.6,0136*7B\r\n
$GPGGA,094305.85,5700.9122096,N,00959.1378448,E,2,10,0.8,11.046,M,40.582,M,3.8,0136*7D\r\n
$GPGGA,094305.90,5700.9121799,N,00959.1378666,E,2,10,0.8,11.050,M,40.582,M,3.8,0136*7B\r\n
$GPGGA,094305.95,5700.9121539,N,00959.1378917,E,2,10,0.8,11.045,M,40.582,M,3.8,0136*7B\r\n
$GPGGA,094306.00,5700.9121257,N,00959.1379197,E,2,10,0.8,11.048,M,40.582,M,3.8,0136*77\r\n
$GPGGA,094306.05,5700.9120993,N,00959.1379446,E,2,10,0.8,11.051,M,40.582,M,2.0,0136*78\r\n
$GPGGA,094306.10,5700.9120729,N,00959.1379736,E,2,10,0.8,11.057,M,40.582,M,2.0,0136*71\r\n
$GPGGA,094306.15,5700.9120461,N,00959.1380024,E,2,9,0.8,11.059,M,40.582,M,2.0,0136*4F\r\n
$GPGGA,094306.20,5700.9120153,N,00959.1380325,E,2,9,0.8,11.059,M,40.582,M,2.0,0136*4F\r\n
$GPGGA,094306.25,5700.9119872,N,00959.1380617,E,2,9,0.8,11.070,M,40.582,M,2.3,0136*46\r\n
$GPGGA,094306.30,5700.9119618,N,00959.1380878,E,2,9,0.8,11.066,M,40.582,M,2.3,0136*40\r\n
$GPGGA,094306.35,5700.9119326,N,00959.1381135,E,2,9,0.8,11.058,M,40.582,M,2.3,0136*41\r\n
$GPGGA,094306.40,5700.9119019,N,00959.1381419,E,2,9,0.8,11.053,M,40.582,M,2.3,0136*4C\r\n
$GPGGA,094306.45,5700.9118721,N,00959.1381697,E,2,9,0.8,11.041,M,40.582,M,2.6,0136*46\r\n
$GPGGA,094306.50,5700.9118423,N,00959.1382015,E,2,9,0.8,11.040,M,40.582,M,2.6,0136*4D\r\n
$GPGGA,094306.55,5700.9118137,N,00959.1382308,E,2,9,0.8,11.039,M,40.582,M,2.6,0136*49\r\n
$GPGGA,094306.60,5700.9117879,N,00959.1382582,E,2,9,0.8,11.033,M,40.582,M,2.6,0136*4D\r\n
$GPGGA,094306.65,5700.9117600,N,00959.1382843,E,2,9,0.8,11.038,M,40.582,M,2.8,0136*4D\r\n
$GPGGA,094306.70,5700.9117307,N,00959.1383155,E,2,9,0.8,11.042,M,40.582,M,2.8,0136*49\r\n
$GPGGA,094306.75,5700.9117051,N,00959.1383413,E,2,8,0.8,11.042,M,40.582,M,2.8,0136*4A\r\n
$GPGGA,094306.80,5700.9116774,N,00959.1383580,E,2,8,0.8,11.043,M,40.582,M,2.8,0136*4B\r\n
$GPGGA,094306.85,5700.9116484,N,00959.1383760,E,2,8,0.8,11.043,M,40.582,M,3.1,0136*46\r\n
$GPGGA,094306.90,5700.9116183,N,00959.1383963,E,2,8,0.8,11.050,M,40.582,M,3.1,0136*4F\r\n
$GPGGA,094306.95,5700.9115918,N,00959.1384127,E,2,8,0.8,11.049,M,40.582,M,3.1,0136*44\r\n
$GPGGA,094307.00,5700.9115642,N,00959.1384300,E,2,8,0.8,11.052,M,40.582,M,3.1,0136*44\r\n
$GPGGA,094307.05,5700.9115354,N,00959.1384519,E,2,8,0.8,11.056,M,40.582,M,1.4,0136*4E\r\n
$GPGGA,094307.10,5700.9115074,N,00959.1384763,E,2,8,0.8,11.058,M,40.582,M,1.4,0136*4A\r\n
$GPGGA,094307.15,5700.9114790,N,00959.1384984,E,2,8,0.8,11.053,M,40.582,M,1.4,0136*4F\r\n
$GPGGA,094307.20,5700.9114490,N,00959.1385168,E,2,8,0.8,11.051,M,40.582,M,1.4,0136*43\r\n
$GPGGA,094307.25,5700.9114192,N,00959.1385363,E,2,8,0.8,11.044,M,40.582,M,1.7,0136*4F\r\n
