$GPGGA,155242.75,5700.7936027,N,00959.0067626,E,2,9,1.0,14.093,M,40.582,M,3.5,0123*46\r\n
$GPGGA,155242.80,5700.7936010,N,00959.0068002,E,2,9,1.0,14.089,M,40.582,M,3.5,0123*4C\r\n
$GPGGA,155242.85,5700.7936006,N,00959.0068379,E,2,9,1.0,14.086,M,40.582,M,1.4,0123*4D\r\n
$GPGGA,155242.90,5700.7936020,N,00959.0068750,E,2,9,1.0,14.091,M,40.582,M,1.4,0123*44\r\n
$GPGGA,155242.95,5700.7936026,N,00959.0069106,E,2,9,1.0,14.096,M,40.582,M,1.4,0123*44\r\n
$GPGGA,155243.00,5700.7936021,N,00959.0069464,E,2,9,1.0,14.098,M,40.582,M,1.4,0123*41\r\n
$GPGGA,155243.05,5700.7936010,N,00959.0069808,E,2,9,1.0,14.100,M,40.582,M,1.6,0123*42\r\n
$GPGGA,155243.10,5700.7936007,N,00959.0070177,E,2,9,1.0,14.102,M,40.582,M,1.6,0123*4B\r\n
$GPGGA,155243.15,5700.7936017,N,00959.0070569,E,2,9,1.0,14.104,M,40.582,M,1.6,0123*42\r\n
$GPGGA,155243.20,5700.7936018,N,00959.0070980,E,2,9,1.0,14.102,M,40.582,M,1.6,0123*46\r\n
$GPGGA,155243.25,5700.7936012,N,00959.0071390,E,2,9,1.0,14.095,M,40.582,M,1.9,0123*43\r\n
$GPGGA,155243.30,5700.7936006,N,00959.0071784,E,2,9,1.0,14.092,M,40.582,M,1.9,0123*44\r\n
$GPGGA,155243.35,5700.7935998,N,00959.0072165,E,2,9,1.0,14.091,M,40.582,M,1.9,0123*45\r\n
$GPGGA,155243.40,5700.7935989,N,00959.0072540,E,2,9,1.0,14.090,M,40.582,M,1.9,0123*45\r\n
$GPGGA,155243.45,5700.7935979,N,00959.0072901,E,2,9,1.0,14.091,M,40.582,M,2.2,0123*4F\r\n
$GPGGA,155243.50,5700.7935983,N,00959.0073253,E,2,9,1.0,14.095,M,40.582,M,2.2,0123*47\r\n
$GPGGA,155243.55,5700.7935993,N,00959.0073612,E,2,9,1.0,14.100,M,40.582,M,2.2,0123*4F\r\n
$GPGGA,155243.60,5700.7936001,N,00959.0073965,E,2,9,1.0,14.105,M,40.582,M,2.2,0123*42\r\n
$GPGGA,155243.65,5700.7935996,N,00959.0074329,E,2,9,1.0,14.107,M,40.582,M,2.4,0123*42\r\n
$GPGGA,155243.70,5700.7935966,N,00959.0074718,E,2,9,1.0,14.107,M,40.582,M,2.4,0123*4F\r\n
$GPGGA,155243.75,5700.7935960,N,00959.0075109,E,2,9,1.0,14.106,M,40.582,M,2.4,0123*4A\r\n
$GPGGA,155243.80,5700.7935954,N,00959.0075479,E,2,9,1.0,14.101,M,40.582,M,2.4,0123*42\r\n
$GPGGA,155243.85,5700.7935939,N,00959.0075850,E,2,9,1.0,14.089,M,40.582,M,1.2,0123*4F\r\n
$GPGGA,155243.90,5700.7935927,N,00959.0076245,E,2,9,1.0,14.089,M,40.582,M,1.2,0123*49\r\n
$GPGGA,155243.95,5700.7935914,N,00959.0076624,E,2,9,1.0,14.091,M,40.582,M,1.2,0123*46\r\n
$GPGGA,155244.00,5700.7935906,N,00959.0076983,E,2,9,1.0,14.091,M,40.582,M,1.2,0123*4C\r\n
$GPGGA,155244.05,5700.7935904,N,00959.0077317,E,2,9,1.0,14.092,M,40.582,M,1.4,0123*48\r\n
$GPGGA,155244.10,5700.7935903,N,00959.0077690,E,2,9,1.0,14.095,M,40.582,M,1.4,0123*46\r\n
$GPGGA,155244.15,5700.7935902,N,00959.0078075,E,2,9,1.0,14.100,M,40.582,M,1.4,0123*4D\r\n
$GPGGA,155244.20,5700.7935895,N,00959.0078457,E,2,9,1.0,14.101,M,40.582,M,1.4,0123*41\r\n
$GPGGA,155244.25,5700.7935886,N,00959.0078860,E,2,9,1.0,14.099,M,40.582,M,1.6,0123*4C\r\n
$GPGGA,155244.30,5700.7935876,N,00959.0079277,E,2,9,1.0,14.095,M,40.582,M,1.6,0123*46\r\n
$GPGGA,155244.35,5700.7935848,N,00959.0079684,E,2,9,1.0,14.097,M,40.582,M,1.6,0123*44\r\n
$GPGGA,155244.40,5700.7935825,N,00959.0080080,E,2,9,1.0,14.100,M,40.582,M,1.6,0123*46\r\n
$GPGGA,155244.45,5700.7935812,N,00959.0080462,E,2,9,1.0,14.095,M,40.582,M,1.9,0123*4D\r\n
$GPGGA,155244.50,5700.7935800,N,00959.0080833,E,2,9,1.0,14.096,M,40.582,M,1.9,0123*41\r\n
$GPGGA,155244.55,5700.7935793,N,00959.0081210,E,2,9,1.0,14.099,M,40.582,M,1.9,0123*44\r\n
$GPGGA,155244.60,5700.7935784,N,00959.0081579,E,2,9,1.0,14.099,M,40.582,M,1.9,0123*4C\r\n
$GPGGA,155244.65,5700.7935761,N,00959.0081939,E,2,9,1.0,14.098,M,40.582,M,2.1,0123*40\r\n
$GPGGA,155244.70,5700.7935760,N,00959.0082330,E,2,9,1.0,14.099,M,40.582,M,2.1,0123*44\r\n
$GPGGA,155244.75,5700.7935762,N,00959.0082757,E,2,9,1.0,14.100,M,40.582,M,2.1,0123*47\r\n
$GPGGA,155244.80,5700.7935745,N,00959.0083161,E,2,9,1.0,14.098,M,40.582,M,2.1,0123*4A\r\n
$GPGGA,155244.85,5700.7935730,N,00959.0083550,E,2,9,1.0,14.096,M,40.582,M,2.3,0123*47\r\n
$GPGGA,155244.90,5700.7935720,N,00959.0083934,E,2,9,1.0,14.094,M,40.582,M,2.3,0123*4E\r\n
$GPGGA,155244.95,5700.7935692,N,00959.0084345,E,2,9,1.0,14.095,M,40.582,M,2.3,0123*49\r\n
$GPGGA,155245.00,5700.7935672,N,00959.0084754,E,2,9,1.0,14.097,M,40.582,M,2.3,0123*4C\r\n
$GPGGA,155245.05,5700.7935673,N,00959.0085111,E,2,9,1.0,14.091,M,40.582,M,2.5,0123*4E\r\n
$GPGGA,155245.10,5700.7935668,N,00959.0085454,E,2,9,1.0,14.093,M,40.582,M,2.5,0123*46\r\n
$GPGGA,155245.15,5700.7935655,N,00959.0085811,E,2,9,1.0,14.095,M,40.582,M,2.5,0123*46\r\n
$GPGGA,155245.20,5700.7935637,N,00959.0086174,E,2,9,1.0,14.097,M,40.582,M,2.5,0123*4F\r\n
$GPGGA,155245.25,5700.7935612,N,00959.0086545,E,2,9,1.0,14.097,M,40.582,M,2.7,0123*49\r\n
$GPGGA,155245.30,5700.7935593,N,00959.0086947,E,2,9,1.0,14.099,M,40.582,M,2.7,0123*47\r\n
$GPGGA,155245.35,5700.7935589,N,00959.0087347,E,2,9,1.0,14.097,M,40.582,M,2.7,0123*4C\r\n
$GPGGA,155245.40,5700.7935577,N,00959.0087743,E,2,9,1.0,14.093,M,40.582,M,2.7,0123*4B\r\n
$GPGGA,155245.45,5700.7935550,N,00959.0088136,E,2,9,1.0,14.095,M,40.582,M,2.9,0123*48\r\n
$GPGGA,155245.50,5700.7935519,N,00959.0088512,E,2,9,1.0,14.094,M,40.582,M,2.9,0123*42\r\n
$GPGGA,155245.55,5700.7935476,N,00959.0088877,E,2,9,1.0,14.096,M,40.582,M,2.9,0123*43\r\n
$GPGGA,155245.60,5700.7935449,N,00959.0089239,E,2,9,1.0,14.101,M,40.582,M,2.9,0123*47\r\n
$GPGGA,155245.65,5700.7935437,N,00959.0089599,E,2,9,1.0,14.099,M,40.582,M,3.1,0123*4F\r\n
$GPGGA,155245.70,5700.7935428,N,00959.0089950,E,2,9,1.0,14.098,M,40.582,M,3.1,0123*4D\r\n
$GPGGA,155245.75,5700.7935410,N,00959.0090269,E,2,9,1.0,14.102,M,40.582,M,3.1,0123*48\r\n
$GPGGA,155245.80,5700.7935387,N,00959.0090625,E,2,9,1.0,14.109,M,40.582,M,3.1,0123*4C\r\n
$GPGGA,155245.85,5700.7935372,N,00959.0091000,E,2,9,1.0,14.113,M,40.582,M,2.4,0123*4C\r\n
$GPGGA,155245.90,5700.7935349,N,00959.0091363,E,2,9,1.0,14.107,M,40.582,M,2.4,0123*43\r\n
$GPGGA,155245.95,5700.7935348,N,00959.0091756,E,2,9,1.0,14.102,M,40.582,M,2.4,0123*40\r\n
$GPGGA,155246.00,5700.7935345,N,00959.0092168,E,2,9,1.0,14.097,M,40.582,M,2.4,0123*47\r\n
$GPGGA,155246.05,5700.7935327,N,00959.0092526,E,2,9,1.0,14.085,M,40.582,M,2.7,0123*48\r\n
$GPGGA,155246.10,5700.7935301,N,00959.0092900,E,2,9,1.0,14.086,M,40.582,M,2.7,0123*43\r\n
$GPGGA,155246.15,5700.7935301,N,00959.0093266,E,2,9,1.0,14.090,M,40.582,M,2.7,0123*4B\r\n
$GPGGA,155246.20,5700.7935293,N,00959.0093593,E,2,9,1.0,14.093,M,40.582,M,2.7,0123*49\r\n
$GPGGA,155246.25,5700.7935281,N,00959.0093931,E,2,9,1.0,14.105,M,40.582,M,3.0,0123*43\r\n
$GPGGA,155246.30,5700.7935282,N,00959.0094297,E,2,9,1.0,14.107,M,40.582,M,3.0,0123*46\r\n
$GPGGA,155246.35,5700.7935287,N,00959.0094679,E,2,9,1.0,14.108,M,40.582,M,3.0,0123*4D\r\n
$GPGGA,155246.40,5700.7935268,N,00959.0095042,E,2,9,1.0,14.108,M,40.582,M,3.0,0123*41\r\n
$GPGGA,155246.45,5700.7935256,N,00959.0095384,E,2,9,1.0,14.097,M,40.582,M,3.2,0123*45\r\n
$GPGGA,155246.50,5700.7935254,N,00959.0095772,E,2,9,1.0,14.096,M,40.582,M,3.2,0123*4F\r\n
$GPGGA,155246.55,5700.7935228,N,00959.0096163,E,2,9,1.0,14.091,M,40.582,M,3.2,0123*43\r\n
$GPGGA,155246.60,5700.7935195,N,00959.0096545,E,2,9,1.0,14.086,M,40.582,M,3.2,0123*46\r\n
$GPGGA,155246.65,5700.7935177,N,00959.0096910,E,2,9,1.0,14.092,M,40.582,M,3.5,0123*41\r\n
$GPGGA,155246.70,5700.7935149,N,00959.0097248,E,2,9,1.0,14.098,M,40.582,M,3.5,0123*45\r\n
$GPGGA,155246.75,5700.7935109,N,00959.0097603,E,2,9,1.0,14.104,M,40.582,M,3.5,0123*4B\r\n
$GPGGA,155246.80,5700.7935086,N,00959.0097960,E,2,9,1.0,14.104,M,40.582,M,3.5,0123*4D\r\n
$GPGGA,155246.85,5700.7935073,N,00959.0098317,E,2,9,1.0,14.109,M,40.582,M,1.4,0123*49\r\n
$GPGGA,155246.90,5700.7935055,N,00959.0098694,E,2,9,1.0,14.109,M,40.582,M,1.4,0123*47\r\n
$GPGGA,155246.95,5700.7935029,N,00959.0099085,E,2,9,1.0,14.107,M,40.582,M,1.4,0123*40\r\n
$GPGGA,155247.00,5700.7935020,N,00959.0099472,E,2,9,1.0,14.107,M,40.582,M,1.4,0123*48\r\n
$GPGGA,155247.05,5700.7935003,N,00959.0099827,E,2,9,1.0,14.098,M,40.582,M,1.6,0123*45\r\n
$GPGGA,155247.10,5700.7934977,N,00959.0100195,E,2,9,1.0,14.096,M,40.582,M,1.6,0123*45\r\n
$GPGGA,155247.15,5700.7934956,N,00959.0100580,E,2,9,1.0,14.091,M,40.582,M,1.6,0123*44\r\n
$GPGGA,155247.20,5700.7934947,N,00959.0100971,E,2,9,1.0,14.092,M,40.582,M,1.6,0123*43\r\n
$GPGGA,155247.25,5700.7934947,N,00959.0101334,E,2,9,1.0,14.097,M,40.582,M,1.9,0123*46\r\n
$GPGGA,155247.30,5700.7934940,N,00959.0101678,E,2,9,1.0,14.099,M,40.582,M,1.9,0123*46\r\n
$GPGGA,155247.35,5700.7934926,N,00959.0102031,E,2,9,1.0,14.104,M,40.582,M,1.9,0123*4E\r\n
$GPGGA,155247.40,5700.7934925,N,00959.0102394,E,2,9,1.0,14.106,M,40.582,M,1.9,0123*41\r\n
$GPGGA,155247.45,5700.7934932,N,00959.0102762,E,2,9,1.0,14.106,M,40.582,M,2.2,0123*47\r\n
$GPGGA,155247.50,5700.7934928,N,00959.0103144,E,2,9,1.0,14.104,M,40.582,M,2.2,0123*49\r\n
$GPGGA,155247.55,5700.7934912,N,00959.0103518,E,2,9,1.0,14.102,M,40.582,M,2.2,0123*4E\r\n
$GPGGA,155247.60,5700.7934905,N,00959.0103907,E,2,9,1.0,14.097,M,40.582,M,2.2,0123*41\r\n
$GPGGA,155247.65,5700.7934891,N,00959.0104306,E,2,9,1.0,14.093,M,40.582,M,2.4,0123*46\r\n
$GPGGA,155247.70,5700.7934871,N,00959.0104676,E,2,9,1.0,14.093,M,40.582,M,2.4,0123*4E\r\n
$GPGGA,155247.75,5700.7934855,N,00959.0105051,E,2,9,1.0,14.095,M,40.582,M,2.4,0123*49\r\n
$GPGGA,155247.80,5700.7934836,N,00959.0105393,E,2,9,1.0,14.099,M,40.582,M,2.4,0123*47\r\n
$GPGGA,155247.85,5700.7934815,N,00959.0105722,E,2,9,1.0,14.097,M,40.582,M,1.2,0123*46\r\n
$GPGGA,155247.90,5700.7934803,N,00959.0106087,E,2,9,1.0,14.101,M,40.582,M,1.2,0123*40\r\n
$GPGGA,155247.95,5700.7934794,N,00959.0106450,E,2,9,1.0,14.103,M,40.582,M,1.2,0123*48\r\n
$GPGGA,155248.00,5700.7934781,N,00959.0106810,E,2,9,1.0,14.103,M,40.582,M,1.2,0123*47\r\n
$GPGGA,155248.05,5700.7934770,N,00959.0107185,E,2,9,1.0,14.102,M,40.582,M,1.4,0123*4F\r\n
$GPGGA,155248.10,5700.7934770,N,00959.0107575,E,2,9,1.0,14.099,M,40.582,M,1.4,0123*43\r\n
$GPGGA,155248.15,5700.7934776,N,00959.0107957,E,2,9,1.0,14.096,M,40.582,M,1.4,0123*43\r\n
$GPGGA,155248.20,5700.7934769,N,00959.0108369,E,2,9,1.0,14.094,M,40.582,M,1.4,0123*41\r\n
$GPGGA,155248.25,5700.7934752,N,00959.0108747,E,2,9,1.0,14.091,M,40.582,M,1.6,0123*43\r\n
$GPGGA,155248.30,5700.7934752,N,00959.0109088,E,2,9,1.0,14.095,M,40.582,M,1.6,0123*46\r\n
$GPGGA,155248.35,5700.7934757,N,00959.0109424,E,2,9,1.0,14.104,M,40.582,M,1.6,0123*4D\r\n
$GPGGA,155248.40,5700.7934742,N,00959.0109764,E,2,9,1.0,14.110,M,40.582,M,1.6,0123*49\r\n
$GPGGA,155248.45,5700.7934724,N,00959.0110116,E,2,9,1.0,14.108,M,40.582,M,1.9,0123*41\r\n
$GPGGA,155248.50,5700.7934728,N,00959.0110486,E,2,9,1.0,14.108,M,40.582,M,1.9,0123*45\r\n
$GPGGA,155248.55,5700.7934731,N,00959.0110857,E,2,9,1.0,14.111,M,40.582,M,1.9,0123*40\r\n
$GPGGA,155248.60,5700.7934725,N,00959.0111220,E,2,9,1.0,14.109,M,40.582,M,1.9,0123*41\r\n
$GPGGA,155248.65,5700.7934728,N,00959.0111614,E,2,9,1.0,14.098,M,40.582,M,2.1,0123*48\r\n
$GPGGA,155248.70,5700.7934721,N,00959.0112016,E,2,9,1.0,14.094,M,40.582,M,2.1,0123*4E\r\n
$GPGGA,155248.75,5700.7934709,N,00959.0112376,E,2,9,1.0,14.093,M,40.582,M,2.1,0123*43\r\n
$GPGGA,155248.80,5700.7934708,N,00959.0112729,E,2,9,1.0,14.095,M,40.582,M,2.1,0123*40\r\n
$GPGGA,155248.85,5700.7934691,N,00959.0113047,E,2,9,1.0,14.096,M,40.582,M,2.3,0123*4B\r\n
$GPGGA,155248.90,5700.7934658,N,00959.0113368,E,2,9,1.0,14.101,M,40.582,M,2.3,0123*4B\r\n
$GPGGA,155248.95,5700.7934646,N,00959.0113723,E,2,9,1.0,14.108,M,40.582,M,2.3,0123*43\r\n
$GPGGA,155249.00,5700.7934633,N,00959.0114067,E,2,9,1.0,14.112,M,40.582,M,2.3,0123*47\r\n
$GPGGA,155249.05,5700.7934610,N,00959.0114386,E,2,9,1.0,14.105,M,40.582,M,2.5,0123*4F\r\n
$GPGGA,155249.10,5700.7934599,N,00959.0114746,E,2,9,1.0,14.103,M,40.582,M,2.5,0123*47\r\n
$GPGGA,155249.15,5700.7934605,N,00959.0115144,E,2,9,1.0,14.103,M,40.582,M,2.5,0123*41\r\n
$GPGGA,155249.20,5700.7934586,N,00959.0115523,E,2,9,1.0,14.101,M,40.582,M,2.5,0123*48\r\n
$GPGGA,155249.25,5700.7934562,N,00959.0115891,E,2,9,1.0,14.097,M,40.582,M,2.7,0123*4F\r\n
$GPGGA,155249.30,5700.7934568,N,00959.0116271,E,2,9,1.0,14.095,M,40.582,M,2.7,0123*44\r\n
$GPGGA,155249.35,5700.7934576,N,00959.0116641,E,2,9,1.0,14.098,M,40.582,M,2.7,0123*44\r\n
$GPGGA,155249.40,5700.7934564,N,00959.0116980,E,2,9,1.0,14.099,M,40.582,M,2.7,0123*46\r\n
$GPGGA,155249.45,5700.7934559,N,00959.0117287,E,2,9,1.0,14.094,M,40.582,M,2.9,0123*43\r\n
$GPGGA,155249.50,5700.7934564,N,00959.0117643,E,2,9,1.0,14.099,M,40.582,M,2.9,0123*48\r\n
$GPGGA,155249.55,5700.7934558,N,00959.0117992,E,2,9,1.0,14.106,M,40.582,M,2.9,0123*46\r\n
$GPGGA,155249.60,5700.7934545,N,00959.0118311,E,2,9,1.0,14.110,M,40.582,M,2.9,0123*45\r\n
$GPGGA,155249.65,5700.7934538,N,00959.0118632,E,2,9,1.0,14.111,M,40.582,M,3.1,0123*46\r\n
$GPGGA,155249.70,5700.7934515,N,00959.0118980,E,2,9,1.0,14.112,M,40.582,M,3.1,0123*48\r\n
$GPGGA,155249.75,5700.7934494,N,00959.0119342,E,2,9,1.0,14.114,M,40.582,M,3.1,0123*46\r\n
$GPGGA,155249.80,5700.7934481,N,00959.0119723,E,2,9,1.0,14.111,M,40.582,M,3.1,0123*4E\r\n
$GPGGA,155249.85,5700.7934468,N,00959.0120100,E,2,9,1.0,14.105,M,40.582,M,2.4,0123*40\r\n
$GPGGA,155249.90,5700.7934453,N,00959.0120453,E,2,9,1.0,14.104,M,40.582,M,2.4,0123*4E\r\n
$GPGGA,155249.95,5700.7934438,N,00959.0120796,E,2,9,1.0,14.104,M,40.582,M,2.4,0123*4C\r\n
$GPGGA,155250.00,5700.7934385,N,00959.0121137,E,2,9,1.0,14.105,M,40.582,M,2.4,0123*44\r\n
$GPGGA,155250.05,5700.7934329,N,00959.0121429,E,2,9,1.0,14.101,M,40.582,M,2.7,0123*4A\r\n
$GPGGA,155250.10,5700.7934318,N,00959.0121760,E,2,9,1.0,14.109,M,40.582,M,2.7,0123*4A\r\n
$GPGGA,155250.15,5700.7934316,N,00959.0122112,E,2,9,1.0,14.115,M,40.582,M,2.7,0123*4C\r\n
$GPGGA,155250.20,5700.7934296,N,00959.0122486,E,2,9,1.0,14.113,M,40.582,M,2.7,0123*4D\r\n
$GPGGA,155250.25,5700.7934261,N,00959.0122865,E,2,9,1.0,14.110,M,40.582,M,3.0,0123*44\r\n
$GPGGA,155250.30,5700.7934233,N,00959.0123261,E,2,9,1.0,14.110,M,40.582,M,3.0,0123*48\r\n
$GPGGA,155250.35,5700.7934211,N,00959.0123649,E,2,9,1.0,14.109,M,40.582,M,3.0,0123*4B\r\n
$GPGGA,155250.40,5700.7934206,N,00959.0124040,E,2,9,1.0,14.106,M,40.582,M,3.0,0123*48\r\n
$GPGGA,155250.45,5700.7934203,N,00959.0124405,E,2,9,1.0,14.104,M,40.582,M,3.2,0123*4D\r\n
$GPGGA,155250.50,5700.7934204,N,00959.0124753,E,2,9,1.0,14.106,M,40.582,M,3.2,0123*4C\r\n
$GPGGA,155250.55,5700.7934180,N,00959.0125129,E,2,9,1.0,14.107,M,40.582,M,3.2,0123*4D\r\n
$GPGGA,155250.60,5700.7934144,N,00959.0125490,E,2,9,1.0,14.110,M,40.582,M,3.2,0123*42\r\n
$GPGGA,155250.65,5700.7934133,N,00959.0125845,E,2,9,1.0,14.110,M,40.582,M,3.5,0123*44\r\n
$GPGGA,155250.70,5700.7934132,N,00959.0126224,E,2,9,1.0,14.110,M,40.582,M,3.5,0123*4F\r\n
$GPGGA,155250.75,5700.7934120,N,00959.0126621,E,2,9,1.0,14.111,M,40.582,M,3.5,0123*49\r\n
$GPGGA,155250.80,5700.7934105,N,00959.0127001,E,2,9,1.0,14.110,M,40.582,M,3.5,0123*40\r\n
$GPGGA,155250.85,5700.7934098,N,00959.0127391,E,2,9,1.0,14.108,M,40.582,M,1.4,0123*40\r\n
$GPGGA,155250.90,5700.7934091,N,00959.0127802,E,2,9,1.0,14.107,M,40.582,M,1.4,0123*43\r\n
$GPGGA,155250.95,5700.7934066,N,00959.0128212,E,2,9,1.0,14.108,M,40.582,M,1.4,0123*45\r\n
$GPGGA,155251.00,5700.7934040,N,00959.0128598,E,2,9,1.0,14.105,M,40.582,M,1.4,0123*44\r\n
$GPGGA,155251.05,5700.7934009,N,00959.0128943,E,2,9,1.0,14.099,M,40.582,M,1.6,0123*40\r\n
$GPGGA,155251.10,5700.7933993,N,00959.0129329,E,2,9,1.0,14.104,M,40.582,M,1.6,0123*4B\r\n
$GPGGA,155251.15,5700.7933972,N,00959.0129733,E,2,9,1.0,14.107,M,40.582,M,1.6,0123*4D\r\n
$GPGGA,155251.20,5700.7933938,N,00959.0130127,E,2,9,1.0,14.110,M,40.582,M,1.6,0123*48\r\n
$GPGGA,155251.25,5700.7933916,N,00959.0130516,E,2,9,1.0,14.115,M,40.582,M,1.9,0123*4D\r\n
$GPGGA,155251.30,5700.7933919,N,00959.0130906,E,2,9,1.0,14.114,M,40.582,M,1.9,0123*4A\r\n
$GPGGA,155251.35,5700.7933914,N,00959.0131306,E,2,9,1.0,14.111,M,40.582,M,1.9,0123*4C\r\n
$GPGGA,155251.40,5700.7933898,N,00959.0131724,E,2,9,1.0,14.106,M,40.582,M,1.9,0123*49\r\n
$GPGGA,155251.45,5700.7933887,N,00959.0132139,E,2,9,1.0,14.097,M,40.582,M,2.2,0123*4A\r\n
$GPGGA,155251.50,5700.7933885,N,00959.0132564,E,2,9,1.0,14.099,M,40.582,M,2.2,0123*4E\r\n
$GPGGA,155251.55,5700.7933884,N,00959.0132950,E,2,9,1.0,14.101,M,40.582,M,2.2,0123*41\r\n
$GPGGA,155251.60,5700.7933889,N,00959.0133321,E,2,9,1.0,14.102,M,40.582,M,2.2,0123*44\r\n
$GPGGA,155251.65,5700.7933881,N,00959.0133696,E,2,9,1.0,14.106,M,40.582,M,2.4,0123*42\r\n
$GPGGA,155251.70,5700.7933877,N,00959.0134068,E,2,9,1.0,14.110,M,40.582,M,2.4,0123*48\r\n
$GPGGA,155251.75,5700.7933887,N,00959.0134442,E,2,9,1.0,14.113,M,40.582,M,2.4,0123*4D\r\n
$GPGGA,155251.80,5700.7933890,N,00959.0134859,E,2,9,1.0,14.116,M,40.582,M,2.4,0123*42\r\n
$GPGGA,155251.85,5700.7933890,N,00959.0135275,E,2,9,1.0,14.122,M,40.582,M,1.2,0123*40\r\n
$GPGGA,155251.90,5700.7933899,N,00959.0135691,E,2,9,1.0,14.119,M,40.582,M,1.2,0123*4B\r\n
$GPGGA,155251.95,5700.7933901,N,00959.0136130,E,2,9,1.0,14.114,M,40.582,M,1.2,0123*4C\r\n
$GPGGA,155252.00,5700.7933889,N,00959.0136556,E,2,9,1.0,14.113,M,40.582,M,1.2,0123*41\r\n
$GPGGA,155252.05,5700.7933890,N,00959.0136936,E,2,9,1.0,14.101,M,40.582,M,1.4,0123*43\r\n
$GPGGA,155252.10,5700.7933887,N,00959.0137316,E,2,9,1.0,14.104,M,40.582,M,1.4,0123*4D\r\n
$GPGGA,155252.15,5700.7933875,N,00959.0137682,E,2,9,1.0,14.107,M,40.582,M,1.4,0123*4E\r\n
$GPGGA,155252.20,5700.7933861,N,00959.0138052,E,2,9,1.0,14.110,M,40.582,M,1.4,0123*4F\r\n
$GPGGA,155252.25,5700.7933837,N,00959.0138429,E,2,9,1.0,14.110,M,40.582,M,1.6,0123*43\r\n
$GPGGA,155252.30,5700.7933814,N,00959.0138803,E,2,9,1.0,14.114,M,40.582,M,1.6,0123*46\r\n
$GPGGA,155252.35,5700.7933817,N,00959.0139205,E,2,9,1.0,14.115,M,40.582,M,1.6,0123*4C\r\n
$GPGGA,155252.40,5700.7933820,N,00959.0139608,E,2,9,1.0,14.114,M,40.582,M,1.6,0123*42\r\n
$GPGGA,155252.45,5700.7933804,N,00959.0140000,E,2,9,1.0,14.109,M,40.582,M,1.9,0123*42\r\n
$GPGGA,155252.50,5700.7933797,N,00959.0140422,E,2,9,1.0,14.106,M,40.582,M,1.9,0123*48\r\n
$GPGGA,155252.55,5700.7933788,N,00959.0140851,E,2,9,1.0,14.104,M,40.582,M,1.9,0123*49\r\n
$GPGGA,155252.60,5700.7933777,N,00959.0141253,E,2,9,1.0,14.105,M,40.582,M,1.9,0123*47\r\n
$GPGGA,155252.65,5700.7933783,N,00959.0141625,E,2,9,1.0,14.110,M,40.582,M,2.1,0123*43\r\n
$GPGGA,155252.70,5700.7933782,N,00959.0141991,E,2,9,1.0,14.110,M,40.582,M,2.1,0123*46\r\n
$GPGGA,155252.75,5700.7933779,N,00959.0142362,E,2,9,1.0,14.114,M,40.582,M,2.1,0123*46\r\n
$GPGGA,155252.80,5700.7933788,N,00959.0142733,E,2,9,1.0,14.120,M,40.582,M,2.1,0123*45\r\n
$GPGGA,155252.85,5700.7933792,N,00959.0143093,E,2,9,1.0,14.122,M,40.582,M,2.3,0123*47\r\n
$GPGGA,155252.90,5700.7933793,N,00959.0143490,E,2,9,1.0,14.122,M,40.582,M,2.3,0123*45\r\n
$GPGGA,155252.95,5700.7933790,N,00959.0143903,E,2,9,1.0,14.117,M,40.582,M,2.3,0123*42\r\n
$GPGGA,155253.00,5700.7933775,N,00959.0144307,E,2,9,1.0,14.113,M,40.582,M,2.3,0123*49\r\n
$GPGGA,155253.05,5700.7933762,N,00959.0144697,E,2,9,1.0,14.106,M,40.582,M,2.5,0123*44\r\n
$GPGGA,155253.10,5700.7933742,N,00959.0145101,E,2,9,1.0,14.106,M,40.582,M,2.5,0123*4B\r\n
$GPGGA,155253.15,5700.7933716,N,00959.0145471,E,2,9,1.0,14.107,M,40.582,M,2.5,0123*4C\r\n
$GPGGA,155253.20,5700.7933694,N,00959.0145835,E,2,9,1.0,14.110,M,40.582,M,2.5,0123*4B\r\n
$GPGGA,155253.25,5700.7933664,N,00959.0146186,E,2,9,1.0,14.106,M,40.582,M,2.7,0123*46\r\n
$GPGGA,155253.30,5700.7933631,N,00959.0146534,E,2,9,1.0,14.109,M,40.582,M,2.7,0123*40\r\n
$GPGGA,155253.35,5700.7933612,N,00959.0146879,E,2,9,1.0,14.113,M,40.582,M,2.7,0123*4B\r\n
$GPGGA,155253.40,5700.7933601,N,00959.0147253,E,2,9,1.0,14.121,M,40.582,M,2.7,0123*49\r\n
$GPGGA,155253.45,5700.7933604,N,00959.0147638,E,2,9,1.0,14.125,M,40.582,M,2.9,0123*4A\r\n
$GPGGA,155253.50,5700.7933590,N,00959.0148010,E,2,9,1.0,14.121,M,40.582,M,2.9,0123*47\r\n
$GPGGA,155253.55,5700.7933562,N,00959.0148400,E,2,9,1.0,14.119,M,40.582,M,2.9,0123*41\r\n
$GPGGA,155253.60,5700.7933548,N,00959.0148803,E,2,9,1.0,14.120,M,40.582,M,2.9,0123*4A\r\n
$GPGGA,155253.65,5700.7933555,N,00959.0149197,E,2,9,1.0,14.119,M,40.582,M,3.1,0123*45\r\n
$GPGGA,155253.70,5700.7933544,N,00959.0149577,E,2,9,1.0,14.119,M,40.582,M,3.1,0123*4B\r\n
$GPGGA,155253.75,5700.7933524,N,00959.0149929,E,2,9,1.0,14.121,M,40.582,M,3.1,0123*44\r\n
$GPGGA,155253.80,5700.7933521,N,00959.0150268,E,2,9,1.0,14.124,M,40.582,M,3.1,0123*48\r\n
$GPGGA,155253.85,5700.7933511,N,00959.0150613,E,2,9,1.0,14.125,M,40.582,M,2.4,0123*43\r\n
$GPGGA,155253.90,5700.7933493,N,00959.0150981,E,2,9,1.0,14.127,M,40.582,M,2.4,0123*4A\r\n
$GPGGA,155253.95,5700.7933473,N,00959.0151343,E,2,9,1.0,14.129,M,40.582,M,2.4,0123*4A\r\n
$GPGGA,155254.00,5700.7933465,N,00959.0151718,E,2,9,1.0,14.128,M,40.582,M,2.4,0123*4D\r\n
$GPGGA,155254.05,5700.7933461,N,00959.0152096,E,2,9,1.0,14.117,M,40.582,M,2.7,0123*41\r\n
$GPGGA,155254.10,5700.7933455,N,00959.0152503,E,2,9,1.0,14.116,M,40.582,M,2.7,0123*4A\r\n
$GPGGA,155254.15,5700.7933431,N,00959.0152902,E,2,9,1.0,14.114,M,40.582,M,2.7,0123*42\r\n
$GPGGA,155254.20,5700.7933406,N,00959.0153284,E,2,9,1.0,14.112,M,40.582,M,2.7,0123*42\r\n
$GPGGA,155254.25,5700.7933398,N,00959.0153655,E,2,9,1.0,14.119,M,40.582,M,3.0,0123*42\r\n
$GPGGA,155254.30,5700.7933390,N,00959.0154024,E,2,9,1.0,14.124,M,40.582,M,3.0,0123*47\r\n
$GPGGA,155254.35,5700.7933378,N,00959.0154392,E,2,9,1.0,14.124,M,40.582,M,3.0,0123*4A\r\n
$GPGGA,155254.40,5700.7933351,N,00959.0154748,E,2,9,1.0,14.125,M,40.582,M,3.0,0123*41\r\n
$GPGGA,155254.45,5700.7933343,N,00959.0155124,E,2,9,1.0,14.129,M,40.582,M,3.2,0123*44\r\n
$GPGGA,155254.50,5700.7933355,N,00959.0155516,E,2,9,1.0,14.134,M,40.582,M,3.2,0123*4E\r\n
$GPGGA,155254.55,5700.7933354,N,00959.0155891,E,2,9,1.0,14.136,M,40.582,M,3.2,0123*4A\r\n
$GPGGA,155254.60,5700.7933338,N,00959.0156277,E,2,9,1.0,14.132,M,40.582,M,3.2,0123*43\r\n
$GPGGA,155254.65,5700.7933328,N,00959.0156682,E,2,9,1.0,14.131,M,40.582,M,3.5,0123*4D\r\n
$GPGGA,155254.70,5700.7933318,N,00959.0157083,E,2,9,1.0,14.129,M,40.582,M,3.5,0123*45\r\n
$GPGGA,155254.75,5700.7933300,N,00959.0157482,E,2,9,1.0,14.128,M,40.582,M,3.5,0123*4D\r\n
$GPGGA,155254.80,5700.7933280,N,00959.0157863,E,2,9,1.0,14.130,M,40.582,M,3.5,0123*44\r\n
$GPGGA,155254.85,5700.7933271,N,00959.0158231,E,2,9,1.0,14.126,M,40.582,M,1.4,0123*49\r\n
$GPGGA,155254.90,5700.7933270,N,00959.0158594,E,2,9,1.0,14.129,M,40.582,M,1.4,0123*4B\r\n
$GPGGA,155254.95,5700.7933294,N,00959.0158976,E,2,9,1.0,14.127,M,40.582,M,1.4,0123*4A\r\n
$GPGGA,155255.00,5700.7933293,N,00959.0159364,E,2,9,1.0,14.130,M,40.582,M,1.4,0123*4E\r\n
$GPGGA,155255.05,5700.7933295,N,00959.0159719,E,2,9,1.0,14.128,M,40.582,M,1.6,0123*48\r\n
$GPGGA,155255.10,5700.7933300,N,00959.0160095,E,2,9,1.0,14.129,M,40.582,M,1.6,0123*49\r\n
$GPGGA,155255.15,5700.7933299,N,00959.0160501,E,2,9,1.0,14.127,M,40.582,M,1.6,0123*4B\r\n
$GPGGA,155255.20,5700.7933271,N,00959.0160918,E,2,9,1.0,14.123,M,40.582,M,1.6,0123*4B\r\n
$GPGGA,155255.25,5700.7933258,N,00959.0161330,E,2,9,1.0,14.124,M,40.582,M,1.9,0123*4C\r\n
$GPGGA,155255.30,5700.7933253,N,00959.0161745,E,2,9,1.0,14.123,M,40.582,M,1.9,0123*42\r\n
$GPGGA,155255.35,5700.7933245,N,00959.0162148,E,2,9,1.0,14.121,M,40.582,M,1.9,0123*4A\r\n
$GPGGA,155255.40,5700.7933251,N,00959.0162532,E,2,9,1.0,14.123,M,40.582,M,1.9,0123*46\r\n
$GPGGA,155255.45,5700.7933255,N,00959.0162904,E,2,9,1.0,14.124,M,40.582,M,2.2,0123*41\r\n
$GPGGA,155255.50,5700.7933242,N,00959.0163285,E,2,9,1.0,14.127,M,40.582,M,2.2,0123*43\r\n
$GPGGA,155255.55,5700.7933233,N,00959.0163660,E,2,9,1.0,14.128,M,40.582,M,2.2,0123*40\r\n
$GPGGA,155255.60,5700.7933242,N,00959.0164035,E,2,9,1.0,14.128,M,40.582,M,2.2,0123*41\r\n
$GPGGA,155255.65,5700.7933246,N,00959.0164453,E,2,9,1.0,14.137,M,40.582,M,2.4,0123*4C\r\n
$GPGGA,155255.70,5700.7933234,N,00959.0164885,E,2,9,1.0,14.134,M,40.582,M,2.4,0123*49\r\n
$GPGGA,155255.75,5700.7933220,N,00959.0165292,E,2,9,1.0,14.128,M,40.582,M,2.4,0123*49\r\n
$GPGGA,155255.80,5700.7933217,N,00959.0165707,E,2,9,1.0,14.126,M,40.582,M,2.4,0123*40\r\n
$GPGGA,155255.85,5700.7933239,N,00959.0166133,E,2,9,1.0,14.128,M,40.582,M,1.2,0123*40\r\n
$GPGGA,155255.90,5700.7933246,N,00959.0166550,E,2,9,1.0,14.130,M,40.582,M,1.2,0123*44\r\n
$GPGGA,155255.95,5700.7933228,N,00959.0166932,E,2,9,1.0,14.134,M,40.582,M,1.2,0123*45\r\n
$GPGGA,155256.00,5700.7933224,N,00959.0167302,E,2,9,1.0,14.135,M,40.582,M,1.2,0123*4F\r\n
$GPGGA,155256.05,5700.7933237,N,00959.0167636,E,2,9,1.0,14.126,M,40.582,M,1.4,0123*4E\r\n
$GPGGA,155256.10,5700.7933254,N,00959.0167988,E,2,9,1.0,14.135,M,40.582,M,1.4,0123*47\r\n
$GPGGA,155256.15,5700.7933270,N,00959.0168371,E,2,9,1.0,14.141,M,40.582,M,1.4,0123*44\r\n
$GPGGA,155256.20,5700.7933265,N,00959.0168767,E,2,9,1.0,14.138,M,40.582,M,1.4,0123*4B\r\n
$GPGGA,155256.25,5700.7933263,N,00959.0169179,E,2,9,1.0,14.137,M,40.582,M,1.6,0123*4D\r\n
$GPGGA,155256.30,5700.7933283,N,00959.0169607,E,2,9,1.0,14.135,M,40.582,M,1.6,0123*4B\r\n
$GPGGA,155256.35,5700.7933277,N,00959.0170018,E,2,9,1.0,14.132,M,40.582,M,1.6,0123*42\r\n
$GPGGA,155256.40,5700.7933261,N,00959.0170408,E,2,9,1.0,14.131,M,40.582,M,1.6,0123*41\r\n
$GPGGA,155256.45,5700.7933251,N,00959.0170804,E,2,9,1.0,14.135,M,40.582,M,1.9,0123*4C\r\n
$GPGGA,155256.50,5700.7933253,N,00959.0171185,E,2,9,1.0,14.141,M,40.582,M,1.9,0123*48\r\n
$GPGGA,155256.55,5700.7933243,N,00959.0171541,E,2,9,1.0,14.145,M,40.582,M,1.9,0123*44\r\n
$GPGGA,155256.60,5700.7933233,N,00959.0171911,E,2,9,1.0,14.147,M,40.582,M,1.9,0123*4E\r\n
$GPGGA,155256.65,5700.7933232,N,00959.0172280,E,2,9,1.0,14.145,M,40.582,M,2.1,0123*43\r\n
$GPGGA,155256.70,5700.7933240,N,00959.0172660,E,2,9,1.0,14.148,M,40.582,M,2.1,0123*45\r\n
$GPGGA,155256.75,5700.7933240,N,00959.0173062,E,2,9,1.0,14.151,M,40.582,M,2.1,0123*4D\r\n
$GPGGA,155256.80,5700.7933242,N,00959.0173467,E,2,9,1.0,14.148,M,40.582,M,2.1,0123*4C\r\n
$GPGGA,155256.85,5700.7933231,N,00959.0173891,E,2,9,1.0,14.147,M,40.582,M,2.3,0123*45\r\n
$GPGGA,155256.90,5700.7933220,N,00959.0174316,E,2,9,1.0,14.147,M,40.582,M,2.3,0123*42\r\n
$GPGGA,155256.95,5700.7933221,N,00959.0174708,E,2,9,1.0,14.148,M,40.582,M,2.3,0123*42\r\n
$GPGGA,155257.00,5700.7933223,N,00959.0175105,E,2,9,1.0,14.154,M,40.582,M,2.3,0123*4A\r\n
$GPGGA,155257.05,5700.7933244,N,00959.0175486,E,2,9,1.0,14.150,M,40.582,M,2.5,0123*42\r\n
$GPGGA,155257.10,5700.7933266,N,00959.0175864,E,2,9,1.0,14.150,M,40.582,M,2.5,0123*46\r\n
$GPGGA,155257.15,5700.7933279,N,00959.0176246,E,2,9,1.0,14.154,M,40.582,M,2.5,0123*40\r\n
$GPGGA,155257.20,5700.7933303,N,00959.0176645,E,2,9,1.0,14.161,M,40.582,M,2.5,0123*4B\r\n
$GPGGA,155257.25,5700.7933320,N,00959.0177062,E,2,9,1.0,14.157,M,40.582,M,2.7,0123*4A\r\n
$GPGGA,155257.30,5700.7933317,N,00959.0177494,E,2,9,1.0,14.154,M,40.582,M,2.7,0123*44\r\n
$GPGGA,155257.35,5700.7933301,N,00959.0177909,E,2,9,1.0,14.149,M,40.582,M,2.7,0123*43\r\n
$GPGGA,155257.40,5700.7933305,N,00959.0178324,E,2,9,1.0,14.148,M,40.582,M,2.7,0123*4E\r\n
$GPGGA,155257.45,5700.7933306,N,00959.0178736,E,2,9,1.0,14.142,M,40.582,M,2.9,0123*4B\r\n
$GPGGA,155257.50,5700.7933314,N,00959.0179167,E,2,9,1.0,14.140,M,40.582,M,2.9,0123*4D\r\n
$GPGGA,155257.55,5700.7933327,N,00959.0179590,E,2,9,1.0,14.140,M,40.582,M,2.9,0123*44\r\n
$GPGGA,155257.60,5700.7933333,N,00959.0180004,E,2,9,1.0,14.143,M,40.582,M,2.9,0123*4A\r\n
$GPGGA,155257.65,5700.7933347,N,00959.0180431,E,2,9,1.0,14.150,M,40.582,M,3.1,0123*45\r\n
$GPGGA,155257.70,5700.7933361,N,00959.0180850,E,2,9,1.0,14.151,M,40.582,M,3.1,0123*4F\r\n
$GPGGA,155257.75,5700.7933372,N,00959.0181285,E,2,9,1.0,14.153,M,40.582,M,3.1,0123*49\r\n
$GPGGA,155257.80,5700.7933394,N,00959.0181742,E,2,9,1.0,14.151,M,40.582,M,3.1,0123*47\r\n
$GPGGA,155257.85,5700.7933419,N,00959.0182184,E,2,9,1.0,14.142,M,40.582,M,2.4,0123*49\r\n
$GPGGA,155257.90,5700.7933426,N,00959.0182650,E,2,9,1.0,14.140,M,40.582,M,2.4,0123*4D\r\n
$GPGGA,155257.95,5700.7933419,N,00959.0183095,E,2,9,1.0,14.137,M,40.582,M,2.4,0123*4A\r\n
$GPGGA,155258.00,5700.7933404,N,00959.0183517,E,2,9,1.0,14.135,M,40.582,M,2.4,0123*48\r\n
$GPGGA,155258.05,5700.7933430,N,00959.0183934,E,2,9,1.0,14.131,M,40.582,M,2.7,0123*40\r\n
$GPGGA,155258.10,5700.7933464,N,00959.0184355,E,2,9,1.0,14.130,M,40.582,M,2.7,0123*4E\r\n
$GPGGA,155258.15,5700.7933465,N,00959.0184787,E,2,9,1.0,14.131,M,40.582,M,2.7,0123*40\r\n
$GPGGA,155258.20,5700.7933470,N,00959.0185217,E,2,9,1.0,14.135,M,40.582,M,2.7,0123*4B\r\n
$GPGGA,155258.25,5700.7933485,N,00959.0185649,E,2,9,1.0,14.140,M,40.582,M,3.0,0123*4F\r\n
$GPGGA,155258.30,5700.7933485,N,00959.0186098,E,2,9,1.0,14.136,M,40.582,M,3.0,0123*43\r\n
$GPGGA,155258.35,5700.7933473,N,00959.0186540,E,2,9,1.0,14.132,M,40.582,M,3.0,0123*4B\r\n
$GPGGA,155258.40,5700.7933462,N,00959.0186981,E,2,9,1.0,14.132,M,40.582,M,3.0,0123*48\r\n
$GPGGA,155258.45,5700.7933456,N,00959.0187452,E,2,9,1.0,14.139,M,40.582,M,3.2,0123*41\r\n
$GPGGA,155258.50,5700.7933458,N,00959.0187920,E,2,9,1.0,14.137,M,40.582,M,3.2,0123*4D\r\n
$GPGGA,155258.55,5700.7933448,N,00959.0188349,E,2,9,1.0,14.137,M,40.582,M,3.2,0123*43\r\n
$GPGGA,155258.60,5700.7933440,N,00959.0188754,E,2,9,1.0,14.141,M,40.582,M,3.2,0123*44\r\n
$GPGGA,155258.65,5700.7933430,N,00959.0189168,E,2,9,1.0,14.143,M,40.582,M,3.5,0123*4B\r\n
$GPGGA,155258.70,5700.7933430,N,00959.0189579,E,2,9,1.0,14.143,M,40.582,M,3.5,0123*4B\r\n
$GPGGA,155258.75,5700.7933423,N,00959.0190009,E,2,9,1.0,14.140,M,40.582,M,3.5,0123*45\r\n
$GPGGA,155258.80,5700.7933412,N,00959.0190472,E,2,9,1.0,14.143,M,40.582,M,3.5,0123*46\r\n
$GPGGA,155258.85,5700.7933401,N,00959.0190936,E,2,9,1.0,14.145,M,40.582,M,1.4,0123*49\r\n
$GPGGA,155258.90,5700.7933398,N,00959.0191396,E,2,9,1.0,14.141,M,40.582,M,1.4,0123*4F\r\n
$GPGGA,155258.95,5700.7933391,N,00959.0191863,E,2,9,1.0,14.139,M,40.582,M,1.4,0123*4D\r\n
$GPGGA,155259.00,5700.7933373,N,00959.0192321,E,2,9,1.0,14.134,M,40.582,M,1.4,0123*4F\r\n
$GPGGA,155259.05,5700.7933360,N,00959.0192756,E,2,9,1.0,14.129,M,40.582,M,1.6,0123*42\r\n
$GPGGA,155259.10,5700.7933347,N,00959.0193164,E,2,9,1.0,14.135,M,40.582,M,1.6,0123*48\r\n
$GPGGA,155259.15,5700.7933339,N,00959.0193550,E,2,9,1.0,14.144,M,40.582,M,1.6,0123*41\r\n
$GPGGA,155259.20,5700.7933331,N,00959.0193963,E,2,9,1.0,14.153,M,40.582,M,1.6,0123*45\r\n
$GPGGA,155259.25,5700.7933328,N,00959.0194362,E,2,9,1.0,14.155,M,40.582,M,1.9,0123*4D\r\n
$GPGGA,155259.30,5700.7933310,N,00959.0194753,E,2,9,1.0,14.153,M,40.582,M,1.9,0123*42\r\n
$GPGGA,155259.35,5700.7933272,N,00959.0195184,E,2,9,1.0,14.151,M,40.582,M,1.9,0123*4D\r\n
$GPGGA,155259.40,5700.7933235,N,00959.0195626,E,2,9,1.0,14.151,M,40.582,M,1.9,0123*43\r\n
$GPGGA,155259.45,5700.7933217,N,00959.0196049,E,2,9,1.0,14.147,M,40.582,M,2.2,0123*45\r\n
$GPGGA,155259.50,5700.7933203,N,00959.0196493,E,2,9,1.0,14.143,M,40.582,M,2.2,0123*43\r\n
$GPGGA,155259.55,5700.7933173,N,00959.0196936,E,2,9,1.0,14.148,M,40.582,M,2.2,0123*4B\r\n
$GPGGA,155259.60,5700.7933140,N,00959.0197339,E,2,9,1.0,14.151,M,40.582,M,2.2,0123*41\r\n
$GPGGA,155259.65,5700.7933125,N,00959.0197745,E,2,9,1.0,14.152,M,40.582,M,2.4,0123*4D\r\n
$GPGGA,155259.70,5700.7933106,N,00959.0198138,E,2,9,1.0,14.155,M,40.582,M,2.4,0123*4C\r\n
$GPGGA,155259.75,5700.7933075,N,00959.0198544,E,2,9,1.0,14.159,M,40.582,M,2.4,0123*4F\r\n
$GPGGA,155259.80,5700.7933032,N,00959.0198939,E,2,9,1.0,14.163,M,40.582,M,2.4,0123*49\r\n
$GPGGA,155259.85,5700.7932991,N,00959.0199323,E,2,9,1.0,14.157,M,40.582,M,1.2,0123*4F\r\n
$GPGGA,155259.90,5700.7932955,N,00959.0199756,E,2,9,1.0,14.152,M,40.582,M,1.2,0123*40\r\n
$GPGGA,155259.95,5700.7932936,N,00959.0200188,E,2,9,1.0,14.150,M,40.582,M,1.2,0123*44\r\n
$GPGGA,155300.00,5700.7932913,N,00959.0200614,E,2,9,1.0,14.148,M,40.582,M,1.2,0123*49\r\n
$GPGGA,155300.05,5700.7932890,N,00959.0201014,E,2,9,1.0,14.139,M,40.582,M,1.4,0123*41\r\n
$GPGGA,155300.10,5700.7932868,N,00959.0201404,E,2,9,1.0,14.139,M,40.582,M,1.4,0123*47\r\n
$GPGGA,155300.15,5700.7932851,N,00959.0201790,E,2,9,1.0,14.140,M,40.582,M,1.4,0123*48\r\n
$GPGGA,155300.20,5700.7932853,N,00959.0202174,E,2,9,1.0,14.143,M,40.582,M,1.4,0123*40\r\n
$GPGGA,155300.25,5700.7932857,N,00959.0202558,E,2,9,1.0,14.156,M,40.582,M,1.6,0123*4D\r\n
$GPGGA,155300.30,5700.7932848,N,00959.0202953,E,2,9,1.0,14.160,M,40.582,M,1.6,0123*45\r\n
$GPGGA,155300.35,5700.7932839,N,00959.0203336,E,2,9,1.0,14.166,M,40.582,M,1.6,0123*48\r\n
$GPGGA,155300.40,5700.7932831,N,00959.0203730,E,2,9,1.0,14.168,M,40.582,M,1.6,0123*4E\r\n
$GPGGA,155300.45,5700.7932809,N,00959.0204154,E,2,9,1.0,14.160,M,40.582,M,1.9,0123*44\r\n
$GPGGA,155300.50,5700.7932798,N,00959.0204593,E,2,9,1.0,14.157,M,40.582,M,1.9,0123*4C\r\n
$GPGGA,155300.55,5700.7932787,N,00959.0205007,E,2,9,1.0,14.155,M,40.582,M,1.9,0123*4C\r\n
$GPGGA,155300.60,5700.7932784,N,00959.0205438,E,2,9,1.0,14.152,M,40.582,M,1.9,0123*46\r\n
$GPGGA,155300.65,5700.7932770,N,00959.0205842,E,2,9,1.0,14.147,M,40.582,M,2.1,0123*46\r\n
$GPGGA,155300.70,5700.7932758,N,00959.0206264,E,2,9,1.0,14.146,M,40.582,M,2.1,0123*44\r\n
$GPGGA,155300.75,5700.7932752,N,00959.0206670,E,2,9,1.0,14.147,M,40.582,M,2.1,0123*4B\r\n
$GPGGA,155300.80,5700.7932755,N,00959.0207035,E,2,9,1.0,14.154,M,40.582,M,2.1,0123*42\r\n
$GPGGA,155300.85,5700.7932771,N,00959.0207405,E,2,9,1.0,14.159,M,40.582,M,2.3,0123*49\r\n
$GPGGA,155300.90,5700.7932783,N,00959.0207806,E,2,9,1.0,14.162,M,40.582,M,2.3,0123*47\r\n
$GPGGA,155300.95,5700.7932783,N,00959.0208225,E,2,9,1.0,14.165,M,40.582,M,2.3,0123*41\r\n
$GPGGA,155301.00,5700.7932789,N,00959.0208668,E,2,9,1.0,14.165,M,40.582,M,2.3,0123*4B\r\n
$GPGGA,155301.05,5700.7932813,N,00959.0209096,E,2,9,1.0,14.158,M,40.582,M,2.5,0123*4C\r\n
$GPGGA,155301.10,5700.7932816,N,00959.0209519,E,2,9,1.0,14.150,M,40.582,M,2.5,0123*47\r\n
$GPGGA,155301.15,5700.7932808,N,00959.0209936,E,2,9,1.0,14.146,M,40.582,M,2.5,0123*4B\r\n
$GPGGA,155301.20,5700.7932819,N,00959.0210376,E,2,9,1.0,14.147,M,40.582,M,2.5,0123*4A\r\n
$GPGGA,155301.25,5700.7932846,N,00959.0210753,E,2,9,1.0,14.137,M,40.582,M,2.7,0123*43\r\n
$GPGGA,155301.30,5700.7932858,N,00959.0211143,E,2,9,1.0,14.140,M,40.582,M,2.7,0123*4E\r\n
$GPGGA,155301.35,5700.7932863,N,00959.0211535,E,2,9,1.0,14.144,M,40.582,M,2.7,0123*42\r\n
$GPGGA,155301.40,5700.7932881,N,00959.0211903,E,2,9,1.0,14.148,M,40.582,M,2.7,0123*49\r\n
$GPGGA,155301.45,5700.7932917,N,00959.0212292,E,2,9,1.0,14.158,M,40.582,M,2.9,0123*4D\r\n
$GPGGA,155301.50,5700.7932934,N,00959.0212697,E,2,9,1.0,14.158,M,40.582,M,2.9,0123*49\r\n
$GPGGA,155301.55,5700.7932941,N,00959.0213129,E,2,9,1.0,14.157,M,40.582,M,2.9,0123*42\r\n
$GPGGA,155301.60,5700.7932942,N,00959.0213545,E,2,9,1.0,14.154,M,40.582,M,2.9,0123*4A\r\n
$GPGGA,155301.65,5700.7932965,N,00959.0213936,E,2,9,1.0,14.154,M,40.582,M,2.1,0123*4A\r\n
$GPGGA,155301.70,5700.7932994,N,00959.0214353,E,2,9,1.0,14.155,M,40.582,M,2.1,0123*4F\r\n
$GPGGA,155301.75,5700.7933012,N,00959.0214754,E,2,9,1.0,14.159,M,40.582,M,2.1,0123*43\r\n
$GPGGA,155301.80,5700.7933018,N,00959.0215129,E,2,9,1.0,14.165,M,40.582,M,2.1,0123*41\r\n
$GPGGA,155301.85,5700.7933024,N,00959.0215532,E,2,9,1.0,14.171,M,40.582,M,2.4,0123*45\r\n
$GPGGA,155301.90,5700.7933036,N,00959.0215926,E,2,9,1.0,14.177,M,40.582,M,2.4,0123*4D\r\n
$GPGGA,155301.95,5700.7933051,N,00959.0216297,E,2,9,1.0,14.177,M,40.582,M,2.4,0123*4B\r\n
$GPGGA,155302.00,5700.7933055,N,00959.0216694,E,2,9,1.0,14.177,M,40.582,M,2.4,0123*47\r\n
$GPGGA,155302.05,5700.7933058,N,00959.0217096,E,2,9,1.0,14.166,M,40.582,M,2.7,0123*49\r\n
$GPGGA,155302.10,5700.7933061,N,00959.0217514,E,2,9,1.0,14.163,M,40.582,M,2.7,0123*4D\r\n
$GPGGA,155302.15,5700.7933059,N,00959.0217962,E,2,9,1.0,14.158,M,40.582,M,2.7,0123*46\r\n
$GPGGA,155302.20,5700.7933063,N,00959.0218396,E,2,9,1.0,14.153,M,40.582,M,2.7,0123*4C\r\n
$GPGGA,155302.25,5700.7933090,N,00959.0218842,E,2,9,1.0,14.150,M,40.582,M,3.0,0123*42\r\n
$GPGGA,155302.30,5700.7933123,N,00959.0219265,E,2,9,1.0,14.150,M,40.582,M,3.0,0123*41\r\n
$GPGGA,155302.35,5700.7933135,N,00959.0219648,E,2,9,1.0,14.158,M,40.582,M,3.0,0123*40\r\n
$GPGGA,155302.40,5700.7933145,N,00959.0220055,E,2,9,1.0,14.163,M,40.582,M,3.0,0123*4D\r\n
$GPGGA,155302.45,5700.7933154,N,00959.0220462,E,2,9,1.0,14.164,M,40.582,M,3.2,0123*4D\r\n
$GPGGA,155302.50,5700.7933155,N,00959.0220843,E,2,9,1.0,14.164,M,40.582,M,3.2,0123*47\r\n
$GPGGA,155302.55,5700.7933162,N,00959.0221261,E,2,9,1.0,14.163,M,40.582,M,3.2,0123*4A\r\n
$GPGGA,155302.60,5700.7933173,N,00959.0221686,E,2,9,1.0,14.165,M,40.582,M,3.2,0123*47\r\n
$GPGGA,155302.65,5700.7933186,N,00959.0222110,E,2,9,1.0,14.165,M,40.582,M,1.1,0123*42\r\n
$GPGGA,155302.70,5700.7933187,N,00959.0222562,E,2,9,1.0,14.161,M,40.582,M,1.1,0123*42\r\n
$GPGGA,155302.75,5700.7933183,N,00959.0222978,E,2,9,1.0,14.154,M,40.582,M,1.1,0123*42\r\n
$GPGGA,155302.80,5700.7933173,N,00959.0223401,E,2,9,1.0,14.149,M,40.582,M,1.1,0123*49\r\n
$GPGGA,155302.85,5700.7933166,N,00959.0223827,E,2,9,1.0,14.147,M,40.582,M,1.4,0123*4B\r\n
$GPGGA,155302.90,5700.7933173,N,00959.0224209,E,2,9,1.0,14.150,M,40.582,M,1.4,0123*4C\r\n
$GPGGA,155302.95,5700.7933190,N,00959.0224595,E,2,9,1.0,14.155,M,40.582,M,1.4,0123*43\r\n
$GPGGA,155303.00,5700.7933210,N,00959.0225004,E,2,9,1.0,14.161,M,40.582,M,1.4,0123*4E\r\n
$GPGGA,155303.05,5700.7933222,N,00959.0225387,E,2,9,1.0,14.157,M,40.582,M,1.6,0123*45\r\n
$GPGGA,155303.10,5700.7933215,N,00959.0225784,E,2,9,1.0,14.157,M,40.582,M,1.6,0123*42\r\n
$GPGGA,155303.15,5700.7933224,N,00959.0226213,E,2,9,1.0,14.161,M,40.582,M,1.6,0123*48\r\n
$GPGGA,155303.20,5700.7933235,N,00959.0226642,E,2,9,1.0,14.160,M,40.582,M,1.6,0123*4F\r\n
$GPGGA,155303.25,5700.7933252,N,00959.0227087,E,2,9,1.0,14.164,M,40.582,M,1.9,0123*4E\r\n
$GPGGA,155303.30,5700.7933259,N,00959.0227524,E,2,9,1.0,14.162,M,40.582,M,1.9,0123*4B\r\n
$GPGGA,155303.35,5700.7933264,N,00959.0227976,E,2,9,1.0,14.159,M,40.582,M,1.9,0123*43\r\n
$GPGGA,155303.40,5700.7933273,N,00959.0228404,E,2,9,1.0,14.157,M,40.582,M,1.9,0123*4E\r\n
$GPGGA,155303.45,5700.7933280,N,00959.0228793,E,2,9,1.0,14.151,M,40.582,M,2.2,0123*44\r\n
$GPGGA,155303.50,5700.7933304,N,00959.0229181,E,2,9,1.0,14.153,M,40.582,M,2.2,0123*4B\r\n
$GPGGA,155303.55,5700.7933321,N,00959.0229581,E,2,9,1.0,14.158,M,40.582,M,2.2,0123*46\r\n
$GPGGA,155303.60,5700.7933335,N,00959.0229985,E,2,9,1.0,14.162,M,40.582,M,2.2,0123*44\r\n
$GPGGA,155303.65,5700.7933350,N,00959.0230383,E,2,9,1.0,14.176,M,40.582,M,0.9,0123*4A\r\n
$GPGGA,155303.70,5700.7933365,N,00959.0230806,E,2,9,1.0,14.175,M,40.582,M,0.9,0123*4D\r\n
$GPGGA,155303.75,5700.7933373,N,00959.0231249,E,2,9,1.0,14.172,M,40.582,M,0.9,0123*48\r\n
$GPGGA,155303.80,5700.7933369,N,00959.0231671,E,2,9,1.0,14.167,M,40.582,M,0.9,0123*42\r\n
$GPGGA,155303.85,5700.7933363,N,00959.0232095,E,2,9,1.0,14.150,M,40.582,M,1.2,0123*4C\r\n
$GPGGA,155303.90,5700.7933364,N,00959.0232515,E,2,9,1.0,14.149,M,40.582,M,1.2,0123*4A\r\n
$GPGGA,155303.95,5700.7933368,N,00959.0232908,E,2,9,1.0,14.145,M,40.582,M,1.2,0123*4F\r\n
$GPGGA,155304.00,5700.7933380,N,00959.0233330,E,2,9,1.0,14.149,M,40.582,M,1.2,0123*4E\r\n
$GPGGA,155304.05,5700.7933389,N,00959.0233731,E,2,9,1.0,14.158,M,40.582,M,1.4,0123*41\r\n
$GPGGA,155304.10,5700.7933391,N,00959.0234105,E,2,9,1.0,14.159,M,40.582,M,1.4,0123*4B\r\n
$GPGGA,155304.15,5700.7933388,N,00959.0234494,E,2,9,1.0,14.163,M,40.582,M,1.4,0123*42\r\n
$GPGGA,155304.20,5700.7933389,N,00959.0234888,E,2,9,1.0,14.169,M,40.582,M,1.4,0123*4E\r\n
$GPGGA,155304.25,5700.7933403,N,00959.0235275,E,2,9,1.0,14.164,M,40.582,M,1.6,0123*48\r\n
$GPGGA,155304.30,5700.7933421,N,00959.0235702,E,2,9,1.0,14.161,M,40.582,M,1.6,0123*4C\r\n
$GPGGA,155304.35,5700.7933428,N,00959.0236106,E,2,9,1.0,14.157,M,40.582,M,1.6,0123*44\r\n
$GPGGA,155304.40,5700.7933432,N,00959.0236505,E,2,9,1.0,14.154,M,40.582,M,1.6,0123*49\r\n
$GPGGA,155304.45,5700.7933443,N,00959.0236910,E,2,9,1.0,14.155,M,40.582,M,1.9,0123*4C\r\n
$GPGGA,155304.50,5700.7933450,N,00959.0237311,E,2,9,1.0,14.155,M,40.582,M,1.9,0123*40\r\n
$GPGGA,155304.55,5700.7933470,N,00959.0237663,E,2,9,1.0,14.155,M,40.582,M,1.9,0123*47\r\n
$GPGGA,155304.60,5700.7933512,N,00959.0238018,E,2,9,1.0,14.158,M,40.582,M,1.9,0123*4C\r\n
$GPGGA,155304.65,5700.7933538,N,00959.0238397,E,2,9,1.0,14.165,M,40.582,M,2.1,0123*40\r\n
$GPGGA,155304.70,5700.7933556,N,00959.0238812,E,2,9,1.0,14.167,M,40.582,M,2.1,0123*48\r\n
$GPGGA,155304.75,5700.7933586,N,00959.0239191,E,2,9,1.0,14.168,M,40.582,M,2.1,0123*4C\r\n
$GPGGA,155304.80,5700.7933619,N,00959.0239560,E,2,9,1.0,14.169,M,40.582,M,2.1,0123*48\r\n
$GPGGA,155304.85,5700.7933655,N,00959.0239976,E,2,9,1.0,14.174,M,40.582,M,2.3,0123*40\r\n
$GPGGA,155304.90,5700.7933674,N,00959.0240392,E,2,9,1.0,14.175,M,40.582,M,2.3,0123*48\r\n
$GPGGA,155304.95,5700.7933686,N,00959.0240794,E,2,9,1.0,14.175,M,40.582,M,2.3,0123*42\r\n
$GPGGA,155305.00,5700.7933725,N,00959.0241205,E,2,9,1.0,14.173,M,40.582,M,2.3,0123*4D\r\n
$GPGGA,155305.05,5700.7933767,N,00959.0241604,E,2,9,1.0,14.160,M,40.582,M,2.5,0123*4F\r\n
$GPGGA,155305.10,5700.7933782,N,00959.0242015,E,2,9,1.0,14.159,M,40.582,M,2.5,0123*4F\r\n
$GPGGA,155305.15,5700.7933775,N,00959.0242409,E,2,9,1.0,14.160,M,40.582,M,2.5,0123*41\r\n
$GPGGA,155305.20,5700.7933776,N,00959.0242781,E,2,9,1.0,14.159,M,40.582,M,2.5,0123*4D\r\n
$GPGGA,155305.25,5700.7933782,N,00959.0243169,E,2,9,1.0,14.162,M,40.582,M,2.7,0123*48\r\n
$GPGGA,155305.30,5700.7933801,N,00959.0243576,E,2,9,1.0,14.166,M,40.582,M,2.7,0123*46\r\n
$GPGGA,155305.35,5700.7933797,N,00959.0243966,E,2,9,1.0,14.167,M,40.582,M,2.7,0123*4F\r\n
$GPGGA,155305.40,5700.7933799,N,00959.0244358,E,2,9,1.0,14.165,M,40.582,M,2.7,0123*41\r\n
$GPGGA,155305.45,5700.7933812,N,00959.0244786,E,2,9,1.0,14.159,M,40.582,M,2.9,0123*4E\r\n
$GPGGA,155305.50,5700.7933823,N,00959.0245213,E,2,9,1.0,14.157,M,40.582,M,2.9,0123*4E\r\n
$GPGGA,155305.55,5700.7933837,N,00959.0245626,E,2,9,1.0,14.152,M,40.582,M,2.9,0123*49\r\n
$GPGGA,155305.60,5700.7933860,N,00959.0246050,E,2,9,1.0,14.145,M,40.582,M,2.9,0123*4F\r\n
$GPGGA,155305.65,5700.7933876,N,00959.0246489,E,2,9,1.0,14.151,M,40.582,M,2.1,0123*40\r\n
$GPGGA,155305.70,5700.7933892,N,00959.0246907,E,2,9,1.0,14.151,M,40.582,M,2.1,0123*45\r\n
$GPGGA,155305.75,5700.7933912,N,00959.0247300,E,2,9,1.0,14.153,M,40.582,M,2.1,0123*47\r\n
$GPGGA,155305.80,5700.7933942,N,00959.0247693,E,2,9,1.0,14.158,M,40.582,M,2.1,0123*4C\r\n
$GPGGA,155305.85,5700.7933969,N,00959.0248096,E,2,9,1.0,14.161,M,40.582,M,2.4,0123*43\r\n
$GPGGA,155305.90,5700.7933978,N,00959.0248490,E,2,9,1.0,14.162,M,40.582,M,2.4,0123*46\r\n
$GPGGA,155305.95,5700.7933990,N,00959.0248883,E,2,9,1.0,14.164,M,40.582,M,2.4,0123*4D\r\n
$GPGGA,155306.00,5700.7933999,N,00959.0249319,E,2,9,1.0,14.163,M,40.582,M,2.4,0123*45\r\n
$GPGGA,155306.05,5700.7934011,N,00959.0249739,E,2,9,1.0,14.155,M,40.582,M,2.7,0123*4E\r\n
$GPGGA,155306.10,5700.7934006,N,00959.0250191,E,2,9,1.0,14.153,M,40.582,M,2.7,0123*46\r\n
$GPGGA,155306.15,5700.7934006,N,00959.0250624,E,2,9,1.0,14.153,M,40.582,M,2.7,0123*4A\r\n
$GPGGA,155306.20,5700.7934000,N,00959.0251020,E,2,9,1.0,14.155,M,40.582,M,2.7,0123*4F\r\n
$GPGGA,155306.25,5700.7933993,N,00959.0251420,E,2,9,1.0,14.150,M,40.582,M,3.0,0123*49\r\n
$GPGGA,155306.30,5700.7933969,N,00959.0251835,E,2,9,1.0,14.152,M,40.582,M,3.0,0123*42\r\n
$GPGGA,155306.35,5700.7933957,N,00959.0252217,E,2,9,1.0,14.156,M,40.582,M,3.0,0123*47\r\n
$GPGGA,155306.40,5700.7933970,N,00959.0252619,E,2,9,1.0,14.160,M,40.582,M,3.0,0123*4F\r\n
$GPGGA,155306.45,5700.7933970,N,00959.0253043,E,2,9,1.0,14.163,M,40.582,M,3.2,0123*43\r\n
$GPGGA,155306.50,5700.7933945,N,00959.0253469,E,2,9,1.0,14.162,M,40.582,M,3.2,0123*4C\r\n
$GPGGA,155306.55,5700.7933938,N,00959.0253917,E,2,9,1.0,14.157,M,40.582,M,3.2,0123*41\r\n
$GPGGA,155306.60,5700.7933955,N,00959.0254372,E,2,9,1.0,14.154,M,40.582,M,3.2,0123*41\r\n
$GPGGA,155306.65,5700.7933966,N,00959.0254819,E,2,9,1.0,14.152,M,40.582,M,1.2,0123*46\r\n
$GPGGA,155306.70,5700.7933958,N,00959.0255246,E,2,9,1.0,14.153,M,40.582,M,1.2,0123*4F\r\n
$GPGGA,155306.75,5700.7933941,N,00959.0255667,E,2,9,1.0,14.152,M,40.582,M,1.2,0123*44\r\n
$GPGGA,155306.80,5700.7933929,N,00959.0256081,E,2,9,1.0,14.152,M,40.582,M,1.2,0123*4D\r\n
$GPGGA,155306.85,5700.7933930,N,00959.0256475,E,2,9,1.0,14.151,M,40.582,M,1.5,0123*4B\r\n
$GPGGA,155306.90,5700.7933930,N,00959.0256886,E,2,9,1.0,14.157,M,40.582,M,1.5,0123*49\r\n
$GPGGA,155306.95,5700.7933932,N,00959.0257299,E,2,9,1.0,14.162,M,40.582,M,1.5,0123*4D\r\n
$GPGGA,155307.00,5700.7933920,N,00959.0257705,E,2,9,1.0,14.166,M,40.582,M,1.5,0123*47\r\n
$GPGGA,155307.05,5700.7933912,N,00959.0258090,E,2,9,1.0,14.160,M,40.582,M,1.7,0123*43\r\n
$GPGGA,155307.10,5700.7933892,N,00959.0258511,E,2,9,1.0,14.157,M,40.582,M,1.7,0123*46\r\n
$GPGGA,155307.15,5700.7933880,N,00959.0258954,E,2,9,1.0,14.152,M,40.582,M,1.7,0123*48\r\n
$GPGGA,155307.20,5700.7933869,N,00959.0259377,E,2,9,1.0,14.146,M,40.582,M,1.7,0123*46\r\n
$GPGGA,155307.25,5700.7933849,N,00959.0259828,E,2,9,1.0,14.140,M,40.582,M,2.0,0123*42\r\n
$GPGGA,155307.30,5700.7933832,N,00959.0260295,E,2,9,1.0,14.140,M,40.582,M,2.0,0123*4C\r\n
$GPGGA,155307.35,5700.7933801,N,00959.0260721,E,2,9,1.0,14.143,M,40.582,M,2.0,0123*40\r\n
$GPGGA,155307.40,5700.7933779,N,00959.0261130,E,2,9,1.0,14.144,M,40.582,M,2.0,0123*42\r\n
$GPGGA,155307.45,5700.7933764,N,00959.0261567,E,2,9,1.0,14.155,M,40.582,M,2.3,0123*4E\r\n
$GPGGA,155307.50,5700.7933729,N,00959.0261969,E,2,9,1.0,14.156,M,40.582,M,2.3,0123*42\r\n
$GPGGA,155307.55,5700.7933708,N,00959.0262382,E,2,9,1.0,14.160,M,40.582,M,2.3,0123*4D\r\n
$GPGGA,155307.60,5700.7933686,N,00959.0262816,E,2,9,1.0,14.169,M,40.582,M,2.3,0123*43\r\n
$GPGGA,155307.65,5700.7933647,N,00959.0263229,E,2,9,1.0,14.165,M,40.582,M,0.9,0123*48\r\n
$GPGGA,155307.70,5700.7933615,N,00959.0263658,E,2,9,1.0,14.160,M,40.582,M,0.9,0123*4C\r\n
$GPGGA,155307.75,5700.7933602,N,00959.0264101,E,2,9,1.0,14.158,M,40.582,M,0.9,0123*48\r\n
$GPGGA,155307.80,5700.7933587,N,00959.0264558,E,2,9,1.0,14.154,M,40.582,M,0.9,0123*48\r\n
$GPGGA,155307.85,5700.7933567,N,00959.0264985,E,2,9,1.0,14.148,M,40.582,M,1.1,0123*4B\r\n
$GPGGA,155307.90,5700.7933552,N,00959.0265415,E,2,9,1.0,14.152,M,40.582,M,1.1,0123*47\r\n
$GPGGA,155307.95,5700.7933534,N,00959.0265843,E,2,9,1.0,14.155,M,40.582,M,1.1,0123*4A\r\n
$GPGGA,155308.00,5700.7933512,N,00959.0266259,E,2,9,1.0,14.157,M,40.582,M,1.1,0123*4D\r\n
$GPGGA,155308.05,5700.7933502,N,00959.0266685,E,2,9,1.0,14.159,M,40.582,M,1.4,0123*47\r\n
$GPGGA,155308.10,5700.7933493,N,00959.0267108,E,2,9,1.0,14.160,M,40.582,M,1.4,0123*43\r\n
$GPGGA,155308.15,5700.7933476,N,00959.0267540,E,2,9,1.0,14.166,M,40.582,M,1.4,0123*43\r\n
$GPGGA,155308.20,5700.7933449,N,00959.0267996,E,2,9,1.0,14.169,M,40.582,M,1.4,0123*41\r\n
$GPGGA,155308.25,5700.7933435,N,00959.0268445,E,2,9,1.0,14.165,M,40.582,M,1.6,0123*4D\r\n
$GPGGA,155308.30,5700.7933433,N,00959.0268909,E,2,9,1.0,14.159,M,40.582,M,1.6,0123*45\r\n
$GPGGA,155308.35,5700.7933428,N,00959.0269355,E,2,9,1.0,14.152,M,40.582,M,1.6,0123*43\r\n
$GPGGA,155308.40,5700.7933399,N,00959.0269810,E,2,9,1.0,14.154,M,40.582,M,1.6,0123*40\r\n
$GPGGA,155308.45,5700.7933363,N,00959.0270237,E,2,9,1.0,14.149,M,40.582,M,1.8,0123*45\r\n
$GPGGA,155308.50,5700.7933346,N,00959.0270646,E,2,9,1.0,14.152,M,40.582,M,1.8,0123*4E\r\n
$GPGGA,155308.55,5700.7933322,N,00959.0271047,E,2,9,1.0,14.150,M,40.582,M,1.8,0123*4D\r\n
$GPGGA,155308.60,5700.7933286,N,00959.0271447,E,2,9,1.0,14.148,M,40.582,M,1.8,0123*49\r\n
$GPGGA,155308.65,5700.7933256,N,00959.0271910,E,2,9,1.0,14.163,M,40.582,M,2.0,0123*4C\r\n
$GPGGA,155308.70,5700.7933228,N,00959.0272359,E,2,9,1.0,14.167,M,40.582,M,2.0,0123*41\r\n
$GPGGA,155308.75,5700.7933190,N,00959.0272783,E,2,9,1.0,14.169,M,40.582,M,2.0,0123*49\r\n
$GPGGA,155308.80,5700.7933160,N,00959.0273221,E,2,9,1.0,14.168,M,40.582,M,2.0,0123*41\r\n
$GPGGA,155308.85,5700.7933136,N,00959.0273654,E,2,9,1.0,14.164,M,40.582,M,2.2,0123*4F\r\n
$GPGGA,155308.90,5700.7933122,N,00959.0274087,E,2,9,1.0,14.163,M,40.582,M,2.2,0123*46\r\n
$GPGGA,155308.95,5700.7933128,N,00959.0274521,E,2,9,1.0,14.164,M,40.582,M,2.2,0123*47\r\n
$GPGGA,155309.00,5700.7933124,N,00959.0274947,E,2,9,1.0,14.168,M,40.582,M,2.2,0123*46\r\n
$GPGGA,155309.05,5700.7933126,N,00959.0275346,E,2,9,1.0,14.161,M,40.582,M,2.4,0123*44\r\n
$GPGGA,155309.10,5700.7933125,N,00959.0275764,E,2,9,1.0,14.163,M,40.582,M,2.4,0123*45\r\n
$GPGGA,155309.15,5700.7933109,N,00959.0276206,E,2,9,1.0,14.165,M,40.582,M,2.4,0123*4A\r\n
$GPGGA,155309.20,5700.7933095,N,00959.0276624,E,2,9,1.0,14.165,M,40.582,M,2.4,0123*4C\r\n
$GPGGA,155309.25,5700.7933082,N,00959.0277089,E,2,9,1.0,14.173,M,40.582,M,2.7,0123*4B\r\n
$GPGGA,155309.30,5700.7933068,N,00959.0277564,E,2,9,1.0,14.173,M,40.582,M,2.7,0123*4D\r\n
$GPGGA,155309.35,5700.7933058,N,00959.0278009,E,2,9,1.0,14.172,M,40.582,M,2.7,0123*4B\r\n
$GPGGA,155309.40,5700.7933037,N,00959.0278451,E,2,9,1.0,14.170,M,40.582,M,2.7,0123*4B\r\n
$GPGGA,155309.45,5700.7933016,N,00959.0278892,E,2,9,1.0,14.159,M,40.582,M,2.9,0123*4B\r\n
$GPGGA,155309.50,5700.7932998,N,00959.0279302,E,2,9,1.0,14.158,M,40.582,M,2.9,0123*43\r\n
$GPGGA,155309.55,5700.7932974,N,00959.0279719,E,2,9,1.0,14.156,M,40.582,M,2.9,0123*44\r\n
$GPGGA,155309.60,5700.7932944,N,00959.0280149,E,2,9,1.0,14.158,M,40.582,M,2.9,0123*4A\r\n
$GPGGA,155309.65,5700.7932911,N,00959.0280577,E,2,9,1.0,14.165,M,40.582,M,2.1,0123*40\r\n
$GPGGA,155309.70,5700.7932878,N,00959.0281018,E,2,9,1.0,14.167,M,40.582,M,2.1,0123*45\r\n
$GPGGA,155309.75,5700.7932847,N,00959.0281464,E,2,9,1.0,14.171,M,40.582,M,2.1,0123*44\r\n
$GPGGA,155309.80,5700.7932814,N,00959.0281928,E,2,9,1.0,14.171,M,40.582,M,2.1,0123*4D\r\n
$GPGGA,155309.85,5700.7932794,N,00959.0282413,E,2,9,1.0,14.173,M,40.582,M,2.4,0123*4E\r\n
$GPGGA,155309.90,5700.7932778,N,00959.0282872,E,2,9,1.0,14.170,M,40.582,M,2.4,0123*40\r\n
$GPGGA,155309.95,5700.7932761,N,00959.0283309,E,2,9,1.0,14.170,M,40.582,M,2.4,0123*4B\r\n
$GPGGA,155310.00,5700.7932743,N,00959.0283772,E,2,9,1.0,14.173,M,40.582,M,2.4,0123*44\r\n
$GPGGA,155310.05,5700.7932720,N,00959.0284202,E,2,9,1.0,14.159,M,40.582,M,2.7,0123*4A\r\n
$GPGGA,155310.10,5700.7932697,N,00959.0284630,E,2,9,1.0,14.161,M,40.582,M,2.7,0123*4D\r\n
$GPGGA,155310.15,5700.7932690,N,00959.0285084,E,2,9,1.0,14.164,M,40.582,M,2.7,0123*42\r\n
$GPGGA,155310.20,5700.7932660,N,00959.0285550,E,2,9,1.0,14.162,M,40.582,M,2.7,0123*41\r\n
$GPGGA,155310.25,5700.7932607,N,00959.0286024,E,2,9,1.0,14.165,M,40.582,M,3.0,0123*41\r\n
$GPGGA,155310.30,5700.7932550,N,00959.0286472,E,2,9,1.0,14.164,M,40.582,M,3.0,0123*42\r\n
$GPGGA,155310.35,5700.7932513,N,00959.0286926,E,2,9,1.0,14.159,M,40.582,M,3.0,0123*42\r\n
$GPGGA,155310.40,5700.7932480,N,00959.0287392,E,2,9,1.0,14.154,M,40.582,M,3.0,0123*42\r\n
$GPGGA,155310.45,5700.7932419,N,00959.0287840,E,2,9,1.0,14.139,M,40.582,M,3.2,0123*4A\r\n
$GPGGA,155310.50,5700.7932391,N,00959.0288298,E,2,9,1.0,14.142,M,40.582,M,3.2,0123*45\r\n
$GPGGA,155310.55,5700.7932372,N,00959.0288741,E,2,9,1.0,14.145,M,40.582,M,3.2,0123*4B\r\n
$GPGGA,155310.60,5700.7932340,N,00959.0289193,E,2,9,1.0,14.143,M,40.582,M,3.2,0123*42\r\n
$GPGGA,155310.65,5700.7932307,N,00959.0289647,E,2,9,1.0,14.146,M,40.582,M,1.2,0123*4D\r\n
$GPGGA,155310.70,5700.7932260,N,00959.0290121,E,2,9,1.0,14.147,M,40.582,M,1.2,0123*47\r\n
$GPGGA,155310.75,5700.7932227,N,00959.0290592,E,2,9,1.0,14.151,M,40.582,M,1.2,0123*4A\r\n
$GPGGA,155310.80,5700.7932208,N,00959.0291066,E,2,9,1.0,14.150,M,40.582,M,1.2,0123*43\r\n
$GPGGA,155310.85,5700.7932168,N,00959.0291560,E,2,9,1.0,14.150,M,40.582,M,1.5,0123*47\r\n
$GPGGA,155310.90,5700.7932131,N,00959.0292038,E,2,9,1.0,14.143,M,40.582,M,1.5,0123*46\r\n
$GPGGA,155310.95,5700.7932098,N,00959.0292512,E,2,9,1.0,14.140,M,40.582,M,1.5,0123*4F\r\n
$GPGGA,155311.00,5700.7932055,N,00959.0292957,E,2,9,1.0,14.143,M,40.582,M,1.5,0123*4D\r\n
$GPGGA,155311.05,5700.7932012,N,00959.0293378,E,2,9,1.0,14.145,M,40.582,M,1.7,0123*49\r\n
$GPGGA,155311.10,5700.7931974,N,00959.0293810,E,2,9,1.0,14.148,M,40.582,M,1.7,0123*4F\r\n
$GPGGA,155311.15,5700.7931936,N,00959.0294254,E,2,9,1.0,14.150,M,40.582,M,1.7,0123*48\r\n
$GPGGA,155311.20,5700.7931882,N,00959.0294688,E,2,9,1.0,14.150,M,40.582,M,1.7,0123*45\r\n
$GPGGA,155311.25,5700.7931817,N,00959.0295121,E,2,9,1.0,14.151,M,40.582,M,2.0,0123*4C\r\n
$GPGGA,155311.30,5700.7931759,N,00959.0295583,E,2,9,1.0,14.149,M,40.582,M,2.0,0123*48\r\n
$GPGGA,155311.35,5700.7931716,N,00959.0296067,E,2,9,1.0,14.148,M,40.582,M,2.0,0123*4B\r\n
$GPGGA,155311.40,5700.7931662,N,00959.0296541,E,2,9,1.0,14.148,M,40.582,M,2.0,0123*4A\r\n
$GPGGA,155311.45,5700.7931576,N,00959.0297004,E,2,9,1.0,14.145,M,40.582,M,2.3,0123*42\r\n
$GPGGA,155311.50,5700.7931499,N,00959.0297460,E,2,9,1.0,14.144,M,40.582,M,2.3,0123*41\r\n
$GPGGA,155311.55,5700.7931427,N,00959.0297911,E,2,9,1.0,14.143,M,40.582,M,2.3,0123*4D\r\n
$GPGGA,155311.60,5700.7931358,N,00959.0298356,E,2,9,1.0,14.145,M,40.582,M,2.3,0123*44\r\n
$GPGGA,155311.65,5700.7931280,N,00959.0298799,E,2,9,1.0,14.158,M,40.582,M,0.9,0123*46\r\n
$GPGGA,155311.70,5700.7931230,N,00959.0299250,E,2,9,1.0,14.163,M,40.582,M,0.9,0123*40\r\n
$GPGGA,155311.75,5700.7931183,N,00959.0299700,E,2,9,1.0,14.165,M,40.582,M,0.9,0123*48\r\n
$GPGGA,155311.80,5700.7931129,N,00959.0300154,E,2,9,1.0,14.166,M,40.582,M,0.9,0123*47\r\n
$GPGGA,155311.85,5700.7931053,N,00959.0300615,E,2,9,1.0,14.164,M,40.582,M,1.1,0123*47\r\n
$GPGGA,155311.90,5700.7930982,N,00959.0301088,E,2,9,1.0,14.163,M,40.582,M,1.1,0123*43\r\n
$GPGGA,155311.95,5700.7930924,N,00959.0301560,E,2,9,1.0,14.161,M,40.582,M,1.1,0123*4B\r\n
$GPGGA,155312.00,5700.7930854,N,00959.0302001,E,2,9,1.0,14.163,M,40.582,M,1.1,0123*41\r\n
$GPGGA,155312.05,5700.7930777,N,00959.0302411,E,2,9,1.0,14.161,M,40.582,M,1.4,0123*48\r\n
$GPGGA,155312.10,5700.7930701,N,00959.0302865,E,2,9,1.0,14.163,M,40.582,M,1.4,0123*40\r\n
$GPGGA,155312.15,5700.7930626,N,00959.0303319,E,2,9,1.0,14.166,M,40.582,M,1.4,0123*45\r\n
$GPGGA,155312.20,5700.7930566,N,00959.0303788,E,2,9,1.0,14.168,M,40.582,M,1.4,0123*46\r\n
$GPGGA,155312.25,5700.7930494,N,00959.0304294,E,2,9,1.0,14.166,M,40.582,M,1.6,0123*4C\r\n
$GPGGA,155312.30,5700.7930413,N,00959.0304764,E,2,9,1.0,14.165,M,40.582,M,1.6,0123*4E\r\n
$GPGGA,155312.35,5700.7930338,N,00959.0305221,E,2,9,1.0,14.165,M,40.582,M,1.6,0123*40\r\n
$GPGGA,155312.40,5700.7930253,N,00959.0305700,E,2,9,1.0,14.165,M,40.582,M,1.6,0123*48\r\n
$GPGGA,155312.45,5700.7930160,N,00959.0306137,E,2,9,1.0,14.157,M,40.582,M,1.8,0123*40\r\n
$GPGGA,155312.50,5700.7930068,N,00959.0306596,E,2,9,1.0,14.157,M,40.582,M,1.8,0123*42\r\n
$GPGGA,155312.55,5700.7929960,N,00959.0307029,E,2,9,1.0,14.160,M,40.582,M,1.8,0123*4A\r\n
$GPGGA,155312.60,5700.7929836,N,00959.0307439,E,2,9,1.0,14.165,M,40.582,M,1.8,0123*4E\r\n
$GPGGA,155312.65,5700.7929736,N,00959.0307856,E,2,9,1.0,14.169,M,40.582,M,2.0,0123*46\r\n
$GPGGA,155312.70,5700.7929644,N,00959.0308294,E,2,9,1.0,14.167,M,40.582,M,2.0,0123*43\r\n
$GPGGA,155312.75,5700.7929549,N,00959.0308732,E,2,9,1.0,14.167,M,40.582,M,2.0,0123*41\r\n
$GPGGA,155312.80,5700.7929464,N,00959.0309201,E,2,9,1.0,14.167,M,40.582,M,2.0,0123*41\r\n
$GPGGA,155312.85,5700.7929357,N,00959.0309675,E,2,9,1.0,14.157,M,40.582,M,2.2,0123*45\r\n
$GPGGA,155312.90,5700.7929253,N,00959.0310118,E,2,9,1.0,14.156,M,40.582,M,2.2,0123*41\r\n
$GPGGA,155312.95,5700.7929141,N,00959.0310516,E,2,9,1.0,14.159,M,40.582,M,2.2,0123*41\r\n
$GPGGA,155313.00,5700.7929048,N,00959.0310930,E,2,9,1.0,14.161,M,40.582,M,2.2,0123*47\r\n
$GPGGA,155313.05,5700.7928968,N,00959.0311349,E,2,9,1.0,14.165,M,40.582,M,2.4,0123*4F\r\n
$GPGGA,155313.10,5700.7928848,N,00959.0311780,E,2,9,1.0,14.167,M,40.582,M,2.4,0123*4B\r\n
$GPGGA,155313.15,5700.7928715,N,00959.0312228,E,2,9,1.0,14.172,M,40.582,M,2.4,0123*49\r\n
$GPGGA,155313.20,5700.7928601,N,00959.0312714,E,2,9,1.0,14.173,M,40.582,M,2.4,0123*40\r\n
$GPGGA,155313.25,5700.7928486,N,00959.0313179,E,2,9,1.0,14.162,M,40.582,M,2.7,0123*47\r\n
$GPGGA,155313.30,5700.7928380,N,00959.0313618,E,2,9,1.0,14.154,M,40.582,M,2.7,0123*47\r\n
$GPGGA,155313.35,5700.7928271,N,00959.0314054,E,2,9,1.0,14.151,M,40.582,M,2.7,0123*41\r\n
$GPGGA,155313.40,5700.7928152,N,00959.0314490,E,2,9,1.0,14.153,M,40.582,M,2.7,0123*4F\r\n
$GPGGA,155313.45,5700.7928034,N,00959.0314923,E,2,9,1.0,14.153,M,40.582,M,2.9,0123*40\r\n
$GPGGA,155313.50,5700.7927918,N,00959.0315327,E,2,9,1.0,14.154,M,40.582,M,2.9,0123*44\r\n
$GPGGA,155313.55,5700.7927804,N,00959.0315729,E,2,9,1.0,14.155,M,40.582,M,2.9,0123*46\r\n
$GPGGA,155313.60,5700.7927697,N,00959.0316153,E,2,9,1.0,14.156,M,40.582,M,2.9,0123*4F\r\n
$GPGGA,155313.65,5700.7927573,N,00959.0316590,E,2,9,1.0,14.169,M,40.582,M,2.1,0123*4C\r\n
$GPGGA,155313.70,5700.7927449,N,00959.0317028,E,2,9,1.0,14.170,M,40.582,M,2.1,0123*4F\r\n
$GPGGA,155313.75,5700.7927349,N,00959.0317491,E,2,9,1.0,14.173,M,40.582,M,2.1,0123*48\r\n
$GPGGA,155313.80,5700.7927240,N,00959.0317956,E,2,9,1.0,14.171,M,40.582,M,2.1,0123*4E\r\n
$GPGGA,155313.85,5700.7927127,N,00959.0318381,E,2,9,1.0,14.159,M,40.582,M,2.4,0123*49\r\n
$GPGGA,155313.90,5700.7927018,N,00959.0318801,E,2,9,1.0,14.159,M,40.582,M,2.4,0123*43\r\n
$GPGGA,155313.95,5700.7926922,N,00959.0319205,E,2,9,1.0,14.159,M,40.582,M,2.4,0123*48\r\n
$GPGGA,155314.00,5700.7926832,N,00959.0319608,E,2,9,1.0,14.164,M,40.582,M,2.4,0123*44\r\n
$GPGGA,155314.05,5700.7926744,N,00959.0320019,E,2,9,1.0,14.165,M,40.582,M,2.7,0123*41\r\n
$GPGGA,155314.10,5700.7926639,N,00959.0320440,E,2,9,1.0,14.163,M,40.582,M,2.7,0123*40\r\n
$GPGGA,155314.15,5700.7926515,N,00959.0320877,E,2,9,1.0,14.161,M,40.582,M,2.7,0123*42\r\n
$GPGGA,155314.20,5700.7926401,N,00959.0321313,E,2,9,1.0,14.161,M,40.582,M,2.7,0123*48\r\n
$GPGGA,155314.25,5700.7926297,N,00959.0321747,E,2,9,1.0,14.163,M,40.582,M,3.0,0123*45\r\n
$GPGGA,155314.30,5700.7926180,N,00959.0322191,E,2,9,1.0,14.163,M,40.582,M,3.0,0123*4A\r\n
$GPGGA,155314.35,5700.7926049,N,00959.0322624,E,2,9,1.0,14.163,M,40.582,M,3.0,0123*42\r\n
$GPGGA,155314.40,5700.7925924,N,00959.0323059,E,2,9,1.0,14.162,M,40.582,M,3.0,0123*4D\r\n
$GPGGA,155314.45,5700.7925805,N,00959.0323477,E,2,9,1.0,14.162,M,40.582,M,3.2,0123*40\r\n
$GPGGA,155314.50,5700.7925687,N,00959.0323875,E,2,9,1.0,14.164,M,40.582,M,3.2,0123*48\r\n
$GPGGA,155314.55,5700.7925550,N,00959.0324271,E,2,9,1.0,14.169,M,40.582,M,3.2,0123*40\r\n
$GPGGA,155314.60,5700.7925409,N,00959.0324687,E,2,9,1.0,14.173,M,40.582,M,3.2,0123*4D\r\n
$GPGGA,155314.65,5700.7925284,N,00959.0325079,E,2,9,1.0,14.171,M,40.582,M,1.2,0123*4D\r\n
$GPGGA,155314.70,5700.7925147,N,00959.0325500,E,2,9,1.0,14.170,M,40.582,M,1.2,0123*4F\r\n
$GPGGA,155314.75,5700.7925007,N,00959.0325899,E,2,9,1.0,14.167,M,40.582,M,1.2,0123*44\r\n
$GPGGA,155314.80,5700.7924864,N,00959.0326299,E,2,9,1.0,14.165,M,40.582,M,1.2,0123*49\r\n
$GPGGA,155314.85,5700.7924718,N,00959.0326688,E,2,9,1.0,14.159,M,40.582,M,1.5,0123*44\r\n
$GPGGA,155314.90,5700.7924586,N,00959.0327098,E,2,9,1.0,14.160,M,40.582,M,1.5,0123*49\r\n
$GPGGA,155314.95,5700.7924463,N,00959.0327508,E,2,9,1.0,14.160,M,40.582,M,1.5,0123*4A\r\n
$GPGGA,155315.00,5700.7924343,N,00959.0327888,E,2,9,1.0,14.158,M,40.582,M,1.5,0123*4C\r\n
$GPGGA,155315.05,5700.7924218,N,00959.0328269,E,2,9,1.0,14.155,M,40.582,M,1.7,0123*43\r\n
$GPGGA,155315.10,5700.7924081,N,00959.0328651,E,2,9,1.0,14.157,M,40.582,M,1.7,0123*48\r\n
$GPGGA,155315.15,5700.7923930,N,00959.0329039,E,2,9,1.0,14.157,M,40.582,M,1.7,0123*40\r\n
$GPGGA,155315.20,5700.7923797,N,00959.0329456,E,2,9,1.0,14.154,M,40.582,M,1.7,0123*4B\r\n
$GPGGA,155315.25,5700.7923655,N,00959.0329870,E,2,9,1.0,14.157,M,40.582,M,2.0,0123*4E\r\n
$GPGGA,155315.30,5700.7923500,N,00959.0330246,E,2,9,1.0,14.157,M,40.582,M,2.0,0123*4E\r\n
$GPGGA,155315.35,5700.7923333,N,00959.0330630,E,2,9,1.0,14.158,M,40.582,M,2.0,0123*47\r\n
$GPGGA,155315.40,5700.7923163,N,00959.0331005,E,2,9,1.0,14.159,M,40.582,M,2.0,0123*42\r\n
$GPGGA,155315.45,5700.7923001,N,00959.0331363,E,2,9,1.0,14.156,M,40.582,M,2.3,0123*4D\r\n
$GPGGA,155315.50,5700.7922841,N,00959.0331718,E,2,9,1.0,14.157,M,40.582,M,2.3,0123*4D\r\n
$GPGGA,155315.55,5700.7922681,N,00959.0332076,E,2,9,1.0,14.158,M,40.582,M,2.3,0123*49\r\n
$GPGGA,155315.60,5700.7922510,N,00959.0332440,E,2,9,1.0,14.159,M,40.582,M,2.3,0123*44\r\n
$GPGGA,155315.65,5700.7922365,N,00959.0332794,E,2,9,1.0,14.153,M,40.582,M,0.9,0123*4D\r\n
$GPGGA,155315.70,5700.7922209,N,00959.0333159,E,2,9,1.0,14.151,M,40.582,M,0.9,0123*46\r\n
$GPGGA,155315.75,5700.7922062,N,00959.0333530,E,2,9,1.0,14.156,M,40.582,M,0.9,0123*40\r\n
$GPGGA,155315.80,5700.7921918,N,00959.0333909,E,2,9,1.0,14.163,M,40.582,M,0.9,0123*4D\r\n
$GPGGA,155315.85,5700.7921772,N,00959.0334240,E,2,9,1.0,14.173,M,40.582,M,1.1,0123*43\r\n
$GPGGA,155315.90,5700.7921622,N,00959.0334556,E,2,9,1.0,14.177,M,40.582,M,1.1,0123*47\r\n
$GPGGA,155315.95,5700.7921467,N,00959.0334885,E,2,9,1.0,14.179,M,40.582,M,1.1,0123*4C\r\n
$GPGGA,155316.00,5700.7921310,N,00959.0335213,E,2,9,1.0,14.185,M,40.582,M,1.1,0123*43\r\n
