$GPGGA,100335.85,5700.9192742,N,00959.1406152,E,2,10,0.9,10.764,M,40.582,M,3.1,0136*79\r\n
$GPGGA,100335.90,5700.9192741,N,00959.1406148,E,2,10,0.9,10.764,M,40.582,M,3.1,0136*75\r\n
$GPGGA,100335.95,5700.9192741,N,00959.1406147,E,2,10,0.9,10.764,M,40.582,M,3.1,0136*7F\r\n
$GPGGA,100336.00,5700.9192739,N,00959.1406145,E,2,10,0.9,10.764,M,40.582,M,3.1,0136*7D\r\n
$GPGGA,100336.05,5700.9192729,N,00959.1406137,E,2,10,0.9,10.765,M,40.582,M,1.4,0136*7A\r\n
$GPGGA,100336.10,5700.9192729,N,00959.1406137,E,2,10,0.9,10.765,M,40.582,M,1.4,0136*7E\r\n
$GPGGA,100336.15,5700.9192727,N,00959.1406141,E,2,10,0.9,10.765,M,40.582,M,1.4,0136*74\r\n
$GPGGA,100336.20,5700.9192727,N,00959.1406145,E,2,10,0.9,10.765,M,40.582,M,1.4,0136*76\r\n
$GPGGA,100336.25,5700.9192735,N,00959.1406169,E,2,10,0.9,10.765,M,40.582,M,1.7,0136*7D\r\n
$GPGGA,100336.30,5700.9192735,N,00959.1406169,E,2,10,0.9,10.765,M,40.582,M,1.7,0136*79\r\n
$GPGGA,100336.35,5700.9192735,N,00959.1406164,E,2,10,0.9,10.765,M,40.582,M,1.7,0136*71\r\n
$GPGGA,100336.40,5700.9192734,N,00959.1406166,E,2,10,0.9,10.765,M,40.582,M,1.7,0136*70\r\n
$GPGGA,100336.45,5700.9192731,N,00959.1406146,E,2,10,0.9,10.766,M,40.582,M,1.9,0136*7F\r\n
$GPGGA,100336.50,5700.9192732,N,00959.1406145,E,2,10,0.9,10.766,M,40.582,M,1.9,0136*7B\r\n
$GPGGA,100336.55,5700.9192734,N,00959.1406145,E,2,10,0.9,10.766,M,40.582,M,1.9,0136*78\r\n
$GPGGA,100336.60,5700.9192733,N,00959.1406147,E,2,10,0.9,10.766,M,40.582,M,1.9,0136*7B\r\n
$GPGGA,100336.65,5700.9192728,N,00959.1406158,E,2,10,0.9,10.760,M,40.582,M,2.1,0136*77\r\n
$GPGGA,100336.70,5700.9192728,N,00959.1406157,E,2,10,0.9,10.759,M,40.582,M,2.1,0136*76\r\n
$GPGGA,100336.75,5700.9192729,N,00959.1406159,E,2,10,0.9,10.759,M,40.582,M,2.1,0136*7C\r\n
$GPGGA,100336.80,5700.9192729,N,00959.1406156,E,2,10,0.9,10.758,M,40.582,M,2.1,0136*78\r\n
$GPGGA,100336.85,5700.9192733,N,00959.1406141,E,2,10,0.9,10.764,M,40.582,M,2.3,0136*7D\r\n
$GPGGA,100336.90,5700.9192733,N,00959.1406145,E,2,10,0.9,10.763,M,40.582,M,2.3,0136*7A\r\n
$GPGGA,100336.95,5700.9192735,N,00959.1406143,E,2,10,0.9,10.763,M,40.582,M,2.3,0136*7F\r\n
$GPGGA,100337.00,5700.9192736,N,00959.1406141,E,2,10,0.9,10.763,M,40.582,M,2.3,0136*73\r\n
$GPGGA,100337.05,5700.9192731,N,00959.1406146,E,2,10,0.9,10.763,M,40.582,M,1.8,0136*7E\r\n
$GPGGA,100337.10,5700.9192730,N,00959.1406145,E,2,10,0.9,10.763,M,40.582,M,1.8,0136*78\r\n
$GPGGA,100337.15,5700.9192730,N,00959.1406146,E,2,10,0.9,10.763,M,40.582,M,1.8,0136*7E\r\n
$GPGGA,100337.20,5700.9192730,N,00959.1406147,E,2,10,0.9,10.763,M,40.582,M,1.8,0136*79\r\n
$GPGGA,100337.25,5700.9192722,N,00959.1406146,E,2,10,0.9,10.763,M,40.582,M,2.1,0136*74\r\n
$GPGGA,100337.30,5700.9192722,N,00959.1406145,E,2,10,0.9,10.763,M,40.582,M,2.1,0136*73\r\n
$GPGGA,100337.35,5700.9192721,N,00959.1406142,E,2,10,0.9,10.763,M,40.582,M,2.1,0136*72\r\n
$GPGGA,100337.40,5700.9192722,N,00959.1406144,E,2,10,0.9,10.763,M,40.582,M,2.1,0136*75\r\n
$GPGGA,100337.45,5700.9192726,N,00959.1406137,E,2,10,0.9,10.765,M,40.582,M,2.3,0136*74\r\n
$GPGGA,100337.50,5700.9192724,N,00959.1406136,E,2,10,0.9,10.765,M,40.582,M,2.3,0136*73\r\n
$GPGGA,100337.55,5700.9192725,N,00959.1406140,E,2,10,0.9,10.765,M,40.582,M,2.3,0136*76\r\n
$GPGGA,100337.60,5700.9192724,N,00959.1406143,E,2,10,0.9,10.765,M,40.582,M,2.3,0136*72\r\n
$GPGGA,100337.65,5700.9192720,N,00959.1406163,E,2,10,0.9,10.762,M,40.582,M,2.5,0136*70\r\n
$GPGGA,100337.70,5700.9192721,N,00959.1406166,E,2,10,0.9,10.762,M,40.582,M,2.5,0136*70\r\n
$GPGGA,100337.75,5700.9192722,N,00959.1406164,E,2,10,0.9,10.762,M,40.582,M,2.5,0136*74\r\n
$GPGGA,100337.80,5700.9192720,N,00959.1406166,E,2,10,0.9,10.762,M,40.582,M,2.5,0136*7E\r\n
$GPGGA,100337.85,5700.9192730,N,00959.1406160,E,2,10,0.9,10.765,M,40.582,M,2.7,0136*79\r\n
$GPGGA,100337.90,5700.9192731,N,00959.1406160,E,2,10,0.9,10.765,M,40.582,M,2.7,0136*7C\r\n
$GPGGA,100337.95,5700.9192728,N,00959.1406165,E,2,10,0.9,10.766,M,40.582,M,2.7,0136*77\r\n
$GPGGA,100338.00,5700.9192725,N,00959.1406164,E,2,10,0.9,10.766,M,40.582,M,2.7,0136*78\r\n
$GPGGA,100338.05,5700.9192704,N,00959.1406153,E,2,10,0.9,10.762,M,40.582,M,2.9,0136*70\r\n
$GPGGA,100338.10,5700.9192705,N,00959.1406156,E,2,10,0.9,10.762,M,40.582,M,2.9,0136*70\r\n
$GPGGA,100338.15,5700.9192704,N,00959.1406160,E,2,10,0.9,10.762,M,40.582,M,2.9,0136*71\r\n
$GPGGA,100338.20,5700.9192704,N,00959.1406160,E,2,10,0.9,10.762,M,40.582,M,2.9,0136*77\r\n
$GPGGA,100338.25,5700.9192706,N,00959.1406161,E,2,10,0.9,10.760,M,40.582,M,3.1,0136*7A\r\n
$GPGGA,100338.30,5700.9192707,N,00959.1406160,E,2,10,0.9,10.760,M,40.582,M,3.1,0136*7E\r\n
$GPGGA,100338.35,5700.9192706,N,00959.1406157,E,2,10,0.9,10.760,M,40.582,M,3.1,0136*7E\r\n
$GPGGA,100338.40,5700.9192706,N,00959.1406156,E,2,10,0.9,10.760,M,40.582,M,3.1,0136*7D\r\n
$GPGGA,100338.45,5700.9192713,N,00959.1406138,E,2,10,0.9,10.762,M,40.582,M,3.3,0136*74\r\n
$GPGGA,100338.50,5700.9192713,N,00959.1406138,E,2,10,0.9,10.762,M,40.582,M,3.3,0136*70\r\n
$GPGGA,100338.55,5700.9192713,N,00959.1406135,E,2,10,0.9,10.762,M,40.582,M,3.3,0136*78\r\n
$GPGGA,100338.60,5700.9192713,N,00959.1406135,E,2,10,0.9,10.762,M,40.582,M,3.3,0136*7E\r\n
$GPGGA,100338.65,5700.9192711,N,00959.1406146,E,2,10,0.9,10.763,M,40.582,M,3.6,0136*79\r\n
$GPGGA,100338.70,5700.9192711,N,00959.1406144,E,2,10,0.9,10.763,M,40.582,M,3.6,0136*7F\r\n
$GPGGA,100338.75,5700.9192711,N,00959.1406142,E,2,10,0.9,10.764,M,40.582,M,3.6,0136*7B\r\n
$GPGGA,100338.80,5700.9192710,N,00959.1406142,E,2,10,0.9,10.764,M,40.582,M,3.6,0136*70\r\n
$GPGGA,100338.85,5700.9192710,N,00959.1406145,E,2,10,0.9,10.764,M,40.582,M,3.8,0136*7C\r\n
$GPGGA,100338.90,5700.9192711,N,00959.1406145,E,2,10,0.9,10.764,M,40.582,M,3.8,0136*79\r\n
$GPGGA,100338.95,5700.9192710,N,00959.1406144,E,2,10,0.9,10.764,M,40.582,M,3.8,0136*7C\r\n
$GPGGA,100339.00,5700.9192711,N,00959.1406142,E,2,10,0.9,10.765,M,40.582,M,3.8,0136*77\r\n
$GPGGA,100339.05,5700.9192716,N,00959.1406138,E,2,10,0.9,10.765,M,40.582,M,2.0,0136*71\r\n
$GPGGA,100339.10,5700.9192718,N,00959.1406136,E,2,10,0.9,10.765,M,40.582,M,2.0,0136*75\r\n
$GPGGA,100339.15,5700.9192720,N,00959.1406141,E,2,10,0.9,10.765,M,40.582,M,2.0,0136*7B\r\n
$GPGGA,100339.20,5700.9192721,N,00959.1406144,E,2,10,0.9,10.766,M,40.582,M,2.0,0136*7A\r\n
$GPGGA,100339.25,5700.9192727,N,00959.1406158,E,2,10,0.9,10.769,M,40.582,M,2.3,0136*78\r\n
$GPGGA,100339.30,5700.9192728,N,00959.1406157,E,2,10,0.9,10.769,M,40.582,M,2.3,0136*7C\r\n
$GPGGA,100339.35,5700.9192729,N,00959.1406158,E,2,10,0.9,10.770,M,40.582,M,2.3,0136*7F\r\n
$GPGGA,100339.40,5700.9192731,N,00959.1406156,E,2,10,0.9,10.770,M,40.582,M,2.3,0136*7A\r\n
$GPGGA,100339.45,5700.9192715,N,00959.1406139,E,2,10,0.9,10.765,M,40.582,M,2.6,0136*71\r\n
$GPGGA,100339.50,5700.9192714,N,00959.1406143,E,2,10,0.9,10.765,M,40.582,M,2.6,0136*79\r\n
$GPGGA,100339.55,5700.9192715,N,00959.1406144,E,2,10,0.9,10.766,M,40.582,M,2.6,0136*79\r\n
$GPGGA,100339.60,5700.9192715,N,00959.1406143,E,2,10,0.9,10.766,M,40.582,M,2.6,0136*78\r\n
$GPGGA,100339.65,5700.9192712,N,00959.1406154,E,2,10,0.9,10.768,M,40.582,M,2.8,0136*7C\r\n
$GPGGA,100339.70,5700.9192712,N,00959.1406155,E,2,10,0.9,10.768,M,40.582,M,2.8,0136*79\r\n
$GPGGA,100339.75,5700.9192712,N,00959.1406157,E,2,10,0.9,10.768,M,40.582,M,2.8,0136*7E\r\n
$GPGGA,100339.80,5700.9192714,N,00959.1406156,E,2,10,0.9,10.769,M,40.582,M,2.8,0136*72\r\n
$GPGGA,100339.85,5700.9192719,N,00959.1406155,E,2,10,0.9,10.767,M,40.582,M,3.1,0136*7F\r\n
$GPGGA,100339.90,5700.9192718,N,00959.1406155,E,2,10,0.9,10.767,M,40.582,M,3.1,0136*7A\r\n
$GPGGA,100339.95,5700.9192719,N,00959.1406151,E,2,10,0.9,10.768,M,40.582,M,3.1,0136*75\r\n
$GPGGA,100340.00,5700.9192718,N,00959.1406152,E,2,10,0.9,10.768,M,40.582,M,3.1,0136*75\r\n
$GPGGA,100340.05,5700.9192712,N,00959.1406144,E,2,10,0.9,10.768,M,40.582,M,1.4,0136*7A\r\n
$GPGGA,100340.10,5700.9192711,N,00959.1406146,E,2,10,0.9,10.768,M,40.582,M,1.4,0136*7F\r\n
$GPGGA,100340.15,5700.9192711,N,00959.1406150,E,2,10,0.9,10.768,M,40.582,M,1.4,0136*7D\r\n
$GPGGA,100340.20,5700.9192711,N,00959.1406149,E,2,10,0.9,10.768,M,40.582,M,1.4,0136*73\r\n
$GPGGA,100340.25,5700.9192708,N,00959.1406163,E,2,10,0.9,10.767,M,40.582,M,1.7,0136*7A\r\n
$GPGGA,100340.30,5700.9192703,N,00959.1406168,E,2,10,0.9,10.767,M,40.582,M,1.7,0136*7E\r\n
$GPGGA,100340.35,5700.9192696,N,00959.1406179,E,2,10,0.9,10.767,M,40.582,M,1.7,0136*76\r\n
$GPGGA,100340.40,5700.9192683,N,00959.1406187,E,2,10,0.9,10.768,M,40.582,M,1.7,0136*7E\r\n
$GPGGA,100340.45,5700.9192639,N,00959.1406234,E,2,10,0.9,10.798,M,40.582,M,1.9,0136*70\r\n
$GPGGA,100340.50,5700.9192609,N,00959.1406252,E,2,10,0.9,10.810,M,40.582,M,1.9,0136*78\r\n
$GPGGA,100340.55,5700.9192574,N,00959.1406261,E,2,10,0.9,10.823,M,40.582,M,1.9,0136*74\r\n
$GPGGA,100340.60,5700.9192526,N,00959.1406271,E,2,10,0.9,10.837,M,40.582,M,1.9,0136*71\r\n
$GPGGA,100340.65,5700.9192483,N,00959.1406272,E,2,10,0.9,10.858,M,40.582,M,2.1,0136*7B\r\n
$GPGGA,100340.70,5700.9192437,N,00959.1406257,E,2,10,0.9,10.874,M,40.582,M,2.1,0136*79\r\n
$GPGGA,100340.75,5700.9192378,N,00959.1406246,E,2,10,0.9,10.885,M,40.582,M,2.1,0136*7E\r\n
$GPGGA,100340.80,5700.9192331,N,00959.1406239,E,2,10,0.9,10.899,M,40.582,M,2.1,0136*7C\r\n
$GPGGA,100340.85,5700.9192286,N,00959.1406226,E,2,10,0.9,10.914,M,40.582,M,2.3,0136*7C\r\n
$GPGGA,100340.90,5700.9192249,N,00959.1406209,E,2,10,0.9,10.927,M,40.582,M,2.3,0136*76\r\n
$GPGGA,100340.95,5700.9192215,N,00959.1406194,E,2,10,0.9,10.942,M,40.582,M,2.3,0136*7E\r\n
$GPGGA,100341.00,5700.9192178,N,00959.1406191,E,2,10,0.9,10.958,M,40.582,M,2.3,0136*75\r\n
$GPGGA,100341.05,5700.9192120,N,00959.1406179,E,2,10,0.9,10.968,M,40.582,M,1.8,0136*70\r\n
$GPGGA,100341.10,5700.9192060,N,00959.1406189,E,2,10,0.9,10.980,M,40.582,M,1.8,0136*78\r\n
$GPGGA,100341.15,5700.9191996,N,00959.1406216,E,2,10,0.9,10.988,M,40.582,M,1.8,0136*73\r\n
$GPGGA,100341.20,5700.9191922,N,00959.1406236,E,2,10,0.9,10.996,M,40.582,M,1.8,0136*77\r\n
$GPGGA,100341.25,5700.9191865,N,00959.1406237,E,2,10,0.9,10.998,M,40.582,M,2.1,0136*75\r\n
$GPGGA,100341.30,5700.9191819,N,00959.1406251,E,2,10,0.9,11.008,M,40.582,M,2.1,0136*7B\r\n
$GPGGA,100341.35,5700.9191783,N,00959.1406265,E,2,10,0.9,11.020,M,40.582,M,2.1,0136*7F\r\n
$GPGGA,100341.40,5700.9191735,N,00959.1406269,E,2,10,0.9,11.030,M,40.582,M,2.1,0136*7D\r\n
$GPGGA,100341.45,5700.9191697,N,00959.1406277,E,2,10,0.9,11.041,M,40.582,M,2.3,0136*7A\r\n
$GPGGA,100341.50,5700.9191663,N,00959.1406296,E,2,10,0.9,11.051,M,40.582,M,2.3,0136*7B\r\n
$GPGGA,100341.55,5700.9191622,N,00959.1406317,E,2,10,0.9,11.060,M,40.582,M,2.3,0136*71\r\n
$GPGGA,100341.60,5700.9191586,N,00959.1406325,E,2,10,0.9,11.069,M,40.582,M,2.3,0136*72\r\n
$GPGGA,100341.65,5700.9191531,N,00959.1406320,E,2,10,0.9,11.066,M,40.582,M,2.5,0136*77\r\n
$GPGGA,100341.70,5700.9191488,N,00959.1406298,E,2,10,0.9,11.074,M,40.582,M,2.5,0136*71\r\n
$GPGGA,100341.75,5700.9191450,N,00959.1406294,E,2,10,0.9,11.083,M,40.582,M,2.5,0136*75\r\n
$GPGGA,100341.80,5700.9191414,N,00959.1406289,E,2,10,0.9,11.091,M,40.582,M,2.5,0136*70\r\n
$GPGGA,100341.85,5700.9191389,N,00959.1406282,E,2,10,0.9,11.100,M,40.582,M,2.7,0136*76\r\n
$GPGGA,100341.90,5700.9191361,N,00959.1406287,E,2,10,0.9,11.106,M,40.582,M,2.7,0136*77\r\n
$GPGGA,100341.95,5700.9191337,N,00959.1406294,E,2,10,0.9,11.110,M,40.582,M,2.7,0136*74\r\n
$GPGGA,100342.00,5700.9191313,N,00959.1406300,E,2,10,0.9,11.115,M,40.582,M,2.7,0136*74\r\n
$GPGGA,100342.05,5700.9191294,N,00959.1406275,E,2,10,0.9,11.114,M,40.582,M,2.9,0136*73\r\n
$GPGGA,100342.10,5700.9191286,N,00959.1406270,E,2,10,0.9,11.117,M,40.582,M,2.9,0136*72\r\n
$GPGGA,100342.15,5700.9191281,N,00959.1406282,E,2,10,0.9,11.121,M,40.582,M,2.9,0136*78\r\n
$GPGGA,100342.20,5700.9191278,N,00959.1406297,E,2,10,0.9,11.122,M,40.582,M,2.9,0136*7F\r\n
$GPGGA,100342.25,5700.9191275,N,00959.1406299,E,2,10,0.9,11.119,M,40.582,M,3.1,0136*78\r\n
$GPGGA,100342.30,5700.9191272,N,00959.1406303,E,2,10,0.9,11.119,M,40.582,M,3.1,0136*79\r\n
$GPGGA,100342.35,5700.9191271,N,00959.1406310,E,2,10,0.9,11.120,M,40.582,M,3.1,0136*77\r\n
$GPGGA,100342.40,5700.9191275,N,00959.1406319,E,2,10,0.9,11.119,M,40.582,M,3.1,0136*72\r\n
$GPGGA,100342.45,5700.9191262,N,00959.1406341,E,2,10,0.9,11.120,M,40.582,M,3.3,0136*74\r\n
$GPGGA,100342.50,5700.9191268,N,00959.1406345,E,2,10,0.9,11.118,M,40.582,M,3.3,0136*75\r\n
$GPGGA,100342.55,5700.9191276,N,00959.1406353,E,2,10,0.9,11.117,M,40.582,M,3.3,0136*77\r\n
$GPGGA,100342.60,5700.9191288,N,00959.1406356,E,2,10,0.9,11.115,M,40.582,M,3.3,0136*77\r\n
$GPGGA,100342.65,5700.9191315,N,00959.1406331,E,2,10,0.9,11.122,M,40.582,M,3.6,0136*77\r\n
$GPGGA,100342.70,5700.9191326,N,00959.1406338,E,2,10,0.9,11.121,M,40.582,M,3.6,0136*79\r\n
$GPGGA,100342.75,5700.9191338,N,00959.1406346,E,2,10,0.9,11.120,M,40.582,M,3.6,0136*7B\r\n
$GPGGA,100342.80,5700.9191350,N,00959.1406351,E,2,10,0.9,11.118,M,40.582,M,3.6,0136*72\r\n
$GPGGA,100342.85,5700.9191316,N,00959.1406376,E,2,10,0.9,11.121,M,40.582,M,3.8,0136*74\r\n
$GPGGA,100342.90,5700.9191324,N,00959.1406381,E,2,10,0.9,11.120,M,40.582,M,3.8,0136*78\r\n
$GPGGA,100342.95,5700.9191334,N,00959.1406389,E,2,10,0.9,11.118,M,40.582,M,3.8,0136*7F\r\n
$GPGGA,100343.00,5700.9191343,N,00959.1406393,E,2,10,0.9,11.117,M,40.582,M,3.8,0136*76\r\n
$GPGGA,100343.05,5700.9191327,N,00959.1406368,E,2,10,0.9,11.125,M,40.582,M,2.0,0136*7D\r\n
$GPGGA,100343.10,5700.9191334,N,00959.1406371,E,2,10,0.9,11.125,M,40.582,M,2.0,0136*73\r\n
$GPGGA,100343.15,5700.9191340,N,00959.1406375,E,2,10,0.9,11.125,M,40.582,M,2.0,0136*71\r\n
$GPGGA,100343.20,5700.9191344,N,00959.1406374,E,2,10,0.9,11.125,M,40.582,M,2.0,0136*72\r\n
$GPGGA,100343.25,5700.9191325,N,00959.1406369,E,2,10,0.9,11.122,M,40.582,M,2.3,0136*78\r\n
$GPGGA,100343.30,5700.9191328,N,00959.1406369,E,2,10,0.9,11.122,M,40.582,M,2.3,0136*71\r\n
$GPGGA,100343.35,5700.9191330,N,00959.1406371,E,2,10,0.9,11.122,M,40.582,M,2.3,0136*74\r\n
$GPGGA,100343.40,5700.9191330,N,00959.1406374,E,2,10,0.9,11.123,M,40.582,M,2.3,0136*72\r\n
$GPGGA,100343.45,5700.9191322,N,00959.1406388,E,2,10,0.9,11.130,M,40.582,M,2.6,0136*70\r\n
$GPGGA,100343.50,5700.9191324,N,00959.1406391,E,2,10,0.9,11.131,M,40.582,M,2.6,0136*7B\r\n
$GPGGA,100343.55,5700.9191327,N,00959.1406393,E,2,10,0.9,11.132,M,40.582,M,2.6,0136*7C\r\n
$GPGGA,100343.60,5700.9191330,N,00959.1406391,E,2,10,0.9,11.133,M,40.582,M,2.6,0136*7F\r\n
$GPGGA,100343.65,5700.9191351,N,00959.1406389,E,2,10,0.9,11.121,M,40.582,M,2.8,0136*79\r\n
$GPGGA,100343.70,5700.9191355,N,00959.1406388,E,2,10,0.9,11.121,M,40.582,M,2.8,0136*78\r\n
$GPGGA,100343.75,5700.9191355,N,00959.1406383,E,2,10,0.9,11.121,M,40.582,M,2.8,0136*76\r\n
$GPGGA,100343.80,5700.9191352,N,00959.1406376,E,2,10,0.9,11.121,M,40.582,M,2.8,0136*71\r\n
$GPGGA,100343.85,5700.9191345,N,00959.1406337,E,2,10,0.9,11.130,M,40.582,M,3.1,0136*7F\r\n
$GPGGA,100343.90,5700.9191343,N,00959.1406325,E,2,10,0.9,11.131,M,40.582,M,3.1,0136*7F\r\n
$GPGGA,100343.95,5700.9191341,N,00959.1406309,E,2,10,0.9,11.132,M,40.582,M,3.1,0136*75\r\n
$GPGGA,100344.00,5700.9191340,N,00959.1406293,E,2,10,0.9,11.132,M,40.582,M,3.1,0136*7D\r\n
$GPGGA,100344.05,5700.9191316,N,00959.1406240,E,2,10,0.9,11.129,M,40.582,M,1.4,0136*78\r\n
$GPGGA,100344.10,5700.9191315,N,00959.1406230,E,2,10,0.9,11.129,M,40.582,M,1.4,0136*78\r\n
$GPGGA,100344.15,5700.9191314,N,00959.1406222,E,2,10,0.9,11.130,M,40.582,M,1.4,0136*77\r\n
$GPGGA,100344.20,5700.9191311,N,00959.1406217,E,2,10,0.9,11.131,M,40.582,M,1.4,0136*73\r\n
$GPGGA,100344.25,5700.9191320,N,00959.1406307,E,2,10,0.9,11.127,M,40.582,M,1.7,0136*70\r\n
$GPGGA,100344.30,5700.9191319,N,00959.1406311,E,2,10,0.9,11.127,M,40.582,M,1.7,0136*79\r\n
$GPGGA,100344.35,5700.9191316,N,00959.1406320,E,2,10,0.9,11.127,M,40.582,M,1.7,0136*71\r\n
$GPGGA,100344.40,5700.9191313,N,00959.1406332,E,2,10,0.9,11.127,M,40.582,M,1.7,0136*75\r\n
$GPGGA,100344.45,5700.9191316,N,00959.1406387,E,2,10,0.9,11.132,M,40.582,M,1.9,0136*71\r\n
$GPGGA,100344.50,5700.9191317,N,00959.1406406,E,2,10,0.9,11.132,M,40.582,M,1.9,0136*7A\r\n
$GPGGA,100344.55,5700.9191317,N,00959.1406420,E,2,10,0.9,11.132,M,40.582,M,1.9,0136*7B\r\n
$GPGGA,100344.60,5700.9191313,N,00959.1406432,E,2,10,0.9,11.133,M,40.582,M,1.9,0136*7B\r\n
$GPGGA,100344.65,5700.9191323,N,00959.1406434,E,2,10,0.9,11.134,M,40.582,M,2.1,0136*77\r\n
$GPGGA,100344.70,5700.9191323,N,00959.1406453,E,2,10,0.9,11.135,M,40.582,M,2.1,0136*73\r\n
$GPGGA,100344.75,5700.9191323,N,00959.1406465,E,2,10,0.9,11.135,M,40.582,M,2.1,0136*73\r\n
$GPGGA,100344.80,5700.9191322,N,00959.1406476,E,2,10,0.9,11.136,M,40.582,M,2.1,0136*79\r\n
$GPGGA,100344.85,5700.9191306,N,00959.1406451,E,2,10,0.9,11.131,M,40.582,M,1.6,0136*7C\r\n
$GPGGA,100344.90,5700.9191305,N,00959.1406459,E,2,10,0.9,11.131,M,40.582,M,1.6,0136*73\r\n
$GPGGA,100344.95,5700.9191302,N,00959.1406466,E,2,10,0.9,11.131,M,40.582,M,1.6,0136*7D\r\n
$GPGGA,100345.00,5700.9191302,N,00959.1406477,E,2,10,0.9,11.131,M,40.582,M,1.6,0136*70\r\n
$GPGGA,100345.05,5700.9191296,N,00959.1406446,E,2,10,0.9,11.132,M,40.582,M,1.8,0136*76\r\n
$GPGGA,100345.10,5700.9191294,N,00959.1406452,E,2,10,0.9,11.133,M,40.582,M,1.8,0136*74\r\n
$GPGGA,100345.15,5700.9191292,N,00959.1406454,E,2,10,0.9,11.133,M,40.582,M,1.8,0136*71\r\n
$GPGGA,100345.20,5700.9191290,N,00959.1406449,E,2,10,0.9,11.133,M,40.582,M,1.8,0136*79\r\n
$GPGGA,100345.25,5700.9191285,N,00959.1406418,E,2,10,0.9,11.135,M,40.582,M,2.1,0136*70\r\n
$GPGGA,100345.30,5700.9191286,N,00959.1406419,E,2,10,0.9,11.135,M,40.582,M,2.1,0136*76\r\n
$GPGGA,100345.35,5700.9191285,N,00959.1406417,E,2,10,0.9,11.135,M,40.582,M,2.1,0136*7E\r\n
$GPGGA,100345.40,5700.9191284,N,00959.1406409,E,2,10,0.9,11.136,M,40.582,M,2.1,0136*71\r\n
$GPGGA,100345.45,5700.9191294,N,00959.1406409,E,2,10,0.9,11.134,M,40.582,M,2.3,0136*75\r\n
$GPGGA,100345.50,5700.9191297,N,00959.1406401,E,2,10,0.9,11.135,M,40.582,M,2.3,0136*7B\r\n
$GPGGA,100345.55,5700.9191300,N,00959.1406392,E,2,10,0.9,11.135,M,40.582,M,2.3,0136*7C\r\n
$GPGGA,100345.60,5700.9191304,N,00959.1406378,E,2,10,0.9,11.135,M,40.582,M,2.3,0136*7A\r\n
$GPGGA,100345.65,5700.9191314,N,00959.1406358,E,2,10,0.9,11.128,M,40.582,M,2.5,0136*76\r\n
$GPGGA,100345.70,5700.9191318,N,00959.1406345,E,2,10,0.9,11.127,M,40.582,M,2.5,0136*7D\r\n
$GPGGA,100345.75,5700.9191326,N,00959.1406336,E,2,10,0.9,11.126,M,40.582,M,2.5,0136*70\r\n
$GPGGA,100345.80,5700.9191330,N,00959.1406325,E,2,10,0.9,11.125,M,40.582,M,2.5,0136*7C\r\n
$GPGGA,100345.85,5700.9191347,N,00959.1406340,E,2,10,0.9,11.133,M,40.582,M,2.7,0136*7F\r\n
$GPGGA,100345.90,5700.9191355,N,00959.1406329,E,2,10,0.9,11.133,M,40.582,M,2.7,0136*77\r\n
$GPGGA,100345.95,5700.9191365,N,00959.1406321,E,2,10,0.9,11.133,M,40.582,M,2.7,0136*79\r\n
$GPGGA,100346.00,5700.9191377,N,00959.1406308,E,2,10,0.9,11.133,M,40.582,M,2.7,0136*7E\r\n
$GPGGA,100346.05,5700.9191380,N,00959.1406278,E,2,10,0.9,11.125,M,40.582,M,2.9,0136*7C\r\n
$GPGGA,100346.10,5700.9191387,N,00959.1406282,E,2,10,0.9,11.126,M,40.582,M,2.9,0136*79\r\n
$GPGGA,100346.15,5700.9191398,N,00959.1406261,E,2,10,0.9,11.125,M,40.582,M,2.9,0136*7C\r\n
$GPGGA,100346.20,5700.9191416,N,00959.1406248,E,2,10,0.9,11.124,M,40.582,M,2.9,0136*71\r\n
$GPGGA,100346.25,5700.9191432,N,00959.1406235,E,2,10,0.9,11.128,M,40.582,M,3.1,0136*7D\r\n
$GPGGA,100346.30,5700.9191446,N,00959.1406220,E,2,10,0.9,11.129,M,40.582,M,3.1,0136*7F\r\n
$GPGGA,100346.35,5700.9191463,N,00959.1406198,E,2,10,0.9,11.130,M,40.582,M,3.1,0136*75\r\n
$GPGGA,100346.40,5700.9191483,N,00959.1406170,E,2,10,0.9,11.132,M,40.582,M,3.1,0136*7D\r\n
$GPGGA,100346.45,5700.9191524,N,00959.1406090,E,2,10,0.9,11.129,M,40.582,M,3.3,0136*73\r\n
$GPGGA,100346.50,5700.9191551,N,00959.1406043,E,2,10,0.9,11.129,M,40.582,M,3.3,0136*7B\r\n
$GPGGA,100346.55,5700.9191578,N,00959.1405990,E,2,10,0.9,11.130,M,40.582,M,3.3,0136*79\r\n
$GPGGA,100346.60,5700.9191609,N,00959.1405935,E,2,10,0.9,11.131,M,40.582,M,3.3,0136*74\r\n
$GPGGA,100346.65,5700.9191637,N,00959.1405876,E,2,10,0.9,11.132,M,40.582,M,3.6,0136*7C\r\n
$GPGGA,100346.70,5700.9191667,N,00959.1405815,E,2,10,0.9,11.132,M,40.582,M,3.6,0136*78\r\n
$GPGGA,100346.75,5700.9191698,N,00959.1405744,E,2,10,0.9,11.132,M,40.582,M,3.6,0136*76\r\n
$GPGGA,100346.80,5700.9191726,N,00959.1405657,E,2,10,0.9,11.131,M,40.582,M,3.6,0136*78\r\n
$GPGGA,100346.85,5700.9191758,N,00959.1405589,E,2,10,0.9,11.132,M,40.582,M,1.7,0136*74\r\n
$GPGGA,100346.90,5700.9191790,N,00959.1405520,E,2,10,0.9,11.131,M,40.582,M,1.7,0136*74\r\n
$GPGGA,100346.95,5700.9191829,N,00959.1405451,E,2,10,0.9,11.129,M,40.582,M,1.7,0136*72\r\n
$GPGGA,100347.00,5700.9191877,N,00959.1405399,E,2,10,0.9,11.130,M,40.582,M,1.7,0136*7F\r\n
$GPGGA,100347.05,5700.9191919,N,00959.1405359,E,2,10,0.9,11.128,M,40.582,M,2.0,0136*72\r\n
$GPGGA,100347.10,5700.9191971,N,00959.1405320,E,2,10,0.9,11.131,M,40.582,M,2.0,0136*7E\r\n
$GPGGA,100347.15,5700.9192030,N,00959.1405259,E,2,10,0.9,11.134,M,40.582,M,2.0,0136*7E\r\n
$GPGGA,100347.20,5700.9192098,N,00959.1405184,E,2,10,0.9,11.134,M,40.582,M,2.0,0136*79\r\n
$GPGGA,100347.25,5700.9192178,N,00959.1405105,E,2,10,0.9,11.139,M,40.582,M,2.3,0136*74\r\n
$GPGGA,100347.30,5700.9192252,N,00959.1405020,E,2,10,0.9,11.139,M,40.582,M,2.3,0136*7D\r\n
$GPGGA,100347.35,5700.9192318,N,00959.1404948,E,2,10,0.9,11.140,M,40.582,M,2.3,0136*7F\r\n
$GPGGA,100347.40,5700.9192384,N,00959.1404893,E,2,10,0.9,11.141,M,40.582,M,2.3,0136*7E\r\n
$GPGGA,100347.45,5700.9192457,N,00959.1404837,E,2,10,0.9,11.138,M,40.582,M,2.6,0136*77\r\n
$GPGGA,100347.50,5700.9192555,N,00959.1404794,E,2,10,0.9,11.141,M,40.582,M,2.6,0136*78\r\n
$GPGGA,100347.55,5700.9192668,N,00959.1404745,E,2,10,0.9,11.141,M,40.582,M,2.6,0136*7C\r\n
$GPGGA,100347.60,5700.9192793,N,00959.1404683,E,2,10,0.9,11.135,M,40.582,M,2.6,0136*77\r\n
$GPGGA,100347.65,5700.9192925,N,00959.1404592,E,2,10,0.9,11.132,M,40.582,M,2.8,0136*7B\r\n
$GPGGA,100347.70,5700.9193045,N,00959.1404503,E,2,10,0.9,11.127,M,40.582,M,2.8,0136*7D\r\n
$GPGGA,100347.75,5700.9193157,N,00959.1404424,E,2,10,0.9,11.126,M,40.582,M,2.8,0136*7F\r\n
$GPGGA,100347.80,5700.9193276,N,00959.1404345,E,2,10,0.9,11.124,M,40.582,M,2.8,0136*77\r\n
$GPGGA,100347.85,5700.9193396,N,00959.1404260,E,2,10,0.9,11.121,M,40.582,M,1.2,0136*77\r\n
$GPGGA,100347.90,5700.9193537,N,00959.1404129,E,2,10,0.9,11.110,M,40.582,M,1.2,0136*72\r\n
$GPGGA,100347.95,5700.9193665,N,00959.1403997,E,2,10,0.9,11.105,M,40.582,M,1.2,0136*7D\r\n
$GPGGA,100348.00,5700.9193760,N,00959.1403916,E,2,10,0.9,11.105,M,40.582,M,1.2,0136*73\r\n
$GPGGA,100348.05,5700.9193822,N,00959.1403829,E,2,10,0.9,11.102,M,40.582,M,1.4,0136*73\r\n
$GPGGA,100348.10,5700.9193920,N,00959.1403759,E,2,10,0.9,11.106,M,40.582,M,1.4,0136*78\r\n
$GPGGA,100348.15,5700.9194045,N,00959.1403681,E,2,10,0.9,11.110,M,40.582,M,1.4,0136*73\r\n
$GPGGA,100348.20,5700.9194201,N,00959.1403596,E,2,10,0.9,11.104,M,40.582,M,1.4,0136*77\r\n
$GPGGA,100348.25,5700.9194337,N,00959.1403530,E,2,10,0.9,11.105,M,40.582,M,1.7,0136*78\r\n
$GPGGA,100348.30,5700.9194451,N,00959.1403491,E,2,10,0.9,11.101,M,40.582,M,1.7,0136*75\r\n
$GPGGA,100348.35,5700.9194563,N,00959.1403458,E,2,10,0.9,11.101,M,40.582,M,1.7,0136*75\r\n
$GPGGA,100348.40,5700.9194696,N,00959.1403405,E,2,10,0.9,11.104,M,40.582,M,1.7,0136*73\r\n
$GPGGA,100348.45,5700.9194853,N,00959.1403346,E,2,10,0.9,11.109,M,40.582,M,1.9,0136*72\r\n
$GPGGA,100348.50,5700.9194999,N,00959.1403290,E,2,10,0.9,11.110,M,40.582,M,1.9,0136*73\r\n
$GPGGA,100348.55,5700.9195116,N,00959.1403255,E,2,10,0.9,11.111,M,40.582,M,1.9,0136*70\r\n
$GPGGA,100348.60,5700.9195239,N,00959.1403214,E,2,10,0.9,11.114,M,40.582,M,1.9,0136*78\r\n
$GPGGA,100348.65,5700.9195370,N,00959.1403146,E,2,10,0.9,11.118,M,40.582,M,2.1,0136*72\r\n
$GPGGA,100348.70,5700.9195520,N,00959.1403079,E,2,10,0.9,11.121,M,40.582,M,2.1,0136*72\r\n
$GPGGA,100348.75,5700.9195662,N,00959.1403037,E,2,10,0.9,11.123,M,40.582,M,2.1,0136*7A\r\n
$GPGGA,100348.80,5700.9195813,N,00959.1402998,E,2,10,0.9,11.125,M,40.582,M,2.1,0136*73\r\n
$GPGGA,100348.85,5700.9195985,N,00959.1402953,E,2,10,0.9,11.125,M,40.582,M,1.6,0136*7B\r\n
$GPGGA,100348.90,5700.9196171,N,00959.1402890,E,2,10,0.9,11.122,M,40.582,M,1.6,0136*76\r\n
$GPGGA,100348.95,5700.9196351,N,00959.1402808,E,2,10,0.9,11.120,M,40.582,M,1.6,0136*70\r\n
$GPGGA,100349.00,5700.9196511,N,00959.1402697,E,2,10,0.9,11.119,M,40.582,M,1.6,0136*7D\r\n
$GPGGA,100349.05,5700.9196662,N,00959.1402578,E,2,10,0.9,11.114,M,40.582,M,1.8,0136*7E\r\n
$GPGGA,100349.10,5700.9196831,N,00959.1402520,E,2,10,0.9,11.118,M,40.582,M,1.8,0136*73\r\n
$GPGGA,100349.15,5700.9197009,N,00959.1402490,E,2,10,0.9,11.117,M,40.582,M,1.8,0136*71\r\n
$GPGGA,100349.20,5700.9197195,N,00959.1402427,E,2,10,0.9,11.116,M,40.582,M,1.8,0136*7E\r\n
$GPGGA,100349.25,5700.9197404,N,00959.1402343,E,2,10,0.9,11.119,M,40.582,M,2.1,0136*76\r\n
$GPGGA,100349.30,5700.9197596,N,00959.1402283,E,2,10,0.9,11.120,M,40.582,M,2.1,0136*7F\r\n
$GPGGA,100349.35,5700.9197786,N,00959.1402243,E,2,10,0.9,11.121,M,40.582,M,2.1,0136*74\r\n
$GPGGA,100349.40,5700.9197995,N,00959.1402168,E,2,10,0.9,11.121,M,40.582,M,2.1,0136*70\r\n
$GPGGA,100349.45,5700.9198223,N,00959.1402111,E,2,10,0.9,11.118,M,40.582,M,2.3,0136*7A\r\n
$GPGGA,100349.50,5700.9198441,N,00959.1402086,E,2,10,0.9,11.112,M,40.582,M,2.3,0136*79\r\n
$GPGGA,100349.55,5700.9198648,N,00959.1402032,E,2,10,0.9,11.109,M,40.582,M,2.3,0136*72\r\n
$GPGGA,100349.60,5700.9198856,N,00959.1401976,E,2,10,0.9,11.107,M,40.582,M,2.3,0136*71\r\n
$GPGGA,100349.65,5700.9199057,N,00959.1401973,E,2,10,0.9,11.098,M,40.582,M,2.5,0136*78\r\n
$GPGGA,100349.70,5700.9199262,N,00959.1401963,E,2,10,0.9,11.098,M,40.582,M,2.5,0136*79\r\n
$GPGGA,100349.75,5700.9199463,N,00959.1401923,E,2,10,0.9,11.099,M,40.582,M,2.5,0136*7E\r\n
$GPGGA,100349.80,5700.9199675,N,00959.1401900,E,2,10,0.9,11.102,M,40.582,M,2.5,0136*73\r\n
$GPGGA,100349.85,5700.9199906,N,00959.1401887,E,2,10,0.9,11.115,M,40.582,M,2.7,0136*77\r\n
$GPGGA,100349.90,5700.9200120,N,00959.1401852,E,2,10,0.9,11.114,M,40.582,M,2.7,0136*75\r\n
$GPGGA,100349.95,5700.9200340,N,00959.1401792,E,2,10,0.9,11.111,M,40.582,M,2.7,0136*72\r\n
$GPGGA,100350.00,5700.9200565,N,00959.1401738,E,2,10,0.9,11.109,M,40.582,M,2.7,0136*7E\r\n
$GPGGA,100350.05,5700.9200783,N,00959.1401698,E,2,10,0.9,11.101,M,40.582,M,2.9,0136*7C\r\n
$GPGGA,100350.10,5700.9201007,N,00959.1401708,E,2,10,0.9,11.103,M,40.582,M,2.9,0136*78\r\n
$GPGGA,100350.15,5700.9201233,N,00959.1401705,E,2,10,0.9,11.098,M,40.582,M,2.9,0136*76\r\n
$GPGGA,100350.20,5700.9201454,N,00959.1401684,E,2,10,0.9,11.092,M,40.582,M,2.9,0136*75\r\n
$GPGGA,100350.25,5700.9201680,N,00959.1401685,E,2,10,0.9,11.095,M,40.582,M,3.1,0136*74\r\n
$GPGGA,100350.30,5700.9201927,N,00959.1401675,E,2,10,0.9,11.096,M,40.582,M,3.1,0136*7E\r\n
$GPGGA,100350.35,5700.9202133,N,00959.1401634,E,2,10,0.9,11.096,M,40.582,M,3.1,0136*70\r\n
$GPGGA,100350.40,5700.9202343,N,00959.1401590,E,2,10,0.9,11.097,M,40.582,M,3.1,0136*7B\r\n
$GPGGA,100350.45,5700.9202592,N,00959.1401550,E,2,10,0.9,11.103,M,40.582,M,3.3,0136*76\r\n
$GPGGA,100350.50,5700.9202830,N,00959.1401517,E,2,10,0.9,11.104,M,40.582,M,3.3,0136*73\r\n
$GPGGA,100350.55,5700.9203066,N,00959.1401507,E,2,10,0.9,11.099,M,40.582,M,3.3,0136*78\r\n
$GPGGA,100350.60,5700.9203299,N,00959.1401495,E,2,10,0.9,11.090,M,40.582,M,3.3,0136*7F\r\n
$GPGGA,100350.65,5700.9203534,N,00959.1401448,E,2,10,0.9,11.087,M,40.582,M,3.6,0136*79\r\n
$GPGGA,100350.70,5700.9203785,N,00959.1401419,E,2,10,0.9,11.089,M,40.582,M,3.6,0136*7F\r\n
$GPGGA,100350.75,5700.9204016,N,00959.1401421,E,2,10,0.9,11.084,M,40.582,M,3.6,0136*76\r\n
$GPGGA,100350.80,5700.9204239,N,00959.1401467,E,2,10,0.9,11.084,M,40.582,M,3.6,0136*71\r\n
$GPGGA,100350.85,5700.9204491,N,00959.1401515,E,2,10,0.9,11.088,M,40.582,M,1.7,0136*7B\r\n
$GPGGA,100350.90,5700.9204722,N,00959.1401518,E,2,10,0.9,11.088,M,40.582,M,1.7,0136*79\r\n
$GPGGA,100350.95,5700.9204937,N,00959.1401515,E,2,10,0.9,11.088,M,40.582,M,1.7,0136*7B\r\n
$GPGGA,100351.00,5700.9205176,N,00959.1401528,E,2,10,0.9,11.085,M,40.582,M,1.7,0136*79\r\n
$GPGGA,100351.05,5700.9205436,N,00959.1401497,E,2,10,0.9,11.084,M,40.582,M,2.0,0136*7D\r\n
$GPGGA,100351.10,5700.9205670,N,00959.1401446,E,2,10,0.9,11.086,M,40.582,M,2.0,0136*77\r\n
$GPGGA,100351.15,5700.9205905,N,00959.1401407,E,2,10,0.9,11.085,M,40.582,M,2.0,0136*79\r\n
$GPGGA,100351.20,5700.9206139,N,00959.1401409,E,2,10,0.9,11.088,M,40.582,M,2.0,0136*78\r\n
$GPGGA,100351.25,5700.9206383,N,00959.1401404,E,2,10,0.9,11.095,M,40.582,M,2.3,0136*7C\r\n
$GPGGA,100351.30,5700.9206639,N,00959.1401360,E,2,10,0.9,11.099,M,40.582,M,2.3,0136*75\r\n
$GPGGA,100351.35,5700.9206867,N,00959.1401341,E,2,10,0.9,11.101,M,40.582,M,2.3,0136*76\r\n
$GPGGA,100351.40,5700.9207084,N,00959.1401303,E,2,10,0.9,11.098,M,40.582,M,2.3,0136*77\r\n
$GPGGA,100351.45,5700.9207317,N,00959.1401281,E,2,10,0.9,11.089,M,40.582,M,2.6,0136*75\r\n
$GPGGA,100351.50,5700.9207555,N,00959.1401293,E,2,10,0.9,11.094,M,40.582,M,2.6,0136*7E\r\n
$GPGGA,100351.55,5700.9207793,N,00959.1401269,E,2,10,0.9,11.095,M,40.582,M,2.6,0136*77\r\n
$GPGGA,100351.60,5700.9208036,N,00959.1401240,E,2,10,0.9,11.093,M,40.582,M,2.6,0136*7B\r\n
$GPGGA,100351.65,5700.9208289,N,00959.1401255,E,2,10,0.9,11.093,M,40.582,M,2.8,0136*72\r\n
$GPGGA,100351.70,5700.9208546,N,00959.1401242,E,2,10,0.9,11.085,M,40.582,M,2.8,0136*73\r\n
$GPGGA,100351.75,5700.9208796,N,00959.1401231,E,2,10,0.9,11.081,M,40.582,M,2.8,0136*79\r\n
$GPGGA,100351.80,5700.9209039,N,00959.1401229,E,2,10,0.9,11.082,M,40.582,M,2.8,0136*7A\r\n
$GPGGA,100351.85,5700.9209275,N,00959.1401246,E,2,10,0.9,11.081,M,40.582,M,1.2,0136*76\r\n
$GPGGA,100351.90,5700.9209497,N,00959.1401280,E,2,10,0.9,11.082,M,40.582,M,1.2,0136*71\r\n
$GPGGA,100351.95,5700.9209723,N,00959.1401307,E,2,10,0.9,11.078,M,40.582,M,1.2,0136*73\r\n
$GPGGA,100352.00,5700.9209957,N,00959.1401306,E,2,10,0.9,11.075,M,40.582,M,1.2,0136*7D\r\n
$GPGGA,100352.05,5700.9210197,N,00959.1401282,E,2,10,0.9,11.071,M,40.582,M,1.4,0136*7B\r\n
$GPGGA,100352.10,5700.9210456,N,00959.1401292,E,2,10,0.9,11.073,M,40.582,M,1.4,0136*74\r\n
$GPGGA,100352.15,5700.9210683,N,00959.1401348,E,2,10,0.9,11.075,M,40.582,M,1.4,0136*7B\r\n
$GPGGA,100352.20,5700.9210897,N,00959.1401400,E,2,10,0.9,11.073,M,40.582,M,1.4,0136*7B\r\n
$GPGGA,100352.25,5700.9211145,N,00959.1401416,E,2,10,0.9,11.082,M,40.582,M,1.7,0136*73\r\n
$GPGGA,100352.30,5700.9211377,N,00959.1401409,E,2,10,0.9,11.085,M,40.582,M,1.7,0136*7D\r\n
$GPGGA,100352.35,5700.9211582,N,00959.1401409,E,2,10,0.9,11.088,M,40.582,M,1.7,0136*79\r\n
$GPGGA,100352.40,5700.9211818,N,00959.1401434,E,2,10,0.9,11.086,M,40.582,M,1.7,0136*75\r\n
$GPGGA,100352.45,5700.9212041,N,00959.1401480,E,2,10,0.9,11.082,M,40.582,M,1.9,0136*72\r\n
$GPGGA,100352.50,5700.9212247,N,00959.1401486,E,2,10,0.9,11.085,M,40.582,M,1.9,0136*73\r\n
$GPGGA,100352.55,5700.9212473,N,00959.1401486,E,2,10,0.9,11.088,M,40.582,M,1.9,0136*7A\r\n
$GPGGA,100352.60,5700.9212704,N,00959.1401521,E,2,10,0.9,11.087,M,40.582,M,1.9,0136*7C\r\n
$GPGGA,100352.65,5700.9212935,N,00959.1401587,E,2,10,0.9,11.089,M,40.582,M,2.1,0136*7C\r\n
$GPGGA,100352.70,5700.9213181,N,00959.1401647,E,2,10,0.9,11.083,M,40.582,M,2.1,0136*7B\r\n
$GPGGA,100352.75,5700.9213439,N,00959.1401739,E,2,10,0.9,11.079,M,40.582,M,2.1,0136*75\r\n
$GPGGA,100352.80,5700.9213673,N,00959.1401824,E,2,10,0.9,11.081,M,40.582,M,2.1,0136*77\r\n
$GPGGA,100352.85,5700.9213903,N,00959.1401886,E,2,10,0.9,11.076,M,40.582,M,1.6,0136*7E\r\n
$GPGGA,100352.90,5700.9214110,N,00959.1401963,E,2,10,0.9,11.072,M,40.582,M,1.6,0136*79\r\n
$GPGGA,100352.95,5700.9214338,N,00959.1402020,E,2,10,0.9,11.072,M,40.582,M,1.6,0136*79\r\n
$GPGGA,100353.00,5700.9214576,N,00959.1402037,E,2,10,0.9,11.069,M,40.582,M,1.6,0136*74\r\n
$GPGGA,100353.05,5700.9214773,N,00959.1402017,E,2,10,0.9,11.057,M,40.582,M,1.8,0136*77\r\n
$GPGGA,100353.10,5700.9215000,N,00959.1402007,E,2,10,0.9,11.057,M,40.582,M,1.8,0136*70\r\n
$GPGGA,100353.15,5700.9215230,N,00959.1401953,E,2,10,0.9,11.054,M,40.582,M,1.8,0136*7C\r\n
$GPGGA,100353.20,5700.9215421,N,00959.1401887,E,2,10,0.9,11.057,M,40.582,M,1.8,0136*77\r\n
$GPGGA,100353.25,5700.9215605,N,00959.1401798,E,2,10,0.9,11.064,M,40.582,M,2.1,0136*7D\r\n
$GPGGA,100353.30,5700.9215823,N,00959.1401705,E,2,10,0.9,11.067,M,40.582,M,2.1,0136*74\r\n
$GPGGA,100353.35,5700.9216027,N,00959.1401598,E,2,10,0.9,11.069,M,40.582,M,2.1,0136*76\r\n
$GPGGA,100353.40,5700.9216211,N,00959.1401409,E,2,10,0.9,11.068,M,40.582,M,2.1,0136*7B\r\n
$GPGGA,100353.45,5700.9216405,N,00959.1401166,E,2,10,0.9,11.064,M,40.582,M,2.3,0136*7F\r\n
$GPGGA,100353.50,5700.9216586,N,00959.1400932,E,2,10,0.9,11.068,M,40.582,M,2.3,0136*75\r\n
$GPGGA,100353.55,5700.9216765,N,00959.1400703,E,2,10,0.9,11.070,M,40.582,M,2.3,0136*7A\r\n
$GPGGA,100353.60,5700.9216957,N,00959.1400477,E,2,10,0.9,11.071,M,40.582,M,2.3,0136*72\r\n
$GPGGA,100353.65,5700.9217152,N,00959.1400249,E,2,10,0.9,11.075,M,40.582,M,2.5,0136*72\r\n
$GPGGA,100353.70,5700.9217351,N,00959.1399972,E,2,10,0.9,11.074,M,40.582,M,2.5,0136*72\r\n
$GPGGA,100353.75,5700.9217531,N,00959.1399613,E,2,10,0.9,11.075,M,40.582,M,2.5,0136*7E\r\n
$GPGGA,100353.80,5700.9217681,N,00959.1399264,E,2,10,0.9,11.076,M,40.582,M,2.5,0136*7B\r\n
$GPGGA,100353.85,5700.9217833,N,00959.1398925,E,2,10,0.9,11.071,M,40.582,M,2.7,0136*73\r\n
$GPGGA,100353.90,5700.9217997,N,00959.1398636,E,2,10,0.9,11.073,M,40.582,M,2.7,0136*77\r\n
$GPGGA,100353.95,5700.9218161,N,00959.1398352,E,2,10,0.9,11.076,M,40.582,M,2.7,0136*7E\r\n
$GPGGA,100354.00,5700.9218312,N,00959.1398015,E,2,10,0.9,11.082,M,40.582,M,2.7,0136*78\r\n
$GPGGA,100354.05,5700.9218437,N,00959.1397635,E,2,10,0.9,11.083,M,40.582,M,2.9,0136*79\r\n
$GPGGA,100354.10,5700.9218549,N,00959.1397286,E,2,10,0.9,11.090,M,40.582,M,2.9,0136*7B\r\n
$GPGGA,100354.15,5700.9218658,N,00959.1396905,E,2,10,0.9,11.101,M,40.582,M,2.9,0136*75\r\n
$GPGGA,100354.20,5700.9218779,N,00959.1396482,E,2,10,0.9,11.104,M,40.582,M,2.9,0136*76\r\n
$GPGGA,100354.25,5700.9218907,N,00959.1396093,E,2,10,0.9,11.108,M,40.582,M,3.1,0136*75\r\n
$GPGGA,100354.30,5700.9219047,N,00959.1395700,E,2,10,0.9,11.107,M,40.582,M,3.1,0136*7C\r\n
$GPGGA,100354.35,5700.9219168,N,00959.1395305,E,2,10,0.9,11.107,M,40.582,M,3.1,0136*74\r\n
$GPGGA,100354.40,5700.9219287,N,00959.1394922,E,2,10,0.9,11.107,M,40.582,M,3.1,0136*7A\r\n
$GPGGA,100354.45,5700.9219384,N,00959.1394515,E,2,10,0.9,11.092,M,40.582,M,3.3,0136*7A\r\n
$GPGGA,100354.50,5700.9219481,N,00959.1394048,E,2,10,0.9,11.089,M,40.582,M,3.3,0136*7B\r\n
$GPGGA,100354.55,5700.9219592,N,00959.1393577,E,2,10,0.9,11.083,M,40.582,M,3.3,0136*79\r\n
$GPGGA,100354.60,5700.9219703,N,00959.1393149,E,2,10,0.9,11.079,M,40.582,M,3.3,0136*79\r\n
$GPGGA,100354.65,5700.9219785,N,00959.1392714,E,2,10,0.9,11.082,M,40.582,M,3.6,0136*7C\r\n
$GPGGA,100354.70,5700.9219832,N,00959.1392296,E,2,10,0.9,11.084,M,40.582,M,3.6,0136*72\r\n
$GPGGA,100354.75,5700.9219882,N,00959.1391879,E,2,10,0.9,11.083,M,40.582,M,3.6,0136*73\r\n
$GPGGA,100354.80,5700.9219921,N,00959.1391470,E,2,10,0.9,11.084,M,40.582,M,3.6,0136*73\r\n
$GPGGA,100354.85,5700.9219962,N,00959.1391070,E,2,10,0.9,11.086,M,40.582,M,3.8,0136*79\r\n
$GPGGA,100354.90,5700.9220019,N,00959.1390698,E,2,10,0.9,11.086,M,40.582,M,3.8,0136*73\r\n
$GPGGA,100354.95,5700.9220081,N,00959.1390315,E,2,10,0.9,11.083,M,40.582,M,3.8,0136*72\r\n
$GPGGA,100355.00,5700.9220136,N,00959.1389910,E,2,10,0.9,11.083,M,40.582,M,3.8,0136*75\r\n
$GPGGA,100355.05,5700.9220204,N,00959.1389517,E,2,10,0.9,11.085,M,40.582,M,2.0,0136*76\r\n
$GPGGA,100355.10,5700.9220248,N,00959.1389153,E,2,10,0.9,11.084,M,40.582,M,2.0,0136*7F\r\n
$GPGGA,100355.15,5700.9220276,N,00959.1388777,E,2,10,0.9,11.079,M,40.582,M,2.0,0136*74\r\n
$GPGGA,100355.20,5700.9220314,N,00959.1388423,E,2,10,0.9,11.073,M,40.582,M,2.0,0136*7F\r\n
$GPGGA,100355.25,5700.9220339,N,00959.1388101,E,2,10,0.9,11.066,M,40.582,M,2.3,0136*77\r\n
$GPGGA,100355.30,5700.9220381,N,00959.1387771,E,2,10,0.9,11.071,M,40.582,M,2.3,0136*78\r\n
$GPGGA,100355.35,5700.9220410,N,00959.1387412,E,2,10,0.9,11.070,M,40.582,M,2.3,0136*75\r\n
$GPGGA,100355.40,5700.9220414,N,00959.1387041,E,2,9,0.9,11.064,M,40.582,M,2.3,0136*4C\r\n
$GPGGA,100355.45,5700.9220442,N,00959.1386715,E,2,9,0.9,11.079,M,40.582,M,2.6,0136*44\r\n
$GPGGA,100355.50,5700.9220475,N,00959.1386376,E,2,9,0.9,11.081,M,40.582,M,2.6,0136*42\r\n
$GPGGA,100355.55,5700.9220511,N,00959.1386037,E,2,9,0.9,11.085,M,40.582,M,2.6,0136*46\r\n
$GPGGA,100355.60,5700.9220514,N,00959.1385701,E,2,9,0.9,11.093,M,40.582,M,2.6,0136*43\r\n
$GPGGA,100355.65,5700.9220489,N,00959.1385333,E,2,10,0.9,11.092,M,40.582,M,2.8,0136*71\r\n
$GPGGA,100355.70,5700.9220466,N,00959.1384963,E,2,10,0.9,11.088,M,40.582,M,2.8,0136*71\r\n
$GPGGA,100355.75,5700.9220456,N,00959.1384618,E,2,10,0.9,11.082,M,40.582,M,2.8,0136*7E\r\n
$GPGGA,100355.80,5700.9220444,N,00959.1384259,E,2,10,0.9,11.082,M,40.582,M,2.8,0136*76\r\n
$GPGGA,100355.85,5700.9220406,N,00959.1383858,E,2,10,0.9,11.076,M,40.582,M,3.1,0136*7A\r\n
$GPGGA,100355.90,5700.9220392,N,00959.1383477,E,2,10,0.9,11.078,M,40.582,M,3.1,0136*7B\r\n
$GPGGA,100355.95,5700.9220368,N,00959.1383105,E,2,10,0.9,11.072,M,40.582,M,3.1,0136*71\r\n
$GPGGA,100356.00,5700.9220296,N,00959.1382750,E,2,10,0.9,11.069,M,40.582,M,3.1,0136*73\r\n
$GPGGA,100356.05,5700.9220249,N,00959.1382374,E,2,10,0.9,11.067,M,40.582,M,1.4,0136*7F\r\n
$GPGGA,100356.10,5700.9220237,N,00959.1381995,E,2,10,0.9,11.068,M,40.582,M,1.4,0136*7B\r\n
$GPGGA,100356.15,5700.9220199,N,00959.1381647,E,2,10,0.9,11.071,M,40.582,M,1.4,0136*71\r\n
$GPGGA,100356.20,5700.9220143,N,00959.1381343,E,2,10,0.9,11.069,M,40.582,M,1.4,0136*78\r\n
$GPGGA,100356.25,5700.9220088,N,00959.1381000,E,2,10,0.9,11.065,M,40.582,M,1.7,0136*70\r\n
$GPGGA,100356.30,5700.9220017,N,00959.1380599,E,2,10,0.9,11.062,M,40.582,M,1.7,0136*71\r\n
$GPGGA,100356.35,5700.9219971,N,00959.1380272,E,2,10,0.9,11.062,M,40.582,M,1.7,0136*75\r\n
$GPGGA,100356.40,5700.9219927,N,00959.1379941,E,2,10,0.9,11.065,M,40.582,M,1.7,0136*7E\r\n
$GPGGA,100356.45,5700.9219881,N,00959.1379581,E,2,10,0.9,11.057,M,40.582,M,1.9,0136*79\r\n
$GPGGA,100356.50,5700.9219835,N,00959.1379285,E,2,10,0.9,11.054,M,40.582,M,1.9,0136*72\r\n
$GPGGA,100356.55,5700.9219786,N,00959.1379038,E,2,10,0.9,11.049,M,40.582,M,1.9,0136*78\r\n
$GPGGA,100356.60,5700.9219720,N,00959.1378786,E,2,10,0.9,11.048,M,40.582,M,1.9,0136*70\r\n
$GPGGA,100356.65,5700.9219658,N,00959.1378524,E,2,10,0.9,11.044,M,40.582,M,2.1,0136*76\r\n
$GPGGA,100356.70,5700.9219599,N,00959.1378245,E,2,10,0.9,11.046,M,40.582,M,2.1,0136*7E\r\n
$GPGGA,100356.75,5700.9219540,N,00959.1377948,E,2,10,0.9,11.046,M,40.582,M,2.1,0136*76\r\n
$GPGGA,100356.80,5700.9219465,N,00959.1377678,E,2,10,0.9,11.046,M,40.582,M,2.1,0136*76\r\n
$GPGGA,100356.85,5700.9219401,N,00959.1377445,E,2,10,0.9,11.060,M,40.582,M,2.3,0136*7B\r\n
$GPGGA,100356.90,5700.9219336,N,00959.1377223,E,2,10,0.9,11.064,M,40.582,M,2.3,0136*7E\r\n
$GPGGA,100356.95,5700.9219254,N,00959.1376995,E,2,10,0.9,11.068,M,40.582,M,2.3,0136*75\r\n
$GPGGA,100357.00,5700.9219181,N,00959.1376759,E,2,10,0.9,11.067,M,40.582,M,2.3,0136*72\r\n
$GPGGA,100357.05,5700.9219110,N,00959.1376534,E,2,10,0.9,11.070,M,40.582,M,1.8,0136*78\r\n
$GPGGA,100357.10,5700.9219022,N,00959.1376330,E,2,10,0.9,11.077,M,40.582,M,1.8,0136*79\r\n
$GPGGA,100357.15,5700.9218930,N,00959.1376151,E,2,10,0.9,11.086,M,40.582,M,1.8,0136*7C\r\n
$GPGGA,100357.20,5700.9218834,N,00959.1375970,E,2,10,0.9,11.089,M,40.582,M,1.8,0136*78\r\n
$GPGGA,100357.25,5700.9218736,N,00959.1375774,E,2,10,0.9,11.092,M,40.582,M,2.1,0136*7A\r\n
$GPGGA,100357.30,5700.9218619,N,00959.1375570,E,2,10,0.9,11.093,M,40.582,M,2.1,0136*75\r\n
$GPGGA,100357.35,5700.9218492,N,00959.1375350,E,2,10,0.9,11.094,M,40.582,M,2.1,0136*72\r\n
$GPGGA,100357.40,5700.9218376,N,00959.1375174,E,2,10,0.9,11.095,M,40.582,M,2.1,0136*78\r\n
$GPGGA,100357.45,5700.9218256,N,00959.1375002,E,2,10,0.9,11.090,M,40.582,M,2.3,0136*79\r\n
$GPGGA,100357.50,5700.9218149,N,00959.1374810,E,2,10,0.9,11.091,M,40.582,M,2.3,0136*7B\r\n
$GPGGA,100357.55,5700.9218047,N,00959.1374612,E,2,10,0.9,11.089,M,40.582,M,2.3,0136*74\r\n
$GPGGA,100357.60,5700.9217947,N,00959.1374419,E,2,10,0.9,11.086,M,40.582,M,2.3,0136*72\r\n
$GPGGA,100357.65,5700.9217826,N,00959.1374242,E,2,10,0.9,11.075,M,40.582,M,2.5,0136*73\r\n
$GPGGA,100357.70,5700.9217693,N,00959.1374082,E,2,10,0.9,11.076,M,40.582,M,2.5,0136*7A\r\n
$GPGGA,100357.75,5700.9217562,N,00959.1373909,E,2,10,0.9,11.076,M,40.582,M,2.5,0136*7F\r\n
$GPGGA,100357.80,5700.9217455,N,00959.1373780,E,2,10,0.9,11.071,M,40.582,M,2.5,0136*78\r\n
$GPGGA,100357.85,5700.9217384,N,00959.1373663,E,2,10,0.9,11.083,M,40.582,M,2.7,0136*75\r\n
$GPGGA,100357.90,5700.9217283,N,00959.1373537,E,2,10,0.9,11.081,M,40.582,M,2.7,0136*77\r\n
$GPGGA,100357.95,5700.9217170,N,00959.1373405,E,2,10,0.9,11.085,M,40.582,M,2.7,0136*79\r\n
$GPGGA,100358.00,5700.9217053,N,00959.1373285,E,2,10,0.9,11.090,M,40.582,M,2.7,0136*70\r\n
$GPGGA,100358.05,5700.9216944,N,00959.1373154,E,2,10,0.9,11.084,M,40.582,M,2.9,0136*7F\r\n
$GPGGA,100358.10,5700.9216840,N,00959.1373007,E,2,10,0.9,11.082,M,40.582,M,2.9,0136*7F\r\n
$GPGGA,100358.15,5700.9216713,N,00959.1372860,E,2,10,0.9,11.075,M,40.582,M,2.9,0136*73\r\n
$GPGGA,100358.20,5700.9216588,N,00959.1372743,E,2,10,0.9,11.070,M,40.582,M,2.9,0136*7E\r\n
$GPGGA,100358.25,5700.9216467,N,00959.1372663,E,2,10,0.9,11.068,M,40.582,M,3.1,0136*78\r\n
$GPGGA,100358.30,5700.9216346,N,00959.1372603,E,2,10,0.9,11.072,M,40.582,M,3.1,0136*75\r\n
$GPGGA,100358.35,5700.9216211,N,00959.1372528,E,2,10,0.9,11.076,M,40.582,M,3.1,0136*7D\r\n
$GPGGA,100358.40,5700.9216083,N,00959.1372457,E,2,10,0.9,11.078,M,40.582,M,3.1,0136*71\r\n
$GPGGA,100358.45,5700.9215962,N,00959.1372393,E,2,10,0.9,11.084,M,40.582,M,3.3,0136*7F\r\n
$GPGGA,100358.50,5700.9215839,N,00959.1372329,E,2,10,0.9,11.084,M,40.582,M,3.3,0136*75\r\n
$GPGGA,100358.55,5700.9215712,N,00959.1372254,E,2,10,0.9,11.082,M,40.582,M,3.3,0136*7B\r\n
$GPGGA,100358.60,5700.9215579,N,00959.1372175,E,2,10,0.9,11.081,M,40.582,M,3.3,0136*71\r\n
$GPGGA,100358.65,5700.9215443,N,00959.1372081,E,2,10,0.9,11.080,M,40.582,M,3.6,0136*72\r\n
$GPGGA,100358.70,5700.9215293,N,00959.1372015,E,2,10,0.9,11.082,M,40.582,M,3.6,0136*72\r\n
$GPGGA,100358.75,5700.9215145,N,00959.1371960,E,2,10,0.9,11.083,M,40.582,M,3.6,0136*76\r\n
$GPGGA,100358.80,5700.9215008,N,00959.1371900,E,2,10,0.9,11.079,M,40.582,M,3.6,0136*77\r\n
$GPGGA,100358.85,5700.9214853,N,00959.1371844,E,2,10,0.9,11.069,M,40.582,M,3.8,0136*7B\r\n
$GPGGA,100358.90,5700.9214703,N,00959.1371798,E,2,10,0.9,11.067,M,40.582,M,3.8,0136*75\r\n
$GPGGA,100358.95,5700.9214563,N,00959.1371777,E,2,10,0.9,11.073,M,40.582,M,3.8,0136*70\r\n
$GPGGA,100359.00,5700.9214415,N,00959.1371770,E,2,10,0.9,11.081,M,40.582,M,3.8,0136*77\r\n
$GPGGA,100359.05,5700.9214279,N,00959.1371751,E,2,10,0.9,11.080,M,40.582,M,2.0,0136*75\r\n
$GPGGA,100359.10,5700.9214137,N,00959.1371725,E,2,10,0.9,11.076,M,40.582,M,2.0,0136*72\r\n
$GPGGA,100359.15,5700.9213973,N,00959.1371688,E,2,10,0.9,11.077,M,40.582,M,2.0,0136*7F\r\n
$GPGGA,100359.20,5700.9213786,N,00959.1371652,E,2,10,0.9,11.080,M,40.582,M,2.0,0136*72\r\n
$GPGGA,100359.25,5700.9213618,N,00959.1371597,E,2,10,0.9,11.070,M,40.582,M,2.3,0136*77\r\n
$GPGGA,100359.30,5700.9213474,N,00959.1371553,E,2,10,0.9,11.062,M,40.582,M,2.3,0136*70\r\n
$GPGGA,100359.35,5700.9213308,N,00959.1371533,E,2,10,0.9,11.055,M,40.582,M,2.3,0136*7B\r\n
$GPGGA,100359.40,5700.9213122,N,00959.1371529,E,2,10,0.9,11.052,M,40.582,M,2.3,0136*7F\r\n
$GPGGA,100359.45,5700.9212949,N,00959.1371511,E,2,10,0.9,11.048,M,40.582,M,2.6,0136*7B\r\n
$GPGGA,100359.50,5700.9212800,N,00959.1371509,E,2,10,0.9,11.054,M,40.582,M,2.6,0136*77\r\n
$GPGGA,100359.55,5700.9212632,N,00959.1371539,E,2,10,0.9,11.059,M,40.582,M,2.6,0136*73\r\n
$GPGGA,100359.60,5700.9212456,N,00959.1371573,E,2,10,0.9,11.056,M,40.582,M,2.6,0136*74\r\n
$GPGGA,100359.65,5700.9212301,N,00959.1371577,E,2,10,0.9,11.064,M,40.582,M,2.8,0136*7F\r\n
$GPGGA,100359.70,5700.9212130,N,00959.1371578,E,2,10,0.9,11.061,M,40.582,M,2.8,0136*71\r\n
$GPGGA,100359.75,5700.9211931,N,00959.1371556,E,2,10,0.9,11.059,M,40.582,M,2.8,0136*79\r\n
$GPGGA,100359.80,5700.9211743,N,00959.1371561,E,2,10,0.9,11.054,M,40.582,M,2.8,0136*71\r\n
$GPGGA,100359.85,5700.9211562,N,00959.1371575,E,2,10,0.9,11.038,M,40.582,M,3.1,0136*72\r\n
$GPGGA,100359.90,5700.9211379,N,00959.1371627,E,2,10,0.9,11.034,M,40.582,M,3.1,0136*72\r\n
$GPGGA,100359.95,5700.9211187,N,00959.1371727,E,2,10,0.9,11.034,M,40.582,M,3.1,0136*75\r\n
$GPGGA,100400.00,5700.9211049,N,00959.1371809,E,2,10,0.9,11.037,M,40.582,M,3.1,0136*71\r\n
$GPGGA,100400.05,5700.9210959,N,00959.1371881,E,2,10,0.9,11.048,M,40.582,M,1.4,0136*72\r\n
$GPGGA,100400.10,5700.9210832,N,00959.1371953,E,2,10,0.9,11.051,M,40.582,M,1.4,0136*7C\r\n
$GPGGA,100400.15,5700.9210662,N,00959.1372023,E,2,10,0.9,11.056,M,40.582,M,1.4,0136*78\r\n
$GPGGA,100400.20,5700.9210488,N,00959.1372080,E,2,10,0.9,11.059,M,40.582,M,1.4,0136*7E\r\n
$GPGGA,100400.25,5700.9210335,N,00959.1372145,E,2,10,0.9,11.059,M,40.582,M,1.7,0136*71\r\n
$GPGGA,100400.30,5700.9210183,N,00959.1372232,E,2,10,0.9,11.055,M,40.582,M,1.7,0136*75\r\n
$GPGGA,100400.35,5700.9210008,N,00959.1372334,E,2,10,0.9,11.051,M,40.582,M,1.7,0136*71\r\n
$GPGGA,100400.40,5700.9209838,N,00959.1372442,E,2,10,0.9,11.050,M,40.582,M,1.7,0136*77\r\n
$GPGGA,100400.45,5700.9209684,N,00959.1372533,E,2,10,0.9,11.045,M,40.582,M,1.9,0136*76\r\n
$GPGGA,100400.50,5700.9209533,N,00959.1372598,E,2,10,0.9,11.045,M,40.582,M,1.9,0136*7C\r\n
$GPGGA,100400.55,5700.9209370,N,00959.1372672,E,2,10,0.9,11.043,M,40.582,M,1.9,0136*79\r\n
$GPGGA,100400.60,5700.9209221,N,00959.1372778,E,2,10,0.9,11.044,M,40.582,M,1.9,0136*76\r\n
$GPGGA,100400.65,5700.9209100,N,00959.1372887,E,2,10,0.9,11.049,M,40.582,M,2.1,0136*7A\r\n
$GPGGA,100400.70,5700.9208988,N,00959.1372974,E,2,10,0.9,11.050,M,40.582,M,2.1,0136*72\r\n
$GPGGA,100400.75,5700.9208834,N,00959.1373069,E,2,10,0.9,11.047,M,40.582,M,2.1,0136*73\r\n
$GPGGA,100400.80,5700.9208634,N,00959.1373174,E,2,10,0.9,11.046,M,40.582,M,2.1,0136*7B\r\n
$GPGGA,100400.85,5700.9208443,N,00959.1373255,E,2,10,0.9,11.036,M,40.582,M,2.3,0136*79\r\n
$GPGGA,100400.90,5700.9208286,N,00959.1373357,E,2,10,0.9,11.028,M,40.582,M,2.3,0136*7E\r\n
$GPGGA,100400.95,5700.9208140,N,00959.1373505,E,2,10,0.9,11.027,M,40.582,M,2.3,0136*7C\r\n
$GPGGA,100401.00,5700.9208015,N,00959.1373652,E,2,10,0.9,11.033,M,40.582,M,2.3,0136*74\r\n
$GPGGA,100401.05,5700.9207887,N,00959.1373740,E,2,10,0.9,11.035,M,40.582,M,1.8,0136*71\r\n
$GPGGA,100401.10,5700.9207762,N,00959.1373827,E,2,10,0.9,11.038,M,40.582,M,1.8,0136*72\r\n
$GPGGA,100401.15,5700.9207634,N,00959.1373921,E,2,10,0.9,11.040,M,40.582,M,1.8,0136*7D\r\n
$GPGGA,100401.20,5700.9207506,N,00959.1374033,E,2,10,0.9,11.043,M,40.582,M,1.8,0136*77\r\n
$GPGGA,100401.25,5700.9207377,N,00959.1374150,E,2,10,0.9,11.044,M,40.582,M,2.1,0136*7B\r\n
$GPGGA,100401.30,5700.9207236,N,00959.1374308,E,2,10,0.9,11.048,M,40.582,M,2.1,0136*78\r\n
$GPGGA,100401.35,5700.9207126,N,00959.1374467,E,2,10,0.9,11.051,M,40.582,M,2.1,0136*79\r\n
$GPGGA,100401.40,5700.9207012,N,00959.1374597,E,2,10,0.9,11.051,M,40.582,M,2.1,0136*73\r\n
$GPGGA,100401.45,5700.9206884,N,00959.1374733,E,2,10,0.9,11.056,M,40.582,M,2.3,0136*79\r\n
$GPGGA,100401.50,5700.9206735,N,00959.1374896,E,2,10,0.9,11.059,M,40.582,M,2.3,0136*77\r\n
$GPGGA,100401.55,5700.9206616,N,00959.1375022,E,2,10,0.9,11.060,M,40.582,M,2.3,0136*7E\r\n
$GPGGA,100401.60,5700.9206496,N,00959.1375131,E,2,10,0.9,11.058,M,40.582,M,2.3,0136*7A\r\n
$GPGGA,100401.65,5700.9206351,N,00959.1375267,E,2,10,0.9,11.053,M,40.582,M,2.5,0136*7E\r\n
$GPGGA,100401.70,5700.9206209,N,00959.1375402,E,2,10,0.9,11.054,M,40.582,M,2.5,0136*74\r\n
$GPGGA,100401.75,5700.9206088,N,00959.1375518,E,2,10,0.9,11.054,M,40.582,M,2.5,0136*70\r\n
$GPGGA,100401.80,5700.9205969,N,00959.1375642,E,2,10,0.9,11.053,M,40.582,M,2.5,0136*74\r\n
$GPGGA,100401.85,5700.9205834,N,00959.1375771,E,2,10,0.9,11.049,M,40.582,M,2.7,0136*70\r\n
$GPGGA,100401.90,5700.9205680,N,00959.1375890,E,2,10,0.9,11.043,M,40.582,M,2.7,0136*7F\r\n
$GPGGA,100401.95,5700.9205524,N,00959.1375989,E,2,10,0.9,11.041,M,40.582,M,2.7,0136*7C\r\n
$GPGGA,100402.00,5700.9205355,N,00959.1376117,E,2,10,0.9,11.047,M,40.582,M,2.7,0136*79\r\n
$GPGGA,100402.05,5700.9205201,N,00959.1376209,E,2,10,0.9,11.046,M,40.582,M,2.9,0136*7F\r\n
$GPGGA,100402.10,5700.9205055,N,00959.1376343,E,2,10,0.9,11.041,M,40.582,M,2.9,0136*70\r\n
$GPGGA,100402.15,5700.9204916,N,00959.1376487,E,2,10,0.9,11.037,M,40.582,M,2.9,0136*74\r\n
$GPGGA,100402.20,5700.9204743,N,00959.1376638,E,2,10,0.9,11.033,M,40.582,M,2.9,0136*7E\r\n
$GPGGA,100402.25,5700.9204565,N,00959.1376776,E,2,10,0.9,11.028,M,40.582,M,3.1,0136*75\r\n
$GPGGA,100402.30,5700.9204400,N,00959.1376915,E,2,10,0.9,11.020,M,40.582,M,3.1,0136*70\r\n
$GPGGA,100402.35,5700.9204225,N,00959.1377082,E,2,10,0.9,11.014,M,40.582,M,3.1,0136*75\r\n
$GPGGA,100402.40,5700.9204025,N,00959.1377286,E,2,10,0.9,11.013,M,40.582,M,3.1,0136*74\r\n
$GPGGA,100402.45,5700.9203861,N,00959.1377473,E,2,10,0.9,11.014,M,40.582,M,3.3,0136*77\r\n
$GPGGA,100402.50,5700.9203725,N,00959.1377629,E,2,10,0.9,11.009,M,40.582,M,3.3,0136*7D\r\n
$GPGGA,100402.55,5700.9203571,N,00959.1377784,E,2,10,0.9,11.005,M,40.582,M,3.3,0136*71\r\n
$GPGGA,100402.60,5700.9203408,N,00959.1377953,E,2,10,0.9,11.008,M,40.582,M,3.3,0136*71\r\n
$GPGGA,100402.65,5700.9203298,N,00959.1378078,E,2,10,0.9,11.017,M,40.582,M,3.6,0136*7F\r\n
$GPGGA,100402.70,5700.9203190,N,00959.1378141,E,2,10,0.9,11.021,M,40.582,M,3.6,0136*7E\r\n
$GPGGA,100402.75,5700.9203046,N,00959.1378205,E,2,10,0.9,11.022,M,40.582,M,3.6,0136*71\r\n
$GPGGA,100402.80,5700.9202899,N,00959.1378286,E,2,10,0.9,11.023,M,40.582,M,3.6,0136*7A\r\n
$GPGGA,100402.85,5700.9202757,N,00959.1378365,E,2,10,0.9,11.022,M,40.582,M,3.8,0136*71\r\n
$GPGGA,100402.90,5700.9202623,N,00959.1378437,E,2,10,0.9,11.027,M,40.582,M,3.8,0136*72\r\n
$GPGGA,100402.95,5700.9202478,N,00959.1378499,E,2,10,0.9,11.031,M,40.582,M,3.8,0136*78\r\n
$GPGGA,100403.00,5700.9202315,N,00959.1378552,E,2,10,0.9,11.032,M,40.582,M,3.8,0136*7C\r\n
$GPGGA,100403.05,5700.9202169,N,00959.1378579,E,2,10,0.9,11.039,M,40.582,M,2.0,0136*7B\r\n
$GPGGA,100403.10,5700.9202038,N,00959.1378616,E,2,10,0.9,11.041,M,40.582,M,2.0,0136*7F\r\n
$GPGGA,100403.15,5700.9201903,N,00959.1378673,E,2,10,0.9,11.044,M,40.582,M,2.0,0136*7E\r\n
$GPGGA,100403.20,5700.9201740,N,00959.1378729,E,2,10,0.9,11.044,M,40.582,M,2.0,0136*7F\r\n
$GPGGA,100403.25,5700.9201550,N,00959.1378782,E,2,10,0.9,11.038,M,40.582,M,2.3,0136*70\r\n
$GPGGA,100403.30,5700.9201371,N,00959.1378856,E,2,10,0.9,11.036,M,40.582,M,2.3,0136*79\r\n
$GPGGA,100403.35,5700.9201207,N,00959.1378982,E,2,10,0.9,11.034,M,40.582,M,2.3,0136*76\r\n
$GPGGA,100403.40,5700.9201026,N,00959.1379121,E,2,10,0.9,11.029,M,40.582,M,2.3,0136*79\r\n
$GPGGA,100403.45,5700.9200822,N,00959.1379247,E,2,10,0.9,11.029,M,40.582,M,2.6,0136*77\r\n
$GPGGA,100403.50,5700.9200643,N,00959.1379379,E,2,10,0.9,11.027,M,40.582,M,2.6,0136*78\r\n
$GPGGA,100403.55,5700.9200466,N,00959.1379501,E,2,10,0.9,11.029,M,40.582,M,2.6,0136*7F\r\n
$GPGGA,100403.60,5700.9200285,N,00959.1379574,E,2,10,0.9,11.026,M,40.582,M,2.6,0136*7F\r\n
$GPGGA,100403.65,5700.9200096,N,00959.1379634,E,2,10,0.9,11.023,M,40.582,M,2.8,0136*76\r\n
$GPGGA,100403.70,5700.9199902,N,00959.1379724,E,2,10,0.9,11.024,M,40.582,M,2.8,0136*72\r\n
$GPGGA,100403.75,5700.9199732,N,00959.1379856,E,2,10,0.9,11.027,M,40.582,M,2.8,0136*73\r\n
$GPGGA,100403.80,5700.9199565,N,00959.1379965,E,2,10,0.9,11.029,M,40.582,M,2.8,0136*76\r\n
$GPGGA,100403.85,5700.9199379,N,00959.1380043,E,2,10,0.9,11.024,M,40.582,M,3.1,0136*76\r\n
$GPGGA,100403.90,5700.9199193,N,00959.1380134,E,2,10,0.9,11.020,M,40.582,M,3.1,0136*71\r\n
$GPGGA,100403.95,5700.9199018,N,00959.1380223,E,2,10,0.9,11.022,M,40.582,M,3.1,0136*71\r\n
$GPGGA,100404.00,5700.9198848,N,00959.1380297,E,2,10,0.9,11.026,M,40.582,M,3.1,0136*7D\r\n
$GPGGA,100404.05,5700.9198701,N,00959.1380346,E,2,10,0.9,11.030,M,40.582,M,1.4,0136*77\r\n
$GPGGA,100404.10,5700.9198543,N,00959.1380429,E,2,10,0.9,11.033,M,40.582,M,1.4,0136*7A\r\n
$GPGGA,100404.15,5700.9198339,N,00959.1380538,E,2,10,0.9,11.040,M,40.582,M,1.4,0136*71\r\n
$GPGGA,100404.20,5700.9198155,N,00959.1380610,E,2,10,0.9,11.045,M,40.582,M,1.4,0136*73\r\n
$GPGGA,100404.25,5700.9197989,N,00959.1380662,E,2,10,0.9,11.045,M,40.582,M,1.7,0136*76\r\n
$GPGGA,100404.30,5700.9197808,N,00959.1380719,E,2,10,0.9,11.041,M,40.582,M,1.7,0136*73\r\n
$GPGGA,100404.35,5700.9197598,N,00959.1380830,E,2,10,0.9,11.045,M,40.582,M,1.7,0136*72\r\n
$GPGGA,100404.40,5700.9197424,N,00959.1380924,E,2,10,0.9,11.048,M,40.582,M,1.7,0136*7F\r\n
$GPGGA,100404.45,5700.9197242,N,00959.1381011,E,2,10,0.9,11.038,M,40.582,M,1.9,0136*7B\r\n
$GPGGA,100404.50,5700.9197041,N,00959.1381120,E,2,10,0.9,11.040,M,40.582,M,1.9,0136*72\r\n
$GPGGA,100404.55,5700.9196858,N,00959.1381209,E,2,10,0.9,11.043,M,40.582,M,1.9,0136*7D\r\n
$GPGGA,100404.60,5700.9196670,N,00959.1381309,E,2,10,0.9,11.041,M,40.582,M,1.9,0136*7C\r\n
$GPGGA,100404.65,5700.9196487,N,00959.1381424,E,2,10,0.9,11.046,M,40.582,M,2.1,0136*77\r\n
$GPGGA,100404.70,5700.9196301,N,00959.1381495,E,2,10,0.9,11.045,M,40.582,M,2.1,0136*73\r\n
$GPGGA,100404.75,5700.9196102,N,00959.1381554,E,2,10,0.9,11.043,M,40.582,M,2.1,0136*7D\r\n
$GPGGA,100404.80,5700.9195911,N,00959.1381628,E,2,10,0.9,11.048,M,40.582,M,2.1,0136*7D\r\n
$GPGGA,100404.85,5700.9195712,N,00959.1381740,E,2,10,0.9,11.047,M,40.582,M,2.3,0136*77\r\n
$GPGGA,100404.90,5700.9195511,N,00959.1381812,E,2,10,0.9,11.048,M,40.582,M,2.3,0136*75\r\n
$GPGGA,100404.95,5700.9195313,N,00959.1381828,E,2,10,0.9,11.046,M,40.582,M,2.3,0136*73\r\n
$GPGGA,100405.00,5700.9195134,N,00959.1381879,E,2,10,0.9,11.046,M,40.582,M,2.3,0136*7D\r\n
$GPGGA,100405.05,5700.9194929,N,00959.1381988,E,2,10,0.9,11.057,M,40.582,M,1.8,0136*7A\r\n
$GPGGA,100405.10,5700.9194717,N,00959.1382035,E,2,10,0.9,11.057,M,40.582,M,1.8,0136*71\r\n
$GPGGA,100405.15,5700.9194512,N,00959.1382021,E,2,10,0.9,11.055,M,40.582,M,1.8,0136*74\r\n
$GPGGA,100405.20,5700.9194293,N,00959.1382052,E,2,10,0.9,11.059,M,40.582,M,1.8,0136*74\r\n
$GPGGA,100405.25,5700.9194096,N,00959.1382084,E,2,10,0.9,11.065,M,40.582,M,2.1,0136*78\r\n
$GPGGA,100405.30,5700.9193891,N,00959.1382098,E,2,10,0.9,11.061,M,40.582,M,2.1,0136*7D\r\n
$GPGGA,100405.35,5700.9193654,N,00959.1382145,E,2,10,0.9,11.059,M,40.582,M,2.1,0136*75\r\n
$GPGGA,100405.40,5700.9193430,N,00959.1382175,E,2,10,0.9,11.057,M,40.582,M,2.1,0136*7A\r\n
$GPGGA,100405.45,5700.9193211,N,00959.1382203,E,2,10,0.9,11.055,M,40.582,M,2.3,0136*78\r\n
$GPGGA,100405.50,5700.9192978,N,00959.1382207,E,2,10,0.9,11.056,M,40.582,M,2.3,0136*7E\r\n
$GPGGA,100405.55,5700.9192745,N,00959.1382207,E,2,10,0.9,11.049,M,40.582,M,2.3,0136*75\r\n
$GPGGA,100405.60,5700.9192520,N,00959.1382271,E,2,10,0.9,11.052,M,40.582,M,2.3,0136*79\r\n
$GPGGA,100405.65,5700.9192291,N,00959.1382320,E,2,10,0.9,11.057,M,40.582,M,2.5,0136*77\r\n
$GPGGA,100405.70,5700.9192064,N,00959.1382336,E,2,10,0.9,11.059,M,40.582,M,2.5,0136*72\r\n
$GPGGA,100405.75,5700.9191844,N,00959.1382385,E,2,10,0.9,11.063,M,40.582,M,2.5,0136*7F\r\n
$GPGGA,100405.80,5700.9191608,N,00959.1382465,E,2,10,0.9,11.064,M,40.582,M,2.5,0136*7D\r\n
$GPGGA,100405.85,5700.9191370,N,00959.1382529,E,2,10,0.9,11.064,M,40.582,M,2.7,0136*79\r\n
$GPGGA,100405.90,5700.9191109,N,00959.1382586,E,2,10,0.9,11.066,M,40.582,M,2.7,0136*76\r\n
$GPGGA,100405.95,5700.9190864,N,00959.1382598,E,2,10,0.9,11.057,M,40.582,M,2.7,0136*7D\r\n
$GPGGA,100406.00,5700.9190640,N,00959.1382650,E,2,10,0.9,11.054,M,40.582,M,2.7,0136*7E\r\n
$GPGGA,100406.05,5700.9190373,N,00959.1382722,E,2,10,0.9,11.047,M,40.582,M,2.9,0136*76\r\n
$GPGGA,100406.10,5700.9190133,N,00959.1382756,E,2,10,0.9,11.050,M,40.582,M,2.9,0136*71\r\n
$GPGGA,100406.15,5700.9189882,N,00959.1382784,E,2,10,0.9,11.058,M,40.582,M,2.9,0136*78\r\n
$GPGGA,100406.20,5700.9189645,N,00959.1382769,E,2,10,0.9,11.056,M,40.582,M,2.9,0136*76\r\n
$GPGGA,100406.25,5700.9189418,N,00959.1382767,E,2,10,0.9,11.060,M,40.582,M,3.1,0136*7B\r\n
$GPGGA,100406.30,5700.9189162,N,00959.1382788,E,2,10,0.9,11.063,M,40.582,M,3.1,0136*75\r\n
$GPGGA,100406.35,5700.9188920,N,00959.1382779,E,2,10,0.9,11.062,M,40.582,M,3.1,0136*70\r\n
$GPGGA,100406.40,5700.9188660,N,00959.1382804,E,2,10,0.9,11.065,M,40.582,M,3.1,0136*7B\r\n
$GPGGA,100406.45,5700.9188398,N,00959.1382791,E,2,10,0.9,11.058,M,40.582,M,3.3,0136*73\r\n
$GPGGA,100406.50,5700.9188133,N,00959.1382804,E,2,10,0.9,11.052,M,40.582,M,3.3,0136*7D\r\n
$GPGGA,100406.55,5700.9187862,N,00959.1382832,E,2,10,0.9,11.053,M,40.582,M,3.3,0136*7E\r\n
$GPGGA,100406.60,5700.9187618,N,00959.1382841,E,2,10,0.9,11.052,M,40.582,M,3.3,0136*7E\r\n
$GPGGA,100406.65,5700.9187362,N,00959.1382844,E,2,10,0.9,11.055,M,40.582,M,3.6,0136*74\r\n
$GPGGA,100406.70,5700.9187112,N,00959.1382813,E,2,10,0.9,11.055,M,40.582,M,3.6,0136*77\r\n
$GPGGA,100406.75,5700.9186865,N,00959.1382817,E,2,10,0.9,11.056,M,40.582,M,3.6,0136*7D\r\n
$GPGGA,100406.80,5700.9186605,N,00959.1382839,E,2,10,0.9,11.057,M,40.582,M,3.6,0136*72\r\n
$GPGGA,100406.85,5700.9186344,N,00959.1382841,E,2,10,0.9,11.060,M,40.582,M,3.8,0136*72\r\n
$GPGGA,100406.90,5700.9186070,N,00959.1382845,E,2,10,0.9,11.059,M,40.582,M,3.8,0136*7C\r\n
$GPGGA,100406.95,5700.9185822,N,00959.1382806,E,2,10,0.9,11.057,M,40.582,M,3.8,0136*7C\r\n
$GPGGA,100407.00,5700.9185554,N,00959.1382761,E,2,10,0.9,11.056,M,40.582,M,3.8,0136*72\r\n
$GPGGA,100407.05,5700.9185289,N,00959.1382730,E,2,10,0.9,11.053,M,40.582,M,2.0,0136*78\r\n
$GPGGA,100407.10,5700.9185036,N,00959.1382706,E,2,10,0.9,11.046,M,40.582,M,2.0,0136*7B\r\n
$GPGGA,100407.15,5700.9184768,N,00959.1382766,E,2,10,0.9,11.051,M,40.582,M,2.0,0136*73\r\n
$GPGGA,100407.20,5700.9184543,N,00959.1382770,E,2,10,0.9,11.057,M,40.582,M,2.0,0136*7F\r\n
$GPGGA,100407.25,5700.9184307,N,00959.1382772,E,2,10,0.9,11.061,M,40.582,M,2.3,0136*78\r\n
$GPGGA,100407.30,5700.9184047,N,00959.1382783,E,2,10,0.9,11.068,M,40.582,M,2.3,0136*7C\r\n
$GPGGA,100407.35,5700.9183810,N,00959.1382760,E,2,10,0.9,11.066,M,40.582,M,2.3,0136*77\r\n
$GPGGA,100407.40,5700.9183538,N,00959.1382769,E,2,10,0.9,11.066,M,40.582,M,2.3,0136*7B\r\n
$GPGGA,100407.45,5700.9183286,N,00959.1382803,E,2,10,0.9,11.056,M,40.582,M,2.6,0136*79\r\n
$GPGGA,100407.50,5700.9183050,N,00959.1382808,E,2,10,0.9,11.053,M,40.582,M,2.6,0136*7A\r\n
$GPGGA,100407.55,5700.9182768,N,00959.1382849,E,2,10,0.9,11.057,M,40.582,M,2.6,0136*73\r\n
$GPGGA,100407.60,5700.9182514,N,00959.1382886,E,2,10,0.9,11.061,M,40.582,M,2.6,0136*7A\r\n
$GPGGA,100407.65,5700.9182243,N,00959.1382931,E,2,10,0.9,11.070,M,40.582,M,2.8,0136*79\r\n
$GPGGA,100407.70,5700.9182007,N,00959.1382925,E,2,10,0.9,11.071,M,40.582,M,2.8,0136*7B\r\n
$GPGGA,100407.75,5700.9181756,N,00959.1382930,E,2,10,0.9,11.064,M,40.582,M,2.8,0136*7E\r\n
$GPGGA,100407.80,5700.9181509,N,00959.1382956,E,2,9,0.9,11.060,M,40.582,M,2.8,0136*40\r\n
$GPGGA,100407.85,5700.9181217,N,00959.1382979,E,2,9,0.9,11.057,M,40.582,M,3.1,0136*4C\r\n
$GPGGA,100407.90,5700.9180952,N,00959.1383021,E,2,9,0.9,11.060,M,40.582,M,3.1,0136*42\r\n
$GPGGA,100407.95,5700.9180681,N,00959.1383053,E,2,9,0.9,11.058,M,40.582,M,3.1,0136*48\r\n
$GPGGA,100408.00,5700.9180400,N,00959.1383060,E,2,9,0.9,11.052,M,40.582,M,3.1,0136*4A\r\n
$GPGGA,100408.05,5700.9180125,N,00959.1383063,E,2,10,0.9,11.057,M,40.582,M,1.4,0136*74\r\n
$GPGGA,100408.10,5700.9179847,N,00959.1383076,E,2,10,0.9,11.060,M,40.582,M,1.4,0136*7B\r\n
$GPGGA,100408.15,5700.9179606,N,00959.1383097,E,2,10,0.9,11.062,M,40.582,M,1.4,0136*78\r\n
$GPGGA,100408.20,5700.9179348,N,00959.1383101,E,2,10,0.9,11.058,M,40.582,M,1.4,0136*76\r\n
$GPGGA,100408.25,5700.9179090,N,00959.1383133,E,2,10,0.9,11.061,M,40.582,M,1.7,0136*7D\r\n
$GPGGA,100408.30,5700.9178813,N,00959.1383188,E,2,10,0.9,11.062,M,40.582,M,1.7,0136*78\r\n
$GPGGA,100408.35,5700.9178549,N,00959.1383213,E,2,9,0.9,11.063,M,40.582,M,1.7,0136*47\r\n
$GPGGA,100408.40,5700.9178280,N,00959.1383234,E,2,9,0.9,11.063,M,40.582,M,1.7,0136*42\r\n
$GPGGA,100408.45,5700.9178006,N,00959.1383237,E,2,9,0.9,11.054,M,40.582,M,1.9,0136*42\r\n
$GPGGA,100408.50,5700.9177722,N,00959.1383312,E,2,9,0.9,11.056,M,40.582,M,1.9,0136*4C\r\n
$GPGGA,100408.55,5700.9177487,N,00959.1383375,E,2,9,0.9,11.056,M,40.582,M,1.9,0136*44\r\n
$GPGGA,100408.60,5700.9177243,N,00959.1383428,E,2,9,0.9,11.059,M,40.582,M,1.9,0136*4C\r\n
$GPGGA,100408.65,5700.9176979,N,00959.1383510,E,2,9,0.9,11.071,M,40.582,M,2.1,0136*41\r\n
$GPGGA,100408.70,5700.9176726,N,00959.1383554,E,2,9,0.9,11.071,M,40.582,M,2.1,0136*41\r\n
$GPGGA,100408.75,5700.9176452,N,00959.1383588,E,2,9,0.9,11.069,M,40.582,M,2.1,0136*4C\r\n
