$GPGGA,094825.60,5703.4530190,N,00952.2401393,E,2,11,0.8,-2.041,M,40.593,M,2.1,0123*64
$GPVTG,246.88,T,-393.02,M,004.499,N,008.333,K,D*0B
$GPGGA,094825.65,5703.4529947,N,00952.2400336,E,2,11,0.8,-2.045,M,40.593,M,2.4,0123*64
$GPVTG,247.12,T,-392.78,M,004.515,N,008.363,K,D*05
$GPGGA,094825.70,5703.4529710,N,00952.2399275,E,2,11,0.8,-2.046,M,40.593,M,2.4,0123*6E
$GPVTG,247.50,T,-392.40,M,004.521,N,008.373,K,D*0E
$GPGGA,094825.75,5703.4529479,N,00952.2398206,E,2,11,0.8,-2.047,M,40.593,M,2.4,0123*63
$GPVTG,248.07,T,-391.83,M,004.531,N,008.391,K,D*02
$GPGGA,094825.80,5703.4529236,N,00952.2397146,E,2,11,0.8,-2.047,M,40.593,M,2.4,0123*6C
$GPVTG,247.86,T,-392.04,M,004.531,N,008.392,K,D*0B
$GPGGA,094825.85,5703.4528989,N,00952.2396079,E,2,11,0.8,-2.045,M,40.593,M,2.6,0123*6B
$GPVTG,247.56,T,-392.34,M,004.550,N,008.427,K,D*0B
$GPGGA,094825.90,5703.4528745,N,00952.2395026,E,2,11,0.8,-2.047,M,40.593,M,2.6,0123*6A
$GPVTG,247.32,T,-392.58,M,004.529,N,008.387,K,D*00
$GPGGA,094825.95,5703.4528513,N,00952.2393981,E,2,11,0.8,-2.046,M,40.593,M,2.6,0123*6D
$GPVTG,247.50,T,-392.40,M,004.485,N,008.306,K,D*03
$GPGGA,094826.00,5703.4528277,N,00952.2392922,E,2,11,0.8,-2.046,M,40.593,M,2.6,0123*6F
$GPVTG,247.65,T,-392.25,M,004.484,N,008.304,K,D*05
$GPGGA,094826.05,5703.4528040,N,00952.2391863,E,2,11,0.8,-2.052,M,40.593,M,2.8,0123*60
$GPVTG,247.53,T,-392.37,M,004.481,N,008.299,K,D*03
$GPGGA,094826.10,5703.4527798,N,00952.2390796,E,2,11,0.8,-2.053,M,40.593,M,2.8,0123*6C
$GPVTG,247.52,T,-392.38,M,004.508,N,008.349,K,D*01
$GPGGA,094826.15,5703.4527562,N,00952.2389742,E,2,11,0.8,-2.052,M,40.593,M,2.8,0123*6E
$GPVTG,247.56,T,-392.34,M,004.496,N,008.326,K,D*06
$GPGGA,094826.20,5703.4527334,N,00952.2388688,E,2,11,0.8,-2.051,M,40.593,M,2.8,0123*68
$GPVTG,247.94,T,-391.96,M,004.477,N,008.292,K,D*02
$GPGGA,094826.25,5703.4527098,N,00952.2387635,E,2,11,0.8,-2.047,M,40.593,M,3.0,0123*6F
$GPVTG,247.86,T,-392.04,M,004.471,N,008.280,K,D*0C
$GPGGA,094826.30,5703.4526868,N,00952.2386585,E,2,11,0.8,-2.047,M,40.593,M,3.0,0123*64
$GPVTG,247.99,T,-391.91,M,004.457,N,008.254,K,D*00
$GPGGA,094826.35,5703.4526651,N,00952.2385515,E,2,11,0.8,-2.044,M,40.593,M,3.0,0123*6C
$GPVTG,248.83,T,-391.07,M,004.470,N,008.278,K,D*00
$GPGGA,094826.40,5703.4526439,N,00952.2384446,E,2,11,0.8,-2.042,M,40.593,M,3.0,0123*62
$GPVTG,249.59,T,-390.31,M,004.471,N,008.280,K,D*04
$GPGGA,094826.45,5703.4526207,N,00952.2383372,E,2,11,0.8,-2.042,M,40.593,M,3.2,0123*69
$GPVTG,249.34,T,-390.56,M,004.507,N,008.347,K,D*04
$GPGGA,094826.50,5703.4525975,N,00952.2382288,E,2,11,0.8,-2.043,M,40.593,M,3.2,0123*64
$GPVTG,249.15,T,-390.75,M,004.549,N,008.425,K,D*0F
$GPGGA,094826.55,5703.4525758,N,00952.2381208,E,2,11,0.8,-2.042,M,40.593,M,3.2,0123*6A
$GPVTG,249.53,T,-390.37,M,004.550,N,008.426,K,D*00
$GPGGA,094826.60,5703.4525544,N,00952.2380121,E,2,11,0.8,-2.045,M,40.593,M,3.2,0123*6D
$GPVTG,249.94,T,-389.96,M,004.557,N,008.440,K,D*0F
$GPGGA,094826.65,5703.4525317,N,00952.2379046,E,2,11,0.8,-2.045,M,40.593,M,3.4,0123*68
$GPVTG,249.60,T,-390.30,M,004.550,N,008.426,K,D*07
$GPGGA,094826.70,5703.4525084,N,00952.2377968,E,2,11,0.8,-2.044,M,40.593,M,3.4,0123*6F
$GPVTG,249.09,T,-390.81,M,004.557,N,008.440,K,D*05
$GPGGA,094826.75,5703.4524857,N,00952.2376897,E,2,11,0.8,-2.046,M,40.593,M,3.4,0123*6F
$GPVTG,248.88,T,-391.02,M,004.540,N,008.408,K,D*0D
$GPGGA,094826.80,5703.4524631,N,00952.2375814,E,2,11,0.8,-2.047,M,40.593,M,3.4,0123*62
$GPVTG,248.88,T,-391.02,M,004.551,N,008.429,K,D*0E
$GPGGA,094826.85,5703.4524395,N,00952.2374727,E,2,11,0.8,-2.050,M,40.593,M,3.6,0123*66
$GPVTG,248.57,T,-391.33,M,004.578,N,008.479,K,D*00
$GPGGA,094826.90,5703.4524162,N,00952.2373646,E,2,11,0.8,-2.050,M,40.593,M,3.6,0123*69
$GPVTG,248.40,T,-391.50,M,004.581,N,008.484,K,D*07
$GPGGA,094826.95,5703.4523930,N,00952.2372561,E,2,11,0.8,-2.051,M,40.593,M,3.6,0123*62
$GPVTG,248.40,T,-391.50,M,004.588,N,008.498,K,D*03
$GPGGA,094827.00,5703.4523698,N,00952.2371484,E,2,11,0.8,-2.049,M,40.593,M,3.6,0123*62
$GPVTG,248.32,T,-391.58,M,004.576,N,008.474,K,D*0D
$GPGGA,094827.05,5703.4523482,N,00952.2370399,E,2,11,0.8,-2.045,M,40.593,M,2.0,0123*6F
$GPVTG,248.77,T,-391.13,M,004.554,N,008.434,K,D*07
$GPGGA,094827.10,5703.4523251,N,00952.2369329,E,2,11,0.8,-2.047,M,40.593,M,2.0,0123*62
$GPVTG,248.60,T,-391.30,M,004.535,N,008.398,K,D*06
$GPGGA,094827.15,5703.4523030,N,00952.2368243,E,2,11,0.8,-2.048,M,40.593,M,2.0,0123*61
$GPVTG,249.03,T,-390.87,M,004.543,N,008.413,K,D*0A
$GPGGA,094827.20,5703.4522810,N,00952.2367147,E,2,11,0.8,-2.047,M,40.593,M,2.0,0123*6B
$GPVTG,249.45,T,-390.45,M,004.568,N,008.459,K,D*01
$GPGGA,094827.25,5703.4522585,N,00952.2366058,E,2,11,0.8,-2.050,M,40.593,M,2.3,0123*64
$GPVTG,249.49,T,-390.41,M,004.577,N,008.476,K,D*0A
$GPGGA,094827.30,5703.4522361,N,00952.2364957,E,2,11,0.8,-2.049,M,40.593,M,2.3,0123*60
$GPVTG,249.63,T,-390.27,M,004.603,N,008.526,K,D*06
$GPGGA,094827.35,5703.4522153,N,00952.2363859,E,2,11,0.8,-2.048,M,40.593,M,2.3,0123*6F
$GPVTG,250.29,T,-389.61,M,004.597,N,008.514,K,D*05
$GPGGA,094827.40,5703.4521945,N,00952.2362758,E,2,11,0.8,-2.047,M,40.593,M,2.3,0123*61
$GPVTG,250.75,T,-389.15,M,004.594,N,008.508,K,D*01
$GPGGA,094827.45,5703.4521733,N,00952.2361663,E,2,11,0.8,-2.049,M,40.593,M,2.5,0123*69
$GPVTG,250.86,T,-389.04,M,004.585,N,008.492,K,D*0F
$GPGGA,094827.50,5703.4521515,N,00952.2360577,E,2,11,0.8,-2.049,M,40.593,M,2.5,0123*6C
$GPVTG,250.52,T,-389.38,M,004.566,N,008.456,K,D*0C
$GPGGA,094827.55,5703.4521303,N,00952.2359491,E,2,11,0.8,-2.050,M,40.593,M,2.5,0123*63
$GPVTG,250.52,T,-389.38,M,004.544,N,008.416,K,D*08
$GPGGA,094827.60,5703.4521098,N,00952.2358393,E,2,11,0.8,-2.050,M,40.593,M,2.5,0123*60
$GPVTG,250.84,T,-389.06,M,004.550,N,008.427,K,D*09
$GPGGA,094827.65,5703.4520889,N,00952.2357285,E,2,11,0.8,-2.050,M,40.593,M,2.8,0123*68
$GPVTG,251.01,T,-388.89,M,004.576,N,008.475,K,D*00
$GPGGA,094827.70,5703.4520682,N,00952.2356186,E,2,11,0.8,-2.052,M,40.593,M,2.8,0123*6A
$GPVTG,251.06,T,-388.84,M,004.577,N,008.477,K,D*09
$GPGGA,094827.75,5703.4520489,N,00952.2355073,E,2,11,0.8,-2.053,M,40.593,M,2.8,0123*6F
$GPVTG,251.77,T,-388.13,M,004.588,N,008.497,K,D*0F
$GPGGA,094827.80,5703.4520298,N,00952.2353973,E,2,11,0.8,-2.050,M,40.593,M,2.8,0123*6F
$GPVTG,252.21,T,-387.69,M,004.567,N,008.458,K,D*0F
$GPGGA,094827.85,5703.4520095,N,00952.2352868,E,2,11,0.8,-2.052,M,40.593,M,3.0,0123*64
$GPVTG,252.09,T,-387.81,M,004.575,N,008.472,K,D*08
$GPGGA,094827.90,5703.4519896,N,00952.2351778,E,2,11,0.8,-2.052,M,40.593,M,3.0,0123*6C
$GPVTG,251.95,T,-387.95,M,004.545,N,008.417,K,D*0B
$GPGGA,094827.95,5703.4519704,N,00952.2350692,E,2,11,0.8,-2.052,M,40.593,M,3.0,0123*69
$GPVTG,252.05,T,-387.85,M,004.511,N,008.354,K,D*01
$GPGGA,094828.00,5703.4519519,N,00952.2349595,E,2,11,0.8,-2.051,M,40.593,M,3.0,0123*6B
$GPVTG,252.51,T,-387.39,M,004.503,N,008.339,K,D*0F
$GPGGA,094828.05,5703.4519335,N,00952.2348487,E,2,11,0.8,-2.045,M,40.593,M,1.6,0123*64
$GPVTG,252.67,T,-387.23,M,004.511,N,008.355,K,D*08
$GPGGA,094828.10,5703.4519135,N,00952.2347391,E,2,11,0.8,-2.046,M,40.593,M,1.6,0123*6E
$GPVTG,252.25,T,-387.65,M,004.521,N,008.373,K,D*0B
$GPGGA,094828.15,5703.4518949,N,00952.2346299,E,2,11,0.8,-2.045,M,40.593,M,1.6,0123*62
$GPVTG,252.46,T,-387.44,M,004.507,N,008.347,K,D*0E
$GPGGA,094828.20,5703.4518759,N,00952.2345189,E,2,11,0.8,-2.043,M,40.593,M,1.6,0123*6C
$GPVTG,252.59,T,-387.31,M,004.539,N,008.405,K,D*0E
$GPGGA,094828.25,5703.4518574,N,00952.2344087,E,2,11,0.8,-2.042,M,40.593,M,1.8,0123*65
$GPVTG,252.84,T,-387.06,M,004.539,N,008.407,K,D*08
$GPGGA,094828.30,5703.4518388,N,00952.2342981,E,2,11,0.8,-2.041,M,40.593,M,1.8,0123*6E
$GPVTG,252.94,T,-386.96,M,004.549,N,008.424,K,D*07
$GPGGA,094828.35,5703.4518199,N,00952.2341882,E,2,11,0.8,-2.041,M,40.593,M,1.8,0123*68
$GPVTG,252.82,T,-387.08,M,004.541,N,008.410,K,D*09
$GPGGA,094828.40,5703.4518005,N,00952.2340788,E,2,11,0.8,-2.043,M,40.593,M,1.8,0123*68
$GPVTG,252.47,T,-387.43,M,004.532,N,008.394,K,D*00
$GPGGA,094828.45,5703.4517821,N,00952.2339678,E,2,11,0.8,-2.044,M,40.593,M,2.1,0123*61
$GPVTG,252.74,T,-387.16,M,004.548,N,008.422,K,D*07
$GPGGA,094828.50,5703.4517634,N,00952.2338567,E,2,11,0.8,-2.045,M,40.593,M,2.1,0123*62
$GPVTG,252.82,T,-387.08,M,004.563,N,008.450,K,D*0D
$GPGGA,094828.55,5703.4517444,N,00952.2337459,E,2,11,0.8,-2.046,M,40.593,M,2.1,0123*62
$GPVTG,252.75,T,-387.15,M,004.568,N,008.460,K,D*01
$GPGGA,094828.60,5703.4517257,N,00952.2336351,E,2,11,0.8,-2.046,M,40.593,M,2.1,0123*6E
$GPVTG,252.77,T,-387.13,M,004.569,N,008.463,K,D*07
$GPGGA,094828.65,5703.4517084,N,00952.2335250,E,2,11,0.8,-2.046,M,40.593,M,2.3,0123*66
$GPVTG,253.33,T,-386.57,M,004.541,N,008.409,K,D*01
$GPGGA,094828.70,5703.4516906,N,00952.2334145,E,2,11,0.8,-2.044,M,40.593,M,2.3,0123*64
$GPVTG,253.50,T,-386.40,M,004.533,N,008.394,K,D*04
$GPGGA,094828.75,5703.4516711,N,00952.2333037,E,2,11,0.8,-2.045,M,40.593,M,2.3,0123*6B
$GPVTG,252.98,T,-386.92,M,004.551,N,008.428,K,D*0A
$GPGGA,094828.80,5703.4516534,N,00952.2331943,E,2,11,0.8,-2.045,M,40.593,M,2.3,0123*6C
$GPVTG,253.17,T,-386.73,M,004.518,N,008.367,K,D*02
$GPGGA,094828.85,5703.4516362,N,00952.2330860,E,2,11,0.8,-2.046,M,40.593,M,2.6,0123*6B
$GPVTG,253.49,T,-386.41,M,004.471,N,008.280,K,D*0E
$GPGGA,094828.90,5703.4516190,N,00952.2329769,E,2,11,0.8,-2.046,M,40.593,M,2.6,0123*6E
$GPVTG,253.73,T,-386.17,M,004.456,N,008.252,K,D*0E
$GPGGA,094828.95,5703.4516002,N,00952.2328670,E,2,11,0.8,-2.044,M,40.593,M,2.6,0123*6B
$GPVTG,253.30,T,-386.60,M,004.478,N,008.293,K,D*08
$GPGGA,094829.00,5703.4515817,N,00952.2327605,E,2,11,0.8,-2.042,M,40.593,M,2.6,0123*62
$GPVTG,252.81,T,-387.09,M,004.428,N,008.201,K,D*03
$GPGGA,094829.05,5703.4515630,N,00952.2326533,E,2,11,0.8,-2.037,M,40.593,M,1.7,0123*6B
$GPVTG,252.29,T,-387.61,M,004.406,N,008.159,K,D*0D
$GPGGA,094829.10,5703.4515457,N,00952.2325456,E,2,11,0.8,-2.034,M,40.593,M,1.7,0123*6E
$GPVTG,252.75,T,-387.15,M,004.396,N,008.141,K,D*00
$GPGGA,094829.15,5703.4515283,N,00952.2324378,E,2,11,0.8,-2.033,M,40.593,M,1.7,0123*69
$GPVTG,253.05,T,-386.85,M,004.399,N,008.146,K,D*06
$GPGGA,094829.20,5703.4515107,N,00952.2323307,E,2,11,0.8,-2.029,M,40.593,M,1.7,0123*64
$GPVTG,253.16,T,-386.74,M,004.389,N,008.129,K,D*02
$GPGGA,094829.25,5703.4514917,N,00952.2322242,E,2,11,0.8,-2.028,M,40.593,M,1.9,0123*67
$GPVTG,252.61,T,-387.29,M,004.389,N,008.129,K,D*0A
$GPGGA,094829.30,5703.4514730,N,00952.2321174,E,2,11,0.8,-2.026,M,40.593,M,1.9,0123*63
$GPVTG,252.36,T,-387.54,M,004.393,N,008.136,K,D*07
$GPGGA,094829.35,5703.4514544,N,00952.2320102,E,2,11,0.8,-2.024,M,40.593,M,1.9,0123*65
$GPVTG,252.26,T,-387.64,M,004.405,N,008.159,K,D*04
$GPGGA,094829.40,5703.4514367,N,00952.2319036,E,2,11,0.8,-2.024,M,40.593,M,1.9,0123*6C
$GPVTG,252.51,T,-387.39,M,004.394,N,008.138,K,D*04
$GPGGA,094829.45,5703.4514185,N,00952.2317976,E,2,11,0.8,-2.024,M,40.593,M,2.1,0123*6F
$GPVTG,252.48,T,-387.42,M,004.378,N,008.108,K,D*01
$GPGGA,094829.50,5703.4513994,N,00952.2316927,E,2,11,0.8,-2.021,M,40.593,M,2.1,0123*64
$GPVTG,252.01,T,-387.89,M,004.357,N,008.069,K,D*00
$GPGGA,094829.55,5703.4513799,N,00952.2315889,E,2,11,0.8,-2.018,M,40.593,M,2.1,0123*6E
$GPVTG,251.43,T,-388.47,M,004.326,N,008.011,K,D*01
$GPGGA,094829.60,5703.4513607,N,00952.2314825,E,2,11,0.8,-2.016,M,40.593,M,2.1,0123*67
$GPVTG,251.38,T,-388.52,M,004.356,N,008.068,K,D*00
$GPGGA,094829.65,5703.4513419,N,00952.2313777,E,2,11,0.8,-2.014,M,40.593,M,2.4,0123*67
$GPVTG,251.40,T,-388.50,M,004.346,N,008.049,K,D*0F
$GPGGA,094829.70,5703.4513229,N,00952.2312746,E,2,11,0.8,-2.014,M,40.593,M,2.4,0123*65
$GPVTG,251.26,T,-388.64,M,004.306,N,007.975,K,D*05
$GPGGA,094829.75,5703.4513040,N,00952.2311718,E,2,11,0.8,-2.014,M,40.593,M,2.4,0123*65
$GPVTG,251.17,T,-388.73,M,004.275,N,007.917,K,D*00
$GPGGA,094829.80,5703.4512850,N,00952.2310684,E,2,11,0.8,-2.015,M,40.593,M,2.4,0123*63
$GPVTG,251.14,T,-388.76,M,004.271,N,007.909,K,D*0D
$GPGGA,094829.85,5703.4512644,N,00952.2309640,E,2,11,0.8,-2.020,M,40.593,M,2.6,0123*69
$GPVTG,250.62,T,-389.28,M,004.309,N,007.980,K,D*08
$GPGGA,094829.90,5703.4512461,N,00952.2308602,E,2,11,0.8,-2.020,M,40.593,M,2.6,0123*6F
$GPVTG,251.13,T,-388.77,M,004.299,N,007.961,K,D*03
$GPGGA,094829.95,5703.4512268,N,00952.2307582,E,2,11,0.8,-2.018,M,40.593,M,2.6,0123*6A
$GPVTG,250.97,T,-388.93,M,004.268,N,007.904,K,D*09
$GPGGA,094830.00,5703.4512071,N,00952.2306556,E,2,11,0.8,-2.019,M,40.593,M,2.6,0123*6D
$GPVTG,250.73,T,-389.17,M,004.264,N,007.897,K,D*09
$GPGGA,094830.05,5703.4511889,N,00952.2305526,E,2,11,0.8,-2.014,M,40.593,M,2.8,0123*63
$GPVTG,251.08,T,-388.82,M,004.249,N,007.868,K,D*06
$GPGGA,094830.10,5703.4511700,N,00952.2304506,E,2,11,0.8,-2.014,M,40.593,M,2.8,0123*6A
$GPVTG,251.12,T,-388.78,M,004.234,N,007.841,K,D*09
$GPGGA,094830.15,5703.4511497,N,00952.2303493,E,2,11,0.8,-2.015,M,40.593,M,2.8,0123*69
$GPVTG,250.52,T,-389.38,M,004.229,N,007.832,K,D*01
$GPGGA,094830.20,5703.4511299,N,00952.2302485,E,2,11,0.8,-2.017,M,40.593,M,2.8,0123*63
$GPVTG,250.26,T,-389.64,M,004.212,N,007.801,K,D*03
$GPGGA,094830.25,5703.4511100,N,00952.2301472,E,2,11,0.8,-2.018,M,40.593,M,3.0,0123*68
$GPVTG,250.13,T,-389.77,M,004.215,N,007.806,K,D*07
$GPGGA,094830.30,5703.4510904,N,00952.2300451,E,2,11,0.8,-2.021,M,40.593,M,3.0,0123*6B
$GPVTG,250.22,T,-389.68,M,004.231,N,007.835,K,D*0D
$GPGGA,094830.35,5703.4510702,N,00952.2299440,E,2,11,0.8,-2.021,M,40.593,M,3.0,0123*67
$GPVTG,249.97,T,-389.93,M,004.231,N,007.836,K,D*0C
$GPGGA,094830.40,5703.4510510,N,00952.2298430,E,2,11,0.8,-2.023,M,40.593,M,3.0,0123*60
$GPVTG,250.27,T,-389.63,M,004.219,N,007.813,K,D*0D
$GPGGA,094830.45,5703.4510316,N,00952.2297420,E,2,11,0.8,-2.023,M,40.593,M,3.2,0123*69
$GPVTG,250.38,T,-389.52,M,004.211,N,007.798,K,D*05
$GPGGA,094830.50,5703.4510116,N,00952.2296400,E,2,11,0.8,-2.025,M,40.593,M,3.2,0123*6A
$GPVTG,250.31,T,-389.59,M,004.234,N,007.842,K,D*08
$GPGGA,094830.55,5703.4509895,N,00952.2295388,E,2,11,0.8,-2.028,M,40.593,M,3.2,0123*6C
$GPVTG,249.31,T,-390.59,M,004.259,N,007.888,K,D*05
$GPGGA,094830.60,5703.4509682,N,00952.2294385,E,2,11,0.8,-2.032,M,40.593,M,3.2,0123*65
$GPVTG,248.82,T,-391.08,M,004.250,N,007.872,K,D*05
$GPGGA,094830.65,5703.4509475,N,00952.2293387,E,2,11,0.8,-2.036,M,40.593,M,3.4,0123*6D
$GPVTG,248.73,T,-391.17,M,004.228,N,007.830,K,D*0C
$GPGGA,094830.70,5703.4509270,N,00952.2292378,E,2,11,0.8,-2.036,M,40.593,M,3.4,0123*6B
$GPVTG,248.92,T,-390.98,M,004.229,N,007.832,K,D*06
$GPGGA,094830.75,5703.4509062,N,00952.2291390,E,2,11,0.8,-2.038,M,40.593,M,3.4,0123*64
$GPVTG,248.79,T,-391.11,M,004.193,N,007.766,K,D*0F
$GPGGA,094830.80,5703.4508846,N,00952.2290393,E,2,11,0.8,-2.038,M,40.593,M,3.4,0123*63
$GPVTG,248.46,T,-391.44,M,004.199,N,007.777,K,D*09
$GPGGA,094830.85,5703.4508627,N,00952.2289384,E,2,11,0.8,-2.040,M,40.593,M,3.6,0123*6C
$GPVTG,248.22,T,-391.68,M,004.233,N,007.840,K,D*0D
$GPGGA,094830.90,5703.4508411,N,00952.2288377,E,2,11,0.8,-2.041,M,40.593,M,3.6,0123*63
$GPVTG,248.23,T,-391.67,M,004.247,N,007.865,K,D*07
$GPGGA,094830.95,5703.4508197,N,00952.2287377,E,2,11,0.8,-2.041,M,40.593,M,3.6,0123*62
$GPVTG,248.27,T,-391.63,M,004.241,N,007.855,K,D*02
$GPGGA,094831.00,5703.4507975,N,00952.2286371,E,2,11,0.8,-2.044,M,40.593,M,3.6,0123*66
$GPVTG,248.05,T,-391.85,M,004.257,N,007.884,K,D*01
$GPGGA,094831.05,5703.4507755,N,00952.2285364,E,2,11,0.8,-2.047,M,40.593,M,2.0,0123*6C
$GPVTG,247.85,T,-392.05,M,004.259,N,007.888,K,D*0F
$GPGGA,094831.10,5703.4507546,N,00952.2284366,E,2,11,0.8,-2.049,M,40.593,M,2.0,0123*65
$GPVTG,248.27,T,-391.63,M,004.237,N,007.847,K,D*00
$GPGGA,094831.15,5703.4507337,N,00952.2283363,E,2,11,0.8,-2.051,M,40.593,M,2.0,0123*6B
$GPVTG,248.62,T,-391.28,M,004.229,N,007.832,K,D*03
$GPGGA,094831.20,5703.4507117,N,00952.2282351,E,2,11,0.8,-2.053,M,40.593,M,2.0,0123*6F
$GPVTG,248.51,T,-391.39,M,004.256,N,007.882,K,D*00
$GPGGA,094831.25,5703.4506892,N,00952.2281341,E,2,11,0.8,-2.048,M,40.593,M,2.3,0123*64
$GPVTG,248.12,T,-391.78,M,004.275,N,007.918,K,D*01
$GPGGA,094831.30,5703.4506666,N,00952.2280344,E,2,11,0.8,-2.050,M,40.593,M,2.3,0123*68
$GPVTG,247.75,T,-392.15,M,004.264,N,007.898,K,D*0E
$GPGGA,094831.35,5703.4506441,N,00952.2279337,E,2,11,0.8,-2.050,M,40.593,M,2.3,0123*68
$GPVTG,247.63,T,-392.27,M,004.275,N,007.917,K,D*0E
$GPGGA,094831.40,5703.4506225,N,00952.2278317,E,2,11,0.8,-2.048,M,40.593,M,2.3,0123*64
$GPVTG,248.07,T,-391.83,M,004.295,N,007.954,K,D*07
$GPGGA,094831.45,5703.4506009,N,00952.2277307,E,2,11,0.8,-2.052,M,40.593,M,2.5,0123*6E
$GPVTG,248.29,T,-391.61,M,004.289,N,007.943,K,D*0C
$GPGGA,094831.50,5703.4505783,N,00952.2276293,E,2,11,0.8,-2.054,M,40.593,M,2.5,0123*67
$GPVTG,248.09,T,-391.81,M,004.301,N,007.965,K,D*05
$GPGGA,094831.55,5703.4505564,N,00952.2275275,E,2,11,0.8,-2.054,M,40.593,M,2.5,0123*62
$GPVTG,248.27,T,-391.63,M,004.308,N,007.979,K,D*01
$GPGGA,094831.60,5703.4505343,N,00952.2274272,E,2,11,0.8,-2.054,M,40.593,M,2.5,0123*61
$GPVTG,248.15,T,-391.75,M,004.284,N,007.933,K,D*0C
$GPGGA,094831.65,5703.4505109,N,00952.2273264,E,2,11,0.8,-2.052,M,40.593,M,2.8,0123*63
$GPVTG,247.57,T,-392.33,M,004.293,N,007.951,K,D*06
$GPGGA,094831.70,5703.4504866,N,00952.2272264,E,2,11,0.8,-2.054,M,40.593,M,2.8,0123*61
$GPVTG,246.70,T,-393.20,M,004.297,N,007.958,K,D*0C
$GPGGA,094831.75,5703.4504629,N,00952.2271268,E,2,11,0.8,-2.053,M,40.593,M,2.8,0123*69
$GPVTG,246.32,T,-393.58,M,004.285,N,007.936,K,D*0E
$GPGGA,094831.80,5703.4504401,N,00952.2270252,E,2,11,0.8,-2.051,M,40.593,M,2.8,0123*61
$GPVTG,246.69,T,-393.21,M,004.306,N,007.975,K,D*03
$GPGGA,094831.85,5703.4504178,N,00952.2269216,E,2,11,0.8,-2.054,M,40.593,M,3.0,0123*6B
$GPVTG,247.44,T,-392.46,M,004.351,N,008.058,K,D*06
$GPGGA,094831.90,5703.4503953,N,00952.2268199,E,2,11,0.8,-2.052,M,40.593,M,3.0,0123*6A
$GPVTG,247.70,T,-392.20,M,004.345,N,008.047,K,D*0A
$GPGGA,094831.95,5703.4503726,N,00952.2267163,E,2,11,0.8,-2.052,M,40.593,M,3.0,0123*69
$GPVTG,247.98,T,-391.92,M,004.377,N,008.105,K,D*00
$GPGGA,094832.00,5703.4503501,N,00952.2266144,E,2,11,0.8,-2.049,M,40.593,M,3.0,0123*6F
$GPVTG,248.05,T,-391.85,M,004.359,N,008.073,K,D*01
$GPGGA,094832.05,5703.4503276,N,00952.2265107,E,2,11,0.8,-2.047,M,40.593,M,1.6,0123*63
$GPVTG,248.11,T,-391.79,M,004.374,N,008.100,K,D*0D
$GPGGA,094832.10,5703.4503045,N,00952.2264087,E,2,11,0.8,-2.047,M,40.593,M,1.6,0123*6D
$GPVTG,247.85,T,-392.05,M,004.363,N,008.080,K,D*08
$GPGGA,094832.15,5703.4502809,N,00952.2263077,E,2,11,0.8,-2.048,M,40.593,M,1.6,0123*6E
$GPVTG,247.32,T,-392.58,M,004.342,N,008.042,K,D*01
$GPGGA,094832.20,5703.4502572,N,00952.2262062,E,2,11,0.8,-2.048,M,40.593,M,1.6,0123*6C
$GPVTG,247.01,T,-392.89,M,004.338,N,008.034,K,D*01
$GPGGA,094832.25,5703.4502333,N,00952.2261032,E,2,11,0.8,-2.048,M,40.593,M,1.8,0123*62
$GPVTG,246.89,T,-393.01,M,004.369,N,008.092,K,D*09
$GPGGA,094832.30,5703.4502104,N,00952.2259997,E,2,11,0.8,-2.048,M,40.593,M,1.8,0123*6D
$GPVTG,247.23,T,-392.67,M,004.388,N,008.127,K,D*09
$GPGGA,094832.35,5703.4501880,N,00952.2258951,E,2,11,0.8,-2.049,M,40.593,M,1.8,0123*64
$GPVTG,247.87,T,-392.03,M,004.411,N,008.170,K,D*00
$GPGGA,094832.40,5703.4501640,N,00952.2257918,E,2,11,0.8,-2.052,M,40.593,M,1.8,0123*6C
$GPVTG,247.51,T,-392.39,M,004.421,N,008.188,K,D*06
$GPGGA,094832.45,5703.4501399,N,00952.2256878,E,2,11,0.8,-2.045,M,40.593,M,2.1,0123*62
$GPVTG,247.20,T,-392.70,M,004.442,N,008.226,K,D*0F
$GPGGA,094832.50,5703.4501161,N,00952.2255844,E,2,11,0.8,-2.045,M,40.593,M,2.1,0123*6F
$GPVTG,247.09,T,-392.81,M,004.437,N,008.218,K,D*05
$GPGGA,094832.55,5703.4500920,N,00952.2254795,E,2,11,0.8,-2.043,M,40.593,M,2.1,0123*62
$GPVTG,247.09,T,-392.81,M,004.464,N,008.268,K,D*04
$GPGGA,094832.60,5703.4500672,N,00952.2253746,E,2,11,0.8,-2.040,M,40.593,M,2.1,0123*66
$GPVTG,246.80,T,-393.10,M,004.490,N,008.315,K,D*0D
$GPGGA,094832.65,5703.4500431,N,00952.2252705,E,2,11,0.8,-2.039,M,40.593,M,2.3,0123*6C
$GPVTG,246.78,T,-393.12,M,004.480,N,008.298,K,D*0D
$GPGGA,094832.70,5703.4500183,N,00952.2251670,E,2,11,0.8,-2.039,M,40.593,M,2.3,0123*64
$GPVTG,246.44,T,-393.46,M,004.471,N,008.279,K,D*02
$GPGGA,094832.75,5703.4499933,N,00952.2250620,E,2,11,0.8,-2.034,M,40.593,M,2.3,0123*6A
$GPVTG,246.33,T,-393.57,M,004.490,N,008.316,K,D*05
$GPGGA,094832.80,5703.4499680,N,00952.2249580,E,2,11,0.8,-2.030,M,40.593,M,2.3,0123*62
$GPVTG,246.03,T,-393.87,M,004.491,N,008.317,K,D*0B
$GPGGA,094832.85,5703.4499425,N,00952.2248532,E,2,11,0.8,-2.034,M,40.593,M,2.6,0123*63
$GPVTG,245.89,T,-394.01,M,004.506,N,008.345,K,D*0B
$GPGGA,094832.90,5703.4499180,N,00952.2247483,E,2,11,0.8,-2.030,M,40.593,M,2.6,0123*6D
$GPVTG,246.18,T,-393.72,M,004.506,N,008.346,K,D*00
$GPGGA,094832.95,5703.4498929,N,00952.2246421,E,2,11,0.8,-2.027,M,40.593,M,2.6,0123*6D
$GPVTG,246.31,T,-393.59,M,004.535,N,008.399,K,D*00
$GPGGA,094833.00,5703.4498676,N,00952.2245369,E,2,11,0.8,-2.024,M,40.593,M,2.6,0123*6E
$GPVTG,246.22,T,-393.68,M,004.537,N,008.403,K,D*06
$GPGGA,094833.05,5703.4498433,N,00952.2244319,E,2,11,0.8,-2.018,M,40.593,M,1.7,0123*63
$GPVTG,246.29,T,-393.61,M,004.513,N,008.358,K,D*0B
$GPGGA,094833.10,5703.4498176,N,00952.2243272,E,2,11,0.8,-2.015,M,40.593,M,1.7,0123*65
$GPVTG,246.05,T,-393.85,M,004.512,N,008.356,K,D*00
$GPGGA,094833.15,5703.4497922,N,00952.2242217,E,2,11,0.8,-2.013,M,40.593,M,1.7,0123*62
$GPVTG,246.06,T,-393.84,M,004.525,N,008.381,K,D*0C
$GPGGA,094833.20,5703.4497678,N,00952.2241168,E,2,11,0.8,-2.011,M,40.593,M,1.7,0123*6E
$GPVTG,246.37,T,-393.53,M,004.509,N,008.352,K,D*04
$GPGGA,094833.25,5703.4497426,N,00952.2240140,E,2,11,0.8,-2.009,M,40.593,M,1.9,0123*6E
$GPVTG,246.12,T,-393.78,M,004.466,N,008.271,K,D*02
$GPGGA,094833.30,5703.4497168,N,00952.2239086,E,2,11,0.8,-2.005,M,40.593,M,1.9,0123*6C
$GPVTG,245.94,T,-393.96,M,004.498,N,008.330,K,D*0A
$GPGGA,094833.35,5703.4496912,N,00952.2238053,E,2,11,0.8,-2.001,M,40.593,M,1.9,0123*60
$GPVTG,245.71,T,-394.19,M,004.478,N,008.292,K,D*06
$GPGGA,094833.40,5703.4496661,N,00952.2237014,E,2,11,0.8,-1.999,M,40.593,M,1.9,0123*6E
$GPVTG,245.82,T,-394.08,M,004.469,N,008.277,K,D*01
$GPGGA,094833.45,5703.4496411,N,00952.2235972,E,2,11,0.8,-1.994,M,40.593,M,2.1,0123*63
$GPVTG,245.95,T,-393.95,M,004.469,N,008.277,K,D*04
$GPGGA,094833.50,5703.4496162,N,00952.2234935,E,2,11,0.8,-1.989,M,40.593,M,2.1,0123*68
$GPVTG,246.06,T,-393.84,M,004.460,N,008.260,K,D*02
$GPGGA,094833.55,5703.4495918,N,00952.2233883,E,2,11,0.8,-1.987,M,40.593,M,2.1,0123*6E
$GPVTG,246.52,T,-393.38,M,004.475,N,008.288,K,D*06
$GPGGA,094833.60,5703.4495674,N,00952.2232819,E,2,11,0.8,-1.987,M,40.593,M,2.1,0123*6F
$GPVTG,246.95,T,-392.95,M,004.509,N,008.350,K,D*05
$GPGGA,094833.65,5703.4495422,N,00952.2231770,E,2,11,0.8,-1.985,M,40.593,M,2.4,0123*6F
$GPVTG,246.76,T,-393.14,M,004.514,N,008.359,K,D*05
$GPGGA,094833.70,5703.4495158,N,00952.2230728,E,2,11,0.8,-1.981,M,40.593,M,2.4,0123*6B
$GPVTG,246.03,T,-393.87,M,004.518,N,008.367,K,D*0C
$GPGGA,094833.75,5703.4494895,N,00952.2229694,E,2,11,0.8,-1.979,M,40.593,M,2.4,0123*6E
$GPVTG,245.42,T,-394.48,M,004.504,N,008.342,K,D*04
$GPGGA,094833.80,5703.4494629,N,00952.2228661,E,2,11,0.8,-1.980,M,40.593,M,2.4,0123*60
$GPVTG,244.94,T,-394.96,M,004.496,N,008.327,K,D*04
$GPGGA,094833.85,5703.4494380,N,00952.2227618,E,2,11,0.8,-1.979,M,40.593,M,2.6,0123*66
$GPVTG,245.38,T,-394.52,M,004.488,N,008.313,K,D*03
$GPGGA,094833.90,5703.4494125,N,00952.2226568,E,2,11,0.8,-1.981,M,40.593,M,2.6,0123*6D
$GPVTG,245.57,T,-394.33,M,004.504,N,008.341,K,D*0F
$GPGGA,094833.95,5703.4493864,N,00952.2225516,E,2,11,0.8,-1.984,M,40.593,M,2.6,0123*6C
$GPVTG,245.53,T,-394.37,M,004.527,N,008.385,K,D*06
$GPGGA,094834.00,5703.4493598,N,00952.2224473,E,2,11,0.8,-1.986,M,40.593,M,2.6,0123*68
$GPVTG,245.22,T,-394.68,M,004.532,N,008.393,K,D*09
$GPGGA,094834.05,5703.4493337,N,00952.2223416,E,2,11,0.8,-1.987,M,40.593,M,2.8,0123*65
$GPVTG,245.11,T,-394.79,M,004.548,N,008.423,K,D*08
$GPGGA,094834.10,5703.4493066,N,00952.2222361,E,2,11,0.8,-1.988,M,40.593,M,2.8,0123*6F
$GPVTG,244.90,T,-395.00,M,004.572,N,008.468,K,D*09
$GPGGA,094834.15,5703.4492804,N,00952.2221306,E,2,11,0.8,-1.990,M,40.593,M,2.8,0123*6C
$GPVTG,245.08,T,-394.82,M,004.576,N,008.475,K,D*0A
$GPGGA,094834.20,5703.4492538,N,00952.2220252,E,2,11,0.8,-1.993,M,40.593,M,2.8,0123*6A
$GPVTG,245.05,T,-394.85,M,004.580,N,008.482,K,D*01
$GPGGA,094834.25,5703.4492278,N,00952.2219199,E,2,11,0.8,-1.992,M,40.593,M,3.0,0123*6A
$GPVTG,245.27,T,-394.63,M,004.571,N,008.465,K,D*0E
$GPGGA,094834.30,5703.4492023,N,00952.2218156,E,2,11,0.8,-1.993,M,40.593,M,3.0,0123*61
$GPVTG,245.53,T,-394.37,M,004.535,N,008.399,K,D*08
$GPGGA,094834.35,5703.4491771,N,00952.2217119,E,2,11,0.8,-1.993,M,40.593,M,3.0,0123*63
$GPVTG,245.74,T,-394.16,M,004.494,N,008.323,K,D*05
$GPGGA,094834.40,5703.4491508,N,00952.2216075,E,2,11,0.8,-1.993,M,40.593,M,3.0,0123*67
$GPVTG,245.59,T,-394.31,M,004.497,N,008.329,K,D*06
$GPGGA,094834.45,5703.4491245,N,00952.2215032,E,2,11,0.8,-1.997,M,40.593,M,3.2,0123*6A
$GPVTG,245.41,T,-394.49,M,004.500,N,008.335,K,D*02
$GPGGA,094834.50,5703.4490970,N,00952.2213988,E,2,11,0.8,-1.997,M,40.593,M,3.2,0123*6C
$GPVTG,244.87,T,-395.03,M,004.523,N,008.376,K,D*00
$GPGGA,094834.55,5703.4490704,N,00952.2212942,E,2,11,0.8,-1.999,M,40.593,M,3.2,0123*6D
$GPVTG,244.80,T,-395.10,M,004.534,N,008.396,K,D*0D
$GPGGA,094834.60,5703.4490443,N,00952.2211900,E,2,11,0.8,-2.000,M,40.593,M,3.2,0123*64
$GPVTG,244.97,T,-394.93,M,004.522,N,008.375,K,D*0B
$GPGGA,094834.65,5703.4490183,N,00952.2210861,E,2,11,0.8,-1.997,M,40.593,M,3.4,0123*6D
$GPVTG,245.08,T,-394.82,M,004.508,N,008.349,K,D*0B
$GPGGA,094834.70,5703.4489921,N,00952.2209839,E,2,11,0.8,-1.996,M,40.593,M,3.4,0123*65
$GPVTG,244.91,T,-394.99,M,004.470,N,008.279,K,D*0C
$GPGGA,094834.75,5703.4489650,N,00952.2208806,E,2,11,0.8,-1.996,M,40.593,M,3.4,0123*64
$GPVTG,244.58,T,-395.32,M,004.480,N,008.298,K,D*09
$GPGGA,094834.80,5703.4489375,N,00952.2207766,E,2,11,0.8,-1.996,M,40.593,M,3.4,0123*6A
$GPVTG,244.29,T,-395.61,M,004.507,N,008.347,K,D*04
$GPGGA,094834.85,5703.4489103,N,00952.2206739,E,2,11,0.8,-1.997,M,40.593,M,1.7,0123*67
$GPVTG,244.08,T,-395.82,M,004.500,N,008.333,K,D*0E
$GPGGA,094834.90,5703.4488844,N,00952.2205710,E,2,11,0.8,-1.995,M,40.593,M,1.7,0123*62
$GPVTG,244.47,T,-395.43,M,004.479,N,008.296,K,D*09
$GPGGA,094834.95,5703.4488578,N,00952.2204681,E,2,11,0.8,-1.993,M,40.593,M,1.7,0123*6B
$GPVTG,244.51,T,-395.39,M,004.475,N,008.288,K,D*00
$GPGGA,094835.00,5703.4488316,N,00952.2203663,E,2,11,0.8,-1.990,M,40.593,M,1.7,0123*60
$GPVTG,244.55,T,-395.35,M,004.446,N,008.235,K,D*0E
$GPGGA,094835.05,5703.4488065,N,00952.2202630,E,2,11,0.8,-1.987,M,40.593,M,2.0,0123*67
$GPVTG,245.01,T,-394.89,M,004.436,N,008.215,K,D*0D
$GPGGA,094835.10,5703.4487797,N,00952.2201601,E,2,11,0.8,-1.987,M,40.593,M,2.0,0123*67
$GPVTG,244.80,T,-395.10,M,004.453,N,008.247,K,D*00
$GPGGA,094835.15,5703.4487525,N,00952.2200577,E,2,11,0.8,-1.988,M,40.593,M,2.0,0123*65
$GPVTG,244.47,T,-395.43,M,004.460,N,008.260,K,D*08
$GPGGA,094835.20,5703.4487258,N,00952.2199560,E,2,11,0.8,-1.987,M,40.593,M,2.0,0123*64
$GPVTG,244.32,T,-395.58,M,004.450,N,008.241,K,D*00
$GPGGA,094835.25,5703.4486988,N,00952.2198537,E,2,11,0.8,-1.996,M,40.593,M,2.3,0123*66
$GPVTG,244.23,T,-395.67,M,004.456,N,008.252,K,D*08
$GPGGA,094835.30,5703.4486722,N,00952.2197517,E,2,11,0.8,-1.999,M,40.593,M,2.3,0123*6E
$GPVTG,244.26,T,-395.64,M,004.451,N,008.244,K,D*0E
$GPGGA,094835.35,5703.4486452,N,00952.2196501,E,2,11,0.8,-1.999,M,40.593,M,2.3,0123*69
$GPVTG,244.08,T,-395.82,M,004.444,N,008.231,K,D*0C
$GPGGA,094835.40,5703.4486181,N,00952.2195491,E,2,11,0.8,-1.999,M,40.593,M,2.3,0123*6B
$GPVTG,243.90,T,-396.00,M,004.432,N,008.207,K,D*07
$GPGGA,094835.45,5703.4485920,N,00952.2194481,E,2,11,0.8,-2.001,M,40.593,M,2.5,0123*63
$GPVTG,244.13,T,-395.77,M,004.410,N,008.167,K,D*0D
$GPGGA,094835.50,5703.4485652,N,00952.2193474,E,2,11,0.8,-2.004,M,40.593,M,2.5,0123*65
$GPVTG,244.04,T,-395.86,M,004.402,N,008.152,K,D*00
$GPGGA,094835.55,5703.4485385,N,00952.2192469,E,2,11,0.8,-2.006,M,40.593,M,2.5,0123*60
$GPVTG,243.97,T,-395.93,M,004.392,N,008.134,K,D*07
$GPGGA,094835.60,5703.4485124,N,00952.2191456,E,2,11,0.8,-2.011,M,40.593,M,2.5,0123*66
$GPVTG,244.28,T,-395.62,M,004.393,N,008.137,K,D*08
$GPGGA,094835.65,5703.4484877,N,00952.2190452,E,2,11,0.8,-2.016,M,40.593,M,2.8,0123*62
$GPVTG,244.98,T,-394.92,M,004.360,N,008.075,K,D*06
$GPGGA,094835.70,5703.4484620,N,00952.2189453,E,2,11,0.8,-2.016,M,40.593,M,2.8,0123*63
$GPVTG,245.00,T,-394.90,M,004.339,N,008.037,K,D*0E
$GPGGA,094835.75,5703.4484355,N,00952.2188455,E,2,11,0.8,-2.016,M,40.593,M,2.8,0123*66
$GPVTG,244.68,T,-395.22,M,004.339,N,008.036,K,D*08
$GPGGA,094835.80,5703.4484096,N,00952.2187465,E,2,11,0.8,-2.018,M,40.593,M,2.8,0123*62
$GPVTG,244.53,T,-395.37,M,004.320,N,008.000,K,D*09
$GPGGA,094835.85,5703.4483842,N,00952.2186467,E,2,11,0.8,-2.013,M,40.593,M,1.3,0123*61
$GPVTG,244.72,T,-395.18,M,004.316,N,007.994,K,D*09
$GPGGA,094835.90,5703.4483582,N,00952.2185477,E,2,11,0.8,-2.014,M,40.593,M,1.3,0123*61
$GPVTG,244.53,T,-395.37,M,004.310,N,007.983,K,D*07
$GPGGA,094835.95,5703.4483333,N,00952.2184491,E,2,11,0.8,-2.014,M,40.593,M,1.3,0123*61
$GPVTG,244.80,T,-395.10,M,004.283,N,007.933,K,D*0C
$GPGGA,094836.00,5703.4483077,N,00952.2183509,E,2,11,0.8,-2.017,M,40.593,M,1.3,0123*69
$GPVTG,244.65,T,-395.25,M,004.271,N,007.910,K,D*0D
$GPGGA,094836.05,5703.4482827,N,00952.2182528,E,2,11,0.8,-2.017,M,40.593,M,1.6,0123*67
$GPVTG,244.55,T,-395.35,M,004.248,N,007.868,K,D*0B
$GPGGA,094836.10,5703.4482585,N,00952.2181547,E,2,11,0.8,-2.017,M,40.593,M,1.6,0123*6C
$GPVTG,245.03,T,-394.87,M,004.233,N,007.839,K,D*09
$GPGGA,094836.15,5703.4482341,N,00952.2180546,E,2,11,0.8,-2.017,M,40.593,M,1.6,0123*67
$GPVTG,245.57,T,-394.33,M,004.264,N,007.897,K,D*01
$GPGGA,094836.20,5703.4482093,N,00952.2179553,E,2,11,0.8,-2.019,M,40.593,M,1.6,0123*61
$GPVTG,245.63,T,-394.27,M,004.278,N,007.922,K,D*01
$GPGGA,094836.25,5703.4481839,N,00952.2178551,E,2,11,0.8,-2.025,M,40.593,M,1.8,0123*6D
$GPVTG,245.55,T,-394.35,M,004.310,N,007.983,K,D*03
$GPGGA,094836.30,5703.4481600,N,00952.2177563,E,2,11,0.8,-2.028,M,40.593,M,1.8,0123*6E
$GPVTG,245.85,T,-394.05,M,004.288,N,007.941,K,D*03
$GPGGA,094836.35,5703.4481362,N,00952.2176574,E,2,11,0.8,-2.026,M,40.593,M,1.8,0123*63
$GPVTG,246.12,T,-393.78,M,004.269,N,007.907,K,D*0E
$GPGGA,094836.40,5703.4481125,N,00952.2175585,E,2,11,0.8,-2.027,M,40.593,M,1.8,0123*6C
$GPVTG,246.30,T,-393.60,M,004.255,N,007.880,K,D*06
$GPGGA,094836.45,5703.4480883,N,00952.2174601,E,2,11,0.8,-2.026,M,40.593,M,2.1,0123*68
$GPVTG,246.13,T,-393.77,M,004.245,N,007.861,K,D*0F
$GPGGA,094836.50,5703.4480647,N,00952.2173614,E,2,11,0.8,-2.029,M,40.593,M,2.1,0123*66
$GPVTG,246.31,T,-393.59,M,004.234,N,007.842,K,D*04
$GPGGA,094836.55,5703.4480418,N,00952.2172619,E,2,11,0.8,-2.032,M,40.593,M,2.1,0123*6D
$GPVTG,246.77,T,-393.13,M,004.237,N,007.847,K,D*0E
$GPGGA,094836.60,5703.4480195,N,00952.2171624,E,2,11,0.8,-2.032,M,40.593,M,2.1,0123*66
$GPVTG,247.33,T,-392.57,M,004.231,N,007.837,K,D*0F
$GPGGA,094836.65,5703.4479960,N,00952.2170629,E,2,11,0.8,-2.037,M,40.593,M,2.3,0123*6C
$GPVTG,247.24,T,-392.66,M,004.243,N,007.858,K,D*07
$GPGGA,094836.70,5703.4479738,N,00952.2169632,E,2,11,0.8,-2.039,M,40.593,M,2.3,0123*67
$GPVTG,247.62,T,-392.28,M,004.238,N,007.849,K,D*03
$GPGGA,094836.75,5703.4479504,N,00952.2168632,E,2,11,0.8,-2.040,M,40.593,M,2.3,0123*60
$GPVTG,247.42,T,-392.48,M,004.256,N,007.883,K,D*09
$GPGGA,094836.80,5703.4479282,N,00952.2167630,E,2,11,0.8,-2.042,M,40.593,M,2.3,0123*6C
$GPVTG,247.70,T,-392.20,M,004.258,N,007.886,K,D*0D
$GPGGA,094836.85,5703.4479073,N,00952.2166616,E,2,11,0.8,-2.041,M,40.593,M,2.6,0123*66
$GPVTG,248.60,T,-391.30,M,004.263,N,007.896,K,D*08
$GPGGA,094836.90,5703.4478858,N,00952.2165602,E,2,11,0.8,-2.044,M,40.593,M,2.6,0123*61
$GPVTG,248.94,T,-390.96,M,004.275,N,007.917,K,D*01
$GPGGA,094836.95,5703.4478642,N,00952.2164595,E,2,11,0.8,-2.046,M,40.593,M,2.6,0123*6F
$GPVTG,248.99,T,-390.91,M,004.268,N,007.904,K,D*05
$GPGGA,094837.00,5703.4478423,N,00952.2163575,E,2,11,0.8,-2.048,M,40.593,M,2.6,0123*60
$GPVTG,248.94,T,-390.96,M,004.291,N,007.947,K,D*0E
$GPGGA,094837.05,5703.4478219,N,00952.2162563,E,2,11,0.8,-2.048,M,40.593,M,1.7,0123*6E
$GPVTG,249.20,T,-390.70,M,004.265,N,007.898,K,D*00
$GPGGA,094837.10,5703.4478017,N,00952.2161543,E,2,11,0.8,-2.049,M,40.593,M,1.7,0123*66
$GPVTG,249.76,T,-390.14,M,004.266,N,007.901,K,D*03
$GPGGA,094837.15,5703.4477799,N,00952.2160531,E,2,11,0.8,-2.049,M,40.593,M,1.7,0123*69
$GPVTG,249.32,T,-390.58,M,004.271,N,007.910,K,D*0D
$GPGGA,094837.20,5703.4477581,N,00952.2159517,E,2,11,0.8,-2.051,M,40.593,M,1.7,0123*63
$GPVTG,249.04,T,-390.86,M,004.277,N,007.922,K,D*0C
$GPGGA,094837.25,5703.4477363,N,00952.2158480,E,2,11,0.8,-2.053,M,40.593,M,1.9,0123*6E
$GPVTG,248.99,T,-390.91,M,004.328,N,008.016,K,D*05
$GPGGA,094837.30,5703.4477149,N,00952.2157450,E,2,11,0.8,-2.053,M,40.593,M,1.9,0123*62
$GPVTG,249.07,T,-390.83,M,004.343,N,008.043,K,D*0D
$GPGGA,094837.35,5703.4476928,N,00952.2156415,E,2,11,0.8,-2.056,M,40.593,M,1.9,0123*6C
$GPVTG,248.91,T,-390.99,M,004.366,N,008.087,K,D*07
$GPGGA,094837.40,5703.4476706,N,00952.2155387,E,2,11,0.8,-2.059,M,40.593,M,1.9,0123*6C
$GPVTG,248.61,T,-391.29,M,004.368,N,008.089,K,D*02
$GPGGA,094837.45,5703.4476485,N,00952.2154355,E,2,11,0.8,-2.063,M,40.593,M,2.1,0123*6D
$GPVTG,248.56,T,-391.34,M,004.373,N,008.099,K,D*01
$GPGGA,094837.50,5703.4476279,N,00952.2153308,E,2,11,0.8,-2.067,M,40.593,M,2.1,0123*67
$GPVTG,249.27,T,-390.63,M,004.385,N,008.121,K,D*0E
$GPGGA,094837.55,5703.4476070,N,00952.2152262,E,2,11,0.8,-2.069,M,40.593,M,2.1,0123*6B
$GPVTG,249.62,T,-390.28,M,004.390,N,008.131,K,D*05
$GPGGA,094837.60,5703.4475859,N,00952.2151214,E,2,11,0.8,-2.072,M,40.593,M,2.1,0123*65
$GPVTG,249.79,T,-390.11,M,004.401,N,008.151,K,D*0C
$GPGGA,094837.65,5703.4475659,N,00952.2150161,E,2,11,0.8,-2.072,M,40.593,M,2.4,0123*6B
$GPVTG,250.36,T,-389.54,M,004.402,N,008.152,K,D*06
$GPGGA,094837.70,5703.4475448,N,00952.2149105,E,2,11,0.8,-2.074,M,40.593,M,2.4,0123*61
$GPVTG,250.31,T,-389.59,M,004.418,N,008.181,K,D*09
$GPGGA,094837.75,5703.4475235,N,00952.2148045,E,2,11,0.8,-2.074,M,40.593,M,2.4,0123*6C
$GPVTG,250.21,T,-389.69,M,004.436,N,008.216,K,D*0A
$GPGGA,094837.80,5703.4475023,N,00952.2147008,E,2,11,0.8,-2.074,M,40.593,M,2.4,0123*65
$GPVTG,249.89,T,-390.01,M,004.400,N,008.150,K,D*02
$GPGGA,094837.85,5703.4474799,N,00952.2145959,E,2,11,0.8,-2.072,M,40.593,M,2.6,0123*6C
$GPVTG,249.32,T,-390.58,M,004.414,N,008.175,K,D*0C
$GPGGA,094837.90,5703.4474568,N,00952.2144914,E,2,11,0.8,-2.071,M,40.593,M,2.6,0123*6F
$GPVTG,248.56,T,-391.34,M,004.423,N,008.192,K,D*09
$GPGGA,094837.95,5703.4474360,N,00952.2143871,E,2,11,0.8,-2.070,M,40.593,M,2.6,0123*60
$GPVTG,248.98,T,-390.92,M,004.398,N,008.145,K,D*0B
$GPGGA,094838.00,5703.4474143,N,00952.2142841,E,2,11,0.8,-2.066,M,40.593,M,2.6,0123*65
$GPVTG,248.82,T,-391.08,M,004.366,N,008.086,K,D*0D
$GPGGA,094838.05,5703.4473928,N,00952.2141793,E,2,11,0.8,-2.061,M,40.593,M,2.8,0123*68
$GPVTG,248.74,T,-391.16,M,004.374,N,008.100,K,D*07
$GPGGA,094838.10,5703.4473709,N,00952.2140736,E,2,11,0.8,-2.057,M,40.593,M,2.8,0123*6A
$GPVTG,248.86,T,-391.04,M,004.408,N,008.163,K,D*00
$GPGGA,094838.15,5703.4473492,N,00952.2139687,E,2,11,0.8,-2.056,M,40.593,M,2.8,0123*6A
$GPVTG,248.99,T,-390.91,M,004.415,N,008.176,K,D*0B
$GPGGA,094838.20,5703.4473263,N,00952.2138641,E,2,11,0.8,-2.054,M,40.593,M,2.8,0123*6D
$GPVTG,248.57,T,-391.33,M,004.427,N,008.199,K,D*00
$GPGGA,094838.25,5703.4473044,N,00952.2137606,E,2,11,0.8,-2.053,M,40.593,M,3.0,0123*6D
$GPVTG,248.60,T,-391.30,M,004.400,N,008.149,K,D*0F
$GPGGA,094838.30,5703.4472832,N,00952.2136575,E,2,11,0.8,-2.051,M,40.593,M,3.0,0123*65
$GPVTG,248.85,T,-391.05,M,004.365,N,008.083,K,D*01
$GPGGA,094838.35,5703.4472606,N,00952.2135539,E,2,11,0.8,-2.046,M,40.593,M,3.0,0123*64
$GPVTG,248.52,T,-391.38,M,004.367,N,008.087,K,D*03
$GPGGA,094838.40,5703.4472386,N,00952.2134502,E,2,11,0.8,-2.042,M,40.593,M,3.0,0123*66
$GPVTG,248.56,T,-391.34,M,004.366,N,008.086,K,D*0B
$GPGGA,094838.45,5703.4472166,N,00952.2133478,E,2,11,0.8,-2.036,M,40.593,M,3.2,0123*65
$GPVTG,248.44,T,-391.46,M,004.342,N,008.042,K,D*03
$GPGGA,094838.50,5703.4471947,N,00952.2132445,E,2,11,0.8,-2.031,M,40.593,M,3.2,0123*61
$GPVTG,248.57,T,-391.33,M,004.344,N,008.046,K,D*01
$GPGGA,094838.55,5703.4471737,N,00952.2131412,E,2,11,0.8,-2.030,M,40.593,M,3.2,0123*6D
$GPVTG,249.00,T,-390.90,M,004.335,N,008.029,K,D*05
$GPGGA,094838.60,5703.4471516,N,00952.2130369,E,2,11,0.8,-2.029,M,40.593,M,3.2,0123*68
$GPVTG,248.98,T,-390.92,M,004.364,N,008.082,K,D*02
$GPGGA,094838.65,5703.4471294,N,00952.2129338,E,2,11,0.8,-2.029,M,40.593,M,3.4,0123*6A
$GPVTG,248.79,T,-391.11,M,004.361,N,008.076,K,D*09
$GPGGA,094838.70,5703.4471074,N,00952.2128316,E,2,11,0.8,-2.027,M,40.593,M,3.4,0123*61
$GPVTG,248.62,T,-391.28,M,004.340,N,008.037,K,D*0F
$GPGGA,094838.75,5703.4470865,N,00952.2127288,E,2,11,0.8,-2.025,M,40.593,M,3.4,0123*66
$GPVTG,249.00,T,-390.90,M,004.325,N,008.010,K,D*0E
$GPGGA,094838.80,5703.4470637,N,00952.2126261,E,2,11,0.8,-2.024,M,40.593,M,3.4,0123*62
$GPVTG,248.50,T,-391.40,M,004.336,N,008.030,K,D*06
$GPGGA,094838.85,5703.4470419,N,00952.2125236,E,2,11,0.8,-2.019,M,40.593,M,3.6,0123*64
$GPVTG,248.51,T,-391.39,M,004.327,N,008.013,K,D*08
$GPGGA,094838.90,5703.4470195,N,00952.2124225,E,2,11,0.8,-2.016,M,40.593,M,3.6,0123*6D
$GPVTG,248.13,T,-391.77,M,004.305,N,007.972,K,D*05
$GPGGA,094838.95,5703.4469973,N,00952.2123211,E,2,11,0.8,-2.015,M,40.593,M,3.6,0123*63
$GPVTG,248.04,T,-391.86,M,004.292,N,007.950,K,D*02
$GPGGA,094839.00,5703.4469741,N,00952.2122197,E,2,11,0.8,-2.013,M,40.593,M,3.6,0123*6B
$GPVTG,247.57,T,-392.33,M,004.302,N,007.967,K,D*0A
$GPGGA,094839.05,5703.4469534,N,00952.2121173,E,2,11,0.8,-2.013,M,40.593,M,2.0,0123*60
$GPVTG,248.27,T,-391.63,M,004.294,N,007.952,K,D*0C
$GPGGA,094839.10,5703.4469314,N,00952.2120156,E,2,11,0.8,-2.011,M,40.593,M,2.0,0123*64
$GPVTG,248.33,T,-391.57,M,004.294,N,007.953,K,D*0F
$GPGGA,094839.15,5703.4469092,N,00952.2119159,E,2,11,0.8,-2.011,M,40.593,M,2.0,0123*69
$GPVTG,248.06,T,-391.84,M,004.261,N,007.892,K,D*01
$GPGGA,094839.20,5703.4468877,N,00952.2118161,E,2,11,0.8,-2.010,M,40.593,M,2.0,0123*66
$GPVTG,248.19,T,-391.71,M,004.230,N,007.835,K,D*0C
$GPGGA,094839.25,5703.4468645,N,00952.2117167,E,2,11,0.8,-2.006,M,40.593,M,2.3,0123*61
$GPVTG,247.52,T,-392.38,M,004.227,N,007.829,K,D*09
$GPGGA,094839.30,5703.4468427,N,00952.2116166,E,2,11,0.8,-2.006,M,40.593,M,2.3,0123*63
$GPVTG,247.73,T,-392.17,M,004.225,N,007.825,K,D*09
$GPGGA,094839.35,5703.4468213,N,00952.2115171,E,2,11,0.8,-2.004,M,40.593,M,2.3,0123*60
$GPVTG,248.03,T,-391.87,M,004.207,N,007.791,K,D*0B
$GPGGA,094839.40,5703.4467993,N,00952.2114187,E,2,11,0.8,-2.003,M,40.593,M,2.3,0123*61
$GPVTG,247.86,T,-392.05,M,004.185,N,007.750,K,D*04
$GPGGA,094839.45,5703.4467772,N,00952.2113194,E,2,11,0.8,-2.000,M,40.593,M,2.5,0123*65
$GPVTG,247.80,T,-392.10,M,004.192,N,007.763,K,D*00
$GPGGA,094839.50,5703.4467552,N,00952.2112205,E,2,11,0.8,-2.002,M,40.593,M,2.5,0123*69
$GPVTG,247.79,T,-392.11,M,004.188,N,007.756,K,D*0A
$GPGGA,094839.55,5703.4467329,N,00952.2111216,E,2,11,0.8,-2.002,M,40.593,M,2.5,0123*67
$GPVTG,247.61,T,-392.29,M,004.193,N,007.766,K,D*01
$GPGGA,094839.60,5703.4467117,N,00952.2110232,E,2,11,0.8,-2.001,M,40.593,M,2.5,0123*6A
$GPVTG,247.97,T,-391.93,M,004.175,N,007.731,K,D*00
$GPGGA,094839.65,5703.4466908,N,00952.2109247,E,2,11,0.8,-2.006,M,40.593,M,2.8,0123*68
$GPVTG,248.26,T,-391.64,M,004.173,N,007.729,K,D*02
$GPGGA,094839.70,5703.4466689,N,00952.2108249,E,2,11,0.8,-2.006,M,40.593,M,2.8,0123*65
$GPVTG,248.25,T,-391.65,M,004.197,N,007.774,K,D*02
$GPGGA,094839.75,5703.4466463,N,00952.2107258,E,2,11,0.8,-2.007,M,40.593,M,2.8,0123*68
$GPVTG,247.87,T,-392.03,M,004.210,N,007.797,K,D*07
$GPGGA,094839.80,5703.4466239,N,00952.2106280,E,2,11,0.8,-2.008,M,40.593,M,2.8,0123*60
$GPVTG,247.56,T,-392.34,M,004.192,N,007.764,K,D*0A
$GPGGA,094839.85,5703.4466025,N,00952.2105312,E,2,11,0.8,-2.005,M,40.593,M,3.0,0123*67
$GPVTG,247.49,T,-392.41,M,004.164,N,007.711,K,D*0D
$GPGGA,094839.90,5703.4465799,N,00952.2104335,E,2,11,0.8,-2.006,M,40.593,M,3.0,0123*67
$GPVTG,247.18,T,-392.72,M,004.163,N,007.709,K,D*07
$GPGGA,094839.95,5703.4465566,N,00952.2103357,E,2,11,0.8,-2.007,M,40.593,M,3.0,0123*62
$GPVTG,246.72,T,-393.18,M,004.173,N,007.728,K,D*05
$GPGGA,094840.00,5703.4465317,N,00952.2102371,E,2,11,0.8,-2.008,M,40.593,M,3.0,0123*6A
$GPVTG,245.82,T,-394.08,M,004.221,N,007.817,K,D*08
$GPGGA,094840.05,5703.4465089,N,00952.2101395,E,2,11,0.8,-2.011,M,40.593,M,1.6,0123*6E
$GPVTG,245.88,T,-394.02,M,004.206,N,007.790,K,D*0D
$GPGGA,094840.10,5703.4464866,N,00952.2100416,E,2,11,0.8,-2.013,M,40.593,M,1.6,0123*6D
$GPVTG,246.34,T,-393.56,M,004.192,N,007.764,K,D*0A
$GPGGA,094840.15,5703.4464637,N,00952.2099428,E,2,11,0.8,-2.016,M,40.593,M,1.6,0123*6B
$GPVTG,246.57,T,-393.33,M,004.210,N,007.797,K,D*09
$GPGGA,094840.20,5703.4464386,N,00952.2098454,E,2,11,0.8,-2.018,M,40.593,M,1.6,0123*66
$GPVTG,245.67,T,-394.23,M,004.222,N,007.819,K,D*07
$GPGGA,094840.25,5703.4464136,N,00952.2097474,E,2,11,0.8,-2.017,M,40.593,M,1.8,0123*66
$GPVTG,245.12,T,-394.78,M,004.243,N,007.857,K,D*06
$GPGGA,094840.30,5703.4463892,N,00952.2096495,E,2,11,0.8,-2.016,M,40.593,M,1.8,0123*6D
$GPVTG,245.05,T,-394.85,M,004.243,N,007.859,K,D*0C
$GPGGA,094840.35,5703.4463655,N,00952.2095519,E,2,11,0.8,-2.017,M,40.593,M,1.8,0123*6A
$GPVTG,245.27,T,-394.63,M,004.231,N,007.836,K,D*08
$GPGGA,094840.40,5703.4463423,N,00952.2094535,E,2,11,0.8,-2.016,M,40.593,M,1.8,0123*65
$GPVTG,245.81,T,-394.09,M,004.227,N,007.828,K,D*00
$GPGGA,094840.45,5703.4463180,N,00952.2093548,E,2,11,0.8,-2.021,M,40.593,M,2.1,0123*6F
$GPVTG,245.78,T,-394.12,M,004.244,N,007.861,K,D*04
$GPGGA,094840.50,5703.4462933,N,00952.2092560,E,2,11,0.8,-2.021,M,40.593,M,2.1,0123*61
$GPVTG,245.57,T,-394.33,M,004.264,N,007.896,K,D*00
$GPGGA,094840.55,5703.4462687,N,00952.2091565,E,2,11,0.8,-2.020,M,40.593,M,2.1,0123*63
$GPVTG,245.57,T,-394.33,M,004.287,N,007.940,K,D*07
$GPGGA,094840.60,5703.4462439,N,00952.2090577,E,2,11,0.8,-2.020,M,40.593,M,2.1,0123*60
$GPVTG,245.41,T,-394.49,M,004.290,N,007.945,K,D*0E
$GPGGA,094840.65,5703.4462190,N,00952.2089595,E,2,11,0.8,-2.021,M,40.593,M,2.3,0123*64
$GPVTG,245.17,T,-394.73,M,004.282,N,007.930,K,D*05
$GPGGA,094840.70,5703.4461937,N,00952.2088599,E,2,11,0.8,-2.021,M,40.593,M,2.3,0123*6B
$GPVTG,245.04,T,-394.86,M,004.305,N,007.973,K,D*04
$GPGGA,094840.75,5703.4461690,N,00952.2087601,E,2,11,0.8,-2.021,M,40.593,M,2.3,0123*61
$GPVTG,245.21,T,-394.69,M,004.316,N,007.994,K,D*09
$GPGGA,094840.80,5703.4461441,N,00952.2086600,E,2,11,0.8,-2.020,M,40.593,M,2.3,0123*64
$GPVTG,245.29,T,-394.61,M,004.328,N,008.016,K,D*08
$GPGGA,094840.85,5703.4461198,N,00952.2085600,E,2,11,0.8,-2.017,M,40.593,M,2.6,0123*62
$GPVTG,245.60,T,-394.30,M,004.326,N,008.013,K,D*0A
$GPGGA,094840.90,5703.4460938,N,00952.2084610,E,2,11,0.8,-2.016,M,40.593,M,2.6,0123*64
$GPVTG,245.00,T,-394.90,M,004.325,N,008.011,K,D*07
$GPGGA,094840.95,5703.4460672,N,00952.2083607,E,2,11,0.8,-2.015,M,40.593,M,2.6,0123*62
$GPVTG,244.49,T,-395.41,M,004.360,N,008.074,K,D*04
$GPGGA,094841.00,5703.4460408,N,00952.2082597,E,2,11,0.8,-2.012,M,40.593,M,2.6,0123*6C
$GPVTG,244.30,T,-395.60,M,004.392,N,008.133,K,D*06
$GPGGA,094841.05,5703.4460161,N,00952.2081597,E,2,11,0.8,-2.007,M,40.593,M,1.7,0123*66
$GPVTG,244.64,T,-395.26,M,004.368,N,008.089,K,D*00
$GPGGA,094841.10,5703.4459903,N,00952.2080615,E,2,11,0.8,-2.005,M,40.593,M,1.7,0123*6E
$GPVTG,244.39,T,-395.52,M,004.330,N,008.019,K,D*0F
$GPGGA,094841.15,5703.4459638,N,00952.2079611,E,2,11,0.8,-2.003,M,40.593,M,1.7,0123*68
$GPVTG,244.17,T,-395.73,M,004.356,N,008.067,K,D*09
$GPGGA,094841.20,5703.4459372,N,00952.2078597,E,2,11,0.8,-2.001,M,40.593,M,1.7,0123*6B
$GPVTG,244.14,T,-395.76,M,004.395,N,008.140,K,D*04
$GPGGA,094841.25,5703.4459109,N,00952.2077599,E,2,11,0.8,-2.000,M,40.593,M,1.9,0123*6E
$GPVTG,244.08,T,-395.82,M,004.385,N,008.120,K,D*05
$GPGGA,094841.30,5703.4458838,N,00952.2076599,E,2,11,0.8,-1.999,M,40.593,M,1.9,0123*6B
$GPVTG,243.76,T,-396.14,M,004.393,N,008.136,K,D*07
$GPGGA,094841.35,5703.4458578,N,00952.2075594,E,2,11,0.8,-1.996,M,40.593,M,1.9,0123*66
$GPVTG,244.03,T,-395.87,M,004.390,N,008.131,K,D*0F
$GPGGA,094841.40,5703.4458310,N,00952.2074584,E,2,11,0.8,-1.995,M,40.593,M,1.9,0123*6F
$GPVTG,244.00,T,-395.90,M,004.407,N,008.162,K,D*05
$GPGGA,094841.45,5703.4458050,N,00952.2073573,E,2,11,0.8,-1.992,M,40.593,M,2.1,0123*6E
$GPVTG,244.33,T,-395.57,M,004.407,N,008.162,K,D*0E
$GPGGA,094841.50,5703.4457788,N,00952.2072576,E,2,11,0.8,-1.989,M,40.593,M,2.1,0123*69
$GPVTG,244.28,T,-395.62,M,004.384,N,008.119,K,D*02
$GPGGA,094841.55,5703.4457522,N,00952.2071582,E,2,11,0.8,-1.988,M,40.593,M,2.1,0123*67
$GPVTG,244.09,T,-395.81,M,004.366,N,008.087,K,D*06
$GPGGA,094841.60,5703.4457262,N,00952.2070579,E,2,11,0.8,-1.985,M,40.593,M,2.1,0123*6A
$GPVTG,244.29,T,-395.61,M,004.363,N,008.080,K,D*08
$GPGGA,094841.65,5703.4456991,N,00952.2069574,E,2,11,0.8,-1.981,M,40.593,M,2.4,0123*6D
$GPVTG,244.04,T,-395.86,M,004.382,N,008.115,K,D*0C
$GPGGA,094841.70,5703.4456716,N,00952.2068585,E,2,11,0.8,-1.979,M,40.593,M,2.4,0123*60
$GPVTG,243.47,T,-396.43,M,004.374,N,008.100,K,D*0B
$GPGGA,094841.75,5703.4456450,N,00952.2067584,E,2,11,0.8,-1.979,M,40.593,M,2.4,0123*6A
$GPVTG,243.62,T,-396.28,M,004.375,N,008.103,K,D*03
$GPGGA,094841.80,5703.4456192,N,00952.2066587,E,2,11,0.8,-1.979,M,40.593,M,2.4,0123*69
$GPVTG,243.97,T,-395.93,M,004.359,N,008.072,K,D*03
$GPGGA,094841.85,5703.4455919,N,00952.2065583,E,2,11,0.8,-1.975,M,40.593,M,2.6,0123*6D
$GPVTG,243.86,T,-396.04,M,004.378,N,008.109,K,D*00
$GPGGA,094841.90,5703.4455651,N,00952.2064579,E,2,11,0.8,-1.971,M,40.593,M,2.6,0123*6A
$GPVTG,243.86,T,-396.04,M,004.388,N,008.126,K,D*02
$GPGGA,094841.95,5703.4455382,N,00952.2063584,E,2,11,0.8,-1.970,M,40.593,M,2.6,0123*60
$GPVTG,243.73,T,-396.17,M,004.380,N,008.112,K,D*05
$GPGGA,094842.00,5703.4455122,N,00952.2062576,E,2,11,0.8,-1.968,M,40.593,M,2.6,0123*62
$GPVTG,244.16,T,-395.74,M,004.383,N,008.118,K,D*0E
$GPGGA,094842.05,5703.4454855,N,00952.2061586,E,2,11,0.8,-1.965,M,40.593,M,2.8,0123*60
$GPVTG,243.85,T,-396.05,M,004.366,N,008.085,K,D*08
$GPGGA,094842.10,5703.4454582,N,00952.2060602,E,2,11,0.8,-1.965,M,40.593,M,2.8,0123*6D
$GPVTG,243.42,T,-396.48,M,004.348,N,008.052,K,D*0C
$GPGGA,094842.15,5703.4454316,N,00952.2059614,E,2,11,0.8,-1.965,M,40.593,M,2.8,0123*6E
$GPVTG,243.46,T,-396.44,M,004.335,N,008.028,K,D*03
$GPGGA,094842.20,5703.4454041,N,00952.2058629,E,2,11,0.8,-1.965,M,40.593,M,2.8,0123*66
$GPVTG,243.15,T,-396.75,M,004.336,N,008.030,K,D*0D
$GPGGA,094842.25,5703.4453776,N,00952.2057642,E,2,11,0.8,-1.959,M,40.593,M,3.0,0123*63
$GPVTG,243.36,T,-396.54,M,004.325,N,008.010,K,D*0F
$GPGGA,094842.30,5703.4453510,N,00952.2056654,E,2,11,0.8,-1.958,M,40.593,M,3.0,0123*62
$GPVTG,243.47,T,-396.43,M,004.325,N,008.010,K,D*0F
$GPGGA,094842.35,5703.4453252,N,00952.2055670,E,2,11,0.8,-1.958,M,40.593,M,3.0,0123*63
$GPVTG,243.85,T,-396.05,M,004.306,N,007.975,K,D*07
$GPGGA,094842.40,5703.4452981,N,00952.2054681,E,2,11,0.8,-1.958,M,40.593,M,3.0,0123*6A
$GPVTG,243.66,T,-396.24,M,004.323,N,008.007,K,D*0D
$GPGGA,094842.45,5703.4452719,N,00952.2053713,E,2,11,0.8,-1.962,M,40.593,M,3.2,0123*66
$GPVTG,243.58,T,-396.32,M,004.285,N,007.936,K,D*0E
$GPGGA,094842.50,5703.4452454,N,00952.2052729,E,2,11,0.8,-1.963,M,40.593,M,3.2,0123*61
$GPVTG,243.62,T,-396.28,M,004.292,N,007.950,K,D*0A
$GPGGA,094842.55,5703.4452181,N,00952.2051742,E,2,11,0.8,-1.962,M,40.593,M,3.2,0123*66
$GPVTG,243.39,T,-396.51,M,004.318,N,007.996,K,D*03
$GPGGA,094842.60,5703.4451915,N,00952.2050763,E,2,11,0.8,-1.962,M,40.593,M,3.2,0123*64
$GPVTG,243.41,T,-396.49,M,004.310,N,007.982,K,D*08
$GPGGA,094842.65,5703.4451662,N,00952.2049776,E,2,11,0.8,-1.963,M,40.593,M,3.4,0123*65
$GPVTG,244.02,T,-395.88,M,004.302,N,007.967,K,D*0E
$GPGGA,094842.70,5703.4451403,N,00952.2048792,E,2,11,0.8,-1.962,M,40.593,M,3.4,0123*6E
$GPVTG,244.21,T,-395.69,M,004.299,N,007.962,K,D*06
$GPGGA,094842.75,5703.4451147,N,00952.2047820,E,2,11,0.8,-1.963,M,40.593,M,3.4,0123*66
$GPVTG,244.26,T,-395.64,M,004.268,N,007.905,K,D*03
$GPGGA,094842.80,5703.4450891,N,00952.2046842,E,2,11,0.8,-1.966,M,40.593,M,3.4,0123*6F
$GPVTG,244.39,T,-395.51,M,004.260,N,007.890,K,D*0E
$GPGGA,094842.85,5703.4450626,N,00952.2045873,E,2,11,0.8,-1.971,M,40.593,M,3.6,0123*6D
$GPVTG,243.99,T,-395.91,M,004.253,N,007.877,K,D*06
$GPGGA,094842.90,5703.4450364,N,00952.2044899,E,2,11,0.8,-1.970,M,40.593,M,3.6,0123*6E
$GPVTG,243.88,T,-396.02,M,004.256,N,007.882,K,D*00
$GPGGA,094842.95,5703.4450105,N,00952.2043916,E,2,11,0.8,-1.973,M,40.593,M,3.6,0123*6C
$GPVTG,244.03,T,-395.87,M,004.271,N,007.910,K,D*05
$GPGGA,094843.00,5703.4449851,N,00952.2042934,E,2,11,0.8,-1.976,M,40.593,M,3.6,0123*65
$GPVTG,244.31,T,-395.59,M,004.272,N,007.912,K,D*06
$GPGGA,094843.05,5703.4449600,N,00952.2041964,E,2,11,0.8,-1.971,M,40.593,M,2.0,0123*6C
$GPVTG,244.34,T,-395.56,M,004.248,N,007.868,K,D*09
$GPGGA,094843.10,5703.4449356,N,00952.2040995,E,2,11,0.8,-1.969,M,40.593,M,2.0,0123*68
$GPVTG,244.79,T,-395.11,M,004.217,N,007.809,K,D*0E
$GPGGA,094843.15,5703.4449106,N,00952.2040021,E,2,11,0.8,-1.970,M,40.593,M,2.0,0123*64
$GPVTG,244.89,T,-395.01,M,004.217,N,007.810,K,D*08
$GPGGA,094843.20,5703.4448850,N,00952.2039053,E,2,11,0.8,-1.973,M,40.593,M,2.0,0123*61
$GPVTG,244.63,T,-395.27,M,004.215,N,007.806,K,D*0D
$GPGGA,094843.25,5703.4448594,N,00952.2038092,E,2,11,0.8,-1.975,M,40.593,M,2.3,0123*68
$GPVTG,244.37,T,-395.53,M,004.204,N,007.787,K,D*09
$GPGGA,094843.30,5703.4448346,N,00952.2037140,E,2,11,0.8,-1.975,M,40.593,M,2.3,0123*64
$GPVTG,244.37,T,-395.53,M,004.169,N,007.721,K,D*0D
$GPGGA,094843.35,5703.4448092,N,00952.2036185,E,2,11,0.8,-1.975,M,40.593,M,2.3,0123*63
$GPVTG,244.19,T,-395.71,M,004.161,N,007.706,K,D*0C
$GPGGA,094843.40,5703.4447836,N,00952.2035239,E,2,11,0.8,-1.975,M,40.593,M,2.3,0123*6F
$GPVTG,243.84,T,-396.06,M,004.146,N,007.678,K,D*01
$GPGGA,094843.45,5703.4447583,N,00952.2034292,E,2,11,0.8,-1.975,M,40.593,M,2.5,0123*6F
$GPVTG,243.63,T,-396.27,M,004.141,N,007.669,K,D*0C
$GPGGA,094843.50,5703.4447317,N,00952.2033354,E,2,11,0.8,-1.979,M,40.593,M,2.5,0123*60
$GPVTG,243.00,T,-396.90,M,004.138,N,007.664,K,D*06
$GPGGA,094843.55,5703.4447065,N,00952.2032405,E,2,11,0.8,-1.981,M,40.593,M,2.5,0123*66
$GPVTG,243.27,T,-396.63,M,004.141,N,007.668,K,D*0D
$GPGGA,094843.60,5703.4446819,N,00952.2031454,E,2,11,0.8,-1.981,M,40.593,M,2.5,0123*65
$GPVTG,243.82,T,-396.08,M,004.138,N,007.663,K,D*0A
$GPGGA,094843.65,5703.4446568,N,00952.2030512,E,2,11,0.8,-1.975,M,40.593,M,2.8,0123*6F
$GPVTG,243.91,T,-395.99,M,004.125,N,007.640,K,D*0E
$GPGGA,094843.70,5703.4446311,N,00952.2029569,E,2,11,0.8,-1.975,M,40.593,M,2.8,0123*67
$GPVTG,243.68,T,-396.22,M,004.131,N,007.651,K,D*0E
$GPGGA,094843.75,5703.4446051,N,00952.2028629,E,2,11,0.8,-1.976,M,40.593,M,2.8,0123*60
$GPVTG,243.40,T,-396.50,M,004.132,N,007.652,K,D*01
$GPGGA,094843.80,5703.4445803,N,00952.2027697,E,2,11,0.8,-1.978,M,40.593,M,2.8,0123*62
$GPVTG,243.60,T,-396.30,M,004.103,N,007.598,K,D*02
$GPGGA,094843.85,5703.4445556,N,00952.2026761,E,2,11,0.8,-1.983,M,40.593,M,3.0,0123*6E
$GPVTG,243.87,T,-396.03,M,004.092,N,007.578,K,D*0C
$GPGGA,094843.90,5703.4445314,N,00952.2025834,E,2,11,0.8,-1.980,M,40.593,M,3.0,0123*65
$GPVTG,244.14,T,-395.76,M,004.060,N,007.518,K,D*0B
$GPGGA,094843.95,5703.4445063,N,00952.2024898,E,2,11,0.8,-1.978,M,40.593,M,3.0,0123*63
$GPVTG,244.06,T,-395.84,M,004.069,N,007.536,K,D*00
$GPGGA,094844.00,5703.4444809,N,00952.2023954,E,2,11,0.8,-1.980,M,40.593,M,3.0,0123*6C
$GPVTG,243.99,T,-395.91,M,004.099,N,007.591,K,D*07
$GPGGA,094844.05,5703.4444568,N,00952.2023005,E,2,11,0.8,-1.974,M,40.593,M,1.6,0123*61
$GPVTG,244.34,T,-395.56,M,004.112,N,007.615,K,D*01
$GPGGA,094844.10,5703.4444324,N,00952.2022058,E,2,11,0.8,-1.973,M,40.593,M,1.6,0123*65
$GPVTG,244.60,T,-395.30,M,004.117,N,007.625,K,D*06
$GPGGA,094844.15,5703.4444096,N,00952.2021114,E,2,11,0.8,-1.972,M,40.593,M,1.6,0123*61
$GPVTG,245.40,T,-394.50,M,004.095,N,007.584,K,D*01
$GPGGA,094844.20,5703.4443846,N,00952.2020172,E,2,11,0.8,-1.975,M,40.593,M,1.6,0123*63
$GPVTG,244.95,T,-394.95,M,004.102,N,007.597,K,D*0C
$GPGGA,094844.25,5703.4443592,N,00952.2019236,E,2,11,0.8,-1.980,M,40.593,M,1.8,0123*6F
$GPVTG,244.40,T,-395.50,M,004.104,N,007.600,K,D*07
$GPGGA,094844.30,5703.4443339,N,00952.2018299,E,2,11,0.8,-1.980,M,40.593,M,1.8,0123*68
$GPVTG,244.01,T,-395.89,M,004.107,N,007.605,K,D*00
$GPGGA,094844.35,5703.4443089,N,00952.2017350,E,2,11,0.8,-1.980,M,40.593,M,1.8,0123*6E
$GPVTG,244.02,T,-395.88,M,004.128,N,007.644,K,D*0A
$GPGGA,094844.40,5703.4442829,N,00952.2016415,E,2,11,0.8,-1.983,M,40.593,M,1.8,0123*6B
$GPVTG,243.47,T,-396.43,M,004.128,N,007.644,K,D*08
$GPGGA,094844.45,5703.4442580,N,00952.2015470,E,2,11,0.8,-1.986,M,40.593,M,2.1,0123*6F
$GPVTG,243.64,T,-396.26,M,004.134,N,007.656,K,D*04
$GPGGA,094844.50,5703.4442323,N,00952.2014531,E,2,11,0.8,-1.986,M,40.593,M,2.1,0123*61
$GPVTG,243.44,T,-396.46,M,004.135,N,007.658,K,D*0F
$GPGGA,094844.55,5703.4442057,N,00952.2013602,E,2,11,0.8,-1.988,M,40.593,M,2.1,0123*6E
$GPVTG,242.75,T,-397.15,M,004.132,N,007.652,K,D*06
$GPGGA,094844.60,5703.4441800,N,00952.2012660,E,2,11,0.8,-1.989,M,40.593,M,2.1,0123*65
$GPVTG,242.87,T,-397.03,M,004.140,N,007.668,K,D*00
$GPGGA,094844.65,5703.4441538,N,00952.2011731,E,2,11,0.8,-1.995,M,40.593,M,2.3,0123*6F
$GPVTG,242.63,T,-397.27,M,004.128,N,007.645,K,D*0D
$GPGGA,094844.70,5703.4441259,N,00952.2010802,E,2,11,0.8,-1.997,M,40.593,M,2.3,0123*67
$GPVTG,241.80,T,-398.10,M,004.146,N,007.678,K,D*0E
$GPGGA,094844.75,5703.4440979,N,00952.2009866,E,2,11,0.8,-1.997,M,40.593,M,2.3,0123*60
$GPVTG,241.30,T,-398.60,M,004.174,N,007.730,K,D*0E
$GPGGA,094844.80,5703.4440719,N,00952.2008925,E,2,11,0.8,-2.001,M,40.593,M,2.3,0123*60
$GPVTG,241.84,T,-398.06,M,004.173,N,007.728,K,D*0F
$GPGGA,094844.85,5703.4440460,N,00952.2007971,E,2,11,0.8,-2.004,M,40.593,M,2.6,0123*66
$GPVTG,242.58,T,-397.32,M,004.191,N,007.762,K,D*07
$GPGGA,094844.90,5703.4440197,N,00952.2007023,E,2,11,0.8,-2.004,M,40.593,M,2.6,0123*61
$GPVTG,242.83,T,-397.07,M,004.196,N,007.771,K,D*02
$GPGGA,094844.95,5703.4439927,N,00952.2006078,E,2,11,0.8,-2.006,M,40.593,M,2.6,0123*64
$GPVTG,242.63,T,-397.27,M,004.202,N,007.782,K,D*0C
$GPGGA,094845.00,5703.4439653,N,00952.2005124,E,2,11,0.8,-2.007,M,40.593,M,2.6,0123*6F
$GPVTG,242.47,T,-397.43,M,004.227,N,007.828,K,D*00
$GPGGA,094845.05,5703.4439387,N,00952.2004173,E,2,11,0.8,-2.000,M,40.593,M,1.7,0123*60
$GPVTG,242.47,T,-397.43,M,004.226,N,007.827,K,D*0E
$GPGGA,094845.10,5703.4439117,N,00952.2003218,E,2,11,0.8,-2.001,M,40.593,M,1.7,0123*67
$GPVTG,242.52,T,-397.38,M,004.233,N,007.840,K,D*03
$GPGGA,094845.15,5703.4438840,N,00952.2002256,E,2,11,0.8,-2.003,M,40.593,M,1.7,0123*61
$GPVTG,242.34,T,-397.56,M,004.263,N,007.896,K,D*05
$GPGGA,094845.20,5703.4438568,N,00952.2001300,E,2,11,0.8,-2.003,M,40.593,M,1.7,0123*61
$GPVTG,242.35,T,-397.55,M,004.263,N,007.895,K,D*04
$GPGGA,094845.25,5703.4438287,N,00952.2000324,E,2,11,0.8,-2.007,M,40.593,M,1.9,0123*6F
$GPVTG,242.28,T,-397.62,M,004.310,N,007.981,K,D*0D
$GPGGA,094845.30,5703.4437997,N,00952.1999350,E,2,11,0.8,-2.010,M,40.593,M,1.9,0123*61
$GPVTG,241.81,T,-398.09,M,004.350,N,008.055,K,D*04
$GPGGA,094845.35,5703.4437694,N,00952.1998386,E,2,11,0.8,-2.010,M,40.593,M,1.9,0123*62
$GPVTG,240.86,T,-399.04,M,004.378,N,008.108,K,D*0D
$GPGGA,094845.40,5703.4437400,N,00952.1997411,E,2,11,0.8,-2.008,M,40.593,M,1.9,0123*60
$GPVTG,240.69,T,-399.21,M,004.399,N,008.146,K,D*0E
$GPGGA,094845.45,5703.4437111,N,00952.1996444,E,2,11,0.8,-2.009,M,40.593,M,2.1,0123*6B
$GPVTG,240.75,T,-399.15,M,004.385,N,008.122,K,D*0B
$GPGGA,094845.50,5703.4436819,N,00952.1995466,E,2,11,0.8,-2.009,M,40.593,M,2.1,0123*6C
$GPVTG,240.82,T,-399.08,M,004.398,N,008.145,K,D*02
$GPGGA,094845.55,5703.4436515,N,00952.1994480,E,2,11,0.8,-2.012,M,40.593,M,2.1,0123*6B
$GPVTG,240.59,T,-399.31,M,004.439,N,008.221,K,D*03
$GPGGA,094845.60,5703.4436216,N,00952.1993496,E,2,11,0.8,-2.015,M,40.593,M,2.1,0123*6E
$GPVTG,240.60,T,-399.30,M,004.450,N,008.241,K,D*01
$GPGGA,094845.65,5703.4435916,N,00952.1992508,E,2,11,0.8,-2.017,M,40.593,M,2.4,0123*63
$GPVTG,240.63,T,-399.27,M,004.463,N,008.266,K,D*01
$GPGGA,094845.70,5703.4435620,N,00952.1991542,E,2,11,0.8,-2.019,M,40.593,M,2.4,0123*6E
$GPVTG,240.53,T,-399.37,M,004.421,N,008.187,K,D*09
$GPGGA,094845.75,5703.4435323,N,00952.1990587,E,2,11,0.8,-2.024,M,40.593,M,2.4,0123*6B
$GPVTG,240.29,T,-399.61,M,004.373,N,008.098,K,D*08
$GPGGA,094845.80,5703.4435038,N,00952.1989646,E,2,11,0.8,-2.033,M,40.593,M,2.4,0123*68
$GPVTG,240.42,T,-399.48,M,004.294,N,007.953,K,D*07
$GPGGA,094845.85,5703.4434756,N,00952.1988713,E,2,11,0.8,-2.040,M,40.593,M,2.6,0123*65
$GPVTG,240.56,T,-399.34,M,004.224,N,007.822,K,D*05
$GPGGA,094845.90,5703.4434472,N,00952.1987790,E,2,11,0.8,-2.048,M,40.593,M,2.6,0123*68
$GPVTG,240.53,T,-399.37,M,004.165,N,007.713,K,D*08
$GPGGA,094845.95,5703.4434194,N,00952.1986880,E,2,11,0.8,-2.058,M,40.593,M,2.6,0123*6E
$GPVTG,240.57,T,-399.33,M,004.102,N,007.596,K,D*06
$GPGGA,094846.00,5703.4433922,N,00952.1985992,E,2,11,0.8,-2.072,M,40.593,M,2.6,0123*6A
$GPVTG,240.54,T,-399.36,M,004.015,N,007.436,K,D*0C
$GPGGA,094846.05,5703.4433655,N,00952.1985111,E,2,11,0.8,-2.083,M,40.593,M,2.8,0123*63
$GPVTG,240.54,T,-399.36,M,003.948,N,007.312,K,D*0B
$GPGGA,094846.10,5703.4433402,N,00952.1984251,E,2,11,0.8,-2.096,M,40.593,M,2.8,0123*65
$GPVTG,241.02,T,-398.88,M,003.851,N,007.133,K,D*05
$GPGGA,094846.15,5703.4433150,N,00952.1983436,E,2,11,0.8,-2.105,M,40.593,M,2.8,0123*69
$GPVTG,240.75,T,-399.15,M,003.712,N,006.875,K,D*03
$GPGGA,094846.20,5703.4432898,N,00952.1982649,E,2,11,0.8,-2.120,M,40.593,M,2.8,0123*6F
$GPVTG,240.13,T,-399.77,M,003.581,N,006.633,K,D*03
$GPGGA,094846.25,5703.4432657,N,00952.1981894,E,2,11,0.8,-2.134,M,40.593,M,3.0,0123*66
$GPVTG,239.70,T,-400.20,M,003.434,N,006.360,K,D*01
$GPGGA,094846.30,5703.4432422,N,00952.1981139,E,2,11,0.8,-2.145,M,40.593,M,3.0,0123*6A
$GPVTG,239.76,T,-400.14,M,003.345,N,006.196,K,D*0A
$GPGGA,094846.35,5703.4432201,N,00952.1980404,E,2,11,0.8,-2.156,M,40.593,M,3.0,0123*60
$GPVTG,240.29,T,-399.61,M,003.246,N,006.012,K,D*04
$GPGGA,094846.40,5703.4431986,N,00952.1979675,E,2,11,0.8,-2.166,M,40.593,M,3.0,0123*64
$GPVTG,240.96,T,-398.94,M,003.177,N,005.884,K,D*0E
$GPGGA,094846.45,5703.4431777,N,00952.1978953,E,2,11,0.8,-2.179,M,40.593,M,3.2,0123*67
$GPVTG,241.67,T,-398.23,M,003.132,N,005.800,K,D*00
$GPGGA,094846.50,5703.4431574,N,00952.1978259,E,2,11,0.8,-2.189,M,40.593,M,3.2,0123*6C
$GPVTG,241.96,T,-397.94,M,003.053,N,005.655,K,D*05
$GPGGA,094846.55,5703.4431368,N,00952.1977573,E,2,11,0.8,-2.199,M,40.593,M,3.2,0123*63
$GPVTG,241.87,T,-398.03,M,003.005,N,005.566,K,D*04
$GPGGA,094846.60,5703.4431159,N,00952.1976913,E,2,11,0.8,-2.207,M,40.593,M,3.2,0123*6A
$GPVTG,241.08,T,-398.82,M,002.946,N,005.456,K,D*07
$GPGGA,094846.65,5703.4430960,N,00952.1976263,E,2,11,0.8,-2.213,M,40.593,M,3.4,0123*63
$GPVTG,240.90,T,-399.00,M,002.886,N,005.344,K,D*05
$GPGGA,094846.70,5703.4430759,N,00952.1975626,E,2,11,0.8,-2.222,M,40.593,M,3.4,0123*67
$GPVTG,240.41,T,-399.49,M,002.838,N,005.255,K,D*00
$GPGGA,094846.75,5703.4430554,N,00952.1974990,E,2,11,0.8,-2.230,M,40.593,M,3.4,0123*6D
$GPVTG,239.83,T,-400.07,M,002.825,N,005.231,K,D*03
$GPGGA,094846.80,5703.4430364,N,00952.1974380,E,2,11,0.8,-2.239,M,40.593,M,3.4,0123*60
$GPVTG,239.79,T,-400.11,M,002.758,N,005.108,K,D*0D
$GPGGA,094846.85,5703.4430171,N,00952.1973766,E,2,11,0.8,-2.249,M,40.593,M,3.6,0123*6D
$GPVTG,239.86,T,-400.04,M,002.734,N,005.063,K,D*0F
$GPGGA,094846.90,5703.4429980,N,00952.1973176,E,2,11,0.8,-2.253,M,40.593,M,3.6,0123*6B
$GPVTG,239.45,T,-400.45,M,002.681,N,004.965,K,D*04
$GPGGA,094846.95,5703.4429780,N,00952.1972610,E,2,11,0.8,-2.259,M,40.593,M,3.6,0123*6C
$GPVTG,238.10,T,-401.80,M,002.625,N,004.862,K,D*05
