$GPGGA,094140.75,5703.4096434,N,00952.1015488,E,2,11,0.8,-2.156,M,40.593,M,3.3,0123*63
$GPVTG,246.16,T,-393.74,M,004.101,N,007.595,K,D*0C
$GPGGA,094140.80,5703.4096204,N,00952.1014532,E,2,11,0.8,-2.158,M,40.593,M,3.3,0123*63
$GPVTG,246.19,T,-393.71,M,004.104,N,007.600,K,D*0C
$GPGGA,094140.85,5703.4095974,N,00952.1013575,E,2,11,0.8,-2.162,M,40.593,M,1.8,0123*6D
$GPVTG,246.21,T,-393.69,M,004.112,N,007.615,K,D*0D
$GPGGA,094140.90,5703.4095746,N,00952.1012610,E,2,11,0.8,-2.162,M,40.593,M,1.8,0123*67
$GPVTG,246.38,T,-393.52,M,004.125,N,007.640,K,D*09
$GPGGA,094140.95,5703.4095519,N,00952.1011647,E,2,11,0.8,-2.163,M,40.593,M,1.8,0123*6A
$GPVTG,246.51,T,-393.39,M,004.131,N,007.651,K,D*0E
$GPGGA,094141.00,5703.4095298,N,00952.1010676,E,2,11,0.8,-2.165,M,40.593,M,1.8,0123*6C
$GPVTG,246.95,T,-392.95,M,004.140,N,007.667,K,D*02
$GPGGA,094141.05,5703.4095078,N,00952.1009715,E,2,11,0.8,-2.167,M,40.593,M,2.1,0123*61
$GPVTG,247.03,T,-392.87,M,004.133,N,007.654,K,D*0B
$GPGGA,094141.10,5703.4094854,N,00952.1008758,E,2,11,0.8,-2.168,M,40.593,M,2.1,0123*65
$GPVTG,247.00,T,-392.90,M,004.116,N,007.623,K,D*09
$GPGGA,094141.15,5703.4094625,N,00952.1007796,E,2,11,0.8,-2.169,M,40.593,M,2.1,0123*64
$GPVTG,246.76,T,-393.14,M,004.120,N,007.631,K,D*02
$GPGGA,094141.20,5703.4094401,N,00952.1006815,E,2,11,0.8,-2.170,M,40.593,M,2.1,0123*6B
$GPVTG,247.02,T,-392.88,M,004.152,N,007.689,K,D*02
$GPGGA,094141.25,5703.4094180,N,00952.1005836,E,2,11,0.8,-2.168,M,40.593,M,2.3,0123*6B
$GPVTG,247.34,T,-392.56,M,004.165,N,007.713,K,D*02
$GPGGA,094141.30,5703.4093965,N,00952.1004853,E,2,11,0.8,-2.171,M,40.593,M,2.3,0123*61
$GPVTG,247.81,T,-392.09,M,004.173,N,007.728,K,D*09
$GPGGA,094141.35,5703.4093742,N,00952.1003872,E,2,11,0.8,-2.175,M,40.593,M,2.3,0123*6F
$GPVTG,247.77,T,-392.13,M,004.182,N,007.745,K,D*0E
$GPGGA,094141.40,5703.4093511,N,00952.1002896,E,2,11,0.8,-2.178,M,40.593,M,2.3,0123*6F
$GPVTG,247.27,T,-392.63,M,004.186,N,007.753,K,D*0F
$GPGGA,094141.45,5703.4093291,N,00952.1001898,E,2,11,0.8,-2.185,M,40.593,M,2.6,0123*6F
$GPVTG,247.59,T,-392.31,M,004.220,N,007.815,K,D*03
$GPGGA,094141.50,5703.4093078,N,00952.1000897,E,2,11,0.8,-2.187,M,40.593,M,2.6,0123*62
$GPVTG,248.17,T,-391.73,M,004.235,N,007.843,K,D*04
$GPGGA,094141.55,5703.4092859,N,00952.0999917,E,2,11,0.8,-2.188,M,40.593,M,2.6,0123*63
$GPVTG,248.06,T,-391.84,M,004.208,N,007.794,K,D*07
$GPGGA,094141.60,5703.4092638,N,00952.0998921,E,2,11,0.8,-2.191,M,40.593,M,2.6,0123*60
$GPVTG,248.06,T,-391.84,M,004.221,N,007.817,K,D*08
$GPGGA,094141.65,5703.4092426,N,00952.0997945,E,2,11,0.8,-2.190,M,40.593,M,2.9,0123*6B
$GPVTG,248.19,T,-391.71,M,004.179,N,007.740,K,D*0F
$GPGGA,094141.70,5703.4092206,N,00952.0996953,E,2,11,0.8,-2.191,M,40.593,M,2.9,0123*6C
$GPVTG,248.14,T,-391.76,M,004.189,N,007.758,K,D*03
$GPGGA,094141.75,5703.4091987,N,00952.0995945,E,2,11,0.8,-2.194,M,40.593,M,2.9,0123*69
$GPVTG,248.28,T,-391.62,M,004.230,N,007.834,K,D*0D
$GPGGA,094141.80,5703.4091775,N,00952.0994950,E,2,11,0.8,-2.195,M,40.593,M,2.9,0123*64
$GPVTG,248.48,T,-391.42,M,004.222,N,007.819,K,D*05
$GPGGA,094141.85,5703.4091574,N,00952.0993969,E,2,11,0.8,-2.190,M,40.593,M,1.4,0123*64
$GPVTG,248.96,T,-390.94,M,004.172,N,007.727,K,D*08
$GPGGA,094141.90,5703.4091368,N,00952.0992964,E,2,11,0.8,-2.190,M,40.593,M,1.4,0123*67
$GPVTG,249.31,T,-390.59,M,004.193,N,007.766,K,D*0F
$GPGGA,094141.95,5703.4091154,N,00952.0991971,E,2,11,0.8,-2.189,M,40.593,M,1.4,0123*60
$GPVTG,249.07,T,-390.83,M,004.192,N,007.764,K,D*0E
$GPGGA,094142.00,5703.4090940,N,00952.0990979,E,2,11,0.8,-2.186,M,40.593,M,1.4,0123*65
$GPVTG,248.89,T,-391.01,M,004.192,N,007.764,K,D*02
$GPGGA,094142.05,5703.4090732,N,00952.0989992,E,2,11,0.8,-2.182,M,40.593,M,1.7,0123*61
$GPVTG,248.91,T,-390.99,M,004.188,N,007.755,K,D*02
$GPGGA,094142.10,5703.4090524,N,00952.0989007,E,2,11,0.8,-2.179,M,40.593,M,1.7,0123*61
$GPVTG,248.86,T,-391.04,M,004.170,N,007.723,K,D*07
$GPGGA,094142.15,5703.4090304,N,00952.0988017,E,2,11,0.8,-2.177,M,40.593,M,1.7,0123*6E
$GPVTG,248.42,T,-391.48,M,004.180,N,007.740,K,D*0D
$GPGGA,094142.20,5703.4090092,N,00952.0987026,E,2,11,0.8,-2.178,M,40.593,M,1.7,0123*66
$GPVTG,248.41,T,-391.49,M,004.182,N,007.745,K,D*08
$GPGGA,094142.25,5703.4089881,N,00952.0986047,E,2,11,0.8,-2.176,M,40.593,M,1.9,0123*67
$GPVTG,248.32,T,-391.58,M,004.161,N,007.707,K,D*07
$GPGGA,094142.30,5703.4089662,N,00952.0985067,E,2,11,0.8,-2.174,M,40.593,M,1.9,0123*63
$GPVTG,247.98,T,-391.92,M,004.156,N,007.698,K,D*0D
$GPGGA,094142.35,5703.4089450,N,00952.0984081,E,2,11,0.8,-2.174,M,40.593,M,1.9,0123*6C
$GPVTG,248.07,T,-391.83,M,004.159,N,007.703,K,D*08
$GPGGA,094142.40,5703.4089233,N,00952.0983091,E,2,11,0.8,-2.172,M,40.593,M,1.9,0123*6D
$GPVTG,248.05,T,-391.85,M,004.175,N,007.732,K,D*00
$GPGGA,094142.45,5703.4089013,N,00952.0982099,E,2,11,0.8,-2.169,M,40.593,M,2.2,0123*63
$GPVTG,247.88,T,-392.02,M,004.198,N,007.775,K,D*06
$GPGGA,094142.50,5703.4088804,N,00952.0981118,E,2,11,0.8,-2.167,M,40.593,M,2.2,0123*6D
$GPVTG,248.15,T,-391.75,M,004.175,N,007.731,K,D*0D
$GPGGA,094142.55,5703.4088599,N,00952.0980141,E,2,11,0.8,-2.165,M,40.593,M,2.2,0123*6E
$GPVTG,248.47,T,-391.43,M,004.145,N,007.676,K,D*0E
$GPGGA,094142.60,5703.4088373,N,00952.0979153,E,2,11,0.8,-2.164,M,40.593,M,2.2,0123*6E
$GPVTG,247.97,T,-391.93,M,004.173,N,007.728,K,D*0E
$GPGGA,094142.65,5703.4088147,N,00952.0978178,E,2,11,0.8,-2.160,M,40.593,M,2.4,0123*64
$GPVTG,247.49,T,-392.41,M,004.166,N,007.715,K,D*0B
$GPGGA,094142.70,5703.4087923,N,00952.0977214,E,2,11,0.8,-2.160,M,40.593,M,2.4,0123*63
$GPVTG,247.06,T,-392.84,M,004.140,N,007.667,K,D*09
$GPGGA,094142.75,5703.4087696,N,00952.0976251,E,2,11,0.8,-2.157,M,40.593,M,2.4,0123*63
$GPVTG,246.66,T,-393.24,M,004.126,N,007.641,K,D*01
$GPGGA,094142.80,5703.4087465,N,00952.0975298,E,2,11,0.8,-2.153,M,40.593,M,2.4,0123*65
$GPVTG,246.13,T,-393.77,M,004.105,N,007.603,K,D*02
$GPGGA,094142.85,5703.4087238,N,00952.0974346,E,2,11,0.8,-2.149,M,40.593,M,2.7,0123*65
$GPVTG,245.96,T,-393.94,M,004.090,N,007.574,K,D*0F
$GPGGA,094142.90,5703.4087003,N,00952.0973396,E,2,11,0.8,-2.148,M,40.593,M,2.7,0123*60
$GPVTG,245.55,T,-394.35,M,004.085,N,007.565,K,D*08
$GPGGA,094142.95,5703.4086768,N,00952.0972456,E,2,11,0.8,-2.150,M,40.593,M,2.7,0123*6D
$GPVTG,245.23,T,-394.67,M,004.068,N,007.533,K,D*0E
$GPGGA,094143.00,5703.4086540,N,00952.0971524,E,2,11,0.8,-2.149,M,40.593,M,2.7,0123*67
$GPVTG,245.20,T,-394.70,M,004.034,N,007.470,K,D*04
$GPGGA,094143.05,5703.4086305,N,00952.0970594,E,2,11,0.8,-2.138,M,40.593,M,1.6,0123*6B
$GPVTG,245.01,T,-394.89,M,004.033,N,007.469,K,D*0E
$GPGGA,094143.10,5703.4086078,N,00952.0969644,E,2,11,0.8,-2.135,M,40.593,M,1.6,0123*6D
$GPVTG,245.48,T,-394.42,M,004.048,N,007.496,K,D*08
$GPGGA,094143.15,5703.4085846,N,00952.0968704,E,2,11,0.8,-2.134,M,40.593,M,1.6,0123*6B
$GPVTG,245.51,T,-394.39,M,004.050,N,007.501,K,D*0A
$GPGGA,094143.20,5703.4085616,N,00952.0967780,E,2,11,0.8,-2.131,M,40.593,M,1.6,0123*60
$GPVTG,245.44,T,-394.46,M,004.018,N,007.441,K,D*0F
$GPGGA,094143.25,5703.4085383,N,00952.0966860,E,2,11,0.8,-2.131,M,40.593,M,1.8,0123*62
$GPVTG,245.19,T,-394.71,M,003.994,N,007.397,K,D*05
$GPGGA,094143.30,5703.4085147,N,00952.0965935,E,2,11,0.8,-2.131,M,40.593,M,1.8,0123*6E
$GPVTG,244.98,T,-394.92,M,003.995,N,007.398,K,D*0E
$GPGGA,094143.35,5703.4084912,N,00952.0965022,E,2,11,0.8,-2.132,M,40.593,M,1.8,0123*6E
$GPVTG,244.74,T,-395.16,M,003.974,N,007.359,K,D*03
$GPGGA,094143.40,5703.4084671,N,00952.0964115,E,2,11,0.8,-2.132,M,40.593,M,1.8,0123*62
$GPVTG,244.28,T,-395.62,M,003.959,N,007.333,K,D*0A
$GPGGA,094143.45,5703.4084436,N,00952.0963217,E,2,11,0.8,-2.131,M,40.593,M,2.0,0123*68
$GPVTG,244.12,T,-395.78,M,003.928,N,007.275,K,D*0D
$GPGGA,094143.50,5703.4084202,N,00952.0962321,E,2,11,0.8,-2.130,M,40.593,M,2.0,0123*69
$GPVTG,244.08,T,-395.82,M,003.903,N,007.228,K,D*02
$GPGGA,094143.55,5703.4083971,N,00952.0961444,E,2,11,0.8,-2.128,M,40.593,M,2.0,0123*6A
$GPVTG,243.99,T,-395.91,M,003.852,N,007.134,K,D*04
$GPGGA,094143.60,5703.4083734,N,00952.0960565,E,2,11,0.8,-2.128,M,40.593,M,2.0,0123*60
$GPVTG,243.71,T,-396.19,M,003.832,N,007.097,K,D*0F
$GPGGA,094143.65,5703.4083492,N,00952.0959686,E,2,11,0.8,-2.129,M,40.593,M,2.3,0123*6C
$GPVTG,243.32,T,-396.58,M,003.835,N,007.103,K,D*06
$GPGGA,094143.70,5703.4083252,N,00952.0958805,E,2,11,0.8,-2.128,M,40.593,M,2.3,0123*67
$GPVTG,243.22,T,-396.68,M,003.841,N,007.114,K,D*01
$GPGGA,094143.75,5703.4083015,N,00952.0957924,E,2,11,0.8,-2.130,M,40.593,M,2.3,0123*67
$GPVTG,243.31,T,-396.59,M,003.845,N,007.121,K,D*03
$GPGGA,094143.80,5703.4082779,N,00952.0957049,E,2,11,0.8,-2.130,M,40.593,M,2.3,0123*63
$GPVTG,243.39,T,-396.51,M,003.835,N,007.103,K,D*04
$GPGGA,094143.85,5703.4082544,N,00952.0956195,E,2,11,0.8,-2.130,M,40.593,M,2.5,0123*6D
$GPVTG,243.21,T,-396.69,M,003.790,N,007.020,K,D*06
$GPGGA,094143.90,5703.4082305,N,00952.0955336,E,2,11,0.8,-2.130,M,40.593,M,2.5,0123*62
$GPVTG,243.02,T,-396.88,M,003.777,N,006.996,K,D*04
$GPGGA,094143.95,5703.4082078,N,00952.0954475,E,2,11,0.8,-2.133,M,40.593,M,2.5,0123*6C
$GPVTG,243.45,T,-396.45,M,003.759,N,006.962,K,D*01
$GPGGA,094144.00,5703.4081840,N,00952.0953617,E,2,11,0.8,-2.134,M,40.593,M,2.5,0123*61
$GPVTG,243.28,T,-396.62,M,003.760,N,006.963,K,D*04
$GPGGA,094144.05,5703.4081597,N,00952.0952786,E,2,11,0.8,-2.127,M,40.593,M,2.7,0123*6B
$GPVTG,242.56,T,-397.34,M,003.736,N,006.919,K,D*00
$GPGGA,094144.10,5703.4081352,N,00952.0951948,E,2,11,0.8,-2.128,M,40.593,M,2.7,0123*60
$GPVTG,242.06,T,-397.84,M,003.722,N,006.894,K,D*0F
$GPGGA,094144.15,5703.4081112,N,00952.0951098,E,2,11,0.8,-2.129,M,40.593,M,2.7,0123*66
$GPVTG,242.10,T,-397.80,M,003.735,N,006.918,K,D*0F
$GPGGA,094144.20,5703.4080874,N,00952.0950252,E,2,11,0.8,-2.131,M,40.593,M,2.7,0123*64
$GPVTG,242.24,T,-397.66,M,003.735,N,006.916,K,D*0E
$GPGGA,094144.25,5703.4080625,N,00952.0949414,E,2,11,0.8,-2.132,M,40.593,M,2.9,0123*6A
$GPVTG,241.77,T,-398.13,M,003.739,N,006.925,K,D*0A
$GPGGA,094144.30,5703.4080380,N,00952.0948591,E,2,11,0.8,-2.133,M,40.593,M,2.9,0123*68
$GPVTG,241.44,T,-398.46,M,003.708,N,006.867,K,D*0F
$GPGGA,094144.35,5703.4080144,N,00952.0947750,E,2,11,0.8,-2.136,M,40.593,M,2.9,0123*62
$GPVTG,241.90,T,-398.00,M,003.709,N,006.869,K,D*0B
$GPGGA,094144.40,5703.4079908,N,00952.0946923,E,2,11,0.8,-2.136,M,40.593,M,2.9,0123*6D
$GPVTG,242.02,T,-397.88,M,003.684,N,006.823,K,D*06
$GPGGA,094144.45,5703.4079658,N,00952.0946094,E,2,11,0.8,-2.140,M,40.593,M,3.1,0123*6F
$GPVTG,241.53,T,-398.37,M,003.697,N,006.848,K,D*05
$GPGGA,094144.50,5703.4079411,N,00952.0945260,E,2,11,0.8,-2.144,M,40.593,M,3.1,0123*6A
$GPVTG,241.38,T,-398.52,M,003.713,N,006.876,K,D*0B
$GPGGA,094144.55,5703.4079162,N,00952.0944434,E,2,11,0.8,-2.147,M,40.593,M,3.1,0123*6B
$GPVTG,241.14,T,-398.76,M,003.710,N,006.871,K,D*07
$GPGGA,094144.60,5703.4078923,N,00952.0943588,E,2,11,0.8,-2.151,M,40.593,M,3.1,0123*67
$GPVTG,241.72,T,-398.18,M,003.731,N,006.911,K,D*0B
$GPGGA,094144.65,5703.4078689,N,00952.0942758,E,2,11,0.8,-2.153,M,40.593,M,3.3,0123*63
$GPVTG,242.17,T,-397.73,M,003.706,N,006.864,K,D*0E
$GPGGA,094144.70,5703.4078450,N,00952.0941925,E,2,11,0.8,-2.156,M,40.593,M,3.3,0123*63
$GPVTG,242.29,T,-397.61,M,003.702,N,006.857,K,D*04
$GPGGA,094144.75,5703.4078200,N,00952.0941091,E,2,11,0.8,-2.158,M,40.593,M,3.3,0123*6D
$GPVTG,241.87,T,-398.03,M,003.718,N,006.886,K,D*0F
$GPGGA,094144.80,5703.4077958,N,00952.0940282,E,2,11,0.8,-2.158,M,40.593,M,3.3,0123*6F
$GPVTG,241.54,T,-398.36,M,003.673,N,006.802,K,D*07
$GPGGA,094144.85,5703.4077707,N,00952.0939453,E,2,11,0.8,-2.161,M,40.593,M,3.5,0123*66
$GPVTG,241.11,T,-398.79,M,003.696,N,006.845,K,D*05
$GPGGA,094144.90,5703.4077455,N,00952.0938610,E,2,11,0.8,-2.163,M,40.593,M,3.5,0123*60
$GPVTG,241.07,T,-398.83,M,003.740,N,006.927,K,D*08
$GPGGA,094144.95,5703.4077210,N,00952.0937769,E,2,11,0.8,-2.167,M,40.593,M,3.5,0123*66
$GPVTG,241.35,T,-398.55,M,003.753,N,006.950,K,D*00
$GPGGA,094145.00,5703.4076962,N,00952.0936931,E,2,11,0.8,-2.171,M,40.593,M,3.5,0123*61
$GPVTG,241.42,T,-398.48,M,003.758,N,006.960,K,D*04
$GPGGA,094145.05,5703.4076716,N,00952.0936107,E,2,11,0.8,-2.171,M,40.593,M,2.1,0123*61
$GPVTG,241.43,T,-398.47,M,003.744,N,006.933,K,D*01
$GPGGA,094145.10,5703.4076467,N,00952.0935281,E,2,11,0.8,-2.175,M,40.593,M,2.1,0123*6A
$GPVTG,241.21,T,-398.69,M,003.731,N,006.909,K,D*02
$GPGGA,094145.15,5703.4076214,N,00952.0934440,E,2,11,0.8,-2.178,M,40.593,M,2.1,0123*6A
$GPVTG,241.12,T,-398.78,M,003.752,N,006.949,K,D*03
$GPGGA,094145.20,5703.4075971,N,00952.0933594,E,2,11,0.8,-2.180,M,40.593,M,2.1,0123*6F
$GPVTG,241.63,T,-398.27,M,003.762,N,006.967,K,D*00
$GPGGA,094145.25,5703.4075715,N,00952.0932762,E,2,11,0.8,-2.178,M,40.593,M,2.3,0123*69
$GPVTG,241.11,T,-398.79,M,003.764,N,006.972,K,D*0C
$GPGGA,094145.30,5703.4075459,N,00952.0931916,E,2,11,0.8,-2.182,M,40.593,M,2.3,0123*6D
$GPVTG,240.97,T,-398.93,M,003.788,N,007.016,K,D*0F
$GPGGA,094145.35,5703.4075195,N,00952.0931062,E,2,11,0.8,-2.183,M,40.593,M,2.3,0123*66
$GPVTG,240.69,T,-399.21,M,003.831,N,007.095,K,D*00
$GPGGA,094145.40,5703.4074941,N,00952.0930213,E,2,11,0.8,-2.183,M,40.593,M,2.3,0123*61
$GPVTG,240.83,T,-399.07,M,003.836,N,007.104,K,D*0E
$GPGGA,094145.45,5703.4074685,N,00952.0929364,E,2,11,0.8,-2.184,M,40.593,M,2.6,0123*68
$GPVTG,240.96,T,-398.94,M,003.831,N,007.096,K,D*0C
$GPGGA,094145.50,5703.4074421,N,00952.0928510,E,2,11,0.8,-2.185,M,40.593,M,2.6,0123*65
$GPVTG,240.70,T,-399.20,M,003.854,N,007.138,K,D*0C
$GPGGA,094145.55,5703.4074155,N,00952.0927655,E,2,11,0.8,-2.187,M,40.593,M,2.6,0123*69
$GPVTG,240.45,T,-399.45,M,003.871,N,007.168,K,D*0B
$GPGGA,094145.60,5703.4073896,N,00952.0926795,E,2,11,0.8,-2.190,M,40.593,M,2.6,0123*64
$GPVTG,240.63,T,-399.27,M,003.880,N,007.186,K,D*05
$GPGGA,094145.65,5703.4073636,N,00952.0925939,E,2,11,0.8,-2.194,M,40.593,M,2.9,0123*65
$GPVTG,240.69,T,-399.21,M,003.878,N,007.181,K,D*09
$GPGGA,094145.70,5703.4073364,N,00952.0925061,E,2,11,0.8,-2.196,M,40.593,M,2.9,0123*65
$GPVTG,240.57,T,-399.33,M,003.931,N,007.280,K,D*09
$GPGGA,094145.75,5703.4073100,N,00952.0924193,E,2,11,0.8,-2.199,M,40.593,M,2.9,0123*62
$GPVTG,240.63,T,-399.27,M,003.936,N,007.290,K,D*0D
$GPGGA,094145.80,5703.4072834,N,00952.0923322,E,2,11,0.8,-2.201,M,40.593,M,2.9,0123*6A
$GPVTG,240.68,T,-399.22,M,003.942,N,007.300,K,D*08
$GPGGA,094145.85,5703.4072563,N,00952.0922451,E,2,11,0.8,-2.199,M,40.593,M,3.1,0123*69
$GPVTG,240.49,T,-399.41,M,003.950,N,007.315,K,D*09
$GPGGA,094145.90,5703.4072288,N,00952.0921563,E,2,11,0.8,-2.198,M,40.593,M,3.1,0123*6D
$GPVTG,240.43,T,-399.47,M,003.993,N,007.394,K,D*03
$GPGGA,094145.95,5703.4072017,N,00952.0920675,E,2,11,0.8,-2.198,M,40.593,M,3.1,0123*69
$GPVTG,240.54,T,-399.36,M,004.014,N,007.433,K,D*08
$GPGGA,094146.00,5703.4071756,N,00952.0919800,E,2,11,0.8,-2.197,M,40.593,M,3.1,0123*6E
$GPVTG,240.83,T,-399.07,M,003.985,N,007.380,K,D*09
$GPGGA,094146.05,5703.4071492,N,00952.0918925,E,2,11,0.8,-2.192,M,40.593,M,1.7,0123*66
$GPVTG,240.99,T,-398.91,M,003.976,N,007.363,K,D*0D
$GPGGA,094146.10,5703.4071223,N,00952.0918047,E,2,11,0.8,-2.189,M,40.593,M,1.7,0123*69
$GPVTG,240.91,T,-398.99,M,003.970,N,007.353,K,D*08
$GPGGA,094146.15,5703.4070954,N,00952.0917153,E,2,11,0.8,-2.187,M,40.593,M,1.7,0123*63
$GPVTG,241.02,T,-398.88,M,003.996,N,007.400,K,D*0A
$GPGGA,094146.20,5703.4070673,N,00952.0916261,E,2,11,0.8,-2.184,M,40.593,M,1.7,0123*6F
$GPVTG,240.57,T,-399.33,M,004.027,N,007.457,K,D*0C
$GPGGA,094146.25,5703.4070386,N,00952.0915369,E,2,11,0.8,-2.184,M,40.593,M,1.9,0123*61
$GPVTG,240.02,T,-399.88,M,004.058,N,007.515,K,D*03
$GPGGA,094146.30,5703.4070102,N,00952.0914491,E,2,11,0.8,-2.182,M,40.593,M,1.9,0123*6C
$GPVTG,239.55,T,-400.35,M,004.047,N,007.495,K,D*09
$GPGGA,094146.35,5703.4069818,N,00952.0913599,E,2,11,0.8,-2.182,M,40.593,M,1.9,0123*6D
$GPVTG,239.45,T,-400.45,M,004.061,N,007.521,K,D*05
$GPGGA,094146.40,5703.4069535,N,00952.0912697,E,2,11,0.8,-2.181,M,40.593,M,1.9,0123*62
$GPVTG,239.59,T,-400.31,M,004.087,N,007.570,K,D*07
$GPGGA,094146.45,5703.4069250,N,00952.0911821,E,2,11,0.8,-2.180,M,40.593,M,2.2,0123*6A
$GPVTG,239.25,T,-400.65,M,004.062,N,007.522,K,D*01
$GPGGA,094146.50,5703.4068960,N,00952.0910930,E,2,11,0.8,-2.178,M,40.593,M,2.2,0123*60
$GPVTG,239.06,T,-400.84,M,004.074,N,007.546,K,D*0A
$GPGGA,094146.55,5703.4068669,N,00952.0910036,E,2,11,0.8,-2.177,M,40.593,M,2.2,0123*63
$GPVTG,239.00,T,-400.90,M,004.090,N,007.574,K,D*02
$GPGGA,094146.60,5703.4068366,N,00952.0909148,E,2,11,0.8,-2.177,M,40.593,M,2.2,0123*6F
$GPVTG,238.37,T,-401.53,M,004.110,N,007.612,K,D*03
$GPGGA,094146.65,5703.4068073,N,00952.0908282,E,2,11,0.8,-2.173,M,40.593,M,2.4,0123*6B
$GPVTG,238.04,T,-401.86,M,004.065,N,007.528,K,D*02
$GPGGA,094146.70,5703.4067784,N,00952.0907410,E,2,11,0.8,-2.172,M,40.593,M,2.4,0123*6C
$GPVTG,238.11,T,-401.79,M,004.038,N,007.478,K,D*0A
$GPGGA,094146.75,5703.4067485,N,00952.0906528,E,2,11,0.8,-2.170,M,40.593,M,2.4,0123*62
$GPVTG,237.96,T,-401.94,M,004.055,N,007.509,K,D*05
$GPGGA,094146.80,5703.4067185,N,00952.0905656,E,2,11,0.8,-2.167,M,40.593,M,2.4,0123*62
$GPVTG,237.69,T,-402.21,M,004.055,N,007.510,K,D*00
$GPGGA,094146.85,5703.4066884,N,00952.0904785,E,2,11,0.8,-2.168,M,40.593,M,2.7,0123*6C
$GPVTG,237.60,T,-402.30,M,004.051,N,007.503,K,D*0F
$GPGGA,094146.90,5703.4066581,N,00952.0903919,E,2,11,0.8,-2.166,M,40.593,M,2.7,0123*62
$GPVTG,237.29,T,-402.61,M,004.049,N,007.498,K,D*0C
$GPGGA,094146.95,5703.4066283,N,00952.0903050,E,2,11,0.8,-2.164,M,40.593,M,2.7,0123*64
$GPVTG,237.37,T,-402.53,M,004.040,N,007.483,K,D*01
$GPGGA,094147.00,5703.4065985,N,00952.0902171,E,2,11,0.8,-2.163,M,40.593,M,2.7,0123*63
$GPVTG,237.62,T,-402.28,M,004.056,N,007.511,K,D*00
$GPGGA,094147.05,5703.4065685,N,00952.0901308,E,2,11,0.8,-2.162,M,40.593,M,1.6,0123*65
$GPVTG,237.56,T,-402.34,M,004.035,N,007.474,K,D*0D
$GPGGA,094147.10,5703.4065383,N,00952.0900433,E,2,11,0.8,-2.159,M,40.593,M,1.6,0123*64
$GPVTG,237.59,T,-402.31,M,004.052,N,007.505,K,D*01
$GPGGA,094147.15,5703.4065091,N,00952.0899576,E,2,11,0.8,-2.159,M,40.593,M,1.6,0123*60
$GPVTG,237.70,T,-402.20,M,004.013,N,007.432,K,D*0A
$GPGGA,094147.20,5703.4064787,N,00952.0898713,E,2,11,0.8,-2.157,M,40.593,M,1.6,0123*69
$GPVTG,237.44,T,-402.46,M,004.019,N,007.444,K,D*06
$GPGGA,094147.25,5703.4064492,N,00952.0897851,E,2,11,0.8,-2.158,M,40.593,M,1.8,0123*6C
$GPVTG,237.53,T,-402.37,M,004.012,N,007.429,K,D*06
$GPGGA,094147.30,5703.4064195,N,00952.0897004,E,2,11,0.8,-2.157,M,40.593,M,1.8,0123*6D
$GPVTG,237.35,T,-402.55,M,003.982,N,007.374,K,D*0A
$GPGGA,094147.35,5703.4063890,N,00952.0896145,E,2,11,0.8,-2.157,M,40.593,M,1.8,0123*66
$GPVTG,237.10,T,-402.80,M,003.996,N,007.401,K,D*05
$GPGGA,094147.40,5703.4063584,N,00952.0895288,E,2,11,0.8,-2.156,M,40.593,M,1.8,0123*6C
$GPVTG,236.87,T,-403.03,M,004.009,N,007.424,K,D*0F
$GPGGA,094147.45,5703.4063270,N,00952.0894414,E,2,11,0.8,-2.156,M,40.593,M,2.0,0123*6C
$GPVTG,236.75,T,-403.15,M,004.058,N,007.516,K,D*01
$GPGGA,094147.50,5703.4062974,N,00952.0893571,E,2,11,0.8,-2.156,M,40.593,M,2.0,0123*63
$GPVTG,236.82,T,-403.08,M,004.011,N,007.428,K,D*04
$GPGGA,094147.55,5703.4062668,N,00952.0892734,E,2,11,0.8,-2.157,M,40.593,M,2.0,0123*67
$GPVTG,236.42,T,-403.48,M,003.980,N,007.371,K,D*01
$GPGGA,094147.60,5703.4062354,N,00952.0891891,E,2,11,0.8,-2.156,M,40.593,M,2.0,0123*69
$GPVTG,235.90,T,-404.00,M,003.991,N,007.392,K,D*0B
$GPGGA,094147.65,5703.4062037,N,00952.0891050,E,2,11,0.8,-2.154,M,40.593,M,2.3,0123*6E
$GPVTG,235.50,T,-404.40,M,003.999,N,007.405,K,D*02
$GPGGA,094147.70,5703.4061735,N,00952.0890215,E,2,11,0.8,-2.155,M,40.593,M,2.3,0123*6F
$GPVTG,235.70,T,-404.20,M,003.971,N,007.355,K,D*02
$GPGGA,094147.75,5703.4061423,N,00952.0889383,E,2,11,0.8,-2.156,M,40.593,M,2.3,0123*6B
$GPVTG,235.45,T,-404.45,M,003.965,N,007.344,K,D*02
$GPGGA,094147.80,5703.4061107,N,00952.0888557,E,2,11,0.8,-2.156,M,40.593,M,2.3,0123*6C
$GPVTG,235.06,T,-404.84,M,003.958,N,007.331,K,D*04
$GPGGA,094147.85,5703.4060802,N,00952.0887726,E,2,11,0.8,-2.157,M,40.593,M,2.5,0123*68
$GPVTG,235.31,T,-404.59,M,003.947,N,007.311,K,D*0C
$GPGGA,094147.90,5703.4060489,N,00952.0886885,E,2,11,0.8,-2.156,M,40.593,M,2.5,0123*65
$GPVTG,235.43,T,-404.47,M,003.971,N,007.354,K,D*02
$GPGGA,094147.95,5703.4060189,N,00952.0886057,E,2,11,0.8,-2.154,M,40.593,M,2.5,0123*60
$GPVTG,235.81,T,-404.09,M,003.941,N,007.299,K,D*05
$GPGGA,094148.00,5703.4059884,N,00952.0885224,E,2,11,0.8,-2.154,M,40.593,M,2.5,0123*68
$GPVTG,235.97,T,-403.93,M,003.941,N,007.298,K,D*07
$GPGGA,094148.05,5703.4059574,N,00952.0884392,E,2,11,0.8,-2.156,M,40.593,M,2.7,0123*62
$GPVTG,235.91,T,-403.99,M,003.940,N,007.297,K,D*05
$GPGGA,094148.10,5703.4059258,N,00952.0883572,E,2,11,0.8,-2.158,M,40.593,M,2.7,0123*6E
$GPVTG,235.37,T,-404.53,M,003.939,N,007.295,K,D*04
$GPGGA,094148.15,5703.4058942,N,00952.0882751,E,2,11,0.8,-2.162,M,40.593,M,2.7,0123*61
$GPVTG,234.99,T,-404.91,M,003.943,N,007.303,K,D*0C
$GPGGA,094148.20,5703.4058625,N,00952.0881936,E,2,11,0.8,-2.163,M,40.593,M,2.7,0123*64
$GPVTG,234.62,T,-405.28,M,003.937,N,007.292,K,D*01
$GPGGA,094148.25,5703.4058316,N,00952.0881116,E,2,11,0.8,-2.165,M,40.593,M,2.9,0123*66
$GPVTG,234.84,T,-405.06,M,003.925,N,007.269,K,D*02
$GPGGA,094148.30,5703.4058002,N,00952.0880305,E,2,11,0.8,-2.165,M,40.593,M,2.9,0123*65
$GPVTG,234.65,T,-405.25,M,003.915,N,007.251,K,D*04
$GPGGA,094148.35,5703.4057682,N,00952.0879498,E,2,11,0.8,-2.168,M,40.593,M,2.9,0123*69
$GPVTG,234.17,T,-405.73,M,003.915,N,007.251,K,D*02
$GPGGA,094148.40,5703.4057354,N,00952.0878683,E,2,11,0.8,-2.170,M,40.593,M,2.9,0123*65
$GPVTG,233.75,T,-406.15,M,003.944,N,007.305,K,D*06
$GPGGA,094148.45,5703.4057028,N,00952.0877878,E,2,11,0.8,-2.168,M,40.593,M,3.1,0123*6D
$GPVTG,233.40,T,-406.50,M,003.945,N,007.305,K,D*00
$GPGGA,094148.50,5703.4056708,N,00952.0877064,E,2,11,0.8,-2.169,M,40.593,M,3.1,0123*69
$GPVTG,233.56,T,-406.34,M,003.950,N,007.316,K,D*03
$GPGGA,094148.55,5703.4056403,N,00952.0876264,E,2,11,0.8,-2.168,M,40.593,M,3.1,0123*66
$GPVTG,234.05,T,-405.85,M,003.900,N,007.223,K,D*09
$GPGGA,094148.60,5703.4056088,N,00952.0875473,E,2,11,0.8,-2.167,M,40.593,M,3.1,0123*6B
$GPVTG,233.89,T,-406.01,M,003.869,N,007.165,K,D*0A
$GPGGA,094148.65,5703.4055768,N,00952.0874689,E,2,11,0.8,-2.168,M,40.593,M,3.3,0123*6F
$GPVTG,233.50,T,-406.40,M,003.848,N,007.126,K,D*0F
$GPGGA,094148.70,5703.4055443,N,00952.0873895,E,2,11,0.8,-2.167,M,40.593,M,3.3,0123*6A
$GPVTG,233.21,T,-406.69,M,003.863,N,007.155,K,D*0F
$GPGGA,094148.75,5703.4055121,N,00952.0873100,E,2,11,0.8,-2.167,M,40.593,M,3.3,0123*6B
$GPVTG,233.17,T,-406.73,M,003.874,N,007.175,K,D*05
$GPGGA,094148.80,5703.4054799,N,00952.0872316,E,2,11,0.8,-2.169,M,40.593,M,3.3,0123*6F
$GPVTG,232.98,T,-406.92,M,003.863,N,007.155,K,D*08
$GPGGA,094148.85,5703.4054476,N,00952.0871532,E,2,11,0.8,-2.168,M,40.593,M,3.5,0123*6C
$GPVTG,232.82,T,-407.08,M,003.862,N,007.152,K,D*07
$GPGGA,094148.90,5703.4054150,N,00952.0870754,E,2,11,0.8,-2.165,M,40.593,M,3.5,0123*67
$GPVTG,232.53,T,-407.37,M,003.855,N,007.139,K,D*0E
$GPGGA,094148.95,5703.4053822,N,00952.0869984,E,2,11,0.8,-2.164,M,40.593,M,3.5,0123*63
$GPVTG,232.10,T,-407.80,M,003.844,N,007.120,K,D*0D
$GPGGA,094149.00,5703.4053493,N,00952.0869200,E,2,11,0.8,-2.164,M,40.593,M,3.5,0123*6F
$GPVTG,232.10,T,-407.80,M,003.864,N,007.157,K,D*0F
$GPGGA,094149.05,5703.4053171,N,00952.0868427,E,2,11,0.8,-2.160,M,40.593,M,2.1,0123*60
$GPVTG,232.22,T,-407.68,M,003.840,N,007.112,K,D*0F
$GPGGA,094149.10,5703.4052847,N,00952.0867642,E,2,11,0.8,-2.159,M,40.593,M,2.1,0123*6D
$GPVTG,232.47,T,-407.43,M,003.854,N,007.137,K,D*07
$GPGGA,094149.15,5703.4052524,N,00952.0866873,E,2,11,0.8,-2.159,M,40.593,M,2.1,0123*6D
$GPVTG,232.37,T,-407.53,M,003.834,N,007.100,K,D*03
$GPGGA,094149.20,5703.4052191,N,00952.0866111,E,2,11,0.8,-2.155,M,40.593,M,2.1,0123*60
$GPVTG,231.83,T,-408.07,M,003.829,N,007.092,K,D*07
$GPGGA,094149.25,5703.4051849,N,00952.0865335,E,2,11,0.8,-2.153,M,40.593,M,2.3,0123*69
$GPVTG,231.34,T,-408.56,M,003.873,N,007.173,K,D*0E
$GPGGA,094149.30,5703.4051510,N,00952.0864577,E,2,11,0.8,-2.151,M,40.593,M,2.3,0123*6F
$GPVTG,230.79,T,-409.11,M,003.869,N,007.165,K,D*08
$GPGGA,094149.35,5703.4051180,N,00952.0863820,E,2,11,0.8,-2.151,M,40.593,M,2.3,0123*6F
$GPVTG,230.79,T,-409.11,M,003.844,N,007.119,K,D*0C
$GPGGA,094149.40,5703.4050849,N,00952.0863057,E,2,11,0.8,-2.153,M,40.593,M,2.3,0123*6A
$GPVTG,230.95,T,-408.95,M,003.838,N,007.108,K,D*08
$GPGGA,094149.45,5703.4050510,N,00952.0862293,E,2,11,0.8,-2.153,M,40.593,M,2.6,0123*60
$GPVTG,230.82,T,-409.08,M,003.855,N,007.139,K,D*02
$GPGGA,094149.50,5703.4050163,N,00952.0861544,E,2,11,0.8,-2.150,M,40.593,M,2.6,0123*69
$GPVTG,230.15,T,-409.75,M,003.857,N,007.143,K,D*09
$GPGGA,094149.55,5703.4049815,N,00952.0860807,E,2,11,0.8,-2.151,M,40.593,M,2.6,0123*66
$GPVTG,229.39,T,-410.51,M,003.845,N,007.122,K,D*05
$GPGGA,094149.60,5703.4049467,N,00952.0860078,E,2,11,0.8,-2.152,M,40.593,M,2.6,0123*6A
$GPVTG,228.80,T,-411.10,M,003.825,N,007.084,K,D*09
$GPGGA,094149.65,5703.4049122,N,00952.0859341,E,2,11,0.8,-2.154,M,40.593,M,2.9,0123*61
$GPVTG,228.73,T,-411.18,M,003.821,N,007.077,K,D*05
$GPGGA,094149.70,5703.4048780,N,00952.0858599,E,2,11,0.8,-2.151,M,40.593,M,2.9,0123*6D
$GPVTG,229.00,T,-410.90,M,003.819,N,007.073,K,D*0E
$GPGGA,094149.75,5703.4048431,N,00952.0857859,E,2,11,0.8,-2.151,M,40.593,M,2.9,0123*6F
$GPVTG,228.91,T,-410.99,M,003.831,N,007.096,K,D*0F
$GPGGA,094149.80,5703.4048084,N,00952.0857132,E,2,11,0.8,-2.153,M,40.593,M,2.9,0123*69
$GPVTG,228.71,T,-411.19,M,003.814,N,007.064,K,D*02
$GPGGA,094149.85,5703.4047740,N,00952.0856399,E,2,11,0.8,-2.150,M,40.593,M,3.1,0123*64
$GPVTG,228.85,T,-411.05,M,003.806,N,007.049,K,D*08
$GPGGA,094149.90,5703.4047394,N,00952.0855674,E,2,11,0.8,-2.147,M,40.593,M,3.1,0123*6E
$GPVTG,228.74,T,-411.16,M,003.793,N,007.025,K,D*0D
$GPGGA,094149.95,5703.4047046,N,00952.0854961,E,2,11,0.8,-2.144,M,40.593,M,3.1,0123*6E
$GPVTG,228.36,T,-411.54,M,003.771,N,006.984,K,D*02
$GPGGA,094150.00,5703.4046695,N,00952.0854263,E,2,11,0.8,-2.140,M,40.593,M,3.1,0123*6E
$GPVTG,227.68,T,-412.22,M,003.744,N,006.935,K,D*08
$GPGGA,094150.05,5703.4046335,N,00952.0853561,E,2,11,0.8,-2.137,M,40.593,M,1.7,0123*62
$GPVTG,227.03,T,-412.87,M,003.745,N,006.936,K,D*08
$GPGGA,094150.10,5703.4045987,N,00952.0852862,E,2,11,0.8,-2.135,M,40.593,M,1.7,0123*6B
$GPVTG,226.99,T,-412.91,M,003.730,N,006.909,K,D*03
$GPGGA,094150.15,5703.4045640,N,00952.0852154,E,2,11,0.8,-2.134,M,40.593,M,1.7,0123*67
$GPVTG,227.30,T,-412.60,M,003.729,N,006.906,K,D*08
$GPGGA,094150.20,5703.4045289,N,00952.0851455,E,2,11,0.8,-2.135,M,40.593,M,1.7,0123*66
$GPVTG,227.19,T,-412.71,M,003.728,N,006.905,K,D*01
$GPGGA,094150.25,5703.4044947,N,00952.0850759,E,2,11,0.8,-2.138,M,40.593,M,1.9,0123*66
$GPVTG,227.44,T,-412.46,M,003.703,N,006.859,K,D*0C
$GPGGA,094150.30,5703.4044609,N,00952.0850055,E,2,11,0.8,-2.136,M,40.593,M,1.9,0123*62
$GPVTG,227.95,T,-411.95,M,003.691,N,006.835,K,D*0D
$GPGGA,094150.35,5703.4044259,N,00952.0849366,E,2,11,0.8,-2.135,M,40.593,M,1.9,0123*6E
$GPVTG,227.61,T,-412.29,M,003.686,N,006.827,K,D*07
$GPGGA,094150.40,5703.4043910,N,00952.0848679,E,2,11,0.8,-2.134,M,40.593,M,1.9,0123*66
$GPVTG,227.27,T,-412.63,M,003.683,N,006.821,K,D*08
$GPGGA,094150.45,5703.4043561,N,00952.0848004,E,2,11,0.8,-2.128,M,40.593,M,2.2,0123*60
$GPVTG,226.79,T,-413.11,M,003.662,N,006.781,K,D*0C
$GPGGA,094150.50,5703.4043214,N,00952.0847316,E,2,11,0.8,-2.129,M,40.593,M,2.2,0123*6F
$GPVTG,226.88,T,-413.02,M,003.666,N,006.790,K,D*04
$GPGGA,094150.55,5703.4042864,N,00952.0846626,E,2,11,0.8,-2.129,M,40.593,M,2.2,0123*61
$GPVTG,226.91,T,-412.99,M,003.680,N,006.815,K,D*05
$GPGGA,094150.60,5703.4042516,N,00952.0845940,E,2,11,0.8,-2.129,M,40.593,M,2.2,0123*63
$GPVTG,226.93,T,-412.97,M,003.680,N,006.815,K,D*09
$GPGGA,094150.65,5703.4042167,N,00952.0845267,E,2,11,0.8,-2.133,M,40.593,M,2.4,0123*67
$GPVTG,226.59,T,-413.31,M,003.667,N,006.791,K,D*08
$GPGGA,094150.70,5703.4041806,N,00952.0844603,E,2,11,0.8,-2.133,M,40.593,M,2.4,0123*69
$GPVTG,225.77,T,-414.13,M,003.669,N,006.796,K,D*09
$GPGGA,094150.75,5703.4041442,N,00952.0843946,E,2,11,0.8,-2.133,M,40.593,M,2.4,0123*69
$GPVTG,224.93,T,-414.97,M,003.672,N,006.801,K,D*05
$GPGGA,094150.80,5703.4041083,N,00952.0843294,E,2,11,0.8,-2.135,M,40.593,M,2.4,0123*68
$GPVTG,224.47,T,-415.43,M,003.658,N,006.775,K,D*00
$GPGGA,094150.85,5703.4040730,N,00952.0842657,E,2,11,0.8,-2.140,M,40.593,M,2.7,0123*68
$GPVTG,224.14,T,-415.76,M,003.612,N,006.690,K,D*04
$GPGGA,094150.90,5703.4040392,N,00952.0842014,E,2,11,0.8,-2.143,M,40.593,M,2.7,0123*62
$GPVTG,224.72,T,-415.18,M,003.554,N,006.582,K,D*0D
$GPGGA,094150.95,5703.4040045,N,00952.0841363,E,2,11,0.8,-2.144,M,40.593,M,2.7,0123*69
$GPVTG,225.04,T,-414.86,M,003.551,N,006.576,K,D*05
$GPGGA,094151.00,5703.4039689,N,00952.0840711,E,2,11,0.8,-2.146,M,40.593,M,2.7,0123*6E
$GPVTG,224.96,T,-414.94,M,003.577,N,006.624,K,D*0C
$GPGGA,094151.05,5703.4039335,N,00952.0840077,E,2,11,0.8,-2.151,M,40.593,M,1.6,0123*6A
$GPVTG,224.59,T,-415.31,M,003.564,N,006.600,K,D*05
$GPGGA,094151.10,5703.4038990,N,00952.0839463,E,2,11,0.8,-2.152,M,40.593,M,1.6,0123*66
$GPVTG,224.22,T,-415.68,M,003.508,N,006.496,K,D*02
$GPGGA,094151.15,5703.4038636,N,00952.0838828,E,2,11,0.8,-2.156,M,40.593,M,1.6,0123*66
$GPVTG,224.16,T,-415.74,M,003.525,N,006.529,K,D*02
$GPGGA,094151.20,5703.4038290,N,00952.0838200,E,2,11,0.8,-2.158,M,40.593,M,1.6,0123*66
$GPVTG,224.30,T,-415.60,M,003.508,N,006.497,K,D*08
$GPGGA,094151.25,5703.4037942,N,00952.0837562,E,2,11,0.8,-2.158,M,40.593,M,1.8,0123*6A
$GPVTG,224.61,T,-415.29,M,003.522,N,006.523,K,D*07
$GPGGA,094151.30,5703.4037586,N,00952.0836939,E,2,11,0.8,-2.159,M,40.593,M,1.8,0123*68
$GPVTG,224.17,T,-415.73,M,003.526,N,006.530,K,D*0F
$GPGGA,094151.35,5703.4037237,N,00952.0836317,E,2,11,0.8,-2.159,M,40.593,M,1.8,0123*66
$GPVTG,224.08,T,-415.82,M,003.518,N,006.515,K,D*05
$GPGGA,094151.40,5703.4036877,N,00952.0835688,E,2,11,0.8,-2.161,M,40.593,M,1.8,0123*60
$GPVTG,223.82,T,-416.08,M,003.546,N,006.566,K,D*0E
$GPGGA,094151.45,5703.4036523,N,00952.0835075,E,2,11,0.8,-2.168,M,40.593,M,2.0,0123*6F
$GPVTG,223.39,T,-416.51,M,003.536,N,006.550,K,D*00
$GPGGA,094151.50,5703.4036160,N,00952.0834445,E,2,11,0.8,-2.173,M,40.593,M,2.0,0123*64
$GPVTG,223.25,T,-416.65,M,003.571,N,006.614,K,D*0A
$GPGGA,094151.55,5703.4035802,N,00952.0833821,E,2,11,0.8,-2.176,M,40.593,M,2.0,0123*63
$GPVTG,223.24,T,-416.66,M,003.575,N,006.621,K,D*0A
$GPGGA,094151.60,5703.4035428,N,00952.0833208,E,2,11,0.8,-2.178,M,40.593,M,2.0,0123*6E
$GPVTG,222.41,T,-417.49,M,003.598,N,006.663,K,D*01
$GPGGA,094151.65,5703.4035064,N,00952.0832600,E,2,11,0.8,-2.182,M,40.593,M,2.3,0123*6C
$GPVTG,222.12,T,-417.78,M,003.585,N,006.639,K,D*06
$GPGGA,094151.70,5703.4034683,N,00952.0831982,E,2,11,0.8,-2.185,M,40.593,M,2.3,0123*67
$GPVTG,221.61,T,-418.29,M,003.629,N,006.721,K,D*07
$GPGGA,094151.75,5703.4034311,N,00952.0831360,E,2,11,0.8,-2.188,M,40.593,M,2.3,0123*67
$GPVTG,221.73,T,-418.17,M,003.641,N,006.744,K,D*04
$GPGGA,094151.80,5703.4033940,N,00952.0830722,E,2,11,0.8,-2.192,M,40.593,M,2.3,0123*6C
$GPVTG,222.25,T,-417.65,M,003.669,N,006.795,K,D*08
$GPGGA,094151.85,5703.4033562,N,00952.0830105,E,2,11,0.8,-2.198,M,40.593,M,2.5,0123*6A
$GPVTG,221.84,T,-418.06,M,003.678,N,006.812,K,D*0A
$GPGGA,094151.90,5703.4033177,N,00952.0829487,E,2,11,0.8,-2.201,M,40.593,M,2.5,0123*6A
$GPVTG,221.40,T,-418.50,M,003.696,N,006.845,K,D*03
$GPGGA,094151.95,5703.4032793,N,00952.0828864,E,2,11,0.8,-2.204,M,40.593,M,2.5,0123*67
$GPVTG,221.29,T,-418.61,M,003.709,N,006.869,K,D*07
$GPGGA,094152.00,5703.4032419,N,00952.0828242,E,2,11,0.8,-2.205,M,40.593,M,2.5,0123*66
$GPVTG,221.56,T,-418.34,M,003.690,N,006.833,K,D*01
$GPGGA,094152.05,5703.4032037,N,00952.0827627,E,2,11,0.8,-2.203,M,40.593,M,2.7,0123*67
$GPVTG,221.32,T,-418.58,M,003.680,N,006.815,K,D*0C
$GPGGA,094152.10,5703.4031637,N,00952.0827017,E,2,11,0.8,-2.205,M,40.593,M,2.7,0123*65
$GPVTG,220.47,T,-419.43,M,003.713,N,006.876,K,D*0A
$GPGGA,094152.15,5703.4031234,N,00952.0826406,E,2,11,0.8,-2.208,M,40.593,M,2.7,0123*6F
$GPVTG,219.82,T,-420.08,M,003.748,N,006.941,K,D*07
$GPGGA,094152.20,5703.4030835,N,00952.0825795,E,2,11,0.8,-2.210,M,40.593,M,2.7,0123*60
$GPVTG,219.56,T,-420.34,M,003.761,N,006.966,K,D*0F
$GPGGA,094152.25,5703.4030440,N,00952.0825174,E,2,11,0.8,-2.214,M,40.593,M,2.9,0123*68
$GPVTG,219.80,T,-420.10,M,003.772,N,006.986,K,D*0E
$GPGGA,094152.30,5703.4030036,N,00952.0824559,E,2,11,0.8,-2.215,M,40.593,M,2.9,0123*62
$GPVTG,219.59,T,-420.31,M,003.791,N,007.021,K,D*01
$GPGGA,094152.35,5703.4029622,N,00952.0823946,E,2,11,0.8,-2.215,M,40.593,M,2.9,0123*69
$GPVTG,219.11,T,-420.79,M,003.826,N,007.085,K,D*0C
$GPGGA,094152.40,5703.4029205,N,00952.0823329,E,2,11,0.8,-2.213,M,40.593,M,2.9,0123*6F
$GPVTG,218.85,T,-421.05,M,003.859,N,007.146,K,D*0C
$GPGGA,094152.45,5703.4028800,N,00952.0822716,E,2,11,0.8,-2.211,M,40.593,M,3.1,0123*66
$GPVTG,218.88,T,-421.02,M,003.848,N,007.126,K,D*00
$GPGGA,094152.50,5703.4028384,N,00952.0822086,E,2,11,0.8,-2.212,M,40.593,M,3.1,0123*68
$GPVTG,219.10,T,-420.80,M,003.881,N,007.187,K,D*05
$GPGGA,094152.55,5703.4027967,N,00952.0821459,E,2,11,0.8,-2.212,M,40.593,M,3.1,0123*60
$GPVTG,219.12,T,-420.78,M,003.902,N,007.227,K,D*03
$GPGGA,094152.60,5703.4027549,N,00952.0820847,E,2,11,0.8,-2.212,M,40.593,M,3.1,0123*64
$GPVTG,218.79,T,-421.11,M,003.895,N,007.213,K,D*09
$GPGGA,094152.65,5703.4027118,N,00952.0820228,E,2,11,0.8,-2.207,M,40.593,M,3.3,0123*64
$GPVTG,218.31,T,-421.59,M,003.931,N,007.280,K,D*0C
$GPGGA,094152.70,5703.4026678,N,00952.0819611,E,2,11,0.8,-2.204,M,40.593,M,3.3,0123*67
$GPVTG,217.73,T,-422.17,M,003.973,N,007.358,K,D*0E
$GPGGA,094152.75,5703.4026240,N,00952.0818994,E,2,11,0.8,-2.203,M,40.593,M,3.3,0123*69
$GPVTG,217.41,T,-422.49,M,003.999,N,007.406,K,D*0C
$GPGGA,094152.80,5703.4025805,N,00952.0818379,E,2,11,0.8,-2.203,M,40.593,M,3.3,0123*62
$GPVTG,217.26,T,-422.64,M,004.000,N,007.409,K,D*03
$GPGGA,094152.85,5703.4025363,N,00952.0817754,E,2,11,0.8,-2.205,M,40.593,M,3.5,0123*68
$GPVTG,217.28,T,-422.62,M,004.026,N,007.456,K,D*05
$GPGGA,094152.90,5703.4024931,N,00952.0817119,E,2,11,0.8,-2.203,M,40.593,M,3.5,0123*69
$GPVTG,217.85,T,-422.05,M,004.027,N,007.459,K,D*0D
$GPGGA,094152.95,5703.4024496,N,00952.0816487,E,2,11,0.8,-2.203,M,40.593,M,3.5,0123*6F
$GPVTG,218.08,T,-421.82,M,004.030,N,007.464,K,D*03
$GPGGA,094153.00,5703.4024051,N,00952.0815862,E,2,11,0.8,-2.199,M,40.593,M,3.5,0123*69
$GPVTG,217.77,T,-422.13,M,004.045,N,007.491,K,D*07
$GPGGA,094153.05,5703.4023612,N,00952.0815242,E,2,11,0.8,-2.203,M,40.593,M,2.1,0123*67
$GPVTG,217.61,T,-422.29,M,004.031,N,007.465,K,D*01
$GPGGA,094153.10,5703.4023183,N,00952.0814621,E,2,11,0.8,-2.202,M,40.593,M,2.1,0123*6D
$GPVTG,217.85,T,-422.05,M,003.992,N,007.394,K,D*0B
$GPGGA,094153.15,5703.4022741,N,00952.0813995,E,2,11,0.8,-2.200,M,40.593,M,2.1,0123*64
$GPVTG,217.76,T,-422.14,M,004.008,N,007.423,K,D*01
$GPGGA,094153.20,5703.4022287,N,00952.0813356,E,2,11,0.8,-2.198,M,40.593,M,2.1,0123*6A
$GPVTG,217.66,T,-422.24,M,004.065,N,007.528,K,D*02
$GPGGA,094153.25,5703.4021844,N,00952.0812727,E,2,11,0.8,-2.190,M,40.593,M,2.3,0123*60
$GPVTG,217.65,T,-422.25,M,004.066,N,007.530,K,D*0A
$GPGGA,094153.30,5703.4021398,N,00952.0812095,E,2,11,0.8,-2.188,M,40.593,M,2.3,0123*69
$GPVTG,217.64,T,-422.26,M,004.074,N,007.545,K,D*09
$GPGGA,094153.35,5703.4020951,N,00952.0811455,E,2,11,0.8,-2.190,M,40.593,M,2.3,0123*60
$GPVTG,217.79,T,-422.11,M,004.090,N,007.574,K,D*09
$GPGGA,094153.40,5703.4020508,N,00952.0810823,E,2,11,0.8,-2.191,M,40.593,M,2.3,0123*6F
$GPVTG,217.84,T,-422.06,M,004.079,N,007.554,K,D*08
$GPGGA,094153.45,5703.4020052,N,00952.0810200,E,2,11,0.8,-2.191,M,40.593,M,2.6,0123*6E
$GPVTG,217.28,T,-422.62,M,004.092,N,007.578,K,D*07
$GPGGA,094153.50,5703.4019600,N,00952.0809563,E,2,11,0.8,-2.191,M,40.593,M,2.6,0123*6B
$GPVTG,217.32,T,-422.58,M,004.108,N,007.608,K,D*03
$GPGGA,094153.55,5703.4019149,N,00952.0808934,E,2,11,0.8,-2.192,M,40.593,M,2.6,0123*68
$GPVTG,217.19,T,-422.71,M,004.105,N,007.602,K,D*06
$GPGGA,094153.60,5703.4018692,N,00952.0808307,E,2,11,0.8,-2.192,M,40.593,M,2.6,0123*64
$GPVTG,216.92,T,-422.98,M,004.114,N,007.619,K,D*09
$GPGGA,094153.65,5703.4018231,N,00952.0807670,E,2,11,0.8,-2.188,M,40.593,M,2.9,0123*62
$GPVTG,216.89,T,-423.01,M,004.144,N,007.674,K,D*0C
$GPGGA,094153.70,5703.4017770,N,00952.0807043,E,2,11,0.8,-2.189,M,40.593,M,2.9,0123*6E
$GPVTG,216.63,T,-423.27,M,004.150,N,007.686,K,D*04
$GPGGA,094153.75,5703.4017303,N,00952.0806418,E,2,11,0.8,-2.188,M,40.593,M,2.9,0123*61
$GPVTG,216.26,T,-423.64,M,004.167,N,007.717,K,D*0F
$GPGGA,094153.80,5703.4016850,N,00952.0805783,E,2,11,0.8,-2.187,M,40.593,M,2.9,0123*6A
$GPVTG,216.65,T,-423.25,M,004.154,N,007.693,K,D*00
$GPGGA,094153.85,5703.4016385,N,00952.0805149,E,2,11,0.8,-2.190,M,40.593,M,3.1,0123*63
$GPVTG,216.59,T,-423.31,M,004.172,N,007.726,K,D*01
$GPGGA,094153.90,5703.4015920,N,00952.0804519,E,2,11,0.8,-2.189,M,40.593,M,3.1,0123*69
$GPVTG,216.47,T,-423.43,M,004.180,N,007.741,K,D*07
$GPGGA,094153.95,5703.4015459,N,00952.0803887,E,2,11,0.8,-2.187,M,40.593,M,3.1,0123*6C
$GPVTG,216.55,T,-423.35,M,004.173,N,007.727,K,D*09
$GPGGA,094154.00,5703.4014998,N,00952.0803243,E,2,11,0.8,-2.188,M,40.593,M,3.1,0123*6B
$GPVTG,216.89,T,-423.01,M,004.184,N,007.748,K,D*0E
$GPGGA,094154.05,5703.4014532,N,00952.0802599,E,2,11,0.8,-2.192,M,40.593,M,1.7,0123*6C
$GPVTG,216.92,T,-422.98,M,004.197,N,007.773,K,D*0F
$GPGGA,094154.10,5703.4014064,N,00952.0801965,E,2,11,0.8,-2.191,M,40.593,M,1.7,0123*61
$GPVTG,216.72,T,-423.18,M,004.203,N,007.785,K,D*0F
$GPGGA,094154.15,5703.4013600,N,00952.0801320,E,2,11,0.8,-2.189,M,40.593,M,1.7,0123*65
$GPVTG,216.92,T,-422.98,M,004.208,N,007.794,K,D*03
$GPGGA,094154.20,5703.4013139,N,00952.0800686,E,2,11,0.8,-2.188,M,40.593,M,1.7,0123*67
$GPVTG,216.90,T,-423.00,M,004.188,N,007.757,K,D*05
$GPGGA,094154.25,5703.4012668,N,00952.0800048,E,2,11,0.8,-2.186,M,40.593,M,1.9,0123*64
$GPVTG,216.67,T,-423.23,M,004.205,N,007.788,K,D*08
$GPGGA,094154.30,5703.4012210,N,00952.0799428,E,2,11,0.8,-2.187,M,40.593,M,1.9,0123*67
$GPVTG,216.47,T,-423.43,M,004.161,N,007.707,K,D*0A
$GPGGA,094154.35,5703.4011742,N,00952.0798804,E,2,11,0.8,-2.188,M,40.593,M,1.9,0123*6F
$GPVTG,216.18,T,-423.72,M,004.159,N,007.703,K,D*0D
$GPGGA,094154.40,5703.4011282,N,00952.0798174,E,2,11,0.8,-2.184,M,40.593,M,1.9,0123*66
$GPVTG,216.34,T,-423.56,M,004.149,N,007.684,K,D*0A
$GPGGA,094154.45,5703.4010824,N,00952.0797538,E,2,11,0.8,-2.180,M,40.593,M,2.2,0123*6B
$GPVTG,216.70,T,-423.20,M,004.140,N,007.667,K,D*0F
$GPGGA,094154.50,5703.4010367,N,00952.0796907,E,2,11,0.8,-2.181,M,40.593,M,2.2,0123*63
$GPVTG,216.85,T,-423.05,M,004.131,N,007.650,K,D*00
$GPGGA,094154.55,5703.4009908,N,00952.0796266,E,2,11,0.8,-2.182,M,40.593,M,2.2,0123*62
$GPVTG,217.16,T,-422.74,M,004.140,N,007.667,K,D*0E
$GPGGA,094154.60,5703.4009446,N,00952.0795634,E,2,11,0.8,-2.182,M,40.593,M,2.2,0123*63
$GPVTG,217.02,T,-422.88,M,004.146,N,007.679,K,D*01
$GPGGA,094154.65,5703.4008983,N,00952.0795010,E,2,11,0.8,-2.180,M,40.593,M,2.4,0123*67
$GPVTG,216.69,T,-423.21,M,004.143,N,007.672,K,D*01
$GPGGA,094154.70,5703.4008525,N,00952.0794398,E,2,11,0.8,-2.179,M,40.593,M,2.4,0123*67
$GPVTG,216.30,T,-423.60,M,004.114,N,007.619,K,D*07
$GPGGA,094154.75,5703.4008065,N,00952.0793794,E,2,11,0.8,-2.178,M,40.593,M,2.4,0123*6D
$GPVTG,215.83,T,-424.07,M,004.091,N,007.576,K,D*0C
$GPGGA,094154.80,5703.4007609,N,00952.0793181,E,2,11,0.8,-2.177,M,40.593,M,2.4,0123*69
$GPVTG,215.88,T,-424.02,M,004.076,N,007.549,K,D*07
$GPGGA,094154.85,5703.4007157,N,00952.0792551,E,2,11,0.8,-2.177,M,40.593,M,2.7,0123*6B
$GPVTG,216.45,T,-423.45,M,004.079,N,007.555,K,D*03
$GPGGA,094154.90,5703.4006706,N,00952.0791920,E,2,11,0.8,-2.177,M,40.593,M,2.7,0123*65
$GPVTG,216.90,T,-423.00,M,004.081,N,007.559,K,D*01
$GPGGA,094154.95,5703.4006257,N,00952.0791296,E,2,11,0.8,-2.174,M,40.593,M,2.7,0123*64
$GPVTG,217.14,T,-422.76,M,004.069,N,007.536,K,D*03
$GPGGA,094155.00,5703.4005804,N,00952.0790671,E,2,11,0.8,-2.175,M,40.593,M,2.7,0123*6B
$GPVTG,217.15,T,-422.75,M,004.073,N,007.543,K,D*08
$GPGGA,094155.05,5703.4005358,N,00952.0790049,E,2,11,0.8,-2.173,M,40.593,M,1.6,0123*65
$GPVTG,217.40,T,-422.50,M,004.065,N,007.529,K,D*04
$GPGGA,094155.10,5703.4004914,N,00952.0789425,E,2,11,0.8,-2.172,M,40.593,M,1.6,0123*65
$GPVTG,217.55,T,-422.35,M,004.047,N,007.495,K,D*05
$GPGGA,094155.15,5703.4004470,N,00952.0788801,E,2,11,0.8,-2.173,M,40.593,M,1.6,0123*65
$GPVTG,217.59,T,-422.31,M,004.037,N,007.477,K,D*06
$GPGGA,094155.20,5703.4004022,N,00952.0788182,E,2,11,0.8,-2.173,M,40.593,M,1.6,0123*62
$GPVTG,217.38,T,-422.52,M,004.032,N,007.468,K,D*0F
$GPGGA,094155.25,5703.4003581,N,00952.0787560,E,2,11,0.8,-2.174,M,40.593,M,1.8,0123*62
$GPVTG,217.47,T,-422.43,M,004.017,N,007.440,K,D*0A
$GPGGA,094155.30,5703.4003145,N,00952.0786919,E,2,11,0.8,-2.174,M,40.593,M,1.8,0123*69
$GPVTG,218.16,T,-421.74,M,004.017,N,007.440,K,D*06
$GPGGA,094155.35,5703.4002703,N,00952.0786301,E,2,11,0.8,-2.174,M,40.593,M,1.8,0123*6A
$GPVTG,217.87,T,-422.03,M,004.008,N,007.423,K,D*09
$GPGGA,094155.40,5703.4002259,N,00952.0785681,E,2,11,0.8,-2.174,M,40.593,M,1.8,0123*6C
$GPVTG,217.65,T,-422.25,M,004.008,N,007.422,K,D*00
$GPGGA,094155.45,5703.4001814,N,00952.0785070,E,2,11,0.8,-2.176,M,40.593,M,2.0,0123*68
$GPVTG,217.23,T,-422.67,M,004.005,N,007.417,K,D*0F
$GPGGA,094155.50,5703.4001371,N,00952.0784458,E,2,11,0.8,-2.178,M,40.593,M,2.0,0123*65
$GPVTG,217.03,T,-422.87,M,003.996,N,007.401,K,D*00
$GPGGA,094155.55,5703.4000922,N,00952.0783843,E,2,11,0.8,-2.180,M,40.593,M,2.0,0123*6B
$GPVTG,216.82,T,-423.08,M,004.014,N,007.435,K,D*0D
$GPGGA,094155.60,5703.4000481,N,00952.0783236,E,2,11,0.8,-2.181,M,40.593,M,2.0,0123*60
$GPVTG,216.71,T,-423.19,M,003.994,N,007.397,K,D*08
$GPGGA,094155.65,5703.4000045,N,00952.0782629,E,2,11,0.8,-2.180,M,40.593,M,2.3,0123*60
$GPVTG,216.82,T,-423.08,M,003.971,N,007.355,K,D*01
$GPGGA,094155.70,5703.3999610,N,00952.0782008,E,2,11,0.8,-2.181,M,40.593,M,2.3,0123*68
$GPVTG,217.30,T,-422.60,M,003.970,N,007.353,K,D*01
$GPGGA,094155.75,5703.3999188,N,00952.0781390,E,2,11,0.8,-2.181,M,40.593,M,2.3,0123*6A
$GPVTG,217.97,T,-421.93,M,003.930,N,007.279,K,D*0E
$GPGGA,094155.80,5703.3998760,N,00952.0780771,E,2,11,0.8,-2.181,M,40.593,M,2.3,0123*6B
$GPVTG,218.26,T,-421.64,M,003.921,N,007.262,K,D*09
$GPGGA,094155.85,5703.3998327,N,00952.0780158,E,2,11,0.8,-2.183,M,40.593,M,2.5,0123*60
$GPVTG,218.15,T,-421.75,M,003.919,N,007.259,K,D*0A
$GPGGA,094155.90,5703.3997897,N,00952.0779546,E,2,11,0.8,-2.184,M,40.593,M,2.5,0123*61
$GPVTG,218.09,T,-421.81,M,003.916,N,007.252,K,D*08
$GPGGA,094155.95,5703.3997462,N,00952.0778934,E,2,11,0.8,-2.184,M,40.593,M,2.5,0123*6A
$GPVTG,217.87,T,-422.03,M,003.925,N,007.269,K,D*00
$GPGGA,094156.00,5703.3997036,N,00952.0778322,E,2,11,0.8,-2.185,M,40.593,M,2.5,0123*6C
$GPVTG,217.95,T,-421.95,M,003.913,N,007.246,K,D*07
$GPGGA,094156.05,5703.3996608,N,00952.0777716,E,2,11,0.8,-2.186,M,40.593,M,2.7,0123*6E
$GPVTG,217.95,T,-421.95,M,003.912,N,007.246,K,D*06
$GPGGA,094156.10,5703.3996176,N,00952.0777108,E,2,11,0.8,-2.188,M,40.593,M,2.7,0123*63
$GPVTG,217.77,T,-422.13,M,003.913,N,007.247,K,D*07
$GPGGA,094156.15,5703.3995751,N,00952.0776503,E,2,11,0.8,-2.185,M,40.593,M,2.7,0123*65
$GPVTG,217.73,T,-422.17,M,003.896,N,007.215,K,D*0C
$GPGGA,094156.20,5703.3995328,N,00952.0775893,E,2,11,0.8,-2.182,M,40.593,M,2.7,0123*69
$GPVTG,217.94,T,-421.96,M,003.885,N,007.195,K,D*06
$GPGGA,094156.25,5703.3994908,N,00952.0775277,E,2,11,0.8,-2.183,M,40.593,M,2.9,0123*6A
$GPVTG,218.30,T,-421.60,M,003.879,N,007.185,K,D*0C
$GPGGA,094156.30,5703.3994479,N,00952.0774648,E,2,11,0.8,-2.186,M,40.593,M,2.9,0123*69
$GPVTG,218.58,T,-421.33,M,003.917,N,007.254,K,D*02
$GPGGA,094156.35,5703.3994060,N,00952.0774024,E,2,11,0.8,-2.187,M,40.593,M,2.9,0123*6D
$GPVTG,218.91,T,-420.99,M,003.908,N,007.238,K,D*02
$GPGGA,094156.40,5703.3993636,N,00952.0773419,E,2,11,0.8,-2.187,M,40.593,M,2.9,0123*60
$GPVTG,218.53,T,-421.37,M,003.890,N,007.205,K,D*07
$GPGGA,094156.45,5703.3993200,N,00952.0772820,E,2,11,0.8,-2.191,M,40.593,M,3.1,0123*6D
$GPVTG,217.73,T,-422.17,M,003.903,N,007.228,K,D*0F
$GPGGA,094156.50,5703.3992776,N,00952.0772210,E,2,11,0.8,-2.192,M,40.593,M,3.1,0123*66
$GPVTG,217.79,T,-422.11,M,003.895,N,007.213,K,D*05
$GPGGA,094156.55,5703.3992344,N,00952.0771586,E,2,11,0.8,-2.194,M,40.593,M,3.1,0123*6B
$GPVTG,217.97,T,-421.93,M,003.930,N,007.279,K,D*0E
$GPGGA,094156.60,5703.3991919,N,00952.0770960,E,2,11,0.8,-2.195,M,40.593,M,3.1,0123*68
$GPVTG,218.33,T,-421.57,M,003.938,N,007.293,K,D*0B
$GPGGA,094156.65,5703.3991502,N,00952.0770345,E,2,11,0.8,-2.196,M,40.593,M,3.3,0123*67
$GPVTG,218.60,T,-421.30,M,003.904,N,007.230,K,D*0A
$GPGGA,094156.70,5703.3991075,N,00952.0769719,E,2,11,0.8,-2.198,M,40.593,M,3.3,0123*6D
$GPVTG,218.69,T,-421.21,M,003.923,N,007.265,K,D*06
$GPGGA,094156.75,5703.3990649,N,00952.0769095,E,2,11,0.8,-2.198,M,40.593,M,3.3,0123*63
$GPVTG,218.73,T,-421.17,M,003.930,N,007.278,K,D*06
$GPGGA,094156.80,5703.3990222,N,00952.0768481,E,2,11,0.8,-2.199,M,40.593,M,3.3,0123*61
$GPVTG,218.49,T,-421.41,M,003.924,N,007.268,K,D*08
$GPGGA,094156.85,5703.3989800,N,00952.0767867,E,2,11,0.8,-2.195,M,40.593,M,3.5,0123*67
$GPVTG,218.45,T,-421.45,M,003.903,N,007.228,K,D*01
$GPGGA,094156.90,5703.3989375,N,00952.0767255,E,2,11,0.8,-2.198,M,40.593,M,3.5,0123*6C
$GPVTG,218.27,T,-421.63,M,003.899,N,007.220,K,D*0B
$GPGGA,094156.95,5703.3988938,N,00952.0766659,E,2,11,0.8,-2.197,M,40.593,M,3.5,0123*6D
$GPVTG,217.43,T,-422.47,M,003.904,N,007.230,K,D*07
$GPGGA,094157.00,5703.3988503,N,00952.0766028,E,2,11,0.8,-2.197,M,40.593,M,3.5,0123*64
$GPVTG,217.74,T,-422.16,M,003.951,N,007.318,K,D*0C
$GPGGA,094157.05,5703.3988087,N,00952.0765410,E,2,11,0.8,-2.199,M,40.593,M,2.1,0123*6F
$GPVTG,218.27,T,-421.63,M,003.937,N,007.292,K,D*07
$GPGGA,094157.10,5703.3987670,N,00952.0764788,E,2,11,0.8,-2.200,M,40.593,M,2.1,0123*6A
$GPVTG,218.68,T,-421.22,M,003.915,N,007.251,K,D*06
$GPGGA,094157.15,5703.3987247,N,00952.0764156,E,2,11,0.8,-2.202,M,40.593,M,2.1,0123*68
$GPVTG,219.04,T,-420.86,M,003.926,N,007.272,K,D*03
$GPGGA,094157.20,5703.3986820,N,00952.0763530,E,2,11,0.8,-2.201,M,40.593,M,2.1,0123*64
$GPVTG,218.97,T,-420.93,M,003.933,N,007.284,K,D*01
$GPGGA,094157.25,5703.3986394,N,00952.0762901,E,2,11,0.8,-2.201,M,40.593,M,2.3,0123*68
$GPVTG,218.98,T,-420.92,M,003.943,N,007.302,K,D*07
$GPGGA,094157.30,5703.3985963,N,00952.0762278,E,2,11,0.8,-2.201,M,40.593,M,2.3,0123*68
$GPVTG,218.70,T,-421.20,M,003.952,N,007.319,K,D*03
$GPGGA,094157.35,5703.3985540,N,00952.0761656,E,2,11,0.8,-2.202,M,40.593,M,2.3,0123*68
$GPVTG,218.67,T,-421.23,M,003.936,N,007.290,K,D*04
$GPGGA,094157.40,5703.3985111,N,00952.0761027,E,2,11,0.8,-2.201,M,40.593,M,2.3,0123*69
$GPVTG,218.67,T,-421.23,M,003.948,N,007.313,K,D*07
$GPGGA,094157.45,5703.3984690,N,00952.0760396,E,2,11,0.8,-2.204,M,40.593,M,2.6,0123*6B
$GPVTG,218.95,T,-420.95,M,003.940,N,007.297,K,D*03
$GPGGA,094157.50,5703.3984271,N,00952.0759762,E,2,11,0.8,-2.205,M,40.593,M,2.6,0123*60
$GPVTG,219.26,T,-420.64,M,003.931,N,007.280,K,D*04
$GPGGA,094157.55,5703.3983841,N,00952.0759126,E,2,11,0.8,-2.205,M,40.593,M,2.6,0123*6D
$GPVTG,219.19,T,-420.71,M,003.953,N,007.321,K,D*02
$GPGGA,094157.60,5703.3983410,N,00952.0758490,E,2,11,0.8,-2.205,M,40.593,M,2.6,0123*6A
$GPVTG,219.07,T,-420.83,M,003.974,N,007.361,K,D*01
$GPGGA,094157.65,5703.3982981,N,00952.0757858,E,2,11,0.8,-2.202,M,40.593,M,2.9,0123*64
$GPVTG,218.92,T,-420.98,M,003.978,N,007.368,K,D*03
$GPGGA,094157.70,5703.3982559,N,00952.0757232,E,2,11,0.8,-2.202,M,40.593,M,2.9,0123*6F
$GPVTG,218.92,T,-420.98,M,003.952,N,007.318,K,D*0C
$GPGGA,094157.75,5703.3982120,N,00952.0756601,E,2,11,0.8,-2.203,M,40.593,M,2.9,0123*64
$GPVTG,218.51,T,-421.39,M,003.983,N,007.377,K,D*0C
$GPGGA,094157.80,5703.3981683,N,00952.0755959,E,2,11,0.8,-2.202,M,40.593,M,2.9,0123*63
$GPVTG,218.54,T,-421.36,M,004.016,N,007.437,K,D*07
$GPGGA,094157.85,5703.3981255,N,00952.0755321,E,2,11,0.8,-2.203,M,40.593,M,3.1,0123*64
$GPVTG,218.71,T,-421.19,M,004.013,N,007.432,K,D*0D
$GPGGA,094157.90,5703.3980828,N,00952.0754687,E,2,11,0.8,-2.201,M,40.593,M,3.1,0123*6B
$GPVTG,218.81,T,-421.09,M,003.996,N,007.401,K,D*00
$GPGGA,094157.95,5703.3980401,N,00952.0754056,E,2,11,0.8,-2.200,M,40.593,M,3.1,0123*62
$GPVTG,218.81,T,-421.09,M,003.980,N,007.370,K,D*06
$GPGGA,094158.00,5703.3979974,N,00952.0753427,E,2,11,0.8,-2.199,M,40.593,M,3.1,0123*6E
$GPVTG,218.76,T,-421.14,M,003.963,N,007.339,K,D*02
$GPGGA,094158.05,5703.3979553,N,00952.0752790,E,2,11,0.8,-2.196,M,40.593,M,1.7,0123*67
$GPVTG,219.11,T,-420.79,M,003.968,N,007.349,K,D*04
$GPGGA,094158.10,5703.3979126,N,00952.0752135,E,2,11,0.8,-2.196,M,40.593,M,1.7,0123*6C
$GPVTG,219.58,T,-420.32,M,003.992,N,007.393,K,D*04
$GPGGA,094158.15,5703.3978693,N,00952.0751477,E,2,11,0.8,-2.195,M,40.593,M,1.7,0123*62
$GPVTG,219.77,T,-420.13,M,004.027,N,007.458,K,D*0A
$GPGGA,094158.20,5703.3978268,N,00952.0750830,E,2,11,0.8,-2.195,M,40.593,M,1.7,0123*6A
$GPVTG,219.84,T,-420.06,M,004.015,N,007.436,K,D*0B
$GPGGA,094158.25,5703.3977840,N,00952.0750179,E,2,11,0.8,-2.197,M,40.593,M,1.9,0123*68
$GPVTG,219.88,T,-420.02,M,004.016,N,007.438,K,D*0E
$GPGGA,094158.30,5703.3977420,N,00952.0749523,E,2,11,0.8,-2.197,M,40.593,M,1.9,0123*65
$GPVTG,220.21,T,-419.69,M,004.004,N,007.415,K,D*0C
$GPGGA,094158.35,5703.3976999,N,00952.0748872,E,2,11,0.8,-2.196,M,40.593,M,1.9,0123*67
$GPVTG,220.28,T,-419.62,M,003.989,N,007.387,K,D*09
$GPGGA,094158.40,5703.3976575,N,00952.0748214,E,2,11,0.8,-2.195,M,40.593,M,1.9,0123*62
$GPVTG,220.38,T,-419.52,M,003.993,N,007.395,K,D*03
$GPGGA,094158.45,5703.3976157,N,00952.0747537,E,2,11,0.8,-2.197,M,40.593,M,2.2,0123*60
$GPVTG,221.02,T,-418.88,M,004.011,N,007.428,K,D*08
$GPGGA,094158.50,5703.3975733,N,00952.0746874,E,2,11,0.8,-2.196,M,40.593,M,2.2,0123*69
$GPVTG,220.94,T,-418.96,M,004.015,N,007.435,K,D*01
$GPGGA,094158.55,5703.3975319,N,00952.0746195,E,2,11,0.8,-2.196,M,40.593,M,2.2,0123*66
$GPVTG,221.47,T,-418.43,M,004.015,N,007.435,K,D*06
$GPGGA,094158.60,5703.3974903,N,00952.0745525,E,2,11,0.8,-2.194,M,40.593,M,2.2,0123*6E
$GPVTG,221.54,T,-418.36,M,004.007,N,007.421,K,D*00
$GPGGA,094158.65,5703.3974484,N,00952.0744847,E,2,11,0.8,-2.195,M,40.593,M,2.4,0123*66
$GPVTG,221.66,T,-418.24,M,004.018,N,007.441,K,D*0A
$GPGGA,094158.70,5703.3974066,N,00952.0744175,E,2,11,0.8,-2.194,M,40.593,M,2.4,0123*63
$GPVTG,221.59,T,-418.31,M,004.013,N,007.433,K,D*0C
$GPGGA,094158.75,5703.3973647,N,00952.0743507,E,2,11,0.8,-2.193,M,40.593,M,2.4,0123*65
$GPVTG,221.39,T,-418.51,M,004.010,N,007.426,K,D*0B
$GPGGA,094158.80,5703.3973230,N,00952.0742856,E,2,11,0.8,-2.193,M,40.593,M,2.4,0123*63
$GPVTG,220.87,T,-419.03,M,003.978,N,007.367,K,D*0B
$GPGGA,094158.85,5703.3972814,N,00952.0742189,E,2,11,0.8,-2.192,M,40.593,M,2.7,0123*62
$GPVTG,220.95,T,-418.95,M,003.975,N,007.362,K,D*0E
$GPGGA,094158.90,5703.3972400,N,00952.0741514,E,2,11,0.8,-2.192,M,40.593,M,2.7,0123*6C
$GPVTG,221.26,T,-418.64,M,003.983,N,007.376,K,D*05
$GPGGA,094158.95,5703.3971990,N,00952.0740859,E,2,11,0.8,-2.193,M,40.593,M,2.7,0123*6A
$GPVTG,221.15,T,-418.75,M,003.949,N,007.313,K,D*00
$GPGGA,094159.00,5703.3971579,N,00952.0740195,E,2,11,0.8,-2.192,M,40.593,M,2.7,0123*64
$GPVTG,221.26,T,-418.64,M,003.941,N,007.299,K,D*0B
$GPGGA,094159.05,5703.3971171,N,00952.0739527,E,2,11,0.8,-2.193,M,40.593,M,1.6,0123*6D
$GPVTG,221.37,T,-418.53,M,003.947,N,007.310,K,D*09
$GPGGA,094159.10,5703.3970756,N,00952.0738856,E,2,11,0.8,-2.194,M,40.593,M,1.6,0123*66
$GPVTG,221.44,T,-418.46,M,003.964,N,007.341,K,D*0C
$GPGGA,094159.15,5703.3970344,N,00952.0738188,E,2,11,0.8,-2.196,M,40.593,M,1.6,0123*6C
$GPVTG,221.50,T,-418.40,M,003.964,N,007.342,K,D*0C
$GPGGA,094159.20,5703.3969942,N,00952.0737504,E,2,11,0.8,-2.198,M,40.593,M,1.6,0123*6F
$GPVTG,222.20,T,-417.70,M,003.964,N,007.341,K,D*07
$GPGGA,094159.25,5703.3969536,N,00952.0736827,E,2,11,0.8,-2.200,M,40.593,M,1.8,0123*64
$GPVTG,222.37,T,-417.53,M,003.961,N,007.336,K,D*05
$GPGGA,094159.30,5703.3969130,N,00952.0736172,E,2,11,0.8,-2.200,M,40.593,M,1.8,0123*6B
$GPVTG,221.99,T,-417.91,M,003.928,N,007.275,K,D*07
$GPGGA,094159.35,5703.3968731,N,00952.0735510,E,2,11,0.8,-2.199,M,40.593,M,1.8,0123*68
$GPVTG,222.07,T,-417.83,M,003.898,N,007.219,K,D*00
$GPGGA,094159.40,5703.3968332,N,00952.0734849,E,2,11,0.8,-2.201,M,40.593,M,1.8,0123*6F
$GPVTG,222.10,T,-417.80,M,003.878,N,007.182,K,D*0A
$GPGGA,094159.45,5703.3967931,N,00952.0734180,E,2,11,0.8,-2.194,M,40.593,M,2.0,0123*64
$GPVTG,222.26,T,-417.64,M,003.882,N,007.189,K,D*0B
$GPGGA,094159.50,5703.3967530,N,00952.0733510,E,2,11,0.8,-2.193,M,40.593,M,2.0,0123*60
$GPVTG,222.34,T,-417.56,M,003.890,N,007.204,K,D*0C
$GPGGA,094159.55,5703.3967124,N,00952.0732820,E,2,11,0.8,-2.194,M,40.593,M,2.0,0123*6C
$GPVTG,222.70,T,-417.20,M,003.935,N,007.287,K,D*08
$GPGGA,094159.60,5703.3966729,N,00952.0732147,E,2,11,0.8,-2.192,M,40.593,M,2.0,0123*6E
$GPVTG,222.90,T,-417.00,M,003.919,N,007.257,K,D*07
$GPGGA,094159.65,5703.3966322,N,00952.0731484,E,2,11,0.8,-2.200,M,40.593,M,2.3,0123*66
$GPVTG,222.35,T,-417.55,M,003.921,N,007.262,K,D*05
$GPGGA,094159.70,5703.3965917,N,00952.0730807,E,2,11,0.8,-2.201,M,40.593,M,2.3,0123*6A
$GPVTG,222.33,T,-417.57,M,003.938,N,007.293,K,D*07
$GPGGA,094159.75,5703.3965522,N,00952.0730128,E,2,11,0.8,-2.203,M,40.593,M,2.3,0123*63
$GPVTG,222.72,T,-417.18,M,003.926,N,007.272,K,D*09
$GPGGA,094159.80,5703.3965123,N,00952.0729443,E,2,11,0.8,-2.207,M,40.593,M,2.3,0123*68
$GPVTG,222.98,T,-416.92,M,003.935,N,007.288,K,D*09
$GPGGA,094159.85,5703.3964727,N,00952.0728763,E,2,11,0.8,-2.207,M,40.593,M,2.5,0123*68
$GPVTG,223.12,T,-416.78,M,003.928,N,007.275,K,D*00
$GPGGA,094159.90,5703.3964328,N,00952.0728099,E,2,11,0.8,-2.205,M,40.593,M,2.5,0123*67
$GPVTG,222.76,T,-417.14,M,003.905,N,007.232,K,D*04
$GPGGA,094159.95,5703.3963933,N,00952.0727428,E,2,11,0.8,-2.204,M,40.593,M,2.5,0123*65
$GPVTG,222.76,T,-417.14,M,003.888,N,007.202,K,D*03
$GPGGA,094200.00,5703.3963540,N,00952.0726744,E,2,11,0.8,-2.206,M,40.593,M,2.5,0123*64
$GPVTG,223.14,T,-416.76,M,003.895,N,007.213,K,D*0F
$GPGGA,094200.05,5703.3963145,N,00952.0726052,E,2,11,0.8,-2.211,M,40.593,M,2.7,0123*64
$GPVTG,223.33,T,-416.57,M,003.922,N,007.264,K,D*04
$GPGGA,094200.10,5703.3962745,N,00952.0725372,E,2,11,0.8,-2.212,M,40.593,M,2.7,0123*66
$GPVTG,223.20,T,-416.70,M,003.929,N,007.276,K,D*0B
$GPGGA,094200.15,5703.3962342,N,00952.0724685,E,2,11,0.8,-2.214,M,40.593,M,2.7,0123*6A
$GPVTG,223.11,T,-416.79,M,003.951,N,007.317,K,D*09
$GPGGA,094200.20,5703.3961948,N,00952.0723986,E,2,11,0.8,-2.215,M,40.593,M,2.7,0123*65
$GPVTG,223.58,T,-416.32,M,003.961,N,007.335,K,D*08
$GPGGA,094200.25,5703.3961551,N,00952.0723301,E,2,11,0.8,-2.214,M,40.593,M,2.9,0123*6E
$GPVTG,223.49,T,-416.41,M,003.953,N,007.321,K,D*08
$GPGGA,094200.30,5703.3961155,N,00952.0722631,E,2,11,0.8,-2.216,M,40.593,M,2.9,0123*6F
$GPVTG,223.10,T,-416.80,M,003.923,N,007.265,K,D*0F
$GPGGA,094200.35,5703.3960757,N,00952.0721938,E,2,11,0.8,-2.218,M,40.593,M,2.9,0123*64
$GPVTG,223.27,T,-416.63,M,003.939,N,007.295,K,D*02
$GPGGA,094200.40,5703.3960350,N,00952.0721241,E,2,11,0.8,-2.217,M,40.593,M,2.9,0123*6F
$GPVTG,223.19,T,-416.71,M,003.976,N,007.364,K,D*08
$GPGGA,094200.45,5703.3959947,N,00952.0720547,E,2,11,0.8,-2.214,M,40.593,M,3.1,0123*66
$GPVTG,223.20,T,-416.70,M,003.987,N,007.384,K,D*03
$GPGGA,094200.50,5703.3959551,N,00952.0719847,E,2,11,0.8,-2.213,M,40.593,M,3.1,0123*69
$GPVTG,223.54,T,-416.36,M,003.987,N,007.384,K,D*02
$GPGGA,094200.55,5703.3959150,N,00952.0719146,E,2,11,0.8,-2.213,M,40.593,M,3.1,0123*61
$GPVTG,223.62,T,-416.28,M,003.998,N,007.404,K,D*09
$GPGGA,094200.60,5703.3958741,N,00952.0718446,E,2,11,0.8,-2.213,M,40.593,M,3.1,0123*64
$GPVTG,223.41,T,-416.49,M,004.020,N,007.444,K,D*06
$GPGGA,094200.65,5703.3958338,N,00952.0717746,E,2,11,0.8,-2.218,M,40.593,M,3.3,0123*6E
$GPVTG,223.39,T,-416.51,M,004.024,N,007.453,K,D*02
$GPGGA,094200.70,5703.3957936,N,00952.0717042,E,2,11,0.8,-2.220,M,40.593,M,3.3,0123*69
$GPVTG,223.53,T,-416.37,M,004.026,N,007.456,K,D*09
$GPGGA,094200.75,5703.3957538,N,00952.0716324,E,2,11,0.8,-2.221,M,40.593,M,3.3,0123*6D
$GPVTG,224.05,T,-415.85,M,004.034,N,007.472,K,D*02
$GPGGA,094200.80,5703.3957137,N,00952.0715608,E,2,11,0.8,-2.218,M,40.593,M,3.3,0123*6E
$GPVTG,224.25,T,-415.65,M,004.040,N,007.481,K,D*01
$GPGGA,094200.85,5703.3956729,N,00952.0714896,E,2,11,0.8,-2.212,M,40.593,M,3.5,0123*67
$GPVTG,223.98,T,-415.92,M,004.059,N,007.517,K,D*0E
$GPGGA,094200.90,5703.3956328,N,00952.0714187,E,2,11,0.8,-2.213,M,40.593,M,3.5,0123*6E
$GPVTG,224.02,T,-415.88,M,004.044,N,007.489,K,D*0B
$GPGGA,094200.95,5703.3955933,N,00952.0713479,E,2,11,0.8,-2.213,M,40.593,M,3.5,0123*6B
$GPVTG,224.16,T,-415.74,M,004.018,N,007.441,K,D*00
$GPGGA,094201.00,5703.3955527,N,00952.0712764,E,2,11,0.8,-2.211,M,40.593,M,3.5,0123*63
$GPVTG,224.05,T,-415.85,M,004.037,N,007.477,K,D*04
$GPGGA,094201.05,5703.3955125,N,00952.0712041,E,2,11,0.8,-2.209,M,40.593,M,2.1,0123*6C
$GPVTG,224.15,T,-415.75,M,004.053,N,007.507,K,D*0E
$GPGGA,094201.10,5703.3954715,N,00952.0711319,E,2,11,0.8,-2.209,M,40.593,M,2.1,0123*61
$GPVTG,224.04,T,-415.86,M,004.080,N,007.556,K,D*08
$GPGGA,094201.15,5703.3954311,N,00952.0710599,E,2,11,0.8,-2.208,M,40.593,M,2.1,0123*6A
$GPVTG,224.12,T,-415.78,M,004.078,N,007.553,K,D*0C
$GPGGA,094201.20,5703.3953912,N,00952.0709886,E,2,11,0.8,-2.207,M,40.593,M,2.1,0123*66
$GPVTG,224.17,T,-415.73,M,004.056,N,007.512,K,D*0B
$GPGGA,094201.25,5703.3953503,N,00952.0709161,E,2,11,0.8,-2.208,M,40.593,M,2.3,0123*62
$GPVTG,224.11,T,-415.79,M,004.081,N,007.557,K,D*0C
$GPGGA,094201.30,5703.3953101,N,00952.0708429,E,2,11,0.8,-2.210,M,40.593,M,2.3,0123*61
$GPVTG,224.47,T,-415.43,M,004.089,N,007.572,K,D*09
$GPGGA,094201.35,5703.3952695,N,00952.0707710,E,2,11,0.8,-2.211,M,40.593,M,2.3,0123*68
$GPVTG,224.27,T,-415.63,M,004.084,N,007.563,K,D*00
$GPGGA,094201.40,5703.3952289,N,00952.0706980,E,2,11,0.8,-2.212,M,40.593,M,2.3,0123*66
$GPVTG,224.35,T,-415.55,M,004.096,N,007.585,K,D*0D
$GPGGA,094201.45,5703.3951883,N,00952.0706246,E,2,11,0.8,-2.207,M,40.593,M,2.6,0123*60
$GPVTG,224.57,T,-415.33,M,004.105,N,007.602,K,D*0E
$GPGGA,094201.50,5703.3951485,N,00952.0705514,E,2,11,0.8,-2.206,M,40.593,M,2.6,0123*6C
$GPVTG,224.88,T,-415.02,M,004.089,N,007.574,K,D*09
$GPGGA,094201.55,5703.3951085,N,00952.0704792,E,2,11,0.8,-2.205,M,40.593,M,2.6,0123*63
$GPVTG,224.77,T,-415.13,M,004.069,N,007.536,K,D*01
$GPGGA,094201.60,5703.3950682,N,00952.0704076,E,2,11,0.8,-2.204,M,40.593,M,2.6,0123*69
$GPVTG,224.48,T,-415.42,M,004.054,N,007.508,K,D*0A
$GPGGA,094201.65,5703.3950284,N,00952.0703363,E,2,11,0.8,-2.201,M,40.593,M,2.9,0123*64
$GPVTG,224.33,T,-415.57,M,004.029,N,007.462,K,D*05
$GPGGA,094201.70,5703.3949880,N,00952.0702634,E,2,11,0.8,-2.201,M,40.593,M,2.9,0123*60
$GPVTG,224.42,T,-415.48,M,004.052,N,007.504,K,D*00
$GPGGA,094201.75,5703.3949469,N,00952.0701900,E,2,11,0.8,-2.201,M,40.593,M,2.9,0123*65
$GPVTG,224.34,T,-415.56,M,004.092,N,007.579,K,D*08
$GPGGA,094201.80,5703.3949066,N,00952.0701171,E,2,11,0.8,-2.200,M,40.593,M,2.9,0123*6B
$GPVTG,224.46,T,-415.44,M,004.093,N,007.580,K,D*09
$GPGGA,094201.85,5703.3948667,N,00952.0700440,E,2,11,0.8,-2.206,M,40.593,M,3.1,0123*61
$GPVTG,224.69,T,-415.21,M,004.086,N,007.567,K,D*0A
$GPGGA,094201.90,5703.3948273,N,00952.0699704,E,2,11,0.8,-2.208,M,40.593,M,3.1,0123*68
$GPVTG,225.13,T,-414.77,M,004.077,N,007.550,K,D*0E
$GPGGA,094201.95,5703.3947873,N,00952.0698955,E,2,11,0.8,-2.210,M,40.593,M,3.1,0123*6A
$GPVTG,225.48,T,-414.42,M,004.101,N,007.595,K,D*0F
$GPGGA,094202.00,5703.3947480,N,00952.0698221,E,2,11,0.8,-2.210,M,40.593,M,3.1,0123*6D
$GPVTG,225.63,T,-414.27,M,004.078,N,007.553,K,D*00
$GPGGA,094202.05,5703.3947082,N,00952.0697482,E,2,11,0.8,-2.202,M,40.593,M,1.7,0123*69
$GPVTG,225.53,T,-414.37,M,004.075,N,007.547,K,D*0A
$GPGGA,094202.10,5703.3946685,N,00952.0696749,E,2,11,0.8,-2.201,M,40.593,M,1.7,0123*6B
$GPVTG,225.42,T,-414.48,M,004.069,N,007.535,K,D*0A
