0952.3383047,E,2,11,0.8,-2.030,M,40.593,M,1.7,0123*6C
$GPVTG,227.95,T,-411.95,M,004.173,N,007.728,K,D*03
$GPGGA,094701.10,5703.4912336,N,00952.3382263,E,2,11,0.8,-2.032,M,40.593,M,1.7,0123*6A
$GPVTG,227.77,T,-412.13,M,004.176,N,007.734,K,D*0A
$GPGGA,094701.15,5703.4911944,N,00952.3381478,E,2,11,0.8,-2.033,M,40.593,M,1.7,0123*6D
$GPVTG,227.59,T,-412.31,M,004.182,N,007.744,K,D*0A
$GPGGA,094701.20,5703.4911545,N,00952.3380706,E,2,11,0.8,-2.036,M,40.593,M,1.7,0123*68
$GPVTG,227.00,T,-412.90,M,004.182,N,007.746,K,D*0F
$GPGGA,094701.25,5703.4911143,N,00952.3379922,E,2,11,0.8,-2.037,M,40.593,M,1.9,0123*6E
$GPVTG,226.75,T,-413.15,M,004.193,N,007.765,K,D*01
$GPGGA,094701.30,5703.4910749,N,00952.3379156,E,2,11,0.8,-2.040,M,40.593,M,1.9,0123*6C
$GPVTG,226.53,T,-413.37,M,004.172,N,007.727,K,D*0C
$GPGGA,094701.35,5703.4910361,N,00952.3378370,E,2,11,0.8,-2.042,M,40.593,M,1.9,0123*62
$GPVTG,226.96,T,-412.94,M,004.174,N,007.729,K,D*05
$GPGGA,094701.40,5703.4909979,N,00952.3377581,E,2,11,0.8,-2.045,M,40.593,M,1.9,0123*6B
$GPVTG,227.57,T,-412.33,M,004.164,N,007.712,K,D*0D
$GPGGA,094701.45,5703.4909588,N,00952.3376794,E,2,11,0.8,-2.051,M,40.593,M,2.1,0123*65
$GPVTG,227.70,T,-412.20,M,004.160,N,007.704,K,D*09
$GPGGA,094701.50,5703.4909192,N,00952.3376014,E,2,11,0.8,-2.055,M,40.593,M,2.1,0123*65
$GPVTG,227.44,T,-412.46,M,004.171,N,007.725,K,D*0D
$GPGGA,094701.55,5703.4908798,N,00952.3375252,E,2,11,0.8,-2.056,M,40.593,M,2.1,0123*6D
$GPVTG,226.96,T,-412.94,M,004.149,N,007.684,K,D*0D
$GPGGA,094701.60,5703.4908408,N,00952.3374489,E,2,11,0.8,-2.058,M,40.593,M,2.1,0123*6E
$GPVTG,226.80,T,-413.10,M,004.126,N,007.641,K,D*07
$GPGGA,094701.65,5703.4908023,N,00952.3373720,E,2,11,0.8,-2.059,M,40.593,M,2.4,0123*65
$GPVTG,227.01,T,-412.89,M,004.109,N,007.611,K,D*06
$GPGGA,094701.70,5703.4907634,N,00952.3372937,E,2,11,0.8,-2.058,M,40.593,M,2.4,0123*66
$GPVTG,227.32,T,-412.58,M,004.132,N,007.652,K,D*05
$GPGGA,094701.75,5703.4907249,N,00952.3372153,E,2,11,0.8,-2.059,M,40.593,M,2.4,0123*66
$GPVTG,227.69,T,-412.21,M,004.142,N,007.670,K,D*02
$GPGGA,094701.80,5703.4906858,N,00952.3371365,E,2,11,0.8,-2.057,M,40.593,M,2.4,0123*6D
$GPVTG,227.81,T,-412.09,M,004.165,N,007.714,K,D*08
$GPGGA,094701.85,5703.4906463,N,00952.3370598,E,2,11,0.8,-2.060,M,40.593,M,2.6,0123*6F
$GPVTG,227.33,T,-412.57,M,004.160,N,007.704,K,D*0E
$GPGGA,094701.90,5703.4906070,N,00952.3369823,E,2,11,0.8,-2.059,M,40.593,M,2.6,0123*62
$GPVTG,227.18,T,-412.72,M,004.162,N,007.709,K,D*0F
$GPGGA,094701.95,5703.4905679,N,00952.3369047,E,2,11,0.8,-2.060,M,40.593,M,2.6,0123*6B
$GPVTG,227.15,T,-412.75,M,004.162,N,007.707,K,D*0B
$GPGGA,094702.00,5703.4905287,N,00952.3368270,E,2,11,0.8,-2.061,M,40.593,M,2.6,0123*67
$GPVTG,227.16,T,-412.74,M,004.163,N,007.711,K,D*0F
$GPGGA,094702.05,5703.4904896,N,00952.3367489,E,2,11,0.8,-2.055,M,40.593,M,2.8,0123*6F
$GPVTG,227.31,T,-412.59,M,004.169,N,007.720,K,D*0D
$GPGGA,094702.10,5703.4904504,N,00952.3366706,E,2,11,0.8,-2.057,M,40.593,M,2.8,0123*6A
$GPVTG,227.35,T,-412.55,M,004.178,N,007.737,K,D*03
$GPGGA,094702.15,5703.4904111,N,00952.3365912,E,2,11,0.8,-2.057,M,40.593,M,2.8,0123*67
$GPVTG,227.60,T,-412.30,M,004.202,N,007.783,K,D*01
$GPGGA,094702.20,5703.4903715,N,00952.3365106,E,2,11,0.8,-2.060,M,40.593,M,2.8,0123*6D
$GPVTG,227.87,T,-412.03,M,004.241,N,007.855,K,D*0B
$GPGGA,094702.25,5703.4903324,N,00952.3364295,E,2,11,0.8,-2.061,M,40.593,M,3.0,0123*6E
$GPVTG,228.25,T,-411.65,M,004.265,N,007.898,K,D*08
$GPGGA,094702.30,5703.4902936,N,00952.3363504,E,2,11,0.8,-2.062,M,40.593,M,3.0,0123*69
$GPVTG,228.25,T,-411.65,M,004.239,N,007.850,K,D*05
$GPGGA,094702.35,5703.4902539,N,00952.3362705,E,2,11,0.8,-2.063,M,40.593,M,3.0,0123*6C
$GPVTG,228.06,T,-411.84,M,004.247,N,007.865,K,D*04
$GPGGA,094702.40,5703.4902135,N,00952.3361913,E,2,11,0.8,-2.064,M,40.593,M,3.0,0123*6B
$GPVTG,227.54,T,-412.36,M,004.260,N,007.889,K,D*01
$GPGGA,094702.45,5703.4901743,N,00952.3361112,E,2,11,0.8,-2.063,M,40.593,M,3.2,0123*66
$GPVTG,227.70,T,-412.20,M,004.255,N,007.880,K,D*0F
$GPGGA,094702.50,5703.4901343,N,00952.3360297,E,2,11,0.8,-2.063,M,40.593,M,3.2,0123*69
$GPVTG,227.85,T,-412.05,M,004.288,N,007.941,K,D*0E
$GPGGA,094702.55,5703.4900942,N,00952.3359480,E,2,11,0.8,-2.064,M,40.593,M,3.2,0123*6B
$GPVTG,227.96,T,-411.94,M,004.315,N,007.992,K,D*0C
$GPGGA,094702.60,5703.4900544,N,00952.3358666,E,2,11,0.8,-2.065,M,40.593,M,3.2,0123*6D
$GPVTG,228.05,T,-411.85,M,004.320,N,008.000,K,D*02
$GPGGA,094702.65,5703.4900142,N,00952.3357856,E,2,11,0.8,-2.070,M,40.593,M,3.4,0123*6A
$GPVTG,227.91,T,-411.99,M,004.322,N,008.005,K,D*0A
$GPGGA,094702.70,5703.4899754,N,00952.3357044,E,2,11,0.8,-2.072,M,40.593,M,3.4,0123*67
$GPVTG,228.28,T,-411.62,M,004.292,N,007.949,K,D*07
$GPGGA,094702.75,5703.4899347,N,00952.3356234,E,2,11,0.8,-2.074,M,40.593,M,3.4,0123*66
$GPVTG,227.89,T,-412.01,M,004.312,N,007.985,K,D*0C
$GPGGA,094702.80,5703.4898942,N,00952.3355417,E,2,11,0.8,-2.077,M,40.593,M,3.4,0123*65
$GPVTG,227.78,T,-412.12,M,004.330,N,008.020,K,D*09
$GPGGA,094702.85,5703.4898540,N,00952.3354578,E,2,11,0.8,-2.075,M,40.593,M,3.6,0123*67
$GPVTG,228.21,T,-411.69,M,004.370,N,008.094,K,D*0E
$GPGGA,094702.90,5703.4898139,N,00952.3353760,E,2,11,0.8,-2.074,M,40.593,M,3.6,0123*64
$GPVTG,228.14,T,-411.76,M,004.361,N,008.076,K,D*0A
$GPGGA,094702.95,5703.4897736,N,00952.3352937,E,2,11,0.8,-2.075,M,40.593,M,3.6,0123*6B
$GPVTG,228.10,T,-411.80,M,004.364,N,008.082,K,D*09
$GPGGA,094703.00,5703.4897337,N,00952.3352084,E,2,11,0.8,-2.074,M,40.593,M,3.6,0123*63
$GPVTG,228.79,T,-411.11,M,004.401,N,008.150,K,D*04
$GPGGA,094703.05,5703.4896944,N,00952.3351231,E,2,11,0.8,-2.071,M,40.593,M,2.0,0123*64
$GPVTG,229.47,T,-410.43,M,004.412,N,008.171,K,D*0F
$GPGGA,094703.10,5703.4896550,N,00952.3350393,E,2,11,0.8,-2.070,M,40.593,M,2.0,0123*60
$GPVTG,229.54,T,-410.36,M,004.390,N,008.131,K,D*06
$GPGGA,094703.15,5703.4896159,N,00952.3349527,E,2,11,0.8,-2.068,M,40.593,M,2.0,0123*60
$GPVTG,230.13,T,-409.77,M,004.413,N,008.172,K,D*0B
$GPGGA,094703.20,5703.4895786,N,00952.3348654,E,2,11,0.8,-2.068,M,40.593,M,2.0,0123*67
$GPVTG,231.20,T,-408.70,M,004.400,N,008.149,K,D*06
$GPGGA,094703.25,5703.4895393,N,00952.3347787,E,2,11,0.8,-2.070,M,40.593,M,2.3,0123*68
$GPVTG,231.14,T,-408.76,M,004.421,N,008.187,K,D*06
$GPGGA,094703.30,5703.4895010,N,00952.3346918,E,2,11,0.8,-2.070,M,40.593,M,2.3,0123*6D
$GPVTG,231.36,T,-408.54,M,004.412,N,008.171,K,D*0F
$GPGGA,094703.35,5703.4894621,N,00952.3346049,E,2,11,0.8,-2.069,M,40.593,M,2.3,0123*68
$GPVTG,231.22,T,-408.68,M,004.417,N,008.181,K,D*0F
$GPGGA,094703.40,5703.4894239,N,00952.3345170,E,2,11,0.8,-2.066,M,40.593,M,2.3,0123*60
$GPVTG,231.50,T,-408.40,M,004.422,N,008.189,K,D*0E
$GPGGA,094703.45,5703.4893858,N,00952.3344288,E,2,11,0.8,-2.060,M,40.593,M,2.5,0123*6A
$GPVTG,231.67,T,-408.23,M,004.429,N,008.202,K,D*04
$GPGGA,094703.50,5703.4893471,N,00952.3343400,E,2,11,0.8,-2.061,M,40.593,M,2.5,0123*69
$GPVTG,231.69,T,-408.21,M,004.453,N,008.247,K,D*04
$GPGGA,094703.55,5703.4893087,N,00952.3342523,E,2,11,0.8,-2.059,M,40.593,M,2.5,0123*6B
$GPVTG,231.55,T,-408.35,M,004.444,N,008.229,K,D*00
$GPGGA,094703.60,5703.4892700,N,00952.3341645,E,2,11,0.8,-2.056,M,40.593,M,2.5,0123*6B
$GPVTG,231.39,T,-408.51,M,004.445,N,008.232,K,D*03
$GPGGA,094703.65,5703.4892320,N,00952.3340759,E,2,11,0.8,-2.061,M,40.593,M,2.8,0123*6C
$GPVTG,231.60,T,-408.30,M,004.443,N,008.229,K,D*04
$GPGGA,094703.70,5703.4891934,N,00952.3339883,E,2,11,0.8,-2.062,M,40.593,M,2.8,0123*61
$GPVTG,231.40,T,-408.50,M,004.435,N,008.213,K,D*08
$GPGGA,094703.75,5703.4891540,N,00952.3339004,E,2,11,0.8,-2.061,M,40.593,M,2.8,0123*6F
$GPVTG,231.00,T,-408.90,M,004.452,N,008.246,K,D*01
$GPGGA,094703.80,5703.4891156,N,00952.3338139,E,2,11,0.8,-2.059,M,40.593,M,2.8,0123*63
$GPVTG,230.83,T,-409.07,M,004.421,N,008.188,K,D*01
$GPGGA,094703.85,5703.4890769,N,00952.3337264,E,2,11,0.8,-2.053,M,40.593,M,3.0,0123*6A
$GPVTG,230.78,T,-409.12,M,004.422,N,008.190,K,D*0B
$GPGGA,094703.90,5703.4890385,N,00952.3336378,E,2,11,0.8,-2.052,M,40.593,M,3.0,0123*64
$GPVTG,231.04,T,-408.86,M,004.438,N,008.218,K,D*05
$GPGGA,094703.95,5703.4890009,N,00952.3335514,E,2,11,0.8,-2.050,M,40.593,M,3.0,0123*6B
$GPVTG,231.20,T,-408.70,M,004.393,N,008.136,K,D*03
$GPGGA,094704.00,5703.4889632,N,00952.3334637,E,2,11,0.8,-2.048,M,40.593,M,3.0,0123*6C
$GPVTG,231.45,T,-408.45,M,004.386,N,008.124,K,D*01
$GPGGA,094704.05,5703.4889261,N,00952.3333731,E,2,11,0.8,-2.043,M,40.593,M,1.6,0123*64
$GPVTG,232.31,T,-407.59,M,004.401,N,008.150,K,D*08
$GPGGA,094704.10,5703.4888890,N,00952.3332845,E,2,11,0.8,-2.044,M,40.593,M,1.6,0123*6F
$GPVTG,232.58,T,-407.32,M,004.396,N,008.141,K,D*03
$GPGGA,094704.15,5703.4888509,N,00952.3331951,E,2,11,0.8,-2.042,M,40.593,M,1.6,0123*66
$GPVTG,232.53,T,-407.37,M,004.425,N,008.195,K,D*0B
$GPGGA,094704.20,5703.4888125,N,00952.3331070,E,2,11,0.8,-2.039,M,40.593,M,1.6,0123*6C
$GPVTG,232.10,T,-407.80,M,004.432,N,008.207,K,D*0E
$GPGGA,094704.25,5703.4887752,N,00952.3330190,E,2,11,0.8,-2.042,M,40.593,M,1.8,0123*6C
$GPVTG,232.15,T,-407.75,M,004.410,N,008.167,K,D*04
$GPGGA,094704.30,5703.4887378,N,00952.3329318,E,2,11,0.8,-2.044,M,40.593,M,1.8,0123*68
$GPVTG,231.98,T,-407.92,M,004.383,N,008.117,K,D*01
$GPGGA,094704.35,5703.4886997,N,00952.3328429,E,2,11,0.8,-2.043,M,40.593,M,1.8,0123*64
$GPVTG,231.90,T,-408.00,M,004.410,N,008.167,K,D*07
$GPGGA,094704.40,5703.4886617,N,00952.3327535,E,2,11,0.8,-2.043,M,40.593,M,1.8,0123*62
$GPVTG,231.97,T,-407.93,M,004.435,N,008.214,K,D*05
$GPGGA,094704.45,5703.4886246,N,00952.3326653,E,2,11,0.8,-2.042,M,40.593,M,2.1,0123*6E
$GPVTG,232.16,T,-407.74,M,004.412,N,008.171,K,D*03
$GPGGA,094704.50,5703.4885881,N,00952.3325763,E,2,11,0.8,-2.042,M,40.593,M,2.1,0123*69
$GPVTG,232.59,T,-407.31,M,004.397,N,008.143,K,D*02
$GPGGA,094704.55,5703.4885515,N,00952.3324853,E,2,11,0.8,-2.044,M,40.593,M,2.1,0123*67
$GPVTG,233.20,T,-406.70,M,004.423,N,008.191,K,D*0E
$GPGGA,094704.60,5703.4885138,N,00952.3323950,E,2,11,0.8,-2.043,M,40.593,M,2.1,0123*68
$GPVTG,233.10,T,-406.80,M,004.449,N,008.239,K,D*0F
$GPGGA,094704.65,5703.4884770,N,00952.3323043,E,2,11,0.8,-2.047,M,40.593,M,2.3,0123*6B
$GPVTG,233.36,T,-406.54,M,004.455,N,008.250,K,D*00
$GPGGA,094704.70,5703.4884410,N,00952.3322141,E,2,11,0.8,-2.046,M,40.593,M,2.3,0123*69
$GPVTG,233.65,T,-406.25,M,004.432,N,008.209,K,D*0D
$GPGGA,094704.75,5703.4884047,N,00952.3321244,E,2,11,0.8,-2.046,M,40.593,M,2.3,0123*6F
$GPVTG,233.68,T,-406.22,M,004.413,N,008.173,K,D*0A
$GPGGA,094704.80,5703.4883685,N,00952.3320323,E,2,11,0.8,-2.048,M,40.593,M,2.3,0123*65
$GPVTG,234.06,T,-405.84,M,004.437,N,008.217,K,D*0D
$GPGGA,094704.85,5703.4883327,N,00952.3319419,E,2,11,0.8,-2.048,M,40.593,M,2.6,0123*6C
$GPVTG,234.20,T,-405.70,M,004.416,N,008.179,K,D*0A
$GPGGA,094704.90,5703.4882962,N,00952.3318516,E,2,11,0.8,-2.050,M,40.593,M,2.6,0123*64
$GPVTG,233.97,T,-405.93,M,004.414,N,008.175,K,D*02
$GPGGA,094704.95,5703.4882605,N,00952.3317598,E,2,11,0.8,-2.050,M,40.593,M,2.6,0123*66
$GPVTG,234.29,T,-405.61,M,004.423,N,008.192,K,D*00
$GPGGA,094705.00,5703.4882245,N,00952.3316688,E,2,11,0.8,-2.049,M,40.593,M,2.6,0123*60
$GPVTG,234.28,T,-405.62,M,004.420,N,008.187,K,D*05
$GPGGA,094705.05,5703.4881878,N,00952.3315783,E,2,11,0.8,-2.045,M,40.593,M,1.7,0123*65
$GPVTG,233.84,T,-406.06,M,004.407,N,008.163,K,D*0A
$GPGGA,094705.10,5703.4881517,N,00952.3314892,E,2,11,0.8,-2.041,M,40.593,M,1.7,0123*6F
$GPVTG,233.59,T,-406.31,M,004.381,N,008.113,K,D*00
$GPGGA,094705.15,5703.4881161,N,00952.3313999,E,2,11,0.8,-2.040,M,40.593,M,1.7,0123*63
$GPVTG,233.62,T,-406.28,M,004.358,N,008.071,K,D*01
$GPGGA,094705.20,5703.4880819,N,00952.3313093,E,2,11,0.8,-2.038,M,40.593,M,1.7,0123*6E
$GPVTG,234.39,T,-405.51,M,004.340,N,008.037,K,D*0E
$GPGGA,094705.25,5703.4880463,N,00952.3312191,E,2,11,0.8,-2.040,M,40.593,M,1.9,0123*69
$GPVTG,234.38,T,-405.52,M,004.350,N,008.056,K,D*0A
$GPGGA,094705.30,5703.4880111,N,00952.3311298,E,2,11,0.8,-2.039,M,40.593,M,1.9,0123*6A
$GPVTG,234.34,T,-405.56,M,004.334,N,008.027,K,D*06
$GPGGA,094705.35,5703.4879761,N,00952.3310389,E,2,11,0.8,-2.038,M,40.593,M,1.9,0123*69
$GPVTG,234.59,T,-405.31,M,004.352,N,008.059,K,D*05
$GPGGA,094705.40,5703.4879416,N,00952.3309487,E,2,11,0.8,-2.036,M,40.593,M,1.9,0123*67
$GPVTG,234.86,T,-405.04,M,004.337,N,008.032,K,D*0F
$GPGGA,094705.45,5703.4879072,N,00952.3308593,E,2,11,0.8,-2.029,M,40.593,M,2.1,0123*64
$GPVTG,234.89,T,-405.01,M,004.318,N,007.997,K,D*01
$GPGGA,094705.50,5703.4878734,N,00952.3307693,E,2,11,0.8,-2.026,M,40.593,M,2.1,0123*67
$GPVTG,235.25,T,-404.65,M,004.302,N,007.967,K,D*01
$GPGGA,094705.55,5703.4878390,N,00952.3306797,E,2,11,0.8,-2.020,M,40.593,M,2.1,0123*6A
$GPVTG,235.16,T,-404.74,M,004.296,N,007.957,K,D*0E
$GPGGA,094705.60,5703.4878051,N,00952.3305897,E,2,11,0.8,-2.020,M,40.593,M,2.1,0123*6E
$GPVTG,235.35,T,-404.55,M,004.292,N,007.949,K,D*07
$GPGGA,094705.65,5703.4877718,N,00952.3305006,E,2,11,0.8,-2.021,M,40.593,M,2.4,0123*6A
$GPVTG,235.56,T,-404.34,M,004.265,N,007.898,K,D*00
$GPGGA,094705.70,5703.4877382,N,00952.3304117,E,2,11,0.8,-2.019,M,40.593,M,2.4,0123*62
$GPVTG,235.51,T,-404.39,M,004.247,N,007.866,K,D*0B
$GPGGA,094705.75,5703.4877049,N,00952.3303220,E,2,11,0.8,-2.018,M,40.593,M,2.4,0123*62
$GPVTG,235.73,T,-404.17,M,004.248,N,007.867,K,D*09
$GPGGA,094705.80,5703.4876714,N,00952.3302306,E,2,11,0.8,-2.018,M,40.593,M,2.4,0123*62
$GPVTG,236.04,T,-403.86,M,004.283,N,007.933,K,D*02
$GPGGA,094705.85,5703.4876382,N,00952.3301405,E,2,11,0.8,-2.016,M,40.593,M,2.6,0123*67
$GPVTG,236.09,T,-403.81,M,004.280,N,007.927,K,D*0E
$GPGGA,094705.90,5703.4876047,N,00952.3300496,E,2,11,0.8,-2.015,M,40.593,M,2.6,0123*61
$GPVTG,236.16,T,-403.74,M,004.297,N,007.957,K,D*0B
$GPGGA,094705.95,5703.4875724,N,00952.3299582,E,2,11,0.8,-2.015,M,40.593,M,2.6,0123*60
$GPVTG,236.69,T,-403.21,M,004.295,N,007.954,K,D*02
$GPGGA,094706.00,5703.4875390,N,00952.3298674,E,2,11,0.8,-2.015,M,40.593,M,2.6,0123*6F
$GPVTG,236.50,T,-403.40,M,004.303,N,007.969,K,D*0F
$GPGGA,094706.05,5703.4875060,N,00952.3297764,E,2,11,0.8,-2.013,M,40.593,M,2.8,0123*61
$GPVTG,236.49,T,-403.41,M,004.281,N,007.929,K,D*09
$GPGGA,094706.10,5703.4874731,N,00952.3296848,E,2,11,0.8,-2.011,M,40.593,M,2.8,0123*65
$GPVTG,236.63,T,-403.27,M,004.298,N,007.960,K,D*04
$GPGGA,094706.15,5703.4874411,N,00952.3295939,E,2,11,0.8,-2.014,M,40.593,M,2.8,0123*60
$GPVTG,236.92,T,-402.98,M,004.278,N,007.923,K,D*06
$GPGGA,094706.20,5703.4874094,N,00952.3295022,E,2,11,0.8,-2.015,M,40.593,M,2.8,0123*6D
$GPVTG,237.39,T,-402.51,M,004.271,N,007.910,K,D*0A
$GPGGA,094706.25,5703.4873786,N,00952.3294095,E,2,11,0.8,-2.017,M,40.593,M,3.0,0123*6D
$GPVTG,238.13,T,-401.77,M,004.271,N,007.911,K,D*0B
$GPGGA,094706.30,5703.4873471,N,00952.3293178,E,2,11,0.8,-2.018,M,40.593,M,3.0,0123*68
$GPVTG,238.25,T,-401.65,M,004.263,N,007.896,K,D*00
$GPGGA,094706.35,5703.4873148,N,00952.3292279,E,2,11,0.8,-2.021,M,40.593,M,3.0,0123*6B
$GPVTG,237.64,T,-402.26,M,004.241,N,007.854,K,D*00
$GPGGA,094706.40,5703.4872827,N,00952.3291378,E,2,11,0.8,-2.022,M,40.593,M,3.0,0123*68
$GPVTG,237.32,T,-402.58,M,004.227,N,007.828,K,D*01
$GPGGA,094706.45,5703.4872508,N,00952.3290472,E,2,11,0.8,-2.019,M,40.593,M,3.2,0123*6B
$GPVTG,237.17,T,-402.73,M,004.227,N,007.827,K,D*00
$GPGGA,094706.50,5703.4872196,N,00952.3289557,E,2,11,0.8,-2.019,M,40.593,M,3.2,0123*62
$GPVTG,237.54,T,-402.36,M,004.229,N,007.833,K,D*0D
$GPGGA,094706.55,5703.4871875,N,00952.3288655,E,2,11,0.8,-2.015,M,40.593,M,3.2,0123*6C
$GPVTG,237.25,T,-402.65,M,004.228,N,007.830,K,D*0F
$GPGGA,094706.60,5703.4871552,N,00952.3287753,E,2,11,0.8,-2.018,M,40.593,M,3.2,0123*67
$GPVTG,236.95,T,-402.95,M,004.232,N,007.838,K,D*09
$GPGGA,094706.65,5703.4871230,N,00952.3286859,E,2,11,0.8,-2.020,M,40.593,M,3.4,0123*68
$GPVTG,236.73,T,-403.17,M,004.219,N,007.813,K,D*0A
$GPGGA,094706.70,5703.4870919,N,00952.3285962,E,2,11,0.8,-2.021,M,40.593,M,3.4,0123*66
$GPVTG,236.98,T,-402.92,M,004.198,N,007.775,K,D*06
$GPGGA,094706.75,5703.4870610,N,00952.3285046,E,2,11,0.8,-2.023,M,40.593,M,3.4,0123*68
$GPVTG,237.57,T,-402.33,M,004.213,N,007.803,K,D*01
$GPGGA,094706.80,5703.4870298,N,00952.3284140,E,2,11,0.8,-2.028,M,40.593,M,3.4,0123*6B
$GPVTG,237.75,T,-402.15,M,004.210,N,007.797,K,D*04
$GPGGA,094706.85,5703.4869982,N,00952.3283239,E,2,11,0.8,-2.029,M,40.593,M,3.6,0123*6F
$GPVTG,237.58,T,-402.32,M,004.210,N,007.797,K,D*0E
$GPGGA,094706.90,5703.4869669,N,00952.3282332,E,2,11,0.8,-2.032,M,40.593,M,3.6,0123*60
$GPVTG,237.66,T,-402.24,M,004.215,N,007.806,K,D*06
$GPGGA,094706.95,5703.4869353,N,00952.3281428,E,2,11,0.8,-2.034,M,40.593,M,3.6,0123*60
$GPVTG,237.57,T,-402.33,M,004.217,N,007.809,K,D*0F
$GPGGA,094707.00,5703.4869041,N,00952.3280519,E,2,11,0.8,-2.035,M,40.593,M,3.6,0123*6E
$GPVTG,237.67,T,-402.23,M,004.222,N,007.820,K,D*00
$GPGGA,094707.05,5703.4868725,N,00952.3279612,E,2,11,0.8,-2.032,M,40.593,M,2.0,0123*61
$GPVTG,237.61,T,-402.29,M,004.223,N,007.821,K,D*0C
$GPGGA,094707.10,5703.4868423,N,00952.3278691,E,2,11,0.8,-2.032,M,40.593,M,2.0,0123*6A
$GPVTG,238.27,T,-401.63,M,004.229,N,007.832,K,D*04
$GPGGA,094707.15,5703.4868122,N,00952.3277765,E,2,11,0.8,-2.032,M,40.593,M,2.0,0123*6E
$GPVTG,238.85,T,-401.05,M,004.237,N,007.846,K,D*00
$GPGGA,094707.20,5703.4867818,N,00952.3276851,E,2,11,0.8,-2.033,M,40.593,M,2.0,0123*6F
$GPVTG,238.95,T,-400.95,M,004.226,N,007.826,K,D*0F
$GPGGA,094707.25,5703.4867511,N,00952.3275933,E,2,11,0.8,-2.038,M,40.593,M,2.3,0123*60
$GPVTG,238.87,T,-401.03,M,004.231,N,007.836,K,D*05
$GPGGA,094707.30,5703.4867204,N,00952.3275007,E,2,11,0.8,-2.041,M,40.593,M,2.3,0123*67
$GPVTG,238.90,T,-401.00,M,004.248,N,007.868,K,D*05
$GPGGA,094707.35,5703.4866884,N,00952.3274083,E,2,11,0.8,-2.043,M,40.593,M,2.3,0123*6E
$GPVTG,238.37,T,-401.53,M,004.278,N,007.922,K,D*02
$GPGGA,094707.40,5703.4866562,N,00952.3273156,E,2,11,0.8,-2.044,M,40.593,M,2.3,0123*60
$GPVTG,237.94,T,-401.96,M,004.305,N,007.973,K,D*02
$GPGGA,094707.45,5703.4866250,N,00952.3272231,E,2,11,0.8,-2.044,M,40.593,M,2.5,0123*66
$GPVTG,237.97,T,-401.93,M,004.303,N,007.969,K,D*09
$GPGGA,094707.50,5703.4865942,N,00952.3271298,E,2,11,0.8,-2.046,M,40.593,M,2.5,0123*6B
$GPVTG,238.31,T,-401.59,M,004.304,N,007.970,K,D*03
$GPGGA,094707.55,5703.4865629,N,00952.3270357,E,2,11,0.8,-2.049,M,40.593,M,2.5,0123*60
$GPVTG,238.46,T,-401.44,M,004.329,N,008.017,K,D*07
$GPGGA,094707.60,5703.4865312,N,00952.3269420,E,2,11,0.8,-2.052,M,40.593,M,2.5,0123*6E
$GPVTG,238.37,T,-401.53,M,004.339,N,008.037,K,D*04
$GPGGA,094707.65,5703.4864993,N,00952.3268482,E,2,11,0.8,-2.056,M,40.593,M,2.8,0123*69
$GPVTG,238.23,T,-401.67,M,004.352,N,008.061,K,D*08
$GPGGA,094707.70,5703.4864669,N,00952.3267555,E,2,11,0.8,-2.058,M,40.593,M,2.8,0123*6D
$GPVTG,237.77,T,-402.13,M,004.348,N,008.052,K,D*0D
$GPGGA,094707.75,5703.4864352,N,00952.3266620,E,2,11,0.8,-2.058,M,40.593,M,2.8,0123*65
$GPVTG,237.83,T,-402.07,M,004.346,N,008.048,K,D*06
$GPGGA,094707.80,5703.4864036,N,00952.3265680,E,2,11,0.8,-2.057,M,40.593,M,2.8,0123*68
$GPVTG,238.00,T,-401.90,M,004.349,N,008.054,K,D*0D
$GPGGA,094707.85,5703.4863713,N,00952.3264743,E,2,11,0.8,-2.061,M,40.593,M,3.0,0123*69
$GPVTG,237.82,T,-402.08,M,004.358,N,008.072,K,D*0E
$GPGGA,094707.90,5703.4863387,N,00952.3263811,E,2,11,0.8,-2.064,M,40.593,M,3.0,0123*6E
$GPVTG,237.52,T,-402.38,M,004.360,N,008.074,K,D*0D
$GPGGA,094707.95,5703.4863054,N,00952.3262886,E,2,11,0.8,-2.064,M,40.593,M,3.0,0123*69
$GPVTG,236.98,T,-402.92,M,004.360,N,008.074,K,D*0A
$GPGGA,094708.00,5703.4862717,N,00952.3261948,E,2,11,0.8,-2.065,M,40.593,M,3.0,0123*6A
$GPVTG,236.65,T,-403.25,M,004.391,N,008.132,K,D*08
$GPGGA,094708.05,5703.4862384,N,00952.3261001,E,2,11,0.8,-2.058,M,40.593,M,1.6,0123*6F
$GPVTG,236.71,T,-403.19,M,004.414,N,008.175,K,D*0B
$GPGGA,094708.10,5703.4862059,N,00952.3260058,E,2,11,0.8,-2.060,M,40.593,M,1.6,0123*6E
$GPVTG,237.03,T,-402.87,M,004.414,N,008.175,K,D*09
$GPGGA,094708.15,5703.4861738,N,00952.3259099,E,2,11,0.8,-2.061,M,40.593,M,1.6,0123*6E
$GPVTG,237.68,T,-402.22,M,004.431,N,008.207,K,D*0A
$GPGGA,094708.20,5703.4861406,N,00952.3258147,E,2,11,0.8,-2.062,M,40.593,M,1.6,0123*66
$GPVTG,237.62,T,-402.28,M,004.445,N,008.231,K,D*0C
$GPGGA,094708.25,5703.4861068,N,00952.3257191,E,2,11,0.8,-2.064,M,40.593,M,1.8,0123*63
$GPVTG,237.41,T,-402.49,M,004.473,N,008.284,K,D*01
$GPGGA,094708.30,5703.4860731,N,00952.3256242,E,2,11,0.8,-2.063,M,40.593,M,1.8,0123*66
$GPVTG,237.17,T,-402.73,M,004.473,N,008.283,K,D*0C
$GPGGA,094708.35,5703.4860402,N,00952.3255292,E,2,11,0.8,-2.063,M,40.593,M,1.8,0123*6E
$GPVTG,237.28,T,-402.62,M,004.460,N,008.259,K,D*05
$GPGGA,094708.40,5703.4860065,N,00952.3254331,E,2,11,0.8,-2.064,M,40.593,M,1.8,0123*67
$GPVTG,237.27,T,-402.63,M,004.481,N,008.299,K,D*08
$GPGGA,094708.45,5703.4859729,N,00952.3253362,E,2,11,0.8,-2.060,M,40.593,M,2.1,0123*68
$GPVTG,237.38,T,-402.52,M,004.507,N,008.348,K,D*06
$GPGGA,094708.50,5703.4859391,N,00952.3252410,E,2,11,0.8,-2.060,M,40.593,M,2.1,0123*68
$GPVTG,237.14,T,-402.76,M,004.495,N,008.324,K,D*0E
$GPGGA,094708.55,5703.4859047,N,00952.3251462,E,2,11,0.8,-2.062,M,40.593,M,2.1,0123*61
$GPVTG,236.70,T,-403.20,M,004.492,N,008.319,K,D*06
$GPGGA,094708.60,5703.4858702,N,00952.3250500,E,2,11,0.8,-2.062,M,40.593,M,2.1,0123*64
$GPVTG,236.58,T,-403.32,M,004.514,N,008.359,K,D*04
$GPGGA,094708.65,5703.4858359,N,00952.3249535,E,2,11,0.8,-2.070,M,40.593,M,2.3,0123*64
$GPVTG,236.68,T,-403.22,M,004.529,N,008.388,K,D*04
$GPGGA,094708.70,5703.4858018,N,00952.3248572,E,2,11,0.8,-2.071,M,40.593,M,2.3,0123*65
$GPVTG,236.77,T,-403.13,M,004.529,N,008.388,K,D*08
$GPGGA,094708.75,5703.4857678,N,00952.3247603,E,2,11,0.8,-2.072,M,40.593,M,2.3,0123*66
$GPVTG,236.97,T,-402.93,M,004.538,N,008.404,K,D*0C
$GPGGA,094708.80,5703.4857338,N,00952.3246644,E,2,11,0.8,-2.074,M,40.593,M,2.3,0123*69
$GPVTG,236.93,T,-402.97,M,004.523,N,008.377,K,D*05
$GPGGA,094708.85,5703.4856999,N,00952.3245687,E,2,11,0.8,-2.070,M,40.593,M,2.6,0123*61
$GPVTG,236.90,T,-403.00,M,004.509,N,008.352,K,D*06
$GPGGA,094708.90,5703.4856659,N,00952.3244743,E,2,11,0.8,-2.068,M,40.593,M,2.6,0123*67
$GPVTG,236.70,T,-403.20,M,004.475,N,008.287,K,D*09
$GPGGA,094708.95,5703.4856309,N,00952.3243792,E,2,11,0.8,-2.068,M,40.593,M,2.6,0123*69
$GPVTG,236.32,T,-403.58,M,004.485,N,008.305,K,D*04
$GPGGA,094709.00,5703.4855960,N,00952.3242838,E,2,11,0.8,-2.068,M,40.593,M,2.6,0123*6C
$GPVTG,236.13,T,-403.77,M,004.497,N,008.328,K,D*06
$GPGGA,094709.05,5703.4855606,N,00952.3241877,E,2,11,0.8,-2.072,M,40.593,M,1.7,0123*67
$GPVTG,235.99,T,-403.91,M,004.523,N,008.376,K,D*0A
$GPGGA,094709.10,5703.4855251,N,00952.3240915,E,2,11,0.8,-2.075,M,40.593,M,1.7,0123*66
$GPVTG,235.83,T,-404.07,M,004.552,N,008.430,K,D*0A
$GPGGA,094709.15,5703.4854912,N,00952.3239967,E,2,11,0.8,-2.077,M,40.593,M,1.7,0123*67
$GPVTG,236.13,T,-403.77,M,004.513,N,008.357,K,D*03
$GPGGA,094709.20,5703.4854573,N,00952.3239015,E,2,11,0.8,-2.079,M,40.593,M,1.7,0123*68
$GPVTG,236.40,T,-403.50,M,004.494,N,008.323,K,D*0D
$GPGGA,094709.25,5703.4854224,N,00952.3238088,E,2,11,0.8,-2.081,M,40.593,M,1.9,0123*64
$GPVTG,235.92,T,-403.98,M,004.454,N,008.249,K,D*04
$GPGGA,094709.30,5703.4853878,N,00952.3237149,E,2,11,0.8,-2.081,M,40.593,M,1.9,0123*67
$GPVTG,235.86,T,-404.04,M,004.446,N,008.234,K,D*0A
$GPGGA,094709.35,5703.4853534,N,00952.3236210,E,2,11,0.8,-2.083,M,40.593,M,1.9,0123*6B
$GPVTG,235.88,T,-404.02,M,004.438,N,008.220,K,D*0E
$GPGGA,094709.40,5703.4853188,N,00952.3235278,E,2,11,0.8,-2.084,M,40.593,M,1.9,0123*60
$GPVTG,235.76,T,-404.14,M,004.428,N,008.200,K,D*0B
$GPGGA,094709.45,5703.4852848,N,00952.3234346,E,2,11,0.8,-2.085,M,40.593,M,2.1,0123*66
$GPVTG,235.92,T,-403.98,M,004.412,N,008.170,K,D*0F
$GPGGA,094709.50,5703.4852513,N,00952.3233400,E,2,11,0.8,-2.086,M,40.593,M,2.1,0123*60
$GPVTG,236.43,T,-403.47,M,004.416,N,008.178,K,D*0E
$GPGGA,094709.55,5703.4852172,N,00952.3232472,E,2,11,0.8,-2.086,M,40.593,M,2.1,0123*62
$GPVTG,236.32,T,-403.58,M,004.402,N,008.153,K,D*0A
$GPGGA,094709.60,5703.4851841,N,00952.3231545,E,2,11,0.8,-2.086,M,40.593,M,2.1,0123*68
$GPVTG,236.55,T,-403.35,M,004.372,N,008.097,K,D*09
$GPGGA,094709.65,5703.4851503,N,00952.3230623,E,2,11,0.8,-2.087,M,40.593,M,2.4,0123*60
$GPVTG,236.40,T,-403.50,M,004.361,N,008.076,K,D*03
$GPGGA,094709.70,5703.4851164,N,00952.3229711,E,2,11,0.8,-2.088,M,40.593,M,2.4,0123*66
$GPVTG,236.09,T,-403.81,M,004.337,N,008.033,K,D*00
$GPGGA,094709.75,5703.4850833,N,00952.3228796,E,2,11,0.8,-2.088,M,40.593,M,2.4,0123*67
$GPVTG,236.21,T,-403.69,M,004.315,N,007.991,K,D*02
$GPGGA,094709.80,5703.4850504,N,00952.3227888,E,2,11,0.8,-2.087,M,40.593,M,2.4,0123*64
$GPVTG,236.28,T,-403.62,M,004.289,N,007.944,K,D*0C
$GPGGA,094709.85,5703.4850165,N,00952.3226979,E,2,11,0.8,-2.080,M,40.593,M,2.6,0123*69
$GPVTG,235.91,T,-403.99,M,004.295,N,007.954,K,D*05
$GPGGA,094709.90,5703.4849841,N,00952.3226079,E,2,11,0.8,-2.076,M,40.593,M,2.6,0123*6A
$GPVTG,236.17,T,-403.73,M,004.259,N,007.888,K,D*0C
$GPGGA,094709.95,5703.4849508,N,00952.3225193,E,2,11,0.8,-2.074,M,40.593,M,2.6,0123*6B
$GPVTG,235.78,T,-404.12,M,004.229,N,007.832,K,D*00
$GPGGA,094710.00,5703.4849166,N,00952.3224301,E,2,11,0.8,-2.071,M,40.593,M,2.6,0123*6E
$GPVTG,235.26,T,-404.64,M,004.241,N,007.854,K,D*04
$GPGGA,094710.05,5703.4848828,N,00952.3223417,E,2,11,0.8,-2.075,M,40.593,M,2.8,0123*64
$GPVTG,235.00,T,-404.90,M,004.227,N,007.828,K,D*00
$GPGGA,094710.10,5703.4848481,N,00952.3222522,E,2,11,0.8,-2.074,M,40.593,M,2.8,0123*68
$GPVTG,234.68,T,-405.22,M,004.262,N,007.893,K,D*06
$GPGGA,094710.15,5703.4848139,N,00952.3221646,E,2,11,0.8,-2.072,M,40.593,M,2.8,0123*6F
$GPVTG,234.35,T,-405.55,M,004.247,N,007.866,K,D*03
$GPGGA,094710.20,5703.4847801,N,00952.3220765,E,2,11,0.8,-2.073,M,40.593,M,2.8,0123*64
$GPVTG,234.40,T,-405.50,M,004.239,N,007.850,K,D*08
$GPGGA,094710.25,5703.4847472,N,00952.3219882,E,2,11,0.8,-2.073,M,40.593,M,3.0,0123*6C
$GPVTG,234.82,T,-405.08,M,004.222,N,007.820,K,D*06
$GPGGA,094710.30,5703.4847133,N,00952.3218995,E,2,11,0.8,-2.074,M,40.593,M,3.0,0123*69
$GPVTG,234.90,T,-405.00,M,004.235,N,007.844,K,D*09
$GPGGA,094710.35,5703.4846786,N,00952.3218103,E,2,11,0.8,-2.076,M,40.593,M,3.0,0123*60
$GPVTG,234.71,T,-405.19,M,004.271,N,007.909,K,D*06
$GPGGA,094710.40,5703.4846445,N,00952.3217222,E,2,11,0.8,-2.078,M,40.593,M,3.0,0123*6F
$GPVTG,234.61,T,-405.29,M,004.265,N,007.898,K,D*08
$GPGGA,094710.45,5703.4846108,N,00952.3216340,E,2,11,0.8,-2.080,M,40.593,M,3.2,0123*67
$GPVTG,234.72,T,-405.18,M,004.253,N,007.876,K,D*0D
$GPGGA,094710.50,5703.4845779,N,00952.3215445,E,2,11,0.8,-2.080,M,40.593,M,3.2,0123*61
$GPVTG,235.31,T,-404.59,M,004.250,N,007.871,K,D*0B
$GPGGA,094710.55,5703.4845446,N,00952.3214560,E,2,11,0.8,-2.080,M,40.593,M,3.2,0123*6C
$GPVTG,235.41,T,-404.49,M,004.240,N,007.852,K,D*0D
$GPGGA,094710.60,5703.4845113,N,00952.3213676,E,2,11,0.8,-2.082,M,40.593,M,3.2,0123*6E
$GPVTG,235.49,T,-404.41,M,004.231,N,007.835,K,D*0A
$GPGGA,094710.65,5703.4844778,N,00952.3212792,E,2,11,0.8,-2.087,M,40.593,M,3.4,0123*68
$GPVTG,235.42,T,-404.48,M,004.229,N,007.833,K,D*07
$GPGGA,094710.70,5703.4844450,N,00952.3211904,E,2,11,0.8,-2.088,M,40.593,M,3.4,0123*68
$GPVTG,235.70,T,-404.20,M,004.219,N,007.814,K,D*0E
$GPGGA,094710.75,5703.4844129,N,00952.3211014,E,2,11,0.8,-2.087,M,40.593,M,3.4,0123*61
$GPVTG,236.17,T,-403.73,M,004.205,N,007.787,K,D*05
$GPGGA,094710.80,5703.4843794,N,00952.3210138,E,2,11,0.8,-2.087,M,40.593,M,3.4,0123*62
$GPVTG,235.72,T,-404.18,M,004.199,N,007.776,K,D*07
$GPGGA,094710.85,5703.4843459,N,00952.3209260,E,2,11,0.8,-2.087,M,40.593,M,3.6,0123*61
$GPVTG,235.39,T,-404.51,M,004.200,N,007.779,K,D*09
$GPGGA,094710.90,5703.4843123,N,00952.3208383,E,2,11,0.8,-2.086,M,40.593,M,3.6,0123*61
$GPVTG,235.13,T,-404.77,M,004.202,N,007.782,K,D*03
$GPGGA,094710.95,5703.4842803,N,00952.3207501,E,2,11,0.8,-2.084,M,40.593,M,3.6,0123*6F
$GPVTG,235.63,T,-404.27,M,004.183,N,007.746,K,D*03
$GPGGA,094711.00,5703.4842485,N,00952.3206607,E,2,11,0.8,-2.085,M,40.593,M,3.6,0123*65
$GPVTG,236.25,T,-403.65,M,004.188,N,007.755,K,D*0A
$GPGGA,094711.05,5703.4842159,N,00952.3205705,E,2,11,0.8,-2.081,M,40.593,M,2.0,0123*67
$GPVTG,236.57,T,-403.33,M,004.200,N,007.778,K,D*00
$GPGGA,094711.10,5703.4841837,N,00952.3204807,E,2,11,0.8,-2.079,M,40.593,M,2.0,0123*6A
$GPVTG,236.77,T,-403.13,M,004.212,N,007.801,K,D*02
$GPGGA,094711.15,5703.4841500,N,00952.3203917,E,2,11,0.8,-2.081,M,40.593,M,2.0,0123*66
$GPVTG,236.19,T,-403.71,M,004.237,N,007.848,K,D*04
$GPGGA,094711.20,5703.4841167,N,00952.3203024,E,2,11,0.8,-2.082,M,40.593,M,2.0,0123*6F
$GPVTG,235.95,T,-403.95,M,004.248,N,007.868,K,D*03
$GPGGA,094711.25,5703.4840840,N,00952.3202136,E,2,11,0.8,-2.083,M,40.593,M,2.3,0123*66
$GPVTG,235.92,T,-403.98,M,004.238,N,007.849,K,D*0D
$GPGGA,094711.30,5703.4840516,N,00952.3201248,E,2,11,0.8,-2.081,M,40.593,M,2.3,0123*67
$GPVTG,236.00,T,-403.90,M,004.224,N,007.822,K,D*0D
$GPGGA,094711.35,5703.4840186,N,00952.3200355,E,2,11,0.8,-2.081,M,40.593,M,2.3,0123*63
$GPVTG,235.92,T,-403.98,M,004.231,N,007.836,K,D*0C
$GPGGA,094711.40,5703.4839858,N,00952.3199459,E,2,11,0.8,-2.080,M,40.593,M,2.3,0123*6C
$GPVTG,235.99,T,-403.91,M,004.240,N,007.852,K,D*0A
$GPGGA,094711.45,5703.4839527,N,00952.3198560,E,2,11,0.8,-2.082,M,40.593,M,2.5,0123*62
$GPVTG,236.00,T,-403.90,M,004.256,N,007.882,K,D*02
$GPGGA,094711.50,5703.4839190,N,00952.3197660,E,2,11,0.8,-2.083,M,40.593,M,2.5,0123*63
$GPVTG,235.79,T,-404.11,M,004.279,N,007.924,K,D*01
$GPGGA,094711.55,5703.4838851,N,00952.3196758,E,2,11,0.8,-2.084,M,40.593,M,2.5,0123*6F
$GPVTG,235.58,T,-404.32,M,004.299,N,007.961,K,D*0C
$GPGGA,094711.60,5703.4838529,N,00952.3195859,E,2,11,0.8,-2.082,M,40.593,M,2.5,0123*60
$GPVTG,236.00,T,-403.90,M,004.277,N,007.921,K,D*09
$GPGGA,094711.65,5703.4838196,N,00952.3194949,E,2,11,0.8,-2.082,M,40.593,M,2.8,0123*69
$GPVTG,236.10,T,-403.80,M,004.299,N,007.961,K,D*0D
$GPGGA,094711.70,5703.4837859,N,00952.3194030,E,2,11,0.8,-2.083,M,40.593,M,2.8,0123*6E
$GPVTG,236.15,T,-403.75,M,004.334,N,008.026,K,D*01
$GPGGA,094711.75,5703.4837527,N,00952.3193111,E,2,11,0.8,-2.083,M,40.593,M,2.8,0123*6A
$GPVTG,236.33,T,-403.57,M,004.346,N,008.048,K,D*08
$GPGGA,094711.80,5703.4837193,N,00952.3192192,E,2,11,0.8,-2.085,M,40.593,M,2.8,0123*67
$GPVTG,236.39,T,-403.51,M,004.354,N,008.064,K,D*09
$GPGGA,094711.85,5703.4836859,N,00952.3191275,E,2,11,0.8,-2.086,M,40.593,M,3.0,0123*6F
$GPVTG,236.34,T,-403.56,M,004.356,N,008.068,K,D*0D
$GPGGA,094711.90,5703.4836523,N,00952.3190349,E,2,11,0.8,-2.086,M,40.593,M,3.0,0123*64
$GPVTG,236.38,T,-403.52,M,004.373,N,008.098,K,D*0D
$GPGGA,094711.95,5703.4836189,N,00952.3189426,E,2,11,0.8,-2.090,M,40.593,M,3.0,0123*64
$GPVTG,236.42,T,-403.48,M,004.374,N,008.100,K,D*0C
$GPGGA,094712.00,5703.4835856,N,00952.3188490,E,2,11,0.8,-2.090,M,40.593,M,3.0,0123*6F
$GPVTG,236.69,T,-403.21,M,004.391,N,008.132,K,D*00
$GPGGA,094712.05,5703.4835523,N,00952.3187556,E,2,11,0.8,-2.084,M,40.593,M,1.6,0123*60
$GPVTG,236.88,T,-403.02,M,004.396,N,008.142,K,D*0E
$GPGGA,094712.10,5703.4835190,N,00952.3186616,E,2,11,0.8,-2.083,M,40.593,M,1.6,0123*69
$GPVTG,237.01,T,-402.89,M,004.410,N,008.168,K,D*0D
$GPGGA,094712.15,5703.4834850,N,00952.3185674,E,2,11,0.8,-2.084,M,40.593,M,1.6,0123*68
$GPVTG,236.85,T,-403.05,M,004.433,N,008.211,K,D*09
$GPGGA,094712.20,5703.4834510,N,00952.3184723,E,2,11,0.8,-2.087,M,40.593,M,1.6,0123*66
$GPVTG,236.86,T,-403.04,M,004.463,N,008.266,K,D*0E
$GPGGA,094712.25,5703.4834173,N,00952.3183772,E,2,11,0.8,-2.089,M,40.593,M,1.8,0123*61
$GPVTG,236.94,T,-402.96,M,004.475,N,008.287,K,D*0F
$GPGGA,094712.30,5703.4833846,N,00952.3182816,E,2,11,0.8,-2.087,M,40.593,M,1.8,0123*6F
$GPVTG,237.43,T,-402.47,M,004.470,N,008.278,K,D*0D
$GPGGA,094712.35,5703.4833520,N,00952.3181854,E,2,11,0.8,-2.086,M,40.593,M,1.8,0123*63
$GPVTG,237.87,T,-402.03,M,004.471,N,008.280,K,D*03
$GPGGA,094712.40,5703.4833203,N,00952.3180912,E,2,11,0.8,-2.083,M,40.593,M,1.8,0123*60
$GPVTG,238.19,T,-401.71,M,004.420,N,008.186,K,D*0C
$GPGGA,094712.45,5703.4832870,N,00952.3179956,E,2,11,0.8,-2.078,M,40.593,M,2.1,0123*62
$GPVTG,237.97,T,-401.93,M,004.435,N,008.215,K,D*04
$GPGGA,094712.50,5703.4832536,N,00952.3179007,E,2,11,0.8,-2.073,M,40.593,M,2.1,0123*6F
$GPVTG,237.66,T,-402.24,M,004.436,N,008.215,K,D*06
$GPGGA,094712.55,5703.4832203,N,00952.3178050,E,2,11,0.8,-2.069,M,40.593,M,2.1,0123*63
$GPVTG,237.60,T,-402.30,M,004.449,N,008.239,K,D*03
$GPGGA,094712.60,5703.4831877,N,00952.3177087,E,2,11,0.8,-2.067,M,40.593,M,2.1,0123*64
$GPVTG,237.87,T,-402.03,M,004.456,N,008.252,K,D*09
$GPGGA,094712.65,5703.4831549,N,00952.3176135,E,2,11,0.8,-2.068,M,40.593,M,2.3,0123*65
$GPVTG,237.86,T,-402.04,M,004.444,N,008.229,K,D*00
$GPGGA,094712.70,5703.4831218,N,00952.3175171,E,2,11,0.8,-2.068,M,40.593,M,2.3,0123*61
$GPVTG,237.85,T,-402.05,M,004.463,N,008.265,K,D*0F
$GPGGA,094712.75,5703.4830895,N,00952.3174198,E,2,11,0.8,-2.066,M,40.593,M,2.3,0123*62
$GPVTG,238.28,T,-401.62,M,004.477,N,008.292,K,D*08
$GPGGA,094712.80,5703.4830570,N,00952.3173231,E,2,11,0.8,-2.065,M,40.593,M,2.3,0123*6A
$GPVTG,238.41,T,-401.49,M,004.476,N,008.290,K,D*0D
$GPGGA,094712.85,5703.4830244,N,00952.3172276,E,2,11,0.8,-2.060,M,40.593,M,2.6,0123*6D
$GPVTG,238.25,T,-401.65,M,004.456,N,008.252,K,D*0D
$GPGGA,094712.90,5703.4829913,N,00952.3171304,E,2,11,0.8,-2.058,M,40.593,M,2.6,0123*64
$GPVTG,238.17,T,-401.73,M,004.482,N,008.301,K,D*05
$GPGGA,094712.95,5703.4829573,N,00952.3170353,E,2,11,0.8,-2.055,M,40.593,M,2.6,0123*65
$GPVTG,237.47,T,-402.43,M,004.476,N,008.289,K,D*05
$GPGGA,094713.00,5703.4829246,N,00952.3169399,E,2,11,0.8,-2.053,M,40.593,M,2.6,0123*61
$GPVTG,237.53,T,-402.37,M,004.454,N,008.250,K,D*07
$GPGGA,094713.05,5703.4828921,N,00952.3168445,E,2,11,0.8,-2.048,M,40.593,M,1.7,0123*60
$GPVTG,237.76,T,-402.14,M,004.435,N,008.213,K,D*01
$GPGGA,094713.10,5703.4828605,N,00952.3167491,E,2,11,0.8,-2.047,M,40.593,M,1.7,0123*64
$GPVTG,238.16,T,-401.74,M,004.409,N,008.166,K,D*03
$GPGGA,094713.15,5703.4828277,N,00952.3166544,E,2,11,0.8,-2.048,M,40.593,M,1.7,0123*67
$GPVTG,237.96,T,-401.94,M,004.399,N,008.146,K,D*06
$GPGGA,094713.20,5703.4827958,N,00952.3165597,E,2,11,0.8,-2.046,M,40.593,M,1.7,0123*6B
$GPVTG,238.09,T,-401.81,M,004.379,N,008.111,K,D*07
$GPGGA,094713.25,5703.4827639,N,00952.3164640,E,2,11,0.8,-2.044,M,40.593,M,1.9,0123*62
$GPVTG,238.35,T,-401.55,M,004.386,N,008.123,K,D*00
$GPGGA,094713.30,5703.4827315,N,00952.3163701,E,2,11,0.8,-2.041,M,40.593,M,1.9,0123*6B
$GPVTG,238.07,T,-401.83,M,004.371,N,008.095,K,D*0E
$GPGGA,094713.35,5703.4826990,N,00952.3162743,E,2,11,0.8,-2.036,M,40.593,M,1.9,0123*6F
$GPVTG,238.12,T,-401.78,M,004.399,N,008.147,K,D*06
$GPGGA,094713.40,5703.4826673,N,00952.3161798,E,2,11,0.8,-2.033,M,40.593,M,1.9,0123*6F
$GPVTG,238.27,T,-401.63,M,004.379,N,008.110,K,D*06
$GPGGA,094713.45,5703.4826358,N,00952.3160847,E,2,11,0.8,-2.032,M,40.593,M,2.1,0123*60
$GPVTG,238.52,T,-401.38,M,004.374,N,008.101,K,D*07
$GPGGA,094713.50,5703.4826052,N,00952.3159894,E,2,11,0.8,-2.032,M,40.593,M,2.1,0123*69
$GPVTG,239.06,T,-400.84,M,004.359,N,008.073,K,D*0A
$GPGGA,094713.55,5703.4825735,N,00952.3158942,E,2,11,0.8,-2.032,M,40.593,M,2.1,0123*62
$GPVTG,238.96,T,-400.94,M,004.369,N,008.092,K,D*0F
$GPGGA,094713.60,5703.4825424,N,00952.3157997,E,2,11,0.8,-2.033,M,40.593,M,2.1,0123*61
$GPVTG,239.02,T,-400.88,M,004.351,N,008.058,K,D*03
$GPGGA,094713.65,5703.4825109,N,00952.3157051,E,2,11,0.8,-2.040,M,40.593,M,2.4,0123*6C
$GPVTG,238.92,T,-400.98,M,004.349,N,008.055,K,D*0E
$GPGGA,094713.70,5703.4824797,N,00952.3156097,E,2,11,0.8,-2.040,M,40.593,M,2.4,0123*63
$GPVTG,239.05,T,-400.85,M,004.357,N,008.070,K,D*05
$GPGGA,094713.75,5703.4824490,N,00952.3155150,E,2,11,0.8,-2.039,M,40.593,M,2.4,0123*65
$GPVTG,239.18,T,-400.72,M,004.344,N,008.044,K,D*04
$GPGGA,094713.80,5703.4824173,N,00952.3154208,E,2,11,0.8,-2.041,M,40.593,M,2.4,0123*67
$GPVTG,238.82,T,-401.08,M,004.342,N,008.040,K,D*08
$GPGGA,094713.85,5703.4823859,N,00952.3153273,E,2,11,0.8,-2.037,M,40.593,M,2.6,0123*6C
$GPVTG,238.55,T,-401.35,M,004.325,N,008.010,K,D*08
$GPGGA,094713.90,5703.4823550,N,00952.3152340,E,2,11,0.8,-2.038,M,40.593,M,2.6,0123*63
$GPVTG,238.57,T,-401.33,M,004.302,N,007.968,K,D*00
$GPGGA,094713.95,5703.4823239,N,00952.3151391,E,2,11,0.8,-2.038,M,40.593,M,2.6,0123*61
$GPVTG,238.74,T,-401.16,M,004.323,N,008.005,K,D*08
$GPGGA,094714.00,5703.4822928,N,00952.3150459,E,2,11,0.8,-2.040,M,40.593,M,2.6,0123*6D
$GPVTG,238.61,T,-401.29,M,004.307,N,007.977,K,D*05
$GPGGA,094714.05,5703.4822612,N,00952.3149523,E,2,11,0.8,-2.040,M,40.593,M,2.8,0123*64
$GPVTG,238.52,T,-401.38,M,004.308,N,007.978,K,D*05
$GPGGA,094714.10,5703.4822297,N,00952.3148598,E,2,11,0.8,-2.037,M,40.593,M,2.8,0123*68
$GPVTG,238.24,T,-401.66,M,004.292,N,007.949,K,D*0F
$GPGGA,094714.15,5703.4821973,N,00952.3147663,E,2,11,0.8,-2.040,M,40.593,M,2.8,0123*67
$GPVTG,237.84,T,-402.06,M,004.318,N,007.997,K,D*0F
$GPGGA,094714.20,5703.4821665,N,00952.3146716,E,2,11,0.8,-2.043,M,40.593,M,2.8,0123*68
$GPVTG,238.36,T,-401.54,M,004.332,N,008.023,K,D*0C
$GPGGA,094714.25,5703.4821357,N,00952.3145772,E,2,11,0.8,-2.052,M,40.593,M,3.0,0123*61
$GPVTG,238.73,T,-401.17,M,004.335,N,008.028,K,D*06
$GPGGA,094714.30,5703.4821050,N,00952.3144834,E,2,11,0.8,-2.058,M,40.593,M,3.0,0123*67
$GPVTG,238.94,T,-400.96,M,004.319,N,007.999,K,D*05
$GPGGA,094714.35,5703.4820743,N,00952.3143903,E,2,11,0.8,-2.060,M,40.593,M,3.0,0123*6F
$GPVTG,238.94,T,-400.96,M,004.299,N,007.961,K,D*0B
$GPGGA,094714.40,5703.4820436,N,00952.3142968,E,2,11,0.8,-2.061,M,40.593,M,3.0,0123*61
$GPVTG,239.01,T,-400.89,M,004.291,N,007.947,K,D*04
$GPGGA,094714.45,5703.4820134,N,00952.3142028,E,2,11,0.8,-2.059,M,40.593,M,3.2,0123*67
$GPVTG,239.26,T,-400.64,M,004.287,N,007.939,K,D*0C
$GPGGA,094714.50,5703.4819839,N,00952.3141086,E,2,11,0.8,-2.058,M,40.593,M,3.2,0123*6B
$GPVTG,239.74,T,-400.16,M,004.277,N,007.921,K,D*08
$GPGGA,094714.55,5703.4819539,N,00952.3140148,E,2,11,0.8,-2.061,M,40.593,M,3.2,0123*6B
$GPVTG,239.81,T,-400.09,M,004.272,N,007.912,K,D*09
$GPGGA,094714.60,5703.4819248,N,00952.3139206,E,2,11,0.8,-2.061,M,40.593,M,3.2,0123*6B
$GPVTG,240.26,T,-399.64,M,004.261,N,007.892,K,D*0D
$GPGGA,094714.65,5703.4818950,N,00952.3138278,E,2,11,0.8,-2.064,M,40.593,M,3.4,0123*66
$GPVTG,240.06,T,-399.84,M,004.240,N,007.853,K,D*0F
$GPGGA,094714.70,5703.4818649,N,00952.3137352,E,2,11,0.8,-2.064,M,40.593,M,3.4,0123*63
$GPVTG,239.75,T,-400.15,M,004.230,N,007.835,K,D*0D
$GPGGA,094714.75,5703.4818349,N,00952.3136408,E,2,11,0.8,-2.065,M,40.593,M,3.4,0123*6B
$GPVTG,239.80,T,-400.10,M,004.256,N,007.882,K,D*0E
$GPGGA,094714.80,5703.4818045,N,00952.3135459,E,2,11,0.8,-2.069,M,40.593,M,3.4,0123*65
$GPVTG,239.72,T,-400.18,M,004.293,N,007.950,K,D*0C
$GPGGA,094714.85,5703.4817749,N,00952.3134512,E,2,11,0.8,-2.073,M,40.593,M,3.6,0123*62
$GPVTG,240.02,T,-399.88,M,004.306,N,007.975,K,D*01
$GPGGA,094714.90,5703.4817452,N,00952.3133563,E,2,11,0.8,-2.072,M,40.593,M,3.6,0123*6F
$GPVTG,240.12,T,-399.78,M,004.313,N,007.987,K,D*06
$GPGGA,094714.95,5703.4817160,N,00952.3132609,E,2,11,0.8,-2.070,M,40.593,M,3.6,0123*62
$GPVTG,240.47,T,-399.43,M,004.314,N,007.990,K,D*0F
$GPGGA,094715.00,5703.4816869,N,00952.3131657,E,2,11,0.8,-2.073,M,40.593,M,3.6,0123*65
$GPVTG,240.69,T,-399.21,M,004.308,N,007.979,K,D*0D
$GPGGA,094715.05,5703.4816579,N,00952.3130713,E,2,11,0.8,-2.068,M,40.593,M,2.0,0123*61
$GPVTG,240.69,T,-399.21,M,004.294,N,007.953,K,D*01
$GPGGA,094715.10,5703.4816286,N,00952.3129767,E,2,11,0.8,-2.069,M,40.593,M,2.0,0123*68
$GPVTG,240.66,T,-399.24,M,004.283,N,007.932,K,D*0A
$GPGGA,094715.15,5703.4815988,N,00952.3128797,E,2,11,0.8,-2.070,M,40.593,M,2.0,0123*6D
$GPVTG,240.72,T,-399.18,M,004.330,N,008.019,K,D*06
$GPGGA,094715.20,5703.4815694,N,00952.3127825,E,2,11,0.8,-2.070,M,40.593,M,2.0,0123*60
$GPVTG,240.90,T,-399.00,M,004.358,N,008.072,K,D*00
$GPGGA,094715.25,5703.4815398,N,00952.3126859,E,2,11,0.8,-2.074,M,40.593,M,2.3,0123*61
$GPVTG,240.88,T,-399.02,M,004.368,N,008.090,K,D*04
$GPGGA,094715.30,5703.4815111,N,00952.3125892,E,2,11,0.8,-2.077,M,40.593,M,2.3,0123*61
$GPVTG,241.18,T,-398.72,M,004.360,N,008.075,K,D*09
$GPGGA,094715.35,5703.4814823,N,00952.3124914,E,2,11,0.8,-2.079,M,40.593,M,2.3,0123*6D
$GPVTG,241.51,T,-398.39,M,004.371,N,008.095,K,D*05
$GPGGA,094715.40,5703.4814539,N,00952.3123926,E,2,11,0.8,-2.080,M,40.593,M,2.3,0123*69
$GPVTG,241.97,T,-397.93,M,004.389,N,008.129,K,D*01
$GPGGA,094715.45,5703.4814248,N,00952.3122931,E,2,11,0.8,-2.082,M,40.593,M,2.5,0123*6E
$GPVTG,242.04,T,-397.86,M,004.425,N,008.195,K,D*0A
$GPGGA,094715.50,5703.4813955,N,00952.3121947,E,2,11,0.8,-2.086,M,40.593,M,2.5,0123*6C
$GPVTG,241.86,T,-398.04,M,004.426,N,008.197,K,D*07
$GPGGA,094715.55,5703.4813666,N,00952.3120959,E,2,11,0.8,-2.087,M,40.593,M,2.5,0123*69
$GPVTG,241.89,T,-398.01,M,004.428,N,008.201,K,D*0F
$GPGGA,094715.60,5703.4813382,N,00952.3119969,E,2,11,0.8,-2.086,M,40.593,M,2.5,0123*68
$GPVTG,242.13,T,-397.77,M,004.420,N,008.186,K,D*05
$GPGGA,094715.65,5703.4813104,N,00952.3118986,E,2,11,0.8,-2.082,M,40.593,M,2.8,0123*68
$GPVTG,242.37,T,-397.53,M,004.391,N,008.133,K,D*06
$GPGGA,094715.70,5703.4812825,N,00952.3117985,E,2,11,0.8,-2.085,M,40.593,M,2.8,0123*6C
$GPVTG,242.77,T,-397.13,M,004.406,N,008.160,K,D*09
$GPGGA,094715.75,5703.4812538,N,00952.3116994,E,2,11,0.8,-2.087,M,40.593,M,2.8,0123*6B
$GPVTG,242.53,T,-397.37,M,004.408,N,008.164,K,D*03
$GPGGA,094715.80,5703.4812250,N,00952.3115994,E,2,11,0.8,-2.087,M,40.593,M,2.8,0123*6B
$GPVTG,242.46,T,-397.44,M,004.429,N,008.203,K,D*02
$GPGGA,094715.85,5703.4811971,N,00952.3114990,E,2,11,0.8,-2.085,M,40.593,M,3.0,0123*6B
$GPVTG,242.73,T,-397.17,M,004.437,N,008.216,K,D*09
$GPGGA,094715.90,5703.4811703,N,00952.3113978,E,2,11,0.8,-2.084,M,40.593,M,3.0,0123*64
$GPVTG,243.47,T,-396.43,M,004.437,N,008.217,K,D*0E
$GPGGA,094715.95,5703.4811441,N,00952.3112948,E,2,11,0.8,-2.086,M,40.593,M,3.0,0123*64
$GPVTG,244.40,T,-395.50,M,004.461,N,008.262,K,D*0E
$GPGGA,094716.00,5703.4811178,N,00952.3111911,E,2,11,0.8,-2.086,M,40.593,M,3.0,0123*6B
$GPVTG,245.04,T,-394.86,M,004.489,N,008.313,K,D*04
$GPGGA,094716.05,5703.4810923,N,00952.3110874,E,2,11,0.8,-2.079,M,40.593,M,1.6,0123*6E
$GPVTG,245.63,T,-394.27,M,004.480,N,008.296,K,D*0B
$GPGGA,094716.10,5703.4810667,N,00952.3109854,E,2,11,0.8,-2.078,M,40.593,M,1.6,0123*6E
$GPVTG,245.81,T,-394.09,M,004.453,N,008.246,K,D*08
$GPGGA,094716.15,5703.4810422,N,00952.3108814,E,2,11,0.8,-2.077,M,40.593,M,1.6,0123*62
$GPVTG,246.52,T,-393.38,M,004.455,N,008.251,K,D*00
$GPGGA,094716.20,5703.4810171,N,00952.3107761,E,2,11,0.8,-2.075,M,40.593,M,1.6,0123*67
$GPVTG,246.84,T,-393.06,M,004.489,N,008.314,K,D*07
$GPGGA,094716.25,5703.4809905,N,00952.3106712,E,2,11,0.8,-2.079,M,40.593,M,1.8,0123*66
$GPVTG,246.36,T,-393.54,M,004.524,N,008.379,K,D*04
$GPGGA,094716.30,5703.4809629,N,00952.3105672,E,2,11,0.8,-2.078,M,40.593,M,1.8,0123*66
$GPVTG,245.45,T,-394.45,M,004.542,N,008.411,K,D*0D
$GPGGA,094716.35,5703.4809345,N,00952.3104633,E,2,11,0.8,-2.077,M,40.593,M,1.8,0123*67
$GPVTG,244.43,T,-395.47,M,004.562,N,008.449,K,D*06
$GPGGA,094716.40,5703.4809075,N,00952.3103582,E,2,11,0.8,-2.079,M,40.593,M,1.8,0123*65
$GPVTG,244.37,T,-395.53,M,004.578,N,008.479,K,D*08
$GPGGA,094716.45,5703.4808803,N,00952.3102530,E,2,11,0.8,-2.075,M,40.593,M,2.1,0123*66
$GPVTG,244.30,T,-395.60,M,004.590,N,008.502,K,D*04
$GPGGA,094716.50,5703.4808534,N,00952.3101474,E,2,11,0.8,-2.076,M,40.593,M,2.1,0123*6A
$GPVTG,244.49,T,-395.41,M,004.598,N,008.515,K,D*07
$GPGGA,094716.55,5703.4808270,N,00952.3100404,E,2,11,0.8,-2.077,M,40.593,M,2.1,0123*6F
$GPVTG,244.96,T,-394.94,M,004.622,N,008.560,K,D*0C
$GPGGA,094716.60,5703.4807991,N,00952.3099341,E,2,11,0.8,-2.075,M,40.593,M,2.1,0123*67
$GPVTG,244.67,T,-395.23,M,004.640,N,008.594,K,D*00
$GPGGA,094716.65,5703.4807724,N,00952.3098281,E,2,11,0.8,-2.074,M,40.593,M,2.3,0123*6D
$GPVTG,244.86,T,-395.04,M,004.629,N,008.574,K,D*0B
$GPGGA,094716.70,5703.4807468,N,00952.3097221,E,2,11,0.8,-2.074,M,40.593,M,2.3,0123*67
$GPVTG,245.42,T,-394.48,M,004.601,N,008.522,K,D*02
$GPGGA,094716.75,5703.4807206,N,00952.3096159,E,2,11,0.8,-2.074,M,40.593,M,2.3,0123*61
$GPVTG,245.65,T,-394.25,M,004.593,N,008.506,K,D*02
$GPGGA,094716.80,5703.4806940,N,00952.3095072,E,2,11,0.8,-2.072,M,40.593,M,2.3,0123*6E
$GPVTG,245.84,T,-394.06,M,004.641,N,008.595,K,D*0A
$GPGGA,094716.85,5703.4806660,N,00952.3093977,E,2,11,0.8,-2.074,M,40.593,M,2.6,0123*6F
$GPVTG,245.53,T,-394.37,M,004.707,N,008.717,K,D*09
$GPGGA,094716.90,5703.4806394,N,00952.3092882,E,2,11,0.8,-2.074,M,40.593,M,2.6,0123*6F
$GPVTG,245.82,T,-394.08,M,004.728,N,008.757,K,D*00
$GPGGA,094716.95,5703.4806119,N,00952.3091795,E,2,11,0.8,-2.073,M,40.593,M,2.6,0123*60
$GPVTG,245.55,T,-394.35,M,004.737,N,008.774,K,D*0B
$GPGGA,094717.00,5703.4805850,N,00952.3090715,E,2,11,0.8,-2.075,M,40.593,M,2.6,0123*65
$GPVTG,245.50,T,-394.40,M,004.715,N,008.732,K,D*0E
$GPGGA,094717.05,5703.4805585,N,00952.3089639,E,2,11,0.8,-2.067,M,40.593,M,1.7,0123*63
$GPVTG,245.49,T,-394.41,M,004.668,N,008.646,K,D*0E
$GPGGA,094717.10,5703.4805332,N,00952.3088548,E,2,11,0.8,-2.066,M,40.593,M,1.7,0123*68
$GPVTG,246.18,T,-393.72,M,004.664,N,008.638,K,D*0B
$GPGGA,094717.15,5703.4805058,N,00952.3087439,E,2,11,0.8,-2.064,M,40.593,M,1.7,0123*68
$GPVTG,246.04,T,-393.86,M,004.724,N,008.749,K,D*0F
$GPGGA,094717.20,5703.4804782,N,00952.3086329,E,2,11,0.8,-2.061,M,40.593,M,1.7,0123*6D
$GPVTG,245.87,T,-394.03,M,004.770,N,008.833,K,D*0E
$GPGGA,094717.25,5703.4804507,N,00952.3085237,E,2,11,0.8,-2.061,M,40.593,M,1.9,0123*64
$GPVTG,245.57,T,-394.33,M,004.763,N,008.821,K,D*01
$GPGGA,094717.30,5703.4804229,N,00952.3084171,E,2,11,0.8,-2.054,M,40.593,M,1.9,0123*6D
$GPVTG,244.96,T,-394.94,M,004.708,N,008.720,K,D*03
$GPGGA,094717.35,5703.4803961,N,00952.3083100,E,2,11,0.8,-2.047,M,40.593,M,1.9,0123*6B
$GPVTG,244.98,T,-394.92,M,004.668,N,008.644,K,D*0F
$GPGGA,094717.40,5703.4803700,N,00952.3082003,E,2,11,0.8,-2.042,M,40.593,M,1.9,0123*66
$GPVTG,245.56,T,-394.34,M,004.679,N,008.666,K,D*00
$GPGGA,094717.45,5703.4803421,N,00952.3080901,E,2,11,0.8,-2.040,M,40.593,M,2.1,0123*63
$GPVTG,245.39,T,-394.51,M,004.726,N,008.753,K,D*06
$GPGGA,094717.50,5703.4803143,N,00952.3079800,E,2,11,0.8,-2.038,M,40.593,M,2.1,0123*6F
$GPVTG,245.26,T,-394.64,M,004.755,N,008.806,K,D*05
$GPGGA,094717.55,5703.4802861,N,00952.3078715,E,2,11,0.8,-2.033,M,40.593,M,2.1,0123*63
$GPVTG,244.88,T,-395.02,M,004.748,N,008.793,K,D*0E
$GPGGA,094717.60,5703.4802582,N,00952.3077628,E,2,11,0.8,-2.032,M,40.593,M,2.1,0123*64
$GPVTG,244.72,T,-395.18,M,004.741,N,008.780,K,D*0B
$GPGGA,094717.65,5703.4802296,N,00952.3076543,E,2,11,0.8,-2.035,M,40.593,M,2.4,0123*6E
$GPVTG,244.40,T,-395.50,M,004.740,N,008.779,K,D*01
$GPGGA,094717.70,5703.4802010,N,00952.3075459,E,2,11,0.8,-2.035,M,40.593,M,2.4,0123*6F
$GPVTG,244.12,T,-395.78,M,004.739,N,008.777,K,D*0C
$GPGGA,094717.75,5703.4801734,N,00952.3074371,E,2,11,0.8,-2.036,M,40.593,M,2.4,0123*67
$GPVTG,244.43,T,-395.47,M,004.732,N,008.763,K,D*0A
$GPGGA,094717.80,5703.4801450,N,00952.3073286,E,2,11,0.8,-2.038,M,40.593,M,2.4,0123*6C
$GPVTG,244.33,T,-395.57,M,004.731,N,008.763,K,D*0F
$GPGGA,094717.85,5703.4801179,N,00952.3072196,E,2,11,0.8,-2.035,M,40.593,M,2.6,0123*6B
$GPVTG,244.78,T,-395.12,M,004.723,N,008.746,K,D*05
$GPGGA,094717.90,5703.4800920,N,00952.3071119,E,2,11,0.8,-2.031,M,40.593,M,2.6,0123*6A
$GPVTG,245.42,T,-394.48,M,004.676,N,008.659,K,D*0D
$GPGGA,094717.95,5703.4800658,N,00952.3070042,E,2,11,0.8,-2.029,M,40.593,M,2.6,0123*68
$GPVTG,245.81,T,-394.09,M,004.646,N,008.604,K,D*0C
$GPGGA,094718.00,5703.4800385,N,00952.3068964,E,2,11,0.8,-2.026,M,40.593,M,2.6,0123*65
$GPVTG,245.63,T,-394.27,M,004.646,N,008.605,K,D*0D
$GPGGA,094718.05,5703.4800119,N,00952.3067871,E,2,11,0.8,-2.023,M,40.593,M,2.8,0123*66
$GPVTG,245.84,T,-394.06,M,004.653,N,008.618,K,D*0F
$GPGGA,094718.10,5703.4799852,N,00952.3066803,E,2,11,0.8,-2.021,M,40.593,M,2.8,0123*6D
$GPVTG,245.71,T,-394.19,M,004.629,N,008.572,K,D*09
$GPGGA,094718.15,5703.4799594,N,00952.3065726,E,2,11,0.8,-2.017,M,40.593,M,2.8,0123*61
$GPVTG,246.07,T,-393.83,M,004.618,N,008.553,K,D*0E
$GPGGA,094718.20,5703.4799334,N,00952.3064631,E,2,11,0.8,-2.016,M,40.593,M,2.8,0123*6C
$GPVTG,246.39,T,-393.51,M,004.650,N,008.611,K,D*05
$GPGGA,094718.25,5703.4799071,N,00952.3063536,E,2,11,0.8,-2.022,M,40.593,M,3.0,0123*66
$GPVTG,246.47,T,-393.43,M,004.679,N,008.665,K,D*07
$GPGGA,094718.30,5703.4798810,N,00952.3062438,E,2,11,0.8,-2.022,M,40.593,M,3.0,0123*62
$GPVTG,246.61,T,-393.29,M,004.700,N,008.705,K,D*07
$GPGGA,094718.35,5703.4798549,N,00952.3061365,E,2,11,0.8,-2.022,M,40.593,M,3.0,0123*6A
$GPVTG,246.39,T,-393.51,M,004.664,N,008.638,K,D*09
$GPGGA,094718.40,5703.4798276,N,00952.3060306,E,2,11,0.8,-2.022,M,40.593,M,3.0,0123*67
$GPVTG,245.65,T,-394.25,M,004.628,N,008.571,K,D*01
$GPGGA,094718.45,5703.4798008,N,00952.3059240,E,2,11,0.8,-2.019,M,40.593,M,3.2,0123*6A
$GPVTG,245.37,T,-394.53,M,004.612,N,008.541,K,D*0D
$GPGGA,094718.50,5703.4797742,N,00952.3058168,E,2,11,0.8,-2.019,M,40.593,M,3.2,0123*60
$GPVTG,245.31,T,-394.59,M,004.612,N,008.541,K,D*01
$GPGGA,094718.55,5703.4797481,N,00952.3057089,E,2,11,0.8,-2.017,M,40.593,M,3.2,0123*66
$GPVTG,245.56,T,-394.34,M,004.623,N,008.561,K,D*0B
$GPGGA,094718.60,5703.4797227,N,00952.3056019,E,2,11,0.8,-2.014,M,40.593,M,3.2,0123*61
$GPVTG,245.93,T,-393.97,M,004.606,N,008.530,K,D*0F
$GPGGA,094718.65,5703.4796963,N,00952.3054965,E,2,11,0.8,-2.017,M,40.593,M,3.4,0123*6B
$GPVTG,245.66,T,-394.24,M,004.577,N,008.477,K,D*0D
$GPGGA,094718.70,5703.4796706,N,00952.3053918,E,2,11,0.8,-2.014,M,40.593,M,3.4,0123*6C
$GPVTG,245.67,T,-394.23,M,004.534,N,008.397,K,D*05
$GPGGA,094718.75,5703.4796456,N,00952.3052864,E,2,11,0.8,-2.012,M,40.593,M,3.4,0123*62
$GPVTG,246.04,T,-393.86,M,004.513,N,008.358,K,D*0D
$GPGGA,094718.80,5703.4796208,N,00952.3051813,E,2,11,0.8,-2.010,M,40.593,M,3.4,0123*64
$GPVTG,246.32,T,-393.58,M,004.495,N,008.325,K,D*0E
$GPGGA,094718.85,5703.4795963,N,00952.3050759,E,2,11,0.8,-2.009,M,40.593,M,3.6,0123*6E
$GPVTG,246.69,T,-393.21,M,004.488,N,008.312,K,D*06
$GPGGA,094718.90,5703.4795708,N,00952.3049722,E,2,11,0.8,-2.007,M,40.593,M,3.6,0123*63
$GPVTG,246.36,T,-393.54,M,004.467,N,008.273,K,D*09
$GPGGA,094718.95,5703.4795447,N,00952.3048698,E,2,11,0.8,-2.005,M,40.593,M,3.6,0123*6D
$GPVTG,245.73,T,-394.17,M,004.439,N,008.221,K,D*07
$GPGGA,094719.00,5703.4795182,N,00952.3047676,E,2,11,0.8,-2.005,M,40.593,M,3.6,0123*63
$GPVTG,245.09,T,-394.81,M,004.425,N,008.195,K,D*04
$GPGGA,094719.05,5703.4794933,N,00952.3046648,E,2,11,0.8,-2.000,M,40.593,M,2.0,0123*6B
$GPVTG,245.38,T,-394.52,M,004.393,N,008.136,K,D*0B
$GPGGA,094719.10,5703.4794685,N,00952.3045624,E,2,11,0.8,-2.000,M,40.593,M,2.0,0123*64
$GPVTG,245.60,T,-394.30,M,004.386,N,008.123,K,D*02
$GPGGA,094719.15,5703.4794443,N,00952.3044617,E,2,11,0.8,-2.002,M,40.593,M,2.0,0123*6A
$GPVTG,245.88,T,-394.02,M,004.342,N,008.041,K,D*08
$GPGGA,094719.20,5703.4794197,N,00952.3043621,E,2,11,0.8,-2.003,M,40.593,M,2.0,0123*63
$GPVTG,245.75,T,-394.15,M,004.301,N,007.966,K,D*08
$GPGGA,094719.25,5703.4793953,N,00952.3042645,E,2,11,0.8,-2.003,M,40.593,M,2.3,0123*61
$GPVTG,245.53,T,-394.37,M,004.237,N,007.846,K,D*0B
$GPGGA,094719.30,5703.4793717,N,00952.3041692,E,2,11,0.8,-2.007,M,40.593,M,2.3,0123*66
$GPVTG,245.46,T,-394.44,M,004.146,N,007.678,K,D*0D
$GPGGA,094719.35,5703.4793491,N,00952.3040777,E,2,11,0.8,-2.015,M,40.593,M,2.3,0123*66
$GPVTG,245.40,T,-394.50,M,004.007,N,007.420,K,D*05
$GPGGA,094719.40,5703.4793269,N,00952.3039882,E,2,11,0.8,-2.028,M,40.593,M,2.3,0123*60
$GPVTG,245.37,T,-394.53,M,003.879,N,007.184,K,D*0B
$GPGGA,094719.45,5703.4793052,N,00952.3039003,E,2,11,0.8,-2.041,M,40.593,M,2.5,0123*67
$GPVTG,245.37,T,-394.53,M,003.771,N,006.983,K,D*02
$GPGGA,094719.50,5703.4792844,N,00952.3038149,E,2,11,0.8,-2.053,M,40.593,M,2.5,0123*60
$GPVTG,245.58,T,-394.32,M,003.654,N,006.767,K,D*0E
$GPGGA,094719.55,5703.4792644,N,00952.3037322,E,2,11,0.8,-2.068,M,40.593,M,2.5,0123*63
$GPVTG,245.78,T,-394.12,M,003.533,N,006.543,K,D*08
$GPGGA,094719.60,5703.4792463,N,00952.3036523,E,2,11,0.8,-2.082,M,40.593,M,2.5,0123*60
$GPVTG,246.57,T,-393.33,M,003.388,N,006.275,K,D*06
$GPGGA,094719.65,5703.4792278,N,00952.3035736,E,2,11,0.8,-2.101,M,40.593,M,2.8,0123*6B
$GPVTG,246.84,T,-393.06,M,003.293,N,006.099,K,D*05
$GPGGA,094719.70,5703.4792105,N,00952.3034974,E,2,11,0.8,-2.120,M,40.593,M,2.8,0123*6C
$GPVTG,247.34,T,-392.56,M,003.189,N,005.906,K,D*0F
$GPGGA,094719.75,5703.4791933,N,00952.3034233,E,2,11,0.8,-2.137,M,40.593,M,2.8,0123*69
$GPVTG,247.37,T,-392.53,M,003.097,N,005.736,K,D*0A
$GPGGA,094719.80,5703.4791759,N,00952.3033527,E,2,11,0.8,-2.156,M,40.593,M,2.8,0123*63
$GPVTG,246.77,T,-393.13,M,002.991,N,005.540,K,D*07
$GPGGA,094719.85,5703.4791598,N,00952.3032853,E,2,11,0.8,-2.175,M,40.593,M,3.0,0123*6E
$GPVTG,246.68,T,-393.22,M,002.861,N,005.299,K,D*06
$GPGGA,094719.90,5703.4791447,N,00952.3032196,E,2,11,0.8,-2.188,M,40.593,M,3.0,0123*6B
$GPVTG,246.94,T,-392.96,M,002.750,N,005.094,K,D*09
$GPGGA,094719.95,5703.4791299,N,00952.3031568,E,2,11,0.8,-2.200,M,40.593,M,3.0,0123*6E
$GPVTG,246.83,T,-393.07,M,002.635,N,004.881,K,D*09
$GPGGA,094720.00,5703.4791162,N,00952.3030965,E,2,11,0.8,-2.214,M,40.593,M,3.0,0123*6A
$GPVTG,247.08,T,-392.82,M,002.520,N,004.667,K,D*06
$GPGGA,094720.05,5703.4791020,N,00952.3030374,E,2,11,0.8,-2.220,M,40.593,M,1.6,0123*61
$GPVTG,246.70,T,-393.20,M,002.451,N,004.540,K,D*00
$GPGGA,094720.10,5703.4790872,N,00952.3029784,E,2,11,0.8,-2.232,M,40.593,M,1.6,0123*6B
$GPVTG,246.00,T,-393.90,M,002.430,N,004.500,K,D*0F
$GPGGA,094720.15,5703.4790713,N,00952.3029206,E,2,11,0.8,-2.244,M,40.593,M,1.6,0123*68
$GPVTG,244.58,T,-395.32,M,002.425,N,004.492,K,D*00
$GPGGA,094720.20,5703.4790559,N,00952.3028640,E,2,11,0.8,-2.256,M,40.593,M,1.6,0123*66
$GPVTG,243.74,T,-396.16,M,002.412,N,004.466,K,D*03
$GPGGA,094720.25,5703.4790420,N,00952.3028094,E,2,11,0.8,-2.270,M,40.593,M,1.8,0123*69
$GPVTG,243.94,T,-395.96,M,002.352,N,004.356,K,D*01
$GPGGA,094720.30,5703.4790280,N,00952.3027556,E,2,11,0.8,-2.284,M,40.593,M,1.8,0123*6E
$GPVTG,243.89,T,-396.01,M,002.312,N,004.282,K,D*0C
$GPGGA,094720.35,5703.4790128,N,00952.3027015,E,2,11,0.8,-2.295,M,40.593,M,1.8,0123*68
$GPVTG,243.17,T,-396.73,M,002.316,N,004.290,K,D*09
$GPGGA,094720.40,5703.4789977,N,00952.3026488,E,2,11,0.8,-2.307,M,40.593,M,1.8,0123*6B
$GPVTG,242.42,T,-397.48,M,002.302,N,004.263,K,D*08
$GPGGA,094720.45,5703.4789814,N,00952.3025979,E,2,11,0.8,-2.312,M,40.593,M,2.1,0123*64
$GPVTG,240.59,T,-399.31,M,002.288,N,004.238,K,D*0D
$GPGGA,094720.50,5703.4789650,N,00952.3025474,E,2,11,0.8,-2.320,M,40.593,M,2.1,0123*6F
$GPVTG,239.28,T,-400.62,M,002.280,N,004.223,K,D*06
$GPGGA,094720.55,5703.4789500,N,00952.3024986,E,2,11,0.8,-2.327,M,40.593,M,2.1,0123*6A
$GPVTG,239.19,T,-400.71,M,002.226,N,004.123,K,D*09
$GPGGA,094720.60,5703.4789353,N,00952.3024492,E,2,11,0.8,-2.333,M,40.593,M,2.1,0123*61
$GPVTG,239.61,T,-400.29,M,002.199,N,004.073,K,D*08
$GPGGA,094720.65,5703.4789204,N,00952.3023985,E,2,11,0.8,-2.336,M,40.593,M,2.3,0123*6C
$GPVTG,240.20,T,-399.70,M,002.217,N,004.107,K,D*0F
$GPGGA,094720.70,5703.4789060,N,00952.3023509,E,2,11,0.8,-2.342,M,40.593,M,2.3,0123*63
$GPVTG,240.40,T,-399.50,M,002.167,N,004.012,K,D*0A
$GPGGA,094720.75,5703.4788904,N,00952.3023015,E,2,11,0.8,-2.347,M,40.593,M,2.3,0123*61
$GPVTG,240.09,T,-399.81,M,002.189,N,004.053,K,D*0E
$GPGGA,094720.80,5703.4788746,N,00952.3022522,E,2,11,0.8,-2.351,M,40.593,M,2.3,0123*64
$GPVTG,239.75,T,-400.15,M,002.210,N,004.092,K,D*0F
$GPGGA,094720.85,5703.4788594,N,00952.3022025,E,2,11,0.8,-2.357,M,40.593,M,2.6,0123*6D
$GPVTG,239.97,T,-399.93,M,002.235,N,004.140,K,D*03
$GPGGA,094720.90,5703.4788442,N,00952.3021517,E,2,11,0.8,-2.358,M,40.593,M,2.6,0123*6B
$GPVTG,240.55,T,-399.35,M,002.261,N,004.187,K,D*05
$GPGGA,094720.95,5703.4788286,N,00952.3021010,E,2,11,0.8,-2.359,M,40.593,M,2.6,0123*63
$GPVTG,240.62,T,-399.28,M,002.282,N,004.227,K,D*09
$GPGGA,094721.00,5703.4788125,N,00952.3020497,E,2,11,0.8,-2.361,M,40.593,M,2.6,0123*65
$GPVTG,240.47,T,-399.43,M,002.314,N,004.286,K,D*06
$GPGGA,094721.05,5703.4787962,N,00952.3020004,E,2,11,0.8,-2.351,M,40.593,M,1.7,0123*6B
$GPVTG,239.59,T,-400.31,M,002.305,N,004.269,K,D*04
$GPGGA,094721.10,5703.4787798,N,00952.3019506,E,2,11,0.8,-2.351,M,40.593,M,1.7,0123*69
$GPVTG,239.11,T,-400.79,M,002.302,N,004.264,K,D*0E
$GPGGA,094721.15,5703.4787649,N,00952.3018989,E,2,11,0.8,-2.348,M,40.593,M,1.7,0123*63
$GPVTG,240.30,T,-399.60,M,002.309,N,004.276,K,D*04
$GPGGA,094721.20,5703.4787498,N,00952.3018469,E,2,11,0.8,-2.344,M,40.593,M,1.7,0123*64
$GPVTG,241.17,T,-398.73,M,002.320,N,004.297,K,D*07
$GPGGA,094721.25,5703.4787343,N,00952.3017956,E,2,11,0.8,-2.341,M,40.593,M,1.9,0123*65
$GPVTG,241.24,T,-398.66,M,002.322,N,004.300,K,D*0E
$GPGGA,094721.30,5703.4787188,N,00952.3017425,E,2,11,0.8,-2.340,M,40.593,M,1.9,0123*6C
$GPVTG,241.71,T,-398.19,M,002.350,N,004.353,K,D*05
$GPGGA,094721.35,5703.4787038,N,00952.3016894,E,2,11,0.8,-2.335,M,40.593,M,1.9,0123*66
$GPVTG,242.31,T,-397.59,M,002.362,N,004.374,K,D*0D
$GPGGA,094721.40,5703.4786885,N,00952.3016358,E,2,11,0.8,-2.331,M,40.593,M,1.9,0123*64
$GPVTG,242.60,T,-397.30,M,002.380,N,004.407,K,D*09
$GPGGA,094721.45,5703.4786725,N,00952.3015823,E,2,11,0.8,-2.320,M,40.593,M,2.1,0123*6B
$GPVTG,242.19,T,-397.71,M,002.395,N,004.435,K,D*07
$GPGGA,094721.50,5703.4786573,N,00952.3015291,E,2,11,0.8,-2.313,M,40.593,M,2.1,0123*6D
$GPVTG,242.38,T,-397.52,M,002.388,N,004.423,K,D*0E
$GPGGA,094721.55,5703.4786418,N,00952.3014755,E,2,11,0.8,-2.305,M,40.593,M,2.1,0123*6F
$GPVTG,242.33,T,-397.57,M,002.393,N,004.433,K,D*0B
$GPGGA,094721.60,5703.4786259,N,00952.3014212,E,2,11,0.8,-2.297,M,40.593,M,2.1,0123*66
$GPVTG,242.13,T,-397.77,M,002.414,N,004.472,K,D*06
$GPGGA,094721.65,5703.4786102,N,00952.3013682,E,2,11,0.8,-2.289,M,40.593,M,2.4,0123*6E
$GPVTG,241.82,T,-398.08,M,002.401,N,004.446,K,D*09
$GPGGA,094721.70,5703.4785944,N,00952.3013143,E,2,11,0.8,-2.283,M,40.593,M,2.4,0123*63
$GPVTG,241.74,T,-398.16,M,002.405,N,004.454,K,D*08
$GPGGA,094721.75,5703.4785788,N,00952.3012598,E,2,11,0.8,-2.277,M,40.593,M,2.4,0123*60
$GPVTG,241.94,T,-397.96,M,002.419,N,004.480,K,D*05
$GPGGA,094721.80,5703.4785630,N,00952.3012071,E,2,11,0.8,-2.271,M,40.593,M,2.4,0123*6C
$GPVTG,241.59,T,-398.31,M,002.394,N,004.434,K,D*0B
$GPGGA,094721.85,5703.4785483,N,00952.3011523,E,2,11,0.8,-2.267,M,40.593,M,2.6,0123*67
$GPVTG,242.55,T,-397.35,M,002.402,N,004.448,K,D*0C
$GPGGA,094721.90,5703.4785329,N,00952.3010976,E,2,11,0.8,-2.262,M,40.593,M,2.6,0123*6C
$GPVTG,242.76,T,-397.14,M,002.411,N,004.465,K,D*03
$GPGGA,094721.95,5703.4785173,N,00952.3010444,E,2,11,0.8,-2.258,M,40.593,M,2.6,0123*61
$GPVTG,242.37,T,-397.53,M,002.394,N,004.434,K,D*0B
$GPGGA,094722.00,5703.4785016,N,00952.3009918,E,2,11,0.8,-2.254,M,40.593,M,2.6,0123*6C
$GPVTG,241.84,T,-398.06,M,002.374,N,004.397,K,D*0F
$GPGGA,094722.05,5703.4784869,N,00952.3009391,E,2,11,0.8,-2.248,M,40.593,M,2.8,0123*60
$GPVTG,242.19,T,-397.71,M,002.355,N,004.361,K,D*0D
$GPGGA,094722.10,5703.4784727,N,00952.3008858,E,2,11,0.8,-2.243,M,40.593,M,2.8,0123*65
$GPVTG,243.02,T,-396.88,M,002.337,N,004.328,K,D*08
$GPGGA,094722.15,5703.4784581,N,00952.3008333,E,2,11,0.8,-2.241,M,40.593,M,2.8,0123*6A
$GPVTG,243.19,T,-396.71,M,002.319,N,004.295,K,D*0F
$GPGGA,094722.20,5703.4784427,N,00952.3007813,E,2,11,0.8,-2.237,M,40.593,M,2.8,0123*66
$GPVTG,242.49,T,-397.41,M,002.310,N,004.278,K,D*03
$GPGGA,094722.25,5703.4784285,N,00952.3007296,E,2,11,0.8,-2.236,M,40.593,M,3.0,0123*62
$GPVTG,242.83,T,-397.07,M,002.289,N,004.239,K,D*03
$GPGGA,094722.30,5703.4784148,N,00952.3006785,E,2,11,0.8,-2.230,M,40.593,M,3.0,0123*64
$GPVTG,243.34,T,-396.56,M,002.253,N,004.172,K,D*00
$GPGGA,094722.35,5703.4784019,N,00952.3006281,E,2,11,0.8,-2.227,M,40.593,M,3.0,0123*63
$GPVTG,244.13,T,-395.77,M,002.206,N,004.085,K,D*0B
$GPGGA,094722.40,5703.4783880,N,00952.3005778,E,2,11,0.8,-2.223,M,40.593,M,3.0,0123*6A
$GPVTG,243.93,T,-395.97,M,002.191,N,004.058,K,D*07
$GPGGA,094722.45,5703.4783741,N,00952.3005275,E,2,11,0.8,-2.216,M,40.593,M,3.2,0123*61
