$GPGGA,095238.20,5703.3950124,N,00952.2474346,E,2,11,0.8,-1.906,M,40.593,M,2.0,0123*67
$GPVTG,055.60,T,-584.30,M,006.485,N,012.010,K,D*0A
$GPGGA,095238.25,5703.3950659,N,00952.2475724,E,2,11,0.8,-1.921,M,40.593,M,2.2,0123*69
$GPVTG,055.23,T,-584.67,M,006.604,N,012.230,K,D*04
$GPGGA,095238.30,5703.3951204,N,00952.2477100,E,2,11,0.8,-1.932,M,40.593,M,2.2,0123*60
$GPVTG,054.70,T,-585.20,M,006.688,N,012.387,K,D*08
$GPGGA,095238.35,5703.3951731,N,00952.2478477,E,2,11,0.8,-1.945,M,40.593,M,2.2,0123*6C
$GPVTG,054.72,T,-585.18,M,006.704,N,012.416,K,D*0B
$GPGGA,095238.40,5703.3952261,N,00952.2479859,E,2,11,0.8,-1.957,M,40.593,M,2.2,0123*6F
$GPVTG,054.73,T,-585.17,M,006.714,N,012.434,K,D*04
$GPGGA,095238.45,5703.3952784,N,00952.2481224,E,2,11,0.8,-1.966,M,40.593,M,2.5,0123*66
$GPVTG,054.73,T,-585.17,M,006.671,N,012.355,K,D*06
$GPGGA,095238.50,5703.3953287,N,00952.2482559,E,2,11,0.8,-1.967,M,40.593,M,2.5,0123*6A
$GPVTG,054.89,T,-585.01,M,006.543,N,012.118,K,D*0D
$GPGGA,095238.55,5703.3953777,N,00952.2483837,E,2,11,0.8,-1.960,M,40.593,M,2.5,0123*66
$GPVTG,054.76,T,-585.14,M,006.326,N,011.717,K,D*06
$GPGGA,095238.60,5703.3954296,N,00952.2485088,E,2,11,0.8,-1.947,M,40.593,M,2.5,0123*62
$GPVTG,053.68,T,-586.22,M,006.196,N,011.475,K,D*06
$GPGGA,095238.65,5703.3954811,N,00952.2486368,E,2,11,0.8,-1.934,M,40.593,M,2.7,0123*6A
$GPVTG,053.39,T,-586.51,M,006.165,N,011.418,K,D*01
$GPGGA,095238.70,5703.3955322,N,00952.2487676,E,2,11,0.8,-1.925,M,40.593,M,2.7,0123*6F
$GPVTG,053.69,T,-586.21,M,006.199,N,011.480,K,D*01
$GPGGA,095238.75,5703.3955839,N,00952.2488989,E,2,11,0.8,-1.919,M,40.593,M,2.7,0123*64
$GPVTG,053.85,T,-586.05,M,006.257,N,011.589,K,D*0C
$GPGGA,095238.80,5703.3956354,N,00952.2490317,E,2,11,0.8,-1.916,M,40.593,M,2.7,0123*66
$GPVTG,054.21,T,-585.69,M,006.323,N,011.710,K,D*0C
$GPGGA,095238.85,5703.3956880,N,00952.2491668,E,2,11,0.8,-1.919,M,40.593,M,3.0,0123*64
$GPVTG,054.40,T,-585.50,M,006.432,N,011.913,K,D*0B
$GPGGA,095238.90,5703.3957419,N,00952.2493032,E,2,11,0.8,-1.924,M,40.593,M,3.0,0123*68
$GPVTG,054.34,T,-585.56,M,006.551,N,012.133,K,D*03
$GPGGA,095238.95,5703.3957956,N,00952.2494419,E,2,11,0.8,-1.935,M,40.593,M,3.0,0123*61
$GPVTG,054.57,T,-585.33,M,006.661,N,012.336,K,D*02
$GPGGA,095239.00,5703.3958491,N,00952.2495808,E,2,11,0.8,-1.948,M,40.593,M,3.0,0123*62
$GPVTG,054.74,T,-585.16,M,006.725,N,012.455,K,D*07
$GPGGA,095239.05,5703.3959020,N,00952.2497186,E,2,11,0.8,-1.952,M,40.593,M,1.8,0123*64
$GPVTG,054.88,T,-585.02,M,006.729,N,012.463,K,D*08
$GPGGA,095239.10,5703.3959537,N,00952.2498553,E,2,11,0.8,-1.957,M,40.593,M,1.8,0123*65
$GPVTG,055.08,T,-584.82,M,006.673,N,012.359,K,D*08
$GPGGA,095239.15,5703.3960066,N,00952.2499917,E,2,11,0.8,-1.959,M,40.593,M,1.8,0123*68
$GPVTG,054.91,T,-584.99,M,006.643,N,012.303,K,D*0F
$GPGGA,095239.20,5703.3960590,N,00952.2501267,E,2,11,0.8,-1.960,M,40.593,M,1.8,0123*64
$GPVTG,054.70,T,-585.20,M,006.585,N,012.195,K,D*07
$GPGGA,095239.25,5703.3961112,N,00952.2502607,E,2,11,0.8,-1.955,M,40.593,M,2.1,0123*63
$GPVTG,054.54,T,-585.36,M,006.522,N,012.079,K,D*08
$GPGGA,095239.30,5703.3961624,N,00952.2503903,E,2,11,0.8,-1.945,M,40.593,M,2.1,0123*6E
$GPVTG,054.20,T,-585.70,M,006.389,N,011.833,K,D*0B
$GPGGA,095239.35,5703.3962135,N,00952.2505188,E,2,11,0.8,-1.931,M,40.593,M,2.1,0123*61
$GPVTG,053.89,T,-586.01,M,006.281,N,011.633,K,D*0D
$GPGGA,095239.40,5703.3962638,N,00952.2506505,E,2,11,0.8,-1.923,M,40.593,M,2.1,0123*68
$GPVTG,054.32,T,-585.58,M,006.259,N,011.591,K,D*0B
$GPGGA,095239.45,5703.3963145,N,00952.2507836,E,2,11,0.8,-1.917,M,40.593,M,2.3,0123*68
$GPVTG,054.68,T,-585.22,M,006.285,N,011.639,K,D*09
$GPGGA,095239.50,5703.3963662,N,00952.2509175,E,2,11,0.8,-1.913,M,40.593,M,2.3,0123*6A
$GPVTG,054.78,T,-585.12,M,006.347,N,011.755,K,D*0F
$GPGGA,095239.55,5703.3964181,N,00952.2510540,E,2,11,0.8,-1.912,M,40.593,M,2.3,0123*69
$GPVTG,055.07,T,-584.83,M,006.441,N,011.928,K,D*0A
$GPGGA,095239.60,5703.3964716,N,00952.2511905,E,2,11,0.8,-1.916,M,40.593,M,2.3,0123*6F
$GPVTG,054.84,T,-585.06,M,006.537,N,012.106,K,D*0B
$GPGGA,095239.65,5703.3965259,N,00952.2513271,E,2,11,0.8,-1.913,M,40.593,M,2.6,0123*6F
$GPVTG,054.49,T,-585.41,M,006.618,N,012.257,K,D*00
$GPGGA,095239.70,5703.3965799,N,00952.2514635,E,2,11,0.8,-1.916,M,40.593,M,2.6,0123*64
$GPVTG,054.23,T,-585.67,M,006.655,N,012.326,K,D*06
$GPGGA,095239.75,5703.3966336,N,00952.2515969,E,2,11,0.8,-1.916,M,40.593,M,2.6,0123*64
$GPVTG,053.80,T,-586.10,M,006.618,N,012.257,K,D*05
$GPGGA,095239.80,5703.3966858,N,00952.2517293,E,2,11,0.8,-1.916,M,40.593,M,2.6,0123*61
$GPVTG,053.76,T,-586.14,M,006.538,N,012.109,K,D*01
$GPGGA,095239.85,5703.3967378,N,00952.2518650,E,2,11,0.8,-1.917,M,40.593,M,2.8,0123*67
$GPVTG,054.17,T,-585.73,M,006.532,N,012.097,K,D*0F
$GPGGA,095239.90,5703.3967900,N,00952.2520016,E,2,11,0.8,-1.921,M,40.593,M,2.8,0123*6C
$GPVTG,054.53,T,-585.37,M,006.550,N,012.130,K,D*07
$GPGGA,095239.95,5703.3968436,N,00952.2521374,E,2,11,0.8,-1.928,M,40.593,M,2.8,0123*61
$GPVTG,054.40,T,-585.50,M,006.571,N,012.170,K,D*03
$GPGGA,095240.00,5703.3968967,N,00952.2522738,E,2,11,0.8,-1.931,M,40.593,M,2.8,0123*6D
$GPVTG,054.45,T,-585.45,M,006.587,N,012.198,K,D*0D
$GPGGA,095240.05,5703.3969479,N,00952.2524095,E,2,11,0.8,-1.930,M,40.593,M,1.5,0123*62
$GPVTG,054.86,T,-585.04,M,006.554,N,012.137,K,D*0C
$GPGGA,095240.10,5703.3970005,N,00952.2525445,E,2,11,0.8,-1.930,M,40.593,M,1.5,0123*69
$GPVTG,054.74,T,-585.16,M,006.536,N,012.105,K,D*07
$GPGGA,095240.15,5703.3970509,N,00952.2526800,E,2,11,0.8,-1.930,M,40.593,M,1.5,0123*6B
$GPVTG,055.22,T,-584.68,M,006.493,N,012.025,K,D*00
$GPGGA,095240.20,5703.3971005,N,00952.2528153,E,2,11,0.8,-1.926,M,40.593,M,1.5,0123*63
$GPVTG,055.72,T,-584.18,M,006.442,N,011.931,K,D*01
$GPGGA,095240.25,5703.3971528,N,00952.2529491,E,2,11,0.8,-1.921,M,40.593,M,1.8,0123*6C
$GPVTG,055.22,T,-584.68,M,006.437,N,011.921,K,D*00
$GPGGA,095240.30,5703.3972058,N,00952.2530806,E,2,11,0.8,-1.919,M,40.593,M,1.8,0123*68
$GPVTG,054.43,T,-585.47,M,006.412,N,011.876,K,D*0E
$GPGGA,095240.35,5703.3972591,N,00952.2532117,E,2,11,0.8,-1.917,M,40.593,M,1.8,0123*68
$GPVTG,053.77,T,-586.13,M,006.400,N,011.853,K,D*08
$GPGGA,095240.40,5703.3973120,N,00952.2533451,E,2,11,0.8,-1.914,M,40.593,M,1.8,0123*60
$GPVTG,053.68,T,-586.22,M,006.431,N,011.911,K,D*01
$GPGGA,095240.45,5703.3973635,N,00952.2534810,E,2,11,0.8,-1.915,M,40.593,M,2.0,0123*62
$GPVTG,054.31,T,-585.59,M,006.468,N,011.978,K,D*06
$GPGGA,095240.50,5703.3974148,N,00952.2536188,E,2,11,0.8,-1.919,M,40.593,M,2.0,0123*6A
$GPVTG,054.98,T,-584.92,M,006.527,N,012.088,K,D*0C
$GPGGA,095240.55,5703.3974650,N,00952.2537562,E,2,11,0.8,-1.923,M,40.593,M,2.0,0123*69
$GPVTG,055.66,T,-584.24,M,006.532,N,012.098,K,D*04
$GPGGA,095240.60,5703.3975169,N,00952.2538921,E,2,11,0.8,-1.925,M,40.593,M,2.0,0123*61
$GPVTG,055.54,T,-584.36,M,006.540,N,012.111,K,D*03
$GPGGA,095240.65,5703.3975707,N,00952.2540264,E,2,11,0.8,-1.928,M,40.593,M,2.2,0123*60
$GPVTG,054.76,T,-585.14,M,006.549,N,012.129,K,D*01
$GPGGA,095240.70,5703.3976239,N,00952.2541604,E,2,11,0.8,-1.930,M,40.593,M,2.2,0123*65
$GPVTG,054.30,T,-585.60,M,006.538,N,012.109,K,D*04
$GPGGA,095240.75,5703.3976767,N,00952.2542956,E,2,11,0.8,-1.932,M,40.593,M,2.2,0123*67
$GPVTG,054.23,T,-585.67,M,006.544,N,012.119,K,D*0B
$GPGGA,095240.80,5703.3977288,N,00952.2544302,E,2,11,0.8,-1.933,M,40.593,M,2.2,0123*64
$GPVTG,054.31,T,-585.59,M,006.523,N,012.080,K,D*05
$GPGGA,095240.85,5703.3977795,N,00952.2545653,E,2,11,0.8,-1.932,M,40.593,M,2.4,0123*6F
$GPVTG,054.78,T,-585.12,M,006.488,N,012.016,K,D*08
$GPGGA,095240.90,5703.3978288,N,00952.2547003,E,2,11,0.8,-1.930,M,40.593,M,2.4,0123*6E
$GPVTG,055.46,T,-584.44,M,006.436,N,011.919,K,D*06
$GPGGA,095240.95,5703.3978791,N,00952.2548342,E,2,11,0.8,-1.925,M,40.593,M,2.4,0123*6B
$GPVTG,055.58,T,-584.32,M,006.400,N,011.853,K,D*02
$GPGGA,095241.00,5703.3979292,N,00952.2549634,E,2,11,0.8,-1.915,M,40.593,M,2.4,0123*67
$GPVTG,055.17,T,-584.73,M,006.296,N,011.661,K,D*0A
$GPGGA,095241.05,5703.3979812,N,00952.2550941,E,2,11,0.8,-1.911,M,40.593,M,2.7,0123*62
$GPVTG,054.57,T,-585.33,M,006.295,N,011.658,K,D*03
$GPGGA,095241.10,5703.3980323,N,00952.2552266,E,2,11,0.8,-1.907,M,40.593,M,2.7,0123*62
$GPVTG,054.57,T,-585.33,M,006.314,N,011.694,K,D*0B
$GPGGA,095241.15,5703.3980835,N,00952.2553606,E,2,11,0.8,-1.907,M,40.593,M,2.7,0123*68
$GPVTG,054.74,T,-585.16,M,006.363,N,011.784,K,D*0D
$GPGGA,095241.20,5703.3981346,N,00952.2554955,E,2,11,0.8,-1.908,M,40.593,M,2.7,0123*61
$GPVTG,054.99,T,-584.91,M,006.411,N,011.873,K,D*05
$GPGGA,095241.25,5703.3981864,N,00952.2556312,E,2,11,0.8,-1.910,M,40.593,M,2.9,0123*63
$GPVTG,055.07,T,-584.83,M,006.473,N,011.989,K,D*00
$GPGGA,095241.30,5703.3982399,N,00952.2557685,E,2,11,0.8,-1.920,M,40.593,M,2.9,0123*64
$GPVTG,054.87,T,-585.03,M,006.570,N,012.168,K,D*06
$GPGGA,095241.35,5703.3982942,N,00952.2559085,E,2,11,0.8,-1.930,M,40.593,M,2.9,0123*64
$GPVTG,054.77,T,-585.13,M,006.694,N,012.398,K,D*0C
$GPGGA,095241.40,5703.3983462,N,00952.2560487,E,2,11,0.8,-1.940,M,40.593,M,2.9,0123*63
$GPVTG,055.23,T,-584.67,M,006.731,N,012.465,K,D*05
$GPGGA,095241.45,5703.3983958,N,00952.2561861,E,2,11,0.8,-1.943,M,40.593,M,3.1,0123*6D
$GPVTG,055.82,T,-584.08,M,006.649,N,012.313,K,D*0F
$GPGGA,095241.50,5703.3984458,N,00952.2563163,E,2,11,0.8,-1.942,M,40.593,M,3.1,0123*6B
$GPVTG,055.40,T,-584.50,M,006.465,N,011.973,K,D*0F
$GPGGA,095241.55,5703.3984961,N,00952.2564478,E,2,11,0.8,-1.936,M,40.593,M,3.1,0123*62
$GPVTG,055.13,T,-584.77,M,006.365,N,011.788,K,D*01
$GPGGA,095241.60,5703.3985463,N,00952.2565803,E,2,11,0.8,-1.928,M,40.593,M,3.1,0123*64
$GPVTG,055.13,T,-584.77,M,006.318,N,011.701,K,D*0A
$GPGGA,095241.65,5703.3985960,N,00952.2567125,E,2,11,0.8,-1.929,M,40.593,M,3.3,0123*63
$GPVTG,055.19,T,-584.71,M,006.282,N,011.635,K,D*02
$GPGGA,095241.70,5703.3986468,N,00952.2568443,E,2,11,0.8,-1.925,M,40.593,M,3.3,0123*67
$GPVTG,054.98,T,-584.92,M,006.280,N,011.631,K,D*01
$GPGGA,095241.75,5703.3986959,N,00952.2569776,E,2,11,0.8,-1.920,M,40.593,M,3.3,0123*6C
$GPVTG,055.41,T,-584.49,M,006.283,N,011.636,K,D*06
$GPGGA,095241.80,5703.3987449,N,00952.2571126,E,2,11,0.8,-1.915,M,40.593,M,3.3,0123*67
$GPVTG,055.95,T,-583.95,M,006.317,N,011.699,K,D*00
$GPGGA,095241.85,5703.3987955,N,00952.2572471,E,2,11,0.8,-1.908,M,40.593,M,3.5,0123*6C
$GPVTG,055.90,T,-584.00,M,006.363,N,011.783,K,D*07
$GPGGA,095241.90,5703.3988472,N,00952.2573816,E,2,11,0.8,-1.910,M,40.593,M,3.5,0123*6A
$GPVTG,055.50,T,-584.40,M,006.416,N,011.882,K,D*04
$GPGGA,095241.95,5703.3988982,N,00952.2575161,E,2,11,0.8,-1.911,M,40.593,M,3.5,0123*63
$GPVTG,055.35,T,-584.55,M,006.442,N,011.930,K,D*0A
$GPGGA,095242.00,5703.3989500,N,00952.2576522,E,2,11,0.8,-1.911,M,40.593,M,3.5,0123*6B
$GPVTG,055.22,T,-584.68,M,006.496,N,012.030,K,D*01
$GPGGA,095242.05,5703.3990018,N,00952.2577865,E,2,11,0.8,-1.916,M,40.593,M,2.0,0123*66
$GPVTG,054.93,T,-584.97,M,006.506,N,012.048,K,D*0D
$GPGGA,095242.10,5703.3990530,N,00952.2579207,E,2,11,0.8,-1.921,M,40.593,M,2.0,0123*69
$GPVTG,054.88,T,-585.02,M,006.490,N,012.020,K,D*0A
$GPGGA,095242.15,5703.3991032,N,00952.2580569,E,2,11,0.8,-1.922,M,40.593,M,2.0,0123*60
$GPVTG,055.30,T,-584.60,M,006.490,N,012.020,K,D*0D
$GPGGA,095242.20,5703.3991533,N,00952.2581935,E,2,11,0.8,-1.922,M,40.593,M,2.0,0123*66
$GPVTG,055.67,T,-584.23,M,006.493,N,012.024,K,D*0F
$GPGGA,095242.25,5703.3992043,N,00952.2583291,E,2,11,0.8,-1.927,M,40.593,M,2.2,0123*62
$GPVTG,055.57,T,-584.33,M,006.493,N,012.025,K,D*0C
$GPGGA,095242.30,5703.3992555,N,00952.2584635,E,2,11,0.8,-1.928,M,40.593,M,2.2,0123*66
$GPVTG,055.35,T,-584.55,M,006.470,N,011.983,K,D*03
$GPGGA,095242.35,5703.3993057,N,00952.2585944,E,2,11,0.8,-1.929,M,40.593,M,2.2,0123*6C
$GPVTG,055.04,T,-584.86,M,006.379,N,011.814,K,D*0E
$GPGGA,095242.40,5703.3993570,N,00952.2587236,E,2,11,0.8,-1.927,M,40.593,M,2.2,0123*6C
$GPVTG,054.41,T,-585.49,M,006.308,N,011.682,K,D*0B
$GPGGA,095242.45,5703.3994090,N,00952.2588549,E,2,11,0.8,-1.923,M,40.593,M,2.5,0123*66
$GPVTG,054.07,T,-585.83,M,006.318,N,011.700,K,D*05
$GPGGA,095242.50,5703.3994602,N,00952.2589864,E,2,11,0.8,-1.923,M,40.593,M,2.5,0123*6C
$GPVTG,054.10,T,-585.80,M,006.319,N,011.703,K,D*02
$GPGGA,095242.55,5703.3995112,N,00952.2591198,E,2,11,0.8,-1.924,M,40.593,M,2.5,0123*6A
$GPVTG,054.40,T,-585.50,M,006.354,N,011.767,K,D*01
$GPGGA,095242.60,5703.3995642,N,00952.2592536,E,2,11,0.8,-1.929,M,40.593,M,2.5,0123*60
$GPVTG,054.20,T,-585.70,M,006.426,N,011.901,K,D*09
$GPGGA,095242.65,5703.3996166,N,00952.2593880,E,2,11,0.8,-1.930,M,40.593,M,2.7,0123*6C
$GPVTG,054.27,T,-585.63,M,006.474,N,011.990,K,D*03
$GPGGA,095242.70,5703.3996680,N,00952.2595212,E,2,11,0.8,-1.931,M,40.593,M,2.7,0123*61
$GPVTG,054.42,T,-585.48,M,006.464,N,011.971,K,D*07
$GPGGA,095242.75,5703.3997175,N,00952.2596539,E,2,11,0.8,-1.929,M,40.593,M,2.7,0123*6C
$GPVTG,054.96,T,-584.94,M,006.408,N,011.867,K,D*02
$GPGGA,095242.80,5703.3997675,N,00952.2597881,E,2,11,0.8,-1.932,M,40.593,M,2.7,0123*64
$GPVTG,055.36,T,-584.54,M,006.400,N,011.853,K,D*0A
$GPGGA,095242.85,5703.3998186,N,00952.2599224,E,2,11,0.8,-1.931,M,40.593,M,3.0,0123*6B
$GPVTG,055.36,T,-584.54,M,006.419,N,011.888,K,D*04
$GPGGA,095242.90,5703.3998695,N,00952.2600577,E,2,11,0.8,-1.933,M,40.593,M,3.0,0123*6A
$GPVTG,055.50,T,-584.40,M,006.443,N,011.932,K,D*0E
$GPGGA,095242.95,5703.3999218,N,00952.2601946,E,2,11,0.8,-1.938,M,40.593,M,3.0,0123*6B
$GPVTG,055.38,T,-584.52,M,006.513,N,012.062,K,D*08
$GPGGA,095243.00,5703.3999744,N,00952.2603304,E,2,11,0.8,-1.943,M,40.593,M,3.0,0123*68
$GPVTG,055.09,T,-584.81,M,006.546,N,012.123,K,D*00
$GPGGA,095243.05,5703.4000258,N,00952.2604644,E,2,11,0.8,-1.945,M,40.593,M,1.8,0123*61
$GPVTG,054.95,T,-584.95,M,006.515,N,012.066,K,D*07
$GPGGA,095243.10,5703.4000773,N,00952.2605963,E,2,11,0.8,-1.943,M,40.593,M,1.8,0123*64
$GPVTG,054.59,T,-585.31,M,006.452,N,011.950,K,D*05
$GPGGA,095243.15,5703.4001286,N,00952.2607252,E,2,11,0.8,-1.938,M,40.593,M,1.8,0123*68
$GPVTG,054.09,T,-585.81,M,006.354,N,011.767,K,D*00
$GPGGA,095243.20,5703.4001791,N,00952.2608548,E,2,11,0.8,-1.932,M,40.593,M,1.8,0123*64
$GPVTG,054.07,T,-585.84,M,006.285,N,011.639,K,D*0C
$GPGGA,095243.25,5703.4002296,N,00952.2609865,E,2,11,0.8,-1.923,M,40.593,M,2.1,0123*69
$GPVTG,054.37,T,-585.53,M,006.282,N,011.635,K,D*0E
$GPGGA,095243.30,5703.4002806,N,00952.2611212,E,2,11,0.8,-1.921,M,40.593,M,2.1,0123*6F
$GPVTG,054.78,T,-585.12,M,006.348,N,011.757,K,D*02
$GPGGA,095243.35,5703.4003329,N,00952.2612568,E,2,11,0.8,-1.921,M,40.593,M,2.1,0123*64
$GPVTG,054.85,T,-585.05,M,006.438,N,011.922,K,D*0A
$GPGGA,095243.40,5703.4003856,N,00952.2613923,E,2,11,0.8,-1.922,M,40.593,M,2.1,0123*64
$GPVTG,054.74,T,-585.16,M,006.506,N,012.049,K,D*0D
$GPGGA,095243.45,5703.4004383,N,00952.2615248,E,2,11,0.8,-1.927,M,40.593,M,2.3,0123*62
$GPVTG,054.30,T,-585.60,M,006.498,N,012.034,K,D*00
$GPGGA,095243.50,5703.4004906,N,00952.2616561,E,2,11,0.8,-1.927,M,40.593,M,2.3,0123*6E
$GPVTG,053.98,T,-585.92,M,006.459,N,011.962,K,D*0C
$GPGGA,095243.55,5703.4005443,N,00952.2617858,E,2,11,0.8,-1.927,M,40.593,M,2.3,0123*60
$GPVTG,053.28,T,-586.62,M,006.428,N,011.905,K,D*0C
$GPGGA,095243.60,5703.4005954,N,00952.2619174,E,2,11,0.8,-1.924,M,40.593,M,2.3,0123*67
$GPVTG,053.64,T,-586.26,M,006.392,N,011.837,K,D*02
$GPGGA,095243.65,5703.4006461,N,00952.2620518,E,2,11,0.8,-1.925,M,40.593,M,2.6,0123*6A
$GPVTG,054.35,T,-585.55,M,006.406,N,011.864,K,D*0A
$GPGGA,095243.70,5703.4006972,N,00952.2621872,E,2,11,0.8,-1.932,M,40.593,M,2.6,0123*67
$GPVTG,054.90,T,-585.00,M,006.442,N,011.930,K,D*05
$GPGGA,095243.75,5703.4007499,N,00952.2623243,E,2,11,0.8,-1.937,M,40.593,M,2.6,0123*64
$GPVTG,055.04,T,-584.86,M,006.526,N,012.086,K,D*02
$GPGGA,095243.80,5703.4008011,N,00952.2624614,E,2,11,0.8,-1.941,M,40.593,M,2.6,0123*65
$GPVTG,055.44,T,-584.46,M,006.552,N,012.135,K,D*00
$GPGGA,095243.85,5703.4008520,N,00952.2625961,E,2,11,0.8,-1.942,M,40.593,M,2.8,0123*66
$GPVTG,055.51,T,-584.39,M,006.518,N,012.072,K,D*00
$GPGGA,095243.90,5703.4009035,N,00952.2627295,E,2,11,0.8,-1.944,M,40.593,M,2.8,0123*66
$GPVTG,055.22,T,-584.68,M,006.476,N,011.993,K,D*0C
$GPGGA,095243.95,5703.4009556,N,00952.2628601,E,2,11,0.8,-1.941,M,40.593,M,2.8,0123*60
$GPVTG,054.55,T,-585.35,M,006.410,N,011.871,K,D*09
$GPGGA,095244.00,5703.4010058,N,00952.2629892,E,2,11,0.8,-1.933,M,40.593,M,2.8,0123*68
$GPVTG,054.39,T,-585.51,M,006.307,N,011.680,K,D*00
$GPGGA,095244.05,5703.4010554,N,00952.2631193,E,2,11,0.8,-1.918,M,40.593,M,1.5,0123*62
$GPVTG,054.64,T,-585.26,M,006.248,N,011.571,K,D*0F
$GPGGA,095244.10,5703.4011057,N,00952.2632496,E,2,11,0.8,-1.909,M,40.593,M,1.5,0123*62
$GPVTG,054.64,T,-585.26,M,006.231,N,011.540,K,D*03
$GPGGA,095244.15,5703.4011571,N,00952.2633776,E,2,11,0.8,-1.900,M,40.593,M,1.5,0123*63
$GPVTG,054.11,T,-585.79,M,006.209,N,011.499,K,D*05
$GPGGA,095244.20,5703.4012086,N,00952.2635061,E,2,11,0.8,-1.895,M,40.593,M,1.5,0123*61
$GPVTG,053.80,T,-586.10,M,006.215,N,011.511,K,D*0A
$GPGGA,095244.25,5703.4012614,N,00952.2636370,E,2,11,0.8,-1.889,M,40.593,M,1.8,0123*69
$GPVTG,053.62,T,-586.28,M,006.291,N,011.650,K,D*07
$GPGGA,095244.30,5703.4013150,N,00952.2637726,E,2,11,0.8,-1.897,M,40.593,M,1.8,0123*62
$GPVTG,053.77,T,-586.13,M,006.443,N,011.933,K,D*08
$GPGGA,095244.35,5703.4013684,N,00952.2639108,E,2,11,0.8,-1.909,M,40.593,M,1.8,0123*6B
$GPVTG,054.22,T,-585.68,M,006.589,N,012.202,K,D*0D
$GPGGA,095244.40,5703.4014219,N,00952.2640488,E,2,11,0.8,-1.919,M,40.593,M,1.8,0123*6C
$GPVTG,054.45,T,-585.45,M,006.674,N,012.361,K,D*06
$GPGGA,095244.45,5703.4014756,N,00952.2641856,E,2,11,0.8,-1.931,M,40.593,M,2.0,0123*68
$GPVTG,054.39,T,-585.51,M,006.706,N,012.420,K,D*0E
$GPGGA,095244.50,5703.4015285,N,00952.2643211,E,2,11,0.8,-1.939,M,40.593,M,2.0,0123*65
$GPVTG,054.39,T,-585.51,M,006.673,N,012.358,K,D*05
$GPGGA,095244.55,5703.4015801,N,00952.2644563,E,2,11,0.8,-1.946,M,40.593,M,2.0,0123*6B
$GPVTG,054.65,T,-585.25,M,006.610,N,012.241,K,D*03
$GPGGA,095244.60,5703.4016320,N,00952.2645903,E,2,11,0.8,-1.951,M,40.593,M,2.0,0123*6B
$GPVTG,054.62,T,-585.28,M,006.545,N,012.121,K,D*0F
$GPGGA,095244.65,5703.4016837,N,00952.2647225,E,2,11,0.8,-1.953,M,40.593,M,2.2,0123*6E
$GPVTG,054.47,T,-585.43,M,006.463,N,011.970,K,D*0F
$GPGGA,095244.70,5703.4017348,N,00952.2648542,E,2,11,0.8,-1.951,M,40.593,M,2.2,0123*63
$GPVTG,054.47,T,-585.43,M,006.390,N,011.833,K,D*02
$GPGGA,095244.75,5703.4017839,N,00952.2649850,E,2,11,0.8,-1.946,M,40.593,M,2.2,0123*62
$GPVTG,054.87,T,-585.03,M,006.292,N,011.653,K,D*01
$GPGGA,095244.80,5703.4018334,N,00952.2651153,E,2,11,0.8,-1.939,M,40.593,M,2.2,0123*6A
$GPVTG,055.05,T,-584.85,M,006.229,N,011.536,K,D*05
$GPGGA,095244.85,5703.4018832,N,00952.2652467,E,2,11,0.8,-1.925,M,40.593,M,2.4,0123*68
$GPVTG,055.27,T,-584.63,M,006.221,N,011.521,K,D*03
$GPGGA,095244.90,5703.4019326,N,00952.2653798,E,2,11,0.8,-1.919,M,40.593,M,2.4,0123*6E
$GPVTG,055.64,T,-584.26,M,006.248,N,011.571,K,D*0F
$GPGGA,095244.95,5703.4019820,N,00952.2655139,E,2,11,0.8,-1.916,M,40.593,M,2.4,0123*62
$GPVTG,055.97,T,-583.93,M,006.289,N,011.647,K,D*01
$GPGGA,095245.00,5703.4020340,N,00952.2656484,E,2,11,0.8,-1.911,M,40.593,M,2.4,0123*6F
$GPVTG,055.56,T,-584.34,M,006.378,N,011.812,K,D*07
$GPGGA,095245.05,5703.4020863,N,00952.2657828,E,2,11,0.8,-1.913,M,40.593,M,2.7,0123*6A
$GPVTG,055.13,T,-584.77,M,006.448,N,011.942,K,D*01
$GPGGA,095245.10,5703.4021390,N,00952.2659165,E,2,11,0.8,-1.917,M,40.593,M,2.7,0123*62
$GPVTG,054.63,T,-585.27,M,006.485,N,012.010,K,D*0F
$GPGGA,095245.15,5703.4021921,N,00952.2660519,E,2,11,0.8,-1.921,M,40.593,M,2.7,0123*67
$GPVTG,054.35,T,-585.55,M,006.543,N,012.117,K,D*04
$GPGGA,095245.20,5703.4022444,N,00952.2661906,E,2,11,0.8,-1.928,M,40.593,M,2.7,0123*66
$GPVTG,054.74,T,-585.16,M,006.620,N,012.260,K,D*03
$GPGGA,095245.25,5703.4022965,N,00952.2663290,E,2,11,0.8,-1.941,M,40.593,M,2.9,0123*6A
$GPVTG,054.97,T,-584.93,M,006.656,N,012.326,K,D*00
$GPGGA,095245.30,5703.4023475,N,00952.2664661,E,2,11,0.8,-1.945,M,40.593,M,2.9,0123*6A
$GPVTG,055.28,T,-584.62,M,006.625,N,012.269,K,D*05
$GPGGA,095245.35,5703.4023979,N,00952.2666018,E,2,11,0.8,-1.944,M,40.593,M,2.9,0123*65
$GPVTG,055.52,T,-584.38,M,006.561,N,012.151,K,D*0C
$GPGGA,095245.40,5703.4024482,N,00952.2667350,E,2,11,0.8,-1.944,M,40.593,M,2.9,0123*67
$GPVTG,055.44,T,-584.46,M,006.464,N,011.972,K,D*0C
$GPGGA,095245.45,5703.4024989,N,00952.2668681,E,2,11,0.8,-1.941,M,40.593,M,3.1,0123*6E
$GPVTG,055.28,T,-584.62,M,006.407,N,011.866,K,D*01
$GPGGA,095245.50,5703.4025490,N,00952.2669998,E,2,11,0.8,-1.934,M,40.593,M,3.1,0123*6A
$GPVTG,055.16,T,-584.74,M,006.335,N,011.732,K,D*03
$GPGGA,095245.55,5703.4025985,N,00952.2671307,E,2,11,0.8,-1.924,M,40.593,M,3.1,0123*62
$GPVTG,055.15,T,-584.75,M,006.269,N,011.609,K,D*00
$GPGGA,095245.60,5703.4026465,N,00952.2672646,E,2,11,0.8,-1.916,M,40.593,M,3.1,0123*66
$GPVTG,055.88,T,-584.02,M,006.255,N,011.584,K,D*0D
$GPGGA,095245.65,5703.4026970,N,00952.2674013,E,2,11,0.8,-1.913,M,40.593,M,3.3,0123*6D
$GPVTG,056.07,T,-583.83,M,006.348,N,011.757,K,D*06
$GPGGA,095245.70,5703.4027495,N,00952.2675377,E,2,11,0.8,-1.911,M,40.593,M,3.3,0123*6C
$GPVTG,055.61,T,-584.29,M,006.452,N,011.948,K,D*0E
$GPGGA,095245.75,5703.4028006,N,00952.2676762,E,2,11,0.8,-1.912,M,40.593,M,3.3,0123*68
$GPVTG,055.82,T,-584.08,M,006.532,N,012.097,K,D*0F
$GPGGA,095245.80,5703.4028514,N,00952.2678163,E,2,11,0.8,-1.921,M,40.593,M,3.3,0123*6D
$GPVTG,056.17,T,-583.73,M,006.605,N,012.233,K,D*00
$GPGGA,095245.85,5703.4029033,N,00952.2679567,E,2,11,0.8,-1.937,M,40.593,M,3.5,0123*69
$GPVTG,056.08,T,-583.82,M,006.672,N,012.357,K,D*03
$GPGGA,095245.90,5703.4029559,N,00952.2680988,E,2,11,0.8,-1.943,M,40.593,M,3.5,0123*6C
$GPVTG,056.04,T,-583.86,M,006.751,N,012.502,K,D*0D
$GPGGA,095245.95,5703.4030069,N,00952.2682397,E,2,11,0.8,-1.947,M,40.593,M,3.5,0123*65
$GPVTG,056.23,T,-583.67,M,006.743,N,012.488,K,D*07
$GPGGA,095246.00,5703.4030566,N,00952.2683756,E,2,11,0.8,-1.948,M,40.593,M,3.5,0123*67
$GPVTG,056.16,T,-583.74,M,006.617,N,012.255,K,D*05
$GPGGA,095246.05,5703.4031053,N,00952.2685073,E,2,11,0.8,-1.938,M,40.593,M,2.0,0123*65
$GPVTG,055.96,T,-583.94,M,006.434,N,011.915,K,D*0F
$GPGGA,095246.10,5703.4031533,N,00952.2686379,E,2,11,0.8,-1.927,M,40.593,M,2.0,0123*66
$GPVTG,055.88,T,-584.02,M,006.276,N,011.624,K,D*05
$GPGGA,095246.15,5703.4032022,N,00952.2687689,E,2,11,0.8,-1.915,M,40.593,M,2.0,0123*6F
$GPVTG,055.68,T,-584.22,M,006.203,N,011.488,K,D*0F
$GPGGA,095246.20,5703.4032518,N,00952.2689020,E,2,11,0.8,-1.905,M,40.593,M,2.0,0123*6F
$GPVTG,055.62,T,-584.28,M,006.218,N,011.516,K,D*03
$GPGGA,095246.25,5703.4033021,N,00952.2690367,E,2,11,0.8,-1.892,M,40.593,M,2.2,0123*61
$GPVTG,055.64,T,-584.26,M,006.281,N,011.633,K,D*0F
$GPGGA,095246.30,5703.4033532,N,00952.2691733,E,2,11,0.8,-1.890,M,40.593,M,2.2,0123*64
$GPVTG,055.61,T,-584.29,M,006.383,N,011.822,K,D*08
$GPGGA,095246.35,5703.4034057,N,00952.2693105,E,2,11,0.8,-1.894,M,40.593,M,2.2,0123*65
$GPVTG,055.33,T,-584.57,M,006.494,N,012.028,K,D*06
$GPGGA,095246.40,5703.4034580,N,00952.2694498,E,2,11,0.8,-1.900,M,40.593,M,2.2,0123*62
$GPVTG,055.37,T,-584.53,M,006.599,N,012.221,K,D*01
$GPGGA,095246.45,5703.4035106,N,00952.2695899,E,2,11,0.8,-1.910,M,40.593,M,2.5,0123*66
$GPVTG,055.39,T,-584.51,M,006.686,N,012.382,K,D*08
$GPGGA,095246.50,5703.4035624,N,00952.2697312,E,2,11,0.8,-1.917,M,40.593,M,2.5,0123*68
$GPVTG,055.69,T,-584.21,M,006.738,N,012.478,K,D*0C
$GPGGA,095246.55,5703.4036133,N,00952.2698709,E,2,11,0.8,-1.925,M,40.593,M,2.5,0123*6F
$GPVTG,055.95,T,-583.95,M,006.717,N,012.439,K,D*0F
$GPGGA,095246.60,5703.4036644,N,00952.2700075,E,2,11,0.8,-1.929,M,40.593,M,2.5,0123*6E
$GPVTG,055.77,T,-584.13,M,006.641,N,012.299,K,D*04
$GPGGA,095246.65,5703.4037157,N,00952.2701436,E,2,11,0.8,-1.935,M,40.593,M,2.7,0123*62
$GPVTG,055.49,T,-584.41,M,006.578,N,012.183,K,D*0F
$GPGGA,095246.70,5703.4037660,N,00952.2702784,E,2,11,0.8,-1.931,M,40.593,M,2.7,0123*68
$GPVTG,055.45,T,-584.45,M,006.494,N,012.027,K,D*0B
$GPGGA,095246.75,5703.4038165,N,00952.2704127,E,2,11,0.8,-1.926,M,40.593,M,2.7,0123*6F
$GPVTG,055.35,T,-584.55,M,006.432,N,011.912,K,D*0D
$GPGGA,095246.80,5703.4038655,N,00952.2705446,E,2,11,0.8,-1.919,M,40.593,M,2.7,0123*6E
$GPVTG,055.42,T,-584.48,M,006.327,N,011.717,K,D*09
$GPGGA,095246.85,5703.4039135,N,00952.2706749,E,2,11,0.8,-1.905,M,40.593,M,3.0,0123*6F
$GPVTG,055.61,T,-584.29,M,006.216,N,011.512,K,D*0B
$GPGGA,095246.90,5703.4039614,N,00952.2708076,E,2,11,0.8,-1.897,M,40.593,M,3.0,0123*60
$GPVTG,056.04,T,-583.86,M,006.190,N,011.464,K,D*04
$GPGGA,095246.95,5703.4040117,N,00952.2709419,E,2,11,0.8,-1.894,M,40.593,M,3.0,0123*60
$GPVTG,055.93,T,-583.97,M,006.257,N,011.587,K,D*0D
$GPGGA,095247.00,5703.4040623,N,00952.2710795,E,2,11,0.8,-1.894,M,40.593,M,3.0,0123*62
$GPVTG,056.09,T,-583.81,M,006.376,N,011.809,K,D*03
$GPGGA,095247.05,5703.4041148,N,00952.2712198,E,2,11,0.8,-1.899,M,40.593,M,1.8,0123*62
$GPVTG,056.01,T,-583.89,M,006.547,N,012.124,K,D*02
$GPGGA,095247.10,5703.4041688,N,00952.2713611,E,2,11,0.8,-1.911,M,40.593,M,1.8,0123*6B
$GPVTG,055.60,T,-584.30,M,006.704,N,012.415,K,D*01
$GPGGA,095247.15,5703.4042233,N,00952.2715004,E,2,11,0.8,-1.925,M,40.593,M,1.8,0123*6A
$GPVTG,054.99,T,-584.91,M,006.775,N,012.546,K,D*0C
$GPGGA,095247.20,5703.4042778,N,00952.2716392,E,2,11,0.8,-1.933,M,40.593,M,1.8,0123*6E
$GPVTG,054.47,T,-585.43,M,006.804,N,012.600,K,D*09
$GPGGA,095247.25,5703.4043267,N,00952.2717751,E,2,11,0.8,-1.943,M,40.593,M,2.1,0123*66
$GPVTG,055.12,T,-584.78,M,006.654,N,012.322,K,D*0F
$GPGGA,095247.30,5703.4043731,N,00952.2719100,E,2,11,0.8,-1.940,M,40.593,M,2.1,0123*6B
$GPVTG,056.17,T,-583.73,M,006.474,N,011.990,K,D*05
$GPGGA,095247.35,5703.4044203,N,00952.2720425,E,2,11,0.8,-1.930,M,40.593,M,2.1,0123*62
$GPVTG,056.55,T,-583.35,M,006.321,N,011.707,K,D*06
$GPGGA,095247.40,5703.4044685,N,00952.2721729,E,2,11,0.8,-1.917,M,40.593,M,2.1,0123*61
$GPVTG,056.36,T,-583.54,M,006.206,N,011.494,K,D*09
$GPGGA,095247.45,5703.4045178,N,00952.2723000,E,2,11,0.8,-1.903,M,40.593,M,2.3,0123*69
$GPVTG,055.57,T,-584.33,M,006.103,N,011.303,K,D*04
$GPGGA,095247.50,5703.4045668,N,00952.2724282,E,2,11,0.8,-1.891,M,40.593,M,2.3,0123*6E
$GPVTG,055.19,T,-584.71,M,006.065,N,011.232,K,D*0A
$GPGGA,095247.55,5703.4046163,N,00952.2725593,E,2,11,0.8,-1.883,M,40.593,M,2.3,0123*61
$GPVTG,055.19,T,-584.71,M,006.116,N,011.327,K,D*0A
$GPGGA,095247.60,5703.4046661,N,00952.2726934,E,2,11,0.8,-1.878,M,40.593,M,2.3,0123*64
$GPVTG,055.46,T,-584.44,M,006.221,N,011.521,K,D*01
$GPGGA,095247.65,5703.4047165,N,00952.2728297,E,2,11,0.8,-1.877,M,40.593,M,2.6,0123*65
$GPVTG,055.73,T,-584.17,M,006.349,N,011.758,K,D*02
$GPGGA,095247.70,5703.4047692,N,00952.2729678,E,2,11,0.8,-1.887,M,40.593,M,2.6,0123*65
$GPVTG,055.53,T,-584.37,M,006.510,N,012.057,K,D*03
$GPGGA,095247.75,5703.4048224,N,00952.2731066,E,2,11,0.8,-1.900,M,40.593,M,2.6,0123*68
$GPVTG,055.27,T,-584.63,M,006.636,N,012.289,K,D*07
$GPGGA,095247.80,5703.4048764,N,00952.2732453,E,2,11,0.8,-1.915,M,40.593,M,2.6,0123*66
$GPVTG,054.86,T,-585.04,M,006.724,N,012.452,K,D*0F
$GPGGA,095247.85,5703.4049300,N,00952.2733862,E,2,11,0.8,-1.932,M,40.593,M,2.8,0123*60
$GPVTG,054.87,T,-585.03,M,006.801,N,012.595,K,D*0B
$GPGGA,095247.90,5703.4049821,N,00952.2735254,E,2,11,0.8,-1.943,M,40.593,M,2.8,0123*63
$GPVTG,055.06,T,-584.84,M,006.782,N,012.560,K,D*03
$GPGGA,095247.95,5703.4050320,N,00952.2736613,E,2,11,0.8,-1.947,M,40.593,M,2.8,0123*64
$GPVTG,055.40,T,-584.50,M,006.654,N,012.323,K,D*03
$GPGGA,095248.00,5703.4050802,N,00952.2737927,E,2,11,0.8,-1.944,M,40.593,M,2.8,0123*66
$GPVTG,055.58,T,-584.32,M,006.448,N,011.942,K,D*0F
$GPGGA,095248.05,5703.4051276,N,00952.2739194,E,2,11,0.8,-1.936,M,40.593,M,1.5,0123*6E
$GPVTG,055.47,T,-584.43,M,006.209,N,011.499,K,D*0F
$GPGGA,095248.10,5703.4051757,N,00952.2740459,E,2,11,0.8,-1.925,M,40.593,M,1.5,0123*64
$GPVTG,055.24,T,-584.66,M,006.066,N,011.235,K,D*06
$GPGGA,095248.15,5703.4052260,N,00952.2741756,E,2,11,0.8,-1.915,M,40.593,M,1.5,0123*6D
$GPVTG,054.90,T,-585.00,M,006.084,N,011.267,K,D*02
$GPGGA,095248.20,5703.4052774,N,00952.2743055,E,2,11,0.8,-1.910,M,40.593,M,1.5,0123*68
$GPVTG,054.47,T,-585.43,M,006.141,N,011.374,K,D*04
$GPGGA,095248.25,5703.4053291,N,00952.2744373,E,2,11,0.8,-1.900,M,40.593,M,1.8,0123*6E
$GPVTG,054.34,T,-585.56,M,006.232,N,011.542,K,D*00
$GPGGA,095248.30,5703.4053811,N,00952.2745717,E,2,11,0.8,-1.902,M,40.593,M,1.8,0123*6D
$GPVTG,054.44,T,-585.46,M,006.353,N,011.766,K,D*04
$GPGGA,095248.35,5703.4054316,N,00952.2747082,E,2,11,0.8,-1.904,M,40.593,M,1.8,0123*6C
$GPVTG,055.10,T,-584.80,M,006.445,N,011.937,K,D*05
$GPGGA,095248.40,5703.4054821,N,00952.2748453,E,2,11,0.8,-1.906,M,40.593,M,1.8,0123*64
$GPVTG,055.63,T,-584.27,M,006.510,N,012.057,K,D*01
$GPGGA,095248.45,5703.4055329,N,00952.2749795,E,2,11,0.8,-1.912,M,40.593,M,2.0,0123*65
$GPVTG,055.54,T,-584.36,M,006.501,N,012.041,K,D*02
$GPGGA,095248.50,5703.4055848,N,00952.2751138,E,2,11,0.8,-1.913,M,40.593,M,2.0,0123*64
$GPVTG,055.20,T,-584.70,M,006.508,N,012.054,K,D*0E
$GPGGA,095248.55,5703.4056368,N,00952.2752460,E,2,11,0.8,-1.914,M,40.593,M,2.0,0123*67
$GPVTG,054.69,T,-585.21,M,006.473,N,011.989,K,D*00
$GPGGA,095248.60,5703.4056874,N,00952.2753798,E,2,11,0.8,-1.917,M,40.593,M,2.0,0123*61
$GPVTG,054.85,T,-585.05,M,006.447,N,011.940,K,D*06
$GPGGA,095248.65,5703.4057381,N,00952.2755156,E,2,11,0.8,-1.923,M,40.593,M,2.2,0123*63
$GPVTG,055.13,T,-584.77,M,006.466,N,011.974,K,D*08
$GPGGA,095248.70,5703.4057882,N,00952.2756505,E,2,11,0.8,-1.927,M,40.593,M,2.2,0123*6A
$GPVTG,055.43,T,-584.47,M,006.450,N,011.945,K,D*09
$GPGGA,095248.75,5703.4058402,N,00952.2757835,E,2,11,0.8,-1.925,M,40.593,M,2.2,0123*69
$GPVTG,054.97,T,-584.93,M,006.437,N,011.921,K,D*0B
$GPGGA,095248.80,5703.4058913,N,00952.2759123,E,2,11,0.8,-1.918,M,40.593,M,2.2,0123*60
$GPVTG,054.39,T,-585.51,M,006.345,N,011.750,K,D*0A
$GPGGA,095248.85,5703.4059414,N,00952.2760397,E,2,11,0.8,-1.910,M,40.593,M,2.4,0123*67
$GPVTG,054.11,T,-585.79,M,006.236,N,011.549,K,D*05
$GPGGA,095248.90,5703.4059914,N,00952.2761708,E,2,11,0.8,-1.905,M,40.593,M,2.4,0123*69
$GPVTG,054.40,T,-585.50,M,006.233,N,011.543,K,D*05
$GPGGA,095248.95,5703.4060427,N,00952.2763050,E,2,11,0.8,-1.904,M,40.593,M,2.4,0123*62
$GPVTG,054.65,T,-585.25,M,006.319,N,011.703,K,D*0F
$GPGGA,095249.00,5703.4060957,N,00952.2764390,E,2,11,0.8,-1.907,M,40.593,M,2.4,0123*6E
$GPVTG,054.42,T,-585.48,M,006.410,N,011.872,K,D*06
$GPGGA,095249.05,5703.4061487,N,00952.2765722,E,2,11,0.8,-1.911,M,40.593,M,2.7,0123*62
$GPVTG,054.18,T,-585.72,M,006.465,N,011.973,K,D*02
$GPGGA,095249.10,5703.4062012,N,00952.2767075,E,2,11,0.8,-1.917,M,40.593,M,2.7,0123*6C
$GPVTG,054.31,T,-585.59,M,006.520,N,012.075,K,D*0C
$GPGGA,095249.15,5703.4062533,N,00952.2768425,E,2,11,0.8,-1.922,M,40.593,M,2.7,0123*67
$GPVTG,054.47,T,-585.43,M,006.539,N,012.111,K,D*0D
$GPGGA,095249.20,5703.4063051,N,00952.2769750,E,2,11,0.8,-1.923,M,40.593,M,2.7,0123*60
$GPVTG,054.39,T,-585.51,M,006.497,N,012.033,K,D*03
$GPGGA,095249.25,5703.4063570,N,00952.2771066,E,2,11,0.8,-1.928,M,40.593,M,2.9,0123*6D
$GPVTG,054.16,T,-585.74,M,006.451,N,011.947,K,D*0A
$GPGGA,095249.30,5703.4064091,N,00952.2772387,E,2,11,0.8,-1.926,M,40.593,M,2.9,0123*65
$GPVTG,054.07,T,-585.83,M,006.429,N,011.906,K,D*08
$GPGGA,095249.35,5703.4064606,N,00952.2773706,E,2,11,0.8,-1.926,M,40.593,M,2.9,0123*64
$GPVTG,054.14,T,-585.76,M,006.400,N,011.853,K,D*0A
$GPGGA,095249.40,5703.4065112,N,00952.2775028,E,2,11,0.8,-1.926,M,40.593,M,2.9,0123*68
$GPVTG,054.46,T,-585.44,M,006.370,N,011.797,K,D*0B
$GPGGA,095249.45,5703.4065624,N,00952.2776354,E,2,11,0.8,-1.922,M,40.593,M,3.1,0123*69
$GPVTG,054.65,T,-585.25,M,006.367,N,011.791,K,D*0D
$GPGGA,095249.50,5703.4066129,N,00952.2777687,E,2,11,0.8,-1.920,M,40.593,M,3.1,0123*6C
$GPVTG,054.95,T,-584.95,M,006.369,N,011.795,K,D*02
$GPGGA,095249.55,5703.4066624,N,00952.2779034,E,2,11,0.8,-1.913,M,40.593,M,3.1,0123*63
$GPVTG,055.57,T,-584.33,M,006.376,N,011.809,K,D*05
$GPGGA,095249.60,5703.4067120,N,00952.2780375,E,2,11,0.8,-1.909,M,40.593,M,3.1,0123*6C
$GPVTG,055.90,T,-584.00,M,006.371,N,011.799,K,D*0F
$GPGGA,095249.65,5703.4067618,N,00952.2781707,E,2,11,0.8,-1.906,M,40.593,M,3.3,0123*68
$GPVTG,055.93,T,-583.97,M,006.356,N,011.772,K,D*05
$GPGGA,095249.70,5703.4068134,N,00952.2783045,E,2,11,0.8,-1.908,M,40.593,M,3.3,0123*67
$GPVTG,055.52,T,-584.38,M,006.392,N,011.838,K,D*03
$GPGGA,095249.75,5703.4068670,N,00952.2784384,E,2,11,0.8,-1.910,M,40.593,M,3.3,0123*65
$GPVTG,054.72,T,-585.18,M,006.457,N,011.958,K,D*0A
$GPGGA,095249.80,5703.4069213,N,00952.2785710,E,2,11,0.8,-1.918,M,40.593,M,3.3,0123*6F
$GPVTG,053.85,T,-586.05,M,006.496,N,012.031,K,D*02
$GPGGA,095249.85,5703.4069731,N,00952.2787037,E,2,11,0.8,-1.929,M,40.593,M,3.5,0123*6B
$GPVTG,053.88,T,-586.02,M,006.475,N,011.992,K,D*06
$GPGGA,095249.90,5703.4070237,N,00952.2788330,E,2,11,0.8,-1.945,M,40.593,M,3.5,0123*65
$GPVTG,053.84,T,-586.06,M,006.375,N,011.807,K,D*04
$GPGGA,095249.95,5703.4070732,N,00952.2789596,E,2,11,0.8,-1.959,M,40.593,M,3.5,0123*66
$GPVTG,053.85,T,-586.05,M,006.239,N,011.554,K,D*04
$GPGGA,095250.00,5703.4071229,N,00952.2790820,E,2,11,0.8,-1.973,M,40.593,M,3.5,0123*6C
$GPVTG,053.40,T,-586.50,M,006.083,N,011.265,K,D*0B
$GPGGA,095250.05,5703.4071726,N,00952.2792025,E,2,11,0.8,-1.982,M,40.593,M,2.0,0123*66
$GPVTG,052.99,T,-586.91,M,005.961,N,011.039,K,D*0E
$GPGGA,095250.10,5703.4072212,N,00952.2793240,E,2,11,0.8,-1.995,M,40.593,M,2.0,0123*65
$GPVTG,053.11,T,-586.79,M,005.881,N,010.891,K,D*0D
$GPGGA,095250.15,5703.4072683,N,00952.2794429,E,2,11,0.8,-2.008,M,40.593,M,2.0,0123*6C
$GPVTG,053.36,T,-586.54,M,005.771,N,010.687,K,D*0E
$GPGGA,095250.20,5703.4073143,N,00952.2795559,E,2,11,0.8,-2.021,M,40.593,M,2.0,0123*6C
$GPVTG,053.15,T,-586.75,M,005.591,N,010.354,K,D*0B
$GPGGA,095250.25,5703.4073588,N,00952.2796682,E,2,11,0.8,-2.033,M,40.593,M,2.2,0123*6D
$GPVTG,053.41,T,-586.49,M,005.441,N,010.077,K,D*0B
$GPGGA,095250.30,5703.4074028,N,00952.2797799,E,2,11,0.8,-2.045,M,40.593,M,2.2,0123*6A
$GPVTG,053.72,T,-586.18,M,005.345,N,009.899,K,D*0C
$GPGGA,095250.35,5703.4074464,N,00952.2798902,E,2,11,0.8,-2.061,M,40.593,M,2.2,0123*66
$GPVTG,053.94,T,-585.96,M,005.265,N,009.751,K,D*09
$GPGGA,095250.40,5703.4074882,N,00952.2799981,E,2,11,0.8,-2.073,M,40.593,M,2.2,0123*69
$GPVTG,054.32,T,-585.58,M,005.158,N,009.553,K,D*0D
$GPGGA,095250.45,5703.4075291,N,00952.2801036,E,2,11,0.8,-2.083,M,40.593,M,2.5,0123*66
$GPVTG,054.60,T,-585.30,M,005.045,N,009.344,K,D*09
$GPGGA,095250.50,5703.4075715,N,00952.2802085,E,2,11,0.8,-2.094,M,40.593,M,2.5,0123*66
$GPVTG,054.20,T,-585.70,M,005.009,N,009.277,K,D*00
$GPGGA,095250.55,5703.4076148,N,00952.2803130,E,2,11,0.8,-2.106,M,40.593,M,2.5,0123*6A
$GPVTG,053.61,T,-586.29,M,005.013,N,009.285,K,D*0B
$GPGGA,095250.60,5703.4076568,N,00952.2804182,E,2,11,0.8,-2.119,M,40.593,M,2.5,0123*6A
$GPVTG,053.68,T,-586.22,M,005.022,N,009.301,K,D*06
$GPGGA,095250.65,5703.4076983,N,00952.2805207,E,2,11,0.8,-2.130,M,40.593,M,2.7,0123*60
$GPVTG,053.57,T,-586.33,M,004.983,N,009.229,K,D*02
$GPGGA,095250.70,5703.4077384,N,00952.2806226,E,2,11,0.8,-2.143,M,40.593,M,2.7,0123*6C
$GPVTG,053.80,T,-586.10,M,004.930,N,009.131,K,D*0B
$GPGGA,095250.75,5703.4077786,N,00952.2807204,E,2,11,0.8,-2.151,M,40.593,M,2.7,0123*6D
$GPVTG,053.38,T,-586.52,M,004.836,N,008.956,K,D*01
$GPGGA,095250.80,5703.4078197,N,00952.2808164,E,2,11,0.8,-2.160,M,40.593,M,2.7,0123*66
$GPVTG,052.55,T,-587.35,M,004.768,N,008.830,K,D*0E
$GPGGA,095250.85,5703.4078602,N,00952.2809104,E,2,11,0.8,-2.167,M,40.593,M,3.0,0123*6E
$GPVTG,051.92,T,-587.98,M,004.706,N,008.715,K,D*01
$GPGGA,095250.90,5703.4079006,N,00952.2810060,E,2,11,0.8,-2.175,M,40.593,M,3.0,0123*61
$GPVTG,051.78,T,-588.12,M,004.684,N,008.675,K,D*04
$GPGGA,095250.95,5703.4079406,N,00952.2811010,E,2,11,0.8,-2.183,M,40.593,M,3.0,0123*6F
$GPVTG,051.81,T,-588.09,M,004.662,N,008.635,K,D*04
$GPGGA,095251.00,5703.4079805,N,00952.2811958,E,2,11,0.8,-2.191,M,40.593,M,3.0,0123*6B
$GPVTG,051.88,T,-588.02,M,004.654,N,008.619,K,D*0D
$GPGGA,095251.05,5703.4080208,N,00952.2812891,E,2,11,0.8,-2.199,M,40.593,M,1.8,0123*6A
$GPVTG,051.66,T,-588.24,M,004.661,N,008.632,K,D*06
$GPGGA,095251.10,5703.4080607,N,00952.2813828,E,2,11,0.8,-2.208,M,40.593,M,1.8,0123*6D
$GPVTG,051.71,T,-588.19,M,004.650,N,008.611,K,D*0D
$GPGGA,095251.15,5703.4080980,N,00952.2814774,E,2,11,0.8,-2.217,M,40.593,M,1.8,0123*67
$GPVTG,052.78,T,-587.12,M,004.610,N,008.537,K,D*00
$GPGGA,095251.20,5703.4081376,N,00952.2815716,E,2,11,0.8,-2.225,M,40.593,M,1.8,0123*67
$GPVTG,052.75,T,-587.15,M,004.623,N,008.563,K,D*0B
$GPGGA,095251.25,5703.4081777,N,00952.2816650,E,2,11,0.8,-2.229,M,40.593,M,2.1,0123*61
$GPVTG,052.43,T,-587.47,M,004.634,N,008.583,K,D*01
$GPGGA,095251.30,5703.4082176,N,00952.2817572,E,2,11,0.8,-2.231,M,40.593,M,2.1,0123*6A
$GPVTG,052.00,T,-587.90,M,004.622,N,008.561,K,D*07
$GPGGA,095251.35,5703.4082570,N,00952.2818499,E,2,11,0.8,-2.232,M,40.593,M,2.1,0123*65
$GPVTG,051.96,T,-587.94,M,004.615,N,008.547,K,D*0F
$GPGGA,095251.40,5703.4082952,N,00952.2819423,E,2,11,0.8,-2.232,M,40.593,M,2.1,0123*6B
$GPVTG,052.31,T,-587.59,M,004.582,N,008.485,K,D*02
$GPGGA,095251.45,5703.4083333,N,00952.2820342,E,2,11,0.8,-2.233,M,40.593,M,2.3,0123*6B
$GPVTG,052.52,T,-587.38,M,004.552,N,008.430,K,D*03
$GPGGA,095251.50,5703.4083717,N,00952.2821271,E,2,11,0.8,-2.231,M,40.593,M,2.3,0123*6F
$GPVTG,052.75,T,-587.15,M,004.554,N,008.434,K,D*0B
$GPGGA,095251.55,5703.4084119,N,00952.2822187,E,2,11,0.8,-2.224,M,40.593,M,2.3,0123*68
$GPVTG,052.08,T,-587.82,M,004.574,N,008.471,K,D*0C
$GPGGA,095251.60,5703.4084508,N,00952.2823097,E,2,11,0.8,-2.216,M,40.593,M,2.3,0123*6A
$GPVTG,051.90,T,-588.00,M,004.558,N,008.441,K,D*06
$GPGGA,095251.65,5703.4084898,N,00952.2823990,E,2,11,0.8,-2.209,M,40.593,M,2.6,0123*6E
$GPVTG,051.51,T,-588.39,M,004.520,N,008.370,K,D*0B
$GPGGA,095251.70,5703.4085295,N,00952.2824885,E,2,11,0.8,-2.199,M,40.593,M,2.6,0123*64
$GPVTG,051.08,T,-588.82,M,004.514,N,008.360,K,D*01
$GPGGA,095251.75,5703.4085698,N,00952.2825809,E,2,11,0.8,-2.192,M,40.593,M,2.6,0123*66
$GPVTG,051.07,T,-588.83,M,004.574,N,008.471,K,D*0E
$GPGGA,095251.80,5703.4086110,N,00952.2826724,E,2,11,0.8,-2.187,M,40.593,M,2.6,0123*6F
$GPVTG,050.65,T,-589.25,M,004.624,N,008.564,K,D*05
$GPGGA,095251.85,5703.4086524,N,00952.2827646,E,2,11,0.8,-2.183,M,40.593,M,2.8,0123*67
$GPVTG,050.47,T,-589.43,M,004.672,N,008.653,K,D*01
$GPGGA,095251.90,5703.4086937,N,00952.2828568,E,2,11,0.8,-2.181,M,40.593,M,2.8,0123*6F
$GPVTG,050.37,T,-589.53,M,004.701,N,008.705,K,D*00
$GPGGA,095251.95,5703.4087343,N,00952.2829507,E,2,11,0.8,-2.181,M,40.593,M,2.8,0123*6A
$GPVTG,050.82,T,-589.08,M,004.729,N,008.759,K,D*03
$GPGGA,095252.00,5703.4087758,N,00952.2830441,E,2,11,0.8,-2.186,M,40.593,M,2.8,0123*67
$GPVTG,050.82,T,-589.08,M,004.753,N,008.803,K,D*0E
$GPGGA,095252.05,5703.4088173,N,00952.2831376,E,2,11,0.8,-2.191,M,40.593,M,1.5,0123*68
$GPVTG,050.88,T,-589.02,M,004.780,N,008.852,K,D*04
$GPGGA,095252.10,5703.4088585,N,00952.2832301,E,2,11,0.8,-2.196,M,40.593,M,1.5,0123*65
$GPVTG,050.79,T,-589.11,M,004.756,N,008.808,K,D*0C
$GPGGA,095252.15,5703.4088981,N,00952.2833180,E,2,11,0.8,-2.195,M,40.593,M,1.5,0123*61
$GPVTG,050.46,T,-589.44,M,004.632,N,008.578,K,D*09
$GPGGA,095252.20,5703.4089382,N,00952.2834049,E,2,11,0.8,-2.188,M,40.593,M,1.5,0123*60
$GPVTG,049.95,T,-589.95,M,004.537,N,008.402,K,D*09
$GPGGA,095252.25,5703.4089783,N,00952.2834925,E,2,11,0.8,-2.183,M,40.593,M,1.8,0123*65
$GPVTG,049.68,T,-590.22,M,004.489,N,008.314,K,D*0B
$GPGGA,095252.30,5703.4090182,N,00952.2835783,E,2,11,0.8,-2.174,M,40.593,M,1.8,0123*65
$GPVTG,049.40,T,-590.50,M,004.428,N,008.202,K,D*09
$GPGGA,095252.35,5703.4090579,N,00952.2836639,E,2,11,0.8,-2.163,M,40.593,M,1.8,0123*65
$GPVTG,049.27,T,-590.63,M,004.392,N,008.135,K,D*09
$GPGGA,095252.40,5703.4090966,N,00952.2837495,E,2,11,0.8,-2.153,M,40.593,M,1.8,0123*63
$GPVTG,049.62,T,-590.28,M,004.352,N,008.060,K,D*0A
$GPGGA,095252.45,5703.4091351,N,00952.2838361,E,2,11,0.8,-2.138,M,40.593,M,2.0,0123*6C
$GPVTG,050.24,T,-589.66,M,004.345,N,008.047,K,D*01
$GPGGA,095252.50,5703.4091751,N,00952.2839238,E,2,11,0.8,-2.125,M,40.593,M,2.0,0123*6C
$GPVTG,050.26,T,-589.64,M,004.396,N,008.142,K,D*0B
$GPGGA,095252.55,5703.4092132,N,00952.2840114,E,2,11,0.8,-2.114,M,40.593,M,2.0,0123*68
$GPVTG,050.94,T,-588.96,M,004.394,N,008.139,K,D*00
$GPGGA,095252.60,5703.4092517,N,00952.2840999,E,2,11,0.8,-2.106,M,40.593,M,2.0,0123*63
$GPVTG,051.35,T,-588.55,M,004.420,N,008.186,K,D*09
$GPGGA,095252.65,5703.4092910,N,00952.2841883,E,2,11,0.8,-2.105,M,40.593,M,2.2,0123*67
$GPVTG,051.26,T,-588.64,M,004.451,N,008.244,K,D*02
$GPGGA,095252.70,5703.4093292,N,00952.2842766,E,2,11,0.8,-2.103,M,40.593,M,2.2,0123*62
$GPVTG,051.52,T,-588.38,M,004.449,N,008.240,K,D*05
$GPGGA,095252.75,5703.4093677,N,00952.2843650,E,2,11,0.8,-2.105,M,40.593,M,2.2,0123*6B
$GPVTG,051.63,T,-588.27,M,004.452,N,008.244,K,D*07
$GPGGA,095252.80,5703.4094066,N,00952.2844528,E,2,11,0.8,-2.110,M,40.593,M,2.2,0123*6F
$GPVTG,051.39,T,-588.51,M,004.451,N,008.244,K,D*0A
$GPGGA,095252.85,5703.4094458,N,00952.2845414,E,2,11,0.8,-2.121,M,40.593,M,2.4,0123*68
$GPVTG,051.19,T,-588.71,M,004.473,N,008.284,K,D*06
$GPGGA,095252.90,5703.4094862,N,00952.2846275,E,2,11,0.8,-2.130,M,40.593,M,2.4,0123*6B
$GPVTG,050.26,T,-589.64,M,004.469,N,008.277,K,D*09
$GPGGA,095252.95,5703.4095264,N,00952.2847115,E,2,11,0.8,-2.137,M,40.593,M,2.4,0123*60
$GPVTG,049.31,T,-590.59,M,004.431,N,008.207,K,D*0B
$GPGGA,095253.00,5703.4095654,N,00952.2847938,E,2,11,0.8,-2.142,M,40.593,M,2.4,0123*6F
$GPVTG,048.78,T,-591.12,M,004.353,N,008.062,K,D*0B
$GPGGA,095253.05,5703.4096037,N,00952.2848750,E,2,11,0.8,-2.148,M,40.593,M,2.7,0123*6C
$GPVTG,048.56,T,-591.34,M,004.277,N,007.922,K,D*06
$GPGGA,095253.10,5703.4096425,N,00952.2849564,E,2,11,0.8,-2.147,M,40.593,M,2.7,0123*64
$GPVTG,048.37,T,-591.53,M,004.237,N,007.847,K,D*06
$GPGGA,095253.15,5703.4096784,N,00952.2850365,E,2,11,0.8,-2.144,M,40.593,M,2.7,0123*65
$GPVTG,049.08,T,-590.82,M,004.134,N,007.656,K,D*08
$GPGGA,095253.20,5703.4097138,N,00952.2851157,E,2,11,0.8,-2.141,M,40.593,M,2.7,0123*64
$GPVTG,049.71,T,-590.19,M,004.044,N,007.490,K,D*0A
$GPGGA,095253.25,5703.4097493,N,00952.2851945,E,2,11,0.8,-2.128,M,40.593,M,2.9,0123*6F
$GPVTG,050.18,T,-589.72,M,003.988,N,007.385,K,D*05
$GPGGA,095253.30,5703.4097847,N,00952.2852742,E,2,11,0.8,-2.116,M,40.593,M,2.9,0123*69
$GPVTG,050.66,T,-589.24,M,003.973,N,007.358,K,D*0B
$GPGGA,095253.35,5703.4098204,N,00952.2853527,E,2,11,0.8,-2.103,M,40.593,M,2.9,0123*6A
$GPVTG,050.66,T,-589.24,M,003.957,N,007.329,K,D*0B
$GPGGA,095253.40,5703.4098541,N,00952.2854308,E,2,11,0.8,-2.095,M,40.593,M,2.9,0123*6C
$GPVTG,051.27,T,-588.63,M,003.911,N,007.243,K,D*02
$GPGGA,095253.45,5703.4098883,N,00952.2855091,E,2,11,0.8,-2.089,M,40.593,M,3.1,0123*6C
$GPVTG,051.51,T,-588.39,M,003.897,N,007.216,K,D*03
$GPGGA,095253.50,5703.4099230,N,00952.2855881,E,2,11,0.8,-2.083,M,40.593,M,3.1,0123*68
$GPVTG,051.60,T,-588.30,M,003.916,N,007.253,K,D*01
$GPGGA,095253.55,5703.4099573,N,00952.2856653,E,2,11,0.8,-2.079,M,40.593,M,3.1,0123*6A
$GPVTG,051.39,T,-588.51,M,003.898,N,007.220,K,D*09
$GPGGA,095253.60,5703.4099925,N,00952.2857421,E,2,11,0.8,-2.076,M,40.593,M,3.1,0123*6A
$GPVTG,050.84,T,-589.06,M,003.902,N,007.227,K,D*08
$GPGGA,095253.65,5703.4100274,N,00952.2858188,E,2,11,0.8,-2.082,M,40.593,M,3.3,0123*61
$GPVTG,050.42,T,-589.48,M,003.904,N,007.231,K,D*09
$GPGGA,095253.70,5703.4100629,N,00952.2858972,E,2,11,0.8,-2.086,M,40.593,M,3.3,0123*60
$GPVTG,050.34,T,-589.56,M,003.946,N,007.309,K,D*0B
$GPGGA,095253.75,5703.4100983,N,00952.2859767,E,2,11,0.8,-2.095,M,40.593,M,3.3,0123*63
$GPVTG,050.52,T,-589.38,M,003.996,N,007.400,K,D*00
$GPGGA,095253.80,5703.4101339,N,00952.2860547,E,2,11,0.8,-2.107,M,40.593,M,3.3,0123*63
$GPVTG,050.27,T,-589.63,M,004.007,N,007.421,K,D*09
$GPGGA,095253.85,5703.4101692,N,00952.2861332,E,2,11,0.8,-2.127,M,40.593,M,3.5,0123*63
$GPVTG,050.30,T,-589.60,M,004.017,N,007.439,K,D*04
$GPGGA,095253.90,5703.4102038,N,00952.2862087,E,2,11,0.8,-2.141,M,40.593,M,3.5,0123*6C
$GPVTG,050.01,T,-589.89,M,003.955,N,007.325,K,D*03
$GPGGA,095253.95,5703.4102371,N,00952.2862807,E,2,11,0.8,-2.149,M,40.593,M,3.5,0123*6F
$GPVTG,049.64,T,-590.26,M,003.827,N,007.088,K,D*05
$GPGGA,095254.00,5703.4102701,N,00952.2863521,E,2,11,0.8,-2.152,M,40.593,M,3.5,0123*65
$GPVTG,049.43,T,-590.47,M,003.728,N,006.903,K,D*0C
$GPGGA,095254.05,5703.4103036,N,00952.2864234,E,2,11,0.8,-2.157,M,40.593,M,2.0,0123*67
$GPVTG,049.14,T,-590.76,M,003.680,N,006.816,K,D*0A
$GPGGA,095254.10,5703.4103360,N,00952.2864942,E,2,11,0.8,-2.155,M,40.593,M,2.0,0123*6B
$GPVTG,049.36,T,-590.54,M,003.622,N,006.708,K,D*02
$GPGGA,095254.15,5703.4103682,N,00952.2865658,E,2,11,0.8,-2.151,M,40.593,M,2.0,0123*66
$GPVTG,049.83,T,-590.07,M,003.599,N,006.666,K,D*00
$GPGGA,095254.20,5703.4103986,N,00952.2866354,E,2,11,0.8,-2.149,M,40.593,M,2.0,0123*68
$GPVTG,050.51,T,-589.39,M,003.523,N,006.525,K,D*07
$GPGGA,095254.25,5703.4104297,N,00952.2867033,E,2,11,0.8,-2.135,M,40.593,M,2.2,0123*6B
$GPVTG,050.42,T,-589.48,M,003.464,N,006.416,K,D*00
$GPGGA,095254.30,5703.4104597,N,00952.2867702,E,2,11,0.8,-2.129,M,40.593,M,2.2,0123*60
$GPVTG,050.55,T,-589.35,M,003.395,N,006.288,K,D*04
$GPGGA,095254.35,5703.4104889,N,00952.2868387,E,2,11,0.8,-2.118,M,40.593,M,2.2,0123*63
$GPVTG,051.41,T,-588.49,M,003.365,N,006.232,K,D*04
$GPGGA,095254.40,5703.4105185,N,00952.2869072,E,2,11,0.8,-2.104,M,40.593,M,2.2,0123*60
$GPVTG,051.77,T,-588.13,M,003.365,N,006.233,K,D*0F
$GPGGA,095254.45,5703.4105486,N,00952.2869762,E,2,11,0.8,-2.098,M,40.593,M,2.5,0123*66
$GPVTG,051.82,T,-588.09,M,003.392,N,006.283,K,D*0D
$GPGGA,095254.50,5703.4105777,N,00952.2870466,E,2,11,0.8,-2.089,M,40.593,M,2.5,0123*60
$GPVTG,052.56,T,-587.34,M,003.419,N,006.332,K,D*09
$GPGGA,095254.55,5703.4106062,N,00952.2871157,E,2,11,0.8,-2.083,M,40.593,M,2.5,0123*69
$GPVTG,053.02,T,-586.88,M,003.409,N,006.313,K,D*0D
$GPGGA,095254.60,5703.4106350,N,00952.2871853,E,2,11,0.8,-2.081,M,40.593,M,2.5,0123*62
$GPVTG,053.24,T,-586.66,M,003.413,N,006.321,K,D*03
$GPGGA,095254.65,5703.4106646,N,00952.2872567,E,2,11,0.8,-2.079,M,40.593,M,2.7,0123*69
$GPVTG,053.38,T,-586.52,M,003.464,N,006.416,K,D*0A
$GPGGA,095254.70,5703.4106961,N,00952.2873267,E,2,11,0.8,-2.083,M,40.593,M,2.7,0123*64
$GPVTG,052.22,T,-587.68,M,003.516,N,006.512,K,D*09
$GPGGA,095254.75,5703.4107279,N,00952.2873980,E,2,11,0.8,-2.095,M,40.593,M,2.7,0123*67
$GPVTG,051.52,T,-588.38,M,003.578,N,006.627,K,D*0A
$GPGGA,095254.80,5703.4107603,N,00952.2874701,E,2,11,0.8,-2.109,M,40.593,M,2.7,0123*60
$GPVTG,050.94,T,-588.96,M,003.647,N,006.754,K,D*0F
$GPGGA,095254.85,5703.4107932,N,00952.2875392,E,2,11,0.8,-2.136,M,40.593,M,3.0,0123*6D
$GPVTG,049.66,T,-590.24,M,003.650,N,006.760,K,D*0B
$GPGGA,095254.90,5703.4108280,N,00952.2876055,E,2,11,0.8,-2.159,M,40.593,M,3.0,0123*66
$GPVTG,047.54,T,-592.36,M,003.647,N,006.755,K,D*05
$GPGGA,095254.95,5703.4108621,N,00952.2876737,E,2,11,0.8,-2.175,M,40.593,M,3.0,0123*61
$GPVTG,046.81,T,-593.09,M,003.662,N,006.782,K,D*0C
$GPGGA,095255.00,5703.4108947,N,00952.2877383,E,2,11,0.8,-2.183,M,40.593,M,3.0,0123*60
$GPVTG,046.25,T,-593.65,M,003.577,N,006.624,K,D*02
$GPGGA,095255.05,5703.4109237,N,00952.2878023,E,2,11,0.8,-2.196,M,40.593,M,1.8,0123*60
$GPVTG,047.25,T,-592.65,M,003.439,N,006.369,K,D*05
$GPGGA,095255.10,5703.4109531,N,00952.2878660,E,2,11,0.8,-2.201,M,40.593,M,1.8,0123*69
$GPVTG,048.04,T,-591.86,M,003.338,N,006.182,K,D*06
$GPGGA,095255.15,5703.4109824,N,00952.2879289,E,2,11,0.8,-2.198,M,40.593,M,1.8,0123*64
$GPVTG,048.60,T,-591.30,M,003.260,N,006.037,K,D*0A
$GPGGA,095255.20,5703.4110133,N,00952.2879914,E,2,11,0.8,-2.191,M,40.593,M,1.8,0123*63
$GPVTG,048.27,T,-591.63,M,003.243,N,006.007,K,D*0D
$GPGGA,095255.25,5703.4110431,N,00952.2880518,E,2,11,0.8,-2.176,M,40.593,M,2.1,0123*64
$GPVTG,048.01,T,-591.89,M,003.182,N,005.893,K,D*05
$GPGGA,095255.30,5703.4110709,N,00952.2881139,E,2,11,0.8,-2.163,M,40.593,M,2.1,0123*6A
$GPVTG,049.21,T,-590.69,M,003.136,N,005.808,K,D*04
$GPGGA,095255.35,5703.4110977,N,00952.2881776,E,2,11,0.8,-2.149,M,40.593,M,2.1,0123*6D
$GPVTG,050.98,T,-588.92,M,003.116,N,005.772,K,D*03
$GPGGA,095255.40,5703.4111234,N,00952.2882409,E,2,11,0.8,-2.136,M,40.593,M,2.1,0123*62
$GPVTG,052.58,T,-587.32,M,003.086,N,005.715,K,D*01
$GPGGA,095255.45,5703.4111489,N,00952.2883049,E,2,11,0.8,-2.125,M,40.593,M,2.3,0123*66
$GPVTG,053.85,T,-586.05,M,003.082,N,005.707,K,D*02
$GPGGA,095255.50,5703.4111755,N,00952.2883729,E,2,11,0.8,-2.112,M,40.593,M,2.3,0123*65
$GPVTG,054.96,T,-584.94,M,003.168,N,005.868,K,D*0E
$GPGGA,095255.55,5703.4112011,N,00952.2884408,E,2,11,0.8,-2.101,M,40.593,M,2.3,0123*61
$GPVTG,055.99,T,-583.91,M,003.209,N,005.944,K,D*09
$GPGGA,095255.60,5703.4112280,N,00952.2885100,E,2,11,0.8,-2.094,M,40.593,M,2.3,0123*6C
$GPVTG,056.06,T,-583.84,M,003.283,N,006.080,K,D*08
$GPGGA,095255.65,5703.4112539,N,00952.2885800,E,2,11,0.8,-2.084,M,40.593,M,2.6,0123*61
$GPVTG,056.67,T,-583.23,M,003.322,N,006.152,K,D*06
$GPGGA,095255.70,5703.4112815,N,00952.2886505,E,2,11,0.8,-2.088,M,40.593,M,2.6,0123*61
$GPVTG,056.11,T,-583.79,M,003.385,N,006.268,K,D*0F
$GPGGA,095255.75,5703.4113107,N,00952.2887201,E,2,11,0.8,-2.097,M,40.593,M,2.6,0123*63
$GPVTG,054.65,T,-585.25,M,003.435,N,006.363,K,D*07
$GPGGA,095255.80,5703.4113413,N,00952.2887888,E,2,11,0.8,-2.106,M,40.593,M,2.6,0123*6B
$GPVTG,052.77,T,-587.13,M,003.482,N,006.449,K,D*06
$GPGGA,095255.85,5703.4113747,N,00952.2888525,E,2,11,0.8,-2.118,M,40.593,M,2.8,0123*68
$GPVTG,049.24,T,-590.66,M,003.488,N,006.460,K,D*0F
$GPGGA,095255.90,5703.4114078,N,00952.2889127,E,2,11,0.8,-2.129,M,40.593,M,2.8,0123*65
$GPVTG,046.08,T,-593.82,M,003.442,N,006.374,K,D*03
$GPGGA,095255.95,5703.4114416,N,00952.2889733,E,2,11,0.8,-2.139,M,40.593,M,2.8,0123*6E
$GPVTG,043.95,T,-595.95,M,003.437,N,006.365,K,D*00
$GPGGA,095256.00,5703.4114742,N,00952.2890333,E,2,11,0.8,-2.147,M,40.593,M,2.8,0123*66
$GPVTG,043.12,T,-596.78,M,003.396,N,006.289,K,D*00
$GPGGA,095256.05,5703.4115053,N,00952.2890924,E,2,11,0.8,-2.155,M,40.593,M,1.5,0123*64
$GPVTG,043.36,T,-596.54,M,003.326,N,006.160,K,D*07
$GPGGA,095256.10,5703.4115343,N,00952.2891532,E,2,11,0.8,-2.161,M,40.593,M,1.5,0123*6F
$GPVTG,045.08,T,-594.82,M,003.247,N,006.013,K,D*06
$GPGGA,095256.15,5703.4115645,N,00952.2892144,E,2,11,0.8,-2.163,M,40.593,M,1.5,0123*6D
$GPVTG,046.08,T,-593.82,M,003.230,N,005.983,K,D*01
$GPGGA,095256.20,5703.4115945,N,00952.2892750,E,2,11,0.8,-2.163,M,40.593,M,1.5,0123*67
$GPVTG,046.79,T,-593.11,M,003.209,N,005.942,K,D*0A
$GPGGA,095256.25,5703.4116241,N,00952.2893350,E,2,11,0.8,-2.164,M,40.593,M,1.8,0123*61
$GPVTG,047.18,T,-592.72,M,003.186,N,005.900,K,D*0A
$GPGGA,095256.30,5703.4116513,N,00952.2893962,E,2,11,0.8,-2.160,M,40.593,M,1.8,0123*6A
$GPVTG,049.04,T,-590.86,M,003.134,N,005.804,K,D*0C
$GPGGA,095256.35,5703.4116778,N,00952.2894572,E,2,11,0.8,-2.155,M,40.593,M,1.8,0123*6C
$GPVTG,050.64,T,-589.26,M,003.082,N,005.707,K,D*00
$GPGGA,095256.40,5703.4117037,N,00952.2895176,E,2,11,0.8,-2.148,M,40.593,M,1.8,0123*6E
$GPVTG,051.85,T,-588.05,M,003.030,N,005.611,K,D*01
$GPGGA,095256.45,5703.4117296,N,00952.2895788,E,2,11,0.8,-2.139,M,40.593,M,2.0,0123*68
$GPVTG,052.62,T,-587.28,M,003.013,N,005.580,K,D*01
$GPGGA,095256.50,5703.4117555,N,00952.2896405,E,2,11,0.8,-2.127,M,40.593,M,2.0,0123*6E
$GPVTG,053.30,T,-586.60,M,003.013,N,005.580,K,D*0A
$GPGGA,095256.55,5703.4117799,N,00952.2897033,E,2,11,0.8,-2.114,M,40.593,M,2.0,0123*69
$GPVTG,054.59,T,-585.31,M,003.009,N,005.572,K,D*03
$GPGGA,095256.60,5703.4118040,N,00952.2897658,E,2,11,0.8,-2.101,M,40.593,M,2.0,0123*6C
$GPVTG,055.36,T,-584.54,M,002.997,N,005.551,K,D*07
$GPGGA,095256.65,5703.4118280,N,00952.2898277,E,2,11,0.8,-2.089,M,40.593,M,2.2,0123*62
$GPVTG,055.75,T,-584.15,M,002.978,N,005.514,K,D*05
$GPGGA,095256.70,5703.4118536,N,00952.2898863,E,2,11,0.8,-2.082,M,40.593,M,2.2,0123*68
$GPVTG,054.21,T,-585.69,M,002.940,N,005.445,K,D*01
$GPGGA,095256.75,5703.4118805,N,00952.2899453,E,2,11,0.8,-2.075,M,40.593,M,2.2,0123*66
$GPVTG,052.37,T,-587.53,M,002.956,N,005.474,K,D*0E
$GPGGA,095256.80,5703.4119084,N,00952.2900045,E,2,11,0.8,-2.071,M,40.593,M,2.2,0123*6A
$GPVTG,050.64,T,-589.26,M,002.999,N,005.553,K,D*01
$GPGGA,095256.85,5703.4119370,N,00952.2900621,E,2,11,0.8,-2.075,M,40.593,M,2.4,0123*61
$GPVTG,048.73,T,-591.17,M,003.025,N,005.602,K,D*0D
$GPGGA,095256.90,5703.4119653,N,00952.2901205,E,2,11,0.8,-2.077,M,40.593,M,2.4,0123*60
$GPVTG,047.89,T,-592.01,M,003.055,N,005.657,K,D*04
$GPGGA,095256.95,5703.4119939,N,00952.2901793,E,2,11,0.8,-2.083,M,40.593,M,2.4,0123*67
$GPVTG,047.46,T,-592.44,M,003.085,N,005.714,K,D*0D
$GPGGA,095257.00,5703.4120225,N,00952.2902392,E,2,11,0.8,-2.093,M,40.593,M,2.4,0123*61
$GPVTG,047.62,T,-592.28,M,003.124,N,005.786,K,D*00
$GPGGA,095257.05,5703.4120517,N,00952.2902994,E,2,11,0.8,-2.105,M,40.593,M,2.7,0123*63
$GPVTG,047.68,T,-592.22,M,003.171,N,005.873,K,D*05
$GPGGA,095257.10,5703.4120812,N,00952.2903582,E,2,11,0.8,-2.117,M,40.593,M,2.7,0123*66
$GPVTG,047.26,T,-592.64,M,003.178,N,005.885,K,D*0D
$GPGGA,095257.15,5703.4121094,N,00952.2904136,E,2,11,0.8,-2.126,M,40.593,M,2.7,0123*6A
$GPVTG,046.70,T,-593.20,M,003.097,N,005.736,K,D*09
$GPGGA,095257.20,5703.4121356,N,00952.2904665,E,2,11,0.8,-2.131,M,40.593,M,2.7,0123*66
$GPVTG,046.63,T,-593.27,M,002.953,N,005.469,K,D*05
$GPGGA,095257.25,5703.4121616,N,00952.2905205,E,2,11,0.8,-2.140,M,40.593,M,2.9,0123*69
$GPVTG,047.06,T,-592.84,M,002.874,N,005.323,K,D*02
$GPGGA,095257.30,5703.4121883,N,00952.2905745,E,2,11,0.8,-2.141,M,40.593,M,2.9,0123*6F
$GPVTG,047.25,T,-592.65,M,002.837,N,005.254,K,D*0A
$GPGGA,095257.35,5703.4122145,N,00952.2906281,E,2,11,0.8,-2.144,M,40.593,M,2.9,0123*61
$GPVTG,047.59,T,-592.31,M,002.803,N,005.191,K,D*0D
$GPGGA,095257.40,5703.4122411,N,00952.2906805,E,2,11,0.8,-2.145,M,40.593,M,2.9,0123*60
$GPVTG,047.33,T,-592.57,M,002.779,N,005.146,K,D*09
$GPGGA,095257.45,5703.4122676,N,00952.2907330,E,2,11,0.8,-2.145,M,40.593,M,3.1,0123*63
$GPVTG,047.19,T,-592.71,M,002.770,N,005.129,K,D*05
$GPGGA,095257.50,5703.4122936,N,00952.2907867,E,2,11,0.8,-2.143,M,40.593,M,3.1,0123*63
$GPVTG,047.80,T,-592.10,M,002.775,N,005.140,K,D*08
$GPGGA,095257.55,5703.4123176,N,00952.2908419,E,2,11,0.8,-2.143,M,40.593,M,3.1,0123*61
$GPVTG,049.67,T,-590.23,M,002.767,N,005.125,K,D*0D
$GPGGA,095257.60,5703.4123427,N,00952.2908954,E,2,11,0.8,-2.137,M,40.593,M,3.1,0123*61
$GPVTG,049.89,T,-590.01,M,002.758,N,005.108,K,D*0E
$GPGGA,095257.65,5703.4123682,N,00952.2909485,E,2,11,0.8,-2.138,M,40.593,M,3.3,0123*64
$GPVTG,049.55,T,-590.35,M,002.756,N,005.103,K,D*0D
$GPGGA,095257.70,5703.4123925,N,00952.2910036,E,2,11,0.8,-2.134,M,40.593,M,3.3,0123*6A
$GPVTG,050.52,T,-589.38,M,002.765,N,005.121,K,D*07
$GPGGA,095257.75,5703.4124163,N,00952.2910581,E,2,11,0.8,-2.129,M,40.593,M,3.3,0123*67
$GPVTG,051.20,T,-588.70,M,002.752,N,005.097,K,D*06
$GPGGA,095257.80,5703.4124393,N,00952.2911124,E,2,11,0.8,-2.126,M,40.593,M,3.3,0123*65
$GPVTG,052.03,T,-587.87,M,002.725,N,005.047,K,D*0E
$GPGGA,095257.85,5703.4124634,N,00952.2911651,E,2,11,0.8,-2.117,M,40.593,M,3.5,0123*69
$GPVTG,051.55,T,-588.35,M,002.697,N,004.995,K,D*07
$GPGGA,095257.90,5703.4124877,N,00952.2912166,E,2,11,0.8,-2.111,M,40.593,M,3.5,0123*62
$GPVTG,050.57,T,-589.33,M,002.673,N,004.950,K,D*00
$GPGGA,095257.95,5703.4125124,N,00952.2912712,E,2,11,0.8,-2.108,M,40.593,M,3.5,0123*64
$GPVTG,050.55,T,-589.35,M,002.716,N,005.031,K,D*09
$GPGGA,095258.00,5703.4125378,N,00952.2913255,E,2,11,0.8,-2.105,M,40.593,M,3.5,0123*66
$GPVTG,050.05,T,-589.85,M,002.759,N,005.110,K,D*0E
$GPGGA,095258.05,5703.4125628,N,00952.2913798,E,2,11,0.8,-2.109,M,40.593,M,2.0,0123*6F
$GPVTG,049.83,T,-590.07,M,002.786,N,005.159,K,D*05
$GPGGA,095258.10,5703.4125871,N,00952.2914340,E,2,11,0.8,-2.110,M,40.593,M,2.0,0123*67
$GPVTG,050.08,T,-589.82,M,002.783,N,005.154,K,D*03
$GPGGA,095258.15,5703.4126130,N,00952.2914883,E,2,11,0.8,-2.117,M,40.593,M,2.0,0123*6E
$GPVTG,049.50,T,-590.40,M,002.813,N,005.210,K,D*05
$GPGGA,095258.20,5703.4126390,N,00952.2915407,E,2,11,0.8,-2.126,M,40.593,M,2.0,0123*63
$GPVTG,048.44,T,-591.46,M,002.809,N,005.202,K,D*0E
$GPGGA,095258.25,5703.4126667,N,00952.2915913,E,2,11,0.8,-2.133,M,40.593,M,2.2,0123*65
$GPVTG,046.42,T,-593.48,M,002.813,N,005.209,K,D*0A
$GPGGA,095258.30,5703.4126947,N,00952.2916429,E,2,11,0.8,-2.141,M,40.593,M,2.2,0123*6E
$GPVTG,045.22,T,-594.68,M,002.842,N,005.264,K,D*05
$GPGGA,095258.35,5703.4127230,N,00952.2916935,E,2,11,0.8,-2.148,M,40.593,M,2.2,0123*68
$GPVTG,044.08,T,-595.82,M,002.856,N,005.290,K,D*07
$GPGGA,095258.40,5703.4127510,N,00952.2917443,E,2,11,0.8,-2.159,M,40.593,M,2.2,0123*62
$GPVTG,043.70,T,-596.20,M,002.860,N,005.296,K,D*07
$GPGGA,095258.45,5703.4127784,N,00952.2917937,E,2,11,0.8,-2.171,M,40.593,M,2.5,0123*6B
$GPVTG,043.41,T,-596.49,M,002.829,N,005.238,K,D*03
$GPGGA,095258.50,5703.4128063,N,00952.2918457,E,2,11,0.8,-2.177,M,40.593,M,2.5,0123*6C
$GPVTG,043.96,T,-595.94,M,002.851,N,005.280,K,D*06
$GPGGA,095258.55,5703.4128337,N,00952.2918972,E,2,11,0.8,-2.179,M,40.593,M,2.5,0123*6F
$GPVTG,044.49,T,-595.41,M,002.852,N,005.282,K,D*0A
$GPGGA,095258.60,5703.4128603,N,00952.2919477,E,2,11,0.8,-2.178,M,40.593,M,2.5,0123*63
$GPVTG,045.05,T,-594.85,M,002.813,N,005.210,K,D*04
$GPGGA,095258.65,5703.4128855,N,00952.2919978,E,2,11,0.8,-2.179,M,40.593,M,2.7,0123*6A
$GPVTG,045.99,T,-593.91,M,002.749,N,005.091,K,D*08
$GPGGA,095258.70,5703.4129102,N,00952.2920487,E,2,11,0.8,-2.176,M,40.593,M,2.7,0123*6C
$GPVTG,047.25,T,-592.65,M,002.705,N,005.010,K,D*06
$GPGGA,095258.75,5703.4129343,N,00952.2920999,E,2,11,0.8,-2.171,M,40.593,M,2.7,0123*6B
$GPVTG,048.54,T,-591.36,M,002.666,N,004.937,K,D*03
$GPGGA,095258.80,5703.4129569,N,00952.2921504,E,2,11,0.8,-2.160,M,40.593,M,2.7,0123*66
$GPVTG,049.98,T,-589.92,M,002.603,N,004.820,K,D*01
$GPGGA,095258.85,5703.4129791,N,00952.2921993,E,2,11,0.8,-2.148,M,40.593,M,3.0,0123*68
$GPVTG,050.69,T,-589.21,M,002.528,N,004.683,K,D*02
$GPGGA,095258.90,5703.4130028,N,00952.2922495,E,2,11,0.8,-2.136,M,40.593,M,3.0,0123*60
$GPVTG,050.62,T,-589.28,M,002.533,N,004.691,K,D*09
$GPGGA,095258.95,5703.4130261,N,00952.2923003,E,2,11,0.8,-2.123,M,40.593,M,3.0,0123*64
$GPVTG,050.79,T,-589.11,M,002.547,N,004.717,K,D*05
$GPGGA,095259.00,5703.4130489,N,00952.2923514,E,2,11,0.8,-2.109,M,40.593,M,3.0,0123*62
$GPVTG,051.26,T,-588.64,M,002.555,N,004.732,K,D*09
$GPGGA,095259.05,5703.4130728,N,00952.2924026,E,2,11,0.8,-2.087,M,40.593,M,1.8,0123*61
$GPVTG,051.14,T,-588.76,M,002.593,N,004.801,K,D*0E
$GPGGA,095259.10,5703.4130967,N,00952.2924521,E,2,11,0.8,-2.077,M,40.593,M,1.8,0123*6D
$GPVTG,050.14,T,-589.76,M,002.588,N,004.792,K,D*01
$GPGGA,095259.15,5703.4131202,N,00952.2925013,E,2,11,0.8,-2.070,M,40.593,M,1.8,0123*63
$GPVTG,049.48,T,-590.42,M,002.575,N,004.769,K,D*09
$GPGGA,095259.20,5703.4131446,N,00952.2925512,E,2,11,0.8,-2.066,M,40.593,M,1.8,0123*60
$GPVTG,048.72,T,-591.18,M,002.601,N,004.816,K,D*08
$GPGGA,095259.25,5703.4131711,N,00952.2926010,E,2,11,0.8,-2.073,M,40.593,M,2.1,0123*6E
$GPVTG,047.02,T,-592.88,M,002.664,N,004.934,K,D*08
$GPGGA,095259.30,5703.4131967,N,00952.2926515,E,2,11,0.8,-2.076,M,40.593,M,2.1,0123*60
$GPVTG,046.62,T,-593.28,M,002.702,N,005.004,K,D*0E
$GPGGA,095259.35,5703.4132231,N,00952.2927017,E,2,11,0.8,-2.085,M,40.593,M,2.1,0123*64
$GPVTG,045.97,T,-593.93,M,002.736,N,005.067,K,D*05
$GPGGA,095259.40,5703.4132506,N,00952.2927522,E,2,11,0.8,-2.096,M,40.593,M,2.1,0123*64
$GPVTG,045.13,T,-594.77,M,002.792,N,005.170,K,D*0D
$GPGGA,095259.45,5703.4132793,N,00952.2928022,E,2,11,0.8,-2.104,M,40.593,M,2.3,0123*6D
$GPVTG,044.00,T,-595.90,M,002.842,N,005.263,K,D*05
$GPGGA,095259.50,5703.4133069,N,00952.2928492,E,2,11,0.8,-2.111,M,40.593,M,2.3,0123*61
$GPVTG,042.83,T,-597.07,M,002.809,N,005.201,K,D*0F
$GPGGA,095259.55,5703.4133327,N,00952.2928950,E,2,11,0.8,-2.118,M,40.593,M,2.3,0123*67
$GPVTG,042.60,T,-597.30,M,002.716,N,005.029,K,D*0F
