2,M,40.593,M,2.6,0123*6F
$GPVTG,056.78,T,-583.12,M,005.729,N,010.609,K,D*0D
$GPGGA,094457.55,5703.4668621,N,00952.3120287,E,2,11,0.8,-2.350,M,40.593,M,2.6,0123*6F
$GPVTG,056.66,T,-583.24,M,005.812,N,010.764,K,D*0A
$GPGGA,094457.60,5703.4669078,N,00952.3121533,E,2,11,0.8,-2.354,M,40.593,M,2.6,0123*6F
$GPVTG,056.29,T,-583.61,M,005.862,N,010.857,K,D*08
$GPGGA,094457.65,5703.4669524,N,00952.3122790,E,2,11,0.8,-2.358,M,40.593,M,2.9,0123*6D
$GPVTG,056.44,T,-583.46,M,005.896,N,010.920,K,D*0C
$GPGGA,094457.70,5703.4669972,N,00952.3124078,E,2,11,0.8,-2.362,M,40.593,M,2.9,0123*68
$GPVTG,056.88,T,-583.02,M,005.973,N,011.062,K,D*08
$GPGGA,094457.75,5703.4670405,N,00952.3125364,E,2,11,0.8,-2.368,M,40.593,M,2.9,0123*6D
$GPVTG,057.58,T,-582.32,M,005.988,N,011.090,K,D*0F
$GPGGA,094457.80,5703.4670852,N,00952.3126647,E,2,11,0.8,-2.373,M,40.593,M,2.9,0123*64
$GPVTG,057.61,T,-582.29,M,006.010,N,011.131,K,D*0E
$GPGGA,094457.85,5703.4671288,N,00952.3127933,E,2,11,0.8,-2.377,M,40.593,M,3.1,0123*6D
$GPVTG,057.97,T,-581.93,M,006.003,N,011.117,K,D*03
$GPGGA,094457.90,5703.4671727,N,00952.3129218,E,2,11,0.8,-2.383,M,40.593,M,3.1,0123*6E
$GPVTG,058.09,T,-581.81,M,005.997,N,011.107,K,D*0E
$GPGGA,094457.95,5703.4672172,N,00952.3130483,E,2,11,0.8,-2.385,M,40.593,M,3.1,0123*64
$GPVTG,057.75,T,-582.15,M,005.965,N,011.046,K,D*0D
$GPGGA,094458.00,5703.4672605,N,00952.3131733,E,2,11,0.8,-2.384,M,40.593,M,3.1,0123*68
$GPVTG,057.65,T,-582.25,M,005.893,N,010.914,K,D*08
$GPGGA,094458.05,5703.4673029,N,00952.3132955,E,2,11,0.8,-2.380,M,40.593,M,1.8,0123*66
$GPVTG,057.47,T,-582.43,M,005.766,N,010.679,K,D*09
$GPGGA,094458.10,5703.4673447,N,00952.3134167,E,2,11,0.8,-2.370,M,40.593,M,1.8,0123*6E
$GPVTG,057.48,T,-582.42,M,005.669,N,010.499,K,D*05
$GPGGA,094458.15,5703.4673871,N,00952.3135361,E,2,11,0.8,-2.355,M,40.593,M,1.8,0123*60
$GPVTG,057.14,T,-582.76,M,005.592,N,010.356,K,D*08
$GPGGA,094458.20,5703.4674305,N,00952.3136572,E,2,11,0.8,-2.342,M,40.593,M,1.8,0123*68
$GPVTG,056.87,T,-583.03,M,005.597,N,010.366,K,D*06
$GPGGA,094458.25,5703.4674755,N,00952.3137812,E,2,11,0.8,-2.329,M,40.593,M,2.1,0123*61
$GPVTG,056.57,T,-583.33,M,005.693,N,010.544,K,D*09
$GPGGA,094458.30,5703.4675197,N,00952.3139078,E,2,11,0.8,-2.327,M,40.593,M,2.1,0123*68
$GPVTG,056.90,T,-583.00,M,005.799,N,010.740,K,D*0F
$GPGGA,094458.35,5703.4675647,N,00952.3140350,E,2,11,0.8,-2.332,M,40.593,M,2.1,0123*64
$GPVTG,057.00,T,-582.90,M,005.897,N,010.922,K,D*04
$GPGGA,094458.40,5703.4676116,N,00952.3141644,E,2,11,0.8,-2.338,M,40.593,M,2.1,0123*6D
$GPVTG,056.74,T,-583.16,M,006.034,N,011.175,K,D*00
$GPGGA,094458.45,5703.4676599,N,00952.3142956,E,2,11,0.8,-2.345,M,40.593,M,2.3,0123*6C
$GPVTG,056.41,T,-583.49,M,006.177,N,011.439,K,D*07
$GPGGA,094458.50,5703.4677073,N,00952.3144281,E,2,11,0.8,-2.361,M,40.593,M,2.3,0123*69
$GPVTG,056.50,T,-583.40,M,006.266,N,011.604,K,D*01
$GPGGA,094458.55,5703.4677529,N,00952.3145613,E,2,11,0.8,-2.379,M,40.593,M,2.3,0123*61
$GPVTG,057.06,T,-582.84,M,006.292,N,011.653,K,D*03
$GPGGA,094458.60,5703.4677971,N,00952.3146934,E,2,11,0.8,-2.390,M,40.593,M,2.3,0123*68
$GPVTG,057.73,T,-582.17,M,006.248,N,011.571,K,D*0F
$GPGGA,094458.65,5703.4678424,N,00952.3148138,E,2,11,0.8,-2.391,M,40.593,M,2.6,0123*61
$GPVTG,056.65,T,-583.25,M,006.017,N,011.143,K,D*04
$GPGGA,094458.70,5703.4678864,N,00952.3149305,E,2,11,0.8,-2.385,M,40.593,M,2.6,0123*65
$GPVTG,055.78,T,-584.12,M,005.767,N,010.681,K,D*03
$GPGGA,094458.75,5703.4679313,N,00952.3150548,E,2,11,0.8,-2.380,M,40.593,M,2.6,0123*68
$GPVTG,055.87,T,-584.03,M,005.757,N,010.662,K,D*0D
$GPGGA,094458.80,5703.4679751,N,00952.3151810,E,2,11,0.8,-2.377,M,40.593,M,2.6,0123*69
$GPVTG,056.55,T,-583.35,M,005.778,N,010.702,K,D*09
$GPGGA,094458.85,5703.4680168,N,00952.3153060,E,2,11,0.8,-2.376,M,40.593,M,2.8,0123*64
$GPVTG,057.49,T,-582.41,M,005.745,N,010.640,K,D*0E
$GPGGA,094458.90,5703.4680596,N,00952.3154309,E,2,11,0.8,-2.368,M,40.593,M,2.8,0123*61
$GPVTG,057.84,T,-582.06,M,005.745,N,010.640,K,D*0C
$GPGGA,094458.95,5703.4681027,N,00952.3155550,E,2,11,0.8,-2.361,M,40.593,M,2.8,0123*68
$GPVTG,057.91,T,-581.99,M,005.744,N,010.637,K,D*0C
$GPGGA,094459.00,5703.4681473,N,00952.3156760,E,2,11,0.8,-2.352,M,40.593,M,2.8,0123*62
$GPVTG,057.10,T,-582.80,M,005.720,N,010.593,K,D*01
$GPGGA,094459.05,5703.4681943,N,00952.3157977,E,2,11,0.8,-2.337,M,40.593,M,1.5,0123*6D
$GPVTG,055.92,T,-583.98,M,005.757,N,010.662,K,D*0C
$GPGGA,094459.10,5703.4682388,N,00952.3159218,E,2,11,0.8,-2.331,M,40.593,M,1.5,0123*6D
$GPVTG,056.07,T,-583.83,M,005.796,N,010.734,K,D*06
$GPGGA,094459.15,5703.4682845,N,00952.3160469,E,2,11,0.8,-2.329,M,40.593,M,1.5,0123*61
$GPVTG,056.02,T,-583.88,M,005.863,N,010.858,K,D*08
$GPGGA,094459.20,5703.4683293,N,00952.3161760,E,2,11,0.8,-2.331,M,40.593,M,1.5,0123*65
$GPVTG,056.70,T,-583.20,M,005.959,N,011.037,K,D*07
$GPGGA,094459.25,5703.4683752,N,00952.3163080,E,2,11,0.8,-2.331,M,40.593,M,1.8,0123*6E
$GPVTG,057.26,T,-582.64,M,006.087,N,011.273,K,D*0F
$GPGGA,094459.30,5703.4684222,N,00952.3164386,E,2,11,0.8,-2.339,M,40.593,M,1.8,0123*65
$GPVTG,057.08,T,-582.82,M,006.164,N,011.416,K,D*02
$GPGGA,094459.35,5703.4684683,N,00952.3165708,E,2,11,0.8,-2.353,M,40.593,M,1.8,0123*60
$GPVTG,057.28,T,-582.62,M,006.220,N,011.519,K,D*03
$GPGGA,094459.40,5703.4685141,N,00952.3167049,E,2,11,0.8,-2.369,M,40.593,M,1.8,0123*63
$GPVTG,057.67,T,-582.23,M,006.269,N,011.609,K,D*02
$GPGGA,094459.45,5703.4685607,N,00952.3168382,E,2,11,0.8,-2.391,M,40.593,M,2.0,0123*64
$GPVTG,057.63,T,-582.27,M,006.292,N,011.653,K,D*09
$GPGGA,094459.50,5703.4686064,N,00952.3169692,E,2,11,0.8,-2.399,M,40.593,M,2.0,0123*6D
$GPVTG,057.53,T,-582.37,M,006.238,N,011.552,K,D*09
$GPGGA,094459.55,5703.4686513,N,00952.3170947,E,2,11,0.8,-2.399,M,40.593,M,2.0,0123*62
$GPVTG,057.10,T,-582.80,M,006.080,N,011.261,K,D*04
$GPGGA,094459.60,5703.4686941,N,00952.3172167,E,2,11,0.8,-2.396,M,40.593,M,2.0,0123*68
$GPVTG,056.98,T,-582.92,M,005.870,N,010.871,K,D*08
$GPGGA,094459.65,5703.4687353,N,00952.3173384,E,2,11,0.8,-2.384,M,40.593,M,2.2,0123*6A
$GPVTG,057.38,T,-582.52,M,005.701,N,010.559,K,D*01
$GPGGA,094459.70,5703.4687781,N,00952.3174594,E,2,11,0.8,-2.369,M,40.593,M,2.2,0123*66
$GPVTG,057.18,T,-582.72,M,005.615,N,010.399,K,D*0F
$GPGGA,094459.75,5703.4688218,N,00952.3175807,E,2,11,0.8,-2.354,M,40.593,M,2.2,0123*61
$GPVTG,056.87,T,-583.03,M,005.597,N,010.365,K,D*05
$GPGGA,094459.80,5703.4688668,N,00952.3177030,E,2,11,0.8,-2.339,M,40.593,M,2.2,0123*6D
$GPVTG,056.41,T,-583.49,M,005.646,N,010.456,K,D*09
$GPGGA,094459.85,5703.4689117,N,00952.3178275,E,2,11,0.8,-2.331,M,40.593,M,2.4,0123*64
$GPVTG,056.38,T,-583.52,M,005.729,N,010.610,K,D*05
$GPGGA,094459.90,5703.4689565,N,00952.3179543,E,2,11,0.8,-2.327,M,40.593,M,2.4,0123*65
$GPVTG,056.67,T,-583.23,M,005.832,N,010.802,K,D*01
$GPGGA,094459.95,5703.4690015,N,00952.3180824,E,2,11,0.8,-2.325,M,40.593,M,2.4,0123*62
$GPVTG,056.96,T,-582.94,M,005.930,N,010.982,K,D*08
$GPGGA,094500.00,5703.4690461,N,00952.3182124,E,2,11,0.8,-2.327,M,40.593,M,2.4,0123*6D
$GPVTG,057.46,T,-582.44,M,006.018,N,011.146,K,D*08
$GPGGA,094500.05,5703.4690922,N,00952.3183444,E,2,11,0.8,-2.331,M,40.593,M,2.7,0123*64
$GPVTG,057.57,T,-582.33,M,006.119,N,011.332,K,D*09
$GPGGA,094500.10,5703.4691370,N,00952.3184776,E,2,11,0.8,-2.340,M,40.593,M,2.7,0123*6F
$GPVTG,058.06,T,-581.84,M,006.185,N,011.455,K,D*0E
$GPGGA,094500.15,5703.4691825,N,00952.3186096,E,2,11,0.8,-2.353,M,40.593,M,2.7,0123*68
$GPVTG,058.02,T,-581.88,M,006.210,N,011.501,K,D*09
$GPGGA,094500.20,5703.4692296,N,00952.3187404,E,2,11,0.8,-2.365,M,40.593,M,2.7,0123*64
$GPVTG,057.42,T,-582.48,M,006.220,N,011.520,K,D*0D
$GPGGA,094500.25,5703.4692772,N,00952.3188688,E,2,11,0.8,-2.376,M,40.593,M,2.9,0123*6B
$GPVTG,056.57,T,-583.33,M,006.189,N,011.463,K,D*03
$GPGGA,094500.30,5703.4693233,N,00952.3189974,E,2,11,0.8,-2.383,M,40.593,M,2.9,0123*69
$GPVTG,056.40,T,-583.50,M,006.137,N,011.365,K,D*04
$GPGGA,094500.35,5703.4693682,N,00952.3191252,E,2,11,0.8,-2.388,M,40.593,M,2.9,0123*6F
$GPVTG,056.57,T,-583.33,M,006.060,N,011.224,K,D*00
$GPGGA,094500.40,5703.4694118,N,00952.3192518,E,2,11,0.8,-2.389,M,40.593,M,2.9,0123*65
$GPVTG,056.93,T,-582.97,M,005.964,N,011.046,K,D*0F
$GPGGA,094500.45,5703.4694563,N,00952.3193764,E,2,11,0.8,-2.378,M,40.593,M,3.1,0123*67
$GPVTG,056.86,T,-583.04,M,005.880,N,010.889,K,D*01
$GPGGA,094500.50,5703.4695010,N,00952.3195005,E,2,11,0.8,-2.372,M,40.593,M,3.1,0123*6F
$GPVTG,056.66,T,-583.24,M,005.826,N,010.790,K,D*06
$GPGGA,094500.55,5703.4695461,N,00952.3196233,E,2,11,0.8,-2.365,M,40.593,M,3.1,0123*6A
$GPVTG,056.29,T,-583.61,M,005.787,N,010.717,K,D*07
$GPGGA,094500.60,5703.4695909,N,00952.3197476,E,2,11,0.8,-2.357,M,40.593,M,3.1,0123*68
$GPVTG,056.31,T,-583.59,M,005.790,N,010.722,K,D*05
$GPGGA,094500.65,5703.4696356,N,00952.3198744,E,2,11,0.8,-2.357,M,40.593,M,3.3,0123*61
$GPVTG,056.60,T,-583.30,M,005.846,N,010.827,K,D*00
$GPGGA,094500.70,5703.4696800,N,00952.3200005,E,2,11,0.8,-2.351,M,40.593,M,3.3,0123*6B
$GPVTG,056.87,T,-583.03,M,005.869,N,010.869,K,D*0E
$GPGGA,094500.75,5703.4697244,N,00952.3201261,E,2,11,0.8,-2.347,M,40.593,M,3.3,0123*63
$GPVTG,057.01,T,-582.89,M,005.878,N,010.886,K,D*03
$GPGGA,094500.80,5703.4697676,N,00952.3202540,E,2,11,0.8,-2.346,M,40.593,M,3.3,0123*6A
$GPVTG,057.66,T,-582.24,M,005.902,N,010.931,K,D*04
$GPGGA,094500.85,5703.4698121,N,00952.3203824,E,2,11,0.8,-2.341,M,40.593,M,3.5,0123*6A
$GPVTG,057.84,T,-582.06,M,005.944,N,011.009,K,D*09
$GPGGA,094500.90,5703.4698579,N,00952.3205124,E,2,11,0.8,-2.344,M,40.593,M,3.5,0123*6D
$GPVTG,057.70,T,-582.20,M,006.027,N,011.162,K,D*05
$GPGGA,094500.95,5703.4699032,N,00952.3206434,E,2,11,0.8,-2.350,M,40.593,M,3.5,0123*61
$GPVTG,057.77,T,-582.13,M,006.088,N,011.274,K,D*03
$GPGGA,094501.00,5703.4699487,N,00952.3207741,E,2,11,0.8,-2.358,M,40.593,M,3.5,0123*6E
$GPVTG,057.69,T,-582.21,M,006.121,N,011.336,K,D*08
$GPGGA,094501.05,5703.4699959,N,00952.3209054,E,2,11,0.8,-2.363,M,40.593,M,2.0,0123*64
$GPVTG,057.20,T,-582.70,M,006.166,N,011.419,K,D*08
$GPGGA,094501.10,5703.4700423,N,00952.3210347,E,2,11,0.8,-2.370,M,40.593,M,2.0,0123*6A
$GPVTG,056.87,T,-583.03,M,006.153,N,011.395,K,D*04
$GPGGA,094501.15,5703.4700889,N,00952.3211619,E,2,11,0.8,-2.371,M,40.593,M,2.0,0123*6D
$GPVTG,056.34,T,-583.56,M,006.105,N,011.306,K,D*05
$GPGGA,094501.20,5703.4701332,N,00952.3212860,E,2,11,0.8,-2.368,M,40.593,M,2.0,0123*6A
$GPVTG,056.28,T,-583.62,M,005.971,N,011.059,K,D*0E
$GPGGA,094501.25,5703.4701779,N,00952.3214109,E,2,11,0.8,-2.365,M,40.593,M,2.2,0123*6B
$GPVTG,056.30,T,-583.60,M,005.901,N,010.930,K,D*05
$GPGGA,094501.30,5703.4702233,N,00952.3215365,E,2,11,0.8,-2.362,M,40.593,M,2.2,0123*69
$GPVTG,056.26,T,-583.64,M,005.886,N,010.900,K,D*0B
$GPGGA,094501.35,5703.4702693,N,00952.3216626,E,2,11,0.8,-2.359,M,40.593,M,2.2,0123*6B
$GPVTG,056.16,T,-583.74,M,005.905,N,010.936,K,D*06
$GPGGA,094501.40,5703.4703143,N,00952.3217888,E,2,11,0.8,-2.358,M,40.593,M,2.2,0123*68
$GPVTG,056.41,T,-583.49,M,005.904,N,010.934,K,D*09
$GPGGA,094501.45,5703.4703587,N,00952.3219153,E,2,11,0.8,-2.357,M,40.593,M,2.5,0123*68
$GPVTG,056.74,T,-583.16,M,005.903,N,010.933,K,D*05
$GPGGA,094501.50,5703.4704042,N,00952.3220430,E,2,11,0.8,-2.353,M,40.593,M,2.5,0123*69
$GPVTG,056.87,T,-583.03,M,005.944,N,011.008,K,D*0E
$GPGGA,094501.55,5703.4704495,N,00952.3221741,E,2,11,0.8,-2.353,M,40.593,M,2.5,0123*66
$GPVTG,057.35,T,-582.55,M,006.031,N,011.169,K,D*0A
$GPGGA,094501.60,5703.4704942,N,00952.3223063,E,2,11,0.8,-2.357,M,40.593,M,2.5,0123*66
$GPVTG,057.89,T,-582.01,M,006.096,N,011.289,K,D*0C
$GPGGA,094501.65,5703.4705384,N,00952.3224390,E,2,11,0.8,-2.364,M,40.593,M,2.7,0123*68
$GPVTG,058.45,T,-581.45,M,006.133,N,011.358,K,D*03
$GPGGA,094501.70,5703.4705838,N,00952.3225732,E,2,11,0.8,-2.368,M,40.593,M,2.7,0123*61
$GPVTG,058.55,T,-581.35,M,006.199,N,011.480,K,D*07
$GPGGA,094501.75,5703.4706294,N,00952.3227063,E,2,11,0.8,-2.374,M,40.593,M,2.7,0123*67
$GPVTG,058.42,T,-581.48,M,006.221,N,011.521,K,D*01
$GPGGA,094501.80,5703.4706753,N,00952.3228372,E,2,11,0.8,-2.376,M,40.593,M,2.7,0123*6D
$GPVTG,057.97,T,-581.93,M,006.192,N,011.467,K,D*08
$GPGGA,094501.85,5703.4707197,N,00952.3229635,E,2,11,0.8,-2.376,M,40.593,M,3.0,0123*66
$GPVTG,057.49,T,-582.41,M,006.059,N,011.221,K,D*05
$GPGGA,094501.90,5703.4707626,N,00952.3230872,E,2,11,0.8,-2.368,M,40.593,M,3.0,0123*65
$GPVTG,057.34,T,-582.56,M,005.893,N,010.914,K,D*08
$GPGGA,094501.95,5703.4708068,N,00952.3232087,E,2,11,0.8,-2.355,M,40.593,M,3.0,0123*6D
$GPVTG,056.68,T,-583.22,M,005.771,N,010.688,K,D*0B
$GPGGA,094502.00,5703.4708509,N,00952.3233347,E,2,11,0.8,-2.343,M,40.593,M,3.0,0123*69
$GPVTG,056.81,T,-583.09,M,005.779,N,010.703,K,D*0F
$GPGGA,094502.05,5703.4708956,N,00952.3234637,E,2,11,0.8,-2.335,M,40.593,M,1.8,0123*64
$GPVTG,057.11,T,-582.79,M,005.849,N,010.831,K,D*03
$GPGGA,094502.10,5703.4709425,N,00952.3235925,E,2,11,0.8,-2.334,M,40.593,M,1.8,0123*64
$GPVTG,056.71,T,-583.19,M,005.955,N,011.029,K,D*0F
$GPGGA,094502.15,5703.4709890,N,00952.3237212,E,2,11,0.8,-2.339,M,40.593,M,1.8,0123*63
$GPVTG,056.55,T,-583.35,M,006.021,N,011.152,K,D*03
$GPGGA,094502.20,5703.4710371,N,00952.3238515,E,2,11,0.8,-2.346,M,40.593,M,1.8,0123*6E
$GPVTG,056.17,T,-583.73,M,006.123,N,011.340,K,D*05
$GPGGA,094502.25,5703.4710849,N,00952.3239830,E,2,11,0.8,-2.355,M,40.593,M,2.1,0123*68
$GPVTG,056.11,T,-583.79,M,006.205,N,011.492,K,D*06
$GPGGA,094502.30,5703.4711327,N,00952.3241163,E,2,11,0.8,-2.364,M,40.593,M,2.1,0123*6C
$GPVTG,056.28,T,-583.62,M,006.283,N,011.636,K,D*04
$GPGGA,094502.35,5703.4711791,N,00952.3242516,E,2,11,0.8,-2.375,M,40.593,M,2.1,0123*65
$GPVTG,056.97,T,-582.93,M,006.333,N,011.729,K,D*0A
$GPGGA,094502.40,5703.4712227,N,00952.3243864,E,2,11,0.8,-2.382,M,40.593,M,2.1,0123*6D
$GPVTG,058.12,T,-581.78,M,006.295,N,011.658,K,D*05
$GPGGA,094502.45,5703.4712643,N,00952.3245167,E,2,11,0.8,-2.382,M,40.593,M,2.3,0123*60
$GPVTG,059.01,T,-580.89,M,006.142,N,011.375,K,D*0A
$GPGGA,094502.50,5703.4713056,N,00952.3246437,E,2,11,0.8,-2.377,M,40.593,M,2.3,0123*6E
$GPVTG,059.33,T,-580.57,M,005.965,N,011.048,K,D*0B
$GPGGA,094502.55,5703.4713473,N,00952.3247661,E,2,11,0.8,-2.366,M,40.593,M,2.3,0123*68
$GPVTG,058.95,T,-580.95,M,005.771,N,010.689,K,D*09
$GPGGA,094502.60,5703.4713906,N,00952.3248874,E,2,11,0.8,-2.356,M,40.593,M,2.3,0123*67
$GPVTG,058.03,T,-581.87,M,005.662,N,010.485,K,D*09
$GPGGA,094502.65,5703.4714324,N,00952.3250103,E,2,11,0.8,-2.340,M,40.593,M,2.6,0123*6D
$GPVTG,058.04,T,-581.86,M,005.606,N,010.382,K,D*0D
$GPGGA,094502.70,5703.4714737,N,00952.3251358,E,2,11,0.8,-2.327,M,40.593,M,2.6,0123*63
$GPVTG,058.48,T,-581.42,M,005.626,N,010.419,K,D*0A
$GPGGA,094502.75,5703.4715161,N,00952.3252630,E,2,11,0.8,-2.317,M,40.593,M,2.6,0123*69
$GPVTG,058.65,T,-581.25,M,005.705,N,010.565,K,D*0E
$GPGGA,094502.80,5703.4715597,N,00952.3253899,E,2,11,0.8,-2.312,M,40.593,M,2.6,0123*67
$GPVTG,058.37,T,-581.53,M,005.785,N,010.713,K,D*03
$GPGGA,094502.85,5703.4716030,N,00952.3255195,E,2,11,0.8,-2.312,M,40.593,M,2.8,0123*64
$GPVTG,058.51,T,-581.39,M,005.885,N,010.899,K,D*0D
$GPGGA,094502.90,5703.4716481,N,00952.3256499,E,2,11,0.8,-2.316,M,40.593,M,2.8,0123*60
$GPVTG,058.16,T,-581.74,M,006.000,N,011.112,K,D*0A
$GPGGA,094502.95,5703.4716938,N,00952.3257777,E,2,11,0.8,-2.323,M,40.593,M,2.8,0123*6E
$GPVTG,057.45,T,-582.45,M,006.035,N,011.177,K,D*07
$GPGGA,094503.00,5703.4717397,N,00952.3259085,E,2,11,0.8,-2.334,M,40.593,M,2.8,0123*6F
$GPVTG,057.23,T,-582.67,M,006.109,N,011.313,K,D*09
$GPGGA,094503.05,5703.4717867,N,00952.3260404,E,2,11,0.8,-2.346,M,40.593,M,1.5,0123*62
$GPVTG,056.91,T,-582.99,M,006.184,N,011.453,K,D*06
$GPGGA,094503.10,5703.4718341,N,00952.3261718,E,2,11,0.8,-2.360,M,40.593,M,1.5,0123*6D
$GPVTG,056.55,T,-583.35,M,006.232,N,011.542,K,D*06
$GPGGA,094503.15,5703.4718800,N,00952.3263027,E,2,11,0.8,-2.373,M,40.593,M,1.5,0123*6D
$GPVTG,056.67,T,-583.23,M,006.216,N,011.513,K,D*02
$GPGGA,094503.20,5703.4719246,N,00952.3264295,E,2,11,0.8,-2.382,M,40.593,M,1.5,0123*60
$GPVTG,056.68,T,-583.22,M,006.101,N,011.299,K,D*0C
$GPGGA,094503.25,5703.4719662,N,00952.3265539,E,2,11,0.8,-2.377,M,40.593,M,1.8,0123*60
$GPVTG,057.32,T,-582.58,M,005.920,N,010.964,K,D*0E
$GPGGA,094503.30,5703.4720078,N,00952.3266762,E,2,11,0.8,-2.368,M,40.593,M,1.8,0123*62
$GPVTG,057.59,T,-582.31,M,005.760,N,010.668,K,D*05
$GPGGA,094503.35,5703.4720500,N,00952.3267999,E,2,11,0.8,-2.362,M,40.593,M,1.8,0123*6C
$GPVTG,057.81,T,-582.09,M,005.695,N,010.547,K,D*0E
$GPGGA,094503.40,5703.4720903,N,00952.3269252,E,2,11,0.8,-2.355,M,40.593,M,1.8,0123*67
$GPVTG,058.71,T,-581.19,M,005.658,N,010.479,K,D*01
$GPGGA,094503.45,5703.4721316,N,00952.3270497,E,2,11,0.8,-2.344,M,40.593,M,2.0,0123*61
$GPVTG,058.97,T,-580.93,M,005.649,N,010.463,K,D*01
$GPGGA,094503.50,5703.4721732,N,00952.3271761,E,2,11,0.8,-2.340,M,40.593,M,2.0,0123*68
$GPVTG,059.21,T,-580.69,M,005.694,N,010.546,K,D*0E
$GPGGA,094503.55,5703.4722162,N,00952.3273055,E,2,11,0.8,-2.339,M,40.593,M,2.0,0123*61
$GPVTG,059.23,T,-580.67,M,005.809,N,010.758,K,D*05
$GPGGA,094503.60,5703.4722601,N,00952.3274371,E,2,11,0.8,-2.339,M,40.593,M,2.0,0123*67
$GPVTG,059.15,T,-580.75,M,005.948,N,011.015,K,D*08
$GPGGA,094503.65,5703.4723016,N,00952.3275703,E,2,11,0.8,-2.345,M,40.593,M,2.2,0123*6A
$GPVTG,059.79,T,-580.11,M,006.028,N,011.164,K,D*0B
$GPGGA,094503.70,5703.4723444,N,00952.3277016,E,2,11,0.8,-2.353,M,40.593,M,2.2,0123*6B
$GPVTG,059.69,T,-580.21,M,006.056,N,011.216,K,D*06
$GPGGA,094503.75,5703.4723875,N,00952.3278311,E,2,11,0.8,-2.358,M,40.593,M,2.2,0123*60
$GPVTG,059.27,T,-580.63,M,006.040,N,011.186,K,D*07
$GPGGA,094503.80,5703.4724312,N,00952.3279589,E,2,11,0.8,-2.364,M,40.593,M,2.2,0123*6E
$GPVTG,058.61,T,-581.29,M,006.001,N,011.113,K,D*02
$GPGGA,094503.85,5703.4724750,N,00952.3280870,E,2,11,0.8,-2.363,M,40.593,M,2.4,0123*65
$GPVTG,058.18,T,-581.72,M,005.979,N,011.073,K,D*00
$GPGGA,094503.90,5703.4725186,N,00952.3282139,E,2,11,0.8,-2.365,M,40.593,M,2.4,0123*6D
$GPVTG,057.79,T,-582.11,M,005.936,N,010.994,K,D*04
$GPGGA,094503.95,5703.4725642,N,00952.3283399,E,2,11,0.8,-2.368,M,40.593,M,2.4,0123*63
$GPVTG,056.94,T,-582.96,M,005.931,N,010.985,K,D*0E
$GPGGA,094504.00,5703.4726092,N,00952.3284657,E,2,11,0.8,-2.371,M,40.593,M,2.4,0123*68
$GPVTG,056.50,T,-583.40,M,005.918,N,010.961,K,D*0D
$GPGGA,094504.05,5703.4726533,N,00952.3285932,E,2,11,0.8,-2.372,M,40.593,M,2.7,0123*6E
$GPVTG,056.73,T,-583.17,M,005.917,N,010.958,K,D*0B
$GPGGA,094504.10,5703.4726960,N,00952.3287210,E,2,11,0.8,-2.377,M,40.593,M,2.7,0123*6C
$GPVTG,057.38,T,-582.52,M,005.906,N,010.937,K,D*0C
$GPGGA,094504.15,5703.4727400,N,00952.3288487,E,2,11,0.8,-2.381,M,40.593,M,2.7,0123*6D
$GPVTG,057.50,T,-582.40,M,005.921,N,010.965,K,D*03
$GPGGA,094504.20,5703.4727836,N,00952.3289786,E,2,11,0.8,-2.382,M,40.593,M,2.7,0123*62
$GPVTG,057.96,T,-581.94,M,005.963,N,011.044,K,D*0E
$GPGGA,094504.25,5703.4728264,N,00952.3291054,E,2,11,0.8,-2.380,M,40.593,M,2.9,0123*68
$GPVTG,058.14,T,-581.76,M,005.921,N,010.965,K,D*0A
$GPGGA,094504.30,5703.4728685,N,00952.3292317,E,2,11,0.8,-2.378,M,40.593,M,2.9,0123*67
$GPVTG,058.39,T,-581.51,M,005.868,N,010.868,K,D*00
$GPGGA,094504.35,5703.4729104,N,00952.3293574,E,2,11,0.8,-2.373,M,40.593,M,2.9,0123*64
$GPVTG,058.57,T,-581.33,M,005.819,N,010.777,K,D*0B
$GPGGA,094504.40,5703.4729520,N,00952.3294837,E,2,11,0.8,-2.366,M,40.593,M,2.9,0123*6D
$GPVTG,058.82,T,-581.08,M,005.794,N,010.731,K,D*03
$GPGGA,094504.45,5703.4729941,N,00952.3296091,E,2,11,0.8,-2.357,M,40.593,M,3.1,0123*6E
$GPVTG,058.77,T,-581.13,M,005.770,N,010.686,K,D*04
$GPGGA,094504.50,5703.4730349,N,00952.3297354,E,2,11,0.8,-2.351,M,40.593,M,3.1,0123*6D
$GPVTG,059.14,T,-580.76,M,005.755,N,010.659,K,D*07
$GPGGA,094504.55,5703.4730750,N,00952.3298625,E,2,11,0.8,-2.342,M,40.593,M,3.1,0123*6A
$GPVTG,059.68,T,-580.22,M,005.752,N,010.652,K,D*01
$GPGGA,094504.60,5703.4731152,N,00952.3299890,E,2,11,0.8,-2.336,M,40.593,M,3.1,0123*6B
$GPVTG,059.92,T,-579.98,M,005.741,N,010.632,K,D*07
$GPGGA,094504.65,5703.4731574,N,00952.3301163,E,2,11,0.8,-2.335,M,40.593,M,3.3,0123*6A
$GPVTG,059.53,T,-580.37,M,005.787,N,010.718,K,D*0A
$GPGGA,094504.70,5703.4732008,N,00952.3302450,E,2,11,0.8,-2.337,M,40.593,M,3.3,0123*67
$GPVTG,059.03,T,-580.87,M,005.869,N,010.869,K,D*02
$GPGGA,094504.75,5703.4732445,N,00952.3303755,E,2,11,0.8,-2.341,M,40.593,M,3.3,0123*69
$GPVTG,058.75,T,-581.15,M,005.961,N,011.039,K,D*0D
$GPGGA,094504.80,5703.4732896,N,00952.3305079,E,2,11,0.8,-2.348,M,40.593,M,3.3,0123*67
$GPVTG,058.37,T,-581.53,M,006.077,N,011.255,K,D*0C
$GPGGA,094504.85,5703.4733351,N,00952.3306399,E,2,11,0.8,-2.359,M,40.593,M,3.5,0123*6B
$GPVTG,057.99,T,-581.91,M,006.149,N,011.388,K,D*04
$GPGGA,094504.90,5703.4733817,N,00952.3307724,E,2,11,0.8,-2.377,M,40.593,M,3.5,0123*69
$GPVTG,057.47,T,-582.43,M,006.217,N,011.513,K,D*07
$GPGGA,094504.95,5703.4734289,N,00952.3309049,E,2,11,0.8,-2.392,M,40.593,M,3.5,0123*6F
$GPVTG,056.97,T,-582.93,M,006.266,N,011.604,K,D*05
$GPGGA,094505.00,5703.4734749,N,00952.3310390,E,2,11,0.8,-2.402,M,40.593,M,3.5,0123*6A
$GPVTG,057.12,T,-582.78,M,006.293,N,011.655,K,D*02
$GPGGA,094505.05,5703.4735177,N,00952.3311675,E,2,11,0.8,-2.409,M,40.593,M,2.0,0123*65
$GPVTG,057.48,T,-582.42,M,006.140,N,011.371,K,D*0A
$GPGGA,094505.10,5703.4735585,N,00952.3312880,E,2,11,0.8,-2.401,M,40.593,M,2.0,0123*67
$GPVTG,057.53,T,-582.37,M,005.853,N,010.839,K,D*0C
$GPGGA,094505.15,5703.4735998,N,00952.3314119,E,2,11,0.8,-2.391,M,40.593,M,2.0,0123*63
$GPVTG,057.90,T,-582.00,M,005.731,N,010.613,K,D*0A
$GPGGA,094505.20,5703.4736417,N,00952.3315384,E,2,11,0.8,-2.380,M,40.593,M,2.0,0123*6B
$GPVTG,058.34,T,-581.56,M,005.715,N,010.584,K,D*00
$GPGGA,094505.25,5703.4736839,N,00952.3316658,E,2,11,0.8,-2.373,M,40.593,M,2.2,0123*67
$GPVTG,058.64,T,-581.26,M,005.745,N,010.640,K,D*0C
$GPGGA,094505.30,5703.4737257,N,00952.3317931,E,2,11,0.8,-2.367,M,40.593,M,2.2,0123*64
$GPVTG,058.97,T,-580.93,M,005.764,N,010.674,K,D*0B
$GPGGA,094505.35,5703.4737681,N,00952.3319225,E,2,11,0.8,-2.360,M,40.593,M,2.2,0123*69
$GPVTG,059.18,T,-580.72,M,005.835,N,010.806,K,D*02
$GPGGA,094505.40,5703.4738110,N,00952.3320519,E,2,11,0.8,-2.352,M,40.593,M,2.2,0123*68
$GPVTG,059.15,T,-580.75,M,005.894,N,010.916,K,D*03
$GPGGA,094505.45,5703.4738531,N,00952.3321794,E,2,11,0.8,-2.345,M,40.593,M,2.5,0123*6D
$GPVTG,059.12,T,-580.79,M,005.884,N,010.896,K,D*00
$GPGGA,094505.50,5703.4738948,N,00952.3323099,E,2,11,0.8,-2.339,M,40.593,M,2.5,0123*68
$GPVTG,059.47,T,-580.43,M,005.924,N,010.971,K,D*0A
$GPGGA,094505.55,5703.4739361,N,00952.3324415,E,2,11,0.8,-2.335,M,40.593,M,2.5,0123*66
$GPVTG,059.91,T,-579.99,M,005.960,N,011.038,K,D*05
$GPGGA,094505.60,5703.4739779,N,00952.3325732,E,2,11,0.8,-2.334,M,40.593,M,2.5,0123*6B
$GPVTG,060.04,T,-579.86,M,005.993,N,011.099,K,D*0A
$GPGGA,094505.65,5703.4740200,N,00952.3327041,E,2,11,0.8,-2.336,M,40.593,M,2.7,0123*6A
$GPVTG,059.90,T,-580.00,M,006.000,N,011.113,K,D*06
$GPGGA,094505.70,5703.4740647,N,00952.3328364,E,2,11,0.8,-2.338,M,40.593,M,2.7,0123*6C
$GPVTG,059.19,T,-580.71,M,006.070,N,011.241,K,D*02
$GPGGA,094505.75,5703.4741090,N,00952.3329682,E,2,11,0.8,-2.345,M,40.593,M,2.7,0123*62
$GPVTG,058.74,T,-581.16,M,006.100,N,011.297,K,D*05
$GPGGA,094505.80,5703.4741540,N,00952.3330997,E,2,11,0.8,-2.352,M,40.593,M,2.7,0123*65
$GPVTG,058.18,T,-581.72,M,006.122,N,011.338,K,D*09
$GPGGA,094505.85,5703.4741994,N,00952.3332319,E,2,11,0.8,-2.355,M,40.593,M,3.0,0123*6A
$GPVTG,057.86,T,-582.04,M,006.151,N,011.393,K,D*06
$GPGGA,094505.90,5703.4742446,N,00952.3333629,E,2,11,0.8,-2.360,M,40.593,M,3.0,0123*6E
$GPVTG,057.55,T,-582.35,M,006.144,N,011.379,K,D*0A
$GPGGA,094505.95,5703.4742902,N,00952.3334941,E,2,11,0.8,-2.369,M,40.593,M,3.0,0123*69
$GPVTG,057.29,T,-582.61,M,006.144,N,011.379,K,D*00
$GPGGA,094506.00,5703.4743364,N,00952.3336223,E,2,11,0.8,-2.375,M,40.593,M,3.0,0123*6D
$GPVTG,056.67,T,-583.23,M,006.101,N,011.298,K,D*03
$GPGGA,094506.05,5703.4743819,N,00952.3337505,E,2,11,0.8,-2.383,M,40.593,M,1.8,0123*68
$GPVTG,056.45,T,-583.45,M,006.055,N,011.214,K,D*07
$GPGGA,094506.10,5703.4744248,N,00952.3338778,E,2,11,0.8,-2.380,M,40.593,M,1.8,0123*61
$GPVTG,056.99,T,-582.91,M,005.965,N,011.046,K,D*02
$GPGGA,094506.15,5703.4744663,N,00952.3340040,E,2,11,0.8,-2.374,M,40.593,M,1.8,0123*61
$GPVTG,057.76,T,-582.14,M,005.860,N,010.853,K,D*06
$GPGGA,094506.20,5703.4745081,N,00952.3341296,E,2,11,0.8,-2.365,M,40.593,M,1.8,0123*64
$GPVTG,058.20,T,-581.70,M,005.789,N,010.721,K,D*09
$GPGGA,094506.25,5703.4745476,N,00952.3342541,E,2,11,0.8,-2.347,M,40.593,M,2.1,0123*69
$GPVTG,059.10,T,-580.80,M,005.687,N,010.532,K,D*0A
$GPGGA,094506.30,5703.4745857,N,00952.3343811,E,2,11,0.8,-2.337,M,40.593,M,2.1,0123*6C
$GPVTG,060.37,T,-579.53,M,005.651,N,010.466,K,D*06
$GPGGA,094506.35,5703.4746259,N,00952.3345108,E,2,11,0.8,-2.330,M,40.593,M,2.1,0123*6E
$GPVTG,060.87,T,-579.03,M,005.721,N,010.596,K,D*00
$GPGGA,094506.40,5703.4746663,N,00952.3346434,E,2,11,0.8,-2.324,M,40.593,M,2.1,0123*6D
$GPVTG,061.35,T,-578.55,M,005.833,N,010.803,K,D*07
$GPGGA,094506.45,5703.4747082,N,00952.3347772,E,2,11,0.8,-2.326,M,40.593,M,2.3,0123*60
$GPVTG,061.18,T,-578.72,M,005.959,N,011.035,K,D*0C
$GPGGA,094506.50,5703.4747504,N,00952.3349115,E,2,11,0.8,-2.330,M,40.593,M,2.3,0123*61
$GPVTG,060.96,T,-578.94,M,006.053,N,011.211,K,D*07
$GPGGA,094506.55,5703.4747929,N,00952.3350456,E,2,11,0.8,-2.338,M,40.593,M,2.3,0123*65
$GPVTG,060.59,T,-579.31,M,006.113,N,011.320,K,D*0C
$GPGGA,094506.60,5703.4748375,N,00952.3351785,E,2,11,0.8,-2.348,M,40.593,M,2.3,0123*64
$GPVTG,059.61,T,-580.29,M,006.157,N,011.402,K,D*05
$GPGGA,094506.65,5703.4748818,N,00952.3353112,E,2,11,0.8,-2.355,M,40.593,M,2.6,0123*62
$GPVTG,058.99,T,-580.91,M,006.169,N,011.426,K,D*0B
$GPGGA,094506.70,5703.4749247,N,00952.3354430,E,2,11,0.8,-2.362,M,40.593,M,2.6,0123*61
$GPVTG,058.82,T,-581.08,M,006.130,N,011.352,K,D*08
$GPGGA,094506.75,5703.4749694,N,00952.3355720,E,2,11,0.8,-2.366,M,40.593,M,2.6,0123*69
$GPVTG,058.00,T,-581.90,M,006.080,N,011.260,K,D*09
$GPGGA,094506.80,5703.4750148,N,00952.3356974,E,2,11,0.8,-2.366,M,40.593,M,2.6,0123*61
$GPVTG,056.86,T,-583.04,M,005.993,N,011.100,K,D*0B
$GPGGA,094506.85,5703.4750601,N,00952.3358230,E,2,11,0.8,-2.370,M,40.593,M,2.8,0123*62
$GPVTG,056.23,T,-583.67,M,005.942,N,011.004,K,D*08
$GPGGA,094506.90,5703.4751044,N,00952.3359510,E,2,11,0.8,-2.375,M,40.593,M,2.8,0123*61
$GPVTG,056.44,T,-583.46,M,005.936,N,010.993,K,D*0F
$GPGGA,094506.95,5703.4751478,N,00952.3360802,E,2,11,0.8,-2.380,M,40.593,M,2.8,0123*61
$GPVTG,057.07,T,-582.83,M,005.942,N,011.004,K,D*04
$GPGGA,094507.00,5703.4751908,N,00952.3362101,E,2,11,0.8,-2.382,M,40.593,M,2.8,0123*6C
$GPVTG,057.76,T,-582.14,M,005.955,N,011.029,K,D*05
$GPGGA,094507.05,5703.4752332,N,00952.3363366,E,2,11,0.8,-2.382,M,40.593,M,1.5,0123*65
$GPVTG,058.10,T,-581.80,M,005.903,N,010.932,K,D*05
$GPGGA,094507.10,5703.4752733,N,00952.3364631,E,2,11,0.8,-2.383,M,40.593,M,1.5,0123*65
$GPVTG,058.97,T,-580.93,M,005.816,N,010.771,K,D*05
$GPGGA,094507.15,5703.4753113,N,00952.3365884,E,2,11,0.8,-2.383,M,40.593,M,1.5,0123*64
$GPVTG,060.07,T,-579.83,M,005.705,N,010.566,K,D*09
$GPGGA,094507.20,5703.4753489,N,00952.3367122,E,2,11,0.8,-2.382,M,40.593,M,1.5,0123*62
$GPVTG,060.79,T,-579.11,M,005.600,N,010.371,K,D*0F
$GPGGA,094507.25,5703.4753875,N,00952.3368370,E,2,11,0.8,-2.380,M,40.593,M,1.8,0123*6D
$GPVTG,061.09,T,-578.81,M,005.571,N,010.317,K,D*04
$GPGGA,094507.30,5703.4754267,N,00952.3369614,E,2,11,0.8,-2.386,M,40.593,M,1.8,0123*67
$GPVTG,060.93,T,-578.97,M,005.569,N,010.313,K,D*0C
$GPGGA,094507.35,5703.4754656,N,00952.3370862,E,2,11,0.8,-2.393,M,40.593,M,1.8,0123*67
$GPVTG,060.91,T,-578.99,M,005.577,N,010.329,K,D*06
$GPGGA,094507.40,5703.4755031,N,00952.3372094,E,2,11,0.8,-2.399,M,40.593,M,1.8,0123*6A
$GPVTG,061.05,T,-578.85,M,005.540,N,010.260,K,D*0F
$GPGGA,094507.45,5703.4755411,N,00952.3373309,E,2,11,0.8,-2.402,M,40.593,M,2.0,0123*61
$GPVTG,060.87,T,-579.03,M,005.493,N,010.172,K,D*04
$GPGGA,094507.50,5703.4755794,N,00952.3374493,E,2,11,0.8,-2.415,M,40.593,M,2.0,0123*6E
$GPVTG,060.19,T,-579.71,M,005.420,N,010.037,K,D*0E
$GPGGA,094507.55,5703.4756180,N,00952.3375673,E,2,11,0.8,-2.427,M,40.593,M,2.0,0123*67
$GPVTG,059.59,T,-580.31,M,005.376,N,009.956,K,D*00
$GPGGA,094507.60,5703.4756571,N,00952.3376824,E,2,11,0.8,-2.436,M,40.593,M,2.0,0123*64
$GPVTG,058.68,T,-581.22,M,005.316,N,009.844,K,D*04
$GPGGA,094507.65,5703.4756967,N,00952.3377936,E,2,11,0.8,-2.444,M,40.593,M,2.2,0123*6E
$GPVTG,057.47,T,-582.43,M,005.227,N,009.680,K,D*07
$GPGGA,094507.70,5703.4757356,N,00952.3379022,E,2,11,0.8,-2.451,M,40.593,M,2.2,0123*65
$GPVTG,056.57,T,-583.33,M,005.120,N,009.483,K,D*04
$GPGGA,094507.75,5703.4757748,N,00952.3380106,E,2,11,0.8,-2.456,M,40.593,M,2.2,0123*6D
$GPVTG,055.99,T,-583.91,M,005.065,N,009.380,K,D*09
$GPGGA,094507.80,5703.4758131,N,00952.3381188,E,2,11,0.8,-2.463,M,40.593,M,2.2,0123*61
$GPVTG,055.99,T,-583.91,M,005.023,N,009.303,K,D*00
$GPGGA,094507.85,5703.4758510,N,00952.3382269,E,2,11,0.8,-2.467,M,40.593,M,2.4,0123*6E
$GPVTG,056.23,T,-583.67,M,004.996,N,009.253,K,D*09
$GPGGA,094507.90,5703.4758887,N,00952.3383350,E,2,11,0.8,-2.471,M,40.593,M,2.4,0123*64
$GPVTG,056.60,T,-583.30,M,004.988,N,009.237,K,D*01
$GPGGA,094507.95,5703.4759262,N,00952.3384441,E,2,11,0.8,-2.479,M,40.593,M,2.4,0123*69
$GPVTG,057.06,T,-582.84,M,005.005,N,009.270,K,D*00
$GPGGA,094508.00,5703.4759621,N,00952.3385542,E,2,11,0.8,-2.486,M,40.593,M,2.4,0123*6A
$GPVTG,058.09,T,-581.81,M,005.011,N,009.280,K,D*0C
$GPGGA,094508.05,5703.4759965,N,00952.3386636,E,2,11,0.8,-2.496,M,40.593,M,2.7,0123*61
$GPVTG,059.24,T,-580.66,M,004.991,N,009.244,K,D*02
$GPGGA,094508.10,5703.4760311,N,00952.3387751,E,2,11,0.8,-2.509,M,40.593,M,2.7,0123*60
$GPVTG,060.16,T,-579.74,M,005.009,N,009.277,K,D*05
$GPGGA,094508.15,5703.4760673,N,00952.3388814,E,2,11,0.8,-2.518,M,40.593,M,2.7,0123*65
$GPVTG,059.54,T,-580.36,M,004.956,N,009.178,K,D*07
$GPGGA,094508.20,5703.4761035,N,00952.3389888,E,2,11,0.8,-2.525,M,40.593,M,2.7,0123*6C
$GPVTG,059.12,T,-580.78,M,004.943,N,009.155,K,D*04
$GPGGA,094508.25,5703.4761385,N,00952.3390961,E,2,11,0.8,-2.531,M,40.593,M,2.9,0123*64
$GPVTG,059.21,T,-580.69,M,004.916,N,009.104,K,D*00
$GPGGA,094508.30,5703.4761712,N,00952.3391988,E,2,11,0.8,-2.530,M,40.593,M,2.9,0123*6D
$GPVTG,059.46,T,-580.44,M,004.779,N,008.850,K,D*00
$GPGGA,094508.35,5703.4762032,N,00952.3392941,E,2,11,0.8,-2.521,M,40.593,M,2.9,0123*68
$GPVTG,058.89,T,-581.01,M,004.545,N,008.418,K,D*0F
$GPGGA,094508.40,5703.4762355,N,00952.3393913,E,2,11,0.8,-2.511,M,40.593,M,2.9,0123*6D
$GPVTG,058.70,T,-581.20,M,004.436,N,008.215,K,D*04
$GPGGA,094508.45,5703.4762696,N,00952.3394947,E,2,11,0.8,-2.496,M,40.593,M,3.1,0123*63
$GPVTG,058.90,T,-581.00,M,004.521,N,008.373,K,D*0E
$GPGGA,094508.50,5703.4763019,N,00952.3395924,E,2,11,0.8,-2.482,M,40.593,M,3.1,0123*66
$GPVTG,058.83,T,-581.07,M,004.466,N,008.272,K,D*09
$GPGGA,094508.55,5703.4763341,N,00952.3396887,E,2,11,0.8,-2.464,M,40.593,M,3.1,0123*6E
$GPVTG,058.63,T,-581.27,M,004.412,N,008.171,K,D*06
$GPGGA,094508.60,5703.4763669,N,00952.3397874,E,2,11,0.8,-2.451,M,40.593,M,3.1,0123*6C
$GPVTG,058.61,T,-581.29,M,004.442,N,008.226,K,D*0E
$GPGGA,094508.65,5703.4763995,N,00952.3398852,E,2,11,0.8,-2.439,M,40.593,M,3.3,0123*62
$GPVTG,058.58,T,-581.32,M,004.451,N,008.242,K,D*0E
$GPGGA,094508.70,5703.4764330,N,00952.3399860,E,2,11,0.8,-2.429,M,40.593,M,3.3,0123*65
$GPVTG,058.67,T,-581.23,M,004.534,N,008.396,K,D*08
$GPGGA,094508.75,5703.4764670,N,00952.3400902,E,2,11,0.8,-2.421,M,40.593,M,3.3,0123*6B
$GPVTG,058.98,T,-580.92,M,004.661,N,008.632,K,D*0B
$GPGGA,094508.80,5703.4765015,N,00952.3401933,E,2,11,0.8,-2.418,M,40.593,M,3.3,0123*6C
$GPVTG,058.81,T,-581.09,M,004.736,N,008.770,K,D*04
$GPGGA,094508.85,5703.4765345,N,00952.3402970,E,2,11,0.8,-2.430,M,40.593,M,3.5,0123*67
$GPVTG,059.24,T,-580.66,M,004.767,N,008.829,K,D*05
$GPGGA,094508.90,5703.4765694,N,00952.3404032,E,2,11,0.8,-2.443,M,40.593,M,3.5,0123*67
$GPVTG,059.19,T,-580.71,M,004.855,N,008.992,K,D*02
$GPGGA,094508.95,5703.4766063,N,00952.3405095,E,2,11,0.8,-2.467,M,40.593,M,3.5,0123*65
$GPVTG,058.47,T,-581.43,M,004.942,N,009.152,K,D*0A
$GPGGA,094509.00,5703.4766425,N,00952.3406132,E,2,11,0.8,-2.496,M,40.593,M,3.5,0123*6F
$GPVTG,057.84,T,-582.06,M,004.931,N,009.133,K,D*0B
$GPGGA,094509.05,5703.4766787,N,00952.3407180,E,2,11,0.8,-2.525,M,40.593,M,2.0,0123*64
$GPVTG,057.56,T,-582.34,M,004.946,N,009.161,K,D*02
$GPGGA,094509.10,5703.4767111,N,00952.3408197,E,2,11,0.8,-2.534,M,40.593,M,2.0,0123*61
$GPVTG,058.26,T,-581.64,M,004.816,N,008.918,K,D*0F
$GPGGA,094509.15,5703.4767422,N,00952.3409124,E,2,11,0.8,-2.531,M,40.593,M,2.0,0123*6D
$GPVTG,058.08,T,-581.82,M,004.535,N,008.400,K,D*03
$GPGGA,094509.20,5703.4767721,N,00952.3410032,E,2,11,0.8,-2.522,M,40.593,M,2.0,0123*67
$GPVTG,058.19,T,-581.71,M,004.296,N,007.955,K,D*03
$GPGGA,094509.25,5703.4768024,N,00952.3410962,E,2,11,0.8,-2.508,M,40.593,M,2.2,0123*69
$GPVTG,058.62,T,-581.28,M,004.191,N,007.761,K,D*0E
$GPGGA,094509.30,5703.4768316,N,00952.3411880,E,2,11,0.8,-2.494,M,40.593,M,2.2,0123*67
$GPVTG,059.19,T,-580.71,M,004.105,N,007.602,K,D*07
$GPGGA,094509.35,5703.4768618,N,00952.3412816,E,2,11,0.8,-2.477,M,40.593,M,2.2,0123*68
$GPVTG,059.50,T,-580.40,M,004.114,N,007.619,K,D*02
$GPGGA,094509.40,5703.4768914,N,00952.3413745,E,2,11,0.8,-2.458,M,40.593,M,2.2,0123*6C
$GPVTG,059.87,T,-580.03,M,004.119,N,007.628,K,D*00
$GPGGA,094509.45,5703.4769204,N,00952.3414664,E,2,11,0.8,-2.440,M,40.593,M,2.5,0123*69
$GPVTG,060.13,T,-579.77,M,004.105,N,007.602,K,D*07
$GPGGA,094509.50,5703.4769497,N,00952.3415577,E,2,11,0.8,-2.424,M,40.593,M,2.5,0123*63
$GPVTG,060.06,T,-579.84,M,004.103,N,007.598,K,D*09
$GPGGA,094509.55,5703.4769795,N,00952.3416503,E,2,11,0.8,-2.406,M,40.593,M,2.5,0123*67
$GPVTG,059.99,T,-579.91,M,004.138,N,007.664,K,D*09
$GPGGA,094509.60,5703.4770098,N,00952.3417452,E,2,11,0.8,-2.394,M,40.593,M,2.5,0123*6B
$GPVTG,060.03,T,-579.87,M,004.221,N,007.818,K,D*09
$GPGGA,094509.65,5703.4770404,N,00952.3418401,E,2,11,0.8,-2.385,M,40.593,M,2.7,0123*64
$GPVTG,059.89,T,-580.01,M,004.284,N,007.934,K,D*09
$GPGGA,094509.70,5703.4770719,N,00952.3419355,E,2,11,0.8,-2.386,M,40.593,M,2.7,0123*6B
$GPVTG,059.43,T,-580.47,M,004.350,N,008.056,K,D*07
$GPGGA,094509.75,5703.4771048,N,00952.3420321,E,2,11,0.8,-2.392,M,40.593,M,2.7,0123*60
$GPVTG,058.76,T,-581.14,M,004.435,N,008.214,K,D*07
$GPGGA,094509.80,5703.4771378,N,00952.3421287,E,2,11,0.8,-2.405,M,40.593,M,2.7,0123*6F
$GPVTG,058.25,T,-581.65,M,004.492,N,008.320,K,D*0C
$GPGGA,094509.85,5703.4771707,N,00952.3422238,E,2,11,0.8,-2.430,M,40.593,M,3.0,0123*61
$GPVTG,057.66,T,-582.24,M,004.498,N,008.330,K,D*09
$GPGGA,094509.90,5703.4772040,N,00952.3423203,E,2,11,0.8,-2.447,M,40.593,M,3.0,0123*6B
$GPVTG,057.41,T,-582.49,M,004.523,N,008.376,K,D*04
$GPGGA,094509.95,5703.4772354,N,00952.3424159,E,2,11,0.8,-2.456,M,40.593,M,3.0,0123*63
$GPVTG,057.82,T,-582.08,M,004.481,N,008.298,K,D*06
$GPGGA,094510.00,5703.4772644,N,00952.3425056,E,2,11,0.8,-2.461,M,40.593,M,3.0,0123*68
$GPVTG,058.25,T,-581.65,M,004.301,N,007.966,K,D*06
$GPGGA,094510.05,5703.4772938,N,00952.3425936,E,2,11,0.8,-2.478,M,40.593,M,1.8,0123*64
$GPVTG,058.23,T,-581.67,M,004.165,N,007.714,K,D*09
$GPGGA,094510.10,5703.4773231,N,00952.3426806,E,2,11,0.8,-2.478,M,40.593,M,1.8,0123*62
$GPVTG,058.16,T,-581.74,M,004.046,N,007.493,K,D*01
$GPGGA,094510.15,5703.4773525,N,00952.3427657,E,2,11,0.8,-2.478,M,40.593,M,1.8,0123*6E
$GPVTG,057.81,T,-582.09,M,003.946,N,007.309,K,D*03
$GPGGA,094510.20,5703.4773827,N,00952.3428502,E,2,11,0.8,-2.472,M,40.593,M,1.8,0123*61
$GPVTG,057.19,T,-582.71,M,003.899,N,007.221,K,D*05
$GPGGA,094510.25,5703.4774125,N,00952.3429345,E,2,11,0.8,-2.459,M,40.593,M,2.1,0123*6F
$GPVTG,057.10,T,-582.80,M,003.862,N,007.153,K,D*00
$GPGGA,094510.30,5703.4774407,N,00952.3430197,E,2,11,0.8,-2.448,M,40.593,M,2.1,0123*6B
$GPVTG,057.74,T,-582.16,M,003.849,N,007.129,K,D*09
$GPGGA,094510.35,5703.4774686,N,00952.3431043,E,2,11,0.8,-2.442,M,40.593,M,2.1,0123*66
$GPVTG,058.31,T,-581.59,M,003.834,N,007.101,K,D*0F
$GPGGA,094510.40,5703.4774971,N,00952.3431872,E,2,11,0.8,-2.435,M,40.593,M,2.1,0123*69
$GPVTG,058.17,T,-581.73,M,003.812,N,007.060,K,D*01
$GPGGA,094510.45,5703.4775253,N,00952.3432715,E,2,11,0.8,-2.421,M,40.593,M,2.3,0123*6C
$GPVTG,058.33,T,-581.57,M,003.828,N,007.090,K,D*07
$GPGGA,094510.50,5703.4775541,N,00952.3433553,E,2,11,0.8,-2.414,M,40.593,M,2.3,0123*6B
$GPVTG,058.16,T,-581.74,M,003.844,N,007.118,K,D*0A
$GPGGA,094510.55,5703.4775832,N,00952.3434383,E,2,11,0.8,-2.409,M,40.593,M,2.3,0123*67
$GPVTG,057.79,T,-582.11,M,003.850,N,007.131,K,D*02
$GPGGA,094510.60,5703.4776135,N,00952.3435223,E,2,11,0.8,-2.406,M,40.593,M,2.3,0123*69
$GPVTG,057.15,T,-582.75,M,003.899,N,007.220,K,D*0C
$GPGGA,094510.65,5703.4776427,N,00952.3436072,E,2,11,0.8,-2.408,M,40.593,M,2.6,0123*64
$GPVTG,057.36,T,-582.54,M,003.926,N,007.271,K,D*0F
$GPGGA,094510.70,5703.4776710,N,00952.3436937,E,2,11,0.8,-2.415,M,40.593,M,2.6,0123*63
$GPVTG,058.11,T,-581.79,M,003.959,N,007.331,K,D*04
$GPGGA,094510.75,5703.4777003,N,00952.3437792,E,2,11,0.8,-2.423,M,40.593,M,2.6,0123*67
$GPVTG,058.08,T,-581.82,M,003.977,N,007.365,K,D*05
$GPGGA,094510.80,5703.4777283,N,00952.3438625,E,2,11,0.8,-2.427,M,40.593,M,2.6,0123*61
$GPVTG,058.20,T,-581.70,M,003.925,N,007.269,K,D*08
$GPGGA,094510.85,5703.4777570,N,00952.3439428,E,2,11,0.8,-2.433,M,40.593,M,2.8,0123*6A
$GPVTG,057.48,T,-582.42,M,003.847,N,007.125,K,D*05
$GPGGA,094510.90,5703.4777849,N,00952.3440218,E,2,11,0.8,-2.432,M,40.593,M,2.8,0123*63
$GPVTG,057.11,T,-582.79,M,003.756,N,006.956,K,D*03
$GPGGA,094510.95,5703.4778127,N,00952.3440997,E,2,11,0.8,-2.432,M,40.593,M,2.8,0123*64
$GPVTG,056.77,T,-583.13,M,003.678,N,006.812,K,D*03
$GPGGA,094511.00,5703.4778390,N,00952.3441771,E,2,11,0.8,-2.432,M,40.593,M,2.8,0123*60
$GPVTG,057.13,T,-582.77,M,003.599,N,006.665,K,D*01
$GPGGA,094511.05,5703.4778671,N,00952.3442539,E,2,11,0.8,-2.431,M,40.593,M,1.5,0123*6F
$GPVTG,056.79,T,-583.11,M,003.566,N,006.605,K,D*0B
$GPGGA,094511.10,5703.4778960,N,00952.3443307,E,2,11,0.8,-2.425,M,40.593,M,1.5,0123*6B
$GPVTG,056.03,T,-583.87,M,003.580,N,006.631,K,D*06
$GPGGA,094511.15,5703.4779239,N,00952.3444069,E,2,11,0.8,-2.424,M,40.593,M,1.5,0123*65
$GPVTG,055.85,T,-584.05,M,003.570,N,006.612,K,D*08
$GPGGA,094511.20,5703.4779504,N,00952.3444840,E,2,11,0.8,-2.418,M,40.593,M,1.5,0123*66
$GPVTG,056.57,T,-583.33,M,003.560,N,006.593,K,D*0D
$GPGGA,094511.25,5703.4779757,N,00952.3445604,E,2,11,0.8,-2.421,M,40.593,M,1.8,0123*6F
$GPVTG,057.54,T,-582.36,M,003.525,N,006.528,K,D*0A
$GPGGA,094511.30,5703.4780024,N,00952.3446372,E,2,11,0.8,-2.423,M,40.593,M,1.8,0123*6B
$GPVTG,057.71,T,-582.19,M,003.534,N,006.545,K,D*0B
$GPGGA,094511.35,5703.4780293,N,00952.3447130,E,2,11,0.8,-2.425,M,40.593,M,1.8,0123*63
$GPVTG,057.47,T,-582.43,M,003.532,N,006.542,K,D*00
$GPGGA,094511.40,5703.4780559,N,00952.3447892,E,2,11,0.8,-2.426,M,40.593,M,1.8,0123*62
$GPVTG,057.52,T,-582.38,M,003.535,N,006.547,K,D*0A
$GPGGA,094511.45,5703.4780824,N,00952.3448662,E,2,11,0.8,-2.430,M,40.593,M,2.0,0123*62
$GPVTG,057.73,T,-582.17,M,003.552,N,006.579,K,D*08
$GPGGA,094511.50,5703.4781104,N,00952.3449430,E,2,11,0.8,-2.435,M,40.593,M,2.0,0123*6D
$GPVTG,057.10,T,-582.80,M,003.590,N,006.649,K,D*0D
$GPGGA,094511.55,5703.4781390,N,00952.3450203,E,2,11,0.8,-2.442,M,40.593,M,2.0,0123*69
$GPVTG,056.48,T,-583.42,M,003.635,N,006.731,K,D*0C
$GPGGA,094511.60,5703.4781674,N,00952.3450973,E,2,11,0.8,-2.455,M,40.593,M,2.0,0123*6A
$GPVTG,056.08,T,-583.82,M,003.658,N,006.774,K,D*0E
$GPGGA,094511.65,5703.4781954,N,00952.3451750,E,2,11,0.8,-2.470,M,40.593,M,2.2,0123*69
$GPVTG,056.15,T,-583.75,M,003.673,N,006.802,K,D*0D
$GPGGA,094511.70,5703.4782245,N,00952.3452516,E,2,11,0.8,-2.481,M,40.593,M,2.2,0123*68
$GPVTG,055.56,T,-584.34,M,003.681,N,006.818,K,D*0D
$GPGGA,094511.75,5703.4782518,N,00952.3453286,E,2,11,0.8,-2.486,M,40.593,M,2.2,0123*6A
$GPVTG,056.00,T,-583.90,M,003.660,N,006.778,K,D*02
$GPGGA,094511.80,5703.4782769,N,00952.3454005,E,2,11,0.8,-2.487,M,40.593,M,2.2,0123*6B
$GPVTG,056.37,T,-583.53,M,003.512,N,006.505,K,D*07
$GPGGA,094511.85,5703.4783024,N,00952.3454712,E,2,11,0.8,-2.487,M,40.593,M,2.4,0123*66
$GPVTG,056.27,T,-583.63,M,003.401,N,006.299,K,D*04
$GPGGA,094511.90,5703.4783273,N,00952.3455438,E,2,11,0.8,-2.485,M,40.593,M,2.4,0123*6A
$GPVTG,057.00,T,-582.90,M,003.350,N,006.205,K,D*0B
$GPGGA,094511.95,5703.4783523,N,00952.3456145,E,2,11,0.8,-2.480,M,40.593,M,2.4,0123*64
$GPVTG,057.09,T,-582.81,M,003.294,N,006.100,K,D*0D
$GPGGA,094512.00,5703.4783773,N,00952.3456853,E,2,11,0.8,-2.470,M,40.593,M,2.4,0123*6D
$GPVTG,057.17,T,-582.73,M,003.267,N,006.050,K,D*07
$GPGGA,094512.05,5703.4784028,N,00952.3457547,E,2,11,0.8,-2.461,M,40.593,M,2.7,0123*6C
$GPVTG,056.96,T,-582.94,M,003.236,N,005.993,K,D*07
$GPGGA,094512.10,5703.4784284,N,00952.3458255,E,2,11,0.8,-2.453,M,40.593,M,2.7,0123*66
$GPVTG,056.78,T,-583.12,M,003.257,N,006.033,K,D*0F
$GPGGA,094512.15,5703.4784546,N,00952.3458941,E,2,11,0.8,-2.445,M,40.593,M,2.7,0123*63
$GPVTG,055.92,T,-583.98,M,003.254,N,006.026,K,D*0D
$GPGGA,094512.20,5703.4784801,N,00952.3459636,E,2,11,0.8,-2.436,M,40.593,M,2.7,0123*61
$GPVTG,055.87,T,-584.03,M,003.258,N,006.033,K,D*04
$GPGGA,094512.25,5703.4785056,N,00952.3460321,E,2,11,0.8,-2.427,M,40.593,M,2.9,0123*68
$GPVTG,055.67,T,-584.23,M,003.247,N,006.014,K,D*03
$GPGGA,094512.30,5703.4785336,N,00952.3461002,E,2,11,0.8,-2.420,M,40.593,M,2.9,0123*6D
$GPVTG,054.27,T,-585.63,M,003.285,N,006.084,K,D*04
$GPGGA,094512.35,5703.4785612,N,00952.3461705,E,2,11,0.8,-2.419,M,40.593,M,2.9,0123*61
$GPVTG,053.96,T,-585.94,M,003.348,N,006.200,K,D*0F
$GPGGA,094512.40,5703.4785891,N,00952.3462415,E,2,11,0.8,-2.421,M,40.593,M,2.9,0123*6C
$GPVTG,053.87,T,-586.03,M,003.407,N,006.309,K,D*06
$GPGGA,094512.45,5703.4786177,N,00952.3463132,E,2,11,0.8,-2.425,M,40.593,M,3.1,0123*67
$GPVTG,053.71,T,-586.19,M,003.464,N,006.416,K,D*08
$GPGGA,094512.50,5703.4786471,N,00952.3463855,E,2,11,0.8,-2.434,M,40.593,M,3.1,0123*68
$GPVTG,053.35,T,-586.55,M,003.533,N,006.543,K,D*02
$GPGGA,094512.55,5703.4786754,N,00952.3464569,E,2,11,0.8,-2.444,M,40.593,M,3.1,0123*6B
$GPVTG,053.40,T,-586.50,M,003.535,N,006.546,K,D*06
$GPGGA,094512.60,5703.4787012,N,00952.3465303,E,2,11,0.8,-2.449,M,40.593,M,3.1,0123*6F
$GPVTG,054.97,T,-584.93,M,003.512,N,006.505,K,D*04
$GPGGA,094512.65,5703.4787260,N,00952.3466016,E,2,11,0.8,-2.450,M,40.593,M,3.3,0123*63
$GPVTG,056.19,T,-583.71,M,003.436,N,006.363,K,D*0A
$GPGGA,094512.70,5703.4787506,N,00952.3466662,E,2,11,0.8,-2.447,M,40.593,M,3.3,0123*63
$GPVTG,055.82,T,-584.08,M,003.258,N,006.034,K,D*0D
$GPGGA,094512.75,5703.4787759,N,00952.3467324,E,2,11,0.8,-2.443,M,40.593,M,3.3,0123*6C
$GPVTG,055.50,T,-584.40,M,003.184,N,005.896,K,D*0F
$GPGGA,094512.80,5703.4788009,N,00952.3468005,E,2,11,0.8,-2.441,M,40.593,M,3.3,0123*66
$GPVTG,055.86,T,-584.04,M,003.166,N,005.864,K,D*05
$GPGGA,094512.85,5703.4788257,N,00952.3468665,E,2,11,0.8,-2.441,M,40.593,M,3.5,0123*6C
$GPVTG,055.69,T,-584.21,M,003.130,N,005.796,K,D*02
$GPGGA,094512.90,5703.4788512,N,00952.3469337,E,2,11,0.8,-2.439,M,40.593,M,3.5,0123*62
$GPVTG,055.58,T,-584.32,M,003.141,N,005.818,K,D*0D
$GPGGA,094512.95,5703.4788778,N,00952.3470017,E,2,11,0.8,-2.436,M,40.593,M,3.5,0123*6F
$GPVTG,055.04,T,-584.86,M,003.195,N,005.916,K,D*0D
$GPGGA,094513.00,5703.4789038,N,00952.3470702,E,2,11,0.8,-2.437,M,40.593,M,3.5,0123*62
$GPVTG,055.10,T,-584.80,M,003.232,N,005.985,K,D*0A
$GPGGA,094513.05,5703.4789302,N,00952.3471376,E,2,11,0.8,-2.438,M,40.593,M,2.0,0123*60
$GPVTG,054.95,T,-584.95,M,003.238,N,005.997,K,D*0B
$GPGGA,094513.10,5703.4789570,N,00952.3472057,E,2,11,0.8,-2.443,M,40.593,M,2.0,0123*68
$GPVTG,054.61,T,-585.29,M,003.272,N,006.060,K,D*0A
$GPGGA,094513.15,5703.4789839,N,00952.3472728,E,2,11,0.8,-2.451,M,40.593,M,2.0,0123*61
$GPVTG,054.02,T,-585.88,M,003.279,N,006.073,K,D*0D
$GPGGA,094513.20,5703.4790116,N,00952.3473384,E,2,11,0.8,-2.458,M,40.593,M,2.0,0123*61
$GPVTG,052.95,T,-586.95,M,003.276,N,006.067,K,D*00
$GPGGA,094513.25,5703.4790379,N,00952.3474066,E,2,11,0.8,-2.469,M,40.593,M,2.2,0123*67
$GPVTG,053.46,T,-586.44,M,003.291,N,006.095,K,D*07
$GPGGA,094513.30,5703.4790640,N,00952.3474725,E,2,11,0.8,-2.465,M,40.593,M,2.2,0123*60
$GPVTG,053.49,T,-586.41,M,003.253,N,006.025,K,D*08
$GPGGA,094513.35,5703.4790883,N,00952.3475360,E,2,11,0.8,-2.459,M,40.593,M,2.2,0123*6F
$GPVTG,053.95,T,-585.95,M,003.151,N,005.836,K,D*0B
$GPGGA,094513.40,5703.4791139,N,00952.3475996,E,2,11,0.8,-2.453,M,40.593,M,2.2,0123*6D
$GPVTG,053.74,T,-586.16,M,003.107,N,005.753,K,D*03
$GPGGA,094513.45,5703.4791401,N,00952.3476604,E,2,11,0.8,-2.442,M,40.593,M,2.5,0123*66
$GPVTG,052.64,T,-587.26,M,003.051,N,005.650,K,D*01
$GPGGA,094513.50,5703.4791655,N,00952.3477212,E,2,11,0.8,-2.433,M,40.593,M,2.5,0123*65
$GPVTG,052.31,T,-587.59,M,003.000,N,005.556,K,D*08
$GPGGA,094513.55,5703.4791901,N,00952.3477819,E,2,11,0.8,-2.426,M,40.593,M,2.5,0123*6B
$GPVTG,052.55,T,-587.35,M,002.960,N,005.481,K,D*05
$GPGGA,094513.60,5703.4792148,N,00952.3478435,E,2,11,0.8,-2.419,M,40.593,M,2.5,0123*6A
$GPVTG,052.99,T,-586.91,M,002.955,N,005.474,K,D*06
$GPGGA,094513.65,5703.4792392,N,00952.3479046,E,2,11,0.8,-2.409,M,40.593,M,2.7,0123*68
$GPVTG,053.33,T,-586.57,M,002.946,N,005.456,K,D*0F
$GPGGA,094513.70,5703.4792637,N,00952.3479648,E,2,11,0.8,-2.400,M,40.593,M,2.7,0123*67
$GPVTG,053.39,T,-586.51,M,002.929,N,005.425,K,D*0E
$GPGGA,094513.75,5703.4792882,N,00952.3480248,E,2,11,0.8,-2.394,M,40.593,M,2.7,0123*6A
$GPVTG,053.34,T,-586.56,M,002.921,N,005.409,K,D*02
$GPGGA,094513.80,5703.4793136,N,00952.3480846,E,2,11,0.8,-2.387,M,40.593,M,2.7,0123*61
$GPVTG,052.78,T,-587.12,M,002.935,N,005.435,K,D*00
$GPGGA,094513.85,5703.4793385,N,00952.3481446,E,2,11,0.8,-2.378,M,40.593,M,3.0,0123*65
$GPVTG,052.55,T,-587.35,M,002.945,N,005.454,K,D*0A
$GPGGA,094513.90,5703.4793648,N,00952.3482049,E,2,11,0.8,-2.377,M,40.593,M,3.0,0123*62
$GPVTG,051.88,T,-588.02,M,002.986,N,005.530,K,D*0E
$GPGGA,094513.95,5703.4793908,N,00952.3482670,E,2,11,0.8,-2.383,M,40.593,M,3.0,0123*6B
$GPVTG,052.06,T,-587.84,M,003.039,N,005.628,K,D*0C
$GPGGA,094514.00,5703.4794157,N,00952.3483305,E,2,11,0.8,-2.391,M,40.593,M,3.0,0123*60
$GPVTG,053.10,T,-586.80,M,003.073,N,005.691,K,D*03
$GPGGA,094514.05,5703.4794417,N,00952.3483939,E,2,11,0.8,-2.404,M,40.593,M,1.8,0123*60
$GPVTG,053.41,T,-586.49,M,003.106,N,005.752,K,D*0F
$GPGGA,094514.10,5703.4794675,N,00952.3484558,E,2,11,0.8,-2.413,M,40.593,M,1.8,0123*68
$GPVTG,053.10,T,-586.80,M,003.104,N,005.749,K,D*06
$GPGGA,094514.15,5703.4794938,N,00952.3485171,E,2,11,0.8,-2.425,M,40.593,M,1.8,0123*60
$GPVTG,052.46,T,-587.44,M,003.095,N,005.733,K,D*09
$GPGGA,094514.20,5703.4795191,N,00952.3485790,E,2,11,0.8,-2.437,M,40.593,M,1.8,0123*66
$GPVTG,052.73,T,-587.17,M,003.077,N,005.698,K,D*05
$GPGGA,094514.25,5703.4795428,N,00952.3486415,E,2,11,0.8,-2.454,M,40.593,M,2.1,0123*66
$GPVTG,053.75,T,-586.15,M,003.046,N,005.641,K,D*07
$GPGGA,094514.30,5703.4795679,N,00952.3487027,E,2,11,0.8,-2.464,M,40.593,M,2.1,0123*63
$GPVTG,053.52,T,-586.38,M,003.023,N,005.598,K,D*09
$GPGGA,094514.35,5703.4795922,N,00952.3487635,E,2,11,0.8,-2.471,M,40.593,M,2.1,0123*66
$GPVTG,053.69,T,-586.21,M,002.986,N,005.531,K,D*0D
$GPGGA,094514.40,5703.4796165,N,00952.3488222,E,2,11,0.8,-2.479,M,40.593,M,2.1,0123*69
$GPVTG,053.27,T,-586.63,M,002.929,N,005.425,K,D*00
$GPGGA,094514.45,5703.4796403,N,00952.3488799,E,2,11,0.8,-2.485,M,40.593,M,2.3,0123*6D
$GPVTG,052.98,T,-586.92,M,002.867,N,005.310,K,D*01
$GPGGA,094514.50,5703.4796653,N,00952.3489363,E,2,11,0.8,-2.484,M,40.593,M,2.3,0123*6F
$GPVTG,051.88,T,-588.02,M,002.834,N,005.248,K,D*0E
$GPGGA,094514.55,5703.4796891,N,00952.3489936,E,2,11,0.8,-2.483,M,40.593,M,2.3,0123*67
$GPVTG,051.98,T,-587.92,M,002.808,N,005.200,K,D*0A
$GPGGA,094514.60,5703.4797137,N,00952.3490499,E,2,11,0.8,-2.478,M,40.593,M,2.3,0123*61
$GPVTG,051.46,T,-588.44,M,002.799,N,005.183,K,D*02
$GPGGA,094514.65,5703.4797391,N,00952.3491034,E,2,11,0.8,-2.466,M,40.593,M,2.6,0123*62
$GPVTG,050.13,T,-589.77,M,002.764,N,005.119,K,D*03
$GPGGA,094514.70,5703.4797630,N,00952.3491580,E,2,11,0.8,-2.458,M,40.593,M,2.6,0123*6F
$GPVTG,050.24,T,-589.66,M,002.739,N,005.073,K,D*02
$GPGGA,094514.75,5703.4797868,N,00952.3492121,E,2,11,0.8,-2.449,M,40.593,M,2.6,0123*65
$GPVTG,050.31,T,-589.59,M,002.717,N,005.032,K,D*03
$GPGGA,094514.80,5703.4798105,N,00952.3492676,E,2,11,0.8,-2.441,M,40.593,M,2.6,0123*6F
$GPVTG,050.96,T,-588.94,M,002.728,N,005.052,K,D*04
$GPGGA,094514.85,5703.4798344,N,00952.3493236,E,2,11,0.8,-2.434,M,40.593,M,2.8,0123*60
$GPVTG,051.48,T,-588.42,M,002.750,N,005.093,K,D*0F
$GPGGA,094514.90,5703.4798581,N,00952.3493792,E,2,11,0.8,-2.427,M,40.593,M,2.8,0123*62
$GPVTG,051.79,T,-588.11,M,002.761,N,005.113,K,D*00
$GPGGA,094514.95,5703.4798834,N,00952.3494333,E,2,11,0.8,-2.422,M,40.593,M,2.8,0123*69
$GPVTG,050.74,T,-589.16,M,002.775,N,005.139,K,D*07
$GPGGA,094515.00,5703.4799088,N,00952.3494884,E,2,11,0.8,-2.418,M,40.593,M,2.8,0123*64
$GPVTG,050.22,T,-589.68,M,002.806,N,005.197,K,D*02
$GPGGA,094515.05,5703.4799341,N,00952.3495435,E,2,11,0.8,-2.418,M,40.593,M,1.5,0123*6E
$GPVTG,050.13,T,-589.77,M,002.825,N,005.232,K,D*03
$GPGGA,094515.10,5703.4799595,N,00952.3496000,E,2,11,0.8,-2.420,M,40.593,M,1.5,0123*6F
$GPVTG,050.16,T,-589.74,M,002.862,N,005.301,K,D*07
$GPGGA,094515.15,5703.4799853,N,00952.3496572,E,2,11,0.8,-2.425,M,40.593,M,1.5,0123*68
$GPVTG,050.26,T,-589.64,M,002.904,N,005.377,K,D*05
$GPGGA,094515.20,5703.4800116,N,00952.3497156,E,2,11,0.8,-2.430,M,40.593,M,1.5,0123*6E
$GPVTG,050.30,T,-589.60,M,002.961,N,005.484,K,D*0E
$GPGGA,094515.25,5703.4800377,N,00952.3497732,E,2,11,0.8,-2.437,M,40.593,M,1.8,0123*60
$GPVTG,050.24,T,-589.66,M,002.978,N,005.515,K,D*0C
$GPGGA,094515.30,5703.4800635,N,00952.3498299,E,2,11,0.8,-2.443,M,40.593,M,1.8,0123*6F
$GPVTG,050.11,T,-589.79,M,002.961,N,005.484,K,D*05
$GPGGA,094515.35,5703.4800890,N,00952.3498870,E,2,11,0.8,-2.450,M,40.593,M,1.8,0123*64
$GPVTG,050.31,T,-589.59,M,002.944,N,005.452,K,D*09
$GPGGA,094515.40,5703.4801135,N,00952.3499406,E,2,11,0.8,-2.450,M,40.593,M,1.8,0123*6D
$GPVTG,050.02,T,-589.88,M,002.851,N,005.281,K,D*08
$GPGGA,094515.45,5703.4801370,N,00952.3499943,E,2,11,0.8,-2.450,M,40.593,M,2.0,0123*6C
$GPVTG,050.36,T,-589.54,M,002.773,N,005.136,K,D*0E
$GPGGA,094515.50,5703.4801605,N,00952.3500478,E,2,11,0.8,-2.449,M,40.593,M,2.0,0123*63
$GPVTG,050.69,T,-589.21,M,002.715,N,005.028,K,D*08
$GPGGA,094515.55,5703.4801839,N,00952.3501015,E,2,11,0.8,-2.446,M,40.593,M,2.0,0123*66
$GPVTG,051.07,T,-588.83,M,002.681,N,004.965,K,D*05
$GPGGA,094515.60,5703.4802074,N,00952.3501554,E,2,11,0.8,-2.442,M,40.593,M,2.0,0123*66
$GPVTG,051.39,T,-588.51,M,002.670,N,004.945,K,D*0B
$GPGGA,094515.65,5703.4802309,N,00952.3502093,E,2,11,0.8,-2.439,M,40.593,M,2.2,0123*69
$GPVTG,051.48,T,-588.42,M,002.672,N,004.949,K,D*01
$GPGGA,094515.70,5703.4802546,N,00952.3502625,E,2,11,0.8,-2.433,M,40.593,M,2.2,0123*61
$GPVTG,051.27,T,-588.63,M,002.670,N,004.945,K,D*05
$GPGGA,094515.75,5703.4802783,N,00952.3503150,E,2,11,0.8,-2.429,M,40.593,M,2.2,0123*60
$GPVTG,050.92,T,-588.98,M,002.659,N,004.924,K,D*02
$GPGGA,094515.80,5703.4803008,N,00952.3503668,E,2,11,0.8,-2.425,M,40.593,M,2.2,0123*6F
$GPVTG,051.11,T,-588.79,M,002.622,N,004.856,K,D*0F
$GPGGA,094515.85,5703.4803233,N,00952.3504203,E,2,11,0.8,-2.418,M,40.593,M,2.4,0123*66
$GPVTG,051.85,T,-588.05,M,002.621,N,004.855,K,D*09
$GPGGA,094515.90,5703.4803470,N,00952.3504729,E,2,11,0.8,-2.416,M,40.593,M,2.4,0123*60
$GPVTG,051.34,T,-588.56,M,002.638,N,004.886,K,D*03
$GPGGA,094515.95,5703.4803713,N,00952.3505257,E,2,11,0.8,-2.416,M,40.593,M,2.4,0123*6E
$GPVTG,050.67,T,-589.23,M,002.671,N,004.946,K,D*07
$GPGGA,094516.00,5703.4803955,N,00952.3505796,E,2,11,0.8,-2.419,M,40.593,M,2.4,0123*6A
$GPVTG,050.59,T,-589.31,M,002.708,N,005.016,K,D*0B
$GPGGA,094516.05,5703.4804199,N,00952.3506348,E,2,11,0.8,-2.422,M,40.593,M,2.7,0123*6F
$GPVTG,050.90,T,-589.00,M,002.761,N,005.113,K,D*07
$GPGGA,094516.10,5703.4804434,N,00952.3506902,E,2,11,0.8,-2.423,M,40.593,M,2.7,0123*6C
$GPVTG,051.41,T,-588.49,M,002.778,N,005.145,K,D*0D
$GPGGA,094516.15,5703.4804676,N,00952.3507441,E,2,11,0.8,-2.426,M,40.593,M,2.7,0123*63
$GPVTG,051.13,T,-588.77,M,002.778,N,005.144,K,D*06
$GPGGA,094516.20,5703.4804921,N,00952.3507973,E,2,11,0.8,-2.432,M,40.593,M,2.7,0123*61
$GPVTG,050.59,T,-589.31,M,002.776,N,005.141,K,D*01
$GPGGA,094516.25,5703.4805171,N,00952.3508507,E,2,11,0.8,-2.443,M,40.593,M,2.9,0123*60
$GPVTG,050.09,T,-589.81,M,002.781,N,005.150,K,D*07
$GPGGA,094516.30,5703.4805416,N,00952.3509046,E,2,11,0.8,-2.449,M,40.593,M,2.9,0123*6B
$GPVTG,050.00,T,-589.90,M,002.784,N,005.155,K,D*0E
$GPGGA,094516.35,5703.4805663,N,00952.3509565,E,2,11,0.8,-2.451,M,40.593,M,2.9,0123*63
$GPVTG,049.52,T,-590.38,M,002.767,N,005.125,K,D*01
$GPGGA,094516.40,5703.4805907,N,00952.3510077,E,2,11,0.8,-2.454,M,40.593,M,2.9,0123*67
$GPVTG,049.14,T,-590.76,M,002.743,N,005.080,K,D*01
$GPGGA,094516.45,5703.4806136,N,00952.3510565,E,2,11,0.8,-2.460,M,40.593,M,3.1,0123*63
$GPVTG,048.90,T,-591.00,M,002.687,N,004.976,K,D*04
$GPGGA,094516.50,5703.4806364,N,00952.3511035,E,2,11,0.8,-2.456,M,40.593,M,3.1,0123*66
$GPVTG,048.52,T,-591.38,M,002.621,N,004.854,K,D*0C
$GPGGA,094516.55,5703.4806592,N,00952.3511510,E,2,11,0.8,-2.450,M,40.593,M,3.1,0123*68
$GPVTG,048.28,T,-591.62,M,002.574,N,004.767,K,D*02
$GPGGA,094516.60,5703.4806822,N,00952.3511987,E,2,11,0.8,-2.440,M,40.593,M,3.1,0123*6B
$GPVTG,048.07,T,-591.83,M,002.542,N,004.708,K,D*0C
$GPGGA,094516.65,5703.4807048,N,00952.3512453,E,2,11,0.8,-2.428,M,40.593,M,3.3,0123*60
$GPVTG,047.92,T,-591.98,M,002.503,N,004.636,K,D*0C
$GPGGA,094516.70,5703.4807272,N,00952.3512923,E,2,11,0.8,-2.422,M,40.593,M,3.3,0123*6F
$GPVTG,047.90,T,-592.00,M,002.473,N,004.579,K,D*02
$GPGGA,094516.75,5703.4807487,N,00952.3513398,E,2,11,0.8,-2.415,M,40.593,M,3.3,0123*69
$GPVTG,048.26,T,-591.64,M,002.444,N,004.526,K,D*0F
$GPGGA,094516.80,5703.4807710,N,00952.3513873,E,2,11,0.8,-2.405,M,40.593,M,3.3,0123*61
$GPVTG,048.36,T,-591.54,M,002.429,N,004.499,K,D*03
$GPGGA,094516.85,5703.4807932,N,00952.3514336,E,2,11,0.8,-2.397,M,40.593,M,3.5,0123*6D
$GPVTG,048.29,T,-591.61,M,002.411,N,004.465,K,D*03
$GPGGA,094516.90,5703.4808149,N,00952.3514809,E,2,11,0.8,-2.392,M,40.593,M,3.5,0123*60
$GPVTG,048.58,T,-591.32,M,002.398,N,004.441,K,D*03
$GPGGA,094516.95,5703.4808372,N,00952.3515305,E,2,11,0.8,-2.390,M,40.593,M,3.5,0123*6B
$GPVTG,049.07,T,-590.83,M,002.414,N,004.470,K,D*02
$GPGGA,094517.00,5703.4808607,N,00952.3515816,E,2,11,0.8,-2.392,M,40.593,M,3.5,0123*6A
$GPVTG,049.34,T,-590.57,M,002.454,N,004.545,K,D*08
$GPGGA,094517.05,5703.4808840,N,00952.3516330,E,2,11,0.8,-2.394,M,40.593,M,2.0,0123*6C
$GPVTG,049.76,T,-590.14,M,002.488,N,004.607,K,D*0D
$GPGGA,094517.10,5703.4809070,N,00952.3516836,E,2,11,0.8,-2.404,M,40.593,M,2.0,0123*61
$GPVTG,049.98,T,-589.92,M,002.511,N,004.651,K,D*09
$GPGGA,094517.15,5703.4809301,N,00952.3517363,E,2,11,0.8,-2.414,M,40.593,M,2.0,0123*6A
$GPVTG,050.47,T,-589.43,M,002.547,N,004.718,K,D*00
$GPGGA,094517.20,5703.4809533,N,00952.3517878,E,2,11,0.8,-2.427,M,40.593,M,2.0,0123*6A
$GPVTG,050.61,T,-589.29,M,002.571,N,004.762,K,D*00
$GPGGA,094517.25,5703.4809772,N,00952.3518394,E,2,11,0.8,-2.448,M,40.593,M,2.2,0123*65
$GPVTG,050.52,T,-589.38,M,002.599,N,004.814,K,D*08
$GPGGA,094517.30,5703.4810007,N,00952.3518913,E,2,11,0.8,-2.460,M,40.593,M,2.2,0123*63
$GPVTG,050.60,T,-589.30,M,002.620,N,004.853,K,D*03
$GPGGA,094517.35,5703.4810241,N,00952.3519413,E,2,11,0.8,-2.474,M,40.593,M,2.2,0123*6F
$GPVTG,050.40,T,-589.50,M,002.621,N,004.854,K,D*01
$GPGGA,094517.40,5703.4810473,N,00952.3519902,E,2,11,0.8,-2.493,M,40.593,M,2.2,0123*6E
$GPVTG,050.13,T,-589.77,M,002.610,N,004.834,K,D*06
$GPGGA,094517.45,5703.4810704,N,00952.3520403,E,2,11,0.8,-2.507,M,40.593,M,2.5,0123*65
$GPVTG,050.10,T,-589.80,M,002.609,N,004.832,K,D*03
$GPGGA,094517.50,5703.4810934,N,00952.3520899,E,2,11,0.8,-2.515,M,40.593,M,2.5,0123*60
$GPVTG,049.99,T,-589.91,M,002.602,N,004.819,K,D*08
$GPGGA,094517.55,5703.4811167,N,00952.3521389,E,2,11,0.8,-2.523,M,40.593,M,2.5,0123*64
$GPVTG,049.72,T,-590.18,M,002.594,N,004.803,K,D*03
$GPGGA,094517.60,5703.4811399,N,00952.3521865,E,2,11,0.8,-2.528,M,40.593,M,2.5,0123*63
$GPVTG,049.32,T,-590.58,M,002.574,N,004.767,K,D*00
$GPGGA,094517.65,5703.4811609,N,00952.3522309,E,2,11,0.8,-2.523,M,40.593,M,2.7,0123*61
$GPVTG,049.12,T,-590.78,M,002.508,N,004.646,K,D*09
$GPGGA,094517.70,5703.4811823,N,00952.3522741,E,2,11,0.8,-2.511,M,40.593,M,2.7,0123*6A
$GPVTG,048.63,T,-591.27,M,002.448,N,004.534,K,D*06
$GPGGA,094517.75,5703.4812034,N,00952.3523174,E,2,11,0.8,-2.496,M,40.593,M,2.7,0123*6D
$GPVTG,048.33,T,-591.57,M,002.395,N,004.436,K,D*00
$GPGGA,094517.80,5703.4812246,N,00952.3523600,E,2,11,0.8,-2.479,M,40.593,M,2.7,0123*65
$GPVTG,047.93,T,-591.97,M,002.348,N,004.348,K,D*07
$GPGGA,094517.85,5703.4812453,N,00952.3524007,E,2,11,0.8,-2.451,M,40.593,M,3.0,0123*68
$GPVTG,047.48,T,-592.42,M,002.288,N,004.238,K,D*01
$GPGGA,094517.90,5703.4812661,N,00952.3524390,E,2,11,0.8,-2.431,M,40.593,M,3.0,0123*64
$GPVTG,046.63,T,-593.27,M,002.224,N,004.118,K,D*0C
$GPGGA,094517.95,5703.4812872,N,00952.3524798,E,2,11,0.8,-2.410,M,40.593,M,3.0,0123*62
$GPVTG,046.26,T,-593.64,M,002.193,N,004.061,K,D*0A
$GPGGA,094518.00,5703.4813085,N,00952.3525202,E,2,11,0.8,-2.387,M,40.593,M,3.0,0123*6E
$GPVTG,045.85,T,-594.05,M,002.170,N,004.018,K,D*03
$GPGGA,094518.05,5703.4813306,N,00952.3525594,E,2,11,0.8,-2.353,M,40.593,M,1.8,0123*68
$GPVTG,045.27,T,-594.63,M,002.149,N,003.981,K,D*0F
$GPGGA,094518.10,5703.4813527,N,00952.3525993,E,2,11,0.8,-2.335,M,40.593,M,1.8,0123*62
$GPVTG,044.74,T,-595.16,M,002.148,N,003.979,K,D*0D
$GPGGA,094518.15,5703.4813753,N,00952.3526394,E,2,11,0.8,-2.321,M,40.593,M,1.8,0123*6D
$GPVTG,044.28,T,-595.62,M,002.166,N,004.012,K,D*08
$GPGGA,094518.20,5703.4813982,N,00952.3526806,E,2,11,0.8,-2.310,M,40.593,M,1.8,0123*6B
$GPVTG,044.21,T,-595.69,M,002.212,N,004.097,K,D*07
$GPGGA,094518.25,5703.4814216,N,00952.3527243,E,2,11,0.8,-2.316,M,40.593,M,2.1,0123*69
$GPVTG,044.70,T,-595.20,M,002.311,N,004.279,K,D*0E
$GPGGA,094518.30,5703.4814461,N,00952.3527673,E,2,11,0.8,-2.325,M,40.593,M,2.1,0123*6C
$GPVTG,044.27,T,-595.63,M,002.393,N,004.432,K,D*08
$GPGGA,094518.35,5703.4814716,N,00952.3528126,E,2,11,0.8,-2.341,M,40.593,M,2.1,0123*60
$GPVTG,044.25,T,-595.65,M,002.506,N,004.640,K,D*01
$GPGGA,094518.40,5703.4814966,N,00952.3528606,E,2,11,0.8,-2.365,M,40.593,M,2.1,0123*68
$GPVTG,045.28,T,-594.62,M,002.605,N,004.825,K,D*06
$GPGGA,094518.45,5703.4815209,N,00952.3529098,E,2,11,0.8,-2.402,M,40.593,M,2.3,0123*6A
$GPVTG,046.51,T,-593.39,M,002.667,N,004.939,K,D*0A
$GPGGA,094518.50,5703.4815447,N,00952.3529627,E,2,11,0.8,-2.437,M,40.593,M,2.3,0123*66
$GPVTG,048.76,T,-591.14,M,002.737,N,005.070,K,D*0D
$GPGGA,094518.55,5703.4815686,N,00952.3530136,E,2,11,0.8,-2.471,M,40.593,M,2.3,0123*61
$GPVTG,049.47,T,-590.43,M,002.744,N,005.082,K,D*04
$GPGGA,094518.60,5703.4815910,N,00952.3530645,E,2,11,0.8,-2.503,M,40.593,M,2.3,0123*60
$GPVTG,050.64,T,-589.26,M,002.700,N,005.001,K,D*0D
$GPGGA,094518.65,5703.4816125,N,00952.3531106,E,2,11,0.8,-2.536,M,40.593,M,2.6,0123*6A
$GPVTG,050.30,T,-589.60,M,002.572,N,004.763,K,D*0B
$GPGGA,094518.70,5703.4816314,N,00952.3531496,E,2,11,0.8,-2.548,M,40.593,M,2.6,0123*6B
$GPVTG,049.44,T,-590.46,M,002.301,N,004.261,K,D*09
$GPGGA,094518.75,5703.4816484,N,00952.3531874,E,2,11,0.8,-2.549,M,40.593,M,2.6,0123*61
$GPVTG,049.70,T,-590.20,M,002.055,N,003.806,K,D*00
$GPGGA,094518.80,5703.4816673,N,00952.3532268,E,2,11,0.8,-2.543,M,40.593,M,2.6,0123*6F
$GPVTG,049.30,T,-590.60,M,001.971,N,003.650,K,D*01
$GPGGA,094518.85,5703.4816864,N,00952.3532640,E,2,11,0.8,-2.519,M,40.593,M,2.8,0123*6D
$GPVTG,048.19,T,-591.71,M,001.899,N,003.516,K,D*0C
$GPGGA,094518.90,5703.4817063,N,00952.3533005,E,2,11,0.8,-2.505,M,40.593,M,2.8,0123*6C
$GPVTG,046.38,T,-593.52,M,001.886,N,003.493,K,D*00
