$GPGGA,094333.00,5703.4161470,N,00952.1610261,E,2,11,0.8,-2.133,M,40.593,M,3.5,0123*69
$GPVTG,068.12,T,-571.78,M,006.367,N,011.791,K,D*01
$GPGGA,094333.05,5703.4161793,N,00952.1611757,E,2,11,0.8,-2.148,M,40.593,M,2.1,0123*6A
$GPVTG,068.04,T,-571.86,M,006.405,N,011.863,K,D*06
$GPGGA,094333.10,5703.4162111,N,00952.1613243,E,2,11,0.8,-2.163,M,40.593,M,2.1,0123*6A
$GPVTG,068.09,T,-571.81,M,006.378,N,011.812,K,D*07
$GPGGA,094333.15,5703.4162418,N,00952.1614682,E,2,11,0.8,-2.170,M,40.593,M,2.1,0123*6F
$GPVTG,068.12,T,-571.78,M,006.248,N,011.571,K,D*01
$GPGGA,094333.20,5703.4162706,N,00952.1616083,E,2,11,0.8,-2.171,M,40.593,M,2.1,0123*61
$GPVTG,068.49,T,-571.41,M,006.056,N,011.216,K,D*0E
$GPGGA,094333.25,5703.4162992,N,00952.1617467,E,2,11,0.8,-2.173,M,40.593,M,2.3,0123*68
$GPVTG,068.71,T,-571.19,M,005.896,N,010.920,K,D*00
$GPGGA,094333.30,5703.4163278,N,00952.1618853,E,2,11,0.8,-2.161,M,40.593,M,2.3,0123*65
$GPVTG,068.95,T,-570.95,M,005.802,N,010.745,K,D*0F
$GPGGA,094333.35,5703.4163562,N,00952.1620233,E,2,11,0.8,-2.150,M,40.593,M,2.3,0123*69
$GPVTG,069.19,T,-570.71,M,005.740,N,010.631,K,D*0B
$GPGGA,094333.40,5703.4163843,N,00952.1621632,E,2,11,0.8,-2.141,M,40.593,M,2.3,0123*61
$GPVTG,069.59,T,-570.31,M,005.748,N,010.645,K,D*00
$GPGGA,094333.45,5703.4164130,N,00952.1623034,E,2,11,0.8,-2.128,M,40.593,M,2.6,0123*66
$GPVTG,069.72,T,-570.18,M,005.778,N,010.701,K,D*00
$GPGGA,094333.50,5703.4164405,N,00952.1624436,E,2,11,0.8,-2.118,M,40.593,M,2.6,0123*63
$GPVTG,070.12,T,-569.78,M,005.795,N,010.733,K,D*02
$GPGGA,094333.55,5703.4164690,N,00952.1625862,E,2,11,0.8,-2.111,M,40.593,M,2.6,0123*6D
$GPVTG,070.19,T,-569.71,M,005.873,N,010.877,K,D*08
$GPGGA,094333.60,5703.4164984,N,00952.1627301,E,2,11,0.8,-2.108,M,40.593,M,2.6,0123*65
$GPVTG,070.03,T,-569.87,M,005.964,N,011.045,K,D*05
$GPGGA,094333.65,5703.4165298,N,00952.1628760,E,2,11,0.8,-2.114,M,40.593,M,2.9,0123*69
$GPVTG,069.43,T,-570.47,M,006.086,N,011.271,K,D*0E
$GPGGA,094333.70,5703.4165627,N,00952.1630217,E,2,11,0.8,-2.118,M,40.593,M,2.9,0123*6D
$GPVTG,068.51,T,-571.39,M,006.177,N,011.440,K,D*0F
$GPGGA,094333.75,5703.4165955,N,00952.1631685,E,2,11,0.8,-2.127,M,40.593,M,2.9,0123*60
$GPVTG,067.99,T,-571.91,M,006.250,N,011.575,K,D*07
$GPGGA,094333.80,5703.4166289,N,00952.1633154,E,2,11,0.8,-2.138,M,40.593,M,2.9,0123*64
$GPVTG,067.47,T,-572.43,M,006.300,N,011.668,K,D*03
$GPGGA,094333.85,5703.4166612,N,00952.1634644,E,2,11,0.8,-2.150,M,40.593,M,3.1,0123*61
$GPVTG,067.59,T,-572.31,M,006.350,N,011.761,K,D*04
$GPGGA,094333.90,5703.4166931,N,00952.1636112,E,2,11,0.8,-2.162,M,40.593,M,3.1,0123*6C
$GPVTG,067.70,T,-572.20,M,006.323,N,011.711,K,D*0C
$GPGGA,094333.95,5703.4167241,N,00952.1637572,E,2,11,0.8,-2.170,M,40.593,M,3.1,0123*64
$GPVTG,067.99,T,-571.91,M,006.268,N,011.608,K,D*05
$GPGGA,094334.00,5703.4167514,N,00952.1639006,E,2,11,0.8,-2.176,M,40.593,M,3.1,0123*66
$GPVTG,069.11,T,-570.79,M,006.130,N,011.352,K,D*08
$GPGGA,094334.05,5703.4167798,N,00952.1640427,E,2,11,0.8,-2.179,M,40.593,M,1.7,0123*67
$GPVTG,069.67,T,-570.23,M,006.028,N,011.165,K,D*08
$GPGGA,094334.10,5703.4168082,N,00952.1641834,E,2,11,0.8,-2.173,M,40.593,M,1.7,0123*65
$GPVTG,069.85,T,-570.05,M,005.929,N,010.981,K,D*08
$GPGGA,094334.15,5703.4168364,N,00952.1643212,E,2,11,0.8,-2.161,M,40.593,M,1.7,0123*64
$GPVTG,069.82,T,-570.08,M,005.812,N,010.764,K,D*0E
$GPGGA,094334.20,5703.4168651,N,00952.1644588,E,2,11,0.8,-2.148,M,40.593,M,1.7,0123*69
$GPVTG,069.60,T,-570.30,M,005.745,N,010.640,K,D*03
$GPGGA,094334.25,5703.4168935,N,00952.1645955,E,2,11,0.8,-2.136,M,40.593,M,1.9,0123*6B
$GPVTG,069.42,T,-570.48,M,005.695,N,010.548,K,D*0B
$GPGGA,094334.30,5703.4169203,N,00952.1647343,E,2,11,0.8,-2.125,M,40.593,M,1.9,0123*6D
$GPVTG,070.00,T,-569.90,M,005.696,N,010.549,K,D*0A
$GPGGA,094334.35,5703.4169480,N,00952.1648758,E,2,11,0.8,-2.113,M,40.593,M,1.9,0123*61
$GPVTG,070.27,T,-569.63,M,005.775,N,010.695,K,D*0D
$GPGGA,094334.40,5703.4169778,N,00952.1650176,E,2,11,0.8,-2.105,M,40.593,M,1.9,0123*63
$GPVTG,069.83,T,-570.07,M,005.866,N,010.863,K,D*0B
$GPGGA,094334.45,5703.4170083,N,00952.1651608,E,2,11,0.8,-2.102,M,40.593,M,2.2,0123*6D
$GPVTG,069.35,T,-570.55,M,005.965,N,011.047,K,D*0C
$GPGGA,094334.50,5703.4170406,N,00952.1653071,E,2,11,0.8,-2.108,M,40.593,M,2.2,0123*60
$GPVTG,068.67,T,-571.23,M,006.111,N,011.318,K,D*0B
$GPGGA,094334.55,5703.4170741,N,00952.1654553,E,2,11,0.8,-2.120,M,40.593,M,2.2,0123*6D
$GPVTG,068.01,T,-571.89,M,006.258,N,011.590,K,D*03
$GPGGA,094334.60,5703.4171089,N,00952.1656041,E,2,11,0.8,-2.133,M,40.593,M,2.2,0123*6F
$GPVTG,067.24,T,-572.66,M,006.373,N,011.802,K,D*07
$GPGGA,094334.65,5703.4171429,N,00952.1657545,E,2,11,0.8,-2.151,M,40.593,M,2.4,0123*66
$GPVTG,067.02,T,-572.88,M,006.458,N,011.959,K,D*02
$GPGGA,094334.70,5703.4171765,N,00952.1659032,E,2,11,0.8,-2.167,M,40.593,M,2.4,0123*67
$GPVTG,066.94,T,-572.96,M,006.459,N,011.961,K,D*09
$GPGGA,094334.75,5703.4172072,N,00952.1660497,E,2,11,0.8,-2.179,M,40.593,M,2.4,0123*6E
$GPVTG,067.54,T,-572.36,M,006.364,N,011.787,K,D*01
$GPGGA,094334.80,5703.4172380,N,00952.1661894,E,2,11,0.8,-2.180,M,40.593,M,2.4,0123*62
$GPVTG,067.55,T,-572.35,M,006.156,N,011.402,K,D*0E
$GPGGA,094334.85,5703.4172705,N,00952.1663251,E,2,11,0.8,-2.174,M,40.593,M,2.7,0123*67
$GPVTG,066.79,T,-573.11,M,005.958,N,011.034,K,D*02
$GPGGA,094334.90,5703.4173005,N,00952.1664603,E,2,11,0.8,-2.164,M,40.593,M,2.7,0123*60
$GPVTG,066.98,T,-572.92,M,005.792,N,010.727,K,D*0B
$GPGGA,094334.95,5703.4173289,N,00952.1665996,E,2,11,0.8,-2.153,M,40.593,M,2.7,0123*65
$GPVTG,068.06,T,-571.84,M,005.754,N,010.656,K,D*0B
$GPGGA,094335.00,5703.4173560,N,00952.1667389,E,2,11,0.8,-2.142,M,40.593,M,2.7,0123*6E
$GPVTG,069.27,T,-570.63,M,005.731,N,010.614,K,D*04
$GPGGA,094335.05,5703.4173839,N,00952.1668795,E,2,11,0.8,-2.133,M,40.593,M,1.6,0123*68
$GPVTG,069.93,T,-569.97,M,005.776,N,010.698,K,D*0F
$GPGGA,094335.10,5703.4174128,N,00952.1670213,E,2,11,0.8,-2.127,M,40.593,M,1.6,0123*65
$GPVTG,070.09,T,-569.81,M,005.842,N,010.820,K,D*06
$GPGGA,094335.15,5703.4174412,N,00952.1671643,E,2,11,0.8,-2.123,M,40.593,M,1.6,0123*68
$GPVTG,070.38,T,-569.52,M,005.909,N,010.943,K,D*00
$GPGGA,094335.20,5703.4174712,N,00952.1673096,E,2,11,0.8,-2.120,M,40.593,M,1.6,0123*62
$GPVTG,070.16,T,-569.74,M,006.017,N,011.144,K,D*03
$GPGGA,094335.25,5703.4175021,N,00952.1674561,E,2,11,0.8,-2.119,M,40.593,M,1.8,0123*6F
$GPVTG,069.74,T,-570.16,M,006.124,N,011.342,K,D*06
$GPGGA,094335.30,5703.4175322,N,00952.1676024,E,2,11,0.8,-2.121,M,40.593,M,1.8,0123*66
$GPVTG,069.62,T,-570.28,M,006.175,N,011.436,K,D*0C
$GPGGA,094335.35,5703.4175630,N,00952.1677482,E,2,11,0.8,-2.126,M,40.593,M,1.8,0123*6B
$GPVTG,069.27,T,-570.63,M,006.196,N,011.475,K,D*08
$GPGGA,094335.40,5703.4175945,N,00952.1678940,E,2,11,0.8,-2.132,M,40.593,M,1.8,0123*6D
$GPVTG,068.81,T,-571.09,M,006.209,N,011.499,K,D*0F
$GPGGA,094335.45,5703.4176261,N,00952.1680419,E,2,11,0.8,-2.138,M,40.593,M,2.0,0123*61
$GPVTG,068.65,T,-571.25,M,006.253,N,011.581,K,D*0C
$GPGGA,094335.50,5703.4176596,N,00952.1681890,E,2,11,0.8,-2.147,M,40.593,M,2.0,0123*6E
$GPVTG,067.95,T,-571.95,M,006.284,N,011.638,K,D*0C
$GPGGA,094335.55,5703.4176941,N,00952.1683329,E,2,11,0.8,-2.154,M,40.593,M,2.0,0123*64
$GPVTG,066.93,T,-572.97,M,006.251,N,011.577,K,D*0A
$GPGGA,094335.60,5703.4177272,N,00952.1684762,E,2,11,0.8,-2.161,M,40.593,M,2.0,0123*62
$GPVTG,066.59,T,-573.31,M,006.196,N,011.474,K,D*0B
$GPGGA,094335.65,5703.4177594,N,00952.1686179,E,2,11,0.8,-2.167,M,40.593,M,2.3,0123*63
$GPVTG,066.65,T,-573.25,M,006.112,N,011.319,K,D*01
$GPGGA,094335.70,5703.4177913,N,00952.1687570,E,2,11,0.8,-2.164,M,40.593,M,2.3,0123*6B
$GPVTG,066.62,T,-573.28,M,006.004,N,011.120,K,D*05
$GPGGA,094335.75,5703.4178210,N,00952.1688953,E,2,11,0.8,-2.158,M,40.593,M,2.3,0123*64
$GPVTG,067.25,T,-572.65,M,005.893,N,010.914,K,D*04
$GPGGA,094335.80,5703.4178514,N,00952.1690326,E,2,11,0.8,-2.150,M,40.593,M,2.3,0123*64
$GPVTG,067.48,T,-572.42,M,005.815,N,010.770,K,D*08
$GPGGA,094335.85,5703.4178818,N,00952.1691709,E,2,11,0.8,-2.144,M,40.593,M,2.5,0123*6B
$GPVTG,067.76,T,-572.14,M,005.794,N,010.730,K,D*04
$GPGGA,094335.90,5703.4179121,N,00952.1693111,E,2,11,0.8,-2.135,M,40.593,M,2.5,0123*66
$GPVTG,068.15,T,-571.75,M,005.828,N,010.794,K,D*0C
$GPGGA,094335.95,5703.4179421,N,00952.1694531,E,2,11,0.8,-2.128,M,40.593,M,2.5,0123*6B
$GPVTG,068.62,T,-571.28,M,005.892,N,010.912,K,D*05
$GPGGA,094336.00,5703.4179713,N,00952.1695946,E,2,11,0.8,-2.123,M,40.593,M,2.5,0123*60
$GPVTG,069.10,T,-570.80,M,005.919,N,010.963,K,D*06
$GPGGA,094336.05,5703.4180003,N,00952.1697359,E,2,11,0.8,-2.127,M,40.593,M,2.7,0123*65
$GPVTG,069.40,T,-570.50,M,005.947,N,011.013,K,D*0A
$GPGGA,094336.10,5703.4180295,N,00952.1698808,E,2,11,0.8,-2.126,M,40.593,M,2.7,0123*6D
$GPVTG,069.80,T,-570.10,M,006.021,N,011.152,K,D*0C
$GPGGA,094336.15,5703.4180593,N,00952.1700259,E,2,11,0.8,-2.125,M,40.593,M,2.7,0123*64
$GPVTG,069.83,T,-570.07,M,006.079,N,011.258,K,D*0D
$GPGGA,094336.20,5703.4180897,N,00952.1701690,E,2,11,0.8,-2.127,M,40.593,M,2.7,0123*69
$GPVTG,069.48,T,-570.42,M,006.080,N,011.260,K,D*06
$GPGGA,094336.25,5703.4181225,N,00952.1703123,E,2,11,0.8,-2.125,M,40.593,M,2.9,0123*6F
$GPVTG,068.61,T,-571.29,M,006.103,N,011.303,K,D*0E
$GPGGA,094336.30,5703.4181559,N,00952.1704568,E,2,11,0.8,-2.128,M,40.593,M,2.9,0123*66
$GPVTG,067.77,T,-572.13,M,006.152,N,011.393,K,D*01
$GPGGA,094336.35,5703.4181888,N,00952.1706003,E,2,11,0.8,-2.131,M,40.593,M,2.9,0123*60
$GPVTG,067.28,T,-572.62,M,006.157,N,011.402,K,D*07
$GPGGA,094336.40,5703.4182197,N,00952.1707423,E,2,11,0.8,-2.135,M,40.593,M,2.9,0123*65
$GPVTG,067.43,T,-572.47,M,006.100,N,011.296,K,D*04
$GPGGA,094336.45,5703.4182527,N,00952.1708827,E,2,11,0.8,-2.142,M,40.593,M,3.1,0123*61
$GPVTG,066.85,T,-573.05,M,006.056,N,011.216,K,D*02
$GPGGA,094336.50,5703.4182864,N,00952.1710236,E,2,11,0.8,-2.144,M,40.593,M,3.1,0123*6A
$GPVTG,066.35,T,-573.55,M,006.045,N,011.196,K,D*05
$GPGGA,094336.55,5703.4183199,N,00952.1711643,E,2,11,0.8,-2.145,M,40.593,M,3.1,0123*63
$GPVTG,066.11,T,-573.79,M,006.035,N,011.176,K,D*04
$GPGGA,094336.60,5703.4183528,N,00952.1713049,E,2,11,0.8,-2.142,M,40.593,M,3.1,0123*62
$GPVTG,066.16,T,-573.74,M,006.020,N,011.149,K,D*06
$GPGGA,094336.65,5703.4183835,N,00952.1714438,E,2,11,0.8,-2.144,M,40.593,M,3.3,0123*67
$GPVTG,066.70,T,-573.20,M,005.953,N,011.024,K,D*03
$GPGGA,094336.70,5703.4184143,N,00952.1715820,E,2,11,0.8,-2.144,M,40.593,M,3.3,0123*68
$GPVTG,067.13,T,-572.77,M,005.894,N,010.915,K,D*04
$GPGGA,094336.75,5703.4184457,N,00952.1717224,E,2,11,0.8,-2.144,M,40.593,M,3.3,0123*61
$GPVTG,067.43,T,-572.47,M,005.911,N,010.947,K,D*09
$GPGGA,094336.80,5703.4184777,N,00952.1718644,E,2,11,0.8,-2.145,M,40.593,M,3.3,0123*66
$GPVTG,067.62,T,-572.28,M,005.966,N,011.048,K,D*04
$GPGGA,094336.85,5703.4185098,N,00952.1720093,E,2,11,0.8,-2.153,M,40.593,M,3.5,0123*62
$GPVTG,067.84,T,-572.06,M,006.064,N,011.231,K,D*04
$GPGGA,094336.90,5703.4185422,N,00952.1721557,E,2,11,0.8,-2.157,M,40.593,M,3.5,0123*6B
$GPVTG,068.01,T,-571.89,M,006.160,N,011.409,K,D*0A
$GPGGA,094336.95,5703.4185732,N,00952.1723007,E,2,11,0.8,-2.166,M,40.593,M,3.5,0123*6C
$GPVTG,068.41,T,-571.49,M,006.174,N,011.435,K,D*08
$GPGGA,094337.00,5703.4186053,N,00952.1724444,E,2,11,0.8,-2.173,M,40.593,M,3.5,0123*62
$GPVTG,068.22,T,-571.68,M,006.162,N,011.413,K,D*0D
$GPGGA,094337.05,5703.4186353,N,00952.1725876,E,2,11,0.8,-2.175,M,40.593,M,2.1,0123*6B
$GPVTG,068.68,T,-571.22,M,006.125,N,011.344,K,D*0B
$GPGGA,094337.10,5703.4186650,N,00952.1727278,E,2,11,0.8,-2.173,M,40.593,M,2.1,0123*69
$GPVTG,068.80,T,-571.10,M,006.020,N,011.149,K,D*07
$GPGGA,094337.15,5703.4186937,N,00952.1728664,E,2,11,0.8,-2.165,M,40.593,M,2.1,0123*63
$GPVTG,069.05,T,-570.85,M,005.906,N,010.938,K,D*07
$GPGGA,094337.20,5703.4187225,N,00952.1730028,E,2,11,0.8,-2.151,M,40.593,M,2.1,0123*6C
$GPVTG,069.07,T,-570.83,M,005.792,N,010.727,K,D*00
$GPGGA,094337.25,5703.4187528,N,00952.1731360,E,2,11,0.8,-2.131,M,40.593,M,2.3,0123*69
$GPVTG,068.49,T,-571.41,M,005.673,N,010.506,K,D*0B
$GPGGA,094337.30,5703.4187835,N,00952.1732714,E,2,11,0.8,-2.115,M,40.593,M,2.3,0123*6E
$GPVTG,067.99,T,-571.91,M,005.660,N,010.483,K,D*0A
$GPGGA,094337.35,5703.4188140,N,00952.1734115,E,2,11,0.8,-2.101,M,40.593,M,2.3,0123*6B
$GPVTG,068.09,T,-571.81,M,005.757,N,010.661,K,D*06
$GPGGA,094337.40,5703.4188455,N,00952.1735534,E,2,11,0.8,-2.097,M,40.593,M,2.3,0123*60
$GPVTG,067.98,T,-571.92,M,005.881,N,010.891,K,D*06
$GPGGA,094337.45,5703.4188773,N,00952.1736978,E,2,11,0.8,-2.099,M,40.593,M,2.6,0123*6E
$GPVTG,067.94,T,-571.96,M,006.022,N,011.152,K,D*0B
$GPGGA,094337.50,5703.4189115,N,00952.1738448,E,2,11,0.8,-2.107,M,40.593,M,2.6,0123*6B
$GPVTG,067.47,T,-572.43,M,006.191,N,011.467,K,D*04
$GPGGA,094337.55,5703.4189456,N,00952.1739936,E,2,11,0.8,-2.119,M,40.593,M,2.6,0123*66
$GPVTG,067.26,T,-572.64,M,006.330,N,011.723,K,D*0C
$GPGGA,094337.60,5703.4189805,N,00952.1741448,E,2,11,0.8,-2.135,M,40.593,M,2.6,0123*6F
$GPVTG,067.09,T,-572.81,M,006.464,N,011.972,K,D*06
$GPGGA,094337.65,5703.4190158,N,00952.1742953,E,2,11,0.8,-2.159,M,40.593,M,2.9,0123*62
$GPVTG,066.79,T,-573.11,M,006.531,N,012.096,K,D*09
$GPGGA,094337.70,5703.4190510,N,00952.1744448,E,2,11,0.8,-2.180,M,40.593,M,2.9,0123*6B
$GPVTG,066.55,T,-573.35,M,006.534,N,012.100,K,D*0A
$GPGGA,094337.75,5703.4190836,N,00952.1745900,E,2,11,0.8,-2.192,M,40.593,M,2.9,0123*64
$GPVTG,066.78,T,-573.12,M,006.401,N,011.855,K,D*0D
$GPGGA,094337.80,5703.4191147,N,00952.1747298,E,2,11,0.8,-2.193,M,40.593,M,2.9,0123*69
$GPVTG,067.03,T,-572.87,M,006.175,N,011.436,K,D*02
$GPGGA,094337.85,5703.4191453,N,00952.1748712,E,2,11,0.8,-2.192,M,40.593,M,1.4,0123*6B
$GPVTG,067.58,T,-572.32,M,006.046,N,011.197,K,D*0D
$GPGGA,094337.90,5703.4191757,N,00952.1750090,E,2,11,0.8,-2.185,M,40.593,M,1.4,0123*6A
$GPVTG,067.76,T,-572.14,M,005.896,N,010.920,K,D*06
$GPGGA,094337.95,5703.4192048,N,00952.1751446,E,2,11,0.8,-2.172,M,40.593,M,1.4,0123*63
$GPVTG,068.16,T,-571.74,M,005.747,N,010.643,K,D*03
$GPGGA,094338.00,5703.4192342,N,00952.1752818,E,2,11,0.8,-2.157,M,40.593,M,1.4,0123*6A
$GPVTG,068.49,T,-571.41,M,005.697,N,010.551,K,D*03
$GPGGA,094338.05,5703.4192637,N,00952.1754190,E,2,11,0.8,-2.144,M,40.593,M,1.7,0123*66
$GPVTG,068.67,T,-571.23,M,005.697,N,010.551,K,D*0B
$GPGGA,094338.10,5703.4192926,N,00952.1755580,E,2,11,0.8,-2.134,M,40.593,M,1.7,0123*6E
$GPVTG,069.09,T,-570.81,M,005.731,N,010.613,K,D*03
$GPGGA,094338.15,5703.4193224,N,00952.1756989,E,2,11,0.8,-2.126,M,40.593,M,1.7,0123*66
$GPVTG,069.22,T,-570.68,M,005.811,N,010.762,K,D*07
$GPGGA,094338.20,5703.4193518,N,00952.1758431,E,2,11,0.8,-2.123,M,40.593,M,1.7,0123*6D
$GPVTG,069.58,T,-570.32,M,005.933,N,010.988,K,D*0E
$GPGGA,094338.25,5703.4193823,N,00952.1759869,E,2,11,0.8,-2.119,M,40.593,M,1.9,0123*6A
$GPVTG,069.50,T,-570.40,M,006.015,N,011.140,K,D*00
$GPGGA,094338.30,5703.4194146,N,00952.1761291,E,2,11,0.8,-2.116,M,40.593,M,1.9,0123*6A
$GPVTG,068.69,T,-571.21,M,006.057,N,011.218,K,D*05
$GPGGA,094338.35,5703.4194462,N,00952.1762719,E,2,11,0.8,-2.116,M,40.593,M,1.9,0123*6A
$GPVTG,068.29,T,-571.61,M,006.086,N,011.272,K,D*05
$GPGGA,094338.40,5703.4194795,N,00952.1764153,E,2,11,0.8,-2.117,M,40.593,M,1.9,0123*6C
$GPVTG,067.57,T,-572.33,M,006.129,N,011.351,K,D*03
$GPGGA,094338.45,5703.4195137,N,00952.1765577,E,2,11,0.8,-2.121,M,40.593,M,2.2,0123*68
$GPVTG,066.77,T,-573.13,M,006.147,N,011.385,K,D*02
$GPGGA,094338.50,5703.4195481,N,00952.1766993,E,2,11,0.8,-2.128,M,40.593,M,2.2,0123*68
$GPVTG,066.10,T,-573.80,M,006.141,N,011.373,K,D*06
$GPGGA,094338.55,5703.4195841,N,00952.1768403,E,2,11,0.8,-2.137,M,40.593,M,2.2,0123*69
$GPVTG,065.19,T,-574.71,M,006.147,N,011.384,K,D*0B
$GPGGA,094338.60,5703.4196205,N,00952.1769845,E,2,11,0.8,-2.148,M,40.593,M,2.2,0123*61
$GPVTG,064.75,T,-575.15,M,006.213,N,011.506,K,D*0D
$GPGGA,094338.65,5703.4196553,N,00952.1771316,E,2,11,0.8,-2.161,M,40.593,M,2.4,0123*69
$GPVTG,065.27,T,-574.63,M,006.288,N,011.646,K,D*0E
$GPGGA,094338.70,5703.4196894,N,00952.1772775,E,2,11,0.8,-2.175,M,40.593,M,2.4,0123*6C
$GPVTG,065.77,T,-574.13,M,006.299,N,011.665,K,D*0D
$GPGGA,094338.75,5703.4197211,N,00952.1774223,E,2,11,0.8,-2.184,M,40.593,M,2.4,0123*61
$GPVTG,066.76,T,-573.14,M,006.244,N,011.564,K,D*0D
$GPGGA,094338.80,5703.4197519,N,00952.1775643,E,2,11,0.8,-2.187,M,40.593,M,2.4,0123*64
$GPVTG,067.54,T,-572.36,M,006.137,N,011.365,K,D*0D
$GPGGA,094338.85,5703.4197833,N,00952.1777046,E,2,11,0.8,-2.192,M,40.593,M,1.3,0123*65
$GPVTG,067.72,T,-572.18,M,006.038,N,011.182,K,D*00
$GPGGA,094338.90,5703.4198158,N,00952.1778417,E,2,11,0.8,-2.188,M,40.593,M,1.3,0123*6E
$GPVTG,067.31,T,-572.59,M,005.922,N,010.968,K,D*0E
$GPGGA,094338.95,5703.4198475,N,00952.1779766,E,2,11,0.8,-2.178,M,40.593,M,1.3,0123*6A
$GPVTG,067.03,T,-572.87,M,005.801,N,010.743,K,D*0B
$GPGGA,094339.00,5703.4198780,N,00952.1781135,E,2,11,0.8,-2.168,M,40.593,M,1.3,0123*68
$GPVTG,067.42,T,-572.48,M,005.754,N,010.656,K,D*07
$GPGGA,094339.05,5703.4199070,N,00952.1782492,E,2,11,0.8,-2.153,M,40.593,M,1.6,0123*62
$GPVTG,068.10,T,-571.80,M,005.704,N,010.564,K,D*0F
$GPGGA,094339.10,5703.4199357,N,00952.1783857,E,2,11,0.8,-2.141,M,40.593,M,1.6,0123*67
$GPVTG,068.67,T,-571.23,M,005.685,N,010.529,K,D*07
$GPGGA,094339.15,5703.4199662,N,00952.1785224,E,2,11,0.8,-2.128,M,40.593,M,1.6,0123*66
$GPVTG,068.51,T,-571.39,M,005.711,N,010.576,K,D*0F
$GPGGA,094339.20,5703.4199971,N,00952.1786608,E,2,11,0.8,-2.118,M,40.593,M,1.6,0123*67
$GPVTG,068.34,T,-571.56,M,005.774,N,010.694,K,D*09
$GPGGA,094339.25,5703.4200298,N,00952.1787998,E,2,11,0.8,-2.110,M,40.593,M,1.8,0123*6C
$GPVTG,067.87,T,-572.03,M,005.848,N,010.831,K,D*0C
$GPGGA,094339.30,5703.4200622,N,00952.1789412,E,2,11,0.8,-2.110,M,40.593,M,1.8,0123*6C
$GPVTG,067.61,T,-572.29,M,005.950,N,011.019,K,D*07
$GPGGA,094339.35,5703.4200968,N,00952.1790836,E,2,11,0.8,-2.111,M,40.593,M,1.8,0123*6B
$GPVTG,066.82,T,-573.08,M,006.065,N,011.232,K,D*0E
$GPGGA,094339.40,5703.4201330,N,00952.1792263,E,2,11,0.8,-2.113,M,40.593,M,1.8,0123*65
$GPVTG,065.86,T,-574.04,M,006.164,N,011.415,K,D*01
$GPGGA,094339.45,5703.4201691,N,00952.1793693,E,2,11,0.8,-2.122,M,40.593,M,2.0,0123*6D
$GPVTG,065.23,T,-574.67,M,006.231,N,011.540,K,D*09
$GPGGA,094339.50,5703.4202041,N,00952.1795158,E,2,11,0.8,-2.138,M,40.593,M,2.0,0123*6C
$GPVTG,065.45,T,-574.45,M,006.311,N,011.689,K,D*0C
$GPGGA,094339.55,5703.4202386,N,00952.1796607,E,2,11,0.8,-2.156,M,40.593,M,2.0,0123*67
$GPVTG,065.69,T,-574.21,M,006.317,N,011.699,K,D*07
$GPGGA,094339.60,5703.4202725,N,00952.1798052,E,2,11,0.8,-2.167,M,40.593,M,2.0,0123*66
$GPVTG,066.00,T,-573.90,M,006.290,N,011.650,K,D*0D
$GPGGA,094339.65,5703.4203058,N,00952.1799443,E,2,11,0.8,-2.175,M,40.593,M,2.3,0123*6A
$GPVTG,065.81,T,-574.09,M,006.163,N,011.414,K,D*0D
$GPGGA,094339.70,5703.4203397,N,00952.1800797,E,2,11,0.8,-2.173,M,40.593,M,2.3,0123*6D
$GPVTG,065.42,T,-574.48,M,005.997,N,011.107,K,D*00
$GPGGA,094339.75,5703.4203732,N,00952.1802168,E,2,11,0.8,-2.176,M,40.593,M,2.3,0123*62
$GPVTG,065.44,T,-574.46,M,005.917,N,010.958,K,D*03
$GPGGA,094339.80,5703.4204073,N,00952.1803563,E,2,11,0.8,-2.179,M,40.593,M,2.3,0123*6C
$GPVTG,065.56,T,-574.34,M,005.927,N,010.976,K,D*0A
$GPGGA,094339.85,5703.4204411,N,00952.1804966,E,2,11,0.8,-2.183,M,40.593,M,2.5,0123*64
$GPVTG,065.80,T,-574.10,M,005.955,N,011.028,K,D*01
$GPGGA,094339.90,5703.4204754,N,00952.1806377,E,2,11,0.8,-2.186,M,40.593,M,2.5,0123*6F
$GPVTG,065.89,T,-574.01,M,006.002,N,011.116,K,D*0C
$GPGGA,094339.95,5703.4205092,N,00952.1807801,E,2,11,0.8,-2.190,M,40.593,M,2.5,0123*6A
$GPVTG,066.22,T,-573.68,M,006.055,N,011.214,K,D*05
$GPGGA,094340.00,5703.4205424,N,00952.1809222,E,2,11,0.8,-2.189,M,40.593,M,2.5,0123*6C
$GPVTG,066.57,T,-573.33,M,006.078,N,011.256,K,D*00
$GPGGA,094340.05,5703.4205742,N,00952.1810621,E,2,11,0.8,-2.183,M,40.593,M,2.7,0123*6D
$GPVTG,067.07,T,-572.83,M,006.038,N,011.182,K,D*00
$GPGGA,094340.10,5703.4206062,N,00952.1812030,E,2,11,0.8,-2.175,M,40.593,M,2.7,0123*62
$GPVTG,067.39,T,-572.51,M,006.021,N,011.151,K,D*04
$GPGGA,094340.15,5703.4206383,N,00952.1813434,E,2,11,0.8,-2.169,M,40.593,M,2.7,0123*67
$GPVTG,067.51,T,-572.39,M,006.000,N,011.112,K,D*00
$GPGGA,094340.20,5703.4206699,N,00952.1814846,E,2,11,0.8,-2.165,M,40.593,M,2.7,0123*6D
$GPVTG,067.77,T,-572.13,M,005.995,N,011.103,K,D*0A
$GPGGA,094340.25,5703.4207025,N,00952.1816278,E,2,11,0.8,-2.157,M,40.593,M,2.9,0123*62
$GPVTG,067.76,T,-572.14,M,006.041,N,011.188,K,D*0C
$GPGGA,094340.30,5703.4207357,N,00952.1817705,E,2,11,0.8,-2.154,M,40.593,M,2.9,0123*6D
$GPVTG,067.49,T,-572.41,M,006.075,N,011.250,K,D*01
$GPGGA,094340.35,5703.4207686,N,00952.1819117,E,2,11,0.8,-2.151,M,40.593,M,2.9,0123*6F
$GPVTG,067.23,T,-572.67,M,006.065,N,011.231,K,D*0F
$GPGGA,094340.40,5703.4208030,N,00952.1820528,E,2,11,0.8,-2.149,M,40.593,M,2.9,0123*62
$GPVTG,066.60,T,-573.30,M,006.071,N,011.244,K,D*0D
$GPGGA,094340.45,5703.4208379,N,00952.1821935,E,2,11,0.8,-2.147,M,40.593,M,3.1,0123*6F
$GPVTG,066.00,T,-573.90,M,006.075,N,011.251,K,D*01
$GPGGA,094340.50,5703.4208727,N,00952.1823362,E,2,11,0.8,-2.147,M,40.593,M,3.1,0123*6E
$GPVTG,065.76,T,-574.14,M,006.117,N,011.328,K,D*02
$GPGGA,094340.55,5703.4209073,N,00952.1824781,E,2,11,0.8,-2.148,M,40.593,M,3.1,0123*6D
$GPVTG,065.62,T,-574.28,M,006.125,N,011.343,K,D*04
$GPGGA,094340.60,5703.4209431,N,00952.1826183,E,2,11,0.8,-2.149,M,40.593,M,3.1,0123*6E
$GPVTG,065.11,T,-574.79,M,006.114,N,011.324,K,D*07
$GPGGA,094340.65,5703.4209797,N,00952.1827590,E,2,11,0.8,-2.157,M,40.593,M,3.3,0123*6E
$GPVTG,064.50,T,-575.40,M,006.132,N,011.357,K,D*08
$GPGGA,094340.70,5703.4210152,N,00952.1829003,E,2,11,0.8,-2.155,M,40.593,M,3.3,0123*6E
$GPVTG,064.56,T,-575.34,M,006.132,N,011.357,K,D*0D
$GPGGA,094340.75,5703.4210514,N,00952.1830410,E,2,11,0.8,-2.154,M,40.593,M,3.3,0123*62
$GPVTG,064.46,T,-575.44,M,006.131,N,011.354,K,D*0B
$GPGGA,094340.80,5703.4210873,N,00952.1831809,E,2,11,0.8,-2.152,M,40.593,M,3.3,0123*67
$GPVTG,064.43,T,-575.47,M,006.110,N,011.317,K,D*09
$GPGGA,094340.85,5703.4211230,N,00952.1833210,E,2,11,0.8,-2.153,M,40.593,M,1.8,0123*66
$GPVTG,064.45,T,-575.45,M,006.100,N,011.297,K,D*05
$GPGGA,094340.90,5703.4211577,N,00952.1834632,E,2,11,0.8,-2.155,M,40.593,M,1.8,0123*63
$GPVTG,065.00,T,-574.90,M,006.117,N,011.329,K,D*0E
$GPGGA,094340.95,5703.4211926,N,00952.1836075,E,2,11,0.8,-2.154,M,40.593,M,1.8,0123*68
$GPVTG,065.54,T,-574.36,M,006.167,N,011.422,K,D*08
$GPGGA,094341.00,5703.4212281,N,00952.1837512,E,2,11,0.8,-2.154,M,40.593,M,1.8,0123*65
$GPVTG,065.69,T,-574.21,M,006.198,N,011.479,K,D*0E
$GPGGA,094341.05,5703.4212633,N,00952.1838945,E,2,11,0.8,-2.163,M,40.593,M,2.1,0123*62
$GPVTG,065.82,T,-574.08,M,006.215,N,011.510,K,D*08
$GPGGA,094341.10,5703.4212994,N,00952.1840384,E,2,11,0.8,-2.168,M,40.593,M,2.1,0123*67
$GPVTG,065.68,T,-574.22,M,006.234,N,011.546,K,D*04
$GPGGA,094341.15,5703.4213347,N,00952.1841823,E,2,11,0.8,-2.170,M,40.593,M,2.1,0123*69
$GPVTG,065.78,T,-574.12,M,006.232,N,011.541,K,D*07
$GPGGA,094341.20,5703.4213715,N,00952.1843242,E,2,11,0.8,-2.168,M,40.593,M,2.1,0123*6A
$GPVTG,065.24,T,-574.66,M,006.212,N,011.504,K,D*0E
$GPGGA,094341.25,5703.4214070,N,00952.1844636,E,2,11,0.8,-2.168,M,40.593,M,2.3,0123*6E
$GPVTG,065.00,T,-574.90,M,006.130,N,011.353,K,D*06
$GPGGA,094341.30,5703.4214425,N,00952.1846024,E,2,11,0.8,-2.164,M,40.593,M,2.3,0123*65
$GPVTG,064.81,T,-575.09,M,006.065,N,011.232,K,D*08
$GPGGA,094341.35,5703.4214784,N,00952.1847414,E,2,11,0.8,-2.159,M,40.593,M,2.3,0123*60
$GPVTG,064.64,T,-575.26,M,006.032,N,011.170,K,D*09
$GPGGA,094341.40,5703.4215146,N,00952.1848806,E,2,11,0.8,-2.153,M,40.593,M,2.3,0123*61
$GPVTG,064.46,T,-575.44,M,006.028,N,011.163,K,D*04
$GPGGA,094341.45,5703.4215505,N,00952.1850204,E,2,11,0.8,-2.147,M,40.593,M,2.6,0123*66
$GPVTG,064.39,T,-575.51,M,006.040,N,011.187,K,D*0C
$GPGGA,094341.50,5703.4215869,N,00952.1851624,E,2,11,0.8,-2.143,M,40.593,M,2.6,0123*66
$GPVTG,064.55,T,-575.35,M,006.098,N,011.294,K,D*00
$GPGGA,094341.55,5703.4216233,N,00952.1853051,E,2,11,0.8,-2.141,M,40.593,M,2.6,0123*61
$GPVTG,064.68,T,-575.22,M,006.154,N,011.397,K,D*0B
$GPGGA,094341.60,5703.4216594,N,00952.1854478,E,2,11,0.8,-2.143,M,40.593,M,2.6,0123*67
$GPVTG,064.89,T,-575.01,M,006.183,N,011.450,K,D*03
$GPGGA,094341.65,5703.4216964,N,00952.1855901,E,2,11,0.8,-2.143,M,40.593,M,2.9,0123*6C
$GPVTG,064.77,T,-575.13,M,006.205,N,011.492,K,D*02
$GPGGA,094341.70,5703.4217339,N,00952.1857352,E,2,11,0.8,-2.148,M,40.593,M,2.9,0123*6E
$GPVTG,064.72,T,-575.18,M,006.276,N,011.624,K,D*07
$GPGGA,094341.75,5703.4217715,N,00952.1858803,E,2,11,0.8,-2.150,M,40.593,M,2.9,0123*68
$GPVTG,064.65,T,-575.25,M,006.322,N,011.709,K,D*01
$GPGGA,094341.80,5703.4218077,N,00952.1860268,E,2,11,0.8,-2.157,M,40.593,M,2.9,0123*65
$GPVTG,065.07,T,-574.83,M,006.353,N,011.766,K,D*06
$GPGGA,094341.85,5703.4218445,N,00952.1861735,E,2,11,0.8,-2.162,M,40.593,M,3.1,0123*66
$GPVTG,065.26,T,-574.64,M,006.378,N,011.812,K,D*09
$GPGGA,094341.90,5703.4218800,N,00952.1863174,E,2,11,0.8,-2.170,M,40.593,M,3.1,0123*6D
$GPVTG,065.47,T,-574.43,M,006.316,N,011.697,K,D*00
$GPGGA,094341.95,5703.4219174,N,00952.1864604,E,2,11,0.8,-2.173,M,40.593,M,3.1,0123*67
$GPVTG,065.02,T,-574.88,M,006.278,N,011.627,K,D*04
$GPGGA,094342.00,5703.4219520,N,00952.1865995,E,2,11,0.8,-2.166,M,40.593,M,3.1,0123*6F
$GPVTG,065.17,T,-574.73,M,006.137,N,011.365,K,D*0F
$GPGGA,094342.05,5703.4219864,N,00952.1867270,E,2,11,0.8,-2.155,M,40.593,M,1.7,0123*61
$GPVTG,064.39,T,-575.51,M,005.833,N,010.803,K,D*07
$GPGGA,094342.10,5703.4220227,N,00952.1868538,E,2,11,0.8,-2.136,M,40.593,M,1.7,0123*63
$GPVTG,063.18,T,-576.72,M,005.642,N,010.449,K,D*0B
$GPGGA,094342.15,5703.4220600,N,00952.1869897,E,2,11,0.8,-2.124,M,40.593,M,1.7,0123*6D
$GPVTG,062.96,T,-576.94,M,005.724,N,010.602,K,D*08
$GPGGA,094342.20,5703.4220984,N,00952.1871272,E,2,11,0.8,-2.119,M,40.593,M,1.7,0123*6E
$GPVTG,062.72,T,-577.18,M,005.852,N,010.838,K,D*0E
$GPGGA,094342.25,5703.4221380,N,00952.1872693,E,2,11,0.8,-2.116,M,40.593,M,1.9,0123*6D
$GPVTG,062.69,T,-577.21,M,006.055,N,011.214,K,D*07
$GPGGA,094342.30,5703.4221758,N,00952.1874153,E,2,11,0.8,-2.122,M,40.593,M,1.9,0123*62
$GPVTG,063.51,T,-576.39,M,006.242,N,011.561,K,D*04
$GPGGA,094342.35,5703.4222123,N,00952.1875637,E,2,11,0.8,-2.136,M,40.593,M,1.9,0123*6F
$GPVTG,064.63,T,-575.27,M,006.385,N,011.824,K,D*08
$GPGGA,094342.40,5703.4222497,N,00952.1877109,E,2,11,0.8,-2.150,M,40.593,M,1.9,0123*6F
$GPVTG,065.00,T,-574.90,M,006.456,N,011.957,K,D*0D
$GPGGA,094342.45,5703.4222881,N,00952.1878594,E,2,11,0.8,-2.173,M,40.593,M,2.2,0123*67
$GPVTG,064.99,T,-574.91,M,006.525,N,012.085,K,D*0D
$GPGGA,094342.50,5703.4223266,N,00952.1880101,E,2,11,0.8,-2.190,M,40.593,M,2.2,0123*63
$GPVTG,065.09,T,-574.81,M,006.597,N,012.218,K,D*0B
$GPGGA,094342.55,5703.4223610,N,00952.1881552,E,2,11,0.8,-2.199,M,40.593,M,2.2,0123*69
$GPVTG,065.79,T,-574.11,M,006.464,N,011.972,K,D*0C
$GPGGA,094342.60,5703.4223949,N,00952.1882883,E,2,11,0.8,-2.194,M,40.593,M,2.2,0123*63
$GPVTG,065.48,T,-574.42,M,006.122,N,011.338,K,D*0B
$GPGGA,094342.65,5703.4224275,N,00952.1884187,E,2,11,0.8,-2.182,M,40.593,M,2.4,0123*6F
$GPVTG,065.35,T,-574.55,M,005.821,N,010.781,K,D*09
$GPGGA,094342.70,5703.4224619,N,00952.1885489,E,2,11,0.8,-2.166,M,40.593,M,2.4,0123*65
$GPVTG,064.79,T,-575.11,M,005.655,N,010.473,K,D*02
$GPGGA,094342.75,5703.4224953,N,00952.1886796,E,2,11,0.8,-2.150,M,40.593,M,2.4,0123*6A
$GPVTG,064.76,T,-575.14,M,005.564,N,010.305,K,D*0F
$GPGGA,094342.80,5703.4225287,N,00952.1888121,E,2,11,0.8,-2.132,M,40.593,M,2.4,0123*63
$GPVTG,064.95,T,-574.95,M,005.563,N,010.303,K,D*0B
$GPGGA,094342.85,5703.4225631,N,00952.1889439,E,2,11,0.8,-2.111,M,40.593,M,2.7,0123*60
$GPVTG,064.71,T,-575.19,M,005.587,N,010.347,K,D*0E
$GPGGA,094342.90,5703.4225988,N,00952.1890770,E,2,11,0.8,-2.101,M,40.593,M,2.7,0123*6E
$GPVTG,064.26,T,-575.64,M,005.666,N,010.494,K,D*03
$GPGGA,094342.95,5703.4226353,N,00952.1892110,E,2,11,0.8,-2.090,M,40.593,M,2.7,0123*6F
$GPVTG,063.84,T,-576.06,M,005.759,N,010.665,K,D*0A
$GPGGA,094343.00,5703.4226724,N,00952.1893493,E,2,11,0.8,-2.090,M,40.593,M,2.7,0123*69
$GPVTG,063.76,T,-576.14,M,005.917,N,010.958,K,D*01
$GPGGA,094343.05,5703.4227093,N,00952.1894909,E,2,11,0.8,-2.100,M,40.593,M,1.6,0123*65
$GPVTG,064.14,T,-575.76,M,006.093,N,011.284,K,D*08
$GPGGA,094343.10,5703.4227484,N,00952.1896345,E,2,11,0.8,-2.115,M,40.593,M,1.6,0123*67
$GPVTG,063.86,T,-576.04,M,006.261,N,011.595,K,D*0A
$GPGGA,094343.15,5703.4227892,N,00952.1897806,E,2,11,0.8,-2.135,M,40.593,M,1.6,0123*66
$GPVTG,063.37,T,-576.53,M,006.432,N,011.913,K,D*00
$GPGGA,094343.20,5703.4228298,N,00952.1899263,E,2,11,0.8,-2.158,M,40.593,M,1.6,0123*63
$GPVTG,063.04,T,-576.86,M,006.517,N,012.070,K,D*01
$GPGGA,094343.25,5703.4228691,N,00952.1900711,E,2,11,0.8,-2.184,M,40.593,M,1.8,0123*65
$GPVTG,062.96,T,-576.94,M,006.527,N,012.088,K,D*0C
$GPGGA,094343.30,5703.4229031,N,00952.1902157,E,2,11,0.8,-2.194,M,40.593,M,1.8,0123*6B
$GPVTG,064.37,T,-575.53,M,006.426,N,011.901,K,D*02
$GPGGA,094343.35,5703.4229351,N,00952.1903443,E,2,11,0.8,-2.190,M,40.593,M,1.8,0123*6E
$GPVTG,064.72,T,-575.18,M,006.007,N,011.126,K,D*06
$GPGGA,094343.40,5703.4229703,N,00952.1904706,E,2,11,0.8,-2.177,M,40.593,M,1.8,0123*63
$GPVTG,063.90,T,-576.00,M,005.722,N,010.597,K,D*0B
$GPGGA,094343.45,5703.4230047,N,00952.1906015,E,2,11,0.8,-2.169,M,40.593,M,2.0,0123*6A
$GPVTG,064.02,T,-575.88,M,005.621,N,010.410,K,D*08
$GPGGA,094343.50,5703.4230372,N,00952.1907335,E,2,11,0.8,-2.159,M,40.593,M,2.0,0123*68
$GPVTG,064.83,T,-575.07,M,005.573,N,010.320,K,D*06
$GPGGA,094343.55,5703.4230696,N,00952.1908687,E,2,11,0.8,-2.155,M,40.593,M,2.0,0123*6D
$GPVTG,065.75,T,-574.15,M,005.623,N,010.414,K,D*0A
$GPGGA,094343.60,5703.4231016,N,00952.1910073,E,2,11,0.8,-2.148,M,40.593,M,2.0,0123*6C
$GPVTG,066.74,T,-573.16,M,005.734,N,010.618,K,D*05
$GPGGA,094343.65,5703.4231345,N,00952.1911478,E,2,11,0.8,-2.145,M,40.593,M,2.3,0123*6C
$GPVTG,067.20,T,-572.70,M,005.865,N,010.863,K,D*0D
$GPGGA,094343.70,5703.4231679,N,00952.1912860,E,2,11,0.8,-2.144,M,40.593,M,2.3,0123*65
$GPVTG,067.07,T,-572.83,M,005.918,N,010.961,K,D*0C
$GPGGA,094343.75,5703.4232032,N,00952.1914266,E,2,11,0.8,-2.146,M,40.593,M,2.3,0123*62
$GPVTG,066.51,T,-573.39,M,006.021,N,011.151,K,D*04
$GPGGA,094343.80,5703.4232389,N,00952.1915675,E,2,11,0.8,-2.152,M,40.593,M,2.3,0123*69
$GPVTG,065.98,T,-573.92,M,006.098,N,011.293,K,D*0C
$GPGGA,094343.85,5703.4232765,N,00952.1917094,E,2,11,0.8,-2.158,M,40.593,M,2.5,0123*6D
$GPVTG,065.09,T,-574.81,M,006.185,N,011.454,K,D*01
$GPGGA,094343.90,5703.4233125,N,00952.1918510,E,2,11,0.8,-2.165,M,40.593,M,2.5,0123*62
$GPVTG,064.88,T,-575.02,M,006.210,N,011.500,K,D*0C
$GPGGA,094343.95,5703.4233490,N,00952.1919884,E,2,11,0.8,-2.165,M,40.593,M,2.5,0123*6D
$GPVTG,064.26,T,-575.64,M,006.141,N,011.373,K,D*0D
$GPGGA,094344.00,5703.4233854,N,00952.1921207,E,2,11,0.8,-2.164,M,40.593,M,2.5,0123*69
$GPVTG,063.45,T,-576.45,M,005.991,N,011.095,K,D*02
$GPGGA,094344.05,5703.4234233,N,00952.1922528,E,2,11,0.8,-2.155,M,40.593,M,2.7,0123*69
$GPVTG,062.68,T,-577.22,M,005.912,N,010.950,K,D*06
$GPGGA,094344.10,5703.4234593,N,00952.1923889,E,2,11,0.8,-2.152,M,40.593,M,2.7,0123*60
$GPVTG,062.95,T,-576.95,M,005.910,N,010.945,K,D*0F
$GPGGA,094344.15,5703.4234940,N,00952.1925249,E,2,11,0.8,-2.150,M,40.593,M,2.7,0123*65
$GPVTG,063.59,T,-576.31,M,005.893,N,010.914,K,D*0E
$GPGGA,094344.20,5703.4235278,N,00952.1926633,E,2,11,0.8,-2.149,M,40.593,M,2.7,0123*60
$GPVTG,064.61,T,-575.29,M,005.916,N,010.957,K,D*03
$GPGGA,094344.25,5703.4235613,N,00952.1928027,E,2,11,0.8,-2.152,M,40.593,M,2.9,0123*65
$GPVTG,065.50,T,-574.40,M,005.953,N,011.025,K,D*02
$GPGGA,094344.30,5703.4235959,N,00952.1929414,E,2,11,0.8,-2.153,M,40.593,M,2.9,0123*64
$GPVTG,065.71,T,-574.19,M,005.977,N,011.069,K,D*03
$GPGGA,094344.35,5703.4236301,N,00952.1930799,E,2,11,0.8,-2.153,M,40.593,M,2.9,0123*6B
$GPVTG,065.89,T,-574.01,M,005.985,N,011.084,K,D*03
$GPGGA,094344.40,5703.4236627,N,00952.1932206,E,2,11,0.8,-2.157,M,40.593,M,2.9,0123*6D
$GPVTG,066.61,T,-573.29,M,006.008,N,011.126,K,D*0D
$GPGGA,094344.45,5703.4236977,N,00952.1933619,E,2,11,0.8,-2.158,M,40.593,M,3.1,0123*6F
$GPVTG,066.48,T,-573.42,M,006.058,N,011.220,K,D*0B
$GPGGA,094344.50,5703.4237321,N,00952.1935024,E,2,11,0.8,-2.161,M,40.593,M,3.1,0123*67
$GPVTG,066.37,T,-573.53,M,006.070,N,011.242,K,D*0D
$GPGGA,094344.55,5703.4237664,N,00952.1936421,E,2,11,0.8,-2.166,M,40.593,M,3.1,0123*63
$GPVTG,066.21,T,-573.69,M,006.059,N,011.220,K,D*0C
$GPGGA,094344.60,5703.4238006,N,00952.1937799,E,2,11,0.8,-2.168,M,40.593,M,3.1,0123*67
$GPVTG,065.93,T,-573.97,M,006.008,N,011.127,K,D*07
$GPGGA,094344.65,5703.4238352,N,00952.1939177,E,2,11,0.8,-2.169,M,40.593,M,3.3,0123*6B
$GPVTG,065.51,T,-574.39,M,005.984,N,011.083,K,D*0B
$GPGGA,094344.70,5703.4238698,N,00952.1940560,E,2,11,0.8,-2.171,M,40.593,M,3.3,0123*69
$GPVTG,065.37,T,-574.53,M,005.975,N,011.066,K,D*02
$GPGGA,094344.75,5703.4239047,N,00952.1941965,E,2,11,0.8,-2.171,M,40.593,M,3.3,0123*61
$GPVTG,065.35,T,-574.55,M,006.018,N,011.146,K,D*04
$GPGGA,094344.80,5703.4239403,N,00952.1943364,E,2,11,0.8,-2.171,M,40.593,M,3.3,0123*66
$GPVTG,065.12,T,-574.78,M,006.047,N,011.200,K,D*05
$GPGGA,094344.85,5703.4239761,N,00952.1944752,E,2,11,0.8,-2.169,M,40.593,M,3.5,0123*6D
$GPVTG,064.75,T,-575.15,M,006.052,N,011.209,K,D*02
$GPGGA,094344.90,5703.4240115,N,00952.1946140,E,2,11,0.8,-2.171,M,40.593,M,3.5,0123*6C
$GPVTG,064.68,T,-575.22,M,006.044,N,011.193,K,D*0D
$GPGGA,094344.95,5703.4240439,N,00952.1947537,E,2,11,0.8,-2.170,M,40.593,M,3.5,0123*66
$GPVTG,065.58,T,-574.32,M,006.015,N,011.139,K,D*0B
$GPGGA,094345.00,5703.4240761,N,00952.1948917,E,2,11,0.8,-2.166,M,40.593,M,3.5,0123*63
$GPVTG,066.20,T,-573.70,M,005.959,N,011.035,K,D*09
$GPGGA,094345.05,5703.4241081,N,00952.1950291,E,2,11,0.8,-2.159,M,40.593,M,2.1,0123*6B
$GPVTG,066.73,T,-573.17,M,005.924,N,010.971,K,D*0C
$GPGGA,094345.10,5703.4241402,N,00952.1951679,E,2,11,0.8,-2.154,M,40.593,M,2.1,0123*6E
$GPVTG,067.10,T,-572.80,M,005.911,N,010.948,K,D*0B
$GPGGA,094345.15,5703.4241738,N,00952.1953053,E,2,11,0.8,-2.148,M,40.593,M,2.1,0123*60
$GPVTG,066.72,T,-573.18,M,005.900,N,010.926,K,D*06
$GPGGA,094345.20,5703.4242075,N,00952.1954437,E,2,11,0.8,-2.145,M,40.593,M,2.1,0123*67
$GPVTG,066.46,T,-573.44,M,005.917,N,010.957,K,D*08
$GPGGA,094345.25,5703.4242406,N,00952.1955837,E,2,11,0.8,-2.147,M,40.593,M,2.3,0123*6F
$GPVTG,066.53,T,-573.37,M,005.955,N,011.029,K,D*0F
$GPGGA,094345.30,5703.4242752,N,00952.1957239,E,2,11,0.8,-2.148,M,40.593,M,2.3,0123*60
$GPVTG,066.16,T,-573.74,M,006.006,N,011.122,K,D*0F
$GPGGA,094345.35,5703.4243105,N,00952.1958646,E,2,11,0.8,-2.149,M,40.593,M,2.3,0123*62
$GPVTG,065.72,T,-574.18,M,006.060,N,011.223,K,D*01
$GPGGA,094345.40,5703.4243451,N,00952.1960057,E,2,11,0.8,-2.154,M,40.593,M,2.3,0123*65
$GPVTG,065.68,T,-574.22,M,006.089,N,011.278,K,D*0A
$GPGGA,094345.45,5703.4243812,N,00952.1961466,E,2,11,0.8,-2.163,M,40.593,M,2.6,0123*6D
$GPVTG,065.16,T,-574.74,M,006.125,N,011.343,K,D*0E
$GPGGA,094345.50,5703.4244169,N,00952.1962856,E,2,11,0.8,-2.169,M,40.593,M,2.6,0123*6D
$GPVTG,064.80,T,-575.10,M,006.101,N,011.299,K,D*03
$GPGGA,094345.55,5703.4244522,N,00952.1964261,E,2,11,0.8,-2.172,M,40.593,M,2.6,0123*61
$GPVTG,064.84,T,-575.06,M,006.103,N,011.303,K,D*00
$GPGGA,094345.60,5703.4244873,N,00952.1965678,E,2,11,0.8,-2.177,M,40.593,M,2.6,0123*66
$GPVTG,065.04,T,-574.86,M,006.122,N,011.339,K,D*0A
$GPGGA,094345.65,5703.4245221,N,00952.1967107,E,2,11,0.8,-2.185,M,40.593,M,2.9,0123*60
$GPVTG,065.37,T,-574.53,M,006.155,N,011.399,K,D*08
$GPGGA,094345.70,5703.4245571,N,00952.1968532,E,2,11,0.8,-2.191,M,40.593,M,2.9,0123*6E
$GPVTG,065.55,T,-574.35,M,006.163,N,011.415,K,D*0A
$GPGGA,094345.75,5703.4245915,N,00952.1969945,E,2,11,0.8,-2.198,M,40.593,M,2.9,0123*61
$GPVTG,065.72,T,-574.18,M,006.138,N,011.367,K,D*0C
$GPGGA,094345.80,5703.4246256,N,00952.1971356,E,2,11,0.8,-2.201,M,40.593,M,2.9,0123*66
$GPVTG,065.94,T,-573.96,M,006.106,N,011.309,K,D*00
$GPGGA,094345.85,5703.4246573,N,00952.1972749,E,2,11,0.8,-2.201,M,40.593,M,3.1,0123*63
$GPVTG,066.59,T,-573.31,M,006.020,N,011.149,K,D*0C
$GPGGA,094345.90,5703.4246886,N,00952.1974129,E,2,11,0.8,-2.196,M,40.593,M,3.1,0123*6B
$GPVTG,067.11,T,-572.79,M,005.930,N,010.982,K,D*09
$GPGGA,094345.95,5703.4247194,N,00952.1975507,E,2,11,0.8,-2.186,M,40.593,M,3.1,0123*6D
$GPVTG,067.61,T,-572.29,M,005.861,N,010.855,K,D*05
$GPGGA,094346.00,5703.4247498,N,00952.1976891,E,2,11,0.8,-2.174,M,40.593,M,3.1,0123*67
$GPVTG,068.09,T,-571.81,M,005.831,N,010.799,K,D*0F
$GPGGA,094346.05,5703.4247811,N,00952.1978264,E,2,11,0.8,-2.169,M,40.593,M,1.7,0123*69
$GPVTG,068.18,T,-571.72,M,005.834,N,010.804,K,D*0D
$GPGGA,094346.10,5703.4248134,N,00952.1979658,E,2,11,0.8,-2.164,M,40.593,M,1.7,0123*6B
$GPVTG,067.86,T,-572.04,M,005.870,N,010.871,K,D*05
$GPGGA,094346.15,5703.4248471,N,00952.1981037,E,2,11,0.8,-2.155,M,40.593,M,1.7,0123*60
$GPVTG,067.01,T,-572.89,M,005.892,N,010.912,K,D*07
$GPGGA,094346.20,5703.4248807,N,00952.1982425,E,2,11,0.8,-2.148,M,40.593,M,1.7,0123*63
$GPVTG,066.55,T,-573.35,M,005.925,N,010.973,K,D*0B
$GPGGA,094346.25,5703.4249151,N,00952.1983805,E,2,11,0.8,-2.140,M,40.593,M,1.9,0123*64
$GPVTG,065.91,T,-573.99,M,005.947,N,011.013,K,D*0C
$GPGGA,094346.30,5703.4249486,N,00952.1985188,E,2,11,0.8,-2.133,M,40.593,M,1.9,0123*61
$GPVTG,065.75,T,-574.15,M,005.957,N,011.032,K,D*07
$GPGGA,094346.35,5703.4249828,N,00952.1986597,E,2,11,0.8,-2.133,M,40.593,M,1.9,0123*65
$GPVTG,065.73,T,-574.17,M,006.019,N,011.147,K,D*00
$GPGGA,094346.40,5703.4250171,N,00952.1988034,E,2,11,0.8,-2.140,M,40.593,M,1.9,0123*6C
$GPVTG,065.90,T,-574.00,M,006.116,N,011.326,K,D*00
$GPGGA,094346.45,5703.4250543,N,00952.1989494,E,2,11,0.8,-2.157,M,40.593,M,2.2,0123*6D
$GPVTG,065.38,T,-574.52,M,006.262,N,011.597,K,D*09
$GPGGA,094346.50,5703.4250915,N,00952.1990971,E,2,11,0.8,-2.171,M,40.593,M,2.2,0123*6C
$GPVTG,065.18,T,-574.72,M,006.383,N,011.822,K,D*04
$GPGGA,094346.55,5703.4251289,N,00952.1992459,E,2,11,0.8,-2.190,M,40.593,M,2.2,0123*6C
$GPVTG,065.08,T,-574.82,M,006.476,N,011.993,K,D*0C
$GPGGA,094346.60,5703.4251621,N,00952.1993939,E,2,11,0.8,-2.209,M,40.593,M,2.2,0123*65
$GPVTG,066.11,T,-573.79,M,006.448,N,011.941,K,D*06
$GPGGA,094346.65,5703.4251942,N,00952.1995368,E,2,11,0.8,-2.220,M,40.593,M,2.4,0123*6F
$GPVTG,066.75,T,-573.15,M,006.301,N,011.669,K,D*01
$GPGGA,094346.70,5703.4252265,N,00952.1996724,E,2,11,0.8,-2.218,M,40.593,M,2.4,0123*62
$GPVTG,066.66,T,-573.24,M,006.051,N,011.207,K,D*0B
$GPGGA,094346.75,5703.4252580,N,00952.1998039,E,2,11,0.8,-2.208,M,40.593,M,2.4,0123*6F
$GPVTG,066.46,T,-573.44,M,005.795,N,010.733,K,D*00
$GPGGA,094346.80,5703.4252879,N,00952.1999404,E,2,11,0.8,-2.194,M,40.593,M,2.4,0123*63
$GPVTG,067.29,T,-572.61,M,005.710,N,010.575,K,D*03
$GPGGA,094346.85,5703.4253176,N,00952.2000807,E,2,11,0.8,-2.178,M,40.593,M,2.7,0123*65
$GPVTG,068.28,T,-571.62,M,005.746,N,010.642,K,D*09
$GPGGA,094346.90,5703.4253499,N,00952.2002198,E,2,11,0.8,-2.169,M,40.593,M,2.7,0123*68
$GPVTG,068.02,T,-571.88,M,005.796,N,010.733,K,D*0F
$GPGGA,094346.95,5703.4253824,N,00952.2003606,E,2,11,0.8,-2.164,M,40.593,M,2.7,0123*6B
$GPVTG,067.80,T,-572.10,M,005.879,N,010.888,K,D*09
$GPGGA,094347.00,5703.4254141,N,00952.2005025,E,2,11,0.8,-2.161,M,40.593,M,2.7,0123*6F
$GPVTG,067.93,T,-571.97,M,005.952,N,011.023,K,D*07
$GPGGA,094347.05,5703.4254475,N,00952.2006438,E,2,11,0.8,-2.163,M,40.593,M,1.6,0123*63
$GPVTG,067.59,T,-572.31,M,006.037,N,011.181,K,D*0E
$GPGGA,094347.10,5703.4254820,N,00952.2007878,E,2,11,0.8,-2.159,M,40.593,M,1.6,0123*6B
$GPVTG,067.02,T,-572.88,M,006.132,N,011.356,K,D*0E
$GPGGA,094347.15,5703.4255149,N,00952.2009346,E,2,11,0.8,-2.160,M,40.593,M,1.6,0123*6B
$GPVTG,067.28,T,-572.62,M,006.225,N,011.528,K,D*08
$GPGGA,094347.20,5703.4255475,N,00952.2010816,E,2,11,0.8,-2.165,M,40.593,M,1.6,0123*64
$GPVTG,067.54,T,-572.36,M,006.279,N,011.629,K,D*09
$GPGGA,094347.25,5703.4255807,N,00952.2012278,E,2,11,0.8,-2.165,M,40.593,M,1.8,0123*66
$GPVTG,067.58,T,-572.32,M,006.292,N,011.654,K,D*0E
$GPGGA,094347.30,5703.4256140,N,00952.2013756,E,2,11,0.8,-2.172,M,40.593,M,1.8,0123*65
$GPVTG,067.56,T,-572.34,M,006.325,N,011.714,K,D*0E
$GPGGA,094347.35,5703.4256486,N,00952.2015206,E,2,11,0.8,-2.177,M,40.593,M,1.8,0123*6C
$GPVTG,067.00,T,-572.90,M,006.299,N,011.666,K,D*01
$GPGGA,094347.40,5703.4256832,N,00952.2016639,E,2,11,0.8,-2.182,M,40.593,M,1.8,0123*6C
$GPVTG,066.45,T,-573.45,M,006.245,N,011.565,K,D*09
$GPGGA,094347.45,5703.4257183,N,00952.2018036,E,2,11,0.8,-2.187,M,40.593,M,2.0,0123*62
$GPVTG,065.65,T,-574.25,M,006.143,N,011.377,K,D*09
$GPGGA,094347.50,5703.4257516,N,00952.2019414,E,2,11,0.8,-2.185,M,40.593,M,2.0,0123*69
$GPVTG,065.51,T,-574.39,M,006.015,N,011.140,K,D*07
$GPGGA,094347.55,5703.4257844,N,00952.2020842,E,2,11,0.8,-2.182,M,40.593,M,2.0,0123*64
$GPVTG,066.07,T,-573.83,M,006.022,N,011.153,K,D*07
$GPGGA,094347.60,5703.4258172,N,00952.2022283,E,2,11,0.8,-2.181,M,40.593,M,2.0,0123*67
$GPVTG,066.62,T,-573.28,M,006.062,N,011.228,K,D*0E
$GPGGA,094347.65,5703.4258506,N,00952.2023718,E,2,11,0.8,-2.178,M,40.593,M,2.3,0123*66
$GPVTG,066.80,T,-573.10,M,006.088,N,011.276,K,D*06
$GPGGA,094347.70,5703.4258846,N,00952.2025173,E,2,11,0.8,-2.182,M,40.593,M,2.3,0123*63
$GPVTG,066.91,T,-572.99,M,006.157,N,011.403,K,D*01
$GPGGA,094347.75,5703.4259170,N,00952.2026632,E,2,11,0.8,-2.186,M,40.593,M,2.3,0123*6E
$GPVTG,067.42,T,-572.48,M,006.189,N,011.462,K,D*06
$GPGGA,094347.80,5703.4259489,N,00952.2028089,E,2,11,0.8,-2.188,M,40.593,M,2.3,0123*61
$GPVTG,067.88,T,-572.02,M,006.199,N,011.480,K,D*03
$GPGGA,094347.85,5703.4259806,N,00952.2029522,E,2,11,0.8,-2.189,M,40.593,M,2.5,0123*6D
$GPVTG,068.04,T,-571.86,M,006.149,N,011.387,K,D*0A
$GPGGA,094347.90,5703.4260107,N,00952.2030933,E,2,11,0.8,-2.183,M,40.593,M,2.5,0123*65
$GPVTG,068.45,T,-571.45,M,006.051,N,011.206,K,D*00
$GPGGA,094347.95,5703.4260413,N,00952.2032326,E,2,11,0.8,-2.173,M,40.593,M,2.5,0123*63
$GPVTG,068.43,T,-571.47,M,005.955,N,011.028,K,D*04
$GPGGA,094348.00,5703.4260714,N,00952.2033711,E,2,11,0.8,-2.162,M,40.593,M,2.5,0123*65
$GPVTG,068.45,T,-571.45,M,005.875,N,010.880,K,D*08
$GPGGA,094348.05,5703.4261029,N,00952.2035082,E,2,11,0.8,-2.158,M,40.593,M,2.7,0123*68
$GPVTG,068.27,T,-571.63,M,005.837,N,010.810,K,D*07
$GPGGA,094348.10,5703.4261360,N,00952.2036475,E,2,11,0.8,-2.153,M,40.593,M,2.7,0123*66
$GPVTG,067.50,T,-572.40,M,005.867,N,010.866,K,D*0E
$GPGGA,094348.15,5703.4261694,N,00952.2037888,E,2,11,0.8,-2.148,M,40.593,M,2.7,0123*68
$GPVTG,067.02,T,-572.88,M,005.941,N,011.003,K,D*02
$GPGGA,094348.20,5703.4262024,N,00952.2039319,E,2,11,0.8,-2.147,M,40.593,M,2.7,0123*62
$GPVTG,066.94,T,-572.96,M,006.026,N,011.160,K,D*0C
$GPGGA,094348.25,5703.4262361,N,00952.2040763,E,2,11,0.8,-2.150,M,40.593,M,2.9,0123*6A
$GPVTG,066.77,T,-573.13,M,006.120,N,011.335,K,D*08
$GPGGA,094348.30,5703.4262700,N,00952.2042211,E,2,11,0.8,-2.156,M,40.593,M,2.9,0123*69
$GPVTG,066.67,T,-573.23,M,006.187,N,011.459,K,D*0A
$GPGGA,094348.35,5703.4263045,N,00952.2043655,E,2,11,0.8,-2.163,M,40.593,M,2.9,0123*68
$GPVTG,066.40,T,-573.50,M,006.228,N,011.534,K,D*07
$GPGGA,094348.40,5703.4263387,N,00952.2045114,E,2,11,0.8,-2.171,M,40.593,M,2.9,0123*60
$GPVTG,066.44,T,-573.46,M,006.268,N,011.609,K,D*0D
$GPGGA,094348.45,5703.4263713,N,00952.2046570,E,2,11,0.8,-2.182,M,40.593,M,3.1,0123*6C
$GPVTG,066.86,T,-573.04,M,006.265,N,011.603,K,D*02
$GPGGA,094348.50,5703.4264032,N,00952.2048020,E,2,11,0.8,-2.190,M,40.593,M,3.1,0123*66
$GPVTG,067.35,T,-572.55,M,006.231,N,011.541,K,D*0A
$GPGGA,094348.55,5703.4264345,N,00952.2049452,E,2,11,0.8,-2.194,M,40.593,M,3.1,0123*64
$GPVTG,067.76,T,-572.14,M,006.160,N,011.409,K,D*02
$GPGGA,094348.60,5703.4264653,N,00952.2050884,E,2,11,0.8,-2.194,M,40.593,M,3.1,0123*6F
$GPVTG,068.19,T,-571.71,M,006.101,N,011.300,K,D*0D
$GPGGA,094348.65,5703.4264941,N,00952.2052279,E,2,11,0.8,-2.191,M,40.593,M,3.3,0123*6B
$GPVTG,068.88,T,-571.02,M,005.962,N,011.041,K,D*09
$GPGGA,094348.70,5703.4265241,N,00952.2053658,E,2,11,0.8,-2.184,M,40.593,M,3.3,0123*67
$GPVTG,068.79,T,-571.11,M,005.861,N,010.854,K,D*0A
$GPGGA,094348.75,5703.4265546,N,00952.2055042,E,2,11,0.8,-2.175,M,40.593,M,3.3,0123*67
$GPVTG,068.59,T,-571.31,M,005.817,N,010.773,K,D*01
$GPGGA,094348.80,5703.4265853,N,00952.2056431,E,2,11,0.8,-2.168,M,40.593,M,3.3,0123*6B
$GPVTG,068.38,T,-571.52,M,005.812,N,010.764,K,D*00
$GPGGA,094348.85,5703.4266166,N,00952.2057835,E,2,11,0.8,-2.164,M,40.593,M,3.5,0123*61
$GPVTG,068.13,T,-571.77,M,005.857,N,010.846,K,D*00
$GPGGA,094348.90,5703.4266492,N,00952.2059259,E,2,11,0.8,-2.160,M,40.593,M,3.5,0123*61
$GPVTG,067.73,T,-572.17,M,005.951,N,011.021,K,D*03
$GPGGA,094348.95,5703.4266818,N,00952.2060694,E,2,11,0.8,-2.160,M,40.593,M,3.5,0123*65
$GPVTG,067.54,T,-572.36,M,006.040,N,011.186,K,D*03
$GPGGA,094349.00,5703.4267144,N,00952.2062147,E,2,11,0.8,-2.166,M,40.593,M,3.5,0123*64
$GPVTG,067.53,T,-572.37,M,006.134,N,011.360,K,D*0D
$GPGGA,094349.05,5703.4267474,N,00952.2063597,E,2,11,0.8,-2.172,M,40.593,M,2.1,0123*6F
$GPVTG,067.61,T,-572.29,M,006.211,N,011.502,K,D*05
$GPGGA,094349.10,5703.4267794,N,00952.2065050,E,2,11,0.8,-2.178,M,40.593,M,2.1,0123*64
$GPVTG,067.75,T,-572.15,M,006.225,N,011.529,K,D*01
$GPGGA,094349.15,5703.4268127,N,00952.2066486,E,2,11,0.8,-2.183,M,40.593,M,2.1,0123*68
$GPVTG,067.34,T,-572.56,M,006.209,N,011.498,K,D*06
$GPGGA,094349.20,5703.4268454,N,00952.2067922,E,2,11,0.8,-2.190,M,40.593,M,2.1,0123*6F
$GPVTG,067.24,T,-572.66,M,006.183,N,011.452,K,D*03
$GPGGA,094349.25,5703.4268789,N,00952.2069361,E,2,11,0.8,-2.195,M,40.593,M,2.3,0123*6D
$GPVTG,067.00,T,-572.90,M,006.176,N,011.438,K,D*0A
$GPGGA,094349.30,5703.4269129,N,00952.2070794,E,2,11,0.8,-2.199,M,40.593,M,2.3,0123*6E
$GPVTG,066.63,T,-573.27,M,006.165,N,011.417,K,D*0C
$GPGGA,094349.35,5703.4269453,N,00952.2072226,E,2,11,0.8,-2.202,M,40.593,M,2.3,0123*6C
$GPVTG,066.86,T,-573.04,M,006.133,N,011.358,K,D*09
$GPGGA,094349.40,5703.4269769,N,00952.2073654,E,2,11,0.8,-2.208,M,40.593,M,2.3,0123*6E
$GPVTG,067.25,T,-572.65,M,006.093,N,011.285,K,D*0D
$GPGGA,094349.45,5703.4270072,N,00952.2075081,E,2,11,0.8,-2.212,M,40.593,M,2.6,0123*68
$GPVTG,067.81,T,-572.09,M,006.055,N,011.214,K,D*0B
$GPGGA,094349.50,5703.4270357,N,00952.2076508,E,2,11,0.8,-2.206,M,40.593,M,2.6,0123*6A
$GPVTG,068.84,T,-571.06,M,006.005,N,011.122,K,D*0E
$GPGGA,094349.55,5703.4270647,N,00952.2077916,E,2,11,0.8,-2.198,M,40.593,M,2.6,0123*6D
$GPVTG,069.31,T,-570.59,M,005.942,N,011.005,K,D*07
$GPGGA,094349.60,5703.4270926,N,00952.2079321,E,2,11,0.8,-2.189,M,40.593,M,2.6,0123*63
$GPVTG,069.90,T,-570.00,M,005.883,N,010.896,K,D*0F
$GPGGA,094349.65,5703.4271207,N,00952.2080712,E,2,11,0.8,-2.177,M,40.593,M,2.9,0123*63
$GPVTG,070.11,T,-569.79,M,005.826,N,010.790,K,D*0E
$GPGGA,094349.70,5703.4271484,N,00952.2082090,E,2,11,0.8,-2.165,M,40.593,M,2.9,0123*66
$GPVTG,070.23,T,-569.67,M,005.766,N,010.678,K,D*0C
$GPGGA,094349.75,5703.4271767,N,00952.2083458,E,2,11,0.8,-2.150,M,40.593,M,2.9,0123*6A
$GPVTG,069.99,T,-569.91,M,005.718,N,010.590,K,D*00
$GPGGA,094349.80,5703.4272058,N,00952.2084847,E,2,11,0.8,-2.140,M,40.593,M,2.9,0123*6C
$GPVTG,069.71,T,-570.19,M,005.750,N,010.649,K,D*05
$GPGGA,094349.85,5703.4272359,N,00952.2086257,E,2,11,0.8,-2.137,M,40.593,M,3.1,0123*6B
$GPVTG,069.31,T,-570.59,M,005.830,N,010.798,K,D*01
$GPGGA,094349.90,5703.4272685,N,00952.2087706,E,2,11,0.8,-2.137,M,40.593,M,3.1,0123*6B
$GPVTG,068.55,T,-571.35,M,005.999,N,011.110,K,D*0C
$GPGGA,094349.95,5703.4273007,N,00952.2089178,E,2,11,0.8,-2.142,M,40.593,M,3.1,0123*60
$GPVTG,068.27,T,-571.63,M,006.151,N,011.392,K,D*0D
$GPGGA,094350.00,5703.4273347,N,00952.2090644,E,2,11,0.8,-2.152,M,40.593,M,3.1,0123*62
$GPVTG,067.55,T,-572.35,M,006.258,N,011.590,K,D*09
$GPGGA,094350.05,5703.4273702,N,00952.2092110,E,2,11,0.8,-2.165,M,40.593,M,1.7,0123*66
$GPVTG,066.75,T,-573.15,M,006.365,N,011.788,K,D*0D
$GPGGA,094350.10,5703.4274079,N,00952.2093595,E,2,11,0.8,-2.183,M,40.593,M,1.7,0123*6E
$GPVTG,065.65,T,-574.25,M,006.462,N,011.967,K,D*04
$GPGGA,094350.15,5703.4274460,N,00952.2095085,E,2,11,0.8,-2.208,M,40.593,M,1.7,0123*65
$GPVTG,064.87,T,-575.03,M,006.531,N,012.095,K,D*0C
$GPGGA,094350.20,5703.4274819,N,00952.2096599,E,2,11,0.8,-2.233,M,40.593,M,1.7,0123*62
$GPVTG,065.18,T,-574.72,M,006.576,N,012.179,K,D*0C
$GPGGA,094350.25,5703.4275134,N,00952.2098104,E,2,11,0.8,-2.260,M,40.593,M,1.9,0123*66
$GPVTG,066.51,T,-573.39,M,006.520,N,012.074,K,D*05
$GPGGA,094350.30,5703.4275428,N,00952.2099553,E,2,11,0.8,-2.264,M,40.593,M,1.9,0123*69
$GPVTG,067.82,T,-572.08,M,006.326,N,011.716,K,D*09
$GPGGA,094350.35,5703.4275687,N,00952.2100925,E,2,11,0.8,-2.254,M,40.593,M,1.9,0123*64
$GPVTG,069.28,T,-570.62,M,005.995,N,011.103,K,D*0A
$GPGGA,094350.40,5703.4275946,N,00952.2102252,E,2,11,0.8,-2.233,M,40.593,M,1.9,0123*6C
$GPVTG,070.12,T,-569.78,M,005.690,N,010.538,K,D*0F
$GPGGA,094350.45,5703.4276192,N,00952.2103572,E,2,11,0.8,-2.208,M,40.593,M,2.2,0123*6F
$GPVTG,071.03,T,-568.87,M,005.476,N,010.142,K,D*0C
$GPGGA,094350.50,5703.4276442,N,00952.2104912,E,2,11,0.8,-2.184,M,40.593,M,2.2,0123*69
$GPVTG,071.71,T,-568.19,M,005.404,N,010.007,K,D*0B
$GPGGA,094350.55,5703.4276688,N,00952.2106287,E,2,11,0.8,-2.163,M,40.593,M,2.2,0123*64
$GPVTG,072.43,T,-567.47,M,005.451,N,010.095,K,D*06
$GPGGA,094350.60,5703.4276926,N,00952.2107673,E,2,11,0.8,-2.146,M,40.593,M,2.2,0123*60
$GPVTG,073.13,T,-566.77,M,005.523,N,010.229,K,D*01
$GPGGA,094350.65,5703.4277169,N,00952.2109052,E,2,11,0.8,-2.136,M,40.593,M,2.4,0123*6D
$GPVTG,073.16,T,-566.74,M,005.581,N,010.335,K,D*03
$GPGGA,094350.70,5703.4277435,N,00952.2110435,E,2,11,0.8,-2.129,M,40.593,M,2.4,0123*66
$GPVTG,072.39,T,-567.51,M,005.654,N,010.471,K,D*05
$GPGGA,094350.75,5703.4277730,N,00952.2111811,E,2,11,0.8,-2.129,M,40.593,M,2.4,0123*6E
$GPVTG,070.79,T,-569.11,M,005.728,N,010.609,K,D*0E
$GPGGA,094350.80,5703.4278019,N,00952.2113207,E,2,11,0.8,-2.141,M,40.593,M,2.4,0123*66
$GPVTG,069.97,T,-569.93,M,005.812,N,010.764,K,D*00
$GPGGA,094350.85,5703.4278337,N,00952.2114627,E,2,11,0.8,-2.152,M,40.593,M,2.7,0123*6C
$GPVTG,068.87,T,-571.03,M,005.942,N,011.005,K,D*05
$GPGGA,094350.90,5703.4278675,N,00952.2116059,E,2,11,0.8,-2.180,M,40.593,M,2.7,0123*69
$GPVTG,067.52,T,-572.38,M,006.081,N,011.262,K,D*0F
$GPGGA,094350.95,5703.4279013,N,00952.2117485,E,2,11,0.8,-2.217,M,40.593,M,2.7,0123*62
$GPVTG,066.56,T,-573.34,M,006.154,N,011.398,K,D*0A
$GPGGA,094351.00,5703.4279370,N,00952.2118904,E,2,11,0.8,-2.262,M,40.593,M,2.7,0123*60
$GPVTG,065.41,T,-574.49,M,006.206,N,011.494,K,D*0D
$GPGGA,094351.05,5703.4279732,N,00952.2120279,E,2,11,0.8,-2.318,M,40.593,M,1.6,0123*63
$GPVTG,064.36,T,-575.54,M,006.174,N,011.435,K,D*0C
$GPGGA,094351.10,5703.4279997,N,00952.2121606,E,2,11,0.8,-2.344,M,40.593,M,1.6,0123*62
$GPVTG,067.10,T,-572.80,M,005.725,N,010.602,K,D*03
$GPGGA,094351.15,5703.4280181,N,00952.2122741,E,2,11,0.8,-2.340,M,40.593,M,1.6,0123*6B
$GPVTG,072.29,T,-567.61,M,004.630,N,008.575,K,D*08
$GPGGA,094351.20,5703.4280400,N,00952.2123795,E,2,11,0.8,-2.326,M,40.593,M,1.6,0123*69
$GPVTG,071.29,T,-568.61,M,004.119,N,007.629,K,D*0D
$GPGGA,094351.25,5703.4280631,N,00952.2124976,E,2,11,0.8,-2.324,M,40.593,M,1.8,0123*64
$GPVTG,071.52,T,-568.38,M,004.629,N,008.573,K,D*0A
$GPGGA,094351.30,5703.4280858,N,00952.2126158,E,2,11,0.8,-2.317,M,40.593,M,1.8,0123*67
$GPVTG,071.38,T,-568.52,M,004.879,N,009.036,K,D*04
$GPGGA,094351.35,5703.4281091,N,00952.2127303,E,2,11,0.8,-2.307,M,40.593,M,1.8,0123*62
$GPVTG,070.02,T,-569.88,M,004.840,N,008.965,K,D*0E
$GPGGA,094351.40,5703.4281317,N,00952.2128491,E,2,11,0.8,-2.298,M,40.593,M,1.8,0123*69
$GPVTG,070.63,T,-569.27,M,004.955,N,009.178,K,D*0C
$GPGGA,094351.45,5703.4281511,N,00952.2129674,E,2,11,0.8,-2.290,M,40.593,M,2.0,0123*67
$GPVTG,072.96,T,-566.94,M,004.899,N,009.073,K,D*08
$GPGGA,094351.50,5703.4281705,N,00952.2130836,E,2,11,0.8,-2.284,M,40.593,M,2.0,0123*61
$GPVTG,073.46,T,-566.44,M,004.783,N,008.859,K,D*0C
$GPGGA,094351.55,5703.4281929,N,00952.2132005,E,2,11,0.8,-2.281,M,40.593,M,2.0,0123*6B
$GPVTG,071.44,T,-568.46,M,004.838,N,008.961,K,D*05
$GPGGA,094351.60,5703.4282150,N,00952.2133176,E,2,11,0.8,-2.283,M,40.593,M,2.0,0123*6E
$GPVTG,070.77,T,-569.13,M,004.867,N,009.013,K,D*02
$GPGGA,094351.65,5703.4282384,N,00952.2134377,E,2,11,0.8,-2.296,M,40.593,M,2.3,0123*63
$GPVTG,070.03,T,-569.87,M,005.026,N,009.308,K,D*09
$GPGGA,094351.70,5703.4282636,N,00952.2135558,E,2,11,0.8,-2.310,M,40.593,M,2.3,0123*6E
$GPVTG,068.44,T,-571.46,M,005.024,N,009.305,K,D*08
$GPGGA,094351.75,5703.4282896,N,00952.2136704,E,2,11,0.8,-2.329,M,40.593,M,2.3,0123*6D
$GPVTG,066.90,T,-573.00,M,004.904,N,009.081,K,D*0A
$GPGGA,094351.80,5703.4283164,N,00952.2137867,E,2,11,0.8,-2.353,M,40.593,M,2.3,0123*64
$GPVTG,066.37,T,-573.53,M,004.951,N,009.169,K,D*06
$GPGGA,094351.85,5703.4283420,N,00952.2139011,E,2,11,0.8,-2.373,M,40.593,M,2.5,0123*67
$GPVTG,067.10,T,-572.80,M,004.873,N,009.024,K,D*04
$GPGGA,094351.90,5703.4283649,N,00952.2140098,E,2,11,0.8,-2.392,M,40.593,M,2.5,0123*6E
$GPVTG,068.45,T,-571.45,M,004.575,N,008.474,K,D*0A
$GPGGA,094351.95,5703.4283879,N,00952.2141198,E,2,11,0.8,-2.408,M,40.593,M,2.5,0123*62
$GPVTG,069.20,T,-570.70,M,004.558,N,008.442,K,D*05
$GPGGA,094352.00,5703.4284106,N,00952.2142232,E,2,11,0.8,-2.416,M,40.593,M,2.5,0123*64
$GPVTG,068.47,T,-571.43,M,004.335,N,008.029,K,D*00
$GPGGA,094352.05,5703.4284334,N,00952.2143207,E,2,11,0.8,-2.407,M,40.593,M,2.7,0123*67
$GPVTG,067.67,T,-572.23,M,004.126,N,007.641,K,D*0F
$GPGGA,094352.10,5703.4284559,N,00952.2144223,E,2,11,0.8,-2.398,M,40.593,M,2.7,0123*6E
$GPVTG,067.84,T,-572.06,M,004.219,N,007.814,K,D*04
$GPGGA,094352.15,5703.4284755,N,00952.2145264,E,2,11,0.8,-2.389,M,40.593,M,2.7,0123*67
$GPVTG,070.69,T,-569.21,M,004.305,N,007.973,K,D*02
$GPGGA,094352.20,5703.4284934,N,00952.2146294,E,2,11,0.8,-2.377,M,40.593,M,2.7,0123*65
$GPVTG,072.77,T,-567.13,M,004.263,N,007.896,K,D*0B
$GPGGA,094352.25,5703.4285128,N,00952.2147309,E,2,11,0.8,-2.361,M,40.593,M,2.9,0123*69
$GPVTG,071.78,T,-568.12,M,004.215,N,007.807,K,D*00
$GPGGA,094352.30,5703.4285312,N,00952.2148322,E,2,11,0.8,-2.346,M,40.593,M,2.9,0123*65
$GPVTG,071.78,T,-568.12,M,004.184,N,007.749,K,D*0E
$GPGGA,094352.35,5703.4285503,N,00952.2149327,E,2,11,0.8,-2.331,M,40.593,M,2.9,0123*62
$GPVTG,071.05,T,-568.85,M,004.166,N,007.715,K,D*0F
$GPGGA,094352.40,5703.4285702,N,00952.2150333,E,2,11,0.8,-2.316,M,40.593,M,2.9,0123*6B
$GPVTG,070.08,T,-569.82,M,004.194,N,007.766,K,D*0C
$GPGGA,094352.45,5703.4285900,N,00952.2151358,E,2,11,0.8,-2.307,M,40.593,M,3.1,0123*67
$GPVTG,070.12,T,-569.78,M,004.280,N,007.927,K,D*0F
$GPGGA,094352.50,5703.4286124,N,00952.2152374,E,2,11,0.8,-2.301,M,40.593,M,3.1,0123*65
$GPVTG,068.05,T,-571.85,M,004.323,N,008.005,K,D*05
$GPGGA,094352.55,5703.4286370,N,00952.2153416,E,2,11,0.8,-2.294,M,40.593,M,3.1,0123*6C
$GPVTG,066.23,T,-573.67,M,004.481,N,008.299,K,D*09
$GPGGA,094352.60,5703.4286624,N,00952.2154482,E,2,11,0.8,-2.297,M,40.593,M,3.1,0123*67
$GPVTG,065.75,T,-574.15,M,004.623,N,008.562,K,D*02
$GPGGA,094352.65,5703.4286860,N,00952.2155571,E,2,11,0.8,-2.312,M,40.593,M,3.3,0123*6E
$GPVTG,067.51,T,-572.39,M,004.676,N,008.660,K,D*0F
$GPGGA,094352.70,5703.4287100,N,00952.2156658,E,2,11,0.8,-2.331,M,40.593,M,3.3,0123*6E
$GPVTG,067.97,T,-571.93,M,004.660,N,008.630,K,D*04
$GPGGA,094352.75,5703.4287336,N,00952.2157728,E,2,11,0.8,-2.351,M,40.593,M,3.3,0123*6D
$GPVTG,068.06,T,-571.84,M,004.562,N,008.449,K,D*08
$GPGGA,094352.80,5703.4287568,N,00952.2158799,E,2,11,0.8,-2.369,M,40.593,M,3.3,0123*64
$GPVTG,068.39,T,-571.51,M,004.522,N,008.375,K,D*00
$GPGGA,094352.85,5703.4287797,N,00952.2159841,E,2,11,0.8,-2.395,M,40.593,M,3.5,0123*6D
$GPVTG,067.91,T,-571.99,M,004.415,N,008.176,K,D*0D
$GPGGA,094352.90,5703.4288014,N,00952.2160892,E,2,11,0.8,-2.407,M,40.593,M,3.5,0123*62
$GPVTG,069.17,T,-570.73,M,004.386,N,008.123,K,D*05
$GPGGA,094352.95,5703.4288209,N,00952.2161899,E,2,11,0.8,-2.414,M,40.593,M,3.5,0123*61
$GPVTG,070.49,T,-569.41,M,004.185,N,007.751,K,D*02
$GPGGA,094353.00,5703.4288407,N,00952.2162875,E,2,11,0.8,-2.414,M,40.593,M,3.5,0123*65
$GPVTG,070.13,T,-569.77,M,004.032,N,007.468,K,D*0C
$GPGGA,094353.05,5703.4288596,N,00952.2163851,E,2,11,0.8,-2.399,M,40.593,M,2.1,0123*69
$GPVTG,071.49,T,-568.41,M,004.029,N,007.461,K,D*05
$GPGGA,094353.10,5703.4288769,N,00952.2164829,E,2,11,0.8,-2.385,M,40.593,M,2.1,0123*6A
$GPVTG,072.39,T,-567.51,M,004.010,N,007.426,K,D*06
$GPGGA,094353.15,5703.4288947,N,00952.2165791,E,2,11,0.8,-2.368,M,40.593,M,2.1,0123*63
$GPVTG,071.89,T,-568.02,M,003.966,N,007.345,K,D*0A
$GPGGA,094353.20,5703.4289115,N,00952.2166740,E,2,11,0.8,-2.348,M,40.593,M,2.1,0123*66
$GPVTG,072.10,T,-567.80,M,003.899,N,007.221,K,D*0E
$GPGGA,094353.25,5703.4289287,N,00952.2167702,E,2,11,0.8,-2.319,M,40.593,M,2.3,0123*6A
$GPVTG,072.32,T,-567.58,M,003.940,N,007.297,K,D*03
$GPGGA,094353.30,5703.4289457,N,00952.2168646,E,2,11,0.8,-2.294,M,40.593,M,2.3,0123*6F
$GPVTG,071.88,T,-568.02,M,003.904,N,007.230,K,D*0C
$GPGGA,094353.35,5703.4289644,N,00952.2169548,E,2,11,0.8,-2.270,M,40.593,M,2.3,0123*6C
$GPVTG,069.31,T,-570.59,M,003.780,N,007.000,K,D*03
$GPGGA,094353.40,5703.4289835,N,00952.2170474,E,2,11,0.8,-2.250,M,40.593,M,2.3,0123*62
$GPVTG,068.73,T,-571.17,M,003.856,N,007.142,K,D*0C
$GPGGA,094353.45,5703.4290034,N,00952.2171401,E,2,11,0.8,-2.234,M,40.593,M,2.6,0123*62
$GPVTG,068.10,T,-571.80,M,003.917,N,007.253,K,D*00
$GPGGA,094353.50,5703.4290249,N,00952.2172337,E,2,11,0.8,-2.221,M,40.593,M,2.6,0123*6B
$GPVTG,066.82,T,-573.08,M,004.007,N,007.421,K,D*0B
$GPGGA,094353.55,5703.4290473,N,00952.2173273,E,2,11,0.8,-2.212,M,40.593,M,2.6,0123*61
$GPVTG,065.83,T,-574.07,M,004.047,N,007.495,K,D*0A
$GPGGA,094353.60,5703.4290713,N,00952.2174230,E,2,11,0.8,-2.215,M,40.593,M,2.6,0123*65
$GPVTG,064.90,T,-575.00,M,004.166,N,007.716,K,D*05
$GPGGA,094353.65,5703.4290939,N,00952.2175199,E,2,11,0.8,-2.235,M,40.593,M,2.9,0123*6A
$GPVTG,065.83,T,-574.07,M,004.203,N,007.784,K,D*0B
$GPGGA,094353.70,5703.4291174,N,00952.2176174,E,2,11,0.8,-2.252,M,40.593,M,2.9,0123*6F
$GPVTG,066.05,T,-573.85,M,004.224,N,007.823,K,D*0C
$GPGGA,094353.75,5703.4291430,N,00952.2177133,E,2,11,0.8,-2.276,M,40.593,M,2.9,0123*6B
$GPVTG,064.03,T,-575.87,M,004.218,N,007.813,K,D*00
$GPGGA,094353.80,5703.4291689,N,00952.2178104,E,2,11,0.8,-2.301,M,40.593,M,2.9,0123*6B
$GPVTG,063.52,T,-576.38,M,004.260,N,007.889,K,D*08
$GPGGA,094353.85,5703.4291908,N,00952.2179085,E,2,11,0.8,-2.324,M,40.593,M,3.1,0123*6F
$GPVTG,066.84,T,-573.06,M,004.201,N,007.780,K,D*0F
$GPGGA,094353.90,5703.4292101,N,00952.2180015,E,2,11,0.8,-2.343,M,40.593,M,3.1,0123*67
$GPVTG,069.42,T,-570.48,M,003.920,N,007.260,K,D*07
$GPGGA,094353.95,5703.4292299,N,00952.2180924,E,2,11,0.8,-2.355,M,40.593,M,3.1,0123*6C
$GPVTG,069.23,T,-570.67,M,003.779,N,007.000,K,D*0B
$GPGGA,094354.00,5703.4292485,N,00952.2181787,E,2,11,0.8,-2.362,M,40.593,M,3.1,0123*6E
$GPVTG,068.97,T,-570.93,M,003.583,N,006.636,K,D*0B
$GPGGA,094354.05,5703.4292668,N,00952.2182622,E,2,11,0.8,-2.366,M,40.593,M,1.7,0123*67
$GPVTG,068.93,T,-570.97,M,003.480,N,006.445,K,D*0F
$GPGGA,094354.10,5703.4292851,N,00952.2183476,E,2,11,0.8,-2.362,M,40.593,M,1.7,0123*61
$GPVTG,068.82,T,-571.08,M,003.535,N,006.548,K,D*0B
$GPGGA,094354.15,5703.4293027,N,00952.2184306,E,2,11,0.8,-2.356,M,40.593,M,1.7,0123*6C
$GPVTG,068.86,T,-571.04,M,003.478,N,006.441,K,D*03
$GPGGA,094354.20,5703.4293200,N,00952.2185138,E,2,11,0.8,-2.347,M,40.593,M,1.7,0123*63
$GPVTG,069.13,T,-570.77,M,003.475,N,006.435,K,D*05
$GPGGA,094354.25,5703.4293360,N,00952.2185975,E,2,11,0.8,-2.330,M,40.593,M,1.9,0123*6E
$GPVTG,070.84,T,-569.06,M,003.470,N,006.427,K,D*0B
$GPGGA,094354.30,5703.4293511,N,00952.2186806,E,2,11,0.8,-2.315,M,40.593,M,1.9,0123*6B
$GPVTG,071.95,T,-567.95,M,003.436,N,006.364,K,D*0C
$GPGGA,094354.35,5703.4293675,N,00952.2187639,E,2,11,0.8,-2.300,M,40.593,M,1.9,0123*68
$GPVTG,070.87,T,-569.03,M,003.467,N,006.420,K,D*0C
