$GPGGA,094023.25,5703.4279976,N,00952.1843218,E,2,11,0.8,-2.118,M,40.593,M,1.8,0123*6D
$GPVTG,234.83,T,-405.07,M,004.209,N,007.796,K,D*03
$GPGGA,094023.30,5703.4279637,N,00952.1842347,E,2,11,0.8,-2.118,M,40.593,M,1.8,0123*69
$GPVTG,234.68,T,-405.22,M,004.202,N,007.783,K,D*0E
$GPGGA,094023.35,5703.4279297,N,00952.1841459,E,2,11,0.8,-2.120,M,40.593,M,1.8,0123*62
$GPVTG,234.87,T,-405.03,M,004.229,N,007.833,K,D*01
$GPGGA,094023.40,5703.4278955,N,00952.1840575,E,2,11,0.8,-2.117,M,40.593,M,1.8,0123*6E
$GPVTG,234.80,T,-405.10,M,004.245,N,007.862,K,D*0A
$GPGGA,094023.45,5703.4278625,N,00952.1839681,E,2,11,0.8,-2.115,M,40.593,M,2.0,0123*6C
$GPVTG,235.39,T,-404.51,M,004.249,N,007.869,K,D*0A
$GPGGA,094023.50,5703.4278288,N,00952.1838787,E,2,11,0.8,-2.114,M,40.593,M,2.0,0123*6C
$GPVTG,235.52,T,-404.38,M,004.265,N,007.898,K,D*08
$GPGGA,094023.55,5703.4277947,N,00952.1837905,E,2,11,0.8,-2.113,M,40.593,M,2.0,0123*62
$GPVTG,235.20,T,-404.70,M,004.261,N,007.892,K,D*0F
$GPGGA,094023.60,5703.4277607,N,00952.1837017,E,2,11,0.8,-2.109,M,40.593,M,2.0,0123*6E
$GPVTG,235.10,T,-404.80,M,004.267,N,007.903,K,D*0C
$GPGGA,094023.65,5703.4277271,N,00952.1836132,E,2,11,0.8,-2.110,M,40.593,M,2.3,0123*62
$GPVTG,235.12,T,-404.78,M,004.257,N,007.884,K,D*04
$GPGGA,094023.70,5703.4276937,N,00952.1835246,E,2,11,0.8,-2.111,M,40.593,M,2.3,0123*6C
$GPVTG,235.21,T,-404.69,M,004.246,N,007.863,K,D*0D
$GPGGA,094023.75,5703.4276597,N,00952.1834364,E,2,11,0.8,-2.110,M,40.593,M,2.3,0123*6E
$GPVTG,234.99,T,-404.91,M,004.244,N,007.860,K,D*09
$GPGGA,094023.80,5703.4276263,N,00952.1833476,E,2,11,0.8,-2.106,M,40.593,M,2.3,0123*6C
$GPVTG,235.14,T,-404.76,M,004.245,N,007.862,K,D*07
$GPGGA,094023.85,5703.4275925,N,00952.1832591,E,2,11,0.8,-2.107,M,40.593,M,2.5,0123*6D
$GPVTG,235.06,T,-404.84,M,004.246,N,007.863,K,D*0B
$GPGGA,094023.90,5703.4275585,N,00952.1831701,E,2,11,0.8,-2.104,M,40.593,M,2.5,0123*64
$GPVTG,235.05,T,-404.85,M,004.259,N,007.887,K,D*0D
$GPGGA,094023.95,5703.4275246,N,00952.1830826,E,2,11,0.8,-2.101,M,40.593,M,2.5,0123*67
$GPVTG,234.82,T,-405.08,M,004.240,N,007.852,K,D*07
$GPGGA,094024.00,5703.4274909,N,00952.1829951,E,2,11,0.8,-2.099,M,40.593,M,2.5,0123*64
$GPVTG,234.70,T,-405.20,M,004.225,N,007.824,K,D*02
$GPGGA,094024.05,5703.4274569,N,00952.1829054,E,2,11,0.8,-2.102,M,40.593,M,2.7,0123*66
$GPVTG,234.76,T,-405.14,M,004.235,N,007.844,K,D*04
$GPGGA,094024.10,5703.4274230,N,00952.1828176,E,2,11,0.8,-2.103,M,40.593,M,2.7,0123*68
$GPVTG,234.68,T,-405.22,M,004.231,N,007.836,K,D*0F
$GPGGA,094024.15,5703.4273893,N,00952.1827308,E,2,11,0.8,-2.102,M,40.593,M,2.7,0123*6C
$GPVTG,234.57,T,-405.33,M,004.207,N,007.792,K,D*07
$GPGGA,094024.20,5703.4273553,N,00952.1826432,E,2,11,0.8,-2.100,M,40.593,M,2.7,0123*66
$GPVTG,234.50,T,-405.40,M,004.214,N,007.805,K,D*07
$GPGGA,094024.25,5703.4273211,N,00952.1825544,E,2,11,0.8,-2.102,M,40.593,M,2.9,0123*6D
$GPVTG,234.60,T,-405.30,M,004.242,N,007.856,K,D*06
$GPGGA,094024.30,5703.4272864,N,00952.1824665,E,2,11,0.8,-2.102,M,40.593,M,2.9,0123*61
$GPVTG,234.34,T,-405.56,M,004.257,N,007.884,K,D*0C
$GPGGA,094024.35,5703.4272529,N,00952.1823788,E,2,11,0.8,-2.101,M,40.593,M,2.9,0123*66
$GPVTG,234.54,T,-405.36,M,004.240,N,007.853,K,D*00
$GPGGA,094024.40,5703.4272194,N,00952.1822908,E,2,11,0.8,-2.099,M,40.593,M,2.9,0123*61
$GPVTG,234.81,T,-405.09,M,004.231,N,007.836,K,D*01
$GPGGA,094024.45,5703.4271862,N,00952.1822024,E,2,11,0.8,-2.095,M,40.593,M,3.1,0123*65
$GPVTG,235.08,T,-404.82,M,004.230,N,007.834,K,D*00
$GPGGA,094024.50,5703.4271518,N,00952.1821129,E,2,11,0.8,-2.093,M,40.593,M,3.1,0123*68
$GPVTG,235.03,T,-404.87,M,004.267,N,007.903,K,D*09
$GPGGA,094024.55,5703.4271178,N,00952.1820226,E,2,11,0.8,-2.093,M,40.593,M,3.1,0123*62
$GPVTG,235.26,T,-404.64,M,004.300,N,007.963,K,D*05
$GPGGA,094024.60,5703.4270836,N,00952.1819337,E,2,11,0.8,-2.093,M,40.593,M,3.1,0123*6D
$GPVTG,235.09,T,-404.81,M,004.300,N,007.964,K,D*04
$GPGGA,094024.65,5703.4270497,N,00952.1818447,E,2,11,0.8,-2.094,M,40.593,M,3.3,0123*6B
$GPVTG,235.10,T,-404.80,M,004.290,N,007.945,K,D*06
$GPGGA,094024.70,5703.4270163,N,00952.1817570,E,2,11,0.8,-2.092,M,40.593,M,3.3,0123*6D
$GPVTG,235.06,T,-404.84,M,004.252,N,007.875,K,D*09
$GPGGA,094024.75,5703.4269836,N,00952.1816680,E,2,11,0.8,-2.090,M,40.593,M,3.3,0123*66
$GPVTG,235.51,T,-404.39,M,004.235,N,007.843,K,D*09
$GPGGA,094024.80,5703.4269495,N,00952.1815784,E,2,11,0.8,-2.087,M,40.593,M,3.3,0123*69
$GPVTG,235.40,T,-404.50,M,004.259,N,007.887,K,D*04
$GPGGA,094024.85,5703.4269152,N,00952.1814880,E,2,11,0.8,-2.086,M,40.593,M,3.5,0123*6F
$GPVTG,235.40,T,-404.51,M,004.295,N,007.954,K,D*0A
$GPGGA,094024.90,5703.4268802,N,00952.1813980,E,2,11,0.8,-2.086,M,40.593,M,3.5,0123*60
$GPVTG,235.00,T,-404.90,M,004.326,N,008.012,K,D*0E
$GPGGA,094024.95,5703.4268454,N,00952.1813083,E,2,11,0.8,-2.090,M,40.593,M,3.5,0123*67
$GPVTG,234.76,T,-405.14,M,004.335,N,008.028,K,D*08
$GPGGA,094025.00,5703.4268119,N,00952.1812190,E,2,11,0.8,-2.091,M,40.593,M,3.5,0123*65
$GPVTG,234.98,T,-404.92,M,004.310,N,007.983,K,D*07
$GPGGA,094025.05,5703.4267772,N,00952.1811290,E,2,11,0.8,-2.094,M,40.593,M,2.1,0123*64
$GPVTG,234.69,T,-405.21,M,004.302,N,007.967,K,D*09
$GPGGA,094025.10,5703.4267416,N,00952.1810379,E,2,11,0.8,-2.095,M,40.593,M,2.1,0123*67
$GPVTG,234.52,T,-405.38,M,004.354,N,008.063,K,D*08
$GPGGA,094025.15,5703.4267053,N,00952.1809468,E,2,11,0.8,-2.094,M,40.593,M,2.1,0123*69
$GPVTG,234.12,T,-405.78,M,004.406,N,008.160,K,D*0A
$GPGGA,094025.20,5703.4266703,N,00952.1808577,E,2,11,0.8,-2.095,M,40.593,M,2.1,0123*63
$GPVTG,234.01,T,-405.89,M,004.379,N,008.110,K,D*0E
$GPGGA,094025.25,5703.4266347,N,00952.1807686,E,2,11,0.8,-2.093,M,40.593,M,2.3,0123*64
$GPVTG,233.72,T,-406.18,M,004.368,N,008.090,K,D*0F
$GPGGA,094025.30,5703.4265997,N,00952.1806799,E,2,11,0.8,-2.092,M,40.593,M,2.3,0123*6B
$GPVTG,233.74,T,-406.16,M,004.340,N,008.038,K,D*0F
$GPGGA,094025.35,5703.4265640,N,00952.1805907,E,2,11,0.8,-2.092,M,40.593,M,2.3,0123*61
$GPVTG,233.60,T,-406.30,M,004.346,N,008.048,K,D*0F
$GPGGA,094025.40,5703.4265285,N,00952.1804994,E,2,11,0.8,-2.094,M,40.593,M,2.3,0123*63
$GPVTG,233.96,T,-405.94,M,004.379,N,008.111,K,D*0A
$GPGGA,094025.45,5703.4264930,N,00952.1804097,E,2,11,0.8,-2.096,M,40.593,M,2.6,0123*6F
$GPVTG,233.99,T,-405.91,M,004.374,N,008.101,K,D*0C
$GPGGA,094025.50,5703.4264577,N,00952.1803193,E,2,11,0.8,-2.096,M,40.593,M,2.6,0123*66
$GPVTG,234.17,T,-405.73,M,004.377,N,008.106,K,D*05
$GPGGA,094025.55,5703.4264223,N,00952.1802285,E,2,11,0.8,-2.097,M,40.593,M,2.6,0123*61
$GPVTG,234.32,T,-405.58,M,004.387,N,008.125,K,D*05
$GPGGA,094025.60,5703.4263877,N,00952.1801370,E,2,11,0.8,-2.097,M,40.593,M,2.6,0123*63
$GPVTG,234.78,T,-405.12,M,004.391,N,008.132,K,D*04
$GPGGA,094025.65,5703.4263529,N,00952.1800452,E,2,11,0.8,-2.098,M,40.593,M,2.9,0123*66
$GPVTG,235.10,T,-404.80,M,004.399,N,008.147,K,D*0B
$GPGGA,094025.70,5703.4263185,N,00952.1799522,E,2,11,0.8,-2.099,M,40.593,M,2.9,0123*68
$GPVTG,235.62,T,-404.28,M,004.417,N,008.180,K,D*06
$GPGGA,094025.75,5703.4262830,N,00952.1798589,E,2,11,0.8,-2.100,M,40.593,M,2.9,0123*6A
$GPVTG,235.56,T,-404.34,M,004.451,N,008.244,K,D*05
$GPGGA,094025.80,5703.4262485,N,00952.1797668,E,2,11,0.8,-2.099,M,40.593,M,2.9,0123*60
$GPVTG,235.66,T,-404.24,M,004.434,N,008.212,K,D*07
$GPGGA,094025.85,5703.4262133,N,00952.1796757,E,2,11,0.8,-2.100,M,40.593,M,3.1,0123*69
$GPVTG,235.30,T,-404.60,M,004.414,N,008.174,K,D*05
$GPGGA,094025.90,5703.4261791,N,00952.1795836,E,2,11,0.8,-2.101,M,40.593,M,3.1,0123*6A
$GPVTG,235.54,T,-404.36,M,004.399,N,008.147,K,D*06
$GPGGA,094025.95,5703.4261451,N,00952.1794904,E,2,11,0.8,-2.102,M,40.593,M,3.1,0123*62
$GPVTG,235.91,T,-403.99,M,004.402,N,008.153,K,D*0D
$GPGGA,094026.00,5703.4261106,N,00952.1793960,E,2,11,0.8,-2.102,M,40.593,M,3.1,0123*6F
$GPVTG,236.15,T,-403.75,M,004.437,N,008.217,K,D*05
$GPGGA,094026.05,5703.4260754,N,00952.1793023,E,2,11,0.8,-2.096,M,40.593,M,1.7,0123*6C
$GPVTG,235.94,T,-403.96,M,004.439,N,008.222,K,D*0A
$GPGGA,094026.10,5703.4260407,N,00952.1792111,E,2,11,0.8,-2.097,M,40.593,M,1.7,0123*6D
$GPVTG,235.59,T,-404.31,M,004.408,N,008.163,K,D*05
$GPGGA,094026.15,5703.4260066,N,00952.1791183,E,2,11,0.8,-2.097,M,40.593,M,1.7,0123*63
$GPVTG,235.75,T,-404.15,M,004.401,N,008.151,K,D*05
$GPGGA,094026.20,5703.4259732,N,00952.1790260,E,2,11,0.8,-2.093,M,40.593,M,1.7,0123*62
$GPVTG,236.09,T,-403.81,M,004.378,N,008.108,K,D*02
$GPGGA,094026.25,5703.4259385,N,00952.1789337,E,2,11,0.8,-2.098,M,40.593,M,1.9,0123*61
$GPVTG,235.82,T,-404.08,M,004.386,N,008.123,K,D*0C
$GPGGA,094026.30,5703.4259029,N,00952.1788423,E,2,11,0.8,-2.096,M,40.593,M,1.9,0123*6D
$GPVTG,235.17,T,-404.73,M,004.394,N,008.137,K,D*0A
$GPGGA,094026.35,5703.4258686,N,00952.1787498,E,2,11,0.8,-2.096,M,40.593,M,1.9,0123*65
$GPVTG,235.35,T,-404.55,M,004.397,N,008.143,K,D*0E
$GPGGA,094026.40,5703.4258345,N,00952.1786584,E,2,11,0.8,-2.095,M,40.593,M,1.9,0123*63
$GPVTG,235.40,T,-404.50,M,004.377,N,008.105,K,D*05
$GPGGA,094026.45,5703.4258002,N,00952.1785672,E,2,11,0.8,-2.094,M,40.593,M,2.2,0123*66
$GPVTG,235.38,T,-404.52,M,004.363,N,008.079,K,D*07
$GPGGA,094026.50,5703.4257665,N,00952.1784759,E,2,11,0.8,-2.093,M,40.593,M,2.2,0123*64
$GPVTG,235.58,T,-404.32,M,004.343,N,008.042,K,D*0D
$GPGGA,094026.55,5703.4257323,N,00952.1783845,E,2,11,0.8,-2.089,M,40.593,M,2.2,0123*68
$GPVTG,235.57,T,-404.33,M,004.343,N,008.043,K,D*02
$GPGGA,094026.60,5703.4256993,N,00952.1782932,E,2,11,0.8,-2.085,M,40.593,M,2.2,0123*62
$GPVTG,235.99,T,-403.91,M,004.323,N,008.007,K,D*09
$GPGGA,094026.65,5703.4256654,N,00952.1782004,E,2,11,0.8,-2.081,M,40.593,M,2.4,0123*6D
$GPVTG,236.18,T,-403.72,M,004.352,N,008.060,K,D*09
$GPGGA,094026.70,5703.4256319,N,00952.1781086,E,2,11,0.8,-2.081,M,40.593,M,2.4,0123*6C
$GPVTG,236.26,T,-403.64,M,004.346,N,008.050,K,D*05
$GPGGA,094026.75,5703.4255983,N,00952.1780177,E,2,11,0.8,-2.083,M,40.593,M,2.4,0123*6F
$GPVTG,236.17,T,-403.73,M,004.329,N,008.018,K,D*04
$GPGGA,094026.80,5703.4255651,N,00952.1779279,E,2,11,0.8,-2.080,M,40.593,M,2.4,0123*6D
$GPVTG,236.04,T,-403.86,M,004.294,N,007.952,K,D*03
$GPGGA,094026.85,5703.4255306,N,00952.1778373,E,2,11,0.8,-2.076,M,40.593,M,2.7,0123*6F
$GPVTG,235.68,T,-404.22,M,004.301,N,007.966,K,D*09
$GPGGA,094026.90,5703.4254973,N,00952.1777469,E,2,11,0.8,-2.075,M,40.593,M,2.7,0123*62
$GPVTG,235.75,T,-404.15,M,004.291,N,007.946,K,D*0B
$GPGGA,094026.95,5703.4254643,N,00952.1776568,E,2,11,0.8,-2.073,M,40.593,M,2.7,0123*6C
$GPVTG,235.90,T,-404.00,M,004.273,N,007.914,K,D*0F
$GPGGA,094027.00,5703.4254305,N,00952.1775664,E,2,11,0.8,-2.071,M,40.593,M,2.7,0123*68
$GPVTG,235.73,T,-404.17,M,004.282,N,007.930,K,D*0C
$GPGGA,094027.05,5703.4253978,N,00952.1774746,E,2,11,0.8,-2.071,M,40.593,M,1.6,0123*68
$GPVTG,236.28,T,-403.62,M,004.274,N,007.915,K,D*0A
$GPGGA,094027.10,5703.4253653,N,00952.1773851,E,2,11,0.8,-2.072,M,40.593,M,1.6,0123*67
$GPVTG,236.38,T,-403.52,M,004.246,N,007.863,K,D*09
$GPGGA,094027.15,5703.4253327,N,00952.1772958,E,2,11,0.8,-2.073,M,40.593,M,1.6,0123*6C
$GPVTG,236.35,T,-403.55,M,004.227,N,007.829,K,D*0A
$GPGGA,094027.20,5703.4252999,N,00952.1772065,E,2,11,0.8,-2.070,M,40.593,M,1.6,0123*60
$GPVTG,236.25,T,-403.65,M,004.221,N,007.817,K,D*03
$GPGGA,094027.25,5703.4252667,N,00952.1771158,E,2,11,0.8,-2.075,M,40.593,M,1.8,0123*6C
$GPVTG,236.26,T,-403.64,M,004.247,N,007.866,K,D*07
$GPGGA,094027.30,5703.4252338,N,00952.1770275,E,2,11,0.8,-2.077,M,40.593,M,1.8,0123*68
$GPVTG,235.99,T,-403.91,M,004.223,N,007.820,K,D*0A
$GPGGA,094027.35,5703.4252017,N,00952.1769383,E,2,11,0.8,-2.077,M,40.593,M,1.8,0123*63
$GPVTG,236.21,T,-403.69,M,004.207,N,007.792,K,D*0D
$GPGGA,094027.40,5703.4251697,N,00952.1768494,E,2,11,0.8,-2.078,M,40.593,M,1.8,0123*63
$GPVTG,236.38,T,-403.52,M,004.193,N,007.765,K,D*0B
$GPGGA,094027.45,5703.4251381,N,00952.1767609,E,2,11,0.8,-2.072,M,40.593,M,2.0,0123*6C
$GPVTG,236.54,T,-403.36,M,004.172,N,007.727,K,D*0A
$GPGGA,094027.50,5703.4251063,N,00952.1766707,E,2,11,0.8,-2.072,M,40.593,M,2.0,0123*69
$GPVTG,236.89,T,-403.01,M,004.188,N,007.757,K,D*0C
$GPGGA,094027.55,5703.4250743,N,00952.1765807,E,2,11,0.8,-2.074,M,40.593,M,2.0,0123*62
$GPVTG,237.03,T,-402.87,M,004.204,N,007.786,K,D*0B
$GPGGA,094027.60,5703.4250430,N,00952.1764900,E,2,11,0.8,-2.074,M,40.593,M,2.0,0123*64
$GPVTG,237.45,T,-402.45,M,004.214,N,007.804,K,D*03
$GPGGA,094027.65,5703.4250130,N,00952.1764004,E,2,11,0.8,-2.073,M,40.593,M,2.3,0123*6D
$GPVTG,238.03,T,-401.87,M,004.177,N,007.736,K,D*0B
$GPGGA,094027.70,5703.4249821,N,00952.1763122,E,2,11,0.8,-2.072,M,40.593,M,2.3,0123*6B
$GPVTG,237.87,T,-402.03,M,004.142,N,007.671,K,D*03
$GPGGA,094027.75,5703.4249506,N,00952.1762241,E,2,11,0.8,-2.073,M,40.593,M,2.3,0123*60
$GPVTG,237.42,T,-402.48,M,004.130,N,007.648,K,D*0A
$GPGGA,094027.80,5703.4249192,N,00952.1761345,E,2,11,0.8,-2.076,M,40.593,M,2.3,0123*60
$GPVTG,237.41,T,-402.49,M,004.148,N,007.682,K,D*01
$GPGGA,094027.85,5703.4248892,N,00952.1760443,E,2,11,0.8,-2.080,M,40.593,M,2.5,0123*62
$GPVTG,238.01,T,-401.89,M,004.150,N,007.686,K,D*08
$GPGGA,094027.90,5703.4248582,N,00952.1759559,E,2,11,0.8,-2.082,M,40.593,M,2.5,0123*68
$GPVTG,237.76,T,-402.14,M,004.137,N,007.662,K,D*0B
$GPGGA,094027.95,5703.4248271,N,00952.1758677,E,2,11,0.8,-2.085,M,40.593,M,2.5,0123*6F
$GPVTG,237.49,T,-402.41,M,004.127,N,007.644,K,D*02
$GPGGA,094028.00,5703.4247964,N,00952.1757792,E,2,11,0.8,-2.087,M,40.593,M,2.5,0123*6B
$GPVTG,237.48,T,-402.42,M,004.121,N,007.633,K,D*06
$GPGGA,094028.05,5703.4247655,N,00952.1756897,E,2,11,0.8,-2.089,M,40.593,M,2.7,0123*64
$GPVTG,237.57,T,-402.33,M,004.117,N,007.625,K,D*0C
$GPGGA,094028.10,5703.4247339,N,00952.1756005,E,2,11,0.8,-2.092,M,40.593,M,2.7,0123*66
$GPVTG,237.35,T,-402.55,M,004.145,N,007.677,K,D*08
$GPGGA,094028.15,5703.4247036,N,00952.1755117,E,2,11,0.8,-2.094,M,40.593,M,2.7,0123*68
$GPVTG,237.58,T,-402.32,M,004.134,N,007.657,K,D*06
$GPGGA,094028.20,5703.4246731,N,00952.1754234,E,2,11,0.8,-2.096,M,40.593,M,2.7,0123*6E
$GPVTG,237.60,T,-402.30,M,004.122,N,007.634,K,D*0D
$GPGGA,094028.25,5703.4246430,N,00952.1753357,E,2,11,0.8,-2.098,M,40.593,M,2.9,0123*6A
$GPVTG,237.70,T,-402.20,M,004.095,N,007.584,K,D*08
$GPGGA,094028.30,5703.4246128,N,00952.1752484,E,2,11,0.8,-2.102,M,40.593,M,2.9,0123*68
$GPVTG,237.68,T,-402.22,M,004.073,N,007.544,K,D*07
$GPGGA,094028.35,5703.4245829,N,00952.1751603,E,2,11,0.8,-2.106,M,40.593,M,2.9,0123*6C
$GPVTG,237.88,T,-402.02,M,004.069,N,007.536,K,D*05
$GPGGA,094028.40,5703.4245527,N,00952.1750721,E,2,11,0.8,-2.106,M,40.593,M,2.9,0123*6D
$GPVTG,237.94,T,-401.96,M,004.074,N,007.544,K,D*0F
$GPGGA,094028.45,5703.4245224,N,00952.1749834,E,2,11,0.8,-2.109,M,40.593,M,3.1,0123*69
$GPVTG,238.08,T,-401.82,M,004.087,N,007.569,K,D*03
$GPGGA,094028.50,5703.4244928,N,00952.1748942,E,2,11,0.8,-2.112,M,40.593,M,3.1,0123*60
$GPVTG,238.42,T,-401.48,M,004.097,N,007.587,K,D*0A
$GPGGA,094028.55,5703.4244640,N,00952.1748057,E,2,11,0.8,-2.114,M,40.593,M,3.1,0123*6F
$GPVTG,238.90,T,-401.00,M,004.078,N,007.552,K,D*00
$GPGGA,094028.60,5703.4244350,N,00952.1747164,E,2,11,0.8,-2.116,M,40.593,M,3.1,0123*61
$GPVTG,239.19,T,-400.71,M,004.080,N,007.556,K,D*04
$GPGGA,094028.65,5703.4244052,N,00952.1746248,E,2,11,0.8,-2.119,M,40.593,M,3.3,0123*64
$GPVTG,239.48,T,-400.42,M,004.134,N,007.656,K,D*0D
$GPGGA,094028.70,5703.4243759,N,00952.1745344,E,2,11,0.8,-2.120,M,40.593,M,3.3,0123*6F
$GPVTG,239.58,T,-400.32,M,004.143,N,007.673,K,D*0C
$GPGGA,094028.75,5703.4243468,N,00952.1744431,E,2,11,0.8,-2.120,M,40.593,M,3.3,0123*6F
$GPVTG,239.77,T,-400.13,M,004.161,N,007.705,K,D*02
$GPGGA,094028.80,5703.4243174,N,00952.1743521,E,2,11,0.8,-2.120,M,40.593,M,3.3,0123*6A
$GPVTG,239.71,T,-400.19,M,004.168,N,007.720,K,D*00
$GPGGA,094028.85,5703.4242887,N,00952.1742625,E,2,11,0.8,-2.123,M,40.593,M,3.5,0123*68
$GPVTG,239.75,T,-400.15,M,004.135,N,007.658,K,D*0E
$GPGGA,094028.90,5703.4242599,N,00952.1741715,E,2,11,0.8,-2.124,M,40.593,M,3.5,0123*68
$GPVTG,239.89,T,-400.01,M,004.137,N,007.661,K,D*00
$GPGGA,094028.95,5703.4242311,N,00952.1740819,E,2,11,0.8,-2.124,M,40.593,M,3.5,0123*69
$GPVTG,239.74,T,-400.16,M,004.112,N,007.615,K,D*00
$GPGGA,094029.00,5703.4242021,N,00952.1739926,E,2,11,0.8,-2.124,M,40.593,M,3.5,0123*67
$GPVTG,239.50,T,-400.40,M,004.095,N,007.583,K,D*07
$GPGGA,094029.05,5703.4241726,N,00952.1739011,E,2,11,0.8,-2.119,M,40.593,M,2.1,0123*67
$GPVTG,239.58,T,-400.32,M,004.106,N,007.605,K,D*0C
$GPGGA,094029.10,5703.4241429,N,00952.1738106,E,2,11,0.8,-2.117,M,40.593,M,2.1,0123*67
$GPVTG,239.30,T,-400.60,M,004.127,N,007.644,K,D*03
$GPGGA,094029.15,5703.4241136,N,00952.1737205,E,2,11,0.8,-2.119,M,40.593,M,2.1,0123*68
$GPVTG,239.20,T,-400.70,M,004.127,N,007.642,K,D*05
$GPGGA,094029.20,5703.4240841,N,00952.1736300,E,2,11,0.8,-2.119,M,40.593,M,2.1,0123*63
$GPVTG,239.10,T,-400.80,M,004.137,N,007.662,K,D*0A
$GPGGA,094029.25,5703.4240552,N,00952.1735392,E,2,11,0.8,-2.120,M,40.593,M,2.3,0123*69
$GPVTG,239.35,T,-400.55,M,004.142,N,007.671,K,D*05
$GPGGA,094029.30,5703.4240256,N,00952.1734489,E,2,11,0.8,-2.119,M,40.593,M,2.3,0123*68
$GPVTG,239.18,T,-400.72,M,004.143,N,007.674,K,D*0B
$GPGGA,094029.35,5703.4239962,N,00952.1733570,E,2,11,0.8,-2.119,M,40.593,M,2.3,0123*6F
$GPVTG,239.39,T,-400.51,M,004.171,N,007.725,K,D*0D
$GPGGA,094029.40,5703.4239670,N,00952.1732650,E,2,11,0.8,-2.122,M,40.593,M,2.3,0123*69
$GPVTG,239.60,T,-400.30,M,004.187,N,007.754,K,D*09
$GPGGA,094029.45,5703.4239377,N,00952.1731728,E,2,11,0.8,-2.118,M,40.593,M,2.6,0123*6F
$GPVTG,239.65,T,-400.25,M,004.203,N,007.784,K,D*0A
$GPGGA,094029.50,5703.4239081,N,00952.1730801,E,2,11,0.8,-2.119,M,40.593,M,2.6,0123*65
$GPVTG,239.72,T,-400.18,M,004.221,N,007.818,K,D*08
$GPGGA,094029.55,5703.4238793,N,00952.1729873,E,2,11,0.8,-2.119,M,40.593,M,2.6,0123*68
$GPVTG,240.04,T,-399.86,M,004.223,N,007.821,K,D*0F
$GPGGA,094029.60,5703.4238504,N,00952.1728944,E,2,11,0.8,-2.118,M,40.593,M,2.6,0123*67
$GPVTG,240.25,T,-399.65,M,004.223,N,007.821,K,D*01
$GPGGA,094029.65,5703.4238208,N,00952.1728002,E,2,11,0.8,-2.124,M,40.593,M,2.9,0123*62
$GPVTG,240.30,T,-399.60,M,004.253,N,007.877,K,D*04
$GPGGA,094029.70,5703.4237908,N,00952.1727069,E,2,11,0.8,-2.124,M,40.593,M,2.9,0123*60
$GPVTG,239.98,T,-399.92,M,004.266,N,007.902,K,D*00
$GPGGA,094029.75,5703.4237603,N,00952.1726122,E,2,11,0.8,-2.126,M,40.593,M,2.9,0123*6C
$GPVTG,239.74,T,-400.16,M,004.305,N,007.972,K,D*0A
$GPGGA,094029.80,5703.4237304,N,00952.1725165,E,2,11,0.8,-2.127,M,40.593,M,2.9,0123*65
$GPVTG,239.90,T,-400.00,M,004.337,N,008.033,K,D*05
$GPGGA,094029.85,5703.4237006,N,00952.1724203,E,2,11,0.8,-2.135,M,40.593,M,3.1,0123*69
$GPVTG,240.15,T,-399.75,M,004.362,N,008.079,K,D*0D
$GPGGA,094029.90,5703.4236712,N,00952.1723259,E,2,11,0.8,-2.134,M,40.593,M,3.1,0123*67
$GPVTG,240.19,T,-399.71,M,004.336,N,008.031,K,D*08
$GPGGA,094029.95,5703.4236408,N,00952.1722306,E,2,11,0.8,-2.135,M,40.593,M,3.1,0123*61
$GPVTG,239.97,T,-399.93,M,004.347,N,008.050,K,D*0D
$GPGGA,094030.00,5703.4236110,N,00952.1721356,E,2,11,0.8,-2.138,M,40.593,M,3.1,0123*62
$GPVTG,240.01,T,-399.89,M,004.334,N,008.027,K,D*03
$GPGGA,094030.05,5703.4235812,N,00952.1720394,E,2,11,0.8,-2.131,M,40.593,M,1.7,0123*6D
$GPVTG,240.19,T,-399.71,M,004.327,N,008.014,K,D*0F
$GPGGA,094030.10,5703.4235519,N,00952.1719437,E,2,11,0.8,-2.128,M,40.593,M,1.7,0123*63
$GPVTG,240.43,T,-399.47,M,004.324,N,008.009,K,D*0A
$GPGGA,094030.15,5703.4235221,N,00952.1718477,E,2,11,0.8,-2.128,M,40.593,M,1.7,0123*6F
$GPVTG,240.44,T,-399.46,M,004.336,N,008.030,K,D*05
$GPGGA,094030.20,5703.4234920,N,00952.1717511,E,2,11,0.8,-2.127,M,40.593,M,1.7,0123*63
$GPVTG,240.42,T,-399.48,M,004.358,N,008.071,K,D*00
$GPGGA,094030.25,5703.4234626,N,00952.1716549,E,2,11,0.8,-2.128,M,40.593,M,1.9,0123*62
$GPVTG,240.73,T,-399.17,M,004.346,N,008.049,K,D*0C
$GPGGA,094030.30,5703.4234331,N,00952.1715591,E,2,11,0.8,-2.125,M,40.593,M,1.9,0123*6E
$GPVTG,240.70,T,-399.20,M,004.339,N,008.036,K,D*0B
$GPGGA,094030.35,5703.4234037,N,00952.1714624,E,2,11,0.8,-2.124,M,40.593,M,1.9,0123*63
$GPVTG,240.82,T,-399.08,M,004.347,N,008.051,K,D*04
$GPGGA,094030.40,5703.4233741,N,00952.1713661,E,2,11,0.8,-2.121,M,40.593,M,1.9,0123*63
$GPVTG,240.78,T,-399.12,M,004.348,N,008.053,K,D*07
$GPGGA,094030.45,5703.4233447,N,00952.1712695,E,2,11,0.8,-2.116,M,40.593,M,2.2,0123*65
$GPVTG,240.79,T,-399.11,M,004.353,N,008.061,K,D*0E
$GPGGA,094030.50,5703.4233148,N,00952.1711735,E,2,11,0.8,-2.113,M,40.593,M,2.2,0123*66
$GPVTG,240.57,T,-399.33,M,004.351,N,008.059,K,D*0B
$GPGGA,094030.55,5703.4232856,N,00952.1710777,E,2,11,0.8,-2.112,M,40.593,M,2.2,0123*62
$GPVTG,240.64,T,-399.26,M,004.334,N,008.026,K,D*04
$GPGGA,094030.60,5703.4232564,N,00952.1709823,E,2,11,0.8,-2.110,M,40.593,M,2.2,0123*6C
$GPVTG,240.65,T,-399.25,M,004.314,N,007.990,K,D*0F
$GPGGA,094030.65,5703.4232262,N,00952.1708866,E,2,11,0.8,-2.109,M,40.593,M,2.4,0123*66
$GPVTG,240.34,T,-399.56,M,004.325,N,008.009,K,D*0B
$GPGGA,094030.70,5703.4231953,N,00952.1707906,E,2,11,0.8,-2.106,M,40.593,M,2.4,0123*6F
$GPVTG,239.88,T,-400.02,M,004.352,N,008.059,K,D*01
$GPGGA,094030.75,5703.4231653,N,00952.1706954,E,2,11,0.8,-2.102,M,40.593,M,2.4,0123*67
$GPVTG,239.79,T,-400.11,M,004.339,N,008.036,K,D*09
$GPGGA,094030.80,5703.4231372,N,00952.1706002,E,2,11,0.8,-2.100,M,40.593,M,2.4,0123*63
$GPVTG,240.46,T,-399.44,M,004.303,N,007.969,K,D*09
$GPGGA,094030.85,5703.4231089,N,00952.1705066,E,2,11,0.8,-2.096,M,40.593,M,2.7,0123*6D
$GPVTG,240.65,T,-399.25,M,004.252,N,007.875,K,D*06
$GPGGA,094030.90,5703.4230793,N,00952.1704137,E,2,11,0.8,-2.092,M,40.593,M,2.7,0123*64
$GPVTG,240.22,T,-399.68,M,004.225,N,007.824,K,D*08
$GPGGA,094030.95,5703.4230499,N,00952.1703194,E,2,11,0.8,-2.090,M,40.593,M,2.7,0123*64
$GPVTG,240.20,T,-399.70,M,004.233,N,007.840,K,D*06
$GPGGA,094031.00,5703.4230207,N,00952.1702261,E,2,11,0.8,-2.090,M,40.593,M,2.7,0123*60
$GPVTG,240.13,T,-399.77,M,004.222,N,007.820,K,D*07
$GPGGA,094031.05,5703.4229912,N,00952.1701303,E,2,11,0.8,-2.084,M,40.593,M,1.6,0123*63
$GPVTG,240.36,T,-399.54,M,004.247,N,007.866,K,D*00
$GPGGA,094031.10,5703.4229629,N,00952.1700372,E,2,11,0.8,-2.080,M,40.593,M,1.6,0123*63
$GPVTG,240.60,T,-399.30,M,004.217,N,007.810,K,D*05
$GPGGA,094031.15,5703.4229335,N,00952.1699438,E,2,11,0.8,-2.078,M,40.593,M,1.6,0123*61
$GPVTG,240.37,T,-399.53,M,004.220,N,007.815,K,D*03
$GPGGA,094031.20,5703.4229038,N,00952.1698505,E,2,11,0.8,-2.078,M,40.593,M,1.6,0123*67
$GPVTG,240.04,T,-399.86,M,004.229,N,007.833,K,D*06
$GPGGA,094031.25,5703.4228752,N,00952.1697575,E,2,11,0.8,-2.077,M,40.593,M,1.8,0123*61
$GPVTG,240.23,T,-399.67,M,004.211,N,007.798,K,D*09
$GPGGA,094031.30,5703.4228464,N,00952.1696657,E,2,11,0.8,-2.076,M,40.593,M,1.8,0123*60
$GPVTG,240.16,T,-399.74,M,004.182,N,007.746,K,D*07
$GPGGA,094031.35,5703.4228178,N,00952.1695738,E,2,11,0.8,-2.075,M,40.593,M,1.8,0123*65
$GPVTG,240.15,T,-399.75,M,004.162,N,007.708,K,D*01
$GPGGA,094031.40,5703.4227892,N,00952.1694823,E,2,11,0.8,-2.073,M,40.593,M,1.8,0123*67
$GPVTG,240.12,T,-399.78,M,004.146,N,007.678,K,D*0B
$GPGGA,094031.45,5703.4227614,N,00952.1693920,E,2,11,0.8,-2.074,M,40.593,M,2.0,0123*6B
$GPVTG,240.26,T,-399.64,M,004.101,N,007.595,K,D*02
$GPGGA,094031.50,5703.4227333,N,00952.1693007,E,2,11,0.8,-2.071,M,40.593,M,2.0,0123*66
$GPVTG,240.43,T,-399.47,M,004.097,N,007.588,K,D*02
$GPGGA,094031.55,5703.4227051,N,00952.1692089,E,2,11,0.8,-2.070,M,40.593,M,2.0,0123*62
$GPVTG,240.54,T,-399.36,M,004.108,N,007.608,K,D*0E
$GPGGA,094031.60,5703.4226770,N,00952.1691165,E,2,11,0.8,-2.070,M,40.593,M,2.0,0123*61
$GPVTG,240.77,T,-399.13,M,004.128,N,007.646,K,D*00
$GPGGA,094031.65,5703.4226496,N,00952.1690258,E,2,11,0.8,-2.074,M,40.593,M,2.3,0123*64
$GPVTG,240.96,T,-398.94,M,004.101,N,007.594,K,D*06
$GPGGA,094031.70,5703.4226222,N,00952.1689351,E,2,11,0.8,-2.075,M,40.593,M,2.3,0123*68
$GPVTG,241.06,T,-398.84,M,004.081,N,007.559,K,D*07
$GPGGA,094031.75,5703.4225942,N,00952.1688444,E,2,11,0.8,-2.075,M,40.593,M,2.3,0123*61
$GPVTG,240.87,T,-399.03,M,004.082,N,007.560,K,D*08
$GPGGA,094031.80,5703.4225669,N,00952.1687553,E,2,11,0.8,-2.073,M,40.593,M,2.3,0123*63
$GPVTG,240.79,T,-399.11,M,004.042,N,007.486,K,D*0F
$GPGGA,094031.85,5703.4225408,N,00952.1686662,E,2,11,0.8,-2.071,M,40.593,M,2.5,0123*67
$GPVTG,241.23,T,-398.67,M,003.998,N,007.405,K,D*03
$GPGGA,094031.90,5703.4225153,N,00952.1685775,E,2,11,0.8,-2.069,M,40.593,M,2.5,0123*65
$GPVTG,241.73,T,-398.17,M,003.955,N,007.325,K,D*05
$GPGGA,094031.95,5703.4224895,N,00952.1684874,E,2,11,0.8,-2.070,M,40.593,M,2.5,0123*65
$GPVTG,242.19,T,-397.71,M,003.958,N,007.330,K,D*0C
$GPGGA,094032.00,5703.4224629,N,00952.1683986,E,2,11,0.8,-2.070,M,40.593,M,2.5,0123*68
$GPVTG,241.93,T,-397.97,M,003.954,N,007.322,K,D*0A
$GPGGA,094032.05,5703.4224359,N,00952.1683092,E,2,11,0.8,-2.070,M,40.593,M,2.7,0123*61
$GPVTG,241.78,T,-398.12,M,003.950,N,007.315,K,D*0D
$GPGGA,094032.10,5703.4224090,N,00952.1682206,E,2,11,0.8,-2.070,M,40.593,M,2.7,0123*6D
$GPVTG,241.40,T,-398.50,M,003.960,N,007.333,K,D*07
$GPGGA,094032.15,5703.4223832,N,00952.1681311,E,2,11,0.8,-2.068,M,40.593,M,2.7,0123*62
$GPVTG,241.75,T,-398.15,M,003.965,N,007.343,K,D*02
$GPGGA,094032.20,5703.4223570,N,00952.1680417,E,2,11,0.8,-2.071,M,40.593,M,2.7,0123*67
$GPVTG,241.77,T,-398.13,M,003.976,N,007.364,K,D*01
$GPGGA,094032.25,5703.4223302,N,00952.1679526,E,2,11,0.8,-2.071,M,40.593,M,2.9,0123*6A
$GPVTG,241.51,T,-398.39,M,003.987,N,007.384,K,D*0D
$GPGGA,094032.30,5703.4223034,N,00952.1678646,E,2,11,0.8,-2.071,M,40.593,M,2.9,0123*6C
$GPVTG,241.14,T,-398.76,M,003.975,N,007.362,K,D*02
$GPGGA,094032.35,5703.4222766,N,00952.1677774,E,2,11,0.8,-2.075,M,40.593,M,2.9,0123*63
$GPVTG,240.78,T,-399.12,M,003.954,N,007.322,K,D*0D
$GPGGA,094032.40,5703.4222500,N,00952.1676886,E,2,11,0.8,-2.078,M,40.593,M,2.9,0123*6D
$GPVTG,240.87,T,-399.03,M,003.964,N,007.341,K,D*0B
$GPGGA,094032.45,5703.4222236,N,00952.1676002,E,2,11,0.8,-2.079,M,40.593,M,3.1,0123*66
$GPVTG,240.96,T,-398.94,M,003.964,N,007.341,K,D*04
$GPGGA,094032.50,5703.4221969,N,00952.1675124,E,2,11,0.8,-2.079,M,40.593,M,3.1,0123*66
$GPVTG,240.86,T,-399.04,M,003.958,N,007.330,K,D*04
$GPGGA,094032.55,5703.4221696,N,00952.1674237,E,2,11,0.8,-2.079,M,40.593,M,3.1,0123*6C
$GPVTG,240.70,T,-399.20,M,003.979,N,007.369,K,D*04
$GPGGA,094032.60,5703.4221439,N,00952.1673341,E,2,11,0.8,-2.081,M,40.593,M,3.1,0123*6D
$GPVTG,241.37,T,-398.53,M,003.985,N,007.381,K,D*06
$GPGGA,094032.65,5703.4221174,N,00952.1672450,E,2,11,0.8,-2.087,M,40.593,M,3.3,0123*66
$GPVTG,241.46,T,-398.44,M,003.990,N,007.390,K,D*02
$GPGGA,094032.70,5703.4220906,N,00952.1671568,E,2,11,0.8,-2.089,M,40.593,M,3.3,0123*69
$GPVTG,241.24,T,-398.66,M,003.981,N,007.374,K,D*0C
$GPGGA,094032.75,5703.4220637,N,00952.1670692,E,2,11,0.8,-2.089,M,40.593,M,3.3,0123*66
$GPVTG,240.95,T,-398.95,M,003.965,N,007.344,K,D*02
$GPGGA,094032.80,5703.4220377,N,00952.1669816,E,2,11,0.8,-2.089,M,40.593,M,3.3,0123*67
$GPVTG,241.11,T,-398.79,M,003.943,N,007.303,K,D*0A
$GPGGA,094032.85,5703.4220117,N,00952.1668939,E,2,11,0.8,-2.092,M,40.593,M,3.5,0123*67
$GPVTG,241.26,T,-398.64,M,003.929,N,007.276,K,D*0D
$GPGGA,094032.90,5703.4219857,N,00952.1668058,E,2,11,0.8,-2.094,M,40.593,M,3.5,0123*6C
$GPVTG,241.42,T,-398.48,M,003.927,N,007.274,K,D*0D
$GPGGA,094032.95,5703.4219596,N,00952.1667190,E,2,11,0.8,-2.096,M,40.593,M,3.5,0123*61
$GPVTG,241.30,T,-398.60,M,003.906,N,007.234,K,D*05
$GPGGA,094033.00,5703.4219329,N,00952.1666309,E,2,11,0.8,-2.096,M,40.593,M,3.5,0123*6D
$GPVTG,241.14,T,-398.76,M,003.927,N,007.272,K,D*05
$GPGGA,094033.05,5703.4219069,N,00952.1665412,E,2,11,0.8,-2.091,M,40.593,M,2.1,0123*63
$GPVTG,241.66,T,-398.24,M,003.941,N,007.299,K,D*02
$GPGGA,094033.10,5703.4218821,N,00952.1664533,E,2,11,0.8,-2.093,M,40.593,M,2.1,0123*63
$GPVTG,242.16,T,-397.74,M,003.919,N,007.258,K,D*0C
$GPGGA,094033.15,5703.4218561,N,00952.1663654,E,2,11,0.8,-2.095,M,40.593,M,2.1,0123*6C
$GPVTG,242.00,T,-397.90,M,003.922,N,007.263,K,D*01
$GPGGA,094033.20,5703.4218307,N,00952.1662754,E,2,11,0.8,-2.096,M,40.593,M,2.1,0123*6F
$GPVTG,242.44,T,-397.46,M,003.954,N,007.323,K,D*0E
$GPGGA,094033.25,5703.4218056,N,00952.1661850,E,2,11,0.8,-2.099,M,40.593,M,2.3,0123*68
$GPVTG,242.87,T,-397.03,M,003.977,N,007.365,K,D*03
$GPGGA,094033.30,5703.4217797,N,00952.1660963,E,2,11,0.8,-2.100,M,40.593,M,2.3,0123*68
$GPVTG,242.55,T,-397.35,M,003.973,N,007.357,K,D*0C
$GPGGA,094033.35,5703.4217521,N,00952.1660070,E,2,11,0.8,-2.104,M,40.593,M,2.3,0123*6D
$GPVTG,241.69,T,-398.21,M,004.004,N,007.415,K,D*05
$GPGGA,094033.40,5703.4217260,N,00952.1659175,E,2,11,0.8,-2.108,M,40.593,M,2.3,0123*6F
$GPVTG,241.66,T,-398.24,M,004.006,N,007.420,K,D*0B
$GPGGA,094033.45,5703.4217000,N,00952.1658277,E,2,11,0.8,-2.112,M,40.593,M,2.6,0123*60
$GPVTG,241.75,T,-398.15,M,004.010,N,007.426,K,D*0A
$GPGGA,094033.50,5703.4216731,N,00952.1657385,E,2,11,0.8,-2.113,M,40.593,M,2.6,0123*62
$GPVTG,241.37,T,-398.53,M,004.015,N,007.436,K,D*0A
$GPGGA,094033.55,5703.4216449,N,00952.1656478,E,2,11,0.8,-2.115,M,40.593,M,2.6,0123*69
$GPVTG,240.79,T,-399.11,M,004.066,N,007.529,K,D*0D
$GPGGA,094033.60,5703.4216180,N,00952.1655573,E,2,11,0.8,-2.118,M,40.593,M,2.6,0123*6B
$GPVTG,240.92,T,-398.98,M,004.072,N,007.541,K,D*03
$GPGGA,094033.65,5703.4215917,N,00952.1654678,E,2,11,0.8,-2.117,M,40.593,M,2.9,0123*62
$GPVTG,241.09,T,-398.81,M,004.048,N,007.497,K,D*0B
$GPGGA,094033.70,5703.4215644,N,00952.1653765,E,2,11,0.8,-2.119,M,40.593,M,2.9,0123*6B
$GPVTG,241.13,T,-398.77,M,004.078,N,007.552,K,D*02
$GPGGA,094033.75,5703.4215376,N,00952.1652851,E,2,11,0.8,-2.121,M,40.593,M,2.9,0123*68
$GPVTG,241.39,T,-398.51,M,004.087,N,007.569,K,D*06
$GPGGA,094033.80,5703.4215106,N,00952.1651913,E,2,11,0.8,-2.120,M,40.593,M,2.9,0123*62
$GPVTG,241.82,T,-398.08,M,004.141,N,007.669,K,D*02
$GPGGA,094033.85,5703.4214842,N,00952.1650980,E,2,11,0.8,-2.122,M,40.593,M,3.1,0123*6F
$GPVTG,242.27,T,-397.63,M,004.154,N,007.692,K,D*0C
$GPGGA,094033.90,5703.4214571,N,00952.1650035,E,2,11,0.8,-2.123,M,40.593,M,3.1,0123*60
$GPVTG,242.44,T,-397.46,M,004.193,N,007.765,K,D*0C
$GPGGA,094033.95,5703.4214302,N,00952.1649109,E,2,11,0.8,-2.122,M,40.593,M,3.1,0123*60
$GPVTG,242.32,T,-397.58,M,004.174,N,007.730,K,D*0B
$GPGGA,094034.00,5703.4214032,N,00952.1648189,E,2,11,0.8,-2.122,M,40.593,M,3.1,0123*62
$GPVTG,242.08,T,-397.82,M,004.149,N,007.684,K,D*05
$GPGGA,094034.05,5703.4213763,N,00952.1647240,E,2,11,0.8,-2.119,M,40.593,M,1.7,0123*66
$GPVTG,242.35,T,-397.55,M,004.162,N,007.708,K,D*0D
$GPGGA,094034.10,5703.4213489,N,00952.1646291,E,2,11,0.8,-2.120,M,40.593,M,1.7,0123*62
$GPVTG,242.32,T,-397.58,M,004.199,N,007.776,K,D*0A
$GPGGA,094034.15,5703.4213218,N,00952.1645343,E,2,11,0.8,-2.121,M,40.593,M,1.7,0123*65
$GPVTG,242.36,T,-397.54,M,004.213,N,007.803,K,D*0E
$GPGGA,094034.20,5703.4212934,N,00952.1644396,E,2,11,0.8,-2.121,M,40.593,M,1.7,0123*6E
$GPVTG,241.85,T,-398.05,M,004.240,N,007.852,K,D*0C
$GPGGA,094034.25,5703.4212660,N,00952.1643448,E,2,11,0.8,-2.120,M,40.593,M,1.9,0123*69
$GPVTG,241.94,T,-397.96,M,004.239,N,007.851,K,D*04
$GPGGA,094034.30,5703.4212392,N,00952.1642499,E,2,11,0.8,-2.119,M,40.593,M,1.9,0123*62
$GPVTG,242.20,T,-397.70,M,004.232,N,007.837,K,D*0B
$GPGGA,094034.35,5703.4212117,N,00952.1641549,E,2,11,0.8,-2.119,M,40.593,M,1.9,0123*67
$GPVTG,242.16,T,-397.74,M,004.235,N,007.844,K,D*09
$GPGGA,094034.40,5703.4211838,N,00952.1640603,E,2,11,0.8,-2.117,M,40.593,M,1.9,0123*60
$GPVTG,241.85,T,-398.05,M,004.236,N,007.846,K,D*08
$GPGGA,094034.45,5703.4211570,N,00952.1639640,E,2,11,0.8,-2.111,M,40.593,M,2.2,0123*63
$GPVTG,242.36,T,-397.54,M,004.249,N,007.870,K,D*05
$GPGGA,094034.50,5703.4211300,N,00952.1638678,E,2,11,0.8,-2.109,M,40.593,M,2.2,0123*65
$GPVTG,242.60,T,-397.30,M,004.257,N,007.884,K,D*00
$GPGGA,094034.55,5703.4211039,N,00952.1637719,E,2,11,0.8,-2.108,M,40.593,M,2.2,0123*61
$GPVTG,243.08,T,-396.82,M,004.244,N,007.859,K,D*05
$GPGGA,094034.60,5703.4210775,N,00952.1636750,E,2,11,0.8,-2.106,M,40.593,M,2.2,0123*6B
$GPVTG,243.40,T,-396.50,M,004.253,N,007.877,K,D*0C
$GPGGA,094034.65,5703.4210503,N,00952.1635778,E,2,11,0.8,-2.110,M,40.593,M,2.4,0123*65
$GPVTG,243.35,T,-396.55,M,004.276,N,007.920,K,D*0F
$GPGGA,094034.70,5703.4210239,N,00952.1634798,E,2,11,0.8,-2.110,M,40.593,M,2.4,0123*60
$GPVTG,243.65,T,-396.25,M,004.295,N,007.955,K,D*02
$GPGGA,094034.75,5703.4209975,N,00952.1633822,E,2,11,0.8,-2.107,M,40.593,M,2.4,0123*61
$GPVTG,243.75,T,-396.15,M,004.297,N,007.958,K,D*0F
$GPGGA,094034.80,5703.4209714,N,00952.1632856,E,2,11,0.8,-2.105,M,40.593,M,2.4,0123*62
$GPVTG,243.82,T,-396.08,M,004.274,N,007.916,K,D*0C
$GPGGA,094034.85,5703.4209452,N,00952.1631877,E,2,11,0.8,-2.102,M,40.593,M,2.7,0123*62
$GPVTG,243.88,T,-396.02,M,004.283,N,007.932,K,D*02
$GPGGA,094034.90,5703.4209186,N,00952.1630882,E,2,11,0.8,-2.102,M,40.593,M,2.7,0123*61
$GPVTG,244.00,T,-395.90,M,004.323,N,008.006,K,D*07
$GPGGA,094034.95,5703.4208920,N,00952.1629895,E,2,11,0.8,-2.101,M,40.593,M,2.7,0123*6C
$GPVTG,243.94,T,-395.96,M,004.335,N,008.029,K,D*01
$GPGGA,094035.00,5703.4208655,N,00952.1628922,E,2,11,0.8,-2.097,M,40.593,M,2.7,0123*6E
$GPVTG,243.74,T,-396.16,M,004.314,N,007.989,K,D*0B
$GPGGA,094035.05,5703.4208386,N,00952.1627937,E,2,11,0.8,-2.094,M,40.593,M,1.6,0123*6A
$GPVTG,243.73,T,-396.17,M,004.309,N,007.980,K,D*08
$GPGGA,094035.10,5703.4208123,N,00952.1626954,E,2,11,0.8,-2.092,M,40.593,M,1.6,0123*61
$GPVTG,243.78,T,-396.12,M,004.309,N,007.980,K,D*06
$GPGGA,094035.15,5703.4207862,N,00952.1625973,E,2,11,0.8,-2.091,M,40.593,M,1.6,0123*62
$GPVTG,243.88,T,-396.02,M,004.302,N,007.967,K,D*0A
$GPGGA,094035.20,5703.4207594,N,00952.1624998,E,2,11,0.8,-2.088,M,40.593,M,1.6,0123*6C
$GPVTG,243.59,T,-396.31,M,004.296,N,007.956,K,D*08
$GPGGA,094035.25,5703.4207329,N,00952.1624015,E,2,11,0.8,-2.089,M,40.593,M,1.8,0123*6A
$GPVTG,243.62,T,-396.28,M,004.302,N,007.967,K,D*06
$GPGGA,094035.30,5703.4207069,N,00952.1623024,E,2,11,0.8,-2.088,M,40.593,M,1.8,0123*6D
$GPVTG,243.94,T,-395.96,M,004.312,N,007.986,K,D*07
$GPGGA,094035.35,5703.4206811,N,00952.1622029,E,2,11,0.8,-2.087,M,40.593,M,1.8,0123*6D
$GPVTG,244.27,T,-395.63,M,004.328,N,008.016,K,D*04
$GPGGA,094035.40,5703.4206555,N,00952.1621047,E,2,11,0.8,-2.084,M,40.593,M,1.8,0123*6A
$GPVTG,244.43,T,-395.47,M,004.308,N,007.978,K,D*0C
$GPGGA,094035.45,5703.4206300,N,00952.1620063,E,2,11,0.8,-2.084,M,40.593,M,2.0,0123*65
$GPVTG,244.60,T,-395.30,M,004.296,N,007.955,K,D*04
$GPGGA,094035.50,5703.4206041,N,00952.1619062,E,2,11,0.8,-2.082,M,40.593,M,2.0,0123*6A
$GPVTG,244.73,T,-395.17,M,004.323,N,008.007,K,D*0D
$GPGGA,094035.55,5703.4205791,N,00952.1618058,E,2,11,0.8,-2.083,M,40.593,M,2.0,0123*6F
$GPVTG,245.16,T,-394.74,M,004.336,N,008.031,K,D*0A
$GPGGA,094035.60,5703.4205551,N,00952.1617049,E,2,11,0.8,-2.082,M,40.593,M,2.0,0123*69
$GPVTG,245.92,T,-393.98,M,004.340,N,008.038,K,D*0B
$GPGGA,094035.65,5703.4205312,N,00952.1616035,E,2,11,0.8,-2.082,M,40.593,M,2.3,0123*64
$GPVTG,246.50,T,-393.41,M,004.348,N,008.052,K,D*06
$GPGGA,094035.70,5703.4205060,N,00952.1615033,E,2,11,0.8,-2.081,M,40.593,M,2.3,0123*60
$GPVTG,246.18,T,-393.72,M,004.345,N,008.048,K,D*0C
$GPGGA,094035.75,5703.4204805,N,00952.1614042,E,2,11,0.8,-2.079,M,40.593,M,2.3,0123*6F
$GPVTG,245.68,T,-394.22,M,004.328,N,008.015,K,D*09
$GPGGA,094035.80,5703.4204557,N,00952.1613054,E,2,11,0.8,-2.077,M,40.593,M,2.3,0123*61
$GPVTG,245.52,T,-394.38,M,004.298,N,007.959,K,D*0F
$GPGGA,094035.85,5703.4204314,N,00952.1612057,E,2,11,0.8,-2.074,M,40.593,M,2.5,0123*62
$GPVTG,245.67,T,-394.23,M,004.291,N,007.947,K,D*05
$GPGGA,094035.90,5703.4204076,N,00952.1611042,E,2,11,0.8,-2.075,M,40.593,M,2.5,0123*67
$GPVTG,246.21,T,-393.69,M,004.315,N,007.991,K,D*0B
$GPGGA,094035.95,5703.4203835,N,00952.1610022,E,2,11,0.8,-2.076,M,40.593,M,2.5,0123*6E
$GPVTG,246.51,T,-393.39,M,004.344,N,008.046,K,D*01
$GPGGA,094036.00,5703.4203594,N,00952.1609027,E,2,11,0.8,-2.074,M,40.593,M,2.5,0123*68
$GPVTG,246.43,T,-393.47,M,004.317,N,007.994,K,D*04
$GPGGA,094036.05,5703.4203341,N,00952.1608027,E,2,11,0.8,-2.073,M,40.593,M,2.7,0123*67
$GPVTG,246.00,T,-393.90,M,004.308,N,007.979,K,D*04
$GPGGA,094036.10,5703.4203097,N,00952.1607032,E,2,11,0.8,-2.072,M,40.593,M,2.7,0123*61
$GPVTG,245.88,T,-394.02,M,004.297,N,007.957,K,D*00
$GPGGA,094036.15,5703.4202857,N,00952.1606018,E,2,11,0.8,-2.071,M,40.593,M,2.7,0123*6B
$GPVTG,246.19,T,-393.71,M,004.317,N,007.995,K,D*0F
$GPGGA,094036.20,5703.4202620,N,00952.1605017,E,2,11,0.8,-2.071,M,40.593,M,2.7,0123*6F
$GPVTG,246.36,T,-393.54,M,004.305,N,007.973,K,D*0E
$GPGGA,094036.25,5703.4202375,N,00952.1604024,E,2,11,0.8,-2.071,M,40.593,M,2.9,0123*60
$GPVTG,246.08,T,-393.82,M,004.293,N,007.950,K,D*07
$GPGGA,094036.30,5703.4202132,N,00952.1603025,E,2,11,0.8,-2.070,M,40.593,M,2.9,0123*62
$GPVTG,245.99,T,-393.91,M,004.294,N,007.952,K,D*0B
$GPGGA,094036.35,5703.4201893,N,00952.1602022,E,2,11,0.8,-2.070,M,40.593,M,2.9,0123*60
$GPVTG,246.19,T,-393.71,M,004.296,N,007.957,K,D*09
$GPGGA,094036.40,5703.4201646,N,00952.1601006,E,2,11,0.8,-2.072,M,40.593,M,2.9,0123*63
$GPVTG,246.10,T,-393.80,M,004.336,N,008.030,K,D*02
$GPGGA,094036.45,5703.4201403,N,00952.1600004,E,2,11,0.8,-2.078,M,40.593,M,3.1,0123*65
$GPVTG,246.07,T,-393.83,M,004.329,N,008.018,K,D*03
$GPGGA,094036.50,5703.4201161,N,00952.1599004,E,2,11,0.8,-2.077,M,40.593,M,3.1,0123*6C
$GPVTG,246.08,T,-393.82,M,004.317,N,007.996,K,D*00
$GPGGA,094036.55,5703.4200925,N,00952.1598034,E,2,11,0.8,-2.077,M,40.593,M,3.1,0123*62
$GPVTG,245.94,T,-393.96,M,004.247,N,007.865,K,D*0A
$GPGGA,094036.60,5703.4200683,N,00952.1597048,E,2,11,0.8,-2.079,M,40.593,M,3.1,0123*6D
$GPVTG,245.82,T,-394.08,M,004.236,N,007.846,K,D*0A
$GPGGA,094036.65,5703.4200444,N,00952.1596046,E,2,11,0.8,-2.076,M,40.593,M,3.3,0123*63
$GPVTG,246.05,T,-393.85,M,004.260,N,007.889,K,D*04
$GPGGA,094036.70,5703.4200211,N,00952.1595053,E,2,11,0.8,-2.078,M,40.593,M,3.3,0123*68
$GPVTG,246.35,T,-393.55,M,004.251,N,007.873,K,D*0D
$GPGGA,094036.75,5703.4199973,N,00952.1594054,E,2,11,0.8,-2.076,M,40.593,M,3.3,0123*69
$GPVTG,246.43,T,-393.47,M,004.265,N,007.900,K,D*0D
$GPGGA,094036.80,5703.4199728,N,00952.1593060,E,2,11,0.8,-2.077,M,40.593,M,3.3,0123*62
$GPVTG,246.15,T,-393.75,M,004.275,N,007.917,K,D*08
$GPGGA,094036.85,5703.4199486,N,00952.1592083,E,2,11,0.8,-2.075,M,40.593,M,3.5,0123*68
$GPVTG,245.81,T,-394.09,M,004.247,N,007.866,K,D*0C
$GPGGA,094036.90,5703.4199253,N,00952.1591107,E,2,11,0.8,-2.073,M,40.593,M,3.5,0123*6A
$GPVTG,245.96,T,-393.94,M,004.214,N,007.804,K,D*0B
$GPGGA,094036.95,5703.4199010,N,00952.1590138,E,2,11,0.8,-2.068,M,40.593,M,3.5,0123*6D
$GPVTG,245.66,T,-394.24,M,004.193,N,007.765,K,D*0C
$GPGGA,094037.00,5703.4198778,N,00952.1589148,E,2,11,0.8,-2.065,M,40.593,M,3.5,0123*6A
$GPVTG,246.10,T,-393.80,M,004.206,N,007.789,K,D*0A
$GPGGA,094037.05,5703.4198528,N,00952.1588165,E,2,11,0.8,-2.068,M,40.593,M,2.1,0123*6E
$GPVTG,245.76,T,-394.14,M,004.215,N,007.806,K,D*09
$GPGGA,094037.10,5703.4198294,N,00952.1587198,E,2,11,0.8,-2.068,M,40.593,M,2.1,0123*67
$GPVTG,245.83,T,-394.07,M,004.185,N,007.750,K,D*07
$GPGGA,094037.15,5703.4198056,N,00952.1586227,E,2,11,0.8,-2.067,M,40.593,M,2.1,0123*67
$GPVTG,245.76,T,-394.14,M,004.178,N,007.738,K,D*03
$GPGGA,094037.20,5703.4197835,N,00952.1585293,E,2,11,0.8,-2.069,M,40.593,M,2.1,0123*61
$GPVTG,246.04,T,-393.86,M,004.081,N,007.559,K,D*0B
$GPGGA,094037.25,5703.4197609,N,00952.1584377,E,2,11,0.8,-2.074,M,40.593,M,2.3,0123*61
$GPVTG,245.81,T,-394.09,M,003.991,N,007.392,K,D*0B
$GPGGA,094037.30,5703.4197387,N,00952.1583472,E,2,11,0.8,-2.080,M,40.593,M,2.3,0123*68
$GPVTG,245.75,T,-394.15,M,003.911,N,007.243,K,D*08
$GPGGA,094037.35,5703.4197167,N,00952.1582564,E,2,11,0.8,-2.089,M,40.593,M,2.3,0123*6F
$GPVTG,245.86,T,-394.04,M,003.868,N,007.163,K,D*0A
$GPGGA,094037.40,5703.4196959,N,00952.1581685,E,2,11,0.8,-2.097,M,40.593,M,2.3,0123*69
$GPVTG,246.13,T,-393.77,M,003.779,N,006.999,K,D*05
$GPGGA,094037.45,5703.4196756,N,00952.1580812,E,2,11,0.8,-2.110,M,40.593,M,2.6,0123*67
$GPVTG,246.55,T,-393.35,M,003.708,N,006.867,K,D*07
$GPGGA,094037.50,5703.4196551,N,00952.1579961,E,2,11,0.8,-2.121,M,40.593,M,2.6,0123*67
$GPVTG,246.49,T,-393.41,M,003.635,N,006.732,K,D*09
$GPGGA,094037.55,5703.4196360,N,00952.1579138,E,2,11,0.8,-2.133,M,40.593,M,2.6,0123*61
$GPVTG,246.73,T,-393.17,M,003.526,N,006.530,K,D*02
$GPGGA,094037.60,5703.4196173,N,00952.1578327,E,2,11,0.8,-2.145,M,40.593,M,2.6,0123*6B
$GPVTG,246.97,T,-392.93,M,003.435,N,006.362,K,D*07
$GPGGA,094037.65,5703.4195990,N,00952.1577533,E,2,11,0.8,-2.160,M,40.593,M,2.9,0123*6C
$GPVTG,247.14,T,-392.76,M,003.354,N,006.212,K,D*00
$GPGGA,094037.70,5703.4195805,N,00952.1576759,E,2,11,0.8,-2.173,M,40.593,M,2.9,0123*68
$GPVTG,246.86,T,-393.04,M,003.279,N,006.072,K,D*04
$GPGGA,094037.75,5703.4195621,N,00952.1576014,E,2,11,0.8,-2.182,M,40.593,M,2.9,0123*65
$GPVTG,246.32,T,-393.58,M,003.183,N,005.894,K,D*07
$GPGGA,094037.80,5703.4195455,N,00952.1575270,E,2,11,0.8,-2.190,M,40.593,M,2.9,0123*6E
$GPVTG,246.91,T,-392.99,M,003.113,N,005.764,K,D*0B
$GPGGA,094037.85,5703.4195285,N,00952.1574559,E,2,11,0.8,-2.199,M,40.593,M,3.1,0123*6D
$GPVTG,246.73,T,-393.17,M,003.020,N,005.593,K,D*0B
$GPGGA,094037.90,5703.4195123,N,00952.1573856,E,2,11,0.8,-2.207,M,40.593,M,3.1,0123*67
$GPVTG,246.95,T,-392.95,M,002.950,N,005.463,K,D*09
$GPGGA,094037.95,5703.4194962,N,00952.1573145,E,2,11,0.8,-2.215,M,40.593,M,3.1,0123*66
$GPVTG,247.30,T,-392.60,M,002.932,N,005.429,K,D*07
$GPGGA,094038.00,5703.4194797,N,00952.1572470,E,2,11,0.8,-2.224,M,40.593,M,3.1,0123*61
$GPVTG,246.71,T,-393.19,M,002.870,N,005.316,K,D*00
$GPGGA,094038.05,5703.4194629,N,00952.1571797,E,2,11,0.8,-2.236,M,40.593,M,1.7,0123*6E
$GPVTG,246.29,T,-393.61,M,002.830,N,005.241,K,D*05
$GPGGA,094038.10,5703.4194479,N,00952.1571136,E,2,11,0.8,-2.245,M,40.593,M,1.7,0123*64
$GPVTG,246.77,T,-393.13,M,002.781,N,005.151,K,D*0C
$GPGGA,094038.15,5703.4194334,N,00952.1570476,E,2,11,0.8,-2.251,M,40.593,M,1.7,0123*6A
$GPVTG,247.37,T,-392.53,M,002.750,N,005.093,K,D*0F
$GPGGA,094038.20,5703.4194194,N,00952.1569809,E,2,11,0.8,-2.257,M,40.593,M,1.7,0123*6E
$GPVTG,248.36,T,-391.54,M,002.747,N,005.088,K,D*09
$GPGGA,094038.25,5703.4194061,N,00952.1569164,E,2,11,0.8,-2.263,M,40.593,M,1.9,0123*6B
$GPVTG,248.92,T,-390.98,M,002.705,N,005.010,K,D*01
$GPGGA,094038.30,5703.4193917,N,00952.1568529,E,2,11,0.8,-2.270,M,40.593,M,1.9,0123*6E
$GPVTG,248.55,T,-391.35,M,002.673,N,004.951,K,D*01
$GPGGA,094038.35,5703.4193768,N,00952.1567898,E,2,11,0.8,-2.275,M,40.593,M,1.9,0123*60
$GPVTG,247.87,T,-392.03,M,002.660,N,004.926,K,D*05
$GPGGA,094038.40,5703.4193625,N,00952.1567276,E,2,11,0.8,-2.280,M,40.593,M,1.9,0123*6A
$GPVTG,247.55,T,-392.35,M,002.632,N,004.875,K,D*0F
$GPGGA,094038.45,5703.4193483,N,00952.1566644,E,2,11,0.8,-2.289,M,40.593,M,2.2,0123*64
$GPVTG,247.61,T,-392.29,M,002.639,N,004.887,K,D*03
$GPGGA,094038.50,5703.4193333,N,00952.1566024,E,2,11,0.8,-2.293,M,40.593,M,2.2,0123*67
$GPVTG,246.86,T,-393.04,M,002.637,N,004.884,K,D*08
$GPGGA,094038.55,5703.4193191,N,00952.1565417,E,2,11,0.8,-2.297,M,40.593,M,2.2,0123*6B
$GPVTG,246.65,T,-393.25,M,002.605,N,004.824,K,D*0D
$GPGGA,094038.60,5703.4193047,N,00952.1564832,E,2,11,0.8,-2.301,M,40.593,M,2.2,0123*63
$GPVTG,245.99,T,-393.91,M,002.546,N,004.715,K,D*0B
$GPGGA,094038.65,5703.4192912,N,00952.1564239,E,2,11,0.8,-2.300,M,40.593,M,2.4,0123*68
$GPVTG,246.34,T,-393.56,M,002.518,N,004.663,K,D*0F
$GPGGA,094038.70,5703.4192774,N,00952.1563646,E,2,11,0.8,-2.301,M,40.593,M,2.4,0123*68
$GPVTG,246.50,T,-393.40,M,002.505,N,004.640,K,D*07
$GPGGA,094038.75,5703.4192620,N,00952.1563031,E,2,11,0.8,-2.300,M,40.593,M,2.4,0123*6A
$GPVTG,245.96,T,-393.94,M,002.564,N,004.749,K,D*08
$GPGGA,094038.80,5703.4192467,N,00952.1562431,E,2,11,0.8,-2.302,M,40.593,M,2.4,0123*66
$GPVTG,245.38,T,-394.52,M,002.580,N,004.779,K,D*08
$GPGGA,094038.85,5703.4192329,N,00952.1561834,E,2,11,0.8,-2.300,M,40.593,M,2.7,0123*65
$GPVTG,245.91,T,-393.99,M,002.569,N,004.758,K,D*0F
$GPGGA,094038.90,5703.4192198,N,00952.1561242,E,2,11,0.8,-2.297,M,40.593,M,2.7,0123*6D
$GPVTG,246.75,T,-393.15,M,002.538,N,004.701,K,D*0A
$GPGGA,094038.95,5703.4192049,N,00952.1560643,E,2,11,0.8,-2.295,M,40.593,M,2.7,0123*63
$GPVTG,246.29,T,-393.61,M,002.556,N,004.734,K,D*0E
$GPGGA,094039.00,5703.4191896,N,00952.1560058,E,2,11,0.8,-2.294,M,40.593,M,2.7,0123*6A
$GPVTG,245.34,T,-394.56,M,002.551,N,004.724,K,D*04
$GPGGA,094039.05,5703.4191740,N,00952.1559466,E,2,11,0.8,-2.288,M,40.593,M,1.6,0123*67
$GPVTG,244.68,T,-395.22,M,002.567,N,004.754,K,D*0C
$GPGGA,094039.10,5703.4191583,N,00952.1558867,E,2,11,0.8,-2.285,M,40.593,M,1.6,0123*6F
$GPVTG,244.28,T,-395.62,M,002.592,N,004.801,K,D*09
$GPGGA,094039.15,5703.4191427,N,00952.1558267,E,2,11,0.8,-2.283,M,40.593,M,1.6,0123*69
$GPVTG,244.18,T,-395.72,M,002.609,N,004.833,K,D*0B
$GPGGA,094039.20,5703.4191278,N,00952.1557674,E,2,11,0.8,-2.278,M,40.593,M,1.6,0123*6E
$GPVTG,244.45,T,-395.45,M,002.596,N,004.807,K,D*05
$GPGGA,094039.25,5703.4191127,N,00952.1557091,E,2,11,0.8,-2.275,M,40.593,M,1.8,0123*6C
$GPVTG,244.39,T,-395.51,M,002.569,N,004.758,K,D*0E
$GPGGA,094039.30,5703.4190975,N,00952.1556515,E,2,11,0.8,-2.274,M,40.593,M,1.8,0123*6F
$GPVTG,244.14,T,-395.76,M,002.539,N,004.703,K,D*0F
$GPGGA,094039.35,5703.4190811,N,00952.1555939,E,2,11,0.8,-2.273,M,40.593,M,1.8,0123*6F
$GPVTG,243.19,T,-396.71,M,002.538,N,004.700,K,D*03
$GPGGA,094039.40,5703.4190650,N,00952.1555349,E,2,11,0.8,-2.266,M,40.593,M,1.8,0123*6F
$GPVTG,243.01,T,-396.89,M,002.563,N,004.747,K,D*00
$GPGGA,094039.45,5703.4190496,N,00952.1554773,E,2,11,0.8,-2.263,M,40.593,M,2.0,0123*60
$GPVTG,243.12,T,-396.78,M,002.544,N,004.712,K,D*09
$GPGGA,094039.50,5703.4190332,N,00952.1554189,E,2,11,0.8,-2.258,M,40.593,M,2.0,0123*66
$GPVTG,242.82,T,-397.08,M,002.560,N,004.742,K,D*04
$GPGGA,094039.55,5703.4190172,N,00952.1553621,E,2,11,0.8,-2.254,M,40.593,M,2.0,0123*6B
$GPVTG,242.54,T,-397.36,M,002.538,N,004.700,K,D*09
$GPGGA,094039.60,5703.4190012,N,00952.1553065,E,2,11,0.8,-2.249,M,40.593,M,2.0,0123*60
$GPVTG,242.11,T,-397.79,M,002.499,N,004.629,K,D*03
$GPGGA,094039.65,5703.4189857,N,00952.1552515,E,2,11,0.8,-2.245,M,40.593,M,2.3,0123*68
$GPVTG,242.18,T,-397.72,M,002.459,N,004.554,K,D*04
$GPGGA,094039.70,5703.4189691,N,00952.1551963,E,2,11,0.8,-2.241,M,40.593,M,2.3,0123*62
$GPVTG,241.46,T,-398.44,M,002.454,N,004.545,K,D*0B
$GPGGA,094039.75,5703.4189530,N,00952.1551408,E,2,11,0.8,-2.239,M,40.593,M,2.3,0123*60
$GPVTG,241.45,T,-398.45,M,002.452,N,004.541,K,D*0B
$GPGGA,094039.80,5703.4189371,N,00952.1550849,E,2,11,0.8,-2.236,M,40.593,M,2.3,0123*6E
$GPVTG,241.77,T,-398.13,M,002.458,N,004.552,K,D*01
$GPGGA,094039.85,5703.4189219,N,00952.1550303,E,2,11,0.8,-2.235,M,40.593,M,2.5,0123*64
$GPVTG,242.24,T,-397.66,M,002.431,N,004.503,K,D*02
$GPGGA,094039.90,5703.4189067,N,00952.1549756,E,2,11,0.8,-2.230,M,40.593,M,2.5,0123*62
$GPVTG,242.56,T,-397.34,M,002.415,N,004.473,K,D*00
$GPGGA,094039.95,5703.4188909,N,00952.1549227,E,2,11,0.8,-2.227,M,40.593,M,2.5,0123*62
$GPVTG,241.98,T,-397.92,M,002.381,N,004.410,K,D*02
$GPGGA,094040.00,5703.4188743,N,00952.1548696,E,2,11,0.8,-2.225,M,40.593,M,2.5,0123*6D
$GPVTG,241.08,T,-398.82,M,002.378,N,004.404,K,D*06
$GPGGA,094040.05,5703.4188581,N,00952.1548173,E,2,11,0.8,-2.221,M,40.593,M,2.7,0123*6E
$GPVTG,240.71,T,-399.19,M,002.359,N,004.368,K,D*04
$GPGGA,094040.10,5703.4188430,N,00952.1547651,E,2,11,0.8,-2.222,M,40.593,M,2.7,0123*6A
$GPVTG,241.06,T,-398.84,M,002.330,N,004.315,K,D*05
$GPGGA,094040.15,5703.4188277,N,00952.1547129,E,2,11,0.8,-2.221,M,40.593,M,2.7,0123*61
$GPVTG,241.27,T,-398.63,M,002.317,N,004.292,K,D*04
$GPGGA,094040.20,5703.4188130,N,00952.1546621,E,2,11,0.8,-2.219,M,40.593,M,2.7,0123*62
$GPVTG,241.51,T,-398.39,M,002.278,N,004.219,K,D*01
$GPGGA,094040.25,5703.4187977,N,00952.1546124,E,2,11,0.8,-2.222,M,40.593,M,2.9,0123*67
$GPVTG,240.97,T,-398.93,M,002.245,N,004.158,K,D*02
$GPGGA,094040.30,5703.4187822,N,00952.1545630,E,2,11,0.8,-2.221,M,40.593,M,2.9,0123*60
$GPVTG,240.43,T,-399.47,M,002.223,N,004.118,K,D*07
$GPGGA,094040.35,5703.4187669,N,00952.1545140,E,2,11,0.8,-2.220,M,40.593,M,2.9,0123*65
$GPVTG,240.14,T,-399.76,M,002.205,N,004.083,K,D*00
$GPGGA,094040.40,5703.4187520,N,00952.1544645,E,2,11,0.8,-2.218,M,40.593,M,2.9,0123*61
$GPVTG,240.40,T,-399.50,M,002.199,N,004.072,K,D*0D
$GPGGA,094040.45,5703.4187365,N,00952.1544167,E,2,11,0.8,-2.219,M,40.593,M,3.1,0123*6C
$GPVTG,239.87,T,-400.03,M,002.175,N,004.027,K,D*0B
$GPGGA,094040.50,5703.4187218,N,00952.1543675,E,2,11,0.8,-2.222,M,40.593,M,3.1,0123*68
$GPVTG,240.38,T,-399.52,M,002.177,N,004.031,K,D*07
$GPGGA,094040.55,5703.4187069,N,00952.1543193,E,2,11,0.8,-2.220,M,40.593,M,3.1,0123*64
$GPVTG,240.42,T,-399.48,M,002.168,N,004.014,K,D*08
$GPGGA,094040.60,5703.4186917,N,00952.1542715,E,2,11,0.8,-2.216,M,40.593,M,3.1,0123*6F
$GPVTG,240.12,T,-399.78,M,002.161,N,004.002,K,D*00
$GPGGA,094040.65,5703.4186779,N,00952.1542252,E,2,11,0.8,-2.221,M,40.593,M,3.3,0123*6C
$GPVTG,240.51,T,-399.39,M,002.109,N,003.906,K,D*06
$GPGGA,094040.70,5703.4186636,N,00952.1541798,E,2,11,0.8,-2.223,M,40.593,M,3.3,0123*60
$GPVTG,240.24,T,-399.66,M,002.069,N,003.832,K,D*0F
$GPGGA,094040.75,5703.4186494,N,00952.1541359,E,2,11,0.8,-2.222,M,40.593,M,3.3,0123*67
$GPVTG,239.74,T,-400.16,M,002.017,N,003.735,K,D*05
$GPGGA,094040.80,5703.4186338,N,00952.1540923,E,2,11,0.8,-2.222,M,40.593,M,3.3,0123*6A
$GPVTG,238.10,T,-401.80,M,002.008,N,003.719,K,D*08
$GPGGA,094040.85,5703.4186188,N,00952.1540478,E,2,11,0.8,-2.218,M,40.593,M,3.5,0123*6A
$GPVTG,237.86,T,-402.04,M,002.011,N,003.725,K,D*00
$GPGGA,094040.90,5703.4186048,N,00952.1540045,E,2,11,0.8,-2.218,M,40.593,M,3.5,0123*69
$GPVTG,238.24,T,-401.66,M,001.983,N,003.673,K,D*03
$GPGGA,094040.95,5703.4185920,N,00952.1539620,E,2,11,0.8,-2.218,M,40.593,M,3.5,0123*63
$GPVTG,239.27,T,-400.63,M,001.932,N,003.578,K,D*07
$GPGGA,094041.00,5703.4185786,N,00952.1539195,E,2,11,0.8,-2.214,M,40.593,M,3.5,0123*69
$GPVTG,239.62,T,-400.28,M,001.911,N,003.540,K,D*03
$GPGGA,094041.05,5703.4185648,N,00952.1538780,E,2,11,0.8,-2.209,M,40.593,M,2.1,0123*65
$GPVTG,239.33,T,-400.57,M,001.894,N,003.507,K,D*00
$GPGGA,094041.10,5703.4185521,N,00952.1538373,E,2,11,0.8,-2.209,M,40.593,M,2.1,0123*65
$GPVTG,239.75,T,-400.15,M,001.849,N,003.425,K,D*05
$GPGGA,094041.15,5703.4185389,N,00952.1537983,E,2,11,0.8,-2.207,M,40.593,M,2.1,0123*60
$GPVTG,239.03,T,-400.87,M,001.804,N,003.342,K,D*00
$GPGGA,094041.20,5703.4185254,N,00952.1537586,E,2,11,0.8,-2.206,M,40.593,M,2.1,0123*6F
$GPVTG,238.52,T,-401.38,M,001.797,N,003.327,K,D*06
$GPGGA,094041.25,5703.4185123,N,00952.1537191,E,2,11,0.8,-2.205,M,40.593,M,2.3,0123*6A
$GPVTG,238.42,T,-401.48,M,001.789,N,003.313,K,D*08
$GPGGA,094041.30,5703.4184998,N,00952.1536808,E,2,11,0.8,-2.202,M,40.593,M,2.3,0123*68
$GPVTG,238.57,T,-401.33,M,001.756,N,003.253,K,D*07
$GPGGA,094041.35,5703.4184872,N,00952.1536445,E,2,11,0.8,-2.199,M,40.593,M,2.3,0123*6C
$GPVTG,237.97,T,-401.93,M,001.703,N,003.155,K,D*0B
$GPGGA,094041.40,5703.4184759,N,00952.1536069,E,2,11,0.8,-2.199,M,40.593,M,2.3,0123*62
$GPVTG,239.30,T,-400.60,M,001.676,N,003.103,K,D*05
$GPGGA,094041.45,5703.4184636,N,00952.1535691,E,2,11,0.8,-2.203,M,40.593,M,2.6,0123*68
$GPVTG,239.29,T,-400.61,M,001.684,N,003.119,K,D*0A
$GPGGA,094041.50,5703.4184517,N,00952.1535313,E,2,11,0.8,-2.204,M,40.593,M,2.6,0123*64
$GPVTG,239.77,T,-400.13,M,001.686,N,003.123,K,D*0F
$GPGGA,094041.55,5703.4184395,N,00952.1534952,E,2,11,0.8,-2.202,M,40.593,M,2.6,0123*65
$GPVTG,239.20,T,-400.70,M,001.666,N,003.086,K,D*08
$GPGGA,094041.60,5703.4184285,N,00952.1534601,E,2,11,0.8,-2.204,M,40.593,M,2.6,0123*6C
$GPVTG,239.54,T,-400.36,M,001.617,N,002.995,K,D*05
$GPGGA,094041.65,5703.4184175,N,00952.1534258,E,2,11,0.8,-2.204,M,40.593,M,2.9,0123*62
$GPVTG,239.60,T,-400.30,M,001.571,N,002.909,K,D*02
$GPGGA,094041.70,5703.4184058,N,00952.1533918,E,2,11,0.8,-2.205,M,40.593,M,2.9,0123*61
$GPVTG,238.70,T,-401.20,M,001.553,N,002.876,K,D*0B
$GPGGA,094041.75,5703.4183945,N,00952.1533565,E,2,11,0.8,-2.207,M,40.593,M,2.9,0123*62
$GPVTG,239.09,T,-400.81,M,001.562,N,002.893,K,D*07
$GPGGA,094041.80,5703.4183845,N,00952.1533225,E,2,11,0.8,-2.209,M,40.593,M,2.9,0123*64
$GPVTG,240.26,T,-399.64,M,001.528,N,002.831,K,D*0E
$GPGGA,094041.85,5703.4183747,N,00952.1532890,E,2,11,0.8,-2.214,M,40.593,M,3.1,0123*6C
$GPVTG,241.18,T,-398.72,M,001.499,N,002.776,K,D*03
$GPGGA,094041.90,5703.4183645,N,00952.1532557,E,2,11,0.8,-2.217,M,40.593,M,3.1,0123*6E
$GPVTG,241.29,T,-398.61,M,001.483,N,002.747,K,D*0A
$GPGGA,094041.95,5703.4183540,N,00952.1532233,E,2,11,0.8,-2.219,M,40.593,M,3.1,0123*66
$GPVTG,240.68,T,-399.22,M,001.463,N,002.709,K,D*0C
$GPGGA,094042.00,5703.4183445,N,00952.1531896,E,2,11,0.8,-2.221,M,40.593,M,3.1,0123*60
$GPVTG,241.79,T,-398.11,M,001.463,N,002.709,K,D*0C
$GPGGA,094042.05,5703.4183351,N,00952.1531571,E,2,11,0.8,-2.218,M,40.593,M,1.7,0123*6D
$GPVTG,242.54,T,-397.36,M,001.440,N,002.667,K,D*02
$GPGGA,094042.10,5703.4183260,N,00952.1531248,E,2,11,0.8,-2.220,M,40.593,M,1.7,0123*6C
$GPVTG,242.94,T,-396.96,M,001.423,N,002.635,K,D*07
$GPGGA,094042.15,5703.4183169,N,00952.1530926,E,2,11,0.8,-2.221,M,40.593,M,1.7,0123*60
$GPVTG,243.22,T,-396.68,M,001.411,N,002.613,K,D*0F
$GPGGA,094042.20,5703.4183089,N,00952.1530614,E,2,11,0.8,-2.222,M,40.593,M,1.7,0123*64
$GPVTG,244.28,T,-395.62,M,001.371,N,002.539,K,D*01
$GPGGA,094042.25,5703.4183001,N,00952.1530285,E,2,11,0.8,-2.225,M,40.593,M,1.9,0123*64
$GPVTG,244.51,T,-395.39,M,001.393,N,002.580,K,D*0F
$GPGGA,094042.30,5703.4182912,N,00952.1529958,E,2,11,0.8,-2.227,M,40.593,M,1.9,0123*6B
$GPVTG,244.43,T,-395.47,M,001.407,N,002.607,K,D*03
$GPGGA,094042.35,5703.4182829,N,00952.1529645,E,2,11,0.8,-2.229,M,40.593,M,1.9,0123*6A
$GPVTG,244.52,T,-395.38,M,001.382,N,002.560,K,D*03
$GPGGA,094042.40,5703.4182749,N,00952.1529332,E,2,11,0.8,-2.232,M,40.593,M,1.9,0123*6E
$GPVTG,245.00,T,-394.90,M,001.364,N,002.526,K,D*0C
$GPGGA,094042.45,5703.4182661,N,00952.1529013,E,2,11,0.8,-2.235,M,40.593,M,2.2,0123*6F
$GPVTG,244.45,T,-395.45,M,001.374,N,002.545,K,D*01
$GPGGA,094042.50,5703.4182578,N,00952.1528690,E,2,11,0.8,-2.236,M,40.593,M,2.2,0123*6F
$GPVTG,244.74,T,-395.16,M,001.383,N,002.561,K,D*0B
$GPGGA,094042.55,5703.4182500,N,00952.1528370,E,2,11,0.8,-2.237,M,40.593,M,2.2,0123*6F
$GPVTG,245.37,T,-394.53,M,001.379,N,002.553,K,D*09
$GPGGA,094042.60,5703.4182413,N,00952.1528039,E,2,11,0.8,-2.236,M,40.593,M,2.2,0123*65
$GPVTG,245.14,T,-394.76,M,001.402,N,002.597,K,D*0C
$GPGGA,094042.65,5703.4182337,N,00952.1527731,E,2,11,0.8,-2.238,M,40.593,M,2.4,0123*69
$GPVTG,245.43,T,-394.47,M,001.375,N,002.547,K,D*06
$GPGGA,094042.70,5703.4182262,N,00952.1527426,E,2,11,0.8,-2.240,M,40.593,M,2.4,0123*66
$GPVTG,245.70,T,-394.20,M,001.352,N,002.504,K,D*05
$GPGGA,094042.75,5703.4182191,N,00952.1527116,E,2,11,0.8,-2.239,M,40.593,M,2.4,0123*64
$GPVTG,246.36,T,-393.54,M,001.337,N,002.476,K,D*07
$GPGGA,094042.80,5703.4182108,N,00952.1526815,E,2,11,0.8,-2.239,M,40.593,M,2.4,0123*65
$GPVTG,245.64,T,-394.26,M,001.326,N,002.456,K,D*03
$GPGGA,094042.85,5703.4182026,N,00952.1526500,E,2,11,0.8,-2.239,M,40.593,M,1.3,0123*60
$GPVTG,245.45,T,-394.45,M,001.333,N,002.469,K,D*0D
$GPGGA,094042.90,5703.4181946,N,00952.1526191,E,2,11,0.8,-2.239,M,40.593,M,1.3,0123*64
$GPVTG,245.26,T,-394.64,M,001.331,N,002.465,K,D*05
$GPGGA,094042.95,5703.4181859,N,00952.1525876,E,2,11,0.8,-2.239,M,40.593,M,1.3,0123*6D
$GPVTG,244.76,T,-395.14,M,001.342,N,002.485,K,D*0D
$GPGGA,094043.00,5703.4181779,N,00952.1525572,E,2,11,0.8,-2.236,M,40.593,M,1.3,0123*6B
$GPVTG,244.68,T,-395.22,M,001.334,N,002.470,K,D*0C
$GPGGA,094043.05,5703.4181703,N,00952.1525278,E,2,11,0.8,-2.231,M,40.593,M,1.6,0123*6C
$GPVTG,244.66,T,-395.24,M,001.316,N,002.437,K,D*07
$GPGGA,094043.10,5703.4181625,N,00952.1524983,E,2,11,0.8,-2.229,M,40.593,M,1.6,0123*6A
$GPVTG,244.50,T,-395.40,M,001.304,N,002.415,K,D*03
$GPGGA,094043.15,5703.4181538,N,00952.1524690,E,2,11,0.8,-2.227,M,40.593,M,1.6,0123*63
$GPVTG,243.75,T,-396.15,M,001.299,N,002.405,K,D*04
$GPGGA,094043.20,5703.4181454,N,00952.1524406,E,2,11,0.8,-2.224,M,40.593,M,1.6,0123*60
$GPVTG,243.08,T,-396.82,M,001.285,N,002.381,K,D*06
$GPGGA,094043.25,5703.4181373,N,00952.1524114,E,2,11,0.8,-2.224,M,40.593,M,1.8,0123*6F
$GPVTG,243.04,T,-396.86,M,001.279,N,002.369,K,D*0B
$GPGGA,094043.30,5703.4181278,N,00952.1523825,E,2,11,0.8,-2.222,M,40.593,M,1.8,0123*6B
$GPVTG,242.01,T,-397.89,M,001.282,N,002.374,K,D*09
$GPGGA,094043.35,5703.4181188,N,00952.1523530,E,2,11,0.8,-2.219,M,40.593,M,1.8,0123*63
$GPVTG,241.49,T,-398.41,M,001.288,N,002.386,K,D*0A
$GPGGA,094043.40,5703.4181098,N,00952.1523256,E,2,11,0.8,-2.218,M,40.593,M,1.8,0123*67
$GPVTG,240.62,T,-399.28,M,001.276,N,002.364,K,D*01
$GPGGA,094043.45,5703.4181012,N,00952.1522982,E,2,11,0.8,-2.212,M,40.593,M,2.0,0123*62
$GPVTG,240.26,T,-399.64,M,001.261,N,002.335,K,D*0B
$GPGGA,094043.50,5703.4180926,N,00952.1522693,E,2,11,0.8,-2.208,M,40.593,M,2.0,0123*6D
$GPVTG,240.20,T,-399.70,M,001.264,N,002.341,K,D*0E
$GPGGA,094043.55,5703.4180837,N,00952.1522423,E,2,11,0.8,-2.205,M,40.593,M,2.0,0123*6D
$GPVTG,239.57,T,-400.33,M,001.253,N,002.321,K,D*02
$GPGGA,094043.60,5703.4180746,N,00952.1522154,E,2,11,0.8,-2.202,M,40.593,M,2.0,0123*60
$GPVTG,238.87,T,-401.03,M,001.245,N,002.306,K,D*0E
$GPGGA,094043.65,5703.4180664,N,00952.1521887,E,2,11,0.8,-2.202,M,40.593,M,2.3,0123*63
$GPVTG,238.88,T,-401.02,M,001.230,N,002.279,K,D*0B
$GPGGA,094043.70,5703.4180580,N,00952.1521622,E,2,11,0.8,-2.198,M,40.593,M,2.3,0123*6F
$GPVTG,238.74,T,-401.16,M,001.219,N,002.257,K,D*0A
$GPGGA,094043.75,5703.4180499,N,00952.1521362,E,2,11,0.8,-2.195,M,40.593,M,2.3,0123*6F
$GPVTG,238.77,T,-401.13,M,001.202,N,002.226,K,D*00
$GPGGA,094043.80,5703.4180412,N,00952.1521091,E,2,11,0.8,-2.194,M,40.593,M,2.3,0123*68
$GPVTG,238.69,T,-401.21,M,001.202,N,002.227,K,D*0F
$GPGGA,094043.85,5703.4180322,N,00952.1520838,E,2,11,0.8,-2.196,M,40.593,M,2.5,0123*67
$GPVTG,238.02,T,-401.88,M,001.192,N,002.208,K,D*06
$GPGGA,094043.90,5703.4180243,N,00952.1520580,E,2,11,0.8,-2.194,M,40.593,M,2.5,0123*69
$GPVTG,238.31,T,-401.59,M,001.179,N,002.184,K,D*08
$GPGGA,094043.95,5703.4180171,N,00952.1520326,E,2,11,0.8,-2.195,M,40.593,M,2.5,0123*65
$GPVTG,239.00,T,-400.90,M,001.158,N,002.145,K,D*01
$GPGGA,094044.00,5703.4180094,N,00952.1520071,E,2,11,0.8,-2.193,M,40.593,M,2.5,0123*63
$GPVTG,239.35,T,-400.55,M,001.146,N,002.123,K,D*01
$GPGGA,094044.05,5703.4180020,N,00952.1519812,E,2,11,0.8,-2.185,M,40.593,M,2.7,0123*6B
$GPVTG,239.73,T,-400.17,M,001.142,N,002.116,K,D*07
$GPGGA,094044.10,5703.4179947,N,00952.1519553,E,2,11,0.8,-2.183,M,40.593,M,2.7,0123*6F
$GPVTG,240.34,T,-399.56,M,001.137,N,002.105,K,D*08
$GPGGA,094044.15,5703.4179880,N,00952.1519314,E,2,11,0.8,-2.181,M,40.593,M,2.7,0123*67
$GPVTG,240.88,T,-399.02,M,001.109,N,002.055,K,D*07
$GPGGA,094044.20,5703.4179813,N,00952.1519076,E,2,11,0.8,-2.181,M,40.593,M,2.7,0123*6C
$GPVTG,241.30,T,-398.60,M,001.087,N,002.013,K,D*05
$GPGGA,094044.25,5703.4179746,N,00952.1518828,E,2,11,0.8,-2.185,M,40.593,M,2.9,0123*6E
$GPVTG,241.90,T,-398.00,M,001.078,N,001.996,K,D*0E
$GPGGA,094044.30,5703.4179676,N,00952.1518593,E,2,11,0.8,-2.184,M,40.593,M,2.9,0123*64
$GPVTG,241.92,T,-397.98,M,001.061,N,001.965,K,D*06
$GPGGA,094044.35,5703.4179614,N,00952.1518353,E,2,11,0.8,-2.185,M,40.593,M,2.9,0123*6E
$GPVTG,242.76,T,-397.14,M,001.046,N,001.938,K,D*06
$GPGGA,094044.40,5703.4179550,N,00952.1518122,E,2,11,0.8,-2.189,M,40.593,M,2.9,0123*67
$GPVTG,242.99,T,-396.91,M,001.029,N,001.905,K,D*0C
$GPGGA,094044.45,5703.4179488,N,00952.1517884,E,2,11,0.8,-2.190,M,40.593,M,3.1,0123*6D
$GPVTG,243.60,T,-396.30,M,001.020,N,001.889,K,D*0C
$GPGGA,094044.50,5703.4179432,N,00952.1517656,E,2,11,0.8,-2.193,M,40.593,M,3.1,0123*6A
$GPVTG,244.32,T,-395.58,M,001.000,N,001.852,K,D*05
$GPGGA,094044.55,5703.4179376,N,00952.1517428,E,2,11,0.8,-2.195,M,40.593,M,3.1,0123*65
$GPVTG,245.01,T,-394.89,M,000.984,N,001.823,K,D*0B
$GPGGA,094044.60,5703.4179323,N,00952.1517205,E,2,11,0.8,-2.197,M,40.593,M,3.1,0123*68
$GPVTG,245.70,T,-394.20,M,000.966,N,001.789,K,D*0D
