6
$GPGGA,095433.60,5703.4548515,N,00952.3559078,E,2,11,0.8,-1.845,M,40.593,M,3.1,0123*6D
$GPVTG,058.34,T,-581.56,M,006.113,N,011.321,K,D*0B
$GPGGA,095433.65,5703.4548959,N,00952.3560470,E,2,11,0.8,-1.842,M,40.593,M,3.3,0123*6F
$GPVTG,058.91,T,-580.99,M,006.198,N,011.478,K,D*0E
$GPGGA,095433.70,5703.4549393,N,00952.3561867,E,2,11,0.8,-1.843,M,40.593,M,3.3,0123*6C
$GPVTG,059.61,T,-580.29,M,006.257,N,011.588,K,D*05
$GPGGA,095433.75,5703.4549829,N,00952.3563273,E,2,11,0.8,-1.849,M,40.593,M,3.3,0123*64
$GPVTG,060.11,T,-579.79,M,006.317,N,011.698,K,D*0C
$GPGGA,095433.80,5703.4550277,N,00952.3564692,E,2,11,0.8,-1.857,M,40.593,M,3.3,0123*64
$GPVTG,060.22,T,-579.68,M,006.398,N,011.848,K,D*08
$GPGGA,095433.85,5703.4550715,N,00952.3566122,E,2,11,0.8,-1.868,M,40.593,M,1.7,0123*64
$GPVTG,060.58,T,-579.32,M,006.456,N,011.956,K,D*01
$GPGGA,095433.90,5703.4551148,N,00952.3567562,E,2,11,0.8,-1.882,M,40.593,M,1.7,0123*6A
$GPVTG,061.02,T,-578.88,M,006.492,N,012.024,K,D*08
$GPGGA,095433.95,5703.4551590,N,00952.3569027,E,2,11,0.8,-1.894,M,40.593,M,1.7,0123*63
$GPVTG,061.25,T,-578.65,M,006.571,N,012.169,K,D*0A
$GPGGA,095434.00,5703.4552031,N,00952.3570491,E,2,11,0.8,-1.904,M,40.593,M,1.7,0123*6C
$GPVTG,061.38,T,-578.52,M,006.608,N,012.238,K,D*08
$GPGGA,095434.05,5703.4552462,N,00952.3571940,E,2,11,0.8,-1.916,M,40.593,M,2.0,0123*6C
$GPVTG,061.57,T,-578.33,M,006.598,N,012.219,K,D*0F
$GPGGA,095434.10,5703.4552892,N,00952.3573360,E,2,11,0.8,-1.919,M,40.593,M,2.0,0123*6E
$GPVTG,061.37,T,-578.53,M,006.510,N,012.057,K,D*07
$GPGGA,095434.15,5703.4553298,N,00952.3574758,E,2,11,0.8,-1.916,M,40.593,M,2.0,0123*6D
$GPVTG,061.64,T,-578.26,M,006.368,N,011.794,K,D*01
$GPGGA,095434.20,5703.4553708,N,00952.3576127,E,2,11,0.8,-1.904,M,40.593,M,2.0,0123*68
$GPVTG,061.49,T,-578.41,M,006.224,N,011.527,K,D*0C
$GPGGA,095434.25,5703.4554123,N,00952.3577437,E,2,11,0.8,-1.887,M,40.593,M,2.2,0123*68
$GPVTG,060.64,T,-579.26,M,006.031,N,011.170,K,D*02
$GPGGA,095434.30,5703.4554525,N,00952.3578722,E,2,11,0.8,-1.864,M,40.593,M,2.2,0123*6B
$GPVTG,060.20,T,-579.70,M,005.852,N,010.839,K,D*0A
$GPGGA,095434.35,5703.4554917,N,00952.3580056,E,2,11,0.8,-1.845,M,40.593,M,2.2,0123*63
$GPVTG,060.76,T,-579.14,M,005.825,N,010.787,K,D*01
$GPGGA,095434.40,5703.4555331,N,00952.3581406,E,2,11,0.8,-1.827,M,40.593,M,2.2,0123*6A
$GPVTG,060.75,T,-579.15,M,005.893,N,010.914,K,D*0A
$GPGGA,095434.45,5703.4555775,N,00952.3582789,E,2,11,0.8,-1.813,M,40.593,M,2.5,0123*6C
$GPVTG,060.27,T,-579.63,M,006.062,N,011.226,K,D*02
$GPGGA,095434.50,5703.4556221,N,00952.3584206,E,2,11,0.8,-1.812,M,40.593,M,2.5,0123*6A
$GPVTG,060.16,T,-579.74,M,006.255,N,011.584,K,D*0F
$GPGGA,095434.55,5703.4556673,N,00952.3585644,E,2,11,0.8,-1.813,M,40.593,M,2.5,0123*6E
$GPVTG,060.10,T,-579.80,M,006.431,N,011.911,K,D*06
$GPGGA,095434.60,5703.4557122,N,00952.3587098,E,2,11,0.8,-1.819,M,40.593,M,2.5,0123*65
$GPVTG,060.26,T,-579.64,M,006.565,N,012.158,K,D*0F
$GPGGA,095434.65,5703.4557560,N,00952.3588582,E,2,11,0.8,-1.827,M,40.593,M,2.7,0123*6C
$GPVTG,060.90,T,-579.00,M,006.678,N,012.367,K,D*01
$GPGGA,095434.70,5703.4558019,N,00952.3590063,E,2,11,0.8,-1.836,M,40.593,M,2.7,0123*6F
$GPVTG,060.76,T,-579.14,M,006.761,N,012.522,K,D*02
$GPGGA,095434.75,5703.4558490,N,00952.3591540,E,2,11,0.8,-1.847,M,40.593,M,2.7,0123*6C
$GPVTG,060.27,T,-579.63,M,006.812,N,012.615,K,D*0A
$GPGGA,095434.80,5703.4558942,N,00952.3593036,E,2,11,0.8,-1.866,M,40.593,M,2.7,0123*61
$GPVTG,060.54,T,-579.36,M,006.831,N,012.652,K,D*0C
$GPGGA,095434.85,5703.4559373,N,00952.3594544,E,2,11,0.8,-1.887,M,40.593,M,1.5,0123*64
$GPVTG,061.31,T,-578.59,M,006.820,N,012.631,K,D*03
$GPGGA,095434.90,5703.4559812,N,00952.3596040,E,2,11,0.8,-1.904,M,40.593,M,1.5,0123*65
$GPVTG,061.58,T,-578.32,M,006.787,N,012.569,K,D*0D
$GPGGA,095434.95,5703.4560255,N,00952.3597525,E,2,11,0.8,-1.917,M,40.593,M,1.5,0123*66
$GPVTG,061.56,T,-578.34,M,006.739,N,012.480,K,D*06
$GPGGA,095435.00,5703.4560690,N,00952.3598977,E,2,11,0.8,-1.921,M,40.593,M,1.5,0123*67
$GPVTG,061.43,T,-578.47,M,006.626,N,012.272,K,D*02
$GPGGA,095435.05,5703.4561117,N,00952.3600386,E,2,11,0.8,-1.926,M,40.593,M,1.8,0123*67
$GPVTG,061.04,T,-578.86,M,006.472,N,011.987,K,D*0D
$GPGGA,095435.10,5703.4561531,N,00952.3601735,E,2,11,0.8,-1.912,M,40.593,M,1.8,0123*69
$GPVTG,060.67,T,-579.23,M,006.233,N,011.544,K,D*07
$GPGGA,095435.15,5703.4561926,N,00952.3603030,E,2,11,0.8,-1.890,M,40.593,M,1.8,0123*6D
$GPVTG,060.48,T,-579.42,M,005.952,N,011.023,K,D*06
$GPGGA,095435.20,5703.4562300,N,00952.3604362,E,2,11,0.8,-1.869,M,40.593,M,1.8,0123*63
$GPVTG,061.41,T,-578.49,M,005.817,N,010.773,K,D*07
$GPGGA,095435.25,5703.4562683,N,00952.3605755,E,2,11,0.8,-1.843,M,40.593,M,2.1,0123*6B
$GPVTG,062.55,T,-577.35,M,005.878,N,010.885,K,D*0A
$GPGGA,095435.30,5703.4563073,N,00952.3607164,E,2,11,0.8,-1.831,M,40.593,M,2.1,0123*64
$GPVTG,063.16,T,-576.74,M,005.986,N,011.085,K,D*01
$GPGGA,095435.35,5703.4563492,N,00952.3608585,E,2,11,0.8,-1.823,M,40.593,M,2.1,0123*6D
$GPVTG,062.85,T,-577.05,M,006.140,N,011.372,K,D*07
$GPGGA,095435.40,5703.4563922,N,00952.3610035,E,2,11,0.8,-1.818,M,40.593,M,2.1,0123*66
$GPVTG,062.46,T,-577.44,M,006.322,N,011.708,K,D*02
$GPGGA,095435.45,5703.4564361,N,00952.3611496,E,2,11,0.8,-1.819,M,40.593,M,2.3,0123*66
$GPVTG,062.00,T,-577.90,M,006.477,N,011.995,K,D*04
$GPGGA,095435.50,5703.4564805,N,00952.3612975,E,2,11,0.8,-1.826,M,40.593,M,2.3,0123*64
$GPVTG,061.63,T,-578.27,M,006.614,N,012.250,K,D*07
$GPGGA,095435.55,5703.4565265,N,00952.3614484,E,2,11,0.8,-1.841,M,40.593,M,2.3,0123*68
$GPVTG,061.23,T,-578.67,M,006.774,N,012.545,K,D*03
$GPGGA,095435.60,5703.4565721,N,00952.3616006,E,2,11,0.8,-1.859,M,40.593,M,2.3,0123*6E
$GPVTG,061.11,T,-578.79,M,006.884,N,012.749,K,D*03
$GPGGA,095435.65,5703.4566184,N,00952.3617505,E,2,11,0.8,-1.878,M,40.593,M,2.6,0123*60
$GPVTG,060.67,T,-579.23,M,006.906,N,012.790,K,D*02
$GPGGA,095435.70,5703.4566639,N,00952.3618997,E,2,11,0.8,-1.890,M,40.593,M,2.6,0123*6B
$GPVTG,060.49,T,-579.41,M,006.877,N,012.736,K,D*01
$GPGGA,095435.75,5703.4567061,N,00952.3620446,E,2,11,0.8,-1.893,M,40.593,M,2.6,0123*6D
$GPVTG,060.86,T,-579.04,M,006.708,N,012.423,K,D*03
$GPGGA,095435.80,5703.4567465,N,00952.3621828,E,2,11,0.8,-1.888,M,40.593,M,2.6,0123*68
$GPVTG,061.03,T,-578.87,M,006.433,N,011.914,K,D*04
$GPGGA,095435.85,5703.4567871,N,00952.3623191,E,2,11,0.8,-1.875,M,40.593,M,2.8,0123*61
$GPVTG,061.05,T,-578.85,M,006.214,N,011.509,K,D*03
$GPGGA,095435.90,5703.4568269,N,00952.3624549,E,2,11,0.8,-1.861,M,40.593,M,2.8,0123*6A
$GPVTG,061.28,T,-578.62,M,006.060,N,011.223,K,D*0B
$GPGGA,095435.95,5703.4568670,N,00952.3625924,E,2,11,0.8,-1.847,M,40.593,M,2.8,0123*61
$GPVTG,061.59,T,-578.31,M,006.013,N,011.135,K,D*0B
$GPGGA,095436.00,5703.4569077,N,00952.3627325,E,2,11,0.8,-1.835,M,40.593,M,2.8,0123*62
$GPVTG,061.89,T,-578.01,M,006.058,N,011.219,K,D*07
$GPGGA,095436.05,5703.4569471,N,00952.3628745,E,2,11,0.8,-1.833,M,40.593,M,1.5,0123*60
$GPVTG,062.54,T,-577.36,M,006.130,N,011.354,K,D*08
$GPGGA,095436.10,5703.4569882,N,00952.3630171,E,2,11,0.8,-1.831,M,40.593,M,1.5,0123*6E
$GPVTG,062.61,T,-577.29,M,006.219,N,011.518,K,D*06
$GPGGA,095436.15,5703.4570306,N,00952.3631584,E,2,11,0.8,-1.830,M,40.593,M,1.5,0123*6A
$GPVTG,062.14,T,-577.76,M,006.278,N,011.628,K,D*09
$GPGGA,095436.20,5703.4570729,N,00952.3633018,E,2,11,0.8,-1.830,M,40.593,M,1.5,0123*67
$GPVTG,061.96,T,-577.94,M,006.356,N,011.771,K,D*0C
$GPGGA,095436.25,5703.4571139,N,00952.3634476,E,2,11,0.8,-1.830,M,40.593,M,1.8,0123*62
$GPVTG,062.36,T,-577.54,M,006.430,N,011.909,K,D*0F
$GPGGA,095436.30,5703.4571548,N,00952.3635930,E,2,11,0.8,-1.833,M,40.593,M,1.8,0123*69
$GPVTG,062.60,T,-577.30,M,006.464,N,011.971,K,D*00
$GPGGA,095436.35,5703.4571964,N,00952.3637389,E,2,11,0.8,-1.843,M,40.593,M,1.8,0123*63
$GPVTG,062.61,T,-577.29,M,006.497,N,012.033,K,D*09
$GPGGA,095436.40,5703.4572388,N,00952.3638854,E,2,11,0.8,-1.857,M,40.593,M,1.8,0123*6B
$GPVTG,062.42,T,-577.48,M,006.539,N,012.109,K,D*02
$GPGGA,095436.45,5703.4572827,N,00952.3640335,E,2,11,0.8,-1.868,M,40.593,M,2.0,0123*64
$GPVTG,062.01,T,-577.89,M,006.610,N,012.242,K,D*0C
$GPGGA,095436.50,5703.4573254,N,00952.3641828,E,2,11,0.8,-1.881,M,40.593,M,2.0,0123*6E
$GPVTG,062.11,T,-577.79,M,006.656,N,012.326,K,D*03
$GPGGA,095436.55,5703.4573671,N,00952.3643307,E,2,11,0.8,-1.891,M,40.593,M,2.0,0123*6D
$GPVTG,062.31,T,-577.59,M,006.635,N,012.288,K,D*03
$GPGGA,095436.60,5703.4574070,N,00952.3644728,E,2,11,0.8,-1.897,M,40.593,M,2.0,0123*63
$GPVTG,062.42,T,-577.48,M,006.476,N,011.994,K,D*07
$GPGGA,095436.65,5703.4574486,N,00952.3646125,E,2,11,0.8,-1.891,M,40.593,M,2.2,0123*66
$GPVTG,061.89,T,-578.01,M,006.347,N,011.755,K,D*07
$GPGGA,095436.70,5703.4574901,N,00952.3647501,E,2,11,0.8,-1.881,M,40.593,M,2.2,0123*62
$GPVTG,061.34,T,-578.56,M,006.225,N,011.530,K,D*07
$GPGGA,095436.75,5703.4575290,N,00952.3648900,E,2,11,0.8,-1.876,M,40.593,M,2.2,0123*6F
$GPVTG,061.92,T,-577.98,M,006.156,N,011.401,K,D*02
$GPGGA,095436.80,5703.4575676,N,00952.3650307,E,2,11,0.8,-1.871,M,40.593,M,2.2,0123*6A
$GPVTG,062.57,T,-577.33,M,006.129,N,011.352,K,D*00
$GPGGA,095436.85,5703.4576069,N,00952.3651705,E,2,11,0.8,-1.864,M,40.593,M,2.4,0123*61
$GPVTG,062.75,T,-577.15,M,006.116,N,011.327,K,D*0A
$GPGGA,095436.90,5703.4576472,N,00952.3653098,E,2,11,0.8,-1.856,M,40.593,M,2.4,0123*6B
$GPVTG,062.52,T,-577.38,M,006.126,N,011.345,K,D*07
$GPGGA,095436.95,5703.4576876,N,00952.3654489,E,2,11,0.8,-1.850,M,40.593,M,2.4,0123*63
$GPVTG,062.34,T,-577.56,M,006.138,N,011.368,K,D*0F
$GPGGA,095437.00,5703.4577273,N,00952.3655889,E,2,11,0.8,-1.842,M,40.593,M,2.4,0123*6E
$GPVTG,062.43,T,-577.47,M,006.158,N,011.404,K,D*04
$GPGGA,095437.05,5703.4577678,N,00952.3657297,E,2,11,0.8,-1.835,M,40.593,M,2.7,0123*60
$GPVTG,062.37,T,-577.53,M,006.212,N,011.505,K,D*0F
$GPGGA,095437.10,5703.4578109,N,00952.3658715,E,2,11,0.8,-1.832,M,40.593,M,2.7,0123*6D
$GPVTG,061.69,T,-578.21,M,006.302,N,011.671,K,D*0D
$GPGGA,095437.15,5703.4578542,N,00952.3660150,E,2,11,0.8,-1.835,M,40.593,M,2.7,0123*68
$GPVTG,061.29,T,-578.61,M,006.396,N,011.846,K,D*0A
$GPGGA,095437.20,5703.4578970,N,00952.3661614,E,2,11,0.8,-1.841,M,40.593,M,2.7,0123*66
$GPVTG,061.44,T,-578.46,M,006.498,N,012.035,K,D*02
$GPGGA,095437.25,5703.4579393,N,00952.3663087,E,2,11,0.8,-1.853,M,40.593,M,2.9,0123*66
$GPVTG,061.71,T,-578.19,M,006.572,N,012.172,K,D*09
$GPGGA,095437.30,5703.4579825,N,00952.3664551,E,2,11,0.8,-1.864,M,40.593,M,2.9,0123*69
$GPVTG,061.62,T,-578.28,M,006.605,N,012.232,K,D*0D
$GPGGA,095437.35,5703.4580248,N,00952.3666021,E,2,11,0.8,-1.874,M,40.593,M,2.9,0123*6A
$GPVTG,061.82,T,-578.08,M,006.611,N,012.244,K,D*05
$GPGGA,095437.40,5703.4580649,N,00952.3667497,E,2,11,0.8,-1.884,M,40.593,M,2.9,0123*6A
$GPVTG,062.61,T,-577.29,M,006.583,N,012.191,K,D*04
$GPGGA,095437.45,5703.4581046,N,00952.3668970,E,2,11,0.8,-1.902,M,40.593,M,3.1,0123*6A
$GPVTG,063.15,T,-576.75,M,006.542,N,012.116,K,D*0C
$GPGGA,095437.50,5703.4581441,N,00952.3670403,E,2,11,0.8,-1.907,M,40.593,M,3.1,0123*68
$GPVTG,063.29,T,-576.61,M,006.431,N,011.910,K,D*0E
$GPGGA,095437.55,5703.4581838,N,00952.3671757,E,2,11,0.8,-1.898,M,40.593,M,3.1,0123*6B
$GPVTG,062.65,T,-577.25,M,006.208,N,011.497,K,D*08
$GPGGA,095437.60,5703.4582227,N,00952.3673111,E,2,11,0.8,-1.885,M,40.593,M,3.1,0123*60
$GPVTG,062.37,T,-577.53,M,006.053,N,011.211,K,D*0A
$GPGGA,095437.65,5703.4582623,N,00952.3674496,E,2,11,0.8,-1.875,M,40.593,M,3.3,0123*65
$GPVTG,062.34,T,-577.56,M,006.032,N,011.171,K,D*0E
$GPGGA,095437.70,5703.4583010,N,00952.3675890,E,2,11,0.8,-1.868,M,40.593,M,3.3,0123*61
$GPVTG,062.65,T,-577.25,M,006.041,N,011.187,K,D*03
$GPGGA,095437.75,5703.4583430,N,00952.3677295,E,2,11,0.8,-1.860,M,40.593,M,3.3,0123*67
$GPVTG,062.07,T,-577.83,M,006.130,N,011.352,K,D*06
$GPGGA,095437.80,5703.4583856,N,00952.3678714,E,2,11,0.8,-1.855,M,40.593,M,3.3,0123*64
$GPVTG,061.62,T,-578.28,M,006.239,N,011.555,K,D*03
$GPGGA,095437.85,5703.4584268,N,00952.3680139,E,2,11,0.8,-1.854,M,40.593,M,3.5,0123*68
$GPVTG,061.74,T,-578.16,M,006.301,N,011.670,K,D*07
$GPGGA,095437.90,5703.4584670,N,00952.3681561,E,2,11,0.8,-1.853,M,40.593,M,3.5,0123*6E
$GPVTG,062.07,T,-577.83,M,006.323,N,011.709,K,D*0C
$GPGGA,095437.95,5703.4585076,N,00952.3682983,E,2,11,0.8,-1.849,M,40.593,M,3.5,0123*62
$GPVTG,062.21,T,-577.69,M,006.338,N,011.738,K,D*04
$GPGGA,095438.00,5703.4585493,N,00952.3684408,E,2,11,0.8,-1.849,M,40.593,M,3.5,0123*66
$GPVTG,062.01,T,-577.89,M,006.366,N,011.789,K,D*09
$GPGGA,095438.05,5703.4585922,N,00952.3685820,E,2,11,0.8,-1.847,M,40.593,M,2.0,0123*69
$GPVTG,061.53,T,-578.37,M,006.377,N,011.810,K,D*08
$GPGGA,095438.10,5703.4586341,N,00952.3687249,E,2,11,0.8,-1.851,M,40.593,M,2.0,0123*61
$GPVTG,061.51,T,-578.39,M,006.395,N,011.844,K,D*09
$GPGGA,095438.15,5703.4586767,N,00952.3688703,E,2,11,0.8,-1.858,M,40.593,M,2.0,0123*69
$GPVTG,061.56,T,-578.34,M,006.462,N,011.967,K,D*0C
$GPGGA,095438.20,5703.4587189,N,00952.3690155,E,2,11,0.8,-1.863,M,40.593,M,2.0,0123*6C
$GPVTG,061.71,T,-578.19,M,006.489,N,012.018,K,D*01
$GPGGA,095438.25,5703.4587612,N,00952.3691617,E,2,11,0.8,-1.873,M,40.593,M,2.2,0123*6F
$GPVTG,061.81,T,-578.09,M,006.525,N,012.084,K,D*0D
$GPGGA,095438.30,5703.4588039,N,00952.3693074,E,2,11,0.8,-1.879,M,40.593,M,2.2,0123*60
$GPVTG,061.78,T,-578.12,M,006.536,N,012.105,K,D*0B
$GPGGA,095438.35,5703.4588456,N,00952.3694514,E,2,11,0.8,-1.884,M,40.593,M,2.2,0123*6E
$GPVTG,061.86,T,-578.04,M,006.494,N,012.026,K,D*04
$GPGGA,095438.40,5703.4588861,N,00952.3695940,E,2,11,0.8,-1.887,M,40.593,M,2.2,0123*6B
$GPVTG,062.10,T,-577.80,M,006.415,N,011.880,K,D*05
$GPGGA,095438.45,5703.4589261,N,00952.3697352,E,2,11,0.8,-1.887,M,40.593,M,2.5,0123*69
$GPVTG,062.28,T,-577.62,M,006.323,N,011.710,K,D*06
$GPGGA,095438.50,5703.4589661,N,00952.3698723,E,2,11,0.8,-1.880,M,40.593,M,2.5,0123*63
$GPVTG,062.08,T,-577.82,M,006.191,N,011.466,K,D*03
$GPGGA,095438.55,5703.4590071,N,00952.3700106,E,2,11,0.8,-1.873,M,40.593,M,2.5,0123*64
$GPVTG,061.77,T,-578.13,M,006.144,N,011.379,K,D*0E
$GPGGA,095438.60,5703.4590500,N,00952.3701527,E,2,11,0.8,-1.873,M,40.593,M,2.5,0123*67
$GPVTG,061.42,T,-578.48,M,006.227,N,011.531,K,D*0A
$GPGGA,095438.65,5703.4590935,N,00952.3702972,E,2,11,0.8,-1.870,M,40.593,M,2.7,0123*66
$GPVTG,061.28,T,-578.62,M,006.346,N,011.752,K,D*0F
$GPGGA,095438.70,5703.4591366,N,00952.3704439,E,2,11,0.8,-1.874,M,40.593,M,2.7,0123*6F
$GPVTG,061.45,T,-578.45,M,006.465,N,011.973,K,D*0A
$GPGGA,095438.75,5703.4591783,N,00952.3705913,E,2,11,0.8,-1.878,M,40.593,M,2.7,0123*6D
$GPVTG,061.96,T,-577.94,M,006.533,N,012.099,K,D*0B
$GPGGA,095438.80,5703.4592191,N,00952.3707363,E,2,11,0.8,-1.883,M,40.593,M,2.7,0123*6A
$GPVTG,062.33,T,-577.57,M,006.511,N,012.059,K,D*04
$GPGGA,095438.85,5703.4592609,N,00952.3708785,E,2,11,0.8,-1.886,M,40.593,M,3.0,0123*69
$GPVTG,062.06,T,-577.84,M,006.450,N,011.946,K,D*0C
$GPGGA,095438.90,5703.4593024,N,00952.3710190,E,2,11,0.8,-1.880,M,40.593,M,3.0,0123*68
$GPVTG,061.79,T,-578.11,M,006.368,N,011.794,K,D*09
$GPGGA,095438.95,5703.4593426,N,00952.3711602,E,2,11,0.8,-1.872,M,40.593,M,3.0,0123*6B
$GPVTG,062.04,T,-577.86,M,006.303,N,011.673,K,D*04
$GPGGA,095439.00,5703.4593840,N,00952.3713026,E,2,11,0.8,-1.867,M,40.593,M,3.0,0123*6C
$GPVTG,062.03,T,-577.87,M,006.305,N,011.676,K,D*01
$GPGGA,095439.05,5703.4594262,N,00952.3714437,E,2,11,0.8,-1.862,M,40.593,M,1.8,0123*68
$GPVTG,061.70,T,-578.20,M,006.302,N,011.672,K,D*07
$GPGGA,095439.10,5703.4594697,N,00952.3715850,E,2,11,0.8,-1.859,M,40.593,M,1.8,0123*66
$GPVTG,061.11,T,-578.79,M,006.328,N,011.719,K,D*08
$GPGGA,095439.15,5703.4595142,N,00952.3717269,E,2,11,0.8,-1.859,M,40.593,M,1.8,0123*6F
$GPVTG,060.51,T,-579.39,M,006.376,N,011.808,K,D*0C
$GPGGA,095439.20,5703.4595572,N,00952.3718700,E,2,11,0.8,-1.860,M,40.593,M,1.8,0123*61
$GPVTG,060.62,T,-579.28,M,006.409,N,011.869,K,D*04
$GPGGA,095439.25,5703.4596007,N,00952.3720139,E,2,11,0.8,-1.867,M,40.593,M,2.1,0123*6A
$GPVTG,060.63,T,-579.27,M,006.451,N,011.948,K,D*05
$GPGGA,095439.30,5703.4596434,N,00952.3721566,E,2,11,0.8,-1.869,M,40.593,M,2.1,0123*6B
$GPVTG,060.79,T,-579.11,M,006.444,N,011.935,K,D*05
$GPGGA,095439.35,5703.4596862,N,00952.3722994,E,2,11,0.8,-1.868,M,40.593,M,2.1,0123*62
$GPVTG,060.93,T,-578.97,M,006.436,N,011.920,K,D*0F
$GPGGA,095439.40,5703.4597284,N,00952.3724392,E,2,11,0.8,-1.867,M,40.593,M,2.1,0123*66
$GPVTG,060.92,T,-578.98,M,006.365,N,011.789,K,D*0D
$GPGGA,095439.45,5703.4597717,N,00952.3725766,E,2,11,0.8,-1.854,M,40.593,M,2.3,0123*60
$GPVTG,060.49,T,-579.41,M,006.295,N,011.658,K,D*0D
$GPGGA,095439.50,5703.4598133,N,00952.3727169,E,2,11,0.8,-1.851,M,40.593,M,2.3,0123*65
$GPVTG,060.83,T,-579.07,M,006.272,N,011.615,K,D*09
$GPGGA,095439.55,5703.4598554,N,00952.3728601,E,2,11,0.8,-1.849,M,40.593,M,2.3,0123*6A
$GPVTG,061.25,T,-578.65,M,006.321,N,011.706,K,D*05
$GPGGA,095439.60,5703.4598974,N,00952.3730041,E,2,11,0.8,-1.849,M,40.593,M,2.3,0123*69
$GPVTG,061.64,T,-578.26,M,006.368,N,011.793,K,D*06
$GPGGA,095439.65,5703.4599399,N,00952.3731478,E,2,11,0.8,-1.849,M,40.593,M,2.6,0123*6E
$GPVTG,061.73,T,-578.17,M,006.410,N,011.872,K,D*0A
$GPGGA,095439.70,5703.4599826,N,00952.3732921,E,2,11,0.8,-1.850,M,40.593,M,2.6,0123*6F
$GPVTG,061.75,T,-578.15,M,006.446,N,011.939,K,D*03
$GPGGA,095439.75,5703.4600252,N,00952.3734339,E,2,11,0.8,-1.853,M,40.593,M,2.6,0123*66
$GPVTG,061.52,T,-578.38,M,006.419,N,011.888,K,D*08
$GPGGA,095439.80,5703.4600668,N,00952.3735718,E,2,11,0.8,-1.852,M,40.593,M,2.6,0123*66
$GPVTG,061.27,T,-578.63,M,006.307,N,011.680,K,D*0A
$GPGGA,095439.85,5703.4601090,N,00952.3737111,E,2,11,0.8,-1.852,M,40.593,M,2.8,0123*60
$GPVTG,061.04,T,-578.86,M,006.270,N,011.613,K,D*0B
$GPGGA,095439.90,5703.4601527,N,00952.3738538,E,2,11,0.8,-1.851,M,40.593,M,2.8,0123*6E
$GPVTG,060.85,T,-579.05,M,006.333,N,011.728,K,D*06
$GPGGA,095439.95,5703.4601964,N,00952.3739957,E,2,11,0.8,-1.852,M,40.593,M,2.8,0123*67
$GPVTG,060.62,T,-579.28,M,006.370,N,011.797,K,D*03
$GPGGA,095440.00,5703.4602415,N,00952.3741388,E,2,11,0.8,-1.859,M,40.593,M,2.8,0123*61
$GPVTG,060.24,T,-579.66,M,006.439,N,011.925,K,D*06
$GPGGA,095440.05,5703.4602861,N,00952.3742826,E,2,11,0.8,-1.864,M,40.593,M,1.5,0123*67
$GPVTG,060.27,T,-579.63,M,006.493,N,012.026,K,D*09
$GPGGA,095440.10,5703.4603296,N,00952.3744249,E,2,11,0.8,-1.868,M,40.593,M,1.5,0123*69
$GPVTG,060.36,T,-579.54,M,006.478,N,011.998,K,D*07
$GPGGA,095440.15,5703.4603728,N,00952.3745663,E,2,11,0.8,-1.870,M,40.593,M,1.5,0123*68
$GPVTG,060.42,T,-579.48,M,006.440,N,011.928,K,D*09
$GPGGA,095440.20,5703.4604158,N,00952.3747075,E,2,11,0.8,-1.872,M,40.593,M,1.5,0123*69
$GPVTG,060.55,T,-579.35,M,006.403,N,011.858,K,D*04
$GPGGA,095440.25,5703.4604584,N,00952.3748492,E,2,11,0.8,-1.880,M,40.593,M,1.8,0123*6B
$GPVTG,060.72,T,-579.18,M,006.381,N,011.817,K,D*08
$GPGGA,095440.30,5703.4605011,N,00952.3749904,E,2,11,0.8,-1.880,M,40.593,M,1.8,0123*64
$GPVTG,060.86,T,-579.04,M,006.358,N,011.774,K,D*00
$GPGGA,095440.35,5703.4605443,N,00952.3751323,E,2,11,0.8,-1.882,M,40.593,M,1.8,0123*66
$GPVTG,060.89,T,-579.01,M,006.365,N,011.788,K,D*07
$GPGGA,095440.40,5703.4605877,N,00952.3752728,E,2,11,0.8,-1.883,M,40.593,M,1.8,0123*62
$GPVTG,060.69,T,-579.21,M,006.350,N,011.761,K,D*0A
$GPGGA,095440.45,5703.4606315,N,00952.3754140,E,2,11,0.8,-1.880,M,40.593,M,2.0,0123*6D
$GPVTG,060.56,T,-579.34,M,006.359,N,011.778,K,D*03
$GPGGA,095440.50,5703.4606758,N,00952.3755555,E,2,11,0.8,-1.878,M,40.593,M,2.0,0123*62
$GPVTG,060.32,T,-579.58,M,006.385,N,011.824,K,D*0C
$GPGGA,095440.55,5703.4607184,N,00952.3756943,E,2,11,0.8,-1.871,M,40.593,M,2.0,0123*60
$GPVTG,060.36,T,-579.54,M,006.326,N,011.715,K,D*00
$GPGGA,095440.60,5703.4607602,N,00952.3758308,E,2,11,0.8,-1.860,M,40.593,M,2.0,0123*64
$GPVTG,060.43,T,-579.47,M,006.229,N,011.536,K,D*0D
$GPGGA,095440.65,5703.4608018,N,00952.3759692,E,2,11,0.8,-1.849,M,40.593,M,2.2,0123*6D
$GPVTG,060.72,T,-579.18,M,006.197,N,011.477,K,D*07
$GPGGA,095440.70,5703.4608437,N,00952.3761098,E,2,11,0.8,-1.845,M,40.593,M,2.2,0123*6B
$GPVTG,061.08,T,-578.82,M,006.229,N,011.536,K,D*0B
$GPGGA,095440.75,5703.4608862,N,00952.3762505,E,2,11,0.8,-1.841,M,40.593,M,2.2,0123*64
$GPVTG,061.15,T,-578.75,M,006.267,N,011.607,K,D*04
$GPGGA,095440.80,5703.4609304,N,00952.3763917,E,2,11,0.8,-1.839,M,40.593,M,2.2,0123*65
$GPVTG,060.80,T,-579.10,M,006.330,N,011.724,K,D*08
$GPGGA,095440.85,5703.4609746,N,00952.3765338,E,2,11,0.8,-1.841,M,40.593,M,2.4,0123*6A
$GPVTG,060.58,T,-579.32,M,006.390,N,011.835,K,D*08
$GPGGA,095440.90,5703.4610188,N,00952.3766752,E,2,11,0.8,-1.844,M,40.593,M,2.4,0123*6C
$GPVTG,060.36,T,-579.54,M,006.418,N,011.886,K,D*0F
$GPGGA,095440.95,5703.4610635,N,00952.3768171,E,2,11,0.8,-1.845,M,40.593,M,2.4,0123*60
$GPVTG,060.12,T,-579.78,M,006.449,N,011.944,K,D*0C
$GPGGA,095441.00,5703.4611087,N,00952.3769596,E,2,11,0.8,-1.850,M,40.593,M,2.4,0123*6B
$GPVTG,059.87,T,-580.03,M,006.486,N,012.012,K,D*0A
$GPGGA,095441.05,5703.4611529,N,00952.3771017,E,2,11,0.8,-1.858,M,40.593,M,2.7,0123*61
$GPVTG,060.00,T,-579.90,M,006.488,N,012.016,K,D*09
$GPGGA,095441.10,5703.4611971,N,00952.3772428,E,2,11,0.8,-1.862,M,40.593,M,2.7,0123*66
$GPVTG,059.97,T,-579.93,M,006.458,N,011.961,K,D*09
$GPGGA,095441.15,5703.4612414,N,00952.3773818,E,2,11,0.8,-1.864,M,40.593,M,2.7,0123*66
$GPVTG,059.74,T,-580.16,M,006.399,N,011.850,K,D*06
$GPGGA,095441.20,5703.4612853,N,00952.3775192,E,2,11,0.8,-1.864,M,40.593,M,2.7,0123*62
$GPVTG,059.54,T,-580.36,M,006.324,N,011.711,K,D*0A
$GPGGA,095441.25,5703.4613296,N,00952.3776573,E,2,11,0.8,-1.858,M,40.593,M,2.9,0123*6C
$GPVTG,059.46,T,-580.44,M,006.297,N,011.661,K,D*03
$GPGGA,095441.30,5703.4613725,N,00952.3777985,E,2,11,0.8,-1.859,M,40.593,M,2.9,0123*60
$GPVTG,060.03,T,-579.87,M,006.314,N,011.693,K,D*06
$GPGGA,095441.35,5703.4614153,N,00952.3779410,E,2,11,0.8,-1.863,M,40.593,M,2.9,0123*63
$GPVTG,060.63,T,-579.27,M,006.351,N,011.762,K,D*04
$GPGGA,095441.40,5703.4614573,N,00952.3780831,E,2,11,0.8,-1.865,M,40.593,M,2.9,0123*68
$GPVTG,061.19,T,-578.71,M,006.356,N,011.772,K,D*0C
$GPGGA,095441.45,5703.4614990,N,00952.3782235,E,2,11,0.8,-1.870,M,40.593,M,3.1,0123*6D
$GPVTG,061.43,T,-578.47,M,006.321,N,011.707,K,D*04
$GPGGA,095441.50,5703.4615419,N,00952.3783634,E,2,11,0.8,-1.871,M,40.593,M,3.1,0123*61
$GPVTG,061.25,T,-578.65,M,006.308,N,011.683,K,D*02
$GPGGA,095441.55,5703.4615849,N,00952.3785046,E,2,11,0.8,-1.873,M,40.593,M,3.1,0123*6A
$GPVTG,061.16,T,-578.74,M,006.326,N,011.715,K,D*00
$GPGGA,095441.60,5703.4616299,N,00952.3786466,E,2,11,0.8,-1.878,M,40.593,M,3.1,0123*66
$GPVTG,060.62,T,-579.28,M,006.387,N,011.830,K,D*09
$GPGGA,095441.65,5703.4616748,N,00952.3787887,E,2,11,0.8,-1.881,M,40.593,M,3.3,0123*6C
$GPVTG,060.27,T,-579.63,M,006.432,N,011.912,K,D*0F
$GPGGA,095441.70,5703.4617197,N,00952.3789286,E,2,11,0.8,-1.884,M,40.593,M,3.3,0123*6D
$GPVTG,059.81,T,-580.09,M,006.419,N,011.887,K,D*07
$GPGGA,095441.75,5703.4617627,N,00952.3790659,E,2,11,0.8,-1.884,M,40.593,M,3.3,0123*6A
$GPVTG,059.73,T,-580.17,M,006.329,N,011.721,K,D*02
$GPGGA,095441.80,5703.4618051,N,00952.3792038,E,2,11,0.8,-1.879,M,40.593,M,3.3,0123*69
$GPVTG,059.98,T,-579.92,M,006.267,N,011.607,K,D*02
$GPGGA,095441.85,5703.4618474,N,00952.3793430,E,2,11,0.8,-1.877,M,40.593,M,3.5,0123*6A
$GPVTG,060.32,T,-579.58,M,006.249,N,011.573,K,D*02
$GPGGA,095441.90,5703.4618898,N,00952.3794809,E,2,11,0.8,-1.875,M,40.593,M,3.5,0123*63
$GPVTG,060.45,T,-579.45,M,006.221,N,011.522,K,D*04
$GPGGA,095441.95,5703.4619328,N,00952.3796181,E,2,11,0.8,-1.872,M,40.593,M,3.5,0123*6B
$GPVTG,060.31,T,-579.59,M,006.204,N,011.490,K,D*05
$GPGGA,095442.00,5703.4619764,N,00952.3797564,E,2,11,0.8,-1.867,M,40.593,M,3.5,0123*62
$GPVTG,060.16,T,-579.74,M,006.225,N,011.529,K,D*0F
$GPGGA,095442.05,5703.4620200,N,00952.3798944,E,2,11,0.8,-1.861,M,40.593,M,2.0,0123*69
$GPVTG,060.07,T,-579.83,M,006.246,N,011.567,K,D*08
$GPGGA,095442.10,5703.4620636,N,00952.3800345,E,2,11,0.8,-1.861,M,40.593,M,2.0,0123*69
$GPVTG,060.18,T,-579.72,M,006.295,N,011.657,K,D*06
$GPGGA,095442.15,5703.4621059,N,00952.3801758,E,2,11,0.8,-1.861,M,40.593,M,2.0,0123*6B
$GPVTG,060.69,T,-579.21,M,006.327,N,011.717,K,D*0B
$GPGGA,095442.20,5703.4621476,N,00952.3803169,E,2,11,0.8,-1.859,M,40.593,M,2.0,0123*69
$GPVTG,061.17,T,-578.73,M,006.334,N,011.731,K,D*03
$GPGGA,095442.25,5703.4621875,N,00952.3804581,E,2,11,0.8,-1.851,M,40.593,M,2.2,0123*6C
$GPVTG,062.02,T,-577.88,M,006.310,N,011.685,K,D*07
$GPGGA,095442.30,5703.4622274,N,00952.3805985,E,2,11,0.8,-1.847,M,40.593,M,2.2,0123*6E
$GPVTG,062.46,T,-577.44,M,006.272,N,011.615,K,D*0B
$GPGGA,095442.35,5703.4622684,N,00952.3807379,E,2,11,0.8,-1.843,M,40.593,M,2.2,0123*6F
$GPVTG,062.34,T,-577.56,M,006.243,N,011.562,K,D*0C
$GPGGA,095442.40,5703.4623130,N,00952.3808767,E,2,11,0.8,-1.844,M,40.593,M,2.2,0123*67
$GPVTG,061.16,T,-578.74,M,006.271,N,011.614,K,D*03
$GPGGA,095442.45,5703.4623582,N,00952.3810163,E,2,11,0.8,-1.850,M,40.593,M,2.5,0123*66
$GPVTG,060.23,T,-579.67,M,006.321,N,011.707,K,D*00
$GPGGA,095442.50,5703.4624032,N,00952.3811577,E,2,11,0.8,-1.858,M,40.593,M,2.5,0123*63
$GPVTG,059.79,T,-580.11,M,006.386,N,011.827,K,D*02
$GPGGA,095442.55,5703.4624483,N,00952.3813017,E,2,11,0.8,-1.866,M,40.593,M,2.5,0123*64
$GPVTG,059.77,T,-580.13,M,006.480,N,012.001,K,D*00
$GPGGA,095442.60,5703.4624937,N,00952.3814452,E,2,11,0.8,-1.872,M,40.593,M,2.5,0123*67
$GPVTG,059.65,T,-580.25,M,006.534,N,012.101,K,D*09
$GPGGA,095442.65,5703.4625379,N,00952.3815857,E,2,11,0.8,-1.877,M,40.593,M,2.7,0123*6C
$GPVTG,059.63,T,-580.27,M,006.490,N,012.019,K,D*0A
$GPGGA,095442.70,5703.4625814,N,00952.3817243,E,2,11,0.8,-1.880,M,40.593,M,2.7,0123*6D
$GPVTG,059.64,T,-580.26,M,006.404,N,011.860,K,D*04
$GPGGA,095442.75,5703.4626240,N,00952.3818626,E,2,11,0.8,-1.879,M,40.593,M,2.7,0123*6E
$GPVTG,059.92,T,-579.98,M,006.321,N,011.707,K,D*00
$GPGGA,095442.80,5703.4626665,N,00952.3820026,E,2,11,0.8,-1.879,M,40.593,M,2.7,0123*6A
$GPVTG,060.32,T,-579.58,M,006.298,N,011.663,K,D*0C
$GPGGA,095442.85,5703.4627102,N,00952.3821435,E,2,11,0.8,-1.882,M,40.593,M,3.0,0123*6D
$GPVTG,060.41,T,-579.49,M,006.319,N,011.703,K,D*07
$GPGGA,095442.90,5703.4627547,N,00952.3822839,E,2,11,0.8,-1.882,M,40.593,M,3.0,0123*6F
$GPVTG,060.18,T,-579.72,M,006.343,N,011.748,K,D*03
$GPGGA,095442.95,5703.4627988,N,00952.3824258,E,2,11,0.8,-1.881,M,40.593,M,3.0,0123*6D
$GPVTG,060.27,T,-579.63,M,006.383,N,011.821,K,D*03
$GPGGA,095443.00,5703.4628400,N,00952.3825677,E,2,11,0.8,-1.882,M,40.593,M,3.0,0123*69
$GPVTG,061.07,T,-578.83,M,006.361,N,011.781,K,D*06
$GPGGA,095443.05,5703.4628810,N,00952.3827083,E,2,11,0.8,-1.879,M,40.593,M,1.8,0123*60
$GPVTG,061.65,T,-578.25,M,006.324,N,011.713,K,D*04
$GPGGA,095443.10,5703.4629223,N,00952.3828494,E,2,11,0.8,-1.877,M,40.593,M,1.8,0123*6C
$GPVTG,061.91,T,-577.99,M,006.305,N,011.677,K,D*07
$GPGGA,095443.15,5703.4629646,N,00952.3829905,E,2,11,0.8,-1.872,M,40.593,M,1.8,0123*6F
$GPVTG,061.79,T,-578.11,M,006.308,N,011.683,K,D*08
$GPGGA,095443.20,5703.4630073,N,00952.3831350,E,2,11,0.8,-1.873,M,40.593,M,1.8,0123*63
$GPVTG,061.85,T,-578.05,M,006.381,N,011.817,K,D*0C
$GPGGA,095443.25,5703.4630501,N,00952.3832791,E,2,11,0.8,-1.876,M,40.593,M,2.1,0123*63
$GPVTG,061.75,T,-578.15,M,006.426,N,011.901,K,D*0E
$GPGGA,095443.30,5703.4630932,N,00952.3834232,E,2,11,0.8,-1.879,M,40.593,M,2.1,0123*6E
$GPVTG,061.59,T,-578.31,M,006.458,N,011.960,K,D*08
$GPGGA,095443.35,5703.4631364,N,00952.3835667,E,2,11,0.8,-1.883,M,40.593,M,2.1,0123*63
$GPVTG,061.38,T,-578.52,M,006.466,N,011.976,K,D*00
$GPGGA,095443.40,5703.4631811,N,00952.3837089,E,2,11,0.8,-1.889,M,40.593,M,2.1,0123*66
$GPVTG,060.71,T,-579.19,M,006.470,N,011.983,K,D*0F
$GPGGA,095443.45,5703.4632261,N,00952.3838525,E,2,11,0.8,-1.892,M,40.593,M,2.3,0123*69
$GPVTG,060.33,T,-579.57,M,006.501,N,012.040,K,D*01
$GPGGA,095443.50,5703.4632702,N,00952.3839944,E,2,11,0.8,-1.892,M,40.593,M,2.3,0123*67
$GPVTG,060.11,T,-579.79,M,006.473,N,011.989,K,D*06
$GPGGA,095443.55,5703.4633130,N,00952.3841364,E,2,11,0.8,-1.890,M,40.593,M,2.3,0123*61
$GPVTG,060.37,T,-579.53,M,006.434,N,011.916,K,D*0F
$GPGGA,095443.60,5703.4633560,N,00952.3842776,E,2,11,0.8,-1.889,M,40.593,M,2.3,0123*6A
$GPVTG,060.47,T,-579.43,M,006.395,N,011.843,K,D*04
$GPGGA,095443.65,5703.4633985,N,00952.3844157,E,2,11,0.8,-1.890,M,40.593,M,2.6,0123*66
$GPVTG,060.40,T,-579.50,M,006.304,N,011.675,K,D*02
$GPGGA,095443.70,5703.4634398,N,00952.3845534,E,2,11,0.8,-1.893,M,40.593,M,2.6,0123*60
$GPVTG,060.68,T,-579.22,M,006.216,N,011.512,K,D*0D
$GPGGA,095443.75,5703.4634812,N,00952.3846882,E,2,11,0.8,-1.895,M,40.593,M,2.6,0123*69
$GPVTG,060.62,T,-579.28,M,006.114,N,011.323,K,D*08
$GPGGA,095443.80,5703.4635218,N,00952.3848189,E,2,11,0.8,-1.893,M,40.593,M,2.6,0123*68
$GPVTG,060.40,T,-579.50,M,005.964,N,011.045,K,D*08
$GPGGA,095443.85,5703.4635617,N,00952.3849478,E,2,11,0.8,-1.890,M,40.593,M,2.8,0123*61
$GPVTG,060.34,T,-579.56,M,005.835,N,010.806,K,D*06
$GPGGA,095443.90,5703.4635998,N,00952.3850760,E,2,11,0.8,-1.893,M,40.593,M,2.8,0123*6C
$GPVTG,060.77,T,-579.13,M,005.720,N,010.593,K,D*0A
$GPGGA,095443.95,5703.4636378,N,00952.3852046,E,2,11,0.8,-1.900,M,40.593,M,2.8,0123*64
$GPVTG,061.19,T,-578.71,M,005.665,N,010.491,K,D*05
$GPGGA,095444.00,5703.4636746,N,00952.3853310,E,2,11,0.8,-1.911,M,40.593,M,2.8,0123*67
$GPVTG,061.63,T,-578.27,M,005.585,N,010.343,K,D*0E
$GPGGA,095444.05,5703.4637113,N,00952.3854559,E,2,11,0.8,-1.931,M,40.593,M,1.5,0123*65
$GPVTG,061.85,T,-578.05,M,005.525,N,010.233,K,D*0A
$GPGGA,095444.10,5703.4637492,N,00952.3855796,E,2,11,0.8,-1.947,M,40.593,M,1.5,0123*6C
$GPVTG,061.47,T,-578.43,M,005.491,N,010.169,K,D*04
$GPGGA,095444.15,5703.4637862,N,00952.3857014,E,2,11,0.8,-1.967,M,40.593,M,1.5,0123*67
$GPVTG,061.26,T,-578.64,M,005.433,N,010.063,K,D*05
$GPGGA,095444.20,5703.4638237,N,00952.3858203,E,2,11,0.8,-1.987,M,40.593,M,1.5,0123*61
$GPVTG,060.62,T,-579.28,M,005.364,N,009.934,K,D*0B
$GPGGA,095444.25,5703.4638604,N,00952.3859372,E,2,11,0.8,-2.003,M,40.593,M,1.8,0123*6D
$GPVTG,060.25,T,-579.65,M,005.285,N,009.787,K,D*09
$GPGGA,095444.30,5703.4638968,N,00952.3860534,E,2,11,0.8,-2.023,M,40.593,M,1.8,0123*60
$GPVTG,060.02,T,-579.88,M,005.225,N,009.676,K,D*0A
$GPGGA,095444.35,5703.4639330,N,00952.3861679,E,2,11,0.8,-2.043,M,40.593,M,1.8,0123*6E
$GPVTG,059.80,T,-580.10,M,005.164,N,009.564,K,D*0B
$GPGGA,095444.40,5703.4639675,N,00952.3862795,E,2,11,0.8,-2.061,M,40.593,M,1.8,0123*68
$GPVTG,059.89,T,-580.01,M,005.055,N,009.361,K,D*02
$GPGGA,095444.45,5703.4640020,N,00952.3863884,E,2,11,0.8,-2.082,M,40.593,M,2.0,0123*6D
$GPVTG,059.71,T,-580.19,M,004.945,N,009.159,K,D*0C
$GPGGA,095444.50,5703.4640363,N,00952.3864964,E,2,11,0.8,-2.101,M,40.593,M,2.0,0123*6F
$GPVTG,059.60,T,-580.30,M,004.868,N,009.016,K,D*03
$GPGGA,095444.55,5703.4640693,N,00952.3866031,E,2,11,0.8,-2.118,M,40.593,M,2.0,0123*63
$GPVTG,059.87,T,-580.03,M,004.786,N,008.864,K,D*09
$GPGGA,095444.60,5703.4641021,N,00952.3867075,E,2,11,0.8,-2.130,M,40.593,M,2.0,0123*60
$GPVTG,059.92,T,-579.98,M,004.700,N,008.705,K,D*0F
$GPGGA,095444.65,5703.4641327,N,00952.3868105,E,2,11,0.8,-2.141,M,40.593,M,2.2,0123*6D
$GPVTG,060.57,T,-579.33,M,004.597,N,008.514,K,D*03
$GPGGA,095444.70,5703.4641637,N,00952.3869131,E,2,11,0.8,-2.148,M,40.593,M,2.2,0123*62
$GPVTG,060.89,T,-579.01,M,004.540,N,008.409,K,D*06
$GPGGA,095444.75,5703.4641953,N,00952.3870147,E,2,11,0.8,-2.153,M,40.593,M,2.2,0123*69
$GPVTG,060.80,T,-579.10,M,004.510,N,008.353,K,D*02
$GPGGA,095444.80,5703.4642250,N,00952.3871183,E,2,11,0.8,-2.158,M,40.593,M,2.2,0123*6A
$GPVTG,061.66,T,-578.24,M,004.511,N,008.355,K,D*0A
$GPGGA,095444.85,5703.4642551,N,00952.3872214,E,2,11,0.8,-2.161,M,40.593,M,2.4,0123*6B
$GPVTG,062.05,T,-577.85,M,004.520,N,008.370,K,D*0D
$GPGGA,095444.90,5703.4642848,N,00952.3873223,E,2,11,0.8,-2.165,M,40.593,M,2.4,0123*6B
$GPVTG,062.09,T,-577.81,M,004.487,N,008.310,K,D*0F
$GPGGA,095444.95,5703.4643158,N,00952.3874226,E,2,11,0.8,-2.168,M,40.593,M,2.4,0123*68
$GPVTG,061.54,T,-578.36,M,004.482,N,008.301,K,D*02
$GPGGA,095445.00,5703.4643476,N,00952.3875239,E,2,11,0.8,-2.169,M,40.593,M,2.4,0123*62
$GPVTG,060.93,T,-578.97,M,004.515,N,008.361,K,D*0A
$GPGGA,095445.05,5703.4643787,N,00952.3876228,E,2,11,0.8,-2.169,M,40.593,M,2.7,0123*6A
$GPVTG,060.52,T,-579.38,M,004.495,N,008.325,K,D*0A
$GPGGA,095445.10,5703.4644097,N,00952.3877226,E,2,11,0.8,-2.171,M,40.593,M,2.7,0123*69
$GPVTG,060.31,T,-579.59,M,004.496,N,008.327,K,D*09
$GPGGA,095445.15,5703.4644425,N,00952.3878228,E,2,11,0.8,-2.173,M,40.593,M,2.7,0123*62
$GPVTG,059.60,T,-580.30,M,004.536,N,008.401,K,D*06
$GPGGA,095445.20,5703.4644756,N,00952.3879217,E,2,11,0.8,-2.173,M,40.593,M,2.7,0123*6E
$GPVTG,058.84,T,-581.06,M,004.548,N,008.423,K,D*00
$GPGGA,095445.25,5703.4645078,N,00952.3880182,E,2,11,0.8,-2.165,M,40.593,M,2.9,0123*61
$GPVTG,058.43,T,-581.47,M,004.498,N,008.330,K,D*07
$GPGGA,095445.30,5703.4645388,N,00952.3881154,E,2,11,0.8,-2.161,M,40.593,M,2.9,0123*67
$GPVTG,058.69,T,-581.21,M,004.458,N,008.256,K,D*02
$GPGGA,095445.35,5703.4645697,N,00952.3882134,E,2,11,0.8,-2.157,M,40.593,M,2.9,0123*69
$GPVTG,059.10,T,-580.80,M,004.444,N,008.231,K,D*0B
$GPGGA,095445.40,5703.4646005,N,00952.3883121,E,2,11,0.8,-2.151,M,40.593,M,2.9,0123*66
$GPVTG,059.57,T,-580.33,M,004.451,N,008.244,K,D*06
$GPGGA,095445.45,5703.4646313,N,00952.3884102,E,2,11,0.8,-2.146,M,40.593,M,3.1,0123*6E
$GPVTG,059.79,T,-580.11,M,004.445,N,008.233,K,D*0F
$GPGGA,095445.50,5703.4646624,N,00952.3885085,E,2,11,0.8,-2.143,M,40.593,M,3.1,0123*61
$GPVTG,059.93,T,-579.97,M,004.451,N,008.243,K,D*01
$GPGGA,095445.55,5703.4646936,N,00952.3886055,E,2,11,0.8,-2.138,M,40.593,M,3.1,0123*6A
$GPVTG,059.77,T,-580.13,M,004.435,N,008.213,K,D*06
$GPGGA,095445.60,5703.4647247,N,00952.3887031,E,2,11,0.8,-2.133,M,40.593,M,3.1,0123*68
$GPVTG,059.75,T,-580.15,M,004.435,N,008.214,K,D*05
$GPGGA,095445.65,5703.4647549,N,00952.3888016,E,2,11,0.8,-2.122,M,40.593,M,3.3,0123*6C
$GPVTG,060.26,T,-579.64,M,004.437,N,008.218,K,D*07
$GPGGA,095445.70,5703.4647855,N,00952.3889008,E,2,11,0.8,-2.116,M,40.593,M,3.3,0123*61
$GPVTG,060.51,T,-579.39,M,004.457,N,008.255,K,D*00
$GPGGA,095445.75,5703.4648151,N,00952.3890005,E,2,11,0.8,-2.111,M,40.593,M,3.3,0123*64
$GPVTG,061.08,T,-578.82,M,004.465,N,008.268,K,D*03
$GPGGA,095445.80,5703.4648439,N,00952.3890989,E,2,11,0.8,-2.110,M,40.593,M,3.3,0123*69
$GPVTG,061.55,T,-578.35,M,004.432,N,008.207,K,D*0C
$GPGGA,095445.85,5703.4648736,N,00952.3891985,E,2,11,0.8,-2.110,M,40.593,M,3.5,0123*6B
$GPVTG,061.69,T,-578.21,M,004.445,N,008.232,K,D*00
$GPGGA,095445.90,5703.4649031,N,00952.3892975,E,2,11,0.8,-2.111,M,40.593,M,3.5,0123*63
$GPVTG,061.70,T,-578.20,M,004.441,N,008.224,K,D*0A
$GPGGA,095445.95,5703.4649329,N,00952.3893981,E,2,11,0.8,-2.112,M,40.593,M,3.5,0123*65
$GPVTG,061.77,T,-578.13,M,004.469,N,008.277,K,D*01
$GPGGA,095446.00,5703.4649632,N,00952.3894969,E,2,11,0.8,-2.114,M,40.593,M,3.5,0123*62
$GPVTG,061.37,T,-578.53,M,004.465,N,008.270,K,D*0A
$GPGGA,095446.05,5703.4649939,N,00952.3895944,E,2,11,0.8,-2.116,M,40.593,M,2.0,0123*6B
$GPVTG,060.69,T,-579.21,M,004.450,N,008.241,K,D*00
$GPGGA,095446.10,5703.4650256,N,00952.3896925,E,2,11,0.8,-2.121,M,40.593,M,2.0,0123*65
$GPVTG,059.96,T,-579.94,M,004.462,N,008.264,K,D*02
$GPGGA,095446.15,5703.4650578,N,00952.3897917,E,2,11,0.8,-2.129,M,40.593,M,2.0,0123*63
$GPVTG,059.43,T,-580.47,M,004.500,N,008.335,K,D*02
$GPGGA,095446.20,5703.4650901,N,00952.3898901,E,2,11,0.8,-2.139,M,40.593,M,2.0,0123*6E
$GPVTG,058.96,T,-580.94,M,004.515,N,008.362,K,D*03
$GPGGA,095446.25,5703.4651227,N,00952.3899883,E,2,11,0.8,-2.155,M,40.593,M,2.2,0123*67
$GPVTG,058.45,T,-581.45,M,004.527,N,008.385,K,D*08
$GPGGA,095446.30,5703.4651546,N,00952.3900859,E,2,11,0.8,-2.162,M,40.593,M,2.2,0123*61
$GPVTG,058.39,T,-581.51,M,004.512,N,008.356,K,D*0E
$GPGGA,095446.35,5703.4651866,N,00952.3901823,E,2,11,0.8,-2.170,M,40.593,M,2.2,0123*64
$GPVTG,058.24,T,-581.66,M,004.480,N,008.297,K,D*00
$GPGGA,095446.40,5703.4652175,N,00952.3902766,E,2,11,0.8,-2.173,M,40.593,M,2.2,0123*60
$GPVTG,058.34,T,-581.56,M,004.398,N,008.146,K,D*03
$GPGGA,095446.45,5703.4652484,N,00952.3903659,E,2,11,0.8,-2.168,M,40.593,M,2.5,0123*6F
$GPVTG,057.66,T,-582.24,M,004.259,N,007.887,K,D*0A
$GPGGA,095446.50,5703.4652787,N,00952.3904567,E,2,11,0.8,-2.150,M,40.593,M,2.5,0123*69
$GPVTG,057.77,T,-582.13,M,004.186,N,007.752,K,D*08
$GPGGA,095446.55,5703.4653083,N,00952.3905479,E,2,11,0.8,-2.135,M,40.593,M,2.5,0123*62
$GPVTG,058.31,T,-581.59,M,004.139,N,007.665,K,D*09
$GPGGA,095446.60,5703.4653363,N,00952.3906385,E,2,11,0.8,-2.121,M,40.593,M,2.5,0123*6B
$GPVTG,059.26,T,-580.64,M,004.079,N,007.555,K,D*04
$GPGGA,095446.65,5703.4653645,N,00952.3907272,E,2,11,0.8,-2.099,M,40.593,M,2.7,0123*67
$GPVTG,059.66,T,-580.24,M,004.017,N,007.440,K,D*09
$GPGGA,095446.70,5703.4653939,N,00952.3908157,E,2,11,0.8,-2.081,M,40.593,M,2.7,0123*65
$GPVTG,059.39,T,-580.51,M,004.003,N,007.414,K,D*05
$GPGGA,095446.75,5703.4654226,N,00952.3909046,E,2,11,0.8,-2.061,M,40.593,M,2.7,0123*6C
$GPVTG,059.48,T,-580.42,M,004.000,N,007.409,K,D*0E
$GPGGA,095446.80,5703.4654504,N,00952.3909955,E,2,11,0.8,-2.044,M,40.593,M,2.7,0123*6D
$GPVTG,060.22,T,-579.68,M,004.027,N,007.458,K,D*07
$GPGGA,095446.85,5703.4654778,N,00952.3910855,E,2,11,0.8,-2.027,M,40.593,M,3.0,0123*6B
$GPVTG,060.76,T,-579.14,M,004.027,N,007.458,K,D*0D
$GPGGA,095446.90,5703.4655065,N,00952.3911735,E,2,11,0.8,-2.016,M,40.593,M,3.0,0123*6F
$GPVTG,060.23,T,-579.67,M,004.015,N,007.436,K,D*00
$GPGGA,095446.95,5703.4655366,N,00952.3912602,E,2,11,0.8,-2.008,M,40.593,M,3.0,0123*63
$GPVTG,059.05,T,-580.85,M,004.010,N,007.426,K,D*00
$GPGGA,095447.00,5703.4655653,N,00952.3913469,E,2,11,0.8,-2.002,M,40.593,M,3.0,0123*69
$GPVTG,058.75,T,-581.15,M,003.989,N,007.388,K,D*03
$GPGGA,095447.05,5703.4655926,N,00952.3914332,E,2,11,0.8,-2.004,M,40.593,M,1.8,0123*63
$GPVTG,058.95,T,-580.95,M,003.954,N,007.323,K,D*05
$GPGGA,095447.10,5703.4656217,N,00952.3915206,E,2,11,0.8,-2.002,M,40.593,M,1.8,0123*6C
$GPVTG,058.76,T,-581.14,M,003.976,N,007.363,K,D*04
$GPGGA,095447.15,5703.4656499,N,00952.3916082,E,2,11,0.8,-2.004,M,40.593,M,1.8,0123*62
$GPVTG,058.98,T,-580.92,M,003.983,N,007.376,K,D*05
$GPGGA,095447.20,5703.4656781,N,00952.3916940,E,2,11,0.8,-2.010,M,40.593,M,1.8,0123*6C
$GPVTG,058.87,T,-581.03,M,003.956,N,007.327,K,D*0E
$GPGGA,095447.25,5703.4657065,N,00952.3917807,E,2,11,0.8,-2.023,M,40.593,M,2.1,0123*6C
$GPVTG,058.86,T,-581.04,M,003.963,N,007.339,K,D*01
$GPGGA,095447.30,5703.4657365,N,00952.3918678,E,2,11,0.8,-2.032,M,40.593,M,2.1,0123*62
$GPVTG,058.31,T,-581.59,M,004.000,N,007.408,K,D*0B
$GPGGA,095447.35,5703.4657658,N,00952.3919550,E,2,11,0.8,-2.046,M,40.593,M,2.1,0123*67
$GPVTG,058.19,T,-581.71,M,004.018,N,007.442,K,D*0C
$GPGGA,095447.40,5703.4657956,N,00952.3920407,E,2,11,0.8,-2.066,M,40.593,M,2.1,0123*6F
$GPVTG,057.74,T,-582.16,M,004.010,N,007.427,K,D*01
$GPGGA,095447.45,5703.4658244,N,00952.3921252,E,2,11,0.8,-2.097,M,40.593,M,2.3,0123*66
$GPVTG,057.54,T,-582.36,M,003.970,N,007.352,K,D*0C
$GPGGA,095447.50,5703.4658539,N,00952.3922091,E,2,11,0.8,-2.118,M,40.593,M,2.3,0123*67
$GPVTG,057.17,T,-582.73,M,003.941,N,007.300,K,D*0F
$GPGGA,095447.55,5703.4658821,N,00952.3922948,E,2,11,0.8,-2.137,M,40.593,M,2.3,0123*66
$GPVTG,057.77,T,-582.13,M,003.932,N,007.283,K,D*01
$GPGGA,095447.60,5703.4659088,N,00952.3923734,E,2,11,0.8,-2.143,M,40.593,M,2.3,0123*6D
$GPVTG,057.71,T,-582.19,M,003.777,N,006.994,K,D*0E
$GPGGA,095447.65,5703.4659368,N,00952.3924443,E,2,11,0.8,-2.143,M,40.593,M,2.6,0123*64
$GPVTG,055.71,T,-584.19,M,003.563,N,006.598,K,D*0D
$GPGGA,095447.70,5703.4659648,N,00952.3925193,E,2,11,0.8,-2.143,M,40.593,M,2.6,0123*6E
$GPVTG,055.19,T,-584.71,M,003.501,N,006.483,K,D*02
$GPGGA,095447.75,5703.4659924,N,00952.3925945,E,2,11,0.8,-2.137,M,40.593,M,2.6,0123*6E
$GPVTG,055.18,T,-584.72,M,003.477,N,006.439,K,D*01
$GPGGA,095447.80,5703.4660189,N,00952.3926684,E,2,11,0.8,-2.128,M,40.593,M,2.6,0123*6E
$GPVTG,055.58,T,-584.32,M,003.429,N,006.351,K,D*03
$GPGGA,095447.85,5703.4660454,N,00952.3927417,E,2,11,0.8,-2.121,M,40.593,M,2.8,0123*60
$GPVTG,055.81,T,-584.09,M,003.399,N,006.295,K,D*0A
$GPGGA,095447.90,5703.4660718,N,00952.3928115,E,2,11,0.8,-2.111,M,40.593,M,2.8,0123*64
$GPVTG,055.40,T,-584.50,M,003.329,N,006.165,K,D*0C
$GPGGA,095447.95,5703.4660986,N,00952.3928825,E,2,11,0.8,-2.096,M,40.593,M,2.8,0123*6C
$GPVTG,055.22,T,-584.68,M,003.320,N,006.149,K,D*04
$GPGGA,095448.00,5703.4661241,N,00952.3929536,E,2,11,0.8,-2.080,M,40.593,M,2.8,0123*67
$GPVTG,055.81,T,-584.09,M,003.303,N,006.117,K,D*00
$GPGGA,095448.05,5703.4661472,N,00952.3930250,E,2,11,0.8,-2.054,M,40.593,M,1.5,0123*6C
$GPVTG,057.47,T,-582.43,M,003.265,N,006.046,K,D*04
$GPGGA,095448.10,5703.4661712,N,00952.3930958,E,2,11,0.8,-2.040,M,40.593,M,1.5,0123*6B
$GPVTG,058.12,T,-581.78,M,003.245,N,006.010,K,D*01
$GPGGA,095448.15,5703.4661955,N,00952.3931646,E,2,11,0.8,-2.026,M,40.593,M,1.5,0123*62
$GPVTG,057.96,T,-581.94,M,003.208,N,005.942,K,D*04
$GPGGA,095448.20,5703.4662201,N,00952.3932367,E,2,11,0.8,-2.016,M,40.593,M,1.5,0123*6B
$GPVTG,058.33,T,-581.57,M,003.252,N,006.023,K,D*09
$GPGGA,095448.25,5703.4662443,N,00952.3933100,E,2,11,0.8,-2.012,M,40.593,M,1.8,0123*65
$GPVTG,058.83,T,-581.07,M,003.303,N,006.118,K,D*0B
$GPGGA,095448.30,5703.4662692,N,00952.3933827,E,2,11,0.8,-2.009,M,40.593,M,1.8,0123*69
$GPVTG,058.71,T,-581.19,M,003.342,N,006.189,K,D*04
$GPGGA,095448.35,5703.4662951,N,00952.3934564,E,2,11,0.8,-2.010,M,40.593,M,1.8,0123*69
$GPVTG,058.26,T,-581.64,M,003.399,N,006.295,K,D*04
$GPGGA,095448.40,5703.4663206,N,00952.3935283,E,2,11,0.8,-2.016,M,40.593,M,1.8,0123*6A
$GPVTG,057.66,T,-582.24,M,003.401,N,006.298,K,D*03
$GPGGA,095448.45,5703.4663466,N,00952.3936021,E,2,11,0.8,-2.032,M,40.593,M,2.0,0123*6B
$GPVTG,057.39,T,-582.51,M,003.438,N,006.368,K,D*0F
$GPGGA,095448.50,5703.4663736,N,00952.3936760,E,2,11,0.8,-2.051,M,40.593,M,2.0,0123*6E
$GPVTG,056.77,T,-583.13,M,003.483,N,006.451,K,D*0E
$GPGGA,095448.55,5703.4664019,N,00952.3937475,E,2,11,0.8,-2.068,M,40.593,M,2.0,0123*6A
$GPVTG,055.25,T,-584.65,M,003.493,N,006.469,K,D*06
$GPGGA,095448.60,5703.4664312,N,00952.3938171,E,2,11,0.8,-2.086,M,40.593,M,2.0,0123*6A
$GPVTG,053.42,T,-586.48,M,003.486,N,006.456,K,D*04
$GPGGA,095448.65,5703.4664594,N,00952.3938866,E,2,11,0.8,-2.118,M,40.593,M,2.2,0123*6C
$GPVTG,052.59,T,-587.31,M,003.460,N,006.409,K,D*02
$GPGGA,095448.70,5703.4664851,N,00952.3939551,E,2,11,0.8,-2.132,M,40.593,M,2.2,0123*6C
$GPVTG,053.13,T,-586.77,M,003.373,N,006.246,K,D*06
$GPGGA,095448.75,5703.4665094,N,00952.3940218,E,2,11,0.8,-2.138,M,40.593,M,2.2,0123*67
$GPVTG,054.08,T,-585.82,M,003.253,N,006.025,K,D*06
$GPGGA,095448.80,5703.4665342,N,00952.3940874,E,2,11,0.8,-2.142,M,40.593,M,2.2,0123*68
$GPVTG,054.38,T,-585.52,M,003.168,N,005.866,K,D*0F
$GPGGA,095448.85,5703.4665579,N,00952.3941523,E,2,11,0.8,-2.145,M,40.593,M,2.4,0123*6C
$GPVTG,055.10,T,-584.80,M,003.082,N,005.709,K,D*09
$GPGGA,095448.90,5703.4665825,N,00952.3942180,E,2,11,0.8,-2.145,M,40.593,M,2.4,0123*62
$GPVTG,055.42,T,-584.48,M,003.064,N,005.674,K,D*09
$GPGGA,095448.95,5703.4666065,N,00952.3942844,E,2,11,0.8,-2.145,M,40.593,M,2.4,0123*69
$GPVTG,056.12,T,-583.78,M,003.065,N,005.676,K,D*08
$GPGGA,095449.00,5703.4666301,N,00952.3943510,E,2,11,0.8,-2.143,M,40.593,M,2.4,0123*6E
$GPVTG,056.80,T,-583.10,M,003.071,N,005.687,K,D*06
$GPGGA,095449.05,5703.4666533,N,00952.3944166,E,2,11,0.8,-2.133,M,40.593,M,2.7,0123*6A
$GPVTG,057.18,T,-582.72,M,003.059,N,005.665,K,D*05
$GPGGA,095449.10,5703.4666768,N,00952.3944825,E,2,11,0.8,-2.130,M,40.593,M,2.7,0123*6F
$GPVTG,057.34,T,-582.56,M,003.061,N,005.669,K,D*0A
$GPGGA,095449.15,5703.4666995,N,00952.3945499,E,2,11,0.8,-2.124,M,40.593,M,2.7,0123*69
$GPVTG,058.15,T,-581.75,M,003.077,N,005.698,K,D*0D
$GPGGA,095449.20,5703.4667234,N,00952.3946186,E,2,11,0.8,-2.117,M,40.593,M,2.7,0123*66
$GPVTG,058.23,T,-581.67,M,003.136,N,005.808,K,D*08
$GPGGA,095449.25,5703.4667478,N,00952.3946859,E,2,11,0.8,-2.116,M,40.593,M,2.9,0123*69
$GPVTG,057.69,T,-582.21,M,003.155,N,005.843,K,D*02
$GPGGA,095449.30,5703.4667734,N,00952.3947540,E,2,11,0.8,-2.112,M,40.593,M,2.9,0123*66
$GPVTG,056.85,T,-583.05,M,003.206,N,005.937,K,D*01
$GPGGA,095449.35,5703.4667982,N,00952.3948225,E,2,11,0.8,-2.114,M,40.593,M,2.9,0123*6D
$GPVTG,056.58,T,-583.32,M,003.235,N,005.991,K,D*09
$GPGGA,095449.40,5703.4668230,N,00952.3948918,E,2,11,0.8,-2.116,M,40.593,M,2.9,0123*65
$GPVTG,056.58,T,-583.32,M,003.264,N,006.045,K,D*0E
$GPGGA,095449.45,5703.4668490,N,00952.3949583,E,2,11,0.8,-2.115,M,40.593,M,3.1,0123*69
$GPVTG,055.34,T,-584.56,M,003.265,N,006.047,K,D*01
$GPGGA,095449.50,5703.4668749,N,00952.3950228,E,2,11,0.8,-2.111,M,40.593,M,3.1,0123*60
$GPVTG,054.15,T,-585.75,M,003.218,N,005.959,K,D*0C
$GPGGA,095449.55,5703.4669000,N,00952.3950877,E,2,11,0.8,-2.104,M,40.593,M,3.1,0123*6A
$GPVTG,053.91,T,-585.99,M,003.175,N,005.879,K,D*0E
$GPGGA,095449.60,5703.4669234,N,00952.3951540,E,2,11,0.8,-2.100,M,40.593,M,3.1,0123*65
$GPVTG,055.03,T,-584.87,M,003.136,N,005.807,K,D*03
$GPGGA,095449.65,5703.4669458,N,00952.3952177,E,2,11,0.8,-2.093,M,40.593,M,3.3,0123*66
$GPVTG,055.85,T,-584.05,M,003.051,N,005.650,K,D*0B
$GPGGA,095449.70,5703.4669675,N,00952.3952805,E,2,11,0.8,-2.084,M,40.593,M,3.3,0123*65
$GPVTG,056.68,T,-583.22,M,002.964,N,005.490,K,D*09
$GPGGA,095449.75,5703.4669897,N,00952.3953426,E,2,11,0.8,-2.073,M,40.593,M,3.3,0123*66
$GPVTG,056.87,T,-583.03,M,002.910,N,005.389,K,D*07
$GPGGA,095449.80,5703.4670115,N,00952.3954052,E,2,11,0.8,-2.064,M,40.593,M,3.3,0123*61
$GPVTG,057.34,T,-582.56,M,002.881,N,005.336,K,D*02
$GPGGA,095449.85,5703.4670336,N,00952.3954687,E,2,11,0.8,-2.050,M,40.593,M,3.5,0123*68
$GPVTG,057.67,T,-582.23,M,002.892,N,005.356,K,D*02
$GPGGA,095449.90,5703.4670566,N,00952.3955328,E,2,11,0.8,-2.039,M,40.593,M,3.5,0123*61
$GPVTG,057.48,T,-582.42,M,002.932,N,005.431,K,D*05
$GPGGA,095449.95,5703.4670790,N,00952.3955960,E,2,11,0.8,-2.029,M,40.593,M,3.5,0123*68
$GPVTG,057.47,T,-582.43,M,002.939,N,005.443,K,D*05
$GPGGA,095450.00,5703.4671005,N,00952.3956588,E,2,11,0.8,-2.021,M,40.593,M,3.5,0123*67
$GPVTG,057.77,T,-582.13,M,002.921,N,005.410,K,D*0C
$GPGGA,095450.05,5703.4671227,N,00952.3957218,E,2,11,0.8,-2.021,M,40.593,M,2.0,0123*6B
$GPVTG,057.40,T,-582.50,M,002.940,N,005.445,K,D*08
$GPGGA,095450.10,5703.4671463,N,00952.3957865,E,2,11,0.8,-2.022,M,40.593,M,2.0,0123*6A
$GPVTG,056.93,T,-582.97,M,002.997,N,005.551,K,D*02
$GPGGA,095450.15,5703.4671705,N,00952.3958523,E,2,11,0.8,-2.027,M,40.593,M,2.0,0123*69
$GPVTG,056.52,T,-583.38,M,003.067,N,005.680,K,D*03
$GPGGA,095450.20,5703.4671953,N,00952.3959181,E,2,11,0.8,-2.038,M,40.593,M,2.0,0123*61
$GPVTG,055.86,T,-584.04,M,003.125,N,005.787,K,D*00
$GPGGA,095450.25,5703.4672207,N,00952.3959829,E,2,11,0.8,-2.056,M,40.593,M,2.2,0123*6C
$GPVTG,054.93,T,-584.97,M,003.153,N,005.839,K,D*04
$GPGGA,095450.30,5703.4672471,N,00952.3960481,E,2,11,0.8,-2.074,M,40.593,M,2.2,0123*6B
$GPVTG,053.93,T,-585.97,M,003.194,N,005.916,K,D*05
$GPGGA,095450.35,5703.4672722,N,00952.3961136,E,2,11,0.8,-2.095,M,40.593,M,2.2,0123*6C
$GPVTG,053.95,T,-585.95,M,003.200,N,005.926,K,D*0C
$GPGGA,095450.40,5703.4672964,N,00952.3961782,E,2,11,0.8,-2.117,M,40.593,M,2.2,0123*60
$GPVTG,054.31,T,-585.59,M,003.162,N,005.857,K,D*05
$GPGGA,095450.45,5703.4673200,N,00952.3962433,E,2,11,0.8,-2.138,M,40.593,M,2.5,0123*6D
$GPVTG,055.03,T,-584.87,M,003.131,N,005.799,K,D*0C
$GPGGA,095450.50,5703.4673432,N,00952.3963103,E,2,11,0.8,-2.159,M,40.593,M,2.5,0123*6E
$GPVTG,056.21,T,-583.69,M,003.133,N,005.802,K,D*07
$GPGGA,095450.55,5703.4673665,N,00952.3963758,E,2,11,0.8,-2.173,M,40.593,M,2.5,0123*6B
$GPVTG,056.71,T,-583.19,M,003.105,N,005.751,K,D*09
$GPGGA,095450.60,5703.4673884,N,00952.3964346,E,2,11,0.8,-2.180,M,40.593,M,2.5,0123*6C
$GPVTG,056.26,T,-583.64,M,002.944,N,005.453,K,D*0C
$GPGGA,095450.65,5703.4674100,N,00952.3964892,E,2,11,0.8,-2.179,M,40.593,M,2.7,0123*6D
$GPVTG,055.08,T,-584.82,M,002.760,N,005.111,K,D*07
$GPGGA,095450.70,5703.4674320,N,00952.3965445,E,2,11,0.8,-2.172,M,40.593,M,2.7,0123*65
$GPVTG,054.27,T,-585.63,M,002.664,N,004.933,K,D*09
$GPGGA,095450.75,5703.4674540,N,00952.3966011,E,2,11,0.8,-2.164,M,40.593,M,2.7,0123*61
$GPVTG,054.13,T,-585.77,M,002.637,N,004.884,K,D*00
$GPGGA,095450.80,5703.4674747,N,00952.3966592,E,2,11,0.8,-2.151,M,40.593,M,2.7,0123*66
$GPVTG,055.26,T,-584.64,M,002.637,N,004.883,K,D*03
$GPGGA,095450.85,5703.4674957,N,00952.3967149,E,2,11,0.8,-2.132,M,40.593,M,3.0,0123*6C
$GPVTG,055.37,T,-584.53,M,002.610,N,004.834,K,D*0E
$GPGGA,095450.90,5703.4675153,N,00952.3967701,E,2,11,0.8,-2.115,M,40.593,M,3.0,0123*6A
$GPVTG,056.18,T,-583.72,M,002.569,N,004.758,K,D*0C
$GPGGA,095450.95,5703.4675346,N,00952.3968262,E,2,11,0.8,-2.097,M,40.593,M,3.0,0123*6D
$GPVTG,057.19,T,-582.71,M,002.558,N,004.737,K,D*05
$GPGGA,095451.00,5703.4675528,N,00952.3968793,E,2,11,0.8,-2.077,M,40.593,M,3.0,0123*6B
$GPVTG,057.83,T,-582.07,M,002.486,N,004.605,K,D*05
$GPGGA,095451.05,5703.4675723,N,00952.3969314,E,2,11,0.8,-2.045,M,40.593,M,1.8,0123*66
$GPVTG,057.31,T,-582.59,M,002.466,N,004.566,K,D*0F
$GPGGA,095451.10,5703.4675932,N,00952.3969857,E,2,11,0.8,-2.027,M,40.593,M,1.8,0123*64
$GPVTG,056.41,T,-583.49,M,002.508,N,004.644,K,D*03
$GPGGA,095451.15,5703.4676132,N,00952.3970409,E,2,11,0.8,-2.014,M,40.593,M,1.8,0123*65
$GPVTG,056.46,T,-583.44,M,002.543,N,004.710,K,D*06
$GPGGA,095451.20,5703.4676342,N,00952.3970957,E,2,11,0.8,-2.005,M,40.593,M,1.8,0123*60
$GPVTG,055.80,T,-584.10,M,002.582,N,004.782,K,D*0F
$GPGGA,095451.25,5703.4676559,N,00952.3971513,E,2,11,0.8,-2.002,M,40.593,M,2.1,0123*69
$GPVTG,054.96,T,-584.94,M,002.639,N,004.888,K,D*03
$GPGGA,095451.30,5703.4676781,N,00952.3972079,E,2,11,0.8,-1.999,M,40.593,M,2.1,0123*68
$GPVTG,054.52,T,-585.38,M,002.703,N,005.007,K,D*0A
$GPGGA,095451.35,5703.4677007,N,00952.3972649,E,2,11,0.8,-2.003,M,40.593,M,2.1,0123*69
$GPVTG,054.09,T,-585.81,M,002.760,N,005.111,K,D*05
$GPGGA,095451.40,5703.4677223,N,00952.3973231,E,2,11,0.8,-2.012,M,40.593,M,2.1,0123*65
$GPVTG,054.61,T,-585.29,M,002.795,N,005.176,K,D*02
$GPGGA,095451.45,5703.4677445,N,00952.3973809,E,2,11,0.8,-2.030,M,40.593,M,2.3,0123*65
$GPVTG,054.57,T,-585.33,M,002.814,N,005.212,K,D*0B
$GPGGA,095451.50,5703.4677667,N,00952.3974376,E,2,11,0.8,-2.042,M,40.593,M,2.3,0123*62
$GPVTG,054.30,T,-585.60,M,002.803,N,005.191,K,D*02
$GPGGA,095451.55,5703.4677889,N,00952.3974931,E,2,11,0.8,-2.053,M,40.593,M,2.3,0123*60
$GPVTG,053.83,T,-586.07,M,002.769,N,005.129,K,D*0F
$GPGGA,095451.60,5703.4678112,N,00952.3975465,E,2,11,0.8,-2.065,M,40.593,M,2.3,0123*6A
$GPVTG,052.92,T,-586.98,M,002.710,N,005.020,K,D*0E
$GPGGA,095451.65,5703.4678325,N,00952.3975988,E,2,11,0.8,-2.084,M,40.593,M,2.6,0123*6D
$GPVTG,052.56,T,-587.34,M,002.633,N,004.877,K,D*0A
$GPGGA,095451.70,5703.4678543,N,00952.3976502,E,2,11,0.8,-2.097,M,40.593,M,2.6,0123*60
$GPVTG,051.95,T,-587.95,M,002.576,N,004.771,K,D*06
$GPGGA,095451.75,5703.4678754,N,00952.3977035,E,2,11,0.8,-2.110,M,40.593,M,2.6,0123*6F
$GPVTG,052.56,T,-587.34,M,002.563,N,004.746,K,D*01
$GPGGA,095451.80,5703.4678967,N,00952.3977568,E,2,11,0.8,-2.122,M,40.593,M,2.6,0123*67
$GPVTG,053.02,T,-586.88,M,002.561,N,004.743,K,D*00
$GPGGA,095451.85,5703.4679178,N,00952.3978085,E,2,11,0.8,-2.136,M,40.593,M,2.8,0123*67
$GPVTG,052.89,T,-587.01,M,002.538,N,004.700,K,D*09
$GPGGA,095451.90,5703.4679386,N,00952.3978591,E,2,11,0.8,-2.144,M,40.593,M,2.8,0123*65
$GPVTG,052.89,T,-587.01,M,002.498,N,004.626,K,D*07
$GPGGA,095451.95,5703.4679596,N,00952.3979115,E,2,11,0.8,-2.151,M,40.593,M,2.8,0123*6A
$GPVTG,053.27,T,-586.63,M,002.510,N,004.649,K,D*0F
$GPGGA,095452.00,5703.4679806,N,00952.3979645,E,2,11,0.8,-2.159,M,40.593,M,2.8,0123*6B
$GPVTG,053.71,T,-586.19,M,002.533,N,004.690,K,D*04
$GPGGA,095452.05,5703.4680011,N,00952.3980166,E,2,11,0.8,-2.173,M,40.593,M,1.5,0123*60
$GPVTG,054.03,T,-585.87,M,002.544,N,004.712,K,D*09
$GPGGA,095452.10,5703.4680227,N,00952.3980695,E,2,11,0.8,-2.176,M,40.593,M,1.5,0123*6D
$GPVTG,053.77,T,-586.13,M,002.571,N,004.762,K,D*02
$GPGGA,095452.15,5703.4680438,N,00952.3981210,E,2,11,0.8,-2.179,M,40.593,M,1.5,0123*67
$GPVTG,053.46,T,-586.44,M,002.555,N,004.731,K,D*02
$GPGGA,095452.20,5703.4680652,N,00952.3981731,E,2,11,0.8,-2.182,M,40.593,M,1.5,0123*6D
$GPVTG,053.27,T,-586.63,M,002.557,N,004.735,K,D*06
$GPGGA,095452.25,5703.4680869,N,00952.3982242,E,2,11,0.8,-2.178,M,40.593,M,1.8,0123*64
$GPVTG,052.70,T,-587.20,M,002.549,N,004.721,K,D*09
$GPGGA,095452.30,5703.4681084,N,00952.3982772,E,2,11,0.8,-2.173,M,40.593,M,1.8,0123*67
$GPVTG,052.89,T,-587.01,M,002.574,N,004.767,K,D*00
$GPGGA,095452.35,5703.4681306,N,00952.3983289,E,2,11,0.8,-2.170,M,40.593,M,1.8,0123*68
$GPVTG,052.29,T,-587.61,M,002.581,N,004.781,K,D*0E
$GPGGA,095452.40,5703.4681519,N,00952.3983804,E,2,11,0.8,-2.163,M,40.593,M,1.8,0123*6F
$GPVTG,052.34,T,-587.56,M,002.568,N,004.757,K,D*0A
$GPGGA,095452.45,5703.4681731,N,00952.3984331,E,2,11,0.8,-2.150,M,40.593,M,2.0,0123*63
$GPVTG,052.95,T,-586.95,M,002.572,N,004.764,K,D*04
$GPGGA,095452.50,5703.4681942,N,00952.3984869,E,2,11,0.8,-2.139,M,40.593,M,2.0,0123*64
$GPVTG,053.66,T,-586.24,M,002.592,N,004.800,K,D*00
$GPGGA,095452.55,5703.4682141,N,00952.3985397,E,2,11,0.8,-2.131,M,40.593,M,2.0,0123*6A
$GPVTG,054.53,T,-585.37,M,002.565,N,004.751,K,D*03
$GPGGA,095452.60,5703.4682340,N,00952.3985922,E,2,11,0.8,-2.123,M,40.593,M,2.0,0123*68
$GPVTG,055.08,T,-584.82,M,002.538,N,004.700,K,D*0F
$GPGGA,095452.65,5703.4682541,N,00952.3986442,E,2,11,0.8,-2.110,M,40.593,M,2.2,0123*60
$GPVTG,055.20,T,-584.70,M,002.516,N,004.660,K,D*03
$GPGGA,095452.70,5703.4682747,N,00952.3986952,E,2,11,0.8,-2.097,M,40.593,M,2.2,0123*62
$GPVTG,054.56,T,-585.34,M,002.495,N,004.620,K,D*0C
$GPGGA,095452.75,5703.4682955,N,00952.3987464,E,2,11,0.8,-2.081,M,40.593,M,2.2,0123*64
$GPVTG,053.99,T,-585.91,M,002.491,N,004.613,K,D*03
$GPGGA,095452.80,5703.4683153,N,00952.3987974,E,2,11,0.8,-2.070,M,40.593,M,2.2,0123*63
$GPVTG,054.21,T,-585.69,M,002.467,N,004.569,K,D*07
$GPGGA,095452.85,5703.4683357,N,00952.3988475,E,2,11,0.8,-2.056,M,40.593,M,2.4,0123*61
$GPVTG,053.78,T,-586.12,M,002.449,N,004.536,K,D*05
$GPGGA,095452.90,5703.4683561,N,00952.3988965,E,2,11,0.8,-2.048,M,40.593,M,2.4,0123*65
$GPVTG,053.12,T,-586.78,M,002.425,N,004.491,K,D*03
$GPGGA,095452.95,5703.4683778,N,00952.3989453,E,2,11,0.8,-2.039,M,40.593,M,2.4,0123*65
$GPVTG,051.82,T,-588.08,M,002.433,N,004.505,K,D*0A
$GPGGA,095453.00,5703.4683983,N,00952.3989945,E,2,11,0.8,-2.031,M,40.593,M,2.4,0123*60
$GPVTG,051.81,T,-588.09,M,002.428,N,004.496,K,D*09
$GPGGA,095453.05,5703.4684199,N,00952.3990437,E,2,11,0.8,-2.028,M,40.593,M,2.7,0123*6A
$GPVTG,051.45,T,-588.45,M,002.464,N,004.564,K,D*0D
$GPGGA,095453.10,5703.4684421,N,00952.3990927,E,2,11,0.8,-2.027,M,40.593,M,2.7,0123*6B
$GPVTG,050.62,T,-589.28,M,002.487,N,004.605,K,D*0A
$GPGGA,095453.15,5703.4684646,N,00952.3991426,E,2,11,0.8,-2.030,M,40.593,M,2.7,0123*66
$GPVTG,050.23,T,-589.67,M,002.521,N,004.669,K,D*03
$GPGGA,095453.20,5703.4684871,N,00952.3991925,E,2,11,0.8,-2.036,M,40.593,M,2.7,0123*62
$GPVTG,049.97,T,-589.93,M,002.546,N,004.715,K,D*04
$GPGGA,095453.25,5703.4685099,N,00952.3992440,E,2,11,0.8,-2.047,M,40.593,M,2.9,0123*6D
$GPVTG,050.18,T,-589.72,M,002.590,N,004.797,K,D*05
$GPGGA,095453.30,5703.4685334,N,00952.3992916,E,2,11,0.8,-2.056,M,40.593,M,2.9,0123*63
$GPVTG,048.83,T,-591.07,M,002.573,N,004.765,K,D*05
$GPGGA,095453.35,5703.4685552,N,00952.3993402,E,2,11,0.8,-2.066,M,40.593,M,2.9,0123*6A
$GPVTG,049.13,T,-590.77,M,002.536,N,004.696,K,D*07
$GPGGA,095453.40,5703.4685770,N,00952.3993894,E,2,11,0.8,-2.074,M,40.593,M,2.9,0123*6A
$GPVTG,049.74,T,-590.16,M,002.518,N,004.662,K,D*06
$GPGGA,095453.45,5703.4685970,N,00952.3994368,E,2,11,0.8,-2.088,M,40.593,M,3.1,0123*64
$GPVTG,050.55,T,-589.35,M,002.442,N,004.522,K,D*0D
$GPGGA,095453.50,5703.4686170,N,00952.3994816,E,2,11,0.8,-2.091,M,40.593,M,3.1,0123*61
$GPVTG,050.55,T,-589.35,M,002.343,N,004.339,K,D*07
$GPGGA,095453.55,5703.4686362,N,00952.3995272,E,2,11,0.8,-2.094,M,40.593,M,3.1,0123*69
$GPVTG,051.35,T,-588.55,M,002.277,N,004.217,K,D*0C
$GPGGA,095453.60,5703.4686563,N,00952.3995740,E,2,11,0.8,-2.096,M,40.593,M,3.1,0123*6E
$GPVTG,051.82,T,-588.08,M,002.276,N,004.215,K,D*0B
$GPGGA,095453.65,5703.4686758,N,00952.3996204,E,2,11,0.8,-2.108,M,40.593,M,3.3,0123*63
$GPVTG,052.18,T,-587.72,M,002.269,N,004.202,K,D*01
$GPGGA,095453.70,5703.4686944,N,00952.3996662,E,2,11,0.8,-2.113,M,40.593,M,3.3,0123*6A
$GPVTG,052.97,T,-586.93,M,002.239,N,004.147,K,D*0F
$GPGGA,095453.75,5703.4687128,N,00952.3997118,E,2,11,0.8,-2.113,M,40.593,M,3.3,0123*67
$GPVTG,053.60,T,-586.30,M,002.214,N,004.100,K,D*03
$GPGGA,095453.80,5703.4687325,N,00952.3997575,E,2,11,0.8,-2.114,M,40.593,M,3.3,0123*6A
$GPVTG,053.08,T,-586.82,M,002.229,N,004.129,K,D*01
$GPGGA,095453.85,5703.4687512,N,00952.3998029,E,2,11,0.8,-2.108,M,40.593,M,3.5,0123*65
$GPVTG,053.35,T,-586.55,M,002.219,N,004.109,K,D*04
$GPGGA,095453.90,5703.4687707,N,00952.3998488,E,2,11,0.8,-2.107,M,40.593,M,3.5,0123*67
$GPVTG,053.00,T,-586.90,M,002.240,N,004.148,K,D*02
$GPGGA,095453.95,5703.4687901,N,00952.3998937,E,2,11,0.8,-2.107,M,40.593,M,3.5,0123*63
$GPVTG,052.46,T,-587.44,M,002.240,N,004.148,K,D*09
$GPGGA,095454.00,5703.4688094,N,00952.3999397,E,2,11,0.8,-2.104,M,40.593,M,3.5,0123*60
$GPVTG,052.43,T,-587.47,M,002.256,N,004.179,K,D*0A
$GPGGA,095454.05,5703.4688292,N,00952.3999841,E,2,11,0.8,-2.110,M,40.593,M,2.0,0123*60
$GPVTG,051.75,T,-588.15,M,002.271,N,004.207,K,D*0B
$GPGGA,095454.10,5703.4688484,N,00952.4000303,E,2,11,0.8,-2.117,M,40.593,M,2.0,0123*61
$GPVTG,052.06,T,-587.84,M,002.282,N,004.226,K,D*04
$GPGGA,095454.15,5703.4688692,N,00952.4000763,E,2,11,0.8,-2.124,M,40.593,M,2.0,0123*63
$GPVTG,051.23,T,-588.67,M,002.318,N,004.293,K,D*0E
$GPGGA,095454.20,5703.4688904,N,00952.4001236,E,2,11,0.8,-2.134,M,40.593,M,2.0,0123*60
$GPVTG,050.79,T,-589.11,M,002.372,N,004.393,K,D*0D
$GPGGA,095454.25,5703.4689120,N,00952.4001704,E,2,11,0.8,-2.146,M,40.593,M,2.2,0123*69
$GPVTG,050.08,T,-589.82,M,002.406,N,004.456,K,D*0B
$GPGGA,095454.30,5703.4689340,N,00952.4002172,E,2,11,0.8,-2.151,M,40.593,M,2.2,0123*6B
$GPVTG,049.42,T,-590.48,M,002.435,N,004.509,K,D*08
$GPGGA,095454.35,5703.4689568,N,00952.4002634,E,2,11,0.8,-2.159,M,40.593,M,2.2,0123*6F
$GPVTG,048.33,T,-591.57,M,002.459,N,004.555,K,D*03
$GPGGA,095454.40,5703.4689799,N,00952.4003073,E,2,11,0.8,-2.173,M,40.593,M,2.2,0123*6D
$GPVTG,046.71,T,-593.19,M,002.447,N,004.532,K,D*0D
$GPGGA,095454.45,5703.4690028,N,00952.4003514,E,2,11,0.8,-2.184,M,40.593,M,2.5,0123*66
$GPVTG,045.86,T,-594.04,M,002.432,N,004.504,K,D*0A
$GPGGA,095454.50,5703.4690249,N,00952.4003949,E,2,11,0.8,-2.184,M,40.593,M,2.5,0123*63
$GPVTG,045.71,T,-594.19,M,002.393,N,004.432,K,D*06
$GPGGA,095454.55,5703.4690452,N,00952.4004403,E,2,11,0.8,-2.179,M,40.593,M,2.5,0123*6C
$GPVTG,047.49,T,-592.41,M,002.354,N,004.359,K,D*05
$GPGGA,095454.60,5703.4690660,N,00952.4004832,E,2,11,0.8,-2.173,M,40.593,M,2.5,0123*6D
$GPVTG,047.71,T,-592.19,M,002.300,N,004.260,K,D*09
$GPGGA,095454.65,5703.4690866,N,00952.4005237,E,2,11,0.8,-2.155,M,40.593,M,2.7,0123*68
$GPVTG,047.31,T,-592.59,M,002.228,N,004.126,K,D*03
$GPGGA,095454.70,5703.4691059,N,00952.4005637,E,2,11,0.8,-2.139,M,40.593,M,2.7,0123*67
$GPVTG,047.62,T,-592.28,M,002.143,N,003.968,K,D*08
$GPGGA,095454.75,5703.4691241,N,00952.4006037,E,2,11,0.8,-2.122,M,40.593,M,2.7,0123*66
$GPVTG,048.76,T,-591.14,M,002.063,N,003.821,K,D*01
$GPGGA,095454.80,5703.4691410,N,00952.4006440,E,2,11,0.8,-2.100,M,40.593,M,2.7,0123*6A
$GPVTG,050.71,T,-589.19,M,001.994,N,003.692,K,D*0F
$GPGGA,095454.85,5703.4691584,N,00952.4006864,E,2,11,0.8,-2.079,M,40.593,M,3.0,0123*60
$GPVTG,052.53,T,-587.37,M,001.997,N,003.698,K,D*06
$GPGGA,095454.90,5703.4691752,N,00952.4007286,E,2,11,0.8,-2.058,M,40.593,M,3.0,0123*69
$GPVTG,054.04,T,-585.86,M,001.998,N,003.700,K,D*05
$GPGGA,095454.95,5703.4691919,N,00952.4007711,E,2,11,0.8,-2.040,M,40.593,M,3.0,0123*6F
$GPVTG,055.11,T,-584.79,M,002.009,N,003.720,K,D*01
