$GPGGA,091718.85,5703.3016051,N,00952.3540776,E,2,11,0.8,-2.088,M,40.593,M,3.7,0123*69\r\n
$GPGGA,091718.90,5703.3016444,N,00952.3539986,E,2,11,0.8,-2.091,M,40.593,M,3.7,0123*6A\r\n
$GPGGA,091718.95,5703.3016828,N,00952.3539181,E,2,11,0.8,-2.092,M,40.593,M,3.7,0123*65\r\n
$GPGGA,091719.00,5703.3017227,N,00952.3538395,E,2,11,0.8,-2.093,M,40.593,M,3.7,0123*6B\r\n
$GPGGA,091719.05,5703.3017632,N,00952.3537624,E,2,11,0.8,-2.089,M,40.593,M,3.9,0123*6B\r\n
$GPGGA,091719.10,5703.3018047,N,00952.3536857,E,2,11,0.8,-2.090,M,40.593,M,3.9,0123*67\r\n
$GPGGA,091719.15,5703.3018442,N,00952.3536056,E,2,11,0.8,-2.092,M,40.593,M,3.9,0123*68\r\n
$GPGGA,091719.20,5703.3018823,N,00952.3535264,E,2,11,0.8,-2.094,M,40.593,M,3.9,0123*63\r\n
$GPGGA,091719.25,5703.3019208,N,00952.3534458,E,2,11,0.8,-2.092,M,40.593,M,4.1,0123*65\r\n
$GPGGA,091719.30,5703.3019602,N,00952.3533673,E,2,11,0.8,-2.093,M,40.593,M,4.1,0123*62\r\n
$GPGGA,091719.35,5703.3020012,N,00952.3532868,E,2,11,0.8,-2.091,M,40.593,M,4.1,0123*6D\r\n
$GPGGA,091719.40,5703.3020408,N,00952.3532067,E,2,11,0.8,-2.091,M,40.593,M,4.1,0123*67\r\n
$GPGGA,091719.45,5703.3020791,N,00952.3531280,E,2,11,0.8,-2.090,M,40.593,M,2.3,0123*6C\r\n
$GPGGA,091719.50,5703.3021187,N,00952.3530492,E,2,11,0.8,-2.089,M,40.593,M,2.3,0123*64\r\n
$GPGGA,091719.55,5703.3021560,N,00952.3529662,E,2,11,0.8,-2.091,M,40.593,M,2.3,0123*60\r\n
$GPGGA,091719.60,5703.3021972,N,00952.3528864,E,2,11,0.8,-2.089,M,40.593,M,2.3,0123*69\r\n
$GPGGA,091719.65,5703.3022392,N,00952.3528090,E,2,11,0.8,-2.089,M,40.593,M,2.5,0123*6E\r\n
$GPGGA,091719.70,5703.3022784,N,00952.3527296,E,2,11,0.8,-2.088,M,40.593,M,2.5,0123*63\r\n
$GPGGA,091719.75,5703.3023175,N,00952.3526493,E,2,11,0.8,-2.088,M,40.593,M,2.5,0123*6D\r\n
$GPGGA,091719.80,5703.3023538,N,00952.3525700,E,2,11,0.8,-2.090,M,40.593,M,2.5,0123*69\r\n
$GPGGA,091719.85,5703.3023920,N,00952.3524889,E,2,11,0.8,-2.090,M,40.593,M,2.7,0123*64\r\n
$GPGGA,091719.90,5703.3024328,N,00952.3524075,E,2,11,0.8,-2.089,M,40.593,M,2.7,0123*66\r\n
$GPGGA,091719.95,5703.3024722,N,00952.3523274,E,2,11,0.8,-2.090,M,40.593,M,2.7,0123*61\r\n
$GPGGA,091720.00,5703.3025131,N,00952.3522490,E,2,11,0.8,-2.086,M,40.593,M,2.7,0123*68\r\n
$GPGGA,091720.05,5703.3025517,N,00952.3521674,E,2,11,0.8,-2.087,M,40.593,M,3.0,0123*61\r\n
$GPGGA,091720.10,5703.3025895,N,00952.3520847,E,2,11,0.8,-2.088,M,40.593,M,3.0,0123*62\r\n
$GPGGA,091720.15,5703.3026285,N,00952.3520069,E,2,11,0.8,-2.088,M,40.593,M,3.0,0123*6B\r\n
$GPGGA,091720.20,5703.3026661,N,00952.3519277,E,2,11,0.8,-2.090,M,40.593,M,3.0,0123*6D\r\n
$GPGGA,091720.25,5703.3027056,N,00952.3518461,E,2,11,0.8,-2.092,M,40.593,M,3.2,0123*6B\r\n
$GPGGA,091720.30,5703.3027463,N,00952.3517648,E,2,11,0.8,-2.089,M,40.593,M,3.2,0123*61\r\n
$GPGGA,091720.35,5703.3027849,N,00952.3516848,E,2,11,0.8,-2.090,M,40.593,M,3.2,0123*67\r\n
$GPGGA,091720.40,5703.3028218,N,00952.3516061,E,2,11,0.8,-2.091,M,40.593,M,3.2,0123*66\r\n
$GPGGA,091720.45,5703.3028603,N,00952.3515259,E,2,11,0.8,-2.089,M,40.593,M,2.2,0123*6F\r\n
$GPGGA,091720.50,5703.3029003,N,00952.3514452,E,2,11,0.8,-2.090,M,40.593,M,2.2,0123*68\r\n
$GPGGA,091720.55,5703.3029428,N,00952.3513664,E,2,11,0.8,-2.087,M,40.593,M,2.2,0123*66\r\n
$GPGGA,091720.60,5703.3029817,N,00952.3512874,E,2,11,0.8,-2.087,M,40.593,M,2.2,0123*6E\r\n
$GPGGA,091720.65,5703.3030196,N,00952.3512053,E,2,11,0.8,-2.092,M,40.593,M,2.5,0123*6D\r\n
$GPGGA,091720.70,5703.3030565,N,00952.3511270,E,2,11,0.8,-2.093,M,40.593,M,2.5,0123*60\r\n
$GPGGA,091720.75,5703.3030944,N,00952.3510460,E,2,11,0.8,-2.094,M,40.593,M,2.5,0123*6B\r\n
$GPGGA,091720.80,5703.3031333,N,00952.3509646,E,2,11,0.8,-2.094,M,40.593,M,2.5,0123*64\r\n
$GPGGA,091720.85,5703.3031731,N,00952.3508840,E,2,11,0.8,-2.090,M,40.593,M,2.7,0123*68\r\n
$GPGGA,091720.90,5703.3032131,N,00952.3508020,E,2,11,0.8,-2.088,M,40.593,M,2.7,0123*6E\r\n
$GPGGA,091720.95,5703.3032517,N,00952.3507232,E,2,11,0.8,-2.093,M,40.593,M,2.7,0123*6F\r\n
$GPGGA,091721.00,5703.3032921,N,00952.3506430,E,2,11,0.8,-2.092,M,40.593,M,2.7,0123*6F\r\n
$GPGGA,091721.05,5703.3033306,N,00952.3505625,E,2,11,0.8,-2.092,M,40.593,M,2.9,0123*6F\r\n
$GPGGA,091721.10,5703.3033709,N,00952.3504808,E,2,11,0.8,-2.091,M,40.593,M,2.9,0123*63\r\n
$GPGGA,091721.15,5703.3034099,N,00952.3504012,E,2,11,0.8,-2.090,M,40.593,M,2.9,0123*6D\r\n
$GPGGA,091721.20,5703.3034476,N,00952.3503220,E,2,11,0.8,-2.090,M,40.593,M,2.9,0123*6A\r\n
$GPGGA,091721.25,5703.3034877,N,00952.3502408,E,2,11,0.8,-2.088,M,40.593,M,3.1,0123*6F\r\n
$GPGGA,091721.30,5703.3035247,N,00952.3501593,E,2,11,0.8,-2.090,M,40.593,M,3.1,0123*6A\r\n
$GPGGA,091721.35,5703.3035609,N,00952.3500780,E,2,11,0.8,-2.092,M,40.593,M,3.1,0123*62\r\n
$GPGGA,091721.40,5703.3035999,N,00952.3499987,E,2,11,0.8,-2.093,M,40.593,M,3.1,0123*6F\r\n
$GPGGA,091721.45,5703.3036397,N,00952.3499182,E,2,11,0.8,-2.091,M,40.593,M,2.2,0123*60\r\n
$GPGGA,091721.50,5703.3036797,N,00952.3498371,E,2,11,0.8,-2.089,M,40.593,M,2.2,0123*66\r\n
$GPGGA,091721.55,5703.3037193,N,00952.3497588,E,2,11,0.8,-2.087,M,40.593,M,2.2,0123*61\r\n
$GPGGA,091721.60,5703.3037580,N,00952.3496795,E,2,11,0.8,-2.087,M,40.593,M,2.2,0123*6E\r\n
$GPGGA,091721.65,5703.3037999,N,00952.3495967,E,2,11,0.8,-2.088,M,40.593,M,2.4,0123*66\r\n
$GPGGA,091721.70,5703.3038402,N,00952.3495159,E,2,11,0.8,-2.090,M,40.593,M,2.4,0123*6E\r\n
$GPGGA,091721.75,5703.3038784,N,00952.3494365,E,2,11,0.8,-2.091,M,40.593,M,2.4,0123*6B\r\n
$GPGGA,091721.80,5703.3039175,N,00952.3493560,E,2,11,0.8,-2.088,M,40.593,M,2.4,0123*64\r\n
$GPGGA,091721.85,5703.3039599,N,00952.3492755,E,2,11,0.8,-2.084,M,40.593,M,2.6,0123*6C\r\n
$GPGGA,091721.90,5703.3039970,N,00952.3491962,E,2,11,0.8,-2.085,M,40.593,M,2.6,0123*6B\r\n
$GPGGA,091721.95,5703.3040336,N,00952.3491138,E,2,11,0.8,-2.088,M,40.593,M,2.6,0123*62\r\n
$GPGGA,091722.00,5703.3040730,N,00952.3490322,E,2,11,0.8,-2.086,M,40.593,M,2.6,0123*69\r\n
$GPGGA,091722.05,5703.3041132,N,00952.3489520,E,2,11,0.8,-2.082,M,40.593,M,2.9,0123*6E\r\n
$GPGGA,091722.10,5703.3041535,N,00952.3488710,E,2,11,0.8,-2.082,M,40.593,M,2.9,0123*69\r\n
$GPGGA,091722.15,5703.3041923,N,00952.3487896,E,2,11,0.8,-2.083,M,40.593,M,2.9,0123*68\r\n
$GPGGA,091722.20,5703.3042298,N,00952.3487094,E,2,11,0.8,-2.082,M,40.593,M,2.9,0123*6D\r\n
$GPGGA,091722.25,5703.3042671,N,00952.3486278,E,2,11,0.8,-2.083,M,40.593,M,3.1,0123*62\r\n
$GPGGA,091722.30,5703.3043073,N,00952.3485462,E,2,11,0.8,-2.082,M,40.593,M,3.1,0123*6C\r\n
$GPGGA,091722.35,5703.3043542,N,00952.3484619,E,2,11,0.8,-2.082,M,40.593,M,3.1,0123*61\r\n
$GPGGA,091722.40,5703.3043933,N,00952.3483820,E,2,11,0.8,-2.086,M,40.593,M,3.1,0123*6E\r\n
$GPGGA,091722.45,5703.3044302,N,00952.3483047,E,2,11,0.8,-2.088,M,40.593,M,3.3,0123*61\r\n
$GPGGA,091722.50,5703.3044670,N,00952.3482245,E,2,11,0.8,-2.087,M,40.593,M,3.3,0123*6B\r\n
$GPGGA,091722.55,5703.3045065,N,00952.3481435,E,2,11,0.8,-2.090,M,40.593,M,3.3,0123*69\r\n
$GPGGA,091722.60,5703.3045499,N,00952.3480632,E,2,11,0.8,-2.090,M,40.593,M,3.3,0123*6C\r\n
$GPGGA,091722.65,5703.3045892,N,00952.3479812,E,2,11,0.8,-2.083,M,40.593,M,3.5,0123*60\r\n
$GPGGA,091722.70,5703.3046262,N,00952.3479014,E,2,11,0.8,-2.085,M,40.593,M,3.5,0123*6A\r\n
$GPGGA,091722.75,5703.3046678,N,00952.3478203,E,2,11,0.8,-2.082,M,40.593,M,3.5,0123*62\r\n
$GPGGA,091722.80,5703.3047079,N,00952.3477394,E,2,11,0.8,-2.079,M,40.593,M,3.5,0123*6A\r\n
$GPGGA,091722.85,5703.3047440,N,00952.3476596,E,2,11,0.8,-2.084,M,40.593,M,3.7,0123*64\r\n
$GPGGA,091722.90,5703.3047853,N,00952.3475818,E,2,11,0.8,-2.080,M,40.593,M,3.7,0123*62\r\n
$GPGGA,091722.95,5703.3048277,N,00952.3475022,E,2,11,0.8,-2.079,M,40.593,M,3.7,0123*63\r\n
$GPGGA,091723.00,5703.3048672,N,00952.3474211,E,2,11,0.8,-2.080,M,40.593,M,3.7,0123*6A\r\n
$GPGGA,091723.05,5703.3049063,N,00952.3473411,E,2,11,0.8,-2.079,M,40.593,M,3.9,0123*61\r\n
$GPGGA,091723.10,5703.3049468,N,00952.3472601,E,2,11,0.8,-2.077,M,40.593,M,3.9,0123*66\r\n
$GPGGA,091723.15,5703.3049881,N,00952.3471798,E,2,11,0.8,-2.077,M,40.593,M,3.9,0123*6A\r\n
$GPGGA,091723.20,5703.3050279,N,00952.3470976,E,2,11,0.8,-2.079,M,40.593,M,3.9,0123*68\r\n
$GPGGA,091723.25,5703.3050693,N,00952.3470183,E,2,11,0.8,-2.078,M,40.593,M,4.1,0123*61\r\n
$GPGGA,091723.30,5703.3051100,N,00952.3469386,E,2,11,0.8,-2.074,M,40.593,M,4.1,0123*6A\r\n
$GPGGA,091723.35,5703.3051470,N,00952.3468607,E,2,11,0.8,-2.077,M,40.593,M,4.1,0123*63\r\n
$GPGGA,091723.40,5703.3051872,N,00952.3467800,E,2,11,0.8,-2.079,M,40.593,M,4.1,0123*67\r\n
$GPGGA,091723.45,5703.3052290,N,00952.3466982,E,2,11,0.8,-2.082,M,40.593,M,2.3,0123*6D\r\n
$GPGGA,091723.50,5703.3052678,N,00952.3466158,E,2,11,0.8,-2.081,M,40.593,M,2.3,0123*67\r\n
$GPGGA,091723.55,5703.3053070,N,00952.3465364,E,2,11,0.8,-2.084,M,40.593,M,2.3,0123*66\r\n
$GPGGA,091723.60,5703.3053473,N,00952.3464584,E,2,11,0.8,-2.084,M,40.593,M,2.3,0123*6E\r\n
$GPGGA,091723.65,5703.3053864,N,00952.3463783,E,2,11,0.8,-2.079,M,40.593,M,2.5,0123*67\r\n
$GPGGA,091723.70,5703.3054294,N,00952.3462976,E,2,11,0.8,-2.076,M,40.593,M,2.5,0123*6B\r\n
$GPGGA,091723.75,5703.3054672,N,00952.3462204,E,2,11,0.8,-2.078,M,40.593,M,2.5,0123*62\r\n
$GPGGA,091723.80,5703.3055052,N,00952.3461427,E,2,11,0.8,-2.079,M,40.593,M,2.5,0123*68\r\n
$GPGGA,091723.85,5703.3055477,N,00952.3460637,E,2,11,0.8,-2.079,M,40.593,M,2.7,0123*6E\r\n
$GPGGA,091723.90,5703.3055913,N,00952.3459832,E,2,11,0.8,-2.079,M,40.593,M,2.7,0123*64\r\n
$GPGGA,091723.95,5703.3056313,N,00952.3459016,E,2,11,0.8,-2.079,M,40.593,M,2.7,0123*66\r\n
$GPGGA,091724.00,5703.3056678,N,00952.3458188,E,2,11,0.8,-2.081,M,40.593,M,2.7,0123*65\r\n
$GPGGA,091724.05,5703.3057069,N,00952.3457404,E,2,11,0.8,-2.079,M,40.593,M,3.0,0123*68\r\n
$GPGGA,091724.10,5703.3057496,N,00952.3456627,E,2,11,0.8,-2.079,M,40.593,M,3.0,0123*6A\r\n
$GPGGA,091724.15,5703.3057924,N,00952.3455850,E,2,11,0.8,-2.073,M,40.593,M,3.0,0123*6C\r\n
$GPGGA,091724.20,5703.3058296,N,00952.3455079,E,2,11,0.8,-2.077,M,40.593,M,3.0,0123*60\r\n
$GPGGA,091724.25,5703.3058690,N,00952.3454270,E,2,11,0.8,-2.077,M,40.593,M,3.2,0123*6F\r\n
$GPGGA,091724.30,5703.3059109,N,00952.3453440,E,2,11,0.8,-2.074,M,40.593,M,3.2,0123*6C\r\n
$GPGGA,091724.35,5703.3059512,N,00952.3452652,E,2,11,0.8,-2.072,M,40.593,M,3.2,0123*61\r\n
$GPGGA,091724.40,5703.3059901,N,00952.3451861,E,2,11,0.8,-2.074,M,40.593,M,3.2,0123*66\r\n
$GPGGA,091724.45,5703.3060290,N,00952.3451081,E,2,11,0.8,-2.080,M,40.593,M,2.2,0123*66\r\n
$GPGGA,091724.50,5703.3060713,N,00952.3450287,E,2,11,0.8,-2.080,M,40.593,M,2.2,0123*69\r\n
$GPGGA,091724.55,5703.3061150,N,00952.3449470,E,2,11,0.8,-2.078,M,40.593,M,2.2,0123*6D\r\n
$GPGGA,091724.60,5703.3061544,N,00952.3448678,E,2,11,0.8,-2.076,M,40.593,M,2.2,0123*6F\r\n
$GPGGA,091724.65,5703.3061963,N,00952.3447880,E,2,11,0.8,-2.069,M,40.593,M,2.5,0123*6C\r\n
$GPGGA,091724.70,5703.3062360,N,00952.3447096,E,2,11,0.8,-2.074,M,40.593,M,2.5,0123*61\r\n
$GPGGA,091724.75,5703.3062756,N,00952.3446318,E,2,11,0.8,-2.077,M,40.593,M,2.5,0123*62\r\n
$GPGGA,091724.80,5703.3063187,N,00952.3445521,E,2,11,0.8,-2.079,M,40.593,M,2.5,0123*62\r\n
$GPGGA,091724.85,5703.3063585,N,00952.3444723,E,2,11,0.8,-2.088,M,40.593,M,2.7,0123*6C\r\n
$GPGGA,091724.90,5703.3063975,N,00952.3443912,E,2,11,0.8,-2.085,M,40.593,M,2.7,0123*6D\r\n
$GPGGA,091724.95,5703.3064360,N,00952.3443130,E,2,11,0.8,-2.086,M,40.593,M,2.7,0123*6A\r\n
$GPGGA,091725.00,5703.3064762,N,00952.3442318,E,2,11,0.8,-2.086,M,40.593,M,2.7,0123*68\r\n
$GPGGA,091725.05,5703.3065171,N,00952.3441516,E,2,11,0.8,-2.076,M,40.593,M,2.9,0123*62\r\n
$GPGGA,091725.10,5703.3065590,N,00952.3440723,E,2,11,0.8,-2.075,M,40.593,M,2.9,0123*6B\r\n
$GPGGA,091725.15,5703.3066010,N,00952.3439934,E,2,11,0.8,-2.074,M,40.593,M,2.9,0123*67\r\n
$GPGGA,091725.20,5703.3066425,N,00952.3439147,E,2,11,0.8,-2.075,M,40.593,M,2.9,0123*6E\r\n
$GPGGA,091725.25,5703.3066828,N,00952.3438376,E,2,11,0.8,-2.082,M,40.593,M,3.1,0123*6A\r\n
$GPGGA,091725.30,5703.3067259,N,00952.3437588,E,2,11,0.8,-2.082,M,40.593,M,3.1,0123*6B\r\n
$GPGGA,091725.35,5703.3067672,N,00952.3436797,E,2,11,0.8,-2.085,M,40.593,M,3.1,0123*69\r\n
$GPGGA,091725.40,5703.3068050,N,00952.3435995,E,2,11,0.8,-2.089,M,40.593,M,3.1,0123*61\r\n
$GPGGA,091725.45,5703.3068452,N,00952.3435215,E,2,11,0.8,-2.084,M,40.593,M,2.2,0123*6E\r\n
$GPGGA,091725.50,5703.3068862,N,00952.3434419,E,2,11,0.8,-2.085,M,40.593,M,2.2,0123*6F\r\n
$GPGGA,091725.55,5703.3069289,N,00952.3433636,E,2,11,0.8,-2.080,M,40.593,M,2.2,0123*69\r\n
$GPGGA,091725.60,5703.3069682,N,00952.3432853,E,2,11,0.8,-2.076,M,40.593,M,2.2,0123*65\r\n
$GPGGA,091725.65,5703.3070097,N,00952.3432088,E,2,11,0.8,-2.073,M,40.593,M,2.4,0123*67\r\n
$GPGGA,091725.70,5703.3070525,N,00952.3431326,E,2,11,0.8,-2.076,M,40.593,M,2.4,0123*6E\r\n
$GPGGA,091725.75,5703.3070928,N,00952.3430574,E,2,11,0.8,-2.079,M,40.593,M,2.4,0123*65\r\n
$GPGGA,091725.80,5703.3071318,N,00952.3429839,E,2,11,0.8,-2.079,M,40.593,M,2.4,0123*6B\r\n
$GPGGA,091725.85,5703.3071675,N,00952.3429129,E,2,11,0.8,-2.092,M,40.593,M,2.6,0123*6F\r\n
$GPGGA,091725.90,5703.3072066,N,00952.3428417,E,2,11,0.8,-2.101,M,40.593,M,2.6,0123*6E\r\n
$GPGGA,091725.95,5703.3072447,N,00952.3427692,E,2,11,0.8,-2.106,M,40.593,M,2.6,0123*6B\r\n
$GPGGA,091726.00,5703.3072836,N,00952.3426969,E,2,11,0.8,-2.110,M,40.593,M,2.6,0123*63\r\n
$GPGGA,091726.05,5703.3073207,N,00952.3426257,E,2,11,0.8,-2.113,M,40.593,M,2.9,0123*65\r\n
$GPGGA,091726.10,5703.3073590,N,00952.3425575,E,2,11,0.8,-2.118,M,40.593,M,2.9,0123*67\r\n
$GPGGA,091726.15,5703.3073944,N,00952.3424874,E,2,11,0.8,-2.124,M,40.593,M,2.9,0123*65\r\n
$GPGGA,091726.20,5703.3074291,N,00952.3424199,E,2,11,0.8,-2.126,M,40.593,M,2.9,0123*6F\r\n
$GPGGA,091726.25,5703.3074655,N,00952.3423519,E,2,11,0.8,-2.122,M,40.593,M,3.1,0123*60\r\n
$GPGGA,091726.30,5703.3075021,N,00952.3422843,E,2,11,0.8,-2.126,M,40.593,M,3.1,0123*67\r\n
$GPGGA,091726.35,5703.3075385,N,00952.3422148,E,2,11,0.8,-2.135,M,40.593,M,3.1,0123*6F\r\n
$GPGGA,091726.40,5703.3075747,N,00952.3421483,E,2,11,0.8,-2.136,M,40.593,M,3.1,0123*65\r\n
$GPGGA,091726.45,5703.3076112,N,00952.3420811,E,2,11,0.8,-2.144,M,40.593,M,0.8,0123*6C\r\n
$GPGGA,091726.50,5703.3076462,N,00952.3420159,E,2,11,0.8,-2.143,M,40.593,M,0.8,0123*68\r\n
$GPGGA,091726.55,5703.3076790,N,00952.3419529,E,2,11,0.8,-2.147,M,40.593,M,0.8,0123*6E\r\n
$GPGGA,091726.60,5703.3077136,N,00952.3418858,E,2,11,0.8,-2.148,M,40.593,M,0.8,0123*66\r\n
$GPGGA,091726.65,5703.3077513,N,00952.3418214,E,2,11,0.8,-2.138,M,40.593,M,1.2,0123*6E\r\n
$GPGGA,091726.70,5703.3077872,N,00952.3417575,E,2,11,0.8,-2.136,M,40.593,M,1.2,0123*61\r\n
$GPGGA,091726.75,5703.3078222,N,00952.3416923,E,2,11,0.8,-2.138,M,40.593,M,1.2,0123*64\r\n
$GPGGA,091726.80,5703.3078564,N,00952.3416251,E,2,11,0.8,-2.138,M,40.593,M,1.2,0123*65\r\n
$GPGGA,091726.85,5703.3078873,N,00952.3415624,E,2,11,0.8,-2.147,M,40.593,M,1.5,0123*61\r\n
$GPGGA,091726.90,5703.3079199,N,00952.3414964,E,2,11,0.8,-2.146,M,40.593,M,1.5,0123*62\r\n
$GPGGA,091726.95,5703.3079537,N,00952.3414320,E,2,11,0.8,-2.145,M,40.593,M,1.5,0123*6E\r\n
$GPGGA,091727.00,5703.3079910,N,00952.3413674,E,2,11,0.8,-2.141,M,40.593,M,1.5,0123*6D\r\n
$GPGGA,091727.05,5703.3080262,N,00952.3413024,E,2,11,0.8,-2.134,M,40.593,M,1.7,0123*63\r\n
$GPGGA,091727.10,5703.3080601,N,00952.3412395,E,2,11,0.8,-2.136,M,40.593,M,1.7,0123*6C\r\n
$GPGGA,091727.15,5703.3080932,N,00952.3411758,E,2,11,0.8,-2.136,M,40.593,M,1.7,0123*60\r\n
$GPGGA,091727.20,5703.3081256,N,00952.3411135,E,2,11,0.8,-2.136,M,40.593,M,1.7,0123*63\r\n
$GPGGA,091727.25,5703.3081600,N,00952.3410511,E,2,11,0.8,-2.138,M,40.593,M,2.0,0123*68\r\n
$GPGGA,091727.30,5703.3081941,N,00952.3409874,E,2,11,0.8,-2.134,M,40.593,M,2.0,0123*6C\r\n
$GPGGA,091727.35,5703.3082257,N,00952.3409236,E,2,11,0.8,-2.135,M,40.593,M,2.0,0123*6B\r\n
$GPGGA,091727.40,5703.3082587,N,00952.3408633,E,2,11,0.8,-2.138,M,40.593,M,2.0,0123*6E\r\n
$GPGGA,091727.45,5703.3082939,N,00952.3408007,E,2,11,0.8,-2.133,M,40.593,M,0.9,0123*63\r\n
$GPGGA,091727.50,5703.3083292,N,00952.3407379,E,2,11,0.8,-2.128,M,40.593,M,0.9,0123*63\r\n
$GPGGA,091727.55,5703.3083638,N,00952.3406757,E,2,11,0.8,-2.127,M,40.593,M,0.9,0123*64\r\n
$GPGGA,091727.60,5703.3083962,N,00952.3406144,E,2,11,0.8,-2.122,M,40.593,M,0.9,0123*63\r\n
$GPGGA,091727.65,5703.3084289,N,00952.3405521,E,2,11,0.8,-2.122,M,40.593,M,1.2,0123*61\r\n
$GPGGA,091727.70,5703.3084603,N,00952.3404897,E,2,11,0.8,-2.120,M,40.593,M,1.2,0123*60\r\n
$GPGGA,091727.75,5703.3084911,N,00952.3404284,E,2,11,0.8,-2.118,M,40.593,M,1.2,0123*6A\r\n
$GPGGA,091727.80,5703.3085245,N,00952.3403689,E,2,11,0.8,-2.116,M,40.593,M,1.2,0123*6B\r\n
$GPGGA,091727.85,5703.3085592,N,00952.3403080,E,2,11,0.8,-2.120,M,40.593,M,1.5,0123*6E\r\n
$GPGGA,091727.90,5703.3085936,N,00952.3402479,E,2,11,0.8,-2.119,M,40.593,M,1.5,0123*61\r\n
$GPGGA,091727.95,5703.3086265,N,00952.3401872,E,2,11,0.8,-2.118,M,40.593,M,1.5,0123*6F\r\n
$GPGGA,091728.00,5703.3086573,N,00952.3401267,E,2,11,0.8,-2.114,M,40.593,M,1.5,0123*6E\r\n
$GPGGA,091728.05,5703.3086882,N,00952.3400648,E,2,11,0.8,-2.109,M,40.593,M,1.7,0123*6E\r\n
$GPGGA,091728.10,5703.3087196,N,00952.3400057,E,2,11,0.8,-2.109,M,40.593,M,1.7,0123*6F\r\n
$GPGGA,091728.15,5703.3087549,N,00952.3399450,E,2,11,0.8,-2.109,M,40.593,M,1.7,0123*68\r\n
$GPGGA,091728.20,5703.3087880,N,00952.3398852,E,2,11,0.8,-2.106,M,40.593,M,1.7,0123*66\r\n
$GPGGA,091728.25,5703.3088185,N,00952.3398281,E,2,11,0.8,-2.105,M,40.593,M,2.0,0123*63\r\n
$GPGGA,091728.30,5703.3088494,N,00952.3397715,E,2,11,0.8,-2.104,M,40.593,M,2.0,0123*64\r\n
$GPGGA,091728.35,5703.3088810,N,00952.3397130,E,2,11,0.8,-2.103,M,40.593,M,2.0,0123*67\r\n
$GPGGA,091728.40,5703.3089117,N,00952.3396562,E,2,11,0.8,-2.103,M,40.593,M,2.0,0123*68\r\n
$GPGGA,091728.45,5703.3089414,N,00952.3395987,E,2,11,0.8,-2.105,M,40.593,M,0.9,0123*62\r\n
$GPGGA,091728.50,5703.3089755,N,00952.3395404,E,2,11,0.8,-2.106,M,40.593,M,0.9,0123*65\r\n
$GPGGA,091728.55,5703.3090079,N,00952.3394848,E,2,11,0.8,-2.104,M,40.593,M,0.9,0123*66\r\n
$GPGGA,091728.60,5703.3090410,N,00952.3394283,E,2,11,0.8,-2.101,M,40.593,M,0.9,0123*63\r\n
$GPGGA,091728.65,5703.3090707,N,00952.3393722,E,2,11,0.8,-2.096,M,40.593,M,1.2,0123*6F\r\n
$GPGGA,091728.70,5703.3091008,N,00952.3393145,E,2,11,0.8,-2.100,M,40.593,M,1.2,0123*6B\r\n
$GPGGA,091728.75,5703.3091304,N,00952.3392579,E,2,11,0.8,-2.102,M,40.593,M,1.2,0123*69\r\n
$GPGGA,091728.80,5703.3091613,N,00952.3392030,E,2,11,0.8,-2.099,M,40.593,M,1.2,0123*6B\r\n
$GPGGA,091728.85,5703.3091918,N,00952.3391495,E,2,11,0.8,-2.102,M,40.593,M,1.5,0123*66\r\n
$GPGGA,091728.90,5703.3092213,N,00952.3390945,E,2,11,0.8,-2.105,M,40.593,M,1.5,0123*67\r\n
$GPGGA,091728.95,5703.3092528,N,00952.3390380,E,2,11,0.8,-2.109,M,40.593,M,1.5,0123*62\r\n
$GPGGA,091729.00,5703.3092845,N,00952.3389834,E,2,11,0.8,-2.111,M,40.593,M,1.5,0123*6C\r\n
$GPGGA,091729.05,5703.3093152,N,00952.3389294,E,2,11,0.8,-2.103,M,40.593,M,1.7,0123*66\r\n
$GPGGA,091729.10,5703.3093447,N,00952.3388783,E,2,11,0.8,-2.098,M,40.593,M,1.7,0123*62\r\n
$GPGGA,091729.15,5703.3093769,N,00952.3388244,E,2,11,0.8,-2.091,M,40.593,M,1.7,0123*6F\r\n
$GPGGA,091729.20,5703.3094068,N,00952.3387687,E,2,11,0.8,-2.090,M,40.593,M,1.7,0123*6D\r\n
$GPGGA,091729.25,5703.3094374,N,00952.3387130,E,2,11,0.8,-2.087,M,40.593,M,2.0,0123*6F\r\n
$GPGGA,091729.30,5703.3094682,N,00952.3386580,E,2,11,0.8,-2.083,M,40.593,M,2.0,0123*6D\r\n
$GPGGA,091729.35,5703.3094978,N,00952.3386046,E,2,11,0.8,-2.083,M,40.593,M,2.0,0123*6D\r\n
$GPGGA,091729.40,5703.3095292,N,00952.3385519,E,2,11,0.8,-2.078,M,40.593,M,2.0,0123*69\r\n
$GPGGA,091729.45,5703.3095590,N,00952.3385005,E,2,11,0.8,-2.078,M,40.593,M,2.2,0123*63\r\n
$GPGGA,091729.50,5703.3095893,N,00952.3384472,E,2,11,0.8,-2.076,M,40.593,M,2.2,0123*62\r\n
$GPGGA,091729.55,5703.3096210,N,00952.3383914,E,2,11,0.8,-2.075,M,40.593,M,2.2,0123*6C\r\n
$GPGGA,091729.60,5703.3096513,N,00952.3383364,E,2,11,0.8,-2.073,M,40.593,M,2.2,0123*65\r\n
$GPGGA,091729.65,5703.3096845,N,00952.3382807,E,2,11,0.8,-2.067,M,40.593,M,2.4,0123*62\r\n
$GPGGA,091729.70,5703.3097162,N,00952.3382276,E,2,11,0.8,-2.063,M,40.593,M,2.4,0123*63\r\n
$GPGGA,091729.75,5703.3097475,N,00952.3381687,E,2,11,0.8,-2.060,M,40.593,M,2.4,0123*6F\r\n
$GPGGA,091729.80,5703.3097805,N,00952.3381163,E,2,11,0.8,-2.062,M,40.593,M,2.4,0123*61\r\n
$GPGGA,091729.85,5703.3098132,N,00952.3380617,E,2,11,0.8,-2.062,M,40.593,M,2.6,0123*61\r\n
$GPGGA,091729.90,5703.3098452,N,00952.3380064,E,2,11,0.8,-2.062,M,40.593,M,2.6,0123*64\r\n
$GPGGA,091729.95,5703.3098777,N,00952.3379506,E,2,11,0.8,-2.063,M,40.593,M,2.6,0123*63\r\n
$GPGGA,091730.00,5703.3099099,N,00952.3378931,E,2,11,0.8,-2.065,M,40.593,M,2.6,0123*6E\r\n
$GPGGA,091730.05,5703.3099440,N,00952.3378354,E,2,11,0.8,-2.064,M,40.593,M,2.9,0123*6C\r\n
$GPGGA,091730.10,5703.3099754,N,00952.3377794,E,2,11,0.8,-2.064,M,40.593,M,2.9,0123*69\r\n
$GPGGA,091730.15,5703.3100071,N,00952.3377203,E,2,11,0.8,-2.066,M,40.593,M,2.9,0123*64\r\n
$GPGGA,091730.20,5703.3100399,N,00952.3376677,E,2,11,0.8,-2.067,M,40.593,M,2.9,0123*60\r\n
$GPGGA,091730.25,5703.3100738,N,00952.3376102,E,2,11,0.8,-2.061,M,40.593,M,3.1,0123*60\r\n
$GPGGA,091730.30,5703.3101065,N,00952.3375534,E,2,11,0.8,-2.061,M,40.593,M,3.1,0123*68\r\n
$GPGGA,091730.35,5703.3101397,N,00952.3374966,E,2,11,0.8,-2.061,M,40.593,M,3.1,0123*69\r\n
$GPGGA,091730.40,5703.3101736,N,00952.3374384,E,2,11,0.8,-2.063,M,40.593,M,3.1,0123*60\r\n
$GPGGA,091730.45,5703.3102091,N,00952.3373802,E,2,11,0.8,-2.066,M,40.593,M,3.3,0123*69\r\n
$GPGGA,091730.50,5703.3102422,N,00952.3373261,E,2,11,0.8,-2.067,M,40.593,M,3.3,0123*6F\r\n
$GPGGA,091730.55,5703.3102767,N,00952.3372682,E,2,11,0.8,-2.068,M,40.593,M,3.3,0123*6F\r\n
$GPGGA,091730.60,5703.3103103,N,00952.3372107,E,2,11,0.8,-2.070,M,40.593,M,3.3,0123*6F\r\n
$GPGGA,091730.65,5703.3103439,N,00952.3371509,E,2,11,0.8,-2.072,M,40.593,M,3.5,0123*6B\r\n
$GPGGA,091730.70,5703.3103774,N,00952.3370948,E,2,11,0.8,-2.072,M,40.593,M,3.5,0123*6D\r\n
$GPGGA,091730.75,5703.3104131,N,00952.3370360,E,2,11,0.8,-2.071,M,40.593,M,3.5,0123*6B\r\n
$GPGGA,091730.80,5703.3104496,N,00952.3369760,E,2,11,0.8,-2.073,M,40.593,M,3.5,0123*67\r\n
$GPGGA,091730.85,5703.3104854,N,00952.3369168,E,2,11,0.8,-2.074,M,40.593,M,3.7,0123*6B\r\n
$GPGGA,091730.90,5703.3105182,N,00952.3368608,E,2,11,0.8,-2.078,M,40.593,M,3.7,0123*60\r\n
$GPGGA,091730.95,5703.3105536,N,00952.3368056,E,2,11,0.8,-2.076,M,40.593,M,3.7,0123*6D\r\n
$GPGGA,091731.00,5703.3105921,N,00952.3367453,E,2,11,0.8,-2.072,M,40.593,M,3.7,0123*60\r\n
$GPGGA,091731.05,5703.3106351,N,00952.3366796,E,2,11,0.8,-2.059,M,40.593,M,3.9,0123*67\r\n
$GPGGA,091731.10,5703.3106711,N,00952.3366234,E,2,11,0.8,-2.062,M,40.593,M,3.9,0123*66\r\n
$GPGGA,091731.15,5703.3107071,N,00952.3365626,E,2,11,0.8,-2.060,M,40.593,M,3.9,0123*65\r\n
$GPGGA,091731.20,5703.3107428,N,00952.3365045,E,2,11,0.8,-2.061,M,40.593,M,3.9,0123*69\r\n
$GPGGA,091731.25,5703.3107782,N,00952.3364470,E,2,11,0.8,-2.062,M,40.593,M,4.1,0123*60\r\n
$GPGGA,091731.30,5703.3108183,N,00952.3363887,E,2,11,0.8,-2.062,M,40.593,M,4.1,0123*6F\r\n
$GPGGA,091731.35,5703.3108558,N,00952.3363303,E,2,11,0.8,-2.063,M,40.593,M,4.1,0123*6E\r\n
$GPGGA,091731.40,5703.3108918,N,00952.3362704,E,2,11,0.8,-2.064,M,40.593,M,4.1,0123*61\r\n
$GPGGA,091731.45,5703.3109293,N,00952.3362107,E,2,11,0.8,-2.066,M,40.593,M,2.3,0123*6E\r\n
$GPGGA,091731.50,5703.3109656,N,00952.3361505,E,2,11,0.8,-2.067,M,40.593,M,2.3,0123*63\r\n
$GPGGA,091731.55,5703.3110023,N,00952.3360906,E,2,11,0.8,-2.066,M,40.593,M,2.3,0123*65\r\n
$GPGGA,091731.60,5703.3110391,N,00952.3360325,E,2,11,0.8,-2.067,M,40.593,M,2.3,0123*63\r\n
$GPGGA,091731.65,5703.3110791,N,00952.3359719,E,2,11,0.8,-2.067,M,40.593,M,2.5,0123*65\r\n
$GPGGA,091731.70,5703.3111184,N,00952.3359119,E,2,11,0.8,-2.066,M,40.593,M,2.5,0123*65\r\n
$GPGGA,091731.75,5703.3111558,N,00952.3358502,E,2,11,0.8,-2.067,M,40.593,M,2.5,0123*6B\r\n
$GPGGA,091731.80,5703.3111941,N,00952.3357902,E,2,11,0.8,-2.068,M,40.593,M,2.5,0123*69\r\n
$GPGGA,091731.85,5703.3112346,N,00952.3357306,E,2,11,0.8,-2.069,M,40.593,M,2.7,0123*6F\r\n
$GPGGA,091731.90,5703.3112733,N,00952.3356704,E,2,11,0.8,-2.070,M,40.593,M,2.7,0123*62\r\n
$GPGGA,091731.95,5703.3113092,N,00952.3356103,E,2,11,0.8,-2.069,M,40.593,M,2.7,0123*63\r\n
$GPGGA,091732.00,5703.3113463,N,00952.3355510,E,2,11,0.8,-2.073,M,40.593,M,2.7,0123*68\r\n
$GPGGA,091732.05,5703.3113866,N,00952.3354857,E,2,11,0.8,-2.072,M,40.593,M,3.0,0123*6C\r\n
$GPGGA,091732.10,5703.3114277,N,00952.3354270,E,2,11,0.8,-2.073,M,40.593,M,3.0,0123*6B\r\n
$GPGGA,091732.15,5703.3114690,N,00952.3353660,E,2,11,0.8,-2.069,M,40.593,M,3.0,0123*6A\r\n
$GPGGA,091732.20,5703.3115065,N,00952.3353067,E,2,11,0.8,-2.069,M,40.593,M,3.0,0123*60\r\n
$GPGGA,091732.25,5703.3115473,N,00952.3352468,E,2,11,0.8,-2.063,M,40.593,M,3.2,0123*64\r\n
$GPGGA,091732.30,5703.3115891,N,00952.3351859,E,2,11,0.8,-2.063,M,40.593,M,3.2,0123*6D\r\n
$GPGGA,091732.35,5703.3116290,N,00952.3351230,E,2,11,0.8,-2.066,M,40.593,M,3.2,0123*60\r\n
$GPGGA,091732.40,5703.3116661,N,00952.3350628,E,2,11,0.8,-2.073,M,40.593,M,3.2,0123*60\r\n
$GPGGA,091732.45,5703.3117059,N,00952.3350007,E,2,11,0.8,-2.075,M,40.593,M,2.2,0123*65\r\n
$GPGGA,091732.50,5703.3117484,N,00952.3349379,E,2,11,0.8,-2.070,M,40.593,M,2.2,0123*62\r\n
$GPGGA,091732.55,5703.3117875,N,00952.3348776,E,2,11,0.8,-2.074,M,40.593,M,2.2,0123*6B\r\n
$GPGGA,091732.60,5703.3118283,N,00952.3348183,E,2,11,0.8,-2.072,M,40.593,M,2.2,0123*6B\r\n
$GPGGA,091732.65,5703.3118697,N,00952.3347583,E,2,11,0.8,-2.066,M,40.593,M,2.5,0123*66\r\n
$GPGGA,091732.70,5703.3119085,N,00952.3346976,E,2,11,0.8,-2.067,M,40.593,M,2.5,0123*60\r\n
$GPGGA,091732.75,5703.3119497,N,00952.3346367,E,2,11,0.8,-2.067,M,40.593,M,2.5,0123*68\r\n
$GPGGA,091732.80,5703.3119909,N,00952.3345780,E,2,11,0.8,-2.067,M,40.593,M,2.5,0123*66\r\n
$GPGGA,091732.85,5703.3120307,N,00952.3345199,E,2,11,0.8,-2.073,M,40.593,M,2.7,0123*64\r\n
$GPGGA,091732.90,5703.3120714,N,00952.3344606,E,2,11,0.8,-2.074,M,40.593,M,2.7,0123*61\r\n
$GPGGA,091732.95,5703.3121155,N,00952.3343998,E,2,11,0.8,-2.070,M,40.593,M,2.7,0123*6D\r\n
$GPGGA,091733.00,5703.3121590,N,00952.3343392,E,2,11,0.8,-2.065,M,40.593,M,2.7,0123*69\r\n
$GPGGA,091733.05,5703.3122032,N,00952.3342797,E,2,11,0.8,-2.052,M,40.593,M,2.9,0123*68\r\n
$GPGGA,091733.10,5703.3122444,N,00952.3342194,E,2,11,0.8,-2.058,M,40.593,M,2.9,0123*66\r\n
$GPGGA,091733.15,5703.3122850,N,00952.3341575,E,2,11,0.8,-2.060,M,40.593,M,2.9,0123*69\r\n
$GPGGA,091733.20,5703.3123274,N,00952.3340975,E,2,11,0.8,-2.055,M,40.593,M,2.9,0123*69\r\n
$GPGGA,091733.25,5703.3123689,N,00952.3340385,E,2,11,0.8,-2.062,M,40.593,M,3.1,0123*62\r\n
$GPGGA,091733.30,5703.3124107,N,00952.3339791,E,2,11,0.8,-2.059,M,40.593,M,3.1,0123*67\r\n
$GPGGA,091733.35,5703.3124510,N,00952.3339214,E,2,11,0.8,-2.060,M,40.593,M,3.1,0123*62\r\n
$GPGGA,091733.40,5703.3124935,N,00952.3338611,E,2,11,0.8,-2.063,M,40.593,M,3.1,0123*68\r\n
$GPGGA,091733.45,5703.3125391,N,00952.3338022,E,2,11,0.8,-2.062,M,40.593,M,2.2,0123*6D\r\n
$GPGGA,091733.50,5703.3125825,N,00952.3337422,E,2,11,0.8,-2.058,M,40.593,M,2.2,0123*6F\r\n
$GPGGA,091733.55,5703.3126256,N,00952.3336814,E,2,11,0.8,-2.056,M,40.593,M,2.2,0123*61\r\n
$GPGGA,091733.60,5703.3126664,N,00952.3336238,E,2,11,0.8,-2.058,M,40.593,M,2.2,0123*68\r\n
$GPGGA,091733.65,5703.3127066,N,00952.3335655,E,2,11,0.8,-2.057,M,40.593,M,2.4,0123*6D\r\n
$GPGGA,091733.70,5703.3127502,N,00952.3335061,E,2,11,0.8,-2.059,M,40.593,M,2.4,0123*61\r\n
$GPGGA,091733.75,5703.3127971,N,00952.3334480,E,2,11,0.8,-2.056,M,40.593,M,2.4,0123*69\r\n
$GPGGA,091733.80,5703.3128417,N,00952.3333891,E,2,11,0.8,-2.053,M,40.593,M,2.4,0123*6F\r\n
$GPGGA,091733.85,5703.3128832,N,00952.3333325,E,2,11,0.8,-2.057,M,40.593,M,2.6,0123*63\r\n
$GPGGA,091733.90,5703.3129251,N,00952.3332761,E,2,11,0.8,-2.062,M,40.593,M,2.6,0123*6A\r\n
$GPGGA,091733.95,5703.3129686,N,00952.3332152,E,2,11,0.8,-2.063,M,40.593,M,2.6,0123*66\r\n
$GPGGA,091734.00,5703.3130121,N,00952.3331555,E,2,11,0.8,-2.063,M,40.593,M,2.6,0123*6F\r\n
$GPGGA,091734.05,5703.3130544,N,00952.3331005,E,2,11,0.8,-2.065,M,40.593,M,2.9,0123*64\r\n
$GPGGA,091734.10,5703.3130961,N,00952.3330442,E,2,11,0.8,-2.068,M,40.593,M,2.9,0123*60\r\n
$GPGGA,091734.15,5703.3131410,N,00952.3329825,E,2,11,0.8,-2.063,M,40.593,M,2.9,0123*61\r\n
$GPGGA,091734.20,5703.3131866,N,00952.3329242,E,2,11,0.8,-2.061,M,40.593,M,2.9,0123*63\r\n
$GPGGA,091734.25,5703.3132315,N,00952.3328679,E,2,11,0.8,-2.055,M,40.593,M,3.1,0123*69\r\n
$GPGGA,091734.30,5703.3132751,N,00952.3328121,E,2,11,0.8,-2.055,M,40.593,M,3.1,0123*63\r\n
$GPGGA,091734.35,5703.3133196,N,00952.3327559,E,2,11,0.8,-2.055,M,40.593,M,3.1,0123*6E\r\n
$GPGGA,091734.40,5703.3133611,N,00952.3327018,E,2,11,0.8,-2.059,M,40.593,M,3.1,0123*68\r\n
$GPGGA,091734.45,5703.3134027,N,00952.3326488,E,2,11,0.8,-2.067,M,40.593,M,3.3,0123*6A\r\n
$GPGGA,091734.50,5703.3134464,N,00952.3325943,E,2,11,0.8,-2.073,M,40.593,M,3.3,0123*61\r\n
$GPGGA,091734.55,5703.3134887,N,00952.3325436,E,2,11,0.8,-2.075,M,40.593,M,3.3,0123*6C\r\n
$GPGGA,091734.60,5703.3135306,N,00952.3324921,E,2,11,0.8,-2.077,M,40.593,M,3.3,0123*61\r\n
$GPGGA,091734.65,5703.3135750,N,00952.3324362,E,2,11,0.8,-2.074,M,40.593,M,3.5,0123*6B\r\n
$GPGGA,091734.70,5703.3136168,N,00952.3323829,E,2,11,0.8,-2.076,M,40.593,M,3.5,0123*60\r\n
$GPGGA,091734.75,5703.3136558,N,00952.3323333,E,2,11,0.8,-2.082,M,40.593,M,3.5,0123*69\r\n
$GPGGA,091734.80,5703.3136959,N,00952.3322857,E,2,11,0.8,-2.090,M,40.593,M,3.5,0123*65\r\n
$GPGGA,091734.85,5703.3137369,N,00952.3322387,E,2,11,0.8,-2.096,M,40.593,M,3.7,0123*6A\r\n
$GPGGA,091734.90,5703.3137777,N,00952.3321885,E,2,11,0.8,-2.099,M,40.593,M,3.7,0123*60\r\n
$GPGGA,091734.95,5703.3138189,N,00952.3321385,E,2,11,0.8,-2.104,M,40.593,M,3.7,0123*63\r\n
$GPGGA,091735.00,5703.3138583,N,00952.3320920,E,2,11,0.8,-2.106,M,40.593,M,3.7,0123*66\r\n
$GPGGA,091735.05,5703.3139011,N,00952.3320453,E,2,11,0.8,-2.099,M,40.593,M,3.9,0123*6C\r\n
$GPGGA,091735.10,5703.3139408,N,00952.3319948,E,2,11,0.8,-2.101,M,40.593,M,3.9,0123*69\r\n
$GPGGA,091735.15,5703.3139782,N,00952.3319462,E,2,11,0.8,-2.105,M,40.593,M,3.9,0123*6C\r\n
$GPGGA,091735.20,5703.3140202,N,00952.3319008,E,2,11,0.8,-2.107,M,40.593,M,3.9,0123*63\r\n
$GPGGA,091735.25,5703.3140595,N,00952.3318570,E,2,11,0.8,-2.108,M,40.593,M,4.1,0123*64\r\n
$GPGGA,091735.30,5703.3140967,N,00952.3318131,E,2,11,0.8,-2.107,M,40.593,M,4.1,0123*6F\r\n
$GPGGA,091735.35,5703.3141347,N,00952.3317658,E,2,11,0.8,-2.107,M,40.593,M,4.1,0123*64\r\n
$GPGGA,091735.40,5703.3141736,N,00952.3317183,E,2,11,0.8,-2.109,M,40.593,M,4.1,0123*6B\r\n
$GPGGA,091735.45,5703.3142129,N,00952.3316736,E,2,11,0.8,-2.107,M,40.593,M,0.9,0123*6E\r\n
$GPGGA,091735.50,5703.3142510,N,00952.3316293,E,2,11,0.8,-2.108,M,40.593,M,0.9,0123*61\r\n
$GPGGA,091735.55,5703.3142913,N,00952.3315882,E,2,11,0.8,-2.106,M,40.593,M,0.9,0123*6C\r\n
$GPGGA,091735.60,5703.3143284,N,00952.3315448,E,2,11,0.8,-2.101,M,40.593,M,0.9,0123*63\r\n
$GPGGA,091735.65,5703.3143644,N,00952.3315004,E,2,11,0.8,-2.100,M,40.593,M,1.2,0123*69\r\n
$GPGGA,091735.70,5703.3144047,N,00952.3314549,E,2,11,0.8,-2.101,M,40.593,M,1.2,0123*63\r\n
$GPGGA,091735.75,5703.3144442,N,00952.3314108,E,2,11,0.8,-2.099,M,40.593,M,1.2,0123*66\r\n
$GPGGA,091735.80,5703.3144829,N,00952.3313702,E,2,11,0.8,-2.097,M,40.593,M,1.2,0123*68\r\n
$GPGGA,091735.85,5703.3145216,N,00952.3313278,E,2,11,0.8,-2.098,M,40.593,M,1.5,0123*6A\r\n
$GPGGA,091735.90,5703.3145582,N,00952.3312845,E,2,11,0.8,-2.099,M,40.593,M,1.5,0123*60\r\n
$GPGGA,091735.95,5703.3145980,N,00952.3312417,E,2,11,0.8,-2.099,M,40.593,M,1.5,0123*60\r\n
$GPGGA,091736.00,5703.3146364,N,00952.3312001,E,2,11,0.8,-2.099,M,40.593,M,1.5,0123*6F\r\n
$GPGGA,091736.05,5703.3146733,N,00952.3311580,E,2,11,0.8,-2.098,M,40.593,M,1.7,0123*60\r\n
$GPGGA,091736.10,5703.3147125,N,00952.3311158,E,2,11,0.8,-2.094,M,40.593,M,1.7,0123*69\r\n
$GPGGA,091736.15,5703.3147536,N,00952.3310748,E,2,11,0.8,-2.091,M,40.593,M,1.7,0123*69\r\n
$GPGGA,091736.20,5703.3147912,N,00952.3310384,E,2,11,0.8,-2.092,M,40.593,M,1.7,0123*62\r\n
$GPGGA,091736.25,5703.3148282,N,00952.3309997,E,2,11,0.8,-2.091,M,40.593,M,2.0,0123*6D\r\n
$GPGGA,091736.30,5703.3148655,N,00952.3309576,E,2,11,0.8,-2.092,M,40.593,M,2.0,0123*67\r\n
$GPGGA,091736.35,5703.3149041,N,00952.3309161,E,2,11,0.8,-2.090,M,40.593,M,2.0,0123*60\r\n
$GPGGA,091736.40,5703.3149420,N,00952.3308761,E,2,11,0.8,-2.089,M,40.593,M,2.0,0123*6E\r\n
$GPGGA,091736.45,5703.3149809,N,00952.3308341,E,2,11,0.8,-2.090,M,40.593,M,0.9,0123*69\r\n
$GPGGA,091736.50,5703.3150175,N,00952.3307943,E,2,11,0.8,-2.090,M,40.593,M,0.9,0123*60\r\n
$GPGGA,091736.55,5703.3150547,N,00952.3307566,E,2,11,0.8,-2.088,M,40.593,M,0.9,0123*62\r\n
$GPGGA,091736.60,5703.3150928,N,00952.3307188,E,2,11,0.8,-2.088,M,40.593,M,0.9,0123*65\r\n
$GPGGA,091736.65,5703.3151325,N,00952.3306796,E,2,11,0.8,-2.084,M,40.593,M,1.2,0123*68\r\n
$GPGGA,091736.70,5703.3151699,N,00952.3306397,E,2,11,0.8,-2.086,M,40.593,M,1.2,0123*69\r\n
$GPGGA,091736.75,5703.3152069,N,00952.3306032,E,2,11,0.8,-2.085,M,40.593,M,1.2,0123*69\r\n
$GPGGA,091736.80,5703.3152460,N,00952.3305659,E,2,11,0.8,-2.081,M,40.593,M,1.2,0123*62\r\n
$GPGGA,091736.85,5703.3152832,N,00952.3305279,E,2,11,0.8,-2.080,M,40.593,M,1.5,0123*6C\r\n
$GPGGA,091736.90,5703.3153210,N,00952.3304899,E,2,11,0.8,-2.077,M,40.593,M,1.5,0123*6E\r\n
$GPGGA,091736.95,5703.3153575,N,00952.3304542,E,2,11,0.8,-2.077,M,40.593,M,1.5,0123*64\r\n
$GPGGA,091737.00,5703.3153943,N,00952.3304202,E,2,11,0.8,-2.080,M,40.593,M,1.5,0123*6B\r\n
$GPGGA,091737.05,5703.3154324,N,00952.3303857,E,2,11,0.8,-2.079,M,40.593,M,1.7,0123*6B\r\n
$GPGGA,091737.10,5703.3154713,N,00952.3303482,E,2,11,0.8,-2.075,M,40.593,M,1.7,0123*67\r\n
$GPGGA,091737.15,5703.3155090,N,00952.3303112,E,2,11,0.8,-2.074,M,40.593,M,1.7,0123*62\r\n
$GPGGA,091737.20,5703.3155462,N,00952.3302782,E,2,11,0.8,-2.075,M,40.593,M,1.7,0123*62\r\n
$GPGGA,091737.25,5703.3155810,N,00952.3302433,E,2,11,0.8,-2.074,M,40.593,M,2.0,0123*62\r\n
$GPGGA,091737.30,5703.3156174,N,00952.3302089,E,2,11,0.8,-2.073,M,40.593,M,2.0,0123*6C\r\n
$GPGGA,091737.35,5703.3156540,N,00952.3301759,E,2,11,0.8,-2.069,M,40.593,M,2.0,0123*68\r\n
$GPGGA,091737.40,5703.3156906,N,00952.3301434,E,2,11,0.8,-2.065,M,40.593,M,2.0,0123*60\r\n
$GPGGA,091737.45,5703.3157246,N,00952.3301100,E,2,11,0.8,-2.067,M,40.593,M,2.2,0123*69\r\n
$GPGGA,091737.50,5703.3157614,N,00952.3300755,E,2,11,0.8,-2.072,M,40.593,M,2.2,0123*6D\r\n
$GPGGA,091737.55,5703.3157975,N,00952.3300438,E,2,11,0.8,-2.071,M,40.593,M,2.2,0123*6B\r\n
$GPGGA,091737.60,5703.3158325,N,00952.3300132,E,2,11,0.8,-2.071,M,40.593,M,2.2,0123*62\r\n
$GPGGA,091737.65,5703.3158685,N,00952.3299825,E,2,11,0.8,-2.072,M,40.593,M,2.4,0123*63\r\n
$GPGGA,091737.70,5703.3159062,N,00952.3299526,E,2,11,0.8,-2.073,M,40.593,M,2.4,0123*66\r\n
$GPGGA,091737.75,5703.3159417,N,00952.3299173,E,2,11,0.8,-2.070,M,40.593,M,2.4,0123*62\r\n
$GPGGA,091737.80,5703.3159776,N,00952.3298847,E,2,11,0.8,-2.067,M,40.593,M,2.4,0123*65\r\n
$GPGGA,091737.85,5703.3160128,N,00952.3298568,E,2,11,0.8,-2.067,M,40.593,M,2.6,0123*65\r\n
$GPGGA,091737.90,5703.3160460,N,00952.3298278,E,2,11,0.8,-2.071,M,40.593,M,2.6,0123*69\r\n
$GPGGA,091737.95,5703.3160806,N,00952.3297974,E,2,11,0.8,-2.076,M,40.593,M,2.6,0123*6F\r\n
$GPGGA,091738.00,5703.3161137,N,00952.3297668,E,2,11,0.8,-2.076,M,40.593,M,2.6,0123*64\r\n
$GPGGA,091738.05,5703.3161504,N,00952.3297368,E,2,11,0.8,-2.076,M,40.593,M,2.9,0123*6F\r\n
$GPGGA,091738.10,5703.3161873,N,00952.3297087,E,2,11,0.8,-2.071,M,40.593,M,2.9,0123*63\r\n
$GPGGA,091738.15,5703.3162217,N,00952.3296803,E,2,11,0.8,-2.075,M,40.593,M,2.9,0123*6C\r\n
$GPGGA,091738.20,5703.3162546,N,00952.3296511,E,2,11,0.8,-2.079,M,40.593,M,2.9,0123*6B\r\n
$GPGGA,091738.25,5703.3162875,N,00952.3296261,E,2,11,0.8,-2.079,M,40.593,M,3.1,0123*6A\r\n
$GPGGA,091738.30,5703.3163223,N,00952.3295995,E,2,11,0.8,-2.075,M,40.593,M,3.1,0123*69\r\n
$GPGGA,091738.35,5703.3163579,N,00952.3295713,E,2,11,0.8,-2.074,M,40.593,M,3.1,0123*65\r\n
$GPGGA,091738.40,5703.3163923,N,00952.3295448,E,2,11,0.8,-2.074,M,40.593,M,3.1,0123*69\r\n
$GPGGA,091738.45,5703.3164297,N,00952.3295188,E,2,11,0.8,-2.070,M,40.593,M,0.8,0123*68\r\n
$GPGGA,091738.50,5703.3164649,N,00952.3294894,E,2,11,0.8,-2.066,M,40.593,M,0.8,0123*69\r\n
$GPGGA,091738.55,5703.3164978,N,00952.3294609,E,2,11,0.8,-2.069,M,40.593,M,0.8,0123*64\r\n
$GPGGA,091738.60,5703.3165307,N,00952.3294375,E,2,11,0.8,-2.073,M,40.593,M,0.8,0123*64\r\n
$GPGGA,091738.65,5703.3165623,N,00952.3294161,E,2,11,0.8,-2.079,M,40.593,M,1.2,0123*64\r\n
$GPGGA,091738.70,5703.3165995,N,00952.3293903,E,2,11,0.8,-2.080,M,40.593,M,1.2,0123*6F\r\n
$GPGGA,091738.75,5703.3166366,N,00952.3293635,E,2,11,0.8,-2.077,M,40.593,M,1.2,0123*6D\r\n
$GPGGA,091738.80,5703.3166711,N,00952.3293394,E,2,11,0.8,-2.077,M,40.593,M,1.2,0123*6D\r\n
$GPGGA,091738.85,5703.3167057,N,00952.3293167,E,2,11,0.8,-2.075,M,40.593,M,1.5,0123*67\r\n
$GPGGA,091738.90,5703.3167379,N,00952.3292967,E,2,11,0.8,-2.079,M,40.593,M,1.5,0123*69\r\n
$GPGGA,091738.95,5703.3167720,N,00952.3292728,E,2,11,0.8,-2.078,M,40.593,M,1.5,0123*60\r\n
$GPGGA,091739.00,5703.3168056,N,00952.3292503,E,2,11,0.8,-2.078,M,40.593,M,1.5,0123*6F\r\n
$GPGGA,091739.05,5703.3168399,N,00952.3292269,E,2,11,0.8,-2.079,M,40.593,M,1.7,0123*62\r\n
$GPGGA,091739.10,5703.3168767,N,00952.3292047,E,2,11,0.8,-2.079,M,40.593,M,1.7,0123*6D\r\n
$GPGGA,091739.15,5703.3169096,N,00952.3291843,E,2,11,0.8,-2.081,M,40.593,M,1.7,0123*68\r\n
$GPGGA,091739.20,5703.3169423,N,00952.3291637,E,2,11,0.8,-2.083,M,40.593,M,1.7,0123*6B\r\n
$GPGGA,091739.25,5703.3169764,N,00952.3291403,E,2,11,0.8,-2.079,M,40.593,M,2.0,0123*6A\r\n
$GPGGA,091739.30,5703.3170116,N,00952.3291178,E,2,11,0.8,-2.074,M,40.593,M,2.0,0123*61\r\n
$GPGGA,091739.35,5703.3170472,N,00952.3290963,E,2,11,0.8,-2.074,M,40.593,M,2.0,0123*60\r\n
$GPGGA,091739.40,5703.3170784,N,00952.3290785,E,2,11,0.8,-2.077,M,40.593,M,2.0,0123*6D\r\n
$GPGGA,091739.45,5703.3171107,N,00952.3290592,E,2,11,0.8,-2.075,M,40.593,M,0.9,0123*69\r\n
$GPGGA,091739.50,5703.3171444,N,00952.3290389,E,2,11,0.8,-2.075,M,40.593,M,0.9,0123*63\r\n
$GPGGA,091739.55,5703.3171794,N,00952.3290175,E,2,11,0.8,-2.075,M,40.593,M,0.9,0123*69\r\n
$GPGGA,091739.60,5703.3172144,N,00952.3289978,E,2,11,0.8,-2.072,M,40.593,M,0.9,0123*6D\r\n
$GPGGA,091739.65,5703.3172481,N,00952.3289798,E,2,11,0.8,-2.073,M,40.593,M,1.2,0123*6F\r\n
$GPGGA,091739.70,5703.3172808,N,00952.3289617,E,2,11,0.8,-2.074,M,40.593,M,1.2,0123*67\r\n
$GPGGA,091739.75,5703.3173142,N,00952.3289434,E,2,11,0.8,-2.074,M,40.593,M,1.2,0123*67\r\n
$GPGGA,091739.80,5703.3173485,N,00952.3289226,E,2,11,0.8,-2.072,M,40.593,M,1.2,0123*60\r\n
$GPGGA,091739.85,5703.3173818,N,00952.3289034,E,2,11,0.8,-2.074,M,40.593,M,1.5,0123*6D\r\n
$GPGGA,091739.90,5703.3174171,N,00952.3288854,E,2,11,0.8,-2.071,M,40.593,M,1.5,0123*62\r\n
$GPGGA,091739.95,5703.3174499,N,00952.3288703,E,2,11,0.8,-2.072,M,40.593,M,1.5,0123*6A\r\n
$GPGGA,091740.00,5703.3174823,N,00952.3288536,E,2,11,0.8,-2.073,M,40.593,M,1.5,0123*60\r\n
$GPGGA,091740.05,5703.3175141,N,00952.3288356,E,2,11,0.8,-2.073,M,40.593,M,1.7,0123*6B\r\n
$GPGGA,091740.10,5703.3175474,N,00952.3288186,E,2,11,0.8,-2.075,M,40.593,M,1.7,0123*65\r\n
$GPGGA,091740.15,5703.3175809,N,00952.3288014,E,2,11,0.8,-2.073,M,40.593,M,1.7,0123*6A\r\n
$GPGGA,091740.20,5703.3176157,N,00952.3287835,E,2,11,0.8,-2.069,M,40.593,M,1.7,0123*62\r\n
$GPGGA,091740.25,5703.3176474,N,00952.3287647,E,2,11,0.8,-2.070,M,40.593,M,2.0,0123*64\r\n
$GPGGA,091740.30,5703.3176790,N,00952.3287472,E,2,11,0.8,-2.071,M,40.593,M,2.0,0123*6C\r\n
$GPGGA,091740.35,5703.3177112,N,00952.3287320,E,2,11,0.8,-2.073,M,40.593,M,2.0,0123*66\r\n
$GPGGA,091740.40,5703.3177445,N,00952.3287184,E,2,11,0.8,-2.074,M,40.593,M,2.0,0123*68\r\n
$GPGGA,091740.45,5703.3177785,N,00952.3287023,E,2,11,0.8,-2.076,M,40.593,M,0.9,0123*67\r\n
$GPGGA,091740.50,5703.3178123,N,00952.3286851,E,2,11,0.8,-2.073,M,40.593,M,0.9,0123*6F\r\n
$GPGGA,091740.55,5703.3178461,N,00952.3286687,E,2,11,0.8,-2.071,M,40.593,M,0.9,0123*6E\r\n
$GPGGA,091740.60,5703.3178770,N,00952.3286542,E,2,11,0.8,-2.071,M,40.593,M,0.9,0123*61\r\n
$GPGGA,091740.65,5703.3179091,N,00952.3286402,E,2,11,0.8,-2.068,M,40.593,M,1.2,0123*6A\r\n
$GPGGA,091740.70,5703.3179408,N,00952.3286260,E,2,11,0.8,-2.070,M,40.593,M,1.2,0123*61\r\n
$GPGGA,091740.75,5703.3179728,N,00952.3286139,E,2,11,0.8,-2.073,M,40.593,M,1.2,0123*69\r\n
$GPGGA,091740.80,5703.3180074,N,00952.3286006,E,2,11,0.8,-2.073,M,40.593,M,1.2,0123*66\r\n
$GPGGA,091740.85,5703.3180394,N,00952.3285856,E,2,11,0.8,-2.078,M,40.593,M,1.5,0123*6C\r\n
$GPGGA,091740.90,5703.3180725,N,00952.3285702,E,2,11,0.8,-2.077,M,40.593,M,1.5,0123*67\r\n
$GPGGA,091740.95,5703.3181034,N,00952.3285553,E,2,11,0.8,-2.077,M,40.593,M,1.5,0123*62\r\n
$GPGGA,091741.00,5703.3181336,N,00952.3285413,E,2,11,0.8,-2.078,M,40.593,M,1.5,0123*64\r\n
$GPGGA,091741.05,5703.3181676,N,00952.3285270,E,2,11,0.8,-2.068,M,40.593,M,1.7,0123*60\r\n
$GPGGA,091741.10,5703.3182030,N,00952.3285146,E,2,11,0.8,-2.068,M,40.593,M,1.7,0123*65\r\n
$GPGGA,091741.15,5703.3182351,N,00952.3285026,E,2,11,0.8,-2.069,M,40.593,M,1.7,0123*62\r\n
$GPGGA,091741.20,5703.3182661,N,00952.3284868,E,2,11,0.8,-2.067,M,40.593,M,1.7,0123*6F\r\n
$GPGGA,091741.25,5703.3182971,N,00952.3284732,E,2,11,0.8,-2.069,M,40.593,M,2.0,0123*6E\r\n
$GPGGA,091741.30,5703.3183298,N,00952.3284605,E,2,11,0.8,-2.066,M,40.593,M,2.0,0123*6D\r\n
$GPGGA,091741.35,5703.3183632,N,00952.3284459,E,2,11,0.8,-2.067,M,40.593,M,2.0,0123*66\r\n
$GPGGA,091741.40,5703.3183951,N,00952.3284337,E,2,11,0.8,-2.068,M,40.593,M,2.0,0123*6E\r\n
$GPGGA,091741.45,5703.3184292,N,00952.3284220,E,2,11,0.8,-2.067,M,40.593,M,2.2,0123*62\r\n
$GPGGA,091741.50,5703.3184613,N,00952.3284112,E,2,11,0.8,-2.065,M,40.593,M,2.2,0123*6B\r\n
$GPGGA,091741.55,5703.3184939,N,00952.3283995,E,2,11,0.8,-2.064,M,40.593,M,2.2,0123*68\r\n
$GPGGA,091741.60,5703.3185253,N,00952.3283866,E,2,11,0.8,-2.062,M,40.593,M,2.2,0123*63\r\n
$GPGGA,091741.65,5703.3185565,N,00952.3283743,E,2,11,0.8,-2.059,M,40.593,M,2.4,0123*62\r\n
$GPGGA,091741.70,5703.3185882,N,00952.3283643,E,2,11,0.8,-2.059,M,40.593,M,2.4,0123*63\r\n
$GPGGA,091741.75,5703.3186206,N,00952.3283543,E,2,11,0.8,-2.061,M,40.593,M,2.4,0123*6B\r\n
$GPGGA,091741.80,5703.3186525,N,00952.3283456,E,2,11,0.8,-2.061,M,40.593,M,2.4,0123*62\r\n
$GPGGA,091741.85,5703.3186845,N,00952.3283348,E,2,11,0.8,-2.064,M,40.593,M,2.6,0123*63\r\n
$GPGGA,091741.90,5703.3187146,N,00952.3283251,E,2,11,0.8,-2.066,M,40.593,M,2.6,0123*67\r\n
$GPGGA,091741.95,5703.3187457,N,00952.3283139,E,2,11,0.8,-2.066,M,40.593,M,2.6,0123*6A\r\n
$GPGGA,091742.00,5703.3187788,N,00952.3283024,E,2,11,0.8,-2.067,M,40.593,M,2.6,0123*68\r\n
$GPGGA,091742.05,5703.3188110,N,00952.3282913,E,2,11,0.8,-2.062,M,40.593,M,2.9,0123*63\r\n
$GPGGA,091742.10,5703.3188426,N,00952.3282819,E,2,11,0.8,-2.060,M,40.593,M,2.9,0123*6E\r\n
$GPGGA,091742.15,5703.3188733,N,00952.3282723,E,2,11,0.8,-2.060,M,40.593,M,2.9,0123*6A\r\n
$GPGGA,091742.20,5703.3189047,N,00952.3282637,E,2,11,0.8,-2.061,M,40.593,M,2.9,0123*6C\r\n
$GPGGA,091742.25,5703.3189349,N,00952.3282573,E,2,11,0.8,-2.069,M,40.593,M,3.1,0123*66\r\n
$GPGGA,091742.30,5703.3189664,N,00952.3282484,E,2,11,0.8,-2.071,M,40.593,M,3.1,0123*68\r\n
$GPGGA,091742.35,5703.3189971,N,00952.3282382,E,2,11,0.8,-2.070,M,40.593,M,3.1,0123*66\r\n
$GPGGA,091742.40,5703.3190288,N,00952.3282298,E,2,11,0.8,-2.071,M,40.593,M,3.1,0123*6A\r\n
$GPGGA,091742.45,5703.3190610,N,00952.3282226,E,2,11,0.8,-2.067,M,40.593,M,3.3,0123*6A\r\n
$GPGGA,091742.50,5703.3190931,N,00952.3282166,E,2,11,0.8,-2.068,M,40.593,M,3.3,0123*6A\r\n
$GPGGA,091742.55,5703.3191213,N,00952.3282105,E,2,11,0.8,-2.069,M,40.593,M,3.3,0123*61\r\n
$GPGGA,091742.60,5703.3191517,N,00952.3282032,E,2,11,0.8,-2.072,M,40.593,M,3.3,0123*6B\r\n
$GPGGA,091742.65,5703.3191840,N,00952.3281959,E,2,11,0.8,-2.070,M,40.593,M,3.5,0123*62\r\n
$GPGGA,091742.70,5703.3192147,N,00952.3281894,E,2,11,0.8,-2.072,M,40.593,M,3.5,0123*69\r\n
$GPGGA,091742.75,5703.3192467,N,00952.3281815,E,2,11,0.8,-2.072,M,40.593,M,3.5,0123*62\r\n
$GPGGA,091742.80,5703.3192781,N,00952.3281747,E,2,11,0.8,-2.070,M,40.593,M,3.5,0123*69\r\n
$GPGGA,091742.85,5703.3193129,N,00952.3281654,E,2,11,0.8,-2.062,M,40.593,M,3.7,0123*6B\r\n
$GPGGA,091742.90,5703.3193439,N,00952.3281591,E,2,11,0.8,-2.062,M,40.593,M,3.7,0123*61\r\n
$GPGGA,091742.95,5703.3193733,N,00952.3281537,E,2,11,0.8,-2.062,M,40.593,M,3.7,0123*61\r\n
$GPGGA,091743.00,5703.3194036,N,00952.3281466,E,2,11,0.8,-2.061,M,40.593,M,3.7,0123*6F\r\n
$GPGGA,091743.05,5703.3194339,N,00952.3281422,E,2,11,0.8,-2.069,M,40.593,M,3.9,0123*60\r\n
$GPGGA,091743.10,5703.3194664,N,00952.3281360,E,2,11,0.8,-2.068,M,40.593,M,3.9,0123*69\r\n
$GPGGA,091743.15,5703.3194988,N,00952.3281308,E,2,11,0.8,-2.067,M,40.593,M,3.9,0123*60\r\n
$GPGGA,091743.20,5703.3195285,N,00952.3281249,E,2,11,0.8,-2.067,M,40.593,M,3.9,0123*65\r\n
$GPGGA,091743.25,5703.3195595,N,00952.3281170,E,2,11,0.8,-2.063,M,40.593,M,4.1,0123*64\r\n
$GPGGA,091743.30,5703.3195883,N,00952.3281114,E,2,11,0.8,-2.064,M,40.593,M,4.1,0123*6F\r\n
$GPGGA,091743.35,5703.3196184,N,00952.3281049,E,2,11,0.8,-2.067,M,40.593,M,4.1,0123*6D\r\n
$GPGGA,091743.40,5703.3196497,N,00952.3280980,E,2,11,0.8,-2.068,M,40.593,M,4.1,0123*6A\r\n
$GPGGA,091743.45,5703.3196801,N,00952.3280918,E,2,11,0.8,-2.070,M,40.593,M,2.3,0123*60\r\n
$GPGGA,091743.50,5703.3197121,N,00952.3280858,E,2,11,0.8,-2.070,M,40.593,M,2.3,0123*6B\r\n
$GPGGA,091743.55,5703.3197427,N,00952.3280786,E,2,11,0.8,-2.071,M,40.593,M,2.3,0123*60\r\n
$GPGGA,091743.60,5703.3197745,N,00952.3280697,E,2,11,0.8,-2.067,M,40.593,M,2.3,0123*67\r\n
$GPGGA,091743.65,5703.3198056,N,00952.3280637,E,2,11,0.8,-2.069,M,40.593,M,2.5,0123*6A\r\n
$GPGGA,091743.70,5703.3198371,N,00952.3280571,E,2,11,0.8,-2.067,M,40.593,M,2.5,0123*67\r\n
$GPGGA,091743.75,5703.3198673,N,00952.3280490,E,2,11,0.8,-2.065,M,40.593,M,2.5,0123*69\r\n
$GPGGA,091743.80,5703.3198963,N,00952.3280413,E,2,11,0.8,-2.064,M,40.593,M,2.5,0123*67\r\n
$GPGGA,091743.85,5703.3199273,N,00952.3280349,E,2,11,0.8,-2.062,M,40.593,M,2.7,0123*65\r\n
$GPGGA,091743.90,5703.3199575,N,00952.3280264,E,2,11,0.8,-2.063,M,40.593,M,2.7,0123*6F\r\n
$GPGGA,091743.95,5703.3199874,N,00952.3280168,E,2,11,0.8,-2.063,M,40.593,M,2.7,0123*69\r\n
$GPGGA,091744.00,5703.3200173,N,00952.3280092,E,2,11,0.8,-2.061,M,40.593,M,2.7,0123*69\r\n
$GPGGA,091744.05,5703.3200474,N,00952.3280007,E,2,11,0.8,-2.069,M,40.593,M,3.0,0123*6C\r\n
$GPGGA,091744.10,5703.3200782,N,00952.3279924,E,2,11,0.8,-2.070,M,40.593,M,3.0,0123*64\r\n
$GPGGA,091744.15,5703.3201095,N,00952.3279832,E,2,11,0.8,-2.069,M,40.593,M,3.0,0123*6F\r\n
$GPGGA,091744.20,5703.3201397,N,00952.3279734,E,2,11,0.8,-2.070,M,40.593,M,3.0,0123*69\r\n
$GPGGA,091744.25,5703.3201689,N,00952.3279622,E,2,11,0.8,-2.068,M,40.593,M,3.2,0123*6B\r\n
$GPGGA,091744.30,5703.3201984,N,00952.3279500,E,2,11,0.8,-2.068,M,40.593,M,3.2,0123*6E\r\n
$GPGGA,091744.35,5703.3202284,N,00952.3279396,E,2,11,0.8,-2.071,M,40.593,M,3.2,0123*62\r\n
$GPGGA,091744.40,5703.3202577,N,00952.3279311,E,2,11,0.8,-2.070,M,40.593,M,3.2,0123*65\r\n
$GPGGA,091744.45,5703.3202888,N,00952.3279213,E,2,11,0.8,-2.065,M,40.593,M,2.2,0123*6B\r\n
$GPGGA,091744.50,5703.3203185,N,00952.3279103,E,2,11,0.8,-2.068,M,40.593,M,2.2,0123*65\r\n
$GPGGA,091744.55,5703.3203472,N,00952.3278987,E,2,11,0.8,-2.068,M,40.593,M,2.2,0123*68\r\n
$GPGGA,091744.60,5703.3203752,N,00952.3278851,E,2,11,0.8,-2.069,M,40.593,M,2.2,0123*64\r\n
$GPGGA,091744.65,5703.3204046,N,00952.3278740,E,2,11,0.8,-2.074,M,40.593,M,2.5,0123*60\r\n
$GPGGA,091744.70,5703.3204358,N,00952.3278631,E,2,11,0.8,-2.073,M,40.593,M,2.5,0123*68\r\n
$GPGGA,091744.75,5703.3204653,N,00952.3278497,E,2,11,0.8,-2.073,M,40.593,M,2.5,0123*6D\r\n
$GPGGA,091744.80,5703.3204926,N,00952.3278361,E,2,11,0.8,-2.074,M,40.593,M,2.5,0123*63\r\n
$GPGGA,091744.85,5703.3205193,N,00952.3278230,E,2,11,0.8,-2.076,M,40.593,M,2.7,0123*64\r\n
$GPGGA,091744.90,5703.3205489,N,00952.3278073,E,2,11,0.8,-2.075,M,40.593,M,2.7,0123*68\r\n
$GPGGA,091744.95,5703.3205786,N,00952.3277921,E,2,11,0.8,-2.070,M,40.593,M,2.7,0123*65\r\n
$GPGGA,091745.00,5703.3206084,N,00952.3277759,E,2,11,0.8,-2.071,M,40.593,M,2.7,0123*6E\r\n
$GPGGA,091745.05,5703.3206361,N,00952.3277600,E,2,11,0.8,-2.074,M,40.593,M,2.9,0123*65\r\n
$GPGGA,091745.10,5703.3206636,N,00952.3277463,E,2,11,0.8,-2.074,M,40.593,M,2.9,0123*61\r\n
$GPGGA,091745.15,5703.3206921,N,00952.3277304,E,2,11,0.8,-2.073,M,40.593,M,2.9,0123*6C\r\n
$GPGGA,091745.20,5703.3207195,N,00952.3277135,E,2,11,0.8,-2.071,M,40.593,M,2.9,0123*6E\r\n
$GPGGA,091745.25,5703.3207470,N,00952.3276954,E,2,11,0.8,-2.067,M,40.593,M,3.1,0123*65\r\n
$GPGGA,091745.30,5703.3207765,N,00952.3276781,E,2,11,0.8,-2.067,M,40.593,M,3.1,0123*60\r\n
$GPGGA,091745.35,5703.3208041,N,00952.3276617,E,2,11,0.8,-2.066,M,40.593,M,3.1,0123*64\r\n
$GPGGA,091745.40,5703.3208305,N,00952.3276437,E,2,11,0.8,-2.067,M,40.593,M,3.1,0123*64\r\n
$GPGGA,091745.45,5703.3208577,N,00952.3276256,E,2,11,0.8,-2.070,M,40.593,M,2.2,0123*67\r\n
$GPGGA,091745.50,5703.3208862,N,00952.3276075,E,2,11,0.8,-2.070,M,40.593,M,2.2,0123*69\r\n
$GPGGA,091745.55,5703.3209128,N,00952.3275897,E,2,11,0.8,-2.069,M,40.593,M,2.2,0123*65\r\n
$GPGGA,091745.60,5703.3209387,N,00952.3275719,E,2,11,0.8,-2.068,M,40.593,M,2.2,0123*6C\r\n
$GPGGA,091745.65,5703.3209644,N,00952.3275528,E,2,11,0.8,-2.061,M,40.593,M,2.4,0123*6C\r\n
$GPGGA,091745.70,5703.3209904,N,00952.3275337,E,2,11,0.8,-2.061,M,40.593,M,2.4,0123*6B\r\n
$GPGGA,091745.75,5703.3210165,N,00952.3275141,E,2,11,0.8,-2.059,M,40.593,M,2.4,0123*61\r\n
$GPGGA,091745.80,5703.3210435,N,00952.3274935,E,2,11,0.8,-2.058,M,40.593,M,2.4,0123*60\r\n
$GPGGA,091745.85,5703.3210675,N,00952.3274737,E,2,11,0.8,-2.061,M,40.593,M,2.6,0123*67\r\n
$GPGGA,091745.90,5703.3210920,N,00952.3274537,E,2,11,0.8,-2.063,M,40.593,M,2.6,0123*6C\r\n
$GPGGA,091745.95,5703.3211165,N,00952.3274320,E,2,11,0.8,-2.064,M,40.593,M,2.6,0123*66\r\n
$GPGGA,091746.00,5703.3211405,N,00952.3274119,E,2,11,0.8,-2.064,M,40.593,M,2.6,0123*62\r\n
$GPGGA,091746.05,5703.3211646,N,00952.3273907,E,2,11,0.8,-2.064,M,40.593,M,2.9,0123*6D\r\n
$GPGGA,091746.10,5703.3211888,N,00952.3273694,E,2,11,0.8,-2.064,M,40.593,M,2.9,0123*60\r\n
$GPGGA,091746.15,5703.3212135,N,00952.3273492,E,2,11,0.8,-2.063,M,40.593,M,2.9,0123*6A\r\n
$GPGGA,091746.20,5703.3212373,N,00952.3273280,E,2,11,0.8,-2.059,M,40.593,M,2.9,0123*60\r\n
$GPGGA,091746.25,5703.3212616,N,00952.3273064,E,2,11,0.8,-2.060,M,40.593,M,3.1,0123*68\r\n
$GPGGA,091746.30,5703.3212846,N,00952.3272856,E,2,11,0.8,-2.060,M,40.593,M,3.1,0123*6F\r\n
$GPGGA,091746.35,5703.3213080,N,00952.3272638,E,2,11,0.8,-2.062,M,40.593,M,3.1,0123*6D\r\n
$GPGGA,091746.40,5703.3213312,N,00952.3272427,E,2,11,0.8,-2.061,M,40.593,M,3.1,0123*68\r\n
$GPGGA,091746.45,5703.3213518,N,00952.3272206,E,2,11,0.8,-2.058,M,40.593,M,0.8,0123*64\r\n
$GPGGA,091746.50,5703.3213744,N,00952.3271991,E,2,11,0.8,-2.060,M,40.593,M,0.8,0123*66\r\n
$GPGGA,091746.55,5703.3213962,N,00952.3271786,E,2,11,0.8,-2.061,M,40.593,M,0.8,0123*60\r\n
$GPGGA,091746.60,5703.3214180,N,00952.3271575,E,2,11,0.8,-2.060,M,40.593,M,0.8,0123*6A\r\n
$GPGGA,091746.65,5703.3214400,N,00952.3271342,E,2,11,0.8,-2.061,M,40.593,M,1.2,0123*6A\r\n
$GPGGA,091746.70,5703.3214621,N,00952.3271114,E,2,11,0.8,-2.059,M,40.593,M,1.2,0123*65\r\n
$GPGGA,091746.75,5703.3214836,N,00952.3270871,E,2,11,0.8,-2.057,M,40.593,M,1.2,0123*6D\r\n
$GPGGA,091746.80,5703.3215049,N,00952.3270636,E,2,11,0.8,-2.057,M,40.593,M,1.2,0123*6B\r\n
$GPGGA,091746.85,5703.3215261,N,00952.3270408,E,2,11,0.8,-2.057,M,40.593,M,1.5,0123*6E\r\n
$GPGGA,091746.90,5703.3215458,N,00952.3270185,E,2,11,0.8,-2.059,M,40.593,M,1.5,0123*68\r\n
$GPGGA,091746.95,5703.3215650,N,00952.3269979,E,2,11,0.8,-2.061,M,40.593,M,1.5,0123*6F\r\n
$GPGGA,091747.00,5703.3215849,N,00952.3269762,E,2,11,0.8,-2.061,M,40.593,M,1.5,0123*60\r\n
$GPGGA,091747.05,5703.3216042,N,00952.3269519,E,2,11,0.8,-2.065,M,40.593,M,1.7,0123*6D\r\n
$GPGGA,091747.10,5703.3216237,N,00952.3269271,E,2,11,0.8,-2.062,M,40.593,M,1.7,0123*67\r\n
$GPGGA,091747.15,5703.3216442,N,00952.3269040,E,2,11,0.8,-2.060,M,40.593,M,1.7,0123*64\r\n
$GPGGA,091747.20,5703.3216644,N,00952.3268804,E,2,11,0.8,-2.059,M,40.593,M,1.7,0123*65\r\n
$GPGGA,091747.25,5703.3216859,N,00952.3268575,E,2,11,0.8,-2.057,M,40.593,M,2.0,0123*63\r\n
$GPGGA,091747.30,5703.3217055,N,00952.3268360,E,2,11,0.8,-2.058,M,40.593,M,2.0,0123*6F\r\n
$GPGGA,091747.35,5703.3217234,N,00952.3268136,E,2,11,0.8,-2.060,M,40.593,M,2.0,0123*65\r\n
$GPGGA,091747.40,5703.3217409,N,00952.3267905,E,2,11,0.8,-2.059,M,40.593,M,2.0,0123*62\r\n
$GPGGA,091747.45,5703.3217586,N,00952.3267660,E,2,11,0.8,-2.063,M,40.593,M,0.9,0123*6F\r\n
$GPGGA,091747.50,5703.3217767,N,00952.3267433,E,2,11,0.8,-2.064,M,40.593,M,0.9,0123*65\r\n
$GPGGA,091747.55,5703.3217947,N,00952.3267206,E,2,11,0.8,-2.064,M,40.593,M,0.9,0123*6C\r\n
$GPGGA,091747.60,5703.3218123,N,00952.3266973,E,2,11,0.8,-2.063,M,40.593,M,0.9,0123*60\r\n
$GPGGA,091747.65,5703.3218299,N,00952.3266756,E,2,11,0.8,-2.060,M,40.593,M,1.2,0123*67\r\n
$GPGGA,091747.70,5703.3218475,N,00952.3266532,E,2,11,0.8,-2.061,M,40.593,M,1.2,0123*66\r\n
$GPGGA,091747.75,5703.3218648,N,00952.3266308,E,2,11,0.8,-2.061,M,40.593,M,1.2,0123*60\r\n
$GPGGA,091747.80,5703.3218818,N,00952.3266073,E,2,11,0.8,-2.060,M,40.593,M,1.2,0123*6F\r\n
$GPGGA,091747.85,5703.3218979,N,00952.3265844,E,2,11,0.8,-2.064,M,40.593,M,1.5,0123*60\r\n
$GPGGA,091747.90,5703.3219133,N,00952.3265614,E,2,11,0.8,-2.066,M,40.593,M,1.5,0123*6A\r\n
$GPGGA,091747.95,5703.3219285,N,00952.3265379,E,2,11,0.8,-2.066,M,40.593,M,1.5,0123*6F\r\n
$GPGGA,091748.00,5703.3219457,N,00952.3265153,E,2,11,0.8,-2.065,M,40.593,M,1.5,0123*6C\r\n
$GPGGA,091748.05,5703.3219624,N,00952.3264941,E,2,11,0.8,-2.062,M,40.593,M,1.7,0123*60\r\n
$GPGGA,091748.10,5703.3219793,N,00952.3264703,E,2,11,0.8,-2.062,M,40.593,M,1.7,0123*61\r\n
$GPGGA,091748.15,5703.3219966,N,00952.3264480,E,2,11,0.8,-2.064,M,40.593,M,1.7,0123*6E\r\n
$GPGGA,091748.20,5703.3220134,N,00952.3264262,E,2,11,0.8,-2.065,M,40.593,M,1.7,0123*66\r\n
$GPGGA,091748.25,5703.3220289,N,00952.3264043,E,2,11,0.8,-2.065,M,40.593,M,2.0,0123*63\r\n
$GPGGA,091748.30,5703.3220438,N,00952.3263817,E,2,11,0.8,-2.064,M,40.593,M,2.0,0123*64\r\n
$GPGGA,091748.35,5703.3220580,N,00952.3263592,E,2,11,0.8,-2.066,M,40.593,M,2.0,0123*61\r\n
$GPGGA,091748.40,5703.3220725,N,00952.3263358,E,2,11,0.8,-2.065,M,40.593,M,2.0,0123*6D\r\n
$GPGGA,091748.45,5703.3220887,N,00952.3263132,E,2,11,0.8,-2.057,M,40.593,M,0.9,0123*6B\r\n
$GPGGA,091748.50,5703.3221044,N,00952.3262909,E,2,11,0.8,-2.055,M,40.593,M,0.9,0123*6A\r\n
$GPGGA,091748.55,5703.3221185,N,00952.3262696,E,2,11,0.8,-2.057,M,40.593,M,0.9,0123*68\r\n
$GPGGA,091748.60,5703.3221337,N,00952.3262475,E,2,11,0.8,-2.058,M,40.593,M,0.9,0123*65\r\n
$GPGGA,091748.65,5703.3221475,N,00952.3262271,E,2,11,0.8,-2.064,M,40.593,M,1.2,0123*66\r\n
$GPGGA,091748.70,5703.3221615,N,00952.3262055,E,2,11,0.8,-2.060,M,40.593,M,1.2,0123*66\r\n
$GPGGA,091748.75,5703.3221761,N,00952.3261838,E,2,11,0.8,-2.060,M,40.593,M,1.2,0123*61\r\n
$GPGGA,091748.80,5703.3221913,N,00952.3261601,E,2,11,0.8,-2.062,M,40.593,M,1.2,0123*66\r\n
$GPGGA,091748.85,5703.3222048,N,00952.3261392,E,2,11,0.8,-2.066,M,40.593,M,1.5,0123*6B\r\n
$GPGGA,091748.90,5703.3222180,N,00952.3261187,E,2,11,0.8,-2.062,M,40.593,M,1.5,0123*68\r\n
$GPGGA,091748.95,5703.3222317,N,00952.3260976,E,2,11,0.8,-2.061,M,40.593,M,1.5,0123*65\r\n
$GPGGA,091749.00,5703.3222456,N,00952.3260748,E,2,11,0.8,-2.061,M,40.593,M,1.5,0123*69\r\n
$GPGGA,091749.05,5703.3222579,N,00952.3260526,E,2,11,0.8,-2.062,M,40.593,M,1.7,0123*6B\r\n
$GPGGA,091749.10,5703.3222713,N,00952.3260306,E,2,11,0.8,-2.063,M,40.593,M,1.7,0123*64\r\n
$GPGGA,091749.15,5703.3222846,N,00952.3260096,E,2,11,0.8,-2.062,M,40.593,M,1.7,0123*65\r\n
$GPGGA,091749.20,5703.3222986,N,00952.3259890,E,2,11,0.8,-2.061,M,40.593,M,1.7,0123*69\r\n
$GPGGA,091749.25,5703.3223108,N,00952.3259680,E,2,11,0.8,-2.063,M,40.593,M,2.0,0123*6A\r\n
$GPGGA,091749.30,5703.3223229,N,00952.3259468,E,2,11,0.8,-2.065,M,40.593,M,2.0,0123*6C\r\n
$GPGGA,091749.35,5703.3223353,N,00952.3259256,E,2,11,0.8,-2.067,M,40.593,M,2.0,0123*6C\r\n
$GPGGA,091749.40,5703.3223484,N,00952.3259034,E,2,11,0.8,-2.068,M,40.593,M,2.0,0123*6A\r\n
$GPGGA,091749.45,5703.3223614,N,00952.3258823,E,2,11,0.8,-2.064,M,40.593,M,2.2,0123*65\r\n
$GPGGA,091749.50,5703.3223748,N,00952.3258624,E,2,11,0.8,-2.065,M,40.593,M,2.2,0123*61\r\n
$GPGGA,091749.55,5703.3223875,N,00952.3258413,E,2,11,0.8,-2.068,M,40.593,M,2.2,0123*6E\r\n
$GPGGA,091749.60,5703.3223998,N,00952.3258209,E,2,11,0.8,-2.068,M,40.593,M,2.2,0123*67\r\n
$GPGGA,091749.65,5703.3224108,N,00952.3257988,E,2,11,0.8,-2.067,M,40.593,M,2.4,0123*60\r\n
$GPGGA,091749.70,5703.3224229,N,00952.3257766,E,2,11,0.8,-2.067,M,40.593,M,2.4,0123*6A\r\n
$GPGGA,091749.75,5703.3224343,N,00952.3257554,E,2,11,0.8,-2.068,M,40.593,M,2.4,0123*6E\r\n
$GPGGA,091749.80,5703.3224453,N,00952.3257343,E,2,11,0.8,-2.069,M,40.593,M,2.4,0123*63\r\n
$GPGGA,091749.85,5703.3224567,N,00952.3257127,E,2,11,0.8,-2.072,M,40.593,M,2.6,0123*68\r\n
$GPGGA,091749.90,5703.3224683,N,00952.3256919,E,2,11,0.8,-2.074,M,40.593,M,2.6,0123*67\r\n
$GPGGA,091749.95,5703.3224794,N,00952.3256686,E,2,11,0.8,-2.074,M,40.593,M,2.6,0123*6C\r\n
$GPGGA,091750.00,5703.3224904,N,00952.3256467,E,2,11,0.8,-2.075,M,40.593,M,2.6,0123*63\r\n
$GPGGA,091750.05,5703.3225004,N,00952.3256268,E,2,11,0.8,-2.077,M,40.593,M,2.9,0123*6A\r\n
$GPGGA,091750.10,5703.3225113,N,00952.3256071,E,2,11,0.8,-2.076,M,40.593,M,2.9,0123*62\r\n
$GPGGA,091750.15,5703.3225222,N,00952.3255853,E,2,11,0.8,-2.075,M,40.593,M,2.9,0123*6E\r\n
$GPGGA,091750.20,5703.3225336,N,00952.3255639,E,2,11,0.8,-2.076,M,40.593,M,2.9,0123*6D\r\n
$GPGGA,091750.25,5703.3225463,N,00952.3255420,E,2,11,0.8,-2.073,M,40.593,M,3.1,0123*69\r\n
$GPGGA,091750.30,5703.3225569,N,00952.3255208,E,2,11,0.8,-2.073,M,40.593,M,3.1,0123*6A\r\n
$GPGGA,091750.35,5703.3225668,N,00952.3255012,E,2,11,0.8,-2.073,M,40.593,M,3.1,0123*64\r\n
$GPGGA,091750.40,5703.3225775,N,00952.3254805,E,2,11,0.8,-2.073,M,40.593,M,3.1,0123*64\r\n
$GPGGA,091750.45,5703.3225893,N,00952.3254569,E,2,11,0.8,-2.072,M,40.593,M,0.8,0123*6A\r\n
$GPGGA,091750.50,5703.3226013,N,00952.3254357,E,2,11,0.8,-2.072,M,40.593,M,0.8,0123*66\r\n
$GPGGA,091750.55,5703.3226123,N,00952.3254146,E,2,11,0.8,-2.073,M,40.593,M,0.8,0123*62\r\n
$GPGGA,091750.60,5703.3226229,N,00952.3253928,E,2,11,0.8,-2.072,M,40.593,M,0.8,0123*6B\r\n
$GPGGA,091750.65,5703.3226330,N,00952.3253705,E,2,11,0.8,-2.073,M,40.593,M,1.2,0123*6C\r\n
$GPGGA,091750.70,5703.3226423,N,00952.3253489,E,2,11,0.8,-2.072,M,40.593,M,1.2,0123*6B\r\n
$GPGGA,091750.75,5703.3226526,N,00952.3253260,E,2,11,0.8,-2.073,M,40.593,M,1.2,0123*6A\r\n
$GPGGA,091750.80,5703.3226637,N,00952.3253041,E,2,11,0.8,-2.073,M,40.593,M,1.2,0123*62\r\n
$GPGGA,091750.85,5703.3226750,N,00952.3252821,E,2,11,0.8,-2.068,M,40.593,M,1.5,0123*65\r\n
$GPGGA,091750.90,5703.3226855,N,00952.3252605,E,2,11,0.8,-2.067,M,40.593,M,1.5,0123*6C\r\n
$GPGGA,091750.95,5703.3226946,N,00952.3252410,E,2,11,0.8,-2.068,M,40.593,M,1.5,0123*63\r\n
$GPGGA,091751.00,5703.3227055,N,00952.3252174,E,2,11,0.8,-2.068,M,40.593,M,1.5,0123*63\r\n
$GPGGA,091751.05,5703.3227146,N,00952.3251950,E,2,11,0.8,-2.070,M,40.593,M,1.7,0123*63\r\n
$GPGGA,091751.10,5703.3227227,N,00952.3251731,E,2,11,0.8,-2.070,M,40.593,M,1.7,0123*6A\r\n
$GPGGA,091751.15,5703.3227308,N,00952.3251511,E,2,11,0.8,-2.071,M,40.593,M,1.7,0123*62\r\n
$GPGGA,091751.20,5703.3227407,N,00952.3251283,E,2,11,0.8,-2.072,M,40.593,M,1.7,0123*63\r\n
$GPGGA,091751.25,5703.3227497,N,00952.3251071,E,2,11,0.8,-2.075,M,40.593,M,2.0,0123*63\r\n
$GPGGA,091751.30,5703.3227593,N,00952.3250848,E,2,11,0.8,-2.074,M,40.593,M,2.0,0123*60\r\n
$GPGGA,091751.35,5703.3227678,N,00952.3250641,E,2,11,0.8,-2.073,M,40.593,M,2.0,0123*63\r\n
$GPGGA,091751.40,5703.3227772,N,00952.3250420,E,2,11,0.8,-2.073,M,40.593,M,2.0,0123*6F\r\n
$GPGGA,091751.45,5703.3227854,N,00952.3250190,E,2,11,0.8,-2.074,M,40.593,M,0.9,0123*63\r\n
$GPGGA,091751.50,5703.3227938,N,00952.3249964,E,2,11,0.8,-2.074,M,40.593,M,0.9,0123*67\r\n
$GPGGA,091751.55,5703.3228033,N,00952.3249740,E,2,11,0.8,-2.074,M,40.593,M,0.9,0123*67\r\n
$GPGGA,091751.60,5703.3228136,N,00952.3249521,E,2,11,0.8,-2.074,M,40.593,M,0.9,0123*60\r\n
$GPGGA,091751.65,5703.3228238,N,00952.3249299,E,2,11,0.8,-2.074,M,40.593,M,1.2,0123*66\r\n
$GPGGA,091751.70,5703.3228317,N,00952.3249078,E,2,11,0.8,-2.075,M,40.593,M,1.2,0123*62\r\n
$GPGGA,091751.75,5703.3228393,N,00952.3248855,E,2,11,0.8,-2.076,M,40.593,M,1.2,0123*6E\r\n
