$GPGGA,092856.00,5700.9244985,N,00959.1765501,E,1,10,0.8,11.293,M,40.582,M,,*5F\r\n
$GPGGA,092856.05,5700.9244754,N,00959.1765559,E,1,10,0.8,11.282,M,40.582,M,,*55\r\n
$GPGGA,092856.10,5700.9244753,N,00959.1765557,E,1,10,0.8,11.282,M,40.582,M,,*58\r\n
$GPGGA,092856.15,5700.9244753,N,00959.1765556,E,1,10,0.8,11.282,M,40.582,M,,*5C\r\n
$GPGGA,092856.20,5700.9244753,N,00959.1765558,E,1,10,0.8,11.282,M,40.582,M,,*54\r\n
$GPGGA,092856.25,5700.9244759,N,00959.1765556,E,1,10,0.8,11.283,M,40.582,M,,*54\r\n
$GPGGA,092856.30,5700.9244761,N,00959.1765554,E,1,10,0.8,11.283,M,40.582,M,,*59\r\n
$GPGGA,092856.35,5700.9244761,N,00959.1765553,E,1,10,0.8,11.283,M,40.582,M,,*5B\r\n
$GPGGA,092856.40,5700.9244759,N,00959.1765550,E,1,10,0.8,11.283,M,40.582,M,,*51\r\n
$GPGGA,092856.45,5700.9244757,N,00959.1765543,E,1,10,0.8,11.283,M,40.582,M,,*58\r\n
$GPGGA,092856.50,5700.9244758,N,00959.1765544,E,1,10,0.8,11.283,M,40.582,M,,*54\r\n
$GPGGA,092856.55,5700.9244758,N,00959.1765547,E,1,10,0.8,11.283,M,40.582,M,,*52\r\n
$GPGGA,092856.60,5700.9244758,N,00959.1765549,E,1,10,0.8,11.283,M,40.582,M,,*5A\r\n
$GPGGA,092856.65,5700.9244761,N,00959.1765557,E,1,10,0.8,11.282,M,40.582,M,,*5B\r\n
$GPGGA,092856.70,5700.9244762,N,00959.1765555,E,1,10,0.8,11.282,M,40.582,M,,*5E\r\n
$GPGGA,092856.75,5700.9244763,N,00959.1765558,E,1,10,0.8,11.282,M,40.582,M,,*57\r\n
$GPGGA,092856.80,5700.9244763,N,00959.1765556,E,1,10,0.8,11.281,M,40.582,M,,*50\r\n
$GPGGA,092856.85,5700.9244776,N,00959.1765545,E,1,10,0.8,11.282,M,40.582,M,,*50\r\n
$GPGGA,092856.90,5700.9244777,N,00959.1765544,E,1,10,0.8,11.282,M,40.582,M,,*54\r\n
$GPGGA,092856.95,5700.9244778,N,00959.1765544,E,1,10,0.8,11.282,M,40.582,M,,*5E\r\n
$GPGGA,092857.00,5700.9244778,N,00959.1765541,E,1,10,0.8,11.282,M,40.582,M,,*56\r\n
$GPGGA,092857.05,5700.9244558,N,00959.1765586,E,1,10,0.8,11.273,M,40.582,M,,*56\r\n
$GPGGA,092857.10,5700.9244559,N,00959.1765588,E,1,10,0.8,11.273,M,40.582,M,,*5D\r\n
$GPGGA,092857.15,5700.9244560,N,00959.1765582,E,1,10,0.8,11.273,M,40.582,M,,*58\r\n
$GPGGA,092857.20,5700.9244563,N,00959.1765577,E,1,10,0.8,11.273,M,40.582,M,,*57\r\n
$GPGGA,092857.25,5700.9244573,N,00959.1765578,E,1,10,0.8,11.272,M,40.582,M,,*5D\r\n
$GPGGA,092857.30,5700.9244573,N,00959.1765582,E,1,10,0.8,11.272,M,40.582,M,,*5C\r\n
$GPGGA,092857.35,5700.9244572,N,00959.1765585,E,1,10,0.8,11.272,M,40.582,M,,*5F\r\n
$GPGGA,092857.40,5700.9244573,N,00959.1765583,E,1,10,0.8,11.272,M,40.582,M,,*5A\r\n
$GPGGA,092857.45,5700.9244554,N,00959.1765598,E,1,10,0.8,11.273,M,40.582,M,,*51\r\n
$GPGGA,092857.50,5700.9244553,N,00959.1765599,E,1,10,0.8,11.272,M,40.582,M,,*52\r\n
$GPGGA,092857.55,5700.9244553,N,00959.1765598,E,1,10,0.8,11.272,M,40.582,M,,*56\r\n
$GPGGA,092857.60,5700.9244551,N,00959.1765594,E,1,10,0.8,11.272,M,40.582,M,,*5E\r\n
$GPGGA,092857.65,5700.9244531,N,00959.1765584,E,1,10,0.8,11.272,M,40.582,M,,*5C\r\n
$GPGGA,092857.70,5700.9244532,N,00959.1765584,E,1,10,0.8,11.272,M,40.582,M,,*5B\r\n
$GPGGA,092857.75,5700.9244533,N,00959.1765590,E,1,10,0.8,11.272,M,40.582,M,,*5A\r\n
$GPGGA,092857.80,5700.9244532,N,00959.1765594,E,1,10,0.8,11.272,M,40.582,M,,*55\r\n
$GPGGA,092857.85,5700.9244549,N,00959.1765616,E,1,10,0.8,11.272,M,40.582,M,,*55\r\n
$GPGGA,092857.90,5700.9244546,N,00959.1765615,E,1,10,0.8,11.272,M,40.582,M,,*5D\r\n
$GPGGA,092857.95,5700.9244546,N,00959.1765618,E,1,10,0.8,11.272,M,40.582,M,,*55\r\n
$GPGGA,092858.00,5700.9244546,N,00959.1765617,E,1,10,0.8,11.272,M,40.582,M,,*59\r\n
$GPGGA,092858.05,5700.9244326,N,00959.1765645,E,1,10,0.8,11.262,M,40.582,M,,*5A\r\n
$GPGGA,092858.10,5700.9244325,N,00959.1765644,E,1,10,0.8,11.262,M,40.582,M,,*5C\r\n
$GPGGA,092858.15,5700.9244322,N,00959.1765649,E,1,10,0.8,11.261,M,40.582,M,,*50\r\n
$GPGGA,092858.20,5700.9244323,N,00959.1765651,E,1,10,0.8,11.261,M,40.582,M,,*5E\r\n
$GPGGA,092858.25,5700.9244337,N,00959.1765658,E,1,10,0.8,11.261,M,40.582,M,,*57\r\n
$GPGGA,092858.30,5700.9244336,N,00959.1765656,E,1,10,0.8,11.261,M,40.582,M,,*5C\r\n
$GPGGA,092858.35,5700.9244335,N,00959.1765660,E,1,10,0.8,11.261,M,40.582,M,,*5F\r\n
$GPGGA,092858.40,5700.9244334,N,00959.1765660,E,1,10,0.8,11.261,M,40.582,M,,*5C\r\n
$GPGGA,092858.45,5700.9244343,N,00959.1765656,E,1,10,0.8,11.261,M,40.582,M,,*5C\r\n
$GPGGA,092858.50,5700.9244343,N,00959.1765659,E,1,10,0.8,11.261,M,40.582,M,,*57\r\n
$GPGGA,092858.55,5700.9244341,N,00959.1765663,E,1,10,0.8,11.260,M,40.582,M,,*58\r\n
$GPGGA,092858.60,5700.9244339,N,00959.1765669,E,1,10,0.8,11.260,M,40.582,M,,*5B\r\n
$GPGGA,092858.65,5700.9244328,N,00959.1765676,E,1,10,0.8,11.261,M,40.582,M,,*51\r\n
$GPGGA,092858.70,5700.9244328,N,00959.1765678,E,1,10,0.8,11.261,M,40.582,M,,*5B\r\n
$GPGGA,092858.75,5700.9244328,N,00959.1765677,E,1,10,0.8,11.261,M,40.582,M,,*51\r\n
$GPGGA,092858.80,5700.9244324,N,00959.1765674,E,1,10,0.8,11.260,M,40.582,M,,*55\r\n
$GPGGA,092858.85,5700.9244324,N,00959.1765658,E,1,10,0.8,11.261,M,40.582,M,,*5F\r\n
$GPGGA,092858.90,5700.9244324,N,00959.1765658,E,1,10,0.8,11.261,M,40.582,M,,*5B\r\n
$GPGGA,092858.95,5700.9244323,N,00959.1765660,E,1,10,0.8,11.260,M,40.582,M,,*53\r\n
$GPGGA,092859.00,5700.9244321,N,00959.1765659,E,1,10,0.8,11.260,M,40.582,M,,*56\r\n
$GPGGA,092859.05,5700.9244106,N,00959.1765705,E,1,10,0.8,11.251,M,40.582,M,,*5E\r\n
$GPGGA,092859.10,5700.9244105,N,00959.1765706,E,1,10,0.8,11.251,M,40.582,M,,*5A\r\n
$GPGGA,092859.15,5700.9244106,N,00959.1765708,E,1,10,0.8,11.251,M,40.582,M,,*52\r\n
$GPGGA,092859.20,5700.9244105,N,00959.1765706,E,1,10,0.8,11.251,M,40.582,M,,*59\r\n
$GPGGA,092859.25,5700.9244113,N,00959.1765707,E,1,10,0.8,11.251,M,40.582,M,,*5A\r\n
$GPGGA,092859.30,5700.9244113,N,00959.1765705,E,1,10,0.8,11.251,M,40.582,M,,*5C\r\n
$GPGGA,092859.35,5700.9244113,N,00959.1765705,E,1,10,0.8,11.251,M,40.582,M,,*59\r\n
$GPGGA,092859.40,5700.9244113,N,00959.1765707,E,1,10,0.8,11.251,M,40.582,M,,*59\r\n
$GPGGA,092859.45,5700.9244112,N,00959.1765704,E,1,10,0.8,11.251,M,40.582,M,,*5E\r\n
$GPGGA,092859.50,5700.9244112,N,00959.1765701,E,1,10,0.8,11.250,M,40.582,M,,*5E\r\n
$GPGGA,092859.55,5700.9244112,N,00959.1765699,E,1,10,0.8,11.250,M,40.582,M,,*5B\r\n
$GPGGA,092859.60,5700.9244111,N,00959.1765704,E,1,10,0.8,11.250,M,40.582,M,,*5B\r\n
$GPGGA,092859.65,5700.9244116,N,00959.1765712,E,1,10,0.8,11.250,M,40.582,M,,*5E\r\n
$GPGGA,092859.70,5700.9244116,N,00959.1765714,E,1,10,0.8,11.250,M,40.582,M,,*5C\r\n
$GPGGA,092859.75,5700.9244115,N,00959.1765711,E,1,10,0.8,11.250,M,40.582,M,,*5F\r\n
$GPGGA,092859.80,5700.9244116,N,00959.1765709,E,1,10,0.8,11.250,M,40.582,M,,*5F\r\n
$GPGGA,092859.85,5700.9244132,N,00959.1765711,E,1,10,0.8,11.252,M,40.582,M,,*57\r\n
$GPGGA,092859.90,5700.9244132,N,00959.1765714,E,1,10,0.8,11.252,M,40.582,M,,*56\r\n
$GPGGA,092859.95,5700.9244132,N,00959.1765716,E,1,10,0.8,11.252,M,40.582,M,,*51\r\n
$GPGGA,092900.00,5700.9244133,N,00959.1765711,E,1,10,0.8,11.252,M,40.582,M,,*56\r\n
$GPGGA,092900.05,5700.9243909,N,00959.1765753,E,1,10,0.8,11.241,M,40.582,M,,*51\r\n
$GPGGA,092900.10,5700.9243910,N,00959.1765755,E,1,10,0.8,11.241,M,40.582,M,,*5B\r\n
$GPGGA,092900.15,5700.9243910,N,00959.1765754,E,1,10,0.8,11.241,M,40.582,M,,*5F\r\n
$GPGGA,092900.20,5700.9243911,N,00959.1765752,E,1,10,0.8,11.241,M,40.582,M,,*5E\r\n
$GPGGA,092900.25,5700.9243910,N,00959.1765750,E,1,10,0.8,11.241,M,40.582,M,,*58\r\n
$GPGGA,092900.30,5700.9243911,N,00959.1765751,E,1,10,0.8,11.241,M,40.582,M,,*5C\r\n
$GPGGA,092900.35,5700.9243910,N,00959.1765749,E,1,10,0.8,11.241,M,40.582,M,,*51\r\n
$GPGGA,092900.40,5700.9243910,N,00959.1765751,E,1,10,0.8,11.241,M,40.582,M,,*5A\r\n
$GPGGA,092900.45,5700.9243910,N,00959.1765758,E,1,10,0.8,11.242,M,40.582,M,,*55\r\n
$GPGGA,092900.50,5700.9243912,N,00959.1765755,E,1,10,0.8,11.242,M,40.582,M,,*5E\r\n
$GPGGA,092900.55,5700.9243911,N,00959.1765748,E,1,10,0.8,11.242,M,40.582,M,,*54\r\n
$GPGGA,092900.60,5700.9243912,N,00959.1765751,E,1,10,0.8,11.242,M,40.582,M,,*59\r\n
$GPGGA,092900.65,5700.9243917,N,00959.1765743,E,1,10,0.8,11.240,M,40.582,M,,*58\r\n
$GPGGA,092900.70,5700.9243919,N,00959.1765746,E,1,10,0.8,11.240,M,40.582,M,,*57\r\n
$GPGGA,092900.75,5700.9243919,N,00959.1765742,E,1,10,0.8,11.240,M,40.582,M,,*56\r\n
$GPGGA,092900.80,5700.9243920,N,00959.1765733,E,1,10,0.8,11.240,M,40.582,M,,*50\r\n
$GPGGA,092900.85,5700.9243937,N,00959.1765730,E,1,10,0.8,11.241,M,40.582,M,,*51\r\n
$GPGGA,092900.90,5700.9243937,N,00959.1765734,E,1,10,0.8,11.241,M,40.582,M,,*51\r\n
$GPGGA,092900.95,5700.9243941,N,00959.1765739,E,1,10,0.8,11.241,M,40.582,M,,*58\r\n
$GPGGA,092901.00,5700.9243939,N,00959.1765739,E,1,10,0.8,11.241,M,40.582,M,,*5A\r\n
$GPGGA,092901.05,5700.9243709,N,00959.1765807,E,1,10,0.8,11.230,M,40.582,M,,*56\r\n
$GPGGA,092901.10,5700.9243712,N,00959.1765805,E,1,10,0.8,11.230,M,40.582,M,,*5A\r\n
$GPGGA,092901.15,5700.9243718,N,00959.1765802,E,1,10,0.8,11.230,M,40.582,M,,*52\r\n
$GPGGA,092901.20,5700.9243720,N,00959.1765801,E,1,10,0.8,11.230,M,40.582,M,,*5C\r\n
$GPGGA,092901.25,5700.9243749,N,00959.1765785,E,1,10,0.8,11.233,M,40.582,M,,*56\r\n
$GPGGA,092901.30,5700.9243747,N,00959.1765785,E,1,10,0.8,11.233,M,40.582,M,,*5C\r\n
$GPGGA,092901.35,5700.9243748,N,00959.1765783,E,1,10,0.8,11.233,M,40.582,M,,*50\r\n
$GPGGA,092901.40,5700.9243751,N,00959.1765782,E,1,10,0.8,11.233,M,40.582,M,,*5B\r\n
$GPGGA,092901.45,5700.9243718,N,00959.1765775,E,1,10,0.8,11.233,M,40.582,M,,*5B\r\n
$GPGGA,092901.50,5700.9243720,N,00959.1765773,E,1,10,0.8,11.233,M,40.582,M,,*52\r\n
$GPGGA,092901.55,5700.9243720,N,00959.1765775,E,1,10,0.8,11.233,M,40.582,M,,*51\r\n
$GPGGA,092901.60,5700.9243720,N,00959.1765776,E,1,10,0.8,11.233,M,40.582,M,,*54\r\n
$GPGGA,092901.65,5700.9243733,N,00959.1765790,E,1,10,0.8,11.231,M,40.582,M,,*59\r\n
$GPGGA,092901.70,5700.9243733,N,00959.1765788,E,1,10,0.8,11.231,M,40.582,M,,*54\r\n
$GPGGA,092901.75,5700.9243732,N,00959.1765787,E,1,10,0.8,11.231,M,40.582,M,,*5F\r\n
$GPGGA,092901.80,5700.9243731,N,00959.1765789,E,1,10,0.8,11.231,M,40.582,M,,*58\r\n
$GPGGA,092901.85,5700.9243717,N,00959.1765785,E,1,10,0.8,11.231,M,40.582,M,,*55\r\n
$GPGGA,092901.90,5700.9243716,N,00959.1765784,E,1,10,0.8,11.231,M,40.582,M,,*51\r\n
$GPGGA,092901.95,5700.9243716,N,00959.1765784,E,1,10,0.8,11.231,M,40.582,M,,*54\r\n
$GPGGA,092902.00,5700.9243716,N,00959.1765780,E,1,10,0.8,11.231,M,40.582,M,,*5F\r\n
$GPGGA,092902.05,5700.9243517,N,00959.1765810,E,1,10,0.8,11.222,M,40.582,M,,*5D\r\n
$GPGGA,092902.10,5700.9243517,N,00959.1765810,E,1,10,0.8,11.222,M,40.582,M,,*59\r\n
$GPGGA,092902.15,5700.9243515,N,00959.1765811,E,1,10,0.8,11.222,M,40.582,M,,*5F\r\n
$GPGGA,092902.20,5700.9243513,N,00959.1765812,E,1,10,0.8,11.222,M,40.582,M,,*5C\r\n
$GPGGA,092902.25,5700.9243509,N,00959.1765825,E,1,10,0.8,11.222,M,40.582,M,,*56\r\n
$GPGGA,092902.30,5700.9243509,N,00959.1765826,E,1,10,0.8,11.222,M,40.582,M,,*51\r\n
$GPGGA,092902.35,5700.9243508,N,00959.1765822,E,1,10,0.8,11.222,M,40.582,M,,*51\r\n
$GPGGA,092902.40,5700.9243506,N,00959.1765822,E,1,10,0.8,11.222,M,40.582,M,,*5D\r\n
$GPGGA,092902.45,5700.9243512,N,00959.1765815,E,1,10,0.8,11.222,M,40.582,M,,*59\r\n
$GPGGA,092902.50,5700.9243510,N,00959.1765817,E,1,10,0.8,11.221,M,40.582,M,,*5E\r\n
$GPGGA,092902.55,5700.9243508,N,00959.1765815,E,1,10,0.8,11.221,M,40.582,M,,*50\r\n
$GPGGA,092902.60,5700.9243507,N,00959.1765813,E,1,10,0.8,11.221,M,40.582,M,,*5F\r\n
$GPGGA,092902.65,5700.9243499,N,00959.1765812,E,1,10,0.8,11.221,M,40.582,M,,*5D\r\n
$GPGGA,092902.70,5700.9243498,N,00959.1765815,E,1,10,0.8,11.221,M,40.582,M,,*5F\r\n
$GPGGA,092902.75,5700.9243498,N,00959.1765813,E,1,10,0.8,11.221,M,40.582,M,,*5C\r\n
$GPGGA,092902.80,5700.9243499,N,00959.1765809,E,1,10,0.8,11.221,M,40.582,M,,*5C\r\n
$GPGGA,092902.85,5700.9243541,N,00959.1765827,E,1,10,0.8,11.223,M,40.582,M,,*53\r\n
$GPGGA,092902.90,5700.9243542,N,00959.1765831,E,1,10,0.8,11.223,M,40.582,M,,*53\r\n
$GPGGA,092902.95,5700.9243544,N,00959.1765833,E,1,10,0.8,11.223,M,40.582,M,,*52\r\n
$GPGGA,092903.00,5700.9243545,N,00959.1765834,E,1,10,0.8,11.223,M,40.582,M,,*59\r\n
$GPGGA,092903.05,5700.9243336,N,00959.1765884,E,1,10,0.8,11.212,M,40.582,M,,*57\r\n
$GPGGA,092903.10,5700.9243334,N,00959.1765885,E,1,10,0.8,11.212,M,40.582,M,,*50\r\n
$GPGGA,092903.15,5700.9243336,N,00959.1765887,E,1,10,0.8,11.212,M,40.582,M,,*55\r\n
$GPGGA,092903.20,5700.9243337,N,00959.1765892,E,1,10,0.8,11.212,M,40.582,M,,*56\r\n
$GPGGA,092903.25,5700.9243314,N,00959.1765883,E,1,10,0.8,11.211,M,40.582,M,,*51\r\n
$GPGGA,092903.30,5700.9243314,N,00959.1765886,E,1,10,0.8,11.211,M,40.582,M,,*50\r\n
$GPGGA,092903.35,5700.9243314,N,00959.1765886,E,1,10,0.8,11.211,M,40.582,M,,*55\r\n
$GPGGA,092903.40,5700.9243313,N,00959.1765886,E,1,10,0.8,11.211,M,40.582,M,,*50\r\n
$GPGGA,092903.45,5700.9243331,N,00959.1765875,E,1,10,0.8,11.212,M,40.582,M,,*5A\r\n
$GPGGA,092903.50,5700.9243331,N,00959.1765880,E,1,10,0.8,11.212,M,40.582,M,,*54\r\n
$GPGGA,092903.55,5700.9243331,N,00959.1765885,E,1,10,0.8,11.212,M,40.582,M,,*54\r\n
$GPGGA,092903.60,5700.9243332,N,00959.1765882,E,1,10,0.8,11.212,M,40.582,M,,*56\r\n
$GPGGA,092903.65,5700.9243334,N,00959.1765886,E,1,10,0.8,11.213,M,40.582,M,,*50\r\n
$GPGGA,092903.70,5700.9243334,N,00959.1765890,E,1,10,0.8,11.213,M,40.582,M,,*53\r\n
$GPGGA,092903.75,5700.9243335,N,00959.1765891,E,1,10,0.8,11.213,M,40.582,M,,*56\r\n
$GPGGA,092903.80,5700.9243336,N,00959.1765892,E,1,10,0.8,11.213,M,40.582,M,,*5C\r\n
$GPGGA,092903.85,5700.9243333,N,00959.1765893,E,1,10,0.8,11.214,M,40.582,M,,*5A\r\n
$GPGGA,092903.90,5700.9243334,N,00959.1765892,E,1,10,0.8,11.214,M,40.582,M,,*58\r\n
$GPGGA,092903.95,5700.9243335,N,00959.1765892,E,1,10,0.8,11.214,M,40.582,M,,*5C\r\n
$GPGGA,092904.00,5700.9243337,N,00959.1765892,E,1,10,0.8,11.214,M,40.582,M,,*55\r\n
$GPGGA,092904.05,5700.9243143,N,00959.1765919,E,1,10,0.8,11.204,M,40.582,M,,*52\r\n
$GPGGA,092904.10,5700.9243144,N,00959.1765917,E,1,10,0.8,11.204,M,40.582,M,,*5F\r\n
$GPGGA,092904.15,5700.9243144,N,00959.1765920,E,1,10,0.8,11.204,M,40.582,M,,*5E\r\n
$GPGGA,092904.20,5700.9243145,N,00959.1765922,E,1,10,0.8,11.204,M,40.582,M,,*5B\r\n
$GPGGA,092904.25,5700.9243145,N,00959.1765933,E,1,10,0.8,11.205,M,40.582,M,,*5F\r\n
$GPGGA,092904.30,5700.9243147,N,00959.1765932,E,1,10,0.8,11.205,M,40.582,M,,*58\r\n
$GPGGA,092904.35,5700.9243149,N,00959.1765933,E,1,10,0.8,11.205,M,40.582,M,,*52\r\n
$GPGGA,092904.40,5700.9243149,N,00959.1765935,E,1,10,0.8,11.205,M,40.582,M,,*56\r\n
$GPGGA,092904.45,5700.9243159,N,00959.1765928,E,1,10,0.8,11.204,M,40.582,M,,*5F\r\n
$GPGGA,092904.50,5700.9243160,N,00959.1765930,E,1,10,0.8,11.204,M,40.582,M,,*58\r\n
$GPGGA,092904.55,5700.9243160,N,00959.1765929,E,1,10,0.8,11.204,M,40.582,M,,*55\r\n
$GPGGA,092904.60,5700.9243159,N,00959.1765930,E,1,10,0.8,11.204,M,40.582,M,,*51\r\n
$GPGGA,092904.65,5700.9243142,N,00959.1765934,E,1,10,0.8,11.204,M,40.582,M,,*5A\r\n
$GPGGA,092904.70,5700.9243142,N,00959.1765935,E,1,10,0.8,11.204,M,40.582,M,,*5F\r\n
$GPGGA,092904.75,5700.9243143,N,00959.1765936,E,1,10,0.8,11.204,M,40.582,M,,*58\r\n
$GPGGA,092904.80,5700.9243142,N,00959.1765937,E,1,10,0.8,11.205,M,40.582,M,,*53\r\n
$GPGGA,092904.85,5700.9243142,N,00959.1765932,E,1,10,0.8,11.204,M,40.582,M,,*52\r\n
$GPGGA,092904.90,5700.9243142,N,00959.1765931,E,1,10,0.8,11.204,M,40.582,M,,*55\r\n
$GPGGA,092904.95,5700.9243143,N,00959.1765934,E,1,10,0.8,11.204,M,40.582,M,,*54\r\n
$GPGGA,092905.00,5700.9243142,N,00959.1765936,E,1,10,0.8,11.204,M,40.582,M,,*5A\r\n
$GPGGA,092905.05,5700.9242960,N,00959.1765980,E,1,10,0.8,11.195,M,40.582,M,,*50\r\n
$GPGGA,092905.10,5700.9242960,N,00959.1765978,E,1,10,0.8,11.195,M,40.582,M,,*53\r\n
$GPGGA,092905.15,5700.9242961,N,00959.1765981,E,1,10,0.8,11.195,M,40.582,M,,*51\r\n
$GPGGA,092905.20,5700.9242961,N,00959.1765980,E,1,10,0.8,11.195,M,40.582,M,,*56\r\n
$GPGGA,092905.25,5700.9242944,N,00959.1765967,E,1,10,0.8,11.194,M,40.582,M,,*5C\r\n
$GPGGA,092905.30,5700.9242943,N,00959.1765966,E,1,10,0.8,11.194,M,40.582,M,,*5E\r\n
$GPGGA,092905.35,5700.9242942,N,00959.1765961,E,1,10,0.8,11.194,M,40.582,M,,*5D\r\n
$GPGGA,092905.40,5700.9242941,N,00959.1765962,E,1,10,0.8,11.194,M,40.582,M,,*5F\r\n
$GPGGA,092905.45,5700.9242949,N,00959.1765961,E,1,10,0.8,11.195,M,40.582,M,,*50\r\n
$GPGGA,092905.50,5700.9242947,N,00959.1765962,E,1,10,0.8,11.195,M,40.582,M,,*59\r\n
$GPGGA,092905.55,5700.9242948,N,00959.1765961,E,1,10,0.8,11.195,M,40.582,M,,*50\r\n
$GPGGA,092905.60,5700.9242949,N,00959.1765962,E,1,10,0.8,11.195,M,40.582,M,,*54\r\n
$GPGGA,092905.65,5700.9242958,N,00959.1765974,E,1,10,0.8,11.196,M,40.582,M,,*55\r\n
$GPGGA,092905.70,5700.9242960,N,00959.1765976,E,1,10,0.8,11.196,M,40.582,M,,*58\r\n
$GPGGA,092905.75,5700.9242961,N,00959.1765976,E,1,10,0.8,11.196,M,40.582,M,,*5C\r\n
$GPGGA,092905.80,5700.9242956,N,00959.1765974,E,1,10,0.8,11.196,M,40.582,M,,*50\r\n
$GPGGA,092905.85,5700.9242948,N,00959.1765974,E,1,10,0.8,11.196,M,40.582,M,,*5A\r\n
$GPGGA,092905.90,5700.9242951,N,00959.1765971,E,1,10,0.8,11.196,M,40.582,M,,*53\r\n
$GPGGA,092905.95,5700.9242953,N,00959.1765972,E,1,10,0.8,11.196,M,40.582,M,,*57\r\n
$GPGGA,092906.00,5700.9242954,N,00959.1765975,E,1,10,0.8,11.196,M,40.582,M,,*58\r\n
$GPGGA,092906.05,5700.9242797,N,00959.1766009,E,1,10,0.8,11.186,M,40.582,M,,*5C\r\n
$GPGGA,092906.10,5700.9242794,N,00959.1766010,E,1,10,0.8,11.186,M,40.582,M,,*53\r\n
$GPGGA,092906.15,5700.9242790,N,00959.1766010,E,1,10,0.8,11.187,M,40.582,M,,*53\r\n
$GPGGA,092906.20,5700.9242789,N,00959.1766006,E,1,10,0.8,11.187,M,40.582,M,,*5A\r\n
$GPGGA,092906.25,5700.9242704,N,00959.1766000,E,1,10,0.8,11.184,M,40.582,M,,*5F\r\n
$GPGGA,092906.30,5700.9242705,N,00959.1766002,E,1,10,0.8,11.184,M,40.582,M,,*58\r\n
$GPGGA,092906.35,5700.9242702,N,00959.1766007,E,1,10,0.8,11.184,M,40.582,M,,*5F\r\n
$GPGGA,092906.40,5700.9242704,N,00959.1766006,E,1,10,0.8,11.184,M,40.582,M,,*5A\r\n
$GPGGA,092906.45,5700.9242771,N,00959.1766018,E,1,10,0.8,11.187,M,40.582,M,,*51\r\n
$GPGGA,092906.50,5700.9242771,N,00959.1766017,E,1,10,0.8,11.187,M,40.582,M,,*5A\r\n
$GPGGA,092906.55,5700.9242775,N,00959.1766021,E,1,10,0.8,11.187,M,40.582,M,,*5E\r\n
$GPGGA,092906.60,5700.9242780,N,00959.1766021,E,1,10,0.8,11.188,M,40.582,M,,*5D\r\n
$GPGGA,092906.65,5700.9242798,N,00959.1766007,E,1,10,0.8,11.185,M,40.582,M,,*58\r\n
$GPGGA,092906.70,5700.9242797,N,00959.1766001,E,1,10,0.8,11.185,M,40.582,M,,*55\r\n
$GPGGA,092906.75,5700.9242799,N,00959.1766003,E,1,10,0.8,11.185,M,40.582,M,,*5C\r\n
$GPGGA,092906.80,5700.9242804,N,00959.1766008,E,1,10,0.8,11.185,M,40.582,M,,*56\r\n
$GPGGA,092906.85,5700.9242769,N,00959.1766015,E,1,10,0.8,11.184,M,40.582,M,,*5A\r\n
$GPGGA,092906.90,5700.9242768,N,00959.1766013,E,1,10,0.8,11.184,M,40.582,M,,*59\r\n
$GPGGA,092906.95,5700.9242768,N,00959.1766016,E,1,10,0.8,11.184,M,40.582,M,,*59\r\n
$GPGGA,092907.00,5700.9242767,N,00959.1766013,E,1,10,0.8,11.184,M,40.582,M,,*5E\r\n
$GPGGA,092907.05,5700.9242588,N,00959.1766036,E,1,10,0.8,11.177,M,40.582,M,,*53\r\n
$GPGGA,092907.10,5700.9242588,N,00959.1766040,E,1,10,0.8,11.177,M,40.582,M,,*56\r\n
$GPGGA,092907.15,5700.9242586,N,00959.1766040,E,1,10,0.8,11.177,M,40.582,M,,*5D\r\n
$GPGGA,092907.20,5700.9242588,N,00959.1766044,E,1,10,0.8,11.177,M,40.582,M,,*51\r\n
$GPGGA,092907.25,5700.9242586,N,00959.1766062,E,1,10,0.8,11.175,M,40.582,M,,*5C\r\n
$GPGGA,092907.30,5700.9242584,N,00959.1766058,E,1,10,0.8,11.175,M,40.582,M,,*53\r\n
$GPGGA,092907.35,5700.9242583,N,00959.1766053,E,1,10,0.8,11.175,M,40.582,M,,*5A\r\n
$GPGGA,092907.40,5700.9242582,N,00959.1766053,E,1,10,0.8,11.175,M,40.582,M,,*59\r\n
$GPGGA,092907.45,5700.9242573,N,00959.1766025,E,1,10,0.8,11.174,M,40.582,M,,*52\r\n
$GPGGA,092907.50,5700.9242574,N,00959.1766028,E,1,10,0.8,11.174,M,40.582,M,,*5C\r\n
$GPGGA,092907.55,5700.9242572,N,00959.1766031,E,1,10,0.8,11.174,M,40.582,M,,*57\r\n
$GPGGA,092907.60,5700.9242569,N,00959.1766029,E,1,10,0.8,11.174,M,40.582,M,,*52\r\n
$GPGGA,092907.65,5700.9242585,N,00959.1766052,E,1,10,0.8,11.175,M,40.582,M,,*58\r\n
$GPGGA,092907.70,5700.9242585,N,00959.1766052,E,1,10,0.8,11.175,M,40.582,M,,*5C\r\n
$GPGGA,092907.75,5700.9242584,N,00959.1766055,E,1,10,0.8,11.175,M,40.582,M,,*5F\r\n
$GPGGA,092907.80,5700.9242583,N,00959.1766053,E,1,10,0.8,11.175,M,40.582,M,,*54\r\n
$GPGGA,092907.85,5700.9242582,N,00959.1766045,E,1,10,0.8,11.174,M,40.582,M,,*56\r\n
$GPGGA,092907.90,5700.9242582,N,00959.1766047,E,1,10,0.8,11.173,M,40.582,M,,*57\r\n
$GPGGA,092907.95,5700.9242582,N,00959.1766048,E,1,10,0.8,11.173,M,40.582,M,,*5D\r\n
$GPGGA,092908.00,5700.9242583,N,00959.1766046,E,1,10,0.8,11.173,M,40.582,M,,*51\r\n
$GPGGA,092908.05,5700.9242426,N,00959.1766084,E,1,10,0.8,11.167,M,40.582,M,,*51\r\n
$GPGGA,092908.10,5700.9242426,N,00959.1766087,E,1,10,0.8,11.167,M,40.582,M,,*56\r\n
$GPGGA,092908.15,5700.9242426,N,00959.1766084,E,1,10,0.8,11.167,M,40.582,M,,*50\r\n
$GPGGA,092908.20,5700.9242427,N,00959.1766082,E,1,10,0.8,11.167,M,40.582,M,,*51\r\n
$GPGGA,092908.25,5700.9242389,N,00959.1766075,E,1,10,0.8,11.167,M,40.582,M,,*5F\r\n
$GPGGA,092908.30,5700.9242390,N,00959.1766078,E,1,10,0.8,11.167,M,40.582,M,,*5E\r\n
$GPGGA,092908.35,5700.9242390,N,00959.1766080,E,1,10,0.8,11.167,M,40.582,M,,*5C\r\n
$GPGGA,092908.40,5700.9242388,N,00959.1766077,E,1,10,0.8,11.167,M,40.582,M,,*5F\r\n
$GPGGA,092908.45,5700.9242398,N,00959.1766087,E,1,10,0.8,11.165,M,40.582,M,,*56\r\n
$GPGGA,092908.50,5700.9242397,N,00959.1766088,E,1,10,0.8,11.165,M,40.582,M,,*52\r\n
$GPGGA,092908.55,5700.9242395,N,00959.1766091,E,1,10,0.8,11.165,M,40.582,M,,*5D\r\n
$GPGGA,092908.60,5700.9242395,N,00959.1766088,E,1,10,0.8,11.165,M,40.582,M,,*53\r\n
$GPGGA,092908.65,5700.9242394,N,00959.1766088,E,1,10,0.8,11.167,M,40.582,M,,*55\r\n
$GPGGA,092908.70,5700.9242395,N,00959.1766088,E,1,10,0.8,11.167,M,40.582,M,,*50\r\n
$GPGGA,092908.75,5700.9242396,N,00959.1766087,E,1,10,0.8,11.167,M,40.582,M,,*59\r\n
$GPGGA,092908.80,5700.9242395,N,00959.1766090,E,1,10,0.8,11.167,M,40.582,M,,*56\r\n
$GPGGA,092908.85,5700.9242407,N,00959.1766087,E,1,10,0.8,11.165,M,40.582,M,,*5B\r\n
$GPGGA,092908.90,5700.9242408,N,00959.1766090,E,1,10,0.8,11.165,M,40.582,M,,*56\r\n
$GPGGA,092908.95,5700.9242409,N,00959.1766091,E,1,10,0.8,11.165,M,40.582,M,,*53\r\n
$GPGGA,092909.00,5700.9242408,N,00959.1766086,E,1,10,0.8,11.165,M,40.582,M,,*59\r\n
$GPGGA,092909.05,5700.9242225,N,00959.1766127,E,1,10,0.8,11.159,M,40.582,M,,*50\r\n
$GPGGA,092909.10,5700.9242224,N,00959.1766132,E,1,10,0.8,11.159,M,40.582,M,,*51\r\n
$GPGGA,092909.15,5700.9242226,N,00959.1766132,E,1,10,0.8,11.159,M,40.582,M,,*56\r\n
$GPGGA,092909.20,5700.9242231,N,00959.1766131,E,1,10,0.8,11.159,M,40.582,M,,*55\r\n
$GPGGA,092909.25,5700.9242235,N,00959.1766128,E,1,10,0.8,11.155,M,40.582,M,,*50\r\n
$GPGGA,092909.30,5700.9242235,N,00959.1766128,E,1,10,0.8,11.155,M,40.582,M,,*54\r\n
$GPGGA,092909.35,5700.9242236,N,00959.1766124,E,1,10,0.8,11.155,M,40.582,M,,*5E\r\n
$GPGGA,092909.40,5700.9242239,N,00959.1766119,E,1,10,0.8,11.155,M,40.582,M,,*5D\r\n
$GPGGA,092909.45,5700.9242222,N,00959.1766099,E,1,10,0.8,11.154,M,40.582,M,,*5A\r\n
$GPGGA,092909.50,5700.9242223,N,00959.1766100,E,1,10,0.8,11.154,M,40.582,M,,*5E\r\n
$GPGGA,092909.55,5700.9242224,N,00959.1766105,E,1,10,0.8,11.154,M,40.582,M,,*59\r\n
$GPGGA,092909.60,5700.9242224,N,00959.1766107,E,1,10,0.8,11.154,M,40.582,M,,*5D\r\n
$GPGGA,092909.65,5700.9242242,N,00959.1766144,E,1,10,0.8,11.156,M,40.582,M,,*5D\r\n
$GPGGA,092909.70,5700.9242244,N,00959.1766145,E,1,10,0.8,11.155,M,40.582,M,,*5D\r\n
$GPGGA,092909.75,5700.9242247,N,00959.1766145,E,1,10,0.8,11.155,M,40.582,M,,*5B\r\n
$GPGGA,092909.80,5700.9242249,N,00959.1766143,E,1,10,0.8,11.155,M,40.582,M,,*59\r\n
$GPGGA,092909.85,5700.9242256,N,00959.1766117,E,1,10,0.8,11.155,M,40.582,M,,*53\r\n
$GPGGA,092909.90,5700.9242255,N,00959.1766115,E,1,10,0.8,11.155,M,40.582,M,,*56\r\n
$GPGGA,092909.95,5700.9242255,N,00959.1766116,E,1,10,0.8,11.155,M,40.582,M,,*50\r\n
$GPGGA,092910.00,5700.9242258,N,00959.1766118,E,1,10,0.8,11.155,M,40.582,M,,*57\r\n
$GPGGA,092910.05,5700.9242048,N,00959.1766162,E,1,10,0.8,11.148,M,40.582,M,,*50\r\n
$GPGGA,092910.10,5700.9242049,N,00959.1766163,E,1,10,0.8,11.149,M,40.582,M,,*55\r\n
$GPGGA,092910.15,5700.9242048,N,00959.1766158,E,1,10,0.8,11.149,M,40.582,M,,*59\r\n
$GPGGA,092910.20,5700.9242049,N,00959.1766154,E,1,10,0.8,11.149,M,40.582,M,,*52\r\n
$GPGGA,092910.25,5700.9242071,N,00959.1766140,E,1,10,0.8,11.147,M,40.582,M,,*57\r\n
$GPGGA,092910.30,5700.9242071,N,00959.1766139,E,1,10,0.8,11.147,M,40.582,M,,*5D\r\n
$GPGGA,092910.35,5700.9242072,N,00959.1766137,E,1,10,0.8,11.147,M,40.582,M,,*55\r\n
$GPGGA,092910.40,5700.9242073,N,00959.1766135,E,1,10,0.8,11.147,M,40.582,M,,*54\r\n
$GPGGA,092910.45,5700.9242065,N,00959.1766149,E,1,10,0.8,11.148,M,40.582,M,,*52\r\n
$GPGGA,092910.50,5700.9242065,N,00959.1766149,E,1,10,0.8,11.148,M,40.582,M,,*56\r\n
$GPGGA,092910.55,5700.9242065,N,00959.1766151,E,1,10,0.8,11.149,M,40.582,M,,*5B\r\n
$GPGGA,092910.60,5700.9242066,N,00959.1766150,E,1,10,0.8,11.149,M,40.582,M,,*5F\r\n
$GPGGA,092910.65,5700.9242065,N,00959.1766156,E,1,10,0.8,11.148,M,40.582,M,,*5E\r\n
$GPGGA,092910.70,5700.9242067,N,00959.1766156,E,1,10,0.8,11.149,M,40.582,M,,*59\r\n
$GPGGA,092910.75,5700.9242069,N,00959.1766157,E,1,10,0.8,11.149,M,40.582,M,,*53\r\n
$GPGGA,092910.80,5700.9242070,N,00959.1766158,E,1,10,0.8,11.149,M,40.582,M,,*5E\r\n
$GPGGA,092910.85,5700.9242101,N,00959.1766159,E,1,10,0.8,11.150,M,40.582,M,,*55\r\n
$GPGGA,092910.90,5700.9242101,N,00959.1766164,E,1,10,0.8,11.150,M,40.582,M,,*5F\r\n
$GPGGA,092910.95,5700.9242101,N,00959.1766161,E,1,10,0.8,11.150,M,40.582,M,,*5F\r\n
$GPGGA,092911.00,5700.9242103,N,00959.1766162,E,1,10,0.8,11.151,M,40.582,M,,*52\r\n
$GPGGA,092911.05,5700.9241873,N,00959.1766200,E,1,10,0.8,11.141,M,40.582,M,,*5C\r\n
$GPGGA,092911.10,5700.9241874,N,00959.1766199,E,1,10,0.8,11.141,M,40.582,M,,*5C\r\n
$GPGGA,092911.15,5700.9241876,N,00959.1766197,E,1,10,0.8,11.141,M,40.582,M,,*55\r\n
$GPGGA,092911.20,5700.9241877,N,00959.1766196,E,1,10,0.8,11.142,M,40.582,M,,*50\r\n
$GPGGA,092911.25,5700.9241931,N,00959.1766181,E,1,10,0.8,11.141,M,40.582,M,,*53\r\n
$GPGGA,092911.30,5700.9241932,N,00959.1766183,E,1,10,0.8,11.141,M,40.582,M,,*56\r\n
$GPGGA,092911.35,5700.9241936,N,00959.1766184,E,1,10,0.8,11.141,M,40.582,M,,*50\r\n
$GPGGA,092911.40,5700.9241938,N,00959.1766186,E,1,10,0.8,11.141,M,40.582,M,,*5E\r\n
$GPGGA,092911.45,5700.9241911,N,00959.1766199,E,1,10,0.8,11.142,M,40.582,M,,*5D\r\n
$GPGGA,092911.50,5700.9241913,N,00959.1766196,E,1,10,0.8,11.142,M,40.582,M,,*54\r\n
$GPGGA,092911.55,5700.9241913,N,00959.1766200,E,1,10,0.8,11.142,M,40.582,M,,*5D\r\n
$GPGGA,092911.60,5700.9241913,N,00959.1766201,E,1,10,0.8,11.142,M,40.582,M,,*5A\r\n
$GPGGA,092911.65,5700.9241912,N,00959.1766193,E,1,10,0.8,11.142,M,40.582,M,,*56\r\n
$GPGGA,092911.70,5700.9241913,N,00959.1766193,E,1,10,0.8,11.142,M,40.582,M,,*53\r\n
$GPGGA,092911.75,5700.9241914,N,00959.1766188,E,1,10,0.8,11.142,M,40.582,M,,*5B\r\n
$GPGGA,092911.80,5700.9241915,N,00959.1766190,E,1,10,0.8,11.142,M,40.582,M,,*59\r\n
$GPGGA,092911.85,5700.9241911,N,00959.1766184,E,1,10,0.8,11.141,M,40.582,M,,*5E\r\n
$GPGGA,092911.90,5700.9241911,N,00959.1766189,E,1,10,0.8,11.141,M,40.582,M,,*57\r\n
$GPGGA,092911.95,5700.9241911,N,00959.1766189,E,1,10,0.8,11.142,M,40.582,M,,*51\r\n
$GPGGA,092912.00,5700.9241913,N,00959.1766188,E,1,10,0.8,11.142,M,40.582,M,,*5D\r\n
$GPGGA,092912.05,5700.9241749,N,00959.1766233,E,1,10,0.8,11.132,M,40.582,M,,*5D\r\n
$GPGGA,092912.10,5700.9241750,N,00959.1766235,E,1,10,0.8,11.132,M,40.582,M,,*57\r\n
$GPGGA,092912.15,5700.9241752,N,00959.1766234,E,1,10,0.8,11.133,M,40.582,M,,*50\r\n
$GPGGA,092912.20,5700.9241753,N,00959.1766237,E,1,10,0.8,11.133,M,40.582,M,,*54\r\n
$GPGGA,092912.25,5700.9241749,N,00959.1766234,E,1,10,0.8,11.134,M,40.582,M,,*5E\r\n
$GPGGA,092912.30,5700.9241750,N,00959.1766231,E,1,10,0.8,11.134,M,40.582,M,,*57\r\n
$GPGGA,092912.35,5700.9241751,N,00959.1766235,E,1,10,0.8,11.134,M,40.582,M,,*57\r\n
$GPGGA,092912.40,5700.9241753,N,00959.1766238,E,1,10,0.8,11.134,M,40.582,M,,*5A\r\n
$GPGGA,092912.45,5700.9241745,N,00959.1766239,E,1,10,0.8,11.133,M,40.582,M,,*5E\r\n
$GPGGA,092912.50,5700.9241745,N,00959.1766240,E,1,10,0.8,11.133,M,40.582,M,,*54\r\n
$GPGGA,092912.55,5700.9241745,N,00959.1766239,E,1,10,0.8,11.133,M,40.582,M,,*5F\r\n
$GPGGA,092912.60,5700.9241742,N,00959.1766243,E,1,10,0.8,11.134,M,40.582,M,,*54\r\n
$GPGGA,092912.65,5700.9241718,N,00959.1766248,E,1,10,0.8,11.134,M,40.582,M,,*55\r\n
$GPGGA,092912.70,5700.9241713,N,00959.1766262,E,1,10,0.8,11.135,M,40.582,M,,*53\r\n
$GPGGA,092912.75,5700.9241706,N,00959.1766283,E,1,10,0.8,11.135,M,40.582,M,,*5D\r\n
$GPGGA,092912.80,5700.9241697,N,00959.1766310,E,1,10,0.8,11.136,M,40.582,M,,*56\r\n
$GPGGA,092912.85,5700.9241732,N,00959.1766488,E,1,10,0.8,11.189,M,40.582,M,,*5F\r\n
$GPGGA,092912.90,5700.9241743,N,00959.1766572,E,1,10,0.8,11.208,M,40.582,M,,*53\r\n
$GPGGA,092912.95,5700.9241753,N,00959.1766658,E,1,10,0.8,11.228,M,40.582,M,,*5E\r\n
$GPGGA,092913.00,5700.9241748,N,00959.1766754,E,1,10,0.8,11.246,M,40.582,M,,*5C\r\n
$GPGGA,092913.05,5700.9241590,N,00959.1766878,E,1,10,0.8,11.263,M,40.582,M,,*58\r\n
$GPGGA,092913.10,5700.9241583,N,00959.1766973,E,1,10,0.8,11.282,M,40.582,M,,*5B\r\n
$GPGGA,092913.15,5700.9241586,N,00959.1767079,E,1,10,0.8,11.300,M,40.582,M,,*52\r\n
$GPGGA,092913.20,5700.9241604,N,00959.1767192,E,1,10,0.8,11.318,M,40.582,M,,*50\r\n
$GPGGA,092913.25,5700.9241624,N,00959.1767310,E,1,10,0.8,11.327,M,40.582,M,,*53\r\n
$GPGGA,092913.30,5700.9241673,N,00959.1767419,E,1,10,0.8,11.340,M,40.582,M,,*5A\r\n
$GPGGA,092913.35,5700.9241740,N,00959.1767519,E,1,10,0.8,11.355,M,40.582,M,,*5B\r\n
$GPGGA,092913.40,5700.9241790,N,00959.1767611,E,1,10,0.8,11.369,M,40.582,M,,*50\r\n
$GPGGA,092913.45,5700.9241788,N,00959.1767676,E,1,10,0.8,11.371,M,40.582,M,,*54\r\n
$GPGGA,092913.50,5700.9241787,N,00959.1767730,E,1,10,0.8,11.380,M,40.582,M,,*52\r\n
$GPGGA,092913.55,5700.9241787,N,00959.1767781,E,1,10,0.8,11.385,M,40.582,M,,*58\r\n
$GPGGA,092913.60,5700.9241805,N,00959.1767819,E,1,10,0.8,11.388,M,40.582,M,,*58\r\n
$GPGGA,092913.65,5700.9241815,N,00959.1767839,E,1,10,0.8,11.389,M,40.582,M,,*5F\r\n
$GPGGA,092913.70,5700.9241835,N,00959.1767846,E,1,10,0.8,11.394,M,40.582,M,,*5D\r\n
$GPGGA,092913.75,5700.9241846,N,00959.1767859,E,1,10,0.8,11.398,M,40.582,M,,*5E\r\n
$GPGGA,092913.80,5700.9241843,N,00959.1767876,E,1,10,0.8,11.402,M,40.582,M,,*58\r\n
$GPGGA,092913.85,5700.9241839,N,00959.1767870,E,1,10,0.8,11.396,M,40.582,M,,*5C\r\n
$GPGGA,092913.90,5700.9241844,N,00959.1767862,E,1,10,0.8,11.398,M,40.582,M,,*5F\r\n
$GPGGA,092913.95,5700.9241850,N,00959.1767845,E,1,10,0.8,11.400,M,40.582,M,,*5C\r\n
$GPGGA,092914.00,5700.9241854,N,00959.1767817,E,1,10,0.8,11.402,M,40.582,M,,*56\r\n
$GPGGA,092914.05,5700.9241687,N,00959.1767800,E,1,10,0.8,11.403,M,40.582,M,,*54\r\n
$GPGGA,092914.10,5700.9241695,N,00959.1767739,E,1,10,0.8,11.405,M,40.582,M,,*50\r\n
$GPGGA,092914.15,5700.9241697,N,00959.1767664,E,1,10,0.8,11.405,M,40.582,M,,*5E\r\n
$GPGGA,092914.20,5700.9241698,N,00959.1767568,E,1,10,0.8,11.407,M,40.582,M,,*5A\r\n
$GPGGA,092914.25,5700.9241709,N,00959.1767459,E,1,10,0.8,11.411,M,40.582,M,,*52\r\n
$GPGGA,092914.30,5700.9241727,N,00959.1767332,E,1,10,0.8,11.414,M,40.582,M,,*55\r\n
$GPGGA,092914.35,5700.9241752,N,00959.1767184,E,1,10,0.8,11.418,M,40.582,M,,*51\r\n
$GPGGA,092914.40,5700.9241802,N,00959.1767027,E,1,10,0.8,11.423,M,40.582,M,,*59\r\n
$GPGGA,092914.45,5700.9241844,N,00959.1766861,E,1,10,0.8,11.424,M,40.582,M,,*52\r\n
$GPGGA,092914.50,5700.9241876,N,00959.1766685,E,1,10,0.8,11.429,M,40.582,M,,*5E\r\n
$GPGGA,092914.55,5700.9241887,N,00959.1766488,E,1,10,0.8,11.431,M,40.582,M,,*53\r\n
$GPGGA,092914.60,5700.9241882,N,00959.1766268,E,1,10,0.8,11.432,M,40.582,M,,*5B\r\n
$GPGGA,092914.65,5700.9241864,N,00959.1766033,E,1,10,0.8,11.429,M,40.582,M,,*50\r\n
$GPGGA,092914.70,5700.9241864,N,00959.1765766,E,1,10,0.8,11.431,M,40.582,M,,*59\r\n
$GPGGA,092914.75,5700.9241855,N,00959.1765483,E,1,10,0.8,11.435,M,40.582,M,,*52\r\n
$GPGGA,092914.80,5700.9241816,N,00959.1765225,E,1,10,0.8,11.439,M,40.582,M,,*59\r\n
$GPGGA,092914.85,5700.9241774,N,00959.1764959,E,1,10,0.8,11.440,M,40.582,M,,*58\r\n
$GPGGA,092914.90,5700.9241772,N,00959.1764687,E,1,10,0.8,11.440,M,40.582,M,,*56\r\n
$GPGGA,092914.95,5700.9241810,N,00959.1764394,E,1,10,0.8,11.440,M,40.582,M,,*5F\r\n
$GPGGA,092915.00,5700.9241917,N,00959.1764088,E,1,10,0.8,11.441,M,40.582,M,,*5B\r\n
$GPGGA,092915.05,5700.9241779,N,00959.1763835,E,1,10,0.8,11.435,M,40.582,M,,*52\r\n
$GPGGA,092915.10,5700.9241727,N,00959.1763537,E,1,10,0.8,11.440,M,40.582,M,,*50\r\n
$GPGGA,092915.15,5700.9241658,N,00959.1763209,E,1,10,0.8,11.441,M,40.582,M,,*57\r\n
$GPGGA,092915.20,5700.9241607,N,00959.1762881,E,1,10,0.8,11.442,M,40.582,M,,*53\r\n
$GPGGA,092915.25,5700.9241612,N,00959.1762572,E,1,10,0.8,11.455,M,40.582,M,,*55\r\n
$GPGGA,092915.30,5700.9241609,N,00959.1762245,E,1,10,0.8,11.459,M,40.582,M,,*54\r\n
$GPGGA,092915.35,5700.9241604,N,00959.1761884,E,1,10,0.8,11.460,M,40.582,M,,*52\r\n
$GPGGA,092915.40,5700.9241615,N,00959.1761512,E,1,10,0.8,11.458,M,40.582,M,,*59\r\n
$GPGGA,092915.45,5700.9241588,N,00959.1761148,E,1,10,0.8,11.452,M,40.582,M,,*5A\r\n
$GPGGA,092915.50,5700.9241586,N,00959.1760786,E,1,10,0.8,11.450,M,40.582,M,,*57\r\n
$GPGGA,092915.55,5700.9241643,N,00959.1760415,E,1,10,0.8,11.446,M,40.582,M,,*56\r\n
$GPGGA,092915.60,5700.9241693,N,00959.1760050,E,1,10,0.8,11.444,M,40.582,M,,*5A\r\n
$GPGGA,092915.65,5700.9241699,N,00959.1759733,E,1,10,0.8,11.447,M,40.582,M,,*5E\r\n
$GPGGA,092915.70,5700.9241663,N,00959.1759411,E,1,10,0.8,11.451,M,40.582,M,,*5B\r\n
$GPGGA,092915.75,5700.9241640,N,00959.1759037,E,1,10,0.8,11.450,M,40.582,M,,*5E\r\n
$GPGGA,092915.80,5700.9241637,N,00959.1758674,E,1,10,0.8,11.446,M,40.582,M,,*53\r\n
$GPGGA,092915.85,5700.9241669,N,00959.1758329,E,1,10,0.8,11.452,M,40.582,M,,*55\r\n
$GPGGA,092915.90,5700.9241661,N,00959.1757980,E,1,10,0.8,11.457,M,40.582,M,,*5A\r\n
$GPGGA,092915.95,5700.9241610,N,00959.1757614,E,1,10,0.8,11.455,M,40.582,M,,*59\r\n
$GPGGA,092916.00,5700.9241563,N,00959.1757266,E,1,10,0.8,11.454,M,40.582,M,,*51\r\n
$GPGGA,092916.05,5700.9241449,N,00959.1756996,E,1,10,0.8,11.450,M,40.582,M,,*5C\r\n
$GPGGA,092916.10,5700.9241455,N,00959.1756670,E,1,10,0.8,11.455,M,40.582,M,,*57\r\n
$GPGGA,092916.15,5700.9241436,N,00959.1756333,E,1,9,0.8,11.462,M,40.582,M,,*69\r\n
$GPGGA,092916.20,5700.9241441,N,00959.1755970,E,1,9,0.8,11.464,M,40.582,M,,*67\r\n
$GPGGA,092916.25,5700.9241472,N,00959.1755601,E,1,9,0.8,11.468,M,40.582,M,,*67\r\n
$GPGGA,092916.30,5700.9241458,N,00959.1755265,E,1,9,0.8,11.467,M,40.582,M,,*62\r\n
$GPGGA,092916.35,5700.9241437,N,00959.1754911,E,1,9,0.8,11.462,M,40.582,M,,*62\r\n
$GPGGA,092916.40,5700.9241500,N,00959.1754485,E,1,9,0.8,11.456,M,40.582,M,,*62\r\n
$GPGGA,092916.45,5700.9241533,N,00959.1754089,E,1,10,0.8,11.450,M,40.582,M,,*51\r\n
$GPGGA,092916.50,5700.9241548,N,00959.1753737,E,1,10,0.8,11.453,M,40.582,M,,*5F\r\n
$GPGGA,092916.55,5700.9241578,N,00959.1753359,E,1,10,0.8,11.452,M,40.582,M,,*54\r\n
$GPGGA,092916.60,5700.9241603,N,00959.1752964,E,1,10,0.8,11.451,M,40.582,M,,*5B\r\n
$GPGGA,092916.65,5700.9241583,N,00959.1752571,E,1,10,0.8,11.462,M,40.582,M,,*5D\r\n
$GPGGA,092916.70,5700.9241553,N,00959.1752178,E,1,10,0.8,11.462,M,40.582,M,,*59\r\n
$GPGGA,092916.75,5700.9241564,N,00959.1751808,E,1,10,0.8,11.459,M,40.582,M,,*5D\r\n
$GPGGA,092916.80,5700.9241589,N,00959.1751442,E,1,10,0.8,11.463,M,40.582,M,,*5F\r\n
$GPGGA,092916.85,5700.9241658,N,00959.1750992,E,1,10,1.0,11.464,M,40.582,M,,*5A\r\n
$GPGGA,092916.90,5700.9241656,N,00959.1750567,E,1,9,1.0,11.464,M,40.582,M,,*6E\r\n
$GPGGA,092916.95,5700.9241669,N,00959.1750162,E,1,9,1.0,11.465,M,40.582,M,,*67\r\n
$GPGGA,092917.00,5700.9241696,N,00959.1749759,E,1,9,1.0,11.463,M,40.582,M,,*6A\r\n
$GPGGA,092917.05,5700.9241690,N,00959.1749369,E,1,9,0.8,11.455,M,40.582,M,,*62\r\n
$GPGGA,092917.10,5700.9241731,N,00959.1748986,E,1,9,0.8,11.461,M,40.582,M,,*61\r\n
$GPGGA,092917.15,5700.9241766,N,00959.1748554,E,1,9,0.8,11.470,M,40.582,M,,*65\r\n
$GPGGA,092917.20,5700.9241815,N,00959.1748090,E,1,9,0.8,11.464,M,40.582,M,,*60\r\n
$GPGGA,092917.25,5700.9241848,N,00959.1747698,E,1,9,0.8,11.457,M,40.582,M,,*6C\r\n
$GPGGA,092917.30,5700.9241841,N,00959.1747296,E,1,9,0.8,11.453,M,40.582,M,,*6F\r\n
$GPGGA,092917.35,5700.9241871,N,00959.1746868,E,1,9,0.8,11.455,M,40.582,M,,*65\r\n
$GPGGA,092917.40,5700.9241905,N,00959.1746451,E,1,9,0.8,11.458,M,40.582,M,,*6E\r\n
$GPGGA,092917.45,5700.9241923,N,00959.1746041,E,1,9,0.8,11.455,M,40.582,M,,*67\r\n
$GPGGA,092917.50,5700.9241956,N,00959.1745598,E,1,9,0.8,11.457,M,40.582,M,,*61\r\n
$GPGGA,092917.55,5700.9241911,N,00959.1745145,E,1,9,0.8,11.453,M,40.582,M,,*67\r\n
$GPGGA,092917.60,5700.9241877,N,00959.1744709,E,1,9,0.8,11.451,M,40.582,M,,*6D\r\n
$GPGGA,092917.65,5700.9241909,N,00959.1744304,E,1,9,0.8,11.460,M,40.582,M,,*6B\r\n
$GPGGA,092917.70,5700.9241896,N,00959.1743878,E,1,9,0.8,11.461,M,40.582,M,,*6E\r\n
$GPGGA,092917.75,5700.9241855,N,00959.1743397,E,1,9,0.8,11.453,M,40.582,M,,*6F\r\n
$GPGGA,092917.80,5700.9241866,N,00959.1742961,E,1,9,0.8,11.453,M,40.582,M,,*67\r\n
$GPGGA,092917.85,5700.9241886,N,00959.1742572,E,1,9,0.8,11.457,M,40.582,M,,*66\r\n
$GPGGA,092917.90,5700.9241881,N,00959.1742099,E,1,9,0.8,11.456,M,40.582,M,,*64\r\n
$GPGGA,092917.95,5700.9241809,N,00959.1741636,E,1,9,0.8,11.453,M,40.582,M,,*64\r\n
$GPGGA,092918.00,5700.9241772,N,00959.1741246,E,1,9,0.8,11.452,M,40.582,M,,*66\r\n
$GPGGA,092918.05,5700.9241647,N,00959.1740848,E,1,9,0.8,11.444,M,40.582,M,,*66\r\n
$GPGGA,092918.10,5700.9241649,N,00959.1740375,E,1,9,0.8,11.446,M,40.582,M,,*6B\r\n
$GPGGA,092918.15,5700.9241628,N,00959.1739908,E,1,9,0.8,11.444,M,40.582,M,,*65\r\n
$GPGGA,092918.20,5700.9241629,N,00959.1739426,E,1,9,0.8,11.435,M,40.582,M,,*65\r\n
$GPGGA,092918.25,5700.9241623,N,00959.1738985,E,1,10,0.8,11.429,M,40.582,M,,*5A\r\n
$GPGGA,092918.30,5700.9241635,N,00959.1738520,E,1,10,0.8,11.432,M,40.582,M,,*50\r\n
$GPGGA,092918.35,5700.9241685,N,00959.1738039,E,1,10,0.8,11.437,M,40.582,M,,*56\r\n
$GPGGA,092918.40,5700.9241707,N,00959.1737599,E,1,10,0.8,11.438,M,40.582,M,,*50\r\n
$GPGGA,092918.45,5700.9241717,N,00959.1737163,E,1,9,1.0,11.447,M,40.582,M,,*6C\r\n
$GPGGA,092918.50,5700.9241702,N,00959.1736719,E,1,9,1.0,11.448,M,40.582,M,,*69\r\n
$GPGGA,092918.55,5700.9241703,N,00959.1736257,E,1,9,1.0,11.450,M,40.582,M,,*6B\r\n
$GPGGA,092918.60,5700.9241706,N,00959.1735799,E,1,9,1.0,11.452,M,40.582,M,,*6E\r\n
$GPGGA,092918.65,5700.9241672,N,00959.1735317,E,1,10,0.8,11.437,M,40.582,M,,*59\r\n
$GPGGA,092918.70,5700.9241610,N,00959.1734848,E,1,10,0.8,11.431,M,40.582,M,,*5F\r\n
$GPGGA,092918.75,5700.9241632,N,00959.1734407,E,1,9,0.8,11.430,M,40.582,M,,*64\r\n
$GPGGA,092918.80,5700.9241653,N,00959.1733933,E,1,9,0.8,11.426,M,40.582,M,,*63\r\n
$GPGGA,092918.85,5700.9241612,N,00959.1733465,E,1,10,0.8,11.426,M,40.582,M,,*55\r\n
$GPGGA,092918.90,5700.9241607,N,00959.1733042,E,1,10,0.8,11.432,M,40.582,M,,*51\r\n
$GPGGA,092918.95,5700.9241608,N,00959.1732647,E,1,9,0.8,11.435,M,40.582,M,,*66\r\n
$GPGGA,092919.00,5700.9241610,N,00959.1732207,E,1,9,0.8,11.437,M,40.582,M,,*60\r\n
$GPGGA,092919.05,5700.9241501,N,00959.1731776,E,1,9,0.8,11.432,M,40.582,M,,*63\r\n
$GPGGA,092919.10,5700.9241498,N,00959.1731325,E,1,9,0.8,11.429,M,40.582,M,,*6E\r\n
$GPGGA,092919.15,5700.9241523,N,00959.1730896,E,1,9,0.8,11.426,M,40.582,M,,*67\r\n
$GPGGA,092919.20,5700.9241525,N,00959.1730448,E,1,9,0.8,11.424,M,40.582,M,,*6A\r\n
$GPGGA,092919.25,5700.9241511,N,00959.1729994,E,1,9,0.8,11.419,M,40.582,M,,*62\r\n
$GPGGA,092919.30,5700.9241543,N,00959.1729541,E,1,9,0.8,11.420,M,40.582,M,,*6F\r\n
$GPGGA,092919.35,5700.9241560,N,00959.1729102,E,1,9,0.8,11.419,M,40.582,M,,*62\r\n
$GPGGA,092919.40,5700.9241579,N,00959.1728695,E,1,9,0.8,11.428,M,40.582,M,,*62\r\n
$GPGGA,092919.45,5700.9241631,N,00959.1728255,E,1,9,0.8,11.451,M,40.582,M,,*6E\r\n
$GPGGA,092919.50,5700.9241602,N,00959.1727807,E,1,9,0.8,11.446,M,40.582,M,,*6E\r\n
$GPGGA,092919.55,5700.9241573,N,00959.1727366,E,1,9,0.8,11.444,M,40.582,M,,*60\r\n
$GPGGA,092919.60,5700.9241598,N,00959.1726876,E,1,9,0.8,11.444,M,40.582,M,,*68\r\n
$GPGGA,092919.65,5700.9241599,N,00959.1726412,E,1,9,0.8,11.422,M,40.582,M,,*62\r\n
$GPGGA,092919.70,5700.9241658,N,00959.1725936,E,1,9,0.8,11.424,M,40.582,M,,*66\r\n
$GPGGA,092919.75,5700.9241652,N,00959.1725465,E,1,9,0.8,11.420,M,40.582,M,,*66\r\n
$GPGGA,092919.80,5700.9241616,N,00959.1725015,E,1,9,0.8,11.419,M,40.582,M,,*65\r\n
$GPGGA,092919.85,5700.9241639,N,00959.1724542,E,1,9,0.8,11.432,M,40.582,M,,*62\r\n
$GPGGA,092919.90,5700.9241664,N,00959.1724105,E,1,9,0.8,11.438,M,40.582,M,,*63\r\n
$GPGGA,092919.95,5700.9241748,N,00959.1723628,E,1,9,0.8,11.441,M,40.582,M,,*68\r\n
$GPGGA,092920.00,5700.9241774,N,00959.1723127,E,1,9,0.8,11.437,M,40.582,M,,*68\r\n
$GPGGA,092920.05,5700.9241680,N,00959.1722668,E,1,9,0.8,11.420,M,40.582,M,,*6C\r\n
$GPGGA,092920.10,5700.9241680,N,00959.1722203,E,1,9,0.8,11.415,M,40.582,M,,*67\r\n
$GPGGA,092920.15,5700.9241685,N,00959.1721742,E,1,9,0.8,11.417,M,40.582,M,,*66\r\n
$GPGGA,092920.20,5700.9241719,N,00959.1721287,E,1,9,0.8,11.420,M,40.582,M,,*6C\r\n
$GPGGA,092920.25,5700.9241776,N,00959.1720865,E,1,9,0.8,11.422,M,40.582,M,,*65\r\n
$GPGGA,092920.30,5700.9241790,N,00959.1720384,E,1,9,0.8,11.421,M,40.582,M,,*6E\r\n
$GPGGA,092920.35,5700.9241776,N,00959.1719886,E,1,9,0.8,11.417,M,40.582,M,,*65\r\n
$GPGGA,092920.40,5700.9241757,N,00959.1719435,E,1,9,0.8,11.421,M,40.582,M,,*65\r\n
$GPGGA,092920.45,5700.9241794,N,00959.1718985,E,1,10,0.8,11.428,M,40.582,M,,*59\r\n
$GPGGA,092920.50,5700.9241818,N,00959.1718550,E,1,10,0.8,11.428,M,40.582,M,,*52\r\n
$GPGGA,092920.55,5700.9241843,N,00959.1718102,E,1,9,0.8,11.426,M,40.582,M,,*6C\r\n
$GPGGA,092920.60,5700.9241853,N,00959.1717614,E,1,9,0.8,11.423,M,40.582,M,,*61\r\n
$GPGGA,092920.65,5700.9241841,N,00959.1717141,E,1,9,0.8,11.420,M,40.582,M,,*63\r\n
$GPGGA,092920.70,5700.9241858,N,00959.1716678,E,1,9,0.8,11.414,M,40.582,M,,*64\r\n
$GPGGA,092920.75,5700.9241850,N,00959.1716230,E,1,9,0.8,11.416,M,40.582,M,,*63\r\n
$GPGGA,092920.80,5700.9241833,N,00959.1715764,E,1,9,0.8,11.416,M,40.582,M,,*6B\r\n
$GPGGA,092920.85,5700.9241808,N,00959.1715292,E,1,9,0.8,11.412,M,40.582,M,,*6E\r\n
$GPGGA,092920.90,5700.9241783,N,00959.1714823,E,1,9,0.8,11.415,M,40.582,M,,*60\r\n
$GPGGA,092920.95,5700.9241787,N,00959.1714334,E,1,9,0.8,11.416,M,40.582,M,,*6F\r\n
$GPGGA,092921.00,5700.9241796,N,00959.1713881,E,1,9,0.8,11.414,M,40.582,M,,*62\r\n
$GPGGA,092921.05,5700.9241769,N,00959.1713459,E,1,10,0.8,11.402,M,40.582,M,,*51\r\n
$GPGGA,092921.10,5700.9241748,N,00959.1713039,E,1,10,0.8,11.400,M,40.582,M,,*56\r\n
$GPGGA,092921.15,5700.9241692,N,00959.1712591,E,1,9,0.8,11.402,M,40.582,M,,*69\r\n
$GPGGA,092921.20,5700.9241673,N,00959.1712102,E,1,9,0.8,11.402,M,40.582,M,,*6E\r\n
$GPGGA,092921.25,5700.9241679,N,00959.1711652,E,1,9,0.8,11.394,M,40.582,M,,*68\r\n
$GPGGA,092921.30,5700.9241667,N,00959.1711236,E,1,9,0.8,11.399,M,40.582,M,,*68\r\n
$GPGGA,092921.35,5700.9241686,N,00959.1710789,E,1,9,0.8,11.403,M,40.582,M,,*66\r\n
$GPGGA,092921.40,5700.9241687,N,00959.1710323,E,1,9,0.8,11.404,M,40.582,M,,*66\r\n
$GPGGA,092921.45,5700.9241702,N,00959.1709867,E,1,9,0.8,11.412,M,40.582,M,,*6B\r\n
$GPGGA,092921.50,5700.9241701,N,00959.1709388,E,1,9,0.8,11.406,M,40.582,M,,*63\r\n
$GPGGA,092921.55,5700.9241629,N,00959.1708906,E,1,9,0.8,11.399,M,40.582,M,,*61\r\n
$GPGGA,092921.60,5700.9241628,N,00959.1708454,E,1,9,0.8,11.397,M,40.582,M,,*62\r\n
$GPGGA,092921.65,5700.9241686,N,00959.1708012,E,1,9,0.8,11.389,M,40.582,M,,*6A\r\n
$GPGGA,092921.70,5700.9241704,N,00959.1707555,E,1,9,0.8,11.390,M,40.582,M,,*64\r\n
$GPGGA,092921.75,5700.9241622,N,00959.1707036,E,1,9,0.8,11.386,M,40.582,M,,*63\r\n
$GPGGA,092921.80,5700.9241608,N,00959.1706543,E,1,9,0.8,11.385,M,40.582,M,,*64\r\n
$GPGGA,092921.85,5700.9241649,N,00959.1706106,E,1,10,0.8,11.393,M,40.582,M,,*5E\r\n
$GPGGA,092921.90,5700.9241654,N,00959.1705635,E,1,10,0.8,11.388,M,40.582,M,,*58\r\n
$GPGGA,092921.95,5700.9241642,N,00959.1705145,E,1,10,0.8,11.386,M,40.582,M,,*54\r\n
$GPGGA,092922.00,5700.9241551,N,00959.1704643,E,1,10,0.8,11.384,M,40.582,M,,*58\r\n
$GPGGA,092922.05,5700.9241626,N,00959.1704173,E,1,10,0.8,11.374,M,40.582,M,,*55\r\n
$GPGGA,092922.10,5700.9241692,N,00959.1703709,E,1,10,0.8,11.378,M,40.582,M,,*5E\r\n
$GPGGA,092922.15,5700.9241757,N,00959.1703229,E,1,10,0.8,11.380,M,40.582,M,,*53\r\n
$GPGGA,092922.20,5700.9241785,N,00959.1702750,E,1,9,0.8,11.376,M,40.582,M,,*61\r\n
$GPGGA,092922.25,5700.9241853,N,00959.1702251,E,1,9,0.8,11.379,M,40.582,M,,*6B\r\n
$GPGGA,092922.30,5700.9241889,N,00959.1701799,E,1,9,0.8,11.384,M,40.582,M,,*68\r\n
$GPGGA,092922.35,5700.9241902,N,00959.1701297,E,1,9,0.8,11.384,M,40.582,M,,*64\r\n
$GPGGA,092922.40,5700.9241899,N,00959.1700813,E,1,9,0.8,11.379,M,40.582,M,,*60\r\n
$GPGGA,092922.45,5700.9241923,N,00959.1700293,E,1,9,0.8,11.380,M,40.582,M,,*61\r\n
$GPGGA,092922.50,5700.9241915,N,00959.1699771,E,1,9,0.8,11.377,M,40.582,M,,*60\r\n
$GPGGA,092922.55,5700.9241934,N,00959.1699276,E,1,9,0.8,11.380,M,40.582,M,,*6C\r\n
$GPGGA,092922.60,5700.9241954,N,00959.1698772,E,1,9,0.8,11.382,M,40.582,M,,*6E\r\n
$GPGGA,092922.65,5700.9241917,N,00959.1698241,E,1,9,0.8,11.386,M,40.582,M,,*6D\r\n
$GPGGA,092922.70,5700.9241936,N,00959.1697708,E,1,9,0.8,11.381,M,40.582,M,,*6A\r\n
$GPGGA,092922.75,5700.9241923,N,00959.1697217,E,1,9,0.8,11.386,M,40.582,M,,*67\r\n
$GPGGA,092922.80,5700.9241906,N,00959.1696734,E,1,9,0.8,11.393,M,40.582,M,,*6B\r\n
$GPGGA,092922.85,5700.9241906,N,00959.1696217,E,1,9,0.8,11.388,M,40.582,M,,*60\r\n
$GPGGA,092922.90,5700.9241956,N,00959.1695672,E,1,9,0.8,11.382,M,40.582,M,,*6F\r\n
$GPGGA,092922.95,5700.9242011,N,00959.1695147,E,1,9,0.8,11.383,M,40.582,M,,*63\r\n
$GPGGA,092923.00,5700.9242012,N,00959.1694596,E,1,9,0.8,11.381,M,40.582,M,,*66\r\n
$GPGGA,092923.05,5700.9242097,N,00959.1694028,E,1,10,0.8,11.363,M,40.582,M,,*5A\r\n
$GPGGA,092923.10,5700.9242087,N,00959.1693459,E,1,10,0.8,11.361,M,40.582,M,,*58\r\n
$GPGGA,092923.15,5700.9242097,N,00959.1692956,E,1,9,0.8,11.366,M,40.582,M,,*60\r\n
$GPGGA,092923.20,5700.9242096,N,00959.1692391,E,1,9,0.8,11.364,M,40.582,M,,*64\r\n
$GPGGA,092923.25,5700.9242057,N,00959.1691835,E,1,9,0.8,11.361,M,40.582,M,,*6F\r\n
$GPGGA,092923.30,5700.9242087,N,00959.1691290,E,1,9,0.8,11.362,M,40.582,M,,*60\r\n
$GPGGA,092923.35,5700.9242116,N,00959.1690776,E,1,9,0.8,11.363,M,40.582,M,,*61\r\n
$GPGGA,092923.40,5700.9242104,N,00959.1690180,E,1,9,0.8,11.357,M,40.582,M,,*68\r\n
$GPGGA,092923.45,5700.9242096,N,00959.1689627,E,1,9,0.8,11.356,M,40.582,M,,*64\r\n
$GPGGA,092923.50,5700.9242078,N,00959.1689069,E,1,9,0.8,11.359,M,40.582,M,,*63\r\n
$GPGGA,092923.55,5700.9242051,N,00959.1688446,E,1,9,0.8,11.357,M,40.582,M,,*6B\r\n
$GPGGA,092923.60,5700.9242076,N,00959.1687826,E,1,9,0.8,11.351,M,40.582,M,,*6B\r\n
$GPGGA,092923.65,5700.9242066,N,00959.1687287,E,1,9,0.8,11.357,M,40.582,M,,*68\r\n
$GPGGA,092923.70,5700.9242052,N,00959.1686752,E,1,9,0.8,11.361,M,40.582,M,,*62\r\n
$GPGGA,092923.75,5700.9242046,N,00959.1686149,E,1,9,0.8,11.359,M,40.582,M,,*65\r\n
$GPGGA,092923.80,5700.9242071,N,00959.1685554,E,1,9,0.8,11.359,M,40.582,M,,*60\r\n
$GPGGA,092923.85,5700.9242053,N,00959.1684946,E,1,9,0.8,11.351,M,40.582,M,,*63\r\n
$GPGGA,092923.90,5700.9242003,N,00959.1684281,E,1,9,0.8,11.345,M,40.582,M,,*67\r\n
$GPGGA,092923.95,5700.9241960,N,00959.1683700,E,1,9,0.8,11.342,M,40.582,M,,*61\r\n
$GPGGA,092924.00,5700.9241956,N,00959.1683128,E,1,9,0.8,11.345,M,40.582,M,,*64\r\n
$GPGGA,092924.05,5700.9242095,N,00959.1682514,E,1,9,0.8,11.334,M,40.582,M,,*68\r\n
$GPGGA,092924.10,5700.9242108,N,00959.1681910,E,1,9,0.8,11.337,M,40.582,M,,*61\r\n
$GPGGA,092924.15,5700.9242088,N,00959.1681312,E,1,9,0.8,11.333,M,40.582,M,,*61\r\n
$GPGGA,092924.20,5700.9242007,N,00959.1680629,E,1,9,0.8,11.324,M,40.582,M,,*6A\r\n
$GPGGA,092924.25,5700.9241973,N,00959.1679998,E,1,9,0.8,11.318,M,40.582,M,,*6A\r\n
$GPGGA,092924.30,5700.9241990,N,00959.1679376,E,1,9,0.8,11.311,M,40.582,M,,*60\r\n
$GPGGA,092924.35,5700.9241957,N,00959.1678739,E,1,9,0.8,11.306,M,40.582,M,,*66\r\n
$GPGGA,092924.40,5700.9241930,N,00959.1678079,E,1,9,0.8,11.306,M,40.582,M,,*66\r\n
$GPGGA,092924.45,5700.9241905,N,00959.1677435,E,1,9,0.8,11.308,M,40.582,M,,*68\r\n
$GPGGA,092924.50,5700.9241850,N,00959.1676754,E,1,9,0.8,11.304,M,40.582,M,,*64\r\n
$GPGGA,092924.55,5700.9241840,N,00959.1676109,E,1,9,0.8,11.301,M,40.582,M,,*6B\r\n
$GPGGA,092924.60,5700.9241854,N,00959.1675502,E,1,9,0.8,11.298,M,40.582,M,,*65\r\n
$GPGGA,092924.65,5700.9241901,N,00959.1674895,E,1,9,0.8,11.303,M,40.582,M,,*60\r\n
$GPGGA,092924.70,5700.9242016,N,00959.1674251,E,1,9,0.8,11.303,M,40.582,M,,*6A\r\n
$GPGGA,092924.75,5700.9242033,N,00959.1673637,E,1,9,0.8,11.302,M,40.582,M,,*6A\r\n
$GPGGA,092924.80,5700.9241999,N,00959.1673047,E,1,9,0.8,11.298,M,40.582,M,,*69\r\n
$GPGGA,092924.85,5700.9242004,N,00959.1672455,E,1,9,0.8,11.304,M,40.582,M,,*60\r\n
$GPGGA,092924.90,5700.9241973,N,00959.1671866,E,1,9,0.8,11.297,M,40.582,M,,*6A\r\n
$GPGGA,092924.95,5700.9241918,N,00959.1671261,E,1,9,0.8,11.297,M,40.582,M,,*6F\r\n
$GPGGA,092925.00,5700.9241878,N,00959.1670702,E,1,9,0.8,11.302,M,40.582,M,,*69\r\n
$GPGGA,092925.05,5700.9241887,N,00959.1670183,E,1,9,0.8,11.286,M,40.582,M,,*6E\r\n
$GPGGA,092925.10,5700.9241885,N,00959.1669654,E,1,9,0.8,11.286,M,40.582,M,,*6D\r\n
$GPGGA,092925.15,5700.9241991,N,00959.1669087,E,1,9,0.8,11.282,M,40.582,M,,*60\r\n
$GPGGA,092925.20,5700.9241988,N,00959.1668538,E,1,9,0.8,11.278,M,40.582,M,,*6B\r\n
$GPGGA,092925.25,5700.9242012,N,00959.1668029,E,1,10,0.8,11.297,M,40.582,M,,*5B\r\n
$GPGGA,092925.30,5700.9242063,N,00959.1667525,E,1,10,0.8,11.300,M,40.582,M,,*50\r\n
$GPGGA,092925.35,5700.9242057,N,00959.1666989,E,1,10,0.8,11.295,M,40.582,M,,*54\r\n
$GPGGA,092925.40,5700.9242040,N,00959.1666470,E,1,10,0.8,11.296,M,40.582,M,,*58\r\n
$GPGGA,092925.45,5700.9242037,N,00959.1665916,E,1,10,0.8,11.297,M,40.582,M,,*52\r\n
$GPGGA,092925.50,5700.9242023,N,00959.1665437,E,1,10,0.8,11.301,M,40.582,M,,*53\r\n
$GPGGA,092925.55,5700.9242014,N,00959.1665002,E,1,10,0.8,11.304,M,40.582,M,,*55\r\n
$GPGGA,092925.60,5700.9241986,N,00959.1664533,E,1,10,0.8,11.302,M,40.582,M,,*52\r\n
$GPGGA,092925.65,5700.9242016,N,00959.1664052,E,1,10,0.8,11.302,M,40.582,M,,*56\r\n
$GPGGA,092925.70,5700.9242072,N,00959.1663552,E,1,10,0.8,11.301,M,40.582,M,,*51\r\n
$GPGGA,092925.75,5700.9242101,N,00959.1663088,E,1,10,0.8,11.300,M,40.582,M,,*52\r\n
$GPGGA,092925.80,5700.9242144,N,00959.1662605,E,1,10,0.8,11.297,M,40.582,M,,*54\r\n
$GPGGA,092925.85,5700.9242164,N,00959.1662124,E,1,10,0.8,11.291,M,40.582,M,,*51\r\n
$GPGGA,092925.90,5700.9242222,N,00959.1661615,E,1,10,0.8,11.285,M,40.582,M,,*57\r\n
$GPGGA,092925.95,5700.9242222,N,00959.1661137,E,1,10,0.8,11.286,M,40.582,M,,*56\r\n
$GPGGA,092926.00,5700.9242189,N,00959.1660676,E,1,10,0.8,11.289,M,40.582,M,,*57\r\n
$GPGGA,092926.05,5700.9242240,N,00959.1660200,E,1,10,0.8,11.279,M,40.582,M,,*5E\r\n
$GPGGA,092926.10,5700.9242259,N,00959.1659724,E,1,10,0.8,11.279,M,40.582,M,,*5B\r\n
$GPGGA,092926.15,5700.9242245,N,00959.1659273,E,1,10,0.8,11.283,M,40.582,M,,*51\r\n
$GPGGA,092926.20,5700.9242219,N,00959.1658811,E,1,10,0.8,11.283,M,40.582,M,,*51\r\n
$GPGGA,092926.25,5700.9242242,N,00959.1658354,E,1,10,0.8,11.278,M,40.582,M,,*54\r\n
$GPGGA,092926.30,5700.9242265,N,00959.1657908,E,1,10,0.8,11.277,M,40.582,M,,*56\r\n
$GPGGA,092926.35,5700.9242297,N,00959.1657425,E,1,10,0.8,11.274,M,40.582,M,,*5F\r\n
$GPGGA,092926.40,5700.9242324,N,00959.1656880,E,1,10,0.8,11.268,M,40.582,M,,*5B\r\n
$GPGGA,092926.45,5700.9242297,N,00959.1656395,E,1,10,0.8,11.266,M,40.582,M,,*56\r\n
$GPGGA,092926.50,5700.9242281,N,00959.1655960,E,1,10,0.8,11.265,M,40.582,M,,*55\r\n
$GPGGA,092926.55,5700.9242283,N,00959.1655503,E,1,10,0.8,11.262,M,40.582,M,,*5C\r\n
$GPGGA,092926.60,5700.9242286,N,00959.1655003,E,1,10,0.8,11.262,M,40.582,M,,*5A\r\n
$GPGGA,092926.65,5700.9242304,N,00959.1654530,E,1,10,0.8,11.274,M,40.582,M,,*57\r\n
$GPGGA,092926.70,5700.9242310,N,00959.1654054,E,1,10,0.8,11.278,M,40.582,M,,*5D\r\n
$GPGGA,092926.75,5700.9242303,N,00959.1653589,E,1,10,0.8,11.281,M,40.582,M,,*5E\r\n
$GPGGA,092926.80,5700.9242323,N,00959.1653085,E,1,10,0.8,11.279,M,40.582,M,,*58\r\n
$GPGGA,092926.85,5700.9242382,N,00959.1652539,E,1,10,0.8,11.277,M,40.582,M,,*5B\r\n
$GPGGA,092926.90,5700.9242396,N,00959.1652055,E,1,10,0.8,11.274,M,40.582,M,,*56\r\n
$GPGGA,092926.95,5700.9242394,N,00959.1651516,E,1,10,0.8,11.271,M,40.582,M,,*55\r\n
$GPGGA,092927.00,5700.9242390,N,00959.1651001,E,1,10,0.8,11.269,M,40.582,M,,*56\r\n
$GPGGA,092927.05,5700.9242480,N,00959.1650516,E,1,10,0.8,11.254,M,40.582,M,,*59\r\n
$GPGGA,092927.10,5700.9242484,N,00959.1649981,E,1,10,0.8,11.251,M,40.582,M,,*56\r\n
$GPGGA,092927.15,5700.9242489,N,00959.1649474,E,1,10,0.8,11.251,M,40.582,M,,*59\r\n
$GPGGA,092927.20,5700.9242470,N,00959.1648975,E,1,10,0.8,11.254,M,40.582,M,,*51\r\n
$GPGGA,092927.25,5700.9242450,N,00959.1648464,E,1,10,0.8,11.256,M,40.582,M,,*59\r\n
$GPGGA,092927.30,5700.9242445,N,00959.1647948,E,1,10,0.8,11.256,M,40.582,M,,*55\r\n
$GPGGA,092927.35,5700.9242429,N,00959.1647390,E,1,10,0.8,11.258,M,40.582,M,,*5B\r\n
$GPGGA,092927.40,5700.9242440,N,00959.1646897,E,1,10,0.8,11.264,M,40.582,M,,*54\r\n
$GPGGA,092927.45,5700.9242451,N,00959.1646387,E,1,10,0.8,11.257,M,40.582,M,,*5B\r\n
$GPGGA,092927.50,5700.9242431,N,00959.1645902,E,1,10,0.8,11.258,M,40.582,M,,*52\r\n
$GPGGA,092927.55,5700.9242357,N,00959.1645442,E,1,10,0.8,11.261,M,40.582,M,,*53\r\n
$GPGGA,092927.60,5700.9242294,N,00959.1644933,E,1,10,0.8,11.265,M,40.582,M,,*55\r\n
$GPGGA,092927.65,5700.9242254,N,00959.1644413,E,1,10,0.8,11.257,M,40.582,M,,*52\r\n
$GPGGA,092927.70,5700.9242240,N,00959.1643891,E,1,10,0.8,11.254,M,40.582,M,,*51\r\n
$GPGGA,092927.75,5700.9242258,N,00959.1643340,E,1,10,0.8,11.251,M,40.582,M,,*5F\r\n
$GPGGA,092927.80,5700.9242252,N,00959.1642771,E,1,10,0.8,11.250,M,40.582,M,,*59\r\n
$GPGGA,092927.85,5700.9242217,N,00959.1642245,E,1,10,0.8,11.243,M,40.582,M,,*5D\r\n
$GPGGA,092927.90,5700.9242194,N,00959.1641670,E,1,10,0.8,11.239,M,40.582,M,,*5D\r\n
$GPGGA,092927.95,5700.9242199,N,00959.1641136,E,1,10,0.8,11.241,M,40.582,M,,*5F\r\n
$GPGGA,092928.00,5700.9242174,N,00959.1640564,E,1,10,0.8,11.237,M,40.582,M,,*5C\r\n
$GPGGA,092928.05,5700.9242236,N,00959.1640054,E,1,10,0.8,11.227,M,40.582,M,,*5B\r\n
$GPGGA,092928.10,5700.9242221,N,00959.1639530,E,1,10,0.8,11.229,M,40.582,M,,*5E\r\n
$GPGGA,092928.15,5700.9242180,N,00959.1639036,E,1,10,0.8,11.228,M,40.582,M,,*51\r\n
$GPGGA,092928.20,5700.9242161,N,00959.1638518,E,1,10,0.8,11.229,M,40.582,M,,*51\r\n
$GPGGA,092928.25,5700.9242148,N,00959.1638024,E,1,10,0.8,11.233,M,40.582,M,,*5E\r\n
$GPGGA,092928.30,5700.9242187,N,00959.1637454,E,1,10,0.8,11.233,M,40.582,M,,*55\r\n
$GPGGA,092928.35,5700.9242237,N,00959.1636901,E,1,10,0.8,11.236,M,40.582,M,,*51\r\n
$GPGGA,092928.40,5700.9242243,N,00959.1636373,E,1,10,0.8,11.231,M,40.582,M,,*58\r\n
$GPGGA,092928.45,5700.9242292,N,00959.1635791,E,1,10,0.8,11.224,M,40.582,M,,*5E\r\n
$GPGGA,092928.50,5700.9242309,N,00959.1635208,E,1,10,0.8,11.219,M,40.582,M,,*52\r\n
$GPGGA,092928.55,5700.9242314,N,00959.1634680,E,1,10,0.8,11.223,M,40.582,M,,*57\r\n
$GPGGA,092928.60,5700.9242285,N,00959.1634133,E,1,10,0.8,11.226,M,40.582,M,,*52\r\n
$GPGGA,092928.65,5700.9242239,N,00959.1633620,E,1,10,0.8,11.229,M,40.582,M,,*5D\r\n
$GPGGA,092928.70,5700.9242192,N,00959.1633119,E,1,10,0.8,11.224,M,40.582,M,,*5B\r\n
$GPGGA,092928.75,5700.9242168,N,00959.1632596,E,1,10,0.8,11.222,M,40.582,M,,*5F\r\n
$GPGGA,092928.80,5700.9242171,N,00959.1632054,E,1,10,0.8,11.222,M,40.582,M,,*56\r\n
$GPGGA,092928.85,5700.9242211,N,00959.1631503,E,1,10,0.8,11.220,M,40.582,M,,*50\r\n
$GPGGA,092928.90,5700.9242254,N,00959.1630909,E,1,10,0.8,11.217,M,40.582,M,,*56\r\n
$GPGGA,092928.95,5700.9242292,N,00959.1630385,E,1,10,0.8,11.211,M,40.582,M,,*51\r\n
$GPGGA,092929.00,5700.9242334,N,00959.1629853,E,1,10,0.8,11.211,M,40.582,M,,*59\r\n
$GPGGA,092929.05,5700.9242441,N,00959.1629350,E,1,10,0.8,11.204,M,40.582,M,,*55\r\n
$GPGGA,092929.10,5700.9242481,N,00959.1628810,E,1,10,0.8,11.201,M,40.582,M,,*56\r\n
$GPGGA,092929.15,5700.9242468,N,00959.1628284,E,1,10,0.8,11.208,M,40.582,M,,*5A\r\n
$GPGGA,092929.20,5700.9242449,N,00959.1627723,E,1,10,0.8,11.207,M,40.582,M,,*57\r\n
$GPGGA,092929.25,5700.9242405,N,00959.1627209,E,1,10,0.8,11.199,M,40.582,M,,*53\r\n
$GPGGA,092929.30,5700.9242395,N,00959.1626691,E,1,10,0.8,11.198,M,40.582,M,,*5C\r\n
$GPGGA,092929.35,5700.9242403,N,00959.1626160,E,1,10,0.8,11.200,M,40.582,M,,*5A\r\n
$GPGGA,092929.40,5700.9242421,N,00959.1625642,E,1,10,0.8,11.208,M,40.582,M,,*54\r\n
$GPGGA,092929.45,5700.9242396,N,00959.1625139,E,1,10,0.8,11.221,M,40.582,M,,*5A\r\n
$GPGGA,092929.50,5700.9242377,N,00959.1624613,E,1,10,0.8,11.221,M,40.582,M,,*5F\r\n
$GPGGA,092929.55,5700.9242411,N,00959.1624085,E,1,10,0.8,11.224,M,40.582,M,,*51\r\n
$GPGGA,092929.60,5700.9242432,N,00959.1623538,E,1,10,0.8,11.223,M,40.582,M,,*55\r\n
$GPGGA,092929.65,5700.9242397,N,00959.1623033,E,1,10,0.8,11.222,M,40.582,M,,*57\r\n
$GPGGA,092929.70,5700.9242347,N,00959.1622470,E,1,10,0.8,11.219,M,40.582,M,,*54\r\n
$GPGGA,092929.75,5700.9242314,N,00959.1621913,E,1,10,0.8,11.220,M,40.582,M,,*56\r\n
$GPGGA,092929.80,5700.9242295,N,00959.1621329,E,1,10,0.8,11.216,M,40.582,M,,*52\r\n
$GPGGA,092929.85,5700.9242273,N,00959.1620799,E,1,10,0.8,11.205,M,40.582,M,,*53\r\n
$GPGGA,092929.90,5700.9242274,N,00959.1620246,E,1,10,0.8,11.201,M,40.582,M,,*53\r\n
$GPGGA,092929.95,5700.9242258,N,00959.1619703,E,1,10,0.8,11.200,M,40.582,M,,*57\r\n
$GPGGA,092930.00,5700.9242222,N,00959.1619167,E,1,10,0.8,11.195,M,40.582,M,,*55\r\n
$GPGGA,092930.05,5700.9242294,N,00959.1618668,E,1,10,0.8,11.186,M,40.582,M,,*56\r\n
$GPGGA,092930.10,5700.9242272,N,00959.1618158,E,1,10,0.8,11.189,M,40.582,M,,*51\r\n
$GPGGA,092930.15,5700.9242252,N,00959.1617644,E,1,10,0.8,11.192,M,40.582,M,,*59\r\n
$GPGGA,092930.20,5700.9242210,N,00959.1617111,E,1,10,0.8,11.187,M,40.582,M,,*5A\r\n
$GPGGA,092930.25,5700.9242138,N,00959.1616581,E,1,10,0.8,11.189,M,40.582,M,,*54\r\n
$GPGGA,092930.30,5700.9242135,N,00959.1616031,E,1,10,0.8,11.191,M,40.582,M,,*5A\r\n
$GPGGA,092930.35,5700.9242103,N,00959.1615511,E,1,10,0.8,11.195,M,40.582,M,,*5A\r\n
$GPGGA,092930.40,5700.9242039,N,00959.1615025,E,1,10,0.8,11.195,M,40.582,M,,*52\r\n
$GPGGA,092930.45,5700.9242032,N,00959.1614518,E,1,10,0.8,11.196,M,40.582,M,,*55\r\n
$GPGGA,092930.50,5700.9241965,N,00959.1614045,E,1,10,0.8,11.194,M,40.582,M,,*56\r\n
$GPGGA,092930.55,5700.9241901,N,00959.1613561,E,1,10,0.8,11.196,M,40.582,M,,*57\r\n
$GPGGA,092930.60,5700.9241879,N,00959.1613091,E,1,10,0.8,11.200,M,40.582,M,,*59\r\n
$GPGGA,092930.65,5700.9241863,N,00959.1612620,E,1,10,0.8,11.199,M,40.582,M,,*59\r\n
$GPGGA,092930.70,5700.9241852,N,00959.1612119,E,1,10,0.8,11.196,M,40.582,M,,*5D\r\n
$GPGGA,092930.75,5700.9241841,N,00959.1611612,E,1,10,0.8,11.192,M,40.582,M,,*51\r\n
$GPGGA,092930.80,5700.9241828,N,00959.1611114,E,1,10,0.8,11.194,M,40.582,M,,*53\r\n
$GPGGA,092930.85,5700.9241785,N,00959.1610621,E,1,10,0.8,11.194,M,40.582,M,,*5E\r\n
$GPGGA,092930.90,5700.9241783,N,00959.1610169,E,1,10,0.8,11.200,M,40.582,M,,*59\r\n
$GPGGA,092930.95,5700.9241753,N,00959.1609695,E,1,10,0.8,11.195,M,40.582,M,,*52\r\n
$GPGGA,092931.00,5700.9241755,N,00959.1609187,E,1,10,0.8,11.192,M,40.582,M,,*5A\r\n
$GPGGA,092931.05,5700.9241802,N,00959.1608690,E,1,10,0.8,11.172,M,40.582,M,,*5C\r\n
$GPGGA,092931.10,5700.9241776,N,00959.1608171,E,1,10,0.8,11.169,M,40.582,M,,*56\r\n
$GPGGA,092931.15,5700.9241760,N,00959.1607689,E,1,10,0.8,11.170,M,40.582,M,,*53\r\n
$GPGGA,092931.20,5700.9241755,N,00959.1607197,E,1,10,0.8,11.172,M,40.582,M,,*59\r\n
$GPGGA,092931.25,5700.9241738,N,00959.1606673,E,1,10,0.8,11.178,M,40.582,M,,*51\r\n
$GPGGA,092931.30,5700.9241717,N,00959.1606193,E,1,10,0.8,11.176,M,40.582,M,,*5F\r\n
$GPGGA,092931.35,5700.9241688,N,00959.1605725,E,1,10,0.8,11.173,M,40.582,M,,*50\r\n
$GPGGA,092931.40,5700.9241635,N,00959.1605218,E,1,10,0.8,11.169,M,40.582,M,,*54\r\n
$GPGGA,092931.45,5700.9241578,N,00959.1604725,E,1,10,0.8,11.168,M,40.582,M,,*50\r\n
$GPGGA,092931.50,5700.9241508,N,00959.1604251,E,1,10,0.8,11.171,M,40.582,M,,*5D\r\n
$GPGGA,092931.55,5700.9241386,N,00959.1603810,E,1,10,0.8,11.169,M,40.582,M,,*59\r\n
$GPGGA,092931.60,5700.9241328,N,00959.1603389,E,1,10,0.8,11.173,M,40.582,M,,*5B\r\n
$GPGGA,092931.65,5700.9241302,N,00959.1602974,E,1,10,0.8,11.177,M,40.582,M,,*5B\r\n
$GPGGA,092931.70,5700.9241330,N,00959.1602483,E,1,9,0.8,11.180,M,40.582,M,,*6B\r\n
$GPGGA,092931.75,5700.9241363,N,00959.1601999,E,1,9,0.8,11.188,M,40.582,M,,*65\r\n
