$GPGGA,133529.55,5703.3641805,N,00952.2374436,E,2,12,0.7,-1.562,M,40.593,M,1.7,0123*6B\r\n
$GPGGA,133529.60,5703.3642127,N,00952.2374545,E,2,12,0.7,-1.564,M,40.593,M,1.7,0123*64\r\n
$GPGGA,133529.65,5703.3642452,N,00952.2374654,E,2,12,0.7,-1.566,M,40.593,M,2.0,0123*63\r\n
$GPGGA,133529.70,5703.3642785,N,00952.2374759,E,2,12,0.7,-1.564,M,40.593,M,2.0,0123*60\r\n
$GPGGA,133529.75,5703.3643113,N,00952.2374868,E,2,12,0.7,-1.564,M,40.593,M,2.0,0123*60\r\n
$GPGGA,133529.80,5703.3643448,N,00952.2374972,E,2,12,0.7,-1.566,M,40.593,M,2.0,0123*69\r\n
$GPGGA,133529.85,5703.3643787,N,00952.2375074,E,2,12,0.7,-1.563,M,40.593,M,2.2,0123*65\r\n
$GPGGA,133529.90,5703.3644124,N,00952.2375187,E,2,12,0.7,-1.563,M,40.593,M,2.2,0123*64\r\n
$GPGGA,133529.95,5703.3644460,N,00952.2375298,E,2,12,0.7,-1.562,M,40.593,M,2.2,0123*68\r\n
$GPGGA,133530.00,5703.3644795,N,00952.2375402,E,2,12,0.7,-1.565,M,40.593,M,2.2,0123*67\r\n
$GPGGA,133530.05,5703.3645132,N,00952.2375511,E,2,12,0.7,-1.572,M,40.593,M,2.4,0123*6B\r\n
$GPGGA,133530.10,5703.3645470,N,00952.2375622,E,2,12,0.7,-1.574,M,40.593,M,2.4,0123*69\r\n
$GPGGA,133530.15,5703.3645808,N,00952.2375746,E,2,12,0.7,-1.577,M,40.593,M,2.4,0123*6F\r\n
$GPGGA,133530.20,5703.3646132,N,00952.2375861,E,2,12,0.7,-1.578,M,40.593,M,2.4,0123*6F\r\n
$GPGGA,133530.25,5703.3646459,N,00952.2375972,E,2,12,0.7,-1.579,M,40.593,M,2.6,0123*62\r\n
$GPGGA,133530.30,5703.3646793,N,00952.2376089,E,2,12,0.7,-1.578,M,40.593,M,2.6,0123*6C\r\n
$GPGGA,133530.35,5703.3647126,N,00952.2376192,E,2,12,0.7,-1.578,M,40.593,M,2.6,0123*6B\r\n
$GPGGA,133530.40,5703.3647461,N,00952.2376295,E,2,12,0.7,-1.579,M,40.593,M,2.6,0123*6A\r\n
$GPGGA,133530.45,5703.3647797,N,00952.2376393,E,2,12,0.7,-1.574,M,40.593,M,2.8,0123*61\r\n
$GPGGA,133530.50,5703.3648129,N,00952.2376493,E,2,12,0.7,-1.571,M,40.593,M,2.8,0123*6B\r\n
$GPGGA,133530.55,5703.3648458,N,00952.2376586,E,2,12,0.7,-1.566,M,40.593,M,2.8,0123*6E\r\n
$GPGGA,133530.60,5703.3648789,N,00952.2376696,E,2,12,0.7,-1.562,M,40.593,M,2.8,0123*61\r\n
$GPGGA,133530.65,5703.3649111,N,00952.2376785,E,2,12,0.7,-1.561,M,40.593,M,3.0,0123*6B\r\n
$GPGGA,133530.70,5703.3649445,N,00952.2376880,E,2,12,0.7,-1.557,M,40.593,M,3.0,0123*64\r\n
$GPGGA,133530.75,5703.3649775,N,00952.2376980,E,2,12,0.7,-1.556,M,40.593,M,3.0,0123*61\r\n
$GPGGA,133530.80,5703.3650100,N,00952.2377083,E,2,12,0.7,-1.554,M,40.593,M,3.0,0123*6E\r\n
$GPGGA,133530.85,5703.3650420,N,00952.2377195,E,2,12,0.7,-1.557,M,40.593,M,3.2,0123*6B\r\n
$GPGGA,133530.90,5703.3650758,N,00952.2377301,E,2,12,0.7,-1.558,M,40.593,M,3.2,0123*63\r\n
$GPGGA,133530.95,5703.3651101,N,00952.2377407,E,2,12,0.7,-1.560,M,40.593,M,3.2,0123*67\r\n
$GPGGA,133531.00,5703.3651442,N,00952.2377536,E,2,12,0.7,-1.563,M,40.593,M,3.2,0123*68\r\n
$GPGGA,133531.05,5703.3651795,N,00952.2377668,E,2,12,0.7,-1.566,M,40.593,M,3.5,0123*6E\r\n
$GPGGA,133531.10,5703.3652137,N,00952.2377793,E,2,12,0.7,-1.572,M,40.593,M,3.5,0123*67\r\n
$GPGGA,133531.15,5703.3652482,N,00952.2377919,E,2,12,0.7,-1.577,M,40.593,M,3.5,0123*60\r\n
$GPGGA,133531.20,5703.3652831,N,00952.2378050,E,2,12,0.7,-1.579,M,40.593,M,3.5,0123*67\r\n
$GPGGA,133531.25,5703.3653159,N,00952.2378178,E,2,12,0.7,-1.587,M,40.593,M,2.2,0123*68\r\n
$GPGGA,133531.30,5703.3653489,N,00952.2378286,E,2,12,0.7,-1.587,M,40.593,M,2.2,0123*66\r\n
$GPGGA,133531.35,5703.3653810,N,00952.2378392,E,2,12,0.7,-1.586,M,40.593,M,2.2,0123*6A\r\n
$GPGGA,133531.40,5703.3654132,N,00952.2378499,E,2,12,0.7,-1.585,M,40.593,M,2.2,0123*69\r\n
$GPGGA,133531.45,5703.3654461,N,00952.2378601,E,2,12,0.7,-1.580,M,40.593,M,2.5,0123*6E\r\n
$GPGGA,133531.50,5703.3654785,N,00952.2378690,E,2,12,0.7,-1.575,M,40.593,M,2.5,0123*61\r\n
$GPGGA,133531.55,5703.3655112,N,00952.2378771,E,2,12,0.7,-1.572,M,40.593,M,2.5,0123*64\r\n
$GPGGA,133531.60,5703.3655435,N,00952.2378864,E,2,12,0.7,-1.568,M,40.593,M,2.5,0123*62\r\n
$GPGGA,133531.65,5703.3655765,N,00952.2378945,E,2,12,0.7,-1.563,M,40.593,M,2.7,0123*6A\r\n
$GPGGA,133531.70,5703.3656095,N,00952.2379023,E,2,12,0.7,-1.557,M,40.593,M,2.7,0123*6A\r\n
$GPGGA,133531.75,5703.3656429,N,00952.2379119,E,2,12,0.7,-1.553,M,40.593,M,2.7,0123*60\r\n
$GPGGA,133531.80,5703.3656769,N,00952.2379219,E,2,12,0.7,-1.554,M,40.593,M,2.7,0123*69\r\n
$GPGGA,133531.85,5703.3657112,N,00952.2379329,E,2,12,0.7,-1.554,M,40.593,M,3.0,0123*63\r\n
$GPGGA,133531.90,5703.3657451,N,00952.2379452,E,2,12,0.7,-1.556,M,40.593,M,3.0,0123*6C\r\n
$GPGGA,133531.95,5703.3657789,N,00952.2379596,E,2,12,0.7,-1.560,M,40.593,M,3.0,0123*63\r\n
$GPGGA,133532.00,5703.3658137,N,00952.2379741,E,2,12,0.7,-1.567,M,40.593,M,3.0,0123*6F\r\n
$GPGGA,133532.05,5703.3658473,N,00952.2379882,E,2,12,0.7,-1.581,M,40.593,M,3.2,0123*65\r\n
$GPGGA,133532.10,5703.3658811,N,00952.2380015,E,2,12,0.7,-1.584,M,40.593,M,3.2,0123*6C\r\n
$GPGGA,133532.15,5703.3659149,N,00952.2380157,E,2,12,0.7,-1.589,M,40.593,M,3.2,0123*66\r\n
$GPGGA,133532.20,5703.3659484,N,00952.2380297,E,2,12,0.7,-1.591,M,40.593,M,3.2,0123*62\r\n
$GPGGA,133532.25,5703.3659821,N,00952.2380417,E,2,12,0.7,-1.590,M,40.593,M,2.8,0123*60\r\n
$GPGGA,133532.30,5703.3660139,N,00952.2380536,E,2,12,0.7,-1.590,M,40.593,M,2.8,0123*6C\r\n
$GPGGA,133532.35,5703.3660469,N,00952.2380637,E,2,12,0.7,-1.586,M,40.593,M,2.8,0123*6C\r\n
$GPGGA,133532.40,5703.3660798,N,00952.2380730,E,2,12,0.7,-1.581,M,40.593,M,2.8,0123*62\r\n
$GPGGA,133532.45,5703.3661130,N,00952.2380825,E,2,12,0.7,-1.573,M,40.593,M,3.1,0123*6C\r\n
$GPGGA,133532.50,5703.3661462,N,00952.2380908,E,2,12,0.7,-1.569,M,40.593,M,3.1,0123*6F\r\n
$GPGGA,133532.55,5703.3661793,N,00952.2380989,E,2,12,0.7,-1.566,M,40.593,M,3.1,0123*61\r\n
$GPGGA,133532.60,5703.3662122,N,00952.2381072,E,2,12,0.7,-1.561,M,40.593,M,3.1,0123*63\r\n
$GPGGA,133532.65,5703.3662444,N,00952.2381144,E,2,12,0.7,-1.557,M,40.593,M,3.3,0123*60\r\n
$GPGGA,133532.70,5703.3662770,N,00952.2381231,E,2,12,0.7,-1.553,M,40.593,M,3.3,0123*65\r\n
$GPGGA,133532.75,5703.3663101,N,00952.2381317,E,2,12,0.7,-1.551,M,40.593,M,3.3,0123*66\r\n
$GPGGA,133532.80,5703.3663435,N,00952.2381404,E,2,12,0.7,-1.553,M,40.593,M,3.3,0123*69\r\n
$GPGGA,133532.85,5703.3663777,N,00952.2381516,E,2,12,0.7,-1.553,M,40.593,M,3.6,0123*6E\r\n
$GPGGA,133532.90,5703.3664129,N,00952.2381627,E,2,12,0.7,-1.558,M,40.593,M,3.6,0123*6A\r\n
$GPGGA,133532.95,5703.3664478,N,00952.2381750,E,2,12,0.7,-1.562,M,40.593,M,3.6,0123*66\r\n
$GPGGA,133533.00,5703.3664822,N,00952.2381875,E,2,12,0.7,-1.569,M,40.593,M,3.6,0123*6B\r\n
$GPGGA,133533.05,5703.3665170,N,00952.2382020,E,2,12,0.7,-1.575,M,40.593,M,3.8,0123*69\r\n
$GPGGA,133533.10,5703.3665519,N,00952.2382155,E,2,12,0.7,-1.583,M,40.593,M,3.8,0123*6C\r\n
$GPGGA,133533.15,5703.3665874,N,00952.2382268,E,2,12,0.7,-1.588,M,40.593,M,3.8,0123*69\r\n
$GPGGA,133533.20,5703.3666226,N,00952.2382379,E,2,12,0.7,-1.590,M,40.593,M,3.8,0123*69\r\n
$GPGGA,133533.25,5703.3666554,N,00952.2382491,E,2,12,0.7,-1.594,M,40.593,M,1.5,0123*64\r\n
$GPGGA,133533.30,5703.3666876,N,00952.2382606,E,2,12,0.7,-1.590,M,40.593,M,1.5,0123*65\r\n
$GPGGA,133533.35,5703.3667187,N,00952.2382721,E,2,12,0.7,-1.586,M,40.593,M,1.5,0123*65\r\n
$GPGGA,133533.40,5703.3667499,N,00952.2382819,E,2,12,0.7,-1.581,M,40.593,M,1.5,0123*6E\r\n
$GPGGA,133533.45,5703.3667820,N,00952.2382918,E,2,12,0.7,-1.574,M,40.593,M,1.7,0123*6D\r\n
$GPGGA,133533.50,5703.3668147,N,00952.2383008,E,2,12,0.7,-1.568,M,40.593,M,1.7,0123*6A\r\n
$GPGGA,133533.55,5703.3668469,N,00952.2383091,E,2,12,0.7,-1.560,M,40.593,M,1.7,0123*6E\r\n
$GPGGA,133533.60,5703.3668789,N,00952.2383181,E,2,12,0.7,-1.550,M,40.593,M,1.7,0123*66\r\n
$GPGGA,133533.65,5703.3669118,N,00952.2383257,E,2,12,0.7,-1.537,M,40.593,M,2.0,0123*61\r\n
$GPGGA,133533.70,5703.3669440,N,00952.2383340,E,2,12,0.7,-1.535,M,40.593,M,2.0,0123*68\r\n
$GPGGA,133533.75,5703.3669765,N,00952.2383428,E,2,12,0.7,-1.536,M,40.593,M,2.0,0123*63\r\n
$GPGGA,133533.80,5703.3670092,N,00952.2383527,E,2,12,0.7,-1.537,M,40.593,M,2.0,0123*61\r\n
$GPGGA,133533.85,5703.3670426,N,00952.2383641,E,2,12,0.7,-1.544,M,40.593,M,2.2,0123*6A\r\n
$GPGGA,133533.90,5703.3670777,N,00952.2383778,E,2,12,0.7,-1.549,M,40.593,M,2.2,0123*6F\r\n
$GPGGA,133533.95,5703.3671123,N,00952.2383917,E,2,12,0.7,-1.558,M,40.593,M,2.2,0123*6B\r\n
$GPGGA,133534.00,5703.3671458,N,00952.2384057,E,2,12,0.7,-1.569,M,40.593,M,2.2,0123*61\r\n
$GPGGA,133534.05,5703.3671808,N,00952.2384189,E,2,12,0.7,-1.574,M,40.593,M,2.4,0123*65\r\n
$GPGGA,133534.10,5703.3672140,N,00952.2384309,E,2,12,0.7,-1.580,M,40.593,M,2.4,0123*66\r\n
$GPGGA,133534.15,5703.3672465,N,00952.2384419,E,2,12,0.7,-1.583,M,40.593,M,2.4,0123*64\r\n
$GPGGA,133534.20,5703.3672786,N,00952.2384530,E,2,12,0.7,-1.582,M,40.593,M,2.4,0123*67\r\n
$GPGGA,133534.25,5703.3673102,N,00952.2384629,E,2,12,0.7,-1.580,M,40.593,M,2.6,0123*62\r\n
$GPGGA,133534.30,5703.3673425,N,00952.2384733,E,2,12,0.7,-1.575,M,40.593,M,2.6,0123*66\r\n
$GPGGA,133534.35,5703.3673739,N,00952.2384826,E,2,12,0.7,-1.573,M,40.593,M,2.6,0123*60\r\n
$GPGGA,133534.40,5703.3674053,N,00952.2384920,E,2,12,0.7,-1.570,M,40.593,M,2.6,0123*6A\r\n
$GPGGA,133534.45,5703.3674363,N,00952.2384992,E,2,12,0.7,-1.563,M,40.593,M,2.8,0123*6A\r\n
$GPGGA,133534.50,5703.3674680,N,00952.2385079,E,2,12,0.7,-1.556,M,40.593,M,2.8,0123*6D\r\n
$GPGGA,133534.55,5703.3674998,N,00952.2385167,E,2,12,0.7,-1.551,M,40.593,M,2.8,0123*67\r\n
$GPGGA,133534.60,5703.3675327,N,00952.2385260,E,2,12,0.7,-1.546,M,40.593,M,2.8,0123*6C\r\n
$GPGGA,133534.65,5703.3675654,N,00952.2385360,E,2,12,0.7,-1.545,M,40.593,M,3.0,0123*63\r\n
$GPGGA,133534.70,5703.3675985,N,00952.2385450,E,2,12,0.7,-1.549,M,40.593,M,3.0,0123*6C\r\n
$GPGGA,133534.75,5703.3676315,N,00952.2385546,E,2,12,0.7,-1.556,M,40.593,M,3.0,0123*61\r\n
$GPGGA,133534.80,5703.3676654,N,00952.2385677,E,2,12,0.7,-1.562,M,40.593,M,3.0,0123*6D\r\n
$GPGGA,133534.85,5703.3677002,N,00952.2385803,E,2,12,0.7,-1.569,M,40.593,M,3.2,0123*68\r\n
$GPGGA,133534.90,5703.3677349,N,00952.2385929,E,2,12,0.7,-1.576,M,40.593,M,3.2,0123*67\r\n
$GPGGA,133534.95,5703.3677683,N,00952.2386046,E,2,12,0.7,-1.583,M,40.593,M,3.2,0123*68\r\n
$GPGGA,133535.00,5703.3678006,N,00952.2386156,E,2,12,0.7,-1.589,M,40.593,M,3.2,0123*6B\r\n
$GPGGA,133535.05,5703.3678328,N,00952.2386257,E,2,12,0.7,-1.591,M,40.593,M,3.5,0123*6D\r\n
$GPGGA,133535.10,5703.3678658,N,00952.2386347,E,2,12,0.7,-1.588,M,40.593,M,3.5,0123*63\r\n
$GPGGA,133535.15,5703.3678971,N,00952.2386432,E,2,12,0.7,-1.584,M,40.593,M,3.5,0123*6B\r\n
$GPGGA,133535.20,5703.3679279,N,00952.2386515,E,2,12,0.7,-1.578,M,40.593,M,3.5,0123*68\r\n
$GPGGA,133535.25,5703.3679586,N,00952.2386610,E,2,12,0.7,-1.571,M,40.593,M,2.2,0123*63\r\n
$GPGGA,133535.30,5703.3679904,N,00952.2386672,E,2,12,0.7,-1.561,M,40.593,M,2.2,0123*64\r\n
$GPGGA,133535.35,5703.3680222,N,00952.2386744,E,2,12,0.7,-1.553,M,40.593,M,2.2,0123*6D\r\n
$GPGGA,133535.40,5703.3680542,N,00952.2386813,E,2,12,0.7,-1.544,M,40.593,M,2.2,0123*65\r\n
$GPGGA,133535.45,5703.3680854,N,00952.2386883,E,2,12,0.7,-1.540,M,40.593,M,2.5,0123*60\r\n
$GPGGA,133535.50,5703.3681166,N,00952.2386960,E,2,12,0.7,-1.534,M,40.593,M,2.5,0123*62\r\n
$GPGGA,133535.55,5703.3681480,N,00952.2387047,E,2,12,0.7,-1.531,M,40.593,M,2.5,0123*62\r\n
$GPGGA,133535.60,5703.3681804,N,00952.2387136,E,2,12,0.7,-1.534,M,40.593,M,2.5,0123*66\r\n
$GPGGA,133535.65,5703.3682150,N,00952.2387238,E,2,12,0.7,-1.528,M,40.593,M,2.7,0123*6A\r\n
$GPGGA,133535.70,5703.3682486,N,00952.2387353,E,2,12,0.7,-1.531,M,40.593,M,2.7,0123*64\r\n
$GPGGA,133535.75,5703.3682828,N,00952.2387464,E,2,12,0.7,-1.538,M,40.593,M,2.7,0123*63\r\n
$GPGGA,133535.80,5703.3683163,N,00952.2387586,E,2,12,0.7,-1.549,M,40.593,M,2.7,0123*65\r\n
$GPGGA,133535.85,5703.3683496,N,00952.2387726,E,2,12,0.7,-1.563,M,40.593,M,3.0,0123*69\r\n
$GPGGA,133535.90,5703.3683838,N,00952.2387851,E,2,12,0.7,-1.571,M,40.593,M,3.0,0123*69\r\n
$GPGGA,133535.95,5703.3684172,N,00952.2387976,E,2,12,0.7,-1.578,M,40.593,M,3.0,0123*61\r\n
$GPGGA,133536.00,5703.3684496,N,00952.2388074,E,2,12,0.7,-1.582,M,40.593,M,3.0,0123*60\r\n
$GPGGA,133536.05,5703.3684800,N,00952.2388163,E,2,12,0.7,-1.593,M,40.593,M,3.2,0123*63\r\n
$GPGGA,133536.10,5703.3685110,N,00952.2388244,E,2,12,0.7,-1.593,M,40.593,M,3.2,0123*68\r\n
$GPGGA,133536.15,5703.3685423,N,00952.2388323,E,2,12,0.7,-1.589,M,40.593,M,3.2,0123*63\r\n
$GPGGA,133536.20,5703.3685735,N,00952.2388385,E,2,12,0.7,-1.583,M,40.593,M,3.2,0123*67\r\n
$GPGGA,133536.25,5703.3686057,N,00952.2388440,E,2,12,0.7,-1.568,M,40.593,M,2.8,0123*62\r\n
$GPGGA,133536.30,5703.3686364,N,00952.2388491,E,2,12,0.7,-1.560,M,40.593,M,2.8,0123*61\r\n
$GPGGA,133536.35,5703.3686672,N,00952.2388542,E,2,12,0.7,-1.554,M,40.593,M,2.8,0123*6E\r\n
$GPGGA,133536.40,5703.3686982,N,00952.2388588,E,2,12,0.7,-1.549,M,40.593,M,2.8,0123*66\r\n
$GPGGA,133536.45,5703.3687281,N,00952.2388639,E,2,12,0.7,-1.545,M,40.593,M,3.1,0123*67\r\n
$GPGGA,133536.50,5703.3687599,N,00952.2388687,E,2,12,0.7,-1.539,M,40.593,M,3.1,0123*63\r\n
$GPGGA,133536.55,5703.3687920,N,00952.2388743,E,2,12,0.7,-1.533,M,40.593,M,3.1,0123*6B\r\n
$GPGGA,133536.60,5703.3688242,N,00952.2388822,E,2,12,0.7,-1.533,M,40.593,M,3.1,0123*65\r\n
$GPGGA,133536.65,5703.3688576,N,00952.2388919,E,2,12,0.7,-1.534,M,40.593,M,3.3,0123*6C\r\n
$GPGGA,133536.70,5703.3688906,N,00952.2389026,E,2,12,0.7,-1.540,M,40.593,M,3.3,0123*64\r\n
$GPGGA,133536.75,5703.3689238,N,00952.2389154,E,2,12,0.7,-1.546,M,40.593,M,3.3,0123*64\r\n
$GPGGA,133536.80,5703.3689579,N,00952.2389286,E,2,12,0.7,-1.554,M,40.593,M,3.3,0123*63\r\n
$GPGGA,133536.85,5703.3689907,N,00952.2389416,E,2,12,0.7,-1.570,M,40.593,M,3.6,0123*6F\r\n
$GPGGA,133536.90,5703.3690243,N,00952.2389532,E,2,12,0.7,-1.576,M,40.593,M,3.6,0123*69\r\n
$GPGGA,133536.95,5703.3690560,N,00952.2389637,E,2,12,0.7,-1.582,M,40.593,M,3.6,0123*67\r\n
$GPGGA,133537.00,5703.3690869,N,00952.2389742,E,2,12,0.7,-1.586,M,40.593,M,3.6,0123*69\r\n
$GPGGA,133537.05,5703.3691181,N,00952.2389832,E,2,12,0.7,-1.586,M,40.593,M,3.8,0123*64\r\n
$GPGGA,133537.10,5703.3691500,N,00952.2389922,E,2,12,0.7,-1.582,M,40.593,M,3.8,0123*69\r\n
$GPGGA,133537.15,5703.3691800,N,00952.2390007,E,2,12,0.7,-1.579,M,40.593,M,3.8,0123*63\r\n
$GPGGA,133537.20,5703.3692105,N,00952.2390074,E,2,12,0.7,-1.573,M,40.593,M,3.8,0123*64\r\n
$GPGGA,133537.25,5703.3692414,N,00952.2390120,E,2,12,0.7,-1.567,M,40.593,M,1.5,0123*6E\r\n
$GPGGA,133537.30,5703.3692725,N,00952.2390169,E,2,12,0.7,-1.560,M,40.593,M,1.5,0123*61\r\n
$GPGGA,133537.35,5703.3693037,N,00952.2390207,E,2,12,0.7,-1.553,M,40.593,M,1.5,0123*6A\r\n
$GPGGA,133537.40,5703.3693351,N,00952.2390243,E,2,12,0.7,-1.545,M,40.593,M,1.5,0123*6C\r\n
$GPGGA,133537.45,5703.3693665,N,00952.2390273,E,2,12,0.7,-1.537,M,40.593,M,1.7,0123*6F\r\n
$GPGGA,133537.50,5703.3693974,N,00952.2390325,E,2,12,0.7,-1.534,M,40.593,M,1.7,0123*65\r\n
$GPGGA,133537.55,5703.3694289,N,00952.2390383,E,2,12,0.7,-1.535,M,40.593,M,1.7,0123*63\r\n
$GPGGA,133537.60,5703.3694616,N,00952.2390447,E,2,12,0.7,-1.537,M,40.593,M,1.7,0123*6A\r\n
$GPGGA,133537.65,5703.3694935,N,00952.2390514,E,2,12,0.7,-1.545,M,40.593,M,2.0,0123*67\r\n
$GPGGA,133537.70,5703.3695270,N,00952.2390592,E,2,12,0.7,-1.549,M,40.593,M,2.0,0123*6A\r\n
$GPGGA,133537.75,5703.3695600,N,00952.2390693,E,2,12,0.7,-1.556,M,40.593,M,2.0,0123*60\r\n
$GPGGA,133537.80,5703.3695932,N,00952.2390797,E,2,12,0.7,-1.564,M,40.593,M,2.0,0123*60\r\n
$GPGGA,133537.85,5703.3696250,N,00952.2390908,E,2,12,0.7,-1.574,M,40.593,M,2.2,0123*62\r\n
$GPGGA,133537.90,5703.3696570,N,00952.2391011,E,2,12,0.7,-1.580,M,40.593,M,2.2,0123*68\r\n
$GPGGA,133537.95,5703.3696894,N,00952.2391101,E,2,12,0.7,-1.582,M,40.593,M,2.2,0123*68\r\n
$GPGGA,133538.00,5703.3697212,N,00952.2391193,E,2,12,0.7,-1.583,M,40.593,M,2.2,0123*64\r\n
$GPGGA,133538.05,5703.3697528,N,00952.2391285,E,2,12,0.7,-1.586,M,40.593,M,2.4,0123*68\r\n
$GPGGA,133538.10,5703.3697846,N,00952.2391376,E,2,12,0.7,-1.585,M,40.593,M,2.4,0123*67\r\n
$GPGGA,133538.15,5703.3698155,N,00952.2391457,E,2,12,0.7,-1.582,M,40.593,M,2.4,0123*65\r\n
$GPGGA,133538.20,5703.3698458,N,00952.2391528,E,2,12,0.7,-1.578,M,40.593,M,2.4,0123*67\r\n
$GPGGA,133538.25,5703.3698764,N,00952.2391584,E,2,12,0.7,-1.574,M,40.593,M,2.6,0123*66\r\n
$GPGGA,133538.30,5703.3699070,N,00952.2391642,E,2,12,0.7,-1.569,M,40.593,M,2.6,0123*64\r\n
$GPGGA,133538.35,5703.3699380,N,00952.2391693,E,2,12,0.7,-1.562,M,40.593,M,2.6,0123*6A\r\n
$GPGGA,133538.40,5703.3699689,N,00952.2391739,E,2,12,0.7,-1.560,M,40.593,M,2.6,0123*67\r\n
$GPGGA,133538.45,5703.3699999,N,00952.2391786,E,2,12,0.7,-1.555,M,40.593,M,2.8,0123*60\r\n
$GPGGA,133538.50,5703.3700314,N,00952.2391839,E,2,12,0.7,-1.552,M,40.593,M,2.8,0123*66\r\n
$GPGGA,133538.55,5703.3700632,N,00952.2391885,E,2,12,0.7,-1.550,M,40.593,M,2.8,0123*67\r\n
$GPGGA,133538.60,5703.3700954,N,00952.2391948,E,2,12,0.7,-1.551,M,40.593,M,2.8,0123*6F\r\n
$GPGGA,133538.65,5703.3701273,N,00952.2392014,E,2,12,0.7,-1.555,M,40.593,M,3.0,0123*6B\r\n
$GPGGA,133538.70,5703.3701598,N,00952.2392084,E,2,12,0.7,-1.558,M,40.593,M,3.0,0123*69\r\n
$GPGGA,133538.75,5703.3701933,N,00952.2392165,E,2,12,0.7,-1.564,M,40.593,M,3.0,0123*60\r\n
$GPGGA,133538.80,5703.3702269,N,00952.2392251,E,2,12,0.7,-1.570,M,40.593,M,3.0,0123*6C\r\n
$GPGGA,133538.85,5703.3702597,N,00952.2392349,E,2,12,0.7,-1.575,M,40.593,M,3.2,0123*60\r\n
$GPGGA,133538.90,5703.3702925,N,00952.2392444,E,2,12,0.7,-1.579,M,40.593,M,3.2,0123*67\r\n
$GPGGA,133538.95,5703.3703256,N,00952.2392535,E,2,12,0.7,-1.580,M,40.593,M,3.2,0123*6D\r\n
$GPGGA,133539.00,5703.3703581,N,00952.2392623,E,2,12,0.7,-1.583,M,40.593,M,3.2,0123*6A\r\n
$GPGGA,133539.05,5703.3703886,N,00952.2392703,E,2,12,0.7,-1.591,M,40.593,M,3.5,0123*62\r\n
$GPGGA,133539.10,5703.3704210,N,00952.2392770,E,2,12,0.7,-1.589,M,40.593,M,3.5,0123*69\r\n
$GPGGA,133539.15,5703.3704533,N,00952.2392833,E,2,12,0.7,-1.584,M,40.593,M,3.5,0123*6F\r\n
$GPGGA,133539.20,5703.3704860,N,00952.2392894,E,2,12,0.7,-1.579,M,40.593,M,3.5,0123*6D\r\n
$GPGGA,133539.25,5703.3705190,N,00952.2392943,E,2,12,0.7,-1.573,M,40.593,M,2.2,0123*68\r\n
$GPGGA,133539.30,5703.3705519,N,00952.2392985,E,2,12,0.7,-1.566,M,40.593,M,2.2,0123*67\r\n
$GPGGA,133539.35,5703.3705842,N,00952.2393028,E,2,12,0.7,-1.562,M,40.593,M,2.2,0123*6A\r\n
$GPGGA,133539.40,5703.3706165,N,00952.2393055,E,2,12,0.7,-1.557,M,40.593,M,2.2,0123*6B\r\n
$GPGGA,133539.45,5703.3706487,N,00952.2393082,E,2,12,0.7,-1.553,M,40.593,M,2.5,0123*6E\r\n
$GPGGA,133539.50,5703.3706820,N,00952.2393122,E,2,12,0.7,-1.549,M,40.593,M,2.5,0123*6B\r\n
$GPGGA,133539.55,5703.3707160,N,00952.2393158,E,2,12,0.7,-1.548,M,40.593,M,2.5,0123*6E\r\n
$GPGGA,133539.60,5703.3707500,N,00952.2393196,E,2,12,0.7,-1.550,M,40.593,M,2.5,0123*61\r\n
$GPGGA,133539.65,5703.3707856,N,00952.2393255,E,2,12,0.7,-1.545,M,40.593,M,2.7,0123*60\r\n
$GPGGA,133539.70,5703.3708209,N,00952.2393313,E,2,12,0.7,-1.548,M,40.593,M,2.7,0123*65\r\n
$GPGGA,133539.75,5703.3708568,N,00952.2393382,E,2,12,0.7,-1.551,M,40.593,M,2.7,0123*60\r\n
$GPGGA,133539.80,5703.3708933,N,00952.2393463,E,2,12,0.7,-1.556,M,40.593,M,2.7,0123*67\r\n
$GPGGA,133539.85,5703.3709296,N,00952.2393549,E,2,12,0.7,-1.557,M,40.593,M,3.0,0123*69\r\n
$GPGGA,133539.90,5703.3709656,N,00952.2393647,E,2,12,0.7,-1.566,M,40.593,M,3.0,0123*6A\r\n
$GPGGA,133539.95,5703.3710018,N,00952.2393739,E,2,12,0.7,-1.574,M,40.593,M,3.0,0123*60\r\n
$GPGGA,133540.00,5703.3710389,N,00952.2393796,E,2,12,0.7,-1.580,M,40.593,M,3.0,0123*67\r\n
$GPGGA,133540.05,5703.3710761,N,00952.2393864,E,2,12,0.7,-1.585,M,40.593,M,3.2,0123*65\r\n
$GPGGA,133540.10,5703.3711120,N,00952.2393935,E,2,12,0.7,-1.589,M,40.593,M,3.2,0123*6A\r\n
$GPGGA,133540.15,5703.3711475,N,00952.2394001,E,2,12,0.7,-1.590,M,40.593,M,3.2,0123*6B\r\n
$GPGGA,133540.20,5703.3711825,N,00952.2394031,E,2,12,0.7,-1.589,M,40.593,M,3.2,0123*6F\r\n
$GPGGA,133540.25,5703.3712190,N,00952.2394071,E,2,12,0.7,-1.582,M,40.593,M,2.8,0123*6A\r\n
$GPGGA,133540.30,5703.3712557,N,00952.2394106,E,2,12,0.7,-1.578,M,40.593,M,2.8,0123*65\r\n
$GPGGA,133540.35,5703.3712926,N,00952.2394119,E,2,12,0.7,-1.576,M,40.593,M,2.8,0123*6A\r\n
$GPGGA,133540.40,5703.3713303,N,00952.2394133,E,2,12,0.7,-1.570,M,40.593,M,2.8,0123*6A\r\n
$GPGGA,133540.45,5703.3713671,N,00952.2394143,E,2,12,0.7,-1.564,M,40.593,M,3.1,0123*65\r\n
$GPGGA,133540.50,5703.3714039,N,00952.2394160,E,2,12,0.7,-1.562,M,40.593,M,3.1,0123*6B\r\n
$GPGGA,133540.55,5703.3714418,N,00952.2394180,E,2,12,0.7,-1.559,M,40.593,M,3.1,0123*6F\r\n
$GPGGA,133540.60,5703.3714797,N,00952.2394205,E,2,12,0.7,-1.556,M,40.593,M,3.1,0123*6C\r\n
$GPGGA,133540.65,5703.3715179,N,00952.2394231,E,2,12,0.7,-1.557,M,40.593,M,3.3,0123*6A\r\n
$GPGGA,133540.70,5703.3715567,N,00952.2394279,E,2,12,0.7,-1.560,M,40.593,M,3.3,0123*6D\r\n
$GPGGA,133540.75,5703.3715960,N,00952.2394332,E,2,12,0.7,-1.564,M,40.593,M,3.3,0123*69\r\n
$GPGGA,133540.80,5703.3716356,N,00952.2394389,E,2,12,0.7,-1.566,M,40.593,M,3.3,0123*6D\r\n
$GPGGA,133540.85,5703.3716751,N,00952.2394447,E,2,12,0.7,-1.569,M,40.593,M,3.6,0123*64\r\n
$GPGGA,133540.90,5703.3717141,N,00952.2394503,E,2,12,0.7,-1.572,M,40.593,M,3.6,0123*6D\r\n
$GPGGA,133540.95,5703.3717537,N,00952.2394550,E,2,12,0.7,-1.573,M,40.593,M,3.6,0123*6A\r\n
$GPGGA,133541.00,5703.3717930,N,00952.2394605,E,2,12,0.7,-1.574,M,40.593,M,3.6,0123*68\r\n
$GPGGA,133541.05,5703.3718335,N,00952.2394655,E,2,12,0.7,-1.571,M,40.593,M,3.8,0123*63\r\n
$GPGGA,133541.10,5703.3718737,N,00952.2394698,E,2,12,0.7,-1.573,M,40.593,M,3.8,0123*62\r\n
$GPGGA,133541.15,5703.3719140,N,00952.2394736,E,2,12,0.7,-1.575,M,40.593,M,3.8,0123*63\r\n
$GPGGA,133541.20,5703.3719544,N,00952.2394773,E,2,12,0.7,-1.575,M,40.593,M,3.8,0123*64\r\n
$GPGGA,133541.25,5703.3719947,N,00952.2394801,E,2,12,0.7,-1.579,M,40.593,M,1.5,0123*67\r\n
$GPGGA,133541.30,5703.3720345,N,00952.2394824,E,2,12,0.7,-1.580,M,40.593,M,1.5,0123*60\r\n
$GPGGA,133541.35,5703.3720750,N,00952.2394840,E,2,12,0.7,-1.581,M,40.593,M,1.5,0123*66\r\n
$GPGGA,133541.40,5703.3721158,N,00952.2394857,E,2,12,0.7,-1.583,M,40.593,M,1.5,0123*6F\r\n
$GPGGA,133541.45,5703.3721575,N,00952.2394879,E,2,12,0.7,-1.581,M,40.593,M,1.7,0123*6D\r\n
$GPGGA,133541.50,5703.3721993,N,00952.2394900,E,2,12,0.7,-1.582,M,40.593,M,1.7,0123*61\r\n
$GPGGA,133541.55,5703.3722407,N,00952.2394915,E,2,12,0.7,-1.586,M,40.593,M,1.7,0123*67\r\n
$GPGGA,133541.60,5703.3722826,N,00952.2394932,E,2,12,0.7,-1.587,M,40.593,M,1.7,0123*6A\r\n
$GPGGA,133541.65,5703.3723250,N,00952.2394950,E,2,12,0.7,-1.587,M,40.593,M,2.0,0123*65\r\n
$GPGGA,133541.70,5703.3723657,N,00952.2394978,E,2,12,0.7,-1.589,M,40.593,M,2.0,0123*66\r\n
$GPGGA,133541.75,5703.3724074,N,00952.2394985,E,2,12,0.7,-1.589,M,40.593,M,2.0,0123*61\r\n
$GPGGA,133541.80,5703.3724487,N,00952.2394991,E,2,12,0.7,-1.586,M,40.593,M,2.0,0123*69\r\n
$GPGGA,133541.85,5703.3724903,N,00952.2394995,E,2,12,0.7,-1.582,M,40.593,M,2.2,0123*6F\r\n
$GPGGA,133541.90,5703.3725318,N,00952.2394997,E,2,12,0.7,-1.578,M,40.593,M,2.2,0123*6D\r\n
$GPGGA,133541.95,5703.3725728,N,00952.2395002,E,2,12,0.7,-1.577,M,40.593,M,2.2,0123*64\r\n
$GPGGA,133542.00,5703.3726145,N,00952.2395010,E,2,12,0.7,-1.574,M,40.593,M,2.2,0123*65\r\n
$GPGGA,133542.05,5703.3726576,N,00952.2395021,E,2,12,0.7,-1.569,M,40.593,M,2.4,0123*6C\r\n
$GPGGA,133542.10,5703.3727011,N,00952.2395017,E,2,12,0.7,-1.566,M,40.593,M,2.4,0123*67\r\n
$GPGGA,133542.15,5703.3727435,N,00952.2395017,E,2,12,0.7,-1.566,M,40.593,M,2.4,0123*60\r\n
$GPGGA,133542.20,5703.3727871,N,00952.2395026,E,2,12,0.7,-1.566,M,40.593,M,2.4,0123*68\r\n
$GPGGA,133542.25,5703.3728308,N,00952.2395037,E,2,12,0.7,-1.566,M,40.593,M,2.6,0123*65\r\n
$GPGGA,133542.30,5703.3728747,N,00952.2395043,E,2,12,0.7,-1.569,M,40.593,M,2.6,0123*62\r\n
$GPGGA,133542.35,5703.3729189,N,00952.2395060,E,2,12,0.7,-1.573,M,40.593,M,2.6,0123*68\r\n
$GPGGA,133542.40,5703.3729634,N,00952.2395075,E,2,12,0.7,-1.577,M,40.593,M,2.6,0123*6B\r\n
$GPGGA,133542.45,5703.3730084,N,00952.2395087,E,2,12,0.7,-1.581,M,40.593,M,2.8,0123*61\r\n
$GPGGA,133542.50,5703.3730531,N,00952.2395094,E,2,12,0.7,-1.591,M,40.593,M,2.8,0123*6D\r\n
$GPGGA,133542.55,5703.3730980,N,00952.2395106,E,2,12,0.7,-1.596,M,40.593,M,2.8,0123*63\r\n
$GPGGA,133542.60,5703.3731422,N,00952.2395096,E,2,12,0.7,-1.598,M,40.593,M,2.8,0123*67\r\n
$GPGGA,133542.65,5703.3731851,N,00952.2395086,E,2,12,0.7,-1.601,M,40.593,M,3.0,0123*61\r\n
$GPGGA,133542.70,5703.3732283,N,00952.2395064,E,2,12,0.7,-1.600,M,40.593,M,3.0,0123*6E\r\n
$GPGGA,133542.75,5703.3732709,N,00952.2395034,E,2,12,0.7,-1.599,M,40.593,M,3.0,0123*6A\r\n
$GPGGA,133542.80,5703.3733155,N,00952.2394991,E,2,12,0.7,-1.595,M,40.593,M,3.0,0123*65\r\n
$GPGGA,133542.85,5703.3733604,N,00952.2394953,E,2,12,0.7,-1.584,M,40.593,M,3.2,0123*6F\r\n
$GPGGA,133542.90,5703.3734040,N,00952.2394896,E,2,12,0.7,-1.577,M,40.593,M,3.2,0123*6E\r\n
$GPGGA,133542.95,5703.3734481,N,00952.2394836,E,2,12,0.7,-1.571,M,40.593,M,3.2,0123*6E\r\n
$GPGGA,133543.00,5703.3734918,N,00952.2394780,E,2,12,0.7,-1.567,M,40.593,M,3.2,0123*6B\r\n
$GPGGA,133543.05,5703.3735365,N,00952.2394729,E,2,12,0.7,-1.569,M,40.593,M,3.5,0123*65\r\n
$GPGGA,133543.10,5703.3735818,N,00952.2394680,E,2,12,0.7,-1.568,M,40.593,M,3.5,0123*63\r\n
$GPGGA,133543.15,5703.3736268,N,00952.2394624,E,2,12,0.7,-1.568,M,40.593,M,3.5,0123*66\r\n
$GPGGA,133543.20,5703.3736718,N,00952.2394583,E,2,12,0.7,-1.570,M,40.593,M,3.5,0123*65\r\n
$GPGGA,133543.25,5703.3737174,N,00952.2394555,E,2,12,0.7,-1.571,M,40.593,M,2.2,0123*61\r\n
$GPGGA,133543.30,5703.3737630,N,00952.2394523,E,2,12,0.7,-1.573,M,40.593,M,2.2,0123*61\r\n
$GPGGA,133543.35,5703.3738096,N,00952.2394503,E,2,12,0.7,-1.578,M,40.593,M,2.2,0123*68\r\n
$GPGGA,133543.40,5703.3738556,N,00952.2394480,E,2,12,0.7,-1.584,M,40.593,M,2.2,0123*6A\r\n
$GPGGA,133543.45,5703.3739013,N,00952.2394458,E,2,12,0.7,-1.588,M,40.593,M,2.5,0123*64\r\n
$GPGGA,133543.50,5703.3739471,N,00952.2394445,E,2,12,0.7,-1.585,M,40.593,M,2.5,0123*61\r\n
$GPGGA,133543.55,5703.3739927,N,00952.2394413,E,2,12,0.7,-1.581,M,40.593,M,2.5,0123*6D\r\n
$GPGGA,133543.60,5703.3740376,N,00952.2394379,E,2,12,0.7,-1.581,M,40.593,M,2.5,0123*60\r\n
$GPGGA,133543.65,5703.3740827,N,00952.2394333,E,2,12,0.7,-1.582,M,40.593,M,2.7,0123*65\r\n
$GPGGA,133543.70,5703.3741279,N,00952.2394270,E,2,12,0.7,-1.580,M,40.593,M,2.7,0123*65\r\n
$GPGGA,133543.75,5703.3741736,N,00952.2394194,E,2,12,0.7,-1.578,M,40.593,M,2.7,0123*60\r\n
$GPGGA,133543.80,5703.3742186,N,00952.2394125,E,2,12,0.7,-1.577,M,40.593,M,2.7,0123*61\r\n
$GPGGA,133543.85,5703.3742639,N,00952.2394046,E,2,12,0.7,-1.580,M,40.593,M,3.0,0123*6D\r\n
$GPGGA,133543.90,5703.3743095,N,00952.2393961,E,2,12,0.7,-1.581,M,40.593,M,3.0,0123*62\r\n
$GPGGA,133543.95,5703.3743562,N,00952.2393882,E,2,12,0.7,-1.586,M,40.593,M,3.0,0123*61\r\n
$GPGGA,133544.00,5703.3744028,N,00952.2393797,E,2,12,0.7,-1.590,M,40.593,M,3.0,0123*6A\r\n
$GPGGA,133544.05,5703.3744495,N,00952.2393711,E,2,12,0.7,-1.597,M,40.593,M,3.2,0123*66\r\n
$GPGGA,133544.10,5703.3744957,N,00952.2393642,E,2,12,0.7,-1.601,M,40.593,M,3.2,0123*6A\r\n
$GPGGA,133544.15,5703.3745416,N,00952.2393557,E,2,12,0.7,-1.603,M,40.593,M,3.2,0123*63\r\n
$GPGGA,133544.20,5703.3745876,N,00952.2393470,E,2,12,0.7,-1.606,M,40.593,M,3.2,0123*6E\r\n
$GPGGA,133544.25,5703.3746335,N,00952.2393389,E,2,12,0.7,-1.604,M,40.593,M,2.8,0123*6C\r\n
$GPGGA,133544.30,5703.3746791,N,00952.2393310,E,2,12,0.7,-1.601,M,40.593,M,2.8,0123*67\r\n
$GPGGA,133544.35,5703.3747243,N,00952.2393218,E,2,12,0.7,-1.597,M,40.593,M,2.8,0123*6C\r\n
$GPGGA,133544.40,5703.3747701,N,00952.2393134,E,2,12,0.7,-1.589,M,40.593,M,2.8,0123*6F\r\n
$GPGGA,133544.45,5703.3748151,N,00952.2393042,E,2,12,0.7,-1.578,M,40.593,M,3.1,0123*60\r\n
$GPGGA,133544.50,5703.3748602,N,00952.2392939,E,2,12,0.7,-1.573,M,40.593,M,3.1,0123*6A\r\n
$GPGGA,133544.55,5703.3749048,N,00952.2392825,E,2,12,0.7,-1.569,M,40.593,M,3.1,0123*61\r\n
$GPGGA,133544.60,5703.3749502,N,00952.2392714,E,2,12,0.7,-1.564,M,40.593,M,3.1,0123*6C\r\n
$GPGGA,133544.65,5703.3749960,N,00952.2392613,E,2,12,0.7,-1.567,M,40.593,M,3.3,0123*66\r\n
$GPGGA,133544.70,5703.3750431,N,00952.2392513,E,2,12,0.7,-1.566,M,40.593,M,3.3,0123*61\r\n
$GPGGA,133544.75,5703.3750912,N,00952.2392424,E,2,12,0.7,-1.568,M,40.593,M,3.3,0123*63\r\n
$GPGGA,133544.80,5703.3751390,N,00952.2392335,E,2,12,0.7,-1.570,M,40.593,M,3.3,0123*66\r\n
$GPGGA,133544.85,5703.3751869,N,00952.2392240,E,2,12,0.7,-1.576,M,40.593,M,3.6,0123*6E\r\n
$GPGGA,133544.90,5703.3752346,N,00952.2392153,E,2,12,0.7,-1.579,M,40.593,M,3.6,0123*61\r\n
$GPGGA,133544.95,5703.3752831,N,00952.2392060,E,2,12,0.7,-1.581,M,40.593,M,3.6,0123*69\r\n
$GPGGA,133545.00,5703.3753302,N,00952.2391950,E,2,12,0.7,-1.586,M,40.593,M,3.6,0123*60\r\n
$GPGGA,133545.05,5703.3753776,N,00952.2391869,E,2,12,0.7,-1.596,M,40.593,M,3.8,0123*66\r\n
$GPGGA,133545.10,5703.3754235,N,00952.2391751,E,2,12,0.7,-1.600,M,40.593,M,3.8,0123*6F\r\n
$GPGGA,133545.15,5703.3754695,N,00952.2391616,E,2,12,0.7,-1.600,M,40.593,M,3.8,0123*66\r\n
$GPGGA,133545.20,5703.3755160,N,00952.2391477,E,2,12,0.7,-1.599,M,40.593,M,3.8,0123*6A\r\n
$GPGGA,133545.25,5703.3755627,N,00952.2391338,E,2,12,0.7,-1.597,M,40.593,M,1.5,0123*66\r\n
$GPGGA,133545.30,5703.3756083,N,00952.2391193,E,2,12,0.7,-1.597,M,40.593,M,1.5,0123*6A\r\n
$GPGGA,133545.35,5703.3756535,N,00952.2391028,E,2,12,0.7,-1.598,M,40.593,M,1.5,0123*69\r\n
$GPGGA,133545.40,5703.3756986,N,00952.2390865,E,2,12,0.7,-1.596,M,40.593,M,1.5,0123*61\r\n
$GPGGA,133545.45,5703.3757445,N,00952.2390694,E,2,12,0.7,-1.590,M,40.593,M,1.7,0123*63\r\n
$GPGGA,133545.50,5703.3757907,N,00952.2390534,E,2,12,0.7,-1.587,M,40.593,M,1.7,0123*63\r\n
$GPGGA,133545.55,5703.3758369,N,00952.2390388,E,2,12,0.7,-1.585,M,40.593,M,1.7,0123*68\r\n
$GPGGA,133545.60,5703.3758838,N,00952.2390232,E,2,12,0.7,-1.582,M,40.593,M,1.7,0123*66\r\n
$GPGGA,133545.65,5703.3759302,N,00952.2390087,E,2,12,0.7,-1.584,M,40.593,M,2.0,0123*6E\r\n
$GPGGA,133545.70,5703.3759770,N,00952.2389941,E,2,12,0.7,-1.582,M,40.593,M,2.0,0123*66\r\n
$GPGGA,133545.75,5703.3760238,N,00952.2389795,E,2,12,0.7,-1.581,M,40.593,M,2.0,0123*64\r\n
$GPGGA,133545.80,5703.3760698,N,00952.2389639,E,2,12,0.7,-1.579,M,40.593,M,2.0,0123*60\r\n
$GPGGA,133545.85,5703.3761162,N,00952.2389508,E,2,12,0.7,-1.578,M,40.593,M,2.2,0123*64\r\n
$GPGGA,133545.90,5703.3761643,N,00952.2389379,E,2,12,0.7,-1.576,M,40.593,M,2.2,0123*6A\r\n
$GPGGA,133545.95,5703.3762122,N,00952.2389244,E,2,12,0.7,-1.574,M,40.593,M,2.2,0123*61\r\n
$GPGGA,133546.00,5703.3762588,N,00952.2389098,E,2,12,0.7,-1.575,M,40.593,M,2.2,0123*68\r\n
$GPGGA,133546.05,5703.3763058,N,00952.2388951,E,2,12,0.7,-1.580,M,40.593,M,2.4,0123*65\r\n
$GPGGA,133546.10,5703.3763535,N,00952.2388796,E,2,12,0.7,-1.583,M,40.593,M,2.4,0123*69\r\n
$GPGGA,133546.15,5703.3764006,N,00952.2388632,E,2,12,0.7,-1.588,M,40.593,M,2.4,0123*6A\r\n
$GPGGA,133546.20,5703.3764482,N,00952.2388472,E,2,12,0.7,-1.590,M,40.593,M,2.4,0123*6B\r\n
$GPGGA,133546.25,5703.3764946,N,00952.2388307,E,2,12,0.7,-1.597,M,40.593,M,2.6,0123*6B\r\n
$GPGGA,133546.30,5703.3765422,N,00952.2388115,E,2,12,0.7,-1.599,M,40.593,M,2.6,0123*6E\r\n
$GPGGA,133546.35,5703.3765887,N,00952.2387929,E,2,12,0.7,-1.602,M,40.593,M,2.6,0123*61\r\n
$GPGGA,133546.40,5703.3766350,N,00952.2387737,E,2,12,0.7,-1.603,M,40.593,M,2.6,0123*61\r\n
$GPGGA,133546.45,5703.3766812,N,00952.2387529,E,2,12,0.7,-1.601,M,40.593,M,2.8,0123*68\r\n
$GPGGA,133546.50,5703.3767276,N,00952.2387327,E,2,12,0.7,-1.601,M,40.593,M,2.8,0123*6D\r\n
$GPGGA,133546.55,5703.3767724,N,00952.2387118,E,2,12,0.7,-1.601,M,40.593,M,2.8,0123*64\r\n
$GPGGA,133546.60,5703.3768179,N,00952.2386906,E,2,12,0.7,-1.601,M,40.593,M,2.8,0123*65\r\n
$GPGGA,133546.65,5703.3768643,N,00952.2386689,E,2,12,0.7,-1.601,M,40.593,M,3.0,0123*6F\r\n
$GPGGA,133546.70,5703.3769094,N,00952.2386465,E,2,12,0.7,-1.600,M,40.593,M,3.0,0123*67\r\n
$GPGGA,133546.75,5703.3769557,N,00952.2386246,E,2,12,0.7,-1.596,M,40.593,M,3.0,0123*63\r\n
$GPGGA,133546.80,5703.3770015,N,00952.2386032,E,2,12,0.7,-1.594,M,40.593,M,3.0,0123*61\r\n
$GPGGA,133546.85,5703.3770477,N,00952.2385829,E,2,12,0.7,-1.587,M,40.593,M,3.2,0123*65\r\n
$GPGGA,133546.90,5703.3770935,N,00952.2385626,E,2,12,0.7,-1.587,M,40.593,M,3.2,0123*6B\r\n
$GPGGA,133546.95,5703.3771401,N,00952.2385419,E,2,12,0.7,-1.585,M,40.593,M,3.2,0123*69\r\n
$GPGGA,133547.00,5703.3771873,N,00952.2385214,E,2,12,0.7,-1.583,M,40.593,M,3.2,0123*60\r\n
$GPGGA,133547.05,5703.3772350,N,00952.2385017,E,2,12,0.7,-1.582,M,40.593,M,3.5,0123*6B\r\n
$GPGGA,133547.10,5703.3772817,N,00952.2384815,E,2,12,0.7,-1.581,M,40.593,M,3.5,0123*6F\r\n
$GPGGA,133547.15,5703.3773290,N,00952.2384603,E,2,12,0.7,-1.583,M,40.593,M,3.5,0123*65\r\n
$GPGGA,133547.20,5703.3773762,N,00952.2384382,E,2,12,0.7,-1.584,M,40.593,M,3.5,0123*60\r\n
$GPGGA,133547.25,5703.3774223,N,00952.2384170,E,2,12,0.7,-1.590,M,40.593,M,2.2,0123*6E\r\n
$GPGGA,133547.30,5703.3774695,N,00952.2383951,E,2,12,0.7,-1.592,M,40.593,M,2.2,0123*6D\r\n
$GPGGA,133547.35,5703.3775167,N,00952.2383723,E,2,12,0.7,-1.594,M,40.593,M,2.2,0123*6E\r\n
$GPGGA,133547.40,5703.3775628,N,00952.2383471,E,2,12,0.7,-1.596,M,40.593,M,2.2,0123*66\r\n
$GPGGA,133547.45,5703.3776088,N,00952.2383233,E,2,12,0.7,-1.597,M,40.593,M,2.5,0123*6A\r\n
$GPGGA,133547.50,5703.3776547,N,00952.2382985,E,2,12,0.7,-1.595,M,40.593,M,2.5,0123*6D\r\n
