$GPGGA,093953.40,5702.9586425,N,00949.2263680,E,2,4,3.0,4.241,M,40.592,M,2.2,0123*70
$GPVTG,269.09,T,-370.81,M,005.665,N,010.491,K,D*0F
$GPGGA,093953.45,5702.9586385,N,00949.2262253,E,2,4,3.0,4.243,M,40.592,M,2.4,0123*77
$GPVTG,269.50,T,-370.40,M,005.665,N,010.491,K,D*0E
$GPGGA,093953.50,5702.9586442,N,00949.2260864,E,2,4,3.0,4.245,M,40.592,M,2.4,0123*75
$GPVTG,270.49,T,-369.41,M,005.612,N,010.393,K,D*02
$GPGGA,093953.55,5702.9586521,N,00949.2259407,E,2,4,3.0,4.244,M,40.592,M,2.4,0123*76
$GPVTG,271.60,T,-368.30,M,005.644,N,010.453,K,D*07
$GPGGA,093953.60,5702.9586535,N,00949.2257985,E,2,4,3.0,4.247,M,40.592,M,2.4,0123*7F
$GPVTG,271.54,T,-368.36,M,005.632,N,010.430,K,D*02
$GPGGA,093953.65,5702.9586499,N,00949.2256518,E,2,4,3.0,4.260,M,40.592,M,2.7,0123*72
$GPVTG,273.97,T,-365.93,M,005.726,N,010.604,K,D*0C
$GPGGA,093953.70,5702.9586454,N,00949.2255074,E,2,4,3.0,4.264,M,40.592,M,2.7,0123*7F
$GPVTG,272.74,T,-367.16,M,005.719,N,010.592,K,D*0F
$GPGGA,093953.75,5702.9586411,N,00949.2253670,E,2,4,3.0,4.263,M,40.592,M,2.7,0123*78
$GPVTG,271.80,T,-368.10,M,005.673,N,010.506,K,D*0E
$GPGGA,093953.80,5702.9586500,N,00949.2252229,E,2,4,3.0,4.267,M,40.592,M,2.7,0123*7E
$GPVTG,272.62,T,-367.28,M,005.677,N,010.513,K,D*05
$GPGGA,093953.85,5702.9586589,N,00949.2250771,E,2,4,3.0,4.277,M,40.592,M,2.9,0123*7F
$GPVTG,274.34,T,-365.56,M,005.715,N,010.585,K,D*01
$GPGGA,093953.90,5702.9586654,N,00949.2249290,E,2,4,3.0,4.283,M,40.592,M,2.9,0123*71
$GPVTG,274.56,T,-365.34,M,005.755,N,010.658,K,D*06
$GPGGA,093953.95,5702.9586725,N,00949.2247877,E,2,4,3.0,4.285,M,40.592,M,2.9,0123*78
$GPVTG,274.86,T,-365.04,M,005.719,N,010.592,K,D*05
$GPGGA,093954.00,5702.9586694,N,00949.2246429,E,2,4,3.0,4.286,M,40.592,M,2.9,0123*7D
$GPVTG,274.04,T,-365.86,M,005.714,N,010.583,K,D*08
$GPGGA,093954.05,5702.9586662,N,00949.2245052,E,2,4,3.0,4.293,M,40.592,M,1.7,0123*73
$GPVTG,273.94,T,-365.96,M,005.646,N,010.456,K,D*08
$GPGGA,093954.10,5702.9586799,N,00949.2243574,E,2,4,3.0,4.296,M,40.592,M,1.7,0123*70
$GPVTG,274.96,T,-364.94,M,005.697,N,010.550,K,D*05
$GPGGA,093954.15,5702.9586878,N,00949.2242119,E,2,4,3.0,4.299,M,40.592,M,1.7,0123*74
$GPVTG,275.23,T,-364.67,M,005.712,N,010.578,K,D*00
$GPGGA,093954.20,5702.9587086,N,00949.2240698,E,2,4,3.0,4.300,M,40.592,M,1.7,0123*77
$GPVTG,276.71,T,-363.19,M,005.703,N,010.562,K,D*01
$GPGGA,093954.25,5702.9586967,N,00949.2239274,E,2,4,3.0,4.315,M,40.592,M,2.0,0123*7D
$GPVTG,277.20,T,-362.70,M,005.734,N,010.619,K,D*01
$GPGGA,093954.30,5702.9586966,N,00949.2237800,E,2,4,3.0,4.318,M,40.592,M,2.0,0123*72
$GPVTG,276.44,T,-363.46,M,005.755,N,010.658,K,D*04
$GPGGA,093954.35,5702.9587029,N,00949.2236359,E,2,4,3.0,4.319,M,40.592,M,2.0,0123*73
$GPVTG,276.41,T,-363.49,M,005.745,N,010.640,K,D*06
$GPGGA,093954.40,5702.9587032,N,00949.2234934,E,2,4,3.0,4.321,M,40.592,M,2.0,0123*73
$GPVTG,275.90,T,-364.00,M,005.716,N,010.586,K,D*0C
$GPGGA,093954.45,5702.9586879,N,00949.2233565,E,2,4,3.0,4.329,M,40.592,M,2.2,0123*75
$GPVTG,275.49,T,-364.41,M,005.669,N,010.499,K,D*0B
$GPGGA,093954.50,5702.9586948,N,00949.2232167,E,2,4,3.0,4.332,M,40.592,M,2.2,0123*7F
$GPVTG,275.60,T,-364.30,M,005.627,N,010.420,K,D*0E
$GPGGA,093954.55,5702.9587056,N,00949.2230708,E,2,4,3.0,4.334,M,40.592,M,2.2,0123*76
$GPVTG,275.97,T,-363.93,M,005.657,N,010.477,K,D*0D
$GPGGA,093954.60,5702.9587086,N,00949.2229232,E,2,4,3.0,4.335,M,40.592,M,2.2,0123*78
$GPVTG,275.64,T,-364.26,M,005.695,N,010.547,K,D*04
$GPGGA,093954.65,5702.9587262,N,00949.2227798,E,2,4,3.0,4.339,M,40.592,M,2.4,0123*74
$GPVTG,276.85,T,-363.05,M,005.699,N,010.555,K,D*01
$GPGGA,093954.70,5702.9587486,N,00949.2226324,E,2,4,3.0,4.340,M,40.592,M,2.4,0123*70
$GPVTG,278.13,T,-361.77,M,005.753,N,010.654,K,D*02
$GPGGA,093954.75,5702.9587552,N,00949.2224921,E,2,4,3.0,4.336,M,40.592,M,2.4,0123*71
$GPVTG,278.03,T,-361.87,M,005.708,N,010.572,K,D*05
$GPGGA,093954.80,5702.9587482,N,00949.2223531,E,2,4,3.0,4.331,M,40.592,M,2.4,0123*7A
$GPVTG,276.85,T,-363.05,M,005.641,N,010.448,K,D*09
$GPGGA,093954.85,5702.9587314,N,00949.2222192,E,2,4,3.0,4.344,M,40.592,M,2.7,0123*7A
$GPVTG,276.74,T,-363.16,M,005.585,N,010.344,K,D*05
$GPGGA,093954.90,5702.9587574,N,00949.2220702,E,2,4,3.0,4.347,M,40.592,M,2.7,0123*70
$GPVTG,278.26,T,-361.64,M,005.677,N,010.514,K,D*06
$GPGGA,093954.95,5702.9587677,N,00949.2219219,E,2,4,3.0,4.345,M,40.592,M,2.7,0123*72
$GPVTG,278.29,T,-361.61,M,005.731,N,010.613,K,D*0B
$GPGGA,093955.00,5702.9587871,N,00949.2217769,E,2,4,3.0,4.344,M,40.592,M,2.7,0123*7A
$GPVTG,279.07,T,-360.83,M,005.755,N,010.658,K,D*06
$GPGGA,093955.05,5702.9587589,N,00949.2216405,E,2,4,3.0,4.368,M,40.592,M,1.6,0123*71
$GPVTG,278.52,T,-361.38,M,005.717,N,010.587,K,D*01
$GPGGA,093955.10,5702.9587667,N,00949.2214956,E,2,4,3.0,4.370,M,40.592,M,1.6,0123*76
$GPVTG,278.35,T,-361.55,M,005.727,N,010.607,K,D*03
$GPGGA,093955.15,5702.9587737,N,00949.2213519,E,2,4,3.0,4.374,M,40.592,M,1.6,0123*73
$GPVTG,278.14,T,-361.76,M,005.722,N,010.597,K,D*0E
$GPGGA,093955.20,5702.9587813,N,00949.2212103,E,2,4,3.0,4.377,M,40.592,M,1.6,0123*71
$GPVTG,278.03,T,-361.87,M,005.696,N,010.550,K,D*03
$GPGGA,093955.25,5702.9587896,N,00949.2210680,E,2,4,3.0,4.376,M,40.592,M,1.9,0123*79
$GPVTG,278.32,T,-361.58,M,005.699,N,010.555,K,D*09
$GPGGA,093955.30,5702.9588060,N,00949.2209224,E,2,4,3.0,4.375,M,40.592,M,1.9,0123*72
$GPVTG,278.84,T,-361.06,M,005.728,N,010.609,K,D*0E
$GPGGA,093955.35,5702.9588113,N,00949.2207844,E,2,4,3.0,4.374,M,40.592,M,1.9,0123*71
$GPVTG,278.53,T,-361.37,M,005.663,N,010.488,K,D*03
$GPGGA,093955.40,5702.9588250,N,00949.2206353,E,2,4,3.0,4.372,M,40.592,M,1.9,0123*7D
$GPVTG,278.71,T,-361.19,M,005.729,N,010.610,K,D*03
$GPGGA,093955.45,5702.9588052,N,00949.2204960,E,2,4,3.0,4.392,M,40.592,M,2.1,0123*75
$GPVTG,279.16,T,-360.74,M,005.758,N,010.663,K,D*0B
$GPGGA,093955.50,5702.9588256,N,00949.2203528,E,2,4,3.0,4.391,M,40.592,M,2.1,0123*73
$GPVTG,279.98,T,-359.92,M,005.762,N,010.670,K,D*04
$GPGGA,093955.55,5702.9588368,N,00949.2202064,E,2,4,3.0,4.392,M,40.592,M,2.1,0123*75
$GPVTG,279.90,T,-360.00,M,005.785,N,010.714,K,D*07
$GPGGA,093955.60,5702.9588428,N,00949.2200620,E,2,4,3.0,4.392,M,40.592,M,2.1,0123*74
$GPVTG,279.49,T,-360.41,M,005.778,N,010.700,K,D*01
$GPGGA,093955.65,5702.9588101,N,00949.2199249,E,2,4,3.0,4.425,M,40.592,M,2.3,0123*7E
$GPVTG,279.53,T,-360.37,M,005.786,N,010.715,K,D*0E
$GPGGA,093955.70,5702.9588116,N,00949.2197821,E,2,4,3.0,4.427,M,40.592,M,2.3,0123*74
$GPVTG,278.71,T,-361.19,M,005.752,N,010.653,K,D*08
$GPGGA,093955.75,5702.9588114,N,00949.2196403,E,2,4,3.0,4.426,M,40.592,M,2.3,0123*7F
$GPVTG,277.85,T,-362.05,M,005.713,N,010.581,K,D*0B
$GPGGA,093955.80,5702.9588196,N,00949.2195004,E,2,4,3.0,4.429,M,40.592,M,2.3,0123*70
$GPVTG,277.73,T,-362.17,M,005.669,N,010.498,K,D*04
$GPGGA,093955.85,5702.9588039,N,00949.2193577,E,2,4,3.0,4.446,M,40.592,M,2.6,0123*7A
$GPVTG,277.35,T,-362.55,M,005.703,N,010.561,K,D*0A
$GPGGA,093955.90,5702.9588091,N,00949.2192143,E,2,4,3.0,4.450,M,40.592,M,2.6,0123*79
$GPVTG,276.93,T,-362.97,M,005.693,N,010.543,K,D*01
$GPGGA,093955.95,5702.9588109,N,00949.2190734,E,2,4,3.0,4.451,M,40.592,M,2.6,0123*79
$GPVTG,276.31,T,-363.59,M,005.655,N,010.472,K,D*03
$GPGGA,093956.00,5702.9588122,N,00949.2189342,E,2,4,3.0,4.453,M,40.592,M,2.6,0123*70
$GPVTG,275.72,T,-364.18,M,005.606,N,010.382,K,D*0B
$GPGGA,093956.05,5702.9588357,N,00949.2187845,E,2,4,3.0,4.454,M,40.592,M,2.8,0123*7E
$GPVTG,276.95,T,-362.95,M,005.688,N,010.535,K,D*0E
$GPGGA,093956.10,5702.9588545,N,00949.2186326,E,2,4,3.0,4.452,M,40.592,M,2.8,0123*76
$GPVTG,277.61,T,-362.29,M,005.784,N,010.713,K,D*08
$GPGGA,093956.15,5702.9588632,N,00949.2184912,E,2,4,3.0,4.446,M,40.592,M,2.8,0123*7A
$GPVTG,277.53,T,-362.37,M,005.748,N,010.645,K,D*04
$GPGGA,093956.20,5702.9588784,N,00949.2183491,E,2,4,3.0,4.449,M,40.592,M,2.8,0123*7E
$GPVTG,277.94,T,-361.96,M,005.730,N,010.612,K,D*0A
$GPGGA,093956.25,5702.9588543,N,00949.2182087,E,2,4,3.0,4.477,M,40.592,M,3.0,0123*74
$GPVTG,278.12,T,-361.78,M,005.751,N,010.650,K,D*0A
$GPGGA,093956.30,5702.9588563,N,00949.2180610,E,2,4,3.0,4.478,M,40.592,M,3.0,0123*77
$GPVTG,277.35,T,-362.55,M,005.773,N,010.691,K,D*01
$GPGGA,093956.35,5702.9588701,N,00949.2179175,E,2,4,3.0,4.476,M,40.592,M,3.0,0123*78
$GPVTG,277.65,T,-362.25,M,005.762,N,010.672,K,D*0E
$GPGGA,093956.40,5702.9588777,N,00949.2177724,E,2,4,3.0,4.474,M,40.592,M,3.0,0123*75
$GPVTG,277.44,T,-362.46,M,005.762,N,010.672,K,D*08
$GPGGA,093956.45,5702.9588887,N,00949.2176252,E,2,4,3.0,4.474,M,40.592,M,3.2,0123*77
$GPVTG,278.28,T,-361.62,M,005.813,N,010.766,K,D*05
$GPGGA,093956.50,5702.9588943,N,00949.2174860,E,2,4,3.0,4.473,M,40.592,M,3.2,0123*74
$GPVTG,277.92,T,-361.98,M,005.74
$GPGGA,094000.10,5702.9593098,N,00949.2071619,E,2,4,3.0,4.691,M,40.592,M,2.8,0123*79
$GPVTG,278.14,T,-361.76,M,005.736,N,010.623,K,D*07
$GPGGA,094000.15,5702.9593317,N,00949.2070112,E,2,4,3.0,4.694,M,40.592,M,2.8,0123*70
$GPVTG,279.55,T,-360.35,M,005.819,N,010.778,K,D*08
$GPGGA,094000.20,5702.9593334,N,00949.2068677,E,2,4,3.0,4.689,M,40.592,M,2.8,0123*76
$GPVTG,277.87,T,-362.03,M,005.770,N,010.686,K,D*0E
$GPGGA,094000.25,5702.9593020,N,00949.2067285,E,2,4,3.0,4.714,M,40.592,M,3.0,0123*7F
$GPVTG,277.03,T,-362.87,M,005.761,N,010.670,K,D*07
$GPGGA,094000.30,5702.9593209,N,00949.2065821,E,2,4,3.0,4.717,M,40.592,M,3.0,0123*77
$GPVTG,278.01,T,-361.89,M,005.784,N,010.713,K,D*08
$GPGGA,094000.35,5702.9593220,N,00949.2064439,E,2,4,3.0,4.716,M,40.592,M,3.0,0123*7C
$GPVTG,276.74,T,-363.16,M,005.692,N,010.542,K,D*00
$GPGGA,094000.40,5702.9593395,N,00949.2062977,E,2,4,3.0,4.720,M,40.592,M,3.0,0123*75
$GPVTG,277.40,T,-362.50,M,005.718,N,010.589,K,D*01
$GPGGA,094000.45,5702.9593372,N,00949.2061549,E,2,4,3.0,4.725,M,40.592,M,3.2,0123*7C
$GPVTG,276.81,T,-363.09,M,005.695,N,010.548,K,D*09
$GPGGA,094000.50,5702.9593487,N,00949.2060105,E,2,4,3.0,4.723,M,40.592,M,3.2,0123*7E
$GPVTG,276.85,T,-363.05,M,005.696,N,010.550,K,D*0B
$GPGGA,094000.55,5702.9593567,N,00949.2058614,E,2,4,3.0,4.722,M,40.592,M,3.2,0123*79
$GPVTG,276.47,T,-363.43,M,005.740,N,010.631,K,D*09
$GPGGA,094000.60,5702.9593676,N,00949.2057176,E,2,4,3.0,4.723,M,40.592,M,3.2,0123*71
$GPVTG,276.46,T,-363.44,M,005.730,N,010.611,K,D*0A
$GPGGA,094000.65,5702.9593624,N,00949.2055797,E,2,4,3.0,4.723,M,40.592,M,3.4,0123*7E
$GPVTG,276.22,T,-363.68,M,005.673,N,010.507,K,D*04
$GPGGA,094000.70,5702.9593804,N,00949.2054349,E,2,4,3.0,4.724,M,40.592,M,3.4,0123*77
$GPVTG,276.96,T,-362.94,M,005.690,N,010.538,K,D*08
$GPGGA,094000.75,5702.9593984,N,00949.2052872,E,2,4,3.0,4.720,M,40.592,M,3.4,0123*7A
$GPVTG,277.56,T,-362.34,M,005.735,N,010.621,K,D*0A
$GPGGA,094000.80,5702.9594103,N,00949.2051411,E,2,4,3.0,4.719,M,40.592,M,3.4,0123*70
$GPVTG,277.56,T,-362.34,M,005.751,N,010.651,K,D*0F
$GPGGA,094000.85,5702.9594157,N,00949.2049961,E,2,4,3.0,4.724,M,40.592,M,3.6,0123*7B
$GPVTG,278.32,T,-361.58,M,005.778,N,010.702,K,D*07
$GPGGA,094000.90,5702.9594285,N,00949.2048519,E,2,4,3.0,4.721,M,40.592,M,3.6,0123*74
$GPVTG,278.40,T,-361.50,M,005.771,N,010.687,K,D*0F
$GPGGA,094000.95,5702.9594338,N,00949.2047091,E,2,4,3.0,4.714,M,40.592,M,3.6,0123*7A
$GPVTG,277.86,T,-362.04,M,005.741,N,010.632,K,D*05
$GPGGA,094001.00,5702.9594534,N,00949.2045603,E,2,4,3.0,4.714,M,40.592,M,3.6,0123*72
$GPVTG,278.44,T,-361.46,M,005.791,N,010.725,K,D*0B
$GPGGA,094001.05,5702.9594420,N,00949.2044206,E,2,4,3.0,4.728,M,40.592,M,1.9,0123*71
$GPVTG,278.66,T,-361.24,M,005.777,N,010.700,K,D*00
$GPGGA,094001.10,5702.9594564,N,00949.2042773,E,2,4,3.0,4.728,M,40.592,M,1.9,0123*75
$GPVTG,278.88,T,-361.02,M,005.763,N,010.672,K,D*05
$GPGGA,094001.15,5702.9594670,N,00949.2041342,E,2,4,3.0,4.730,M,40.592,M,1.9,0123*7A
$GPVTG,278.76,T,-361.14,M,005.743,N,010.636,K,D*01
$GPGGA,094001.20,5702.9594735,N,00949.2039931,E,2,4,3.0,4.726,M,40.592,M,1.9,0123*7A
$GPVTG,278.36,T,-361.54,M,005.701,N,010.558,K,D*0C
$GPGGA,094001.25,5702.9594834,N,00949.2038488,E,2,4,3.0,4.731,M,40.592,M,2.2,0123*71
$GPVTG,279.38,T,-360.52,M,005.738,N,010.626,K,D*04
$GPGGA,094001.30,5702.9594857,N,00949.2037087,E,2,4,3.0,4.730,M,40.592,M,2.2,0123*75
$GPVTG,278.55,T,-361.35,M,005.681,N,010.521,K,D*09
$GPGGA,094001.35,5702.9595023,N,00949.2035641,E,2,4,3.0,4.726,M,40.592,M,2.2,0123*73
$GPVTG,278.91,T,-360.99,M,005.697,N,010.551,K,D*06
$GPGGA,094001.40,5702.9595309,N,00949.2034122,E,2,4,3.0,4.723,M,40.592,M,2.2,0123*7C
$GPVTG,280.03,T,-359.87,M,005.800,N,010.742,K,D*0F
$GPGGA,094001.45,5702.9595000,N,00949.2032753,E,2,4,3.0,4.751,M,40.592,M,2.4,0123*76
$GPVTG,279.78,T,-360.12,M,005.781,N,010.707,K,D*04
$GPGGA,094001.50,5702.9595057,N,00949.2031314,E,2,4,3.0,4.750,M,40.592,M,2.4,0123*75
$GPVTG,279.17,T,-360.73,M,005.764,N,010.674,K,D*04
$GPGGA,094001.55,5702.9595154,N,00949.2029893,E,2,4,3.0,4.752,M,40.592,M,2.4,0123*7D
$GPVTG,278.99,T,-360.91,M,005.735,N,010.622,K,D*08
$GPGGA,094001.60,5702.9595227,N,00949.2028483,E,2,4,3.0,4.752,M,40.592,M,2.4,0123*70
$GPVTG,278.64,T,-361.26,M,005.697,N,010.551,K,D*09
$GPGGA,094001.65,5702.9595208,N,00949.2027073,E,2,4,3.0,4.759,M,40.592,M,2.7,0123*74
$GPVTG,279.34,T,-360.56,M,005.723,N,010.598,K,D*00
$GPGGA,094001.70,5702.9595429,N,00949.2025625,E,2,4,3.0,4.758,M,40.592,M,2.7,0123*73
$GPVTG,280.12,T,-359.78,M,005.747,N,010.643,K,D*03
$GPGGA,094001.75,5702.9595508,N,00949.2024196,E,2,4,3.0,4.756,M,40.592,M,2.7,0123*74
$GPVTG,279.71,T,-360.19,M,005.728,N,010.608,K,D*0B
$GPGGA,094001.80,5702.9595698,N,00949.2022722,E,2,4,3.0,4.754,M,40.592,M,2.7,0123*79
$GPVTG,280.10,T,-359.80,M,005.771,N,010.688,K,D*04
$GPGGA,094001.85,5702.9595238,N,00949.2021413,E,2,4,3.0,4.786,M,40.592,M,2.9,0123*71
$GPVTG,279.45,T,-360.45,M,005.691,N,010.539,K,D*07
$GPGGA,094001.90,5702.9595468,N,00949.2019933,E,2,4,3.0,4.790,M,40.592,M,2.9,0123*75
$GPVTG,279.87,T,-360.03,M,005.747,N,010.643,K,D*0F
$GPGGA,094001.95,5702.9595524,N,00949.2018525,E,2,4,3.0,4.793,M,40.592,M,2.9,0123*70
$GPVTG,279.58,T,-360.32,M,005.709,N,010.574,K,D*02
$GPGGA,094002.00,5702.9595606,N,00949.2017112,E,2,4,3.0,4.797,M,40.592,M,2.9,0123*77
$GPVTG,279.39,T,-360.51,M,005.684,N,010.528,K,D*0D
$GPGGA,094002.05,5702.9595685,N,00949.2015748,E,2,4,3.0,4.792,M,40.592,M,1.7,0123*7A
$GPVTG,279.57,T,-360.33,M,005.603,N,010.377,K,D*02
$GPGGA,094002.10,5702.9595835,N,00949.2014299,E,2,4,3.0,4.791,M,40.592,M,1.7,0123*70
$GPVTG,,T,,M,,N,,K,D*26
$GPGGA,094002.15,5702.9595834,N,00949.2014276,E,2,4,3.0,4.792,M,40.592,M,1.7,0123*76
$GPVTG,,T,,M,,N,,K,D*26
$GPGGA,094002.20,5702.9595865,N,00949.2014314,E,2,4,3.0,4.795,M,40.592,M,1.7,0123*76
$GPVTG,,T,,M,,N,,K,D*26
$GPGGA,094002.25,5702.9595927,N,00949.2010036,E,2,4,3.0,4.803,M,40.592,M,2.0,0123*77
$GPVTG,281.08,T,-358.82,M,005.839,N,010.814,K,D*07
$GPGGA,094002.30,5702.9596072,N,00949.2008590,E,2,4,3.0,4.796,M,40.592,M,2.0,0123*7A
$GPVTG,,T,,M,,N,,K,D*26
$GPGGA,094002.35,5702.9596157,N,00949.2008618,E,2,4,3.0,4.798,M,40.592,M,2.0,0123*74
$GPVTG,,T,,M,,N,,K,D*26
$GPGGA,094002.40,5702.9595928,N,00949.2008625,E,2,4,3.0,4.802,M,40.592,M,2.0,0123*77
$GPVTG,,T,,M,,N,,K,D*26
$GPGGA,094002.45,5702.9596096,N,00949.2004386,E,2,4,3.0,4.819,M,40.592,M,2.2,0123*75
$GPVTG,275.28,T,-364.62,M,005.683,N,010.525,K,D*0F
$GPGGA,094002.50,5702.9596200,N,00949.2003008,E,2,4,3.0,4.822,M,40.592,M,2.2,0123*76
$GPVTG,277.84,T,-362.06,M,005.473,N,010.136,K,D*04
$GPGGA,094002.55,5702.9596313,N,00949.2001546,E,2,4,3.0,4.826,M,40.592,M,2.2,0123*79
$GPVTG,277.91,T,-361.99,M,005.963,N,011.044,K,D*0C
$GPGGA,094002.60,5702.9596429,N,00949.2000139,E,2,4,3.0,4.831,M,40.592,M,2.2,0123*7A
$GPVTG,278.63,T,-361.27,M,005.719,N,010.592,K,D*07
$GPGGA,094002.65,5702.9596582,N,00949.1998674,E,2,4,3.0,4.820,M,40.592,M,2.4,0123*7C
$GPVTG,271.70,T,-368.20,M,005.670,N,010.501,K,D*06
$GPGGA,094002.70,5702.9596641,N,00949.1997287,E,2,4,3.0,4.820,M,40.592,M,2.4,0123*73
$GPVTG,272.30,T,-367.60,M,005.549,N,010.277,K,D*05
$GPGGA,094002.75,5702.9596781,N,00949.1995862,E,2,4,3.0,4.816,M,40.592,M,2.4,0123*7D
$GPVTG,276.24,T,-363.66,M,005.612,N,010.393,K,D*00
$GPGGA,094002.80,5702.9596962,N,00949.1994422,E,2,4,3.0,4.817,M,40.592,M,2.4,0123*7C
$GPVTG,279.86,T,-360.04,M,005.711,N,010.577,K,D*0E
$GPGGA,094002.85,5702.9596772,N,00949.1993025,E,2,4,3.0,4.837,M,40.592,M,2.7,0123*73
$GPVTG,279.58,T,-360.32,M,005.751,N,010.651,K,D*0B
$GPGGA,094002.90,5702.9596914,N,00949.1991607,E,2,4,3.0,4.841,M,40.592,M,2.7,0123*7C
$GPVTG,280.41,T,-359.49,M,005.742,N,010.634,K,D*02
$GPGGA,094002.95,5702.9596950,N,00949.1990207,E,2,4,3.0,4.841,M,40.592,M,2.7,0123*7C
$GPVTG,278.09,T,-361.81,M,005.658,N,010.479,K,D*07
$GPGGA,094003.00,5702.9597071,N,00949.1988832,E,2,4,3.0,4.840,M,40.592,M,2.7,0123*7E
$GPVTG,278.60,T,-361.30,M,005.599,N,010.369,K,D*0A
$GPGGA,094003.05,5702.9597135,N,00949.1987414,E,2,4,3.0,4.843,M,40.592,M,1.6,0123*7C
$GPVTG,278.50,T,-361.40,M,005.617,N,010.403,K,D*00
$GPGGA,094003.10,5702.9597175,N,00949.1985994,E,2,4,3.0,4.843,M,40.592,M,1.6,0123*7B
$GPVTG,276.93,T,-362.97,M,005.602,N,010.375,K,D*0A
$GPGGA,094003.15,5702.9597307,N,00949.1984554,E,2,4,3.0,4.846,M,40.592,M,1.6,0123*7D
$GPVTG,277.64,T,-362.26,M,005.640,N,010.445,K,D*0B
$GPGGA,094003.20,5702.9597503,N,00949.1983122,E,2,4,3.0,4.849,M,40.592,M,1.6,0123*74
$GPVTG,279.35,T,-360.55,M,005.678,N,010.517,K,D*0A
$GPGGA,094003.25,5702.9597653,N,00949.1981666,E,2,4,3.0,4.863,M,40.592,M,1.9,0123*75
$GPVTG,282.71,T,-357.19,M,005.816,N,010.771,K,D*06
$GPGGA,094003.30,5702.9597714,N,00949.1980318,E,2,4,3.0,4.862,M,40.592,M,1.9,0123*7F
$GPVTG,281.39,T,-358.51,M,005.693,N,010.543,K,D*0A
$GPGGA,094003.35,5702.9597716,N,00949.1978926,E,2,4,3.0,4.861,M,40.592,M,1.9,0123*7B
$GPVTG,279.36,T,-360.54,M,005.624,N,010.416,K,D*01
$GPGGA,094003.40,5702.9597750,N,00949.1977556,E,2,4,3.0,4.861,M,40.592,M,1.9,0123*7F
$GPVTG,278.22,T,-361.68,M,005.559,N,010.295,K,D*0F
$GPGGA,094003.45,5702.9597899,N,00949.1976113,E,2,4,3.0,4.875,M,40.592,M,2.1,0123*7A
$GPVTG,281.04,T,-358.86,M,005.685,N,010.529,K,D*05
$GPGGA,094003.50,5702.9598157,N,00949.1974640,E,2,4,3.0,4.879,M,40.592,M,2.1,0123*75
$GPVTG,282.67,T,-357.23,M,005.779,N,010.703,K,D*0B
$GPGGA,094003.55,5702.9598200,N,00949.1973276,E,2,4,3.0,4.877,M,40.592,M,2.1,0123*79
$GPVTG,281.45,T,-358.45,M,005.686,N,010.531,K,D*05
$GPGGA,094003.60,5702.9598320,N,00949.1971861,E,2,4,3.0,4.877,M,40.592,M,2.1,0123*72
$GPVTG,281.25,T,-358.65,M,005.679,N,010.518,K,D*0A
$GPGGA,094003.65,5702.9598391,N,00949.1970423,E,2,4,3.0,4.893,M,40.592,M,2.3,0123*7E
$GPVTG,281.65,T,-358.25,M,005.721,N,010.595,K,D*03
$GPGGA,094003.70,5702.9598468,N,00949.1969055,E,2,4,3.0,4.895,M,40.592,M,2.3,0123*70
$GPVTG,280.97,T,-358.93,M,005.650,N,010.464,K,D*0A
$GPGGA,094003.75,5702.9598639,N,00949.1967632,E,2,4,3.0,4.899,M,40.592,M,2.3,0123*76
$GPVTG,281.35,T,-358.55,M,005.666,N,010.494,K,D*03
$GPGGA,094003.80,5702.9598755,N,00949.1966245,E,2,4,3.0,4.898,M,40.592,M,2.3,0123*73
$GPVTG,281.18,T,-358.72,M,005.633,N,010.433,K,D*04
$GPGGA,094003.85,5702.9598885,N,00949.1964829,E,2,4,3.0,4.902,M,40.592,M,2.6,0123*71
$GPVTG,282.06,T,-357.84,M,005.683,N,010.526,K,D*00
$GPGGA,094003.90,5702.9599224,N,00949.1963302,E,2,4,3.0,4.905,M,40.592,M,2.6,0123*77
$GPVTG,283.83,T,-356.07,M,005.844,N,010.823,K,D*0B
$GPGGA,094003.95,5702.9599240,N,00949.1961950,E,2,4,3.0,4.900,M,40.592,M,2.6,0123*7A
$GPVTG,282.59,T,-357.31,M,005.731,N,010.614,K,D*0E
$GPGGA,094004.00,5702.9599453,N,00949.1960490,E,2,4,3.0,4.897,M,40.592,M,2.6,0123*7A
$GPVTG,283.05,T,-356.85,M,005.783,N,010.710,K,D*04
$GPGGA,094004.05,5702.9599266,N,00949.1959167,E,2,4,3.0,4.922,M,40.592,M,2.8,0123*79
$GPVTG,282.95,T,-356.95,M,005.736,N,010.623,K,D*02
$GPGGA,094004.10,5702.9599307,N,00949.1957827,E,2,4,3.0,4.921,M,40.592,M,2.8,0123*7B
$GPVTG,281.98,T,-357.92,M,005.628,N,010.424,K,D*01
$GPGGA,094004.15,5702.9599424,N,00949.1956396,E,2,4,3.0,4.917,M,40.592,M,2.8,0123*7D
$GPVTG,281.64,T,-358.26,M,005.643,N,010.451,K,D*0D
$GPGGA,094004.20,5702.9599675,N,00949.1954943,E,2,4,3.0,4.921,M,40.592,M,2.8,0123*78
$GPVTG,282.44,T,-357.46,M,005.703,N,010.563,K,D*00
$GPGGA,094004.25,5702.9599898,N,00949.1953512,E,2,4,3.0,4.923,M,40.592,M,3.0,0123*74
$GPVTG,283.37,T,-356.53,M,005.752,N,010.653,K,D*04
$GPGGA,094004.30,5702.9600068,N,00949.1952129,E,2,4,3.0,4.924,M,40.592,M,3.0,0123*7E
$GPVTG,283.51,T,-356.39,M,005.715,N,010.584,K,D*02
$GPGGA,094004.35,5702.9600197,N,00949.1950693,E,2,4,3.0,4.925,M,40.592,M,3.0,0123*7F
$GPVTG,283.15,T,-356.75,M,005.728,N,010.609,K,D*02
$GPGGA,094004.40,5702.9600315,N,00949.1949287,E,2,4,3.0,4.925,M,40.592,M,3.0,0123*7C
$GPVTG,282.82,T,-357.08,M,005.709,N,010.573,K,D*0B
$GPGGA,094004.45,5702.9600567,N,00949.1947845,E,2,4,3.0,4.929,M,40.592,M,3.2,0123*7E
$GPVTG,283.78,T,-356.12,M,005.764,N,010.675,K,D*0B
$GPGGA,094004.50,5702.9600773,N,00949.1946491,E,2,4,3.0,4.930,M,40.592,M,3.2,0123*71
$GPVTG,284.26,T,-355.64,M,005.704,N,010.563,K,D*07
$GPGGA,094004.55,5702.9600963,N,00949.1945051,E,2,4,3.0,4.933,M,40.592,M,3.2,0123*73
$GPVTG,284.32,T,-355.58,M,005.736,N,010.623,K,D*0B
$GPGGA,094004.60,5702.9601025,N,00949.1943632,E,2,4,3.0,4.935,M,40.592,M,3.2,0123*7C
$GPVTG,283.44,T,-356.46,M,005.719,N,010.591,K,D*06
$GPGGA,094004.65,5702.9601026,N,00949.1942308,E,2,4,3.0,4.948,M,40.592,M,3.4,0123*7B
$GPVTG,283.46,T,-356.44,M,005.651,N,010.466,K,D*02
$GPGGA,094004.70,5702.9601254,N,00949.1940919,E,2,4,3.0,4.950,M,40.592,M,3.4,0123*79
$GPVTG,283.99,T,-355.91,M,005.647,N,010.459,K,D*00
$GPGGA,094004.75,5702.9601315,N,00949.1939526,E,2,4,3.0,4.949,M,40.592,M,3.4,0123*7E
$GPVTG,283.09,T,-356.81,M,005.616,N,010.401,K,D*02
$GPGGA,094004.80,5702.9601480,N,00949.1938109,E,2,4,3.0,4.951,M,40.592,M,3.4,0123*7E
$GPVTG,283.03,T,-356.87,M,005.632,N,010.430,K,D*0A
$GPGGA,094004.85,5702.9601524,N,00949.1936768,E,2,4,3.0,4.965,M,40.592,M,3.6,0123*7E
$GPVTG,283.85,T,-356.05,M,005.636,N,010.437,K,D*0D
$GPGGA,094004.90,5702.9601710,N,00949.1935366,E,2,4,3.0,4.968,M,40.592,M,3.6,0123*7B
$GPVTG,283.93,T,-355.97,M,005.642,N,010.449,K,D*08
$GPGGA,094004.95,5702.9601788,N,00949.1933929,E,2,4,3.0,4.971,M,40.592,M,3.6,0123*70
$GPVTG,283.05,T,-356.85,M,005.662,N,010.486,K,D*06
$GPGGA,094005.00,5702.9601913,N,00949.1932562,E,2,4,3.0,4.973,M,40.592,M,3.6,0123*71
$GPVTG,282.78,T,-357.12,M,005.619,N,010.407,K,D*07
$GPGGA,094005.05,5702.9602013,N,00949.1931130,E,2,4,3.0,4.981,M,40.592,M,1.9,0123*7E
$GPVTG,282.85,T,-357.05,M,005.673,N,010.507,K,D*0E
$GPGGA,094005.10,5702.9602200,N,00949.1929734,E,2,4,3.0,4.982,M,40.592,M,1.9,0123*72
$GPVTG,282.96,T,-356.94,M,005.667,N,010.496,K,D*09
$GPGGA,094005.15,5702.9602349,N,00949.1928402,E,2,4,3.0,4.981,M,40.592,M,1.9,0123*7F
$GPVTG,283.04,T,-356.86,M,005.596,N,010.363,K,D*00
$GPGGA,094005.20,5702.9602447,N,00949.1927016,E,2,4,3.0,4.982,M,40.592,M,1.9,0123*7D
$GPVTG,282.73,T,-357.17,M,005.581,N,010.337,K,D*0F
$GPGGA,094005.25,5702.9602405,N,00949.1925660,E,2,4,3.0,4.994,M,40.592,M,2.2,0123*74
$GPVTG,282.49,T,-357.41,M,005.571,N,010.318,K,D*07
$GPGGA,094005.30,5702.9602598,N,00949.1924221,E,2,4,3.0,4.994,M,40.592,M,2.2,0123*75
$GPVTG,,T,,M,,N,,K,D*26
$GPGGA,094005.35,5702.9603121,N,00949.1924049,E,2,4,3.0,5.016,M,40.592,M,2.2,0123*79
$GPVTG,,T,,M,,N,,K,D*26
$GPGGA,094005.40,5702.9602589,N,00949.1924249,E,2,4,3.0,4.995,M,40.592,M,2.2,0123*7D
$GPVTG,,T,,M,,N,,K,D*26
$GPGGA,094005.45,5702.9603159,N,00949.1920050,E,2,4,3.0,5.003,M,40.592,M,2.4,0123*7F
$GPVTG,282.57,T,-357.33,M,005.509,N,010.202,K,D*08
$GPGGA,094005.50,5702.9603324,N,00949.1918688,E,2,4,3.0,5.004,M,40.592,M,2.4,0123*7C
$GPVTG,,T,,M,,N,,K,D*26
$GPGGA,094005.55,5702.9603093,N,00949.1918760,E,2,4,3.0,4.996,M,40.592,M,2.4,0123*72
$GPVTG,,T,,M,,N,,K,D*26
$GPGGA,094005.60,5702.9603300,N,00949.1918638,E,2,4,3.0,5.005,M,40.592,M,2.4,0123*73
$GPVTG,,T,,M,,N,,K,D*26
$GPGGA,094005.65,5702.9603885,N,00949.1914463,E,2,4,3.0,4.995,M,40.592,M,2.7,0123*72
$GPVTG,284.08,T,-355.82,M,005.753,N,010.655,K,D*07
$GPGGA,094005.70,5702.9604088,N,00949.1913029,E,2,4,3.0,4.996,M,40.592,M,2.7,0123*7A
$GPVTG,284.56,T,-355.34,M,005.825,N,010.788,K,D*0E
$GPGGA,094005.75,5702.9604310,N,00949.1911643,E,2,4,3.0,4.993,M,40.592,M,2.7,0123*70
$GPVTG,286.73,T,-353.17,M,005.598,N,010.367,K,D*02
$GPGGA,094005.80,5702.9604559,N,00949.1910238,E,2,4,3.0,4.991,M,40.592,M,2.7,0123*7A
$GPVTG,288.48,T,-351.42,M,005.754,N,010.657,K,D*02
$GPGGA,094005.85,5702.9604769,N,00949.1908835,E,2,4,3.0,4.998,M,40.592,M,2.9,0123*77
$GPVTG,286.70,T,-353.20,M,005.756,N,010.660,K,D*07
$GPGGA,094005.90,5702.9604919,N,00949.1907467,E,2,4,3.0,4.996,M,40.592,M,2.9,0123*70
$GPVTG,283.10,T,-356.80,M,005.551,N,010.281,K,D*05
$GPGGA,094005.95,5702.9605034,N,00949.1906088,E,2,4,3.0,4.998,M,40.592,M,2.9,0123*78
$GPVTG,279.81,T,-360.09,M,005.466,N,010.124,K,D*05
$GPGGA,094006.00,5702.9605112,N,00949.1904686,E,2,4,3.0,4.996,M,40.592,M,2.9,0123*76
$GPVTG,276.55,T,-363.35,M,005.458,N,010.108,K,D*0C
$GPGGA,094006.05,5702.9605468,N,00949.1903233,E,2,4,3.0,4.988,M,40.592,M,1.7,0123*74
$GPVTG,280.21,T,-359.69,M,005.626,N,010.419,K,D*08
$GPGGA,094006.10,5702.9605659,N,00949.1901857,E,2,4,3.0,4.982,M,40.592,M,1.7,0123*70
$GPVTG,280.89,T,-359.01,M,005.588,N,010.350,K,D*09
$GPGGA,094006.15,5702.9605793,N,00949.1900440,E,2,4,3.0,4.976,M,40.592,M,1.7,0123*72
$GPVTG,280.11,T,-359.79,M,005.603,N,010.378,K,D*0D
$GPGGA,094006.20,5702.9605933,N,00949.1899046,E,2,4,3.0,4.972,M,40.592,M,1.7,0123*77
$GPVTG,279.72,T,-360.18,M,005.584,N,010.342,K,D*06
$GPGGA,094006.25,5702.9605951,N,00949.1897609,E,2,4,3.0,4.996,M,40.592,M,2.0,0123*7B
$GPVTG,279.97,T,-359.93,M,005.702,N,010.560,K,D*0E
$GPGGA,094006.30,5702.9606102,N,00949.1896206,E,2,4,3.0,5.000,M,40.592,M,2.0,0123*7F
$GPVTG,,T,,M,,N,,K,D*26
$GPGGA,094006.35,5702.9606031,N,00949.1896231,E,2,4,3.0,4.995,M,40.592,M,2.0,0123*7B
$GPVTG,,T,,M,,N,,K,D*26
$GPGGA,094006.40,5702.9606221,N,00949.1896133,E,2,4,3.0,5.009,M,40.592,M,2.0,0123*76
$GPVTG,,T,,M,,N,,K,D*26
$GPGGA,094006.45,5702.9606607,N,00949.1891951,E,2,4,3.0,5.019,M,40.592,M,2.2,0123*7B
$GPVTG,280.39,T,-359.51,M,005.699,N,010.555,K,D*07
$GPGGA,094006.50,5702.9606689,N,00949.1890569,E,2,4,3.0,5.023,M,40.592,M,2.2,0123*76
$GPVTG,,T,,M,,N,,K,D*26
$GPGGA,094006.55,5702.9604601,N,00949.1891086,E,2,4,3.0,4.978,M,40.592,M,2.2,0123*72
$GPVTG,,T,,M,,N,,K,D*26
$GPGGA,094006.60,5702.9606453,N,00949.1890701,E,2,4,3.0,5.006,M,40.592,M,2.2,0123*7B
$GPVTG,,T,,M,,N,,K,D*26
$GPGGA,094006.65,5702.9607253,N,00949.1886308,E,2,4,3.0,5.027,M,40.592,M,2.4,0123*76
$GPVTG,282.99,T,-356.91,M,005.615,N,010.400,K,D*09
$GPGGA,094006.70,5702.9607423,N,00949.1884885,E,2,4,3.0,5.031,M,40.592,M,2.4,0123*78
$GPVTG,,T,,M,,N,,K,D*26
$GPGGA,094006.75,5702.9607356,N,00949.1884871,E,2,4,3.0,5.030,M,40.592,M,2.4,0123*72
$GPVTG,,T,,M,,N,,K,D*26
$GPGGA,094006.80,5702.9607324,N,00949.1884903,E,2,4,3.0,5.023,M,40.592,M,2.4,0123*7B
$GPVTG,,T,,M,,N,,K,D*26
$GPGGA,094006.85,5702.9607688,N,00949.1880660,E,2,4,3.0,5.030,M,40.592,M,2.7,0123*72
$GPVTG,279.94,T,-359.96,M,005.656,N,010.476,K,D*0E
$GPGGA,094006.90,5702.9607909,N,00949.1879165,E,2,4,3.0,5.031,M,40.592,M,2.7,0123*75
$GPVTG,,T,,M,,N,,K,D*26
$GPGGA,094006.95,5702.9607905,N,00949.1879218,E,2,4,3.0,5.032,M,40.592,M,2.7,0123*76
$GPVTG,,T,,M,,N,,K,D*26
$GPGGA,094007.00,5702.9607760,N,00949.1879272,E,2,4,3.0,5.031,M,40.592,M,2.7,0123*79
$GPVTG,,T,,M,,N,,K,D*26
$GPGGA,094007.05,5702.9608411,N,00949.1874950,E,2,4,3.0,5.057,M,40.592,M,1.6,0123*72
$GPVTG,278.66,T,-361.24,M,005.267,N,009.755,K,D*0C
$GPGGA,094007.10,5702.9608529,N,00949.1873533,E,2,4,3.0,5.061,M,40.592,M,1.6,0123*77
$GPVTG,,T,,M,,N,,K,D*26
$GPGGA,094007.15,5702.9608639,N,00949.1873516,E,2,4,3.0,5.059,M,40.592,M,1.6,0123*7C
$GPVTG,,T,,M,,N,,K,D*26
$GPGGA,094007.20,5702.9608482,N,00949.1873549,E,2,4,3.0,5.056,M,40.592,M,1.6,0123*7D
$GPVTG,,T,,M,,N,,K,D*26
$GPGGA,094007.25,5702.9609157,N,00949.1869187,E,2,4,3.0,5.055,M,40.592,M,1.9,0123*75
$GPVTG,282.53,T,-357.37,M,005.786,N,010.715,K,D*0E
$GPGGA,094007.30,5702.9609278,N,00949.1867791,E,2,4,3.0,5.054,M,40.592,M,1.9,0123*71
$GPVTG,,T,,M,,N,,K,D*26
$GPGGA,094007.35,5702.9609468,N,00949.1867772,E,2,4,3.0,5.062,M,40.592,M,1.9,0123*7B
$GPVTG,,T,,M,,N,,K,D*26
$GPGGA,094007.40,5702.9609416,N,00949.1867722,E,2,4,3.0,5.061,M,40.592,M,1.9,0123*76
$GPVTG,,T,,M,,N,,K,D*26
$GPGGA,094007.45,5702.9610302,N,00949.1863460,E,2,4,3.0,5.040,M,40.592,M,2.1,0123*70
$GPVTG,289.45,T,-350.45,M,005.986,N,011.086,K,D*02
$GPGGA,094007.50,5702.9610612,N,00949.1861978,E,2,4,3.0,5.036,M,40.592,M,2.1,0123*77
$GPVTG,290.98,T,-348.93,M,006.245,N,011.565,K,D*07
$GPGGA,094007.55,5702.9610907,N,00949.1860534,E,2,4,3.0,5.033,M,40.592,M,2.1,0123*79
$GPVTG,290.75,T,-349.15,M,005.991,N,011.095,K,D*00
$GPGGA,094007.60,5702.9611171,N,00949.1859061,E,2,4,3.0,5.033,M,40.592,M,2.1,0123*78
$GPVTG,288.28,T,-351.62,M,006.037,N,011.180,K,D*0B
$GPGGA,094007.65,5702.9611168,N,00949.1857674,E,2,4,3.0,5.046,M,40.592,M,2.3,0123*79
$GPVTG,281.14,T,-358.76,M,005.694,N,010.545,K,D*01
$GPGGA,094007.70,5702.9611374,N,00949.1856238,E,2,4,3.0,5.048,M,40.592,M,2.3,0123*71
$GPVTG,281.63,T,-358.27,M,005.705,N,010.565,K,D*0E
$GPGGA,094007.75,5702.9611641,N,00949.1854801,E,2,4,3.0,5.054,M,40.592,M,2.3,0123*78
$GPVTG,284.63,T,-355.27,M,005.782,N,010.708,K,D*00
$GPGGA,094007.80,5702.9611626,N,00949.1853489,E,2,4,3.0,5.052,M,40.592,M,2.3,0123*7E
$GPVTG,276.08,T,-363.82,M,005.372,N,009.949,K,D*02
$GPGGA,094007.85,5702.9611930,N,00949.1852054,E,2,4,3.0,5.034,M,40.592,M,2.6,0123*73
$GPVTG,277.57,T,-362.34,M,005.422,N,010.042,K,D*0D
$GPGGA,094007.90,5702.9612314,N,00949.1850559,E,2,4,3.0,5.032,M,40.592,M,2.6,0123*74
$GPVTG,284.89,T,-355.01,M,005.735,N,010.622,K,D*05
$GPGGA,094007.95,5702.9612618,N,00949.1849083,E,2,4,3.0,5.033,M,40.592,M,2.6,0123*73
$GPVTG,287.12,T,-352.78,M,005.886,N,010.901,K,D*04
$GPGGA,094008.00,5702.9612767,N,00949.1847730,E,2,4,3.0,5.028,M,40.592,M,2.6,0123*72
$GPVTG,285.48,T,-354.42,M,005.723,N,010.599,K,D*0B
$GPGGA,094008.05,5702.9612835,N,00949.1846336,E,2,4,3.0,5.032,M,40.592,M,2.8,0123*79
$GPVTG,284.17,T,-355.73,M,005.659,N,010.480,K,D*06
$GPGGA,094008.10,5702.9613160,N,00949.1844850,E,2,4,3.0,5.033,M,40.592,M,2.8,0123*7D
$GPVTG,286.60,T,-353.30,M,005.825,N,010.788,K,D*0B
$GPGGA,094008.15,5702.9613303,N,00949.1843464,E,2,4,3.0,5.036,M,40.592,M,2.8,0123*76
$GPVTG,285.13,T,-354.77,M,005.737,N,010.626,K,D*01
$GPGGA,094008.20,5702.9613438,N,00949.1842014,E,2,4,3.0,5.037,M,40.592,M,2.8,0123*7C
$GPVTG,283.68,T,-356.22,M,005.739,N,010.629,K,D*08
$GPGGA,094008.25,5702.9613829,N,00949.1840549,E,2,4,3.0,5.023,M,40.592,M,3.0,0123*76
$GPVTG,284.55,T,-355.35,M,005.769,N,010.685,K,D*07
$GPGGA,094008.30,5702.9614168,N,00949.1839097,E,2,4,3.0,5.025,M,40.592,M,3.0,0123*77
$GPVTG,286.66,T,-353.24,M,005.864,N,010.860,K,D*04
$GPGGA,094008.35,5702.9614401,N,00949.1837700,E,2,4,3.0,5.023,M,40.592,M,3.0,0123*79
$GPVTG,286.84,T,-353.06,M,005.837,N,010.810,K,D*09
$GPGGA,094008.40,5702.9614509,N,00949.1836339,E,2,4,3.0,5.020,M,40.592,M,3.0,0123*7E
$GPVTG,285.38,T,-354.52,M,005.728,N,010.608,K,D*0D
$GPGGA,094008.45,5702.9614755,N,00949.1834915,E,2,4,3.0,5.011,M,40.592,M,3.2,0123*76
$GPVTG,284.69,T,-355.21,M,005.695,N,010.548,K,D*0D
$GPGGA,094008.50,5702.9615074,N,00949.1833463,E,2,4,3.0,5.009,M,40.592,M,3.2,0123*75
$GPVTG,286.12,T,-353.78,M,005.781,N,010.707,K,D*04
$GPGGA,094008.55,5702.9615264,N,00949.1832085,E,2,4,3.0,5.008,M,40.592,M,3.2,0123*7F
$GPVTG,285.85,T,-354.05,M,005.734,N,010.619,K,D*04
$GPGGA,094008.60,5702.9615456,N,00949.1830662,E,2,4,3.0,5.004,M,40.592,M,3.2,0123*7F
$GPVTG,285.52,T,-354.38,M,005.739,N,010.629,K,D*0E
$GPGGA,094008.65,5702.9615628,N,00949.1829238,E,2,4,3.0,5.009,M,40.592,M,3.4,0123*79
$GPVTG,286.19,T,-353.71,M,005.788,N,010.720,K,D*0A
$GPGGA,094008.70,5702.9616017,N,00949.1827774,E,2,4,3.0,5.011,M,40.592,M,3.4,0123*7E
$GPVTG,287.97,T,-351.93,M,005.899,N,010.925,K,D*07
$GPGGA,094008.75,5702.9616134,N,00949.1826397,E,2,4,3.0,5.008,M,40.592,M,3.4,0123*7B
$GPVTG,286.83,T,-353.07,M,005.815,N,010.769,K,D*0E
$GPGGA,094008.80,5702.9616350,N,00949.1824966,E,2,4,3.0,5.010,M,40.592,M,3.4,0123*7E
$GPVTG,286.68,T,-353.22,M,005.826,N,010.790,K,D*0A
$GPGGA,094008.85,5702.9615984,N,00949.1823686,E,2,4,3.0,5.038,M,40.592,M,3.6,0123*75
$GPVTG,284.08,T,-355.82,M,005.658,N,010.479,K,D*01
$GPGGA,094008.90,5702.9616181,N,00949.1822276,E,2,4,3.0,5.042,M,40.592,M,3.6,0123*78
$GPVTG,284.01,T,-355.89,M,005.662,N,010.486,K,D*0A
$GPGGA,094008.95,5702.9616169,N,00949.1820933,E,2,4,3.0,5.045,M,40.592,M,3.6,0123*74
$GPVTG,282.09,T,-357.81,M,005.554,N,010.287,K,D*0F
$GPGGA,094009.00,5702.9616427,N,00949.1819528,E,2,4,3.0,5.056,M,40.592,M,3.6,0123*78
$GPVTG,282.72,T,-357.18,M,005.579,N,010.332,K,D*03
$GPGGA,094009.05,5702.9616768,N,00949.1818092,E,2,4,3.0,5.035,M,40.592,M,1.9,0123*78
$GPVTG,281.96,T,-357.94,M,005.562,N,010.300,K,D*05
$GPGGA,094009.10,5702.9616863,N,00949.1816692,E,2,4,3.0,5.040,M,40.592,M,1.9,0123*72
$GPVTG,281.07,T,-358.83,M,005.552,N,010.282,K,D*0C
$GPGGA,094009.15,5702.9617060,N,00949.1815336,E,2,4,3.0,5.042,M,40.592,M,1.9,0123*77
$GPVTG,281.36,T,-358.54,M,005.519,N,010.221,K,D*02
$GPGGA,094009.20,5702.9617308,N,00949.1813919,E,2,4,3.0,5.045,M,40.592,M,1.9,0123*7A
$GPVTG,281.93,T,-357.97,M,005.562,N,010.302,K,D*01
$GPGGA,094009.25,5702.9617565,N,00949.1812464,E,2,4,3.0,5.039,M,40.592,M,2.2,0123*77
$GPVTG,281.86,T,-358.04,M,005.609,N,010.389,K,D*0D
$GPGGA,094009.30,5702.9617716,N,00949.1811066,E,2,4,3.0,5.039,M,40.592,M,2.2,0123*70
$GPVTG,281.61,T,-358.29,M,005.607,N,010.383,K,D*0F
$GPGGA,094009.35,5702.9617817,N,00949.1809703,E,2,4,3.0,5.039,M,40.592,M,2.2,0123*76
$GPVTG,281.01,T,-358.89,M,005.561,N,010.299,K,D*0A
$GPGGA,094009.40,5702.9618007,N,00949.1808329,E,2,4,3.0,5.040,M,40.592,M,2.2,0123*71
$GPVTG,281.21,T,-358.69,M,005.547,N,010.273,K,D*06
$GPGGA,094009.45,5702.9618133,N,00949.1806932,E,2,4,3.0,5.039,M,40.592,M,2.4,0123*74
$GPVTG,281.51,T,-358.39,M,005.574,N,010.324,K,D*07
$GPGGA,094009.50,5702.9618348,N,00949.1805519,E,2,4,3.0,5.042,M,40.592,M,2.4,0123*74
$GPVTG,281.87,T,-358.03,M,005.606,N,010.382,K,D*0F
$GPGGA,094009.55,5702.9618328,N,00949.1804123,E,2,4,3.0,5.043,M,40.592,M,2.4,0123*7A
$GPVTG,280.22,T,-359.68,M,005.576,N,010.326,K,D*07
$GPGGA,094009.60,5702.9618290,N,00949.1802781,E,2,4,3.0,5.046,M,40.592,M,2.4,0123*73
$GPVTG,278.69,T,-361.21,M,005.498,N,010.183,K,D*05
$GPGGA,094009.65,5702.9618796,N,00949.1801343,E,2,4,3.0,5.021,M,40.592,M,2.7,0123*7E
$GPVTG,279.53,T,-360.37,M,005.506,N,010.197,K,D*08
$GPGGA,094009.70,5702.9619156,N,00949.1799882,E,2,4,3.0,5.022,M,40.592,M,2.7,0123*7A
$GPVTG,281.23,T,-358.67,M,005.616,N,010.401,K,D*0E
$GPGGA,094009.75,5702.9619370,N,00949.1798411,E,2,4,3.0,5.019,M,40.592,M,2.7,0123*76
$GPVTG,281.48,T,-358.42,M,005.698,N,010.552,K,D*05
$GPGGA,094009.80,5702.9619558,N,00949.1797007,E,2,4,3.0,5.018,M,40.592,M,2.7,0123*7D
$GPVTG,281.65,T,-358.25,M,005.698,N,010.552,K,D*0B
$GPGGA,094009.85,5702.9619674,N,00949.1795670,E,2,4,3.0,5.032,M,40.592,M,2.9,0123*77
$GPVTG,282.06,T,-357.84,M,005.617,N,010.404,K,D*0C
$GPGGA,094009.90,5702.9619805,N,00949.1794298,E,2,4,3.0,5.035,M,40.592,M,2.9,0123*7F
$GPVTG,281.80,T,-358.10,M,005.586,N,010.345,K,D*0A
$GPGGA,094009.95,5702.9619924,N,00949.1792877,E,2,4,3.0,5.035,M,40.592,M,2.9,0123*75
$GPVTG,281.36,T,-358.54,M,005.604,N,010.379,K,D*01
$GPGGA,094010.00,5702.9620185,N,00949.1791429,E,2,4,3.0,5.037,M,40.592,M,2.9,0123*7E
$GPVTG,282.01,T,-357.89,M,005.670,N,010.501,K,D*03
$GPGGA,094010.05,5702.9620587,N,00949.1789995,E,2,4,3.0,5.027,M,40.592,M,1.7,0123*72
$GPVTG,282.76,T,-357.14,M,005.679,N,010.517,K,D*09
$GPGGA,094010.10,5702.9620602,N,00949.1788684,E,2,4,3.0,5.025,M,40.592,M,1.7,0123*74
$GPVTG,281.61,T,-358.29,M,005.555,N,010.288,K,D*01
$GPGGA,094010.15,5702.9620912,N,00949.1787204,E,2,4,3.0,5.028,M,40.592,M,1.7,0123*71
$GPVTG,282.61,T,-357.29,M,005.669,N,010.499,K,D*07
$GPGGA,094010.20,5702.9621132,N,00949.1785779,E,2,4,3.0,5.025,M,40.592,M,1.7,0123*7C
$GPVTG,282.93,T,-356.97,M,005.700,N,010.556,K,D*02
$GPGGA,094010.25,5702.9621598,N,00949.1784330,E,2,4,3.0,5.015,M,40.592,M,2.0,0123*72
$GPVTG,284.58,T,-355.32,M,005.756,N,010.661,K,D*0B
$GPGGA,094010.30,5702.9621861,N,00949.1782931,E,2,4,3.0,5.015,M,40.592,M,2.0,0123*70
$GPVTG,285.24,T,-354.66,M,005.762,N,010.671,K,D*07
$GPGGA,094010.35,5702.9621953,N,00949.1781605,E,2,4,3.0,5.012,M,40.592,M,2.0,0123*79
$GPVTG,284.68,T,-355.22,M,005.660,N,010.481,K,D*01
$GPGGA,094010.40,5702.9622154,N,00949.1780133,E,2,4,3.0,5.010,M,40.592,M,2.0,0123*76
$GPVTG,284.61,T,-355.29,M,005.735,N,010.621,K,D*0A
$GPGGA,094010.45,5702.9622292,N,00949.1778689,E,2,4,3.0,5.010,M,40.592,M,2.2,0123*79
$GPVTG,284.47,T,-355.43,M,005.775,N,010.695,K,D*09
$GPGGA,094010.50,5702.9622496,N,00949.1777297,E,2,4,3.0,5.012,M,40.592,M,2.2,0123*79
$GPVTG,284.65,T,-355.25,M,005.756,N,010.659,K,D*08
$GPGGA,094010.55,5702.9622689,N,00949.1775883,E,2,4,3.0,5.016,M,40.592,M,2.2,0123*79
$GPVTG,284.66,T,-355.24,M,005.758,N,010.664,K,D*0A
$GPGGA,094010.60,5702.9622933,N,00949.1774407,E,2,4,3.0,5.018,M,40.592,M,2.2,0123*7E
$GPVTG,284.89,T,-355.01,M,005.831,N,010.800,K,D*00
$GPGGA,094010.65,5702.9623282,N,00949.1772974,E,2,4,3.0,5.012,M,40.592,M,2.4,0123*78
$GPVTG,285.37,T,-354.53,M,005.824,N,010.786,K,D*07
$GPGGA,094010.70,5702.9623474,N,00949.1771536,E,2,4,3.0,5.010,M,40.592,M,2.4,0123*78
$GPVTG,285.27,T,-354.63,M,005.839,N,010.813,K,D*0A
$GPGGA,094010.75,5702.9623513,N,00949.1770199,E,2,4,3.0,5.006,M,40.592,M,2.4,0123*7A
$GPVTG,284.26,T,-355.64,M,005.720,N,010.593,K,D*0E
$GPGGA,094010.80,5702.9623758,N,00949.1768795,E,2,4,3.0,5.002,M,40.592,M,2.4,0123*7A
$GPVTG,284.68,T,-355.22,M,005.722,N,010.597,K,D*00
$GPGGA,094010.85,5702.9624160,N,00949.1767326,E,2,4,3.0,4.985,M,40.592,M,2.7,0123*72
$GPVTG,285.10,T,-354.80,M,005.769,N,010.685,K,D*08
$GPGGA,094010.90,5702.9624410,N,00949.1765894,E,2,4,3.0,4.989,M,40.592,M,2.7,0123*78
$GPVTG,285.47,T,-354.43,M,005.798,N,010.737,K,D*03
$GPGGA,094010.95,5702.9624534,N,00949.1764519,E,2,4,3.0,4.993,M,40.592,M,2.7,0123*78
$GPVTG,284.99,T,-354.91,M,005.738,N,010.627,K,D*04
$GPGGA,094011.00,5702.9624726,N,00949.1763089,E,2,4,3.0,4.990,M,40.592,M,2.7,0123*7C
$GPVTG,284.90,T,-355.00,M,005.755,N,010.658,K,D*07
$GPGGA,094011.05,5702.9625313,N,00949.1761557,E,2,4,3.0,4.970,M,40.592,M,1.6,0123*72
$GPVTG,285.56,T,-354.34,M,005.832,N,010.801,K,D*06
$GPGGA,094011.10,5702.9625500,N,00949.1760145,E,2,4,3.0,4.964,M,40.592,M,1.6,0123*71
$GPVTG,285.45,T,-354.45,M,005.816,N,010.772,K,D*0F
$GPGGA,094011.15,5702.9625761,N,00949.1758731,E,2,4,3.0,4.964,M,40.592,M,1.6,0123*7F
$GPVTG,285.90,T,-354.00,M,005.822,N,010.782,K,D*0E
$GPGGA,094011.20,5702.9626159,N,00949.1757290,E,2,4,3.0,4.964,M,40.592,M,1.6,0123*76
$GPVTG,287.23,T,-352.67,M,005.883,N,010.896,K,D*02
$GPGGA,094011.25,5702.9626434,N,00949.1755809,E,2,4,3.0,4.963,M,40.592,M,1.9,0123*7D
$GPVTG,287.50,T,-352.40,M,005.947,N,011.013,K,D*0E
$GPGGA,094011.30,5702.9626533,N,00949.1754426,E,2,4,3.0,4.957,M,40.592,M,1.9,0123*78
$GPVTG,286.64,T,-353.26,M,005.865,N,010.862,K,D*07
$GPGGA,094011.35,5702.9626894,N,00949.1752946,E,2,4,3.0,4.954,M,40.592,M,1.9,0123*73
$GPVTG,287.56,T,-352.34,M,005.952,N,011.022,K,D*0D
$GPGGA,094011.40,5702.9627229,N,00949.1751500,E,2,4,3.0,4.949,M,40.592,M,1.9,0123*7D
$GPVTG,288.30,T,-351.60,M,005.989,N,011.092,K,D*0D
$GPGGA,094011.45,5702.9627215,N,00949.1750146,E,2,4,3.0,4.948,M,40.592,M,2.1,0123*7A
$GPVTG,287.62,T,-352.28,M,005.906,N,010.937,K,D*0A
$GPGGA,094011.50,5702.9627433,N,00949.1748681,E,2,4,3.0,4.948,M,40.592,M,2.1,0123*79
$GPVTG,287.42,T,-352.48,M,005.936,N,010.994,K,D*04
$GPGGA,094011.55,5702.9627560,N,00949.1747280,E,2,4,3.0,4.949,M,40.592,M,2.1,0123*70
$GPVTG,286.75,T,-353.15,M,005.879,N,010.887,K,D*01
$GPGGA,094011.60,5702.9627729,N,00949.1745875,E,2,4,3.0,4.951,M,40.592,M,2.1,0123*72
$GPVTG,286.43,T,-353.47,M,005.842,N,010.819,K,D*0C
$GPGGA,094011.65,5702.9628181,N,00949.1744400,E,2,4,3.0,4.928,M,40.592,M,2.3,0123*7F
$GPVTG,286.59,T,-353.31,M,005.867,N,010.866,K,D*09
$GPGGA,094011.70,5702.9628466,N,00949.1742927,E,2,4,3.0,4.925,M,40.592,M,2.3,0123*74
$GPVTG,286.95,T,-352.95,M,005.924,N,010.971,K,D*07
$GPGGA,094011.75,5702.9628603,N,00949.1741545,E,2,4,3.0,4.924,M,40.592,M,2.3,0123*7A
$GPVTG,286.42,T,-353.48,M,005.850,N,010.835,K,D*0F
$GPGGA,094011.80,5702.9628982,N,00949.1740055,E,2,4,3.0,4.928,M,40.592,M,2.3,0123*7F
$GPVTG,287.36,T,-352.54,M,005.944,N,011.008,K,D*02
$GPGGA,094011.85,5702.9629197,N,00949.1738651,E,2,4,3.0,4.928,M,40.592,M,2.6,0123*7F
$GPVTG,287.12,T,-352.78,M,005.881,N,010.892,K,D*08
$GPGGA,094011.90,5702.9629261,N,00949.1737275,E,2,4,3.0,4.927,M,40.592,M,2.6,0123*73
$GPVTG,285.95,T,-353.95,M,005.786,N,010.716,K,D*0C
$GPGGA,094011.95,5702.9629470,N,00949.1735816,E,2,4,3.0,4.925,M,40.592,M,2.6,0123*7F
$GPVTG,285.76,T,-354.14,M,005.820,N,010.778,K,D*04
$GPGGA,094012.00,5702.9629585,N,00949.1734408,E,2,4,3.0,4.927,M,40.592,M,2.6,0123*7B
$GPVTG,285.04,T,-354.86,M,005.780,N,010.705,K,D*05
$GPGGA,094012.05,5702.9630034,N,00949.1732969,E,2,4,3.0,4.905,M,40.592,M,2.8,0123*7B
$GPVTG,285.48,T,-354.42,M,005.784,N,010.711,K,D*04
$GPGGA,094012.10,5702.9630219,N,00949.1731593,E,2,4,3.0,4.904,M,40.592,M,2.8,0123*79
$GPVTG,285.34,T,-354.56,M,005.730,N,010.612,K,D*07
$GPGGA,094012.15,5702.9630436,N,00949.1730160,E,2,4,3.0,4.903,M,40.592,M,2.8,0123*79
$GPVTG,285.31,T,-354.59,M,005.749,N,010.647,K,D*03
$GPGGA,094012.20,5702.9630660,N,00949.1728731,E,2,4,3.0,4.900,M,40.592,M,2.8,0123*76
$GPVTG,285.34,T,-354.56,M,005.764,N,010.674,K,D*06
$GPGGA,094012.25,5702.9630968,N,00949.1727255,E,2,4,3.0,4.890,M,40.592,M,3.0,0123*7D
$GPVTG,284.98,T,-354.92,M,005.788,N,010.719,K,D*01
$GPGGA,094012.30,5702.9631218,N,00949.1725839,E,2,4,3.0,4.887,M,40.592,M,3.0,0123*70
$GPVTG,285.31,T,-354.59,M,005.792,N,010.727,K,D*02
$GPGGA,094012.35,5702.9631499,N,00949.1724366,E,2,4,3.0,4.888,M,40.592,M,3.0,0123*75
$GPVTG,285.67,T,-354.23,M,005.857,N,010.848,K,D*0C
$GPGGA,094012.40,5702.9631724,N,00949.1722940,E,2,4,3.0,4.888,M,40.592,M,3.0,0123*7A
$GPVTG,285.73,T,-354.17,M,005.857,N,010.847,K,D*01
$GPGGA,094012.45,5702.9632035,N,00949.1721470,E,2,4,3.0,4.882,M,40.592,M,3.2,0123*7E
$GPVTG,285.54,T,-354.36,M,005.871,N,010.872,K,D*05
$GPGGA,094012.50,5702.9632126,N,00949.1720053,E,2,4,3.0,4.880,M,40.592,M,3.2,0123*7F
$GPVTG,284.56,T,-355.34,M,005.827,N,010.792,K,D*07
$GPGGA,094012.55,5702.9632305,N,00949.1718642,E,2,4,3.0,4.883,M,40.592,M,3.2,0123*77
$GPVTG,284.36,T,-355.54,M,005.802,N,010.745,K,D*0A
$GPGGA,094012.60,5702.9632411,N,00949.1717267,E,2,4,3.0,4.882,M,40.592,M,3.2,0123*7E
$GPVTG,283.74,T,-356.16,M,005.731,N,010.613,K,D*03
$GPGGA,094012.65,5702.9633025,N,00949.1715782,E,2,4,3.0,4.847,M,40.592,M,3.4,0123*7A
$GPVTG,283.91,T,-355.99,M,005.731,N,010.614,K,D*0B
$GPGGA,094012.70,5702.9633413,N,00949.1714307,E,2,4,3.0,4.846,M,40.592,M,3.4,0123*76
$GPVTG,285.28,T,-354.62,M,005.827,N,010.791,K,D*0E
$GPGGA,094012.75,5702.9633673,N,00949.1712871,E,2,4,3.0,4.843,M,40.592,M,3.4,0123*7E
$GPVTG,285.61,T,-354.29,M,005.846,N,010.827,K,D*09
$GPGGA,094012.80,5702.9633798,N,00949.1711470,E,2,4,3.0,4.839,M,40.592,M,3.4,0123*73
$GPVTG,285.02,T,-354.88,M,005.800,N,010.742,K,D*09
$GPGGA,094012.85,5702.9634198,N,00949.1709995,E,2,4,3.0,4.826,M,40.592,M,3.6,0123*74
$GPVTG,285.29,T,-354.61,M,005.826,N,010.790,K,D*0C
$GPGGA,094012.90,5702.9634463,N,00949.1708550,E,2,4,3.0,4.822,M,40.592,M,3.6,0123*71
$GPVTG,285.66,T,-354.24,M,005.855,N,010.843,K,D*03
$GPGGA,094012.95,5702.9634651,N,00949.1707150,E,2,4,3.0,4.817,M,40.592,M,3.6,0123*7A
$GPVTG,285.53,T,-354.37,M,005.820,N,010.778,K,D*02
$GPGGA,094013.00,5702.9635041,N,00949.1705690,E,2,4,3.0,4.817,M,40.592,M,3.6,0123*78
$GPVTG,286.71,T,-353.19,M,005.890,N,010.907,K,D*07
$GPGGA,094013.05,5702.9635433,N,00949.1704197,E,2,4,3.0,4.806,M,40.592,M,1.9,0123*70
$GPVTG,286.80,T,-353.10,M,005.929,N,010.981,K,D*0D
$GPGGA,094013.10,5702.9635626,N,00949.1702778,E,2,4,3.0,4.803,M,40.592,M,1.9,0123*76
$GPVTG,286.74,T,-353.16,M,005.908,N,010.942,K,D*0C
$GPGGA,094013.15,5702.9635835,N,00949.1701314,E,2,4,3.0,4.801,M,40.592,M,1.9,0123*70
$GPVTG,286.62,T,-353.28,M,005.935,N,010.992,K,D*05
$GPGGA,094013.20,5702.9636012,N,00949.1699935,E,2,4,3.0,4.799,M,40.592,M,1.9,0123*7F
$GPVTG,286.59,T,-353.31,M,005.872,N,010.875,K,D*0F
$GPGGA,094013.25,5702.9636336,N,00949.1698466,E,2,4,3.0,4.782,M,40.592,M,2.2,0123*77
$GPVTG,286.68,T,-353.22,M,005.891,N,010.911,K,D*01
$GPGGA,094013.30,5702.9636542,N,00949.1697077,E,2,4,3.0,4.783,M,40.592,M,2.2,0123*7C
$GPVTG,286.72,T,-353.18,M,005.844,N,010.823,K,D*0B
$GPGGA,094013.35,5702.9636769,N,00949.1695613,E,2,4,3.0,4.783,M,40.592,M,2.2,0123*74
$GPVTG,286.63,T,-353.27,M,005.880,N,010.889,K,D*0F
$GPGGA,094013.40,5702.9636987,N,00949.1694199,E,2,4,3.0,4.781,M,40.592,M,2.2,0123*7E
$GPVTG,286.66,T,-353.24,M,005.861,N,010.855,K,D*07
$GPGGA,094013.45,5702.9637564,N,00949.1692722,E,2,4,3.0,4.756,M,40.592,M,2.4,0123*77
$GPVTG,286.53,T,-353.37,M,005.837,N,010.811,K,D*00
$GPGGA,094013.50,5702.9637900,N,00949.1691286,E,2,4,3.0,4.755,M,40.592,M,2.4,0123*76
$GPVTG,287.60,T,-352.30,M,005.882,N,010.893,K,D*03
$GPGGA,094013.55,5702.9638018,N,00949.1689881,E,2,4,3.0,4.748,M,40.592,M,2.4,0123*74
$GPVTG,286.57,T,-353.33,M,005.824,N,010.786,K,D*03
$GPGGA,094013.60,5702.9638181,N,00949.1688453,E,2,4,3.0,4.741,M,40.592,M,2.4,0123*78
$GPVTG,286.01,T,-353.89,M,005.812,N,010.763,K,D*0F
$GPGGA,094013.65,5702.9638369,N,00949.1687076,E,2,4,3.0,4.724,M,40.592,M,2.7,0123*75
$GPVTG,285.74,T,-354.16,M,005.766,N,010.679,K,D*09
$GPGGA,094013.70,5702.9638871,N,00949.1685576,E,2,4,3.0,4.725,M,40.592,M,2.7,0123*75
$GPVTG,288.06,T,-351.84,M,005.928,N,010.978,K,D*05
$GPGGA,094013.75,5702.9639165,N,00949.1684148,E,2,4,3.0,4.721,M,40.592,M,2.7,0123*71
$GPVTG,288.50,T,-351.40,M,005.941,N,011.003,K,D*05
$GPGGA,094013.80,5702.9639411,N,00949.1682683,E,2,4,3.0,4.716,M,40.592,M,2.7,0123*7F
$GPVTG,288.40,T,-351.50,M,005.974,N,011.065,K,D*03
$GPGGA,094013.85,5702.9639529,N,00949.1681204,E,2,4,3.0,4.724,M,40.592,M,2.9,0123*77
$GPVTG,287.65,T,-352.25,M,006.004,N,011.120,K,D*07
$GPGGA,094013.90,5702.9639730,N,00949.1679796,E,2,4,3.0,4.724,M,40.592,M,2.9,0123*70
$GPVTG,287.42,T,-352.48,M,005.957,N,011.033,K,D*06
$GPGGA,094013.95,5702.9639797,N,00949.1678418,E,2,4,3.0,4.723,M,40.592,M,2.9,0123*7B
$GPVTG,286.24,T,-353.66,M,005.855,N,010.844,K,D*00
$GPGGA,094014.00,5702.9639889,N,00949.1677030,E,2,4,3.0,4.721,M,40.592,M,2.9,0123*73
$GPVTG,285.33,T,-354.57,M,005.783,N,010.710,K,D*0A
$GPGGA,094014.05,5702.9640407,N,00949.1675508,E,2,4,3.0,4.693,M,40.592,M,1.7,0123*7B
$GPVTG,285.69,T,-354.21,M,005.870,N,010.872,K,D*0C
$GPGGA,094014.10,5702.9640709,N,00949.1674069,E,2,4,3.0,4.693,M,40.592,M,1.7,0123*71
$GPVTG,286.31,T,-353.59,M,005.893,N,010.914,K,D*06
$GPGGA,094014.15,5702.9640877,N,00949.1672664,E,2,4,3.0,4.692,M,40.592,M,1.7,0123*7E
$GPVTG,285.92,T,-353.98,M,005.850,N,010.834,K,D*0D
$GPGGA,094014.20,5702.9641129,N,00949.1671207,E,2,4,3.0,4.691,M,40.592,M,1.7,0123*7A
$GPVTG,286.05,T,-353.85,M,005.879,N,010.888,K,D*00
$GPGGA,094014.25,5702.9641360,N,00949.1669787,E,2,4,3.0,4.686,M,40.592,M,2.0,0123*76
$GPVTG,285.35,T,-354.55,M,005.812,N,010.764,K,D*0A
$GPGGA,094014.30,5702.9641603,N,00949.1668288,E,2,4,3.0,4.682,M,40.592,M,2.0,0123*7D
$GPVTG,285.34,T,-354.56,M,005.889,N,010.906,K,D*00
$GPGGA,094014.35,5702.9641995,N,00949.1666781,E,2,4,3.0,4.682,M,40.592,M,2.0,0123*7A
$GPVTG,286.44,T,-353.46,M,005.994,N,011.101,K,D*01
$GPGGA,094014.40,5702.9642157,N,00949.1665394,E,2,4,3.0,4.681,M,40.592,M,2.0,0123*7D
$GPVTG,286.12,T,-353.78,M,005.918,N,010.960,K,D*05
$GPGGA,094014.45,5702.9642591,N,00949.1663893,E,2,4,3.0,4.674,M,40.592,M,2.2,0123*74
$GPVTG,287.00,T,-352.90,M,005.998,N,011.108,K,D*0F
$GPGGA,094014.50,5702.9642690,N,00949.1662508,E,2,4,3.0,4.672,M,40.592,M,2.2,0123*7A
$GPVTG,286.10,T,-353.80,M,005.898,N,010.923,K,D*0E
$GPGGA,094014.55,5702.9642752,N,00949.1661108,E,2,4,3.0,4.668,M,40.592,M,2.2,0123*7C
$GPVTG,284.95,T,-354.95,M,005.821,N,010.781,K,D*06
$GPGGA,094014.60,5702.9643049,N,00949.1659592,E,2,4,3.0,4.666,M,40.592,M,2.2,0123*74
$GPVTG,285.31,T,-354.59,M,005.916,N,010.957,K,D*09
$GPGGA,094014.65,5702.9643533,N,00949.1658128,E,2,4,3.0,4.655,M,40.592,M,2.4,0123*7B
$GPVTG,286.69,T,-353.21,M,005.962,N,011.042,K,D*00
$GPGGA,094014.70,5702.9643780,N,00949.1656719,E,2,4,3.0,4.655,M,40.592,M,2.4,0123*7F
$GPVTG,286.92,T,-352.98,M,005.927,N,010.977,K,D*08
$GPGGA,094014.75,5702.9643936,N,00949.1655278,E,2,4,3.0,4.655,M,40.592,M,2.4,0123*78
$GPVTG,286.35,T,-353.55,M,005.908,N,010.942,K,D*0E
$GPGGA,094014.80,5702.9644174,N,00949.1653809,E,2,4,3.0,4.655,M,40.592,M,2.4,0123*71
$GPVTG,286.33,T,-353.57,M,005.936,N,010.994,K,D*0C
$GPGGA,094014.85,5702.9644383,N,00949.1652385,E,2,4,3.0,4.650,M,40.592,M,2.7,0123*76
$GPVTG,285.62,T,-354.28,M,005.870,N,010.872,K,D*0E
$GPGGA,094014.90,5702.9644740,N,00949.1650877,E,2,4,3.0,4.650,M,40.592,M,2.7,0123*7D
$GPVTG,286.50,T,-353.40,M,005.971,N,011.058,K,D*04
$GPGGA,094014.95,5702.9644961,N,00949.1649420,E,2,4,3.0,4.646,M,40.592,M,2.7,0123*74
$GPVTG,286.40,T,-353.50,M,005.975,N,011.065,K,D*0E
$GPGGA,094015.00,5702.9645083,N,00949.1648038,E,2,4,3.0,4.642,M,40.592,M,2.7,0123*75
$GPVTG,285.81,T,-354.09,M,005.884,N,010.897,K,D*00
$GPGGA,094015.05,5702.9645156,N,00949.1646663,E,2,4,3.0,4.636,M,40.592,M,1.6,0123*7E
$GPVTG,284.72,T,-355.18,M,005.803,N,010.747,K,D*01
$GPGGA,094015.10,5702.9645536,N,00949.1645202,E,2,4,3.0,4.638,M,40.592,M,1.6,0123*76
$GPVTG,285.99,T,-353.91,M,005.868,N,010.867,K,D*02
$GPGGA,094015.15,5702.9645758,N,00949.1643787,E,2,4,3.0,4.634,M,40.592,M,1.6,0123*7B
$GPVTG,286.04,T,-353.86,M,005.844,N,010.823,K,D*0D
$GPGGA,094015.20,5702.9645986,N,00949.1642304,E,2,4,3.0,4.631,M,40.592,M,1.6,0123*7B
$GPVTG,285.92,T,-353.98,M,005.893,N,010.913,K,D*06
$GPGGA,094015.25,5702.9646126,N,00949.1640910,E,2,4,3.0,4.631,M,40.592,M,1.9,0123*7D
$GPVTG,285.19,T,-354.71,M,005.828,N,010.794,K,D*04
$GPGGA,094015.30,5702.9646539,N,00949.1639427,E,2,4,3.0,4.634,M,40.592,M,1.9,0123*71
$GPVTG,286.64,T,-353.26,M,005.924,N,010.971,K,D*00
$GPGGA,094015.35,5702.9646690,N,00949.1638014,E,2,4,3.0,4.631,M,40.592,M,1.9,0123*74
$GPVTG,286.12,T,-353.78,M,005.877,N,010.885,K,D*07
$GPGGA,094015.40,5702.9646785,N,00949.1636615,E,2,4,3.0,4.630,M,40.592,M,1.9,0123*7B
$GPVTG,285.25,T,-354.65,M,005.812,N,010.764,K,D*08
$GPGGA,094015.45,5702.9647112,N,00949.1635147,E,2,4,3.0,4.621,M,40.592,M,2.1,0123*7F
$GPVTG,285.36,T,-354.54,M,005.856,N,010.845,K,D*04
$GPGGA,094015.50,5702.9647296,N,00949.1633719,E,2,4,3.0,4.616,M,40.592,M,2.1,0123*7B
$GPVTG,285.08,T,-354.82,M,005.839,N,010.814,K,D*0F
$GPGGA,094015.55,5702.9647503,N,00949.1632315,E,2,4,3.0,4.611,M,40.592,M,2.1,0123*7B
$GPVTG,285.09,T,-354.81,M,005.807,N,010.754,K,D*0B
$GPGGA,094015.60,5702.9647763,N,00949.1630892,E,2,4,3.0,4.607,M,40.592,M,2.1,0123*78
$GPVTG,285.43,T,-354.47,M,005.808,N,010.756,K,D*02
$GPGGA,094015.65,5702.9648087,N,00949.1629399,E,2,4,3.0,4.609,M,40.592,M,2.3,0123*7B
$GPVTG,286.41,T,-353.49,M,005.933,N,010.989,K,D*0F
$GPGGA,094015.70,5702.9648268,N,00949.1627958,E,2,4,3.0,4.614,M,40.592,M,2.3,0123*79
$GPVTG,286.05,T,-353.85,M,005.922,N,010.967,K,D*0F
$GPGGA,094015.75,5702.9648340,N,00949.1626588,E,2,4,3.0,4.611,M,40.592,M,2.3,0123*72
$GPVTG,285.08,T,-354.82,M,005.818,N,010.774,K,D*05
$GPGGA,094015.80,5702.9648495,N,00949.1625214,E,2,4,3.0,4.608,M,40.592,M,2.3,0123*7E
$GPVTG,284.78,T,-355.12,M,005.748,N,010.645,K,D*02
$GPGGA,094015.85,5702.9648888,N,00949.1623736,E,2,4,3.0,4.602,M,40.592,M,2.6,0123*77
$GPVTG,285.32,T,-354.58,M,005.818,N,010.775,K,D*0A
$GPGGA,094015.90,5702.9649064,N,00949.1622303,E,2,4,3.0,4.602,M,40.592,M,2.6,0123*7B
$GPVTG,284.98,T,-354.92,M,005.812,N,010.764,K,D*07
$GPGGA,094015.95,5702.9649221,N,00949.1620883,E,2,4,3.0,4.602,M,40.592,M,2.6,0123*7C
$GPVTG,284.56,T,-355.34,M,005.790,N,010.724,K,D*09
$GPGGA,094016.00,5702.9649469,N,00949.1619485,E,2,4,3.0,4.601,M,40.592,M,2.6,0123*7A
$GPVTG,284.91,T,-354.99,M,005.769,N,010.683,K,D*0E
$GPGGA,094016.05,5702.9649529,N,00949.1618124,E,2,4,3.0,4.602,M,40.592,M,2.8,0123*78
$GPVTG,284.12,T,-355.78,M,005.702,N,010.560,K,D*08
$GPGGA,094016.10,5702.9649819,N,00949.1616628,E,2,4,3.0,4.601,M,40.592,M,2.8,0123*74
$GPVTG,284.62,T,-355.28,M,005.800,N,010.742,K,D*05
$GPGGA,094016.15,5702.9649999,N,00949.1615204,E,2,4,3.0,4.601,M,40.592,M,2.8,0123*71
$GPVTG,284.39,T,-355.51,M,005.792,N,010.727,K,D*02
$GPGGA,094016.20,5702.9650222,N,00949.1613806,E,2,4,3.0,4.603,M,40.592,M,2.8,0123*78
$GPVTG,284.58,T,-355.32,M,005.767,N,010.680,K,D*06
$GPGGA,094016.25,5702.9650134,N,00949.1612426,E,2,4,3.0,4.611,M,40.592,M,3.0,0123*7C
$GPVTG,283.10,T,-356.80,M,005.731,N,010.614,K,D*09
$GPGGA,094016.30,5702.9650233,N,00949.1611031,E,2,4,3.0,4.613,M,40.592,M,3.0,0123*7F
$GPVTG,282.36,T,-357.54,M,005.685,N,010.529,K,D*07
$GPGGA,094016.35,5702.9650392,N,00949.1609651,E,2,4,3.0,4.618,M,40.592,M,3.0,0123*72
$GPVTG,282.18,T,-357.72,M,005.643,N,010.450,K,D*0A
$GPGGA,094016.40,5702.9650494,N,00949.1608274,E,2,4,3.0,4.624,M,40.592,M,3.0,0123*7C
$GPVTG,281.60,T,-358.30,M,005.595,N,010.362,K,D*01
$GPGGA,094016.45,5702.9651009,N,00949.1606791,E,2,4,3.0,4.604,M,40.592,M,3.2,0123*78
$GPVTG,281.64,T,-358.26,M,005.636,N,010.438,K,D*00
$GPGGA,094016.50,5702.9651247,N,00949.1605332,E,2,4,3.0,4.604,M,40.592,M,3.2,0123*7A
$GPVTG,282.04,T,-357.86,M,005.697,N,010.552,K,D*06
$GPGGA,094016.55,5702.9651343,N,00949.1603977,E,2,4,3.0,4.603,M,40.592,M,3.2,0123*70
$GPVTG,281.46,T,-358.44,M,005.622,N,010.412,K,D*09
$GPGGA,094016.60,5702.9651604,N,00949.1602600,E,2,4,3.0,4.601,M,40.592,M,3.2,0123*7C
$GPVTG,282.17,T,-357.73,M,005.605,N,010.381,K,D*0D
$GPGGA,094016.65,5702.9651907,N,00949.1601130,E,2,4,3.0,4.599,M,40.592,M,3.4,0123*76
$GPVTG,282.61,T,-357.29,M,005.689,N,010.535,K,D*0E
$GPGGA,094016.70,5702.9652041,N,00949.1599757,E,2,4,3.0,4.602,M,40.592,M,3.4,0123*7E
$GPVTG,282.28,T,-357.62,M,005.640,N,010.446,K,D*0C
$GPGGA,094016.75,5702.9652117,N,00949.1598354,E,2,4,3.0,4.603,M,40.592,M,3.4,0123*7E
$GPVTG,281.45,T,-358.45,M,005.620,N,010.409,K,D*03
$GPGGA,094016.80,5702.9652292,N,00949.1596936,E,2,4,3.0,4.602,M,40.592,M,3.4,0123*7B
$GPVTG,281.43,T,-358.47,M,005.634,N,010.434,K,D*0C
$GPGGA,094016.85,5702.9652842,N,00949.1595417,E,2,4,3.0,4.582,M,40.592,M,3.6,0123*7D
$GPVTG,282.07,T,-357.83,M,005.726,N,010.604,K,D*0B
$GPGGA,094016.90,5702.9653167,N,00949.1593956,E,2,4,3.0,4.584,M,40.592,M,3.6,0123*7E
$GPVTG,283.20,T,-356.70,M,005.797,N,010.737,K,D*09
$GPGGA,094016.95,5702.9653261,N,00949.1592588,E,2,4,3.0,4.578,M,40.592,M,3.6,0123*73
$GPVTG,282.62,T,-357.28,M,005.726,N,010.604,K,D*09
$GPGGA,094017.00,5702.9653495,N,00949.1591165,E,2,4,3.0,4.577,M,40.592,M,3.6,0123*78
$GPVTG,283.01,T,-356.89,M,005.741,N,010.631,K,D*00
$GPGGA,094017.05,5702.9653857,N,00949.1589697,E,2,4,3.0,4.571,M,40.592,M,1.9,0123*77
$GPVTG,283.77,T,-356.13,M,005.806,N,010.753,K,D*0B
$GPGGA,094017.10,5702.9653960,N,00949.1588278,E,2,4,3.0,4.568,M,40.592,M,1.9,0123*7A
$GPVTG,283.09,T,-356.81,M,005.782,N,010.708,K,D*04
$GPGGA,094017.15,5702.9654174,N,00949.1586883,E,2,4,3.0,4.567,M,40.592,M,1.9,0123*7A
$GPVTG,283.40,T,-356.50,M,005.758,N,010.663,K,D*0E
$GPGGA,094017.20,5702.9654564,N,00949.1585405,E,2,4,3.0,4.572,M,40.592,M,1.9,0123*7C
$GPVTG,284.77,T,-355.13,M,005.850,N,010.835,K,D*03
$GPGGA,094017.25,5702.9654769,N,00949.1583959,E,2,4,3.0,4.573,M,40.592,M,2.2,0123*7D
$GPVTG,284.47,T,-355.43,M,005.861,N,010.855,K,D*01
$GPGGA,094017.30,5702.9655028,N,00949.1582560,E,2,4,3.0,4.574,M,40.592,M,2.2,0123*7A
$GPVTG,285.07,T,-354.83,M,005.840,N,010.815,K,D*0E
$GPGGA,094017.35,5702.9655090,N,00949.1581182,E,2,4,3.0,4.572,M,40.592,M,2.2,0123*71
$GPVTG,284.16,T,-355.74,M,005.760,N,010.668,K,D*0F
$GPGGA,094017.40,5702.9655202,N,00949.1579737,E,2,4,3.0,4.572,M,40.592,M,2.2,0123*75
$GPVTG,283.51,T,-356.39,M,005.767,N,010.680,K,D*00
$GPGGA,094017.45,5702.9655640,N,00949.1578300,E,2,4,3.0,4.554,M,40.592,M,2.4,0123*71
$GPVTG,284.08,T,-355.82,M,005.782,N,010.708,K,D*02
$GPGGA,094017.50,5702.9655898,N,00949.1576871,E,2,4,3.0,4.555,M,40.592,M,2.4,0123*7C
$GPVTG,284.60,T,-355.30,M,005.799,N,010.740,K,D*03
$GPGGA,094017.55,5702.9656117,N,00949.1575444,E,2,4,3.0,4.552,M,40.592,M,2.4,0123*7A
$GPVTG,284.78,T,-355.12,M,005.804,N,010.749,K,D*08
$GPGGA,094017.60,5702.9656481,N,00949.1573944,E,2,4,3.0,4.551,M,40.592,M,2.4,0123*7E
$GPVTG,285.80,T,-354.10,M,005.910,N,010.945,K,D*0B
$GPGGA,094017.65,5702.9656752,N,00949.1572504,E,2,4,3.0,4.550,M,40.592,M,2.7,0123*7D
$GPVTG,285.82,T,-354.08,M,005.902,N,010.931,K,D*00
$GPGGA,094017.70,5702.9656905,N,00949.1571080,E,2,4,3.0,4.552,M,40.592,M,2.7,0123*7D
$GPVTG,285.40,T,-354.50,M,005.875,N,010.881,K,D*08
$GPGGA,094017.75,5702.9657247,N,00949.1569606,E,2,4,3.0,4.557,M,40.592,M,2.7,0123*70
$GPVTG,286.33,T,-353.57,M,005.943,N,011.007,K,D*0C
$GPGGA,094017.80,5702.9657395,N,00949.1568225,E,2,4,3.0,4.558,M,40.592,M,2.7,0123*7F
$GPVTG,286.03,T,-353.87,M,005.870,N,010.871,K,D*0B
$GPGGA,094017.85,5702.9657858,N,00949.1566798,E,2,4,3.0,4.542,M,40.592,M,2.9,0123*78
$GPVTG,286.69,T,-353.21,M,005.863,N,010.857,K,D*0D
$GPGGA,094017.90,5702.9658123,N,00949.1565344,E,2,4,3.0,4.537,M,40.592,M,2.9,0123*72
$GPVTG,287.00,T,-352.90,M,005.897,N,010.921,K,D*03
$GPGGA,094017.95,5702.9658436,N,00949.1563885,E,2,4,3.0,4.535,M,40.592,M,2.9,0123*74
$GPVTG,287.62,T,-352.28,M,005.945,N,011.010,K,D*00
$GPGGA,094018.00,5702.9658641,N,00949.1562448,E,2,4,3.0,4.534,M,40.592,M,2.9,0123*78
$GPVTG,287.48,T,-352.42,M,005.939,N,010.998,K,D*07
$GPGGA,094018.05,5702.9658777,N,00949.1561090,E,2,4,3.0,4.534,M,40.592,M,1.7,0123*76
$GPVTG,287.30,T,-352.60,M,005.873,N,010.876,K,D*06
$GPGGA,094018.10,5702.9659165,N,00949.1559622,E,2,4,3.0,4.535,M,40.592,M,1.7,0123*73
$GPVTG,288.45,T,-351.45,M,005.953,N,011.025,K,D*03
$GPGGA,094018.15,5702.9659429,N,00949.1558154,E,2,4,3.0,4.535,M,40.592,M,1.7,0123*7C
$GPVTG,288.56,T,-351.34,M,005.992,N,011.097,K,D*03
$GPGGA,094018.20,5702.9659642,N,00949.1556690,E,2,4,3.0,4.536,M,40.592,M,1.7,0123*77
$GPVTG,288.31,T,-351.59,M,006.009,N,011.128,K,D*04
$GPGGA,094018.25,5702.9659910,N,00949.1555250,E,2,4,3.0,4.537,M,40.592,M,2.0,0123*74
$GPVTG,288.29,T,-351.61,M,006.007,N,011.124,K,D*04
$GPGGA,094018.30,5702.9660148,N,00949.1553831,E,2,4,3.0,4.536,M,40.592,M,2.0,0123*75
$GPVTG,288.42,T,-351.48,M,005.983,N,011.081,K,D*0A
$GPGGA,094018.35,5702.9660309,N,00949.1552515,E,2,4,3.0,4.528,M,40.592,M,2.0,0123*72
$GPVTG,288.52,T,-351.38,M,005.853,N,010.840,K,D*04
$GPGGA,094018.40,5702.9660555,N,00949.1551078,E,2,4,3.0,4.523,M,40.592,M,2.0,0123*79
$GPVTG,288.56,T,-351.34,M,005.868,N,010.868,K,D*0E
$GPGGA,094018.45,5702.9660559,N,00949.1549672,E,2,4,3.0,4.523,M,40.592,M,2.2,0123*77
$GPVTG,288.04,T,-351.86,M,005.872,N,010.874,K,D*06
$GPGGA,094018.50,5702.9660787,N,00949.1548214,E,2,4,3.0,4.527,M,40.592,M,2.2,0123*73
$GPVTG,,T,,M,,N,,K,D*26
$GPGGA,094018.55,5702.9660777,N,00949.1548269,E,2,4,3.0,4.524,M,40.592,M,2.2,0123*70
$GPVTG,,T,,M,,N,,K,D*26
$GPGGA,094018.60,5702.9660831,N,00949.1548263,E,2,4,3.0,4.523,M,40.592,M,2.2,0123*76
$GPVTG,,T,,M,,N,,K,D*26
$GPGGA,094018.65,5702.9661648,N,00949.1544037,E,2,4,3.0,4.523,M,40.592,M,2.4,0123*7B
$GPVTG,285.92,T,-353.98,M,005.536,N,010.252,K,D*0A
$GPGGA,094018.70,5702.9661857,N,00949.1542633,E,2,4,3.0,4.519,M,40.592,M,2.4,0123*72
$GPVTG,,T,,M,,N,,K,D*26
$GPGGA,094018.75,5702.9661980,N,00949.1542567,E,2,4,3.0,4.523,M,40.592,M,2.4,0123*77
$GPVTG,,T,,M,,N,,K,D*26
$GPGGA,094018.80,5702.9661795,N,00949.1542619,E,2,4,3.0,4.520,M,40.592,M,2.4,0123*7E
$GPVTG,,T,,M,,N,,K,D*26
$GPGGA,094018.85,5702.9662312,N,00949.1538366,E,2,4,3.0,4.528,M,40.592,M,2.7,0123*78
$GPVTG,282.14,T,-357.76,M,005.640,N,010.446,K,D*06
$GPGGA,094018.90,5702.9662445,N,00949.1537024,E,2,4,3.0,4.531,M,40.592,M,2.7,0123*7B
$GPVTG,,T,,M,,N,,K,D*26
$GPGGA,094018.95,5702.9662428,N,00949.1536973,E,2,4,3.0,4.531,M,40.592,M,2.7,0123*7F
$GPVTG,,T,,M,,N,,K,D*26
$GPGGA,094019.00,5702.9662401,N,00949.1536964,E,2,4,3.0,4.528,M,40.592,M,2.7,0123*77
$GPVTG,,T,,M,,N,,K,D*26
