$GPGGA,095310.65,5703.0496280,N,00949.3257333,E,2,5,1.6,-4.148,M,40.595,M,3.3,0123*53
$GPVTG,107.13,T,-532.77,M,004.927,N,009.125,K,D*0C
$GPGGA,095310.70,5703.0496096,N,00949.3258521,E,2,5,1.6,-4.152,M,40.595,M,3.3,0123*53
$GPVTG,107.00,T,-532.90,M,004.917,N,009.105,K,D*06
$GPGGA,095310.75,5703.0495889,N,00949.3259755,E,2,5,1.6,-4.159,M,40.595,M,3.3,0123*58
$GPVTG,107.00,T,-532.90,M,004.952,N,009.171,K,D*04
$GPGGA,095310.80,5703.0495661,N,00949.3260985,E,2,5,1.6,-4.168,M,40.595,M,3.3,0123*51
$GPVTG,107.22,T,-532.68,M,004.985,N,009.233,K,D*0C
$GPGGA,095310.85,5703.0495477,N,00949.3262179,E,2,5,1.6,-4.167,M,40.595,M,3.5,0123*51
$GPVTG,107.18,T,-532.72,M,004.977,N,009.217,K,D*05
$GPGGA,095310.90,5703.0495275,N,00949.3263361,E,2,5,1.6,-4.177,M,40.595,M,3.5,0123*5A
$GPVTG,107.26,T,-532.64,M,004.959,N,009.184,K,D*0A
$GPGGA,095310.95,5703.0495060,N,00949.3264576,E,2,5,1.6,-4.185,M,40.595,M,3.5,0123*53
$GPVTG,107.38,T,-532.52,M,004.975,N,009.213,K,D*03
$GPGGA,095311.00,5703.0494864,N,00949.3265725,E,2,5,1.6,-4.192,M,40.595,M,3.5,0123*50
$GPVTG,107.48,T,-532.42,M,004.927,N,009.125,K,D*04
$GPGGA,095311.05,5703.0494687,N,00949.3266995,E,2,5,1.6,-4.167,M,40.595,M,3.7,0123*58
$GPVTG,107.33,T,-532.57,M,004.935,N,009.140,K,D*0C
$GPGGA,095311.10,5703.0494463,N,00949.3268174,E,2,5,1.6,-4.170,M,40.595,M,3.7,0123*5B
$GPVTG,107.64,T,-532.26,M,004.926,N,009.123,K,D*0F
$GPGGA,095311.15,5703.0494265,N,00949.3269357,E,2,5,1.6,-4.173,M,40.595,M,3.7,0123*5F
$GPVTG,107.63,T,-532.27,M,004.913,N,009.099,K,D*0F
$GPGGA,095311.20,5703.0494053,N,00949.3270602,E,2,5,1.6,-4.182,M,40.595,M,3.7,0123*5D
$GPVTG,107.57,T,-532.33,M,004.958,N,009.182,K,D*09
$GPGGA,095311.25,5703.0493871,N,00949.3271750,E,2,5,1.6,-4.180,M,40.595,M,2.4,0123*50
$GPVTG,107.68,T,-532.22,M,004.924,N,009.118,K,D*0D
$GPGGA,095311.30,5703.0493663,N,00949.3272945,E,2,5,1.6,-4.188,M,40.595,M,2.4,0123*58
$GPVTG,107.73,T,-532.17,M,004.925,N,009.121,K,D*0A
$GPGGA,095311.35,5703.0493461,N,00949.3274157,E,2,5,1.6,-4.196,M,40.595,M,2.4,0123*5F
$GPVTG,107.65,T,-532.25,M,004.939,N,009.146,K,D*00
$GPGGA,095311.40,5703.0493270,N,00949.3275313,E,2,5,1.6,-4.204,M,40.595,M,2.4,0123*50
$GPVTG,107.63,T,-532.27,M,004.900,N,009.076,K,D*0C
$GPGGA,095311.45,5703.0493062,N,00949.3276594,E,2,5,1.6,-4.174,M,40.595,M,2.7,0123*59
$GPVTG,107.80,T,-532.10,M,004.905,N,009.085,K,D*0C
$GPGGA,095311.50,5703.0492840,N,00949.3277760,E,2,5,1.6,-4.180,M,40.595,M,2.7,0123*57
$GPVTG,108.05,T,-531.85,M,004.890,N,009.056,K,D*02
$GPGGA,095311.55,5703.0492613,N,00949.3278958,E,2,5,1.6,-4.186,M,40.595,M,2.7,0123*56
$GPVTG,108.25,T,-531.65,M,004.904,N,009.082,K,D*0B
$GPGGA,095311.60,5703.0492412,N,00949.3280197,E,2,5,1.6,-4.197,M,40.595,M,2.7,0123*5F
$GPVTG,108.01,T,-531.89,M,004.943,N,009.154,K,D*06
$GPGGA,095311.65,5703.0492209,N,00949.3281438,E,2,5,1.6,-4.190,M,40.595,M,2.9,0123*5E
$GPVTG,107.97,T,-531.93,M,004.950,N,009.168,K,D*00
$GPGGA,095311.70,5703.0491992,N,00949.3282619,E,2,5,1.6,-4.205,M,40.595,M,2.9,0123*5D
$GPVTG,108.11,T,-531.79,M,004.941,N,009.151,K,D*0F
$GPGGA,095311.75,5703.0491771,N,00949.3283808,E,2,5,1.6,-4.220,M,40.595,M,2.9,0123*53
$GPVTG,108.25,T,-531.65,M,004.940,N,009.149,K,D*0D
$GPGGA,095311.80,5703.0491552,N,00949.3284988,E,2,5,1.6,-4.229,M,40.595,M,2.9,0123*5D
$GPVTG,108.39,T,-531.51,M,004.932,N,009.133,K,D*0F
$GPGGA,095311.85,5703.0491349,N,00949.3286308,E,2,5,1.6,-4.210,M,40.595,M,3.2,0123*54
$GPVTG,108.24,T,-531.66,M,004.930,N,009.130,K,D*06
$GPGGA,095311.90,5703.0491126,N,00949.3287497,E,2,5,1.6,-4.214,M,40.595,M,3.2,0123*5F
$GPVTG,108.38,T,-531.52,M,004.931,N,009.133,K,D*0E
$GPGGA,095311.95,5703.0490906,N,00949.3288713,E,2,5,1.6,-4.220,M,40.595,M,3.2,0123*56
$GPVTG,108.39,T,-531.52,M,004.954,N,009.175,K,D*0E
$GPGGA,095312.00,5703.0490690,N,00949.3289914,E,2,5,1.6,-4.227,M,40.595,M,3.2,0123*56
$GPVTG,108.41,T,-531.49,M,004.961,N,009.188,K,D*0F
$GPGGA,095312.05,5703.0490540,N,00949.3291073,E,2,5,1.6,-4.211,M,40.595,M,3.4,0123*5F
$GPVTG,108.40,T,-531.50,M,004.933,N,009.137,K,D*05
$GPGGA,095312.10,5703.0490317,N,00949.3292241,E,2,5,1.6,-4.218,M,40.595,M,3.4,0123*56
$GPVTG,108.59,T,-531.31,M,004.916,N,009.105,K,D*0C
$GPGGA,095312.15,5703.0490105,N,00949.3293421,E,2,5,1.6,-4.226,M,40.595,M,3.4,0123*5E
$GPVTG,108.60,T,-531.30,M,004.909,N,009.092,K,D*06
$GPGGA,095312.20,5703.0489874,N,00949.3294575,E,2,5,1.6,-4.233,M,40.595,M,3.4,0123*5C
$GPVTG,108.89,T,-531.01,M,004.887,N,009.050,K,D*0A
$GPGGA,095312.25,5703.0489705,N,00949.3295840,E,2,5,1.6,-4.204,M,40.595,M,1.9,0123*51
$GPVTG,108.64,T,-531.26,M,004.890,N,009.056,K,D*0C
$GPGGA,095312.30,5703.0489461,N,00949.3297025,E,2,5,1.6,-4.209,M,40.595,M,1.9,0123*50
$GPVTG,108.95,T,-530.95,M,004.901,N,009.076,K,D*00
$GPGGA,095312.35,5703.0489230,N,00949.3298236,E,2,5,1.6,-4.219,M,40.595,M,1.9,0123*59
$GPVTG,109.02,T,-530.88,M,004.928,N,009.128,K,D*02
$GPGGA,095312.40,5703.0489056,N,00949.3299459,E,2,5,1.6,-4.226,M,40.595,M,1.9,0123*5B
$GPVTG,108.43,T,-531.47,M,004.946,N,009.161,K,D*01
$GPGGA,095312.45,5703.0488866,N,00949.3300665,E,2,5,1.6,-4.222,M,40.595,M,2.2,0123*54
$GPVTG,108.56,T,-531.34,M,004.929,N,009.129,K,D*04
$GPGGA,095312.50,5703.0488643,N,00949.3301854,E,2,5,1.6,-4.228,M,40.595,M,2.2,0123*5E
$GPVTG,108.64,T,-531.26,M,004.933,N,009.135,K,D*00
$GPGGA,095312.55,5703.0488392,N,00949.3303011,E,2,5,1.6,-4.236,M,40.595,M,2.2,0123*56
$GPVTG,109.11,T,-530.79,M,004.918,N,009.108,K,D*0F
$GPGGA,095312.60,5703.0488166,N,00949.3304199,E,2,5,1.6,-4.244,M,40.595,M,2.2,0123*5A
$GPVTG,109.17,T,-530.73,M,004.923,N,009.117,K,D*05
$GPGGA,095312.65,5703.0487963,N,00949.3305456,E,2,5,1.6,-4.217,M,40.595,M,2.4,0123*5A
$GPVTG,109.32,T,-530.58,M,004.929,N,009.128,K,D*0D
$GPGGA,095312.70,5703.0487728,N,00949.3306660,E,2,5,1.6,-4.229,M,40.595,M,2.4,0123*56
$GPVTG,109.40,T,-530.50,M,004.950,N,009.167,K,D*05
$GPGGA,095312.75,5703.0487482,N,00949.3307859,E,2,5,1.6,-4.239,M,40.595,M,2.4,0123*54
$GPVTG,109.61,T,-530.29,M,004.968,N,009.200,K,D*01
$GPGGA,095312.80,5703.0487268,N,00949.3309107,E,2,5,1.6,-4.247,M,40.595,M,2.4,0123*59
$GPVTG,109.31,T,-530.59,M,005.013,N,009.284,K,D*0B
$GPGGA,095312.85,5703.0487077,N,00949.3310338,E,2,5,1.6,-4.240,M,40.595,M,2.7,0123*52
$GPVTG,109.24,T,-530.66,M,004.982,N,009.228,K,D*05
$GPGGA,095312.90,5703.0486855,N,00949.3311448,E,2,5,1.6,-4.245,M,40.595,M,2.7,0123*5B
$GPVTG,109.51,T,-530.39,M,004.913,N,009.099,K,D*0D
$GPGGA,095312.95,5703.0486605,N,00949.3312629,E,2,5,1.6,-4.252,M,40.595,M,2.7,0123*55
$GPVTG,109.80,T,-530.10,M,004.920,N,009.113,K,D*09
$GPGGA,095313.00,5703.0486353,N,00949.3313763,E,2,5,1.6,-4.261,M,40.595,M,2.7,0123*50
$GPVTG,110.24,T,-529.66,M,004.890,N,009.056,K,D*0C
$GPGGA,095313.05,5703.0486147,N,00949.3314950,E,2,5,1.6,-4.229,M,40.595,M,2.9,0123*59
$GPVTG,110.72,T,-529.18,M,004.880,N,009.039,K,D*0E
$GPGGA,095313.10,5703.0485932,N,00949.3316137,E,2,5,1.6,-4.237,M,40.595,M,2.9,0123*50
$GPVTG,110.50,T,-529.40,M,004.888,N,009.053,K,D*07
$GPGGA,095313.15,5703.0485676,N,00949.3317291,E,2,5,1.6,-4.244,M,40.595,M,2.9,0123*50
$GPVTG,110.83,T,-529.07,M,004.883,N,009.042,K,D*01
$GPGGA,095313.20,5703.0485449,N,00949.3318473,E,2,5,1.6,-4.252,M,40.595,M,2.9,0123*5A
$GPVTG,110.73,T,-529.17,M,004.890,N,009.057,K,D*09
$GPGGA,095313.25,5703.0485246,N,00949.3319731,E,2,5,1.6,-4.220,M,40.595,M,1.8,0123*55
$GPVTG,110.58,T,-529.32,M,004.879,N,009.036,K,D*07
$GPGGA,095313.30,5703.0484975,N,00949.3320922,E,2,5,1.6,-4.227,M,40.595,M,1.8,0123*5A
$GPVTG,110.94,T,-528.96,M,004.914,N,009.100,K,D*06
$GPGGA,095313.35,5703.0484749,N,00949.3322110,E,2,5,1.6,-4.232,M,40.595,M,1.8,0123*51
$GPVTG,110.76,T,-529.14,M,004.925,N,009.121,K,D*00
$GPGGA,095313.40,5703.0484487,N,00949.3323255,E,2,5,1.6,-4.238,M,40.595,M,1.8,0123*5B
$GPVTG,111.17,T,-528.73,M,004.912,N,009.096,K,D*0F
$GPGGA,095313.45,5703.0484267,N,00949.3324548,E,2,5,1.6,-4.199,M,40.595,M,2.0,0123*59
$GPVTG,111.46,T,-528.44,M,004.969,N,009.202,K,D*0C
$GPGGA,095313.50,5703.0484028,N,00949.3325764,E,2,5,1.6,-4.205,M,40.595,M,2.0,0123*5F
$GPVTG,111.22,T,-528.68,M,005.004,N,009.268,K,D*0F
$GPGGA,095313.55,5703.0483768,N,00949.3327001,E,2,5,1.6,-4.213,M,40.595,M,2.0,0123*5F
$GPVTG,111.21,T,-528.69,M,005.062,N,009.375,K,D*00
$GPGGA,095313.60,5703.0483544,N,00949.3328150,E,2,5,1.6,-4.218,M,40.595,M,2.0,0123*54
$GPVTG,111.08,T,-528.82,M,005.017,N,009.291,K,D*07
$GPGGA,095313.65,5703.0483347,N,00949.3329318,E,2,5,1.6,-4.208,M,40.595,M,2.2,0123*58
$GPVTG,111.24,T,-528.66,M,004.978,N,009.219,K,D*02
$GPGGA,095313.70,5703.0483057,N,00949.3330484,E,2,5,1.6,-4.216,M,40.595,M,2.2,0123*5B
$GPVTG,111.73,T,-528.17,M,004.
$GPGGA,095317.55,5703.0461990,N,00949.3418704,E,2,5,1.6,-4.216,M,40.595,M,2.0,0123*52
$GPVTG,118.15,T,-521.75,M,004.901,N,009.077,K,D*06
$GPGGA,095317.60,5703.0461668,N,00949.3419815,E,2,5,1.6,-4.233,M,40.595,M,2.0,0123*55
$GPVTG,118.17,T,-521.73,M,004.909,N,009.091,K,D*02
$GPGGA,095317.65,5703.0461414,N,00949.3421051,E,2,5,1.6,-4.199,M,40.595,M,2.2,0123*5B
$GPVTG,118.12,T,-521.78,M,004.908,N,009.090,K,D*0C
$GPGGA,095317.70,5703.0461065,N,00949.3422117,E,2,5,1.6,-4.208,M,40.595,M,2.2,0123*56
$GPVTG,118.62,T,-521.28,M,004.894,N,009.065,K,D*00
$GPGGA,095317.75,5703.0460749,N,00949.3423249,E,2,5,1.6,-4.219,M,40.595,M,2.2,0123*52
$GPVTG,118.42,T,-521.48,M,004.917,N,009.107,K,D*0B
$GPGGA,095317.80,5703.0460429,N,00949.3424322,E,2,5,1.6,-4.228,M,40.595,M,2.2,0123*54
$GPVTG,118.57,T,-521.33,M,004.895,N,009.066,K,D*0E
$GPGGA,095317.85,5703.0460102,N,00949.3425540,E,2,5,1.6,-4.204,M,40.595,M,2.5,0123*57
$GPVTG,118.84,T,-521.06,M,004.925,N,009.121,K,D*0E
$GPGGA,095317.90,5703.0459765,N,00949.3426643,E,2,5,1.6,-4.216,M,40.595,M,2.5,0123*5E
$GPVTG,118.96,T,-520.94,M,004.934,N,009.138,K,D*0F
$GPGGA,095317.95,5703.0459432,N,00949.3427719,E,2,5,1.6,-4.228,M,40.595,M,2.5,0123*58
$GPVTG,119.16,T,-520.74,M,004.920,N,009.111,K,D*06
$GPGGA,095318.00,5703.0459134,N,00949.3428805,E,2,5,1.6,-4.240,M,40.595,M,2.5,0123*5B
$GPVTG,118.95,T,-520.95,M,004.899,N,009.072,K,D*04
$GPGGA,095318.05,5703.0458827,N,00949.3430069,E,2,5,1.6,-4.193,M,40.595,M,2.7,0123*50
$GPVTG,118.99,T,-520.91,M,004.920,N,009.112,K,D*08
$GPGGA,095318.10,5703.0458474,N,00949.3431215,E,2,5,1.6,-4.201,M,40.595,M,2.7,0123*5E
$GPVTG,119.02,T,-520.88,M,004.970,N,009.205,K,D*03
$GPGGA,095318.15,5703.0458145,N,00949.3432352,E,2,5,1.6,-4.204,M,40.595,M,2.7,0123*58
$GPVTG,118.87,T,-521.03,M,004.997,N,009.254,K,D*00
$GPGGA,095318.20,5703.0457801,N,00949.3433473,E,2,5,1.6,-4.206,M,40.595,M,2.7,0123*5F
$GPVTG,118.96,T,-520.94,M,005.015,N,009.288,K,D*0C
$GPGGA,095318.25,5703.0457525,N,00949.3434510,E,2,5,1.6,-4.191,M,40.595,M,2.9,0123*51
$GPVTG,119.26,T,-520.64,M,004.997,N,009.254,K,D*0A
$GPGGA,095318.30,5703.0457220,N,00949.3435565,E,2,5,1.6,-4.195,M,40.595,M,2.9,0123*50
$GPVTG,119.26,T,-520.64,M,004.946,N,009.159,K,D*08
$GPGGA,095318.35,5703.0456908,N,00949.3436607,E,2,5,1.6,-4.202,M,40.595,M,2.9,0123*5C
$GPVTG,119.38,T,-520.52,M,004.893,N,009.063,K,D*03
$GPGGA,095318.40,5703.0456584,N,00949.3437682,E,2,5,1.6,-4.208,M,40.595,M,2.9,0123*50
$GPVTG,119.42,T,-520.48,M,004.878,N,009.035,K,D*03
$GPGGA,095318.45,5703.0456375,N,00949.3438791,E,2,5,1.6,-4.164,M,40.595,M,3.1,0123*51
$GPVTG,119.36,T,-520.54,M,004.854,N,008.989,K,D*0C
$GPGGA,095318.50,5703.0456030,N,00949.3439894,E,2,5,1.6,-4.178,M,40.595,M,3.1,0123*51
$GPVTG,119.45,T,-520.45,M,004.875,N,009.028,K,D*08
$GPGGA,095318.55,5703.0455686,N,00949.3441026,E,2,5,1.6,-4.197,M,40.595,M,3.1,0123*53
$GPVTG,119.36,T,-520.54,M,004.915,N,009.103,K,D*03
$GPGGA,095318.60,5703.0455341,N,00949.3442153,E,2,5,1.6,-4.213,M,40.595,M,3.1,0123*54
$GPVTG,119.33,T,-520.57,M,004.950,N,009.167,K,D*06
$GPGGA,095318.65,5703.0454960,N,00949.3443465,E,2,5,1.6,-4.177,M,40.595,M,3.3,0123*5B
$GPVTG,119.67,T,-520.23,M,004.978,N,009.219,K,D*04
$GPGGA,095318.70,5703.0454654,N,00949.3444603,E,2,5,1.6,-4.181,M,40.595,M,3.3,0123*5B
$GPVTG,119.19,T,-520.71,M,004.995,N,009.251,K,D*05
$GPGGA,095318.75,5703.0454318,N,00949.3445730,E,2,5,1.6,-4.186,M,40.595,M,3.3,0123*54
$GPVTG,119.10,T,-520.80,M,005.015,N,009.288,K,D*06
$GPGGA,095318.80,5703.0453979,N,00949.3446842,E,2,5,1.6,-4.193,M,40.595,M,3.3,0123*59
$GPVTG,119.12,T,-520.78,M,005.021,N,009.300,K,D*05
$GPGGA,095318.85,5703.0453670,N,00949.3447913,E,2,5,1.6,-4.178,M,40.595,M,3.5,0123*5D
$GPVTG,119.73,T,-520.17,M,005.033,N,009.322,K,D*08
$GPGGA,095318.90,5703.0453325,N,00949.3449022,E,2,5,1.6,-4.188,M,40.595,M,3.5,0123*56
$GPVTG,119.79,T,-520.11,M,005.039,N,009.332,K,D*0F
$GPGGA,095318.95,5703.0452957,N,00949.3450126,E,2,5,1.6,-4.195,M,40.595,M,3.5,0123*5C
$GPVTG,120.06,T,-519.84,M,005.049,N,009.351,K,D*09
$GPGGA,095319.00,5703.0452652,N,00949.3451204,E,2,5,1.6,-4.201,M,40.595,M,3.5,0123*57
$GPVTG,119.86,T,-520.04,M,005.010,N,009.279,K,D*0E
$GPGGA,095319.05,5703.0452338,N,00949.3452340,E,2,5,1.6,-4.174,M,40.595,M,2.1,0123*5D
$GPVTG,120.04,T,-519.86,M,005.013,N,009.283,K,D*08
$GPGGA,095319.10,5703.0452006,N,00949.3453376,E,2,5,1.6,-4.177,M,40.595,M,2.1,0123*50
$GPVTG,120.29,T,-519.61,M,004.957,N,009.180,K,D*06
$GPGGA,095319.15,5703.0451662,N,00949.3454481,E,2,5,1.6,-4.183,M,40.595,M,2.1,0123*51
$GPVTG,120.27,T,-519.63,M,004.965,N,009.196,K,D*0C
$GPGGA,095319.20,5703.0451320,N,00949.3455549,E,2,5,1.6,-4.186,M,40.595,M,2.1,0123*55
$GPVTG,120.40,T,-519.50,M,004.945,N,009.157,K,D*02
$GPGGA,095319.25,5703.0451108,N,00949.3456649,E,2,5,1.6,-4.151,M,40.595,M,2.4,0123*57
$GPVTG,119.86,T,-520.04,M,004.909,N,009.092,K,D*09
$GPGGA,095319.30,5703.0450775,N,00949.3457737,E,2,5,1.6,-4.159,M,40.595,M,2.4,0123*5F
$GPVTG,119.82,T,-520.08,M,004.905,N,009.083,K,D*0D
$GPGGA,095319.35,5703.0450417,N,00949.3458772,E,2,5,1.6,-4.167,M,40.595,M,2.4,0123*5E
$GPVTG,120.28,T,-519.62,M,004.874,N,009.027,K,D*08
$GPGGA,095319.40,5703.0450045,N,00949.3459856,E,2,5,1.6,-4.182,M,40.595,M,2.4,0123*5C
$GPVTG,120.60,T,-519.30,M,004.892,N,009.059,K,D*02
$GPGGA,095319.45,5703.0449731,N,00949.3461112,E,2,5,1.6,-4.147,M,40.595,M,2.7,0123*5D
$GPVTG,120.35,T,-519.55,M,004.923,N,009.117,K,D*01
$GPGGA,095319.50,5703.0449367,N,00949.3462212,E,2,5,1.6,-4.155,M,40.595,M,2.7,0123*5D
$GPVTG,120.49,T,-519.41,M,004.945,N,009.159,K,D*05
$GPGGA,095319.55,5703.0449003,N,00949.3463327,E,2,5,1.6,-4.164,M,40.595,M,2.7,0123*5D
$GPVTG,120.53,T,-519.37,M,004.977,N,009.217,K,D*07
$GPGGA,095319.60,5703.0448671,N,00949.3464409,E,2,5,1.6,-4.171,M,40.595,M,2.7,0123*51
$GPVTG,120.45,T,-519.45,M,004.965,N,009.195,K,D*0F
$GPGGA,095319.65,5703.0448370,N,00949.3465573,E,2,5,1.6,-4.154,M,40.595,M,2.9,0123*54
$GPVTG,120.16,T,-519.74,M,004.958,N,009.181,K,D*00
$GPGGA,095319.70,5703.0448033,N,00949.3466669,E,2,5,1.6,-4.160,M,40.595,M,2.9,0123*58
$GPVTG,120.07,T,-519.83,M,004.960,N,009.186,K,D*04
$GPGGA,095319.75,5703.0447688,N,00949.3467741,E,2,5,1.6,-4.167,M,40.595,M,2.9,0123*59
$GPVTG,120.18,T,-519.72,M,004.947,N,009.163,K,D*0A
$GPGGA,095319.80,5703.0447343,N,00949.3468840,E,2,5,1.6,-4.177,M,40.595,M,2.9,0123*51
$GPVTG,120.15,T,-519.75,M,004.957,N,009.180,K,D*0C
$GPGGA,095319.85,5703.0447034,N,00949.3469917,E,2,5,1.6,-4.151,M,40.595,M,3.2,0123*5B
$GPVTG,120.68,T,-519.22,M,004.934,N,009.137,K,D*0D
$GPGGA,095319.90,5703.0446697,N,00949.3471020,E,2,5,1.6,-4.158,M,40.595,M,3.2,0123*5C
$GPVTG,120.50,T,-519.40,M,004.944,N,009.156,K,D*02
$GPGGA,095319.95,5703.0446340,N,00949.3472104,E,2,5,1.6,-4.162,M,40.595,M,3.2,0123*5B
$GPVTG,120.62,T,-519.28,M,004.949,N,009.165,K,D*00
$GPGGA,095320.00,5703.0446016,N,00949.3473169,E,2,5,1.6,-4.166,M,40.595,M,3.2,0123*53
$GPVTG,120.51,T,-519.39,M,004.923,N,009.118,K,D*06
$GPGGA,095320.05,5703.0445757,N,00949.3474204,E,2,5,1.6,-4.135,M,40.595,M,1.7,0123*59
$GPVTG,120.49,T,-519.41,M,004.854,N,008.989,K,D*00
$GPGGA,095320.10,5703.0445388,N,00949.3475274,E,2,5,1.6,-4.146,M,40.595,M,1.7,0123*59
$GPVTG,120.77,T,-519.13,M,004.864,N,009.008,K,D*08
$GPGGA,095320.15,5703.0445050,N,00949.3476327,E,2,5,1.6,-4.157,M,40.595,M,1.7,0123*5E
$GPVTG,120.82,T,-519.08,M,004.847,N,008.977,K,D*09
$GPGGA,095320.20,5703.0444702,N,00949.3477413,E,2,5,1.6,-4.167,M,40.595,M,1.7,0123*5B
$GPVTG,120.78,T,-519.12,M,004.862,N,009.004,K,D*0C
$GPGGA,095320.25,5703.0444418,N,00949.3478621,E,2,5,1.6,-4.130,M,40.595,M,1.9,0123*56
$GPVTG,120.38,T,-519.52,M,004.851,N,008.985,K,D*0D
$GPGGA,095320.30,5703.0444033,N,00949.3479770,E,2,5,1.6,-4.142,M,40.595,M,1.9,0123*5E
$GPVTG,120.39,T,-519.51,M,004.932,N,009.134,K,D*08
$GPGGA,095320.35,5703.0443662,N,00949.3480835,E,2,5,1.6,-4.151,M,40.595,M,1.9,0123*54
$GPVTG,120.71,T,-519.19,M,004.935,N,009.139,K,D*02
$GPGGA,095320.40,5703.0443333,N,00949.3481878,E,2,5,1.6,-4.159,M,40.595,M,1.9,0123*57
$GPVTG,120.73,T,-519.17,M,004.900,N,009.075,K,D*01
$GPGGA,095320.45,5703.0443018,N,00949.3483034,E,2,5,1.6,-4.134,M,40.595,M,2.2,0123*59
$GPVTG,120.64,T,-519.26,M,004.883,N,009.043,K,D*0A
$GPGGA,095320.50,5703.0442680,N,00949.3484090,E,2,5,1.6,-4.146,M,40.595,M,2.2,0123*57
$GPVTG,120.66,T,-519.24,M,004.868,N,009.015,K,D*0C
$GPGGA,095320.55,5703.0442307,N,00949.3485159,E,2,5,1.6,-4.153,M,40.595,M,2.2,0123*59
$GPVTG,120.95,T,-518.95,M,004.882,N,009.041,K,D*0E
$GPGGA,095320.60,5703.0441965,N,00949.3486257,E,2,5,1.6,-4.161,M,40.595,M,2.2,0123*5D
$GPVTG,120.76,T,-519.14,M,004.902,N,009.078,K,D*08
$GPGGA,095320.65,5703.0441652,N,00949.3487411,E,2,5,1.6,-4.129,M,40.595,M,2.4,0123*5C
$GPVTG,120.82,T,-519.08,M,004.907,N,009.087,K,D*0B
$GPGGA,095320.70,5703.0441294,N,00949.3488483,E,2,5,1.6,-4.138,M,40.595,M,2.4,0123*52
$GPVTG,120.94,T,-518.96,M,004.913,N,009.098,K,D*01
$GPGGA,095320.75,5703.0440957,N,00949.3489549,E,2,5,1.6,-4.151,M,40.595,M,2.4,0123*5B
$GPVTG,120.87,T,-519.03,M,004.902,N,009.079,K,D*01
$GPGGA,095320.80,5703.0440595,N,00949.3490637,E,2,5,1.6,-4.157,M,40.595,M,2.4,0123*57
$GPVTG,120.92,T,-518.98,M,004.923,N,009.117,K,D*0C
$GPGGA,095320.85,5703.0440281,N,00949.3491801,E,2,5,1.6,-4.128,M,40.595,M,2.7,0123*51
$GPVTG,120.72,T,-519.18,M,004.937,N,009.144,K,D*08
$GPGGA,095320.90,5703.0439934,N,00949.3492813,E,2,5,1.6,-4.135,M,40.595,M,2.7,0123*52
$GPVTG,121.04,T,-518.86,M,004.889,N,009.055,K,D*0B
$GPGGA,095320.95,5703.0439579,N,00949.3493861,E,2,5,1.6,-4.143,M,40.595,M,2.7,0123*57
$GPVTG,121.23,T,-518.67,M,004.877,N,009.033,K,D*00
$GPGGA,095321.00,5703.0439234,N,00949.3494901,E,2,5,1.6,-4.153,M,40.595,M,2.7,0123*55
$GPVTG,121.32,T,-518.58,M,004.857,N,008.994,K,D*0B
$GPGGA,095321.05,5703.0438937,N,00949.3496021,E,2,5,1.6,-4.118,M,40.595,M,1.5,0123*5E
$GPVTG,121.30,T,-518.60,M,004.864,N,009.009,K,D*0E
$GPGGA,095321.10,5703.0438607,N,00949.3497091,E,2,5,1.6,-4.124,M,40.595,M,1.5,0123*53
$GPVTG,121.08,T,-518.82,M,004.861,N,009.003,K,D*06
$GPGGA,095321.15,5703.0438223,N,00949.3498165,E,2,5,1.6,-4.134,M,40.595,M,1.5,0123*50
$GPVTG,121.37,T,-518.53,M,004.888,N,009.052,K,D*05
$GPGGA,095321.20,5703.0437875,N,00949.3499223,E,2,5,1.6,-4.146,M,40.595,M,1.5,0123*55
$GPVTG,121.39,T,-518.51,M,004.882,N,009.042,K,D*02
$GPGGA,095321.25,5703.0437563,N,00949.3500368,E,2,5,1.6,-4.119,M,40.595,M,1.8,0123*52
$GPVTG,121.21,T,-518.69,M,004.876,N,009.030,K,D*0E
$GPGGA,095321.30,5703.0437192,N,00949.3501458,E,2,5,1.6,-4.129,M,40.595,M,1.8,0123*5A
$GPVTG,121.28,T,-518.62,M,004.906,N,009.087,K,D*06
$GPGGA,095321.35,5703.0436866,N,00949.3502502,E,2,5,1.6,-4.141,M,40.595,M,1.8,0123*5F
$GPVTG,121.16,T,-518.74,M,004.878,N,009.035,K,D*0D
$GPGGA,095321.40,5703.0436510,N,00949.3503547,E,2,5,1.6,-4.150,M,40.595,M,1.8,0123*51
$GPVTG,121.32,T,-518.58,M,004.869,N,009.017,K,D*05
$GPGGA,095321.45,5703.0436193,N,00949.3504767,E,2,5,1.6,-4.104,M,40.595,M,2.0,0123*56
$GPVTG,121.23,T,-518.67,M,004.893,N,009.061,K,D*0D
$GPGGA,095321.50,5703.0435816,N,00949.3505900,E,2,5,1.6,-4.113,M,40.595,M,2.0,0123*5D
$GPVTG,121.13,T,-518.77,M,004.957,N,009.180,K,D*08
$GPGGA,095321.55,5703.0435470,N,00949.3506967,E,2,5,1.6,-4.120,M,40.595,M,2.0,0123*56
$GPVTG,121.10,T,-518.80,M,004.951,N,009.168,K,D*03
$GPGGA,095321.60,5703.0435127,N,00949.3508027,E,2,5,1.6,-4.123,M,40.595,M,2.0,0123*57
$GPVTG,121.08,T,-518.82,M,004.937,N,009.143,K,D*01
$GPGGA,095321.65,5703.0434818,N,00949.3509116,E,2,5,1.6,-4.100,M,40.595,M,2.2,0123*57
$GPVTG,121.08,T,-518.82,M,004.917,N,009.106,K,D*02
$GPGGA,095321.70,5703.0434444,N,00949.3510202,E,2,5,1.6,-4.109,M,40.595,M,2.2,0123*51
$GPVTG,121.22,T,-518.68,M,004.941,N,009.151,K,D*0F
$GPGGA,095321.75,5703.0434125,N,00949.3511281,E,2,5,1.6,-4.121,M,40.595,M,2.2,0123*56
$GPVTG,120.87,T,-519.03,M,004.930,N,009.130,K,D*0C
$GPGGA,095321.80,5703.0433765,N,00949.3512322,E,2,5,1.6,-4.132,M,40.595,M,2.2,0123*50
$GPVTG,121.12,T,-518.78,M,004.911,N,009.095,K,D*01
$GPGGA,095321.85,5703.0433385,N,00949.3513477,E,2,5,1.6,-4.107,M,40.595,M,2.5,0123*58
$GPVTG,121.75,T,-518.15,M,004.942,N,009.152,K,D*07
$GPGGA,095321.90,5703.0433039,N,00949.3514535,E,2,5,1.6,-4.117,M,40.595,M,2.5,0123*59
$GPVTG,121.72,T,-518.18,M,004.929,N,009.129,K,D*0C
$GPGGA,095321.95,5703.0432723,N,00949.3515633,E,2,5,1.6,-4.120,M,40.595,M,2.5,0123*51
$GPVTG,121.19,T,-518.71,M,004.932,N,009.134,K,D*08
$GPGGA,095322.00,5703.0432376,N,00949.3516660,E,2,5,1.6,-4.125,M,40.595,M,2.5,0123*5A
$GPVTG,121.36,T,-518.54,M,004.896,N,009.068,K,D*05
$GPGGA,095322.05,5703.0432073,N,00949.3517787,E,2,5,1.6,-4.080,M,40.595,M,2.7,0123*5C
$GPVTG,121.36,T,-518.54,M,004.865,N,009.009,K,D*0E
$GPGGA,095322.10,5703.0431702,N,00949.3518830,E,2,5,1.6,-4.086,M,40.595,M,2.7,0123*50
$GPVTG,121.64,T,-518.26,M,004.860,N,009.001,K,D*01
$GPGGA,095322.15,5703.0431346,N,00949.3519895,E,2,5,1.6,-4.092,M,40.595,M,2.7,0123*5A
$GPVTG,121.65,T,-518.25,M,004.866,N,009.012,K,D*07
$GPGGA,095322.20,5703.0430976,N,00949.3521005,E,2,5,1.6,-4.100,M,40.595,M,2.7,0123*54
$GPVTG,121.54,T,-518.36,M,004.912,N,009.097,K,D*08
$GPGGA,095322.25,5703.0430660,N,00949.3522159,E,2,5,1.6,-4.071,M,40.595,M,2.9,0123*5B
$GPVTG,121.29,T,-518.61,M,004.926,N,009.122,K,D*08
$GPGGA,095322.30,5703.0430288,N,00949.3523267,E,2,5,1.6,-4.082,M,40.595,M,2.9,0123*5E
$GPVTG,121.26,T,-518.64,M,004.965,N,009.195,K,D*09
$GPGGA,095322.35,5703.0429931,N,00949.3524335,E,2,5,1.6,-4.093,M,40.595,M,2.9,0123*5B
$GPVTG,121.30,T,-518.60,M,004.962,N,009.190,K,D*08
$GPGGA,095322.40,5703.0429579,N,00949.3525417,E,2,5,1.6,-4.104,M,40.595,M,2.9,0123*50
$GPVTG,121.23,T,-518.67,M,004.967,N,009.199,K,D*01
$GPGGA,095322.45,5703.0429191,N,00949.3526625,E,2,5,1.6,-4.085,M,40.595,M,3.1,0123*56
$GPVTG,121.50,T,-518.40,M,005.012,N,009.283,K,D*02
$GPGGA,095322.50,5703.0428825,N,00949.3527590,E,2,5,1.6,-4.093,M,40.595,M,3.1,0123*5E
$GPVTG,122.16,T,-517.74,M,004.931,N,009.133,K,D*0A
$GPGGA,095322.55,5703.0428495,N,00949.3528593,E,2,5,1.6,-4.097,M,40.595,M,3.1,0123*54
$GPVTG,122.24,T,-517.66,M,004.870,N,009.020,K,D*0F
$GPGGA,095322.60,5703.0428153,N,00949.3529681,E,2,5,1.6,-4.104,M,40.595,M,3.1,0123*57
$GPVTG,121.93,T,-517.97,M,004.885,N,009.047,K,D*05
$GPGGA,095322.65,5703.0427855,N,00949.3530851,E,2,5,1.6,-4.066,M,40.595,M,3.3,0123*5E
$GPVTG,121.51,T,-518.39,M,004.924,N,009.118,K,D*01
$GPGGA,095322.70,5703.0427452,N,00949.3531960,E,2,5,1.6,-4.075,M,40.595,M,3.3,0123*51
$GPVTG,121.73,T,-518.17,M,004.978,N,009.219,K,D*06
$GPGGA,095322.75,5703.0427112,N,00949.3533013,E,2,5,1.6,-4.089,M,40.595,M,3.3,0123*59
$GPVTG,121.65,T,-518.25,M,004.955,N,009.176,K,D*05
$GPGGA,095322.80,5703.0426781,N,00949.3534099,E,2,5,1.6,-4.101,M,40.595,M,3.3,0123*5A
$GPVTG,121.31,T,-518.59,M,004.952,N,009.172,K,D*0C
$GPGGA,095322.85,5703.0426429,N,00949.3535257,E,2,5,1.6,-4.074,M,40.595,M,3.5,0123*5A
$GPVTG,121.55,T,-518.35,M,004.937,N,009.144,K,D*02
$GPGGA,095322.90,5703.0426042,N,00949.3536293,E,2,5,1.6,-4.079,M,40.595,M,3.5,0123*51
$GPVTG,122.02,T,-517.88,M,004.928,N,009.126,K,D*00
$GPGGA,095322.95,5703.0425669,N,00949.3537362,E,2,5,1.6,-4.083,M,40.595,M,3.5,0123*53
$GPVTG,122.12,T,-517.78,M,004.937,N,009.143,K,D*03
$GPGGA,095323.00,5703.0425318,N,00949.3538377,E,2,5,1.6,-4.084,M,40.595,M,3.5,0123*51
$GPVTG,122.31,T,-517.59,M,004.895,N,009.066,K,D*0E
$GPGGA,095323.05,5703.0425028,N,00949.3539400,E,2,5,1.6,-4.064,M,40.595,M,2.1,0123*59
$GPVTG,122.09,T,-517.81,M,004.875,N,009.029,K,D*05
$GPGGA,095323.10,5703.0424676,N,00949.3540499,E,2,5,1.6,-4.077,M,40.595,M,2.1,0123*5D
$GPVTG,121.81,T,-518.09,M,004.903,N,009.080,K,D*0A
$GPGGA,095323.15,5703.0424254,N,00949.3541585,E,2,5,1.6,-4.092,M,40.595,M,2.1,0123*5A
$GPVTG,122.27,T,-517.63,M,004.952,N,009.172,K,D*0E
$GPGGA,095323.20,5703.0423885,N,00949.3542577,E,2,5,1.6,-4.105,M,40.595,M,2.1,0123*5C
$GPVTG,122.72,T,-517.18,M,004.903,N,009.080,K,D*0A
$GPGGA,095323.25,5703.0423497,N,00949.3543823,E,2,5,1.6,-4.067,M,40.595,M,2.4,0123*5B
$GPVTG,122.78,T,-517.12,M,004.937,N,009.143,K,D*03
$GPGGA,095323.30,5703.0423137,N,00949.3544827,E,2,5,1.6,-4.073,M,40.595,M,2.4,0123*56
$GPVTG,123.04,T,-516.86,M,004.895,N,009.065,K,D*09
$GPGGA,095323.35,5703.0422787,N,00949.3545878,E,2,5,1.6,-4.083,M,40.595,M,2.4,0123*5B
$GPVTG,122.91,T,-516.99,M,004.887,N,009.050,K,D*0F
$GPGGA,095323.40,5703.0422437,N,00949.3546981,E,2,5,1.6,-4.088,M,40.595,M,2.4,0123*5E
$GPVTG,122.49,T,-517.41,M,004.918,N,009.107,K,D*0A
$GPGGA,095323.45,5703.0422107,N,00949.3548087,E,2,5,1.6,-4.064,M,40.595,M,2.7,0123*5D
$GPVTG,122.50,T,-517.40,M,004.950,N,009.168,K,D*06
$GPGGA,095323.50,5703.0421737,N,00949.3549139,E,2,5,1.6,-4.073,M,40.595,M,2.7,0123*5C
$GPVTG,122.59,T,-517.31,M,004.947,N,009.161,K,D*06
$GPGGA,095323.55,5703.0421367,N,00949.3550171,E,2,5,1.6,-4.087,M,40.595,M,2.7,0123*57
$GPVTG,122.78,T,-517.12,M,004.930,N,009.130,K,D*00
$GPGGA,095323.60,5703.0421015,N,00949.3551257,E,2,5,1.6,-4.100,M,40.595,M,2.7,0123*5F
$GPVTG,122.49,T,-517.41,M,004.944,N,009.157,K,D*06
$GPGGA,095323.65,5703.0420640,N,00949.3552406,E,2,5,1.6,-4.069,M,40.595,M,2.9,0123*5C
$GPVTG,122.77,T,-517.13,M,004.941,N,009.151,K,D*0F
$GPGGA,095323.70,5703.0420261,N,00949.3553433,E,2,5,1.6,-4.076,M,40.595,M,2.9,0123*56
$GPVTG,123.05,T,-516.85,M,004.925,N,009.121,K,D*00
$GPGGA,095323.75,5703.0419868,N,00949.3554438,E,2,5,1.6,-4.078,M,40.595,M,2.9,0123*58
$GPVTG,123.56,T,-516.34,M,004.904,N,009.082,K,D*07
$GPGGA,095323.80,5703.0419536,N,00949.3555466,E,2,5,1.6,-4.080,M,40.595,M,2.9,0123*59
$GPVTG,123.30,T,-516.60,M,004.869,N,009.018,K,D*0F
$GPGGA,095323.85,5703.0419227,N,00949.3556583,E,2,5,1.6,-4.046,M,40.595,M,3.2,0123*52
$GPVTG,122.78,T,-517.12,M,004.899,N,009.073,K,D*04
$GPGGA,095323.90,5703.0418840,N,00949.3557697,E,2,5,1.6,-4.054,M,40.595,M,3.2,0123*58
$GPVTG,122.62,T,-517.28,M,004.957,N,009.181,K,D*09
$GPGGA,095323.95,5703.0418447,N,00949.3558746,E,2,5,1.6,-4.061,M,40.595,M,3.2,0123*52
$GPVTG,122.90,T,-517.00,M,004.964,N,009.193,K,D*0D
$GPGGA,095324.00,5703.0418086,N,00949.3559811,E,2,5,1.6,-4.072,M,40.595,M,3.2,0123*5E
$GPVTG,122.77,T,-517.13,M,004.965,N,009.195,K,D*01
$GPGGA,095324.05,5703.0417770,N,00949.3560908,E,2,5,1.6,-4.058,M,40.595,M,1.7,0123*56
$GPVTG,122.44,T,-517.46,M,004.944,N,009.157,K,D*0C
$GPGGA,095324.10,5703.0417396,N,00949.3561950,E,2,5,1.6,-4.072,M,40.595,M,1.7,0123*5A
$GPVTG,122.59,T,-517.31,M,004.935,N,009.140,K,D*00
$GPGGA,095324.15,5703.0416996,N,00949.3562996,E,2,5,1.6,-4.081,M,40.595,M,1.7,0123*51
$GPVTG,122.95,T,-516.95,M,004.944,N,009.156,K,D*0E
$GPGGA,095324.20,5703.0416638,N,00949.3564049,E,2,5,1.6,-4.090,M,40.595,M,1.7,0123*51
$GPVTG,122.85,T,-517.05,M,004.937,N,009.142,K,D*06
$GPGGA,095324.25,5703.0416284,N,00949.3565190,E,2,5,1.6,-4.060,M,40.595,M,1.9,0123*52
$GPVTG,122.83,T,-517.07,M,004.911,N,009.095,K,D*0D
$GPGGA,095324.30,5703.0415919,N,00949.3566251,E,2,5,1.6,-4.065,M,40.595,M,1.9,0123*52
$GPVTG,122.75,T,-517.15,M,004.916,N,009.104,K,D*09
$GPGGA,095324.35,5703.0415545,N,00949.3567280,E,2,5,1.6,-4.076,M,40.595,M,1.9,0123*5D
$GPVTG,122.94,T,-516.96,M,004.902,N,009.079,K,D*02
$GPGGA,095324.40,5703.0415170,N,00949.3568413,E,2,5,1.6,-4.089,M,40.595,M,1.9,0123*5E
$GPVTG,122.54,T,-517.36,M,004.965,N,009.196,K,D*04
$GPGGA,095324.45,5703.0414832,N,00949.3569581,E,2,5,1.6,-4.057,M,40.595,M,2.2,0123*55
$GPVTG,122.27,T,-517.63,M,004.993,N,009.247,K,D*06
$GPGGA,095324.50,5703.0414451,N,00949.3570647,E,2,5,1.6,-4.063,M,40.595,M,2.2,0123*5E
$GPVTG,122.39,T,-517.51,M,005.000,N,009.259,K,D*05
$GPGGA,095324.55,5703.0414069,N,00949.3571653,E,2,5,1.6,-4.068,M,40.595,M,2.2,0123*5B
$GPVTG,122.82,T,-517.08,M,004.962,N,009.190,K,D*03
$GPGGA,095324.60,5703.0413712,N,00949.3572769,E,2,5,1.6,-4.073,M,40.595,M,2.2,0123*50
$GPVTG,122.39,T,-517.51,M,004.996,N,009.252,K,D*09
$GPGGA,095324.65,5703.0413387,N,00949.3573883,E,2,5,1.6,-4.045,M,40.595,M,2.4,0123*54
$GPVTG,122.10,T,-517.80,M,005.001,N,009.262,K,D*0B
$GPGGA,095324.70,5703.0412997,N,00949.3574889,E,2,5,1.6,-4.049,M,40.595,M,2.4,0123*5B
$GPVTG,122.64,T,-517.26,M,004.965,N,009.195,K,D*05
$GPGGA,095324.75,5703.0412647,N,00949.3575960,E,2,5,1.6,-4.056,M,40.595,M,2.4,0123*55
$GPVTG,122.41,T,-517.49,M,004.960,N,009.187,K,D*0D
$GPGGA,095324.80,5703.0412294,N,00949.3577078,E,2,5,1.6,-4.063,M,40.595,M,2.4,0123*51
$GPVTG,121.98,T,-517.92,M,004.992,N,009.246,K,D*0F
$GPGGA,095324.85,5703.0411964,N,00949.3578190,E,2,5,1.6,-4.030,M,40.595,M,2.7,0123*5E
$GPVTG,121.91,T,-517.99,M,004.992,N,009.246,K,D*0D
$GPGGA,095324.90,5703.0411600,N,00949.3579250,E,2,5,1.6,-4.036,M,40.595,M,2.7,0123*5F
$GPVTG,121.94,T,-517.96,M,004.982,N,009.226,K,D*00
$GPGGA,095324.95,5703.0411258,N,00949.3580331,E,2,5,1.6,-4.044,M,40.595,M,2.7,0123*56
$GPVTG,121.65,T,-518.25,M,004.976,N,009.216,K,D*01
$GPGGA,095325.00,5703.0410899,N,00949.3581427,E,2,5,1.6,-4.051,M,40.595,M,2.7,0123*58
$GPVTG,121.48,T,-518.42,M,004.991,N,009.243,K,D*06
$GPGGA,095325.05,5703.0410541,N,00949.3582530,E,2,5,1.6,-4.031,M,40.595,M,1.5,0123*56
$GPVTG,121.66,T,-518.24,M,004.991,N,009.244,K,D*0D
$GPGGA,095325.10,5703.0410187,N,00949.3583584,E,2,5,1.6,-4.039,M,40.595,M,1.5,0123*5A
$GPVTG,121.67,T,-518.23,M,004.970,N,009.204,K,D*00
$GPGGA,095325.15,5703.0409860,N,00949.3584601,E,2,5,1.6,-4.047,M,40.595,M,1.5,0123*57
$GPVTG,121.62,T,-518.28,M,004.908,N,009.090,K,D*0E
$GPGGA,095325.20,5703.0409502,N,00949.3585733,E,2,5,1.6,-4.057,M,40.595,M,1.5,0123*58
$GPVTG,121.24,T,-518.66,M,004.955,N,009.176,K,D*07
$GPGGA,095325.25,5703.0409137,N,00949.3586947,E,2,5,1.6,-4.025,M,40.595,M,1.8,0123*59
$GPVTG,121.04,T,-518.86,M,004.978,N,009.220,K,D*04
$GPGGA,095325.30,5703.0408785,N,00949.3588051,E,2,5,1.6,-4.032,M,40.595,M,1.8,0123*55
$GPVTG,120.83,T,-519.07,M,004.993,N,009.247,K,D*06
$GPGGA,095325.35,5703.0408433,N,00949.3589126,E,2,5,1.6,-4.038,M,40.595,M,1.8,0123*54
$GPVTG,120.79,T,-519.11,M,004.984,N,009.230,K,D*02
$GPGGA,095325.40,5703.0408051,N,00949.3590216,E,2,5,1.6,-4.049,M,40.595,M,1.8,0123*58
$GPVTG,120.98,T,-518.92,M,005.001,N,009.262,K,D*05
$GPGGA,095325.45,5703.0407708,N,00949.3591372,E,2,5,1.6,-4.036,M,40.595,M,2.0,0123*58
$GPVTG,120.56,T,-519.34,M,005.000,N,009.259,K,D*03
$GPGGA,095325.50,5703.0407375,N,00949.3592379,E,2,5,1.6,-4.041,M,40.595,M,2.0,0123*5A
$GPVTG,120.75,T,-519.15,M,004.927,N,009.125,K,D*04
$GPGGA,095325.55,5703.0407010,N,00949.3593413,E,2,5,1.6,-4.043,M,40.595,M,2.0,0123*57
$GPVTG,121.06,T,-518.84,M,004.900,N,009.074,K,D*08
$GPGGA,095325.60,5703.0406656,N,00949.3594505,E,2,5,1.6,-4.049,M,40.595,M,2.0,0123*5F
$GPVTG,120.95,T,-518.95,M,004.913,N,009.098,K,D*03
$GPGGA,095325.65,5703.0406312,N,00949.3595589,E,2,5,1.6,-4.027,M,40.595,M,2.2,0123*50
$GPVTG,121.14,T,-518.76,M,004.908,N,009.089,K,D*0C
$GPGGA,095325.70,5703.0405978,N,00949.3596654,E,2,5,1.6,-4.039,M,40.595,M,2.2,0123*5E
$GPVTG,120.96,T,-518.94,M,004.891,N,009.059,K,D*07
$GPGGA,095325.75,5703.0405611,N,00949.3597725,E,2,5,1.6,-4.050,M,40.595,M,2.2,0123*52
$GPVTG,121.09,T,-518.81,M,004.898,N,009.071,K,D*07
$GPGGA,095325.80,5703.0405246,N,00949.3598798,E,2,5,1.6,-4.064,M,40.595,M,2.2,0123*50
$GPVTG,121.18,T,-518.72,M,004.906,N,009.085,K,D*06
$GPGGA,095325.85,5703.0404846,N,00949.3600014,E,2,5,1.6,-4.016,M,40.595,M,2.5,0123*5D
$GPVTG,121.57,T,-518.33,M,004.908,N,009.090,K,D*02
$GPGGA,095325.90,5703.0404501,N,00949.3601075,E,2,5,1.6,-4.020,M,40.595,M,2.5,0123*54
$GPVTG,121.50,T,-518.40,M,004.898,N,009.070,K,D*07
$GPGGA,095325.95,5703.0404196,N,00949.3602178,E,2,5,1.6,-4.022,M,40.595,M,2.5,0123*56
$GPVTG,120.83,T,-519.07,M,004.900,N,009.074,K,D*0E
$GPGGA,095326.00,5703.0403803,N,00949.3603226,E,2,5,1.6,-4.026,M,40.595,M,2.5,0123*56
$GPVTG,121.33,T,-518.57,M,004.903,N,009.081,K,D*09
$GPGGA,095326.05,5703.0403468,N,00949.3604226,E,2,5,1.6,-4.025,M,40.595,M,2.7,0123*54
$GPVTG,121.44,T,-518.46,M,004.881,N,009.039,K,D*01
$GPGGA,095326.10,5703.0403124,N,00949.3605309,E,2,5,1.6,-4.038,M,40.595,M,2.7,0123*5C
$GPVTG,121.24,T,-518.66,M,004.890,N,009.057,K,D*0D
$GPGGA,095326.15,5703.0402785,N,00949.3606381,E,2,5,1.6,-4.054,M,40.595,M,2.7,0123*5C
$GPVTG,121.07,T,-518.83,M,004.888,N,009.052,K,D*0B
$GPGGA,095326.20,5703.0402432,N,00949.3607431,E,2,5,1.6,-4.070,M,40.595,M,2.7,0123*5E
$GPVTG,121.16,T,-518.74,M,004.876,N,009.030,K,D*06
$GPGGA,095326.25,5703.0402043,N,00949.3608710,E,2,5,1.6,-4.029,M,40.595,M,2.9,0123*54
$GPVTG,121.09,T,-518.81,M,004.891,N,009.058,K,D*05
$GPGGA,095326.30,5703.0401657,N,00949.3609769,E,2,5,1.6,-4.034,M,40.595,M,2.9,0123*53
$GPVTG,121.44,T,-518.46,M,004.902,N,009.079,K,D*0F
$GPGGA,095326.35,5703.0401278,N,00949.3610803,E,2,5,1.6,-4.039,M,40.595,M,2.9,0123*59
$GPVTG,121.84,T,-518.06,M,004.892,N,009.059,K,D*0D
$GPGGA,095326.40,5703.0400919,N,00949.3611868,E,2,5,1.6,-4.044,M,40.595,M,2.9,0123*50
$GPVTG,121.84,T,-518.06,M,004.895,N,009.066,K,D*06
$GPGGA,095326.45,5703.0400573,N,00949.3612958,E,2,5,1.6,-4.027,M,40.595,M,3.1,0123*58
$GPVTG,121.62,T,-518.28,M,004.927,N,009.125,K,D*0C
$GPGGA,095326.50,5703.0400220,N,00949.3614054,E,2,5,1.6,-4.038,M,40.595,M,3.1,0123*50
$GPVTG,121.43,T,-518.47,M,004.948,N,009.163,K,D*0D
$GPGGA,095326.55,5703.0399865,N,00949.3615105,E,2,5,1.6,-4.047,M,40.595,M,3.1,0123*55
$GPVTG,121.51,T,-518.39,M,004.933,N,009.136,K,D*0B
$GPGGA,095326.60,5703.0399505,N,00949.3616156,E,2,5,1.6,-4.054,M,40.595,M,3.1,0123*5F
$GPVTG,121.64,T,-518.26,M,004.922,N,009.116,K,D*01
$GPGGA,095326.65,5703.0399186,N,00949.3617273,E,2,5,1.6,-4.027,M,40.595,M,3.3,0123*56
$GPVTG,121.46,T,-518.44,M,004.883,N,009.043,K,D*0E
$GPGGA,095326.70,5703.0398819,N,00949.3618324,E,2,5,1.6,-4.033,M,40.595,M,3.3,0123*55
$GPVTG,121.64,T,-518.26,M,004.881,N,009.040,K,D*0B
$GPGGA,095326.75,5703.0398459,N,00949.3619409,E,2,5,1.6,-4.039,M,40.595,M,3.3,0123*5B
$GPVTG,121.56,T,-518.34,M,004.902,N,009.078,K,D*08
$GPGGA,095326.80,5703.0398084,N,00949.3620508,E,2,5,1.6,-4.048,M,40.595,M,3.3,0123*59
$GPVTG,121.56,T,-518.34,M,004.938,N,009.145,K,D*0E
$GPGGA,095326.85,5703.0397757,N,00949.3621619,E,2,5,1.6,-4.026,M,40.595,M,3.5,0123*56
$GPVTG,121.39,T,-518.51,M,004.925,N,009.122,K,D*09
$GPGGA,095326.90,5703.0397399,N,00949.3622668,E,2,5,1.6,-4.036,M,40.595,M,3.5,0123*50
$GPVTG,121.51,T,-518.39,M,004.913,N,009.099,K,D*0D
$GPGGA,095326.95,5703.0397041,N,00949.3623715,E,2,5,1.6,-4.046,M,40.595,M,3.5,0123*5E
$GPVTG,121.63,T,-518.27,M,004.900,N,009.075,K,D*03
$GPGGA,095327.00,5703.0396684,N,00949.3624787,E,2,5,1.6,-4.054,M,40.595,M,3.5,0123*52
$GPVTG,121.59,T,-518.31,M,004.908,N,009.089,K,D*06
$GPGGA,095327.05,5703.0396332,N,00949.3625905,E,2,5,1.6,-4.040,M,40.595,M,2.1,0123*5A
$GPVTG,121.55,T,-518.35,M,004.900,N,009.075,K,D*05
$GPGGA,095327.10,5703.0395959,N,00949.3626908,E,2,5,1.6,-4.050,M,40.595,M,2.1,0123*55
$GPVTG,122.03,T,-517.87,M,004.864,N,009.009,K,D*0B
$GPGGA,095327.15,5703.0395586,N,00949.3627987,E,2,5,1.6,-4.060,M,40.595,M,2.1,0123*5B
$GPVTG,122.05,T,-517.85,M,004.890,N,009.056,K,D*0E
$GPGGA,095327.20,5703.0395230,N,00949.3629038,E,2,5,1.6,-4.066,M,40.595,M,2.1,0123*52
$GPVTG,122.07,T,-517.83,M,004.883,N,009.044,K,D*0B
$GPGGA,095327.25,5703.0394864,N,00949.3630238,E,2,5,1.6,-4.032,M,40.595,M,2.4,0123*53
$GPVTG,121.81,T,-518.09,M,004.922,N,009.115,K,D*04
$GPGGA,095327.30,5703.0394518,N,00949.3631360,E,2,5,1.6,-4.041,M,40.595,M,2.4,0123*58
$GPVTG,121.39,T,-518.51,M,004.960,N,009.186,K,D*06
$GPGGA,095327.35,5703.0394153,N,00949.3632396,E,2,5,1.6,-4.049,M,40.595,M,2.4,0123*54
$GPVTG,121.63,T,-518.27,M,004.939,N,009.146,K,D*08
$GPGGA,095327.40,5703.0393780,N,00949.3633477,E,2,5,1.6,-4.058,M,40.595,M,2.4,0123*50
$GPVTG,121.69,T,-518.21,M,004.957,N,009.180,K,D*06
$GPGGA,095327.45,5703.0393415,N,00949.3634535,E,2,5,1.6,-4.046,M,40.595,M,2.7,0123*56
$GPVTG,121.91,T,-517.99,M,004.938,N,009.146,K,D*0E
$GPGGA,095327.50,5703.0393060,N,00949.3635611,E,2,5,1.6,-4.051,M,40.595,M,2.7,0123*56
$GPVTG,121.81,T,-518.09,M,004.944,N,009.157,K,D*02
$GPGGA,095327.55,5703.0392694,N,00949.3636668,E,2,5,1.6,-4.058,M,40.595,M,2.7,0123*5B
$GPVTG,121.93,T,-517.97,M,004.940,N,009.149,K,D*02
$GPGGA,095327.60,5703.0392382,N,00949.3637760,E,2,5,1.6,-4.065,M,40.595,M,2.7,0123*59
$GPVTG,121.33,T,-518.57,M,004.935,N,009.140,K,D*00
$GPGGA,095327.65,5703.0392068,N,00949.3638859,E,2,5,1.6,-4.042,M,40.595,M,2.9,0123*5A
$GPVTG,121.15,T,-518.75,M,004.949,N,009.165,K,D*08
$GPGGA,095327.70,5703.0391708,N,00949.3639881,E,2,5,1.6,-4.049,M,40.595,M,2.9,0123*53
$GPVTG,121.44,T,-518.46,M,004.913,N,009.100,K,D*00
$GPGGA,095327.75,5703.0391352,N,00949.3640923,E,2,5,1.6,-4.056,M,40.595,M,2.9,0123*54
$GPVTG,121.57,T,-518.33,M,004.895,N,009.066,K,D*0E
$GPGGA,095327.80,5703.0390982,N,00949.3642045,E,2,5,1.6,-4.068,M,40.595,M,2.9,0123*5E
$GPVTG,121.39,T,-518.51,M,004.945,N,009.159,K,D*03
$GPGGA,095327.85,5703.0390642,N,00949.3643223,E,2,5,1.6,-4.043,M,40.595,M,3.2,0123*58
$GPVTG,120.97,T,-518.93,M,004.956,N,009.178,K,D*09
$GPGGA,095327.90,5703.0390281,N,00949.3644289,E,2,5,1.6,-4.055,M,40.595,M,3.2,0123*57
$GPVTG,121.07,T,-518.83,M,004.952,N,009.171,K,D*0D
$GPGGA,095327.95,5703.0389909,N,00949.3645311,E,2,5,1.6,-4.063,M,40.595,M,3.2,0123*55
$GPVTG,121.50,T,-518.40,M,004.921,N,009.113,K,D*00
$GPGGA,095328.00,5703.0389577,N,00949.3646357,E,2,5,1.6,-4.067,M,40.595,M,3.2,0123*56
$GPVTG,121.38,T,-518.52,M,004.893,N,009.062,K,D*02
$GPGGA,095328.05,5703.0389210,N,00949.3647490,E,2,5,1.6,-4.037,M,40.595,M,1.7,0123*5A
$GPVTG,121.50,T,-518.40,M,004.894,N,009.064,K,D*0E
$GPGGA,095328.10,5703.0388858,N,00949.3648568,E,2,5,1.6,-4.045,M,40.595,M,1.7,0123*55
$GPVTG,121.40,T,-518.51,M,004.903,N,009.080,K,D*0A
$GPGGA,095328.15,5703.0388522,N,00949.3649666,E,2,5,1.6,-4.057,M,40.595,M,1.7,0123*5F
$GPVTG,121.05,T,-518.85,M,004.917,N,009.106,K,D*08
$GPGGA,095328.20,5703.0388184,N,00949.3650754,E,2,5,1.6,-4.068,M,40.595,M,1.7,0123*55
$GPVTG,120.80,T,-519.10,M,004.924,N,009.119,K,D*07
$GPGGA,095328.25,5703.0387829,N,00949.3651878,E,2,5,1.6,-4.057,M,40.595,M,1.9,0123*53
$GPVTG,120.75,T,-519.15,M,004.943,N,009.154,K,D*00
$GPGGA,095328.30,5703.0387481,N,00949.3652930,E,2,5,1.6,-4.068,M,40.595,M,1.9,0123*5B
$GPVTG,120.82,T,-519.08,M,004.922,N,009.116,K,D*05
$GPGGA,095328.35,5703.0387078,N,00949.3653989,E,2,5,1.6,-4.074,M,40.595,M,1.9,0123*52
$GPVTG,121.37,T,-518.53,M,004.937,N,009.144,K,D*06
$GPGGA,095328.40,5703.0386737,N,00949.3655084,E,2,5,1.6,-4.083,M,40.595,M,1.9,0123*57
$GPVTG,121.11,T,-518.79,M,004.948,N,009.163,K,D*07
$GPGGA,095328.45,5703.0386382,N,00949.3656248,E,2,5,1.6,-4.035,M,40.595,M,2.2,0123*5C
$GPVTG,121.08,T,-518.82,M,004.926,N,009.124,K,D*00
$GPGGA,095328.50,5703.0386062,N,00949.3657310,E,2,5,1.6,-4.034,M,40.595,M,2.2,0123*59
$GPVTG,120.82,T,-519.08,M,004.903,N,009.080,K,D*08
$GPGGA,095328.55,5703.0385715,N,00949.3658419,E,2,5,1.6,-4.039,M,40.595,M,2.2,0123*54
$GPVTG,120.58,T,-519.32,M,004.929,N,009.128,K,D*0D
$GPGGA,095328.60,5703.0385335,N,00949.3659519,E,2,5,1.6,-4.044,M,40.595,M,2.2,0123*5E
$GPVTG,120.73,T,-519.17,M,004.961,N,009.188,K,D*05
$GPGGA,095328.65,5703.0385051,N,00949.3660551,E,2,5,1.6,-4.033,M,40.595,M,2.4,0123*5A
$GPVTG,120.45,T,-519.45,M,004.954,N,009.175,K,D*03
$GPGGA,095328.70,5703.0384712,N,00949.3661628,E,2,5,1.6,-4.043,M,40.595,M,2.4,0123*54
$GPVTG,120.36,T,-519.54,M,004.946,N,009.160,K,D*00
$GPGGA,095328.75,5703.0384357,N,00949.3662708,E,2,5,1.6,-4.057,M,40.595,M,2.4,0123*51
$GPVTG,120.41,T,-519.49,M,004.947,N,009.163,K,D*0E
$GPGGA,095328.80,5703.0384015,N,00949.3663792,E,2,5,1.6,-4.066,M,40.595,M,2.4,0123*5E
$GPVTG,120.33,T,-519.57,M,004.946,N,009.160,K,D*06
$GPGGA,095328.85,5703.0383637,N,00949.3664971,E,2,5,1.6,-4.048,M,40.595,M,2.7,0123*51
$GPVTG,120.38,T,-519.52,M,004.942,N,009.153,K,D*0C
$GPGGA,095328.90,5703.0383300,N,00949.3666024,E,2,5,1.6,-4.054,M,40.595,M,2.7,0123*52
$GPVTG,120.42,T,-519.48,M,004.915,N,009.102,K,D*0C
$GPGGA,095328.95,5703.0382940,N,00949.3667130,E,2,5,1.6,-4.062,M,40.595,M,2.7,0123*58
$GPVTG,120.39,T,-519.51,M,004.941,N,009.151,K,D*0F
$GPGGA,095329.00,5703.0382588,N,00949.3668191,E,2,5,1.6,-4.070,M,40.595,M,2.7,0123*5A
$GPVTG,120.53,T,-519.37,M,004.928,N,009.126,K,D*0C
$GPGGA,095329.05,5703.0382211,N,00949.3669274,E,2,5,1.6,-4.051,M,40.595,M,1.5,0123*53
$GPVTG,120.86,T,-519.04,M,004.918,N,009.109,K,D*0A
$GPGGA,095329.10,5703.0381869,N,00949.3670364,E,2,5,1.6,-4.057,M,40.595,M,1.5,0123*5F
$GPVTG,120.71,T,-519.19,M,004.925,N,009.121,K,D*0A
$GPGGA,095329.15,5703.0381506,N,00949.3671485,E,2,5,1.6,-4.064,M,40.595,M,1.5,0123*57
$GPVTG,120.62,T,-519.28,M,004.964,N,009.193,K,D*06
$GPGGA,095329.20,5703.0381171,N,00949.3672593,E,2,5,1.6,-4.073,M,40.595,M,1.5,0123*56
$GPVTG,120.35,T,-519.55,M,004.975,N,009.214,K,D*02
$GPGGA,095329.25,5703.0380812,N,00949.3673693,E,2,5,1.6,-4.051,M,40.595,M,1.8,0123*51
$GPVTG,120.51,T,-519.39,M,004.964,N,009.193,K,D*06
$GPGGA,095329.30,5703.0380455,N,00949.3674718,E,2,5,1.6,-4.059,M,40.595,M,1.8,0123*57
$GPVTG,120.87,T,-519.03,M,004.923,N,009.117,K,D*0B
$GPGGA,095329.35,5703.0380107,N,00949.3675769,E,2,5,1.6,-4.068,M,40.595,M,1.8,0123*55
$GPVTG,121.00,T,-518.90,M,004.903,N,009.080,K,D*03
$GPGGA,095329.40,5703.0379797,N,00949.3676881,E,2,5,1.6,-4.075,M,40.595,M,1.8,0123*58
$GPVTG,120.43,T,-519.48,M,004.911,N,009.096,K,D*05
$GPGGA,095329.45,5703.0379459,N,00949.3678018,E,2,5,1.6,-4.048,M,40.595,M,2.0,0123*5F
$GPVTG,120.32,T,-519.58,M,004.920,N,009.111,K,D*0E
$GPGGA,095329.50,5703.0379108,N,00949.3679092,E,2,5,1.6,-4.058,M,40.595,M,2.0,0123*58
$GPVTG,120.39,T,-519.51,M,004.917,N,009.106,K,D*0E
$GPGGA,095329.55,5703.0378770,N,00949.3680163,E,2,5,1.6,-4.070,M,40.595,M,2.0,0123*56
$GPVTG,120.34,T,-519.56,M,004.907,N,009.088,K,D*02
$GPGGA,095329.60,5703.0378404,N,00949.3681215,E,2,5,1.6,-4.084,M,40.595,M,2.0,0123*58
$GPVTG,120.67,T,-519.23,M,004.898,N,009.070,K,D*06
$GPGGA,095329.65,5703.0378056,N,00949.3682433,E,2,5,1.6,-4.046,M,40.595,M,2.2,0123*53
$GPVTG,120.43,T,-519.47,M,004.900,N,009.075,K,D*07
$GPGGA,095329.70,5703.0377710,N,00949.3683518,E,2,5,1.6,-4.055,M,40.595,M,2.2,0123*56
$GPVTG,120.38,T,-519.52,M,004.907,N,009.087,K,D*05
$GPGGA,095329.75,5703.0377360,N,00949.3684603,E,2,5,1.6,-4.063,M,40.595,M,2.2,0123*5B
$GPVTG,120.38,T,-519.52,M,004.914,N,009.101,K,D*08
$GPGGA,095329.80,5703.0376977,N,00949.3685612,E,2,5,1.6,-4.070,M,40.595,M,2.2,0123*5F
$GPVTG,121.10,T,-518.80,M,004.882,N,009.041,K,D*06
$GPGGA,095329.85,5703.0376601,N,00949.3686773,E,2,5,1.6,-4.047,M,40.595,M,2.5,0123*52
$GPVTG,120.98,T,-518.92,M,004.911,N,009.095,K,D*06
$GPGGA,095329.90,5703.0376257,N,00949.3687893,E,2,5,1.6,-4.055,M,40.595,M,2.5,0123*52
$GPVTG,120.68,T,-519.22,M,004.943,N,009.155,K,D*09
$GPGGA,095329.95,5703.0375932,N,00949.3688972,E,2,5,1.6,-4.065,M,40.595,M,2.5,0123*5E
$GPVTG,120.45,T,-519.45,M,004.932,N,009.134,K,D*06
$GPGGA,095330.00,5703.0375583,N,00949.3690087,E,2,5,1.6,-4.074,M,40.595,M,2.5,0123*56
$GPVTG,120.29,T,-519.61,M,004.961,N,009.187,K,D*04
$GPGGA,095330.05,5703.0375223,N,00949.3691191,E,2,5,1.6,-4.062,M,40.595,M,2.7,0123*5C
$GPVTG,120.49,T,-519.41,M,004.956,N,009.178,K,D*04
$GPGGA,095330.10,5703.0374868,N,00949.3692247,E,2,5,1.6,-4.069,M,40.595,M,2.7,0123*5C
$GPVTG,120.69,T,-519.21,M,004.939,N,009.147,K,D*05
$GPGGA,095330.15,5703.0374521,N,00949.3693256,E,2,5,1.6,-4.076,M,40.595,M,2.7,0123*56
$GPVTG,121.03,T,-518.87,M,004.885,N,009.048,K,D*0D
$GPGGA,095330.20,5703.0374174,N,00949.3694298,E,2,5,1.6,-4.080,M,40.595,M,2.7,0123*58
$GPVTG,121.18,T,-518.72,M,004.863,N,009.007,K,D*0E
$GPGGA,095330.25,5703.0373841,N,00949.3695427,E,2,5,1.6,-4.044,M,40.595,M,2.9,0123*50
$GPVTG,120.94,T,-518.96,M,004.854,N,008.989,K,D*0B
$GPGGA,095330.30,5703.0373502,N,00949.3696553,E,2,5,1.6,-4.048,M,40.595,M,2.9,0123*53
$GPVTG,120.54,T,-519.36,M,004.895,N,009.066,K,D*08
$GPGGA,095330.35,5703.0373122,N,00949.3697676,E,2,5,1.6,-4.057,M,40.595,M,2.9,0123*5B
$GPVTG,120.62,T,-519.28,M,004.949,N,009.166,K,D*03
$GPGGA,095330.40,5703.0372770,N,00949.3698754,E,2,5,1.6,-4.066,M,40.595,M,2.9,0123*55
$GPVTG,120.66,T,-519.24,M,004.951,N,009.169,K,D*0D
$GPGGA,095330.45,5703.0372412,N,00949.3699856,E,2,5,1.6,-4.052,M,40.595,M,3.1,0123*55
$GPVTG,120.70,T,-519.20,M,004.943,N,009.155,K,D*02
$GPGGA,095330.50,5703.0372084,N,00949.3700938,E,2,5,1.6,-4.060,M,40.595,M,3.1,0123*53
$GPVTG,120.48,T,-519.42,M,004.935,N,009.140,K,D*08
$GPGGA,095330.55,5703.0371709,N,00949.3702010,E,2,5,1.6,-4.067,M,40.595,M,3.1,0123*51
$GPVTG,120.78,T,-519.12,M,004.944,N,009.155,K,D*0C
$GPGGA,095330.60,5703.0371344,N,00949.3703076,E,2,5,1.6,-4.077,M,40.595,M,3.1,0123*5A
$GPVTG,121.00,T,-518.90,M,004.942,N,009.153,K,D*09
$GPGGA,095330.65,5703.0370983,N,00949.3704230,E,2,5,1.6,-4.052,M,40.595,M,3.3,0123*5D
$GPVTG,120.78,T,-519.12,M,004.921,N,009.114,K,D*0A
$GPGGA,095330.70,5703.0370626,N,00949.3705316,E,2,5,1.6,-4.057,M,40.595,M,3.3,0123*58
$GPVTG,120.82,T,-519.08,M,004.932,N,009.135,K,D*05
$GPGGA,095330.75,5703.0370244,N,00949.3706387,E,2,5,1.6,-4.063,M,40.595,M,3.3,0123*51
$GPVTG,121.16,T,-518.74,M,004.944,N,009.157,K,D*06
$GPGGA,095330.80,5703.0369935,N,00949.3707511,E,2,5,1.6,-4.072,M,40.595,M,3.3,0123*56
$GPVTG,120.50,T,-519.40,M,004.959,N,009.184,K,D*01
$GPGGA,095330.85,5703.0369553,N,00949.3708660,E,2,5,1.6,-4.060,M,40.595,M,3.5,0123*50
$GPVTG,120.54,T,-519.36,M,005.004,N,009.268,K,D*05
$GPGGA,095330.90,5703.0369172,N,00949.3709742,E,2,5,1.6,-4.069,M,40.595,M,3.5,0123*5A
$GPVTG,120.86,T,-519.04,M,005.014,N,009.286,K,D*0A
$GPGGA,095330.95,5703.0368828,N,00949.3710791,E,2,5,1.6,-4.079,M,40.595,M,3.5,0123*5F
$GPVTG,120.98,T,-518.92,M,004.981,N,009.224,K,D*07
$GPGGA,095331.00,5703.0368461,N,00949.3711817,E,2,5,1.6,-4.082,M,40.595,M,3.5,0123*57
$GPVTG,121.42,T,-518.48,M,004.945,N,009.158,K,D*06
$GPGGA,095331.05,5703.0368084,N,00949.3712907,E,2,5,1.6,-4.048,M,40.595,M,2.1,0123*5D
$GPVTG,121.60,T,-518.30,M,004.896,N,009.068,K,D*04
$GPGGA,095331.10,5703.0367748,N,00949.3713976,E,2,5,1.6,-4.053,M,40.595,M,2.1,0123*5C
$GPVTG,121.44,T,-518.46,M,004.887,N,009.051,K,D*09
$GPGGA,095331.15,5703.0367413,N,00949.3715080,E,2,5,1.6,-4.056,M,40.595,M,2.1,0123*57
$GPVTG,121.09,T,-518.81,M,004.905,N,009.084,K,D*08
$GPGGA,095331.20,5703.0367057,N,00949.3716231,E,2,5,1.6,-4.068,M,40.595,M,2.1,0123*53
$GPVTG,120.72,T,-519.18,M,004.966,N,009.197,K,D*02
$GPGGA,095331.25,5703.0366710,N,00949.3717271,E,2,5,1.6,-4.056,M,40.595,M,2.4,0123*5E
$GPVTG,121.01,T,-518.89,M,004.935,N,009.140,K,D*02
$GPGGA,095331.30,5703.0366346,N,00949.3718319,E,2,5,1.6,-4.067,M,40.595,M,2.4,0123*5F
$GPVTG,121.27,T,-518.63,M,004.921,N,009.113,K,D*01
$GPGGA,095331.35,5703.0366007,N,00949.3719463,E,2,5,1.6,-4.080,M,40.595,M,2.4,0123*5E
$GPVTG,120.77,T,-519.13,M,004.967,N,009.199,K,D*03
$GPGGA,095331.40,5703.0365665,N,00949.3720536,E,2,5,1.6,-4.088,M,40.595,M,2.4,0123*5E
$GPVTG,120.72,T,-519.18,M,004.956,N,009.179,K,D*01
$GPGGA,095331.45,5703.0365256,N,00949.3721695,E,2,5,1.6,-4.055,M,40.595,M,2.7,0123*57
$GPVTG,121.19,T,-518.71,M,004.937,N,009.143,K,D*0D
$GPGGA,095331.50,5703.0364911,N,00949.3722744,E,2,5,1.6,-4.061,M,40.595,M,2.7,0123*53
$GPVTG,121.26,T,-518.64,M,004.913,N,009.099,K,D*05
$GPGGA,095331.55,5703.0364556,N,00949.3723832,E,2,5,1.6,-4.068,M,40.595,M,2.7,0123*5F
$GPVTG,121.20,T,-518.70,M,004.926,N,009.124,K,D*07
$GPGGA,095331.60,5703.0364234,N,00949.3724915,E,2,5,1.6,-4.076,M,40.595,M,2.7,0123*56
$GPVTG,120.85,T,-519.05,M,004.918,N,009.108,K,D*09
$GPGGA,095331.65,5703.0363861,N,00949.3726033,E,2,5,1.6,-4.060,M,40.595,M,2.9,0123*58
$GPVTG,120.91,T,-518.99,M,004.941,N,009.151,K,D*08
$GPGGA,095331.70,5703.0363509,N,00949.3727171,E,2,5,1.6,-4.067,M,40.595,M,2.9,0123*5E
$GPVTG,120.59,T,-519.31,M,004.987,N,009.236,K,D*07
$GPGGA,095331.75,5703.0363144,N,00949.3728285,E,2,5,1.6,-4.077,M,40.595,M,2.9,0123*50
$GPVTG,120.58,T,-519.32,M,005.016,N,009.289,K,D*01
$GPGGA,095331.80,5703.0362779,N,00949.3729320,E,2,5,1.6,-4.088,M,40.595,M,2.9,0123*5C
$GPVTG,120.96,T,-518.94,M,004.982,N,009.226,K,D*0E
$GPGGA,095331.85,5703.0362413,N,00949.3730468,E,2,5,1.6,-4.058,M,40.595,M,3.2,0123*52
$GPVTG,120.85,T,-519.05,M,004.949,N,009.165,K,D*06
$GPGGA,095331.90,5703.0362057,N,00949.3731506,E,2,5,1.6,-4.062,M,40.595,M,3.2,0123*53
$GPVTG,121.11,T,-518.79,M,004.920,N,009.111,K,D*0C
$GPGGA,095331.95,5703.0361699,N,00949.3732573,E,2,5,1.6,-4.062,M,40.595,M,3.2,0123*50
$GPVTG,121.21,T,-518.69,M,004.916,N,009.105,K,D*0E
$GPGGA,095332.00,5703.0361337,N,00949.3733655,E,2,5,1.6,-4.064,M,40.595,M,3.2,0123*5E
$GPVTG,121.26,T,-518.64,M,004.927,N,009.124,K,D*05
$GPGGA,095332.05,5703.0361039,N,00949.3734707,E,2,5,1.6,-4.052,M,40.595,M,1.7,0123*55
$GPVTG,120.74,T,-519.16,M,004.924,N,009.120,K,D*00
$GPGGA,095332.10,5703.0360712,N,00949.3735799,E,2,5,1.6,-4.063,M,40.595,M,1.7,0123*5A
$GPVTG,120.43,T,-519.47,M,004.923,N,009.118,K,D*0C
$GPGGA,095332.15,5703.0360375,N,00949.3736883,E,2,5,1.6,-4.078,M,40.595,M,1.7,0123*57
$GPVTG,120.30,T,-519.60,M,004.922,N,009.116,K,D*02
$GPGGA,095332.20,5703.0360005,N,00949.3737960,E,2,5,1.6,-4.091,M,40.595,M,1.7,0123*5F
$GPVTG,120.52,T,-519.38,M,004.931,N,009.133,K,D*0E
$GPGGA,095332.25,5703.0359625,N,00949.3739193,E,2,5,1.6,-4.052,M,40.595,M,1.9,0123*5F
$GPVTG,120.55,T,-519.35,M,004.923,N,009.117,K,D*01
$GPGGA,095332.30,5703.0359271,N,00949.3740280,E,2,5,1.6,-4.058,M,40.595,M,1.9,0123*5B
$GPVTG,120.55,T,-519.35,M,004.932,N,009.134,K,D*00
$GPGGA,095332.35,5703.0358906,N,00949.3741334,E,2,5,1.6,-4.059,M,40.595,M,1.9,0123*5A
$GPVTG,120.84,T,-519.06,M,004.921,N,009.114,K,D*0C
$GPGGA,095332.40,5703.0358598,N,00949.3742402,E,2,5,1.6,-4.065,M,40.595,M,1.9,0123*5D
$GPVTG,120.47,T,-519.43,M,004.894,N,009.064,K,D*0B
$GPGGA,095332.45,5703.0358252,N,00949.3743499,E,2,5,1.6,-4.048,M,40.595,M,2.2,0123*5D
$GPVTG,120.41,T,-519.49,M,004.918,N,009.108,K,D*09
$GPGGA,095332.50,5703.0357889,N,00949.3744608,E,2,5,1.6,-4.061,M,40.595,M,2.2,0123*5C
$GPVTG,120.41,T,-519.49,M,004.949,N,009.166,K,D*05
$GPGGA,095332.55,5703.0357524,N,00949.3745690,E,2,5,1.6,-4.077,M,40.595,M,2.2,0123*54
$GPVTG,120.56,T,-519.34,M,004.957,N,009.180,K,D*0E
$GPGGA,095332.60,5703.0357170,N,00949.3746795,E,2,5,1.6,-4.087,M,40.595,M,2.2,0123*5F
$GPVTG,120.49,T,-519.41,M,004.976,N,009.216,K,D*0D
$GPGGA,095332.65,5703.0356786,N,00949.3748026,E,2,5,1.6,-4.065,M,40.595,M,2.4,0123*5F
$GPVTG,120.13,T,-519.77,M,004.988,N,009.237,K,D*05
$GPGGA,095332.70,5703.0356469,N,00949.3749014,E,2,5,1.6,-4.069,M,40.595,M,2.4,0123*55
$GPVTG,120.35,T,-519.55,M,004.897,N,009.069,K,D*07
$GPGGA,095332.75,5703.0356103,N,00949.3750069,E,2,5,1.6,-4.070,M,40.595,M,2.4,0123*53
$GPVTG,120.65,T,-519.25,M,004.889,N,009.055,K,D*05
$GPGGA,095332.80,5703.0355767,N,00949.3751172,E,2,5,1.6,-4.073,M,40.595,M,2.4,0123*57
$GPVTG,120.40,T,-519.50,M,004.905,N,009.084,K,D*09
$GPGGA,095332.85,5703.0355479,N,00949.3752157,E,2,5,1.6,-4.055,M,40.595,M,2.7,0123*5D
$GPVTG,120.53,T,-519.37,M,004.871,N,009.021,K,D*07
$GPGGA,095332.90,5703.0355106,N,00949.3753210,E,2,5,1.6,-4.067,M,40.595,M,2.7,0123*54
$GPVTG,120.90,T,-519.00,M,004.869,N,009.018,K,D*0F
$GPGGA,095332.95,5703.0354782,N,00949.3754272,E,2,5,1.6,-4.083,M,40.595,M,2.7,0123*53
$GPVTG,120.71,T,-519.19,M,004.852,N,008.986,K,D*0F
$GPGGA,095333.00,5703.0354450,N,00949.3755393,E,2,5,1.6,-4.095,M,40.595,M,2.7,0123*5A
$GPVTG,120.31,T,-519.59,M,004.885,N,009.048,K,D*0F
$GPGGA,095333.05,5703.0354066,N,00949.3756618,E,2,5,1.6,-4.061,M,40.595,M,1.5,0123*51
$GPVTG,120.23,T,-519.67,M,004.877,N,009.033,K,D*00
$GPGGA,095333.10,5703.0353729,N,00949.3757705,E,2,5,1.6,-4.070,M,40.595,M,1.5,0123*52
$GPVTG,120.10,T,-519.80,M,004.884,N,009.046,K,D*07
$GPGGA,095333.15,5703.0353390,N,00949.3758734,E,2,5,1.6,-4.075,M,40.595,M,1.5,0123*59
$GPVTG,120.29,T,-519.61,M,004.849,N,008.980,K,D*01
$GPGGA,095333.20,5703.0353050,N,00949.3759822,E,2,5,1.6,-4.083,M,40.595,M,1.5,0123*50
$GPVTG,120.17,T,-519.73,M,004.862,N,009.005,K,D*03
$GPGGA,095333.25,5703.0352744,N,00949.3760924,E,2,5,1.6,-4.059,M,40.595,M,1.8,0123*51
$GPVTG,119.91,T,-519.99,M,004.859,N,009.000,K,D*0E
$GPGGA,095333.30,5703.0352379,N,00949.3761977,E,2,5,1.6,-4.070,M,40.595,M,1.8,0123*53
$GPVTG,120.25,T,-519.65,M,004.857,N,008.995,K,D*02
$GPGGA,095333.35,5703.0352022,N,00949.3763085,E,2,5,1.6,-4.083,M,40.595,M,1.8,0123*51
$GPVTG,120.20,T,-519.70,M,004.893,N,009.061,K,D*08
$GPGGA,095333.40,5703.0351695,N,00949.3764145,E,2,5,1.6,-4.093,M,40.595,M,1.8,0123*51
$GPVTG,120.12,T,-519.78,M,004.875,N,009.029,K,D*05
$GPGGA,095333.45,5703.0351327,N,00949.3765355,E,2,5,1.6,-4.062,M,40.595,M,2.0,0123*5F
$GPVTG,120.03,T,-519.87,M,004.910,N,009.093,K,D*06
$GPGGA,095333.50,5703.0351000,N,00949.3766429,E,2,5,1.6,-4.073,M,40.595,M,2.0,0123*52
$GPVTG,119.90,T,-520.00,M,004.900,N,009.075,K,D*0A
$GPGGA,095333.55,5703.0350639,N,00949.3767503,E,2,5,1.6,-4.079,M,40.595,M,2.0,0123*58
$GPVTG,120.11,T,-519.79,M,004.908,N,009.089,K,D*06
$GPGGA,095333.60,5703.0350301,N,00949.3768591,E,2,5,1.6,-4.085,M,40.595,M,2.0,0123*57
$GPVTG,120.01,T,-519.89,M,004.913,N,009.099,K,D*03
$GPGGA,095333.65,5703.0349961,N,00949.3769652,E,2,5,1.6,-4.065,M,40.595,M,2.2,0123*57
$GPVTG,120.23,T,-519.67,M,004.874,N,009.026,K,D*07
$GPGGA,095333.70,5703.0349633,N,00949.3770721,E,2,5,1.6,-4.071,M,40.595,M,2.2,0123*53
$GPVTG,120.12,T,-519.78,M,004.865,N,009.010,K,D*0E
$GPGGA,095333.75,5703.0349306,N,00949.3771832,E,2,5,1.6,-4.081,M,40.595,M,2.2,0123*56
$GPVTG,119.80,T,-520.10,M,004.888,N,009.052,K,D*0E
$GPGGA,095333.80,5703.0348970,N,00949.3772921,E,2,5,1.6,-4.092,M,40.595,M,2.2,0123*54
$GPVTG,119.70,T,-520.20,M,004.895,N,009.065,K,D*0A
$GPGGA,095333.85,5703.0348667,N,00949.3774022,E,2,5,1.6,-4.071,M,40.595,M,2.5,0123*5E
$GPVTG,119.58,T,-520.32,M,004.870,N,009.019,K,D*03
$GPGGA,095333.90,5703.0348299,N,00949.3775093,E,2,5,1.6,-4.079,M,40.595,M,2.5,0123*5C
$GPVTG,119.91,T,-519.99,M,004.880,N,009.037,K,D*0E
$GPGGA,095333.95,5703.0347946,N,00949.3776151,E,2,5,1.6,-4.086,M,40.595,M,2.5,0123*53
$GPVTG,120.13,T,-519.77,M,004.874,N,009.026,K,D*05
$GPGGA,095334.00,5703.0347614,N,00949.3777197,E,2,5,1.6,-4.095,M,40.595,M,2.5,0123*59
$GPVTG,120.20,T,-519.70,M,004.849,N,008.980,K,D*08
$GPGGA,095334.05,5703.0347251,N,00949.3778374,E,2,5,1.6,-4.056,M,40.595,M,2.7,0123*54
$GPVTG,120.27,T,-519.63,M,004.865,N,009.011,K,D*03
$GPGGA,095334.10,5703.0346930,N,00949.3779496,E,2,5,1.6,-4.065,M,40.595,M,2.7,0123*57
$GPVTG,119.82,T,-520.08,M,004.894,N,009.064,K,D*0D
$GPGGA,095334.15,5703.0346587,N,00949.3780629,E,2,5,1.6,-4.070,M,40.595,M,2.7,0123*56
$GPVTG,119.58,T,-520.32,M,004.939,N,009.147,K,D*05
$GPGGA,095334.20,5703.0346216,N,00949.3781705,E,2,5,1.6,-4.075,M,40.595,M,2.7,0123*54
$GPVTG,119.93,T,-519.97,M,004.948,N,009.164,K,D*00
$GPGGA,095334.25,5703.0345900,N,00949.3782825,E,2,5,1.6,-4.069,M,40.595,M,2.9,0123*53
$GPVTG,119.46,T,-520.44,M,004.948,N,009.163,K,D*0B
$GPGGA,095334.30,5703.0345578,N,00949.3783921,E,2,5,1.6,-4.079,M,40.595,M,2.9,0123*51
$GPVTG,119.25,T,-520.65,M,004.946,N,009.160,K,D*00
$GPGGA,095334.35,5703.0345207,N,00949.3785014,E,2,5,1.6,-4.088,M,40.595,M,2.9,0123*5C
$GPVTG,119.56,T,-520.34,M,004.965,N,009.194,K,D*0A
$GPGGA,095334.40,5703.0344877,N,00949.3786028,E,2,5,1.6,-4.093,M,40.595,M,2.9,0123*54
$GPVTG,119.85,T,-520.05,M,004.902,N,009.078,K,D*04
$GPGGA,095334.45,5703.0344557,N,00949.3787222,E,2,5,1.6,-4.053,M,40.595,M,3.1,0123*52
$GPVTG,119.66,T,-520.24,M,004.902,N,009.078,K,D*0A
$GPGGA,095334.50,5703.0344217,N,00949.3788374,E,2,5,1.6,-4.060,M,40.595,M,3.1,0123*58
$GPVTG,119.33,T,-520.57,M,004.955,N,009.177,K,D*02
$GPGGA,095334.55,5703.0343879,N,00949.3789518,E,2,5,1.6,-4.065,M,40.595,M,3.1,0123*50
$GPVTG,119.08,T,-520.82,M,004.995,N,009.250,K,D*08
$GPGGA,095334.60,5703.0343552,N,00949.3790589,E,2,5,1.6,-4.066,M,40.595,M,3.1,0123*51
$GPVTG,119.11,T,-520.79,M,004.969,N,009.203,K,D*01
$GPGGA,095334.65,5703.0343213,N,00949.3791611,E,2,5,1.6,-4.069,M,40.595,M,3.3,0123*58
$GPVTG,119.32,T,-520.58,M,004.939,N,009.147,K,D*05
$GPGGA,095334.70,5703.0342850,N,00949.3792703,E,2,5,1.6,-4.077,M,40.595,M,3.3,0123*5E
$GPVTG,119.57,T,-520.33,M,004.951,N,009.169,K,D*09
$GPGGA,095334.75,5703.0342529,N,00949.3793784,E,2,5,1.6,-4.085,M,40.595,M,3.3,0123*5B
$GPVTG,119.47,T,-520.43,M,004.934,N,009.138,K,D*08
$GPGGA,095334.80,5703.0342232,N,00949.3794888,E,2,5,1.6,-4.093,M,40.595,M,3.3,0123*5F
$GPVTG,119.03,T,-520.87,M,004.925,N,009.120,K,D*09
$GPGGA,095334.85,5703.0341879,N,00949.3796015,E,2,5,1.6,-4.062,M,40.595,M,3.5,0123*5A
$GPVTG,119.44,T,-520.46,M,004.915,N,009.103,K,D*05
$GPGGA,095334.90,5703.0341548,N,00949.3797079,E,2,5,1.6,-4.071,M,40.595,M,3.5,0123*58
$GPVTG,119.52,T,-520.38,M,004.893,N,009.062,K,D*02
$GPGGA,095334.95,5703.0341208,N,00949.3798167,E,2,5,1.6,-4.086,M,40.595,M,3.5,0123*57
$GPVTG,119.56,T,-520.34,M,004.896,N,009.068,K,D*05
$GPGGA,095335.00,5703.0340857,N,00949.3799273,E,2,5,1.6,-4.101,M,40.595,M,3.5,0123*52
$GPVTG,119.61,T,-520.29,M,004.918,N,009.108,K,D*0D
$GPGGA,095335.05,5703.0340461,N,00949.3800522,E,2,5,1.6,-4.068,M,40.595,M,2.1,0123*59
$GPVTG,119.59,T,-520.31,M,004.939,N,009.147,K,D*07
$GPGGA,095335.10,5703.0340121,N,00949.3801631,E,2,5,1.6,-4.073,M,40.595,M,2.1,0123*56
$GPVTG,119.53,T,-520.37,M,004.955,N,009.176,K,D*03
$GPGGA,095335.15,5703.0339783,N,00949.3802740,E,2,5,1.6,-4.082,M,40.595,M,2.1,0123*59
$GPVTG,119.45,T,-520.45,M,004.967,N,009.198,K,D*00
$GPGGA,095335.20,5703.0339403,N,00949.3803825,E,2,5,1.6,-4.087,M,40.595,M,2.1,0123*5C
$GPVTG,119.90,T,-520.00,M,004.978,N,009.219,K,D*0D
$GPGGA,095335.25,5703.0339066,N,00949.3804916,E,2,5,1.6,-4.069,M,40.595,M,2.4,0123*5D
$GPVTG,119.96,T,-519.94,M,004.970,N,009.204,K,D*08
$GPGGA,095335.30,5703.0338768,N,00949.3805981,E,2,5,1.6,-4.081,M,40.595,M,2.4,0123*58
$GPVTG,119.69,T,-520.21,M,004.927,N,009.125,K,D*0E
$GPGGA,095335.35,5703.0338428,N,00949.3807072,E,2,5,1.6,-4.089,M,40.595,M,2.4,0123*55
$GPVTG,119.71,T,-520.19,M,004.929,N,009.129,K,D*0E
$GPGGA,095335.40,5703.0338057,N,00949.3808215,E,2,5,1.6,-4.097,M,40.595,M,2.4,0123*58
$GPVTG,119.76,T,-520.14,M,004.984,N,009.230,K,D*08
$GPGGA,095335.45,5703.0337683,N,00949.3809401,E,2,5,1.6,-4.073,M,40.595,M,2.7,0123*56
$GPVTG,119.92,T,-519.98,M,005.015,N,009.287,K,D*00
$GPGGA,095335.50,5703.0337373,N,00949.3810456,E,2,5,1.6,-4.078,M,40.595,M,2.7,0123*59
$GPVTG,119.83,T,-520.07,M,004.965,N,009.195,K,D*03
$GPGGA,095335.55,5703.0337045,N,00949.3811532,E,2,5,1.6,-4.082,M,40.595,M,2.7,0123*5D
$GPVTG,119.79,T,-520.11,M,004.945,N,009.158,K,D*02
$GPGGA,095335.60,5703.0336740,N,00949.3812665,E,2,5,1.6,-4.087,M,40.595,M,2.7,0123*5F
$GPVTG,119.26,T,-520.64,M,004.959,N,009.183,K,D*01
$GPGGA,095335.65,5703.0336464,N,00949.3813734,E,2,5,1.6,-4.069,M,40.595,M,2.9,0123*55
$GPVTG,119.08,T,-520.82,M,004.934,N,009.137,K,D*01
$GPGGA,095335.70,5703.0336107,N,00949.3814798,E,2,5,1.6,-4.080,M,40.595,M,2.9,0123*57
$GPVTG,119.45,T,-520.45,M,004.920,N,009.111,K,D*02
$GPGGA,095335.75,5703.0335771,N,00949.3815864,E,2,5,1.6,-4.093,M,40.595,M,2.9,0123*59
$GPVTG,119.56,T,-520.34,M,004.900,N,009.075,K,D*07
$GPGGA,095335.80,5703.0335433,N,00949.3816967,E,2,5,1.6,-4.106,M,40.595,M,2.9,0123*5A
$GPVTG,119.51,T,-520.39,M,004.911,N,009.096,K,D*00
$GPGGA,095335.85,5703.0335010,N,00949.3818254,E,2,5,1.6,-4.063,M,40.595,M,3.2,0123*57
$GPVTG,119.68,T,-520.22,M,004.936,N,009.141,K,D*0E
$GPGGA,095335.90,5703.0334681,N,00949.3819413,E,2,5,1.6,-4.068,M,40.595,M,3.2,0123*53
$GPVTG,119.25,T,-520.65,M,004.983,N,009.228,K,D*06
$GPGGA,095335.95,5703.0334328,N,00949.3820525,E,2,5,1.6,-4.074,M,40.595,M,3.2,0123*53
$GPVTG,119.34,T,-520.56,M,004.999,N,009.258,K,D*0A
$GPGGA,095336.00,5703.0333971,N,00949.3821567,E,2,5,1.6,-4.081,M,40.595,M,3.2,0123*50
