$GPGGA,095205.55,5703.0156996,N,00949.3750290,E,2,5,1.5,-3.464,M,40.595,M,2.0,0123*57
$GPVTG,290.50,T,-349.40,M,006.179,N,011.444,K,D*02
$GPGGA,095205.60,5703.0157312,N,00949.3748802,E,2,5,1.5,-3.464,M,40.595,M,2.0,0123*5E
$GPVTG,290.57,T,-349.33,M,006.202,N,011.486,K,D*00
$GPGGA,095205.65,5703.0157640,N,00949.3747372,E,2,5,1.5,-3.466,M,40.595,M,2.2,0123*5A
$GPVTG,290.81,T,-349.09,M,006.179,N,011.443,K,D*04
$GPGGA,095205.70,5703.0157946,N,00949.3745953,E,2,5,1.5,-3.464,M,40.595,M,2.2,0123*5E
$GPVTG,290.96,T,-348.94,M,006.136,N,011.363,K,D*09
$GPGGA,095205.75,5703.0158276,N,00949.3744439,E,2,5,1.5,-3.463,M,40.595,M,2.2,0123*5B
$GPVTG,291.08,T,-348.82,M,006.194,N,011.472,K,D*07
$GPGGA,095205.80,5703.0158564,N,00949.3742917,E,2,5,1.5,-3.460,M,40.595,M,2.2,0123*51
$GPVTG,290.65,T,-349.25,M,006.230,N,011.538,K,D*03
$GPGGA,095205.85,5703.0158881,N,00949.3741489,E,2,5,1.5,-3.469,M,40.595,M,2.5,0123*55
$GPVTG,290.63,T,-349.27,M,006.200,N,011.483,K,D*05
$GPGGA,095205.90,5703.0159146,N,00949.3740025,E,2,5,1.5,-3.471,M,40.595,M,2.5,0123*58
$GPVTG,290.14,T,-349.76,M,006.173,N,011.432,K,D*0C
$GPGGA,095205.95,5703.0159440,N,00949.3738504,E,2,5,1.5,-3.471,M,40.595,M,2.5,0123*57
$GPVTG,289.90,T,-350.00,M,006.212,N,011.505,K,D*00
$GPGGA,095206.00,5703.0159761,N,00949.3737057,E,2,5,1.5,-3.470,M,40.595,M,2.5,0123*55
$GPVTG,290.27,T,-349.63,M,006.196,N,011.475,K,D*00
$GPGGA,095206.05,5703.0160051,N,00949.3735616,E,2,5,1.5,-3.484,M,40.595,M,2.7,0123*56
$GPVTG,290.04,T,-349.86,M,006.167,N,011.422,K,D*06
$GPGGA,095206.10,5703.0160340,N,00949.3734149,E,2,5,1.5,-3.482,M,40.595,M,2.7,0123*5B
$GPVTG,289.94,T,-349.96,M,006.157,N,011.403,K,D*06
$GPGGA,095206.15,5703.0160637,N,00949.3732673,E,2,5,1.5,-3.482,M,40.595,M,2.7,0123*53
$GPVTG,289.93,T,-349.97,M,006.161,N,011.411,K,D*06
$GPGGA,095206.20,5703.0160967,N,00949.3731168,E,2,5,1.5,-3.485,M,40.595,M,2.7,0123*56
$GPVTG,290.28,T,-349.62,M,006.207,N,011.495,K,D*0B
$GPGGA,095206.25,5703.0161317,N,00949.3729712,E,2,5,1.5,-3.474,M,40.595,M,2.9,0123*5D
$GPVTG,290.84,T,-349.06,M,006.198,N,011.479,K,D*08
$GPGGA,095206.30,5703.0161634,N,00949.3728277,E,2,5,1.5,-3.470,M,40.595,M,2.9,0123*5E
$GPVTG,291.13,T,-348.77,M,006.172,N,011.430,K,D*09
$GPGGA,095206.35,5703.0161940,N,00949.3726784,E,2,5,1.5,-3.471,M,40.595,M,2.9,0123*51
$GPVTG,291.06,T,-348.84,M,006.194,N,011.471,K,D*0C
$GPGGA,095206.40,5703.0162234,N,00949.3725313,E,2,5,1.5,-3.471,M,40.595,M,2.9,0123*51
$GPVTG,290.92,T,-348.98,M,006.189,N,011.461,K,D*00
$GPGGA,095206.45,5703.0162557,N,00949.3723858,E,2,5,1.5,-3.479,M,40.595,M,3.1,0123*55
$GPVTG,290.97,T,-348.93,M,006.181,N,011.447,K,D*02
$GPGGA,095206.50,5703.0162820,N,00949.3722353,E,2,5,1.5,-3.481,M,40.595,M,3.1,0123*5A
$GPVTG,290.31,T,-349.59,M,006.191,N,011.465,K,D*08
$GPGGA,095206.55,5703.0163103,N,00949.3720902,E,2,5,1.5,-3.479,M,40.595,M,3.1,0123*5D
$GPVTG,290.16,T,-349.74,M,006.161,N,011.410,K,D*0F
$GPGGA,095206.60,5703.0163433,N,00949.3719450,E,2,5,1.5,-3.478,M,40.595,M,3.1,0123*5C
$GPVTG,290.64,T,-349.26,M,006.161,N,011.410,K,D*0D
$GPGGA,095206.65,5703.0163787,N,00949.3718008,E,2,5,1.5,-3.490,M,40.595,M,3.3,0123*59
$GPVTG,291.23,T,-348.67,M,006.164,N,011.416,K,D*08
$GPGGA,095206.70,5703.0164097,N,00949.3716521,E,2,5,1.5,-3.493,M,40.595,M,3.3,0123*5F
$GPVTG,291.20,T,-348.70,M,006.185,N,011.455,K,D*05
$GPGGA,095206.75,5703.0164371,N,00949.3715053,E,2,5,1.5,-3.495,M,40.595,M,3.3,0123*54
$GPVTG,290.79,T,-349.11,M,006.168,N,011.423,K,D*0C
$GPGGA,095206.80,5703.0164666,N,00949.3713615,E,2,5,1.5,-3.496,M,40.595,M,3.3,0123*5C
$GPVTG,290.77,T,-349.13,M,006.138,N,011.367,K,D*02
$GPGGA,095206.85,5703.0164982,N,00949.3712131,E,2,5,1.5,-3.495,M,40.595,M,3.5,0123*59
$GPVTG,290.76,T,-349.14,M,006.147,N,011.384,K,D*01
$GPGGA,095206.90,5703.0165278,N,00949.3710651,E,2,5,1.5,-3.495,M,40.595,M,3.5,0123*51
$GPVTG,290.62,T,-349.28,M,006.158,N,011.404,K,D*0A
$GPGGA,095206.95,5703.0165604,N,00949.3709163,E,2,5,1.5,-3.497,M,40.595,M,3.5,0123*57
$GPVTG,290.87,T,-349.03,M,006.190,N,011.463,K,D*0D
$GPGGA,095207.00,5703.0165913,N,00949.3707695,E,2,5,1.5,-3.501,M,40.595,M,3.5,0123*5D
$GPVTG,290.94,T,-348.96,M,006.191,N,011.466,K,D*06
$GPGGA,095207.05,5703.0166213,N,00949.3706203,E,2,5,1.5,-3.488,M,40.595,M,3.7,0123*58
$GPVTG,290.70,T,-349.20,M,006.184,N,011.452,K,D*03
$GPGGA,095207.10,5703.0166486,N,00949.3704734,E,2,5,1.5,-3.488,M,40.595,M,3.7,0123*55
$GPVTG,290.31,T,-349.59,M,006.168,N,011.423,K,D*0C
$GPGGA,095207.15,5703.0166794,N,00949.3703289,E,2,5,1.5,-3.489,M,40.595,M,3.7,0123*55
$GPVTG,290.50,T,-349.40,M,006.150,N,011.390,K,D*07
$GPGGA,095207.20,5703.0167115,N,00949.3701835,E,2,5,1.5,-3.491,M,40.595,M,3.7,0123*5B
$GPVTG,290.80,T,-349.10,M,006.150,N,011.390,K,D*0F
$GPGGA,095207.25,5703.0167463,N,00949.3700306,E,2,5,1.5,-3.495,M,40.595,M,2.4,0123*56
$GPVTG,291.02,T,-348.88,M,006.223,N,011.524,K,D*0A
$GPGGA,095207.30,5703.0167776,N,00949.3698807,E,2,5,1.5,-3.496,M,40.595,M,2.4,0123*5C
$GPVTG,291.02,T,-348.88,M,006.249,N,011.573,K,D*04
$GPGGA,095207.35,5703.0168070,N,00949.3697327,E,2,5,1.5,-3.494,M,40.595,M,2.4,0123*53
$GPVTG,290.85,T,-349.05,M,006.244,N,011.564,K,D*05
$GPGGA,095207.40,5703.0168369,N,00949.3695843,E,2,5,1.5,-3.495,M,40.595,M,2.4,0123*50
$GPVTG,290.73,T,-349.17,M,006.246,N,011.568,K,D*01
$GPGGA,095207.45,5703.0168660,N,00949.3694391,E,2,5,1.5,-3.495,M,40.595,M,2.7,0123*5F
$GPVTG,290.43,T,-349.47,M,006.199,N,011.480,K,D*01
$GPGGA,095207.50,5703.0168992,N,00949.3692902,E,2,5,1.5,-3.496,M,40.595,M,2.7,0123*5C
$GPVTG,290.77,T,-349.13,M,006.226,N,011.531,K,D*0B
$GPGGA,095207.55,5703.0169289,N,00949.3691399,E,2,5,1.5,-3.500,M,40.595,M,2.7,0123*5C
$GPVTG,290.59,T,-349.31,M,006.245,N,011.565,K,D*03
$GPGGA,095207.60,5703.0169621,N,00949.3689895,E,2,5,1.5,-3.500,M,40.595,M,2.7,0123*52
$GPVTG,290.88,T,-349.02,M,006.279,N,011.628,K,D*0A
$GPGGA,095207.65,5703.0169951,N,00949.3688386,E,2,5,1.5,-3.493,M,40.595,M,2.9,0123*52
$GPVTG,290.96,T,-348.94,M,006.292,N,011.652,K,D*03
$GPGGA,095207.70,5703.0170236,N,00949.3686893,E,2,5,1.5,-3.494,M,40.595,M,2.9,0123*52
$GPVTG,290.64,T,-349.26,M,006.284,N,011.638,K,D*0D
$GPGGA,095207.75,5703.0170574,N,00949.3685398,E,2,5,1.5,-3.494,M,40.595,M,2.9,0123*55
$GPVTG,291.02,T,-348.88,M,006.307,N,011.680,K,D*00
$GPGGA,095207.80,5703.0170885,N,00949.3683923,E,2,5,1.5,-3.495,M,40.595,M,2.9,0123*51
$GPVTG,291.08,T,-348.82,M,006.294,N,011.656,K,D*00
$GPGGA,095207.85,5703.0171177,N,00949.3682443,E,2,5,1.5,-3.503,M,40.595,M,3.2,0123*5F
$GPVTG,290.67,T,-349.23,M,006.266,N,011.604,K,D*08
$GPGGA,095207.90,5703.0171486,N,00949.3680966,E,2,5,1.5,-3.504,M,40.595,M,3.2,0123*5F
$GPVTG,290.73,T,-349.17,M,006.257,N,011.589,K,D*0E
$GPGGA,095207.95,5703.0171792,N,00949.3679459,E,2,5,1.5,-3.504,M,40.595,M,3.2,0123*5B
$GPVTG,290.65,T,-349.25,M,006.274,N,011.620,K,D*09
$GPGGA,095208.00,5703.0172088,N,00949.3677991,E,2,5,1.5,-3.505,M,40.595,M,3.2,0123*51
$GPVTG,290.59,T,-349.31,M,006.249,N,011.574,K,D*0F
$GPGGA,095208.05,5703.0172398,N,00949.3676493,E,2,5,1.5,-3.502,M,40.595,M,3.4,0123*59
$GPVTG,290.56,T,-349.34,M,006.245,N,011.565,K,D*09
$GPGGA,095208.10,5703.0172727,N,00949.3675020,E,2,5,1.5,-3.502,M,40.595,M,3.4,0123*52
$GPVTG,290.75,T,-349.15,M,006.240,N,011.557,K,D*0F
$GPGGA,095208.15,5703.0173083,N,00949.3673518,E,2,5,1.5,-3.502,M,40.595,M,3.4,0123*57
$GPVTG,291.07,T,-348.83,M,006.268,N,011.608,K,D*06
$GPGGA,095208.20,5703.0173378,N,00949.3671998,E,2,5,1.5,-3.500,M,40.595,M,3.4,0123*52
$GPVTG,290.88,T,-349.02,M,006.290,N,011.649,K,D*0A
$GPGGA,095208.25,5703.0173691,N,00949.3670521,E,2,5,1.5,-3.513,M,40.595,M,1.9,0123*57
$GPVTG,290.91,T,-348.99,M,006.273,N,011.617,K,D*07
$GPGGA,095208.30,5703.0174002,N,00949.3669046,E,2,5,1.5,-3.514,M,40.595,M,1.9,0123*53
$GPVTG,290.97,T,-348.93,M,006.263,N,011.599,K,D*0F
$GPGGA,095208.35,5703.0174319,N,00949.3667601,E,2,5,1.5,-3.520,M,40.595,M,1.9,0123*53
$GPVTG,291.17,T,-348.73,M,006.231,N,011.540,K,D*0B
$GPGGA,095208.40,5703.0174648,N,00949.3666104,E,2,5,1.5,-3.524,M,40.595,M,1.9,0123*57
$GPVTG,291.31,T,-348.59,M,006.251,N,011.577,K,D*05
$GPGGA,095208.45,5703.0174996,N,00949.3664575,E,2,5,1.5,-3.511,M,40.595,M,2.2,0123*50
$GPVTG,290.99,T,-348.91,M,006.280,N,011.630,K,D*0E
$GPGGA,095208.50,5703.0175291,N,00949.3663053,E,2,5,1.5,-3.509,M,40.595,M,2.2,0123*56
$GPVTG,290.60,T,-349.30,M,006.299,N,011.666,K,D*09
$GPGGA,095208.55,5703.0175617,N,00949.3661604,E,2,5,1.5,-3.507,M,40.595,M,2.2,0123*51
$GPVTG,291.04,T,-348.86,M,006.270,N,011.612,K,D*02
$GPGGA,095208.60,5703.0175942,N,00949.3660118,E,2,5,1.5,-3.504,M,40.595,M,2.2,0123*50
$GPVTG,291.26,T,-348.64,M,006.
$GPGGA,095216.35,5703.0232184,N,00949.3435769,E,2,5,1.5,-3.678,M,40.595,M,1.9,0123*5F
$GPVTG,297.64,T,-342.26,M,006.260,N,011.593,K,D*09
$GPGGA,095216.40,5703.0232554,N,00949.3434414,E,2,5,1.5,-3.683,M,40.595,M,1.9,0123*58
$GPVTG,297.54,T,-342.36,M,006.194,N,011.470,K,D*0F
$GPGGA,095216.45,5703.0232977,N,00949.3432999,E,2,5,1.5,-3.669,M,40.595,M,2.2,0123*52
$GPVTG,297.52,T,-342.38,M,006.201,N,011.485,K,D*02
$GPGGA,095216.50,5703.0233411,N,00949.3431521,E,2,5,1.5,-3.670,M,40.595,M,2.2,0123*5E
$GPVTG,297.62,T,-342.28,M,006.281,N,011.632,K,D*06
$GPGGA,095216.55,5703.0233852,N,00949.3430135,E,2,5,1.5,-3.670,M,40.595,M,2.2,0123*50
$GPVTG,298.13,T,-341.77,M,006.282,N,011.634,K,D*03
$GPGGA,095216.60,5703.0234234,N,00949.3428754,E,2,5,1.5,-3.671,M,40.595,M,2.2,0123*52
$GPVTG,298.02,T,-341.88,M,006.246,N,011.567,K,D*0E
$GPGGA,095216.65,5703.0234637,N,00949.3427329,E,2,5,1.5,-3.684,M,40.595,M,2.4,0123*5D
$GPVTG,297.89,T,-342.01,M,006.260,N,011.594,K,D*08
$GPGGA,095216.70,5703.0235007,N,00949.3425929,E,2,5,1.5,-3.687,M,40.595,M,2.4,0123*56
$GPVTG,297.60,T,-342.30,M,006.235,N,011.548,K,D*0C
$GPGGA,095216.75,5703.0235407,N,00949.3424537,E,2,5,1.5,-3.692,M,40.595,M,2.4,0123*51
$GPVTG,297.65,T,-342.25,M,006.222,N,011.524,K,D*01
$GPGGA,095216.80,5703.0235825,N,00949.3423118,E,2,5,1.5,-3.694,M,40.595,M,2.4,0123*5F
$GPVTG,297.77,T,-342.13,M,006.243,N,011.562,K,D*02
$GPGGA,095216.85,5703.0236297,N,00949.3421744,E,2,5,1.5,-3.675,M,40.595,M,2.7,0123*5B
$GPVTG,298.28,T,-341.62,M,006.238,N,011.554,K,D*0B
$GPGGA,095216.90,5703.0236722,N,00949.3420341,E,2,5,1.5,-3.670,M,40.595,M,2.7,0123*51
$GPVTG,298.47,T,-341.43,M,006.250,N,011.574,K,D*0D
$GPGGA,095216.95,5703.0237129,N,00949.3418927,E,2,5,1.5,-3.672,M,40.595,M,2.7,0123*5B
$GPVTG,298.42,T,-341.48,M,006.259,N,011.593,K,D*03
$GPGGA,095217.00,5703.0237528,N,00949.3417497,E,2,5,1.5,-3.671,M,40.595,M,2.7,0123*59
$GPVTG,298.22,T,-341.68,M,006.276,N,011.623,K,D*02
$GPGGA,095217.05,5703.0237924,N,00949.3416097,E,2,5,1.5,-3.688,M,40.595,M,1.5,0123*5E
$GPVTG,298.19,T,-341.71,M,006.273,N,011.617,K,D*00
$GPGGA,095217.10,5703.0238288,N,00949.3414720,E,2,5,1.5,-3.687,M,40.595,M,1.5,0123*5E
$GPVTG,297.97,T,-341.93,M,006.233,N,011.543,K,D*03
$GPGGA,095217.15,5703.0238713,N,00949.3413330,E,2,5,1.5,-3.688,M,40.595,M,1.5,0123*51
$GPVTG,298.17,T,-341.73,M,006.233,N,011.544,K,D*0D
$GPGGA,095217.20,5703.0239129,N,00949.3411965,E,2,5,1.5,-3.687,M,40.595,M,1.5,0123*5E
$GPVTG,298.38,T,-341.52,M,006.211,N,011.503,K,D*00
$GPGGA,095217.25,5703.0239573,N,00949.3410585,E,2,5,1.5,-3.678,M,40.595,M,1.8,0123*5E
$GPVTG,298.57,T,-341.33,M,006.209,N,011.499,K,D*05
$GPGGA,095217.30,5703.0240005,N,00949.3409167,E,2,5,1.5,-3.676,M,40.595,M,1.8,0123*5E
$GPVTG,298.68,T,-341.22,M,006.239,N,011.555,K,D*0B
$GPGGA,095217.35,5703.0240388,N,00949.3407756,E,2,5,1.5,-3.674,M,40.595,M,1.8,0123*55
$GPVTG,298.39,T,-341.51,M,006.237,N,011.551,K,D*01
$GPGGA,095217.40,5703.0240785,N,00949.3406337,E,2,5,1.5,-3.673,M,40.595,M,1.8,0123*5B
$GPVTG,298.21,T,-341.69,M,006.247,N,011.569,K,D*0F
$GPGGA,095217.45,5703.0241176,N,00949.3404908,E,2,5,1.5,-3.688,M,40.595,M,2.0,0123*5E
$GPVTG,298.36,T,-341.54,M,006.272,N,011.615,K,D*09
$GPGGA,095217.50,5703.0241619,N,00949.3403528,E,2,5,1.5,-3.691,M,40.595,M,2.0,0123*55
$GPVTG,298.81,T,-341.09,M,006.275,N,011.621,K,D*0D
$GPGGA,095217.55,5703.0242013,N,00949.3402176,E,2,5,1.5,-3.693,M,40.595,M,2.0,0123*53
$GPVTG,298.78,T,-341.12,M,006.224,N,011.527,K,D*00
$GPGGA,095217.60,5703.0242384,N,00949.3400761,E,2,5,1.5,-3.692,M,40.595,M,2.0,0123*5B
$GPVTG,298.25,T,-341.65,M,006.216,N,011.512,K,D*0F
$GPGGA,095217.65,5703.0242803,N,00949.3399366,E,2,5,1.5,-3.692,M,40.595,M,2.2,0123*5C
$GPVTG,298.31,T,-341.59,M,006.217,N,011.514,K,D*02
$GPGGA,095217.70,5703.0243207,N,00949.3397955,E,2,5,1.5,-3.691,M,40.595,M,2.2,0123*50
$GPVTG,298.15,T,-341.75,M,006.228,N,011.535,K,D*05
$GPGGA,095217.75,5703.0243639,N,00949.3396570,E,2,5,1.5,-3.690,M,40.595,M,2.2,0123*57
$GPVTG,298.57,T,-341.33,M,006.240,N,011.556,K,D*0A
$GPGGA,095217.80,5703.0244047,N,00949.3395175,E,2,5,1.5,-3.691,M,40.595,M,2.2,0123*56
$GPVTG,298.51,T,-341.39,M,006.237,N,011.551,K,D*01
$GPGGA,095217.85,5703.0244423,N,00949.3393803,E,2,5,1.5,-3.691,M,40.595,M,2.5,0123*5C
$GPVTG,298.05,T,-341.85,M,006.181,N,011.447,K,D*0F
$GPGGA,095217.90,5703.0244851,N,00949.3392384,E,2,5,1.5,-3.689,M,40.595,M,2.5,0123*5D
$GPVTG,298.21,T,-341.69,M,006.221,N,011.521,K,D*03
$GPGGA,095217.95,5703.0245251,N,00949.3390990,E,2,5,1.5,-3.691,M,40.595,M,2.5,0123*57
$GPVTG,298.12,T,-341.78,M,006.215,N,011.510,K,D*06
$GPGGA,095218.00,5703.0245642,N,00949.3389576,E,2,5,1.5,-3.692,M,40.595,M,2.5,0123*5D
$GPVTG,297.83,T,-342.07,M,006.220,N,011.519,K,D*05
$GPGGA,095218.05,5703.0246067,N,00949.3388175,E,2,5,1.5,-3.701,M,40.595,M,2.7,0123*55
$GPVTG,298.01,T,-341.89,M,006.237,N,011.551,K,D*0F
$GPGGA,095218.10,5703.0246481,N,00949.3386811,E,2,5,1.5,-3.701,M,40.595,M,2.7,0123*58
$GPVTG,298.24,T,-341.66,M,006.214,N,011.508,K,D*04
$GPGGA,095218.15,5703.0246879,N,00949.3385452,E,2,5,1.5,-3.705,M,40.595,M,2.7,0123*5A
$GPVTG,298.26,T,-341.64,M,006.177,N,011.440,K,D*0F
$GPGGA,095218.20,5703.0247283,N,00949.3384065,E,2,5,1.5,-3.710,M,40.595,M,2.7,0123*57
$GPVTG,298.25,T,-341.65,M,006.174,N,011.435,K,D*0C
$GPGGA,095218.25,5703.0247700,N,00949.3382623,E,2,5,1.5,-3.697,M,40.595,M,2.9,0123*5E
$GPVTG,298.25,T,-341.65,M,006.200,N,011.482,K,D*00
$GPGGA,095218.30,5703.0248115,N,00949.3381217,E,2,5,1.5,-3.694,M,40.595,M,2.9,0123*54
$GPVTG,298.24,T,-341.66,M,006.214,N,011.508,K,D*04
$GPGGA,095218.35,5703.0248525,N,00949.3379833,E,2,5,1.5,-3.695,M,40.595,M,2.9,0123*5C
$GPVTG,298.29,T,-341.61,M,006.209,N,011.499,K,D*0B
$GPGGA,095218.40,5703.0248936,N,00949.3378430,E,2,5,1.5,-3.693,M,40.595,M,2.9,0123*58
$GPVTG,298.28,T,-341.62,M,006.220,N,011.519,K,D*0B
$GPGGA,095218.45,5703.0249367,N,00949.3377059,E,2,5,1.5,-3.701,M,40.595,M,3.1,0123*55
$GPVTG,298.56,T,-341.34,M,006.212,N,011.504,K,D*0C
$GPGGA,095218.50,5703.0249769,N,00949.3375692,E,2,5,1.5,-3.700,M,40.595,M,3.1,0123*59
$GPVTG,298.60,T,-341.30,M,006.187,N,011.459,K,D*0B
$GPGGA,095218.55,5703.0250152,N,00949.3374293,E,2,5,1.5,-3.705,M,40.595,M,3.1,0123*5B
$GPVTG,298.29,T,-341.61,M,006.186,N,011.457,K,D*0D
$GPGGA,095218.60,5703.0250548,N,00949.3372878,E,2,5,1.5,-3.706,M,40.595,M,3.1,0123*58
$GPVTG,298.07,T,-341.83,M,006.205,N,011.491,K,D*0F
$GPGGA,095218.65,5703.0251009,N,00949.3371500,E,2,5,1.5,-3.689,M,40.595,M,3.3,0123*59
$GPVTG,298.36,T,-341.54,M,006.214,N,011.509,K,D*07
$GPGGA,095218.70,5703.0251407,N,00949.3370125,E,2,5,1.5,-3.688,M,40.595,M,3.3,0123*54
$GPVTG,298.32,T,-341.58,M,006.195,N,011.473,K,D*09
$GPGGA,095218.75,5703.0251820,N,00949.3368732,E,2,5,1.5,-3.689,M,40.595,M,3.3,0123*50
$GPVTG,298.35,T,-341.55,M,006.203,N,011.488,K,D*0B
$GPGGA,095218.80,5703.0252252,N,00949.3367334,E,2,5,1.5,-3.687,M,40.595,M,3.3,0123*55
$GPVTG,298.55,T,-341.35,M,006.225,N,011.529,K,D*05
$GPGGA,095218.85,5703.0252655,N,00949.3365940,E,2,5,1.5,-3.694,M,40.595,M,3.5,0123*5C
$GPVTG,298.37,T,-341.53,M,006.227,N,011.533,K,D*08
$GPGGA,095218.90,5703.0253026,N,00949.3364550,E,2,5,1.5,-3.696,M,40.595,M,3.5,0123*55
$GPVTG,298.08,T,-341.82,M,006.210,N,011.501,K,D*0D
$GPGGA,095218.95,5703.0253442,N,00949.3363167,E,2,5,1.5,-3.696,M,40.595,M,3.5,0123*51
$GPVTG,298.19,T,-341.71,M,006.208,N,011.498,K,D*09
$GPGGA,095219.00,5703.0253860,N,00949.3361760,E,2,5,1.5,-3.695,M,40.595,M,3.5,0123*50
$GPVTG,298.22,T,-341.68,M,006.225,N,011.529,K,D*0D
$GPGGA,095219.05,5703.0254295,N,00949.3360350,E,2,5,1.5,-3.696,M,40.595,M,2.1,0123*52
$GPVTG,298.43,T,-341.47,M,006.244,N,011.564,K,D*09
$GPGGA,095219.10,5703.0254665,N,00949.3358953,E,2,5,1.5,-3.694,M,40.595,M,2.1,0123*5D
$GPVTG,298.09,T,-341.81,M,006.227,N,011.532,K,D*0B
$GPGGA,095219.15,5703.0255083,N,00949.3357546,E,2,5,1.5,-3.693,M,40.595,M,2.1,0123*57
$GPVTG,298.13,T,-341.77,M,006.241,N,011.558,K,D*05
$GPGGA,095219.20,5703.0255488,N,00949.3356173,E,2,5,1.5,-3.694,M,40.595,M,2.1,0123*5A
$GPVTG,298.19,T,-341.71,M,006.223,N,011.525,K,D*07
$GPGGA,095219.25,5703.0255908,N,00949.3354792,E,2,5,1.5,-3.691,M,40.595,M,2.4,0123*51
$GPVTG,298.25,T,-341.65,M,006.211,N,011.502,K,D*09
$GPGGA,095219.30,5703.0256311,N,00949.3353386,E,2,5,1.5,-3.690,M,40.595,M,2.4,0123*53
$GPVTG,298.15,T,-341.75,M,006.219,N,011.518,K,D*08
$GPGGA,095219.35,5703.0256741,N,00949.3351979,E,2,5,1.5,-3.690,M,40.595,M,2.4,0123*5F
$GPVTG,298.30,T,-341.60,M,006.241,N,011.558,K,D*02
$GPGGA,095219.40,5703.0257129,N,00949.3350606,E,2,5,1.5,-3.689,M,40.595,M,2.4,0123*5A
$GPVTG,298.20,T,-341.70,M,006.213,N,011.507,K,D*0F
$GPGGA,095219.45,5703.0257539,N,00949.3349166,E,2,5,1.5,-3.691,M,40.595,M,2.7,0123*59
$GPVTG,298.01,T,-341.89,M,006.243,N,011.562,K,D*0C
$GPGGA,095219.50,5703.0257932,N,00949.3347720,E,2,5,1.5,-3.693,M,40.595,M,2.7,0123*52
$GPVTG,297.72,T,-342.18,M,006.272,N,011.616,K,D*0E
$GPGGA,095219.55,5703.0258336,N,00949.3346336,E,2,5,1.5,-3.695,M,40.595,M,2.7,0123*52
$GPVTG,297.77,T,-342.13,M,006.256,N,011.587,K,D*0D
$GPGGA,095219.60,5703.0258778,N,00949.3344965,E,2,5,1.5,-3.696,M,40.595,M,2.7,0123*57
$GPVTG,298.21,T,-341.69,M,006.251,N,011.577,K,D*07
$GPGGA,095219.65,5703.0259214,N,00949.3343592,E,2,5,1.5,-3.691,M,40.595,M,2.9,0123*56
$GPVTG,298.27,T,-341.63,M,006.230,N,011.538,K,D*07
$GPGGA,095219.70,5703.0259615,N,00949.3342195,E,2,5,1.5,-3.689,M,40.595,M,2.9,0123*5C
$GPVTG,298.19,T,-341.71,M,006.227,N,011.532,K,D*05
$GPGGA,095219.75,5703.0260073,N,00949.3340792,E,2,5,1.5,-3.690,M,40.595,M,2.9,0123*5E
$GPVTG,298.62,T,-341.28,M,006.258,N,011.590,K,D*05
$GPGGA,095219.80,5703.0260495,N,00949.3339357,E,2,5,1.5,-3.690,M,40.595,M,2.9,0123*5B
$GPVTG,298.56,T,-341.34,M,006.291,N,011.652,K,D*07
$GPGGA,095219.85,5703.0260880,N,00949.3337909,E,2,5,1.5,-3.701,M,40.595,M,3.2,0123*5A
$GPVTG,298.23,T,-341.67,M,006.307,N,011.680,K,D*02
$GPGGA,095219.90,5703.0261276,N,00949.3336533,E,2,5,1.5,-3.703,M,40.595,M,3.2,0123*5A
$GPVTG,298.20,T,-341.70,M,006.276,N,011.623,K,D*09
$GPGGA,095219.95,5703.0261692,N,00949.3335190,E,2,5,1.5,-3.704,M,40.595,M,3.2,0123*58
$GPVTG,298.48,T,-341.42,M,006.234,N,011.545,K,D*03
$GPGGA,095220.00,5703.0262082,N,00949.3333780,E,2,5,1.5,-3.704,M,40.595,M,3.2,0123*5B
$GPVTG,298.24,T,-341.66,M,006.232,N,011.542,K,D*0E
$GPGGA,095220.05,5703.0262524,N,00949.3332353,E,2,5,1.5,-3.700,M,40.595,M,1.7,0123*5F
$GPVTG,298.34,T,-341.56,M,006.261,N,011.596,K,D*03
$GPGGA,095220.10,5703.0262959,N,00949.3330969,E,2,5,1.5,-3.701,M,40.595,M,1.7,0123*5D
$GPVTG,298.67,T,-341.23,M,006.263,N,011.599,K,D*0A
$GPGGA,095220.15,5703.0263369,N,00949.3329561,E,2,5,1.5,-3.702,M,40.595,M,1.7,0123*5F
$GPVTG,298.59,T,-341.31,M,006.269,N,011.611,K,D*0D
$GPGGA,095220.20,5703.0263779,N,00949.3328158,E,2,5,1.5,-3.706,M,40.595,M,1.7,0123*57
$GPVTG,298.54,T,-341.36,M,006.270,N,011.612,K,D*0C
$GPGGA,095220.25,5703.0264188,N,00949.3326785,E,2,5,1.5,-3.704,M,40.595,M,1.9,0123*59
$GPVTG,298.24,T,-341.66,M,006.205,N,011.493,K,D*07
$GPGGA,095220.30,5703.0264648,N,00949.3325422,E,2,5,1.5,-3.707,M,40.595,M,1.9,0123*58
$GPVTG,299.26,T,-340.64,M,006.230,N,011.537,K,D*0E
$GPGGA,095220.35,5703.0265045,N,00949.3324062,E,2,5,1.5,-3.710,M,40.595,M,1.9,0123*50
$GPVTG,299.05,T,-340.85,M,006.185,N,011.454,K,D*09
$GPGGA,095220.40,5703.0265419,N,00949.3322670,E,2,5,1.5,-3.710,M,40.595,M,1.9,0123*5C
$GPVTG,298.44,T,-341.46,M,006.158,N,011.405,K,D*07
$GPGGA,095220.45,5703.0265842,N,00949.3321239,E,2,5,1.5,-3.699,M,40.595,M,2.2,0123*59
$GPVTG,298.48,T,-341.42,M,006.192,N,011.467,K,D*0D
$GPGGA,095220.50,5703.0266309,N,00949.3319874,E,2,5,1.5,-3.696,M,40.595,M,2.2,0123*5D
$GPVTG,299.31,T,-340.59,M,006.217,N,011.514,K,D*02
$GPGGA,095220.55,5703.0266697,N,00949.3318471,E,2,5,1.5,-3.695,M,40.595,M,2.2,0123*51
$GPVTG,298.86,T,-341.04,M,006.210,N,011.501,K,D*05
$GPGGA,095220.60,5703.0267124,N,00949.3317117,E,2,5,1.5,-3.694,M,40.595,M,2.2,0123*52
$GPVTG,299.15,T,-340.75,M,006.194,N,011.471,K,D*00
$GPGGA,095220.65,5703.0267559,N,00949.3315722,E,2,5,1.5,-3.691,M,40.595,M,2.4,0123*58
$GPVTG,299.15,T,-340.75,M,006.204,N,011.489,K,D*0D
$GPGGA,095220.70,5703.0267965,N,00949.3314317,E,2,5,1.5,-3.691,M,40.595,M,2.4,0123*5C
$GPVTG,298.92,T,-340.98,M,006.215,N,011.511,K,D*00
$GPGGA,095220.75,5703.0268402,N,00949.3312959,E,2,5,1.5,-3.689,M,40.595,M,2.4,0123*55
$GPVTG,299.29,T,-340.61,M,006.209,N,011.500,K,D*0A
$GPGGA,095220.80,5703.0268801,N,00949.3311560,E,2,5,1.5,-3.692,M,40.595,M,2.4,0123*5F
$GPVTG,298.98,T,-340.92,M,006.210,N,011.500,K,D*05
$GPGGA,095220.85,5703.0269234,N,00949.3310176,E,2,5,1.5,-3.704,M,40.595,M,2.7,0123*58
$GPVTG,299.11,T,-340.79,M,006.221,N,011.521,K,D*01
$GPGGA,095220.90,5703.0269654,N,00949.3308803,E,2,5,1.5,-3.706,M,40.595,M,2.7,0123*5E
$GPVTG,299.18,T,-340.72,M,006.214,N,011.508,K,D*0E
$GPGGA,095220.95,5703.0270125,N,00949.3307493,E,2,5,1.5,-3.704,M,40.595,M,2.7,0123*5A
$GPVTG,300.14,T,-339.76,M,006.194,N,011.471,K,D*0D
$GPGGA,095221.00,5703.0270557,N,00949.3306112,E,2,5,1.5,-3.704,M,40.595,M,2.7,0123*5B
$GPVTG,300.20,T,-339.70,M,006.207,N,011.496,K,D*0C
$GPGGA,095221.05,5703.0270972,N,00949.3304710,E,2,5,1.5,-3.704,M,40.595,M,1.5,0123*52
$GPVTG,299.84,T,-340.06,M,006.218,N,011.515,K,D*08
$GPGGA,095221.10,5703.0271391,N,00949.3303316,E,2,5,1.5,-3.706,M,40.595,M,1.5,0123*57
$GPVTG,299.67,T,-340.23,M,006.233,N,011.544,K,D*0F
$GPGGA,095221.15,5703.0271827,N,00949.3301948,E,2,5,1.5,-3.707,M,40.595,M,1.5,0123*56
$GPVTG,299.86,T,-340.04,M,006.234,N,011.544,K,D*02
$GPGGA,095221.20,5703.0272250,N,00949.3300582,E,2,5,1.5,-3.705,M,40.595,M,1.5,0123*50
$GPVTG,299.87,T,-340.03,M,006.223,N,011.524,K,D*04
$GPGGA,095221.25,5703.0272680,N,00949.3299219,E,2,5,1.5,-3.710,M,40.595,M,1.8,0123*51
$GPVTG,300.02,T,-339.88,M,006.205,N,011.493,K,D*0C
$GPGGA,095221.30,5703.0273126,N,00949.3297855,E,2,5,1.5,-3.710,M,40.595,M,1.8,0123*53
$GPVTG,300.28,T,-339.62,M,006.214,N,011.508,K,D*03
$GPGGA,095221.35,5703.0273546,N,00949.3296457,E,2,5,1.5,-3.711,M,40.595,M,1.8,0123*5A
$GPVTG,300.03,T,-339.87,M,006.232,N,011.542,K,D*0B
$GPGGA,095221.40,5703.0273976,N,00949.3295079,E,2,5,1.5,-3.713,M,40.595,M,1.8,0123*5E
$GPVTG,300.02,T,-339.88,M,006.237,N,011.551,K,D*02
$GPGGA,095221.45,5703.0274423,N,00949.3293739,E,2,5,1.5,-3.703,M,40.595,M,2.0,0123*5E
$GPVTG,300.33,T,-339.57,M,006.223,N,011.526,K,D*07
$GPGGA,095221.50,5703.0274851,N,00949.3292341,E,2,5,1.5,-3.704,M,40.595,M,2.0,0123*5E
$GPVTG,300.18,T,-339.72,M,006.241,N,011.559,K,D*05
$GPGGA,095221.55,5703.0275313,N,00949.3290951,E,2,5,1.5,-3.705,M,40.595,M,2.0,0123*5F
$GPVTG,300.47,T,-339.43,M,006.278,N,011.627,K,D*0D
$GPGGA,095221.60,5703.0275750,N,00949.3289593,E,2,5,1.5,-3.708,M,40.595,M,2.0,0123*5D
$GPVTG,300.55,T,-339.35,M,006.266,N,011.605,K,D*00
$GPGGA,095221.65,5703.0276138,N,00949.3288193,E,2,5,1.5,-3.706,M,40.595,M,2.2,0123*5A
$GPVTG,299.91,T,-339.99,M,006.242,N,011.561,K,D*08
$GPGGA,095221.70,5703.0276560,N,00949.3286781,E,2,5,1.5,-3.707,M,40.595,M,2.2,0123*5D
$GPVTG,299.66,T,-340.25,M,006.265,N,011.603,K,D*0B
$GPGGA,095221.75,5703.0277005,N,00949.3285389,E,2,5,1.5,-3.710,M,40.595,M,2.2,0123*56
$GPVTG,299.78,T,-340.12,M,006.287,N,011.643,K,D*08
$GPGGA,095221.80,5703.0277458,N,00949.3284031,E,2,5,1.5,-3.710,M,40.595,M,2.2,0123*51
$GPVTG,300.12,T,-339.78,M,006.283,N,011.637,K,D*00
$GPGGA,095221.85,5703.0277919,N,00949.3282606,E,2,5,1.5,-3.700,M,40.595,M,2.5,0123*5E
$GPVTG,300.35,T,-339.55,M,006.326,N,011.716,K,D*06
$GPGGA,095221.90,5703.0278340,N,00949.3281256,E,2,5,1.5,-3.701,M,40.595,M,2.5,0123*50
$GPVTG,300.30,T,-339.60,M,006.286,N,011.643,K,D*0F
$GPGGA,095221.95,5703.0278744,N,00949.3279882,E,2,5,1.5,-3.700,M,40.595,M,2.5,0123*50
$GPVTG,299.94,T,-339.96,M,006.259,N,011.591,K,D*07
$GPGGA,095222.00,5703.0279190,N,00949.3278520,E,2,5,1.5,-3.702,M,40.595,M,2.5,0123*57
$GPVTG,300.17,T,-339.73,M,006.254,N,011.582,K,D*09
$GPGGA,095222.05,5703.0279641,N,00949.3277093,E,2,5,1.5,-3.709,M,40.595,M,2.7,0123*52
$GPVTG,300.17,T,-339.73,M,006.306,N,011.678,K,D*09
$GPGGA,095222.10,5703.0280098,N,00949.3275725,E,2,5,1.5,-3.711,M,40.595,M,2.7,0123*53
$GPVTG,300.46,T,-339.44,M,006.309,N,011.685,K,D*04
$GPGGA,095222.15,5703.0280530,N,00949.3274361,E,2,5,1.5,-3.713,M,40.595,M,2.7,0123*56
$GPVTG,300.46,T,-339.44,M,006.290,N,011.650,K,D*0D
$GPGGA,095222.20,5703.0280959,N,00949.3272971,E,2,5,1.5,-3.712,M,40.595,M,2.7,0123*5F
$GPVTG,300.29,T,-339.61,M,006.291,N,011.651,K,D*03
$GPGGA,095222.25,5703.0281366,N,00949.3271571,E,2,5,1.5,-3.689,M,40.595,M,2.9,0123*5F
$GPVTG,299.97,T,-339.93,M,006.260,N,011.593,K,D*09
$GPGGA,095222.30,5703.0281819,N,00949.3270221,E,2,5,1.5,-3.686,M,40.595,M,2.9,0123*54
$GPVTG,300.33,T,-339.57,M,006.250,N,011.576,K,D*06
$GPGGA,095222.35,5703.0282298,N,00949.3268881,E,2,5,1.5,-3.683,M,40.595,M,2.9,0123*5D
$GPVTG,300.97,T,-338.93,M,006.253,N,011.581,K,D*0A
$GPGGA,095222.40,5703.0282719,N,00949.3267480,E,2,5,1.5,-3.680,M,40.595,M,2.9,0123*52
$GPVTG,300.60,T,-339.30,M,006.263,N,011.600,K,D*03
$GPGGA,095222.45,5703.0283181,N,00949.3266088,E,2,5,1.5,-3.699,M,40.595,M,3.1,0123*5D
$GPVTG,300.66,T,-339.24,M,006.299,N,011.667,K,D*04
$GPGGA,095222.50,5703.0283593,N,00949.3264713,E,2,5,1.5,-3.701,M,40.595,M,3.1,0123*59
$GPVTG,300.32,T,-339.58,M,006.276,N,011.623,K,D*0F
$GPGGA,095222.55,5703.0284040,N,00949.3263360,E,2,5,1.5,-3.702,M,40.595,M,3.1,0123*54
$GPVTG,300.52,T,-339.38,M,006.262,N,011.598,K,D*09
$GPGGA,095222.60,5703.0284476,N,00949.3261991,E,2,5,1.5,-3.701,M,40.595,M,3.1,0123*56
$GPVTG,300.49,T,-339.41,M,006.255,N,011.585,K,D*05
$GPGGA,095222.65,5703.0284923,N,00949.3260641,E,2,5,1.5,-3.691,M,40.595,M,3.3,0123*57
$GPVTG,300.83,T,-339.07,M,006.229,N,011.535,K,D*01
$GPGGA,095222.70,5703.0285347,N,00949.3259307,E,2,5,1.5,-3.692,M,40.595,M,3.3,0123*54
$GPVTG,300.78,T,-339.12,M,006.189,N,011.463,K,D*0A
$GPGGA,095222.75,5703.0285812,N,00949.3257945,E,2,5,1.5,-3.689,M,40.595,M,3.3,0123*52
$GPVTG,301.09,T,-338.81,M,006.210,N,011.501,K,D*00
$GPGGA,095222.80,5703.0286248,N,00949.3256546,E,2,5,1.5,-3.687,M,40.595,M,3.3,0123*5E
$GPVTG,300.85,T,-339.05,M,006.236,N,011.549,K,D*00
$GPGGA,095222.85,5703.0286684,N,00949.3255126,E,2,5,1.5,-3.687,M,40.595,M,3.5,0123*58
$GPVTG,300.54,T,-339.36,M,006.271,N,011.614,K,D*04
$GPGGA,095222.90,5703.0287082,N,00949.3253791,E,2,5,1.5,-3.689,M,40.595,M,3.5,0123*5F
$GPVTG,300.19,T,-339.71,M,006.209,N,011.500,K,D*07
$GPGGA,095222.95,5703.0287546,N,00949.3252423,E,2,5,1.5,-3.693,M,40.595,M,3.5,0123*57
$GPVTG,300.52,T,-339.38,M,006.231,N,011.541,K,D*0B
$GPGGA,095223.00,5703.0288010,N,00949.3251067,E,2,5,1.5,-3.695,M,40.595,M,3.5,0123*52
$GPVTG,300.86,T,-339.04,M,006.242,N,011.561,K,D*0B
$GPGGA,095223.05,5703.0288434,N,00949.3249748,E,2,5,1.5,-3.686,M,40.595,M,2.1,0123*51
$GPVTG,301.01,T,-338.89,M,006.181,N,011.448,K,D*07
$GPGGA,095223.10,5703.0288871,N,00949.3248398,E,2,5,1.5,-3.685,M,40.595,M,2.1,0123*53
$GPVTG,300.99,T,-338.91,M,006.174,N,011.435,K,D*0E
$GPGGA,095223.15,5703.0289304,N,00949.3246997,E,2,5,1.5,-3.683,M,40.595,M,2.1,0123*53
$GPVTG,300.70,T,-339.20,M,006.206,N,011.494,K,D*0F
$GPGGA,095223.20,5703.0289705,N,00949.3245653,E,2,5,1.5,-3.683,M,40.595,M,2.1,0123*54
$GPVTG,300.31,T,-339.59,M,006.165,N,011.418,K,D*06
$GPGGA,095223.25,5703.0290114,N,00949.3244260,E,2,5,1.5,-3.683,M,40.595,M,2.4,0123*5F
$GPVTG,299.89,T,-340.01,M,006.172,N,011.431,K,D*0A
$GPGGA,095223.30,5703.0290549,N,00949.3242954,E,2,5,1.5,-3.684,M,40.595,M,2.4,0123*5A
$GPVTG,300.17,T,-339.73,M,006.129,N,011.351,K,D*08
$GPGGA,095223.35,5703.0291036,N,00949.3241635,E,2,5,1.5,-3.685,M,40.595,M,2.4,0123*59
$GPVTG,300.99,T,-338.91,M,006.144,N,011.378,K,D*03
$GPGGA,095223.40,5703.0291499,N,00949.3240303,E,2,5,1.5,-3.685,M,40.595,M,2.4,0123*5B
$GPVTG,301.37,T,-338.53,M,006.151,N,011.391,K,D*0B
$GPGGA,095223.45,5703.0291905,N,00949.3238846,E,2,5,1.5,-3.659,M,40.595,M,2.7,0123*51
$GPVTG,300.61,T,-339.29,M,006.197,N,011.476,K,D*01
$GPGGA,095223.50,5703.0292328,N,00949.3237485,E,2,5,1.5,-3.656,M,40.595,M,2.7,0123*50
$GPVTG,300.41,T,-339.49,M,006.190,N,011.464,K,D*01
$GPGGA,095223.55,5703.0292776,N,00949.3236117,E,2,5,1.5,-3.653,M,40.595,M,2.7,0123*50
$GPVTG,300.51,T,-339.39,M,006.209,N,011.498,K,D*07
$GPGGA,095223.60,5703.0293203,N,00949.3234747,E,2,5,1.5,-3.650,M,40.595,M,2.7,0123*52
$GPVTG,300.34,T,-339.56,M,006.211,N,011.502,K,D*06
$GPGGA,095223.65,5703.0293630,N,00949.3233398,E,2,5,1.5,-3.668,M,40.595,M,2.9,0123*57
$GPVTG,300.29,T,-339.61,M,006.203,N,011.489,K,D*0F
$GPGGA,095223.70,5703.0294099,N,00949.3232063,E,2,5,1.5,-3.670,M,40.595,M,2.9,0123*5E
$GPVTG,300.79,T,-339.11,M,006.209,N,011.499,K,D*06
$GPGGA,095223.75,5703.0294539,N,00949.3230740,E,2,5,1.5,-3.671,M,40.595,M,2.9,0123*51
$GPVTG,300.95,T,-338.95,M,006.183,N,011.450,K,D*0D
$GPGGA,095223.80,5703.0294973,N,00949.3229339,E,2,5,1.5,-3.671,M,40.595,M,2.9,0123*5B
$GPVTG,300.68,T,-339.22,M,006.219,N,011.517,K,D*00
$GPGGA,095223.85,5703.0295386,N,00949.3227922,E,2,5,1.5,-3.669,M,40.595,M,3.2,0123*52
$GPVTG,300.33,T,-339.57,M,006.245,N,011.565,K,D*00
$GPGGA,095223.90,5703.0295846,N,00949.3226601,E,2,5,1.5,-3.669,M,40.595,M,3.2,0123*5E
$GPVTG,300.78,T,-339.12,M,006.227,N,011.532,K,D*08
$GPGGA,095223.95,5703.0296320,N,00949.3225270,E,2,5,1.5,-3.671,M,40.595,M,3.2,0123*5B
$GPVTG,301.31,T,-338.59,M,006.229,N,011.537,K,D*01
$GPGGA,095224.00,5703.0296776,N,00949.3223868,E,2,5,1.5,-3.673,M,40.595,M,3.2,0123*50
$GPVTG,301.24,T,-338.66,M,006.276,N,011.623,K,D*05
$GPGGA,095224.05,5703.0297203,N,00949.3222530,E,2,5,1.5,-3.671,M,40.595,M,1.7,0123*57
$GPVTG,301.29,T,-338.61,M,006.239,N,011.555,K,D*06
$GPGGA,095224.10,5703.0297664,N,00949.3221172,E,2,5,1.5,-3.673,M,40.595,M,1.7,0123*55
$GPVTG,301.47,T,-338.43,M,006.252,N,011.578,K,D*0C
$GPGGA,095224.15,5703.0298119,N,00949.3219824,E,2,5,1.5,-3.674,M,40.595,M,1.7,0123*54
$GPVTG,301.60,T,-338.30,M,006.251,N,011.577,K,D*01
$GPGGA,095224.20,5703.0298556,N,00949.3218452,E,2,5,1.5,-3.673,M,40.595,M,1.7,0123*56
$GPVTG,301.39,T,-338.51,M,006.255,N,011.584,K,D*02
$GPGGA,095224.25,5703.0298986,N,00949.3217091,E,2,5,1.5,-3.672,M,40.595,M,1.9,0123*59
$GPVTG,301.31,T,-338.59,M,006.246,N,011.568,K,D*02
$GPGGA,095224.30,5703.0299418,N,00949.3215731,E,2,5,1.5,-3.668,M,40.595,M,1.9,0123*52
$GPVTG,301.12,T,-338.78,M,006.237,N,011.552,K,D*0F
$GPGGA,095224.35,5703.0299864,N,00949.3214360,E,2,5,1.5,-3.668,M,40.595,M,1.9,0123*51
$GPVTG,301.06,T,-338.84,M,006.248,N,011.572,K,D*03
$GPGGA,095224.40,5703.0300307,N,00949.3212987,E,2,5,1.5,-3.667,M,40.595,M,1.9,0123*56
$GPVTG,300.97,T,-338.93,M,006.257,N,011.589,K,D*06
$GPGGA,095224.45,5703.0300760,N,00949.3211676,E,2,5,1.5,-3.677,M,40.595,M,2.2,0123*5D
$GPVTG,301.34,T,-338.56,M,006.226,N,011.530,K,D*03
$GPGGA,095224.50,5703.0301170,N,00949.3210313,E,2,5,1.5,-3.678,M,40.595,M,2.2,0123*57
$GPVTG,300.87,T,-339.03,M,006.204,N,011.489,K,D*08
$GPGGA,095224.55,5703.0301611,N,00949.3208971,E,2,5,1.5,-3.682,M,40.595,M,2.2,0123*50
$GPVTG,300.90,T,-339.00,M,006.190,N,011.464,K,D*00
$GPGGA,095224.60,5703.0302053,N,00949.3207611,E,2,5,1.5,-3.685,M,40.595,M,2.2,0123*54
$GPVTG,300.87,T,-339.03,M,006.196,N,011.474,K,D*02
$GPGGA,095224.65,5703.0302490,N,00949.3206264,E,2,5,1.5,-3.682,M,40.595,M,2.4,0123*5C
$GPVTG,301.09,T,-338.81,M,006.185,N,011.456,K,D*0C
$GPGGA,095224.70,5703.0302964,N,00949.3204902,E,2,5,1.5,-3.682,M,40.595,M,2.4,0123*57
$GPVTG,301.40,T,-338.50,M,006.217,N,011.515,K,D*03
$GPGGA,095224.75,5703.0303435,N,00949.3203556,E,2,5,1.5,-3.682,M,40.595,M,2.4,0123*50
$GPVTG,301.72,T,-338.18,M,006.232,N,011.542,K,D*0B
$GPGGA,095224.80,5703.0303883,N,00949.3202199,E,2,5,1.5,-3.679,M,40.595,M,2.4,0123*59
$GPVTG,301.66,T,-338.24,M,006.235,N,011.548,K,D*0C
$GPGGA,095224.85,5703.0304285,N,00949.3200809,E,2,5,1.5,-3.654,M,40.595,M,2.7,0123*59
$GPVTG,301.09,T,-338.81,M,006.216,N,011.512,K,D*04
$GPGGA,095224.90,5703.0304724,N,00949.3199444,E,2,5,1.5,-3.653,M,40.595,M,2.7,0123*52
$GPVTG,300.96,T,-338.94,M,006.220,N,011.519,K,D*09
$GPGGA,095224.95,5703.0305188,N,00949.3198094,E,2,5,1.5,-3.649,M,40.595,M,2.7,0123*55
$GPVTG,301.22,T,-338.68,M,006.231,N,011.540,K,D*08
$GPGGA,095225.00,5703.0305621,N,00949.3196745,E,2,5,1.5,-3.645,M,40.595,M,2.7,0123*55
$GPVTG,301.08,T,-338.82,M,006.216,N,011.512,K,D*06
$GPGGA,095225.05,5703.0306081,N,00949.3195422,E,2,5,1.5,-3.666,M,40.595,M,1.5,0123*5E
$GPVTG,301.40,T,-338.50,M,006.222,N,011.523,K,D*00
$GPGGA,095225.10,5703.0306533,N,00949.3194090,E,2,5,1.5,-3.666,M,40.595,M,1.5,0123*5A
$GPVTG,301.54,T,-338.36,M,006.210,N,011.500,K,D*05
$GPGGA,095225.15,5703.0306996,N,00949.3192694,E,2,5,1.5,-3.668,M,40.595,M,1.5,0123*56
$GPVTG,301.49,T,-338.41,M,006.258,N,011.590,K,D*0C
$GPGGA,095225.20,5703.0307443,N,00949.3191329,E,2,5,1.5,-3.668,M,40.595,M,1.5,0123*54
$GPVTG,301.41,T,-338.49,M,006.263,N,011.599,K,D*0D
$GPGGA,095225.25,5703.0307864,N,00949.3189964,E,2,5,1.5,-3.660,M,40.595,M,1.8,0123*57
$GPVTG,301.28,T,-338.62,M,006.247,N,011.570,K,D*0A
$GPGGA,095225.30,5703.0308299,N,00949.3188552,E,2,5,1.5,-3.655,M,40.595,M,1.8,0123*5A
$GPVTG,300.86,T,-339.04,M,006.282,N,011.634,K,D*04
$GPGGA,095225.35,5703.0308751,N,00949.3187206,E,2,5,1.5,-3.652,M,40.595,M,1.8,0123*50
$GPVTG,301.00,T,-338.90,M,006.271,N,011.614,K,D*09
$GPGGA,095225.40,5703.0309200,N,00949.3185876,E,2,5,1.5,-3.650,M,40.595,M,1.8,0123*5F
$GPVTG,301.16,T,-338.74,M,006.246,N,011.568,K,D*08
$GPGGA,095225.45,5703.0309653,N,00949.3184537,E,2,5,1.5,-3.667,M,40.595,M,2.0,0123*5E
$GPVTG,301.36,T,-338.54,M,006.252,N,011.579,K,D*0D
$GPGGA,095225.50,5703.0310129,N,00949.3183188,E,2,5,1.5,-3.670,M,40.595,M,2.0,0123*59
$GPVTG,301.71,T,-338.19,M,006.266,N,011.605,K,D*08
$GPGGA,095225.55,5703.0310562,N,00949.3181797,E,2,5,1.5,-3.669,M,40.595,M,2.0,0123*55
$GPVTG,301.32,T,-338.58,M,006.278,N,011.627,K,D*05
$GPGGA,095225.60,5703.0311017,N,00949.3180398,E,2,5,1.5,-3.670,M,40.595,M,2.0,0123*57
$GPVTG,301.20,T,-338.70,M,006.312,N,011.690,K,D*0D
$GPGGA,095225.65,5703.0311430,N,00949.3179018,E,2,5,1.5,-3.664,M,40.595,M,2.2,0123*59
$GPVTG,300.97,T,-338.93,M,006.293,N,011.654,K,D*0D
$GPGGA,095225.70,5703.0311887,N,00949.3177688,E,2,5,1.5,-3.665,M,40.595,M,2.2,0123*5D
$GPVTG,301.22,T,-338.68,M,006.269,N,011.610,K,D*03
$GPGGA,095225.75,5703.0312349,N,00949.3176325,E,2,5,1.5,-3.667,M,40.595,M,2.2,0123*53
$GPVTG,301.35,T,-338.55,M,006.278,N,011.627,K,D*0F
$GPGGA,095225.80,5703.0312795,N,00949.3174950,E,2,5,1.5,-3.666,M,40.595,M,2.2,0123*57
$GPVTG,301.24,T,-338.66,M,006.284,N,011.639,K,D*03
$GPGGA,095225.85,5703.0313232,N,00949.3173546,E,2,5,1.5,-3.665,M,40.595,M,2.5,0123*53
$GPVTG,301.17,T,-338.73,M,006.304,N,011.675,K,D*06
$GPGGA,095225.90,5703.0313710,N,00949.3172181,E,2,5,1.5,-3.665,M,40.595,M,2.5,0123*5C
$GPVTG,301.35,T,-338.55,M,006.314,N,011.694,K,D*0C
$GPGGA,095225.95,5703.0314164,N,00949.3170829,E,2,5,1.5,-3.664,M,40.595,M,2.5,0123*53
$GPVTG,301.43,T,-338.47,M,006.305,N,011.677,K,D*03
$GPGGA,095226.00,5703.0314649,N,00949.3169479,E,2,5,1.5,-3.661,M,40.595,M,2.5,0123*50
$GPVTG,301.73,T,-338.17,M,006.308,N,011.683,K,D*03
$GPGGA,095226.05,5703.0315102,N,00949.3168073,E,2,5,1.5,-3.673,M,40.595,M,2.7,0123*52
$GPVTG,301.67,T,-338.23,M,006.343,N,011.746,K,D*06
$GPGGA,095226.10,5703.0315531,N,00949.3166681,E,2,5,1.5,-3.673,M,40.595,M,2.7,0123*57
$GPVTG,301.43,T,-338.47,M,006.348,N,011.757,K,D*09
$GPGGA,095226.15,5703.0315983,N,00949.3165360,E,2,5,1.5,-3.674,M,40.595,M,2.7,0123*59
$GPVTG,301.61,T,-338.29,M,006.312,N,011.689,K,D*0C
$GPGGA,095226.20,5703.0316444,N,00949.3164027,E,2,5,1.5,-3.675,M,40.595,M,2.7,0123*5A
$GPVTG,301.79,T,-338.11,M,006.291,N,011.651,K,D*01
$GPGGA,095226.25,5703.0316879,N,00949.3162632,E,2,5,1.5,-3.672,M,40.595,M,2.9,0123*50
$GPVTG,301.64,T,-338.26,M,006.306,N,011.678,K,D*0D
$GPGGA,095226.30,5703.0317378,N,00949.3161332,E,2,5,1.5,-3.673,M,40.595,M,2.9,0123*58
$GPVTG,302.24,T,-337.66,M,006.282,N,011.634,K,D*04
$GPGGA,095226.35,5703.0317828,N,00949.3159960,E,2,5,1.5,-3.671,M,40.595,M,2.9,0123*57
$GPVTG,302.12,T,-337.78,M,006.287,N,011.644,K,D*0C
$GPGGA,095226.40,5703.0318286,N,00949.3158590,E,2,5,1.5,-3.671,M,40.595,M,2.9,0123*56
$GPVTG,302.07,T,-337.83,M,006.295,N,011.658,K,D*02
$GPGGA,095226.45,5703.0318755,N,00949.3157253,E,2,5,1.5,-3.664,M,40.595,M,3.1,0123*52
$GPVTG,302.36,T,-337.54,M,006.284,N,011.639,K,D*0D
$GPGGA,095226.50,5703.0319219,N,00949.3155932,E,2,5,1.5,-3.664,M,40.595,M,3.1,0123*54
$GPVTG,302.54,T,-337.36,M,006.262,N,011.597,K,D*02
$GPGGA,095226.55,5703.0319683,N,00949.3154576,E,2,5,1.5,-3.664,M,40.595,M,3.1,0123*5B
$GPVTG,302.53,T,-337.37,M,006.267,N,011.607,K,D*0B
$GPGGA,095226.60,5703.0320132,N,00949.3153215,E,2,5,1.5,-3.662,M,40.595,M,3.1,0123*59
$GPVTG,302.37,T,-337.53,M,006.266,N,011.605,K,D*08
$GPGGA,095226.65,5703.0320547,N,00949.3151855,E,2,5,1.5,-3.669,M,40.595,M,3.3,0123*5F
$GPVTG,302.29,T,-337.61,M,006.258,N,011.590,K,D*04
$GPGGA,095226.70,5703.0320976,N,00949.3150539,E,2,5,1.5,-3.671,M,40.595,M,3.3,0123*5A
$GPVTG,302.10,T,-337.80,M,006.208,N,011.497,K,D*02
$GPGGA,095226.75,5703.0321467,N,00949.3149180,E,2,5,1.5,-3.674,M,40.595,M,3.3,0123*58
$GPVTG,302.38,T,-337.52,M,006.243,N,011.561,K,D*00
$GPGGA,095226.80,5703.0321925,N,00949.3147828,E,2,5,1.5,-3.675,M,40.595,M,3.3,0123*5D
$GPVTG,302.31,T,-337.59,M,006.245,N,011.566,K,D*03
$GPGGA,095226.85,5703.0322370,N,00949.3146506,E,2,5,1.5,-3.668,M,40.595,M,3.5,0123*5B
$GPVTG,302.26,T,-337.64,M,006.201,N,011.485,K,D*07
$GPGGA,095226.90,5703.0322803,N,00949.3145165,E,2,5,1.5,-3.664,M,40.595,M,3.5,0123*5E
$GPVTG,301.83,T,-338.07,M,006.173,N,011.433,K,D*0A
$GPGGA,095226.95,5703.0323276,N,00949.3143808,E,2,5,1.5,-3.663,M,40.595,M,3.5,0123*51
$GPVTG,302.03,T,-337.87,M,006.208,N,011.497,K,D*07
$GPGGA,095227.00,5703.0323728,N,00949.3142447,E,2,5,1.5,-3.664,M,40.595,M,3.5,0123*53
$GPVTG,301.87,T,-338.03,M,006.219,N,011.518,K,D*0D
$GPGGA,095227.05,5703.0324200,N,00949.3141125,E,2,5,1.5,-3.667,M,40.595,M,2.1,0123*5A
$GPVTG,302.43,T,-337.47,M,006.226,N,011.531,K,D*0E
$GPGGA,095227.10,5703.0324668,N,00949.3139811,E,2,5,1.5,-3.667,M,40.595,M,2.1,0123*55
$GPVTG,302.64,T,-337.26,M,006.212,N,011.504,K,D*0D
$GPGGA,095227.15,5703.0325112,N,00949.3138449,E,2,5,1.5,-3.666,M,40.595,M,2.1,0123*5A
$GPVTG,302.31,T,-337.59,M,006.218,N,011.515,K,D*0F
$GPGGA,095227.20,5703.0325552,N,00949.3137074,E,2,5,1.5,-3.668,M,40.595,M,2.1,0123*57
$GPVTG,301.90,T,-338.00,M,006.230,N,011.539,K,D*00
$GPGGA,095227.25,5703.0325998,N,00949.3135742,E,2,5,1.5,-3.654,M,40.595,M,2.4,0123*52
$GPVTG,302.14,T,-337.76,M,006.213,N,011.507,K,D*0D
$GPGGA,095227.30,5703.0326470,N,00949.3134437,E,2,5,1.5,-3.654,M,40.595,M,2.4,0123*5E
$GPVTG,302.45,T,-337.45,M,006.197,N,011.476,K,D*01
$GPGGA,095227.35,5703.0326936,N,00949.3133098,E,2,5,1.5,-3.652,M,40.595,M,2.4,0123*54
$GPVTG,302.51,T,-337.39,M,006.205,N,011.492,K,D*0D
$GPGGA,095227.40,5703.0327380,N,00949.3131742,E,2,5,1.5,-3.648,M,40.595,M,2.4,0123*59
$GPVTG,302.22,T,-337.68,M,006.209,N,011.498,K,D*0B
$GPGGA,095227.45,5703.0327829,N,00949.3130417,E,2,5,1.5,-3.651,M,40.595,M,2.7,0123*5D
$GPVTG,302.30,T,-337.60,M,006.201,N,011.485,K,D*04
$GPGGA,095227.50,5703.0328327,N,00949.3129069,E,2,5,1.5,-3.650,M,40.595,M,2.7,0123*57
$GPVTG,302.69,T,-337.21,M,006.243,N,011.562,K,D*03
$GPGGA,095227.55,5703.0328790,N,00949.3127760,E,2,5,1.5,-3.646,M,40.595,M,2.7,0123*5D
$GPVTG,302.81,T,-337.09,M,006.220,N,011.520,K,D*0C
$GPGGA,095227.60,5703.0329223,N,00949.3126409,E,2,5,1.5,-3.641,M,40.595,M,2.7,0123*5D
$GPVTG,302.37,T,-337.53,M,006.209,N,011.500,K,D*07
$GPGGA,095227.65,5703.0329686,N,00949.3125010,E,2,5,1.5,-3.644,M,40.595,M,2.9,0123*57
$GPVTG,302.25,T,-337.65,M,006.273,N,011.617,K,D*09
$GPGGA,095227.70,5703.0330149,N,00949.3123677,E,2,5,1.5,-3.643,M,40.595,M,2.9,0123*59
$GPVTG,302.30,T,-337.60,M,006.265,N,011.602,K,D*0B
$GPGGA,095227.75,5703.0330599,N,00949.3122340,E,2,5,1.5,-3.647,M,40.595,M,2.9,0123*51
$GPVTG,302.18,T,-337.72,M,006.250,N,011.575,K,D*07
$GPGGA,095227.80,5703.0331065,N,00949.3120993,E,2,5,1.5,-3.648,M,40.595,M,2.9,0123*55
$GPVTG,302.21,T,-337.69,M,006.257,N,011.587,K,D*0D
$GPGGA,095227.85,5703.0331504,N,00949.3119652,E,2,5,1.5,-3.650,M,40.595,M,3.2,0123*59
$GPVTG,302.25,T,-337.65,M,006.244,N,011.564,K,D*0A
$GPGGA,095227.90,5703.0331971,N,00949.3118316,E,2,5,1.5,-3.652,M,40.595,M,3.2,0123*55
$GPVTG,302.34,T,-337.56,M,006.244,N,011.565,K,D*0B
$GPGGA,095227.95,5703.0332465,N,00949.3116968,E,2,5,1.5,-3.652,M,40.595,M,3.2,0123*56
$GPVTG,302.68,T,-337.22,M,006.275,N,011.620,K,D*01
$GPGGA,095228.00,5703.0332909,N,00949.3115647,E,2,5,1.5,-3.657,M,40.595,M,3.2,0123*56
$GPVTG,302.53,T,-337.37,M,006.241,N,011.558,K,D*06
$GPGGA,095228.05,5703.0333353,N,00949.3114289,E,2,5,1.5,-3.658,M,40.595,M,1.7,0123*58
$GPVTG,302.49,T,-337.41,M,006.246,N,011.567,K,D*07
$GPGGA,095228.10,5703.0333824,N,00949.3112934,E,2,5,1.5,-3.660,M,40.595,M,1.7,0123*57
$GPVTG,302.51,T,-337.39,M,006.262,N,011.598,K,D*07
$GPGGA,095228.15,5703.0334308,N,00949.3111612,E,2,5,1.5,-3.665,M,40.595,M,1.7,0123*5D
$GPVTG,302.81,T,-337.09,M,006.262,N,011.598,K,D*09
$GPGGA,095228.20,5703.0334786,N,00949.3110283,E,2,5,1.5,-3.670,M,40.595,M,1.7,0123*50
$GPVTG,302.99,T,-336.91,M,006.262,N,011.597,K,D*0F
$GPGGA,095228.25,5703.0335256,N,00949.3108933,E,2,5,1.5,-3.649,M,40.595,M,1.9,0123*51
$GPVTG,303.25,T,-336.65,M,006.263,N,011.598,K,D*0C
$GPGGA,095228.30,5703.0335730,N,00949.3107601,E,2,5,1.5,-3.650,M,40.595,M,1.9,0123*59
$GPVTG,303.31,T,-336.59,M,006.263,N,011.599,K,D*07
$GPGGA,095228.35,5703.0336199,N,00949.3106278,E,2,5,1.5,-3.653,M,40.595,M,1.9,0123*52
$GPVTG,303.34,T,-336.56,M,006.254,N,011.583,K,D*02
$GPGGA,095228.40,5703.0336636,N,00949.3104920,E,2,5,1.5,-3.652,M,40.595,M,1.9,0123*57
$GPVTG,302.93,T,-336.97,M,006.247,N,011.570,K,D*0D
$GPGGA,095228.45,5703.0337105,N,00949.3103596,E,2,5,1.5,-3.638,M,40.595,M,2.2,0123*56
$GPVTG,303.22,T,-336.68,M,006.249,N,011.574,K,D*0C
$GPGGA,095228.50,5703.0337566,N,00949.3102278,E,2,5,1.5,-3.636,M,40.595,M,2.2,0123*5B
$GPVTG,303.18,T,-336.72,M,006.232,N,011.541,K,D*04
$GPGGA,095228.55,5703.0338012,N,00949.3100949,E,2,5,1.5,-3.634,M,40.595,M,2.2,0123*5E
$GPVTG,302.95,T,-336.95,M,006.213,N,011.506,K,D*09
$GPGGA,095228.60,5703.0338507,N,00949.3099620,E,2,5,1.5,-3.632,M,40.595,M,2.2,0123*5E
$GPVTG,303.22,T,-336.68,M,006.231,N,011.540,K,D*04
$GPGGA,095228.65,5703.0338964,N,00949.3098208,E,2,5,1.5,-3.643,M,40.595,M,2.4,0123*5D
$GPVTG,302.40,T,-337.50,M,006.238,N,011.553,K,D*00
$GPGGA,095228.70,5703.0339428,N,00949.3096858,E,2,5,1.5,-3.645,M,40.595,M,2.4,0123*5A
$GPVTG,302.32,T,-337.58,M,006.249,N,011.574,K,D*0E
$GPGGA,095228.75,5703.0339871,N,00949.3095552,E,2,5,1.5,-3.647,M,40.595,M,2.4,0123*59
$GPVTG,302.21,T,-337.70,M,006.201,N,011.484,K,D*04
$GPGGA,095228.80,5703.0340351,N,00949.3094240,E,2,5,1.5,-3.647,M,40.595,M,2.4,0123*51
$GPVTG,302.55,T,-337.35,M,006.197,N,011.477,K,D*06
$GPGGA,095228.85,5703.0340822,N,00949.3092913,E,2,5,1.5,-3.641,M,40.595,M,2.7,0123*55
$GPVTG,302.92,T,-336.98,M,006.198,N,011.480,K,D*0C
$GPGGA,095228.90,5703.0341278,N,00949.3091571,E,2,5,1.5,-3.643,M,40.595,M,2.7,0123*5C
$GPVTG,302.73,T,-337.17,M,006.201,N,011.485,K,D*03
$GPGGA,095228.95,5703.0341778,N,00949.3090247,E,2,5,1.5,-3.645,M,40.595,M,2.7,0123*59
$GPVTG,303.15,T,-336.75,M,006.226,N,011.530,K,D*0D
$GPGGA,095229.00,5703.0342230,N,00949.3088908,E,2,5,1.5,-3.648,M,40.595,M,2.7,0123*5A
$GPVTG,302.90,T,-337.00,M,006.219,N,011.518,K,D*04
$GPGGA,095229.05,5703.0342692,N,00949.3087583,E,2,5,1.5,-3.635,M,40.595,M,1.5,0123*58
$GPVTG,303.07,T,-336.83,M,006.202,N,011.486,K,D*0D
$GPGGA,095229.10,5703.0343172,N,00949.3086253,E,2,5,1.5,-3.636,M,40.595,M,1.5,0123*5C
$GPVTG,303.18,T,-336.72,M,006.215,N,011.510,K,D*05
$GPGGA,095229.15,5703.0343595,N,00949.3084942,E,2,5,1.5,-3.638,M,40.595,M,1.5,0123*53
$GPVTG,302.71,T,-337.19,M,006.165,N,011.418,K,D*0A
$GPGGA,095229.20,5703.0344060,N,00949.3083583,E,2,5,1.5,-3.637,M,40.595,M,1.5,0123*54
$GPVTG,302.55,T,-337.35,M,006.194,N,011.472,K,D*00
$GPGGA,095229.25,5703.0344521,N,00949.3082227,E,2,5,1.5,-3.611,M,40.595,M,1.8,0123*50
$GPVTG,302.61,T,-337.29,M,006.199,N,011.481,K,D*0B
$GPGGA,095229.30,5703.0345007,N,00949.3080880,E,2,5,1.5,-3.610,M,40.595,M,1.8,0123*50
$GPVTG,302.78,T,-337.12,M,006.232,N,011.542,K,D*07
$GPGGA,095229.35,5703.0345502,N,00949.3079556,E,2,5,1.5,-3.608,M,40.595,M,1.8,0123*5C
$GPVTG,303.12,T,-336.78,M,006.249,N,011.574,K,D*0E
$GPGGA,095229.40,5703.0345957,N,00949.3078301,E,2,5,1.5,-3.606,M,40.595,M,1.8,0123*59
$GPVTG,303.31,T,-336.59,M,006.178,N,011.441,K,D*0A
$GPGGA,095229.45,5703.0346428,N,00949.3076927,E,2,5,1.5,-3.610,M,40.595,M,2.0,0123*56
$GPVTG,303.08,T,-336.82,M,006.226,N,011.530,K,D*09
$GPGGA,095229.50,5703.0346878,N,00949.3075564,E,2,5,1.5,-3.612,M,40.595,M,2.0,0123*51
$GPVTG,302.69,T,-337.21,M,006.239,N,011.554,K,D*0B
$GPGGA,095229.55,5703.0347356,N,00949.3074282,E,2,5,1.5,-3.613,M,40.595,M,2.0,0123*5D
$GPVTG,303.05,T,-336.85,M,006.208,N,011.498,K,D*0C
$GPGGA,095229.60,5703.0347846,N,00949.3072987,E,2,5,1.5,-3.615,M,40.595,M,2.0,0123*5F
$GPVTG,303.43,T,-336.47,M,006.201,N,011.485,K,D*05
$GPGGA,095229.65,5703.0348296,N,00949.3071657,E,2,5,1.5,-3.608,M,40.595,M,2.2,0123*5D
$GPVTG,303.41,T,-336.49,M,006.193,N,011.469,K,D*03
$GPGGA,095229.70,5703.0348807,N,00949.3070296,E,2,5,1.5,-3.610,M,40.595,M,2.2,0123*5A
$GPVTG,303.50,T,-336.40,M,006.238,N,011.553,K,D*00
$GPGGA,095229.75,5703.0349276,N,00949.3068937,E,2,5,1.5,-3.609,M,40.595,M,2.2,0123*53
$GPVTG,303.35,T,-336.55,M,006.262,N,011.596,K,D*01
$GPGGA,095229.80,5703.0349743,N,00949.3067626,E,2,5,1.5,-3.613,M,40.595,M,2.2,0123*51
$GPVTG,303.38,T,-336.52,M,006.248,N,011.571,K,D*0A
$GPGGA,095229.85,5703.0350234,N,00949.3066306,E,2,5,1.5,-3.600,M,40.595,M,2.5,0123*5A
$GPVTG,303.60,T,-336.30,M,006.243,N,011.562,K,D*0A
$GPGGA,095229.90,5703.0350701,N,00949.3064968,E,2,5,1.5,-3.601,M,40.595,M,2.5,0123*5C
$GPVTG,303.51,T,-336.39,M,006.249,N,011.574,K,D*0C
$GPGGA,095229.95,5703.0351166,N,00949.3063653,E,2,5,1.5,-3.600,M,40.595,M,2.5,0123*5E
$GPVTG,303.50,T,-336.40,M,006.239,N,011.555,K,D*07
$GPGGA,095230.00,5703.0351639,N,00949.3062315,E,2,5,1.5,-3.601,M,40.595,M,2.5,0123*50
$GPVTG,303.44,T,-336.46,M,006.249,N,011.573,K,D*07
$GPGGA,095230.05,5703.0352142,N,00949.3060952,E,2,5,1.5,-3.590,M,40.595,M,2.7,0123*5F
$GPVTG,303.61,T,-336.29,M,006.284,N,011.638,K,D*04
$GPGGA,095230.10,5703.0352623,N,00949.3059636,E,2,5,1.5,-3.588,M,40.595,M,2.7,0123*55
$GPVTG,303.70,T,-336.20,M,006.278,N,011.627,K,D*00
$GPGGA,095230.15,5703.0353118,N,00949.3058339,E,2,5,1.5,-3.587,M,40.595,M,2.7,0123*5A
$GPVTG,303.96,T,-335.94,M,006.267,N,011.607,K,D*08
$GPGGA,095230.20,5703.0353595,N,00949.3056975,E,2,5,1.5,-3.587,M,40.595,M,2.7,0123*51
$GPVTG,303.77,T,-336.13,M,006.295,N,011.658,K,D*0C
$GPGGA,095230.25,5703.0354013,N,00949.3055646,E,2,5,1.5,-3.589,M,40.595,M,2.9,0123*54
$GPVTG,303.55,T,-336.35,M,006.256,N,011.586,K,D*07
$GPGGA,095230.30,5703.0354480,N,00949.3054339,E,2,5,1.5,-3.589,M,40.595,M,2.9,0123*52
$GPVTG,303.54,T,-336.36,M,006.233,N,011.544,K,D*08
$GPGGA,095230.35,5703.0354993,N,00949.3053003,E,2,5,1.5,-3.589,M,40.595,M,2.9,0123*55
$GPVTG,303.85,T,-336.05,M,006.270,N,011.611,K,D*00
$GPGGA,095230.40,5703.0355431,N,00949.3051654,E,2,5,1.5,-3.590,M,40.595,M,2.9,0123*5D
$GPVTG,303.31,T,-336.59,M,006.258,N,011.590,K,D*06
$GPGGA,095230.45,5703.0355864,N,00949.3050329,E,2,5,1.5,-3.578,M,40.595,M,3.1,0123*55
$GPVTG,303.08,T,-336.82,M,006.219,N,011.517,K,D*00
$GPGGA,095230.50,5703.0356358,N,00949.3049036,E,2,5,1.5,-3.575,M,40.595,M,3.1,0123*5E
$GPVTG,303.43,T,-336.47,M,006.209,N,011.499,K,D*00
$GPGGA,095230.55,5703.0356835,N,00949.3047704,E,2,5,1.5,-3.575,M,40.595,M,3.1,0123*53
$GPVTG,303.41,T,-336.49,M,006.219,N,011.517,K,D*0A
$GPGGA,095230.60,5703.0357323,N,00949.3046404,E,2,5,1.5,-3.574,M,40.595,M,3.1,0123*5B
$GPVTG,303.63,T,-336.27,M,006.211,N,011.503,K,D*0F
$GPGGA,095230.65,5703.0357782,N,00949.3045062,E,2,5,1.5,-3.566,M,40.595,M,3.3,0123*57
$GPVTG,303.49,T,-336.41,M,006.212,N,011.504,K,D*03
$GPGGA,095230.70,5703.0358237,N,00949.3043758,E,2,5,1.5,-3.564,M,40.595,M,3.3,0123*5D
$GPVTG,303.37,T,-336.53,M,006.186,N,011.456,K,D*01
$GPGGA,095230.75,5703.0358720,N,00949.3042405,E,2,5,1.5,-3.562,M,40.595,M,3.3,0123*57
$GPVTG,303.30,T,-336.60,M,006.218,N,011.516,K,D*07
$GPGGA,095230.80,5703.0359226,N,00949.3041094,E,2,5,1.5,-3.562,M,40.595,M,3.3,0123*50
$GPVTG,303.64,T,-336.26,M,006.232,N,011.542,K,D*0D
$GPGGA,095230.85,5703.0359699,N,00949.3039764,E,2,5,1.6,-3.551,M,40.595,M,3.5,0123*57
$GPVTG,303.57,T,-336.33,M,006.221,N,011.522,K,D*0D
$GPGGA,095230.90,5703.0360161,N,00949.3038478,E,2,5,1.6,-3.552,M,40.595,M,3.5,0123*55
$GPVTG,303.52,T,-336.38,M,006.177,N,011.441,K,D*07
$GPGGA,095230.95,5703.0360632,N,00949.3037176,E,2,5,1.6,-3.553,M,40.595,M,3.5,0123*54
$GPVTG,303.54,T,-336.36,M,006.164,N,011.416,K,D*0F
$GPGGA,095231.00,5703.0361105,N,00949.3035842,E,2,5,1.6,-3.554,M,40.595,M,3.5,0123*50
$GPVTG,303.43,T,-336.47,M,006.182,N,011.450,K,D*05
$GPGGA,095231.05,5703.0361548,N,00949.3034491,E,2,5,1.6,-3.555,M,40.595,M,2.1,0123*5F
$GPVTG,303.07,T,-336.83,M,006.187,N,011.458,K,D*00
$GPGGA,095231.10,5703.0362017,N,00949.3033193,E,2,5,1.6,-3.556,M,40.595,M,2.1,0123*54
$GPVTG,303.16,T,-336.74,M,006.170,N,011.427,K,D*08
$GPGGA,095231.15,5703.0362489,N,00949.3031864,E,2,5,1.6,-3.558,M,40.595,M,2.1,0123*5F
$GPVTG,303.12,T,-336.78,M,006.182,N,011.449,K,D*05
$GPGGA,095231.20,5703.0362954,N,00949.3030532,E,2,5,1.6,-3.561,M,40.595,M,2.1,0123*51
$GPVTG,302.97,T,-336.93,M,006.190,N,011.464,K,D*00
$GPGGA,095231.25,5703.0363388,N,00949.3029181,E,2,5,1.6,-3.541,M,40.595,M,2.4,0123*5D
$GPVTG,302.66,T,-337.24,M,006.173,N,011.432,K,D*0D
$GPGGA,095231.30,5703.0363876,N,00949.3027870,E,2,5,1.6,-3.539,M,40.595,M,2.4,0123*55
$GPVTG,302.97,T,-336.93,M,006.184,N,011.453,K,D*01
$GPGGA,095231.35,5703.0364338,N,00949.3026531,E,2,5,1.6,-3.537,M,40.595,M,2.4,0123*51
$GPVTG,302.79,T,-337.11,M,006.195,N,011.473,K,D*08
$GPGGA,095231.40,5703.0364816,N,00949.3025194,E,2,5,1.6,-3.535,M,40.595,M,2.4,0123*5E
$GPVTG,302.85,T,-337.05,M,006.216,N,011.512,K,D*00
$GPGGA,095231.45,5703.0365295,N,00949.3023859,E,2,5,1.6,-3.539,M,40.595,M,2.7,0123*5A
$GPVTG,302.89,T,-337.01,M,006.232,N,011.542,K,D*0B
$GPGGA,095231.50,5703.0365744,N,00949.3022554,E,2,5,1.6,-3.537,M,40.595,M,2.7,0123*58
$GPVTG,302.77,T,-337.13,M,006.199,N,011.480,K,D*04
$GPGGA,095231.55,5703.0366192,N,00949.3021230,E,2,5,1.6,-3.539,M,40.595,M,2.7,0123*5B
$GPVTG,302.54,T,-337.36,M,006.184,N,011.453,K,D*00
$GPGGA,095231.60,5703.0366650,N,00949.3019867,E,2,5,1.6,-3.543,M,40.595,M,2.7,0123*5A
$GPVTG,302.28,T,-337.62,M,006.210,N,011.500,K,D*03
$GPGGA,095231.65,5703.0367156,N,00949.3018500,E,2,5,1.6,-3.527,M,40.595,M,2.9,0123*5E
$GPVTG,302.77,T,-337.13,M,006.262,N,011.598,K,D*0B
$GPGGA,095231.70,5703.0367632,N,00949.3017179,E,2,5,1.6,-3.527,M,40.595,M,2.9,0123*5A
$GPVTG,302.91,T,-336.99,M,006.260,N,011.593,K,D*09
$GPGGA,095231.75,5703.0368093,N,00949.3015871,E,2,5,1.6,-3.526,M,40.595,M,2.9,0123*5F
$GPVTG,302.92,T,-336.98,M,006.232,N,011.543,K,D*01
$GPGGA,095231.80,5703.0368570,N,00949.3014530,E,2,5,1.6,-3.524,M,40.595,M,2.9,0123*56
$GPVTG,302.96,T,-336.94,M,006.250,N,011.574,K,D*09
$GPGGA,095231.85,5703.0369057,N,00949.3013170,E,2,5,1.6,-3.520,M,40.595,M,3.2,0123*5B
$GPVTG,303.13,T,-336.77,M,006.274,N,011.620,K,D*0C
$GPGGA,095231.90,5703.0369495,N,00949.3011865,E,2,5,1.6,-3.520,M,40.595,M,3.2,0123*5A
$GPVTG,302.89,T,-337.01,M,006.220,N,011.519,K,D*06
$GPGGA,095231.95,5703.0369966,N,00949.3010525,E,2,5,1.6,-3.519,M,40.595,M,3.2,0123*5C
$GPVTG,302.86,T,-337.04,M,006.232,N,011.541,K,D*02
$GPGGA,095232.00,5703.0370452,N,00949.3009165,E,2,5,1.6,-3.520,M,40.595,M,3.2,0123*53
$GPVTG,302.90,T,-337.00,M,006.272,N,011.616,K,D*04
$GPGGA,095232.05,5703.0370911,N,00949.3007797,E,2,5,1.6,-3.524,M,40.595,M,1.7,0123*5A
$GPVTG,302.68,T,-337.22,M,006.284,N,011.638,K,D*06
$GPGGA,095232.10,5703.0371417,N,00949.3006454,E,2,5,1.6,-3.526,M,40.595,M,1.7,0123*5B
$GPVTG,303.08,T,-336.82,M,006.317,N,011.700,K,D*0B
$GPGGA,095232.15,5703.0371888,N,00949.3005139,E,2,5,1.6,-3.527,M,40.595,M,1.7,0123*58
$GPVTG,303.18,T,-336.72,M,006.293,N,011.654,K,D*08
$GPGGA,095232.20,5703.0372347,N,00949.3003801,E,2,5,1.6,-3.525,M,40.595,M,1.7,0123*53
$GPVTG,303.00,T,-336.90,M,006.280,N,011.631,K,D*0C
$GPGGA,095232.25,5703.0372847,N,00949.3002461,E,2,5,1.6,-3.522,M,40.595,M,1.9,0123*5F
$GPVTG,303.43,T,-336.47,M,006.297,N,011.661,K,D*02
