69,M,40.595,M,2.4,0123*77
$GPVTG,293.32,T,-346.58,M,006.058,N,011.219,K,D*0F
$GPGGA,094912.70,5702.8921984,N,00949.8686586,E,2,5,1.5,9.265,M,40.595,M,2.4,0123*7B
$GPVTG,292.99,T,-346.91,M,006.066,N,011.234,K,D*08
$GPGGA,094912.75,5702.8922296,N,00949.8685207,E,2,5,1.5,9.261,M,40.595,M,2.4,0123*7C
$GPVTG,292.87,T,-347.03,M,006.028,N,011.163,K,D*06
$GPGGA,094912.80,5702.8922631,N,00949.8683797,E,2,5,1.5,9.261,M,40.595,M,2.4,0123*75
$GPVTG,292.97,T,-346.93,M,006.034,N,011.175,K,D*05
$GPGGA,094912.85,5702.8923102,N,00949.8682182,E,2,5,1.5,9.249,M,40.595,M,2.7,0123*7C
$GPVTG,293.03,T,-346.87,M,006.031,N,011.170,K,D*0C
$GPGGA,094912.90,5702.8923450,N,00949.8680794,E,2,5,1.5,9.251,M,40.595,M,2.7,0123*70
$GPVTG,293.36,T,-346.54,M,006.026,N,011.160,K,D*03
$GPGGA,094912.95,5702.8923778,N,00949.8679394,E,2,5,1.5,9.253,M,40.595,M,2.7,0123*7C
$GPVTG,293.36,T,-346.54,M,006.019,N,011.148,K,D*05
$GPGGA,094913.00,5702.8924093,N,00949.8677971,E,2,5,1.5,9.255,M,40.595,M,2.7,0123*7D
$GPVTG,293.10,T,-346.80,M,006.025,N,011.159,K,D*07
$GPGGA,094913.05,5702.8924576,N,00949.8676370,E,2,5,1.5,9.258,M,40.595,M,1.5,0123*70
$GPVTG,293.11,T,-346.79,M,006.011,N,011.132,K,D*0A
$GPGGA,094913.10,5702.8924879,N,00949.8674976,E,2,5,1.5,9.262,M,40.595,M,1.5,0123*71
$GPVTG,292.83,T,-347.07,M,005.986,N,011.086,K,D*02
$GPGGA,094913.15,5702.8925242,N,00949.8673626,E,2,5,1.5,9.264,M,40.595,M,1.5,0123*7C
$GPVTG,293.52,T,-346.38,M,005.962,N,011.041,K,D*03
$GPGGA,094913.20,5702.8925620,N,00949.8672247,E,2,5,1.5,9.267,M,40.595,M,1.5,0123*7B
$GPVTG,294.23,T,-345.67,M,005.976,N,011.067,K,D*0A
$GPGGA,094913.25,5702.8926107,N,00949.8670646,E,2,5,1.5,9.239,M,40.595,M,1.8,0123*7E
$GPVTG,294.10,T,-345.80,M,005.997,N,011.107,K,D*0B
$GPGGA,094913.30,5702.8926405,N,00949.8669211,E,2,5,1.5,9.234,M,40.595,M,1.8,0123*7E
$GPVTG,293.76,T,-346.14,M,006.014,N,011.138,K,D*0F
$GPGGA,094913.35,5702.8926727,N,00949.8667808,E,2,5,1.5,9.229,M,40.595,M,1.8,0123*78
$GPVTG,293.67,T,-346.23,M,006.013,N,011.136,K,D*02
$GPGGA,094913.40,5702.8927042,N,00949.8666375,E,2,5,1.5,9.226,M,40.595,M,1.8,0123*70
$GPVTG,293.43,T,-346.47,M,006.032,N,011.171,K,D*06
$GPGGA,094913.45,5702.8927535,N,00949.8664725,E,2,5,1.5,9.230,M,40.595,M,2.0,0123*7F
$GPVTG,293.35,T,-346.55,M,006.051,N,011.206,K,D*02
$GPGGA,094913.50,5702.8927894,N,00949.8663344,E,2,5,1.5,9.227,M,40.595,M,2.0,0123*7F
$GPVTG,293.63,T,-346.27,M,006.041,N,011.188,K,D*00
$GPGGA,094913.55,5702.8928190,N,00949.8661902,E,2,5,1.5,9.222,M,40.595,M,2.0,0123*77
$GPVTG,293.23,T,-346.67,M,006.056,N,011.215,K,D*01
$GPGGA,094913.60,5702.8928521,N,00949.8660462,E,2,5,1.5,9.219,M,40.595,M,2.0,0123*7D
$GPVTG,293.13,T,-346.77,M,006.079,N,011.259,K,D*06
$GPGGA,094913.65,5702.8928973,N,00949.8658831,E,2,5,1.5,9.207,M,40.595,M,2.2,0123*7F
$GPVTG,292.77,T,-347.13,M,006.074,N,011.249,K,D*0A
$GPGGA,094913.70,5702.8929324,N,00949.8657441,E,2,5,1.5,9.208,M,40.595,M,2.2,0123*79
$GPVTG,293.05,T,-346.85,M,006.062,N,011.227,K,D*0F
$GPGGA,094913.75,5702.8929682,N,00949.8656033,E,2,5,1.5,9.211,M,40.595,M,2.2,0123*7D
$GPVTG,293.31,T,-346.59,M,006.069,N,011.240,K,D*03
$GPGGA,094913.80,5702.8930008,N,00949.8654592,E,2,5,1.5,9.212,M,40.595,M,2.2,0123*74
$GPVTG,293.17,T,-346.73,M,006.088,N,011.275,K,D*06
$GPGGA,094913.85,5702.8930442,N,00949.8652952,E,2,5,1.5,9.199,M,40.595,M,2.5,0123*7A
$GPVTG,292.91,T,-346.99,M,006.087,N,011.273,K,D*04
$GPGGA,094913.90,5702.8930759,N,00949.8651550,E,2,5,1.5,9.197,M,40.595,M,2.5,0123*74
$GPVTG,292.84,T,-347.06,M,006.069,N,011.239,K,D*09
$GPGGA,094913.95,5702.8931070,N,00949.8650174,E,2,5,1.5,9.196,M,40.595,M,2.5,0123*7E
$GPVTG,292.81,T,-347.09,M,006.028,N,011.163,K,D*0A
$GPGGA,094914.00,5702.8931358,N,00949.8648750,E,2,5,1.5,9.199,M,40.595,M,2.5,0123*7A
$GPVTG,292.39,T,-347.51,M,006.020,N,011.149,K,D*04
$GPGGA,094914.05,5702.8931795,N,00949.8647127,E,2,5,1.5,9.197,M,40.595,M,2.7,0123*7F
$GPVTG,292.04,T,-347.86,M,006.000,N,011.112,K,D*0C
$GPGGA,094914.10,5702.8932110,N,00949.8645700,E,2,5,1.5,9.197,M,40.595,M,2.7,0123*72
$GPVTG,291.95,T,-347.95,M,006.009,N,011.129,K,D*04
$GPGGA,094914.15,5702.8932445,N,00949.8644294,E,2,5,1.5,9.198,M,40.595,M,2.7,0123*74
$GPVTG,292.19,T,-347.71,M,006.010,N,011.130,K,D*09
$GPGGA,094914.20,5702.8932750,N,00949.8642856,E,2,5,1.5,9.200,M,40.595,M,2.7,0123*75
$GPVTG,291.95,T,-347.95,M,006.022,N,011.153,K,D*00
$GPGGA,094914.25,5702.8933184,N,00949.8641210,E,2,5,1.5,9.187,M,40.595,M,2.9,0123*77
$GPVTG,291.58,T,-348.32,M,006.028,N,011.164,K,D*0D
$GPGGA,094914.30,5702.8933503,N,00949.8639805,E,2,5,1.5,9.182,M,40.595,M,2.9,0123*7C
$GPVTG,291.78,T,-348.12,M,006.019,N,011.147,K,D*0E
$GPGGA,094914.35,5702.8933829,N,00949.8638373,E,2,5,1.5,9.179,M,40.595,M,2.9,0123*73
$GPVTG,291.96,T,-347.94,M,006.039,N,011.184,K,D*02
$GPGGA,094914.40,5702.8934160,N,00949.8636964,E,2,5,1.5,9.176,M,40.595,M,2.9,0123*7F
$GPVTG,292.24,T,-347.66,M,006.039,N,011.183,K,D*02
$GPGGA,094914.45,5702.8934609,N,00949.8635298,E,2,5,1.5,9.171,M,40.595,M,3.1,0123*77
$GPVTG,292.12,T,-347.78,M,006.064,N,011.230,K,D*0B
$GPGGA,094914.50,5702.8934869,N,00949.8633850,E,2,5,1.5,9.170,M,40.595,M,3.1,0123*72
$GPVTG,291.23,T,-348.67,M,006.051,N,011.207,K,D*09
$GPGGA,094914.55,5702.8935164,N,00949.8632407,E,2,5,1.5,9.171,M,40.595,M,3.1,0123*7C
$GPVTG,290.98,T,-348.92,M,006.056,N,011.215,K,D*06
$GPGGA,094914.60,5702.8935484,N,00949.8631003,E,2,5,1.5,9.170,M,40.595,M,3.1,0123*73
$GPVTG,291.23,T,-348.67,M,006.039,N,011.184,K,D*0F
$GPGGA,094914.65,5702.8935895,N,00949.8629344,E,2,5,1.5,9.163,M,40.595,M,3.3,0123*73
$GPVTG,290.72,T,-349.18,M,006.056,N,011.215,K,D*01
$GPGGA,094914.70,5702.8936161,N,00949.8627953,E,2,5,1.5,9.162,M,40.595,M,3.3,0123*75
$GPVTG,290.32,T,-349.58,M,005.997,N,011.107,K,D*06
$GPGGA,094914.75,5702.8936437,N,00949.8626535,E,2,5,1.5,9.164,M,40.595,M,3.3,0123*7D
$GPVTG,290.04,T,-349.86,M,005.977,N,011.069,K,D*07
$GPGGA,094914.80,5702.8936779,N,00949.8625092,E,2,5,1.5,9.165,M,40.595,M,3.3,0123*74
$GPVTG,290.64,T,-349.26,M,006.015,N,011.140,K,D*0F
$GPGGA,094914.85,5702.8937173,N,00949.8623475,E,2,5,1.5,9.154,M,40.595,M,3.5,0123*73
$GPVTG,290.09,T,-349.81,M,006.005,N,011.121,K,D*0F
$GPGGA,094914.90,5702.8937461,N,00949.8622085,E,2,5,1.5,9.153,M,40.595,M,3.5,0123*7C
$GPVTG,290.14,T,-349.76,M,005.965,N,011.047,K,D*06
$GPGGA,094914.95,5702.8937756,N,00949.8620639,E,2,5,1.5,9.154,M,40.595,M,3.5,0123*7A
$GPVTG,290.10,T,-349.80,M,005.984,N,011.083,K,D*0C
$GPGGA,094915.00,5702.8938048,N,00949.8619285,E,2,5,1.5,9.152,M,40.595,M,3.5,0123*7F
$GPVTG,290.32,T,-349.58,M,005.918,N,010.961,K,D*08
$GPGGA,094915.05,5702.8938481,N,00949.8617682,E,2,5,1.5,9.146,M,40.595,M,2.1,0123*76
$GPVTG,290.58,T,-349.32,M,005.940,N,011.000,K,D*0A
$GPGGA,094915.10,5702.8938723,N,00949.8616227,E,2,5,1.5,9.142,M,40.595,M,2.1,0123*77
$GPVTG,289.77,T,-350.13,M,005.945,N,011.010,K,D*00
$GPGGA,094915.15,5702.8939034,N,00949.8614816,E,2,5,1.5,9.137,M,40.595,M,2.1,0123*7A
$GPVTG,290.13,T,-349.77,M,005.946,N,011.012,K,D*01
$GPGGA,094915.20,5702.8939317,N,00949.8613376,E,2,5,1.5,9.130,M,40.595,M,2.1,0123*73
$GPVTG,290.00,T,-349.90,M,005.959,N,011.036,K,D*02
$GPGGA,094915.25,5702.8939720,N,00949.8611771,E,2,5,1.5,9.136,M,40.595,M,2.4,0123*74
$GPVTG,290.12,T,-349.78,M,005.953,N,011.025,K,D*0F
$GPGGA,094915.30,5702.8940004,N,00949.8610322,E,2,5,1.5,9.134,M,40.595,M,2.4,0123*7E
$GPVTG,289.98,T,-349.92,M,005.975,N,011.065,K,D*01
$GPGGA,094915.35,5702.8940284,N,00949.8608869,E,2,5,1.5,9.132,M,40.595,M,2.4,0123*7A
$GPVTG,289.82,T,-350.08,M,005.995,N,011.102,K,D*0F
$GPGGA,094915.40,5702.8940572,N,00949.8607415,E,2,5,1.5,9.130,M,40.595,M,2.4,0123*7C
$GPVTG,289.77,T,-350.13,M,006.018,N,011.145,K,D*03
$GPGGA,094915.45,5702.8940973,N,00949.8605803,E,2,5,1.5,9.126,M,40.595,M,2.7,0123*79
$GPVTG,289.70,T,-350.20,M,006.037,N,011.181,K,D*01
$GPGGA,094915.50,5702.8941241,N,00949.8604403,E,2,5,1.5,9.127,M,40.595,M,2.7,0123*7A
$GPVTG,289.58,T,-350.32,M,005.996,N,011.105,K,D*05
$GPGGA,094915.55,5702.8941497,N,00949.8603020,E,2,5,1.5,9.128,M,40.595,M,2.7,0123*7F
$GPVTG,289.36,T,-350.54,M,005.938,N,010.997,K,D*0B
$GPGGA,094915.60,5702.8941794,N,00949.8601638,E,2,5,1.5,9.128,M,40.595,M,2.7,0123*74
$GPVTG,289.74,T,-350.16,M,005.908,N,010.941,K,D*03
$GPGGA,094915.65,5702.8942188,N,00949.8600032,E,2,5,1.5,9.136,M,40.595,M,2.9,0123*75
$GPVTG,289.60,T,-350.30,M,005.936,N,010.993,K,D*00
$GPGGA,094915.70,5702.8942480,N,00949.8598596,E,2,5,1.5,9.139,M,40.595,M,2.9,0123*7A
$GPVTG,289.74,T,-350.16,M,005.952,N,011.023,K,D*00
$GPGGA,094915.75,5702.8942745,N,00949.8597140,E,2,5,1.5,9.144,M,40.595,M,2.9,0123*7F
$GPVTG,289.43,T,-350.47,M,005.97
$GPGGA,094920.15,5702.8966004,N,00949.8467170,E,2,5,1.5,9.343,M,40.595,M,3.4,0123*7F
$GPVTG,285.46,T,-354.44,M,005.977,N,011.070,K,D*0F
$GPGGA,094920.20,5702.8966229,N,00949.8465714,E,2,5,1.5,9.344,M,40.595,M,3.4,0123*75
$GPVTG,285.48,T,-354.42,M,005.964,N,011.046,K,D*00
$GPGGA,094920.25,5702.8966563,N,00949.8464277,E,2,5,1.5,9.352,M,40.595,M,1.9,0123*70
$GPVTG,286.20,T,-353.70,M,005.973,N,011.062,K,D*0B
$GPGGA,094920.30,5702.8966771,N,00949.8462777,E,2,5,1.5,9.351,M,40.595,M,1.9,0123*75
$GPVTG,285.81,T,-354.09,M,005.995,N,011.104,K,D*03
$GPGGA,094920.35,5702.8966995,N,00949.8461288,E,2,5,1.5,9.350,M,40.595,M,1.9,0123*73
$GPVTG,285.72,T,-354.18,M,006.012,N,011.135,K,D*08
$GPGGA,094920.40,5702.8967192,N,00949.8459869,E,2,5,1.5,9.346,M,40.595,M,1.9,0123*76
$GPVTG,285.43,T,-354.47,M,005.953,N,011.025,K,D*0F
$GPGGA,094920.45,5702.8967467,N,00949.8458382,E,2,5,1.5,9.376,M,40.595,M,2.2,0123*78
$GPVTG,285.39,T,-354.51,M,005.972,N,011.059,K,D*0D
$GPGGA,094920.50,5702.8967706,N,00949.8456924,E,2,5,1.5,9.375,M,40.595,M,2.2,0123*73
$GPVTG,285.63,T,-354.27,M,005.970,N,011.057,K,D*0F
$GPGGA,094920.55,5702.8967920,N,00949.8455413,E,2,5,1.5,9.374,M,40.595,M,2.2,0123*77
$GPVTG,285.37,T,-354.53,M,006.008,N,011.126,K,D*0F
$GPGGA,094920.60,5702.8968155,N,00949.8453920,E,2,5,1.5,9.374,M,40.595,M,2.2,0123*7F
$GPVTG,285.49,T,-354.41,M,006.033,N,011.173,K,D*0D
$GPGGA,094920.65,5702.8968434,N,00949.8452435,E,2,5,1.5,9.398,M,40.595,M,2.4,0123*74
$GPVTG,285.42,T,-354.48,M,006.051,N,011.206,K,D*0A
$GPGGA,094920.70,5702.8968647,N,00949.8450969,E,2,5,1.5,9.396,M,40.595,M,2.4,0123*7E
$GPVTG,285.30,T,-354.60,M,006.036,N,011.178,K,D*0E
$GPGGA,094920.75,5702.8968877,N,00949.8449510,E,2,5,1.5,9.393,M,40.595,M,2.4,0123*79
$GPVTG,285.44,T,-354.46,M,006.024,N,011.156,K,D*06
$GPGGA,094920.80,5702.8969111,N,00949.8448030,E,2,5,1.5,9.394,M,40.595,M,2.4,0123*7A
$GPVTG,285.57,T,-354.33,M,006.032,N,011.171,K,D*04
$GPGGA,094920.85,5702.8969374,N,00949.8446553,E,2,5,1.5,9.409,M,40.595,M,2.7,0123*70
$GPVTG,285.36,T,-354.54,M,006.054,N,011.212,K,D*04
$GPGGA,094920.90,5702.8969609,N,00949.8445105,E,2,5,1.5,9.410,M,40.595,M,2.7,0123*77
$GPVTG,285.60,T,-354.30,M,006.030,N,011.168,K,D*09
$GPGGA,094920.95,5702.8969812,N,00949.8443676,E,2,5,1.5,9.412,M,40.595,M,2.7,0123*71
$GPVTG,285.41,T,-354.49,M,005.979,N,011.073,K,D*08
$GPGGA,094921.00,5702.8970051,N,00949.8442217,E,2,5,1.5,9.417,M,40.595,M,2.7,0123*7C
$GPVTG,285.67,T,-354.23,M,005.976,N,011.068,K,D*05
$GPGGA,094921.05,5702.8970322,N,00949.8440820,E,2,5,1.5,9.429,M,40.595,M,2.9,0123*71
$GPVTG,285.56,T,-354.34,M,005.950,N,011.019,K,D*03
$GPGGA,094921.10,5702.8970546,N,00949.8439318,E,2,5,1.5,9.426,M,40.595,M,2.9,0123*70
$GPVTG,285.49,T,-354.41,M,005.985,N,011.085,K,D*02
$GPGGA,094921.15,5702.8970750,N,00949.8437831,E,2,5,1.5,9.423,M,40.595,M,2.9,0123*7B
$GPVTG,285.19,T,-354.71,M,005.995,N,011.102,K,D*0B
$GPGGA,094921.20,5702.8971000,N,00949.8436342,E,2,5,1.5,9.425,M,40.595,M,2.9,0123*76
$GPVTG,285.56,T,-354.34,M,006.023,N,011.154,K,D*05
$GPGGA,094921.25,5702.8971282,N,00949.8434881,E,2,5,1.5,9.450,M,40.595,M,1.8,0123*7D
$GPVTG,285.66,T,-354.24,M,006.033,N,011.173,K,D*03
$GPGGA,094921.30,5702.8971511,N,00949.8433390,E,2,5,1.5,9.450,M,40.595,M,1.8,0123*78
$GPVTG,285.68,T,-354.22,M,006.050,N,011.204,K,D*0D
$GPGGA,094921.35,5702.8971720,N,00949.8431938,E,2,5,1.5,9.449,M,40.595,M,1.8,0123*7F
$GPVTG,285.52,T,-354.38,M,006.021,N,011.151,K,D*0A
$GPGGA,094921.40,5702.8971938,N,00949.8430450,E,2,5,1.5,9.444,M,40.595,M,1.8,0123*75
$GPVTG,285.42,T,-354.48,M,006.031,N,011.170,K,D*0E
$GPGGA,094921.45,5702.8972214,N,00949.8428983,E,2,5,1.5,9.468,M,40.595,M,2.0,0123*79
$GPVTG,285.36,T,-354.54,M,006.035,N,011.177,K,D*03
$GPGGA,094921.50,5702.8972480,N,00949.8427476,E,2,5,1.5,9.468,M,40.595,M,2.0,0123*7E
$GPVTG,285.89,T,-354.01,M,006.080,N,011.260,K,D*0C
$GPGGA,094921.55,5702.8972681,N,00949.8425983,E,2,5,1.5,9.468,M,40.595,M,2.0,0123*7D
$GPVTG,285.51,T,-354.39,M,006.080,N,011.260,K,D*02
$GPGGA,094921.60,5702.8972900,N,00949.8424463,E,2,5,1.5,9.466,M,40.595,M,2.0,0123*71
$GPVTG,285.34,T,-354.56,M,006.110,N,011.317,K,D*01
$GPGGA,094921.65,5702.8973193,N,00949.8423014,E,2,5,1.5,9.476,M,40.595,M,2.2,0123*77
$GPVTG,285.44,T,-354.46,M,006.097,N,011.292,K,D*05
$GPGGA,094921.70,5702.8973438,N,00949.8421516,E,2,5,1.5,9.476,M,40.595,M,2.2,0123*72
$GPVTG,285.69,T,-354.21,M,006.113,N,011.322,K,D*0C
$GPGGA,094921.75,5702.8973668,N,00949.8420089,E,2,5,1.5,9.479,M,40.595,M,2.2,0123*7D
$GPVTG,285.89,T,-354.01,M,006.059,N,011.221,K,D*0D
$GPGGA,094921.80,5702.8973883,N,00949.8418602,E,2,5,1.5,9.480,M,40.595,M,2.2,0123*74
$GPVTG,285.70,T,-354.20,M,006.057,N,011.217,K,D*03
$GPGGA,094921.85,5702.8974183,N,00949.8417148,E,2,5,1.5,9.493,M,40.595,M,2.5,0123*7C
$GPVTG,285.74,T,-354.16,M,006.054,N,011.211,K,D*07
$GPGGA,094921.90,5702.8974399,N,00949.8415660,E,2,5,1.5,9.494,M,40.595,M,2.5,0123*79
$GPVTG,285.57,T,-354.33,M,006.054,N,011.212,K,D*02
$GPGGA,094921.95,5702.8974643,N,00949.8414193,E,2,5,1.5,9.495,M,40.595,M,2.5,0123*75
$GPVTG,285.87,T,-354.03,M,006.048,N,011.201,K,D*03
$GPGGA,094922.00,5702.8974883,N,00949.8412749,E,2,5,1.5,9.493,M,40.595,M,2.5,0123*79
$GPVTG,286.14,T,-353.76,M,006.020,N,011.149,K,D*0E
$GPGGA,094922.05,5702.8975220,N,00949.8411292,E,2,5,1.5,9.513,M,40.595,M,2.7,0123*75
$GPVTG,286.63,T,-353.27,M,006.028,N,011.164,K,D*0D
$GPGGA,094922.10,5702.8975416,N,00949.8409803,E,2,5,1.5,9.515,M,40.595,M,2.7,0123*7F
$GPVTG,286.06,T,-353.84,M,006.025,N,011.159,K,D*04
$GPGGA,094922.15,5702.8975647,N,00949.8408302,E,2,5,1.5,9.517,M,40.595,M,2.7,0123*75
$GPVTG,286.02,T,-353.88,M,006.049,N,011.203,K,D*0A
$GPGGA,094922.20,5702.8975897,N,00949.8406864,E,2,5,1.5,9.515,M,40.595,M,2.7,0123*77
$GPVTG,286.40,T,-353.50,M,006.021,N,011.151,K,D*03
$GPGGA,094922.25,5702.8976208,N,00949.8405400,E,2,5,1.5,9.534,M,40.595,M,2.9,0123*7D
$GPVTG,286.41,T,-353.49,M,006.019,N,011.147,K,D*06
$GPGGA,094922.30,5702.8976483,N,00949.8403932,E,2,5,1.5,9.532,M,40.595,M,2.9,0123*70
$GPVTG,287.00,T,-352.90,M,006.034,N,011.175,K,D*09
$GPGGA,094922.35,5702.8976711,N,00949.8402415,E,2,5,1.5,9.527,M,40.595,M,2.9,0123*70
$GPVTG,286.74,T,-353.16,M,006.071,N,011.243,K,D*03
$GPGGA,094922.40,5702.8976938,N,00949.8400918,E,2,5,1.5,9.522,M,40.595,M,2.9,0123*70
$GPVTG,286.55,T,-353.35,M,006.084,N,011.268,K,D*02
$GPGGA,094922.45,5702.8977264,N,00949.8399423,E,2,5,1.5,9.543,M,40.595,M,3.1,0123*7A
$GPVTG,286.77,T,-353.13,M,006.090,N,011.278,K,D*02
$GPGGA,094922.50,5702.8977475,N,00949.8397923,E,2,5,1.5,9.542,M,40.595,M,3.1,0123*7A
$GPVTG,286.33,T,-353.57,M,006.096,N,011.289,K,D*0A
$GPGGA,094922.55,5702.8977721,N,00949.8396447,E,2,5,1.5,9.542,M,40.595,M,3.1,0123*73
$GPVTG,286.48,T,-353.42,M,006.094,N,011.286,K,D*0F
$GPGGA,094922.60,5702.8977977,N,00949.8394925,E,2,5,1.5,9.542,M,40.595,M,3.1,0123*73
$GPVTG,286.64,T,-353.26,M,006.137,N,011.365,K,D*07
$GPGGA,094922.65,5702.8978296,N,00949.8393416,E,2,5,1.5,9.553,M,40.595,M,3.3,0123*75
$GPVTG,286.53,T,-353.37,M,006.154,N,011.396,K,D*0A
$GPGGA,094922.70,5702.8978529,N,00949.8391961,E,2,5,1.5,9.555,M,40.595,M,3.3,0123*7B
$GPVTG,286.53,T,-353.37,M,006.117,N,011.329,K,D*09
$GPGGA,094922.75,5702.8978766,N,00949.8390538,E,2,5,1.5,9.556,M,40.595,M,3.3,0123*75
$GPVTG,286.66,T,-353.24,M,006.057,N,011.218,K,D*0B
$GPGGA,094922.80,5702.8979027,N,00949.8389073,E,2,5,1.5,9.559,M,40.595,M,3.3,0123*71
$GPVTG,287.00,T,-352.90,M,006.054,N,011.213,K,D*0C
$GPGGA,094922.85,5702.8979361,N,00949.8387629,E,2,5,1.5,9.561,M,40.595,M,3.5,0123*7F
$GPVTG,287.08,T,-352.82,M,006.043,N,011.191,K,D*08
$GPGGA,094922.90,5702.8979593,N,00949.8386139,E,2,5,1.5,9.561,M,40.595,M,3.5,0123*77
$GPVTG,286.90,T,-353.00,M,006.052,N,011.208,K,D*00
$GPGGA,094922.95,5702.8979827,N,00949.8384697,E,2,5,1.5,9.563,M,40.595,M,3.5,0123*73
$GPVTG,286.88,T,-353.02,M,006.017,N,011.144,K,D*01
$GPGGA,094923.00,5702.8980061,N,00949.8383203,E,2,5,1.5,9.560,M,40.595,M,3.5,0123*7F
$GPVTG,286.72,T,-353.18,M,006.035,N,011.178,K,D*00
$GPGGA,094923.05,5702.8980414,N,00949.8381713,E,2,5,1.5,9.564,M,40.595,M,3.7,0123*7C
$GPVTG,287.12,T,-352.78,M,006.069,N,011.239,K,D*0F
$GPGGA,094923.10,5702.8980687,N,00949.8380273,E,2,5,1.5,9.558,M,40.595,M,3.7,0123*7D
$GPVTG,287.61,T,-352.29,M,006.050,N,011.204,K,D*0B
$GPGGA,094923.15,5702.8980914,N,00949.8378805,E,2,5,1.5,9.553,M,40.595,M,3.7,0123*7A
$GPVTG,287.33,T,-352.57,M,006.038,N,011.182,K,D*06
$GPGGA,094923.20,5702.8981183,N,00949.8377310,E,2,5,1.5,9.546,M,40.595,M,3.7,0123*7F
$GPVTG,287.58,T,-352.32,M,006.071,N,011.243,K,D*0B
$GPGGA,094923.25,5702.8981511,N,00949.8375782,E,2,5,1.5,9.588,M,40.595,M,2.4,0123*78
$GPVTG,287.71,T,-352.19,M,006.077,N,011.254,K,D*09
$GPGGA,094923.30,5702.8981714,N,00949.8374304,E,2,5,1.5,9.585,M,40.595,M,2.4,0123*7D
$GPVTG,287.05,T,-352.85,M,006.060,N,011.224,K,D*0E
$GPGGA,094923.35,5702.8981976,N,00949.8372803,E,2,5,1.5,9.585,M,40.595,M,2.4,0123*78
$GPVTG,287.20,T,-352.70,M,006.092,N,011.283,K,D*03
$GPGGA,094923.40,5702.8982235,N,00949.8371363,E,2,5,1.5,9.584,M,40.595,M,2.4,0123*7A
$GPVTG,287.45,T,-352.45,M,006.063,N,011.230,K,D*00
$GPGGA,094923.45,5702.8982561,N,00949.8369873,E,2,5,1.5,9.603,M,40.595,M,2.7,0123*75
$GPVTG,287.47,T,-352.43,M,006.068,N,011.238,K,D*07
$GPGGA,094923.50,5702.8982793,N,00949.8368404,E,2,5,1.5,9.603,M,40.595,M,2.7,0123*73
$GPVTG,287.23,T,-352.67,M,006.057,N,011.217,K,D*02
$GPGGA,094923.55,5702.8983020,N,00949.8366889,E,2,5,1.5,9.607,M,40.595,M,2.7,0123*7B
$GPVTG,286.84,T,-353.06,M,006.086,N,011.271,K,D*04
$GPGGA,094923.60,5702.8983288,N,00949.8365425,E,2,5,1.5,9.610,M,40.595,M,2.7,0123*72
$GPVTG,287.17,T,-352.73,M,006.083,N,011.265,K,D*0C
$GPGGA,094923.65,5702.8983617,N,00949.8364032,E,2,5,1.5,9.614,M,40.595,M,2.9,0123*7C
$GPVTG,287.34,T,-352.56,M,006.012,N,011.135,K,D*04
$GPGGA,094923.70,5702.8983884,N,00949.8362569,E,2,5,1.5,9.611,M,40.595,M,2.9,0123*74
$GPVTG,287.61,T,-352.29,M,006.018,N,011.145,K,D*01
$GPGGA,094923.75,5702.8984129,N,00949.8361149,E,2,5,1.5,9.611,M,40.595,M,2.9,0123*7D
$GPVTG,287.66,T,-352.24,M,005.975,N,011.066,K,D*0A
$GPGGA,094923.80,5702.8984401,N,00949.8359747,E,2,5,1.5,9.608,M,40.595,M,2.9,0123*73
$GPVTG,288.13,T,-351.77,M,005.936,N,010.994,K,D*00
$GPGGA,094923.85,5702.8984714,N,00949.8358250,E,2,5,1.5,9.635,M,40.595,M,3.2,0123*77
$GPVTG,287.92,T,-351.98,M,005.948,N,011.016,K,D*0C
$GPGGA,094923.90,5702.8984970,N,00949.8356765,E,2,5,1.5,9.633,M,40.595,M,3.2,0123*74
$GPVTG,287.88,T,-352.02,M,005.981,N,011.077,K,D*05
$GPGGA,094923.95,5702.8985206,N,00949.8355284,E,2,5,1.5,9.629,M,40.595,M,3.2,0123*78
$GPVTG,287.58,T,-352.32,M,005.998,N,011.108,K,D*0A
$GPGGA,094924.00,5702.8985475,N,00949.8353837,E,2,5,1.5,9.623,M,40.595,M,3.2,0123*7F
$GPVTG,287.86,T,-352.04,M,005.998,N,011.109,K,D*0D
$GPGGA,094924.05,5702.8985792,N,00949.8352344,E,2,5,1.5,9.635,M,40.595,M,3.4,0123*7F
$GPVTG,287.85,T,-352.05,M,006.005,N,011.121,K,D*0B
$GPGGA,094924.10,5702.8986075,N,00949.8350886,E,2,5,1.5,9.629,M,40.595,M,3.4,0123*7C
$GPVTG,288.25,T,-351.65,M,006.022,N,011.152,K,D*0A
$GPGGA,094924.15,5702.8986340,N,00949.8349421,E,2,5,1.5,9.621,M,40.595,M,3.4,0123*7D
$GPVTG,288.34,T,-351.56,M,006.034,N,011.175,K,D*08
$GPGGA,094924.20,5702.8986591,N,00949.8347950,E,2,5,1.5,9.616,M,40.595,M,3.4,0123*70
$GPVTG,288.20,T,-351.70,M,006.043,N,011.192,K,D*00
$GPGGA,094924.25,5702.8986907,N,00949.8346476,E,2,5,1.5,9.644,M,40.595,M,1.9,0123*76
$GPVTG,288.25,T,-351.65,M,006.011,N,011.132,K,D*0C
$GPGGA,094924.30,5702.8987160,N,00949.8345004,E,2,5,1.5,9.645,M,40.595,M,1.9,0123*79
$GPVTG,288.12,T,-351.78,M,006.025,N,011.158,K,D*0F
$GPGGA,094924.35,5702.8987422,N,00949.8343549,E,2,5,1.5,9.647,M,40.595,M,1.9,0123*77
$GPVTG,288.19,T,-351.71,M,006.025,N,011.159,K,D*0C
$GPGGA,094924.40,5702.8987681,N,00949.8342053,E,2,5,1.5,9.649,M,40.595,M,1.9,0123*7F
$GPVTG,288.09,T,-351.81,M,006.062,N,011.228,K,D*04
$GPGGA,094924.45,5702.8988015,N,00949.8340629,E,2,5,1.5,9.650,M,40.595,M,2.2,0123*77
$GPVTG,288.16,T,-351.74,M,006.020,N,011.150,K,D*0A
$GPGGA,094924.50,5702.8988297,N,00949.8339225,E,2,5,1.5,9.650,M,40.595,M,2.2,0123*7D
$GPVTG,288.62,T,-351.28,M,005.984,N,011.083,K,D*0B
$GPGGA,094924.55,5702.8988571,N,00949.8337797,E,2,5,1.5,9.646,M,40.595,M,2.2,0123*72
$GPVTG,288.86,T,-351.04,M,005.972,N,011.060,K,D*0B
$GPGGA,094924.60,5702.8988853,N,00949.8336339,E,2,5,1.5,9.645,M,40.595,M,2.2,0123*7B
$GPVTG,289.08,T,-350.82,M,005.993,N,011.099,K,D*0A
$GPGGA,094924.65,5702.8989187,N,00949.8334857,E,2,5,1.5,9.658,M,40.595,M,2.4,0123*74
$GPVTG,288.91,T,-350.99,M,005.996,N,011.105,K,D*00
$GPGGA,094924.70,5702.8989460,N,00949.8333418,E,2,5,1.5,9.654,M,40.595,M,2.4,0123*70
$GPVTG,289.03,T,-350.87,M,005.993,N,011.099,K,D*04
$GPGGA,094924.75,5702.8989704,N,00949.8331965,E,2,5,1.5,9.650,M,40.595,M,2.4,0123*75
$GPVTG,288.72,T,-351.18,M,005.989,N,011.092,K,D*04
$GPGGA,094924.80,5702.8989957,N,00949.8330524,E,2,5,1.5,9.647,M,40.595,M,2.4,0123*79
$GPVTG,288.57,T,-351.33,M,005.980,N,011.075,K,D*0A
$GPGGA,094924.85,5702.8990300,N,00949.8329030,E,2,5,1.5,9.658,M,40.595,M,2.7,0123*79
$GPVTG,288.80,T,-351.10,M,005.992,N,011.097,K,D*0E
$GPGGA,094924.90,5702.8990612,N,00949.8327565,E,2,5,1.5,9.654,M,40.595,M,2.7,0123*7C
$GPVTG,289.36,T,-350.54,M,006.032,N,011.172,K,D*09
$GPGGA,094924.95,5702.8990870,N,00949.8326100,E,2,5,1.5,9.652,M,40.595,M,2.7,0123*73
$GPVTG,289.15,T,-350.75,M,006.042,N,011.190,K,D*00
$GPGGA,094925.00,5702.8991122,N,00949.8324614,E,2,5,1.5,9.647,M,40.595,M,2.7,0123*75
$GPVTG,288.79,T,-351.11,M,006.065,N,011.232,K,D*06
$GPGGA,094925.05,5702.8991419,N,00949.8323106,E,2,5,1.5,9.664,M,40.595,M,2.9,0123*71
$GPVTG,288.35,T,-351.55,M,006.044,N,011.193,K,D*05
$GPGGA,094925.10,5702.8991706,N,00949.8321652,E,2,5,1.5,9.664,M,40.595,M,2.9,0123*7C
$GPVTG,288.65,T,-351.25,M,006.054,N,011.213,K,D*0D
$GPGGA,094925.15,5702.8991980,N,00949.8320207,E,2,5,1.5,9.665,M,40.595,M,2.9,0123*7D
$GPVTG,288.77,T,-351.13,M,006.049,N,011.203,K,D*06
$GPGGA,094925.20,5702.8992261,N,00949.8318739,E,2,5,1.5,9.667,M,40.595,M,2.9,0123*7D
$GPVTG,288.90,T,-351.00,M,006.068,N,011.238,K,D*06
$GPGGA,094925.25,5702.8992592,N,00949.8317343,E,2,5,1.5,9.647,M,40.595,M,1.8,0123*75
$GPVTG,289.20,T,-350.70,M,005.994,N,011.101,K,D*0A
$GPGGA,094925.30,5702.8992840,N,00949.8315918,E,2,5,1.5,9.650,M,40.595,M,1.8,0123*73
$GPVTG,288.95,T,-350.95,M,005.965,N,011.048,K,D*0C
$GPGGA,094925.35,5702.8993123,N,00949.8314482,E,2,5,1.5,9.651,M,40.595,M,1.8,0123*75
$GPVTG,289.17,T,-350.73,M,005.968,N,011.052,K,D*09
$GPGGA,094925.40,5702.8993404,N,00949.8313049,E,2,5,1.5,9.655,M,40.595,M,1.8,0123*77
$GPVTG,289.34,T,-350.56,M,005.967,N,011.050,K,D*02
$GPGGA,094925.45,5702.8993736,N,00949.8311517,E,2,5,1.5,9.650,M,40.595,M,2.0,0123*72
$GPVTG,289.25,T,-350.65,M,006.015,N,011.139,K,D*03
$GPGGA,094925.50,5702.8993990,N,00949.8310092,E,2,5,1.5,9.652,M,40.595,M,2.0,0123*7F
$GPVTG,289.07,T,-350.83,M,005.988,N,011.090,K,D*07
$GPGGA,094925.55,5702.8994268,N,00949.8308669,E,2,5,1.5,9.653,M,40.595,M,2.0,0123*7B
$GPVTG,289.22,T,-350.68,M,005.976,N,011.067,K,D*0C
$GPGGA,094925.60,5702.8994549,N,00949.8307279,E,2,5,1.5,9.650,M,40.595,M,2.0,0123*70
$GPVTG,289.51,T,-350.39,M,005.937,N,010.996,K,D*0F
$GPGGA,094925.65,5702.8994871,N,00949.8305764,E,2,5,1.5,9.631,M,40.595,M,2.2,0123*7D
$GPVTG,289.39,T,-350.51,M,005.970,N,011.057,K,D*09
$GPGGA,094925.70,5702.8995144,N,00949.8304259,E,2,5,1.5,9.627,M,40.595,M,2.2,0123*7A
$GPVTG,289.18,T,-350.72,M,006.032,N,011.171,K,D*02
$GPGGA,094925.75,5702.8995432,N,00949.8302798,E,2,5,1.5,9.622,M,40.595,M,2.2,0123*70
$GPVTG,289.34,T,-350.56,M,006.053,N,011.211,K,D*08
$GPGGA,094925.80,5702.8995686,N,00949.8301331,E,2,5,1.5,9.619,M,40.595,M,2.2,0123*7B
$GPVTG,289.00,T,-350.90,M,006.060,N,011.223,K,D*04
$GPGGA,094925.85,5702.8995965,N,00949.8299762,E,2,5,1.5,9.619,M,40.595,M,2.5,0123*79
$GPVTG,288.47,T,-351.43,M,006.078,N,011.256,K,D*02
$GPGGA,094925.90,5702.8996244,N,00949.8298312,E,2,5,1.5,9.619,M,40.595,M,2.5,0123*74
$GPVTG,288.62,T,-351.28,M,006.077,N,011.254,K,D*05
$GPGGA,094925.95,5702.8996495,N,00949.8296892,E,2,5,1.5,9.618,M,40.595,M,2.5,0123*77
$GPVTG,288.47,T,-351.43,M,006.036,N,011.178,K,D*07
$GPGGA,094926.00,5702.8996758,N,00949.8295445,E,2,5,1.5,9.617,M,40.595,M,2.5,0123*70
$GPVTG,288.42,T,-351.48,M,006.028,N,011.164,K,D*0B
$GPGGA,094926.05,5702.8997105,N,00949.8294028,E,2,5,1.5,9.585,M,40.595,M,2.7,0123*7E
$GPVTG,289.01,T,-350.89,M,005.983,N,011.081,K,D*00
$GPGGA,094926.10,5702.8997377,N,00949.8292563,E,2,5,1.5,9.586,M,40.595,M,2.7,0123*72
$GPVTG,288.98,T,-350.92,M,006.004,N,011.119,K,D*0E
$GPGGA,094926.15,5702.8997644,N,00949.8291107,E,2,5,1.5,9.586,M,40.595,M,2.7,0123*77
$GPVTG,288.91,T,-351.00,M,006.011,N,011.133,K,D*01
$GPGGA,094926.20,5702.8997933,N,00949.8289659,E,2,5,1.5,9.589,M,40.595,M,2.7,0123*74
$GPVTG,289.16,T,-350.74,M,006.021,N,011.151,K,D*0A
$GPGGA,094926.25,5702.8998264,N,00949.8288169,E,2,5,1.5,9.591,M,40.595,M,2.9,0123*75
$GPVTG,289.14,T,-350.76,M,006.000,N,011.112,K,D*0E
$GPGGA,094926.30,5702.8998522,N,00949.8286725,E,2,5,1.5,9.595,M,40.595,M,2.9,0123*70
$GPVTG,288.95,T,-350.95,M,005.992,N,011.098,K,D*09
$GPGGA,094926.35,5702.8998805,N,00949.8285294,E,2,5,1.5,9.594,M,40.595,M,2.9,0123*70
$GPVTG,289.17,T,-350.73,M,005.988,N,011.090,K,D*09
$GPGGA,094926.40,5702.8999110,N,00949.8283810,E,2,5,1.5,9.592,M,40.595,M,2.9,0123*78
$GPVTG,289.49,T,-350.41,M,006.041,N,011.189,K,D*05
$GPGGA,094926.45,5702.8999447,N,00949.8282332,E,2,5,1.5,9.554,M,40.595,M,3.1,0123*73
$GPVTG,289.48,T,-350.42,M,006.035,N,011.178,K,D*0A
$GPGGA,094926.50,5702.8999716,N,00949.8280870,E,2,5,1.5,9.552,M,40.595,M,3.1,0123*79
$GPVTG,289.34,T,-350.56,M,006.046,N,011.197,K,D*01
$GPGGA,094926.55,5702.9000018,N,00949.8279427,E,2,5,1.5,9.548,M,40.595,M,3.1,0123*7E
$GPVTG,289.72,T,-350.18,M,006.054,N,011.213,K,D*05
$GPGGA,094926.60,5702.9000309,N,00949.8277971,E,2,5,1.5,9.545,M,40.595,M,3.1,0123*76
$GPVTG,289.86,T,-350.04,M,006.068,N,011.238,K,D*05
$GPGGA,094926.65,5702.9000635,N,00949.8276440,E,2,5,1.5,9.524,M,40.595,M,3.3,0123*72
$GPVTG,289.67,T,-350.23,M,006.078,N,011.256,K,D*06
$GPGGA,094926.70,5702.9000911,N,00949.8274921,E,2,5,1.5,9.524,M,40.595,M,3.3,0123*77
$GPVTG,289.42,T,-350.48,M,006.136,N,011.363,K,D*00
$GPGGA,094926.75,5702.9001185,N,00949.8273463,E,2,5,1.5,9.522,M,40.595,M,3.3,0123*7C
$GPVTG,289.35,T,-350.55,M,006.130,N,011.353,K,D*09
$GPGGA,094926.80,5702.9001469,N,00949.8271981,E,2,5,1.5,9.524,M,40.595,M,3.3,0123*74
$GPVTG,289.35,T,-350.55,M,006.150,N,011.390,K,D*00
$GPGGA,094926.85,5702.9001850,N,00949.8270553,E,2,5,1.5,9.483,M,40.595,M,3.5,0123*7F
$GPVTG,290.04,T,-349.86,M,006.100,N,011.298,K,D*00
$GPGGA,094926.90,5702.9002141,N,00949.8269068,E,2,5,1.5,9.483,M,40.595,M,3.5,0123*74
$GPVTG,290.04,T,-349.86,M,006.129,N,011.350,K,D*0E
$GPGGA,094926.95,5702.9002400,N,00949.8267631,E,2,5,1.5,9.485,M,40.595,M,3.5,0123*73
$GPVTG,289.75,T,-350.15,M,006.094,N,011.286,K,D*0F
$GPGGA,094927.00,5702.9002682,N,00949.8266220,E,2,5,1.5,9.490,M,40.595,M,3.5,0123*77
$GPVTG,289.87,T,-350.03,M,006.053,N,011.210,K,D*01
$GPGGA,094927.05,5702.9003031,N,00949.8264763,E,2,5,1.5,9.473,M,40.595,M,3.7,0123*72
$GPVTG,289.86,T,-350.04,M,006.019,N,011.147,K,D*08
$GPGGA,094927.10,5702.9003340,N,00949.8263382,E,2,5,1.5,9.476,M,40.595,M,3.7,0123*7A
$GPVTG,290.42,T,-349.48,M,005.974,N,011.064,K,D*09
$GPGGA,094927.15,5702.9003627,N,00949.8261914,E,2,5,1.5,9.478,M,40.595,M,3.7,0123*72
$GPVTG,290.34,T,-349.56,M,006.003,N,011.117,K,D*08
$GPGGA,094927.20,5702.9003891,N,00949.8260403,E,2,5,1.5,9.479,M,40.595,M,3.7,0123*7C
$GPVTG,289.82,T,-350.08,M,006.054,N,011.211,K,D*09
$GPGGA,094927.25,5702.9004235,N,00949.8258870,E,2,5,1.5,9.460,M,40.595,M,2.4,0123*73
$GPVTG,289.59,T,-350.31,M,006.086,N,011.271,K,D*0C
$GPGGA,094927.30,5702.9004525,N,00949.8257437,E,2,5,1.5,9.458,M,40.595,M,2.4,0123*7A
$GPVTG,289.74,T,-350.16,M,006.071,N,011.244,K,D*08
$GPGGA,094927.35,5702.9004818,N,00949.8256004,E,2,5,1.5,9.456,M,40.595,M,2.4,0123*77
$GPVTG,289.92,T,-349.98,M,006.059,N,011.222,K,D*04
$GPGGA,094927.40,5702.9005102,N,00949.8254556,E,2,5,1.5,9.458,M,40.595,M,2.4,0123*78
$GPVTG,289.92,T,-349.98,M,006.059,N,011.221,K,D*07
$GPGGA,094927.45,5702.9005461,N,00949.8253046,E,2,5,1.5,9.430,M,40.595,M,2.7,0123*73
$GPVTG,290.01,T,-349.89,M,006.086,N,011.271,K,D*02
$GPGGA,094927.50,5702.9005754,N,00949.8251566,E,2,5,1.5,9.429,M,40.595,M,2.7,0123*7F
$GPVTG,290.01,T,-349.89,M,006.113,N,011.322,K,D*08
$GPGGA,094927.55,5702.9006008,N,00949.8250139,E,2,5,1.5,9.428,M,40.595,M,2.7,0123*79
$GPVTG,289.66,T,-350.24,M,006.071,N,011.243,K,D*0D
$GPGGA,094927.60,5702.9006296,N,00949.8248694,E,2,5,1.5,9.427,M,40.595,M,2.7,0123*7C
$GPVTG,289.73,T,-350.17,M,006.066,N,011.234,K,D*0F
$GPGGA,094927.65,5702.9006639,N,00949.8247230,E,2,5,1.5,9.390,M,40.595,M,2.9,0123*78
$GPVTG,289.70,T,-350.20,M,006.052,N,011.209,K,D*01
$GPGGA,094927.70,5702.9006908,N,00949.8245766,E,2,5,1.5,9.394,M,40.595,M,2.9,0123*71
$GPVTG,289.46,T,-350.44,M,006.057,N,011.217,K,D*0C
$GPGGA,094927.75,5702.9007206,N,00949.8244353,E,2,5,1.5,9.397,M,40.595,M,2.9,0123*70
$GPVTG,289.80,T,-350.10,M,006.031,N,011.170,K,D*05
$GPGGA,094927.80,5702.9007491,N,00949.8242937,E,2,5,1.5,9.400,M,40.595,M,2.9,0123*75
$GPVTG,289.90,T,-350.00,M,006.004,N,011.120,K,D*06
$GPGGA,094927.85,5702.9007851,N,00949.8241467,E,2,5,1.5,9.368,M,40.595,M,3.2,0123*78
$GPVTG,289.89,T,-350.01,M,006.012,N,011.133,K,D*0A
$GPGGA,094927.90,5702.9008150,N,00949.8240000,E,2,5,1.5,9.368,M,40.595,M,3.2,0123*7F
$GPVTG,290.01,T,-349.89,M,006.041,N,011.188,K,D*0C
$GPGGA,094927.95,5702.9008455,N,00949.8238641,E,2,5,1.5,9.370,M,40.595,M,3.2,0123*7F
$GPVTG,290.55,T,-349.35,M,005.975,N,011.066,K,D*06
$GPGGA,094928.00,5702.9008738,N,00949.8237200,E,2,5,1.5,9.371,M,40.595,M,3.2,0123*7B
$GPVTG,290.46,T,-349.44,M,005.980,N,011.075,K,D*0A
$GPGGA,094928.05,5702.9009068,N,00949.8235646,E,2,5,1.5,9.348,M,40.595,M,3.4,0123*75
$GPVTG,289.84,T,-350.06,M,006.029,N,011.165,K,D*0B
$GPGGA,094928.10,5702.9009334,N,00949.8234158,E,2,5,1.5,9.349,M,40.595,M,3.4,0123*73
$GPVTG,289.46,T,-350.44,M,006.060,N,011.223,K,D*0F
$GPGGA,094928.15,5702.9009630,N,00949.8232715,E,2,5,1.5,9.352,M,40.595,M,3.4,0123*74
$GPVTG,289.66,T,-350.24,M,006.063,N,011.228,K,D*03
$GPGGA,094928.20,5702.9009910,N,00949.8231258,E,2,5,1.5,9.350,M,40.595,M,3.4,0123*72
$GPVTG,289.58,T,-350.32,M,006.069,N,011.240,K,D*0D
$GPGGA,094928.25,5702.9010260,N,00949.8229783,E,2,5,1.5,9.299,M,40.595,M,1.9,0123*72
$GPVTG,289.49,T,-350.41,M,006.058,N,011.220,K,D*0D
$GPGGA,094928.30,5702.9010527,N,00949.8228300,E,2,5,1.5,9.295,M,40.595,M,1.9,0123*70
$GPVTG,289.20,T,-350.70,M,006.080,N,011.261,K,D*00
$GPGGA,094928.35,5702.9010794,N,00949.8226867,E,2,5,1.5,9.294,M,40.595,M,1.9,0123*7A
$GPVTG,289.09,T,-350.81,M,006.056,N,011.215,K,D*0D
$GPGGA,094928.40,5702.9011078,N,00949.8225413,E,2,5,1.5,9.292,M,40.595,M,1.9,0123*76
$GPVTG,289.16,T,-350.74,M,006.061,N,011.225,K,D*0E
$GPGGA,094928.45,5702.9011409,N,00949.8223935,E,2,5,1.5,9.258,M,40.595,M,2.2,0123*70
$GPVTG,288.91,T,-350.99,M,006.028,N,011.164,K,D*08
$GPGGA,094928.50,5702.9011738,N,00949.8222520,E,2,5,1.5,9.259,M,40.595,M,2.2,0123*7D
$GPVTG,289.74,T,-350.16,M,006.024,N,011.156,K,D*08
$GPGGA,094928.55,5702.9011990,N,00949.8221097,E,2,5,1.5,9.261,M,40.595,M,2.2,0123*75
$GPVTG,289.40,T,-350.50,M,005.989,N,011.092,K,D*09
$GPGGA,094928.60,5702.9012274,N,00949.8219657,E,2,5,1.5,9.267,M,40.595,M,2.2,0123*76
$GPVTG,289.49,T,-350.41,M,005.991,N,011.095,K,D*0E
$GPGGA,094928.65,5702.9012650,N,00949.8218182,E,2,5,1.5,9.236,M,40.595,M,2.4,0123*7D
$GPVTG,289.53,T,-350.37,M,005.992,N,011.097,K,D*05
$GPGGA,094928.70,5702.9012948,N,00949.8216747,E,2,5,1.5,9.237,M,40.595,M,2.4,0123*7F
$GPVTG,289.81,T,-350.09,M,005.997,N,011.107,K,D*0A
$GPGGA,094928.75,5702.9013222,N,00949.8215299,E,2,5,1.5,9.239,M,40.595,M,2.4,0123*77
$GPVTG,289.70,T,-350.20,M,006.002,N,011.116,K,D*09
$GPGGA,094928.80,5702.9013482,N,00949.8213845,E,2,5,1.5,9.240,M,40.595,M,2.4,0123*72
$GPVTG,289.38,T,-350.52,M,006.004,N,011.119,K,D*09
$GPGGA,094928.85,5702.9013880,N,00949.8212387,E,2,5,1.5,9.195,M,40.595,M,2.7,0123*75
$GPVTG,289.86,T,-350.04,M,005.997,N,011.107,K,D*00
$GPGGA,094928.90,5702.9014158,N,00949.8210974,E,2,5,1.5,9.195,M,40.595,M,2.7,0123*7E
$GPVTG,289.90,T,-350.00,M,005.974,N,011.064,K,D*0A
$GPGGA,094928.95,5702.9014445,N,00949.8209481,E,2,5,1.5,9.191,M,40.595,M,2.7,0123*79
$GPVTG,289.79,T,-350.11,M,006.029,N,011.166,K,D*0C
$GPGGA,094929.00,5702.9014669,N,00949.8208002,E,2,5,1.5,9.187,M,40.595,M,2.7,0123*71
$GPVTG,288.92,T,-350.98,M,006.033,N,011.174,K,D*01
$GPGGA,094929.05,5702.9015031,N,00949.8206494,E,2,5,1.5,9.144,M,40.595,M,2.9,0123*7A
$GPVTG,288.96,T,-350.94,M,006.038,N,011.182,K,D*0B
$GPGGA,094929.10,5702.9015356,N,00949.8205139,E,2,5,1.5,9.142,M,40.595,M,2.9,0123*7B
$GPVTG,289.91,T,-349.99,M,005.981,N,011.076,K,D*0A
$GPGGA,094929.15,5702.9015644,N,00949.8203668,E,2,5,1.5,9.141,M,40.595,M,2.9,0123*7E
$GPVTG,289.90,T,-350.00,M,006.016,N,011.141,K,D*02
$GPGGA,094929.20,5702.9015909,N,00949.8202208,E,2,5,1.5,9.141,M,40.595,M,2.9,0123*7D
$GPVTG,289.61,T,-350.29,M,006.025,N,011.158,K,D*0F
$GPGGA,094929.25,5702.9016302,N,00949.8200698,E,2,5,1.5,9.108,M,40.595,M,1.8,0123*7A
$GPVTG,289.70,T,-350.20,M,006.044,N,011.193,K,D*06
$GPGGA,094929.30,5702.9016608,N,00949.8199259,E,2,5,1.5,9.111,M,40.595,M,1.8,0123*73
$GPVTG,290.05,T,-349.85,M,006.051,N,011.206,K,D*00
$GPGGA,094929.35,5702.9016869,N,00949.8197837,E,2,5,1.5,9.112,M,40.595,M,1.8,0123*70
$GPVTG,289.81,T,-350.09,M,006.020,N,011.149,K,D*06
$GPGGA,094929.40,5702.9017159,N,00949.8196442,E,2,5,1.5,9.115,M,40.595,M,1.8,0123*71
$GPVTG,290.05,T,-349.85,M,005.984,N,011.082,K,D*0C
$GPGGA,094929.45,5702.9017577,N,00949.8195043,E,2,5,1.5,9.063,M,40.595,M,2.0,0123*71
$GPVTG,290.56,T,-349.34,M,005.937,N,010.995,K,D*06
$GPGGA,094929.50,5702.9017887,N,00949.8193614,E,2,5,1.5,9.067,M,40.595,M,2.0,0123*71
$GPVTG,290.88,T,-349.02,M,005.954,N,011.026,K,D*05
$GPGGA,094929.55,5702.9018158,N,00949.8192170,E,2,5,1.5,9.069,M,40.595,M,2.0,0123*7A
$GPVTG,290.57,T,-349.33,M,005.961,N,011.039,K,D*0D
$GPGGA,094929.60,5702.9018432,N,00949.8190732,E,2,5,1.5,9.072,M,40.595,M,2.0,0123*7D
$GPVTG,290.36,T,-349.54,M,005.964,N,011.046,K,D*06
$GPGGA,094929.65,5702.9018829,N,00949.8189224,E,2,5,1.5,9.031,M,40.595,M,2.2,0123*71
$GPVTG,290.22,T,-349.68,M,005.992,N,011.097,K,D*09
$GPGGA,094929.70,5702.9019163,N,00949.8187778,E,2,5,1.5,9.029,M,40.595,M,2.2,0123*78
$GPVTG,290.83,T,-349.07,M,006.031,N,011.169,K,D*08
$GPGGA,094929.75,5702.9019440,N,00949.8186352,E,2,5,1.5,9.026,M,40.595,M,2.2,0123*7B
$GPVTG,290.64,T,-349.26,M,006.018,N,011.145,K,D*07
$GPGGA,094929.80,5702.9019714,N,00949.8184917,E,2,5,1.5,9.025,M,40.595,M,2.2,0123*79
$GPVTG,290.42,T,-349.48,M,006.012,N,011.134,K,D*07
$GPGGA,094929.85,5702.9020119,N,00949.8183399,E,2,5,1.5,8.971,M,40.595,M,2.5,0123*78
$GPVTG,290.42,T,-349.48,M,006.040,N,011.186,K,D*09
$GPGGA,094929.90,5702.9020412,N,00949.8181956,E,2,5,1.5,8.968,M,40.595,M,2.5,0123*71
$GPVTG,290.44,T,-349.46,M,006.048,N,011.200,K,D*04
$GPGGA,094929.95,5702.9020684,N,00949.8180496,E,2,5,1.5,8.963,M,40.595,M,2.5,0123*72
$GPVTG,290.12,T,-349.78,M,006.058,N,011.220,K,D*09
$GPGGA,094930.00,5702.9020978,N,00949.8179029,E,2,5,1.5,8.960,M,40.595,M,2.5,0123*7F
$GPVTG,290.11,T,-349.79,M,006.084,N,011.268,K,D*06
$GPGGA,094930.05,5702.9021399,N,00949.8177535,E,2,5,1.5,8.912,M,40.595,M,2.7,0123*7F
$GPVTG,290.34,T,-349.56,M,006.081,N,011.261,K,D*00
$GPGGA,094930.10,5702.9021685,N,00949.8176110,E,2,5,1.5,8.914,M,40.595,M,2.7,0123*77
$GPVTG,290.34,T,-349.56,M,006.062,N,011.227,K,D*0F
$GPGGA,094930.15,5702.9021997,N,00949.8174706,E,2,5,1.5,8.916,M,40.595,M,2.7,0123*7F
$GPVTG,290.74,T,-349.16,M,006.040,N,011.185,K,D*04
$GPGGA,094930.20,5702.9022311,N,00949.8173265,E,2,5,1.5,8.918,M,40.595,M,2.7,0123*77
$GPVTG,291.00,T,-348.90,M,006.053,N,011.210,K,D*04
$GPGGA,094930.25,5702.9022745,N,00949.8171829,E,2,5,1.5,8.860,M,40.595,M,2.9,0123*77
$GPVTG,291.04,T,-348.86,M,006.012,N,011.134,K,D*07
$GPGGA,094930.30,5702.9023059,N,00949.8170368,E,2,5,1.5,8.861,M,40.595,M,2.9,0123*76
$GPVTG,291.18,T,-348.72,M,006.047,N,011.199,K,D*06
$GPGGA,094930.35,5702.9023323,N,00949.8168923,E,2,5,1.5,8.863,M,40.595,M,2.9,0123*73
$GPVTG,290.71,T,-349.19,M,006.038,N,011.182,K,D*06
$GPGGA,094930.40,5702.9023621,N,00949.8167533,E,2,5,1.5,8.864,M,40.595,M,2.9,0123*73
$GPVTG,290.90,T,-349.00,M,005.999,N,011.110,K,D*0B
$GPGGA,094930.45,5702.9024071,N,00949.8166042,E,2,5,1.5,8.804,M,40.595,M,3.1,0123*7F
$GPVTG,291.09,T,-348.81,M,006.008,N,011.126,K,D*05
$GPGGA,094930.50,5702.9024393,N,00949.8164576,E,2,5,1.5,8.800,M,40.595,M,3.1,0123*70
$GPVTG,291.32,T,-348.58,M,006.053,N,011.211,K,D*00
$GPGGA,094930.55,5702.9024722,N,00949.8163154,E,2,5,1.5,8.797,M,40.595,M,3.1,0123*79
$GPVTG,291.74,T,-348.16,M,006.059,N,011.220,K,D*00
$GPGGA,094930.60,5702.9025033,N,00949.8161701,E,2,5,1.5,8.793,M,40.595,M,3.1,0123*79
$GPVTG,291.76,T,-348.14,M,006.080,N,011.260,K,D*00
$GPGGA,094930.65,5702.9025468,N,00949.8160174,E,2,5,1.5,8.740,M,40.595,M,3.3,0123*7F
$GPVTG,291.63,T,-348.27,M,006.080,N,011.261,K,D*05
$GPGGA,094930.70,5702.9025733,N,00949.8158712,E,2,5,1.5,8.736,M,40.595,M,3.3,0123*7A
$GPVTG,291.00,T,-348.90,M,006.081,N,011.263,K,D*0F
$GPGGA,094930.75,5702.9026053,N,00949.8157262,E,2,5,1.5,8.734,M,40.595,M,3.3,0123*72
$GPVTG,291.23,T,-348.67,M,006.101,N,011.298,K,D*0B
$GPGGA,094930.80,5702.9026353,N,00949.8155855,E,2,5,1.5,8.730,M,40.595,M,3.3,0123*73
$GPVTG,291.29,T,-348.61,M,006.069,N,011.239,K,D*03
$GPGGA,094930.85,5702.9026802,N,00949.8154289,E,2,5,1.5,8.681,M,40.595,M,3.5,0123*7E
$GPVTG,291.17,T,-348.73,M,006.109,N,011.315,K,D*05
$GPGGA,094930.90,5702.9027091,N,00949.8152827,E,2,5,1.5,8.682,M,40.595,M,3.5,0123*72
$GPVTG,290.91,T,-348.99,M,006.118,N,011.330,K,D*09
$GPGGA,094930.95,5702.9027401,N,00949.8151411,E,2,5,1.5,8.686,M,40.595,M,3.5,0123*74
$GPVTG,291.12,T,-348.78,M,006.095,N,011.288,K,D*0A
$GPGGA,094931.00,5702.9027712,N,00949.8149961,E,2,5,1.5,8.689,M,40.595,M,3.5,0123*74
$GPVTG,291.20,T,-348.70,M,006.105,N,011.307,K,D*0D
$GPGGA,094931.05,5702.9028206,N,00949.8148498,E,2,5,1.5,8.619,M,40.595,M,3.7,0123*7F
$GPVTG,291.62,T,-348.28,M,006.083,N,011.267,K,D*0E
$GPGGA,094931.10,5702.9028502,N,00949.8147046,E,2,5,1.5,8.618,M,40.595,M,3.7,0123*71
$GPVTG,291.44,T,-348.46,M,006.088,N,011.275,K,D*0A
$GPGGA,094931.15,5702.9028799,N,00949.8145589,E,2,5,1.5,8.616,M,40.595,M,3.7,0123*7E
$GPVTG,291.27,T,-348.63,M,006.097,N,011.291,K,D*0C
$GPGGA,094931.20,5702.9029140,N,00949.8144168,E,2,5,1.5,8.614,M,40.595,M,3.7,0123*73
$GPVTG,291.81,T,-348.09,M,006.097,N,011.292,K,D*0F
$GPGGA,094931.25,5702.9029592,N,00949.8142651,E,2,5,1.5,8.564,M,40.595,M,2.4,0123*70
$GPVTG,291.63,T,-348.27,M,006.069,N,011.240,K,D*01
$GPGGA,094931.30,5702.9029913,N,00949.8141243,E,2,5,1.5,8.561,M,40.595,M,2.4,0123*70
$GPVTG,291.91,T,-347.99,M,006.051,N,011.207,K,D*0E
$GPGGA,094931.35,5702.9030236,N,00949.8139792,E,2,5,1.5,8.560,M,40.595,M,2.4,0123*76
$GPVTG,292.03,T,-347.87,M,006.074,N,011.248,K,D*05
$GPGGA,094931.40,5702.9030545,N,00949.8138335,E,2,5,1.5,8.561,M,40.595,M,2.4,0123*7E
$GPVTG,291.91,T,-347.99,M,006.091,N,011.281,K,D*0C
$GPGGA,094931.45,5702.9030999,N,00949.8136756,E,2,5,1.5,8.503,M,40.595,M,2.7,0123*7E
$GPVTG,291.49,T,-348.41,M,006.116,N,011.327,K,D*00
$GPGGA,094931.50,5702.9031343,N,00949.8135366,E,2,5,1.5,8.500,M,40.595,M,2.7,0123*71
$GPVTG,292.11,T,-347.79,M,006.089,N,011.277,K,D*09
$GPGGA,094931.55,5702.9031639,N,00949.8133956,E,2,5,1.5,8.498,M,40.595,M,2.7,0123*73
$GPVTG,291.97,T,-347.93,M,006.056,N,011.216,K,D*05
$GPGGA,094931.60,5702.9031945,N,00949.8132521,E,2,5,1.5,8.500,M,40.595,M,2.7,0123*7C
$GPVTG,291.88,T,-348.02,M,006.055,N,011.215,K,D*0C
$GPGGA,094931.65,5702.9032431,N,00949.8130989,E,2,5,1.5,8.435,M,40.595,M,2.9,0123*71
$GPVTG,291.97,T,-347.93,M,006.067,N,011.236,K,D*05
$GPGGA,094931.70,5702.9032711,N,00949.8129508,E,2,5,1.5,8.430,M,40.595,M,2.9,0123*7C
$GPVTG,291.38,T,-348.52,M,006.091,N,011.280,K,D*06
$GPGGA,094931.75,5702.9033014,N,00949.8128042,E,2,5,1.5,8.430,M,40.595,M,2.9,0123*70
$GPVTG,291.23,T,-348.67,M,006.111,N,011.318,K,D*03
$GPGGA,094931.80,5702.9033353,N,00949.8126641,E,2,5,1.5,8.428,M,40.595,M,2.9,0123*78
$GPVTG,291.76,T,-348.14,M,006.091,N,011.280,K,D*0E
$GPGGA,094931.85,5702.9033829,N,00949.8125114,E,2,5,1.5,8.367,M,40.595,M,3.2,0123*79
$GPVTG,291.78,T,-348.12,M,006.081,N,011.261,K,D*08
$GPGGA,094931.90,5702.9034131,N,00949.8123717,E,2,5,1.5,8.367,M,40.595,M,3.2,0123*79
$GPVTG,291.78,T,-348.12,M,006.041,N,011.188,K,D*00
$GPGGA,094931.95,5702.9034457,N,00949.8122288,E,2,5,1.5,8.366,M,40.595,M,3.2,0123*7A
$GPVTG,291.99,T,-347.91,M,006.047,N,011.200,K,D*0E
$GPGGA,094932.00,5702.9034758,N,00949.8120825,E,2,5,1.5,8.368,M,40.595,M,3.2,0123*78
$GPVTG,291.74,T,-348.16,M,006.069,N,011.240,K,D*05
$GPGGA,094932.05,5702.9035226,N,00949.8119304,E,2,5,1.5,8.308,M,40.595,M,3.4,0123*72
$GPVTG,291.55,T,-348.35,M,006.052,N,011.207,K,D*0C
$GPGGA,094932.10,5702.9035525,N,00949.8117836,E,2,5,1.5,8.305,M,40.595,M,3.4,0123*7B
$GPVTG,291.30,T,-348.60,M,006.076,N,011.252,K,D*09
$GPGGA,094932.15,5702.9035846,N,00949.8116440,E,2,5,1.5,8.306,M,40.595,M,3.4,0123*79
$GPVTG,291.61,T,-348.29,M,006.047,N,011.200,K,D*05
$GPGGA,094932.20,5702.9036136,N,00949.8115007,E,2,5,1.5,8.304,M,40.595,M,3.4,0123*74
$GPVTG,291.35,T,-348.55,M,006.038,N,011.183,K,D*0F
$GPGGA,094932.25,5702.9036595,N,00949.8113443,E,2,5,1.5,8.237,M,40.595,M,1.9,0123*70
$GPVTG,291.03,T,-348.87,M,006.055,N,011.213,K,D*04
$GPGGA,094932.30,5702.9036911,N,00949.8111996,E,2,5,1.5,8.236,M,40.595,M,1.9,0123*72
$GPVTG,291.14,T,-348.76,M,006.070,N,011.242,K,D*0F
$GPGGA,094932.35,5702.9037204,N,00949.8110576,E,2,5,1.5,8.234,M,40.595,M,1.9,0123*78
$GPVTG,291.02,T,-348.88,M,006.048,N,011.201,K,D*05
$GPGGA,094932.40,5702.9037519,N,00949.8109115,E,2,5,1.5,8.233,M,40.595,M,1.9,0123*7F
$GPVTG,291.08,T,-348.82,M,006.077,N,011.254,K,D*09
$GPGGA,094932.45,5702.9037983,N,00949.8107551,E,2,5,1.5,8.174,M,40.595,M,2.2,0123*77
$GPVTG,290.93,T,-348.97,M,006.080,N,011.260,K,D*01
$GPGGA,094932.50,5702.9038261,N,00949.8106080,E,2,5,1.5,8.172,M,40.595,M,2.2,0123*75
$GPVTG,290.49,T,-349.41,M,006.093,N,011.285,K,D*05
$GPGGA,094932.55,5702.9038525,N,00949.8104641,E,2,5,1.5,8.170,M,40.595,M,2.2,0123*7C
$GPVTG,290.02,T,-349.88,M,006.069,N,011.240,K,D*03
$GPGGA,094932.60,5702.9038845,N,00949.8103215,E,2,5,1.5,8.169,M,40.595,M,2.2,0123*7B
$GPVTG,290.40,T,-349.50,M,006.065,N,011.233,K,D*08
$GPGGA,094932.65,5702.9039318,N,00949.8101706,E,2,5,1.5,8.101,M,40.595,M,2.4,0123*71
$GPVTG,290.51,T,-349.39,M,006.029,N,011.167,K,D*0D
$GPGGA,094932.70,5702.9039595,N,00949.8100245,E,2,5,1.5,8.101,M,40.595,M,2.4,0123*75
$GPVTG,290.17,T,-349.73,M,006.039,N,011.185,K,D*0C
$GPGGA,094932.75,5702.9039877,N,00949.8098775,E,2,5,1.5,8.101,M,40.595,M,2.4,0123*77
$GPVTG,289.93,T,-349.97,M,006.060,N,011.222,K,D*00
$GPGGA,094932.80,5702.9040172,N,00949.8097363,E,2,5,1.5,8.099,M,40.595,M,2.4,0123*73
$GPVTG,290.06,T,-349.84,M,006.031,N,011.170,K,D*06
$GPGGA,094932.85,5702.9040602,N,00949.8095849,E,2,5,1.5,8.036,M,40.595,M,2.7,0123*71
$GPVTG,289.64,T,-350.26,M,005.976,N,011.067,K,D*04
$GPGGA,094932.90,5702.9040894,N,00949.8094390,E,2,5,1.5,8.037,M,40.595,M,2.7,0123*7B
$GPVTG,289.64,T,-350.26,M,006.000,N,011.111,K,D*0F
$GPGGA,094932.95,5702.9041203,N,00949.8092977,E,2,5,1.5,8.036,M,40.595,M,2.7,0123*7F
$GPVTG,290.02,T,-349.88,M,005.989,N,011.091,K,D*09
$GPGGA,094933.00,5702.9041472,N,00949.8091545,E,2,5,1.5,8.036,M,40.595,M,2.7,0123*7C
$GPVTG,289.77,T,-350.13,M,005.977,N,011.069,K,D*0F
$GPGGA,094933.05,5702.9041946,N,00949.8089997,E,2,5,1.5,7.964,M,40.595,M,2.9,0123*76
$GPVTG,289.87,T,-350.03,M,005.989,N,011.091,K,D*07
$GPGGA,094933.10,5702.9042179,N,00949.8088526,E,2,5,1.5,7.960,M,40.595,M,2.9,0123*76
$GPVTG,289.04,T,-350.86,M,005.995,N,011.103,K,D*06
$GPGGA,094933.15,5702.9042469,N,00949.8087083,E,2,5,1.5,7.960,M,40.595,M,2.9,0123*72
$GPVTG,289.16,T,-350.74,M,006.003,N,011.118,K,D*07
$GPGGA,094933.20,5702.9042770,N,00949.8085682,E,2,5,1.5,7.957,M,40.595,M,2.9,0123*7E
$GPVTG,289.56,T,-350.34,M,005.980,N,011.074,K,D*0D
$GPGGA,094933.25,5702.9043185,N,00949.8084100,E,2,5,1.5,7.894,M,40.595,M,1.8,0123*76
$GPVTG,288.86,T,-351.04,M,005.978,N,011.070,K,D*00
$GPGGA,094933.30,5702.9043485,N,00949.8082641,E,2,5,1.5,7.892,M,40.595,M,1.8,0123*75
$GPVTG,289.12,T,-350.78,M,006.008,N,011.126,K,D*09
$GPGGA,094933.35,5702.9043742,N,00949.8081188,E,2,5,1.5,7.894,M,40.595,M,1.8,0123*7F
$GPVTG,288.80,T,-351.10,M,006.008,N,011.127,K,D*0D
$GPGGA,094933.40,5702.9044029,N,00949.8079743,E,2,5,1.5,7.893,M,40.595,M,1.8,0123*71
$GPVTG,288.97,T,-350.93,M,006.016,N,011.142,K,D*0D
$GPGGA,094933.45,5702.9044461,N,00949.8078203,E,2,5,1.5,7.827,M,40.595,M,2.0,0123*78
$GPVTG,288.57,T,-351.33,M,005.977,N,011.069,K,D*0F
$GPGGA,094933.50,5702.9044749,N,00949.8076738,E,2,5,1.5,7.830,M,40.595,M,2.0,0123*70
$GPVTG,288.73,T,-351.17,M,006.007,N,011.124,K,D*0A
$GPGGA,094933.55,5702.9045038,N,00949.8075309,E,2,5,1.5,7.830,M,40.595,M,2.0,0123*70
$GPVTG,289.00,T,-350.90,M,006.002,N,011.116,K,D*05
$GPGGA,094933.60,5702.9045293,N,00949.8073871,E,2,5,1.5,7.831,M,40.595,M,2.0,0123*76
$GPVTG,288.75,T,-351.15,M,005.990,N,011.093,K,D*07
$GPGGA,094933.65,5702.9045751,N,00949.8072279,E,2,5,1.5,7.742,M,40.595,M,2.2,0123*72
$GPVTG,288.42,T,-351.48,M,006.023,N,011.154,K,D*03
$GPGGA,094933.70,5702.9046032,N,00949.8070864,E,2,5,1.5,7.740,M,40.595,M,2.2,0123*71
$GPVTG,288.68,T,-351.22,M,006.000,N,011.111,K,D*07
$GPGGA,094933.75,5702.9046314,N,00949.8069417,E,2,5,1.5,7.739,M,40.595,M,2.2,0123*7D
$GPVTG,288.83,T,-351.07,M,006.008,N,011.126,K,D*09
$GPGGA,094933.80,5702.9046554,N,00949.8067999,E,2,5,1.5,7.739,M,40.595,M,2.2,0123*70
$GPVTG,288.49,T,-351.41,M,005.969,N,011.055,K,D*05
$GPGGA,094933.85,5702.9047012,N,00949.8066400,E,2,5,1.5,7.677,M,40.595,M,2.5,0123*73
$GPVTG,288.29,T,-351.61,M,005.964,N,011.045,K,D*0D
$GPGGA,094933.90,5702.9047306,N,00949.8064988,E,2,5,1.5,7.681,M,40.595,M,2.5,0123*77
$GPVTG,288.64,T,-351.26,M,005.953,N,011.025,K,D*05
$GPGGA,094933.95,5702.9047557,N,00949.8063542,E,2,5,1.5,7.681,M,40.595,M,2.5,0123*7D
$GPVTG,288.44,T,-351.46,M,005.952,N,011.024,K,D*01
$GPGGA,094934.00,5702.9047831,N,00949.8062101,E,2,5,1.5,7.685,M,40.595,M,2.5,0123*7D
$GPVTG,288.53,T,-351.37,M,005.957,N,011.032,K,D*03
$GPGGA,094934.05,5702.9048315,N,00949.8060527,E,2,5,1.5,7.597,M,40.595,M,2.7,0123*7A
$GPVTG,288.35,T,-351.55,M,005.942,N,011.004,K,D*06
$GPGGA,094934.10,5702.9048605,N,00949.8059063,E,2,5,1.5,7.595,M,40.595,M,2.7,0123*77
$GPVTG,288.56,T,-351.34,M,005.969,N,011.055,K,D*09
$GPGGA,094934.15,5702.9048907,N,00949.8057604,E,2,5,1.5,7.593,M,40.595,M,2.7,0123*70
$GPVTG,288.91,T,-350.99,M,005.997,N,011.107,K,D*03
$GPGGA,094934.20,5702.9049171,N,00949.8056158,E,2,5,1.5,7.588,M,40.595,M,2.7,0123*7B
$GPVTG,288.85,T,-351.05,M,005.999,N,011.110,K,D*0A
$GPGGA,094934.25,5702.9049631,N,00949.8054576,E,2,5,1.5,7.513,M,40.595,M,2.9,0123*7B
$GPVTG,288.90,T,-351.00,M,006.015,N,011.140,K,D*00
$GPGGA,094934.30,5702.9049868,N,00949.8053147,E,2,5,1.5,7.512,M,40.595,M,2.9,0123*7D
$GPVTG,288.56,T,-351.34,M,005.990,N,011.094,K,D*02
$GPGGA,094934.35,5702.9050124,N,00949.8051687,E,2,5,1.5,7.508,M,40.595,M,2.9,0123*73
$GPVTG,288.41,T,-351.49,M,006.000,N,011.112,K,D*02
$GPGGA,094934.40,5702.9050422,N,00949.8050212,E,2,5,1.5,7.503,M,40.595,M,2.9,0123*70
$GPVTG,288.72,T,-351.18,M,006.036,N,011.179,K,D*0E
$GPGGA,094934.45,5702.9050898,N,00949.8048603,E,2,5,1.5,7.435,M,40.595,M,3.1,0123*78
$GPVTG,289.00,T,-350.90,M,006.074,N,011.249,K,D*0D
$GPGGA,094934.50,5702.9051177,N,00949.8047152,E,2,5,1.5,7.434,M,40.595,M,3.1,0123*78
$GPVTG,289.10,T,-350.80,M,006.075,N,011.252,K,D*06
$GPGGA,094934.55,5702.9051449,N,00949.8045703,E,2,5,1.5,7.435,M,40.595,M,3.1,0123*74
$GPVTG,289.12,T,-350.78,M,006.072,N,011.245,K,D*02
$GPGGA,094934.60,5702.9051689,N,00949.8044276,E,2,5,1.5,7.437,M,40.595,M,3.1,0123*78
$GPVTG,288.77,T,-351.13,M,006.035,N,011.177,K,D*0D
$GPGGA,094934.65,5702.9052180,N,00949.8042638,E,2,5,1.5,7.361,M,40.595,M,3.3,0123*7E
$GPVTG,288.67,T,-351.23,M,006.056,N,011.216,K,D*0E
$GPGGA,094934.70,5702.9052478,N,00949.8041237,E,2,5,1.5,7.361,M,40.595,M,3.3,0123*70
$GPVTG,289.32,T,-350.58,M,006.016,N,011.142,K,D*04
$GPGGA,094934.75,5702.9052723,N,00949.8039781,E,2,5,1.5,7.362,M,40.595,M,3.3,0123*7C
$GPVTG,288.84,T,-351.06,M,006.010,N,011.131,K,D*00
$GPGGA,094934.80,5702.9052988,N,00949.8038318,E,2,5,1.5,7.365,M,40.595,M,3.3,0123*7B
$GPVTG,288.74,T,-351.16,M,006.023,N,011.155,K,D*0C
$GPGGA,094934.85,5702.9053501,N,00949.8036736,E,2,5,1.5,7.283,M,40.595,M,3.5,0123*7B
$GPVTG,289.11,T,-350.79,M,006.008,N,011.126,K,D*0B
$GPGGA,094934.90,5702.9053778,N,00949.8035315,E,2,5,1.5,7.284,M,40.595,M,3.5,0123*72
$GPVTG,289.26,T,-350.64,M,005.987,N,011.089,K,D*0A
$GPGGA,094934.95,5702.9054017,N,00949.8033862,E,2,5,1.5,7.284,M,40.595,M,3.5,0123*73
$GPVTG,288.77,T,-351.13,M,005.981,N,011.077,K,D*09
$GPGGA,094935.00,5702.9054296,N,00949.8032389,E,2,5,1.5,7.283,M,40.595,M,3.5,0123*7D
$GPVTG,288.83,T,-351.07,M,006.014,N,011.138,K,D*0B
$GPGGA,094935.05,5702.9054800,N,00949.8030793,E,2,5,1.5,7.208,M,40.595,M,3.7,0123*71
$GPVTG,288.97,T,-350.93,M,005.993,N,011.099,K,D*0D
$GPGGA,094935.10,5702.9055074,N,00949.8029337,E,2,5,1.5,7.209,M,40.595,M,3.7,0123*7C
$GPVTG,288.98,T,-350.92,M,006.002,N,011.116,K,D*07
$GPGGA,094935.15,5702.9055360,N,00949.8027878,E,2,5,1.5,7.205,M,40.595,M,3.7,0123*7D
$GPVTG,289.11,T,-350.79,M,006.019,N,011.147,K,D*0C
$GPGGA,094935.20,5702.9055691,N,00949.8026441,E,2,5,1.5,7.202,M,40.595,M,3.7,0123*70
$GPVTG,289.79,T,-350.11,M,006.037,N,011.181,K,D*0A
$GPGGA,094935.25,5702.9056140,N,00949.8024789,E,2,5,1.5,7.125,M,40.595,M,2.4,0123*7C
$GPVTG,289.29,T,-350.61,M,006.047,N,011.200,K,D*05
$GPGGA,094935.30,5702.9056377,N,00949.8023294,E,2,5,1.5,7.124,M,40.595,M,2.4,0123*71
$GPVTG,288.73,T,-351.17,M,006.068,N,011.237,K,D*02
$GPGGA,094935.35,5702.9056662,N,00949.8021818,E,2,5,1.5,7.125,M,40.595,M,2.4,0123*78
$GPVTG,288.85,T,-351.05,M,006.091,N,011.281,K,D*03
$GPGGA,094935.40,5702.9056903,N,00949.8020351,E,2,5,1.5,7.122,M,40.595,M,2.4,0123*72
$GPVTG,288.45,T,-351.45,M,006.085,N,011.270,K,D*00
$GPGGA,094935.45,5702.9057381,N,00949.8018699,E,2,5,1.5,7.042,M,40.595,M,2.7,0123*78
$GPVTG,288.48,T,-351.42,M,006.096,N,011.289,K,D*0E
$GPGGA,094935.50,5702.9057653,N,00949.8017292,E,2,5,1.5,7.042,M,40.595,M,2.7,0123*76
$GPVTG,288.71,T,-351.19,M,006.040,N,011.186,K,D*0D
$GPGGA,094935.55,5702.9057941,N,00949.8015850,E,2,5,1.5,7.040,M,40.595,M,2.7,0123*7B
$GPVTG,289.03,T,-350.87,M,006.038,N,011.182,K,D*04
$GPGGA,094935.60,5702.9058209,N,00949.8014375,E,2,5,1.5,7.041,M,40.595,M,2.7,0123*79
$GPVTG,288.90,T,-351.00,M,006.056,N,011.217,K,D*06
$GPGGA,094935.65,5702.9058712,N,00949.8012747,E,2,5,1.5,6.958,M,40.595,M,2.9,0123*7E
$GPVTG,288.91,T,-350.99,M,006.031,N,011.169,K,D*0D
$GPGGA,094935.70,5702.9058968,N,00949.8011267,E,2,5,1.5,6.960,M,40.595,M,2.9,0123*76
$GPVTG,288.61,T,-351.29,M,006.049,N,011.203,K,D*08
$GPGGA,094935.75,5702.9059203,N,00949.8009806,E,2,5,1.5,6.962,M,40.595,M,2.9,0123*72
$GPVTG,288.13,T,-351.77,M,006.037,N,011.180,K,D*07
$GPGGA,094935.80,5702.9059460,N,00949.8008337,E,2,5,1.5,6.961,M,40.595,M,2.9,0123*70
$GPVTG,287.99,T,-351.91,M,006.045,N,011.196,K,D*00
$GPGGA,094935.85,5702.9059982,N,00949.8006705,E,2,5,1.5,6.866,M,40.595,M,3.2,0123*73
$GPVTG,288.32,T,-351.58,M,006.034,N,011.174,K,D*01
$GPGGA,094935.90,5702.9060261,N,00949.8005257,E,2,5,1.5,6.860,M,40.595,M,3.2,0123*7C
$GPVTG,288.53,T,-351.37,M,006.033,N,011.173,K,D*0F
$GPGGA,094935.95,5702.9060546,N,00949.8003807,E,2,5,1.5,6.855,M,40.595,M,3.2,0123*74
$GPVTG,288.79,T,-351.11,M,006.038,N,011.183,K,D*07
$GPGGA,094936.00,5702.9060805,N,00949.8002385,E,2,5,1.5,6.846,M,40.595,M,3.2,0123*73
$GPVTG,288.75,T,-351.15,M,006.004,N,011.120,K,D*09
$GPGGA,094936.05,5702.9061302,N,00949.8000660,E,2,5,1.5,6.785,M,40.595,M,3.4,0123*71
$GPVTG,288.69,T,-351.21,M,006.024,N,011.157,K,D*01
$GPGGA,094936.10,5702.9061553,N,00949.7999216,E,2,5,1.5,6.785,M,40.595,M,3.4,0123*74
$GPVTG,288.47,T,-351.43,M,006.009,N,011.128,K,D*0E
$GPGGA,094936.15,5702.9061825,N,00949.7997748,E,2,5,1.5,6.784,M,40.595,M,3.4,0123*7C
$GPVTG,288.52,T,-351.38,M,006.027,N,011.163,K,D*05
$GPGGA,094936.20,5702.9062104,N,00949.7996274,E,2,5,1.5,6.783,M,40.595,M,3.4,0123*7F
$GPVTG,288.64,T,-351.26,M,006.052,N,011.208,K,D*03
$GPGGA,094936.25,5702.9062594,N,00949.7994549,E,2,5,1.5,6.697,M,40.595,M,1.9,0123*77
$GPVTG,288.20,T,-351.70,M,006.076,N,011.253,K,D*08
$GPGGA,094936.30,5702.9062877,N,00949.7993076,E,2,5,1.5,6.697,M,40.595,M,1.9,0123*7D
$GPVTG,288.41,T,-351.49,M,006.095,N,011.289,K,D*0F
$GPGGA,094936.35,5702.9063163,N,00949.7991629,E,2,5,1.5,6.695,M,40.595,M,1.9,0123*79
$GPVTG,288.72,T,-351.18,M,006.089,N,011.277,K,D*07
$GPGGA,094936.40,5702.9063459,N,00949.7990162,E,2,5,1.5,6.694,M,40.595,M,1.9,0123*7F
$GPVTG,289.07,T,-350.83,M,006.107,N,011.310,K,D*00
$GPGGA,094936.45,5702.9063952,N,00949.7988483,E,2,5,1.5,6.598,M,40.595,M,2.2,0123*78
$GPVTG,288.77,T,-351.13,M,006.088,N,011.274,K,D*0B
$GPGGA,094936.50,5702.9064243,N,00949.7987014,E,2,5,1.5,6.596,M,40.595,M,2.2,0123*7B
$GPVTG,289.03,T,-350.87,M,006.102,N,011.302,K,D*06
$GPGGA,094936.55,5702.9064499,N,00949.7985574,E,2,5,1.5,6.593,M,40.595,M,2.2,0123*7B
$GPVTG,288.87,T,-351.03,M,006.073,N,011.247,K,D*01
$GPGGA,094936.60,5702.9064772,N,00949.7984165,E,2,5,1.5,6.593,M,40.595,M,2.2,0123*7E
$GPVTG,289.06,T,-350.84,M,006.028,N,011.163,K,D*0C
$GPGGA,094936.65,5702.9065282,N,00949.7982433,E,2,5,1.5,6.516,M,40.595,M,2.4,0123*7B
$GPVTG,288.89,T,-351.01,M,006.053,N,011.211,K,D*0C
$GPGGA,094936.70,5702.9065545,N,00949.7980959,E,2,5,1.5,6.513,M,40.595,M,2.4,0123*75
$GPVTG,288.75,T,-351.15,M,006.064,N,011.231,K,D*0C
$GPGGA,094936.75,5702.9065812,N,00949.7979501,E,2,5,1.5,6.512,M,40.595,M,2.4,0123*79
$GPVTG,288.71,T,-351.19,M,006.061,N,011.225,K,D*04
$GPGGA,094936.80,5702.9066088,N,00949.7978020,E,2,5,1.5,6.510,M,40.595,M,2.4,0123*7E
$GPVTG,288.74,T,-351.16,M,006.083,N,011.266,K,D*05
$GPGGA,094936.85,5702.9066611,N,00949.7976332,E,2,5,1.5,6.422,M,40.595,M,2.7,0123*70
$GPVTG,288.88,T,-351.02,M,006.067,N,011.236,K,D*0C
$GPGGA,094936.90,5702.9066870,N,00949.7974850,E,2,5,1.5,6.421,M,40.595,M,2.7,0123*73
$GPVTG,288.64,T,-351.26,M,006.081,N,011.262,K,D*01
$GPGGA,094936.95,5702.9067113,N,00949.7973389,E,2,5,1.5,6.419,M,40.595,M,2.7,0123*78
$GPVTG,288.29,T,-351.61,M,006.067,N,011.235,K,D*01
$GPGGA,094937.00,5702.9067391,N,00949.7971956,E,2,5,1.5,6.416,M,40.595,M,2.7,0123*78
$GPVTG,288.53,T,-351.37,M,006.046,N,011.196,K,D*06
$GPGGA,094937.05,5702.9067934,N,00949.7970234,E,2,5,1.5,6.333,M,40.595,M,2.9,0123*78
$GPVTG,288.90,T,-351.00,M,006.072,N,011.246,K,D*04
$GPGGA,094937.10,5702.9068188,N,00949.7968777,E,2,5,1.5,6.331,M,40.595,M,2.9,0123*75
$GPVTG,288.68,T,-351.22,M,006.060,N,011.223,K,D*03
$GPGGA,094937.15,5702.9068457,N,00949.7967325,E,2,5,1.5,6.330,M,40.595,M,2.9,0123*7A
$GPVTG,288.70,T,-351.20,M,006.053,N,011.210,K,D*08
$GPGGA,094937.20,5702.9068683,N,00949.7965846,E,2,5,1.5,6.330,M,40.595,M,2.9,0123*7B
$GPVTG,288.06,T,-351.84,M,006.050,N,011.205,K,D*00
$GPGGA,094937.25,5702.9069198,N,00949.7964147,E,2,5,1.5,6.252,M,40.595,M,1.8,0123*7C
$GPVTG,288.16,T,-351.74,M,006.037,N,011.180,K,D*01
$GPGGA,094937.30,5702.9069501,N,00949.7962677,E,2,5,1.5,6.254,M,40.595,M,1.8,0123*78
$GPVTG,288.65,T,-351.25,M,006.064,N,011.230,K,D*0F
$GPGGA,094937.35,5702.9069795,N,00949.7961245,E,2,5,1.5,6.253,M,40.595,M,1.8,0123*73
$GPVTG,289.08,T,-350.82,M,006.051,N,011.207,K,D*0B
$GPGGA,094937.40,5702.9070062,N,00949.7959836,E,2,5,1.5,6.250,M,40.595,M,1.8,0123*70
$GPVTG,289.17,T,-350.73,M,006.007,N,011.125,K,D*0B
$GPGGA,094937.45,5702.9070557,N,00949.7958137,E,2,5,1.5,6.166,M,40.595,M,2.0,0123*72
$GPVTG,288.75,T,-351.15,M,005.998,N,011.109,K,D*0D
$GPGGA,094937.50,5702.9070822,N,00949.7956652,E,2,5,1.5,6.165,M,40.595,M,2.0,0123*70
$GPVTG,288.61,T,-351.29,M,006.028,N,011.163,K,D*0A
$GPGGA,094937.55,5702.9071127,N,00949.7955215,E,2,5,1.5,6.166,M,40.595,M,2.0,0123*7F
$GPVTG,289.16,T,-350.74,M,006.031,N,011.169,K,D*00
$GPGGA,094937.60,5702.9071381,N,00949.7953749,E,2,5,1.5,6.167,M,40.595,M,2.0,0123*7C
$GPVTG,288.89,T,-351.01,M,006.035,N,011.178,K,D*00
$GPGGA,094937.65,5702.9071922,N,00949.7952111,E,2,5,1.5,6.067,M,40.595,M,2.2,0123*73
$GPVTG,289.32,T,-350.58,M,006.004,N,011.120,K,D*03
$GPGGA,094937.70,5702.9072151,N,00949.7950660,E,2,5,1.5,6.065,M,40.595,M,2.2,0123*79
$GPVTG,288.71,T,-351.19,M,005.987,N,011.087,K,D*0C
$GPGGA,094937.75,5702.9072426,N,00949.7949204,E,2,5,1.5,6.062,M,40.595,M,2.2,0123*70
$GPVTG,288.78,T,-351.12,M,005.998,N,011.108,K,D*06
$GPGGA,094937.80,5702.9072696,N,00949.7947763,E,2,5,1.5,6.061,M,40.595,M,2.2,0123*7A
$GPVTG,288.82,T,-351.08,M,005.993,N,011.099,K,D*0A
$GPGGA,094937.85,5702.9073187,N,00949.7946020,E,2,5,1.5,5.985,M,40.595,M,2.5,0123*7F
$GPVTG,288.45,T,-351.45,M,006.017,N,011.143,K,D*08
$GPGGA,094937.90,5702.9073482,N,00949.7944576,E,2,5,1.5,5.985,M,40.595,M,2.5,0123*7F
$GPVTG,288.86,T,-351.04,M,006.025,N,011.158,K,D*09
$GPGGA,094937.95,5702.9073753,N,00949.7943133,E,2,5,1.5,5.987,M,40.595,M,2.5,0123*75
$GPVTG,288.91,T,-350.99,M,006.020,N,011.148,K,D*0E
$GPGGA,094938.00,5702.9073987,N,00949.7941707,E,2,5,1.5,5.986,M,40.595,M,2.5,0123*73
$GPVTG,288.48,T,-351.42,M,005.982,N,011.078,K,D*0D
$GPGGA,094938.05,5702.9074495,N,00949.7940031,E,2,5,1.5,5.894,M,40.595,M,2.7,0123*7C
$GPVTG,288.43,T,-351.47,M,005.967,N,011.050,K,D*02
$GPGGA,094938.10,5702.9074763,N,00949.7938574,E,2,5,1.5,5.894,M,40.595,M,2.7,0123*79
$GPVTG,288.44,T,-351.46,M,005.981,N,011.077,K,D*09
$GPGGA,094938.15,5702.9075041,N,00949.7937136,E,2,5,1.5,5.893,M,40.595,M,2.7,0123*70
$GPVTG,288.64,T,-351.26,M,005.981,N,011.076,K,D*0C
$GPGGA,094938.20,5702.9075281,N,00949.7935668,E,2,5,1.5,5.893,M,40.595,M,2.7,0123*76
$GPVTG,288.22,T,-351.68,M,005.990,N,011.094,K,D*08
$GPGGA,094938.25,5702.9075799,N,00949.7933984,E,2,5,1.5,5.800,M,40.595,M,2.9,0123*70
$GPVTG,288.26,T,-351.64,M,005.989,N,011.092,K,D*0E
$GPGGA,094938.30,5702.9076048,N,00949.7932551,E,2,5,1.5,5.797,M,40.595,M,2.9,0123*78
$GPVTG,288.12,T,-351.78,M,005.971,N,011.058,K,D*05
$GPGGA,094938.35,5702.9076326,N,00949.7931113,E,2,5,1.5,5.796,M,40.595,M,2.9,0123*76
$GPVTG,288.37,T,-351.53,M,005.973,N,011.062,K,D*00
$GPGGA,094938.40,5702.9076620,N,00949.7929662,E,2,5,1.5,5.796,M,40.595,M,2.9,0123*7F
$GPVTG,288.78,T,-351.12,M,005.995,N,011.104,K,D*07
$GPGGA,094938.45,5702.9077133,N,00949.7927925,E,2,5,1.5,5.702,M,40.595,M,3.1,0123*78
$GPVTG,288.52,T,-351.38,M,006.040,N,011.186,K,D*0F
$GPGGA,094938.50,5702.9077390,N,00949.7926485,E,2,5,1.5,5.700,M,40.595,M,3.1,0123*73
$GPVTG,288.45,T,-351.45,M,006.022,N,011.153,K,D*0F
$GPGGA,094938.55,5702.9077652,N,00949.7925046,E,2,5,1.5,5.703,M,40.595,M,3.1,0123*76
$GPVTG,288.46,T,-351.44,M,006.010,N,011.131,K,D*08
$GPGGA,094938.60,5702.9077922,N,00949.7923593,E,2,5,1.5,5.703,M,40.595,M,3.1,0123*73
$GPVTG,288.52,T,-351.38,M,006.016,N,011.142,K,D*04
$GPGGA,094938.65,5702.9078432,N,00949.7921959,E,2,5,1.5,5.601,M,40.595,M,3.3,0123*7C
$GPVTG,288.57,T,-351.33,M,005.965,N,011.047,K,D*00
$GPGGA,094938.70,5702.9078694,N,00949.7920507,E,2,5,1.5,5.599,M,40.595,M,3.3,0123*72
$GPVTG,288.52,T,-351.38,M,005.971,N,011.059,K,D*04
