$GPGGA,095008.50,5702.9225761,N,00949.7013596,E,2,5,1.5,-0.677,M,40.595,M,2.2,0123*50
$GPVTG,288.32,T,-351.58,M,006.068,N,011.239,K,D*02
$GPGGA,095008.55,5702.9226033,N,00949.7012167,E,2,5,1.5,-0.674,M,40.595,M,2.2,0123*5E
$GPVTG,288.54,T,-351.36,M,006.042,N,011.189,K,D*0A
$GPGGA,095008.60,5702.9226312,N,00949.7010622,E,2,5,1.5,-0.672,M,40.595,M,2.2,0123*5A
$GPVTG,288.47,T,-351.43,M,006.128,N,011.350,K,D*01
$GPGGA,095008.65,5702.9226653,N,00949.7009073,E,2,5,1.5,-0.698,M,40.595,M,2.4,0123*57
$GPVTG,288.15,T,-351.75,M,006.095,N,011.289,K,D*01
$GPGGA,095008.70,5702.9226928,N,00949.7007620,E,2,5,1.5,-0.697,M,40.595,M,2.4,0123*51
$GPVTG,288.32,T,-351.58,M,006.087,N,011.272,K,D*0C
$GPGGA,095008.75,5702.9227189,N,00949.7006168,E,2,5,1.5,-0.696,M,40.595,M,2.4,0123*5D
$GPVTG,288.29,T,-351.61,M,006.071,N,011.244,K,D*00
$GPGGA,095008.80,5702.9227432,N,00949.7004678,E,2,5,1.5,-0.698,M,40.595,M,2.4,0123*58
$GPVTG,287.91,T,-351.99,M,006.083,N,011.266,K,D*06
$GPGGA,095008.85,5702.9227772,N,00949.7003056,E,2,5,1.5,-0.726,M,40.595,M,2.7,0123*50
$GPVTG,287.61,T,-352.29,M,006.124,N,011.342,K,D*0A
$GPGGA,095008.90,5702.9228057,N,00949.7001595,E,2,5,1.5,-0.726,M,40.595,M,2.7,0123*53
$GPVTG,287.98,T,-351.92,M,006.122,N,011.338,K,D*04
$GPGGA,095008.95,5702.9228331,N,00949.7000116,E,2,5,1.5,-0.729,M,40.595,M,2.7,0123*54
$GPVTG,288.11,T,-351.79,M,006.131,N,011.355,K,D*06
$GPGGA,095009.00,5702.9228592,N,00949.6998625,E,2,5,1.5,-0.729,M,40.595,M,2.7,0123*58
$GPVTG,288.02,T,-351.88,M,006.142,N,011.376,K,D*0F
$GPGGA,095009.05,5702.9228934,N,00949.6997012,E,2,5,1.5,-0.736,M,40.595,M,1.5,0123*5F
$GPVTG,287.85,T,-352.05,M,006.148,N,011.387,K,D*0D
$GPGGA,095009.10,5702.9229218,N,00949.6995545,E,2,5,1.5,-0.734,M,40.595,M,1.5,0123*58
$GPVTG,288.17,T,-351.73,M,006.147,N,011.384,K,D*07
$GPGGA,095009.15,5702.9229497,N,00949.6994094,E,2,5,1.5,-0.734,M,40.595,M,1.5,0123*54
$GPVTG,288.45,T,-351.45,M,006.127,N,011.347,K,D*0C
$GPGGA,095009.20,5702.9229757,N,00949.6992623,E,2,5,1.5,-0.731,M,40.595,M,1.5,0123*54
$GPVTG,288.37,T,-351.53,M,006.119,N,011.332,K,D*01
$GPGGA,095009.25,5702.9230103,N,00949.6991097,E,2,5,1.5,-0.758,M,40.595,M,1.8,0123*56
$GPVTG,288.27,T,-351.63,M,006.076,N,011.254,K,D*0A
$GPGGA,095009.30,5702.9230388,N,00949.6989629,E,2,5,1.5,-0.756,M,40.595,M,1.8,0123*57
$GPVTG,288.56,T,-351.34,M,006.083,N,011.266,K,D*05
$GPGGA,095009.35,5702.9230683,N,00949.6988167,E,2,5,1.5,-0.755,M,40.595,M,1.8,0123*53
$GPVTG,288.96,T,-350.94,M,006.090,N,011.278,K,D*0F
$GPGGA,095009.40,5702.9230946,N,00949.6986673,E,2,5,1.5,-0.755,M,40.595,M,1.8,0123*5B
$GPVTG,288.79,T,-351.11,M,006.109,N,011.314,K,D*08
$GPGGA,095009.45,5702.9231320,N,00949.6985091,E,2,5,1.5,-0.776,M,40.595,M,2.0,0123*56
$GPVTG,288.96,T,-350.94,M,006.128,N,011.349,K,D*0E
$GPGGA,095009.50,5702.9231597,N,00949.6983631,E,2,5,1.5,-0.776,M,40.595,M,2.0,0123*52
$GPVTG,289.06,T,-350.84,M,006.119,N,011.332,K,D*09
$GPGGA,095009.55,5702.9231858,N,00949.6982204,E,2,5,1.5,-0.774,M,40.595,M,2.0,0123*58
$GPVTG,289.03,T,-350.87,M,006.074,N,011.249,K,D*08
$GPGGA,095009.60,5702.9232111,N,00949.6980737,E,2,5,1.5,-0.774,M,40.595,M,2.0,0123*5E
$GPVTG,288.78,T,-351.12,M,006.066,N,011.234,K,D*01
$GPGGA,095009.65,5702.9232451,N,00949.6979123,E,2,5,1.5,-0.785,M,40.595,M,2.2,0123*53
$GPVTG,288.51,T,-351.39,M,006.101,N,011.300,K,D*05
$GPGGA,095009.70,5702.9232705,N,00949.6977650,E,2,5,1.5,-0.783,M,40.595,M,2.2,0123*5E
$GPVTG,288.29,T,-351.61,M,006.096,N,011.289,K,D*08
$GPGGA,095009.75,5702.9232991,N,00949.6976203,E,2,5,1.5,-0.783,M,40.595,M,2.2,0123*5B
$GPVTG,288.62,T,-351.28,M,006.084,N,011.267,K,D*09
$GPGGA,095009.80,5702.9233266,N,00949.6974764,E,2,5,1.5,-0.782,M,40.595,M,2.2,0123*54
$GPVTG,288.78,T,-351.12,M,006.061,N,011.225,K,D*06
$GPGGA,095009.85,5702.9233604,N,00949.6973173,E,2,5,1.5,-0.803,M,40.595,M,2.5,0123*57
$GPVTG,288.61,T,-351.29,M,006.080,N,011.259,K,D*02
$GPGGA,095009.90,5702.9233853,N,00949.6971734,E,2,5,1.5,-0.804,M,40.595,M,2.5,0123*5F
$GPVTG,288.47,T,-351.43,M,006.053,N,011.211,K,D*08
$GPGGA,095009.95,5702.9234139,N,00949.6970286,E,2,5,1.5,-0.804,M,40.595,M,2.5,0123*55
$GPVTG,288.71,T,-351.19,M,006.049,N,011.203,K,D*0A
$GPGGA,095010.00,5702.9234404,N,00949.6968793,E,2,5,1.5,-0.799,M,40.595,M,2.5,0123*59
$GPVTG,288.58,T,-351.32,M,006.070,N,011.241,K,D*04
$GPGGA,095010.05,5702.9234676,N,00949.6966828,E,2,5,1.5,-0.682,M,40.595,M,2.7,0123*53
$GPVTG,288.48,T,-351.42,M,006.097,N,011.291,K,D*06
$GPGGA,095010.10,5702.9234944,N,00949.6965395,E,2,5,1.5,-0.683,M,40.595,M,2.7,0123*56
$GPVTG,288.56,T,-351.34,M,006.069,N,011.239,K,D*0B
$GPGGA,095010.15,5702.9235228,N,00949.6963941,E,2,5,1.5,-0.681,M,40.595,M,2.7,0123*54
$GPVTG,288.77,T,-351.13,M,006.067,N,011.237,K,D*0D
$GPGGA,095010.20,5702.9235483,N,00949.6962440,E,2,5,1.5,-0.682,M,40.595,M,2.7,0123*5B
$GPVTG,288.51,T,-351.39,M,006.091,N,011.281,K,D*05
$GPGGA,095010.25,5702.9235760,N,00949.6960546,E,2,5,1.5,-0.579,M,40.595,M,2.9,0123*5C
$GPVTG,288.44,T,-351.46,M,006.056,N,011.216,K,D*0C
$GPGGA,095010.30,5702.9236042,N,00949.6959107,E,2,5,1.5,-0.577,M,40.595,M,2.9,0123*59
$GPVTG,288.75,T,-351.15,M,006.040,N,011.186,K,D*05
$GPGGA,095010.35,5702.9236316,N,00949.6957637,E,2,5,1.5,-0.579,M,40.595,M,2.9,0123*5A
$GPVTG,288.80,T,-351.10,M,006.055,N,011.213,K,D*01
$GPGGA,095010.40,5702.9236569,N,00949.6956130,E,2,5,1.5,-0.582,M,40.595,M,2.9,0123*53
$GPVTG,288.42,T,-351.48,M,006.090,N,011.279,K,D*07
$GPGGA,095010.45,5702.9236860,N,00949.6954269,E,2,5,1.5,-0.465,M,40.595,M,3.1,0123*5E
$GPVTG,288.82,T,-351.08,M,006.055,N,011.214,K,D*0D
$GPGGA,095010.50,5702.9237116,N,00949.6952821,E,2,5,1.5,-0.462,M,40.595,M,3.1,0123*54
$GPVTG,288.68,T,-351.22,M,006.038,N,011.182,K,D*06
$GPGGA,095010.55,5702.9237430,N,00949.6951376,E,2,5,1.5,-0.464,M,40.595,M,3.1,0123*5C
$GPVTG,289.34,T,-350.56,M,006.049,N,011.202,K,D*01
$GPGGA,095010.60,5702.9237697,N,00949.6949877,E,2,5,1.5,-0.465,M,40.595,M,3.1,0123*57
$GPVTG,289.11,T,-350.79,M,006.083,N,011.266,K,D*0F
$GPGGA,095010.65,5702.9237945,N,00949.6947949,E,2,5,1.5,-0.353,M,40.595,M,3.3,0123*50
$GPVTG,288.86,T,-351.04,M,006.107,N,011.311,K,D*07
$GPGGA,095010.70,5702.9238196,N,00949.6946498,E,2,5,1.5,-0.353,M,40.595,M,3.3,0123*5D
$GPVTG,288.76,T,-351.14,M,006.091,N,011.281,K,D*0F
$GPGGA,095010.75,5702.9238476,N,00949.6945050,E,2,5,1.5,-0.353,M,40.595,M,3.3,0123*50
$GPVTG,288.87,T,-351.03,M,006.081,N,011.263,K,D*0A
$GPGGA,095010.80,5702.9238775,N,00949.6943596,E,2,5,1.5,-0.352,M,40.595,M,3.3,0123*52
$GPVTG,289.13,T,-350.77,M,006.083,N,011.265,K,D*00
$GPGGA,095010.85,5702.9238993,N,00949.6941729,E,2,5,1.5,-0.258,M,40.595,M,3.5,0123*58
$GPVTG,288.91,T,-350.99,M,006.084,N,011.267,K,D*0E
$GPGGA,095010.90,5702.9239255,N,00949.6940290,E,2,5,1.5,-0.260,M,40.595,M,3.5,0123*51
$GPVTG,288.91,T,-350.99,M,006.066,N,011.235,K,D*05
$GPGGA,095010.95,5702.9239514,N,00949.6938820,E,2,5,1.5,-0.263,M,40.595,M,3.5,0123*5B
$GPVTG,288.82,T,-351.08,M,006.070,N,011.241,K,D*0A
$GPGGA,095011.00,5702.9239788,N,00949.6937321,E,2,5,1.5,-0.264,M,40.595,M,3.5,0123*53
$GPVTG,288.74,T,-351.16,M,006.097,N,011.292,K,D*0B
$GPGGA,095011.05,5702.9240090,N,00949.6935828,E,2,5,1.5,-0.282,M,40.595,M,2.1,0123*5B
$GPVTG,288.68,T,-351.22,M,006.086,N,011.270,K,D*0D
$GPGGA,095011.10,5702.9240345,N,00949.6934389,E,2,5,1.5,-0.282,M,40.595,M,2.1,0123*55
$GPVTG,288.60,T,-351.30,M,006.063,N,011.228,K,D*00
$GPGGA,095011.15,5702.9240615,N,00949.6932972,E,2,5,1.5,-0.282,M,40.595,M,2.1,0123*58
$GPVTG,288.71,T,-351.19,M,006.030,N,011.167,K,D*05
$GPGGA,095011.20,5702.9240877,N,00949.6931501,E,2,5,1.5,-0.280,M,40.595,M,2.1,0123*5D
$GPVTG,288.61,T,-351.29,M,006.037,N,011.181,K,D*08
$GPGGA,095011.25,5702.9241186,N,00949.6929955,E,2,5,1.5,-0.323,M,40.595,M,2.4,0123*57
$GPVTG,288.61,T,-351.29,M,006.059,N,011.222,K,D*0A
$GPGGA,095011.30,5702.9241460,N,00949.6928492,E,2,5,1.5,-0.326,M,40.595,M,2.4,0123*5C
$GPVTG,288.69,T,-351.21,M,006.064,N,011.231,K,D*06
$GPGGA,095011.35,5702.9241765,N,00949.6927008,E,2,5,1.5,-0.332,M,40.595,M,2.4,0123*52
$GPVTG,289.16,T,-350.74,M,006.104,N,011.304,K,D*0E
$GPGGA,095011.40,5702.9242049,N,00949.6925560,E,2,5,1.5,-0.340,M,40.595,M,2.4,0123*56
$GPVTG,289.34,T,-350.56,M,006.096,N,011.289,K,D*00
$GPGGA,095011.45,5702.9242302,N,00949.6924068,E,2,5,1.5,-0.352,M,40.595,M,2.7,0123*53
$GPVTG,289.06,T,-350.84,M,006.096,N,011.289,K,D*0E
$GPGGA,095011.50,5702.9242588,N,00949.6922614,E,2,5,1.5,-0.348,M,40.595,M,2.7,0123*53
$GPVTG,289.27,T,-350.63,M,006.092,N,011.282,K,D*0B
$GPGGA,095011.55,5702.9242843,N,00949.6921155,E,2,5,1.5,-0.344,M,40.595,M,2.7,0123*51
$GPVTG,288.95,T,-350.95,M,006.076,N,011.253,K,D*0C
$GPGGA,095011.60,5702.9243108,N,00949.6919709,E,2,5,1.5,-0.344,M,40.595,M,2.7,0123*54
$GPVTG,288.88,T,-351.02,M,006.058,N,011.219,K,D*0D
$GPGGA,095011.65,5702.9243419,N,00949.6918280,E,2,5,1.5,-0.388,M,40.595,M,2.9,0123*5F
$GPVTG,288.87,T,-351.03,M,006.000,N,011.111,K,D*05
$GPGGA,095011.70,5702.9243682,N,00949.6916823,E,2,5,1.5,-0.393,M,40.595,M,2.9,0123*5C
$GPVTG,288.74,T,-351.16,M,006.002,N,011.115,K,D*0B
$GPGGA,095011.75,5702.9243963,N,00949.6915359,E,2,5,1.5,-0.393,M,40.595,M,2.9,0123*5C
$GPVTG,288.87,T,-351.03,M,006.018,N,011.145,K,D*0D
$GPGGA,095011.80,5702.9244257,N,00949.6913922,E,2,5,1.5,-0.394,M,40.595,M,2.9,0123*5A
$GPVTG,289.24,T,-350.66,M,006.016,N,011.142,K,D*0E
$GPGGA,095011.85,5702.9244571,N,00949.6912379,E,2,5,1.5,-0.397,M,40.595,M,3.2,0123*50
$GPVTG,289.13,T,-350.77,M,006.037,N,011.180,K,D*07
$GPGGA,095011.90,5702.9244839,N,00949.6910911,E,2,5,1.5,-0.396,M,40.595,M,3.2,0123*52
$GPVTG,289.01,T,-350.89,M,006.048,N,011.201,K,D*07
$GPGGA,095011.95,5702.9245135,N,00949.6909442,E,2,5,1.5,-0.395,M,40.595,M,3.2,0123*53
$GPVTG,289.29,T,-350.61,M,006.073,N,011.247,K,D*01
$GPGGA,095012.00,5702.9245408,N,00949.6907974,E,2,5,1.5,-0.398,M,40.595,M,3.2,0123*5C
$GPVTG,289.21,T,-350.69,M,006.082,N,011.265,K,D*0F
$GPGGA,095012.05,5702.9245732,N,00949.6906491,E,2,5,1.5,-0.432,M,40.595,M,1.7,0123*54
$GPVTG,289.11,T,-350.79,M,006.083,N,011.266,K,D*0F
$GPGGA,095012.10,5702.9246001,N,00949.6905034,E,2,5,1.5,-0.430,M,40.595,M,1.7,0123*5E
$GPVTG,289.08,T,-350.82,M,006.081,N,011.262,K,D*05
$GPGGA,095012.15,5702.9246262,N,00949.6903600,E,2,5,1.5,-0.431,M,40.595,M,1.7,0123*5A
$GPVTG,289.04,T,-350.86,M,006.058,N,011.220,K,D*0F
$GPGGA,095012.20,5702.9246546,N,00949.6902144,E,2,5,1.5,-0.431,M,40.595,M,1.7,0123*5B
$GPVTG,289.12,T,-350.78,M,006.061,N,011.224,K,D*07
$GPGGA,095012.25,5702.9246849,N,00949.6900641,E,2,5,1.5,-0.457,M,40.595,M,1.9,0123*52
$GPVTG,288.89,T,-351.01,M,006.063,N,011.228,K,D*05
$GPGGA,095012.30,5702.9247126,N,00949.6899146,E,2,5,1.5,-0.459,M,40.595,M,1.9,0123*58
$GPVTG,288.82,T,-351.08,M,006.095,N,011.288,K,D*04
$GPGGA,095012.35,5702.9247405,N,00949.6897719,E,2,5,1.5,-0.461,M,40.595,M,1.9,0123*50
$GPVTG,288.97,T,-350.93,M,006.067,N,011.237,K,D*0A
$GPGGA,095012.40,5702.9247658,N,00949.6896234,E,2,5,1.5,-0.466,M,40.595,M,1.9,0123*54
$GPVTG,288.70,T,-351.20,M,006.082,N,011.264,K,D*07
$GPGGA,095012.45,5702.9247992,N,00949.6894753,E,2,5,1.5,-0.484,M,40.595,M,2.2,0123*5A
$GPVTG,288.73,T,-351.17,M,006.060,N,011.223,K,D*0F
$GPGGA,095012.50,5702.9248270,N,00949.6893317,E,2,5,1.5,-0.485,M,40.595,M,2.2,0123*54
$GPVTG,288.94,T,-350.96,M,006.042,N,011.191,K,D*04
$GPGGA,095012.55,5702.9248520,N,00949.6891882,E,2,5,1.5,-0.488,M,40.595,M,2.2,0123*5B
$GPVTG,288.63,T,-351.27,M,006.010,N,011.130,K,D*0B
$GPGGA,095012.60,5702.9248806,N,00949.6890405,E,2,5,1.5,-0.489,M,40.595,M,2.2,0123*57
$GPVTG,288.83,T,-351.07,M,006.043,N,011.192,K,D*09
$GPGGA,095012.65,5702.9249150,N,00949.6888889,E,2,5,1.5,-0.505,M,40.595,M,2.4,0123*5B
$GPVTG,289.04,T,-350.86,M,006.072,N,011.246,K,D*07
$GPGGA,095012.70,5702.9249439,N,00949.6887453,E,2,5,1.5,-0.507,M,40.595,M,2.4,0123*53
$GPVTG,289.32,T,-350.58,M,006.060,N,011.222,K,D*00
$GPGGA,095012.75,5702.9249695,N,00949.6885989,E,2,5,1.5,-0.508,M,40.595,M,2.4,0123*55
$GPVTG,289.03,T,-350.87,M,006.058,N,011.220,K,D*09
$GPGGA,095012.80,5702.9249967,N,00949.6884472,E,2,5,1.5,-0.506,M,40.595,M,2.4,0123*5B
$GPVTG,288.84,T,-351.06,M,006.111,N,011.318,K,D*09
$GPGGA,095012.85,5702.9250305,N,00949.6882987,E,2,5,1.5,-0.524,M,40.595,M,2.7,0123*5A
$GPVTG,288.97,T,-350.93,M,006.098,N,011.293,K,D*04
$GPGGA,095012.90,5702.9250568,N,00949.6881535,E,2,5,1.5,-0.523,M,40.595,M,2.7,0123*52
$GPVTG,288.85,T,-351.05,M,006.083,N,011.266,K,D*09
$GPGGA,095012.95,5702.9250845,N,00949.6880070,E,2,5,1.5,-0.523,M,40.595,M,2.7,0123*50
$GPVTG,288.89,T,-351.01,M,006.087,N,011.274,K,D*06
$GPGGA,095013.00,5702.9251131,N,00949.6878614,E,2,5,1.5,-0.520,M,40.595,M,2.7,0123*56
$GPVTG,289.09,T,-350.81,M,006.088,N,011.276,K,D*0B
$GPGGA,095013.05,5702.9251477,N,00949.6877127,E,2,5,1.5,-0.549,M,40.595,M,1.5,0123*52
$GPVTG,289.14,T,-350.76,M,006.092,N,011.283,K,D*0E
$GPGGA,095013.10,5702.9251739,N,00949.6875667,E,2,5,1.5,-0.554,M,40.595,M,1.5,0123*52
$GPVTG,288.95,T,-350.95,M,006.083,N,011.266,K,D*00
$GPGGA,095013.15,5702.9252038,N,00949.6874250,E,2,5,1.5,-0.556,M,40.595,M,1.5,0123*51
$GPVTG,289.43,T,-350.47,M,006.056,N,011.216,K,D*0A
$GPGGA,095013.20,5702.9252296,N,00949.6872828,E,2,5,1.5,-0.556,M,40.595,M,1.5,0123*52
$GPVTG,289.28,T,-350.62,M,006.016,N,011.142,K,D*06
$GPGGA,095013.25,5702.9252604,N,00949.6871260,E,2,5,1.5,-0.544,M,40.595,M,1.8,0123*53
$GPVTG,288.86,T,-351.04,M,006.048,N,011.202,K,D*0E
$GPGGA,095013.30,5702.9252868,N,00949.6869773,E,2,5,1.5,-0.542,M,40.595,M,1.8,0123*5B
$GPVTG,288.65,T,-351.25,M,006.072,N,011.245,K,D*0A
$GPGGA,095013.35,5702.9253134,N,00949.6868285,E,2,5,1.5,-0.541,M,40.595,M,1.8,0123*51
$GPVTG,288.51,T,-351.39,M,006.093,N,011.285,K,D*03
$GPGGA,095013.40,5702.9253448,N,00949.6866835,E,2,5,1.5,-0.536,M,40.595,M,1.8,0123*52
$GPVTG,289.13,T,-350.77,M,006.101,N,011.300,K,D*09
$GPGGA,095013.45,5702.9253765,N,00949.6865360,E,2,5,1.5,-0.567,M,40.595,M,2.0,0123*5C
$GPVTG,288.80,T,-351.10,M,006.084,N,011.267,K,D*0E
$GPGGA,095013.50,5702.9254051,N,00949.6863906,E,2,5,1.5,-0.567,M,40.595,M,2.0,0123*53
$GPVTG,289.00,T,-350.90,M,006.082,N,011.263,K,D*0C
$GPGGA,095013.55,5702.9254311,N,00949.6862466,E,2,5,1.5,-0.567,M,40.595,M,2.0,0123*5B
$GPVTG,288.88,T,-351.02,M,006.056,N,011.215,K,D*0F
$GPGGA,095013.60,5702.9254586,N,00949.6861036,E,2,5,1.5,-0.569,M,40.595,M,2.0,0123*59
$GPVTG,289.00,T,-350.90,M,006.032,N,011.172,K,D*04
$GPGGA,095013.65,5702.9254909,N,00949.6859532,E,2,5,1.5,-0.585,M,40.595,M,2.2,0123*5D
$GPVTG,288.90,T,-351.00,M,006.037,N,011.180,K,D*0C
$GPGGA,095013.70,5702.9255188,N,00949.6858056,E,2,5,1.5,-0.589,M,40.595,M,2.2,0123*53
$GPVTG,288.94,T,-350.96,M,006.059,N,011.221,K,D*06
$GPGGA,095013.75,5702.9255466,N,00949.6856588,E,2,5,1.5,-0.592,M,40.595,M,2.2,0123*51
$GPVTG,288.98,T,-350.92,M,006.070,N,011.241,K,D*03
$GPGGA,095013.80,5702.9255735,N,00949.6855164,E,2,5,1.5,-0.596,M,40.595,M,2.2,0123*5F
$GPVTG,289.02,T,-350.88,M,006.037,N,011.180,K,D*07
$GPGGA,095013.85,5702.9256052,N,00949.6853626,E,2,5,1.5,-0.598,M,40.595,M,2.5,0123*51
$GPVTG,288.94,T,-350.96,M,006.050,N,011.206,K,D*0A
$GPGGA,095013.90,5702.9256326,N,00949.6852161,E,2,5,1.5,-0.599,M,40.595,M,2.5,0123*51
$GPVTG,288.93,T,-350.97,M,006.059,N,011.221,K,D*00
$GPGGA,095013.95,5702.9256616,N,00949.6850705,E,2,5,1.5,-0.599,M,40.595,M,2.5,0123*54
$GPVTG,289.17,T,-350.73,M,006.066,N,011.234,K,D*0F
$GPGGA,095014.00,5702.9256912,N,00949.6849234,E,2,5,1.5,-0.598,M,40.595,M,2.5,0123*5A
$GPVTG,289.41,T,-350.49,M,006.089,N,011.276,K,D*02
$GPGGA,095014.05,5702.9257222,N,00949.6847743,E,2,5,1.5,-0.592,M,40.595,M,2.7,0123*55
$GPVTG,289.04,T,-350.86,M,006.052,N,011.209,K,D*0E
$GPGGA,095014.10,5702.9257490,N,00949.6846283,E,2,5,1.5,-0.587,M,40.595,M,2.7,0123*52
$GPVTG,288.94,T,-350.96,M,006.052,N,011.209,K,D*07
$GPGGA,095014.15,5702.9257775,N,00949.6844833,E,2,5,1.5,-0.585,M,40.595,M,2.7,0123*5E
$GPVTG,289.12,T,-350.78,M,006.052,N,011.209,K,D*08
$GPGGA,095014.20,5702.9258054,N,00949.6843369,E,2,5,1.5,-0.584,M,40.595,M,2.7,0123*51
$GPVTG,289.16,T,-350.74,M,006.062,N,011.227,K,D*0F
$GPGGA,095014.25,5702.9258436,N,00949.6841911,E,2,5,1.5,-0.611,M,40.595,M,2.9,0123*52
$GPVTG,289.69,T,-350.21,M,006.071,N,011.243,K,D*07
$GPGGA,095014.30,5702.9258691,N,00949.6840455,E,2,5,1.5,-0.612,M,40.595,M,2.9,0123*56
$GPVTG,289.36,T,-350.54,M,006.059,N,011.222,K,D*02
$GPGGA,095014.35,5702.9258955,N,00949.6838995,E,2,5,1.5,-0.613,M,40.595,M,2.9,0123*5B
$GPVTG,289.16,T,-350.74,M,006.058,N,011.219,K,D*0B
$GPGGA,095014.40,5702.9259242,N,00949.6837536,E,2,5,1.5,-0.611,M,40.595,M,2.9,0123*5D
$GPVTG,289.32,T,-350.58,M,006.067,N,011.236,K,D*02
$GPGGA,095014.45,5702.9259551,N,00949.6836017,E,2,5,1.5,-0.617,M,40.595,M,3.1,0123*55
$GPVTG,288.87,T,-351.03,M,006.065,N,011.233,K,D*05
$GPGGA,095014.50,5702.9259859,N,00949.6834561,E,2,5,1.5,-0.620,M,40.595,M,3.1,0123*56
$GPVTG,289.32,T,-350.58,M,006.080,N,011.259,K,D*02
$GPGGA,095014.55,5702.9260154,N,00949.6833122,E,2,5,1.5,-0.624,M,40.595,M,3.1,0123*5D
$GPVTG,289.62,T,-350.28,M,006.073,N,011.247,K,D*03
$GPGGA,095014.60,5702.9260437,N,00949.6831657,E,2,5,1.5,-0.625,M,40.595,M,3.1,0123*5D
$GPVTG,289.63,T,-350.27,M,006.082,N,011.264,K,D*02
$GPGGA,095014.65,5702.9260732,N,00949.6830144,E,2,5,1.5,-0.629,M,40.595,M,3.3,0123*54
$GPVTG,289.08,T,-350.82,M,006.065,N,011.232,K,D*0A
$GPGGA,095014.70,5702.9261017,N,00949.6828694,E,2,5,1.5,-0.626,M,40.595,M,3.3,0123*5D
$GPVTG,289.22,T,-350.68,M,006.063,N,011.229,K,D*0A
$GPGGA,095014.75,5702.9261286,N,00949.6827218,E,2,5,1.5,-0.626,M,40.595,M,3.3,0123*5D
$GPVTG,289.07,T,-350.83,M,006.077,N,011.254,K,D*07
$GPGGA,095014.80,5702.9261569,N,00949.6825749,E,2,5,1.5,-0.625,M,40.595,M,3.3,0123*51
$GPVTG,289.14,T,-350.76,M,006.089,N,011.278,K,D*00
$GPGGA,095014.85,5702.9261947,N,00949.6824298,E,2,5,1.5,-0.646,M,40.595,M,3.5,0123*5F
$GPVTG,289.69,T,-350.21,M,006.078,N,011.257,K,D*0B
$GPGGA,095014.90,5702.9262217,N,00949.6822806,E,2,5,1.5,-0.648,M,40.595,M,3.5,0123*53
$GPVTG,289.44,T,-350.46,M,006.105,N,011.306,K,D*0B
$GPGGA,095014.95,5702.9262487,N,00949.6821339,E,2,5,1.5,-0.653,M,40.595,M,3.5,0123*57
$GPVTG,289.30,T,-350.60,M,006.106,N,011.308,K,D*01
$GPGGA,095015.00,5702.9262773,N,00949.6819875,E,2,5,1.5,-0.656,M,40.595,M,3.5,0123*5F
$GPVTG,289.38,T,-350.52,M,006.110,N,011.316,K,D*00
$GPGGA,095015.05,5702.9263145,N,00949.6818341,E,2,5,1.5,-0.650,M,40.595,M,2.1,0123*56
$GPVTG,289.72,T,-350.18,M,006.137,N,011.366,K,D*02
$GPGGA,095015.10,5702.9263408,N,00949.6816884,E,2,5,1.5,-0.648,M,40.595,M,2.1,0123*5B
$GPVTG,289.47,T,-350.43,M,006.120,N,011.334,K,D*0B
$GPGGA,095015.15,5702.9263699,N,00949.6815428,E,2,5,1.5,-0.645,M,40.595,M,2.1,0123*50
$GPVTG,289.63,T,-350.27,M,006.117,N,011.329,K,D*07
$GPGGA,095015.20,5702.9263999,N,00949.6813962,E,2,5,1.5,-0.644,M,40.595,M,2.1,0123*5D
$GPVTG,289.85,T,-350.05,M,006.128,N,011.349,K,D*05
$GPGGA,095015.25,5702.9264349,N,00949.6812462,E,2,5,1.5,-0.653,M,40.595,M,2.4,0123*57
$GPVTG,289.68,T,-350.22,M,006.128,N,011.349,K,D*03
$GPGGA,095015.30,5702.9264630,N,00949.6811001,E,2,5,1.5,-0.652,M,40.595,M,2.4,0123*5B
$GPVTG,289.66,T,-350.24,M,006.123,N,011.340,K,D*09
$GPGGA,095015.35,5702.9264937,N,00949.6809554,E,2,5,1.5,-0.654,M,40.595,M,2.4,0123*5C
$GPVTG,290.02,T,-349.88,M,006.119,N,011.332,K,D*01
$GPGGA,095015.40,5702.9265229,N,00949.6808087,E,2,5,1.5,-0.657,M,40.595,M,2.4,0123*52
$GPVTG,290.08,T,-349.82,M,006.126,N,011.345,K,D*0D
$GPGGA,095015.45,5702.9265585,N,00949.6806529,E,2,5,1.5,-0.653,M,40.595,M,2.7,0123*5E
$GPVTG,290.03,T,-349.87,M,006.164,N,011.415,K,D*07
$GPGGA,095015.50,5702.9265851,N,00949.6805102,E,2,5,1.5,-0.653,M,40.595,M,2.7,0123*50
$GPVTG,289.86,T,-350.04,M,006.116,N,011.326,K,D*03
$GPGGA,095015.55,5702.9266144,N,00949.6803592,E,2,5,1.5,-0.652,M,40.595,M,2.7,0123*51
$GPVTG,289.81,T,-350.09,M,006.160,N,011.408,K,D*03
$GPGGA,095015.60,5702.9266445,N,00949.6802106,E,2,5,1.5,-0.652,M,40.595,M,2.7,0123*5B
$GPVTG,289.93,T,-349.97,M,006.181,N,011.447,K,D*0B
$GPGGA,095015.65,5702.9266806,N,00949.6800575,E,2,5,1.5,-0.651,M,40.595,M,2.9,0123*5A
$GPVTG,289.98,T,-349.92,M,006.194,N,011.472,K,D*07
$GPGGA,095015.70,5702.9267081,N,00949.6799129,E,2,5,1.5,-0.649,M,40.595,M,2.9,0123*53
$GPVTG,289.87,T,-350.03,M,006.162,N,011.412,K,D*06
$GPGGA,095015.75,5702.9267328,N,00949.6797671,E,2,5,1.5,-0.645,M,40.595,M,2.9,0123*5E
$GPVTG,289.36,T,-350.54,M,006.129,N,011.352,K,D*02
$GPGGA,095015.80,5702.9267598,N,00949.6796173,E,2,5,1.5,-0.646,M,40.595,M,2.9,0123*5E
$GPVTG,289.10,T,-350.81,M,006.148,N,011.386,K,D*00
$GPGGA,095015.85,5702.9267993,N,00949.6794684,E,2,5,1.5,-0.653,M,40.595,M,3.2,0123*5F
$GPVTG,289.79,T,-350.11,M,006.151,N,011.393,K,D*0A
$GPGGA,095015.90,5702.9268315,N,00949.6793219,E,2,5,1.5,-0.651,M,40.595,M,3.2,0123*55
$GPVTG,290.26,T,-349.64,M,006.164,N,011.416,K,D*0E
$GPGGA,095015.95,5702.9268583,N,00949.6791765,E,2,5,1.5,-0.649,M,40.595,M,3.2,0123*5C
$GPVTG,290.01,T,-349.89,M,006.137,N,011.366,K,D*0E
$GPGGA,095016.00,5702.9268853,N,00949.6790318,E,2,5,1.5,-0.650,M,40.595,M,3.2,0123*54
$GPVTG,289.81,T,-350.09,M,006.109,N,011.315,K,D*07
$GPGGA,095016.05,5702.9269217,N,00949.6788815,E,2,5,1.5,-0.645,M,40.595,M,1.7,0123*56
$GPVTG,289.97,T,-349.93,M,006.109,N,011.314,K,D*0A
$GPGGA,095016.10,5702.9269507,N,00949.6787340,E,2,5,1.5,-0.644,M,40.595,M,1.7,0123*51
$GPVTG,289.96,T,-349.94,M,006.120,N,011.334,K,D*05
$GPGGA,095016.15,5702.9269798,N,00949.6785858,E,2,5,1.5,-0.642,M,40.595,M,1.7,0123*56
$GPVTG,289.94,T,-349.96,M,006.136,N,011.364,K,D*07
$GPGGA,095016.20,5702.9270087,N,00949.6784394,E,2,5,1.5,-0.642,M,40.595,M,1.7,0123*5B
$GPVTG,289.95,T,-349.95,M,006.133,N,011.359,K,D*0E
$GPGGA,095016.25,5702.9270393,N,00949.6782888,E,2,5,1.5,-0.649,M,40.595,M,1.9,0123*5D
$GPVTG,289.31,T,-350.59,M,006.115,N,011.325,K,D*07
$GPGGA,095016.30,5702.9270682,N,00949.6781437,E,2,5,1.5,-0.648,M,40.595,M,1.9,0123*56
$GPVTG,289.43,T,-350.47,M,006.103,N,011.303,K,D*0E
$GPGGA,095016.35,5702.9270981,N,00949.6779948,E,2,5,1.5,-0.650,M,40.595,M,1.9,0123*54
$GPVTG,289.56,T,-350.34,M,006.132,N,011.356,K,D*0C
$GPGGA,095016.40,5702.9271280,N,00949.6778504,E,2,5,1.5,-0.652,M,40.595,M,1.9,0123*5A
$GPVTG,289.81,T,-350.09,M,006.117,N,011.328,K,D*06
$GPGGA,095016.45,5702.9271621,N,00949.6776991,E,2,5,1.5,-0.647,M,40.595,M,2.2,0123*52
$GPVTG,289.76,T,-350.14,M,006.111,N,011.318,K,D*07
$GPGGA,095016.50,5702.9271917,N,00949.6775514,E,2,5,1.5,-0.648,M,40.595,M,2.2,0123*51
$GPVTG,289.85,T,-350.05,M,006.127,N,011.348,K,D*0B
$GPGGA,095016.55,5702.9272157,N,00949.6774063,E,2,5,1.5,-0.650,M,40.595,M,2.2,0123*56
$GPVTG,289.26,T,-350.64,M,006.090,N,011.279,K,D*0B
$GPGGA,095016.60,5702.9272432,N,00949.6772589,E,2,5,1.5,-0.652,M,40.595,M,2.2,0123*53
$GPVTG,289.13,T,-350.77,M,006.095,N,011.288,K,D*04
$GPGGA,095016.65,5702.9272770,N,00949.6771083,E,2,5,1.5,-0.643,M,40.595,M,2.4,0123*59
$GPVTG,289.20,T,-350.70,M,006.084,N,011.268,K,D*0D
$GPGGA,095016.70,5702.9273034,N,00949.6769635,E,2,5,1.5,-0.643,M,40.595,M,2.4,0123*59
$GPVTG,289.03,T,-350.87,M,006.064,N,011.230,K,D*07
$GPGGA,095016.75,5702.9273315,N,00949.6768143,E,2,5,1.5,-0.647,M,40.595,M,2.4,0123*5F
$GPVTG,288.97,T,-350.93,M,006.093,N,011.283,K,D*0E
$GPGGA,095016.80,5702.9273622,N,00949.6766688,E,2,5,1.5,-0.650,M,40.595,M,2.4,0123*5C
$GPVTG,289.38,T,-350.52,M,006.098,N,011.293,K,D*0D
$GPGGA,095016.85,5702.9273979,N,00949.6765217,E,2,5,1.5,-0.644,M,40.595,M,2.7,0123*5F
$GPVTG,289.65,T,-350.25,M,006.073,N,011.248,K,D*06
$GPGGA,095016.90,5702.9274270,N,00949.6763758,E,2,5,1.5,-0.644,M,40.595,M,2.7,0123*56
$GPVTG,289.76,T,-350.14,M,006.077,N,011.255,K,D*0E
$GPGGA,095016.95,5702.9274520,N,00949.6762269,E,2,5,1.5,-0.649,M,40.595,M,2.7,0123*5A
$GPVTG,289.23,T,-350.67,M,006.088,N,011.275,K,D*08
$GPGGA,095017.00,5702.9274822,N,00949.6760867,E,2,5,1.5,-0.651,M,40.595,M,2.7,0123*57
$GPVTG,289.69,T,-350.21,M,006.046,N,011.198,K,D*06
$GPGGA,095017.05,5702.9275178,N,00949.6759356,E,2,5,1.5,-0.632,M,40.595,M,1.5,0123*52
$GPVTG,289.74,T,-350.16,M,006.055,N,011.214,K,D*0B
$GPGGA,095017.10,5702.9275467,N,00949.6757914,E,2,5,1.5,-0.634,M,40.595,M,1.5,0123*59
$GPVTG,289.87,T,-350.03,M,006.047,N,011.199,K,D*06
$GPGGA,095017.15,5702.9275737,N,00949.6756441,E,2,5,1.5,-0.636,M,40.595,M,1.5,0123*54
$GPVTG,289.62,T,-350.28,M,006.059,N,011.221,K,D*0B
$GPGGA,095017.20,5702.9276013,N,00949.6754956,E,2,5,1.5,-0.637,M,40.595,M,1.5,0123*58
$GPVTG,289.45,T,-350.45,M,006.084,N,011.268,K,D*08
$GPGGA,095017.25,5702.9276341,N,00949.6753422,E,2,5,1.5,-0.623,M,40.595,M,1.8,0123*58
$GPVTG,289.22,T,-350.68,M,006.100,N,011.298,K,D*04
$GPGGA,095017.30,5702.9276621,N,00949.6751971,E,2,5,1.5,-0.623,M,40.595,M,1.8,0123*56
$GPVTG,289.24,T,-350.66,M,006.093,N,011.284,K,D*0A
$GPGGA,095017.35,5702.9276901,N,00949.6750482,E,2,5,1.5,-0.621,M,40.595,M,1.8,0123*5C
$GPVTG,289.15,T,-350.75,M,006.115,N,011.325,K,D*0F
$GPGGA,095017.40,5702.9277178,N,00949.6749049,E,2,5,1.5,-0.623,M,40.595,M,1.8,0123*50
$GPVTG,289.21,T,-350.69,M,006.090,N,011.278,K,D*00
$GPGGA,095017.45,5702.9277488,N,00949.6747562,E,2,5,1.5,-0.624,M,40.595,M,2.0,0123*51
$GPVTG,289.02,T,-350.88,M,006.074,N,011.248,K,D*07
$GPGGA,095017.50,5702.9277764,N,00949.6746082,E,2,5,1.5,-0.624,M,40.595,M,2.0,0123*5E
$GPVTG,288.94,T,-350.96,M,006.089,N,011.277,K,D*08
$GPGGA,095017.55,5702.9278046,N,00949.6744663,E,2,5,1.5,-0.624,M,40.595,M,2.0,0123*58
$GPVTG,289.10,T,-350.80,M,006.055,N,011.214,K,D*06
$GPGGA,095017.60,5702.9278275,N,00949.6743213,E,2,5,1.5,-0.625,M,40.595,M,2.0,0123*59
$GPVTG,288.63,T,-351.27,M,006.032,N,011.171,K,D*0E
$GPGGA,095017.65,5702.9278641,N,00949.6741670,E,2,5,1.5,-0.597,M,40.595,M,2.2,0123*54
$GPVTG,288.60,T,-351.30,M,006.091,N,011.281,K,D*0E
$GPGGA,095017.70,5702.9278915,N,00949.6740229,E,2,5,1.5,-0.596,M,40.595,M,2.2,0123*56
$GPVTG,288.72,T,-351.18,M,006.069,N,011.239,K,D*03
$GPGGA,095017.75,5702.9279199,N,00949.6738793,E,2,5,1.5,-0.595,M,40.595,M,2.2,0123*56
$GPVTG,288.99,T,-350.91,M,006.051,N,011.207,K,D*00
$GPGGA,095017.80,5702.9279500,N,00949.6737359,E,2,5,1.5,-0.590,M,40.595,M,2.2,0123*50
$GPVTG,289.47,T,-350.43,M,006.045,N,011.196,K,D*03
$GPGGA,095017.85,5702.9279878,N,00949.6735861,E,2,5,1.5,-0.590,M,40.595,M,2.5,0123*52
$GPVTG,289.79,T,-350.11,M,006.080,N,011.260,K,D*0A
$GPGGA,095017.90,5702.9280152,N,00949.6734382,E,2,5,1.5,-0.590,M,40.595,M,2.5,0123*56
$GPVTG,289.60,T,-350.30,M,006.096,N,011.290,K,D*09
$GPGGA,095017.95,5702.9280435,N,00949.6732941,E,2,5,1.5,-0.591,M,40.595,M,2.5,0123*55
$GPVTG,289.69,T,-350.21,M,006.081,N,011.262,K,D*0B
$GPGGA,095018.00,5702.9280724,N,00949.6731464,E,2,5,1.5,-0.590,M,40.595,M,2.5,0123*5D
$GPVTG,289.72,T,-350.18,M,006.103,N,011.303,K,D*06
$GPGGA,095018.05,5702.9281053,N,00949.6730020,E,2,5,1.5,-0.585,M,40.595,M,2.7,0123*5D
$GPVTG,289.58,T,-350.32,M,006.048,N,011.202,K,D*08
$GPGGA,095018.10,5702.9281320,N,00949.6728575,E,2,5,1.5,-0.588,M,40.595,M,2.7,0123*5F
$GPVTG,289.43,T,-350.47,M,006.034,N,011.176,K,D*0B
$GPGGA,095018.15,5702.9281607,N,00949.6727136,E,2,5,1.5,-0.589,M,40.595,M,2.7,0123*57
$GPVTG,289.57,T,-350.33,M,006.028,N,011.163,K,D*04
$GPGGA,095018.20,5702.9281918,N,00949.6725611,E,2,5,1.5,-0.591,M,40.595,M,2.7,0123*59
$GPVTG,289.75,T,-350.15,M,006.109,N,011.314,K,D*00
$GPGGA,095018.25,5702.9282248,N,00949.6724155,E,2,5,1.5,-0.566,M,40.595,M,2.9,0123*51
$GPVTG,289.72,T,-350.18,M,006.053,N,011.210,K,D*01
$GPGGA,095018.30,5702.9282548,N,00949.6722684,E,2,5,1.5,-0.566,M,40.595,M,2.9,0123*5F
$GPVTG,289.90,T,-350.00,M,006.079,N,011.257,K,D*0F
$GPGGA,095018.35,5702.9282788,N,00949.6721224,E,2,5,1.5,-0.565,M,40.595,M,2.9,0123*5A
$GPVTG,289.30,T,-350.60,M,006.062,N,011.227,K,D*0E
$GPGGA,095018.40,5702.9283079,N,00949.6719792,E,2,5,1.5,-0.563,M,40.595,M,2.9,0123*55
$GPVTG,289.52,T,-350.38,M,006.048,N,011.201,K,D*0B
$GPGGA,095018.45,5702.9283434,N,00949.6718289,E,2,5,1.5,-0.557,M,40.595,M,3.1,0123*5D
$GPVTG,289.47,T,-350.43,M,006.069,N,011.240,K,D*05
$GPGGA,095018.50,5702.9283731,N,00949.6716871,E,2,5,1.5,-0.556,M,40.595,M,3.1,0123*5D
$GPVTG,289.68,T,-350.22,M,006.046,N,011.197,K,D*0B
$GPGGA,095018.55,5702.9283990,N,00949.6715390,E,2,5,1.5,-0.555,M,40.595,M,3.1,0123*59
$GPVTG,289.43,T,-350.47,M,006.063,N,011.228,K,D*01
$GPGGA,095018.60,5702.9284280,N,00949.6713919,E,2,5,1.5,-0.553,M,40.595,M,3.1,0123*59
$GPVTG,289.46,T,-350.44,M,006.080,N,011.260,K,D*06
$GPGGA,095018.65,5702.9284630,N,00949.6712451,E,2,5,1.5,-0.547,M,40.595,M,3.3,0123*54
$GPVTG,289.60,T,-350.30,M,006.068,N,011.239,K,D*0B
$GPGGA,095018.70,5702.9284908,N,00949.6710977,E,2,5,1.5,-0.553,M,40.595,M,3.3,0123*5A
$GPVTG,289.51,T,-350.39,M,006.084,N,011.267,K,D*09
$GPGGA,095018.75,5702.9285171,N,00949.6709515,E,2,5,1.5,-0.558,M,40.595,M,3.3,0123*53
$GPVTG,289.32,T,-350.58,M,006.082,N,011.263,K,D*09
$GPGGA,095018.80,5702.9285460,N,00949.6708073,E,2,5,1.5,-0.561,M,40.595,M,3.3,0123*52
$GPVTG,289.45,T,-350.45,M,006.072,N,011.246,K,D*0D
$GPGGA,095018.85,5702.9285795,N,00949.6706533,E,2,5,1.5,-0.532,M,40.595,M,3.5,0123*51
$GPVTG,288.49,T,-351.41,M,006.097,N,011.292,K,D*07
$GPGGA,095018.90,5702.9286076,N,00949.6705054,E,2,5,1.5,-0.529,M,40.595,M,3.5,0123*51
$GPVTG,288.61,T,-351.29,M,006.118,N,011.330,K,D*0C
$GPGGA,095018.95,5702.9286370,N,00949.6703615,E,2,5,1.5,-0.528,M,40.595,M,3.5,0123*55
$GPVTG,289.03,T,-350.87,M,006.103,N,011.303,K,D*06
$GPGGA,095019.00,5702.9286662,N,00949.6702111,E,2,5,1.5,-0.526,M,40.595,M,3.5,0123*52
$GPVTG,289.15,T,-350.75,M,006.148,N,011.387,K,D*0F
$GPGGA,095019.05,5702.9287026,N,00949.6700630,E,2,5,1.5,-0.521,M,40.595,M,2.1,0123*54
$GPVTG,289.35,T,-350.55,M,006.153,N,011.395,K,D*06
$GPGGA,095019.10,5702.9287296,N,00949.6699204,E,2,5,1.5,-0.521,M,40.595,M,2.1,0123*5B
$GPVTG,289.32,T,-350.58,M,006.107,N,011.311,K,D*01
$GPGGA,095019.15,5702.9287541,N,00949.6697725,E,2,5,1.5,-0.516,M,40.595,M,2.1,0123*5F
$GPVTG,288.81,T,-351.09,M,006.103,N,011.303,K,D*0A
$GPGGA,095019.20,5702.9287834,N,00949.6696242,E,2,5,1.5,-0.511,M,40.595,M,2.1,0123*54
$GPVTG,289.01,T,-350.89,M,006.126,N,011.346,K,D*0C
$GPGGA,095019.25,5702.9288195,N,00949.6694810,E,2,5,1.5,-0.504,M,40.595,M,2.4,0123*52
$GPVTG,289.29,T,-350.61,M,006.093,N,011.284,K,D*00
$GPGGA,095019.30,5702.9288490,N,00949.6693332,E,2,5,1.5,-0.503,M,40.595,M,2.4,0123*5D
$GPVTG,289.47,T,-350.43,M,006.113,N,011.321,K,D*0F
$GPGGA,095019.35,5702.9288748,N,00949.6691894,E,2,5,1.5,-0.504,M,40.595,M,2.4,0123*5C
$GPVTG,289.25,T,-350.65,M,006.078,N,011.256,K,D*02
$GPGGA,095019.40,5702.9289023,N,00949.6690404,E,2,5,1.5,-0.502,M,40.595,M,2.4,0123*57
$GPVTG,289.12,T,-350.78,M,006.101,N,011.299,K,D*06
$GPGGA,095019.45,5702.9289387,N,00949.6688937,E,2,5,1.5,-0.507,M,40.595,M,2.7,0123*5D
$GPVTG,289.40,T,-350.50,M,006.108,N,011.311,K,D*03
$GPGGA,095019.50,5702.9289683,N,00949.6687455,E,2,5,1.5,-0.510,M,40.595,M,2.7,0123*58
$GPVTG,289.57,T,-350.33,M,006.131,N,011.355,K,D*0A
$GPGGA,095019.55,5702.9289982,N,00949.6685982,E,2,5,1.5,-0.511,M,40.595,M,2.7,0123*57
$GPVTG,289.79,T,-350.11,M,006.145,N,011.380,K,D*0D
$GPGGA,095019.60,5702.9290234,N,00949.6684539,E,2,5,1.5,-0.514,M,40.595,M,2.7,0123*57
$GPVTG,289.43,T,-350.47,M,006.107,N,011.310,K,D*08
$GPGGA,095019.65,5702.9290600,N,00949.6683023,E,2,5,1.5,-0.492,M,40.595,M,2.9,0123*59
$GPVTG,289.79,T,-350.11,M,006.133,N,011.359,K,D*08
$GPGGA,095019.70,5702.9290898,N,00949.6681560,E,2,5,1.5,-0.490,M,40.595,M,2.9,0123*50
$GPVTG,289.98,T,-349.92,M,006.136,N,011.365,K,D*0E
$GPGGA,095019.75,5702.9291158,N,00949.6680100,E,2,5,1.5,-0.488,M,40.595,M,2.9,0123*5B
$GPVTG,289.65,T,-350.25,M,006.117,N,011.329,K,D*03
$GPGGA,095019.80,5702.9291439,N,00949.6678673,E,2,5,1.5,-0.483,M,40.595,M,2.9,0123*5C
$GPVTG,289.72,T,-350.18,M,006.083,N,011.265,K,D*0E
$GPGGA,095019.85,5702.9291800,N,00949.6677169,E,2,5,1.5,-0.474,M,40.595,M,3.2,0123*5E
$GPVTG,289.74,T,-350.16,M,006.121,N,011.336,K,D*08
$GPGGA,095019.90,5702.9292102,N,00949.6675763,E,2,5,1.5,-0.473,M,40.595,M,3.2,0123*5B
$GPVTG,290.14,T,-349.76,M,006.078,N,011.256,K,D*02
$GPGGA,095019.95,5702.9292377,N,00949.6674303,E,2,5,1.5,-0.471,M,40.595,M,3.2,0123*5F
$GPVTG,289.98,T,-349.92,M,006.075,N,011.250,K,D*0F
$GPGGA,095020.00,5702.9292674,N,00949.6672856,E,2,5,1.5,-0.467,M,40.595,M,3.2,0123*55
$GPVTG,290.16,T,-349.74,M,006.071,N,011.244,K,D*08
$GPGGA,095020.05,5702.9293014,N,00949.6671418,E,2,5,1.5,-0.472,M,40.595,M,1.7,0123*57
$GPVTG,289.98,T,-349.92,M,006.053,N,011.210,K,D*0F
$GPGGA,095020.10,5702.9293323,N,00949.6669914,E,2,5,1.5,-0.473,M,40.595,M,1.7,0123*5D
$GPVTG,290.14,T,-349.76,M,006.111,N,011.318,K,D*07
$GPGGA,095020.15,5702.9293591,N,00949.6668430,E,2,5,1.5,-0.474,M,40.595,M,1.7,0123*5A
$GPVTG,289.79,T,-350.11,M,006.123,N,011.339,K,D*0F
$GPGGA,095020.20,5702.9293891,N,00949.6667016,E,2,5,1.5,-0.477,M,40.595,M,1.7,0123*5D
$GPVTG,290.12,T,-349.78,M,006.087,N,011.273,K,D*0D
$GPGGA,095020.25,5702.9294240,N,00949.6665517,E,2,5,1.5,-0.453,M,40.595,M,1.9,0123*57
$GPVTG,290.21,T,-349.69,M,006.098,N,011.294,K,D*0A
$GPGGA,095020.30,5702.9294533,N,00949.6664098,E,2,5,1.5,-0.451,M,40.595,M,1.9,0123*51
$GPVTG,290.37,T,-349.53,M,006.067,N,011.236,K,D*0C
$GPGGA,095020.35,5702.9294824,N,00949.6662636,E,2,5,1.5,-0.447,M,40.595,M,1.9,0123*5C
$GPVTG,290.36,T,-349.54,M,006.077,N,011.255,K,D*0E
$GPGGA,095020.40,5702.9295101,N,00949.6661144,E,2,5,1.5,-0.446,M,40.595,M,1.9,0123*51
$GPVTG,290.04,T,-349.86,M,006.105,N,011.306,K,D*03
$GPGGA,095020.45,5702.9295432,N,00949.6659744,E,2,5,1.5,-0.455,M,40.595,M,2.2,0123*56
$GPVTG,290.00,T,-349.90,M,006.053,N,011.211,K,D*05
$GPGGA,095020.50,5702.9295751,N,00949.6658319,E,2,5,1.5,-0.457,M,40.595,M,2.2,0123*5B
$GPVTG,290.49,T,-349.41,M,006.046,N,011.198,K,D*02
$GPGGA,095020.55,5702.9296048,N,00949.6656850,E,2,5,1.5,-0.461,M,40.595,M,2.2,0123*5F
$GPVTG,290.50,T,-349.40,M,006.070,N,011.241,K,D*09
$GPGGA,095020.60,5702.9296337,N,00949.6655385,E,2,5,1.5,-0.463,M,40.595,M,2.2,0123*50
$GPVTG,290.41,T,-349.49,M,006.082,N,011.264,K,D*0A
$GPGGA,095020.65,5702.9296641,N,00949.6653909,E,2,5,1.5,-0.434,M,40.595,M,2.4,0123*5D
$GPVTG,290.00,T,-349.90,M,006.056,N,011.215,K,D*04
$GPGGA,095020.70,5702.9296939,N,00949.6652469,E,2,5,1.5,-0.430,M,40.595,M,2.4,0123*57
$GPVTG,290.15,T,-349.75,M,006.052,N,011.209,K,D*02
$GPGGA,095020.75,5702.9297231,N,00949.6651051,E,2,5,1.5,-0.429,M,40.595,M,2.4,0123*54
$GPVTG,290.28,T,-349.62,M,006.028,N,011.163,K,D*08
$GPGGA,095020.80,5702.9297501,N,00949.6649601,E,2,5,1.5,-0.430,M,40.595,M,2.4,0123*58
$GPVTG,290.00,T,-349.90,M,006.023,N,011.155,K,D*01
$GPGGA,095020.85,5702.9297864,N,00949.6648186,E,2,5,1.5,-0.429,M,40.595,M,2.7,0123*51
$GPVTG,290.15,T,-349.75,M,006.012,N,011.134,K,D*0B
$GPGGA,095020.90,5702.9298162,N,00949.6646708,E,2,5,1.5,-0.431,M,40.595,M,2.7,0123*52
$GPVTG,290.12,T,-349.78,M,006.042,N,011.190,K,D*0A
$GPGGA,095020.95,5702.9298452,N,00949.6645264,E,2,5,1.5,-0.430,M,40.595,M,2.7,0123*5C
$GPVTG,290.13,T,-349.77,M,006.042,N,011.190,K,D*04
$GPGGA,095021.00,5702.9298695,N,00949.6643831,E,2,5,1.5,-0.431,M,40.595,M,2.7,0123*55
$GPVTG,289.78,T,-350.12,M,006.018,N,011.145,K,D*0D
$GPGGA,095021.05,5702.9299005,N,00949.6642371,E,2,5,1.5,-0.421,M,40.595,M,1.5,0123*50
$GPVTG,289.53,T,-350.37,M,006.017,N,011.143,K,D*0A
$GPGGA,095021.10,5702.9299362,N,00949.6640937,E,2,5,1.5,-0.422,M,40.595,M,1.5,0123*5F
$GPVTG,290.07,T,-349.83,M,006.029,N,011.167,K,D*0F
$GPGGA,095021.15,5702.9299642,N,00949.6639473,E,2,5,1.5,-0.423,M,40.595,M,1.5,0123*5F
$GPVTG,289.96,T,-349.94,M,006.044,N,011.193,K,D*09
$GPGGA,095021.20,5702.9299920,N,00949.6638020,E,2,5,1.5,-0.424,M,40.595,M,1.5,0123*56
$GPVTG,289.87,T,-350.03,M,006.048,N,011.200,K,D*0A
$GPGGA,095021.25,5702.9300306,N,00949.6636579,E,2,5,1.5,-0.406,M,40.595,M,1.8,0123*56
$GPVTG,289.98,T,-349.92,M,006.049,N,011.203,K,D*06
$GPGGA,095021.30,5702.9300595,N,00949.6635160,E,2,5,1.5,-0.408,M,40.595,M,1.8,0123*5F
$GPVTG,290.07,T,-349.83,M,006.029,N,011.166,K,D*0E
$GPGGA,095021.35,5702.9300868,N,00949.6633701,E,2,5,1.5,-0.406,M,40.595,M,1.8,0123*5C
$GPVTG,289.90,T,-350.00,M,006.038,N,011.182,K,D*01
$GPGGA,095021.40,5702.9301162,N,00949.6632239,E,2,5,1.5,-0.405,M,40.595,M,1.8,0123*50
$GPVTG,289.92,T,-349.98,M,006.055,N,011.213,K,D*0A
$GPGGA,095021.45,5702.9301486,N,00949.6630792,E,2,5,1.5,-0.412,M,40.595,M,2.0,0123*51
$GPVTG,290.11,T,-349.79,M,006.051,N,011.207,K,D*07
$GPGGA,095021.50,5702.9301762,N,00949.6629360,E,2,5,1.5,-0.412,M,40.595,M,2.0,0123*5D
$GPVTG,290.01,T,-349.89,M,006.035,N,011.176,K,D*0E
$GPGGA,095021.55,5702.9302056,N,00949.6627928,E,2,5,1.5,-0.415,M,40.595,M,2.0,0123*54
$GPVTG,290.13,T,-349.77,M,006.029,N,011.165,K,D*03
$GPGGA,095021.60,5702.9302337,N,00949.6626519,E,2,5,1.5,-0.418,M,40.595,M,2.0,0123*54
$GPVTG,290.16,T,-349.74,M,005.999,N,011.110,K,D*06
$GPGGA,095021.65,5702.9302719,N,00949.6625060,E,2,5,1.5,-0.396,M,40.595,M,2.2,0123*52
$GPVTG,290.43,T,-349.47,M,006.026,N,011.159,K,D*05
$GPGGA,095021.70,5702.9303016,N,00949.6623644,E,2,5,1.5,-0.395,M,40.595,M,2.2,0123*5A
$GPVTG,290.63,T,-349.27,M,006.010,N,011.130,K,D*0B
$GPGGA,095021.75,5702.9303302,N,00949.6622163,E,2,5,1.5,-0.392,M,40.595,M,2.2,0123*5D
$GPVTG,290.38,T,-349.52,M,006.049,N,011.203,K,D*08
$GPGGA,095021.80,5702.9303584,N,00949.6620698,E,2,5,1.5,-0.390,M,40.595,M,2.2,0123*5C
$GPVTG,290.17,T,-349.73,M,006.065,N,011.232,K,D*0A
$GPGGA,095021.85,5702.9303952,N,00949.6619291,E,2,5,1.5,-0.400,M,40.595,M,2.5,0123*50
$GPVTG,290.61,T,-349.29,M,006.050,N,011.204,K,D*07
$GPGGA,095021.90,5702.9304229,N,00949.6617836,E,2,5,1.5,-0.398,M,40.595,M,2.5,0123*5B
$GPVTG,290.33,T,-349.57,M,006.054,N,011.212,K,D*0A
$GPGGA,095021.95,5702.9304545,N,00949.6616369,E,2,5,1.5,-0.397,M,40.595,M,2.5,0123*5C
$GPVTG,290.61,T,-349.29,M,006.089,N,011.277,K,D*07
$GPGGA,095022.00,5702.9304817,N,00949.6614930,E,2,5,1.5,-0.397,M,40.595,M,2.5,0123*5D
$GPVTG,290.32,T,-349.58,M,006.071,N,011.244,K,D*00
$GPGGA,095022.05,5702.9305161,N,00949.6613519,E,2,5,1.5,-0.404,M,40.595,M,2.7,0123*5E
$GPVTG,290.35,T,-349.55,M,006.037,N,011.180,K,D*03
$GPGGA,095022.10,5702.9305445,N,00949.6612085,E,2,5,1.5,-0.410,M,40.595,M,2.7,0123*5D
$GPVTG,290.28,T,-349.62,M,006.027,N,011.162,K,D*06
$GPGGA,095022.15,5702.9305740,N,00949.6610622,E,2,5,1.5,-0.415,M,40.595,M,2.7,0123*52
$GPVTG,290.27,T,-349.63,M,006.051,N,011.206,K,D*08
$GPGGA,095022.20,5702.9306030,N,00949.6609190,E,2,5,1.5,-0.420,M,40.595,M,2.7,0123*57
$GPVTG,290.30,T,-349.60,M,006.041,N,011.187,K,D*06
$GPGGA,095022.25,5702.9306358,N,00949.6607715,E,2,5,1.5,-0.395,M,40.595,M,2.9,0123*5D
$GPVTG,290.25,T,-349.65,M,006.026,N,011.161,K,D*0E
$GPGGA,095022.30,5702.9306691,N,00949.6606278,E,2,5,1.5,-0.392,M,40.595,M,2.9,0123*51
$GPVTG,290.84,T,-349.06,M,006.047,N,011.200,K,D*03
$GPGGA,095022.35,5702.9306974,N,00949.6604832,E,2,5,1.5,-0.389,M,40.595,M,2.9,0123*5C
$GPVTG,290.66,T,-349.24,M,006.047,N,011.199,K,D*0C
$GPGGA,095022.40,5702.9307223,N,00949.6603405,E,2,5,1.5,-0.389,M,40.595,M,2.9,0123*59
$GPVTG,290.09,T,-349.81,M,006.013,N,011.136,K,D*0E
$GPGGA,095022.45,5702.9307600,N,00949.6601939,E,2,5,1.5,-0.390,M,40.595,M,3.1,0123*58
$GPVTG,290.36,T,-349.54,M,006.043,N,011.192,K,D*01
$GPGGA,095022.50,5702.9307917,N,00949.6600489,E,2,5,1.5,-0.387,M,40.595,M,3.1,0123*54
$GPVTG,290.67,T,-349.23,M,006.066,N,011.234,K,D*0D
$GPGGA,095022.55,5702.9308201,N,00949.6599074,E,2,5,1.5,-0.386,M,40.595,M,3.1,0123*56
$GPVTG,290.63,T,-349.27,M,006.036,N,011.179,K,D*02
$GPGGA,095022.60,5702.9308509,N,00949.6597636,E,2,5,1.5,-0.386,M,40.595,M,3.1,0123*51
$GPVTG,290.82,T,-349.08,M,006.044,N,011.194,K,D*06
$GPGGA,095022.65,5702.9308855,N,00949.6596148,E,2,5,1.5,-0.385,M,40.595,M,3.3,0123*5E
$GPVTG,290.57,T,-349.33,M,006.064,N,011.230,K,D*09
$GPGGA,095022.70,5702.9309185,N,00949.6594703,E,2,5,1.5,-0.385,M,40.595,M,3.3,0123*54
$GPVTG,291.04,T,-348.86,M,006.086,N,011.271,K,D*08
$GPGGA,095022.75,5702.9309455,N,00949.6593200,E,2,5,1.5,-0.385,M,40.595,M,3.3,0123*58
$GPVTG,290.47,T,-349.43,M,006.124,N,011.341,K,D*0D
$GPGGA,095022.80,5702.9309733,N,00949.6591803,E,2,5,1.5,-0.383,M,40.595,M,3.3,0123*5C
$GPVTG,290.41,T,-349.49,M,006.067,N,011.237,K,D*07
$GPGGA,095022.85,5702.9310079,N,00949.6590380,E,2,5,1.5,-0.395,M,40.595,M,3.5,0123*58
$GPVTG,290.48,T,-349.42,M,006.036,N,011.178,K,D*09
$GPGGA,095022.90,5702.9310368,N,00949.6588943,E,2,5,1.5,-0.396,M,40.595,M,3.5,0123*50
$GPVTG,290.44,T,-349.46,M,006.031,N,011.169,K,D*06
$GPGGA,095022.95,5702.9310660,N,00949.6587482,E,2,5,1.5,-0.396,M,40.595,M,3.5,0123*57
$GPVTG,290.36,T,-349.54,M,006.050,N,011.204,K,D*0F
$GPGGA,095023.00,5702.9310972,N,00949.6586072,E,2,5,1.5,-0.396,M,40.595,M,3.5,0123*5C
$GPVTG,290.71,T,-349.19,M,006.031,N,011.170,K,D*02
$GPGGA,095023.05,5702.9311315,N,00949.6584586,E,2,5,1.5,-0.388,M,40.595,M,2.1,0123*55
$GPVTG,290.49,T,-349.41,M,006.025,N,011.158,K,D*0B
$GPGGA,095023.10,5702.9311602,N,00949.6583198,E,2,5,1.5,-0.388,M,40.595,M,2.1,0123*5E
$GPVTG,290.55,T,-349.35,M,005.989,N,011.091,K,D*0D
$GPGGA,095023.15,5702.9311885,N,00949.6581726,E,2,5,1.5,-0.387,M,40.595,M,2.1,0123*54
$GPVTG,290.35,T,-349.55,M,006.012,N,011.134,K,D*0B
$GPGGA,095023.20,5702.9312176,N,00949.6580296,E,2,5,1.5,-0.385,M,40.595,M,2.1,0123*59
$GPVTG,290.36,T,-349.54,M,006.006,N,011.123,K,D*0A
$GPGGA,095023.25,5702.9317913,N,00949.6573207,E,2,5,1.5,-1.804,M,40.595,M,2.4,0123*50
$GPVTG,290.68,T,-349.22,M,006.004,N,011.119,K,D*0B
$GPGGA,095023.30,5702.9318200,N,00949.6571793,E,2,5,1.5,-1.806,M,40.595,M,2.4,0123*5A
$GPVTG,290.67,T,-349.23,M,005.987,N,011.088,K,D*0D
$GPGGA,095023.35,5702.9318518,N,00949.6570379,E,2,5,1.5,-1.806,M,40.595,M,2.4,0123*50
$GPVTG,290.98,T,-348.92,M,005.986,N,011.086,K,D*09
$GPGGA,095023.40,5702.9318816,N,00949.6568987,E,2,5,1.5,-1.808,M,40.595,M,2.4,0123*5D
$GPVTG,291.10,T,-348.80,M,005.961,N,011.040,K,D*08
$GPGGA,095023.45,5702.9322195,N,00949.6564325,E,2,5,1.5,-2.612,M,40.595,M,2.7,0123*58
$GPVTG,291.01,T,-348.89,M,005.976,N,011.068,K,D*0D
$GPGGA,095023.50,5702.9322450,N,00949.6562888,E,2,5,1.5,-2.617,M,40.595,M,2.7,0123*5F
$GPVTG,290.45,T,-349.45,M,005.966,N,011.049,K,D*0F
$GPGGA,095023.55,5702.9322750,N,00949.6561455,E,2,5,1.5,-2.618,M,40.595,M,2.7,0123*59
$GPVTG,290.55,T,-349.35,M,005.976,N,011.068,K,D*0B
$GPGGA,095023.60,5702.9323074,N,00949.6560040,E,2,5,1.5,-2.617,M,40.595,M,2.7,0123*51
$GPVTG,290.98,T,-348.92,M,005.983,N,011.081,K,D*0B
$GPGGA,095023.65,5702.9325358,N,00949.6556550,E,2,5,1.5,-3.119,M,40.595,M,2.9,0123*58
$GPVTG,291.37,T,-348.53,M,006.015,N,011.141,K,D*0A
$GPGGA,095023.70,5702.9325617,N,00949.6555156,E,2,5,1.5,-3.120,M,40.595,M,2.9,0123*59
$GPVTG,290.83,T,-349.07,M,005.956,N,011.031,K,D*0F
$GPGGA,095023.75,5702.9325912,N,00949.6553723,E,2,5,1.5,-3.118,M,40.595,M,2.9,0123*5F
$GPVTG,290.81,T,-349.09,M,005.970,N,011.057,K,D*07
$GPGGA,095023.80,5702.9326222,N,00949.6552332,E,2,5,1.5,-3.114,M,40.595,M,2.9,0123*57
$GPVTG,291.14,T,-348.76,M,005.951,N,011.021,K,D*01
$GPGGA,095023.85,5702.9327908,N,00949.6549514,E,2,5,1.5,-3.484,M,40.595,M,3.2,0123*5E
$GPVTG,291.20,T,-348.70,M,005.933,N,010.989,K,D*0E
$GPGGA,095023.90,5702.9328156,N,00949.6548083,E,2,5,1.5,-3.487,M,40.595,M,3.2,0123*5F
$GPVTG,290.47,T,-349.43,M,005.923,N,010.969,K,D*00
$GPGGA,095023.95,5702.9328451,N,00949.6546662,E,2,5,1.5,-3.489,M,40.595,M,3.2,0123*51
$GPVTG,290.52,T,-349.38,M,005.930,N,010.983,K,D*0E
$GPGGA,095024.00,5702.9328745,N,00949.6545209,E,2,5,1.5,-3.493,M,40.595,M,3.2,0123*5D
$GPVTG,290.44,T,-349.46,M,005.965,N,011.048,K,D*0F
$GPGGA,095024.05,5702.9330080,N,00949.6542642,E,2,5,1.5,-3.736,M,40.595,M,1.7,0123*58
$GPVTG,290.55,T,-349.35,M,006.036,N,011.179,K,D*04
$GPGGA,095024.10,5702.9330388,N,00949.6541238,E,2,5,1.5,-3.734,M,40.595,M,1.7,0123*5F
$GPVTG,290.83,T,-349.07,M,006.022,N,011.152,K,D*02
$GPGGA,095024.15,5702.9330696,N,00949.6539817,E,2,5,1.5,-3.734,M,40.595,M,1.7,0123*58
$GPVTG,291.03,T,-348.87,M,006.023,N,011.155,K,D*04
$GPGGA,095024.20,5702.9331000,N,00949.6538369,E,2,5,1.5,-3.732,M,40.595,M,1.7,0123*53
$GPVTG,291.05,T,-348.85,M,006.046,N,011.197,K,D*0D
$GPGGA,095024.25,5702.9332057,N,00949.6536153,E,2,5,1.5,-3.948,M,40.595,M,1.9,0123*5F
$GPVTG,290.49,T,-349.41,M,006.025,N,011.159,K,D*0A
$GPGGA,095024.30,5702.9332345,N,00949.6534701,E,2,5,1.5,-3.951,M,40.595,M,1.9,0123*50
$GPVTG,290.35,T,-349.55,M,006.042,N,011.190,K,D*00
$GPGGA,095024.35,5702.9332643,N,00949.6533296,E,2,5,1.5,-3.952,M,40.595,M,1.9,0123*59
$GPVTG,290.51,T,-349.39,M,006.019,N,011.147,K,D*0C
$GPGGA,095024.40,5702.9332939,N,00949.6531873,E,2,5,1.5,-3.953,M,40.595,M,1.9,0123*5B
$GPVTG,290.59,T,-349.31,M,006.014,N,011.137,K,D*06
$GPGGA,095024.45,5702.9333858,N,00949.6529802,E,2,5,1.5,-4.105,M,40.595,M,2.2,0123*52
$GPVTG,290.69,T,-349.21,M,006.023,N,011.155,K,D*04
$GPGGA,095024.50,5702.9334116,N,00949.6528353,E,2,5,1.5,-4.107,M,40.595,M,2.2,0123*5E
$GPVTG,290.15,T,-349.75,M,006.020,N,011.149,K,D*00
$GPGGA,095024.55,5702.9334414,N,00949.6526947,E,2,5,1.5,-4.107,M,40.595,M,2.2,0123*5D
$GPVTG,290.33,T,-349.57,M,006.000,N,011.111,K,D*0B
$GPGGA,095024.60,5702.9334725,N,00949.6525522,E,2,5,1.5,-4.103,M,40.595,M,2.2,0123*52
$GPVTG,290.61,T,-349.29,M,006.005,N,011.122,K,D*00
$GPGGA,095024.65,5702.9335541,N,00949.6523582,E,2,5,1.5,-4.220,M,40.595,M,2.4,0123*5E
$GPVTG,290.72,T,-349.18,M,006.006,N,011.122,K,D*03
$GPGGA,095024.70,5702.9335843,N,00949.6522131,E,2,5,1.5,-4.220,M,40.595,M,2.4,0123*58
$GPVTG,290.76,T,-349.14,M,006.023,N,011.155,K,D*0C
$GPGGA,095024.75,5702.9336136,N,00949.6520667,E,2,5,1.5,-4.219,M,40.595,M,2.4,0123*59
$GPVTG,290.66,T,-349.24,M,006.046,N,011.198,K,D*0C
$GPGGA,095024.80,5702.9336418,N,00949.6519219,E,2,5,1.5,-4.218,M,40.595,M,2.4,0123*5C
$GPVTG,290.49,T,-349.41,M,006.050,N,011.206,K,D*01
$GPGGA,095024.85,5702.9337140,N,00949.6517384,E,2,5,1.5,-4.323,M,40.595,M,2.7,0123*51
$GPVTG,290.50,T,-349.40,M,006.032,N,011.171,K,D*0F
$GPGGA,095024.90,5702.9337431,N,00949.6516041,E,2,5,1.5,-4.323,M,40.595,M,2.7,0123*5D
$GPVTG,290.71,T,-349.19,M,005.969,N,011.054,K,D*02
$GPGGA,095024.95,5702.9337765,N,00949.6514608,E,2,5,1.5,-4.320,M,40.595,M,2.7,0123*50
$GPVTG,291.13,T,-348.77,M,005.991,N,011.095,K,D*04
$GPGGA,095025.00,5702.9338090,N,00949.6513160,E,2,5,1.5,-4.320,M,40.595,M,2.7,0123*51
$GPVTG,291.39,T,-348.51,M,006.019,N,011.148,K,D*03
$GPGGA,095025.05,5702.9338761,N,00949.6511323,E,2,5,1.5,-4.405,M,40.595,M,1.5,0123*5B
$GPVTG,291.09,T,-348.81,M,006.045,N,011.195,K,D*04
$GPGGA,095025.10,5702.9339060,N,00949.6509888,E,2,5,1.5,-4.410,M,40.595,M,1.5,0123*5F
$GPVTG,291.08,T,-348.82,M,006.048,N,011.200,K,D*04
$GPGGA,095025.15,5702.9339378,N,00949.6508459,E,2,5,1.5,-4.410,M,40.595,M,1.5,0123*51
$GPVTG,291.34,T,-348.56,M,006.054,N,011.212,K,D*0C
$GPGGA,095025.20,5702.9339696,N,00949.6506980,E,2,5,1.5,-4.410,M,40.595,M,1.5,0123*55
$GPVTG,291.40,T,-348.50,M,006.100,N,011.297,K,D*04
$GPGGA,095025.25,5702.9340317,N,00949.6505230,E,2,5,1.5,-4.475,M,40.595,M,1.8,0123*5F
$GPVTG,291.66,T,-348.24,M,006.119,N,011.333,K,D*04
$GPGGA,095025.30,5702.9340613,N,00949.6503790,E,2,5,1.5,-4.474,M,40.595,M,1.8,0123*52
$GPVTG,291.49,T,-348.41,M,006.110,N,011.315,K,D*07
$GPGGA,095025.35,5702.9340933,N,00949.6502408,E,2,5,1.5,-4.473,M,40.595,M,1.8,0123*5E
$GPVTG,291.91,T,-347.99,M,006.062,N,011.226,K,D*0D
$GPGGA,095025.40,5702.9341235,N,00949.6500995,E,2,5,1.5,-4.474,M,40.595,M,1.8,0123*5C
$GPVTG,291.88,T,-348.02,M,006.040,N,011.186,K,D*01
$GPGGA,095025.45,5702.9341817,N,00949.6499338,E,2,5,1.5,-4.535,M,40.595,M,2.0,0123*50
$GPVTG,291.97,T,-347.93,M,006.010,N,011.130,K,D*00
$GPGGA,095025.50,5702.9342135,N,00949.6497939,E,2,5,1.5,-4.540,M,40.595,M,2.0,0123*59
$GPVTG,292.20,T,-347.70,M,005.994,N,011.101,K,D*06
$GPGGA,095025.55,5702.9342439,N,00949.6496491,E,2,5,1.5,-4.542,M,40.595,M,2.0,0123*59
$GPVTG,292.02,T,-347.88,M,006.015,N,011.139,K,D*09
$GPGGA,095025.60,5702.9342724,N,00949.6495043,E,2,5,1.5,-4.543,M,40.595,M,2.0,0123*59
$GPVTG,291.61,T,-348.29,M,006.023,N,011.155,K,D*04
$GPGGA,095025.65,5702.9343262,N,00949.6493349,E,2,5,1.5,-4.582,M,40.595,M,2.2,0123*5A
$GPVTG,291.61,T,-348.29,M,006.041,N,011.188,K,D*00
$GPGGA,095025.70,5702.9343588,N,00949.6491896,E,2,5,1.5,-4.580,M,40.595,M,2.2,0123*54
$GPVTG,291.77,T,-348.13,M,006.074,N,011.249,K,D*06
$GPGGA,095025.75,5702.9343921,N,00949.6490494,E,2,5,1.5,-4.582,M,40.595,M,2.2,0123*53
$GPVTG,292.17,T,-347.73,M,006.062,N,011.226,K,D*04
$GPGGA,095025.80,5702.9344208,N,00949.6489039,E,2,5,1.5,-4.583,M,40.595,M,2.2,0123*54
$GPVTG,291.75,T,-348.15,M,006.071,N,011.243,K,D*0D
$GPGGA,095025.85,5702.9344715,N,00949.6487434,E,2,5,1.5,-4.638,M,40.595,M,2.5,0123*5B
$GPVTG,291.65,T,-348.25,M,006.044,N,011.193,K,D*07
$GPGGA,095025.90,5702.9345031,N,00949.6486014,E,2,5,1.5,-4.640,M,40.595,M,2.5,0123*57
$GPVTG,291.77,T,-348.13,M,006.040,N,011.187,K,D*00
$GPGGA,095025.95,5702.9345332,N,00949.6484552,E,2,5,1.5,-4.638,M,40.595,M,2.5,0123*58
$GPVTG,291.54,T,-348.36,M,006.066,N,011.234,K,D*09
$GPGGA,095026.00,5702.9345661,N,00949.6483131,E,2,5,1.5,-4.640,M,40.595,M,2.5,0123*5D
$GPVTG,291.84,T,-348.06,M,006.068,N,011.238,K,D*05
$GPGGA,095026.05,5702.9346172,N,00949.6481568,E,2,5,1.5,-4.684,M,40.595,M,2.7,0123*5E
$GPVTG,292.16,T,-347.74,M,006.028,N,011.165,K,D*08
$GPGGA,095026.10,5702.9346502,N,00949.6480130,E,2,5,1.5,-4.683,M,40.595,M,2.7,0123*56
$GPVTG,292.34,T,-347.56,M,006.051,N,011.206,K,D*00
$GPGGA,095026.15,5702.9346807,N,00949.6478718,E,2,5,1.5,-4.685,M,40.595,M,2.7,0123*56
$GPVTG,292.25,T,-347.65,M,006.033,N,011.173,K,D*05
$GPGGA,095026.20,5702.9347111,N,00949.6477267,E,2,5,1.5,-4.684,M,40.595,M,2.7,0123*5C
$GPVTG,292.03,T,-347.87,M,006.051,N,011.207,K,D*09
$GPGGA,095026.25,5702.9347592,N,00949.6475660,E,2,5,1.5,-4.711,M,40.595,M,2.9,0123*54
$GPVTG,291.98,T,-347.92,M,006.057,N,011.218,K,D*04
$GPGGA,095026.30,5702.9347909,N,00949.6474264,E,2,5,1.5,-4.710,M,40.595,M,2.9,0123*5E
$GPVTG,292.14,T,-347.76,M,006.032,N,011.171,K,D*06
$GPGGA,095026.35,5702.9348226,N,00949.6472834,E,2,5,1.5,-4.710,M,40.595,M,2.9,0123*5B
$GPVTG,292.16,T,-347.74,M,006.039,N,011.185,K,D*06
$GPGGA,095026.40,5702.9348520,N,00949.6471402,E,2,5,1.5,-4.711,M,40.595,M,2.9,0123*53
$GPVTG,291.86,T,-348.04,M,006.035,N,011.177,K,D*05
$GPGGA,095026.45,5702.9348998,N,00949.6469835,E,2,5,1.5,-4.738,M,40.595,M,3.1,0123*5A
$GPVTG,292.09,T,-347.81,M,006.032,N,011.172,K,D*01
$GPGGA,095026.50,5702.9349331,N,00949.6468394,E,2,5,1.5,-4.740,M,40.595,M,3.1,0123*58
$GPVTG,292.29,T,-347.61,M,006.059,N,011.222,K,D*06
$GPGGA,095026.55,5702.9349641,N,00949.6466969,E,2,5,1.5,-4.741,M,40.595,M,3.1,0123*58
$GPVTG,292.21,T,-347.69,M,006.055,N,011.214,K,D*0F
$GPGGA,095026.60,5702.9349968,N,00949.6465538,E,2,5,1.5,-4.741,M,40.595,M,3.1,0123*51
$GPVTG,292.35,T,-347.55,M,006.067,N,011.237,K,D*05
$GPGGA,095026.65,5702.9350392,N,00949.6463986,E,2,5,1.5,-4.774,M,40.595,M,3.3,0123*58
$GPVTG,291.95,T,-347.95,M,006.043,N,011.191,K,D*09
$GPGGA,095026.70,5702.9350746,N,00949.6462590,E,2,5,1.5,-4.773,M,40.595,M,3.3,0123*5C
$GPVTG,292.59,T,-347.31,M,006.041,N,011.188,K,D*0E
$GPGGA,095026.75,5702.9351058,N,00949.6461140,E,2,5,1.5,-4.775,M,40.595,M,3.3,0123*5C
$GPVTG,292.41,T,-347.49,M,006.062,N,011.226,K,D*0E
$GPGGA,095026.80,5702.9351348,N,00949.6459711,E,2,5,1.5,-4.778,M,40.595,M,3.3,0123*50
$GPVTG,292.02,T,-347.88,M,006.049,N,011.203,K,D*0A
$GPGGA,095026.85,5702.9351782,N,00949.6458144,E,2,5,1.5,-4.787,M,40.595,M,3.5,0123*56
$GPVTG,291.98,T,-347.92,M,006.050,N,011.204,K,D*0E
$GPGGA,095026.90,5702.9352113,N,00949.6456694,E,2,5,1.5,-4.786,M,40.595,M,3.5,0123*5A
$GPVTG,292.12,T,-347.78,M,006.080,N,011.260,K,D*04
$GPGGA,095026.95,5702.9352427,N,00949.6455235,E,2,5,1.5,-4.785,M,40.595,M,3.5,0123*52
$GPVTG,291.99,T,-347.91,M,006.105,N,011.307,K,D*0F
$GPGGA,095027.00,5702.9352772,N,00949.6453884,E,2,5,1.5,-4.786,M,40.595,M,3.5,0123*59
$GPVTG,292.64,T,-347.26,M,006.049,N,011.203,K,D*0E
$GPGGA,095027.05,5702.9353239,N,00949.6452357,E,2,5,1.5,-4.799,M,40.595,M,2.1,0123*58
$GPVTG,293.02,T,-346.88,M,006.043,N,011.191,K,D*08
$GPGGA,095027.10,5702.9353523,N,00949.6450936,E,2,5,1.5,-4.801,M,40.595,M,2.1,0123*51
$GPVTG,292.50,T,-347.40,M,006.022,N,011.152,K,D*03
$GPGGA,095027.15,5702.9353832,N,00949.6449505,E,2,5,1.5,-4.803,M,40.595,M,2.1,0123*5F
$GPVTG,292.34,T,-347.56,M,006.026,N,011.160,K,D*03
$GPGGA,095027.20,5702.9354171,N,00949.6448036,E,2,5,1.5,-4.806,M,40.595,M,2.1,0123*51
$GPVTG,292.45,T,-347.45,M,006.081,N,011.262,K,D*0B
$GPGGA,095027.25,5702.9354614,N,00949.6446486,E,2,5,1.5,-4.816,M,40.595,M,2.4,0123*55
$GPVTG,292.68,T,-347.22,M,006.085,N,011.270,K,D*02
$GPGGA,095027.30,5702.9354944,N,00949.6445062,E,2,5,1.5,-4.817,M,40.595,M,2.4,0123*57
$GPVTG,292.79,T,-347.11,M,006.088,N,011.274,K,D*0B
$GPGGA,095027.35,5702.9355261,N,00949.6443622,E,2,5,1.5,-4.821,M,40.595,M,2.4,0123*5E
$GPVTG,292.66,T,-347.25,M,006.096,N,011.290,K,D*07
$GPGGA,095027.40,5702.9355548,N,00949.6442183,E,2,5,1.5,-4.824,M,40.595,M,2.4,0123*58
$GPVTG,292.15,T,-347.75,M,006.086,N,011.271,K,D*08
$GPGGA,095027.45,5702.9356015,N,00949.6440627,E,2,5,1.5,-4.830,M,40.595,M,2.7,0123*5E
$GPVTG,292.73,T,-347.17,M,006.114,N,011.324,K,D*07
$GPGGA,095027.50,5702.9356352,N,00949.6439199,E,2,5,1.5,-4.832,M,40.595,M,2.7,0123*54
$GPVTG,292.90,T,-347.00,M,006.119,N,011.333,K,D*07
$GPGGA,095027.55,5702.9356689,N,00949.6437807,E,2,5,1.5,-4.833,M,40.595,M,2.7,0123*53
$GPVTG,293.18,T,-346.72,M,006.093,N,011.284,K,D*0C
$GPGGA,095027.60,5702.9357005,N,00949.6436356,E,2,5,1.5,-4.833,M,40.595,M,2.7,0123*58
$GPVTG,292.94,T,-346.96,M,006.108,N,011.312,K,D*0E
$GPGGA,095027.65,5702.9357406,N,00949.6434782,E,2,5,1.5,-4.831,M,40.595,M,2.9,0123*59
$GPVTG,292.47,T,-347.43,M,006.118,N,011.331,K,D*09
$GPGGA,095027.70,5702.9357748,N,00949.6433357,E,2,5,1.5,-4.828,M,40.595,M,2.9,0123*57
$GPVTG,292.73,T,-347.17,M,006.121,N,011.337,K,D*03
$GPGGA,095027.75,5702.9358091,N,00949.6431946,E,2,5,1.5,-4.825,M,40.595,M,2.9,0123*5B
$GPVTG,293.03,T,-346.87,M,006.113,N,011.321,K,D*0B
$GPGGA,095027.80,5702.9358363,N,00949.6430533,E,2,5,1.5,-4.821,M,40.595,M,2.9,0123*54
$GPVTG,292.36,T,-347.54,M,006.065,N,011.232,K,D*00
$GPGGA,095027.85,5702.9358786,N,00949.6429044,E,2,5,1.5,-4.844,M,40.595,M,3.2,0123*5A
$GPVTG,292.44,T,-347.46,M,006.053,N,011.210,K,D*03
$GPGGA,095027.90,5702.9359122,N,00949.6427588,E,2,5,1.5,-4.846,M,40.595,M,3.2,0123*5E
$GPVTG,292.52,T,-347.38,M,006.087,N,011.274,K,D*06
$GPGGA,095027.95,5702.9359434,N,00949.6426153,E,2,5,1.5,-4.845,M,40.595,M,3.2,0123*59
$GPVTG,292.34,T,-347.56,M,006.085,N,011.270,K,D*08
$GPGGA,095028.00,5702.9359767,N,00949.6424748,E,2,5,1.5,-4.845,M,40.595,M,3.2,0123*51
$GPVTG,292.57,T,-347.33,M,006.069,N,011.240,K,D*0F
$GPGGA,095028.05,5702.9360186,N,00949.6423221,E,2,5,1.5,-4.847,M,40.595,M,1.7,0123*5F
$GPVTG,292.69,T,-347.21,M,006.073,N,011.247,K,D*0D
$GPGGA,095028.10,5702.9360524,N,00949.6421768,E,2,5,1.5,-4.851,M,40.595,M,1.7,0123*5A
$GPVTG,292.78,T,-347.12,M,006.104,N,011.304,K,D*0A
$GPGGA,095028.15,5702.9360844,N,00949.6420349,E,2,5,1.5,-4.855,M,40.595,M,1.7,0123*56
$GPVTG,292.75,T,-347.15,M,006.092,N,011.282,K,D*01
$GPGGA,095028.20,5702.9361151,N,00949.6418918,E,2,5,1.5,-4.858,M,40.595,M,1.7,0123*54
$GPVTG,292.50,T,-347.40,M,006.083,N,011.266,K,D*0C
$GPGGA,095028.25,5702.9361558,N,00949.6417404,E,2,5,1.5,-4.855,M,40.595,M,1.9,0123*50
$GPVTG,292.72,T,-347.18,M,006.070,N,011.241,K,D*08
$GPGGA,095028.30,5702.9361906,N,00949.6415994,E,2,5,1.5,-4.854,M,40.595,M,1.9,0123*54
$GPVTG,293.07,T,-346.83,M,006.070,N,011.241,K,D*08
$GPGGA,095028.35,5702.9362251,N,00949.6414600,E,2,5,1.5,-4.852,M,40.595,M,1.9,0123*5E
$GPVTG,293.41,T,-346.49,M,006.055,N,011.214,K,D*0B
$GPGGA,095028.40,5702.9362581,N,00949.6413188,E,2,5,1.5,-4.854,M,40.595,M,1.9,0123*50
$GPVTG,293.45,T,-346.45,M,006.049,N,011.203,K,D*08
$GPGGA,095028.45,5702.9362959,N,00949.6411657,E,2,5,1.5,-4.857,M,40.595,M,2.2,0123*50
$GPVTG,292.95,T,-346.95,M,006.056,N,011.216,K,D*03
$GPGGA,095028.50,5702.9363274,N,00949.6410241,E,2,5,1.5,-4.858,M,40.595,M,2.2,0123*5C
$GPVTG,292.80,T,-347.10,M,006.046,N,011.197,K,D*00
$GPGGA,095028.55,5702.9363642,N,00949.6408800,E,2,5,1.5,-4.858,M,40.595,M,2.2,0123*5E
$GPVTG,293.29,T,-346.61,M,006.089,N,011.277,K,D*0B
$GPGGA,095028.60,5702.9363968,N,00949.6407419,E,2,5,1.5,-4.859,M,40.595,M,2.2,0123*55
$GPVTG,293.36,T,-346.54,M,006.050,N,011.205,K,D*02
$GPGGA,095028.65,5702.9364369,N,00949.6405955,E,2,5,1.5,-4.861,M,40.595,M,2.4,0123*56
$GPVTG,293.55,T,-346.35,M,006.024,N,011.157,K,D*07
$GPGGA,095028.70,5702.9364672,N,00949.6404548,E,2,5,1.5,-4.864,M,40.595,M,2.4,0123*59
$GPVTG,293.21,T,-346.69,M,006.004,N,011.119,K,D*05
$GPGGA,095028.75,5702.9365003,N,00949.6403118,E,2,5,1.5,-4.865,M,40.595,M,2.4,0123*5A
$GPVTG,293.17,T,-346.73,M,006.023,N,011.154,K,D*07
$GPGGA,095028.80,5702.9365365,N,00949.6401677,E,2,5,1.5,-4.867,M,40.595,M,2.4,0123*5D
$GPVTG,293.51,T,-346.39,M,006.067,N,011.236,K,D*0C
$GPGGA,095028.85,5702.9365732,N,00949.6400147,E,2,5,1.5,-4.842,M,40.595,M,2.7,0123*5F
$GPVTG,293.10,T,-346.80,M,006.065,N,011.232,K,D*0D
$GPGGA,095028.90,5702.9366077,N,00949.6398734,E,2,5,1.5,-4.840,M,40.595,M,2.7,0123*58
$GPVTG,293.32,T,-346.58,M,006.069,N,011.241,K,D*00
$GPGGA,095028.95,5702.9366417,N,00949.6397346,E,2,5,1.5,-4.836,M,40.595,M,2.7,0123*50
$GPVTG,293.53,T,-346.37,M,006.050,N,011.204,K,D*05
$GPGGA,095029.00,5702.9366746,N,00949.6395931,E,2,5,1.5,-4.829,M,40.595,M,2.7,0123*5C
$GPVTG,293.49,T,-346.41,M,006.050,N,011.205,K,D*0E
$GPGGA,095029.05,5702.9367146,N,00949.6394504,E,2,5,1.5,-4.849,M,40.595,M,1.5,0123*52
$GPVTG,293.48,T,-346.42,M,006.021,N,011.151,K,D*08
$GPGGA,095029.10,5702.9367484,N,00949.6393083,E,2,5,1.5,-4.847,M,40.595,M,1.5,0123*5E
$GPVTG,293.52,T,-346.38,M,006.035,N,011.177,K,D*0F
$GPGGA,095029.15,5702.9367827,N,00949.6391675,E,2,5,1.5,-4.848,M,40.595,M,1.5,0123*5C
$GPVTG,293.67,T,-346.23,M,006.040,N,011.187,K,D*0E
$GPGGA,095029.20,5702.9368164,N,00949.6390305,E,2,5,1.5,-4.853,M,40.595,M,1.5,0123*52
$GPVTG,293.85,T,-346.05,M,006.008,N,011.126,K,D*01
$GPGGA,095029.25,5702.9368594,N,00949.6388840,E,2,5,1.5,-4.839,M,40.595,M,1.8,0123*5E
$GPVTG,294.48,T,-345.42,M,006.010,N,011.131,K,D*08
$GPGGA,095029.30,5702.9368947,N,00949.6387424,E,2,5,1.5,-4.838,M,40.595,M,1.8,0123*58
$GPVTG,294.59,T,-345.31,M,006.032,N,011.172,K,D*0B
$GPGGA,095029.35,5702.9369276,N,00949.6385981,E,2,5,1.5,-4.838,M,40.595,M,1.8,0123*55
$GPVTG,294.28,T,-345.62,M,006.061,N,011.224,K,D*0D
$GPGGA,095029.40,5702.9369619,N,00949.6384580,E,2,5,1.5,-4.840,M,40.595,M,1.8,0123*59
$GPVTG,294.32,T,-345.58,M,006.058,N,011.219,K,D*0B
$GPGGA,095029.45,5702.9370041,N,00949.6383114,E,2,5,1.5,-4.835,M,40.595,M,2.0,0123*58
$GPVTG,294.53,T,-345.37,M,006.057,N,011.217,K,D*04
$GPGGA,095029.50,5702.9370380,N,00949.6381728,E,2,5,1.5,-4.839,M,40.595,M,2.0,0123*55
$GPVTG,294.59,T,-345.31,M,006.044,N,011.194,K,D*02
$GPGGA,095029.55,5702.9370737,N,00949.6380335,E,2,5,1.5,-4.839,M,40.595,M,2.0,0123*51
$GPVTG,294.75,T,-345.15,M,006.044,N,011.193,K,D*0D
$GPGGA,095029.60,5702.9371073,N,00949.6378908,E,2,5,1.5,-4.839,M,40.595,M,2.0,0123*52
$GPVTG,294.61,T,-345.29,M,006.062,N,011.227,K,D*0F
$GPGGA,095029.65,5702.9371476,N,00949.6377466,E,2,5,1.5,-4.839,M,40.595,M,2.2,0123*5E
$GPVTG,294.72,T,-345.18,M,006.046,N,011.197,K,D*01
$GPGGA,095029.70,5702.9371809,N,00949.6376055,E,2,5,1.5,-4.840,M,40.595,M,2.2,0123*55
$GPVTG,294.61,T,-345.29,M,006.050,N,011.205,K,D*0E
$GPGGA,095029.75,5702.9372127,N,00949.6374668,E,2,5,1.5,-4.841,M,40.595,M,2.2,0123*5D
$GPVTG,294.47,T,-345.43,M,006.031,N,011.170,K,D*00
$GPGGA,095029.80,5702.9372463,N,00949.6373243,E,2,5,1.5,-4.844,M,40.595,M,2.2,0123*5D
$GPVTG,294.32,T,-345.58,M,006.047,N,011.200,K,D*0D
$GPGGA,095029.85,5702.9372897,N,00949.6371800,E,2,5,1.5,-4.826,M,40.595,M,2.5,0123*53
$GPVTG,294.59,T,-345.31,M,006.036,N,011.178,K,D*05
$GPGGA,095029.90,5702.9373261,N,00949.6370371,E,2,5,1.5,-4.822,M,40.595,M,2.5,0123*5D
$GPVTG,294.68,T,-345.22,M,006.071,N,011.244,K,D*0A
$GPGGA,095029.95,5702.9373637,N,00949.6368986,E,2,5,1.5,-4.821,M,40.595,M,2.5,0123*57
$GPVTG,295.05,T,-344.85,M,006.072,N,011.245,K,D*0E
$GPGGA,095030.00,5702.9373975,N,00949.6367574,E,2,5,1.5,-4.821,M,40.595,M,2.5,0123*54
$GPVTG,294.87,T,-345.03,M,006.075,N,011.251,K,D*08
$GPGGA,095030.05,5702.9374348,N,00949.6366081,E,2,5,1.5,-4.833,M,40.595,M,2.7,0123*5D
