$GPGGA,093904.80,5702.9507077,N,00949.3611551,E,2,4,3.0,0.069,M,40.592,M,3.4,0123*70
$GPVTG,280.48,T,-359.42,M,005.634,N,010.434,K,D*02
$GPGGA,093904.85,5702.9506996,N,00949.3610188,E,2,4,3.0,0.082,M,40.592,M,3.6,0123*74
$GPVTG,280.59,T,-359.31,M,005.631,N,010.429,K,D*0F
$GPGGA,093904.90,5702.9507144,N,00949.3608769,E,2,4,3.0,0.081,M,40.592,M,3.6,0123*75
$GPVTG,280.54,T,-359.36,M,005.637,N,010.440,K,D*0C
$GPGGA,093904.95,5702.9507310,N,00949.3607392,E,2,4,3.0,0.079,M,40.592,M,3.6,0123*7B
$GPVTG,280.74,T,-359.16,M,005.603,N,010.376,K,D*09
$GPGGA,093905.00,5702.9507476,N,00949.3605982,E,2,4,3.0,0.075,M,40.592,M,3.6,0123*74
$GPVTG,280.84,T,-359.06,M,005.608,N,010.385,K,D*00
$GPGGA,093905.05,5702.9507247,N,00949.3604604,E,2,4,3.0,0.096,M,40.592,M,1.9,0123*75
$GPGGA,093913.00,5702.9523956,N,00949.3383385,E,2,4,3.0,0.515,M,40.592,M,3.6,0123*7F
$GPVTG,284.18,T,-355.72,M,005.707,N,010.569,K,D*04
$GPGGA,093913.05,5702.9523950,N,00949.3382046,E,2,4,3.0,0.514,M,40.592,M,1.9,0123*7D
$GPVTG,284.01,T,-355.89,M,005.667,N,010.495,K,D*0D
$GPGGA,093913.10,5702.9524149,N,00949.3380627,E,2,4,3.0,0.510,M,40.592,M,1.9,0123*79
$GPVTG,284.03,T,-355.87,M,005.687,N,010.531,K,D*00
$GPGGA,093913.15,5702.9524393,N,00949.3379176,E,2,4,3.0,0.507,M,40.592,M,1.9,0123*7A
$GPVTG,284.32,T,-355.58,M,005.744,N,010.638,K,D*04
$GPGGA,093913.20,5702.9524736,N,00949.3377730,E,2,4,3.0,0.506,M,40.592,M,1.9,0123*7C
$GPVTG,285.34,T,-354.56,M,005.809,N,010.757,K,D*02
$GPGGA,093913.25,5702.9524627,N,00949.3376398,E,2,4,3.0,0.523,M,40.592,M,2.2,0123*70
$GPVTG,285.16,T,-354.74,M,005.749,N,010.647,K,D*09
$GPGGA,093913.30,5702.9524988,N,00949.3374913,E,2,4,3.0,0.523,M,40.592,M,2.2,0123*75
$GPVTG,286.25,T,-353.65,M,005.860,N,010.853,K,D*02
$GPGGA,093913.35,5702.9525093,N,00949.3373517,E,2,4,3.0,0.519,M,40.592,M,2.2,0123*74
$GPVTG,285.52,T,-354.38,M,005.813,N,010.766,K,D*03
$GPGGA,093913.40,5702.9525209,N,00949.3372162,E,2,4,3.0,0.512,M,40.592,M,2.2,0123*7B
$GPVTG,285.03,T,-354.87,M,005.734,N,010.620,K,D*0A
$GPGGA,093913.45,5702.9525099,N,00949.3370807,E,2,4,3.0,0.523,M,40.592,M,2.4,0123*79
$GPVTG,285.21,T,-354.69,M,005.749,N,010.647,K,D*01
$GPGGA,093913.50,5702.9525306,N,00949.3369446,E,2,4,3.0,0.521,M,40.592,M,2.4,0123*7B
$GPVTG,285.37,T,-354.53,M,005.699,N,010.555,K,D*03
$GPGGA,093913.55,5702.9525580,N,00949.3368006,E,2,4,3.0,0.520,M,40.592,M,2.4,0123*76
$GPVTG,285.82,T,-354.08,M,005.750,N,010.650,K,D*01
$GPGGA,093913.60,5702.9525751,N,00949.3366554,E,2,4,3.0,0.519,M,40.592,M,2.4,0123*78
$GPVTG,285.44,T,-354.46,M,005.785,N,010.713,K,D*0F
$GPGGA,093913.65,5702.9525431,N,00949.3365275,E,2,4,3.0,0.546,M,40.592,M,2.7,0123*76
$GPVTG,284.81,T,-355.09,M,005.695,N,010.546,K,D*0F
$GPGGA,093913.70,5702.9525538,N,00949.3363892,E,2,4,3.0,0.546,M,40.592,M,2.7,0123*7F
$GPVTG,284.08,T,-355.82,M,005.653,N,010.469,K,D*0B
$GPGGA,093913.75,5702.9525698,N,00949.3362503,E,2,4,3.0,0.551,M,40.592,M,2.7,0123*71
$GPVTG,283.83,T,-356.07,M,005.634,N,010.434,K,D*08
$GPGGA,093913.80,5702.9525799,N,00949.3361126,E,2,4,3.0,0.553,M,40.592,M,2.7,0123*79
$GPVTG,283.17,T,-356.73,M,005.596,N,010.365,K,D*0E
$GPGGA,093913.85,5702.9526024,N,00949.3359685,E,2,4,3.0,0.551,M,40.592,M,2.9,0123*77
$GPVTG,283.68,T,-356.22,M,005.667,N,010.495,K,D*07
$GPGGA,093913.90,5702.9526121,N,00949.3358302,E,2,4,3.0,0.547,M,40.592,M,2.9,0123*7B
$GPVTG,282.93,T,-356.97,M,005.630,N,010.426,K,D*06
$GPGGA,093913.95,5702.9526379,N,00949.3356894,E,2,4,3.0,0.548,M,40.592,M,2.9,0123*74
$GPVTG,283.49,T,-356.41,M,005.653,N,010.470,K,D*0D
$GPGGA,093914.00,5702.9526614,N,00949.3355483,E,2,4,3.0,0.551,M,40.592,M,2.9,0123*70
$GPVTG,283.79,T,-356.11,M,005.673,N,010.506,K,D*09
$GPGGA,093914.05,5702.9526401,N,00949.3354106,E,2,4,3.0,0.581,M,40.592,M,1.7,0123*7A
$GPVTG,283.35,T,-356.55,M,005.698,N,010.552,K,D*05
$GPGGA,093914.10,5702.9526383,N,00949.3352759,E,2,4,3.0,0.582,M,40.592,M,1.7,0123*7A
$GPVTG,281.76,T,-358.14,M,005.601,N,010.372,K,D*0F
$GPGGA,093914.15,5702.9526512,N,00949.3351363,E,2,4,3.0,0.584,M,40.592,M,1.7,0123*79
$GPVTG,281.40,T,-358.50,M,005.591,N,010.355,K,D*05
$GPGGA,093914.20,5702.9526662,N,00949.3349947,E,2,4,3.0,0.585,M,40.592,M,1.7,0123*7F
$GPVTG,281.18,T,-358.72,M,005.606,N,010.382,K,D*0F
$GPGGA,093914.25,5702.9526717,N,00949.3348577,E,2,4,3.0,0.588,M,40.592,M,2.0,0123*7E
$GPVTG,281.21,T,-358.69,M,005.599,N,010.369,K,D*0F
$GPGGA,093914.30,5702.9526950,N,00949.3347135,E,2,4,3.0,0.591,M,40.592,M,2.0,0123*72
$GPVTG,281.67,T,-358.23,M,005.654,N,010.472,K,D*0C
$GPGGA,093914.35,5702.9527032,N,00949.3345725,E,2,4,3.0,0.590,M,40.592,M,2.0,0123*7F
$GPVTG,280.94,T,-358.96,M,005.645,N,010.455,K,D*0A
$GPGGA,093914.40,5702.9527166,N,00949.3344343,E,2,4,3.0,0.596,M,40.592,M,2.0,0123*7E
$GPVTG,280.74,T,-359.16,M,005.617,N,010.404,K,D*0E
$GPGGA,093914.45,5702.9527339,N,00949.3342950,E,2,4,3.0,0.605,M,40.592,M,2.2,0123*76
$GPVTG,281.78,T,-358.12,M,005.634,N,010.435,K,D*05
$GPGGA,093914.50,5702.9527457,N,00949.3341566,E,2,4,3.0,0.603,M,40.592,M,2.2,0123*71
$GPVTG,281.38,T,-358.52,M,005.606,N,010.383,K,D*0E
$GPGGA,093914.55,5702.9527644,N,00949.3340144,E,2,4,3.0,0.604,M,40.592,M,2.2,0123*76
$GPVTG,281.51,T,-358.39,M,005.633,N,010.432,K,D*07
$GPGGA,093914.60,5702.9527710,N,00949.3338759,E,2,4,3.0,0.603,M,40.592,M,2.2,0123*72
$GPVTG,280.77,T,-359.13,M,005.600,N,010.371,K,D*0B
$GPGGA,093914.65,5702.9527593,N,00949.3337408,E,2,4,3.0,0.615,M,40.592,M,2.4,0123*77
$GPVTG,280.43,T,-359.47,M,005.583,N,010.340,K,D*07
$GPGGA,093914.70,5702.9527936,N,00949.3335943,E,2,4,3.0,0.620,M,40.592,M,2.4,0123*76
$GPVTG,281.92,T,-357.98,M,005.684,N,010.526,K,D*04
$GPGGA,093914.75,5702.9528073,N,00949.3334592,E,2,4,3.0,0.621,M,40.592,M,2.4,0123*74
$GPVTG,281.80,T,-358.10,M,005.621,N,010.410,K,D*03
$GPGGA,093914.80,5702.9528215,N,00949.3333230,E,2,4,3.0,0.623,M,40.592,M,2.4,0123*76
$GPVTG,281.70,T,-358.20,M,005.579,N,010.332,K,D*06
$GPGGA,093914.85,5702.9528278,N,00949.3331756,E,2,4,3.0,0.628,M,40.592,M,2.7,0123*77
$GPVTG,281.23,T,-358.67,M,005.661,N,010.484,K,D*03
$GPGGA,093914.90,5702.9528386,N,00949.3330345,E,2,4,3.0,0.626,M,40.592,M,2.7,0123*7A
$GPVTG,280.77,T,-359.13,M,005.656,N,010.475,K,D*0B
$GPGGA,093914.95,5702.9528416,N,00949.3329012,E,2,4,3.0,0.626,M,40.592,M,2.7,0123*78
$GPVTG,279.87,T,-360.03,M,005.561,N,010.299,K,D*0A
$GPGGA,093915.00,5702.9528694,N,00949.3327588,E,2,4,3.0,0.630,M,40.592,M,2.7,0123*72
$GPVTG,280.82,T,-359.08,M,005.605,N,010.381,K,D*01
$GPGGA,093915.05,5702.9528578,N,00949.3326216,E,2,4,3.0,0.642,M,40.592,M,1.6,0123*70
$GPVTG,280.60,T,-359.30,M,005.622,N,010.413,K,D*0F
$GPGGA,093915.10,5702.9528700,N,00949.3324809,E,2,4,3.0,0.641,M,40.592,M,1.6,0123*7C
$GPVTG,280.32,T,-359.58,M,005.620,N,010.409,K,D*0F
$GPGGA,093915.15,5702.9528871,N,00949.3323370,E,2,4,3.0,0.641,M,40.592,M,1.6,0123*72
$GPVTG,280.41,T,-359.49,M,005.658,N,010.479,K,D*03
$GPGGA,093915.20,5702.9529016,N,00949.3321976,E,2,4,3.0,0.640,M,40.592,M,1.6,0123*73
$GPVTG,280.40,T,-359.50,M,005.642,N,010.449,K,D*02
$GPGGA,093915.25,5702.9528756,N,00949.3320673,E,2,4,3.0,0.654,M,40.592,M,1.9,0123*75
$GPVTG,279.12,T,-360.78,M,005.551,N,010.280,K,D*01
$GPGGA,093915.30,5702.9528837,N,00949.3319318,E,2,4,3.0,0.654,M,40.592,M,1.9,0123*7B
$GPVTG,278.68,T,-361.22,M,005.498,N,010.183,K,D*07
$GPGGA,093915.35,5702.9529061,N,00949.3317905,E,2,4,3.0,0.656,M,40.592,M,1.9,0123*7E
$GPVTG,279.37,T,-360.53,M,005.531,N,010.243,K,D*06
$GPGGA,093915.40,5702.9529233,N,00949.3316511,E,2,4,3.0,0.658,M,40.592,M,1.9,0123*7F
$GPVTG,279.62,T,-360.28,M,005.535,N,010.252,K,D*0E
$GPGGA,093915.45,5702.9529345,N,00949.3315106,E,2,4,3.0,0.658,M,40.592,M,2.1,0123*70
$GPVTG,279.92,T,-359.98,M,005.561,N,010.299,K,D*06
$GPGGA,093915.50,5702.9529518,N,00949.3313711,E,2,4,3.0,0.656,M,40.592,M,2.1,0123*72
$GPVTG,280.20,T,-359.70,M,005.565,N,010.306,K,D*0C
$GPGGA,093915.55,5702.9529631,N,00949.3312364,E,2,4,3.0,0.656,M,40.592,M,2.1,0123*78
$GPVTG,280.04,T,-359.86,M,005.513,N,010.210,K,D*04
$GPGGA,093915.60,5702.9529873,N,00949.3310969,E,2,4,3.0,0.660,M,40.592,M,2.1,0123*76
$GPVTG,280.81,T,-359.09,M,005.534,N,010.249,K,D*07
$GPGGA,093915.65,5702.9529774,N,00949.3309602,E,2,4,3.0,0.677,M,40.592,M,2.3,0123*75
$GPVTG,280.55,T,-359.35,M,005.541,N,010.263,K,D*0B
$GPGGA,093915.70,5702.9529960,N,00949.3308184,E,2,4,3.0,0.672,M,40.592,M,2.3,0123*77
$GPVTG,280.86,T,-359.04,M,005.578,N,010.330,K,D*0A
$GPGGA,093915.75,5702.9530109,N,00949.3306788,E,2,4,3.0,0.670,M,40.592,M,2.3,0123*7B
$GPVTG,280.87,T,-359.03,M,005.582,N,010.338,K,D*01
$GPGGA,093915.80,5702.9530430,N,00949.3305350,E,2,4,3.0,0.672,M,40.592,M,2.3,0123*7E
$GPVTG,282.12,T,-357.78,M,005.654,N,010.471,K,D*0F
$GPGGA,093915.85,5702.9530214,N,00949.3304040,E,2,4,3.0,0.695,M,40.592,M,2.6,0123*74
$GPVTG,281.99,T,-357.91,M,005.613,N,010.395,K,D*06
$GPGGA,093915.90,5702.9530218,N,00949.3302722,E,2,4,3.0,0.691,M,40.592,M,2.6,0123*7D
$GPVTG,280.85,T,-359.05,M,005.508,N,010.201,K,D*0C
$GPGGA,093915.95,5702.9530400,N,00949.3301301,E,2,4,3.0,0.691,M,40.592,M,2.6,0123*71
$GPVTG,281.06,T,-358.84,M,005.551,N,010.281,K,D*0A
$GPGGA,093916.00,5702.9530608,N,00949.3299959,E,2,4,3.0,0.694,M,40.592,M,2.6,0123*76
$GPVTG,281.62,T,-358.28,M,005.514,N,010.212,K,D*05
$GPGGA,093916.05,5702.9530531,N,00949.3298589,E,2,4,3.0,0.694,M,40.592,M,2.8,0123*74
$GPVTG,280.89,T,-359.01,M,005.521,N,010.225,K,D*09
$GPGGA,093916.10,5702.9530575,N,00949.3297218,E,2,4,3.0,0.688,M,40.592,M,2.8,0123*7D
$GPVTG,280.01,T,-359.89,M,005.493,N,010.172,K,D*00
$GPGGA,093916.15,5702.9530800,N,00949.3295752,E,2,4,3.0,0.686,M,40.592,M,2.8,0123*70
$GPVTG,280.55,T,-359.35,M,005.591,N,010.354,K,D*03
$GPGGA,093916.20,5702.9531069,N,00949.3294367,E,2,4,3.0,0.685,M,40.592,M,2.8,0123*70
$GPVTG,281.53,T,-358.37,M,005.602,N,010.375,K,D*0D
$GPGGA,093916.25,5702.9531059,N,00949.3293023,E,2,4,3.0,0.687,M,40.592,M,3.0,0123*79
$GPVTG,281.44,T,-358.46,M,005.569,N,010.314,K,D*04
$GPGGA,093916.30,5702.9531238,N,00949.3291631,E,2,4,3.0,0.682,M,40.592,M,3.0,0123*7A
$GPVTG,281.68,T,-358.22,M,005.579,N,010.332,K,D*0D
$GPGGA,093916.35,5702.9531484,N,00949.3290151,E,2,4,3.0,0.679,M,40.592,M,3.0,0123*7A
$GPVTG,282.23,T,-357.67,M,005.686,N,010.530,K,D*08
$GPGGA,093916.40,5702.9531654,N,00949.3288816,E,2,4,3.0,0.679,M,40.592,M,3.0,0123*74
$GPVTG,282.47,T,-357.43,M,005.621,N,010.411,K,D*03
$GPGGA,093916.45,5702.9531460,N,00949.3287499,E,2,4,3.0,0.693,M,40.592,M,3.2,0123*76
$GPVTG,281.91,T,-357.99,M,005.575,N,010.326,K,D*0D
$GPGGA,093916.50,5702.9531807,N,00949.3286024,E,2,4,3.0,0.695,M,40.592,M,3.2,0123*7A
$GPVTG,283.36,T,-356.54,M,005.700,N,010.556,K,D*03
$GPGGA,093916.55,5702.9532024,N,00949.3284631,E,2,4,3.0,0.693,M,40.592,M,3.2,0123*73
$GPVTG,283.78,T,-356.12,M,005.700,N,010.556,K,D*0B
$GPGGA,093916.60,5702.9532106,N,00949.3283258,E,2,4,3.0,0.689,M,40.592,M,3.2,0123*73
$GPVTG,283.18,T,-356.72,M,005.655,N,010.474,K,D*0B
$GPGGA,093916.65,5702.9531875,N,00949.3281947,E,2,4,3.0,0.711,M,40.592,M,3.4,0123*79
$GPVTG,283.03,T,-356.87,M,005.628,N,010.423,K,D*03
$GPGGA,093916.70,5702.9532123,N,00949.3280521,E,2,4,3.0,0.712,M,40.592,M,3.4,0123*7A
$GPVTG,283.64,T,-356.26,M,005.675,N,010.511,K,D*01
$GPGGA,093916.75,5702.9532272,N,00949.3279122,E,2,4,3.0,0.711,M,40.592,M,3.4,0123*7A
$GPVTG,283.46,T,-356.44,M,005.670,N,010.501,K,D*01
$GPGGA,093916.80,5702.9532310,N,00949.3277798,E,2,4,3.0,0.708,M,40.592,M,3.4,0123*74
$GPVTG,282.62,T,-357.28,M,005.573,N,010.321,K,D*09
$GPGGA,093916.85,5702.9532238,N,00949.3276372,E,2,4,3.0,0.717,M,40.592,M,3.6,0123*77
$GPVTG,282.57,T,-357.33,M,005.664,N,010.489,K,D*05
$GPGGA,093916.90,5702.9532380,N,00949.3274989,E,2,4,3.0,0.717,M,40.592,M,3.6,0123*7D
$GPVTG,282.41,T,-357.49,M,005.641,N,010.447,K,D*0A
$GPGGA,093916.95,5702.9532574,N,00949.3273575,E,2,4,3.0,0.718,M,40.592,M,3.6,0123*72
$GPVTG,282.61,T,-357.29,M,005.660,N,010.482,K,D*04
$GPGGA,093917.00,5702.9532913,N,00949.3272117,E,2,4,3.0,0.719,M,40.592,M,3.6,0123*72
$GPVTG,283.77,T,-356.13,M,005.746,N,010.641,K,D*02
$GPGGA,093917.05,5702.9532602,N,00949.3270845,E,2,4,3.0,0.747,M,40.592,M,1.9,0123*72
$GPVTG,282.71,T,-357.19,M,005.623,N,010.414,K,D*0E
$GPGGA,093917.10,5702.9532712,N,00949.3269413,E,2,4,3.0,0.744,M,40.592,M,1.9,0123*72
$GPVTG,282.15,T,-357.75,M,005.647,N,010.459,K,D*0D
$GPGGA,093917.15,5702.9532751,N,00949.3268053,E,2,4,3.0,0.743,M,40.592,M,1.9,0123*76
$GPVTG,281.24,T,-358.66,M,005.585,N,010.343,K,D*00
$GPGGA,093917.20,5702.9533046,N,00949.3266634,E,2,4,3.0,0.746,M,40.592,M,1.9,0123*7C
$GPVTG,282.23,T,-357.67,M,005.628,N,010.424,K,D*08
$GPGGA,093917.25,5702.9533099,N,00949.3265216,E,2,4,3.0,0.750,M,40.592,M,2.2,0123*73
$GPVTG,282.32,T,-357.58,M,005.683,N,010.525,K,D*05
$GPGGA,093917.30,5702.9533232,N,00949.3263818,E,2,4,3.0,0.752,M,40.592,M,2.2,0123*74
$GPVTG,282.06,T,-357.84,M,005.668,N,010.497,K,D*0E
$GPGGA,093917.35,5702.9533408,N,00949.3262443,E,2,4,3.0,0.748,M,40.592,M,2.2,0123*76
$GPVTG,282.22,T,-357.68,M,005.639,N,010.443,K,D*07
$GPGGA,093917.40,5702.9533580,N,00949.3261086,E,2,4,3.0,0.748,M,40.592,M,2.2,0123*7B
$GPVTG,282.37,T,-357.53,M,005.597,N,010.365,K,D*0F
$GPGGA,093917.45,5702.9533786,N,00949.3259653,E,2,4,3.0,0.754,M,40.592,M,2.4,0123*74
$GPVTG,283.39,T,-356.51,M,005.668,N,010.496,K,D*0B
$GPGGA,093917.50,5702.9533855,N,00949.3258232,E,2,4,3.0,0.751,M,40.592,M,2.4,0123*76
$GPVTG,282.46,T,-357.44,M,005.667,N,010.495,K,D*0B
$GPGGA,093917.55,5702.9534117,N,00949.3256833,E,2,4,3.0,0.752,M,40.592,M,2.4,0123*7D
$GPVTG,283.22,T,-356.68,M,005.679,N,010.518,K,D*0C
$GPGGA,093917.60,5702.9534325,N,00949.3255420,E,2,4,3.0,0.751,M,40.592,M,2.4,0123*76
$GPVTG,283.47,T,-356.43,M,005.694,N,010.544,K,D*0C
$GPGGA,093917.65,5702.9534066,N,00949.3254112,E,2,4,3.0,0.781,M,40.592,M,2.7,0123*7C
$GPVTG,283.60,T,-356.30,M,005.671,N,010.504,K,D*02
$GPGGA,093917.70,5702.9534125,N,00949.3252757,E,2,4,3.0,0.779,M,40.592,M,2.7,0123*78
$GPVTG,282.73,T,-357.17,M,005.601,N,010.373,K,D*04
$GPGGA,093917.75,5702.9534212,N,00949.3251414,E,2,4,3.0,0.777,M,40.592,M,2.7,0123*73
$GPVTG,282.18,T,-357.72,M,005.535,N,010.250,K,D*0E
$GPGGA,093917.80,5702.9534343,N,00949.3250054,E,2,4,3.0,0.777,M,40.592,M,2.7,0123*7D
$GPVTG,281.97,T,-357.93,M,005.503,N,010.192,K,D*0D
$GPGGA,093917.85,5702.9534044,N,00949.3248765,E,2,4,3.0,0.803,M,40.592,M,2.9,0123*72
$GPVTG,281.89,T,-358.01,M,005.500,N,010.186,K,D*00
$GPGGA,093917.90,5702.9534070,N,00949.3247364,E,2,4,3.0,0.803,M,40.592,M,2.9,0123*7B
$GPVTG,280.67,T,-359.23,M,005.499,N,010.184,K,D*03
$GPGGA,093917.95,5702.9534164,N,00949.3245985,E,2,4,3.0,0.803,M,40.592,M,2.9,0123*7D
$GPVTG,280.17,T,-359.73,M,005.488,N,010.164,K,D*0F
$GPGGA,093918.00,5702.9534380,N,00949.3244553,E,2,4,3.0,0.806,M,40.592,M,2.9,0123*75
$GPVTG,280.59,T,-359.31,M,005.549,N,010.276,K,D*0F
$GPGGA,093918.05,5702.9534172,N,00949.3243191,E,2,4,3.0,0.832,M,40.592,M,1.7,0123*78
$GPVTG,280.11,T,-359.79,M,005.567,N,010.311,K,D*03
$GPGGA,093918.10,5702.9534231,N,00949.3241831,E,2,4,3.0,0.833,M,40.592,M,1.7,0123*78
$GPVTG,279.39,T,-360.51,M,005.523,N,010.229,K,D*05
$GPGGA,093918.15,5702.9534237,N,00949.3240463,E,2,4,3.0,0.836,M,40.592,M,1.7,0123*74
$GPVTG,278.29,T,-361.61,M,005.488,N,010.163,K,D*0A
$GPGGA,093918.20,5702.9534218,N,00949.3239133,E,2,4,3.0,0.844,M,40.592,M,1.7,0123*74
$GPVTG,277.14,T,-362.76,M,005.417,N,010.033,K,D*0C
$GPGGA,093918.25,5702.9534168,N,00949.3237828,E,2,4,3.0,0.848,M,40.592,M,2.0,0123*70
$GPVTG,276.65,T,-363.25,M,005.362,N,009.931,K,D*0A
$GPGGA,093918.30,5702.9534205,N,00949.3236505,E,2,4,3.0,0.848,M,40.592,M,2.0,0123*7F
$GPVTG,275.97,T,-363.93,M,005.309,N,009.832,K,D*06
$GPGGA,093918.35,5702.9534432,N,00949.3235032,E,2,4,3.0,0.855,M,40.592,M,2.0,0123*76
$GPVTG,276.82,T,-363.08,M,005.434,N,010.065,K,D*08
$GPGGA,093918.40,5702.9534530,N,00949.3233688,E,2,4,3.0,0.860,M,40.592,M,2.0,0123*70
$GPVTG,276.69,T,-363.21,M,005.404,N,010.008,K,D*0E
$GPGGA,093918.45,5702.9534419,N,00949.3232300,E,2,4,3.0,0.876,M,40.592,M,2.2,0123*7E
$GPVTG,275.98,T,-363.92,M,005.434,N,010.064,K,D*02
$GPGGA,093918.50,5702.9534625,N,00949.3230855,E,2,4,3.0,0.875,M,40.592,M,2.2,0123*7D
$GPVTG,276.78,T,-363.12,M,005.517,N,010.217,K,D*01
$GPGGA,093918.55,5702.9534776,N,00949.3229457,E,2,4,3.0,0.876,M,40.592,M,2.2,0123*7A
$GPVTG,277.08,T,-362.82,M,005.534,N,010.249,K,D*05
$GPGGA,093918.60,5702.9534910,N,00949.3228137,E,2,4,3.0,0.885,M,40.592,M,2.2,0123*7C
$GPVTG,277.33,T,-362.57,M,005.469,N,010.129,K,D*09
$GPGGA,093918.65,5702.9534767,N,00949.3226807,E,2,4,3.0,0.900,M,40.592,M,2.4,0123*79
$GPVTG,276.44,T,-363.46,M,005.425,N,010.047,K,D*08
$GPGGA,093918.70,5702.9534864,N,00949.3225334,E,2,4,3.0,0.905,M,40.592,M,2.4,0123*7C
$GPVTG,276.26,T,-363.64,M,005.525,N,010.233,K,D*0C
$GPGGA,093918.75,5702.9534976,N,00949.3223934,E,2,4,3.0,0.911,M,40.592,M,2.4,0123*72
$GPVTG,276.31,T,-363.59,M,005.537,N,010.255,K,D*07
$GPGGA,093918.80,5702.9535051,N,00949.3222577,E,2,4,3.0,0.914,M,40.592,M,2.4,0123*7A
$GPVTG,276.12,T,-363.78,M,005.501,N,010.188,K,D*03
$GPGGA,093918.85,5702.9535096,N,00949.3221248,E,2,4,3.0,0.922,M,40.592,M,2.7,0123*7A
$GPVTG,276.75,T,-363.15,M,005.466,N,010.122,K,D*09
$GPGGA,093918.90,5702.9535260,N,00949.3219846,E,2,4,3.0,0.920,M,40.592,M,2.7,0123*78
$GPVTG,277.27,T,-362.63,M,005.492,N,010.172,K,D*01
$GPGGA,093918.95,5702.9535480,N,00949.3218401,E,2,4,3.0,0.916,M,40.592,M,2.7,0123*7E
$GPVTG,278.12,T,-361.78,M,005.565,N,010.306,K,D*09
$GPGGA,093919.00,5702.9535561,N,00949.3217047,E,2,4,3.0,0.912,M,40.592,M,2.7,0123*70
$GPVTG,277.93,T,-361.97,M,005.523,N,010.228,K,D*01
$GPGGA,093919.05,5702.9535208,N,00949.3215756,E,2,4,3.0,0.940,M,40.592,M,1.6,0123*7D
$GPVTG,277.66,T,-362.24,M,005.491,N,010.169,K,D*0E
$GPGGA,093919.10,5702.9535224,N,00949.3214416,E,2,4,3.0,0.941,M,40.592,M,1.6,0123*70
$GPVTG,276.91,T,-362.99,M,005.435,N,010.066,K,D*01
$GPGGA,093919.15,5702.9535407,N,00949.3213005,E,2,4,3.0,0.941,M,40.592,M,1.6,0123*73
$GPVTG,277.55,T,-362.35,M,005.477,N,010.143,K,D*0E
$GPGGA,093919.20,5702.9535542,N,00949.3211532,E,2,4,3.0,0.944,M,40.592,M,1.6,0123*73
$GPVTG,277.65,T,-362.25,M,005.569,N,010.314,K,D*02
$GPGGA,093919.25,5702.9535649,N,00949.3210093,E,2,4,3.0,0.959,M,40.592,M,1.9,0123*72
$GPVTG,279.13,T,-360.77,M,005.661,N,010.485,K,D*0C
$GPGGA,093919.30,5702.9535660,N,00949.3208752,E,2,4,3.0,0.954,M,40.592,M,1.9,0123*73
$GPVTG,278.31,T,-361.59,M,005.582,N,010.337,K,D*00
$GPGGA,093919.35,5702.9535676,N,00949.3207400,E,2,4,3.0,0.950,M,40.592,M,1.9,0123*7E
$GPVTG,277.59,T,-362.31,M,005.524,N,010.231,K,D*07
$GPGGA,093919.40,5702.9535912,N,00949.3205975,E,2,4,3.0,0.953,M,40.592,M,1.9,0123*7F
$GPVTG,278.56,T,-361.34,M,005.570,N,010.316,K,D*04
$GPGGA,093919.45,5702.9535664,N,00949.3204591,E,2,4,3.0,0.978,M,40.592,M,2.1,0123*71
$GPVTG,278.16,T,-361.74,M,005.607,N,010.384,K,D*0C
$GPGGA,093919.50,5702.9535775,N,00949.3203228,E,2,4,3.0,0.981,M,40.592,M,2.1,0123*70
$GPVTG,278.23,T,-361.67,M,005.566,N,010.308,K,D*08
$GPGGA,093919.55,5702.9535933,N,00949.3201815,E,2,4,3.0,0.983,M,40.592,M,2.1,0123*7D
$GPVTG,278.59,T,-361.31,M,005.585,N,010.344,K,D*03
$GPGGA,093919.60,5702.9536046,N,00949.3200404,E,2,4,3.0,0.982,M,40.592,M,2.1,0123*7F
$GPVTG,278.57,T,-361.33,M,005.596,N,010.363,K,D*08
$GPGGA,093919.65,5702.9535767,N,00949.3199062,E,2,4,3.0,1.004,M,40.592,M,2.3,0123*7E
$GPVTG,277.81,T,-362.09,M,005.574,N,010.322,K,D*0F
$GPGGA,093919.70,5702.9535857,N,00949.3197678,E,2,4,3.0,1.011,M,40.592,M,2.3,0123*71
$GPVTG,277.68,T,-362.22,M,005.553,N,010.285,K,D*08
$GPGGA,093919.75,5702.9535964,N,00949.3196336,E,2,4,3.0,1.019,M,40.592,M,2.3,0123*73
$GPVTG,277.76,T,-362.14,M,005.495,N,010.178,K,D*08
$GPGGA,093919.80,5702.9536107,N,00949.3194913,E,2,4,3.0,1.028,M,40.592,M,2.3,0123*7A
$GPVTG,278.00,T,-361.90,M,005.531,N,010.244,K,D*0A
$GPGGA,093919.85,5702.9536198,N,00949.3193500,E,2,4,3.0,1.031,M,40.592,M,2.6,0123*7D
$GPVTG,277.78,T,-362.12,M,005.534,N,010.250,K,D*03
$GPGGA,093919.90,5702.9536281,N,00949.3192088,E,2,4,3.0,1.032,M,40.592,M,2.6,0123*75
$GPVTG,277.55,T,-362.35,M,005.549,N,010.276,K,D*07
$GPGGA,093919.95,5702.9536291,N,00949.3190761,E,2,4,3.0,1.032,M,40.592,M,2.6,0123*73
$GPVTG,276.85,T,-363.05,M,005.468,N,010.126,K,D*0D
$GPGGA,093920.00,5702.9536427,N,00949.3189365,E,2,4,3.0,1.036,M,40.592,M,2.6,0123*72
$GPVTG,277.12,T,-362.78,M,005.479,N,010.147,K,D*0E
$GPGGA,093920.05,5702.9536520,N,00949.3187962,E,2,4,3.0,1.037,M,40.592,M,2.8,0123*7D
$GPVTG,278.22,T,-361.68,M,005.539,N,010.257,K,D*07
$GPGGA,093920.10,5702.9536698,N,00949.3186572,E,2,4,3.0,1.036,M,40.592,M,2.8,0123*74
$GPVTG,278.83,T,-361.07,M,005.544,N,010.267,K,D*0C
$GPGGA,093920.15,5702.9536987,N,00949.3185154,E,2,4,3.0,1.037,M,40.592,M,2.8,0123*72
$GPVTG,280.22,T,-359.68,M,005.592,N,010.356,K,D*0A
$GPGGA,093920.20,5702.9537058,N,00949.3183790,E,2,4,3.0,1.037,M,40.592,M,2.8,0123*76
$GPVTG,279.88,T,-360.02,M,005.552,N,010.283,K,D*0F
$GPGGA,093920.25,5702.9536714,N,00949.3182455,E,2,4,3.0,1.066,M,40.592,M,3.0,0123*7B
$GPVTG,278.90,T,-361.00,M,005.530,N,010.242,K,D*0D
$GPGGA,093920.30,5702.9536948,N,00949.3181016,E,2,4,3.0,1.068,M,40.592,M,3.0,0123*76
$GPVTG,279.86,T,-360.04,M,005.596,N,010.364,K,D*07
$GPGGA,093920.35,5702.9537101,N,00949.3179614,E,2,4,3.0,1.071,M,40.592,M,3.0,0123*7C
$GPVTG,280.10,T,-359.80,M,005.605,N,010.380,K,D*0B
$GPGGA,093920.40,5702.9537185,N,00949.3178260,E,2,4,3.0,1.071,M,40.592,M,3.0,0123*74
$GPVTG,279.86,T,-360.04,M,005.554,N,010.286,K,D*04
$GPGGA,093920.45,5702.9536989,N,00949.3176933,E,2,4,3.0,1.089,M,40.592,M,3.2,0123*72
$GPVTG,279.82,T,-360.08,M,005.545,N,010.269,K,D*0D
$GPGGA,093920.50,5702.9537254,N,00949.3175477,E,2,4,3.0,1.094,M,40.592,M,3.2,0123*7E
$GPVTG,280.92,T,-358.98,M,005.632,N,010.430,K,D*01
$GPGGA,093920.55,5702.9537340,N,00949.3174132,E,2,4,3.0,1.095,M,40.592,M,3.2,0123*7B
$GPVTG,280.65,T,-359.25,M,005.569,N,010.314,K,D*02
$GPGGA,093920.60,5702.9537475,N,00949.3172754,E,2,4,3.0,1.095,M,40.592,M,3.2,0123*7C
$GPVTG,280.73,T,-359.17,M,005.555,N,010.288,K,D*0F
$GPGGA,093920.65,5702.9537268,N,00949.3171451,E,2,4,3.0,1.116,M,40.592,M,3.4,0123*7A
$GPVTG,280.33,T,-359.57,M,005.502,N,010.189,K,D*0F
$GPGGA,093920.70,5702.9537388,N,00949.3170025,E,2,4,3.0,1.114,M,40.592,M,3.4,0123*75
$GPVTG,280.16,T,-359.74,M,005.543,N,010.266,K,D*0E
$GPGGA,093920.75,5702.9537631,N,00949.3168515,E,2,4,3.0,1.117,M,40.592,M,3.4,0123*7B
$GPVTG,280.87,T,-359.03,M,005.681,N,010.521,K,D*0F
$GPGGA,093920.80,5702.9537535,N,00949.3167221,E,2,4,3.0,1.116,M,40.592,M,3.4,0123*78
$GPVTG,279.28,T,-360.62,M,005.537,N,010.255,K,D*0B
$GPGGA,093920.85,5702.9537444,N,00949.3165903,E,2,4,3.0,1.123,M,40.592,M,3.6,0123*77
$GPVTG,279.34,T,-360.56,M,005.506,N,010.198,K,D*01
$GPGGA,093920.90,5702.9537541,N,00949.3164519,E,2,4,3.0,1.123,M,40.592,M,3.6,0123*71
$GPVTG,279.11,T,-360.79,M,005.500,N,010.185,K,D*01
$GPGGA,093920.95,5702.9537819,N,00949.3163085,E,2,4,3.0,1.127,M,40.592,M,3.6,0123*77
$GPVTG,280.30,T,-359.60,M,005.569,N,010.313,K,D*04
$GPGGA,093921.00,5702.9537972,N,00949.3161729,E,2,4,3.0,1.127,M,40.592,M,3.6,0123*75
$GPVTG,280.55,T,-359.35,M,005.536,N,010.252,K,D*09
$GPGGA,093921.05,5702.9537940,N,00949.3160366,E,2,4,3.0,1.140,M,40.592,M,1.9,0123*73
$GPVTG,280.64,T,-359.26,M,005.532,N,010.245,K,D*0B
$GPGGA,093921.10,5702.9538166,N,00949.3158965,E,2,4,3.0,1.137,M,40.592,M,1.9,0123*76
$GPVTG,281.41,T,-358.49,M,005.563,N,010.302,K,D*03
$GPGGA,093921.15,5702.9538327,N,00949.3157545,E,2,4,3.0,1.136,M,40.592,M,1.9,0123*74
$GPVTG,281.51,T,-358.39,M,005.598,N,010.367,K,D*02
$GPGGA,093921.20,5702.9538519,N,00949.3156129,E,2,4,3.0,1.136,M,40.592,M,1.9,0123*76
$GPVTG,281.85,T,-358.05,M,005.630,N,010.426,K,D*07
$GPGGA,093921.25,5702.9538224,N,00949.3154829,E,2,4,3.0,1.161,M,40.592,M,2.2,0123*7B
$GPVTG,281.48,T,-358.42,M,005.593,N,010.359,K,D*00
$GPGGA,093921.30,5702.9538374,N,00949.3153476,E,2,4,3.0,1.163,M,40.592,M,2.2,0123*78
$GPVTG,281.62,T,-358.28,M,005.554,N,010.285,K,D*0F
$GPGGA,093921.35,5702.9538403,N,00949.3152121,E,2,4,3.0,1.161,M,40.592,M,2.2,0123*7E
$GPVTG,280.75,T,-359.15,M,005.504,N,010.193,K,D*06
$GPGGA,093921.40,5702.9538483,N,00949.3150751,E,2,4,3.0,1.162,M,40.592,M,2.2,0123*74
$GPVTG,280.32,T,-359.58,M,005.484,N,010.156,K,D*0C
$GPGGA,093921.45,5702.9538515,N,00949.3149345,E,2,4,3.0,1.174,M,40.592,M,2.4,0123*77
$GPVTG,281.04,T,-358.86,M,005.574,N,010.323,K,D*04
$GPGGA,093921.50,5702.9538727,N,00949.3147964,E,2,4,3.0,1.174,M,40.592,M,2.4,0123*77
$GPVTG,281.66,T,-358.24,M,005.577,N,010.329,K,D*01
$GPGGA,093921.55,5702.9538940,N,00949.3146596,E,2,4,3.0,1.175,M,40.592,M,2.4,0123*7C
$GPVTG,282.25,T,-357.65,M,005.568,N,010.313,K,D*08
$GPGGA,093921.60,5702.9538988,N,00949.3145225,E,2,4,3.0,1.175,M,40.592,M,2.4,0123*72
$GPVTG,281.50,T,-358.40,M,005.538,N,010.257,K,D*05
$GPGGA,093921.65,5702.9538766,N,00949.3143859,E,2,4,3.0,1.203,M,40.592,M,2.7,0123*7F
$GPVTG,280.90,T,-359.00,M,005.560,N,010.297,K,D*0C
$GPGGA,093921.70,5702.9538947,N,00949.3142469,E,2,4,3.0,1.207,M,40.592,M,2.7,0123*7C
$GPVTG,281.22,T,-358.68,M,005.569,N,010.313,K,D*0F
$GPGGA,093921.75,5702.9539188,N,00949.3141074,E,2,4,3.0,1.210,M,40.592,M,2.7,0123*7E
$GPVTG,281.98,T,-357.92,M,005.592,N,010.356,K,D*01
$GPGGA,093921.80,5702.9539313,N,00949.3139653,E,2,4,3.0,1.207,M,40.592,M,2.7,0123*7E
$GPVTG,281.72,T,-358.18,M,005.619,N,010.407,K,D*0B
$GPGGA,093921.85,5702.9539145,N,00949.3138352,E,2,4,3.0,1.225,M,40.592,M,2.9,0123*71
$GPVTG,281.10,T,-358.80,M,005.547,N,010.273,K,D*03
$GPGGA,093921.90,5702.9539370,N,00949.3136936,E,2,4,3.0,1.229,M,40.592,M,2.9,0123*7B
$GPVTG,281.72,T,-358.19,M,005.591,N,010.354,K,D*08
$GPGGA,093921.95,5702.9539532,N,00949.3135497,E,2,4,3.0,1.231,M,40.592,M,2.9,0123*72
$GPVTG,281.71,T,-358.19,M,005.641,N,010.447,K,D*00
$GPGGA,093922.00,5702.9539690,N,00949.3134141,E,2,4,3.0,1.231,M,40.592,M,2.9,0123*79
$GPVTG,281.85,T,-358.05,M,005.601,N,010.373,K,D*02
$GPGGA,093922.05,5702.9539843,N,00949.3132719,E,2,4,3.0,1.229,M,40.592,M,1.7,0123*75
$GPVTG,281.79,T,-358.11,M,005.629,N,010.425,K,D*0A
$GPGGA,093922.10,5702.9540051,N,00949.3131313,E,2,4,3.0,1.229,M,40.592,M,1.7,0123*79
$GPVTG,282.23,T,-357.67,M,005.648,N,010.459,K,D*04
$GPGGA,093922.15,5702.9540231,N,00949.3129924,E,2,4,3.0,1.224,M,40.592,M,1.7,0123*72
$GPVTG,282.45,T,-357.45,M,005.643,N,010.450,K,D*06
$GPGGA,093922.20,5702.9540419,N,00949.3128489,E,2,4,3.0,1.224,M,40.592,M,1.7,0123*73
$GPVTG,282.59,T,-357.31,M,005.684,N,010.527,K,D*02
$GPGGA,093922.25,5702.9540204,N,00949.3127173,E,2,4,3.0,1.239,M,40.592,M,2.0,0123*7B
$GPVTG,281.78,T,-358.12,M,005.625,N,010.418,K,D*0A
$GPGGA,093922.30,5702.9540483,N,00949.3125732,E,2,4,3.0,1.243,M,40.592,M,2.0,0123*7A
$GPVTG,282.73,T,-357.17,M,005.690,N,010.539,K,D*04
$GPGGA,093922.35,5702.9540606,N,00949.3124347,E,2,4,3.0,1.242,M,40.592,M,2.0,0123*76
$GPVTG,282.47,T,-357.43,M,005.663,N,010.489,K,D*04
$GPGGA,093922.40,5702.9540834,N,00949.3122960,E,2,4,3.0,1.243,M,40.592,M,2.0,0123*73
$GPVTG,283.02,T,-356.88,M,005.660,N,010.482,K,D*0A
$GPGGA,093922.45,5702.9540847,N,00949.3121623,E,2,4,3.0,1.253,M,40.592,M,2.2,0123*7A
$GPVTG,283.23,T,-356.67,M,005.624,N,010.415,K,D*06
$GPGGA,093922.50,5702.9541041,N,00949.3120224,E,2,4,3.0,1.249,M,40.592,M,2.2,0123*78
$GPVTG,283.40,T,-356.50,M,005.631,N,010.429,K,D*0C
$GPGGA,093922.55,5702.9541281,N,00949.3118736,E,2,4,3.0,1.249,M,40.592,M,2.2,0123*7E
$GPVTG,283.55,T,-356.35,M,005.729,N,010.611,K,D*0A
$GPGGA,093922.60,5702.9541587,N,00949.3117281,E,2,4,3.0,1.250,M,40.592,M,2.2,0123*77
$GPVTG,284.10,T,-355.80,M,005.791,N,010.725,K,D*04
$GPGGA,093922.65,5702.9541088,N,00949.3116008,E,2,4,3.0,1.294,M,40.592,M,2.4,0123*74
$GPVTG,283.89,T,-356.01,M,005.750,N,010.649,K,D*0F
$GPGGA,093922.70,5702.9541223,N,00949.3114679,E,2,4,3.0,1.295,M,40.592,M,2.4,0123*70
$GPVTG,,T,,M,,N,,K,D*26
$GPGGA,093922.75,5702.9541208,N,00949.3114623,E,2,4,3.0,1.301,M,40.592,M,2.4,0123*7F
$GPVTG,,T,,M,,N,,K,D*26
$GPGGA,093922.80,5702.9541320,N,00949.3114574,E,2,4,3.0,1.298,M,40.592,M,2.4,0123*7E
$GPVTG,,T,,M,,N,,K,D*26
$GPGGA,093922.85,5702.9541234,N,00949.3110514,E,2,4,3.0,1.311,M,40.592,M,2.7,0123*7E
$GPVTG,277.07,T,-362.83,M,005.692,N,010.542,K,D*08
$GPGGA,093922.90,5702.9541270,N,00949.3109118,E,2,4,3.0,1.311,M,40.592,M,2.7,0123*7A
$GPVTG,272.78,T,-367.12,M,005.493,N,010.173,K,D*0D
$GPGGA,093922.95,5702.9541387,N,00949.3107734,E,2,4,3.0,1.312,M,40.592,M,2.7,0123*73
$GPVTG,279.12,T,-360.78,M,005.500,N,010.186,K,D*00
$GPGGA,093923.00,5702.9541565,N,00949.3106335,E,2,4,3.0,1.314,M,40.592,M,2.7,0123*76
$GPVTG,284.53,T,-355.37,M,005.675,N,010.511,K,D*01
$GPGGA,093923.05,5702.9541469,N,00949.3104942,E,2,4,3.0,1.335,M,40.592,M,1.6,0123*77
$GPVTG,284.06,T,-355.84,M,005.840,N,010.815,K,D*08
$GPGGA,093923.10,5702.9541731,N,00949.3103525,E,2,4,3.0,1.338,M,40.592,M,1.6,0123*7A
$GPVTG,288.94,T,-350.96,M,005.969,N,011.055,K,D*0E
$GPGGA,093923.15,5702.9541894,N,00949.3102127,E,2,4,3.0,1.338,M,40.592,M,1.6,0123*78
$GPVTG,287.09,T,-352.81,M,005.844,N,010.824,K,D*00
$GPGGA,093923.20,5702.9541982,N,00949.3100753,E,2,4,3.0,1.339,M,40.592,M,1.6,0123*7E
$GPVTG,283.22,T,-356.68,M,005.654,N,010.472,K,D*0E
$GPGGA,093923.25,5702.9541675,N,00949.3099433,E,2,4,3.0,1.364,M,40.592,M,1.9,0123*7F
$GPVTG,280.87,T,-359.03,M,005.600,N,010.370,K,D*04
$GPGGA,093923.30,5702.9541678,N,00949.3098096,E,2,4,3.0,1.368,M,40.592,M,1.9,0123*70
$GPVTG,276.35,T,-363.55,M,005.428,N,010.052,K,D*05
$GPGGA,093923.35,5702.9541928,N,00949.3096654,E,2,4,3.0,1.376,M,40.592,M,1.9,0123*76
$GPVTG,280.26,T,-359.64,M,005.572,N,010.319,K,D*07
$GPGGA,093923.40,5702.9542022,N,00949.3095264,E,2,4,3.0,1.380,M,40.592,M,1.9,0123*79
$GPVTG,279.14,T,-360.76,M,005.543,N,010.266,K,D*02
$GPGGA,093923.45,5702.9541961,N,00949.3093897,E,2,4,3.0,1.397,M,40.592,M,2.1,0123*7C
$GPVTG,278.89,T,-361.01,M,005.542,N,010.264,K,D*05
$GPGGA,093923.50,5702.9542106,N,00949.3092520,E,2,4,3.0,1.398,M,40.592,M,2.1,0123*7D
$GPVTG,279.33,T,-360.57,M,005.527,N,010.235,K,D*00
$GPGGA,093923.55,5702.9542251,N,00949.3091108,E,2,4,3.0,1.400,M,40.592,M,2.1,0123*72
$GPVTG,279.60,T,-360.30,M,005.556,N,010.289,K,D*06
$GPGGA,093923.60,5702.9542430,N,00949.3089680,E,2,4,3.0,1.398,M,40.592,M,2.1,0123*7D
$GPVTG,280.38,T,-359.52,M,005.607,N,010.384,K,D*08
$GPGGA,093923.65,5702.9542268,N,00949.3088354,E,2,4,3.0,1.426,M,40.592,M,2.3,0123*7E
$GPVTG,280.88,T,-359.02,M,005.596,N,010.364,K,D*03
$GPGGA,093923.70,5702.9542301,N,00949.3086972,E,2,4,3.0,1.427,M,40.592,M,2.3,0123*75
$GPVTG,278.94,T,-360.96,M,005.546,N,010.271,K,D*06
$GPGGA,093923.75,5702.9542607,N,00949.3085518,E,2,4,3.0,1.430,M,40.592,M,2.3,0123*76
$GPVTG,281.65,T,-358.25,M,005.658,N,010.478,K,D*0E
$GPGGA,093923.80,5702.9542724,N,00949.3084193,E,2,4,3.0,1.436,M,40.592,M,2.3,0123*7C
$GPVTG,281.33,T,-358.57,M,005.569,N,010.314,K,D*04
$GPGGA,093923.85,5702.9542753,N,00949.3082821,E,2,4,3.0,1.443,M,40.592,M,2.6,0123*78
$GPVTG,279.61,T,-360.29,M,005.506,N,010.198,K,D*09
$GPGGA,093923.90,5702.9543025,N,00949.3081398,E,2,4,3.0,1.442,M,40.592,M,2.6,0123*70
$GPVTG,281.57,T,-358.33,M,005.580,N,010.333,K,D*06
$GPGGA,093923.95,5702.9543333,N,00949.3079954,E,2,4,3.0,1.445,M,40.592,M,2.6,0123*7B
$GPVTG,283.50,T,-356.40,M,005.676,N,010.512,K,D*06
$GPGGA,093924.00,5702.9543413,N,00949.3078613,E,2,4,3.0,1.444,M,40.592,M,2.6,0123*79
$GPVTG,282.62,T,-357.28,M,005.595,N,010.362,K,D*06
$GPGGA,093924.05,5702.9543344,N,00949.3077271,E,2,4,3.0,1.459,M,40.592,M,2.8,0123*74
$GPVTG,282.46,T,-357.44,M,005.580,N,010.334,K,D*0D
$GPGGA,093924.10,5702.9543465,N,00949.3075876,E,2,4,3.0,1.461,M,40.592,M,2.8,0123*70
$GPVTG,281.99,T,-357.91,M,005.576,N,010.327,K,D*0F
$GPGGA,093924.15,5702.9543737,N,00949.3074433,E,2,4,3.0,1.462,M,40.592,M,2.8,0123*7E
$GPVTG,283.19,T,-356.71,M,005.658,N,010.478,K,D*08
$GPGGA,093924.20,5702.9543893,N,00949.3073088,E,2,4,3.0,1.459,M,40.592,M,2.8,0123*72
$GPVTG,283.23,T,-356.67,M,005.605,N,010.381,K,D*0F
$GPGGA,093924.25,5702.9543883,N,00949.3071732,E,2,4,3.0,1.473,M,40.592,M,3.0,0123*73
$GPVTG,283.56,T,-356.34,M,005.614,N,010.396,K,D*0D
$GPGGA,093924.30,5702.9544115,N,00949.3070354,E,2,4,3.0,1.476,M,40.592,M,3.0,0123*76
$GPVTG,284.27,T,-355.63,M,005.618,N,010.405,K,D*0C
$GPGGA,093924.35,5702.9544369,N,00949.3068922,E,2,4,3.0,1.474,M,40.592,M,3.0,0123*7A
$GPVTG,284.95,T,-354.95,M,005.682,N,010.524,K,D*0C
$GPGGA,093924.40,5702.9544574,N,00949.3067520,E,2,4,3.0,1.468,M,40.592,M,3.0,0123*7E
$GPVTG,285.15,T,-354.75,M,005.696,N,010.549,K,D*05
$GPGGA,093924.45,5702.9544471,N,00949.3066194,E,2,4,3.0,1.492,M,40.592,M,3.2,0123*72
$GPVTG,285.47,T,-354.43,M,005.683,N,010.525,K,D*09
$GPGGA,093924.50,5702.9544523,N,00949.3064845,E,2,4,3.0,1.489,M,40.592,M,3.2,0123*7D
$GPVTG,284.26,T,-355.64,M,005.604,N,010.380,K,D*0D
$GPGGA,093924.55,5702.9544617,N,00949.3063515,E,2,4,3.0,1.488,M,40.592,M,3.2,0123*72
$GPVTG,283.63,T,-356.27,M,005.530,N,010.241,K,D*07
$GPGGA,093924.60,5702.9544899,N,00949.3062105,E,2,4,3.0,1.484,M,40.592,M,3.2,0123*74
$GPVTG,284.50,T,-355.40,M,005.586,N,010.345,K,D*0A
$GPGGA,093924.65,5702.9544848,N,00949.3060786,E,2,4,3.0,1.497,M,40.592,M,3.4,0123*76
$GPVTG,284.78,T,-355.12,M,005.579,N,010.332,K,D*07
$GPGGA,093924.70,5702.9545072,N,00949.3059373,E,2,4,3.0,1.500,M,40.592,M,3.4,0123*79
$GPVTG,285.06,T,-354.84,M,005.623,N,010.415,K,D*0F
$GPGGA,093924.75,5702.9545245,N,00949.3057985,E,2,4,3.0,1.500,M,40.592,M,3.4,0123*77
$GPVTG,284.95,T,-354.95,M,005.625,N,010.418,K,D*0F
$GPGGA,093924.80,5702.9545410,N,00949.3056587,E,2,4,3.0,1.502,M,40.592,M,3.4,0123*76
$GPVTG,284.75,T,-355.15,M,005.636,N,010.438,K,D*08
$GPGGA,093924.85,5702.9545398,N,00949.3055250,E,2,4,3.0,1.518,M,40.592,M,3.6,0123*73
$GPVTG,284.10,T,-355.80,M,005.579,N,010.332,K,D*02
$GPGGA,093924.90,5702.9545639,N,00949.3053859,E,2,4,3.0,1.519,M,40.592,M,3.6,0123*7D
$GPVTG,284.60,T,-355.30,M,005.603,N,010.377,K,D*01
$GPGGA,093924.95,5702.9545831,N,00949.3052480,E,2,4,3.0,1.518,M,40.592,M,3.6,0123*76
$GPVTG,284.67,T,-355.23,M,005.603,N,010.377,K,D*04
$GPGGA,093925.00,5702.9545969,N,00949.3051136,E,2,4,3.0,1.517,M,40.592,M,3.6,0123*73
$GPVTG,284.39,T,-355.51,M,005.559,N,010.295,K,D*0B
$GPGGA,093925.05,5702.9545935,N,00949.3049842,E,2,4,3.0,1.527,M,40.592,M,1.9,0123*72
$GPVTG,284.26,T,-355.64,M,005.501,N,010.187,K,D*0E
$GPGGA,093925.10,5702.9546095,N,00949.3048432,E,2,4,3.0,1.527,M,40.592,M,1.9,0123*7C
$GPVTG,284.06,T,-355.84,M,005.541,N,010.262,K,D*0E
$GPGGA,093925.15,5702.9546382,N,00949.3046982,E,2,4,3.0,1.530,M,40.592,M,1.9,0123*72
$GPVTG,284.38,T,-355.52,M,005.630,N,010.427,K,D*0A
$GPGGA,093925.20,5702.9546591,N,00949.3045620,E,2,4,3.0,1.531,M,40.592,M,1.9,0123*75
$GPVTG,284.57,T,-355.33,M,005.614,N,010.398,K,D*01
$GPGGA,093925.25,5702.9546643,N,00949.3044246,E,2,4,3.0,1.547,M,40.592,M,2.2,0123*70
$GPVTG,284.77,T,-355.13,M,005.640,N,010.444,K,D*06
$GPGGA,093925.30,5702.9546813,N,00949.3042873,E,2,4,3.0,1.547,M,40.592,M,2.2,0123*75
$GPVTG,,T,,M,,N,,K,D*26
$GPGGA,093925.35,5702.9546796,N,00949.3042906,E,2,4,3.0,1.548,M,40.592,M,2.2,0123*7E
$GPVTG,,T,,M,,N,,K,D*26
$GPGGA,093925.40,5702.9546991,N,00949.3042803,E,2,4,3.0,1.548,M,40.592,M,2.2,0123*71
$GPVTG,,T,,M,,N,,K,D*26
$GPGGA,093925.45,5702.9547252,N,00949.3038758,E,2,4,3.0,1.557,M,40.592,M,2.4,0123*75
$GPVTG,284.67,T,-355.23,M,005.702,N,010.560,K,D*04
$GPGGA,093925.50,5702.9547430,N,00949.3037403,E,2,4,3.0,1.556,M,40.592,M,2.4,0123*70
$GPVTG,,T,,M,,N,,K,D*26
$GPGGA,093925.55,5702.9547485,N,00949.3037373,E,2,4,3.0,1.558,M,40.592,M,2.4,0123*75
$GPVTG,,T,,M,,N,,K,D*26
$GPGGA,093925.60,5702.9547498,N,00949.3037401,E,2,4,3.0,1.558,M,40.592,M,2.4,0123*7D
$GPVTG,,T,,M,,N,,K,D*26
$GPGGA,093925.65,5702.9548004,N,00949.3033280,E,2,4,3.0,1.564,M,40.592,M,2.7,0123*71
$GPVTG,287.66,T,-352.24,M,005.804,N,010.749,K,D*06
$GPGGA,093925.70,5702.9548218,N,00949.3031885,E,2,4,3.0,1.563,M,40.592,M,2.7,0123*70
$GPVTG,,T,,M,,N,,K,D*26
$GPGGA,093925.75,5702.9548081,N,00949.3031904,E,2,4,3.0,1.561,M,40.592,M,2.7,0123*7D
$GPVTG,,T,,M,,N,,K,D*26
$GPGGA,093925.80,5702.9548087,N,00949.3031936,E,2,4,3.0,1.558,M,40.592,M,2.7,0123*7A
$GPVTG,,T,,M,,N,,K,D*26
$GPGGA,093925.85,5702.9548789,N,00949.3027699,E,2,4,3.0,1.580,M,40.592,M,2.9,0123*70
$GPVTG,289.64,T,-350.26,M,005.764,N,010.674,K,D*0C
$GPGGA,093925.90,5702.9548987,N,00949.3026347,E,2,4,3.0,1.575,M,40.592,M,2.9,0123*79
$GPVTG,,T,,M,,N,,K,D*26
$GPGGA,093925.95,5702.9548918,N,00949.3026394,E,2,4,3.0,1.579,M,40.592,M,2.9,0123*78
$GPVTG,,T,,M,,N,,K,D*26
$GPGGA,093926.00,5702.9549018,N,00949.3026283,E,2,4,3.0,1.583,M,40.592,M,2.9,0123*7D
$GPVTG,,T,,M,,N,,K,D*26
$GPGGA,093926.05,5702.9549228,N,00949.3022277,E,2,4,3.0,1.597,M,40.592,M,1.7,0123*7E
$GPVTG,286.93,T,-352.97,M,005.667,N,010.496,K,D*0F
$GPGGA,093926.10,5702.9549515,N,00949.3020816,E,2,4,3.0,1.595,M,40.592,M,1.7,0123*7E
$GPVTG,,T,,M,,N,,K,D*26
$GPGGA,093926.15,5702.9549349,N,00949.3020929,E,2,4,3.0,1.591,M,40.592,M,1.7,0123*7D
$GPVTG,,T,,M,,N,,K,D*26
$GPGGA,093926.20,5702.9549256,N,00949.3020914,E,2,4,3.0,1.588,M,40.592,M,1.7,0123*72
$GPVTG,,T,,M,,N,,K,D*26
$GPGGA,093926.25,5702.9549429,N,00949.3016766,E,2,4,3.0,1.627,M,40.592,M,2.0,0123*75
$GPVTG,280.71,T,-359.20,M,005.579,N,010.332,K,D*07
$GPGGA,093926.30,5702.9549628,N,00949.3015346,E,2,4,3.0,1.627,M,40.592,M,2.0,0123*77
$GPVTG,284.41,T,-355.49,M,005.769,N,010.685,K,D*09
$GPGGA,093926.35,5702.9549841,N,00949.3013926,E,2,4,3.0,1.627,M,40.592,M,2.0,0123*79
$GPVTG,285.42,T,-354.48,M,005.794,N,010.731,K,D*07
$GPGGA,093926.40,5702.9549959,N,00949.3012591,E,2,4,3.0,1.628,M,40.592,M,2.0,0123*7D
$GPVTG,280.02,T,-359.88,M,005.296,N,009.809,K,D*0C
$GPGGA,093926.45,5702.9549802,N,00949.3011207,E,2,4,3.0,1.655,M,40.592,M,2.2,0123*74
$GPVTG,283.21,T,-356.69,M,005.602,N,010.375,K,D*0F
$GPGGA,093926.50,5702.9550053,N,00949.3009769,E,2,4,3.0,1.659,M,40.592,M,2.2,0123*7C
$GPVTG,285.95,T,-353.95,M,005.801,N,010.743,K,D*0C
$GPGGA,093926.55,5702.9550194,N,00949.3008409,E,2,4,3.0,1.660,M,40.592,M,2.2,0123*7D
$GPVTG,283.67,T,-356.23,M,005.612,N,010.393,K,D*0A
$GPGGA,093926.60,5702.9550270,N,00949.3007055,E,2,4,3.0,1.662,M,40.592,M,2.2,0123*72
$GPVTG,279.92,T,-359.98,M,005.455,N,010.102,K,D*01
$GPGGA,093926.65,5702.9549851,N,00949.3005728,E,2,4,3.0,1.700,M,40.592,M,2.4,0123*7A
$GPVTG,279.34,T,-360.56,M,005.489,N,010.166,K,D*06
$GPGGA,093926.70,5702.9550046,N,00949.3004287,E,2,4,3.0,1.708,M,40.592,M,2.4,0123*71
$GPVTG,280.54,T,-359.36,M,005.602,N,010.374,K,D*0A
$GPGGA,093926.75,5702.9550154,N,00949.3002913,E,2,4,3.0,1.715,M,40.592,M,2.4,0123*7A
$GPVTG,279.36,T,-360.54,M,005.542,N,010.265,K,D*00
$GPGGA,093926.80,5702.9550304,N,00949.3001568,E,2,4,3.0,1.723,M,40.592,M,2.4,0123*71
$GPVTG,279.54,T,-360.36,M,005.479,N,010.148,K,D*05
$GPGGA,093926.85,5702.9550111,N,00949.3000265,E,2,4,3.0,1.754,M,40.592,M,2.7,0123*7A
$GPVTG,274.98,T,-364.92,M,005.355,N,009.918,K,D*0E
$GPGGA,093926.90,5702.9550135,N,00949.2998899,E,2,4,3.0,1.760,M,40.592,M,2.7,0123*7F
$GPVTG,272.94,T,-366.96,M,005.335,N,009.881,K,D*05
$GPGGA,093926.95,5702.9550306,N,00949.2997489,E,2,4,3.0,1.764,M,40.592,M,2.7,0123*7E
$GPVTG,275.16,T,-364.74,M,005.399,N,009.999,K,D*08
$GPGGA,093927.00,5702.9550435,N,00949.2996096,E,2,4,3.0,1.771,M,40.592,M,2.7,0123*7B
$GPVTG,275.76,T,-364.14,M,005.424,N,010.046,K,D*0A
$GPGGA,093927.05,5702.9550572,N,00949.2994653,E,2,4,3.0,1.780,M,40.592,M,1.6,0123*7D
$GPVTG,277.94,T,-361.96,M,005.519,N,010.221,K,D*07
$GPGGA,093927.10,5702.9550671,N,00949.2993323,E,2,4,3.0,1.782,M,40.592,M,1.6,0123*7E
$GPVTG,277.60,T,-362.30,M,005.451,N,010.095,K,D*03
$GPGGA,093927.15,5702.9550804,N,00949.2991970,E,2,4,3.0,1.783,M,40.592,M,1.6,0123*78
$GPVTG,277.89,T,-362.01,M,005.428,N,010.053,K,D*02
$GPGGA,093927.20,5702.9550898,N,00949.2990583,E,2,4,3.0,1.782,M,40.592,M,1.6,0123*7B
$GPVTG,277.46,T,-362.44,M,005.435,N,010.067,K,D*0B
$GPGGA,093927.25,5702.9551035,N,00949.2989184,E,2,4,3.0,1.793,M,40.592,M,1.9,0123*74
$GPVTG,281.50,T,-358.40,M,005.546,N,010.272,K,D*0B
$GPGGA,093927.30,5702.9551346,N,00949.2987740,E,2,4,3.0,1.791,M,40.592,M,1.9,0123*75
$GPVTG,283.75,T,-356.15,M,005.664,N,010.489,K,D*01
$GPGGA,093927.35,5702.9551501,N,00949.2986360,E,2,4,3.0,1.790,M,40.592,M,1.9,0123*73
$GPVTG,283.58,T,-356.32,M,005.648,N,010.461,K,D*03
$GPGGA,093927.40,5702.9551709,N,00949.2984959,E,2,4,3.0,1.788,M,40.592,M,1.9,0123*70
$GPVTG,284.04,T,-355.86,M,005.671,N,010.502,K,D*0F
$GPGGA,093927.45,5702.9551270,N,00949.2983637,E,2,4,3.0,1.831,M,40.592,M,2.1,0123*78
$GPVTG,283.76,T,-356.14,M,005.673,N,010.507,K,D*02
$GPGGA,093927.50,5702.9551397,N,00949.2982249,E,2,4,3.0,1.831,M,40.592,M,2.1,0123*78
$GPVTG,283.21,T,-356.69,M,005.653,N,010.469,K,D*01
$GPGGA,093927.55,5702.9551514,N,00949.2980881,E,2,4,3.0,1.833,M,40.592,M,2.1,0123*7E
$GPVTG,282.70,T,-357.20,M,005.613,N,010.395,K,D*08
$GPGGA,093927.60,5702.9551677,N,00949.2979503,E,2,4,3.0,1.839,M,40.592,M,2.1,0123*75
$GPVTG,282.73,T,-357.17,M,005.600,N,010.371,K,D*07
$GPGGA,093927.65,5702.9552057,N,00949.2978029,E,2,4,3.0,1.847,M,40.592,M,2.3,0123*70
$GPVTG,286.36,T,-353.54,M,005.788,N,010.719,K,D*0A
$GPGGA,093927.70,5702.9552176,N,00949.2976673,E,2,4,3.0,1.842,M,40.592,M,2.3,0123*74
$GPVTG,285.65,T,-354.25,M,005.717,N,010.588,K,D*02
$GPGGA,093927.75,5702.9552340,N,00949.2975302,E,2,4,3.0,1.838,M,40.592,M,2.3,0123*7B
$GPVTG,285.46,T,-354.44,M,005.685,N,010.529,K,D*05
$GPGGA,093927.80,5702.9552458,N,00949.2973887,E,2,4,3.0,1.833,M,40.592,M,2.3,0123*74
$GPVTG,284.75,T,-355.15,M,005.688,N,010.534,K,D*00
$GPGGA,093927.85,5702.9552430,N,00949.2972486,E,2,4,3.0,1.863,M,40.592,M,2.6,0123*73
$GPVTG,286.48,T,-353.42,M,005.792,N,010.728,K,D*0D
$GPGGA,093927.90,5702.9552622,N,00949.2971137,E,2,4,3.0,1.861,M,40.592,M,2.6,0123*78
$GPVTG,286.54,T,-353.36,M,005.735,N,010.622,K,D*05
$GPGGA,093927.95,5702.9552832,N,00949.2969778,E,2,4,3.0,1.861,M,40.592,M,2.6,0123*76
$GPVTG,286.74,T,-353.16,M,005.700,N,010.557,K,D*02
$GPGGA,093928.00,5702.9553021,N,00949.2968348,E,2,4,3.0,1.859,M,40.592,M,2.6,0123*73
$GPVTG,286.52,T,-353.38,M,005.733,N,010.618,K,D*02
$GPGGA,093928.05,5702.9553002,N,00949.2966967,E,2,4,3.0,1.880,M,40.592,M,2.8,0123*74
$GPVTG,286.66,T,-353.24,M,005.736,N,010.622,K,D*04
$GPGGA,093928.10,5702.9553233,N,00949.2965545,E,2,4,3.0,1.876,M,40.592,M,2.8,0123*76
$GPVTG,286.81,T,-353.09,M,005.768,N,010.682,K,D*03
$GPGGA,093928.15,5702.9553480,N,00949.2964163,E,2,4,3.0,1.875,M,40.592,M,2.8,0123*7F
$GPVTG,287.20,T,-352.70,M,005.760,N,010.667,K,D*05
$GPGGA,093928.20,5702.9553781,N,00949.2962759,E,2,4,3.0,1.877,M,40.592,M,2.8,0123*70
$GPVTG,287.90,T,-352.00,M,005.789,N,010.721,K,D*0D
$GPGGA,093928.25,5702.9553573,N,00949.2961458,E,2,4,3.0,1.899,M,40.592,M,3.0,0123*72
$GPVTG,287.27,T,-352.63,M,005.704,N,010.563,K,D*05
$GPGGA,093928.30,5702.9553682,N,00949.2960061,E,2,4,3.0,1.894,M,40.592,M,3.0,0123*79
$GPVTG,286.30,T,-353.60,M,005.682,N,010.523,K,D*0B
$GPGGA,093928.35,5702.9553996,N,00949.2958634,E,2,4,3.0,1.894,M,40.592,M,3.0,0123*7B
$GPVTG,287.08,T,-352.82,M,005.744,N,010.637,K,D*01
$GPGGA,093928.40,5702.9554276,N,00949.2957231,E,2,4,3.0,1.891,M,40.592,M,3.0,0123*70
$GPVTG,287.57,T,-352.33,M,005.767,N,010.681,K,D*0D
$GPGGA,093928.45,5702.9553833,N,00949.2955913,E,2,4,3.0,1.926,M,40.592,M,3.2,0123*7F
$GPVTG,287.38,T,-352.53,M,005.788,N,010.719,K,D*03
$GPGGA,093928.50,5702.9554027,N,00949.2954551,E,2,4,3.0,1.928,M,40.592,M,3.2,0123*74
$GPVTG,287.44,T,-352.46,M,005.748,N,010.646,K,D*0B
$GPGGA,093928.55,5702.9554253,N,00949.2953139,E,2,4,3.0,1.930,M,40.592,M,3.2,0123*74
$GPVTG,287.48,T,-352.42,M,005.767,N,010.681,K,D*05
$GPGGA,093928.60,5702.9554339,N,00949.2951817,E,2,4,3.0,1.929,M,40.592,M,3.2,0123*70
$GPVTG,287.13,T,-352.77,M,005.677,N,010.515,K,D*03
$GPGGA,093928.65,5702.9554035,N,00949.2950469,E,2,4,3.0,1.957,M,40.592,M,3.4,0123*71
$GPVTG,286.63,T,-353.27,M,005.674,N,010.509,K,D*0F
$GPGGA,093928.70,5702.9554249,N,00949.2949081,E,2,4,3.0,1.959,M,40.592,M,3.4,0123*78
$GPVTG,,T,,M,,N,,K,D*26
$GPGGA,093928.75,5702.9554254,N,00949.2949124,E,2,4,3.0,1.962,M,40.592,M,3.4,0123*77
$GPVTG,,T,,M,,N,,K,D*26
$GPGGA,093928.80,5702.9554382,N,00949.2949027,E,2,4,3.0,1.966,M,40.592,M,3.4,0123*71
$GPVTG,,T,,M,,N,,K,D*26
$GPGGA,093928.85,5702.9554898,N,00949.2944888,E,2,4,3.0,1.988,M,40.592,M,3.6,0123*76
$GPVTG,290.48,T,-349.42,M,006.016,N,011.142,K,D*02
$GPGGA,093928.90,5702.9555145,N,00949.2943497,E,2,4,3.0,1.981,M,40.592,M,3.6,0123*76
$GPVTG,288.05,T,-351.85,M,005.747,N,010.643,K,D*07
$GPGGA,093928.95,5702.9555420,N,00949.2942087,E,2,4,3.0,1.982,M,40.592,M,3.6,0123*72
$GPVTG,289.66,T,-350.24,M,005.938,N,010.997,K,D*09
$GPGGA,093929.00,5702.9555681,N,00949.2940677,E,2,4,3.0,1.982,M,40.592,M,3.6,0123*7D
$GPVTG,289.26,T,-350.64,M,005.909,N,010.944,K,D*05
$GPGGA,093929.05,5702.9555261,N,00949.2939371,E,2,4,3.0,2.011,M,40.592,M,1.9,0123*72
$GPVTG,278.86,T,-361.04,M,005.529,N,010.239,K,D*0A
$GPGGA,093929.10,5702.9555415,N,00949.2938011,E,2,4,3.0,2.012,M,40.592,M,1.9,0123*74
$GPVTG,278.75,T,-361.15,M,005.437,N,010.070,K,D*07
$GPGGA,093929.15,5702.9555618,N,00949.2936626,E,2,4,3.0,2.010,M,40.592,M,1.9,0123*70
$GPVTG,280.91,T,-358.99,M,005.491,N,010.169,K,D*01
$GPGGA,093929.20,5702.9555900,N,00949.2935181,E,2,4,3.0,2.010,M,40.592,M,1.9,0123*79
$GPVTG,284.88,T,-355.02,M,005.717,N,010.589,K,D*05
$GPGGA,093929.25,5702.9555835,N,00949.2933827,E,2,4,3.0,2.035,M,40.592,M,2.2,0123*77
$GPVTG,287.32,T,-352.58,M,005.771,N,010.688,K,D*0D
$GPGGA,093929.30,5702.9556138,N,00949.2932405,E,2,4,3.0,2.036,M,40.592,M,2.2,0123*7A
$GPVTG,289.48,T,-350.42,M,005.886,N,010.901,K,D*0E
$GPGGA,093929.35,5702.9556355,N,00949.2931023,E,2,4,3.0,2.034,M,40.592,M,2.2,0123*77
$GPVTG,288.81,T,-351.09,M,005.826,N,010.790,K,D*08
$GPGGA,093929.40,5702.9556444,N,00949.2929696,E,2,4,3.0,2.027,M,40.592,M,2.2,0123*71
$GPVTG,285.51,T,-354.39,M,005.618,N,010.404,K,D*03
$GPGGA,093929.45,5702.9556198,N,00949.2928328,E,2,4,3.0,2.062,M,40.592,M,2.4,0123*76
$GPVTG,288.00,T,-351.90,M,005.802,N,010.745,K,D*0F
$GPGGA,093929.50,5702.9556417,N,00949.2926938,E,2,4,3.0,2.062,M,40.592,M,2.4,0123*75
$GPVTG,287.67,T,-352.23,M,005.777,N,010.700,K,D*06
$GPGGA,093929.55,5702.9556636,N,00949.2925550,E,2,4,3.0,2.064,M,40.592,M,2.4,0123*76
$GPVTG,287.45,T,-352.45,M,005.759,N,010.665,K,D*08
$GPGGA,093929.60,5702.9556705,N,00949.2924207,E,2,4,3.0,2.063,M,40.592,M,2.4,0123*72
$GPVTG,284.78,T,-355.12,M,005.619,N,010.406,K,D*02
$GPGGA,093929.65,5702.9556545,N,00949.2922871,E,2,4,3.0,2.091,M,40.592,M,2.7,0123*72
$GPVTG,285.74,T,-354.16,M,005.651,N,010.466,K,D*00
$GPGGA,093929.70,5702.9556910,N,00949.2921444,E,2,4,3.0,2.093,M,40.592,M,2.7,0123*71
$GPVTG,288.15,T,-351.75,M,005.769,N,010.685,K,D*0F
$GPGGA,093929.75,5702.9557204,N,00949.2920040,E,2,4,3.0,2.093,M,40.592,M,2.7,0123*7A
$GPVTG,288.96,T,-350.94,M,005.809,N,010.757,K,D*0D
$GPGGA,093929.80,5702.9557366,N,00949.2918659,E,2,4,3.0,2.091,M,40.592,M,2.7,0123*72
$GPVTG,287.90,T,-352.00,M,005.757,N,010.663,K,D*09
$GPGGA,093929.85,5702.9556667,N,00949.2917465,E,2,4,3.0,2.144,M,40.592,M,2.9,0123*77
$GPVTG,285.27,T,-354.63,M,005.585,N,010.344,K,D*09
$GPGGA,093929.90,5702.9556874,N,00949.2916083,E,2,4,3.0,2.145,M,40.592,M,2.9,0123*73
$GPVTG,285.22,T,-354.68,M,005.585,N,010.344,K,D*07
$GPGGA,093929.95,5702.9557211,N,00949.2914626,E,2,4,3.0,2.152,M,40.592,M,2.9,0123*73
$GPVTG,286.60,T,-353.30,M,005.708,N,010.571,K,D*0F
$GPGGA,093930.00,5702.9557591,N,00949.2913199,E,2,4,3.0,2.162,M,40.592,M,2.9,0123*7F
$GPVTG,288.26,T,-351.64,M,005.800,N,010.742,K,D*05
$GPGGA,093930.05,5702.9557237,N,00949.2911941,E,2,4,3.0,2.192,M,40.592,M,1.7,0123*7C
$GPVTG,285.04,T,-354.86,M,005.607,N,010.385,K,D*07
$GPGGA,093930.10,5702.9557311,N,00949.2910605,E,2,4,3.0,2.195,M,40.592,M,1.7,0123*74
$GPVTG,283.52,T,-356.38,M,005.519,N,010.221,K,D*06
$GPGGA,093930.15,5702.9557317,N,00949.2909278,E,2,4,3.0,2.197,M,40.592,M,1.7,0123*73
$GPVTG,281.45,T,-358.45,M,005.425,N,010.047,K,D*0A
$GPGGA,093930.20,5702.9557641,N,00949.2907822,E,2,4,3.0,2.208,M,40.592,M,1.7,0123*7D
$GPVTG,282.80,T,-357.10,M,005.545,N,010.270,K,D*0E
$GPGGA,093930.25,5702.9557647,N,00949.2906502,E,2,4,3.0,2.217,M,40.592,M,2.0,0123*7A
$GPVTG,282.89,T,-357.01,M,005.538,N,010.256,K,D*09
$GPGGA,093930.30,5702.9557723,N,00949.2905169,E,2,4,3.0,2.222,M,40.592,M,2.0,0123*71
$GPVTG,281.74,T,-358.16,M,005.467,N,010.126,K,D*0E
$GPGGA,093930.35,5702.9557887,N,00949.2903809,E,2,4,3.0,2.222,M,40.592,M,2.0,0123*7C
$GPVTG,281.62,T,-358.28,M,005.456,N,010.105,K,D*07
$GPGGA,093930.40,5702.9558155,N,00949.2902409,E,2,4,3.0,2.228,M,40.592,M,2.0,0123*70
$GPVTG,282.42,T,-357.48,M,005.507,N,010.198,K,D*0E
$GPGGA,093930.45,5702.9558242,N,00949.2901054,E,2,4,3.0,2.248,M,40.592,M,2.2,0123*7B
$GPVTG,283.34,T,-356.56,M,005.536,N,010.252,K,D*07
$GPGGA,093930.50,5702.9558358,N,00949.2899666,E,2,4,3.0,2.251,M,40.592,M,2.2,0123*7A
$GPVTG,282.57,T,-357.33,M,005.536,N,010.253,K,D*00
$GPGGA,093930.55,5702.9558435,N,00949.2898334,E,2,4,3.0,2.255,M,40.592,M,2.2,0123*74
$GPVTG,281.67,T,-358.23,M,005.475,N,010.139,K,D*07
$GPGGA,093930.60,5702.9558677,N,00949.2896944,E,2,4,3.0,2.261,M,40.592,M,2.2,0123*72
$GPVTG,282.21,T,-357.69,M,005.509,N,010.202,K,D*06
$GPGGA,093930.65,5702.9558745,N,00949.2895588,E,2,4,3.0,2.274,M,40.592,M,2.4,0123*7A
$GPVTG,282.33,T,-357.57,M,005.515,N,010.213,K,D*05
$GPGGA,093930.70,5702.9558976,N,00949.2894151,E,2,4,3.0,2.275,M,40.592,M,2.4,0123*70
$GPVTG,282.40,T,-357.50,M,005.586,N,010.345,K,D*0E
$GPGGA,093930.75,5702.9559152,N,00949.2892827,E,2,4,3.0,2.273,M,40.592,M,2.4,0123*72
$GPVTG,282.47,T,-357.43,M,005.529,N,010.240,K,D*0A
$GPGGA,093930.80,5702.9559295,N,00949.2891478,E,2,4,3.0,2.277,M,40.592,M,2.4,0123*71
$GPVTG,282.29,T,-357.61,M,005.501,N,010.187,K,D*00
$GPGGA,093930.85,5702.9559164,N,00949.2890181,E,2,4,3.0,2.301,M,40.592,M,2.7,0123*78
$GPVTG,282.35,T,-357.55,M,005.484,N,010.156,K,D*0A
$GPGGA,093930.90,5702.9559440,N,00949.2888731,E,2,4,3.0,2.306,M,40.592,M,2.7,0123*7C
$GPVTG,,T,,M,,N,,K,D*26
$GPGGA,093930.95,5702.9559301,N,00949.2888826,E,2,4,3.0,2.299,M,40.592,M,2.7,0123*75
$GPVTG,,T,,M,,N,,K,D*26
$GPGGA,093931.00,5702.9553393,N,00949.2890350,E,2,4,3.0,2.106,M,40.592,M,2.7,0123*7F
$GPVTG,,T,,M,,N,,K,D*26
$GPGGA,093931.05,5702.9559950,N,00949.2884646,E,2,4,3.0,2.330,M,40.592,M,1.6,0123*77
$GPVTG,287.91,T,-351.99,M,005.758,N,010.664,K,D*03
$GPGGA,093931.10,5702.9560125,N,00949.2883295,E,2,4,3.0,2.333,M,40.592,M,1.6,0123*7D
$GPVTG,,T,,M,,N,,K,D*26
$GPGGA,093931.15,5702.9560213,N,00949.2883267,E,2,4,3.0,2.335,M,40.592,M,1.6,0123*75
$GPVTG,,T,,M,,N,,K,D*26
$GPGGA,093931.20,5702.9560006,N,00949.2883390,E,2,4,3.0,2.329,M,40.592,M,1.6,0123*71
$GPVTG,,T,,M,,N,,K,D*26
$GPGGA,093931.25,5702.9560540,N,00949.2879262,E,2,4,3.0,2.350,M,40.592,M,1.9,0123*7B
$GPVTG,285.78,T,-354.12,M,005.699,N,010.555,K,D*0D
$GPGGA,093931.30,5702.9560712,N,00949.2877941,E,2,4,3.0,2.349,M,40.592,M,1.9,0123*76
$GPVTG,,T,,M,,N,,K,D*26
$GPGGA,093931.35,5702.9560879,N,00949.2877839,E,2,4,3.0,2.350,M,40.592,M,1.9,0123*77
$GPVTG,,T,,M,,N,,K,D*26
$GPGGA,093931.40,5702.9560678,N,00949.2877874,E,2,4,3.0,2.349,M,40.592,M,1.9,0123*7B
$GPVTG,,T,,M,,N,,K,D*26
$GPGGA,093931.45,5702.9560973,N,00949.2873784,E,2,4,3.0,2.373,M,40.592,M,2.1,0123*7C
$GPVTG,283.47,T,-356.43,M,005.724,N,010.601,K,D*04
$GPGGA,093931.50,5702.9561117,N,00949.2872548,E,2,4,3.0,2.373,M,40.592,M,2.1,0123*70
$GPVTG,,T,,M,,N,,K,D*26
$GPGGA,093931.55,5702.9561333,N,00949.2872369,E,2,4,3.0,2.381,M,40.592,M,2.1,0123*79
$GPVTG,,T,,M,,N,,K,D*26
$GPGGA,093931.60,5702.9561145,N,00949.2872337,E,2,4,3.0,2.380,M,40.592,M,2.1,0123*76
$GPVTG,,T,,M,,N,,K,D*26
$GPGGA,093931.65,5702.9561432,N,00949.2868500,E,2,4,3.0,2.392,M,40.592,M,2.3,0123*7E
$GPVTG,281.14,T,-358.76,M,005.243,N,009.710,K,D*05
$GPGGA,093931.70,5702.9561658,N,00949.2867110,E,2,4,3.0,2.394,M,40.592,M,2.3,0123*78
$GPVTG,286.59,T,-353.31,M,005.709,N,010.573,K,D*07
$GPGGA,093931.75,5702.9561852,N,00949.2865804,E,2,4,3.0,2.395,M,40.592,M,2.3,0123*76
$GPVTG,285.63,T,-354.27,M,005.162,N,009.560,K,D*0C
$GPGGA,093931.80,5702.9562046,N,00949.2864420,E,2,4,3.0,2.394,M,40.592,M,2.3,0123*78
$GPVTG,284.06,T,-355.84,M,005.487,N,010.161,K,D*05
$GPGGA,093931.85,5702.9562154,N,00949.2863021,E,2,4,3.0,2.412,M,40.592,M,2.6,0123*71
$GPVTG,291.77,T,-348.13,M,006.028,N,011.165,K,D*02
$GPGGA,093931.90,5702.9562405,N,00949.2861681,E,2,4,3.0,2.413,M,40.592,M,2.6,0123*7B
$GPVTG,291.03,T,-348.87,M,005.814,N,010.767,K,D*0D
$GPGGA,093931.95,5702.9562593,N,00949.2860348,E,2,4,3.0,2.415,M,40.592,M,2.6,0123*77
$GPVTG,288.02,T,-351.88,M,005.597,N,010.366,K,D*00
$GPGGA,093932.00,5702.9562725,N,00949.2859032,E,2,4,3.0,2.416,M,40.592,M,2.6,0123*70
$GPVTG,284.19,T,-355.71,M,005.398,N,009.998,K,D*0E
$GPGGA,093932.05,5702.9562755,N,00949.2857665,E,2,4,3.0,2.434,M,40.592,M,2.8,0123*76
$GPVTG,286.51,T,-353.39,M,005.597,N,010.365,K,D*03
$GPGGA,093932.10,5702.9562995,N,00949.2856277,E,2,4,3.0,2.439,M,40.592,M,2.8,0123*7B
$GPVTG,286.87,T,-353.03,M,005.648,N,010.460,K,D*02
$GPGGA,093932.15,5702.9563342,N,00949.2854858,E,2,4,3.0,2.441,M,40.592,M,2.8,0123*75
$GPVTG,289.71,T,-350.19,M,005.817,N,010.773,K,D*09
$GPGGA,093932.20,5702.9563543,N,00949.2853507,E,2,4,3.0,2.444,M,40.592,M,2.8,0123*71
$GPVTG,288.56,T,-351.34,M,005.731,N,010.614,K,D*08
$GPGGA,093932.25,5702.9563506,N,00949.2852176,E,2,4,3.0,2.467,M,40.592,M,3.0,0123*7E
$GPVTG,286.68,T,-353.22,M,005.648,N,010.460,K,D*00
$GPGGA,093932.30,5702.9563573,N,00949.2850829,E,2,4,3.0,2.472,M,40.592,M,3.0,0123*7D
$GPVTG,283.16,T,-356.74,M,005.522,N,010.227,K,D*00
$GPGGA,093932.35,5702.9563796,N,00949.2849461,E,2,4,3.0,2.477,M,40.592,M,3.0,0123*7C
$GPVTG,283.66,T,-356.24,M,005.533,N,010.247,K,D*04
$GPGGA,093932.40,5702.9563914,N,00949.2848115,E,2,4,3.0,2.479,M,40.592,M,3.0,0123*73
$GPVTG,282.19,T,-357.71,M,005.475,N,010.139,K,D*05
$GPGGA,093932.45,5702.9564202,N,00949.2846735,E,2,4,3.0,2.474,M,40.592,M,3.2,0123*78
$GPVTG,284.03,T,-355.87,M,005.542,N,010.264,K,D*0D
$GPGGA,093932.50,5702.9564498,N,00949.2845331,E,2,4,3.0,2.475,M,40.592,M,3.2,0123*7B
$GPVTG,285.57,T,-354.33,M,005.623,N,010.414,K,D*06
$GPGGA,093932.55,5702.9564874,N,00949.2843896,E,2,4,3.0,2.477,M,40.592,M,3.2,0123*72
$GPVTG,287.82,T,-352.08,M,005.757,N,010.662,K,D*03
$GPGGA,093932.60,5702.9565067,N,00949.2842503,E,2,4,3.0,2.479,M,40.592,M,3.2,0123*71
$GPVTG,287.18,T,-352.72,M,005.748,N,010.645,K,D*06
$GPGGA,093932.65,5702.9564904,N,00949.2841173,E,2,4,3.0,2.509,M,40.592,M,3.4,0123*79
$GPVTG,285.25,T,-354.65,M,005.669,N,010.498,K,D*0A
$GPGGA,093932.70,5702.9565059,N,00949.2839780,E,2,4,3.0,2.514,M,40.592,M,3.4,0123*74
$GPVTG,284.42,T,-355.48,M,005.655,N,010.473,K,D*0E
$GPGGA,093932.75,5702.9565215,N,00949.2838469,E,2,4,3.0,2.516,M,40.592,M,3.4,0123*7C
$GPVTG,283.95,T,-355.95,M,005.565,N,010.306,K,D*06
$GPGGA,093932.80,5702.9565487,N,00949.2837055,E,2,4,3.0,2.520,M,40.592,M,3.4,0123*7A
$GPVTG,284.68,T,-355.22,M,005.622,N,010.413,K,D*0C
$GPGGA,093932.85,5702.9565782,N,00949.2835655,E,2,4,3.0,2.519,M,40.592,M,3.6,0123*75
$GPVTG,285.43,T,-354.47,M,005.662,N,010.486,K,D*0E
$GPGGA,093932.90,5702.9566173,N,00949.2834266,E,2,4,3.0,2.521,M,40.592,M,3.6,0123*74
$GPVTG,287.52,T,-352.38,M,005.730,N,010.611,K,D*08
$GPGGA,093932.95,5702.9566402,N,00949.2832868,E,2,4,3.0,2.521,M,40.592,M,3.6,0123*70
$GPVTG,287.45,T,-352.45,M,005.740,N,010.631,K,D*01
$GPGGA,093933.00,5702.9566567,N,00949.2831485,E,2,4,3.0,2.517,M,40.592,M,3.6,0123*76
$GPVTG,286.81,T,-353.09,M,005.715,N,010.585,K,D*0D
$GPGGA,093933.05,5702.9566523,N,00949.2830164,E,2,4,3.0,2.543,M,40.592,M,1.9,0123*74
$GPVTG,287.53,T,-352.37,M,005.729,N,010.610,K,D*0F
$GPGGA,093933.10,5702.9566809,N,00949.2828719,E,2,4,3.0,2.544,M,40.592,M,1.9,0123*77
$GPVTG,287.90,T,-352.00,M,005.804,N,010.748,K,D*08
$GPGGA,093933.15,5702.9567094,N,00949.2827316,E,2,4,3.0,2.545,M,40.592,M,1.9,0123*7A
$GPVTG,288.33,T,-351.57,M,005.826,N,010.790,K,D*0A
$GPGGA,093933.20,5702.9567254,N,00949.2825975,E,2,4,3.0,2.549,M,40.592,M,1.9,0123*73
$GPVTG,287.78,T,-352.12,M,005.748,N,010.645,K,D*06
$GPGGA,093933.25,5702.9567102,N,00949.2824678,E,2,4,3.0,2.579,M,40.592,M,2.2,0123*7E
$GPVTG,287.22,T,-352.68,M,005.690,N,010.538,K,D*09
$GPGGA,093933.30,5702.9567253,N,00949.2823325,E,2,4,3.0,2.583,M,40.592,M,2.2,0123*72
$GPVTG,286.55,T,-353.35,M,005.634,N,010.435,K,D*03
$GPGGA,093933.35,5702.9567454,N,00949.2821950,E,2,4,3.0,2.588,M,40.592,M,2.2,0123*77
$GPVTG,286.36,T,-353.54,M,005.623,N,010.414,K,D*04
$GPGGA,093933.40,5702.9567637,N,00949.2820544,E,2,4,3.0,2.590,M,40.592,M,2.2,0123*73
$GPVTG,285.95,T,-353.95,M,005.640,N,010.445,K,D*02
$GPGGA,093933.45,5702.9567811,N,00949.2819173,E,2,4,3.0,2.593,M,40.592,M,2.4,0123*73
$GPVTG,286.06,T,-353.84,M,005.654,N,010.471,K,D*09
$GPGGA,093933.50,5702.9568029,N,00949.2817839,E,2,4,3.0,2.592,M,40.592,M,2.4,0123*73
$GPVTG,286.16,T,-353.74,M,005.605,N,010.380,K,D*0A
$GPGGA,093933.55,5702.9568207,N,00949.2816484,E,2,4,3.0,2.592,M,40.592,M,2.4,0123*73
$GPVTG,285.99,T,-353.91,M,005.579,N,010.332,K,D*04
$GPGGA,093933.60,5702.9568487,N,00949.2815083,E,2,4,3.0,2.596,M,40.592,M,2.4,0123*7F
$GPVTG,286.20,T,-353.70,M,005.615,N,010.399,K,D*02
$GPGGA,093933.65,5702.9568390,N,00949.2813721,E,2,4,3.0,2.618,M,40.592,M,2.7,0123*74
$GPVTG,286.00,T,-353.90,M,005.662,N,010.485,K,D*04
$GPGGA,093933.70,5702.9568603,N,00949.2812345,E,2,4,3.0,2.619,M,40.592,M,2.7,0123*79
$GPVTG,,T,,M,,N,,K,D*26
$GPGGA,093933.75,5702.9568630,N,00949.2812373,E,2,4,3.0,2.620,M,40.592,M,2.7,0123*73
$GPVTG,,T,,M,,N,,K,D*26
$GPGGA,093933.80,5702.9568463,N,00949.2812447,E,2,4,3.0,2.614,M,40.592,M,2.7,0123*7A
$GPVTG,,T,,M,,N,,K,D*26
$GPGGA,093933.85,5702.9569220,N,00949.2808325,E,2,4,3.0,2.632,M,40.592,M,2.9,0123*7D
$GPVTG,287.39,T,-352.51,M,005.720,N,010.593,K,D*02
$GPGGA,093933.90,5702.9569480,N,00949.2806917,E,2,4,3.0,2.631,M,40.592,M,2.9,0123*73
$GPVTG,,T,,M,,N,,K,D*26
$GPGGA,093933.95,5702.9569313,N,00949.2806990,E,2,4,3.0,2.629,M,40.592,M,2.9,0123*7D
$GPVTG,,T,,M,,N,,K,D*26
$GPGGA,093934.00,5702.9569672,N,00949.2806920,E,2,4,3.0,2.635,M,40.592,M,2.9,0123*72
$GPVTG,,T,,M,,N,,K,D*26
$GPGGA,093934.05,5702.9569989,N,00949.2802895,E,2,4,3.0,2.652,M,40.592,M,1.7,0123*7B
$GPVTG,288.23,T,-351.67,M,005.583,N,010.340,K,D*03
$GPGGA,093934.10,5702.9570270,N,00949.2801453,E,2,4,3.0,2.654,M,40.592,M,1.7,0123*79
$GPVTG,,T,,M,,N,,K,D*26
$GPGGA,093934.15,5702.9570123,N,00949.2801547,E,2,4,3.0,2.646,M,40.592,M,1.7,0123*7E
$GPVTG,,T,,M,,N,,K,D*26
$GPGGA,093934.20,5702.9569954,N,00949.2801647,E,2,4,3.0,2.645,M,40.592,M,1.7,0123*78
$GPVTG,,T,,M,,N,,K,D*26
$GPGGA,093934.25,5702.9570467,N,00949.2797515,E,2,4,3.0,2.674,M,40.592,M,2.0,0123*7A
$GPVTG,284.75,T,-355.15,M,005.455,N,010.103,K,D*02
$GPGGA,093934.30,5702.9570655,N,00949.2796114,E,2,4,3.0,2.673,M,40.592,M,2.0,0123*7E
$GPVTG,,T,,M,,N,,K,D*26
$GPGGA,093934.35,5702.9570551,N,00949.2796256,E,2,4,3.0,2.654,M,40.592,M,2.0,0123*7C
$GPVTG,,T,,M,,N,,K,D*26
$GPGGA,093934.40,5702.9570576,N,00949.2796201,E,2,4,3.0,2.671,M,40.592,M,2.0,0123*7E
$GPVTG,,T,,M,,N,,K,D*26
$GPGGA,093934.45,5702.9570778,N,00949.2792165,E,2,4,3.0,2.703,M,40.592,M,2.2,0123*74
$GPVTG,280.00,T,-359.90,M,005.403,N,010.006,K,D*02
$GPGGA,093934.50,5702.9570916,N,00949.2790810,E,2,4,3.0,2.705,M,40.592,M,2.2,0123*79
$GPVTG,,T,,M,,N,,K,D*26
$GPGGA,093934.55,5702.9571155,N,00949.2790761,E,2,4,3.0,2.708,M,40.592,M,2.2,0123*76
$GPVTG,,T,,M,,N,,K,D*26
$GPGGA,093934.60,5702.9569933,N,00949.2791077,E,2,4,3.0,2.669,M,40.592,M,2.2,0123*76
$GPVTG,,T,,M,,N,,K,D*26
$GPGGA,093934.65,5702.9571107,N,00949.2786826,E,2,4,3.0,2.744,M,40.592,M,2.4,0123*77
$GPVTG,276.01,T,-363.89,M,005.124,N,009.490,K,D*08
$GPGGA,093934.70,5702.9571186,N,00949.2785475,E,2,4,3.0,2.754,M,40.592,M,2.4,0123*72
$GPVTG,276.08,T,-363.82,M,005.342,N,009.893,K,D*07
$GPGGA,093934.75,5702.9571281,N,00949.2784181,E,2,4,3.0,2.760,M,40.592,M,2.4,0123*7B
$GPVTG,277.96,T,-361.94,M,005.032,N,009.320,K,D*03
$GPGGA,093934.80,5702.9571435,N,00949.2782838,E,2,4,3.0,2.766,M,40.592,M,2.4,0123*73
$GPVTG,282.15,T,-357.75,M,005.325,N,009.863,K,D*01
$GPGGA,093934.85,5702.9571828,N,00949.2781440,E,2,4,3.0,2.760,M,40.592,M,2.7,0123*73
$GPVTG,286.55,T,-353.35,M,005.568,N,010.312,K,D*0B
