$GPGGA,094248.75,5702.9677060,N,00949.3965234,E,2,5,3.0,-3.777,M,40.592,M,3.4,0123*53
$GPVTG,122.07,T,-517.83,M,004.135,N,007.658,K,D*0A
$GPGGA,094248.80,5702.9676767,N,00949.3966091,E,2,5,3.0,-3.780,M,40.592,M,3.4,0123*5E
$GPVTG,122.18,T,-517.72,M,004.111,N,007.613,K,D*03
$GPGGA,094248.85,5702.9676389,N,00949.3966990,E,2,5,3.0,-3.770,M,40.592,M,3.6,0123*5A
$GPVTG,122.37,T,-517.53,M,004.080,N,007.556,K,D*06
$GPGGA,094248.90,5702.9676068,N,00949.3967884,E,2,5,3.0,-3.784,M,40.592,M,3.6,0123*5C
$GPVTG,122.33,T,-517.57,M,004.107,N,007.606,K,D*0E
$GPGGA,094248.95,5702.9675680,N,00949.3968701,E,2,5,3.0,-3.801,M,40.592,M,3.6,0123*55
$GPVTG,123.55,T,-516.35,M,004.079,N,007.554,K,D*06
$GPGGA,094249.00,5702.9675380,N,00949.3969614,E,2,5,3.0,-3.817,M,40.592,M,3.6,0123*5E
$GPVTG,123.11,T,-516.79,M,004.119,N,007.629,K,D*00
$GPGGA,094249.05,5702.9675003,N,00949.3970524,E,2,5,3.0,-3.814,M,40.592,M,1.9,0123*55
$GPVTG,123.10,T,-516.80,M,004.074,N,007.546,K,D*07
$GPGGA,094249.10,5702.9674793,N,00949.3971393,E,2,5,3.0,-3.824,M,40.592,M,1.9,0123*56
$GPVTG,122.27,T,-517.63,M,004.035,N,007.473,K,D*0C
$GPGGA,094249.15,5702.9674532,N,00949.3972230,E,2,5,3.0,-3.831,M,40.592,M,1.9,0123*55
$GPVTG,122.18,T,-517.72,M,003.986,N,007.383,K,D*0E
$GPGGA,094249.20,5702.9674153,N,00949.3973081,E,2,5,3.0,-3.846,M,40.592,M,1.9,0123*59
$GPVTG,123.02,T,-516.88,M,004.007,N,007.421,K,D*08
$GPGGA,094249.25,5702.9673647,N,00949.3974072,E,2,5,3.0,-3.801,M,40.592,M,2.2,0123*59
$GPVTG,123.27,T,-516.63,M,003.981,N,007.373,K,D*0A
$GPGGA,094249.30,5702.9673353,N,00949.3974957,E,2,5,3.0,-3.813,M,40.592,M,2.2,0123*50
$GPVTG,122.91,T,-516.99,M,004.006,N,007.419,K,D*09
$GPGGA,094249.35,5702.9673051,N,00949.3975830,E,2,5,3.0,-3.827,M,40.592,M,2.2,0123*52
$GPVTG,122.77,T,-517.13,M,004.020,N,007.444,K,D*0E
$GPGGA,094249.40,5702.9672744,N,00949.3976742,E,2,5,3.0,-3.842,M,40.592,M,2.2,0123*58
$GPVTG,122.38,T,-517.52,M,004.070,N,007.537,K,D*00
$GPGGA,094249.45,5702.9672181,N,00949.3977702,E,2,5,3.0,-3.819,M,40.592,M,2.4,0123*5F
$GPVTG,123.37,T,-516.53,M,004.079,N,007.554,K,D*02
$GPGGA,094249.50,5702.9671886,N,00949.3978639,E,2,5,3.0,-3.833,M,40.592,M,2.4,0123*58
$GPVTG,122.60,T,-517.30,M,004.145,N,007.676,K,D*08
$GPGGA,094249.55,5702.9671595,N,00949.3979570,E,2,5,3.0,-3.849,M,40.592,M,2.4,0123*50
$GPVTG,121.99,T,-517.91,M,004.191,N,007.761,K,D*08
$GPGGA,094249.60,5702.9671290,N,00949.3980477,E,2,5,3.0,-3.860,M,40.592,M,2.4,0123*5F
$GPVTG,121.83,T,-518.07,M,004.208,N,007.793,K,D*0D
$GPGGA,094249.65,5702.9670832,N,00949.3981447,E,2,5,3.0,-3.841,M,40.592,M,2.7,0123*5B
$GPVTG,122.02,T,-517.88,M,004.204,N,007.786,K,D*07
$GPGGA,094249.70,5702.9670513,N,00949.3982258,E,2,5,3.0,-3.847,M,40.592,M,2.7,0123*5C
$GPVTG,122.87,T,-517.03,M,004.126,N,007.642,K,D*03
$GPGGA,094249.75,5702.9670246,N,00949.3983080,E,2,5,3.0,-3.849,M,40.592,M,2.7,0123*56
$GPVTG,122.98,T,-516.92,M,004.051,N,007.502,K,D*02
$GPGGA,094249.80,5702.9669916,N,00949.3984001,E,2,5,3.0,-3.863,M,40.592,M,2.7,0123*5C
$GPVTG,122.81,T,-517.09,M,004.108,N,007.608,K,D*0D
$GPGGA,094249.85,5702.9669580,N,00949.3984935,E,2,5,3.0,-3.841,M,40.592,M,2.9,0123*5A
$GPVTG,122.02,T,-517.88,M,004.033,N,007.468,K,D*02
$GPGGA,094249.90,5702.9669286,N,00949.3985828,E,2,5,3.0,-3.858,M,40.592,M,2.9,0123*5B
$GPVTG,121.76,T,-518.14,M,004.049,N,007.498,K,D*0A
$GPGGA,094249.95,5702.9668982,N,00949.3986680,E,2,5,3.0,-3.874,M,40.592,M,2.9,0123*51
$GPVTG,122.07,T,-517.83,M,004.029,N,007.462,K,D*0D
$GPGGA,094250.00,5702.9668697,N,00949.3987520,E,2,5,3.0,-3.889,M,40.592,M,2.9,0123*54
$GPVTG,122.14,T,-517.76,M,003.988,N,007.386,K,D*0D
$GPGGA,094250.05,5702.9668079,N,00949.3988551,E,2,5,3.0,-3.865,M,40.592,M,1.7,0123*51
$GPVTG,122.38,T,-517.52,M,004.034,N,007.471,K,D*03
$GPGGA,094250.10,5702.9667774,N,00949.3989461,E,2,5,3.0,-3.882,M,40.592,M,1.7,0123*5A
$GPVTG,122.03,T,-517.87,M,004.075,N,007.547,K,D*02
$GPGGA,094250.15,5702.9667506,N,00949.3990356,E,2,5,3.0,-3.896,M,40.592,M,1.7,0123*56
$GPVTG,121.64,T,-518.26,M,004.084,N,007.564,K,D*0B
$GPGGA,094250.20,5702.9667241,N,00949.3991262,E,2,5,3.0,-3.905,M,40.592,M,1.7,0123*58
$GPVTG,121.17,T,-518.73,M,004.098,N,007.590,K,D*09
$GPGGA,094250.25,5702.9666704,N,00949.3992199,E,2,5,3.0,-3.869,M,40.592,M,2.0,0123*53
$GPVTG,121.99,T,-517.91,M,004.019,N,007.444,K,D*0D
$GPGGA,094250.30,5702.9666401,N,00949.3993092,E,2,5,3.0,-3.877,M,40.592,M,2.0,0123*55
$GPVTG,121.83,T,-518.07,M,004.043,N,007.487,K,D*06
$GPGGA,094250.35,5702.9666062,N,00949.3993976,E,2,5,3.0,-3.890,M,40.592,M,2.0,0123*5B
$GPVTG,122.08,T,-517.82,M,004.066,N,007.531,K,D*0F
$GPGGA,094250.40,5702.9665700,N,00949.3994805,E,2,5,3.0,-3.902,M,40.592,M,2.0,0123*51
$GPVTG,123.01,T,-516.89,M,004.046,N,007.493,K,D*06
$GPGGA,094250.45,5702.9665387,N,00949.3995687,E,2,5,3.0,-3.907,M,40.592,M,2.2,0123*5D
$GPVTG,122.57,T,-517.33,M,004.000,N,007.408,K,D*04
$GPGGA,094250.50,5702.9665093,N,00949.3996577,E,2,5,3.0,-3.932,M,40.592,M,2.2,0123*56
$GPVTG,122.23,T,-517.67,M,004.024,N,007.452,K,D*0F
$GPGGA,094250.55,5702.9664802,N,00949.3997446,E,2,5,3.0,-3.952,M,40.592,M,2.2,0123*56
$GPVTG,122.11,T,-517.79,M,004.020,N,007.445,K,D*03
$GPGGA,094250.60,5702.9664508,N,00949.3998361,E,2,5,3.0,-3.973,M,40.592,M,2.2,0123*59
$GPVTG,121.64,T,-518.26,M,004.064,N,007.526,K,D*03
$GPGGA,094250.65,5702.9663885,N,00949.3999512,E,2,5,3.0,-3.912,M,40.592,M,2.4,0123*51
$GPVTG,121.56,T,-518.34,M,004.088,N,007.571,K,D*01
$GPGGA,094250.70,5702.9663603,N,00949.4000431,E,2,5,3.0,-3.918,M,40.592,M,2.4,0123*51
$GPVTG,121.12,T,-518.78,M,004.123,N,007.635,K,D*0A
$GPGGA,094250.75,5702.9663255,N,00949.4001275,E,2,5,3.0,-3.925,M,40.592,M,2.4,0123*5A
$GPVTG,121.81,T,-518.09,M,004.095,N,007.585,K,D*02
$GPGGA,094250.80,5702.9662935,N,00949.4002156,E,2,5,3.0,-3.930,M,40.592,M,2.4,0123*59
$GPVTG,121.96,T,-517.94,M,004.102,N,007.597,K,D*03
$GPGGA,094250.85,5702.9662687,N,00949.4003096,E,2,5,3.0,-3.922,M,40.592,M,2.7,0123*56
$GPVTG,120.75,T,-519.15,M,004.075,N,007.547,K,D*04
$GPGGA,094250.90,5702.9662374,N,00949.4003977,E,2,5,3.0,-3.939,M,40.592,M,2.7,0123*57
$GPVTG,121.17,T,-518.73,M,004.087,N,007.569,K,D*01
$GPGGA,094250.95,5702.9662079,N,00949.4004879,E,2,5,3.0,-3.955,M,40.592,M,2.7,0123*5E
$GPVTG,121.04,T,-518.86,M,004.104,N,007.600,K,D*0F
$GPGGA,094251.00,5702.9661788,N,00949.4005829,E,2,5,3.0,-3.975,M,40.592,M,2.7,0123*5F
$GPVTG,120.47,T,-519.43,M,004.162,N,007.708,K,D*08
$GPGGA,094251.05,5702.9661216,N,00949.4006834,E,2,5,3.0,-3.958,M,40.592,M,1.6,0123*5A
$GPVTG,120.67,T,-519.23,M,004.139,N,007.665,K,D*08
$GPGGA,094251.10,5702.9660935,N,00949.4007745,E,2,5,3.0,-3.971,M,40.592,M,1.6,0123*56
$GPVTG,120.46,T,-519.44,M,004.148,N,007.681,K,D*06
$GPGGA,094251.15,5702.9660654,N,00949.4008606,E,2,5,3.0,-3.979,M,40.592,M,1.6,0123*5A
$GPVTG,120.68,T,-519.22,M,004.104,N,007.601,K,D*0A
$GPGGA,094251.20,5702.9660296,N,00949.4009422,E,2,5,3.0,-3.987,M,40.592,M,1.6,0123*52
$GPVTG,121.79,T,-518.11,M,004.047,N,007.496,K,D*00
$GPGGA,094251.25,5702.9659820,N,00949.4010424,E,2,5,3.0,-3.950,M,40.592,M,1.9,0123*51
$GPVTG,121.87,T,-518.03,M,004.048,N,007.496,K,D*0D
$GPGGA,094251.30,5702.9659504,N,00949.4011335,E,2,5,3.0,-3.959,M,40.592,M,1.9,0123*51
$GPVTG,121.78,T,-518.12,M,004.085,N,007.565,K,D*01
$GPGGA,094251.35,5702.9659217,N,00949.4012181,E,2,5,3.0,-3.970,M,40.592,M,1.9,0123*54
$GPVTG,122.04,T,-517.86,M,004.043,N,007.487,K,D*0C
$GPGGA,094251.40,5702.9658907,N,00949.4013099,E,2,5,3.0,-3.985,M,40.592,M,1.9,0123*5E
$GPVTG,121.83,T,-518.07,M,004.086,N,007.567,K,D*00
$GPGGA,094251.45,5702.9658504,N,00949.4014079,E,2,5,3.0,-3.968,M,40.592,M,2.1,0123*55
$GPVTG,121.51,T,-518.39,M,004.061,N,007.520,K,D*08
$GPGGA,094251.50,5702.9658198,N,00949.4014991,E,2,5,3.0,-3.986,M,40.592,M,2.1,0123*5F
$GPVTG,121.35,T,-518.55,M,004.095,N,007.585,K,D*04
$GPGGA,094251.55,5702.9657892,N,00949.4015877,E,2,5,3.0,-3.997,M,40.592,M,2.1,0123*5E
$GPVTG,121.46,T,-518.44,M,004.099,N,007.591,K,D*09
$GPGGA,094251.60,5702.9657584,N,00949.4016777,E,2,5,3.0,-4.011,M,40.592,M,2.1,0123*5E
$GPVTG,121.47,T,-518.43,M,004.116,N,007.623,K,D*03
$GPGGA,094251.65,5702.9657090,N,00949.4017812,E,2,5,3.0,-3.984,M,40.592,M,2.3,0123*56
$GPVTG,121.16,T,-518.74,M,004.103,N,007.599,K,D*05
$GPGGA,094251.70,5702.9656841,N,00949.4018692,E,2,5,3.0,-3.996,M,40.592,M,2.3,0123*5D
$GPVTG,120.76,T,-519.14,M,004.073,N,007.543,K,D*04
$GPGGA,094251.75,5702.9656473,N,00949.4019623,E,2,5,3.0,-4.009,M,40.592,M,2.3,0123*56
$GPVTG,121.19,T,-518.71,M,004.148,N,007.681,K,D*0A
$GPGGA,094251.80,5702.9656177,N,00949.4020480,E,2,5,3.0,-4.020,M,40.592,M,2.3,0123*57
$GPVTG,121.50,T,-518.40,M,004.GGA,094258.70,5702.9610610,N,00949.4153539,E,2,5,3.0,-4.207,M,40.592,M,2.4,0123*53
$GPVTG,117.62,T,-522.28,M,004.173,N,007.729,K,D*0D
$GPGGA,094258.75,5702.9610369,N,00949.4154539,E,2,5,3.0,-4.221,M,40.592,M,2.4,0123*5E
$GPVTG,116.91,T,-522.99,M,004.221,N,007.817,K,D*0C
$GPGGA,094258.80,5702.9610085,N,00949.4155477,E,2,5,3.0,-4.235,M,40.592,M,2.4,0123*5A
$GPVTG,117.17,T,-522.73,M,004.214,N,007.804,K,D*03
$GPGGA,094258.85,5702.9609618,N,00949.4156627,E,2,5,3.0,-4.207,M,40.592,M,2.7,0123*53
$GPVTG,116.62,T,-523.28,M,004.262,N,007.893,K,D*00
$GPGGA,094258.90,5702.9609315,N,00949.4157561,E,2,5,3.0,-4.216,M,40.592,M,2.7,0123*5F
$GPVTG,117.16,T,-522.74,M,004.248,N,007.868,K,D*06
$GPGGA,094258.95,5702.9608984,N,00949.4158530,E,2,5,3.0,-4.233,M,40.592,M,2.7,0123*55
$GPVTG,117.71,T,-522.19,M,004.285,N,007.936,K,D*07
$GPGGA,094259.00,5702.9608764,N,00949.4159470,E,2,5,3.0,-4.248,M,40.592,M,2.7,0123*50
$GPVTG,117.30,T,-522.60,M,004.246,N,007.863,K,D*02
$GPGGA,094259.05,5702.9608282,N,00949.4160572,E,2,5,3.0,-4.219,M,40.592,M,1.6,0123*57
$GPVTG,117.02,T,-522.88,M,004.239,N,007.851,K,D*0C
$GPGGA,094259.10,5702.9608002,N,00949.4161469,E,2,5,3.0,-4.232,M,40.592,M,1.6,0123*5A
$GPVTG,117.60,T,-522.30,M,004.179,N,007.739,K,D*0D
$GPGGA,094259.15,5702.9607736,N,00949.4162389,E,2,5,3.0,-4.245,M,40.592,M,1.6,0123*5A
$GPVTG,117.76,T,-522.14,M,004.149,N,007.685,K,D*09
$GPGGA,094259.20,5702.9607490,N,00949.4163320,E,2,5,3.0,-4.258,M,40.592,M,1.6,0123*5D
$GPVTG,117.62,T,-522.28,M,004.129,N,007.647,K,D*0B
$GPGGA,094259.25,5702.9607059,N,00949.4164429,E,2,5,3.0,-4.218,M,40.592,M,1.9,0123*5B
$GPVTG,116.64,T,-523.26,M,004.103,N,007.599,K,D*0B
$GPGGA,094259.30,5702.9606802,N,00949.4165365,E,2,5,3.0,-4.227,M,40.592,M,1.9,0123*5A
$GPVTG,116.61,T,-523.29,M,004.098,N,007.590,K,D*0B
$GPGGA,094259.35,5702.9606493,N,00949.4166347,E,2,5,3.0,-4.242,M,40.592,M,1.9,0123*5B
$GPVTG,116.80,T,-523.10,M,004.162,N,007.709,K,D*08
$GPGGA,094259.40,5702.9606273,N,00949.4167296,E,2,5,3.0,-4.257,M,40.592,M,1.9,0123*59
$GPVTG,116.31,T,-523.59,M,004.150,N,007.686,K,D*08
$GPGGA,094259.45,5702.9605706,N,00949.4168391,E,2,5,3.0,-4.209,M,40.592,M,2.1,0123*51
$GPVTG,116.95,T,-522.95,M,004.122,N,007.633,K,D*0C
$GPGGA,094259.50,5702.9605395,N,00949.4169341,E,2,5,3.0,-4.215,M,40.592,M,2.1,0123*5A
$GPVTG,117.39,T,-522.51,M,004.155,N,007.694,K,D*0E
$GPGGA,094259.55,5702.9605139,N,00949.4170270,E,2,5,3.0,-4.223,M,40.592,M,2.1,0123*55
$GPVTG,117.37,T,-522.53,M,004.140,N,007.666,K,D*0B
$GPGGA,094259.60,5702.9604876,N,00949.4171201,E,2,5,3.0,-4.235,M,40.592,M,2.1,0123*50
$GPVTG,117.40,T,-522.50,M,004.132,N,007.652,K,D*0A
$GPGGA,094259.65,5702.9604508,N,00949.4172276,E,2,5,3.0,-4.229,M,40.592,M,2.3,0123*5D
$GPVTG,116.57,T,-523.33,M,004.171,N,007.724,K,D*0E
$GPGGA,094259.70,5702.9604330,N,00949.4173299,E,2,5,3.0,-4.253,M,40.592,M,2.3,0123*59
$GPVTG,115.11,T,-524.79,M,004.220,N,007.816,K,D*0F
$GPGGA,094259.75,5702.9604060,N,00949.4174212,E,2,5,3.0,-4.272,M,40.592,M,2.3,0123*5D
$GPVTG,115.56,T,-524.34,M,004.179,N,007.739,K,D*08
$GPGGA,094259.80,5702.9603831,N,00949.4175120,E,2,5,3.0,-4.287,M,40.592,M,2.3,0123*55
$GPVTG,115.57,T,-524.33,M,004.123,N,007.635,K,D*0C
$GPGGA,094259.85,5702.9603178,N,00949.4176339,E,2,5,3.0,-4.222,M,40.592,M,2.6,0123*57
$GPVTG,115.00,T,-524.90,M,004.111,N,007.614,K,D*05
$GPGGA,094259.90,5702.9602909,N,00949.4177283,E,2,5,3.0,-4.230,M,40.592,M,2.6,0123*5E
$GPVTG,115.24,T,-524.66,M,004.114,N,007.620,K,D*08
$GPGGA,094259.95,5702.9602612,N,00949.4178265,E,2,5,3.0,-4.239,M,40.592,M,2.6,0123*50
$GPVTG,115.49,T,-524.41,M,004.169,N,007.721,K,D*0C
$GPGGA,094300.00,5702.9602327,N,00949.4179238,E,2,5,3.0,-4.249,M,40.592,M,2.6,0123*5C
$GPVTG,115.69,T,-524.21,M,004.201,N,007.781,K,D*0F
$GPGGA,094300.05,5702.9601995,N,00949.4180291,E,2,5,3.0,-4.240,M,40.592,M,2.8,0123*5B
$GPVTG,115.69,T,-524.21,M,004.219,N,007.814,K,D*05
$GPGGA,094300.10,5702.9601718,N,00949.4181203,E,2,5,3.0,-4.249,M,40.592,M,2.8,0123*57
$GPVTG,116.26,T,-523.64,M,004.175,N,007.732,K,D*09
$GPGGA,094300.15,5702.9601457,N,00949.4182142,E,2,5,3.0,-4.262,M,40.592,M,2.8,0123*56
$GPVTG,116.39,T,-523.51,M,004.163,N,007.709,K,D*0E
$GPGGA,094300.20,5702.9601224,N,00949.4183035,E,2,5,3.0,-4.274,M,40.592,M,2.8,0123*55
$GPVTG,116.54,T,-523.36,M,004.095,N,007.583,K,D*0C
$GPGGA,094300.25,5702.9600735,N,00949.4184157,E,2,5,3.0,-4.236,M,40.592,M,3.0,0123*59
$GPVTG,115.97,T,-523.93,M,004.077,N,007.551,K,D*0C
$GPGGA,094300.30,5702.9600460,N,00949.4185063,E,2,5,3.0,-4.245,M,40.592,M,3.0,0123*5D
$GPVTG,116.46,T,-523.44,M,004.051,N,007.503,K,D*0A
$GPGGA,094300.35,5702.9600173,N,00949.4186009,E,2,5,3.0,-4.253,M,40.592,M,3.0,0123*57
$GPVTG,116.73,T,-523.17,M,004.077,N,007.551,K,D*09
$GPGGA,094300.40,5702.9599905,N,00949.4186969,E,2,5,3.0,-4.264,M,40.592,M,3.0,0123*54
$GPVTG,116.67,T,-523.23,M,004.110,N,007.611,K,D*0C
$GPGGA,094300.45,5702.9599469,N,00949.4188076,E,2,5,3.0,-4.237,M,40.592,M,3.2,0123*5B
$GPVTG,116.11,T,-523.79,M,004.114,N,007.619,K,D*0E
$GPGGA,094300.50,5702.9599205,N,00949.4189045,E,2,5,3.0,-4.252,M,40.592,M,3.2,0123*51
$GPVTG,116.01,T,-523.89,M,004.149,N,007.684,K,D*0C
$GPGGA,094300.55,5702.9598977,N,00949.4190002,E,2,5,3.0,-4.266,M,40.592,M,3.2,0123*57
$GPVTG,115.64,T,-524.26,M,004.152,N,007.690,K,D*01
$GPGGA,094300.60,5702.9598741,N,00949.4190956,E,2,5,3.0,-4.278,M,40.592,M,3.2,0123*5D
$GPVTG,115.42,T,-524.48,M,004.153,N,007.692,K,D*0E
$GPGGA,094300.65,5702.9598159,N,00949.4192101,E,2,5,3.0,-4.242,M,40.592,M,3.4,0123*50
$GPVTG,116.03,T,-523.87,M,004.188,N,007.757,K,D*02
$GPGGA,094300.70,5702.9597921,N,00949.4193048,E,2,5,3.0,-4.250,M,40.592,M,3.4,0123*52
$GPVTG,115.89,T,-524.01,M,004.177,N,007.736,K,D*0D
$GPGGA,094300.75,5702.9597682,N,00949.4194017,E,2,5,3.0,-4.259,M,40.592,M,3.4,0123*55
$GPVTG,115.60,T,-524.30,M,004.190,N,007.760,K,D*02
$GPGGA,094300.80,5702.9597436,N,00949.4194957,E,2,5,3.0,-4.269,M,40.592,M,3.4,0123*5C
$GPVTG,115.63,T,-524.27,M,004.172,N,007.726,K,D*09
$GPGGA,094300.85,5702.9597025,N,00949.4196021,E,2,5,3.0,-4.245,M,40.592,M,3.6,0123*59
$GPVTG,115.53,T,-524.37,M,004.137,N,007.661,K,D*08
$GPGGA,094300.90,5702.9596708,N,00949.4197012,E,2,5,3.0,-4.260,M,40.592,M,3.6,0123*52
$GPVTG,115.95,T,-523.95,M,004.207,N,007.791,K,D*03
$GPGGA,094300.95,5702.9596441,N,00949.4198027,E,2,5,3.0,-4.271,M,40.592,M,3.6,0123*50
$GPVTG,115.69,T,-524.21,M,004.272,N,007.912,K,D*0F
$GPGGA,094301.00,5702.9596212,N,00949.4199012,E,2,5,3.0,-4.279,M,40.592,M,3.6,0123*52
$GPVTG,115.30,T,-524.60,M,004.281,N,007.928,K,D*03
$GPGGA,094301.05,5702.9595792,N,00949.4200102,E,2,5,3.0,-4.256,M,40.592,M,1.9,0123*5A
$GPVTG,115.02,T,-524.88,M,004.248,N,007.867,K,D*0B
$GPGGA,094301.10,5702.9595534,N,00949.4201084,E,2,5,3.0,-4.269,M,40.592,M,1.9,0123*52
$GPVTG,115.01,T,-524.89,M,004.262,N,007.894,K,D*0D
$GPGGA,094301.15,5702.9595262,N,00949.4202002,E,2,5,3.0,-4.280,M,40.592,M,1.9,0123*59
$GPVTG,115.60,T,-524.30,M,004.212,N,007.800,K,D*02
$GPGGA,094301.20,5702.9595006,N,00949.4202977,E,2,5,3.0,-4.293,M,40.592,M,1.9,0123*56
$GPVTG,115.58,T,-524.32,M,004.222,N,007.819,K,D*00
$GPGGA,094301.25,5702.9594545,N,00949.4204069,E,2,5,3.0,-4.258,M,40.592,M,2.2,0123*5F
$GPVTG,115.42,T,-524.48,M,004.163,N,007.710,K,D*06
$GPGGA,094301.30,5702.9594338,N,00949.4205053,E,2,5,3.0,-4.270,M,40.592,M,2.2,0123*55
$GPVTG,114.77,T,-525.13,M,004.173,N,007.728,K,D*04
$GPGGA,094301.35,5702.9594051,N,00949.4206004,E,2,5,3.0,-4.280,M,40.592,M,2.2,0123*52
$GPVTG,115.29,T,-524.61,M,004.173,N,007.729,K,D*0B
$GPGGA,094301.40,5702.9593802,N,00949.4206921,E,2,5,3.0,-4.291,M,40.592,M,2.2,0123*57
$GPVTG,115.58,T,-524.32,M,004.127,N,007.644,K,D*00
$GPGGA,094301.45,5702.9593400,N,00949.4208051,E,2,5,3.0,-4.263,M,40.592,M,2.4,0123*57
$GPVTG,114.91,T,-524.99,M,004.138,N,007.663,K,D*0E
$GPGGA,094301.50,5702.9593174,N,00949.4209039,E,2,5,3.0,-4.274,M,40.592,M,2.4,0123*5C
$GPVTG,114.49,T,-525.41,M,004.164,N,007.711,K,D*02
$GPGGA,094301.55,5702.9592967,N,00949.4209997,E,2,5,3.0,-4.283,M,40.592,M,2.4,0123*57
$GPVTG,114.10,T,-525.80,M,004.146,N,007.678,K,D*0D
$GPGGA,094301.60,5702.9592697,N,00949.4210943,E,2,5,3.0,-4.297,M,40.592,M,2.4,0123*55
$GPVTG,114.51,T,-525.39,M,004.139,N,007.665,K,D*0E
$GPGGA,094301.65,5702.9592131,N,00949.4212102,E,2,5,3.0,-4.253,M,40.592,M,2.7,0123*5F
$GPVTG,114.80,T,-525.10,M,004.153,N,007.692,K,D*0D
$GPGGA,094301.70,5702.9591804,N,00949.4213096,E,2,5,3.0,-4.262,M,40.592,M,2.7,0123*58
$GPVTG,115.41,T,-524.49,M,004.219,N,007.814,K,D*01
$GPGGA,094301.75,5702.9591495,N,00949.4214045,E,2,5,3.0,-4.268,M,40.592,M,2.7,0123*5A
$GPVTG,116.13,T,-523.77,M,004.223,N,007.822,K,D*03
$GPGGA,094301.80,5702.9591327,N,00949.4215054,E,2,5,3.0,-4.272,M,40.592,M,2.7,0123*54
$GPVTG,114.96,T,-524.94,M,004.241,N,007.854,K,D*03
$GPGGA,094301.85,5702.9590961,N,00949.4216131,E,2,5,3.0,-4.251,M,40.592,M,2.9,0123*56
$GPVTG,114.75,T,-525.15,M,004.242,N,007.855,K,D*04
$GPGGA,094301.90,5702.9590656,N,00949.4217120,E,2,5,3.0,-4.259,M,40.592,M,2.9,0123*50
$GPVTG,115.22,T,-524.68,M,004.279,N,007.925,K,D*02
$GPGGA,094301.95,5702.9590406,N,00949.4218110,E,2,5,3.0,-4.273,M,40.592,M,2.9,0123*56
$GPVTG,115.13,T,-524.77,M,004.293,N,007.952,K,D*0A
$GPGGA,094302.00,5702.9590185,N,00949.4219086,E,2,5,3.0,-4.283,M,40.592,M,2.9,0123*57
$GPVTG,114.87,T,-525.03,M,004.278,N,007.923,K,D*07
$GPGGA,094302.05,5702.9589785,N,00949.4220193,E,2,5,3.0,-4.272,M,40.592,M,1.7,0123*50
$GPVTG,114.87,T,-525.03,M,004.301,N,007.966,K,D*09
$GPGGA,094302.10,5702.9589561,N,00949.4221146,E,2,5,3.0,-4.286,M,40.592,M,1.7,0123*5E
$GPVTG,114.82,T,-525.08,M,004.257,N,007.883,K,D*0F
$GPGGA,094302.15,5702.9589336,N,00949.4222159,E,2,5,3.0,-4.301,M,40.592,M,1.7,0123*5C
$GPVTG,114.35,T,-525.55,M,004.283,N,007.932,K,D*09
$GPGGA,094302.20,5702.9589123,N,00949.4223200,E,2,5,3.0,-4.310,M,40.592,M,1.7,0123*52
$GPVTG,113.66,T,-526.24,M,004.329,N,008.017,K,D*0D
$GPGGA,094302.25,5702.9588512,N,00949.4224336,E,2,5,3.0,-4.264,M,40.592,M,2.0,0123*55
$GPVTG,114.63,T,-525.27,M,004.286,N,007.937,K,D*0F
$GPGGA,094302.30,5702.9588254,N,00949.4225241,E,2,5,3.0,-4.268,M,40.592,M,2.0,0123*58
$GPVTG,115.30,T,-524.60,M,004.200,N,007.778,K,D*01
$GPGGA,094302.35,5702.9587958,N,00949.4226184,E,2,5,3.0,-4.271,M,40.592,M,2.0,0123*54
$GPVTG,116.02,T,-523.88,M,004.186,N,007.752,K,D*07
$GPGGA,094302.40,5702.9587722,N,00949.4227178,E,2,5,3.0,-4.278,M,40.592,M,2.0,0123*5E
$GPVTG,115.68,T,-524.22,M,004.207,N,007.791,K,D*0A
$GPGGA,094302.45,5702.9587498,N,00949.4228218,E,2,5,3.0,-4.277,M,40.592,M,2.2,0123*5E
$GPVTG,113.99,T,-525.91,M,004.186,N,007.752,K,D*0E
$GPGGA,094302.50,5702.9587260,N,00949.4229230,E,2,5,3.0,-4.290,M,40.592,M,2.2,0123*59
$GPVTG,113.71,T,-526.19,M,004.229,N,007.831,K,D*07
$GPGGA,094302.55,5702.9587013,N,00949.4230211,E,2,5,3.0,-4.307,M,40.592,M,2.2,0123*5E
$GPVTG,113.85,T,-526.05,M,004.233,N,007.840,K,D*0C
$GPGGA,094302.60,5702.9586777,N,00949.4231201,E,2,5,3.0,-4.326,M,40.592,M,2.2,0123*5F
$GPVTG,113.72,T,-526.18,M,004.239,N,007.851,K,D*02
$GPGGA,094302.65,5702.9586235,N,00949.4232340,E,2,5,3.0,-4.288,M,40.592,M,2.4,0123*5D
$GPVTG,113.98,T,-525.92,M,004.179,N,007.740,K,D*0F
$GPGGA,094302.70,5702.9586013,N,00949.4233376,E,2,5,3.0,-4.300,M,40.592,M,2.4,0123*5A
$GPVTG,113.44,T,-526.46,M,004.240,N,007.853,K,D*00
$GPGGA,094302.75,5702.9585745,N,00949.4234354,E,2,5,3.0,-4.308,M,40.592,M,2.4,0123*57
$GPVTG,113.66,T,-526.24,M,004.239,N,007.851,K,D*08
$GPGGA,094302.80,5702.9585505,N,00949.4235293,E,2,5,3.0,-4.316,M,40.592,M,2.4,0123*5F
$GPVTG,113.93,T,-525.97,M,004.192,N,007.763,K,D*05
$GPGGA,094302.85,5702.9585069,N,00949.4236409,E,2,5,3.0,-4.282,M,40.592,M,2.7,0123*5C
$GPVTG,113.96,T,-525.94,M,004.197,N,007.773,K,D*07
$GPGGA,094302.90,5702.9584830,N,00949.4237383,E,2,5,3.0,-4.286,M,40.592,M,2.7,0123*5D
$GPVTG,113.98,T,-525.92,M,004.192,N,007.764,K,D*0C
$GPGGA,094302.95,5702.9584620,N,00949.4238357,E,2,5,3.0,-4.289,M,40.592,M,2.7,0123*5E
$GPVTG,113.72,T,-526.18,M,004.181,N,007.744,K,D*09
$GPGGA,094303.00,5702.9584377,N,00949.4239340,E,2,5,3.0,-4.296,M,40.592,M,2.7,0123*5D
$GPVTG,113.71,T,-526.19,M,004.191,N,007.761,K,D*0D
$GPGGA,094303.05,5702.9584089,N,00949.4240428,E,2,5,3.0,-4.280,M,40.592,M,1.6,0123*58
$GPVTG,113.00,T,-526.90,M,004.179,N,007.739,K,D*01
$GPGGA,094303.10,5702.9583826,N,00949.4241356,E,2,5,3.0,-4.292,M,40.592,M,1.6,0123*5A
$GPVTG,113.60,T,-526.30,M,004.133,N,007.654,K,D*09
$GPGGA,094303.15,5702.9583540,N,00949.4242349,E,2,5,3.0,-4.314,M,40.592,M,1.6,0123*50
$GPVTG,113.96,T,-525.94,M,004.174,N,007.730,K,D*0D
$GPGGA,094303.20,5702.9583365,N,00949.4243350,E,2,5,3.0,-4.331,M,40.592,M,1.6,0123*59
$GPVTG,113.14,T,-526.76,M,004.185,N,007.750,K,D*00
$GPGGA,094303.25,5702.9582816,N,00949.4244564,E,2,5,3.0,-4.296,M,40.592,M,1.9,0123*57
$GPVTG,112.29,T,-527.61,M,004.218,N,007.811,K,D*05
$GPGGA,094303.30,5702.9582556,N,00949.4245555,E,2,5,3.0,-4.309,M,40.592,M,1.9,0123*5E
$GPVTG,112.56,T,-527.34,M,004.234,N,007.841,K,D*06
$GPGGA,094303.35,5702.9582241,N,00949.4246473,E,2,5,3.0,-4.315,M,40.592,M,1.9,0123*51
$GPVTG,113.86,T,-526.04,M,004.187,N,007.754,K,D*08
$GPGGA,094303.40,5702.9581904,N,00949.4247406,E,2,5,3.0,-4.319,M,40.592,M,1.9,0123*55
$GPVTG,115.19,T,-524.71,M,004.177,N,007.736,K,D*03
$GPGGA,094303.45,5702.9581636,N,00949.4248413,E,2,5,3.0,-4.311,M,40.592,M,2.1,0123*56
$GPVTG,114.68,T,-525.22,M,004.119,N,007.628,K,D*05
$GPGGA,094303.50,5702.9581524,N,00949.4249354,E,2,5,3.0,-4.325,M,40.592,M,2.1,0123*50
$GPVTG,113.42,T,-526.48,M,004.050,N,007.501,K,D*01
$GPGGA,094303.55,5702.9581352,N,00949.4250284,E,2,5,3.0,-4.342,M,40.592,M,2.1,0123*57
$GPVTG,112.95,T,-526.95,M,004.001,N,007.410,K,D*0F
$GPGGA,094303.60,5702.9581100,N,00949.4251265,E,2,5,3.0,-4.361,M,40.592,M,2.1,0123*5B
$GPVTG,113.04,T,-526.86,M,004.042,N,007.485,K,D*0F
$GPGGA,094303.65,5702.9580551,N,00949.4252494,E,2,5,3.0,-4.317,M,40.592,M,2.3,0123*57
$GPVTG,112.73,T,-527.17,M,004.109,N,007.609,K,D*0F
$GPGGA,094303.70,5702.9580376,N,00949.4253449,E,2,5,3.0,-4.328,M,40.592,M,2.3,0123*5D
$GPVTG,112.19,T,-527.71,M,004.083,N,007.562,K,D*0E
$GPGGA,094303.75,5702.9580151,N,00949.4254446,E,2,5,3.0,-4.340,M,40.592,M,2.3,0123*59
$GPVTG,112.00,T,-527.90,M,004.123,N,007.635,K,D*03
$GPGGA,094303.80,5702.9579899,N,00949.4255394,E,2,5,3.0,-4.346,M,40.592,M,2.3,0123*57
$GPVTG,112.43,T,-527.47,M,004.112,N,007.615,K,D*0E
$GPGGA,094303.85,5702.9579209,N,00949.4256527,E,2,5,3.0,-4.291,M,40.592,M,2.6,0123*52
$GPVTG,113.61,T,-526.29,M,004.100,N,007.593,K,D*08
$GPGGA,094303.90,5702.9578966,N,00949.4257492,E,2,5,3.0,-4.294,M,40.592,M,2.6,0123*5E
$GPVTG,113.72,T,-526.18,M,004.111,N,007.614,K,D*04
$GPGGA,094303.95,5702.9578751,N,00949.4258482,E,2,5,3.0,-4.297,M,40.592,M,2.6,0123*5C
$GPVTG,113.37,T,-526.53,M,004.138,N,007.664,K,D*06
$GPGGA,094304.00,5702.9578531,N,00949.4259500,E,2,5,3.0,-4.305,M,40.592,M,2.6,0123*53
$GPVTG,112.94,T,-526.96,M,004.192,N,007.763,K,D*01
$GPGGA,094304.05,5702.9578232,N,00949.4260542,E,2,5,3.0,-4.301,M,40.592,M,2.8,0123*54
$GPVTG,113.01,T,-526.89,M,004.197,N,007.772,K,D*07
$GPGGA,094304.10,5702.9577981,N,00949.4261521,E,2,5,3.0,-4.319,M,40.592,M,2.8,0123*51
$GPVTG,113.22,T,-526.68,M,004.209,N,007.795,K,D*04
$GPGGA,094304.15,5702.9577691,N,00949.4262500,E,2,5,3.0,-4.338,M,40.592,M,2.8,0123*59
$GPVTG,113.82,T,-526.08,M,004.231,N,007.836,K,D*05
$GPGGA,094304.20,5702.9577567,N,00949.4263507,E,2,5,3.0,-4.351,M,40.592,M,2.8,0123*5C
$GPVTG,112.52,T,-527.38,M,004.226,N,007.827,K,D*0D
$GPGGA,094304.25,5702.9577015,N,00949.4264619,E,2,5,3.0,-4.316,M,40.592,M,3.0,0123*58
$GPVTG,112.59,T,-527.31,M,004.166,N,007.715,K,D*06
$GPGGA,094304.30,5702.9576766,N,00949.4265542,E,2,5,3.0,-4.320,M,40.592,M,3.0,0123*57
$GPVTG,113.19,T,-526.71,M,004.114,N,007.619,K,D*0E
$GPGGA,094304.35,5702.9576476,N,00949.4266473,E,2,5,3.0,-4.322,M,40.592,M,3.0,0123*52
$GPVTG,114.11,T,-525.79,M,004.096,N,007.585,K,D*07
$GPGGA,094304.40,5702.9576164,N,00949.4267437,E,2,5,3.0,-4.330,M,40.592,M,3.0,0123*54
$GPVTG,114.94,T,-524.96,M,004.127,N,007.644,K,D*0F
$GPGGA,094304.45,5702.9575894,N,00949.4268458,E,2,5,3.0,-4.324,M,40.592,M,3.2,0123*55
$GPVTG,113.67,T,-526.23,M,004.091,N,007.576,K,D*06
$GPGGA,094304.50,5702.9575683,N,00949.4269400,E,2,5,3.0,-4.341,M,40.592,M,3.2,0123*56
$GPVTG,113.42,T,-526.48,M,004.059,N,007.518,K,D*00
$GPGGA,094304.55,5702.9575451,N,00949.4270389,E,2,5,3.0,-4.360,M,40.592,M,3.2,0123*53
$GPVTG,113.30,T,-526.60,M,004.101,N,007.595,K,D*06
$GPGGA,094304.60,5702.9575237,N,00949.4271365,E,2,5,3.0,-4.378,M,40.592,M,3.2,0123*59
$GPVTG,113.01,T,-526.89,M,004.112,N,007.616,K,D*09
$GPGGA,094304.65,5702.9574729,N,00949.4272585,E,2,5,3.0,-4.333,M,40.592,M,3.4,0123*55
$GPVTG,112.97,T,-526.93,M,004.134,N,007.657,K,D*0D
$GPGGA,094304.70,5702.9574488,N,00949.4273536,E,2,5,3.0,-4.341,M,40.592,M,3.4,0123*55
$GPVTG,113.16,T,-526.74,M,004.121,N,007.632,K,D*0B
$GPGGA,094304.75,5702.9574246,N,00949.4274437,E,2,5,3.0,-4.347,M,40.592,M,3.4,0123*55
$GPVTG,113.66,T,-526.24,M,004.059,N,007.517,K,D*03
$GPGGA,094304.80,5702.9574004,N,00949.4275352,E,2,5,3.0,-4.351,M,40.592,M,3.4,0123*59
$GPVTG,114.03,T,-525.87,M,004.023,N,007.451,K,D*03
$GPGGA,094304.85,5702.9573658,N,00949.4276466,E,2,5,3.0,-4.337,M,40.592,M,3.6,0123*55
$GPVTG,112.79,T,-527.11,M,004.106,N,007.604,K,D*01
$GPGGA,094304.90,5702.9573428,N,00949.4277427,E,2,5,3.0,-4.351,M,40.592,M,3.6,0123*50
$GPVTG,112.94,T,-526.96,M,004.112,N,007.615,K,D*09
$GPGGA,094304.95,5702.9573213,N,00949.4278395,E,2,5,3.0,-4.363,M,40.592,M,3.6,0123*5B
$GPVTG,112.74,T,-527.16,M,004.115,N,007.622,K,D*0D
$GPGGA,094305.00,5702.9572983,N,00949.4279353,E,2,5,3.0,-4.378,M,40.592,M,3.6,0123*54
$GPVTG,112.87,T,-527.03,M,004.114,N,007.620,K,D*06
$GPGGA,094305.05,5702.9572438,N,00949.4280495,E,2,5,3.0,-4.349,M,40.592,M,1.9,0123*58
$GPVTG,112.84,T,-527.06,M,004.133,N,007.654,K,D*06
$GPGGA,094305.10,5702.9572221,N,00949.4281435,E,2,5,3.0,-4.357,M,40.592,M,1.9,0123*56
$GPVTG,112.94,T,-526.96,M,004.105,N,007.602,K,D*09
$GPGGA,094305.15,5702.9572018,N,00949.4282386,E,2,5,3.0,-4.365,M,40.592,M,1.9,0123*56
$GPVTG,112.84,T,-527.06,M,004.089,N,007.573,K,D*00
$GPGGA,094305.20,5702.9571703,N,00949.4283365,E,2,5,3.0,-4.377,M,40.592,M,1.9,0123*51
$GPVTG,113.41,T,-526.49,M,004.130,N,007.650,K,D*03
$GPGGA,094305.25,5702.9571332,N,00949.4284351,E,2,5,3.0,-4.362,M,40.592,M,2.2,0123*5E
$GPVTG,113.73,T,-526.17,M,004.046,N,007.494,K,D*03
$GPGGA,094305.30,5702.9571124,N,00949.4285273,E,2,5,3.0,-4.376,M,40.592,M,2.2,0123*5A
$GPVTG,113.77,T,-526.13,M,004.011,N,007.429,K,D*07
$GPGGA,094305.35,5702.9570961,N,00949.4286295,E,2,5,3.0,-4.392,M,40.592,M,2.2,0123*56
$GPVTG,112.69,T,-527.21,M,004.077,N,007.550,K,D*06
$GPGGA,094305.40,5702.9570741,N,00949.4287263,E,2,5,3.0,-4.409,M,40.592,M,2.2,0123*55
$GPVTG,112.59,T,-527.31,M,004.088,N,007.572,K,D*04
$GPGGA,094305.45,5702.9570168,N,00949.4288434,E,2,5,3.0,-4.360,M,40.592,M,2.4,0123*58
$GPVTG,112.61,T,-527.29,M,004.091,N,007.576,K,D*0A
$GPGGA,094305.50,5702.9569939,N,00949.4289462,E,2,5,3.0,-4.370,M,40.592,M,2.4,0123*5B
$GPVTG,112.25,T,-527.65,M,004.169,N,007.721,K,D*04
$GPGGA,094305.55,5702.9569653,N,00949.4290439,E,2,5,3.0,-4.374,M,40.592,M,2.4,0123*5F
$GPVTG,112.84,T,-527.06,M,004.195,N,007.769,K,D*05
$GPGGA,094305.60,5702.9569382,N,00949.4291374,E,2,5,3.0,-4.381,M,40.592,M,2.4,0123*55
$GPVTG,113.53,T,-526.37,M,004.170,N,007.722,K,D*09
$GPGGA,094305.65,5702.9569063,N,00949.4292416,E,2,5,3.0,-4.374,M,40.592,M,2.7,0123*55
$GPVTG,113.19,T,-526.71,M,004.166,N,007.715,K,D*06
$GPGGA,094305.70,5702.9568854,N,00949.4293331,E,2,5,3.0,-4.387,M,40.592,M,2.7,0123*53
$GPVTG,113.38,T,-526.52,M,004.100,N,007.593,K,D*08
$GPGGA,094305.75,5702.9568641,N,00949.4294267,E,2,5,3.0,-4.399,M,40.592,M,2.7,0123*56
$GPVTG,113.43,T,-526.47,M,004.070,N,007.537,K,D*08
$GPGGA,094305.80,5702.9568424,N,00949.4295256,E,2,5,3.0,-4.415,M,40.592,M,2.7,0123*5D
$GPVTG,113.14,T,-526.76,M,004.102,N,007.597,K,D*06
$GPGGA,094305.85,5702.9567872,N,00949.4296478,E,2,5,3.0,-4.376,M,40.592,M,2.9,0123*5D
$GPVTG,112.83,T,-527.07,M,004.194,N,007.767,K,D*0C
$GPGGA,094305.90,5702.9567650,N,00949.4297509,E,2,5,3.0,-4.386,M,40.592,M,2.9,0123*5E
$GPVTG,112.44,T,-527.46,M,004.256,N,007.881,K,D*08
$GPGGA,094305.95,5702.9567379,N,00949.4298474,E,2,5,3.0,-4.396,M,40.592,M,2.9,0123*50
$GPVTG,113.05,T,-526.85,M,004.249,N,007.868,K,D*0B
$GPGGA,094306.00,5702.9567136,N,00949.4299425,E,2,5,3.0,-4.405,M,40.592,M,2.9,0123*5E
$GPVTG,113.40,T,-526.50,M,004.220,N,007.816,K,D*04
$GPGGA,094306.05,5702.9566737,N,00949.4300478,E,2,5,3.0,-4.392,M,40.592,M,1.7,0123*50
$GPVTG,113.60,T,-526.30,M,004.200,N,007.778,K,D*05
$GPGGA,094306.10,5702.9566535,N,00949.4301398,E,2,5,3.0,-4.404,M,40.592,M,1.7,0123*54
$GPVTG,113.68,T,-526.22,M,004.127,N,007.643,K,D*01
$GPGGA,094306.15,5702.9566297,N,00949.4302355,E,2,5,3.0,-4.415,M,40.592,M,1.7,0123*5C
$GPVTG,113.86,T,-526.04,M,004.120,N,007.630,K,D*06
$GPGGA,094306.20,5702.9566138,N,00949.4303316,E,2,5,3.0,-4.425,M,40.592,M,1.7,0123*59
$GPVTG,113.14,T,-526.76,M,004.092,N,007.578,K,D*0F
$GPGGA,094306.25,5702.9565590,N,00949.4304471,E,2,5,3.0,-4.387,M,40.592,M,2.0,0123*53
$GPVTG,113.66,T,-526.24,M,004.126,N,007.641,K,D*0A
$GPGGA,094306.30,5702.9565325,N,00949.4305537,E,2,5,3.0,-4.401,M,40.592,M,2.0,0123*54
$GPVTG,113.39,T,-526.51,M,004.249,N,007.870,K,D*04
$GPGGA,094306.35,5702.9565144,N,00949.4306477,E,2,5,3.0,-4.410,M,40.592,M,2.0,0123*52
$GPVTG,113.13,T,-526.77,M,004.189,N,007.758,K,D*02
$GPGGA,094306.40,5702.9564958,N,00949.4307442,E,2,5,3.0,-4.421,M,40.592,M,2.0,0123*51
$GPVTG,112.78,T,-527.12,M,004.164,N,007.712,K,D*01
$GPGGA,094306.45,5702.9564392,N,00949.4308581,E,2,5,3.0,-4.386,M,40.592,M,2.2,0123*51
$GPVTG,113.04,T,-526.86,M,004.162,N,007.709,K,D*0B
$GPGGA,094306.50,5702.9564128,N,00949.4309580,E,2,5,3.0,-4.398,M,40.592,M,2.2,0123*59
$GPVTG,113.29,T,-526.61,M,004.203,N,007.784,K,D*0C
$GPGGA,094306.55,5702.9563853,N,00949.4310533,E,2,5,3.0,-4.405,M,40.592,M,2.2,0123*5D
$GPVTG,113.93,T,-525.97,M,004.192,N,007.763,K,D*05
$GPGGA,094306.60,5702.9563644,N,00949.4311530,E,2,5,3.0,-4.411,M,40.592,M,2.2,0123*54
$GPVTG,113.55,T,-526.35,M,004.209,N,007.794,K,D*0D
$GPGGA,094306.65,5702.9563279,N,00949.4312618,E,2,5,3.0,-4.397,M,40.592,M,2.4,0123*5E
$GPVTG,113.01,T,-526.89,M,004.200,N,007.778,K,D*00
$GPGGA,094306.70,5702.9562997,N,00949.4313591,E,2,5,3.0,-4.413,M,40.592,M,2.4,0123*58
$GPVTG,113.63,T,-526.27,M,004.210,N,007.797,K,D*00
$GPGGA,094306.75,5702.9562785,N,00949.4314554,E,2,5,3.0,-4.427,M,40.592,M,2.4,0123*59
$GPVTG,113.54,T,-526.36,M,004.186,N,007.753,K,D*00
$GPGGA,094306.80,5702.9562558,N,00949.4315512,E,2,5,3.0,-4.442,M,40.592,M,2.4,0123*51
$GPVTG,113.62,T,-526.28,M,004.166,N,007.716,K,D*05
$GPGGA,094306.85,5702.9562121,N,00949.4316529,E,2,5,3.0,-4.421,M,40.592,M,2.7,0123*53
$GPVTG,113.90,T,-526.00,M,004.043,N,007.487,K,D*0F
$GPGGA,094306.90,5702.9561945,N,00949.4317490,E,2,5,3.0,-4.437,M,40.592,M,2.7,0123*5B
$GPVTG,113.30,T,-526.60,M,004.031,N,007.465,K,D*0A
$GPGGA,094306.95,5702.9561706,N,00949.4318485,E,2,5,3.0,-4.456,M,40.592,M,2.7,0123*5B
$GPVTG,113.19,T,-526.71,M,004.079,N,007.554,K,D*0E
$GPGGA,094307.00,5702.9561526,N,00949.4319446,E,2,5,3.0,-4.470,M,40.592,M,2.7,0123*5C
$GPVTG,112.69,T,-527.21,M,004.066,N,007.531,K,D*01
$GPGGA,094307.05,5702.9560892,N,00949.4320625,E,2,5,3.0,-4.418,M,40.592,M,1.6,0123*5B
$GPVTG,113.35,T,-526.55,M,004.084,N,007.564,K,D*07
$GPGGA,094307.10,5702.9560641,N,00949.4321599,E,2,5,3.0,-4.429,M,40.592,M,1.6,0123*58
$GPVTG,113.53,T,-526.37,M,004.111,N,007.613,K,D*0D
$GPGGA,094307.15,5702.9560466,N,00949.4322568,E,2,5,3.0,-4.439,M,40.592,M,1.6,0123*56
$GPVTG,112.90,T,-527.00,M,004.103,N,007.600,K,D*07
$GPGGA,094307.20,5702.9560259,N,00949.4323577,E,2,5,3.0,-4.448,M,40.592,M,1.6,0123*53
$GPVTG,112.42,T,-527.48,M,004.148,N,007.682,K,D*01
$GPGGA,094307.25,5702.9559736,N,00949.4324720,E,2,5,3.0,-4.416,M,40.592,M,1.9,0123*53
$GPVTG,112.69,T,-527.21,M,004.173,N,007.729,K,D*0F
$GPGGA,094307.30,5702.9559492,N,00949.4325669,E,2,5,3.0,-4.429,M,40.592,M,1.9,0123*5B
$GPVTG,113.06,T,-526.84,M,004.154,N,007.693,K,D*0C
$GPGGA,094307.35,5702.9559237,N,00949.4326680,E,2,5,3.0,-4.447,M,40.592,M,1.9,0123*5B
$GPVTG,113.11,T,-526.79,M,004.209,N,007.794,K,D*05
$GPGGA,094307.40,5702.9559032,N,00949.4327655,E,2,5,3.0,-4.460,M,40.592,M,1.9,0123*52
$GPVTG,112.88,T,-527.02,M,004.199,N,007.776,K,D*0F
$GPGGA,094307.45,5702.9558523,N,00949.4328774,E,2,5,3.0,-4.438,M,40.592,M,2.1,0123*58
$GPVTG,112.98,T,-526.92,M,004.201,N,007.780,K,D*0D
$GPGGA,094307.50,5702.9558296,N,00949.4329744,E,2,5,3.0,-4.450,M,40.592,M,2.1,0123*59
$GPVTG,113.04,T,-526.86,M,004.191,N,007.762,K,D*0A
$GPGGA,094307.55,5702.9558057,N,00949.4330732,E,2,5,3.0,-4.460,M,40.592,M,2.1,0123*59
$GPVTG,113.10,T,-526.80,M,004.207,N,007.792,K,D*0A
$GPGGA,094307.60,5702.9557747,N,00949.4331705,E,2,5,3.0,-4.473,M,40.592,M,2.1,0123*51
$GPVTG,114.01,T,-525.89,M,004.228,N,007.830,K,D*0D
$GPGGA,094307.65,5702.9557355,N,00949.4332751,E,2,5,3.0,-4.459,M,40.592,M,2.3,0123*5B
$GPVTG,113.97,T,-525.93,M,004.168,N,007.720,K,D*07
$GPGGA,094307.70,5702.9557210,N,00949.4333677,E,2,5,3.0,-4.474,M,40.592,M,2.3,0123*54
$GPVTG,113.32,T,-526.58,M,004.088,N,007.572,K,D*06
$GPGGA,094307.75,5702.9557034,N,00949.4334579,E,2,5,3.0,-4.494,M,40.592,M,2.3,0123*51
$GPVTG,113.15,T,-526.75,M,004.006,N,007.418,K,D*07
$GPGGA,094307.80,5702.9556858,N,00949.4335541,E,2,5,3.0,-4.512,M,40.592,M,2.3,0123*5D
$GPVTG,112.56,T,-527.34,M,004.000,N,007.408,K,D*02
$GPGGA,094307.85,5702.9556221,N,00949.4336846,E,2,5,3.0,-4.448,M,40.592,M,2.6,0123*5E
$GPVTG,112.04,T,-527.86,M,004.088,N,007.570,K,D*02
$GPGGA,094307.90,5702.9555967,N,00949.4337814,E,2,5,3.0,-4.458,M,40.592,M,2.6,0123*57
$GPVTG,112.40,T,-527.50,M,004.105,N,007.602,K,D*0B
$GPGGA,094307.95,5702.9555767,N,00949.4338819,E,2,5,3.0,-4.469,M,40.592,M,2.6,0123*5C
$GPVTG,111.93,T,-527.97,M,004.141,N,007.669,K,D*00
$GPGGA,094308.00,5702.9555530,N,00949.4339795,E,2,5,3.0,-4.477,M,40.592,M,2.6,0123*5A
$GPVTG,112.08,T,-527.82,M,004.152,N,007.689,K,D*09
$GPGGA,094308.05,5702.9554975,N,00949.4340937,E,2,5,3.0,-4.440,M,40.592,M,2.8,0123*51
$GPVTG,112.58,T,-527.32,M,004.172,N,007.727,K,D*00
$GPGGA,094308.10,5702.9554756,N,00949.4341976,E,2,5,3.0,-4.449,M,40.592,M,2.8,0123*57
$GPVTG,112.14,T,-527.76,M,004.242,N,007.857,K,D*00
$GPGGA,094308.15,5702.9554466,N,00949.4342983,E,2,5,3.0,-4.457,M,40.592,M,2.8,0123*54
$GPVTG,112.71,T,-527.19,M,004.286,N,007.937,K,D*05
$GPGGA,094308.20,5702.9554215,N,00949.4343895,E,2,5,3.0,-4.461,M,40.592,M,2.8,0123*52
$GPVTG,113.46,T,-526.44,M,004.211,N,007.798,K,D*0C
$GPGGA,094308.25,5702.9553886,N,00949.4344914,E,2,5,3.0,-4.457,M,40.592,M,3.0,0123*53
$GPVTG,113.49,T,-526.41,M,004.167,N,007.717,K,D*03
$GPGGA,094308.30,5702.9553665,N,00949.4345872,E,2,5,3.0,-4.472,M,40.592,M,3.0,0123*53
$GPVTG,113.53,T,-526.37,M,004.147,N,007.681,K,D*05
$GPGGA,094308.35,5702.9553428,N,00949.4346855,E,2,5,3.0,-4.488,M,40.592,M,3.0,0123*5E
$GPVTG,113.56,T,-526.34,M,004.163,N,007.710,K,D*0C
$GPGGA,094308.40,5702.9553271,N,00949.4347826,E,2,5,3.0,-4.502,M,40.592,M,3.0,0123*50
$GPVTG,112.83,T,-527.07,M,004.137,N,007.663,K,D*00
$GPGGA,094308.45,5702.9552829,N,00949.4348974,E,2,5,3.0,-4.476,M,40.592,M,3.2,0123*5A
$GPVTG,112.23,T,-527.67,M,004.125,N,007.640,K,D*0E
$GPGGA,094308.50,5702.9552616,N,00949.4349966,E,2,5,3.0,-4.493,M,40.592,M,3.2,0123*55
$GPVTG,112.03,T,-527.87,M,004.144,N,007.675,K,D*03
$GPGGA,094308.55,5702.9552375,N,00949.4350940,E,2,5,3.0,-4.506,M,40.592,M,3.2,0123*51
$GPVTG,112.26,T,-527.64,M,004.149,N,007.684,K,D*0A
$GPGGA,094308.60,5702.9552181,N,00949.4351932,E,2,5,3.0,-4.522,M,40.592,M,3.2,0123*5C
$GPVTG,111.88,T,-528.02,M,004.159,N,007.702,K,D*0C
$GPGGA,094308.65,5702.9551535,N,00949.4353093,E,2,5,3.0,-4.467,M,40.592,M,3.4,0123*57
$GPVTG,112.28,T,-527.62,M,004.098,N,007.589,K,D*01
$GPGGA,094308.70,5702.9551305,N,00949.4354113,E,2,5,3.0,-4.475,M,40.592,M,3.4,0123*5B
$GPVTG,112.09,T,-527.81,M,004.156,N,007.697,K,D*00
$GPGGA,094308.75,5702.9551023,N,00949.4355048,E,2,5,3.0,-4.484,M,40.592,M,3.4,0123*59
$GPVTG,113.00,T,-526.90,M,004.132,N,007.652,K,D*02
$GPGGA,094308.80,5702.9550831,N,00949.4355961,E,2,5,3.0,-4.491,M,40.592,M,3.4,0123*5F
$GPVTG,113.03,T,-526.87,M,004.063,N,007.524,K,D*00
$GPGGA,094308.85,5702.9550376,N,00949.4357085,E,2,5,3.0,-4.458,M,40.592,M,3.6,0123*54
$GPVTG,112.87,T,-527.03,M,004.076,N,007.548,K,D*0E
$GPGGA,094308.90,5702.9550186,N,00949.4358106,E,2,5,3.0,-4.473,M,40.592,M,3.6,0123*51
$GPVTG,112.16,T,-527.74,M,004.131,N,007.651,K,D*0F
$GPGGA,094308.95,5702.9549955,N,00949.4359080,E,2,5,3.0,-4.486,M,40.592,M,3.6,0123*5E
$GPVTG,112.28,T,-527.62,M,004.139,N,007.665,K,D*0A
$GPGGA,094309.00,5702.9549670,N,00949.4360066,E,2,5,3.0,-4.500,M,40.592,M,3.6,0123*56
$GPVTG,112.88,T,-527.02,M,004.175,N,007.732,K,D*0D
$GPGGA,094309.05,5702.9549163,N,00949.4361191,E,2,5,3.0,-4.480,M,40.592,M,1.9,0123*5A
$GPVTG,112.93,T,-526.97,M,004.171,N,007.725,K,D*08
$GPGGA,094309.10,5702.9548904,N,00949.4362175,E,2,5,3.0,-4.494,M,40.592,M,1.9,0123*5A
$GPVTG,113.25,T,-526.65,M,004.194,N,007.768,K,D*0B
$GPGGA,094309.15,5702.9548679,N,00949.4363072,E,2,5,3.0,-4.505,M,40.592,M,1.9,0123*54
$GPVTG,113.75,T,-526.15,M,004.110,N,007.612,K,D*09
$GPGGA,094309.20,5702.9548436,N,00949.4364071,E,2,5,3.0,-4.517,M,40.592,M,1.9,0123*5C
$GPVTG,113.71,T,-526.19,M,004.152,N,007.689,K,D*05
$GPGGA,094309.25,5702.9547980,N,00949.4365215,E,2,5,3.0,-4.492,M,40.592,M,2.2,0123*53
$GPVTG,113.13,T,-526.77,M,004.176,N,007.733,K,D*0F
$GPGGA,094309.30,5702.9547711,N,00949.4366153,E,2,5,3.0,-4.503,M,40.592,M,2.2,0123*5A
$GPVTG,113.85,T,-526.05,M,004.152,N,007.690,K,D*0B
$GPGGA,094309.35,5702.9547441,N,00949.4367113,E,2,5,3.0,-4.514,M,40.592,M,2.2,0123*5A
$GPVTG,114.35,T,-525.55,M,004.159,N,007.702,K,D*00
$GPGGA,094309.40,5702.9547223,N,00949.4368116,E,2,5,3.0,-4.526,M,40.592,M,2.2,0123*51
$GPVTG,113.98,T,-525.92,M,004.192,N,007.763,K,D*0B
$GPGGA,094309.45,5702.9546862,N,00949.4369259,E,2,5,3.0,-4.492,M,40.592,M,2.4,0123*5B
$GPVTG,112.50,T,-527.40,M,004.164,N,007.711,K,D*0F
$GPGGA,094309.50,5702.9546575,N,00949.4370177,E,2,5,3.0,-4.503,M,40.592,M,2.4,0123*5A
$GPVTG,113.56,T,-526.34,M,004.123,N,007.636,K,D*0D
$GPGGA,094309.55,5702.9546300,N,00949.4371197,E,2,5,3.0,-4.521,M,40.592,M,2.4,0123*54
$GPVTG,113.75,T,-526.15,M,004.198,N,007.774,K,D*08
$GPGGA,094309.60,5702.9546063,N,00949.4372161,E,2,5,3.0,-4.537,M,40.592,M,2.4,0123*59
$GPVTG,113.87,T,-526.03,M,004.190,N,007.761,K,D*0E
$GPGGA,094309.65,5702.9545560,N,00949.4373349,E,2,5,3.0,-4.493,M,40.592,M,2.7,0123*5C
$GPVTG,113.01,T,-526.89,M,004.170,N,007.723,K,D*0A
$GPGGA,094309.70,5702.9545317,N,00949.4374327,E,2,5,3.0,-4.505,M,40.592,M,2.7,0123*5F
$GPVTG,113.16,T,-526.74,M,004.181,N,007.743,K,D*06
$GPGGA,094309.75,5702.9544990,N,00949.4375321,E,2,5,3.0,-4.517,M,40.592,M,2.7,0123*5A
$GPVTG,114.08,T,-525.82,M,004.234,N,007.841,K,D*04
$GPGGA,094309.80,5702.9544732,N,00949.4376316,E,2,5,3.0,-4.529,M,40.592,M,2.7,0123*5C
$GPVTG,114.23,T,-525.67,M,004.259,N,007.888,K,D*08
$GPGGA,094309.85,5702.9544247,N,00949.4377386,E,2,5,3.0,-4.497,M,40.592,M,2.9,0123*5C
$GPVTG,114.75,T,-525.15,M,004.193,N,007.766,K,D*04
$GPGGA,094309.90,5702.9543975,N,00949.4378308,E,2,5,3.0,-4.504,M,40.592,M,2.9,0123*57
$GPVTG,115.47,T,-524.43,M,004.152,N,007.690,K,D*03
$GPGGA,094309.95,5702.9543721,N,00949.4379309,E,2,5,3.0,-4.516,M,40.592,M,2.9,0123*5E
$GPVTG,115.37,T,-524.53,M,004.197,N,007.774,K,D*07
$GPGGA,094310.00,5702.9543521,N,00949.4380321,E,2,5,3.0,-4.531,M,40.592,M,2.9,0123*51
$GPVTG,114.67,T,-525.23,M,004.230,N,007.834,K,D*00
$GPGGA,094310.05,5702.9543045,N,00949.4381430,E,2,5,3.0,-4.507,M,40.592,M,1.7,0123*5D
$GPVTG,114.87,T,-525.03,M,004.211,N,007.799,K,D*07
$GPGGA,094310.10,5702.9542832,N,00949.4382444,E,2,5,3.0,-4.517,M,40.592,M,1.7,0123*51
$GPVTG,114.32,T,-525.58,M,004.247,N,007.866,K,D*0B
$GPGGA,094310.15,5702.9542597,N,00949.4383401,E,2,5,3.0,-4.529,M,40.592,M,1.7,0123*5B
$GPVTG,114.44,T,-525.46,M,004.223,N,007.821,K,D*04
$GPGGA,094310.20,5702.9542350,N,00949.4384302,E,2,5,3.0,-4.538,M,40.592,M,1.7,0123*53
$GPVTG,115.01,T,-524.89,M,004.150,N,007.686,K,D*02
$GPGGA,094310.25,5702.9541861,N,00949.4385440,E,2,5,3.0,-4.501,M,40.592,M,2.0,0123*52
$GPVTG,114.50,T,-525.40,M,004.129,N,007.647,K,D*00
$GPGGA,094310.30,5702.9541598,N,00949.4386404,E,2,5,3.0,-4.509,M,40.592,M,2.0,0123*56
$GPVTG,114.77,T,-525.13,M,004.141,N,007.669,K,D*01
$GPGGA,094310.35,5702.9541389,N,00949.4387388,E,2,5,3.0,-4.519,M,40.592,M,2.0,0123*56
$GPVTG,114.32,T,-525.58,M,004.155,N,007.695,K,D*09
$GPGGA,094310.40,5702.9541077,N,00949.4388368,E,2,5,3.0,-4.531,M,40.592,M,2.0,0123*5D
$GPVTG,115.00,T,-524.90,M,004.197,N,007.772,K,D*0A
$GPGGA,094310.45,5702.9540597,N,00949.4389514,E,2,5,3.0,-4.509,M,40.592,M,2.2,0123*57
$GPVTG,115.06,T,-524.84,M,004.254,N,007.878,K,D*00
$GPGGA,094310.50,5702.9540375,N,00949.4390502,E,2,5,3.0,-4.522,M,40.592,M,2.2,0123*5F
$GPVTG,114.77,T,-525.13,M,004.261,N,007.892,K,D*0A
$GPGGA,094310.55,5702.9540115,N,00949.4391426,E,2,5,3.0,-4.535,M,40.592,M,2.2,0123*5E
$GPVTG,115.30,T,-524.60,M,004.212,N,007.800,K,D*02
$GPGGA,094310.60,5702.9539864,N,00949.4392387,E,2,5,3.0,-4.548,M,40.592,M,2.2,0123*5C
$GPVTG,115.43,T,-524.47,M,004.206,N,007.790,K,D*00
$GPGGA,094310.65,5702.9539486,N,00949.4393447,E,2,5,3.0,-4.525,M,40.592,M,2.4,0123*5E
$GPVTG,114.42,T,-525.48,M,004.103,N,007.599,K,D*03
$GPGGA,094310.70,5702.9539264,N,00949.4394392,E,2,5,3.0,-4.538,M,40.592,M,2.4,0123*54
$GPVTG,114.36,T,-525.54,M,004.084,N,007.563,K,D*06
$GPGGA,094310.75,5702.9538989,N,00949.4395345,E,2,5,3.0,-4.555,M,40.592,M,2.4,0123*58
$GPVTG,114.77,T,-525.13,M,004.095,N,007.585,K,D*08
$GPGGA,094310.80,5702.9538783,N,00949.4396313,E,2,5,3.0,-4.570,M,40.592,M,2.4,0123*51
$GPVTG,114.35,T,-525.55,M,004.098,N,007.590,K,D*05
$GPGGA,094310.85,5702.9538220,N,00949.4397492,E,2,5,3.0,-4.527,M,40.592,M,2.7,0123*56
$GPVTG,114.40,T,-525.50,M,004.104,N,007.601,K,D*0D
$GPGGA,094310.90,5702.9537999,N,00949.4398467,E,2,5,3.0,-4.538,M,40.592,M,2.7,0123*5F
$GPVTG,114.09,T,-525.81,M,004.121,N,007.633,K,D*0A
$GPGGA,094310.95,5702.9537729,N,00949.4399431,E,2,5,3.0,-4.548,M,40.592,M,2.7,0123*5A
$GPVTG,114.41,T,-525.49,M,004.141,N,007.668,K,D*0A
$GPGGA,094311.00,5702.9537468,N,00949.4400386,E,2,5,3.0,-4.561,M,40.592,M,2.7,0123*56
$GPVTG,114.67,T,-525.23,M,004.145,N,007.677,K,D*08
$GPGGA,094311.05,5702.9536906,N,00949.4401479,E,2,5,3.0,-4.534,M,40.592,M,1.6,0123*53
$GPVTG,115.01,T,-524.89,M,004.113,N,007.617,K,D*0D
$GPGGA,094311.10,5702.9536667,N,00949.4402393,E,2,5,3.0,-4.547,M,40.592,M,1.6,0123*5B
$GPVTG,115.27,T,-524.63,M,004.071,N,007.540,K,D*09
$GPGGA,094311.15,5702.9536382,N,00949.4403361,E,2,5,3.0,-4.559,M,40.592,M,1.6,0123*53
$GPVTG,115.59,T,-524.31,M,004.111,N,007.614,K,D*02
$GPGGA,094311.20,5702.9536227,N,00949.4404326,E,2,5,3.0,-4.572,M,40.592,M,1.6,0123*56
$GPVTG,114.56,T,-525.34,M,004.099,N,007.592,K,D*04
$GPGGA,094311.25,5702.9535761,N,00949.4405443,E,2,5,3.0,-4.541,M,40.592,M,1.9,0123*5D
$GPVTG,113.96,T,-525.94,M,004.071,N,007.540,K,D*0C
$GPGGA,094311.30,5702.9535519,N,00949.4406385,E,2,5,3.0,-4.553,M,40.592,M,1.9,0123*59
$GPVTG,114.08,T,-525.82,M,004.067,N,007.533,K,D*08
$GPGGA,094311.35,5702.9535231,N,00949.4407328,E,2,5,3.0,-4.568,M,40.592,M,1.9,0123*5F
$GPVTG,114.69,T,-525.21,M,004.082,N,007.559,K,D*01
$GPGGA,094311.40,5702.9534964,N,00949.4408302,E,2,5,3.0,-4.584,M,40.592,M,1.9,0123*52
$GPVTG,114.82,T,-525.08,M,004.122,N,007.633,K,D*0B
$GPGGA,094311.45,5702.9534372,N,00949.4409476,E,2,5,3.0,-4.551,M,40.592,M,2.1,0123*5C
$GPVTG,114.65,T,-525.25,M,004.156,N,007.697,K,D*00
$GPGGA,094311.50,5702.9534178,N,00949.4410420,E,2,5,3.0,-4.560,M,40.592,M,2.1,0123*59
$GPVTG,114.24,T,-525.66,M,004.128,N,007.644,K,D*05
$GPGGA,094311.55,5702.9533869,N,00949.4411320,E,2,5,3.0,-4.569,M,40.592,M,2.1,0123*5D
$GPVTG,115.38,T,-524.52,M,004.095,N,007.584,K,D*07
$GPGGA,094311.60,5702.9533565,N,00949.4412220,E,2,5,3.0,-4.575,M,40.592,M,2.1,0123*55
$GPVTG,116.37,T,-523.53,M,004.072,N,007.541,K,D*0D
$GPGGA,094311.65,5702.9533052,N,00949.4413321,E,2,5,3.0,-4.543,M,40.592,M,2.3,0123*57
$GPVTG,116.18,T,-523.72,M,004.077,N,007.550,K,D*06
$GPGGA,094311.70,5702.9532786,N,00949.4414280,E,2,5,3.0,-4.557,M,40.592,M,2.3,0123*54
$GPVTG,116.26,T,-523.64,M,004.109,N,007.610,K,D*03
$GPGGA,094311.75,5702.9532573,N,00949.4415207,E,2,5,3.0,-4.567,M,40.592,M,2.3,0123*54
$GPVTG,116.01,T,-523.89,M,004.082,N,007.561,K,D*02
$GPGGA,094311.80,5702.9532321,N,00949.4416213,E,2,5,3.0,-4.580,M,40.592,M,2.3,0123*50
$GPVTG,115.61,T,-524.29,M,004.157,N,007.698,K,D*06
$GPGGA,094311.85,5702.9531856,N,00949.4417279,E,2,5,3.0,-4.557,M,40.592,M,2.6,0123*5F
$GPVTG,115.84,T,-524.06,M,004.122,N,007.633,K,D*03
$GPGGA,094311.90,5702.9531570,N,00949.4418243,E,2,5,3.0,-4.572,M,40.592,M,2.6,0123*53
$GPVTG,116.14,T,-523.76,M,004.159,N,007.703,K,D*07
$GPGGA,094311.95,5702.9531318,N,00949.4419152,E,2,5,3.0,-4.582,M,40.592,M,2.6,0123*53
$GPVTG,116.45,T,-523.45,M,004.121,N,007.633,K,D*0E
$GPGGA,094312.00,5702.9531054,N,00949.4420120,E,2,5,3.0,-4.591,M,40.592,M,2.6,0123*5A
$GPVTG,116.42,T,-523.48,M,004.155,N,007.695,K,D*0B
$GPGGA,094312.05,5702.9530389,N,00949.4421275,E,2,5,3.0,-4.545,M,40.592,M,2.8,0123*58
$GPVTG,116.65,T,-523.25,M,004.163,N,007.710,K,D*0C
$GPGGA,094312.10,5702.9530107,N,00949.4422208,E,2,5,3.0,-4.552,M,40.592,M,2.8,0123*57
$GPVTG,117.08,T,-522.82,M,004.162,N,007.709,K,D*03
$GPGGA,094312.15,5702.9529831,N,00949.4423161,E,2,5,3.0,-4.561,M,40.592,M,2.8,0123*5B
$GPVTG,117.23,T,-522.67,M,004.181,N,007.744,K,D*05
$GPGGA,094312.20,5702.9529550,N,00949.4424122,E,2,5,3.0,-4.569,M,40.592,M,2.8,0123*5F
$GPVTG,117.37,T,-522.53,M,004.208,N,007.793,K,D*0F
$GPGGA,094312.25,5702.9529160,N,00949.4425116,E,2,5,3.0,-4.564,M,40.592,M,3.0,0123*5F
$GPVTG,117.55,T,-522.35,M,004.149,N,007.684,K,D*0A
$GPGGA,094312.30,5702.9528981,N,00949.4426019,E,2,5,3.0,-4.579,M,40.592,M,3.0,0123*5C
$GPVTG,116.94,T,-522.96,M,004.077,N,007.550,K,D*09
$GPGGA,094312.35,5702.9528650,N,00949.4426967,E,2,5,3.0,-4.600,M,40.592,M,3.0,0123*57
$GPVTG,117.68,T,-522.22,M,004.125,N,007.639,K,D*0E
$GPGGA,094312.40,5702.9528453,N,00949.4427940,E,2,5,3.0,-4.615,M,40.592,M,3.0,0123*54
$GPVTG,116.74,T,-523.16,M,004.140,N,007.667,K,D*0C
$GPGGA,094312.45,5702.9527714,N,00949.4429100,E,2,5,3.0,-4.570,M,40.592,M,3.2,0123*5E
$GPVTG,117.55,T,-522.35,M,004.148,N,007.681,K,D*0E
$GPGGA,094312.50,5702.9527453,N,00949.4430066,E,2,5,3.0,-4.581,M,40.592,M,3.2,0123*5D
$GPVTG,117.36,T,-522.54,M,004.180,N,007.741,K,D*05
$GPGGA,094312.55,5702.9527142,N,00949.4431069,E,2,5,3.0,-4.595,M,40.592,M,3.2,0123*56
$GPVTG,117.45,T,-522.45,M,004.264,N,007.896,K,D*0D
$GPGGA,094312.60,5702.9526877,N,00949.4432011,E,2,5,3.0,-4.606,M,40.592,M,3.2,0123*5B
$GPVTG,117.54,T,-522.36,M,004.254,N,007.879,K,D*0B
$GPGGA,094312.65,5702.9526313,N,00949.4433094,E,2,5,3.0,-4.579,M,40.592,M,3.4,0123*56
$GPVTG,117.90,T,-522.00,M,004.239,N,007.850,K,D*06
$GPGGA,094312.70,5702.9526084,N,00949.4434048,E,2,5,3.0,-4.587,M,40.592,M,3.4,0123*58
$GPVTG,117.49,T,-522.41,M,004.229,N,007.832,K,D*02
$GPGGA,094312.75,5702.9525827,N,00949.4434984,E,2,5,3.0,-4.591,M,40.592,M,3.4,0123*51
$GPVTG,117.53,T,-522.37,M,004.211,N,007.798,K,D*0C
$GPGGA,094312.80,5702.9525449,N,00949.4435877,E,2,5,3.0,-4.601,M,40.592,M,3.4,0123*59
$GPVTG,119.10,T,-520.80,M,004.201,N,007.781,K,D*02
$GPGGA,094312.85,5702.9525042,N,00949.4436907,E,2,5,3.0,-4.591,M,40.592,M,3.6,0123*5E
$GPVTG,119.20,T,-520.70,M,004.194,N,007.766,K,D*08
$GPGGA,094312.90,5702.9524863,N,00949.4437844,E,2,5,3.0,-4.605,M,40.592,M,3.6,0123*59
$GPVTG,118.30,T,-521.60,M,004.157,N,007.699,K,D*06
$GPGGA,094312.95,5702.9524616,N,00949.4438771,E,2,5,3.0,-4.624,M,40.592,M,3.6,0123*55
$GPVTG,118.17,T,-521.73,M,004.140,N,007.668,K,D*09
$GPGGA,094313.00,5702.9524358,N,00949.4439727,E,2,5,3.0,-4.636,M,40.592,M,3.6,0123*56
$GPVTG,117.92,T,-521.98,M,004.160,N,007.703,K,D*00
$GPGGA,094313.05,5702.9523678,N,00949.4440909,E,2,5,3.0,-4.591,M,40.592,M,1.9,0123*5C
$GPVTG,118.21,T,-521.69,M,004.202,N,007.782,K,D*07
$GPGGA,094313.10,5702.9523342,N,00949.4441866,E,2,5,3.0,-4.602,M,40.592,M,1.9,0123*54
$GPVTG,118.72,T,-521.18,M,004.246,N,007.864,K,D*00
$GPGGA,094313.15,5702.9523057,N,00949.4442856,E,2,5,3.0,-4.612,M,40.592,M,1.9,0123*57
$GPVTG,118.49,T,-521.41,M,004.298,N,007.960,K,D*02
$GPGGA,094313.20,5702.9522793,N,00949.4443811,E,2,5,3.0,-4.617,M,40.592,M,1.9,0123*58
$GPVTG,118.38,T,-521.52,M,004.297,N,007.958,K,D*02
$GPGGA,094313.25,5702.9522356,N,00949.4444835,E,2,5,3.0,-4.606,M,40.592,M,2.2,0123*59
$GPVTG,118.42,T,-521.48,M,004.266,N,007.901,K,D*06
$GPGGA,094313.30,5702.9522055,N,00949.4445795,E,2,5,3.0,-4.614,M,40.592,M,2.2,0123*5A
$GPVTG,118.62,T,-521.28,M,004.286,N,007.938,K,D*06
$GPGGA,094313.35,5702.9521802,N,00949.4446726,E,2,5,3.0,-4.620,M,40.592,M,2.2,0123*5A
$GPVTG,118.56,T,-521.34,M,004.255,N,007.880,K,D*00
$GPGGA,094313.40,5702.9521503,N,00949.4447646,E,2,5,3.0,-4.631,M,40.592,M,2.2,0123*52
$GPVTG,119.00,T,-520.90,M,004.235,N,007.843,K,D*04
$GPGGA,094313.45,5702.9521129,N,00949.4448755,E,2,5,3.0,-4.618,M,40.592,M,2.4,0123*5A
$GPVTG,117.60,T,-522.30,M,004.225,N,007.825,K,D*05
$GPGGA,094313.50,5702.9520822,N,00949.4449659,E,2,5,3.0,-4.637,M,40.592,M,2.4,0123*5C
$GPVTG,118.33,T,-521.57,M,004.191,N,007.761,K,D*0D
$GPGGA,094313.55,5702.9520524,N,00949.4450582,E,2,5,3.0,-4.652,M,40.592,M,2.4,0123*5C
$GPVTG,118.73,T,-521.17,M,004.181,N,007.744,K,D*0B
$GPGGA,094313.60,5702.9520230,N,00949.4451565,E,2,5,3.0,-4.668,M,40.592,M,2.4,0123*59
$GPVTG,118.60,T,-521.30,M,004.233,N,007.840,K,D*0D
$GPGGA,094313.65,5702.9519565,N,00949.4452693,E,2,5,3.0,-4.635,M,40.592,M,2.7,0123*53
$GPVTG,118.80,T,-521.10,M,004.224,N,007.824,K,D*05
$GPGGA,094313.70,5702.9519293,N,00949.4453593,E,2,5,3.0,-4.643,M,40.592,M,2.7,0123*5A
$GPVTG,119.09,T,-520.81,M,004.176,N,007.734,K,D*06
$GPGGA,094313.75,5702.9519036,N,00949.4454473,E,2,5,3.0,-4.649,M,40.592,M,2.7,0123*50
$GPVTG,119.31,T,-520.59,M,004.112,N,007.615,K,D*08
$GPGGA,094313.80,5702.9518693,N,00949.4455461,E,2,5,3.0,-4.663,M,40.592,M,2.7,0123*58
$GPVTG,119.50,T,-520.40,M,004.203,N,007.784,K,D*0D
$GPGGA,094313.85,5702.9518277,N,00949.4456516,E,2,5,3.0,-4.639,M,40.592,M,2.9,0123*50
$GPVTG,118.98,T,-520.92,M,004.173,N,007.728,K,D*05
$GPGGA,094313.90,5702.9518060,N,00949.4457402,E,2,5,3.0,-4.647,M,40.592,M,2.9,0123*5C
$GPVTG,118.71,T,-521.19,M,004.100,N,007.594,K,D*01
$GPGGA,094313.95,5702.9517847,N,00949.4458368,E,2,5,3.0,-4.660,M,40.592,M,2.9,0123*5A
$GPVTG,117.76,T,-522.14,M,004.119,N,007.628,K,D*0B
$GPGGA,094314.00,5702.9517504,N,00949.4459365,E,2,5,3.0,-4.675,M,40.592,M,2.9,0123*53
$GPVTG,118.00,T,-521.90,M,004.216,N,007.807,K,D*05
$GPGGA,094314.05,5702.9516884,N,00949.4460509,E,2,5,3.0,-4.634,M,40.592,M,1.7,0123*5C
$GPVTG,118.50,T,-521.40,M,004.253,N,007.877,K,D*0B
$GPGGA,094314.10,5702.9516546,N,00949.4461447,E,2,5,3.0,-4.642,M,40.592,M,1.7,0123*50
$GPVTG,119.13,T,-520.77,M,004.272,N,007.912,K,D*09
$GPGGA,094314.15,5702.9516324,N,00949.4462397,E,2,5,3.0,-4.650,M,40.592,M,1.7,0123*5D
$GPVTG,118.50,T,-521.40,M,004.255,N,007.880,K,D*05
$GPGGA,094314.20,5702.9516073,N,00949.4463343,E,2,5,3.0,-4.659,M,40.592,M,1.7,0123*5B
$GPVTG,118.22,T,-521.68,M,004.245,N,007.862,K,D*07
$GPGGA,094314.25,5702.9515530,N,00949.4464431,E,2,5,3.0,-4.638,M,40.592,M,2.0,0123*59
$GPVTG,118.51,T,-521.39,M,004.262,N,007.894,K,D*0B
$GPGGA,094314.30,5702.9515256,N,00949.4465420,E,2,5,3.0,-4.656,M,40.592,M,2.0,0123*53
$GPVTG,118.15,T,-521.75,M,004.303,N,007.969,K,D*06
$GPGGA,094314.35,5702.9514962,N,00949.4466389,E,2,5,3.0,-4.670,M,40.592,M,2.0,0123*58
$GPVTG,118.20,T,-521.70,M,004.323,N,008.006,K,D*08
$GPGGA,094314.40,5702.9514610,N,00949.4467336,E,2,5,3.0,-4.678,M,40.592,M,2.0,0123*5D
$GPVTG,118.97,T,-520.93,M,004.340,N,008.037,K,D*0F
$GPGGA,094314.45,5702.9513966,N,00949.4468345,E,2,5,3.0,-4.650,M,40.592,M,2.2,0123*52
$GPVTG,120.22,T,-519.68,M,004.246,N,007.863,K,D*05
$GPGGA,094314.50,5702.9513747,N,00949.4469241,E,2,5,3.0,-4.653,M,40.592,M,2.2,0123*5C
$GPVTG,119.92,T,-519.98,M,004.172,N,007.727,K,D*00
$GPGGA,094314.55,5702.9513441,N,00949.4470157,E,2,5,3.0,-4.661,M,40.592,M,2.2,0123*51
$GPVTG,120.27,T,-519.63,M,004.165,N,007.713,K,D*01
$GPGGA,094314.60,5702.9513131,N,00949.4471064,E,2,5,3.0,-4.670,M,40.592,M,2.2,0123*55
$GPVTG,120.68,T,-519.22,M,004.154,N,007.693,K,D*04
$GPGGA,094314.65,5702.9512854,N,00949.4472050,E,2,5,3.0,-4.665,M,40.592,M,2.4,0123*5D
$GPVTG,118.61,T,-521.29,M,004.047,N,007.495,K,D*01
$GPGGA,094314.70,5702.9512586,N,00949.4472998,E,2,5,3.0,-4.682,M,40.592,M,2.4,0123*5F
$GPVTG,118.28,T,-521.62,M,004.078,N,007.552,K,D*05
$GPGGA,094314.75,5702.9512307,N,00949.4473918,E,2,5,3.0,-4.701,M,40.592,M,2.4,0123*56
$GPVTG,118.41,T,-521.49,M,004.083,N,007.561,K,D*07
$GPGGA,094314.80,5702.9512058,N,00949.4474815,E,2,5,3.0,-4.716,M,40.592,M,2.4,0123*58
$GPVTG,118.24,T,-521.66,M,004.046,N,007.493,K,D*0C
$GPGGA,094314.85,5702.9511420,N,00949.4476004,E,2,5,3.0,-4.680,M,40.592,M,2.7,0123*52
$GPVTG,117.80,T,-522.10,M,004.090,N,007.574,K,D*0C
$GPGGA,094314.90,5702.9511187,N,00949.4476959,E,2,5,3.0,-4.690,M,40.592,M,2.7,0123*5E
$GPVTG,117.27,T,-522.63,M,004.115,N,007.620,K,D*0B
$GPGGA,094314.95,5702.9510915,N,00949.4477885,E,2,5,3.0,-4.700,M,40.592,M,2.7,0123*50
$GPVTG,117.27,T,-522.63,M,004.113,N,007.618,K,D*06
$GPGGA,094315.00,5702.9510603,N,00949.4478773,E,2,5,3.0,-4.713,M,40.592,M,2.7,0123*5E
$GPVTG,117.83,T,-522.07,M,004.085,N,007.565,K,D*0D
$GPGGA,094315.05,5702.9510059,N,00949.4479877,E,2,5,3.0,-4.687,M,40.592,M,1.6,0123*56
$GPVTG,117.57,T,-522.33,M,004.099,N,007.592,K,D*06
$GPGGA,094315.10,5702.9509764,N,00949.4480773,E,2,5,3.0,-4.697,M,40.592,M,1.6,0123*5F
$GPVTG,117.97,T,-521.93,M,004.078,N,007.553,K,D*01
$GPGGA,094315.15,5702.9509553,N,00949.4481679,E,2,5,3.0,-4.709,M,40.592,M,1.6,0123*50
$GPVTG,117.58,T,-522.32,M,004.045,N,007.491,K,D*0B
$GPGGA,094315.20,5702.9509345,N,00949.4482652,E,2,5,3.0,-4.720,M,40.592,M,1.6,0123*56
$GPVTG,116.66,T,-523.24,M,004.084,N,007.563,K,D*00
$GPGGA,094315.25,5702.9508668,N,00949.4483773,E,2,5,3.0,-4.676,M,40.592,M,1.9,0123*56
$GPVTG,117.49,T,-522.41,M,004.108,N,007.608,K,D*05
$GPGGA,094315.30,5702.9508342,N,00949.4484694,E,2,5,3.0,-4.685,M,40.592,M,1.9,0123*5C
$GPVTG,118.07,T,-521.83,M,004.124,N,007.638,K,D*00
$GPGGA,094315.35,5702.9508097,N,00949.4485609,E,2,5,3.0,-4.692,M,40.592,M,1.9,0123*51
$GPVTG,117.92,T,-521.98,M,004.106,N,007.605,K,D*07
$GPGGA,094315.40,5702.9507820,N,00949.4486555,E,2,5,3.0,-4.701,M,40.592,M,1.9,0123*5A
$GPVTG,117.82,T,-522.08,M,004.133,N,007.655,K,D*0F
$GPGGA,094315.45,5702.9507333,N,00949.4487557,E,2,5,3.0,-4.700,M,40.592,M,2.1,0123*5F
$GPVTG,118.15,T,-521.75,M,004.135,N,007.658,K,D*0C
$GPGGA,094315.50,5702.9507150,N,00949.4488496,E,2,5,3.0,-4.721,M,40.592,M,2.1,0123*5C
$GPVTG,117.18,T,-522.72,M,004.116,N,007.623,K,D*07
$GPGGA,094315.55,5702.9506843,N,00949.4489401,E,2,5,3.0,-4.743,M,40.592,M,2.1,0123*58
$GPVTG,117.76,T,-522.14,M,004.108,N,007.607,K,D*06
$GPGGA,094315.60,5702.9506638,N,00949.4490263,E,2,5,3.0,-4.760,M,40.592,M,2.1,0123*57
$GPVTG,117.61,T,-522.29,M,004.022,N,007.448,K,D*0E
$GPGGA,094315.65,5702.9505985,N,00949.4491405,E,2,5,3.0,-4.724,M,40.592,M,2.3,0123*5D
$GPVTG,117.42,T,-522.48,M,004.035,N,007.473,K,D*06
$GPGGA,094315.70,5702.9505691,N,00949.4492334,E,2,5,3.0,-4.739,M,40.592,M,2.3,0123*59
$GPVTG,117.63,T,-522.27,M,004.062,N,007.523,K,D*0A
$GPGGA,094315.75,5702.9505470,N,00949.4493279,E,2,5,3.0,-4.755,M,40.592,M,2.3,0123*52
$GPVTG,116.99,T,-522.91,M,004.074,N,007.546,K,D*07
$GPGGA,094315.80,5702.9505212,N,00949.4494214,E,2,5,3.0,-4.768,M,40.592,M,2.3,0123*58
$GPVTG,116.85,T,-523.05,M,004.086,N,007.567,K,D*08
$GPGGA,094315.85,5702.9504525,N,00949.4495384,E,2,5,3.0,-4.721,M,40.592,M,2.6,0123*5E
$GPVTG,117.30,T,-522.60,M,004.145,N,007.677,K,D*09
$GPGGA,094315.90,5702.9504226,N,00949.4496315,E,2,5,3.0,-4.727,M,40.592,M,2.6,0123*53
$GPVTG,117.65,T,-522.25,M,004.160,N,007.704,K,D*0A
$GPGGA,094315.95,5702.9503922,N,00949.4497210,E,2,5,3.0,-4.732,M,40.592,M,2.6,0123*5F
$GPVTG,118.30,T,-521.60,M,004.137,N,007.662,K,D*04
$GPGGA,094316.00,5702.9503619,N,00949.4498094,E,2,5,3.0,-4.738,M,40.592,M,2.6,0123*5C
$GPVTG,118.97,T,-520.93,M,004.109,N,007.609,K,D*04
$GPGGA,094316.05,5702.9503236,N,00949.4499057,E,2,5,3.0,-4.732,M,40.592,M,2.8,0123*5A
$GPVTG,118.76,T,-521.14,M,004.061,N,007.521,K,D*03
$GPGGA,094316.10,5702.9503004,N,00949.4500028,E,2,5,3.0,-4.751,M,40.592,M,2.8,0123*51
$GPVTG,117.91,T,-521.99,M,004.108,N,007.607,K,D*09
$GPGGA,094316.15,5702.9502748,N,00949.4500960,E,2,5,3.0,-4.773,M,40.592,M,2.8,0123*5F
$GPVTG,117.73,T,-522.17,M,004.113,N,007.618,K,D*04
$GPGGA,094316.20,5702.9502485,N,00949.4501984,E,2,5,3.0,-4.791,M,40.592,M,2.8,0123*5C
$GPVTG,116.97,T,-522.93,M,004.213,N,007.803,K,D*04
$GPGGA,094316.25,5702.9501773,N,00949.4503125,E,2,5,3.0,-4.742,M,40.592,M,3.0,0123*56
$GPVTG,117.61,T,-522.29,M,004.186,N,007.753,K,D*08
$GPGGA,094316.30,5702.9501492,N,00949.4504014,E,2,5,3.0,-4.752,M,40.592,M,3.0,0123*5B
$GPVTG,118.10,T,-521.80,M,004.142,N,007.671,K,D*08
$GPGGA,094316.35,5702.9501205,N,00949.4504956,E,2,5,3.0,-4.760,M,40.592,M,3.0,0123*58
$GPVTG,118.20,T,-521.70,M,004.162,N,007.708,K,D*09
$GPGGA,094316.40,5702.9500863,N,00949.4505852,E,2,5,3.0,-4.769,M,40.592,M,3.0,0123*5C
$GPVTG,119.18,T,-520.72,M,004.156,N,007.697,K,D*00
$GPGGA,094316.45,5702.9500406,N,00949.4506855,E,2,5,3.0,-4.750,M,40.592,M,3.2,0123*5A
$GPVTG,119.18,T,-520.72,M,004.101,N,007.595,K,D*03
$GPGGA,094316.50,5702.9500132,N,00949.4507792,E,2,5,3.0,-4.766,M,40.592,M,3.2,0123*5C
$GPVTG,119.03,T,-520.87,M,004.122,N,007.634,K,D*0A
$GPGGA,094316.55,5702.9499837,N,00949.4508716,E,2,5,3.0,-4.781,M,40.592,M,3.2,0123*5E
$GPVTG,119.22,T,-520.68,M,004.134,N,007.657,K,D*0A
$GPGGA,094316.60,5702.9499567,N,00949.4509677,E,2,5,3.0,-4.792,M,40.592,M,3.2,0123*55
$GPVTG,118.87,T,-521.03,M,004.173,N,007.728,K,D*02
$GPGGA,094316.65,5702.9498973,N,00949.4510796,E,2,5,3.0,-4.753,M,40.592,M,3.4,0123*55
$GPVTG,118.83,T,-521.07,M,004.181,N,007.742,K,D*03
$GPGGA,094316.70,5702.9498657,N,00949.4511650,E,2,5,3.0,-4.758,M,40.592,M,3.4,0123*59
$GPVTG,119.86,T,-520.04,M,004.119,N,007.629,K,D*08
$GPGGA,094316.75,5702.9498380,N,00949.4512554,E,2,5,3.0,-4.764,M,40.592,M,3.4,0123*58
$GPVTG,119.95,T,-519.95,M,004.108,N,007.608,K,D*0B
$GPGGA,094316.80,5702.9498071,N,00949.4513418,E,2,5,3.0,-4.776,M,40.592,M,3.4,0123*54
$GPVTG,120.65,T,-519.25,M,004.072,N,007.541,K,D*07
$GPGGA,094316.85,5702.9497661,N,00949.4514460,E,2,5,3.0,-4.766,M,40.592,M,3.6,0123*52
$GPVTG,118.94,T,-520.96,M,004.051,N,007.503,K,D*07
$GPGGA,094316.90,5702.9497392,N,00949.4515370,E,2,5,3.0,-4.781,M,40.592,M,3.6,0123*51
$GPVTG,118.84,T,-521.06,M,004.052,N,007.504,K,D*0A
$GPGGA,094316.95,5702.9497106,N,00949.4516385,E,2,5,3.0,-4.804,M,40.592,M,3.6,0123*50
$GPVTG,118.23,T,-521.67,M,004.174,N,007.730,K,D*00
$GPGGA,094317.00,5702.9496826,N,00949.4517293,E,2,5,3.0,-4.819,M,40.592,M,3.6,0123*5C
$GPVTG,118.44,T,-521.46,M,004.160,N,007.705,K,D*01
$GPGGA,094317.05,5702.9496103,N,00949.4518436,E,2,5,3.0,-4.769,M,40.592,M,1.9,0123*54
$GPVTG,118.92,T,-520.98,M,004.130,N,007.649,K,D*04
$GPGGA,094317.10,5702.9495844,N,00949.4519323,E,2,5,3.0,-4.778,M,40.592,M,1.9,0123*5B
$GPVTG,119.07,T,-520.83,M,004.093,N,007.581,K,D*0C
$GPGGA,094317.15,5702.9495547,N,00949.4520265,E,2,5,3.0,-4.790,M,40.592,M,1.9,0123*5F
