$GPGGA,093748.05,5702.9442864,N,00949.3857107,E,2,4,3.0,-7.069,M,40.592,M,2.8,0123*5D
$GPVTG,068.12,T,-571.78,M,004.034,N,007.472,K,D*0F
$GPGGA,093748.10,5702.9443107,N,00949.3858047,E,2,4,3.0,-7.084,M,40.592,M,2.8,0123*5D
$GPVTG,067.59,T,-572.31,M,004.036,N,007.475,K,D*04
$GPGGA,093748.15,5702.9443107,N,00949.3858943,E,2,4,3.0,-7.098,M,40.592,M,2.8,0123*58
$GPVTG,069.31,T,-570.59,M,003.923,N,007.265,K,D*05
$GPGGA,093748.20,5702.9443241,N,00949.3859848,E,2,4,3.0,-7.110,M,40.592,M,2.8,0123*55
$GPVTG,069.69,T,-570.21,M,003.870,N,007.168,K,D*0E
$GPGGA,093748.25,5702.9442830,N,00949.3860970,E,2,4,3.0,-7.070,M,40.592,M,3.0,0123*53
$GPVTG,071.88,T,-568.02,M,003.892,N,007.207,K,D*06
$GPGGA,093748.30,5702.9443038,N,00949.3861917,E,2,4,3.0,-7.081,M,40.592,M,3.0,0123*58
$GPVTG,071.11,T,-568.79,M,003.917,N,007.254,K,D*00
$GPGGA,093748.35,5702.9443198,N,00949.3862887,E,2,4,3.0,-7.096,M,40.592,M,3.0,0123*5B
$GPVTG,071.60,T,-568.30,M,003.940,N,007.297,K,D*06
$GPGGA,093748.40,5702.9443354,N,00949.3863860,E,2,4,3.0,-7.112,M,40.592,M,3.0,0123*5E
$GPVTG,072.07,T,-567.83,M,003.961,N,007.336,K,D*0A
$GPGGA,093748.45,5702.9443615,N,00949.3864922,E,2,4,3.0,-7.082,M,40.592,M,3.2,0123*51
$GPVTG,071.13,T,-568.77,M,003.941,N,007.299,K,D*0E
$GPGGA,093748.50,5702.9443739,N,00949.3865886,E,2,4,3.0,-7.102,M,40.592,M,3.2,0123*5D
$GPVTG,071.63,T,-568.27,M,003.950,N,007.316,K,D*0A
$GPGGA,093748.55,5702.9444103,N,00949.3866783,E,2,4,3.0,-7.117,M,40.592,M,3.2,0123*5D
$GPVTG,070.05,T,-569.85,M,003.923,N,007.265,K,D*03
$GPGGA,093748.60,5702.9444363,N,00949.3867695,E,2,4,3.0,-7.134,M,40.592,M,3.2,0123*59
$GPVTG,069.32,T,-570.58,M,003.905,N,007.232,K,D*01

$GPGGA,093758.00,5702.9456121,N,00949.4053301,E,2,4,3.0,-6.801,M,40.592,M,2.9,0123*5D
$GPVTG,077.84,T,-562.06,M,003.826,N,007.086,K,D*06
$GPGGA,093758.05,5702.9456140,N,00949.4054399,E,2,4,3.0,-6.760,M,40.592,M,1.7,0123*5C
$GPVTG,076.88,T,-563.02,M,003.869,N,007.166,K,D*0A
$GPGGA,093758.10,5702.9456236,N,00949.4055327,E,2,4,3.0,-6.769,M,40.592,M,1.7,0123*57
$GPVTG,076.94,T,-562.96,M,003.835,N,007.103,K,D*01
$GPGGA,093758.15,5702.9456341,N,00949.4056257,E,2,4,3.0,-6.778,M,40.592,M,1.7,0123*56
$GPVTG,076.97,T,-562.93,M,003.811,N,007.058,K,D*0E
$GPGGA,093758.20,5702.9456388,N,00949.4057188,E,2,4,3.0,-6.788,M,40.592,M,1.7,0123*5A
$GPVTG,077.48,T,-562.42,M,003.784,N,007.008,K,D*07
$GPGGA,093758.25,5702.9456038,N,00949.4058327,E,2,4,3.0,-6.747,M,40.592,M,2.0,0123*58
$GPVTG,077.59,T,-562.31,M,003.881,N,007.188,K,D*00
$GPGGA,093758.30,5702.9456153,N,00949.4059295,E,2,4,3.0,-6.758,M,40.592,M,2.0,0123*57
$GPVTG,077.66,T,-562.24,M,003.893,N,007.210,K,D*09
$GPGGA,093758.35,5702.9456303,N,00949.4060238,E,2,4,3.0,-6.766,M,40.592,M,2.0,0123*55
$GPVTG,077.04,T,-562.86,M,003.881,N,007.187,K,D*0B
$GPGGA,093758.40,5702.9456419,N,00949.4061217,E,2,4,3.0,-6.779,M,40.592,M,2.0,0123*59
$GPVTG,077.18,T,-562.72,M,003.904,N,007.231,K,D*0F
$GPGGA,093758.45,5702.9456486,N,00949.4062262,E,2,4,3.0,-6.750,M,40.592,M,2.2,0123*52
$GPVTG,076.05,T,-563.85,M,003.887,N,007.198,K,D*01
$GPGGA,093758.50,5702.9456624,N,00949.4063190,E,2,4,3.0,-6.763,M,40.592,M,2.2,0123*53
$GPVTG,075.81,T,-564.09,M,003.856,N,007.141,K,D*05
$GPGGA,093758.55,5702.9456835,N,00949.4064111,E,2,4,3.0,-6.777,M,40.592,M,2.2,0123*53
$GPVTG,075.03,T,-564.87,M,003.831,N,007.095,K,D*00
$GPGGA,093758.60,5702.9456697,N,00949.4065041,E,2,4,3.0,-6.789,M,40.592,M,2.2,0123*57
$GPVTG,076.89,T,-563.01,M,003.779,N,006.999,K,D*0F
$GPGGA,093758.65,5702.9456052,N,00949.4066162,E,2,4,3.0,-6.726,M,40.592,M,2.4,0123*5D
$GPVTG,079.11,T,-560.79,M,003.769,N,006.980,K,D*04
$GPGGA,093758.70,5702.9456207,N,00949.4067115,E,2,4,3.0,-6.736,M,40.592,M,2.4,0123*5B
$GPVTG,078.17,T,-561.73,M,003.790,N,007.019,K,D*06
$GPGGA,093758.75,5702.9456299,N,00949.4068054,E,2,4,3.0,-6.746,M,40.592,M,2.4,0123*55
$GPVTG,078.48,T,-561.42,M,003.777,N,006.995,K,D*0B
$GPGGA,093758.80,5702.9456436,N,00949.4069016,E,2,4,3.0,-6.757,M,40.592,M,2.4,0123*5B
$GPVTG,078.16,T,-561.74,M,003.803,N,007.043,K,D*0A
$GPGGA,093758.85,5702.9456911,N,00949.4070061,E,2,4,3.0,-6.732,M,40.592,M,2.7,0123*5E
$GPVTG,077.18,T,-562.72,M,003.793,N,007.025,K,D*08
$GPGGA,093758.90,5702.9457137,N,00949.4071073,E,2,4,3.0,-6.752,M,40.592,M,2.7,0123*53
$GPVTG,076.68,T,-563.22,M,003.883,N,007.191,K,D*0A
$GPGGA,093758.95,5702.9457241,N,00949.4071983,E,2,4,3.0,-6.766,M,40.592,M,2.7,0123*55
$GPVTG,076.60,T,-563.30,M,003.831,N,007.095,K,D*0D
$GPGGA,093759.00,5702.9457388,N,00949.4072941,E,2,4,3.0,-6.782,M,40.592,M,2.7,0123*5B
$GPVTG,076.42,T,-563.48,M,003.846,N,007.123,K,D*0E
$GPGGA,093759.05,5702.9456515,N,00949.4074199,E,2,4,3.0,-6.682,M,40.592,M,1.6,0123*55
$GPVTG,076.12,T,-563.78,M,003.914,N,007.248,K,D*00
$GPGGA,093759.10,5702.9456601,N,00949.4075176,E,2,4,3.0,-6.685,M,40.592,M,1.6,0123*50
$GPVTG,076.51,T,-563.39,M,003.930,N,007.279,K,D*06
$GPGGA,093759.15,5702.9456705,N,00949.4076161,E,2,4,3.0,-6.689,M,40.592,M,1.6,0123*59
$GPVTG,076.75,T,-563.15,M,003.952,N,007.320,K,D*07
$GPGGA,093759.20,5702.9456796,N,00949.4077191,E,2,4,3.0,-6.695,M,40.592,M,1.6,0123*56
$GPVTG,077.24,T,-562.66,M,004.018,N,007.442,K,D*04
$GPGGA,093759.25,5702.9456985,N,00949.4078173,E,2,4,3.0,-6.692,M,40.592,M,1.9,0123*54
$GPVTG,077.17,T,-562.73,M,003.992,N,007.393,K,D*07
$GPGGA,093759.30,5702.9457023,N,00949.4079125,E,2,4,3.0,-6.707,M,40.592,M,1.9,0123*5B
$GPVTG,077.90,T,-562.00,M,003.948,N,007.312,K,D*02
$GPGGA,093759.35,5702.9457193,N,00949.4080096,E,2,4,3.0,-6.720,M,40.592,M,1.9,0123*5E
$GPVTG,077.37,T,-562.53,M,003.951,N,007.318,K,D*0B
$GPGGA,093759.40,5702.9457485,N,00949.4081012,E,2,4,3.0,-6.730,M,40.592,M,1.9,0123*52
$GPVTG,075.44,T,-564.46,M,003.912,N,007.245,K,D*01
$GPGGA,093759.45,5702.9456833,N,00949.4082112,E,2,4,3.0,-6.672,M,40.592,M,2.1,0123*59
$GPVTG,077.37,T,-562.53,M,003.852,N,007.133,K,D*02
$GPGGA,093759.50,5702.9456933,N,00949.4083088,E,2,4,3.0,-6.681,M,40.592,M,2.1,0123*53
$GPVTG,077.82,T,-562.08,M,003.863,N,007.154,K,D*01
$GPGGA,093759.55,5702.9457015,N,00949.4084043,E,2,4,3.0,-6.689,M,40.592,M,2.1,0123*52
$GPVTG,078.41,T,-561.49,M,003.845,N,007.120,K,D*00
$GPGGA,093759.60,5702.9457116,N,00949.4085056,E,2,4,3.0,-6.699,M,40.592,M,2.1,0123*52
$GPVTG,078.76,T,-561.14,M,003.903,N,007.227,K,D*0B
$GPGGA,093759.65,5702.9456982,N,00949.4086023,E,2,4,3.0,-6.665,M,40.592,M,2.3,0123*53
$GPVTG,077.87,T,-562.03,M,003.795,N,007.029,K,D*02
$GPGGA,093759.70,5702.9457098,N,00949.4086996,E,2,4,3.0,-6.683,M,40.592,M,2.3,0123*5B
$GPVTG,077.95,T,-561.95,M,003.818,N,007.070,K,D*0B
$GPGGA,093759.75,5702.9457528,N,00949.4088007,E,2,4,3.0,-6.698,M,40.592,M,2.3,0123*55
$GPVTG,075.77,T,-564.13,M,003.917,N,007.255,K,D*05
$GPGGA,093759.80,5702.9457462,N,00949.4088970,E,2,4,3.0,-6.712,M,40.592,M,2.3,0123*5A
$GPVTG,077.22,T,-562.68,M,003.894,N,007.212,K,D*04
$GPGGA,093759.85,5702.9457169,N,00949.4090098,E,2,4,3.0,-6.660,M,40.592,M,2.6,0123*56
$GPVTG,076.33,T,-563.57,M,003.914,N,007.249,K,D*0F
$GPGGA,093759.90,5702.9457350,N,00949.4091096,E,2,4,3.0,-6.672,M,40.592,M,2.6,0123*56
$GPVTG,075.93,T,-563.97,M,003.961,N,007.336,K,D*01
$GPGGA,093759.95,5702.9457460,N,00949.4092065,E,2,4,3.0,-6.682,M,40.592,M,2.6,0123*57
$GPVTG,076.05,T,-563.85,M,003.957,N,007.329,K,D*05
$GPGGA,093800.00,5702.9457661,N,00949.4092985,E,2,4,3.0,-6.684,M,40.592,M,2.6,0123*5A
$GPVTG,075.14,T,-564.76,M,003.911,N,007.244,K,D*05
$GPGGA,093800.05,5702.9457667,N,00949.4094025,E,2,4,3.0,-6.653,M,40.592,M,2.8,0123*58
$GPVTG,073.78,T,-566.12,M,003.928,N,007.275,K,D*01
$GPGGA,093800.10,5702.9457671,N,00949.4094914,E,2,4,3.0,-6.664,M,40.592,M,2.8,0123*54
$GPVTG,074.71,T,-565.19,M,003.821,N,007.077,K,D*0F
$GPGGA,093800.15,5702.9457717,N,00949.4095887,E,2,4,3.0,-6.676,M,40.592,M,2.8,0123*59
$GPVTG,075.65,T,-564.25,M,003.834,N,007.100,K,D*00
$GPGGA,093800.20,5702.9458014,N,00949.4096865,E,2,4,3.0,-6.687,M,40.592,M,2.8,0123*55
$GPVTG,074.08,T,-565.82,M,003.893,N,007.210,K,D*09
$GPGGA,093800.25,5702.9457707,N,00949.4097965,E,2,4,3.0,-6.656,M,40.592,M,3.0,0123*5F
$GPVTG,073.59,T,-566.31,M,003.964,N,007.342,K,D*0E
$GPGGA,093800.30,5702.9457862,N,00949.4098919,E,2,4,3.0,-6.673,M,40.592,M,3.0,0123*54
$GPVTG,073.39,T,-566.51,M,003.957,N,007.328,K,D*02
$GPGGA,093800.35,5702.9458024,N,00949.4099852,E,2,4,3.0,-6.691,M,40.592,M,3.0,0123*57
$GPVTG,072.98,T,-566.92,M,003.928,N,007.275,K,D*06
$GPGGA,093800.40,5702.9458196,N,00949.4100757,E,2,4,3.0,-6.705,M,40.592,M,3.0,0123*5A
$GPVTG,072.35,T,-567.55,M,003.877,N,007.180,K,D*09
$GPGGA,093800.45,5702.9457803,N,00949.4101947,E,2,4,3.0,-6.643,M,40.592,M,3.2,0123*5A
$GPVTG,072.62,T,-567.28,M,003.933,N,007.283,K,D*00
$GPGGA,093800.50,5702.9457997,N,00949.4102953,E,2,4,3.0,-6.655,M,40.592,M,3.2,0123*53
$GPVTG,072.48,T,-567.42,M,003.997,N,007.403,K,D*04
$GPGGA,093800.55,5702.9458131,N,00949.4103926,E,2,4,3.0,-6.665,M,40.592,M,3.2,0123*5D
$GPVTG,072.58,T,-567.32,M,004.007,N,007.422,K,D*06
$GPGGA,093800.60,5702.9458229,N,00949.4104877,E,2,4,3.0,-6.672,M,40.592,M,3.2,0123*55
$GPVTG,072.83,T,-567.07,M,003.984,N,007.378,K,D*0B
$GPGGA,093800.65,5702.9458005,N,00949.4105859,E,2,4,3.0,-6.639,M,40.592,M,3.4,0123*58
$GPVTG,072.97,T,-566.93,M,003.905,N,007.231,K,D*07
$GPGGA,093800.70,5702.9458251,N,00949.4106818,E,2,4,3.0,-6.647,M,40.592,M,3.4,0123*50
$GPVTG,072.14,T,-567.76,M,003.928,N,007.274,K,D*08
$GPGGA,093800.75,5702.9458407,N,00949.4107762,E,2,4,3.0,-6.663,M,40.592,M,3.4,0123*55
$GPVTG,072.03,T,-567.87,M,003.917,N,007.254,K,D*0E
$GPGGA,093800.80,5702.9458698,N,00949.4108755,E,2,4,3.0,-6.680,M,40.592,M,3.4,0123*5D
$GPVTG,071.02,T,-568.88,M,003.990,N,007.389,K,D*02
$GPGGA,093800.85,5702.9458563,N,00949.4109832,E,2,4,3.0,-6.652,M,40.592,M,3.6,0123*5D
$GPVTG,070.82,T,-569.08,M,004.015,N,007.436,K,D*02
$GPGGA,093800.90,5702.9458743,N,00949.4110764,E,2,4,3.0,-6.671,M,40.592,M,3.6,0123*5C
$GPVTG,070.48,T,-569.42,M,003.986,N,007.382,K,D*06
$GPGGA,093800.95,5702.9458896,N,00949.4111744,E,2,4,3.0,-6.688,M,40.592,M,3.6,0123*5B
$GPVTG,070.71,T,-569.19,M,004.010,N,007.427,K,D*0B
$GPGGA,093801.00,5702.9459097,N,00949.4112690,E,2,4,3.0,-6.700,M,40.592,M,3.6,0123*54
$GPVTG,070.28,T,-569.62,M,004.003,N,007.413,K,D*0E
$GPGGA,093801.05,5702.9458498,N,00949.4113830,E,2,4,3.0,-6.640,M,40.592,M,1.9,0123*56
$GPVTG,070.86,T,-569.04,M,004.002,N,007.412,K,D*0A
$GPGGA,093801.10,5702.9458785,N,00949.4114804,E,2,4,3.0,-6.647,M,40.592,M,1.9,0123*5A
$GPVTG,069.74,T,-570.16,M,004.048,N,007.497,K,D*07
$GPGGA,093801.15,5702.9458943,N,00949.4115766,E,2,4,3.0,-6.658,M,40.592,M,1.9,0123*5F
$GPVTG,069.88,T,-570.02,M,004.043,N,007.488,K,D*04
$GPGGA,093801.20,5702.9459136,N,00949.4116652,E,2,4,3.0,-6.667,M,40.592,M,1.9,0123*5B
$GPVTG,069.24,T,-570.66,M,003.964,N,007.342,K,D*0A
$GPGGA,093801.25,5702.9458908,N,00949.4117756,E,2,4,3.0,-6.637,M,40.592,M,2.2,0123*53
$GPVTG,070.98,T,-568.92,M,004.004,N,007.416,K,D*09
$GPGGA,093801.30,5702.9459122,N,00949.4118697,E,2,4,3.0,-6.650,M,40.592,M,2.2,0123*54
$GPVTG,070.42,T,-569.48,M,003.993,N,007.395,K,D*04
$GPGGA,093801.35,5702.9459410,N,00949.4119713,E,2,4,3.0,-6.665,M,40.592,M,2.2,0123*5F
$GPVTG,069.61,T,-570.29,M,004.087,N,007.569,K,D*0C
$GPGGA,093801.40,5702.9459511,N,00949.4120687,E,2,4,3.0,-6.680,M,40.592,M,2.2,0123*50
$GPVTG,070.41,T,-569.49,M,004.074,N,007.546,K,D*09
$GPGGA,093801.45,5702.9458944,N,00949.4121720,E,2,4,3.0,-6.643,M,40.592,M,2.4,0123*5C
$GPVTG,072.00,T,-567.90,M,003.967,N,007.348,K,D*00
$GPGGA,093801.50,5702.9459210,N,00949.4122679,E,2,4,3.0,-6.653,M,40.592,M,2.4,0123*5C
$GPVTG,070.95,T,-568.95,M,003.989,N,007.388,K,D*08
$GPGGA,093801.55,5702.9459381,N,00949.4123627,E,2,4,3.0,-6.666,M,40.592,M,2.4,0123*5C
$GPVTG,070.90,T,-569.00,M,003.975,N,007.361,K,D*04
$GPGGA,093801.60,5702.9459819,N,00949.4124604,E,2,4,3.0,-6.679,M,40.592,M,2.4,0123*58
$GPVTG,068.37,T,-571.53,M,004.063,N,007.525,K,D*00
$GPGGA,093801.65,5702.9459560,N,00949.4125714,E,2,4,3.0,-6.639,M,40.592,M,2.7,0123*58
$GPVTG,069.57,T,-570.33,M,004.068,N,007.535,K,D*0A
$GPGGA,093801.70,5702.9459766,N,00949.4126718,E,2,4,3.0,-6.655,M,40.592,M,2.7,0123*5D
$GPVTG,069.56,T,-570.34,M,004.117,N,007.624,K,D*06
$GPGGA,093801.75,5702.9459774,N,00949.4127713,E,2,4,3.0,-6.671,M,40.592,M,2.7,0123*57
$GPVTG,071.45,T,-568.45,M,004.097,N,007.587,K,D*01
$GPGGA,093801.80,5702.9460019,N,00949.4128682,E,2,4,3.0,-6.686,M,40.592,M,2.7,0123*55
$GPVTG,070.73,T,-569.17,M,004.103,N,007.599,K,D*00
$GPGGA,093801.85,5702.9459620,N,00949.4129752,E,2,4,3.0,-6.644,M,40.592,M,2.9,0123*5B
$GPVTG,069.02,T,-570.88,M,004.102,N,007.596,K,D*0E
$GPGGA,093801.90,5702.9459679,N,00949.4130679,E,2,4,3.0,-6.653,M,40.592,M,2.9,0123*55
$GPVTG,070.10,T,-569.80,M,004.016,N,007.437,K,D*0B
$GPGGA,093801.95,5702.9459755,N,00949.4131675,E,2,4,3.0,-6.662,M,40.592,M,2.9,0123*50
$GPVTG,071.36,T,-568.54,M,004.023,N,007.451,K,D*00
$GPGGA,093802.00,5702.9459954,N,00949.4132718,E,2,4,3.0,-6.672,M,40.592,M,2.9,0123*58
$GPVTG,071.53,T,-568.37,M,004.109,N,007.609,K,D*00
$GPGGA,093802.05,5702.9460010,N,00949.4133785,E,2,4,3.0,-6.635,M,40.592,M,1.7,0123*55
$GPVTG,069.54,T,-570.36,M,004.148,N,007.682,K,D*00
$GPGGA,093802.10,5702.9460196,N,00949.4134719,E,2,4,3.0,-6.647,M,40.592,M,1.7,0123*59
$GPVTG,069.30,T,-570.60,M,004.094,N,007.583,K,D*03
$GPGGA,093802.15,5702.9460273,N,00949.4135655,E,2,4,3.0,-6.663,M,40.592,M,1.7,0123*5A
$GPVTG,070.21,T,-569.69,M,004.023,N,007.450,K,D*09
$GPGGA,093802.20,5702.9460354,N,00949.4136612,E,2,4,3.0,-6.678,M,40.592,M,1.7,0123*52
$GPVTG,071.18,T,-568.72,M,003.985,N,007.380,K,D*01
$GPGGA,093802.25,5702.9459992,N,00949.4137748,E,2,4,3.0,-6.634,M,40.592,M,2.0,0123*5E
$GPVTG,071.53,T,-568.37,M,004.018,N,007.442,K,D*0C
$GPGGA,093802.30,5702.9460205,N,00949.4138757,E,2,4,3.0,-6.648,M,40.592,M,2.0,0123*5F
$GPVTG,071.38,T,-568.52,M,004.071,N,007.539,K,D*00
$GPGGA,093802.35,5702.9460336,N,00949.4139708,E,2,4,3.0,-6.654,M,40.592,M,2.0,0123*5D
$GPVTG,071.74,T,-568.16,M,004.031,N,007.465,K,D*04
$GPGGA,093802.40,5702.9460547,N,00949.4140656,E,2,4,3.0,-6.662,M,40.592,M,2.0,0123*5E
$GPVTG,071.26,T,-568.64,M,004.012,N,007.430,K,D*07
$GPGGA,093802.45,5702.9460450,N,00949.4141677,E,2,4,3.0,-6.632,M,40.592,M,2.2,0123*59
$GPVTG,070.63,T,-569.27,M,003.976,N,007.363,K,D*0C
$GPGGA,093802.50,5702.9460740,N,00949.4142653,E,2,4,3.0,-6.648,M,40.592,M,2.2,0123*57
$GPVTG,069.56,T,-570.34,M,004.021,N,007.448,K,D*0A
$GPGGA,093802.55,5702.9460942,N,00949.4143659,E,2,4,3.0,-6.666,M,40.592,M,2.2,0123*59
$GPVTG,069.66,T,-570.24,M,004.073,N,007.543,K,D*05
$GPGGA,093802.60,5702.9461110,N,00949.4144666,E,2,4,3.0,-6.687,M,40.592,M,2.2,0123*55
$GPVTG,070.07,T,-569.83,M,004.109,N,007.610,K,D*06
$GPGGA,093802.65,5702.9460680,N,00949.4145788,E,2,4,3.0,-6.651,M,40.592,M,2.4,0123*52
$GPVTG,071.59,T,-568.31,M,004.075,N,007.548,K,D*00
$GPGGA,093802.70,5702.9461000,N,00949.4146757,E,2,4,3.0,-6.660,M,40.592,M,2.4,0123*5A
$GPVTG,070.08,T,-569.82,M,004.102,N,007.597,K,D*0F
$GPGGA,093802.75,5702.9461206,N,00949.4147733,E,2,4,3.0,-6.666,M,40.592,M,2.4,0123*5E
$GPVTG,069.90,T,-570.00,M,004.106,N,007.603,K,D*0E
$GPGGA,093802.80,5702.9461317,N,00949.4148660,E,2,4,3.0,-6.670,M,40.592,M,2.4,0123*5A
$GPVTG,070.39,T,-569.51,M,004.031,N,007.465,K,D*0E
$GPGGA,093802.85,5702.9461136,N,00949.4149687,E,2,4,3.0,-6.642,M,40.592,M,2.7,0123*54
$GPVTG,070.68,T,-569.22,M,004.006,N,007.419,K,D*01
$GPGGA,093802.90,5702.9461331,N,00949.4150609,E,2,4,3.0,-6.650,M,40.592,M,2.7,0123*58
$GPVTG,070.31,T,-569.59,M,003.960,N,007.334,K,D*07
$GPGGA,093802.95,5702.9461540,N,00949.4151563,E,2,4,3.0,-6.663,M,40.592,M,2.7,0123*53
$GPVTG,070.03,T,-569.87,M,003.962,N,007.337,K,D*04
$GPGGA,093803.00,5702.9461804,N,00949.4152546,E,2,4,3.0,-6.681,M,40.592,M,2.7,0123*5B
$GPVTG,069.40,T,-570.50,M,004.011,N,007.428,K,D*0A
$GPGGA,093803.05,5702.9461659,N,00949.4153695,E,2,4,3.0,-6.651,M,40.592,M,1.6,0123*5B
$GPVTG,068.86,T,-571.04,M,004.122,N,007.633,K,D*08
$GPGGA,093803.10,5702.9461734,N,00949.4154693,E,2,4,3.0,-6.670,M,40.592,M,1.6,0123*57
$GPVTG,070.23,T,-569.67,M,004.119,N,007.629,K,D*01
$GPGGA,093803.15,5702.9461983,N,00949.4155614,E,2,4,3.0,-6.682,M,40.592,M,1.6,0123*53
$GPVTG,069.32,T,-570.58,M,004.073,N,007.544,K,D*08
$GPGGA,093803.20,5702.9462281,N,00949.4156619,E,2,4,3.0,-6.702,M,40.592,M,1.6,0123*58
$GPVTG,068.51,T,-571.39,M,004.141,N,007.669,K,D*06
$GPGGA,093803.25,5702.9461772,N,00949.4157666,E,2,4,3.0,-6.654,M,40.592,M,1.9,0123*53
$GPVTG,069.90,T,-570.00,M,004.001,N,007.409,K,D*00
$GPGGA,093803.30,5702.9462059,N,00949.4158588,E,2,4,3.0,-6.662,M,40.592,M,1.9,0123*53
$GPVTG,068.65,T,-571.25,M,003.983,N,007.377,K,D*07
$GPGGA,093803.35,5702.9462237,N,00949.4159585,E,2,4,3.0,-6.673,M,40.592,M,1.9,0123*50
$GPVTG,069.07,T,-570.83,M,004.025,N,007.455,K,D*0A
$GPGGA,093803.40,5702.9462351,N,00949.4160582,E,2,4,3.0,-6.682,M,40.592,M,1.9,0123*50
$GPVTG,070.07,T,-569.83,M,004.046,N,007.492,K,D*04
$GPGGA,093803.45,5702.9462083,N,00949.4161620,E,2,4,3.0,-6.652,M,40.592,M,2.1,0123*55
$GPVTG,071.64,T,-568.26,M,004.006,N,007.418,K,D*08
$GPGGA,093803.50,5702.9462261,N,00949.4162559,E,2,4,3.0,-6.666,M,40.592,M,2.1,0123*56
$GPVTG,071.50,T,-568.40,M,003.974,N,007.359,K,D*06
$GPGGA,093803.55,5702.9462444,N,00949.4163513,E,2,4,3.0,-6.680,M,40.592,M,2.1,0123*55
$GPVTG,071.39,T,-568.51,M,003.968,N,007.349,K,D*05
$GPGGA,093803.60,5702.9462644,N,00949.4164473,E,2,4,3.0,-6.691,M,40.592,M,2.1,0123*51
$GPVTG,071.07,T,-568.83,M,003.976,N,007.364,K,D*07
$GPGGA,093803.65,5702.9462298,N,00949.4165614,E,2,4,3.0,-6.650,M,40.592,M,2.3,0123*5C
$GPVTG,071.53,T,-568.37,M,004.027,N,007.458,K,D*0B
$GPGGA,093803.70,5702.9462511,N,00949.4166598,E,2,4,3.0,-6.664,M,40.592,M,2.3,0123*5D
$GPVTG,071.42,T,-568.48,M,004.051,N,007.502,K,D*0C
$GPGGA,093803.75,5702.9462753,N,00949.4167592,E,2,4,3.0,-6.676,M,40.592,M,2.3,0123*54
$GPVTG,071.15,T,-568.75,M,004.086,N,007.567,K,D*09
$GPGGA,093803.80,5702.9462922,N,00949.4168538,E,2,4,3.0,-6.688,M,40.592,M,2.3,0123*58
$GPVTG,071.11,T,-568.79,M,004.052,N,007.504,K,D*0D
$GPGGA,093803.85,5702.9462645,N,00949.4169641,E,2,4,3.0,-6.649,M,40.592,M,2.6,0123*57
$GPVTG,071.25,T,-568.65,M,004.058,N,007.516,K,D*0E
$GPGGA,093803.90,5702.9462833,N,00949.4170620,E,2,4,3.0,-6.662,M,40.592,M,2.6,0123*5A
$GPVTG,071.25,T,-568.65,M,004.065,N,007.529,K,D*0C
$GPGGA,093803.95,5702.9462938,N,00949.4171559,E,2,4,3.0,-6.670,M,40.592,M,2.6,0123*5A
$GPVTG,071.71,T,-568.19,M,004.010,N,007.426,K,D*0A
$GPGGA,093804.00,5702.9463105,N,00949.4172542,E,2,4,3.0,-6.679,M,40.592,M,2.6,0123*56
$GPVTG,071.90,T,-568.00,M,004.022,N,007.449,K,D*05
$GPGGA,093804.05,5702.9462993,N,00949.4173590,E,2,4,3.0,-6.647,M,40.592,M,2.8,0123*58
$GPVTG,070.52,T,-569.38,M,004.036,N,007.475,K,D*0A
$GPGGA,093804.10,5702.9463056,N,00949.4174545,E,2,4,3.0,-6.663,M,40.592,M,2.8,0123*54
$GPVTG,071.61,T,-568.29,M,003.993,N,007.394,K,D*03
$GPGGA,093804.15,5702.9463220,N,00949.4175497,E,2,4,3.0,-6.676,M,40.592,M,2.8,0123*59
$GPVTG,071.68,T,-568.22,M,003.974,N,007.359,K,D*09
$GPGGA,093804.20,5702.9463279,N,00949.4176488,E,2,4,3.0,-6.691,M,40.592,M,2.8,0123*57
$GPVTG,072.97,T,-566.93,M,003.978,N,007.367,K,D*0F
$GPGGA,093804.25,5702.9462971,N,00949.4177599,E,2,4,3.0,-6.647,M,40.592,M,3.0,0123*52
$GPVTG,072.40,T,-567.50,M,004.010,N,007.426,K,D*09
$GPGGA,093804.30,5702.9463182,N,00949.4178610,E,2,4,3.0,-6.661,M,40.592,M,3.0,0123*5A
$GPVTG,072.25,T,-567.65,M,004.063,N,007.525,K,D*0A
$GPGGA,093804.35,5702.9463232,N,00949.4179567,E,2,4,3.0,-6.671,M,40.592,M,3.0,0123*54
$GPVTG,073.41,T,-566.49,M,004.014,N,007.435,K,D*06
$GPGGA,093804.40,5702.9463493,N,00949.4180522,E,2,4,3.0,-6.679,M,40.592,M,3.0,0123*54
$GPVTG,072.41,T,-567.49,M,004.011,N,007.429,K,D*0E
$GPGGA,093804.45,5702.9463428,N,00949.4181602,E,2,4,3.0,-6.652,M,40.592,M,3.2,0123*5A
$GPVTG,072.33,T,-567.57,M,004.031,N,007.466,K,D*0D
$GPGGA,093804.50,5702.9463653,N,00949.4182540,E,2,4,3.0,-6.666,M,40.592,M,3.2,0123*51
$GPVTG,071.60,T,-568.30,M,004.002,N,007.412,K,D*05
$GPGGA,093804.55,5702.9463884,N,00949.4183523,E,2,4,3.0,-6.678,M,40.592,M,3.2,0123*5B
$GPVTG,071.12,T,-568.78,M,004.030,N,007.464,K,D*0C
$GPGGA,093804.60,5702.9463955,N,00949.4184501,E,2,4,3.0,-6.686,M,40.592,M,3.2,0123*56
$GPVTG,072.25,T,-567.65,M,004.014,N,007.433,K,D*0C
$GPGGA,093804.65,5702.9463735,N,00949.4185553,E,2,4,3.0,-6.650,M,40.592,M,3.4,0123*50
$GPVTG,070.98,T,-568.92,M,004.003,N,007.414,K,D*0C
$GPGGA,093804.70,5702.9463913,N,00949.4186493,E,2,4,3.0,-6.663,M,40.592,M,3.4,0123*50
$GPVTG,070.84,T,-569.06,M,003.973,N,007.359,K,D*0A
$GPGGA,093804.75,5702.9464160,N,00949.4187514,E,2,4,3.0,-6.677,M,40.592,M,3.4,0123*54
$GPVTG,070.48,T,-569.42,M,004.056,N,007.512,K,D*0A
$GPGGA,093804.80,5702.9464290,N,00949.4188474,E,2,4,3.0,-6.689,M,40.592,M,3.4,0123*5B
$GPVTG,070.95,T,-568.95,M,004.032,N,007.468,K,D*0F
$GPGGA,093804.85,5702.9463939,N,00949.4189566,E,2,4,3.0,-6.659,M,40.592,M,3.6,0123*5D
$GPVTG,073.61,T,-566.29,M,003.999,N,007.406,K,D*09
$GPGGA,093804.90,5702.9464139,N,00949.4190530,E,2,4,3.0,-6.671,M,40.592,M,3.6,0123*57
$GPVTG,073.21,T,-566.69,M,003.995,N,007.400,K,D*03
$GPGGA,093804.95,5702.9464479,N,00949.4191483,E,2,4,3.0,-6.679,M,40.592,M,3.6,0123*53
$GPVTG,071.35,T,-568.55,M,004.014,N,007.434,K,D*05
$GPGGA,093805.00,5702.9464654,N,00949.4192492,E,2,4,3.0,-6.692,M,40.592,M,3.6,0123*55
$GPVTG,071.59,T,-568.31,M,004.058,N,007.515,K,D*07
$GPGGA,093805.05,5702.9464518,N,00949.4193501,E,2,4,3.0,-6.668,M,40.592,M,1.9,0123*59
$GPVTG,069.58,T,-570.32,M,004.034,N,007.471,K,D*0C
$GPGGA,093805.10,5702.9464820,N,00949.4194476,E,2,4,3.0,-6.689,M,40.592,M,1.9,0123*52
$GPVTG,068.44,T,-571.46,M,004.077,N,007.551,K,D*06
$GPGGA,093805.15,5702.9464833,N,00949.4195453,E,2,4,3.0,-6.709,M,40.592,M,1.9,0123*5A
$GPVTG,070.29,T,-569.61,M,004.041,N,007.483,K,D*03
$GPGGA,093805.20,5702.9464906,N,00949.4196456,E,2,4,3.0,-6.723,M,40.592,M,1.9,0123*55
$GPVTG,071.58,T,-568.32,M,004.052,N,007.505,K,D*0E
$GPGGA,093805.25,5702.9464207,N,00949.4197607,E,2,4,3.0,-6.659,M,40.592,M,2.2,0123*59
$GPVTG,073.64,T,-566.26,M,003.994,N,007.398,K,D*0E
$GPGGA,093805.30,5702.9464637,N,00949.4198593,E,2,4,3.0,-6.663,M,40.592,M,2.2,0123*52
$GPVTG,070.95,T,-568.95,M,004.071,N,007.540,K,D*03
$GPGGA,093805.35,5702.9464898,N,00949.4199574,E,2,4,3.0,-6.664,M,40.592,M,2.2,0123*53
$GPVTG,070.19,T,-569.71,M,004.098,N,007.589,K,D*0E
$GPGGA,093805.40,5702.9465027,N,00949.4200575,E,2,4,3.0,-6.668,M,40.592,M,2.2,0123*52
$GPVTG,070.87,T,-569.03,M,004.110,N,007.612,K,D*0C
$GPGGA,093805.45,5702.9465282,N,00949.4201496,E,2,4,3.0,-6.675,M,40.592,M,2.4,0123*5D
$GPVTG,071.50,T,-568.40,M,004.038,N,007.478,K,D*04
$GPGGA,093805.50,5702.9465537,N,00949.4202498,E,2,4,3.0,-6.690,M,40.592,M,2.4,0123*56
$GPVTG,070.85,T,-569.05,M,004.088,N,007.570,K,D*0F
$GPGGA,093805.55,5702.9465708,N,00949.4203418,E,2,4,3.0,-6.706,M,40.592,M,2.4,0123*5A
$GPVTG,070.65,T,-569.25,M,004.020,N,007.446,K,D*05
$GPGGA,093805.60,5702.9466010,N,00949.4204394,E,2,4,3.0,-6.725,M,40.592,M,2.4,0123*54
$GPVTG,069.50,T,-570.40,M,004.058,N,007.515,K,D*08
$GPGGA,093805.65,5702.9465400,N,00949.4205505,E,2,4,3.0,-6.677,M,40.592,M,2.7,0123*5D
$GPVTG,069.76,T,-570.14,M,004.025,N,007.454,K,D*03
$GPGGA,093805.70,5702.9465559,N,00949.4206477,E,2,4,3.0,-6.689,M,40.592,M,2.7,0123*52
$GPVTG,070.09,T,-569.81,M,004.024,N,007.453,K,D*01
$GPGGA,093805.75,5702.9465681,N,00949.4207494,E,2,4,3.0,-6.703,M,40.592,M,2.7,0123*5E
$GPVTG,071.01,T,-568.89,M,004.064,N,007.526,K,D*06
$GPGGA,093805.80,5702.9465865,N,00949.4208467,E,2,4,3.0,-6.715,M,40.592,M,2.7,0123*54
$GPVTG,070.99,T,-568.91,M,004.063,N,007.525,K,D*0B
$GPGGA,093805.85,5702.9465624,N,00949.4209482,E,2,4,3.0,-6.679,M,40.592,M,2.9,0123*55
$GPVTG,069.67,T,-570.23,M,004.012,N,007.431,K,D*00
$GPGGA,093805.90,5702.9465714,N,00949.4210459,E,2,4,3.0,-6.693,M,40.592,M,2.9,0123*59
$GPVTG,070.78,T,-569.12,M,004.003,N,007.414,K,D*0B
$GPGGA,093805.95,5702.9465989,N,00949.4211449,E,2,4,3.0,-6.704,M,40.592,M,2.9,0123*59
$GPVTG,069.98,T,-569.92,M,004.054,N,007.509,K,D*0A
$GPGGA,093806.00,5702.9466094,N,00949.4212423,E,2,4,3.0,-6.715,M,40.592,M,2.9,0123*5F
$GPVTG,070.83,T,-569.07,M,004.040,N,007.481,K,D*00
$GPGGA,093806.05,5702.9465882,N,00949.4213489,E,2,4,3.0,-6.681,M,40.592,M,1.7,0123*56
$GPVTG,071.09,T,-568.81,M,004.023,N,007.451,K,D*04
$GPGGA,093806.10,5702.9466046,N,00949.4214453,E,2,4,3.0,-6.698,M,40.592,M,1.7,0123*59
$GPVTG,071.26,T,-568.64,M,004.014,N,007.435,K,D*04
$GPGGA,093806.15,5702.9466322,N,00949.4215410,E,2,4,3.0,-6.714,M,40.592,M,1.7,0123*5E
$GPVTG,070.23,T,-569.67,M,004.026,N,007.455,K,D*05
$GPGGA,093806.20,5702.9466520,N,00949.4216391,E,2,4,3.0,-6.731,M,40.592,M,1.7,0123*56
$GPVTG,070.19,T,-569.71,M,004.045,N,007.492,K,D*05
$GPGGA,093806.25,5702.9466102,N,00949.4217516,E,2,4,3.0,-6.680,M,40.592,M,2.0,0123*50
$GPVTG,070.02,T,-569.88,M,004.061,N,007.520,K,D*07
$GPGGA,093806.30,5702.9466231,N,00949.4218453,E,2,4,3.0,-6.688,M,40.592,M,2.0,0123*50
$GPVTG,070.46,T,-569.44,M,004.009,N,007.425,K,D*0D
$GPGGA,093806.35,5702.9466448,N,00949.4219405,E,2,4,3.0,-6.701,M,40.592,M,2.0,0123*5F
$GPVTG,070.07,T,-569.83,M,004.004,N,007.415,K,D*0D
$GPGGA,093806.40,5702.9466612,N,00949.4220368,E,2,4,3.0,-6.713,M,40.592,M,2.0,0123*55
$GPVTG,070.30,T,-569.60,M,004.000,N,007.407,K,D*03
$GPGGA,093806.45,5702.9466326,N,00949.4221417,E,2,4,3.0,-6.683,M,40.592,M,2.2,0123*56
$GPVTG,071.60,T,-568.30,M,003.965,N,007.344,K,D*0E
$GPGGA,093806.50,5702.9466458,N,00949.4222409,E,2,4,3.0,-6.694,M,40.592,M,2.2,0123*56
$GPVTG,072.28,T,-567.62,M,003.989,N,007.388,K,D*0B
$GPGGA,093806.55,5702.9466668,N,00949.4223331,E,2,4,3.0,-6.705,M,40.592,M,2.2,0123*56
$GPVTG,071.71,T,-568.19,M,003.950,N,007.315,K,D*07
$GPGGA,093806.60,5702.9466831,N,00949.4224284,E,2,4,3.0,-6.721,M,40.592,M,2.2,0123*5C
$GPVTG,071.82,T,-568.08,M,003.941,N,007.298,K,D*0F
$GPGGA,093806.65,5702.9466372,N,00949.4225422,E,2,4,3.0,-6.671,M,40.592,M,2.4,0123*5C
$GPVTG,071.00,T,-568.90,M,004.003,N,007.413,K,D*09
$GPGGA,093806.70,5702.9466520,N,00949.4226419,E,2,4,3.0,-6.679,M,40.592,M,2.4,0123*5A
$GPVTG,071.53,T,-568.37,M,004.033,N,007.469,K,D*0C
$GPGGA,093806.75,5702.9466567,N,00949.4227413,E,2,4,3.0,-6.692,M,40.592,M,2.4,0123*52
$GPVTG,073.00,T,-566.90,M,004.033,N,007.469,K,D*0B
$GPGGA,093806.80,5702.9466707,N,00949.4228383,E,2,4,3.0,-6.706,M,40.592,M,2.4,0123*51
$GPVTG,073.30,T,-566.60,M,004.022,N,007.450,K,D*0D
$GPGGA,093806.85,5702.9466694,N,00949.4229465,E,2,4,3.0,-6.675,M,40.592,M,2.7,0123*57
$GPVTG,071.03,T,-568.87,M,004.083,N,007.562,K,D*03
$GPGGA,093806.90,5702.9466873,N,00949.4230468,E,2,4,3.0,-6.687,M,40.592,M,2.7,0123*5C
$GPVTG,071.20,T,-568.70,M,004.112,N,007.616,K,D*03
$GPGGA,093806.95,5702.9467136,N,00949.4231416,E,2,4,3.0,-6.691,M,40.592,M,2.7,0123*5F
$GPVTG,070.22,T,-569.68,M,004.096,N,007.586,K,D*0F
$GPGGA,093807.00,5702.9466994,N,00949.4232317,E,2,4,3.0,-6.699,M,40.592,M,2.7,0123*5E
$GPVTG,073.12,T,-566.78,M,003.937,N,007.292,K,D*06
$GPGGA,093807.05,5702.9466855,N,00949.4233333,E,2,4,3.0,-6.673,M,40.592,M,1.6,0123*56
$GPVTG,073.16,T,-566.74,M,003.898,N,007.219,K,D*09
$GPGGA,093807.10,5702.9467040,N,00949.4234290,E,2,4,3.0,-6.687,M,40.592,M,1.6,0123*5B
$GPVTG,072.97,T,-566.93,M,003.900,N,007.223,K,D*01
$GPGGA,093807.15,5702.9467250,N,00949.4235240,E,2,4,3.0,-6.702,M,40.592,M,1.6,0123*5D
$GPVTG,072.49,T,-567.41,M,003.902,N,007.227,K,D*0A
$GPGGA,093807.20,5702.9467363,N,00949.4236240,E,2,4,3.0,-6.719,M,40.592,M,1.6,0123*53
$GPVTG,073.31,T,-566.59,M,003.939,N,007.296,K,D*0E
$GPGGA,093807.25,5702.9467141,N,00949.4237370,E,2,4,3.0,-6.679,M,40.592,M,1.9,0123*5F
$GPVTG,071.49,T,-568.41,M,004.025,N,007.455,K,D*0E
$GPGGA,093807.30,5702.9467322,N,00949.4238334,E,2,4,3.0,-6.694,M,40.592,M,1.9,0123*50
$GPVTG,071.42,T,-568.48,M,004.023,N,007.451,K,D*0E
$GPGGA,093807.35,5702.9467404,N,00949.4239294,E,2,4,3.0,-6.711,M,40.592,M,1.9,0123*50
$GPVTG,072.35,T,-567.55,M,003.993,N,007.396,K,D*07
$GPGGA,093807.40,5702.9467502,N,00949.4240292,E,2,4,3.0,-6.725,M,40.592,M,1.9,0123*5A
$GPVTG,073.26,T,-566.64,M,004.012,N,007.431,K,D*0A
$GPGGA,093807.45,5702.9467324,N,00949.4241406,E,2,4,3.0,-6.683,M,40.592,M,2.1,0123*51
$GPVTG,071.77,T,-568.14,M,004.047,N,007.496,K,D*08
$GPGGA,093807.50,5702.9467588,N,00949.4242333,E,2,4,3.0,-6.690,M,40.592,M,2.1,0123*55
$GPVTG,070.57,T,-569.33,M,004.019,N,007.443,K,D*0C
$GPGGA,093807.55,5702.9467707,N,00949.4243315,E,2,4,3.0,-6.699,M,40.592,M,2.1,0123*59
$GPVTG,071.28,T,-568.62,M,004.021,N,007.447,K,D*0F
$GPGGA,093807.60,5702.9467812,N,00949.4244240,E,2,4,3.0,-6.707,M,40.592,M,2.1,0123*54
$GPVTG,071.79,T,-568.11,M,003.958,N,007.329,K,D*00
$GPGGA,093807.65,5702.9467684,N,00949.4245262,E,2,4,3.0,-6.682,M,40.592,M,2.3,0123*5F
$GPVTG,072.70,T,-567.20,M,003.915,N,007.251,K,D*00
$GPGGA,093807.70,5702.9467859,N,00949.4246217,E,2,4,3.0,-6.693,M,40.592,M,2.3,0123*54
$GPVTG,072.62,T,-567.28,M,003.915,N,007.250,K,D*0A
$GPGGA,093807.75,5702.9468181,N,00949.4247163,E,2,4,3.0,-6.706,M,40.592,M,2.3,0123*5E
$GPVTG,070.95,T,-568.95,M,003.940,N,007.296,K,D*03
$GPGGA,093807.80,5702.9468362,N,00949.4248185,E,2,4,3.0,-6.721,M,40.592,M,2.3,0123*59
$GPVTG,071.27,T,-568.63,M,004.016,N,007.438,K,D*0D
$GPGGA,093807.85,5702.9468114,N,00949.4249309,E,2,4,3.0,-6.693,M,40.592,M,2.6,0123*55
$GPVTG,070.76,T,-569.14,M,004.094,N,007.583,K,D*02
$GPGGA,093807.90,5702.9468315,N,00949.4250220,E,2,4,3.0,-6.708,M,40.592,M,2.6,0123*53
$GPVTG,070.20,T,-569.70,M,004.029,N,007.462,K,D*0B
$GPGGA,093807.95,5702.9468459,N,00949.4251222,E,2,4,3.0,-6.721,M,40.592,M,2.6,0123*51
$GPVTG,070.79,T,-569.11,M,004.062,N,007.523,K,D*0B
$GPGGA,093808.00,5702.9468721,N,00949.4252178,E,2,4,3.0,-6.734,M,40.592,M,2.6,0123*55
$GPVTG,069.90,T,-570.00,M,004.067,N,007.532,K,D*09
$GPGGA,093808.05,5702.9468442,N,00949.4253274,E,2,4,3.0,-6.702,M,40.592,M,2.8,0123*53
$GPVTG,070.96,T,-568.94,M,004.057,N,007.514,K,D*04
$GPGGA,093808.10,5702.9468614,N,00949.4254200,E,2,4,3.0,-6.708,M,40.592,M,2.8,0123*58
$GPVTG,070.80,T,-569.10,M,004.004,N,007.416,K,D*0B
$GPGGA,093808.15,5702.9468958,N,00949.4255155,E,2,4,3.0,-6.719,M,40.592,M,2.8,0123*58
$GPVTG,069.09,T,-570.81,M,004.036,N,007.476,K,D*05
$GPGGA,093808.20,5702.9469202,N,00949.4256073,E,2,4,3.0,-6.732,M,40.592,M,2.8,0123*54
$GPVTG,068.28,T,-571.62,M,004.004,N,007.415,K,D*0F
$GPGGA,093808.25,5702.9468973,N,00949.4257147,E,2,4,3.0,-6.702,M,40.592,M,3.0,0123*50
$GPVTG,068.98,T,-570.92,M,004.009,N,007.425,K,D*04
$GPGGA,093808.30,5702.9469087,N,00949.4258163,E,2,4,3.0,-6.719,M,40.592,M,3.0,0123*54
$GPVTG,070.12,T,-569.78,M,004.055,N,007.510,K,D*0D
$GPGGA,093808.35,5702.9469316,N,00949.4259112,E,2,4,3.0,-6.735,M,40.592,M,3.0,0123*53
$GPVTG,069.60,T,-570.30,M,004.047,N,007.494,K,D*0A
$GPGGA,093808.40,5702.9469588,N,00949.4260056,E,2,4,3.0,-6.749,M,40.592,M,3.0,0123*50
$GPVTG,068.66,T,-571.24,M,004.048,N,007.498,K,D*0A
$GPGGA,093808.45,5702.9469181,N,00949.4261146,E,2,4,3.0,-6.707,M,40.592,M,3.2,0123*51
$GPVTG,068.71,T,-571.19,M,004.041,N,007.483,K,D*01
$GPGGA,093808.50,5702.9469496,N,00949.4262090,E,2,4,3.0,-6.715,M,40.592,M,3.2,0123*5C
$GPVTG,067.36,T,-572.54,M,004.059,N,007.517,K,D*02
$GPGGA,093808.55,5702.9469491,N,00949.4263102,E,2,4,3.0,-6.729,M,40.592,M,3.2,0123*5A
$GPVTG,069.76,T,-570.14,M,004.063,N,007.525,K,D*06
$GPGGA,093808.60,5702.9469779,N,00949.4264053,E,2,4,3.0,-6.743,M,40.592,M,3.2,0123*57
$GPVTG,068.72,T,-571.18,M,004.073,N,007.543,K,D*0F
$GPGGA,093808.65,5702.9469513,N,00949.4265040,E,2,4,3.0,-6.723,M,40.592,M,3.4,0123*5F
$GPVTG,070.83,T,-569.07,M,003.944,N,007.303,K,D*07
$GPGGA,093808.70,5702.9469653,N,00949.4265995,E,2,4,3.0,-6.735,M,40.592,M,3.4,0123*5A
$GPVTG,071.31,T,-568.59,M,003.934,N,007.286,K,D*0E
$GPGGA,093808.75,5702.9469927,N,00949.4267029,E,2,4,3.0,-6.756,M,40.592,M,3.4,0123*5A
$GPVTG,070.78,T,-569.12,M,004.047,N,007.495,K,D*02
$GPGGA,093808.80,5702.9470288,N,00949.4267962,E,2,4,3.0,-6.767,M,40.592,M,3.4,0123*52
$GPVTG,068.84,T,-571.06,M,004.057,N,007.513,K,D*0A
$GPGGA,093808.85,5702.9469846,N,00949.4269035,E,2,4,3.0,-6.724,M,40.592,M,3.6,0123*57
$GPVTG,069.50,T,-570.40,M,004.012,N,007.431,K,D*01
$GPGGA,093808.90,5702.9470142,N,00949.4270026,E,2,4,3.0,-6.732,M,40.592,M,3.6,0123*5B
$GPVTG,068.62,T,-571.28,M,004.079,N,007.554,K,D*01
$GPGGA,093808.95,5702.9470328,N,00949.4271019,E,2,4,3.0,-6.745,M,40.592,M,3.6,0123*5D
$GPVTG,068.90,T,-571.00,M,004.108,N,007.607,K,D*04
$GPGGA,093809.00,5702.9470330,N,00949.4271953,E,2,4,3.0,-6.758,M,40.592,M,3.6,0123*52
$GPVTG,070.64,T,-569.26,M,004.021,N,007.447,K,D*07
$GPGGA,093809.05,5702.9470065,N,00949.4273056,E,2,4,3.0,-6.729,M,40.592,M,1.9,0123*51
$GPVTG,071.15,T,-568.75,M,004.061,N,007.522,K,D*01
$GPGGA,093809.10,5702.9470375,N,00949.4274027,E,2,4,3.0,-6.740,M,40.592,M,1.9,0123*59
$GPVTG,069.86,T,-570.04,M,004.094,N,007.582,K,D*0D
$GPGGA,093809.15,5702.9470504,N,00949.4274977,E,2,4,3.0,-6.753,M,40.592,M,1.9,0123*52
$GPVTG,070.37,T,-569.53,M,004.054,N,007.507,K,D*04
$GPGGA,093809.20,5702.9470682,N,00949.4275956,E,2,4,3.0,-6.762,M,40.592,M,1.9,0123*59
$GPVTG,070.53,T,-569.37,M,004.061,N,007.521,K,D*06
$GPGGA,093809.25,5702.9470578,N,00949.4277002,E,2,4,3.0,-6.736,M,40.592,M,2.2,0123*59
$GPVTG,070.63,T,-569.27,M,004.045,N,007.492,K,D*0B
$GPGGA,093809.30,5702.9470833,N,00949.4277927,E,2,4,3.0,-6.747,M,40.592,M,2.2,0123*57
$GPVTG,069.66,T,-570.24,M,004.014,N,007.433,K,D*02
$GPGGA,093809.35,5702.9471062,N,00949.4278916,E,2,4,3.0,-6.761,M,40.592,M,2.2,0123*56
$GPVTG,069.43,T,-570.47,M,004.053,N,007.505,K,D*07
$GPGGA,093809.40,5702.9471252,N,00949.4279864,E,2,4,3.0,-6.777,M,40.592,M,2.2,0123*57
$GPVTG,069.37,T,-570.53,M,004.033,N,007.469,K,D*0C
$GPGGA,093809.45,5702.9470963,N,00949.4280971,E,2,4,3.0,-6.742,M,40.592,M,2.4,0123*59
$GPVTG,069.98,T,-569.92,M,004.043,N,007.487,K,D*0B
$GPGGA,093809.50,5702.9471081,N,00949.4281963,E,2,4,3.0,-6.757,M,40.592,M,2.4,0123*5F
$GPVTG,070.89,T,-569.01,M,004.053,N,007.506,K,D*00
$GPGGA,093809.55,5702.9471214,N,00949.4282909,E,2,4,3.0,-6.770,M,40.592,M,2.4,0123*5E
$GPVTG,071.31,T,-568.59,M,004.013,N,007.432,K,D*0C
$GPGGA,093809.60,5702.9471364,N,00949.4283860,E,2,4,3.0,-6.780,M,40.592,M,2.4,0123*5E
$GPVTG,071.58,T,-568.32,M,003.987,N,007.385,K,D*06
$GPGGA,093809.65,5702.9471013,N,00949.4284879,E,2,4,3.0,-6.744,M,40.592,M,2.7,0123*5C
$GPVTG,071.21,T,-568.69,M,003.927,N,007.273,K,D*04
$GPGGA,093809.70,5702.9471306,N,00949.4285869,E,2,4,3.0,-6.755,M,40.592,M,2.7,0123*5F
$GPVTG,070.21,T,-569.69,M,003.997,N,007.403,K,D*0E
$GPGGA,093809.75,5702.9471501,N,00949.4286815,E,2,4,3.0,-6.764,M,40.592,M,2.7,0123*51
$GPVTG,070.06,T,-569.84,M,003.984,N,007.378,K,D*01
$GPGGA,093809.80,5702.9471634,N,00949.4287759,E,2,4,3.0,-6.776,M,40.592,M,2.7,0123*5B
$GPVTG,070.55,T,-569.35,M,003.956,N,007.327,K,D*08
$GPGGA,093809.85,5702.9471678,N,00949.4288842,E,2,4,3.0,-6.757,M,40.592,M,2.9,0123*51
$GPVTG,070.80,T,-569.10,M,004.014,N,007.433,K,D*0D
$GPGGA,093809.90,5702.9471807,N,00949.4289811,E,2,4,3.0,-6.773,M,40.592,M,2.9,0123*52
$GPVTG,071.44,T,-568.46,M,004.007,N,007.421,K,D*07
$GPGGA,093809.95,5702.9472122,N,00949.4290777,E,2,4,3.0,-6.787,M,40.592,M,2.9,0123*56
$GPVTG,070.10,T,-569.80,M,004.043,N,007.487,K,D*00
$GPGGA,093810.00,5702.9472346,N,00949.4291695,E,2,4,3.0,-6.798,M,40.592,M,2.9,0123*50
$GPVTG,069.48,T,-570.42,M,004.002,N,007.412,K,D*0A
$GPGGA,093810.05,5702.9472078,N,00949.4292817,E,2,4,3.0,-6.761,M,40.592,M,1.7,0123*57
$GPVTG,069.48,T,-570.42,M,004.052,N,007.504,K,D*09
$GPGGA,093810.10,5702.9472113,N,00949.4293775,E,2,4,3.0,-6.775,M,40.592,M,1.7,0123*50
$GPVTG,071.10,T,-568.80,M,004.006,N,007.418,K,D*07
$GPGGA,093810.15,5702.9472249,N,00949.4294765,E,2,4,3.0,-6.790,M,40.592,M,1.7,0123*54
$GPVTG,071.73,T,-568.17,M,004.024,N,007.453,K,D*03
$GPGGA,093810.20,5702.9472451,N,00949.4295686,E,2,4,3.0,-6.802,M,40.592,M,1.7,0123*54
$GPVTG,071.28,T,-568.62,M,003.978,N,007.368,K,D*07
$GPGGA,093810.25,5702.9472176,N,00949.4296812,E,2,4,3.0,-6.766,M,40.592,M,2.0,0123*58
$GPVTG,070.91,T,-568.99,M,004.051,N,007.502,K,D*0F
$GPGGA,093810.30,5702.9472411,N,00949.4297755,E,2,4,3.0,-6.777,M,40.592,M,2.0,0123*55
$GPVTG,070.25,T,-569.65,M,004.036,N,007.474,K,D*03
$GPGGA,093810.35,5702.9472662,N,00949.4298707,E,2,4,3.0,-6.785,M,40.592,M,2.0,0123*53
$GPVTG,069.54,T,-570.36,M,004.038,N,007.478,K,D*01
$GPGGA,093810.40,5702.9472665,N,00949.4299673,E,2,4,3.0,-6.796,M,40.592,M,2.0,0123*57
$GPVTG,071.43,T,-568.47,M,003.994,N,007.398,K,D*00
$GPGGA,093810.45,5702.9472668,N,00949.4300732,E,2,4,3.0,-6.778,M,40.592,M,2.2,0123*58
$GPVTG,071.68,T,-568.22,M,004.018,N,007.442,K,D*00
$GPGGA,093810.50,5702.9472732,N,00949.4301732,E,2,4,3.0,-6.794,M,40.592,M,2.2,0123*51
$GPVTG,073.07,T,-566.83,M,004.028,N,007.461,K,D*0C
$GPGGA,093810.55,5702.9472904,N,00949.4302656,E,2,4,3.0,-6.804,M,40.592,M,2.2,0123*59
$GPVTG,072.86,T,-567.04,M,003.973,N,007.357,K,D*08
$GPGGA,093810.60,5702.9473224,N,00949.4303622,E,2,4,3.0,-6.815,M,40.592,M,2.2,0123*55
$GPVTG,071.36,T,-568.54,M,004.005,N,007.418,K,D*09
$GPGGA,093810.65,5702.9472977,N,00949.4304724,E,2,4,3.0,-6.782,M,40.592,M,2.4,0123*5B
$GPVTG,071.04,T,-568.86,M,004.028,N,007.460,K,D*07
$GPGGA,093810.70,5702.9473162,N,00949.4305705,E,2,4,3.0,-6.796,M,40.592,M,2.4,0123*55
$GPVTG,071.08,T,-568.82,M,004.043,N,007.487,K,D*0B
$GPGGA,093810.75,5702.9473240,N,00949.4306690,E,2,4,3.0,-6.809,M,40.592,M,2.4,0123*54
$GPVTG,072.20,T,-567.70,M,004.035,N,007.474,K,D*0D
$GPGGA,093810.80,5702.9473485,N,00949.4307659,E,2,4,3.0,-6.823,M,40.592,M,2.4,0123*5D
$GPVTG,071.51,T,-568.39,M,004.046,N,007.494,K,D*00
$GPGGA,093810.85,5702.9473259,N,00949.4308802,E,2,4,3.0,-6.789,M,40.592,M,2.7,0123*5C
$GPVTG,071.57,T,-568.33,M,004.106,N,007.605,K,D*03
$GPGGA,093810.90,5702.9473548,N,00949.4309742,E,2,4,3.0,-6.797,M,40.592,M,2.7,0123*5A
$GPVTG,070.25,T,-569.65,M,004.086,N,007.567,K,D*0B
$GPGGA,093810.95,5702.9473591,N,00949.4310706,E,2,4,3.0,-6.807,M,40.592,M,2.7,0123*55
$GPVTG,071.60,T,-568.30,M,004.038,N,007.478,K,D*00
$GPGGA,093811.00,5702.9473710,N,00949.4311636,E,2,4,3.0,-6.816,M,40.592,M,2.7,0123*50
$GPVTG,071.98,T,-567.92,M,003.977,N,007.365,K,D*0E
$GPGGA,093811.05,5702.9473675,N,00949.4312665,E,2,4,3.0,-6.785,M,40.592,M,1.6,0123*55
$GPVTG,070.92,T,-568.98,M,003.970,N,007.352,K,D*03
$GPGGA,093811.10,5702.9473803,N,00949.4313623,E,2,4,3.0,-6.793,M,40.592,M,1.6,0123*5A
$GPVTG,071.46,T,-568.44,M,003.953,N,007.321,K,D*0F
$GPGGA,093811.15,5702.9473833,N,00949.4314614,E,2,4,3.0,-6.804,M,40.592,M,1.6,0123*5E
$GPVTG,073.15,T,-566.75,M,003.953,N,007.321,K,D*07
$GPGGA,093811.20,5702.9473995,N,00949.4315637,E,2,4,3.0,-6.818,M,40.592,M,1.6,0123*58
$GPVTG,073.51,T,-566.39,M,004.017,N,007.440,K,D*01
$GPGGA,093811.25,5702.9474024,N,00949.4316657,E,2,4,3.0,-6.800,M,40.592,M,1.9,0123*5A
$GPVTG,071.30,T,-568.60,M,004.014,N,007.433,K,D*01
$GPGGA,093811.30,5702.9474324,N,00949.4317637,E,2,4,3.0,-6.816,M,40.592,M,1.9,0123*5D
$GPVTG,070.11,T,-569.79,M,004.059,N,007.517,K,D*04
$GPGGA,093811.35,5702.9474457,N,00949.4318601,E,2,4,3.0,-6.828,M,40.592,M,1.9,0123*5C
$GPVTG,070.58,T,-569.32,M,004.040,N,007.481,K,D*00
$GPGGA,093811.40,5702.9474701,N,00949.4319542,E,2,4,3.0,-6.845,M,40.592,M,1.9,0123*50
$GPVTG,069.83,T,-570.07,M,004.025,N,007.455,K,D*0A
$GPGGA,093811.45,5702.9474595,N,00949.4320757,E,2,4,3.0,-6.807,M,40.592,M,2.1,0123*5B
$GPVTG,069.87,T,-570.03,M,004.147,N,007.681,K,D*04
$GPGGA,093811.50,5702.9474865,N,00949.4321731,E,2,4,3.0,-6.817,M,40.592,M,2.1,0123*5D
$GPVTG,069.02,T,-570.88,M,004.161,N,007.707,K,D*01
$GPGGA,093811.55,5702.9474906,N,00949.4322643,E,2,4,3.0,-6.823,M,40.592,M,2.1,0123*5C
$GPVTG,070.13,T,-569.77,M,004.047,N,007.495,K,D*0C
$GPGGA,093811.60,5702.9474931,N,00949.4323625,E,2,4,3.0,-6.832,M,40.592,M,2.1,0123*5F
$GPVTG,071.80,T,-568.10,M,004.021,N,007.448,K,D*07
$GPGGA,093811.65,5702.9474692,N,00949.4324650,E,2,4,3.0,-6.812,M,40.592,M,2.3,0123*59
$GPVTG,071.98,T,-567.92,M,003.997,N,007.402,K,D*06
$GPGGA,093811.70,5702.9474931,N,00949.4325605,E,2,4,3.0,-6.821,M,40.592,M,2.3,0123*5A
$GPVTG,071.25,T,-568.65,M,003.996,N,007.401,K,D*05
$GPGGA,093811.75,5702.9475115,N,00949.4326567,E,2,4,3.0,-6.832,M,40.592,M,2.3,0123*56
$GPVTG,071.19,T,-568.71,M,003.992,N,007.394,K,D*00
$GPGGA,093811.80,5702.9475396,N,00949.4327573,E,2,4,3.0,-6.847,M,40.592,M,2.3,0123*53
$GPVTG,070.41,T,-569.49,M,004.061,N,007.520,K,D*0D
$GPGGA,093811.85,5702.9475498,N,00949.4328631,E,2,4,3.0,-6.824,M,40.592,M,2.6,0123*55
$GPVTG,069.01,T,-570.89,M,004.081,N,007.557,K,D*0B
$GPGGA,093811.90,5702.9475679,N,00949.4329620,E,2,4,3.0,-6.843,M,40.592,M,2.6,0123*5C
$GPVTG,069.25,T,-570.65,M,004.100,N,007.594,K,D*08
$GPGGA,093811.95,5702.9475813,N,00949.4330622,E,2,4,3.0,-6.858,M,40.592,M,2.6,0123*5B
$GPVTG,069.98,T,-569.92,M,004.117,N,007.625,K,D*01
$GPGGA,093812.00,5702.9475870,N,00949.4331559,E,2,4,3.0,-6.871,M,40.592,M,2.6,0123*54
$GPVTG,071.06,T,-568.84,M,004.041,N,007.483,K,D*05
$GPGGA,093812.05,5702.9475592,N,00949.4332617,E,2,4,3.0,-6.827,M,40.592,M,2.8,0123*57
$GPVTG,069.39,T,-570.51,M,004.020,N,007.444,K,D*0D
$GPGGA,093812.10,5702.9475846,N,00949.4333589,E,2,4,3.0,-6.834,M,40.592,M,2.8,0123*50
$GPVTG,068.79,T,-571.11,M,004.046,N,007.494,K,D*00
$GPGGA,093812.15,5702.9475885,N,00949.4334605,E,2,4,3.0,-6.847,M,40.592,M,2.8,0123*5E
$GPVTG,070.62,T,-569.28,M,004.064,N,007.527,K,D*09
$GPGGA,093812.20,5702.9475944,N,00949.4335598,E,2,4,3.0,-6.859,M,40.592,M,2.8,0123*5D
$GPVTG,071.98,T,-567.92,M,004.058,N,007.515,K,D*0C
$GPGGA,093812.25,5702.9476059,N,00949.4336614,E,2,4,3.0,-6.842,M,40.592,M,3.0,0123*59
$GPVTG,070.77,T,-569.13,M,004.042,N,007.485,K,D*08
$GPGGA,093812.30,5702.9476378,N,00949.4337594,E,2,4,3.0,-6.855,M,40.592,M,3.0,0123*51
$GPVTG,069.44,T,-570.46,M,004.088,N,007.570,K,D*05
$GPGGA,093812.35,5702.9476738,N,00949.4338535,E,2,4,3.0,-6.872,M,40.592,M,3.0,0123*55
$GPVTG,067.61,T,-572.29,M,004.099,N,007.591,K,D*08
$GPGGA,093812.40,5702.9476933,N,00949.4339473,E,2,4,3.0,-6.890,M,40.592,M,3.0,0123*5C
$GPVTG,067.49,T,-572.41,M,004.066,N,007.531,K,D*06
$GPGGA,093812.45,5702.9476652,N,00949.4340623,E,2,4,3.0,-6.856,M,40.592,M,3.2,0123*50
$GPVTG,070.02,T,-569.88,M,004.051,N,007.503,K,D*05
$GPGGA,093812.50,5702.9476794,N,00949.4341617,E,2,4,3.0,-6.865,M,40.592,M,3.2,0123*59
$GPVTG,070.67,T,-569.23,M,004.067,N,007.533,K,D*01
$GPGGA,093812.55,5702.9477142,N,00949.4342633,E,2,4,3.0,-6.876,M,40.592,M,3.2,0123*57
$GPVTG,069.35,T,-570.55,M,004.156,N,007.697,K,D*09
$GPGGA,093812.60,5702.9477414,N,00949.4343590,E,2,4,3.0,-6.883,M,40.592,M,3.2,0123*56
$GPVTG,068.48,T,-571.42,M,004.151,N,007.687,K,D*03
$GPGGA,093812.65,5702.9477104,N,00949.4344553,E,2,4,3.0,-6.865,M,40.592,M,3.4,0123*51
$GPVTG,069.82,T,-570.08,M,004.007,N,007.421,K,D*07
$GPGGA,093812.70,5702.9477287,N,00949.4345510,E,2,4,3.0,-6.879,M,40.592,M,3.4,0123*56
$GPVTG,069.86,T,-570.04,M,003.998,N,007.405,K,D*01
$GPGGA,093812.75,5702.9477453,N,00949.4346458,E,2,4,3.0,-6.888,M,40.592,M,3.4,0123*5C
$GPVTG,070.04,T,-569.86,M,003.977,N,007.365,K,D*01
$GPGGA,093812.80,5702.9477756,N,00949.4347453,E,2,4,3.0,-6.902,M,40.592,M,3.4,0123*59
$GPVTG,069.13,T,-570.77,M,004.045,N,007.491,K,D*0A
$GPGGA,093812.85,5702.9477554,N,00949.4348555,E,2,4,3.0,-6.873,M,40.592,M,3.6,0123*51
$GPVTG,068.61,T,-571.29,M,004.090,N,007.574,K,D*06
$GPGGA,093812.90,5702.9477723,N,00949.4349499,E,2,4,3.0,-6.890,M,40.592,M,3.6,0123*5A
$GPVTG,068.78,T,-571.12,M,004.056,N,007.512,K,D*0C
$GPGGA,093812.95,5702.9477908,N,00949.4350512,E,2,4,3.0,-6.905,M,40.592,M,3.6,0123*5F
$GPVTG,069.20,T,-570.70,M,004.106,N,007.605,K,D*04
$GPGGA,093813.00,5702.9478169,N,00949.4351474,E,2,4,3.0,-6.916,M,40.592,M,3.6,0123*50
$GPVTG,068.53,T,-571.37,M,004.113,N,007.618,K,D*0B
$GPGGA,093813.05,5702.9477867,N,00949.4352601,E,2,4,3.0,-6.876,M,40.592,M,1.9,0123*54
$GPVTG,069.62,T,-570.28,M,004.098,N,007.590,K,D*06
$GPGGA,093813.10,5702.9478186,N,00949.4353608,E,2,4,3.0,-6.887,M,40.592,M,1.9,0123*5F
$GPVTG,068.59,T,-571.31,M,004.170,N,007.723,K,D*0B
$GPGGA,093813.15,5702.9478303,N,00949.4354578,E,2,4,3.0,-6.898,M,40.592,M,1.9,0123*58
$GPVTG,069.36,T,-570.54,M,004.137,N,007.662,K,D*06
$GPGGA,093813.20,5702.9478265,N,00949.4355562,E,2,4,3.0,-6.909,M,40.592,M,1.9,0123*5C
$GPVTG,071.69,T,-568.21,M,004.085,N,007.565,K,D*02
$GPGGA,093813.25,5702.9477904,N,00949.4356675,E,2,4,3.0,-6.873,M,40.592,M,2.2,0123*58
$GPVTG,072.33,T,-567.57,M,004.107,N,007.606,K,D*0D
$GPGGA,093813.30,5702.9478031,N,00949.4357627,E,2,4,3.0,-6.881,M,40.592,M,2.2,0123*57
$GPVTG,072.74,T,-567.16,M,004.055,N,007.509,K,D*01
$GPGGA,093813.35,5702.9478171,N,00949.4358606,E,2,4,3.0,-6.891,M,40.592,M,2.2,0123*5A
$GPVTG,073.13,T,-566.77,M,004.043,N,007.487,K,D*07
$GPGGA,093813.40,5702.9478393,N,00949.4359586,E,2,4,3.0,-6.900,M,40.592,M,2.2,0123*55
$GPVTG,072.68,T,-567.22,M,004.051,N,007.502,K,D*04
$GPGGA,093813.45,5702.9478415,N,00949.4360615,E,2,4,3.0,-6.884,M,40.592,M,2.4,0123*51
$GPVTG,072.66,T,-567.24,M,004.022,N,007.449,K,D*06
$GPGGA,093813.50,5702.9478725,N,00949.4361563,E,2,4,3.0,-6.897,M,40.592,M,2.4,0123*54
$GPVTG,071.12,T,-568.78,M,004.020,N,007.445,K,D*0E
$GPGGA,093813.55,5702.9478973,N,00949.4362619,E,2,4,3.0,-6.912,M,40.592,M,2.4,0123*5D
$GPVTG,070.93,T,-568.97,M,004.128,N,007.645,K,D*0C
$GPGGA,093813.60,5702.9479044,N,00949.4363602,E,2,4,3.0,-6.930,M,40.592,M,2.4,0123*5C
$GPVTG,072.04,T,-567.86,M,004.097,N,007.588,K,D*08
$GPGGA,093813.65,5702.9478812,N,00949.4364703,E,2,4,3.0,-6.891,M,40.592,M,2.7,0123*5D
$GPVTG,070.93,T,-568.97,M,004.087,N,007.570,K,D*0D
$GPGGA,093813.70,5702.9479042,N,00949.4365664,E,2,4,3.0,-6.901,M,40.592,M,2.7,0123*5C
$GPVTG,070.37,T,-569.53,M,004.075,N,007.547,K,D*03
$GPGGA,093813.75,5702.9479199,N,00949.4366610,E,2,4,3.0,-6.909,M,40.592,M,2.7,0123*56
$GPVTG,070.50,T,-569.40,M,004.032,N,007.468,K,D*0F
$GPGGA,093813.80,5702.9479307,N,00949.4367572,E,2,4,3.0,-6.919,M,40.592,M,2.7,0123*5E
$GPVTG,071.23,T,-568.67,M,004.002,N,007.411,K,D*03
$GPGGA,093813.85,5702.9479212,N,00949.4368643,E,2,4,3.0,-6.896,M,40.592,M,2.9,0123*58
$GPVTG,071.63,T,-568.27,M,004.013,N,007.431,K,D*01
$GPGGA,093813.90,5702.9479213,N,00949.4369628,E,2,4,3.0,-6.906,M,40.592,M,2.9,0123*59
$GPVTG,073.59,T,-566.31,M,003.986,N,007.382,K,D*0E
$GPGGA,093813.95,5702.9479693,N,00949.4370583,E,2,4,3.0,-6.916,M,40.592,M,2.9,0123*5B
$GPVTG,070.37,T,-569.53,M,004.036,N,007.474,K,D*05
$GPGGA,093814.00,5702.9479971,N,00949.4371575,E,2,4,3.0,-6.933,M,40.592,M,2.9,0123*5C
$GPVTG,069.59,T,-570.31,M,004.082,N,007.560,K,D*02
$GPGGA,093814.05,5702.9479855,N,00949.4372641,E,2,4,3.0,-6.909,M,40.592,M,1.7,0123*5D
$GPVTG,069.10,T,-570.80,M,004.071,N,007.540,K,D*0B
$GPGGA,093814.10,5702.9480105,N,00949.4373608,E,2,4,3.0,-6.924,M,40.592,M,1.7,0123*50
$GPVTG,068.51,T,-571.39,M,004.083,N,007.562,K,D*01
$GPGGA,093814.15,5702.9480308,N,00949.4374582,E,2,4,3.0,-6.936,M,40.592,M,1.7,0123*5F
$GPVTG,068.48,T,-571.42,M,004.091,N,007.576,K,D*03
$GPGGA,093814.20,5702.9480481,N,00949.4375538,E,2,4,3.0,-6.948,M,40.592,M,1.7,0123*56
$GPVTG,068.62,T,-571.28,M,004.069,N,007.537,K,D*05
$GPGGA,093814.25,5702.9480145,N,00949.4376605,E,2,4,3.0,-6.909,M,40.592,M,2.0,0123*51
$GPVTG,069.06,T,-570.84,M,004.010,N,007.427,K,D*0F
$GPGGA,093814.30,5702.9480298,N,00949.4377587,E,2,4,3.0,-6.922,M,40.592,M,2.0,0123*57
$GPVTG,069.62,T,-570.28,M,004.024,N,007.452,K,D*0E
$GPGGA,093814.35,5702.9480601,N,00949.4378521,E,2,4,3.0,-6.931,M,40.592,M,2.0,0123*57
$GPVTG,068.32,T,-571.58,M,004.022,N,007.449,K,D*00
$GPGGA,093814.40,5702.9480842,N,00949.4379478,E,2,4,3.0,-6.943,M,40.592,M,2.0,0123*55
$GPVTG,067.91,T,-571.99,M,004.035,N,007.472,K,D*05
$GPGGA,093814.45,5702.9480691,N,00949.4380606,E,2,4,3.0,-6.918,M,40.592,M,2.2,0123*51
$GPVTG,069.00,T,-570.90,M,004.102,N,007.596,K,D*05
$GPGGA,093814.50,5702.9481022,N,00949.4381588,E,2,4,3.0,-6.927,M,40.592,M,2.2,0123*52
$GPVTG,067.74,T,-572.16,M,004.155,N,007.694,K,D*07
$GPGGA,093814.55,5702.9481280,N,00949.4382540,E,2,4,3.0,-6.938,M,40.592,M,2.2,0123*54
$GPVTG,067.11,T,-572.79,M,004.148,N,007.683,K,D*07
$GPGGA,093814.60,5702.9481286,N,00949.4383499,E,2,4,3.0,-6.952,M,40.592,M,2.2,0123*5C
$GPVTG,069.00,T,-570.90,M,004.082,N,007.560,K,D*05
$GPGGA,093814.65,5702.9481216,N,00949.4384559,E,2,4,3.0,-6.935,M,40.592,M,2.4,0123*5D
$GPVTG,068.26,T,-571.64,M,004.115,N,007.621,K,D*03
$GPGGA,093814.70,5702.9481352,N,00949.4385525,E,2,4,3.0,-6.950,M,40.592,M,2.4,0123*51
$GPVTG,068.93,T,-570.97,M,004.092,N,007.579,K,D*00
$GPGGA,093814.75,5702.9481521,N,00949.4386461,E,2,4,3.0,-6.964,M,40.592,M,2.4,0123*53
$GPVTG,069.04,T,-570.86,M,004.047,N,007.496,K,D*07
$GPGGA,093814.80,5702.9481721,N,00949.4387423,E,2,4,3.0,-6.976,M,40.592,M,2.4,0123*5F
$GPVTG,069.02,T,-570.88,M,004.045,N,007.491,K,D*0A
$GPGGA,093814.85,5702.9481561,N,00949.4388578,E,2,4,3.0,-6.939,M,40.592,M,2.7,0123*54
$GPVTG,068.53,T,-571.37,M,004.144,N,007.675,K,D*02
$GPGGA,093814.90,5702.9481786,N,00949.4389513,E,2,4,3.0,-6.949,M,40.592,M,2.7,0123*50
$GPVTG,068.07,T,-571.83,M,004.106,N,007.605,K,D*0D
$GPGGA,093814.95,5702.9482017,N,00949.4390444,E,2,4,3.0,-6.961,M,40.592,M,2.7,0123*58
$GPVTG,067.59,T,-572.31,M,004.073,N,007.543,K,D*01
$GPGGA,093815.00,5702.9482279,N,00949.4391440,E,2,4,3.0,-6.977,M,40.592,M,2.7,0123*5D
$GPVTG,067.27,T,-572.63,M,004.124,N,007.638,K,D*03
$GPGGA,093815.05,5702.9482321,N,00949.4392507,E,2,4,3.0,-6.960,M,40.592,M,1.6,0123*51
$GPVTG,067.22,T,-572.68,M,004.137,N,007.662,K,D*00
$GPGGA,093815.10,5702.9482405,N,00949.4393483,E,2,4,3.0,-6.975,M,40.592,M,1.6,0123*5C
$GPVTG,068.55,T,-571.35,M,004.107,N,007.606,K,D*05
$GPGGA,093815.15,5702.9482611,N,00949.4394384,E,2,4,3.0,-6.989,M,40.592,M,1.6,0123*5A
$GPVTG,068.13,T,-571.77,M,004.032,N,007.467,K,D*03
$GPGGA,093815.20,5702.9482926,N,00949.4395350,E,2,4,3.0,-6.998,M,40.592,M,1.6,0123*5F
$GPVTG,067.11,T,-572.79,M,004.071,N,007.540,K,D*00
$GPGGA,093815.25,5702.9482480,N,00949.4396422,E,2,4,3.0,-6.963,M,40.592,M,1.9,0123*51
$GPVTG,068.54,T,-571.36,M,004.019,N,007.444,K,D*0D
$GPGGA,093815.30,5702.9482654,N,00949.4397421,E,2,4,3.0,-6.977,M,40.592,M,1.9,0123*59
$GPVTG,069.11,T,-570.79,M,004.059,N,007.516,K,D*05
$GPGGA,093815.35,5702.9482921,N,00949.4398381,E,2,4,3.0,-6.988,M,40.592,M,1.9,0123*53
$GPVTG,068.45,T,-571.45,M,004.073,N,007.543,K,D*03
$GPGGA,093815.40,5702.9483337,N,00949.4399338,E,2,4,3.0,-6.999,M,40.592,M,1.9,0123*5E
$GPVTG,066.39,T,-573.51,M,004.126,N,007.641,K,D*01
$GPGGA,093815.45,5702.9483344,N,00949.4400435,E,2,4,3.0,-6.986,M,40.592,M,2.1,0123*57
$GPVTG,066.77,T,-573.13,M,004.185,N,007.750,K,D*05
$GPGGA,093815.50,5702.9483431,N,00949.4401408,E,2,4,3.0,-7.003,M,40.592,M,2.1,0123*5C
$GPVTG,068.08,T,-571.82,M,004.148,N,007.683,K,D*07
$GPGGA,093815.55,5702.9483806,N,00949.4402336,E,2,4,3.0,-7.016,M,40.592,M,2.1,0123*5C
$GPVTG,066.22,T,-573.68,M,004.148,N,007.682,K,D*06
$GPGGA,093815.60,5702.9484003,N,00949.4403284,E,2,4,3.0,-7.026,M,40.592,M,2.1,0123*5A
$GPVTG,066.31,T,-573.59,M,004.122,N,007.634,K,D*07
$GPGGA,093815.65,5702.9483536,N,00949.4404385,E,2,4,3.0,-6.989,M,40.592,M,2.3,0123*53
$GPVTG,068.01,T,-571.89,M,004.083,N,007.561,K,D*0C
$GPGGA,093815.70,5702.9483683,N,00949.4405342,E,2,4,3.0,-7.000,M,40.592,M,2.3,0123*59
$GPVTG,068.62,T,-571.28,M,004.057,N,007.514,K,D*09
$GPGGA,093815.75,5702.9483988,N,00949.4406287,E,2,4,3.0,-7.010,M,40.592,M,2.3,0123*52
$GPVTG,067.55,T,-572.35,M,004.065,N,007.529,K,D*02
$GPGGA,093815.80,5702.9484279,N,00949.4407229,E,2,4,3.0,-7.021,M,40.592,M,2.3,0123*5D
$GPVTG,066.69,T,-573.21,M,004.069,N,007.535,K,D*09
$GPGGA,093815.85,5702.9484156,N,00949.4408332,E,2,4,3.0,-6.987,M,40.592,M,2.6,0123*53
$GPVTG,065.97,T,-573.93,M,004.138,N,007.664,K,D*00
$GPGGA,093815.90,5702.9484292,N,00949.4409315,E,2,4,3.0,-7.000,M,40.592,M,2.6,0123*5F
$GPVTG,066.97,T,-572.93,M,004.135,N,007.657,K,D*0F
$GPGGA,093815.95,5702.9484339,N,00949.4410318,E,2,4,3.0,-7.016,M,40.592,M,2.6,0123*58
$GPVTG,068.85,T,-571.05,M,004.129,N,007.646,K,D*03
$GPGGA,093816.00,5702.9484564,N,00949.4411279,E,2,4,3.0,-7.026,M,40.592,M,2.6,0123*5D
$GPVTG,068.65,T,-571.25,M,004.121,N,007.632,K,D*04
$GPGGA,093816.05,5702.9484416,N,00949.4412385,E,2,4,3.0,-6.999,M,40.592,M,2.8,0123*5F
$GPVTG,067.92,T,-571.98,M,004.178,N,007.737,K,D*0D
$GPGGA,093816.10,5702.9484707,N,00949.4413409,E,2,4,3.0,-7.015,M,40.592,M,2.8,0123*56
$GPVTG,067.46,T,-572.44,M,004.252,N,007.874,K,D*05
$GPGGA,093816.15,5702.9484887,N,00949.4414329,E,2,4,3.0,-7.025,M,40.592,M,2.8,0123*55
$GPVTG,067.43,T,-572.47,M,004.169,N,007.722,K,D*04
$GPGGA,093816.20,5702.9485045,N,00949.4415229,E,2,4,3.0,-7.037,M,40.592,M,2.8,0123*57
$GPVTG,067.52,T,-572.38,M,004.071,N,007.540,K,D*02
$GPGGA,093816.25,5702.9484946,N,00949.4416348,E,2,4,3.0,-6.996,M,40.592,M,3.0,0123*56
$GPVTG,067.11,T,-572.79,M,004.115,N,007.621,K,D*07
$GPGGA,093816.30,5702.9485140,N,00949.4417365,E,2,4,3.0,-7.009,M,40.592,M,3.0,0123*5D
$GPVTG,067.67,T,-572.23,M,004.164,N,007.711,K,D*0D
$GPGGA,093816.35,5702.9485284,N,00949.4418363,E,2,4,3.0,-7.020,M,40.592,M,3.0,0123*51
$GPVTG,068.51,T,-571.39,M,004.168,N,007.718,K,D*0A
$GPGGA,093816.40,5702.9485489,N,00949.4419328,E,2,4,3.0,-7.028,M,40.592,M,3.0,0123*5E
$GPVTG,068.50,T,-571.40,M,004.149,N,007.684,K,D*02
$GPGGA,093816.45,5702.9485488,N,00949.4420331,E,2,4,3.0,-7.007,M,40.592,M,3.2,0123*57
$GPVTG,067.22,T,-572.68,M,004.117,N,007.625,K,D*01
$GPGGA,093816.50,5702.9485590,N,00949.4421298,E,2,4,3.0,-7.019,M,40.592,M,3.2,0123*57
$GPVTG,068.37,T,-571.53,M,004.081,N,007.558,K,D*06
$GPGGA,093816.55,5702.9485707,N,00949.4422285,E,2,4,3.0,-7.029,M,40.592,M,3.2,0123*52
$GPVTG,069.42,T,-570.48,M,004.075,N,007.547,K,D*0B
$GPGGA,093816.60,5702.9485922,N,00949.4423300,E,2,4,3.0,-7.042,M,40.592,M,3.2,0123*5D
$GPVTG,069.58,T,-570.32,M,004.125,N,007.640,K,D*0D
$GPGGA,093816.65,5702.9485906,N,00949.4424348,E,2,4,3.0,-7.013,M,40.592,M,3.4,0123*57
$GPVTG,067.01,T,-572.89,M,004.151,N,007.687,K,D*05
$GPGGA,093816.70,5702.9486233,N,00949.4425335,E,2,4,3.0,-7.027,M,40.592,M,3.4,0123*51
$GPVTG,066.04,T,-573.86,M,004.199,N,007.777,K,D*05
$GPGGA,093816.75,5702.9486349,N,00949.4426291,E,2,4,3.0,-7.040,M,40.592,M,3.4,0123*55
$GPVTG,066.96,T,-572.94,M,004.148,N,007.682,K,D*0B
$GPGGA,093816.80,5702.9486507,N,00949.4427287,E,2,4,3.0,-7.056,M,40.592,M,3.4,0123*52
$GPVTG,067.68,T,-572.22,M,004.156,N,007.697,K,D*0D
$GPGGA,093816.85,5702.9486336,N,00949.4428340,E,2,4,3.0,-7.021,M,40.592,M,3.6,0123*54
$GPVTG,068.20,T,-571.71,M,004.071,N,007.540,K,D*06
$GPGGA,093816.90,5702.9486491,N,00949.4429284,E,2,4,3.0,-7.030,M,40.592,M,3.6,0123*52
$GPVTG,068.63,T,-571.27,M,004.030,N,007.464,K,D*00
$GPGGA,093816.95,5702.9486863,N,00949.4430275,E,2,4,3.0,-7.037,M,40.592,M,3.6,0123*57
$GPVTG,067.23,T,-572.67,M,004.108,N,007.607,K,D*01
$GPGGA,093817.00,5702.9487015,N,00949.4431260,E,2,4,3.0,-7.047,M,40.592,M,3.6,0123*50
$GPVTG,067.97,T,-571.93,M,004.110,N,007.611,K,D*08
$GPGGA,093817.05,5702.9486817,N,00949.4432337,E,2,4,3.0,-7.018,M,40.592,M,1.9,0123*59
$GPVTG,067.67,T,-572.23,M,004.128,N,007.645,K,D*05
$GPGGA,093817.10,5702.9487217,N,00949.4433361,E,2,4,3.0,-7.036,M,40.592,M,1.9,0123*58
$GPVTG,066.26,T,-573.64,M,004.241,N,007.854,K,D*01
$GPGGA,093817.15,5702.9487482,N,00949.4434299,E,2,4,3.0,-7.052,M,40.592,M,1.9,0123*54
$GPVTG,065.63,T,-574.27,M,004.208,N,007.794,K,D*0D
$GPGGA,093817.20,5702.9487557,N,00949.4435233,E,2,4,3.0,-7.068,M,40.592,M,1.9,0123*53
$GPVTG,066.77,T,-573.13,M,004.123,N,007.636,K,D*08
$GPGGA,093817.25,5702.9487231,N,00949.4436393,E,2,4,3.0,-7.027,M,40.592,M,2.2,0123*5A
$GPVTG,067.21,T,-572.69,M,004.166,N,007.716,K,D*04
$GPGGA,093817.30,5702.9487358,N,00949.4437346,E,2,4,3.0,-7.031,M,40.592,M,2.2,0123*5E
$GPVTG,067.99,T,-571.91,M,004.116,N,007.623,K,D*03
$GPGGA,093817.35,5702.9487583,N,00949.4438304,E,2,4,3.0,-7.034,M,40.592,M,2.2,0123*57
$GPVTG,067.83,T,-572.07,M,004.104,N,007.601,K,D*07
$GPGGA,093817.40,5702.9487770,N,00949.4439302,E,2,4,3.0,-7.039,M,40.592,M,2.2,0123*51
$GPVTG,068.27,T,-571.63,M,004.127,N,007.644,K,D*07
$GPGGA,093817.45,5702.9487650,N,00949.4440299,E,2,4,3.0,-7.024,M,40.592,M,2.4,0123*50
$GPVTG,069.21,T,-570.69,M,004.060,N,007.518,K,D*03
$GPGGA,093817.50,5702.9487946,N,00949.4441254,E,2,4,3.0,-7.038,M,40.592,M,2.4,0123*51
$GPVTG,068.26,T,-571.64,M,004.070,N,007.538,K,D*0A
$GPGGA,093817.55,5702.9488325,N,00949.4442217,E,2,4,3.0,-7.053,M,40.592,M,2.4,0123*5D
$GPVTG,066.65,T,-573.25,M,004.114,N,007.618,K,D*06
$GPGGA,093817.60,5702.9488463,N,00949.4443185,E,2,4,3.0,-7.068,M,40.592,M,2.4,0123*5F
$GPVTG,067.46,T,-572.44,M,004.094,N,007.583,K,D*08
$GPGGA,093817.65,5702.9488081,N,00949.4444328,E,2,4,3.0,-7.032,M,40.592,M,2.7,0123*5C
$GPVTG,068.04,T,-571.86,M,004.115,N,007.621,K,D*0F
$GPGGA,093817.70,5702.9488349,N,00949.4445342,E,2,4,3.0,-7.043,M,40.592,M,2.7,0123*54
$GPVTG,067.79,T,-572.11,M,004.180,N,007.741,K,D*0C
$GPGGA,093817.75,5702.9488724,N,00949.4446301,E,2,4,3.0,-7.053,M,40.592,M,2.7,0123*5B
$GPVTG,066.22,T,-573.68,M,004.206,N,007.790,K,D*0D
$GPGGA,093817.80,5702.9488797,N,00949.4447237,E,2,4,3.0,-7.064,M,40.592,M,2.7,0123*58
$GPVTG,067.39,T,-572.51,M,004.122,N,007.633,K,D*00
$GPGGA,093817.85,5702.9488548,N,00949.4448319,E,2,4,3.0,-7.032,M,40.592,M,2.9,0123*52
$GPVTG,068.24,T,-571.66,M,004.089,N,007.574,K,D*04
$GPGGA,093817.90,5702.9488761,N,00949.4449296,E,2,4,3.0,-7.040,M,40.592,M,2.9,0123*5D
$GPVTG,068.30,T,-571.60,M,004.099,N,007.592,K,D*0E
$GPGGA,093817.95,5702.9488987,N,00949.4450253,E,2,4,3.0,-7.048,M,40.592,M,2.9,0123*57
$GPVTG,068.11,T,-571.79,M,004.090,N,007.574,K,D*04
$GPGGA,093818.00,5702.9489292,N,00949.4451267,E,2,4,3.0,-7.056,M,40.592,M,2.9,0123*53
$GPVTG,067.53,T,-572.37,M,004.164,N,007.712,K,D*0C
$GPGGA,093818.05,5702.9489436,N,00949.4452227,E,2,4,3.0,-7.053,M,40.592,M,1.7,0123*51
$GPVTG,066.72,T,-573.18,M,004.114,N,007.619,K,D*0F
$GPGGA,093818.10,5702.9489696,N,00949.4453216,E,2,4,3.0,-7.071,M,40.592,M,1.7,0123*5E
$GPVTG,066.49,T,-573.41,M,004.151,N,007.688,K,D*02
$GPGGA,093818.15,5702.9489860,N,00949.4454170,E,2,4,3.0,-7.086,M,40.592,M,1.7,0123*50
$GPVTG,066.96,T,-572.94,M,004.119,N,007.628,K,D*0F
$GPGGA,093818.20,5702.9490031,N,00949.4455094,E,2,4,3.0,-7.099,M,40.592,M,1.7,0123*56
$GPVTG,067.17,T,-572.73,M,004.060,N,007.520,K,D*0A
$GPGGA,093818.25,5702.9489599,N,00949.4456190,E,2,4,3.0,-7.068,M,40.592,M,2.0,0123*50
$GPVTG,067.99,T,-571.91,M,004.037,N,007.477,K,D*02
$GPGGA,093818.30,5702.9489873,N,00949.4457136,E,2,4,3.0,-7.078,M,40.592,M,2.0,0123*51
$GPVTG,067.32,T,-572.58,M,004.042,N,007.485,K,D*0A
$GPGGA,093818.35,5702.9490328,N,00949.4458091,E,2,4,3.0,-7.085,M,40.592,M,2.0,0123*58
$GPVTG,065.06,T,-574.84,M,004.112,N,007.615,K,D*07
$GPGGA,093818.40,5702.9490358,N,00949.4459081,E,2,4,3.0,-7.097,M,40.592,M,2.0,0123*5E
$GPVTG,067.13,T,-572.77,M,004.091,N,007.577,K,D*06
$GPGGA,093818.45,5702.9490253,N,00949.4460176,E,2,4,3.0,-7.069,M,40.592,M,2.2,0123*51
$GPVTG,067.45,T,-572.45,M,004.127,N,007.643,K,D*0C
$GPGGA,093818.50,5702.9490490,N,00949.4461157,E,2,4,3.0,-7.082,M,40.592,M,2.2,0123*5B
$GPVTG,067.38,T,-572.52,M,004.150,N,007.686,K,D*09
$GPGGA,093818.55,5702.9490601,N,00949.4462108,E,2,4,3.0,-7.098,M,40.592,M,2.2,0123*56
$GPVTG,068.32,T,-571.58,M,004.100,N,007.594,K,D*00
$GPGGA,093818.60,5702.9490793,N,00949.4463052,E,2,4,3.0,-7.111,M,40.592,M,2.2,0123*55
$GPVTG,068.40,T,-571.50,M,004.070,N,007.537,K,D*02
$GPGGA,093818.65,5702.9490402,N,00949.4464208,E,2,4,3.0,-7.070,M,40.592,M,2.4,0123*51
$GPVTG,068.74,T,-571.16,M,004.128,N,007.645,K,D*0D
$GPGGA,093818.70,5702.9490659,N,00949.4465170,E,2,4,3.0,-7.081,M,40.592,M,2.4,0123*5A
$GPVTG,068.23,T,-571.67,M,004.129,N,007.648,K,D*05
$GPGGA,093818.75,5702.9490883,N,00949.4466134,E,2,4,3.0,-7.088,M,40.592,M,2.4,0123*5C
$GPVTG,068.10,T,-571.80,M,004.125,N,007.639,K,D*06
$GPGGA,093818.80,5702.9491065,N,00949.4467086,E,2,4,3.0,-7.096,M,40.592,M,2.4,0123*51
$GPVTG,068.31,T,-571.59,M,004.096,N,007.585,K,D*0C
$GPGGA,093818.85,5702.9491034,N,00949.4468160,E,2,4,3.0,-7.072,M,40.592,M,2.7,0123*5F
$GPVTG,068.57,T,-571.33,M,004.108,N,007.608,K,D*00
$GPGGA,093818.90,5702.9491384,N,00949.4469148,E,2,4,3.0,-7.083,M,40.592,M,2.7,0123*56
$GPVTG,067.31,T,-572.59,M,004.166,N,007.715,K,D*05
$GPGGA,093818.95,5702.9491501,N,00949.4470102,E,2,4,3.0,-7.099,M,40.592,M,2.7,0123*55
