$GPGGA,093710.35,5702.9391160,N,00949.3127406,E,2,4,3.0,-6.222,M,40.592,M,2.0,0123*59
$GPVTG,076.95,T,-562.95,M,003.687,N,006.829,K,D*04
$GPGGA,093710.40,5702.9391438,N,00949.3128321,E,2,4,3.0,-6.234,M,40.592,M,2.0,0123*59
$GPVTG,075.84,T,-564.06,M,003.702,N,006.856,K,D*0F
$GPGGA,093710.45,5702.9391199,N,00949.3129353,E,2,4,3.0,-6.196,M,40.592,M,2.2,0123*5F
$GPVTG,075.93,T,-563.97,M,003.720,N,006.889,K,D*04
$GPGGA,093710.50,5702.9391330,N,00949.3130271,E,2,4,3.0,-6.205,M,40.592,M,2.2,0123*5A
$GPVTG,075.86,T,-564.04,M,003.722,N,006.893,K,D*04
$GPGGA,093710.55,5702.9391479,N,00949.3131199,E,2,4,3.0,-6.212,M,40.592,M,2.2,0123*57
$GPVTG,075.54,T,-564.36,M,003.739,N,006.924,K,D*0D
$GPGGA,093710.60,5702.9391584,N,00949.3132110,E,2,4,3.0,-6.219,M,40.592,M,2.2,0123*5B
$GPVTG,075.85,T,-564.05,M,003.723,N,006.895,K,D*01
$GPGGA,093710.65,5702.9391606,N,00949.3133101,E,2,4,3.0,-6.196,M,40.592,M,2.4,0123*54
$GPVTG,075.52,T,-564.38,M,003.750,N,006.944,K,D*0C
$GPGGA,093710.70,5702.9391775,N,00949.3134040,E,2,4,3.0,-6.206,M,40.592,M,2.4,0123*5C
$GPVTG,074.93,T,-564.97,M,003.781,N,007.003,K,D*02
$GPGGA,093710.75,5702.9391871,N,00949.3134963,E,2,4,3.0,-6.220,M,40.592,M,2.4,0123*5E
$GPVTG,075.46,T,-564.44,M,003.771,N,006.984,K,D*0D
$GPGGA,093710.80,5702.9392007,N,00949.3135894,E,2,4,3.0,-6.237,M,40.592,M,2.4,0123*50
$GPVTG,075.40,T,-564.50,M,003.779,N,006.998,K,D*0B
$GPGGA,093710.85,5702.9391743,N,00949.3136974,E,2,4,3.0,-6.206,M,40.592,M,2.7,0123*5C
$GPVTG,075.59,T,-564.31,M,003.864,N,007.156,K,D*0C
$GPGGA,093710.90,5702.9391846,N,00949.3137954,E,2,4,3.0,-6.220,M,40.592,M,2.7,0123*55
$GPVTG,076.23,T,-563.67,M,003.903,N,007.229,K,D*0D
$GPGGA,093710.95,5702.9391964,N,00949.3138925,E,2,4,3.0,-6.234,M,40.592,M,2.7,0123*5D
$GPVTG,076.48,T,-563.42,M,003.928,N,007.274,K,D*06
$GPGGA,093711.00,5702.9392098,N,00949.3139864,E,2,4,3.0,-6.245,M,40.592,M,2.7,0123*5A
$GPVTG,076.35,T,-563.55,M,003.911,N,007.243,K,D*04
$GPGGA,093711.05,5702.9392170,N,00949.3140855,E,2,4,3.0,-6.231,M,40.592,M,1.6,0123*55
$GPVTG,076.25,T,-563.65,M,003.904,N,007.230,K,D*06
$GPGGA,093711.10,5702.9392275,N,00949.3141766,E,2,4,3.0,-6.239,M,40.592,M,1.6,0123*51
$GPVTG,076.23,T,-563.67,M,003.852,N,007.133,K,D*00
$GPGGA,093711.15,5702.9392354,N,00949.3142697,E,2,4,3.0,-6.251,M,40.592,M,1.6,0123*54
$GPVTG,076.50,T,-563.40,M,003.826,N,007.086,K,D*0D
$GPGGA,093711.20,5702.9392572,N,00949.3143628,E,2,4,3.0,-6.263,M,40.592,M,1.6,0123*54
$GPVTG,075.79,T,-564.11,M,003.818,N,007.070,K,D*02
$GPGGA,093711.25,5702.9392466,N,00949.3144625,E,2,4,3.0,-6.241,M,40.592,M,1.9,0123*50
$GPVTG,075.08,T,-564.82,M,003.827,N,007.087,K,D*0A
$GPGGA,093711.30,5702.9392583,N,00949.3145565,E,2,4,3.0,-6.256,M,40.592,M,1.9,0123*5E
$GPVTG,075.38,T,-564.52,M,003.818,N,007.071,K,D*01
$GPGGA,093711.35,5702.9392708,N,00949.3146513,E,2,4,3.0,-6.272,M,40.592,M,1.9,0123*5E
$GPVTG,075.53,T,-564.37,M,003.823,N,007.081,K,D*08
$GPGGA,093711.40,5702.9392852,N,00949.3147498,E,2,4,3.0,-6.289,M,40.592,M,1.9,0123*5B
$GPVTG,075.53,T,-564.37,M,003.876,N,007.177,K,D*00
$GPGGA,093711.45,5702.9392595,N,00949.3148552,E,2,4,3.0,-6.249,M,40.592,M,2.1,0123*57
$GPVTG,075.44,T,-564.46,M,003.873,N,007.172,K,D*00
$GPGGA,093711.50,5702.9392829,N,00949.3149501,E,2,4,3.0,-6.255,M,40.592,M,2.1,0123*53
$GPVTG,074.70,T,-565.20,M,003.885,N,007.195,K,D*07
$GPGGA,093711.55,5702.9392885,N,00949.3150438,E,2,4,3.0,-6.262,M,40.592,M,2.1,0123*57
$GPVTG,075.20,T,-564.70,M,003.861,N,007.150,K,D*04
$GPGGA,093711.60,5702.9392925,N,00949.3151374,E,2,4,3.0,-6.268,M,40.592,M,2.1,0123*5E
$GPVTG,075.86,T,-564.04,M,003.835,N,007.102,K,D*0D
$GPGGA,093711.65,5702.9392963,N,00949.3152338,E,2,4,3.0,-6.253,M,40.592,M,2.3,0123*58
$GPVTG,075.59,T,-564.31,M,003.841,N,007.114,K,D*0D
$GPGGA,093711.70,5702.9393131,N,00949.3153292,E,2,4,3.0,-6.269,M,40.592,M,2.3,0123*5B
$GPVTG,074.91,T,-564.99,M,003.863,N,007.154,K,D*0E
$GPGGA,093711.75,5702.9393240,N,00949.3154251,E,2,4,3.0,-6.285,M,40.592,M,2.3,0123*51
$GPVTG,075.41,T,-564.49,M,003.868,N,007.164,K,D*07
$GPGGA,093711.80,5702.9393400,N,00949.3155198,E,2,4,3.0,-6.302,M,40.592,M,2.3,0123*50
$GPVTG,075.01,T,-564.89,M,003.871,N,007.170,K,D*02
$GPGGA,093711.85,5702.9393307,N,00949.3156259,E,2,4,3.0,-6.266,M,40.592,M,2.6,0123*5E
$GPVTG,074.20,T,-565.70,M,003.900,N,007.222,K,D*04
$GPGGA,093711.90,5702.9393346,N,00949.3157191,E,2,4,3.0,-6.274,M,40.592,M,2.6,0123*5A
$GPVTG,074.79,T,-565.11,M,003.865,N,007.158,K,D*03
$GPGGA,093711.95,5702.9393359,N,00949.3158140,E,2,4,3.0,-6.287,M,40.592,M,2.6,0123*5E
$GPVTG,075.71,T,-564.19,M,003.850,N,007.130,K,D*0B
$GPGGA,093712.00,5702.9393479,N,00949.3159101,E,2,4,3.0,-6.296,M,40.592,M,2.6,0123*50
$GPVTG,075.87,T,-564.03,M,003.861,N,007.151,K,D*0C
$GPGGA,093712.05,5702.9393338,N,00949.3160061,E,2,4,3.0,-6.273,M,40.592,M,2.8,0123*5F
$GPVTG,076.04,T,-563.86,M,003.809,N,007.053,K,D*03
$GPGGA,093712.10,5702.9393471,N,00949.3160980,E,2,4,3.0,-6.285,M,40.592,M,2.8,0123*5E
$GPVTG,075.85,T,-564.05,M,003.780,N,007.000,K,D*0D
$GPGGA,093712.15,5702.9393602,N,00949.3161925,E,2,4,3.0,-6.299,M,40.592,M,2.8,0123*5E
$GPVTG,075.86,T,-564.04,M,003.788,N,007.015,K,D*03
$GPGGA,093712.20,5702.9393727,N,00949.3162907,E,2,4,3.0,-6.316,M,40.592,M,2.8,0123*5B
$GPVTG,076.12,T,-563.78,M,003.836,N,007.105,K,D*0B
$GPGGA,093712.25,5702.9393690,N,00949.3163958,E,2,4,3.0,-6.293,M,40.592,M,3.0,0123*5D
$GPVTG,075.65,T,-564.25,M,003.892,N,007.208,K,D*07
$GPGGA,093712.30,5702.9393849,N,00949.3164864,E,2,4,3.0,-6.304,M,40.592,M,3.0,0123*55
$GPVTG,074.99,T,-564.91,M,003.844,N,007.119,K,D*02
$GPGGA,093712.35,5702.9393935,N,00949.3165781,E,2,4,3.0,-6.316,M,40.592,M,3.0,0123*5C
$GPVTG,075.59,T,-564.31,M,003.799,N,007.036,K,D*06
$GPGGA,093712.40,5702.9394042,N,00949.3166701,E,2,4,3.0,-6.327,M,40.592,M,3.0,0123*59
$GPVTG,075.84,T,-564.06,M,003.771,N,006.984,K,D*05
$GPGGA,093712.45,5702.9393686,N,00949.3167761,E,2,4,3.0,-6.287,M,40.592,M,3.2,0123*5B
$GPVTG,076.63,T,-563.27,M,003.812,N,007.060,K,D*03
$GPGGA,093712.50,5702.9393835,N,00949.3168706,E,2,4,3.0,-6.293,M,40.592,M,3.2,0123*52
$GPVTG,076.30,T,-563.60,M,003.820,N,007.075,K,D*03
$GPGGA,093712.55,5702.9393930,N,00949.3169655,E,2,4,3.0,-6.306,M,40.592,M,3.2,0123*58
$GPVTG,076.79,T,-563.11,M,003.820,N,007.075,K,D*08
$GPGGA,093712.60,5702.9394085,N,00949.3170622,E,2,4,3.0,-6.317,M,40.592,M,3.2,0123*56
$GPVTG,076.52,T,-563.38,M,003.852,N,007.133,K,D*0C
$GPGGA,093712.65,5702.9394166,N,00949.3171564,E,2,4,3.0,-6.309,M,40.592,M,3.4,0123*56
$GPVTG,076.86,T,-563.04,M,003.803,N,007.044,K,D*0F
$GPGGA,093712.70,5702.9394250,N,00949.3172529,E,2,4,3.0,-6.321,M,40.592,M,3.4,0123*54
$GPVTG,077.26,T,-562.64,M,003.824,N,007.081,K,D*0F
$GPGGA,093712.75,5702.9394650,N,00949.3173463,E,2,4,3.0,-6.331,M,40.592,M,3.4,0123*5A
$GPVTG,075.34,T,-564.56,M,003.840,N,007.111,K,D*03
$GPGGA,093712.80,5702.9394840,N,00949.3174406,E,2,4,3.0,-6.343,M,40.592,M,3.4,0123*5E
$GPVTG,074.88,T,-565.02,M,003.846,N,007.123,K,D*02
$GPGGA,093712.85,5702.9394581,N,00949.3175400,E,2,4,3.0,-6.318,M,40.592,M,3.6,0123*50
$GPVTG,076.19,T,-563.71,M,003.813,N,007.061,K,D*0D
$GPGGA,093712.90,5702.9394631,N,00949.3176319,E,2,4,3.0,-6.330,M,40.592,M,3.6,0123*5A
$GPVTG,076.78,T,-563.12,M,003.774,N,006.989,K,D*0F
$GPGGA,093712.95,5702.9394778,N,00949.3177285,E,2,4,3.0,-6.343,M,40.592,M,3.6,0123*52
$GPVTG,076.71,T,-563.19,M,003.808,N,007.052,K,D*07
$GPGGA,093713.00,5702.9394885,N,00949.3178200,E,2,4,3.0,-6.353,M,40.592,M,3.6,0123*51
$GPVTG,076.78,T,-563.12,M,003.774,N,006.990,K,D*07
$GPGGA,093713.05,5702.9394538,N,00949.3179194,E,2,4,3.0,-6.337,M,40.592,M,1.9,0123*5F
$GPVTG,078.61,T,-561.29,M,003.752,N,006.949,K,D*0B
$GPGGA,093713.10,5702.9394651,N,00949.3180115,E,2,4,3.0,-6.348,M,40.592,M,1.9,0123*50
$GPVTG,078.47,T,-561.43,M,003.733,N,006.913,K,D*0B
$GPGGA,093713.15,5702.9394729,N,00949.3181058,E,2,4,3.0,-6.360,M,40.592,M,1.9,0123*58
$GPVTG,079.12,T,-560.78,M,003.735,N,006.917,K,D*01
$GPGGA,093713.20,5702.9394801,N,00949.3182010,E,2,4,3.0,-6.369,M,40.592,M,1.9,0123*5D
$GPVTG,079.78,T,-560.12,M,003.748,N,006.941,K,D*08
$GPGGA,093713.25,5702.9394735,N,00949.3182965,E,2,4,3.0,-6.348,M,40.592,M,2.2,0123*50
$GPVTG,079.78,T,-560.12,M,003.685,N,006.825,K,D*0B
$GPGGA,093713.30,5702.9394838,N,00949.3183913,E,2,4,3.0,-6.362,M,40.592,M,2.2,0123*5E
$GPVTG,079.80,T,-560.10,M,003.709,N,006.869,K,D*03
$GPGGA,093713.35,5702.9394938,N,00949.3184859,E,2,4,3.0,-6.377,M,40.592,M,2.2,0123*56
$GPVTG,079.91,T,-559.99,M,003.726,N,006.901,K,D*0A
$GPGGA,093713.40,5702.9395014,N,00949.3185842,E,2,4,3.0,-6.386,M,40.592,M,2.2,0123*57
$GPVTG,080.43,T,-559.47,M,003.780,N,007.000,K,D*05
$GPGGA,093713.45,5702.9395159,N,00949.3186856,E,2,4,3.0,-6.369,M,40.592,M,2.4,0123*5B
$GPVTG,079.87,T,-560.03,M,003.796,N,007.031,K,D*04
$GPGGA,093713.50,5702.9395305,N,00949.3187802,E,2,4,3.0,-6.378,M,40.592,M,2.4,0123*54
$GPVTG,079.13,T,-560.77,M,003.808,N,007.052,K,D*07
$GPGGA,093713.55,5702.9395431,N,00949.3188758,E,2,4,3.0,-6.389,M,40.592,M,2.4,0123*50
$GPVTG,078.87,T,-561.03,M,003.823,N,007.081,K,D*0E
$GPGGA,093713.60,5702.9395504,N,00949.3189734,E,2,4,3.0,-6.405,M,40.592,M,2.4,0123*59
$GPVTG,079.39,T,-560.51,M,003.851,N,007.132,K,D*00
$GPGGA,093713.65,5702.9395579,N,00949.3190730,E,2,4,3.0,-6.408,M,40.592,M,2.7,0123*54
$GPVTG,079.45,T,-560.45,M,003.862,N,007.152,K,D*08
$GPGGA,093713.70,5702.9395971,N,00949.3191620,E,2,4,3.0,-6.417,M,40.592,M,2.7,0123*5B
$GPVTG,077.43,T,-562.47,M,003.810,N,007.057,K,D*01
$GPGGA,093713.75,5702.9395892,N,00949.3192522,E,2,4,3.0,-6.428,M,40.592,M,2.7,0123*5C
$GPVTG,078.52,T,-561.38,M,003.742,N,006.931,K,D*05
$GPGGA,093713.80,5702.9395822,N,00949.3193473,E,2,4,3.0,-6.440,M,40.592,M,2.7,0123*57
$GPVTG,079.85,T,-560.05,M,003.739,N,006.924,K,D*09
$GPGGA,093713.85,5702.9395474,N,00949.3194506,E,2,4,3.0,-6.404,M,40.592,M,2.9,0123*57
$GPVTG,080.44,T,-559.46,M,003.731,N,006.910,K,D*00
$GPGGA,093713.90,5702.9395597,N,00949.3195472,E,2,4,3.0,-6.414,M,40.592,M,2.9,0123*5D
$GPVTG,079.95,T,-559.95,M,003.771,N,006.983,K,D*0A
$GPGGA,093713.95,5702.9395723,N,00949.3196425,E,2,4,3.0,-6.421,M,40.592,M,2.9,0123*52
$GPVTG,079.52,T,-560.38,M,003.786,N,007.012,K,D*04
$GPGGA,093714.00,5702.9395762,N,00949.3197343,E,2,4,3.0,-6.435,M,40.592,M,2.9,0123*5F
$GPVTG,080.34,T,-559.56,M,003.745,N,006.936,K,D*01
$GPGGA,093714.05,5702.9395960,N,00949.3198359,E,2,4,3.0,-6.423,M,40.592,M,1.7,0123*58
$GPVTG,078.90,T,-561.00,M,003.787,N,007.014,K,D*06
$GPGGA,093714.10,5702.9396076,N,00949.3199328,E,2,4,3.0,-6.436,M,40.592,M,1.7,0123*52
$GPVTG,078.73,T,-561.17,M,003.821,N,007.076,K,D*0A
$GPGGA,093714.15,5702.9396220,N,00949.3200280,E,2,4,3.0,-6.445,M,40.592,M,1.7,0123*52
$GPVTG,078.12,T,-561.78,M,003.832,N,007.097,K,D*09
$GPGGA,093714.20,5702.9396300,N,00949.3201241,E,2,4,3.0,-6.453,M,40.592,M,1.7,0123*5C
$GPVTG,078.53,T,-561.37,M,003.841,N,007.114,K,D*09
$GPGGA,093714.25,5702.9396369,N,00949.3202186,E,2,4,3.0,-6.439,M,40.592,M,2.0,0123*55
$GPVTG,078.45,T,-561.45,M,003.769,N,006.979,K,D*0C
$GPGGA,093714.30,5702.9396585,N,00949.3203109,E,2,4,3.0,-6.450,M,40.592,M,2.0,0123*5C
$GPVTG,077.61,T,-562.29,M,003.756,N,006.957,K,D*0C
$GPGGA,093714.35,5702.9396639,N,00949.3204036,E,2,4,3.0,-6.464,M,40.592,M,2.0,0123*50
$GPVTG,077.92,T,-561.98,M,003.737,N,006.921,K,D*0F
$GPGGA,093714.40,5702.9396810,N,00949.3204971,E,2,4,3.0,-6.475,M,40.592,M,2.0,0123*5D
$GPVTG,077.41,T,-562.49,M,003.743,N,006.933,K,D*0E
$GPGGA,093714.45,5702.9396605,N,00949.3206007,E,2,4,3.0,-6.449,M,40.592,M,2.2,0123*55
$GPVTG,077.01,T,-562.89,M,003.769,N,006.980,K,D*06
$GPGGA,093714.50,5702.9396722,N,00949.3206949,E,2,4,3.0,-6.464,M,40.592,M,2.2,0123*59
$GPVTG,076.95,T,-562.95,M,003.778,N,006.996,K,D*00
$GPGGA,093714.55,5702.9396840,N,00949.3207887,E,2,4,3.0,-6.477,M,40.592,M,2.2,0123*57
$GPVTG,076.88,T,-563.02,M,003.780,N,007.001,K,D*02
$GPGGA,093714.60,5702.9397017,N,00949.3208829,E,2,4,3.0,-6.491,M,40.592,M,2.2,0123*59
$GPVTG,075.95,T,-563.95,M,003.800,N,007.038,K,D*0E
$GPGGA,093714.65,5702.9397012,N,00949.3209886,E,2,4,3.0,-6.468,M,40.592,M,2.4,0123*5D
$GPVTG,076.39,T,-563.51,M,003.823,N,007.080,K,D*01
$GPGGA,093714.70,5702.9397119,N,00949.3210799,E,2,4,3.0,-6.479,M,40.592,M,2.4,0123*5A
$GPVTG,076.29,T,-563.61,M,003.790,N,007.018,K,D*05
$GPGGA,093714.75,5702.9397316,N,00949.3211754,E,2,4,3.0,-6.491,M,40.592,M,2.4,0123*54
$GPVTG,075.72,T,-564.18,M,003.820,N,007.075,K,D*0E
$GPGGA,093714.80,5702.9397499,N,00949.3212734,E,2,4,3.0,-6.505,M,40.592,M,2.4,0123*57
$GPVTG,075.35,T,-564.55,M,003.874,N,007.174,K,D*05
$GPGGA,093714.85,5702.9397375,N,00949.3213707,E,2,4,3.0,-6.489,M,40.592,M,2.7,0123*50
$GPVTG,075.07,T,-564.83,M,003.830,N,007.094,K,D*00
$GPGGA,093714.90,5702.9397475,N,00949.3214644,E,2,4,3.0,-6.502,M,40.592,M,2.7,0123*50
$GPVTG,075.66,T,-564.24,M,003.815,N,007.065,K,D*03
$GPGGA,093714.95,5702.9397652,N,00949.3215590,E,2,4,3.0,-6.512,M,40.592,M,2.7,0123*58
$GPVTG,074.81,T,-565.09,M,003.836,N,007.105,K,D*03
$GPGGA,093715.00,5702.9397777,N,00949.3216492,E,2,4,3.0,-6.522,M,40.592,M,2.7,0123*50
$GPVTG,074.69,T,-565.21,M,003.790,N,007.019,K,D*00
$GPGGA,093715.05,5702.9397593,N,00949.3217440,E,2,4,3.0,-6.498,M,40.592,M,1.6,0123*51
$GPVTG,074.68,T,-565.22,M,003.719,N,006.888,K,D*02
$GPGGA,093715.10,5702.9397701,N,00949.3218385,E,2,4,3.0,-6.511,M,40.592,M,1.6,0123*5D
$GPVTG,075.18,T,-564.72,M,003.738,N,006.923,K,D*03
$GPGGA,093715.15,5702.9397820,N,00949.3219289,E,2,4,3.0,-6.522,M,40.592,M,1.6,0123*58
$GPVTG,075.18,T,-564.72,M,003.711,N,006.872,K,D*0D
$GPGGA,093715.20,5702.9397926,N,00949.3220209,E,2,4,3.0,-6.537,M,40.592,M,1.6,0123*5F
$GPVTG,075.47,T,-564.43,M,003.705,N,006.862,K,D*01
$GPGGA,093715.25,5702.9397300,N,00949.3221280,E,2,4,3.0,-6.496,M,40.592,M,1.9,0123*51
$GPVTG,077.01,T,-562.89,M,003.722,N,006.893,K,D*0A
$GPGGA,093715.30,5702.9397439,N,00949.3222201,E,2,4,3.0,-6.506,M,40.592,M,1.9,0123*5A
$GPVTG,076.69,T,-563.21,M,003.722,N,006.894,K,D*01
$GPGGA,093715.35,5702.9397524,N,00949.3223148,E,2,4,3.0,-6.518,M,40.592,M,1.9,0123*52
$GPVTG,077.27,T,-562.63,M,003.743,N,006.932,K,D*07
$GPGGA,093715.40,5702.9397662,N,00949.3224056,E,2,4,3.0,-6.529,M,40.592,M,1.9,0123*5A
$GPVTG,076.94,T,-562.96,M,003.725,N,006.898,K,D*05
$GPGGA,093715.45,5702.9397986,N,00949.3225085,E,2,4,3.0,-6.506,M,40.592,M,2.1,0123*53
$GPVTG,075.60,T,-564.30,M,003.733,N,006.913,K,D*02
$GPGGA,093715.50,5702.9398118,N,00949.3226038,E,2,4,3.0,-6.522,M,40.592,M,2.1,0123*54
$GPVTG,075.63,T,-564.27,M,003.771,N,006.984,K,D*0F
$GPGGA,093715.55,5702.9398223,N,00949.3226986,E,2,4,3.0,-6.540,M,40.592,M,2.1,0123*52
$GPVTG,076.02,T,-563.88,M,003.791,N,007.021,K,D*00
$GPGGA,093715.60,5702.9398323,N,00949.3227903,E,2,4,3.0,-6.558,M,40.592,M,2.1,0123*50
$GPVTG,076.27,T,-563.63,M,003.770,N,006.982,K,D*0C
$GPGGA,093715.65,5702.9397579,N,00949.3228980,E,2,4,3.0,-6.506,M,40.592,M,2.3,0123*5E
$GPVTG,078.23,T,-561.67,M,003.730,N,006.907,K,D*09
$GPGGA,093715.70,5702.9397712,N,00949.3229891,E,2,4,3.0,-6.514,M,40.592,M,2.3,0123*56
$GPVTG,077.84,T,-562.06,M,003.713,N,006.876,K,D*09
$GPGGA,093715.75,5702.9397833,N,00949.3230810,E,2,4,3.0,-6.517,M,40.592,M,2.3,0123*5D
$GPVTG,077.75,T,-562.15,M,003.707,N,006.866,K,D*01
$GPGGA,093715.80,5702.9397939,N,00949.3231778,E,2,4,3.0,-6.522,M,40.592,M,2.3,0123*5A
$GPVTG,078.04,T,-561.86,M,003.756,N,006.956,K,D*07
$GPGGA,093715.85,5702.9398321,N,00949.3232712,E,2,4,3.0,-6.520,M,40.592,M,2.6,0123*5B
$GPVTG,076.43,T,-563.47,M,003.748,N,006.942,K,D*0F
$GPGGA,093715.90,5702.9398462,N,00949.3233603,E,2,4,3.0,-6.536,M,40.592,M,2.6,0123*58
$GPVTG,075.94,T,-563.96,M,003.710,N,006.872,K,D*05
$GPGGA,093715.95,5702.9398607,N,00949.3234548,E,2,4,3.0,-6.554,M,40.592,M,2.6,0123*53
$GPVTG,075.72,T,-564.18,M,003.745,N,006.936,K,D*0D
$GPGGA,093716.00,5702.9398725,N,00949.3235467,E,2,4,3.0,-6.571,M,40.592,M,2.6,0123*57
$GPVTG,075.76,T,-564.14,M,003.737,N,006.922,K,D*05
$GPGGA,093716.05,5702.9398316,N,00949.3236551,E,2,4,3.0,-6.521,M,40.592,M,2.8,0123*5A
$GPVTG,076.25,T,-563.65,M,003.738,N,006.923,K,D*0F
$GPGGA,093716.10,5702.9398407,N,00949.3237437,E,2,4,3.0,-6.526,M,40.592,M,2.8,0123*5E
$GPVTG,076.58,T,-563.32,M,003.686,N,006.826,K,D*07
$GPGGA,093716.15,5702.9398492,N,00949.3238354,E,2,4,3.0,-6.533,M,40.592,M,2.8,0123*5E
$GPVTG,077.06,T,-562.84,M,003.678,N,006.812,K,D*07
$GPGGA,093716.20,5702.9398619,N,00949.3239280,E,2,4,3.0,-6.543,M,40.592,M,2.8,0123*57
$GPVTG,076.98,T,-562.92,M,003.691,N,006.835,K,D*04
$GPGGA,093716.25,5702.9398198,N,00949.3240282,E,2,4,3.0,-6.515,M,40.592,M,3.0,0123*5A
$GPVTG,077.76,T,-562.14,M,003.705,N,006.862,K,D*05
$GPGGA,093716.30,5702.9398324,N,00949.3241169,E,2,4,3.0,-6.526,M,40.592,M,3.0,0123*5C
$GPVTG,077.43,T,-562.47,M,003.668,N,006.793,K,D*0E
$GPGGA,093716.35,5702.9398431,N,00949.3242139,E,2,4,3.0,-6.542,M,40.592,M,3.0,0123*5E
$GPVTG,077.77,T,-562.13,M,003.731,N,006.910,K,D*00
$GPGGA,093716.40,5702.9398518,N,00949.3243077,E,2,4,3.0,-6.559,M,40.592,M,3.0,0123*56
$GPVTG,078.17,T,-561.73,M,003.743,N,006.932,K,D*09
$GPGGA,093716.45,5702.9398697,N,00949.3244106,E,2,4,3.0,-6.531,M,40.592,M,3.2,0123*5B
$GPVTG,077.27,T,-562.63,M,003.722,N,006.893,K,D*0A
$GPGGA,093716.50,5702.9398812,N,00949.3245060,E,2,4,3.0,-6.546,M,40.592,M,3.2,0123*5C
$GPVTG,077.40,T,-562.50,M,003.759,N,006.962,K,D*08
$GPGGA,093716.55,5702.9398933,N,00949.3245994,E,2,4,3.0,-6.558,M,40.592,M,3.2,0123*56
$GPVTG,077.34,T,-562.56,M,003.767,N,006.976,K,D*05
$GPGGA,093716.60,5702.9399050,N,00949.3246879,E,2,4,3.0,-6.568,M,40.592,M,3.2,0123*5F
$GPVTG,077.15,T,-562.75,M,003.716,N,006.882,K,D*0B
$GPGGA,093716.65,5702.9398727,N,00949.3247920,E,2,4,3.0,-6.535,M,40.592,M,3.4,0123*5E
$GPVTG,077.63,T,-562.27,M,003.729,N,006.907,K,D*0D
$GPGGA,093716.70,5702.9398851,N,00949.3248866,E,2,4,3.0,-6.546,M,40.592,M,3.4,0123*5C
$GPVTG,077.54,T,-562.36,M,003.756,N,006.956,K,D*05
$GPGGA,093716.75,5702.9398971,N,00949.3249772,E,2,4,3.0,-6.559,M,40.592,M,3.4,0123*5F
$GPVTG,077.36,T,-562.54,M,003.730,N,006.908,K,D*0E
$GPGGA,093716.80,5702.9399088,N,00949.3250664,E,2,4,3.0,-6.572,M,40.592,M,3.4,0123*5C
$GPVTG,077.21,T,-562.69,M,003.692,N,006.838,K,D*0D
$GPGGA,093716.85,5702.9398952,N,00949.3251668,E,2,4,3.0,-6.543,M,40.592,M,3.6,0123*5B
$GPVTG,077.09,T,-562.81,M,003.669,N,006.795,K,D*0D
$GPGGA,093716.90,5702.9399063,N,00949.3252579,E,2,4,3.0,-6.557,M,40.592,M,3.6,0123*50
$GPVTG,077.13,T,-562.77,M,003.663,N,006.784,K,D*05
$GPGGA,093716.95,5702.9399212,N,00949.3253506,E,2,4,3.0,-6.569,M,40.592,M,3.6,0123*55
$GPVTG,076.69,T,-563.21,M,003.685,N,006.825,K,D*07
$GPGGA,093717.00,5702.9399309,N,00949.3254452,E,2,4,3.0,-6.582,M,40.592,M,3.6,0123*51
$GPVTG,077.07,T,-562.83,M,003.716,N,006.882,K,D*01
$GPGGA,093717.05,5702.9399140,N,00949.3255520,E,2,4,3.0,-6.548,M,40.592,M,1.9,0123*55
$GPVTG,077.49,T,-562.41,M,003.749,N,006.944,K,D*04
$GPGGA,093717.10,5702.9399246,N,00949.3256414,E,2,4,3.0,-6.558,M,40.592,M,1.9,0123*50
$GPVTG,077.49,T,-562.41,M,003.709,N,006.870,K,D*06
$GPGGA,093717.15,5702.9399368,N,00949.3257342,E,2,4,3.0,-6.570,M,40.592,M,1.9,0123*57
$GPVTG,077.39,T,-562.51,M,003.719,N,006.887,K,D*09
$GPGGA,093717.20,5702.9399512,N,00949.3258293,E,2,4,3.0,-6.582,M,40.592,M,1.9,0123*55
$GPVTG,077.12,T,-562.78,M,003.758,N,006.960,K,D*06
$GPGGA,093717.25,5702.9399405,N,00949.3259332,E,2,4,3.0,-6.563,M,40.592,M,2.2,0123*5B
$GPVTG,077.24,T,-562.66,M,003.798,N,007.035,K,D*08
$GPGGA,093717.30,5702.9399530,N,00949.3260211,E,2,4,3.0,-6.574,M,40.592,M,2.2,0123*54
$GPVTG,076.87,T,-563.03,M,003.736,N,006.918,K,D*01
$GPGGA,093717.35,5702.9399602,N,00949.3261118,E,2,4,3.0,-6.586,M,40.592,M,2.2,0123*55
$GPVTG,077.40,T,-562.50,M,003.704,N,006.860,K,D*03
$GPGGA,093717.40,5702.9399699,N,00949.3262027,E,2,4,3.0,-6.595,M,40.592,M,2.2,0123*59
$GPVTG,077.57,T,-562.33,M,003.687,N,006.828,K,D*06
$GPGGA,093717.45,5702.9399074,N,00949.3263044,E,2,4,3.0,-6.550,M,40.592,M,2.4,0123*52
$GPVTG,079.30,T,-560.60,M,003.650,N,006.760,K,D*04
$GPGGA,093717.50,5702.9399179,N,00949.3263967,E,2,4,3.0,-6.558,M,40.592,M,2.4,0123*5A
$GPVTG,079.31,T,-560.59,M,003.658,N,006.775,K,D*03
$GPGGA,093717.55,5702.9399298,N,00949.3264878,E,2,4,3.0,-6.569,M,40.592,M,2.4,0123*59
$GPVTG,079.09,T,-560.81,M,003.654,N,006.766,K,D*03
$GPGGA,093717.60,5702.9399350,N,00949.3265845,E,2,4,3.0,-6.580,M,40.592,M,2.4,0123*52
$GPVTG,079.95,T,-559.95,M,003.704,N,006.859,K,D*0E
$GPGGA,093717.65,5702.9399278,N,00949.3266882,E,2,4,3.0,-6.552,M,40.592,M,2.7,0123*58
$GPVTG,080.36,T,-559.54,M,003.724,N,006.897,K,D*0C
$GPGGA,093717.70,5702.9399388,N,00949.3267810,E,2,4,3.0,-6.562,M,40.592,M,2.7,0123*5B
$GPVTG,080.14,T,-559.76,M,003.725,N,006.899,K,D*03
$GPGGA,093717.75,5702.9399510,N,00949.3268705,E,2,4,3.0,-6.570,M,40.592,M,2.7,0123*5E
$GPVTG,079.70,T,-560.20,M,003.690,N,006.833,K,D*01
$GPGGA,093717.80,5702.9399572,N,00949.3269652,E,2,4,3.0,-6.578,M,40.592,M,2.7,0123*5A
$GPVTG,080.28,T,-559.62,M,003.711,N,006.873,K,D*0A
$GPGGA,093717.85,5702.9399678,N,00949.3270637,E,2,4,3.0,-6.562,M,40.592,M,2.9,0123*58
$GPVTG,078.99,T,-560.91,M,003.709,N,006.869,K,D*03
$GPGGA,093717.90,5702.9399740,N,00949.3271521,E,2,4,3.0,-6.577,M,40.592,M,2.9,0123*57
$GPVTG,079.49,T,-560.41,M,003.651,N,006.762,K,D*0A
$GPGGA,093717.95,5702.9399815,N,00949.3272373,E,2,4,3.0,-6.592,M,40.592,M,2.9,0123*54
$GPVTG,079.59,T,-560.31,M,003.569,N,006.610,K,D*00
$GPGGA,093718.00,5702.9399915,N,00949.3273276,E,2,4,3.0,-6.602,M,40.592,M,2.9,0123*59
$GPVTG,079.55,T,-560.35,M,003.566,N,006.604,K,D*02
$GPGGA,093718.05,5702.9399279,N,00949.3274335,E,2,4,3.0,-6.552,M,40.592,M,1.7,0123*57
$GPVTG,081.15,T,-558.75,M,003.579,N,006.629,K,D*0F
$GPGGA,093718.10,5702.9399421,N,00949.3275308,E,2,4,3.0,-6.567,M,40.592,M,1.7,0123*51
$GPVTG,080.47,T,-559.43,M,003.670,N,006.796,K,D*02
$GPGGA,093718.15,5702.9399497,N,00949.3276236,E,2,4,3.0,-6.583,M,40.592,M,1.7,0123*5C
$GPVTG,080.73,T,-559.17,M,003.681,N,006.817,K,D*0C
$GPGGA,093718.20,5702.9399576,N,00949.3277150,E,2,4,3.0,-6.596,M,40.592,M,1.7,0123*52
$GPVTG,080.89,T,-559.01,M,003.673,N,006.802,K,D*07
$GPGGA,093718.25,5702.9399669,N,00949.3278218,E,2,4,3.0,-6.561,M,40.592,M,2.0,0123*56
$GPVTG,080.26,T,-559.64,M,003.693,N,006.840,K,D*09
$GPGGA,093718.30,5702.9399757,N,00949.3279169,E,2,4,3.0,-6.575,M,40.592,M,2.0,0123*5F
$GPVTG,080.38,T,-559.52,M,003.728,N,006.904,K,D*03
$GPGGA,093718.35,5702.9399879,N,00949.3280067,E,2,4,3.0,-6.586,M,40.592,M,2.0,0123*5C
$GPVTG,079.85,T,-560.05,M,003.699,N,006.851,K,D*01
$GPGGA,093718.40,5702.9399919,N,00949.3280962,E,2,4,3.0,-6.595,M,40.592,M,2.0,0123*57
$GPVTG,080.46,T,-559.44,M,003.658,N,006.774,K,D*02
$GPGGA,093718.45,5702.9399656,N,00949.3281982,E,2,4,3.0,-6.559,M,40.592,M,2.2,0123*5B
$GPVTG,080.50,T,-559.40,M,003.657,N,006.773,K,D*09
$GPGGA,093718.50,5702.9399744,N,00949.3282935,E,2,4,3.0,-6.566,M,40.592,M,2.2,0123*5E
$GPVTG,080.62,T,-559.28,M,003.699,N,006.850,K,D*0A
$GPGGA,093718.55,5702.9399773,N,00949.3283834,E,2,4,3.0,-6.577,M,40.592,M,2.2,0123*5E
$GPVTG,081.40,T,-558.50,M,003.660,N,006.779,K,D*07
$GPGGA,093718.60,5702.9399823,N,00949.3284734,E,2,4,3.0,-6.587,M,40.592,M,2.2,0123*55
$GPVTG,081.80,T,-558.10,M,003.632,N,006.727,K,D*03
$GPGGA,093718.65,5702.9399442,N,00949.3285667,E,2,4,3.0,-6.561,M,40.592,M,2.4,0123*53
$GPVTG,081.69,T,-558.21,M,003.563,N,006.599,K,D*06
$GPGGA,093718.70,5702.9399517,N,00949.3286680,E,2,4,3.0,-6.581,M,40.592,M,2.4,0123*52
$GPVTG,082.06,T,-557.84,M,003.692,N,006.838,K,D*07
$GPGGA,093718.75,5702.9399548,N,00949.3287616,E,2,4,3.0,-6.593,M,40.592,M,2.4,0123*50
$GPVTG,082.78,T,-557.12,M,003.700,N,006.853,K,D*06
$GPGGA,093718.80,5702.9399667,N,00949.3288539,E,2,4,3.0,-6.605,M,40.592,M,2.4,0123*59
$GPVTG,082.22,T,-557.68,M,003.700,N,006.852,K,D*05
$GPGGA,093718.85,5702.9400056,N,00949.3289592,E,2,4,3.0,-6.581,M,40.592,M,2.7,0123*53
$GPVTG,082.32,T,-557.58,M,003.701,N,006.855,K,D*01
$GPGGA,093718.90,5702.9400109,N,00949.3290495,E,2,4,3.0,-6.593,M,40.592,M,2.7,0123*51
$GPVTG,082.48,T,-557.42,M,003.671,N,006.798,K,D*0F
$GPGGA,093718.95,5702.9400225,N,00949.3291389,E,2,4,3.0,-6.605,M,40.592,M,2.7,0123*5E
$GPVTG,082.18,T,-557.72,M,003.636,N,006.735,K,D*0D
$GPGGA,093719.00,5702.9400395,N,00949.3292289,E,2,4,3.0,-6.615,M,40.592,M,2.7,0123*5A
$GPVTG,081.48,T,-558.42,M,003.621,N,006.705,K,D*02
$GPGGA,093719.05,5702.9400189,N,00949.3293307,E,2,4,3.0,-6.588,M,40.592,M,1.6,0123*53
$GPVTG,080.38,T,-559.52,M,003.637,N,006.735,K,D*00
$GPGGA,093719.10,5702.9400230,N,00949.3294283,E,2,4,3.0,-6.606,M,40.592,M,1.6,0123*59
$GPVTG,081.42,T,-558.48,M,003.703,N,006.859,K,D*05
$GPGGA,093719.15,5702.9400326,N,00949.3295180,E,2,4,3.0,-6.620,M,40.592,M,1.6,0123*5F
$GPVTG,081.05,T,-558.85,M,003.671,N,006.799,K,D*00
$GPGGA,093719.20,5702.9400415,N,00949.3296075,E,2,4,3.0,-6.631,M,40.592,M,1.6,0123*56
$GPVTG,080.82,T,-559.08,M,003.641,N,006.743,K,D*0E
$GPGGA,093719.25,5702.9399892,N,00949.3297100,E,2,4,3.0,-6.592,M,40.592,M,1.9,0123*50
$GPVTG,082.31,T,-557.59,M,003.624,N,006.711,K,D*0A
$GPGGA,093719.30,5702.9400004,N,00949.3298010,E,2,4,3.0,-6.598,M,40.592,M,1.9,0123*51
$GPVTG,081.57,T,-558.33,M,003.622,N,006.708,K,D*04
$GPGGA,093719.35,5702.9400053,N,00949.3298978,E,2,4,3.0,-6.611,M,40.592,M,1.9,0123*53
$GPVTG,082.14,T,-557.76,M,003.682,N,006.820,K,D*01
$GPGGA,093719.40,5702.9400068,N,00949.3299886,E,2,4,3.0,-6.623,M,40.592,M,1.9,0123*59
$GPVTG,082.93,T,-556.97,M,003.657,N,006.772,K,D*00
$GPGGA,093719.45,5702.9399735,N,00949.3300920,E,2,4,3.0,-6.583,M,40.592,M,2.1,0123*5A
$GPVTG,083.61,T,-556.29,M,003.650,N,006.759,K,D*07
$GPGGA,093719.50,5702.9399793,N,00949.3301854,E,2,4,3.0,-6.593,M,40.592,M,2.1,0123*50
$GPVTG,083.77,T,-556.13,M,003.664,N,006.785,K,D*0F
$GPGGA,093719.55,5702.9399866,N,00949.3302825,E,2,4,3.0,-6.601,M,40.592,M,2.1,0123*5D
$GPVTG,083.76,T,-556.14,M,003.721,N,006.891,K,D*03
$GPGGA,093719.60,5702.9399875,N,00949.3303813,E,2,4,3.0,-6.616,M,40.592,M,2.1,0123*5B
$GPVTG,084.61,T,-555.29,M,003.781,N,007.003,K,D*07
$GPGGA,093719.65,5702.9399753,N,00949.3304801,E,2,4,3.0,-6.585,M,40.592,M,2.3,0123*5A
$GPVTG,084.37,T,-555.53,M,003.707,N,006.866,K,D*0D
$GPGGA,093719.70,5702.9399820,N,00949.3305701,E,2,4,3.0,-6.590,M,40.592,M,2.3,0123*5F
$GPVTG,084.18,T,-555.72,M,003.665,N,006.788,K,D*09
$GPGGA,093719.75,5702.9399853,N,00949.3306642,E,2,4,3.0,-6.594,M,40.592,M,2.3,0123*5F
$GPVTG,084.61,T,-555.29,M,003.678,N,006.812,K,D*09
$GPGGA,093719.80,5702.9399888,N,00949.3307564,E,2,4,3.0,-6.596,M,40.592,M,2.3,0123*57
$GPVTG,084.92,T,-554.98,M,003.665,N,006.788,K,D*0E
$GPGGA,093719.85,5702.9400034,N,00949.3308498,E,2,4,3.0,-6.587,M,40.592,M,2.6,0123*52
$GPVTG,082.87,T,-557.03,M,003.672,N,006.801,K,D*05
$GPGGA,093719.90,5702.9400132,N,00949.3309419,E,2,4,3.0,-6.602,M,40.592,M,2.6,0123*57
$GPVTG,082.29,T,-557.61,M,003.668,N,006.793,K,D*0A
$GPGGA,093719.95,5702.9400156,N,00949.3310360,E,2,4,3.0,-6.618,M,40.592,M,2.6,0123*5A
$GPVTG,082.94,T,-556.96,M,003.680,N,006.815,K,D*02
$GPGGA,093720.00,5702.9400212,N,00949.3311289,E,2,4,3.0,-6.639,M,40.592,M,2.6,0123*5B
$GPVTG,083.04,T,-556.86,M,003.679,N,006.814,K,D*0C
$GPGGA,093720.05,5702.9399847,N,00949.3312469,E,2,4,3.0,-6.597,M,40.592,M,2.8,0123*51
$GPVTG,083.32,T,-556.58,M,003.783,N,007.007,K,D*05
$GPGGA,093720.10,5702.9399903,N,00949.3313458,E,2,4,3.0,-6.607,M,40.592,M,2.8,0123*5D
$GPVTG,083.52,T,-556.38,M,003.836,N,007.105,K,D*07
$GPGGA,093720.15,5702.9400014,N,00949.3314352,E,2,4,3.0,-6.609,M,40.592,M,2.8,0123*54
$GPVTG,082.73,T,-557.17,M,003.771,N,006.983,K,D*02
$GPGGA,093720.20,5702.9400056,N,00949.3315213,E,2,4,3.0,-6.608,M,40.592,M,2.8,0123*50
$GPVTG,082.83,T,-557.07,M,003.670,N,006.796,K,D*06
$GPGGA,093720.25,5702.9400071,N,00949.3316189,E,2,4,3.0,-6.581,M,40.592,M,3.0,0123*58
$GPVTG,081.56,T,-558.34,M,003.675,N,006.806,K,D*01
$GPGGA,093720.30,5702.9400140,N,00949.3317076,E,2,4,3.0,-6.587,M,40.592,M,3.0,0123*59
$GPVTG,081.46,T,-558.44,M,003.624,N,006.711,K,D*0A
$GPGGA,093720.35,5702.9400224,N,00949.3317991,E,2,4,3.0,-6.599,M,40.592,M,3.0,0123*52
$GPVTG,081.23,T,-558.67,M,003.617,N,006.699,K,D*09
$GPGGA,093720.40,5702.9400314,N,00949.3318895,E,2,4,3.0,-6.614,M,40.592,M,3.0,0123*5E
$GPVTG,080.91,T,-558.99,M,003.601,N,006.670,K,D*00
$GPGGA,093720.45,5702.9400271,N,00949.3319932,E,2,4,3.0,-6.587,M,40.592,M,3.2,0123*5F
$GPVTG,079.95,T,-559.95,M,003.653,N,006.765,K,D*0D
$GPGGA,093720.50,5702.9400380,N,00949.3320865,E,2,4,3.0,-6.606,M,40.592,M,3.2,0123*57
$GPVTG,079.50,T,-560.40,M,003.676,N,006.808,K,D*05
$GPGGA,093720.55,5702.9400451,N,00949.3321809,E,2,4,3.0,-6.625,M,40.592,M,3.2,0123*53
$GPVTG,079.71,T,-560.19,M,003.701,N,006.854,K,D*02
$GPGGA,093720.60,5702.9400573,N,00949.3322764,E,2,4,3.0,-6.642,M,40.592,M,3.2,0123*52
$GPVTG,079.25,T,-560.65,M,003.743,N,006.932,K,D*0F
$GPGGA,093720.65,5702.9400088,N,00949.3323872,E,2,4,3.0,-6.591,M,40.592,M,3.4,0123*54
$GPVTG,079.79,T,-560.11,M,003.746,N,006.937,K,D*05
$GPGGA,093720.70,5702.9400128,N,00949.3324796,E,2,4,3.0,-6.598,M,40.592,M,3.4,0123*50
$GPVTG,080.46,T,-559.44,M,003.728,N,006.904,K,D*0D
$GPGGA,093720.75,5702.9400234,N,00949.3325731,E,2,4,3.0,-6.603,M,40.592,M,3.4,0123*56
$GPVTG,080.11,T,-559.79,M,003.736,N,006.919,K,D*02
$GPGGA,093720.80,5702.9400332,N,00949.3326686,E,2,4,3.0,-6.611,M,40.592,M,3.4,0123*56
$GPVTG,079.97,T,-559.93,M,003.764,N,006.971,K,D*07
$GPGGA,093720.85,5702.9400369,N,00949.3327605,E,2,4,3.0,-6.609,M,40.592,M,3.6,0123*5C
$GPVTG,078.93,T,-560.97,M,003.731,N,006.910,K,D*0B
$GPGGA,093720.90,5702.9400453,N,00949.3328479,E,2,4,3.0,-6.622,M,40.592,M,3.6,0123*59
$GPVTG,078.81,T,-561.09,M,003.661,N,006.780,K,D*0D
$GPGGA,093720.95,5702.9400535,N,00949.3329372,E,2,4,3.0,-6.634,M,40.592,M,3.6,0123*57
$GPVTG,078.79,T,-561.11,M,003.626,N,006.716,K,D*0F
$GPGGA,093721.00,5702.9400607,N,00949.3330294,E,2,4,3.0,-6.646,M,40.592,M,3.6,0123*5C
$GPVTG,079.03,T,-560.87,M,003.631,N,006.725,K,D*0B
$GPGGA,093721.05,5702.9399942,N,00949.3331369,E,2,4,3.0,-6.596,M,40.592,M,1.9,0123*51
$GPVTG,080.22,T,-559.68,M,003.653,N,006.765,K,D*05
$GPGGA,093721.10,5702.9400020,N,00949.3332255,E,2,4,3.0,-6.604,M,40.592,M,1.9,0123*5A
$GPVTG,080.23,T,-559.67,M,003.613,N,006.691,K,D*05
$GPGGA,093721.15,5702.9400076,N,00949.3333184,E,2,4,3.0,-6.613,M,40.592,M,1.9,0123*54
$GPVTG,080.68,T,-559.22,M,003.629,N,006.721,K,D*08
$GPGGA,093721.20,5702.9400169,N,00949.3334153,E,2,4,3.0,-6.624,M,40.592,M,1.9,0123*54
$GPVTG,080.71,T,-559.19,M,003.694,N,006.842,K,D*04
$GPGGA,093721.25,5702.9400152,N,00949.3335161,E,2,4,3.0,-6.604,M,40.592,M,2.2,0123*53
$GPVTG,080.26,T,-559.64,M,003.700,N,006.853,K,D*00
$GPGGA,093721.30,5702.9400271,N,00949.3336075,E,2,4,3.0,-6.618,M,40.592,M,2.2,0123*5F
$GPVTG,079.67,T,-560.23,M,003.695,N,006.843,K,D*06
$GPGGA,093721.35,5702.9400328,N,00949.3336996,E,2,4,3.0,-6.632,M,40.592,M,2.2,0123*5B
$GPVTG,080.10,T,-559.80,M,003.688,N,006.830,K,D*0B
$GPGGA,093721.40,5702.9400396,N,00949.3337901,E,2,4,3.0,-6.646,M,40.592,M,2.2,0123*50
$GPVTG,080.28,T,-559.62,M,003.665,N,006.787,K,D*0C
$GPGGA,093721.45,5702.9400090,N,00949.3338930,E,2,4,3.0,-6.607,M,40.592,M,2.4,0123*5E
$GPVTG,080.47,T,-559.43,M,003.649,N,006.758,K,D*0A
$GPGGA,093721.50,5702.9400163,N,00949.3339848,E,2,4,3.0,-6.615,M,40.592,M,2.4,0123*5B
$GPVTG,080.66,T,-559.24,M,003.647,N,006.754,K,D*0A
$GPGGA,093721.55,5702.9400267,N,00949.3340780,E,2,4,3.0,-6.621,M,40.592,M,2.4,0123*5B
$GPVTG,080.41,T,-559.49,M,003.668,N,006.794,K,D*05
$GPGGA,093721.60,5702.9400366,N,00949.3341702,E,2,4,3.0,-6.632,M,40.592,M,2.4,0123*54
$GPVTG,080.22,T,-559.68,M,003.673,N,006.802,K,D*09
$GPGGA,093721.65,5702.9400462,N,00949.3342661,E,2,4,3.0,-6.618,M,40.592,M,2.7,0123*5E
$GPVTG,078.39,T,-561.51,M,003.665,N,006.787,K,D*00
$GPGGA,093721.70,5702.9400511,N,00949.3343526,E,2,4,3.0,-6.632,M,40.592,M,2.7,0123*56
$GPVTG,078.94,T,-560.96,M,003.594,N,006.657,K,D*0C
$GPGGA,093721.75,5702.9400603,N,00949.3344444,E,2,4,3.0,-6.647,M,40.592,M,2.7,0123*53
$GPVTG,078.96,T,-560.94,M,003.609,N,006.683,K,D*02
$GPGGA,093721.80,5702.9400721,N,00949.3345353,E,2,4,3.0,-6.659,M,40.592,M,2.7,0123*57
$GPVTG,078.60,T,-561.30,M,003.615,N,006.695,K,D*0E
$GPGGA,093721.85,5702.9400253,N,00949.3346410,E,2,4,3.0,-6.618,M,40.592,M,2.9,0123*5A
$GPVTG,079.50,T,-560.40,M,003.635,N,006.732,K,D*04
$GPGGA,093721.90,5702.9400352,N,00949.3347311,E,2,4,3.0,-6.630,M,40.592,M,2.9,0123*53
$GPVTG,079.31,T,-560.59,M,003.626,N,006.715,K,D*0C
$GPGGA,093721.95,5702.9400466,N,00949.3348232,E,2,4,3.0,-6.645,M,40.592,M,2.9,0123*5B
$GPVTG,079.04,T,-560.86,M,003.645,N,006.750,K,D*0C
$GPGGA,093722.00,5702.9400540,N,00949.3349200,E,2,4,3.0,-6.660,M,40.592,M,2.9,0123*56
$GPVTG,079.46,T,-560.44,M,003.710,N,006.870,K,D*08
$GPGGA,093722.05,5702.9400272,N,00949.3350221,E,2,4,3.0,-6.640,M,40.592,M,1.7,0123*51
$GPVTG,080.06,T,-559.84,M,003.714,N,006.879,K,D*01
$GPGGA,093722.10,5702.9400336,N,00949.3351145,E,2,4,3.0,-6.657,M,40.592,M,1.7,0123*52
$GPVTG,080.49,T,-559.41,M,003.712,N,006.874,K,D*08
$GPGGA,093722.15,5702.9400445,N,00949.3352043,E,2,4,3.0,-6.667,M,40.592,M,1.7,0123*53
$GPVTG,080.10,T,-559.80,M,003.684,N,006.822,K,D*04
$GPGGA,093722.20,5702.9400548,N,00949.3352930,E,2,4,3.0,-6.675,M,40.592,M,1.7,0123*57
$GPVTG,079.79,T,-560.11,M,003.647,N,006.754,K,D*0E
$GPGGA,093722.25,5702.9400294,N,00949.3353943,E,2,4,3.0,-6.637,M,40.592,M,2.0,0123*53
$GPVTG,080.03,T,-559.87,M,003.644,N,006.749,K,D*0F
$GPGGA,093722.30,5702.9400348,N,00949.3354849,E,2,4,3.0,-6.647,M,40.592,M,2.0,0123*5C
$GPVTG,080.56,T,-559.34,M,003.627,N,006.718,K,D*06
$GPGGA,093722.35,5702.9400430,N,00949.3355771,E,2,4,3.0,-6.654,M,40.592,M,2.0,0123*56
$GPVTG,080.65,T,-559.25,M,003.637,N,006.736,K,D*0B
$GPGGA,093722.40,5702.9400526,N,00949.3356714,E,2,4,3.0,-6.661,M,40.592,M,2.0,0123*54
$GPVTG,080.59,T,-559.31,M,003.672,N,006.800,K,D*0A
$GPGGA,093722.45,5702.9400416,N,00949.3357682,E,2,4,3.0,-6.658,M,40.592,M,2.2,0123*54
$GPVTG,080.45,T,-559.45,M,003.700,N,006.852,K,D*07
$GPGGA,093722.50,5702.9400521,N,00949.3358573,E,2,4,3.0,-6.675,M,40.592,M,2.2,0123*58
$GPVTG,080.04,T,-559.86,M,003.665,N,006.788,K,D*07
$GPGGA,093722.55,5702.9400644,N,00949.3359480,E,2,4,3.0,-6.691,M,40.592,M,2.2,0123*5B
$GPVTG,079.49,T,-560.41,M,003.658,N,006.774,K,D*04
$GPGGA,093722.60,5702.9400721,N,00949.3360371,E,2,4,3.0,-6.708,M,40.592,M,2.2,0123*5D
$GPVTG,079.58,T,-560.32,M,003.626,N,006.716,K,D*0D
$GPGGA,093722.65,5702.9400420,N,00949.3361440,E,2,4,3.0,-6.659,M,40.592,M,2.4,0123*5D
$GPVTG,079.90,T,-560.00,M,003.627,N,006.718,K,D*07
$GPGGA,093722.70,5702.9400486,N,00949.3362371,E,2,4,3.0,-6.673,M,40.592,M,2.4,0123*5B
$GPVTG,080.34,T,-559.56,M,003.647,N,006.754,K,D*08
$GPGGA,093722.75,5702.9400561,N,00949.3363315,E,2,4,3.0,-6.685,M,40.592,M,2.4,0123*5C
$GPVTG,080.60,T,-559.30,M,003.679,N,006.814,K,D*0F
$GPGGA,093722.80,5702.9400665,N,00949.3364245,E,2,4,3.0,-6.697,M,40.592,M,2.4,0123*51
$GPVTG,080.39,T,-559.51,M,003.695,N,006.842,K,D*05
$GPGGA,093722.85,5702.9400239,N,00949.3365222,E,2,4,3.0,-6.664,M,40.592,M,2.7,0123*56
$GPVTG,081.08,T,-558.82,M,003.641,N,006.743,K,D*0E
$GPGGA,093722.90,5702.9400326,N,00949.3366166,E,2,4,3.0,-6.677,M,40.592,M,2.7,0123*5F
$GPVTG,081.10,T,-558.80,M,003.676,N,006.808,K,D*01
$GPGGA,093722.95,5702.9400397,N,00949.3367109,E,2,4,3.0,-6.691,M,40.592,M,2.7,0123*50
$GPVTG,081.33,T,-558.57,M,003.700,N,006.852,K,D*05
$GPGGA,093723.00,5702.9400494,N,00949.3368060,E,2,4,3.0,-6.707,M,40.592,M,2.7,0123*56
$GPVTG,081.22,T,-558.68,M,003.732,N,006.912,K,D*0D
$GPGGA,093723.05,5702.9400382,N,00949.3369076,E,2,4,3.0,-6.674,M,40.592,M,1.6,0123*52
$GPVTG,080.55,T,-559.35,M,003.712,N,006.874,K,D*06
$GPGGA,093723.10,5702.9400444,N,00949.3369994,E,2,4,3.0,-6.685,M,40.592,M,1.6,0123*50
$GPVTG,080.91,T,-558.99,M,003.696,N,006.846,K,D*05
$GPGGA,093723.15,5702.9400459,N,00949.3370878,E,2,4,3.0,-6.695,M,40.592,M,1.6,0123*53
$GPVTG,081.77,T,-558.13,M,003.637,N,006.735,K,D*0E
$GPGGA,093723.20,5702.9400563,N,00949.3371812,E,2,4,3.0,-6.705,M,40.592,M,1.6,0123*58
$GPVTG,081.48,T,-558.42,M,003.657,N,006.773,K,D*02
$GPGGA,093723.25,5702.9400095,N,00949.3372865,E,2,4,3.0,-6.664,M,40.592,M,1.9,0123*5B
$GPVTG,081.68,T,-558.22,M,003.696,N,006.845,K,D*01
$GPGGA,093723.30,5702.9400136,N,00949.3373791,E,2,4,3.0,-6.674,M,40.592,M,1.9,0123*53
$GPVTG,082.28,T,-557.62,M,003.691,N,006.835,K,D*0D
$GPGGA,093723.35,5702.9400172,N,00949.3374767,E,2,4,3.0,-6.691,M,40.592,M,1.9,0123*53
$GPVTG,082.95,T,-556.95,M,003.743,N,006.931,K,D*09
$GPGGA,093723.40,5702.9400295,N,00949.3375728,E,2,4,3.0,-6.706,M,40.592,M,1.9,0123*5E
$GPVTG,082.39,T,-557.51,M,003.777,N,006.995,K,D*0F
$GPGGA,093723.45,5702.9400341,N,00949.3376761,E,2,4,3.0,-6.681,M,40.592,M,2.1,0123*58
$GPVTG,081.13,T,-558.77,M,003.761,N,006.966,K,D*04
$GPGGA,093723.50,5702.9400423,N,00949.3377690,E,2,4,3.0,-6.692,M,40.592,M,2.1,0123*53
$GPVTG,081.07,T,-558.83,M,003.749,N,006.943,K,D*07
$GPGGA,093723.55,5702.9400503,N,00949.3378645,E,2,4,3.0,-6.704,M,40.592,M,2.1,0123*5C
$GPVTG,081.11,T,-558.79,M,003.769,N,006.980,K,D*08
$GPGGA,093723.60,5702.9400545,N,00949.3379571,E,2,4,3.0,-6.718,M,40.592,M,2.1,0123*50
$GPVTG,081.57,T,-558.33,M,003.746,N,006.938,K,D*0A
$GPGGA,093723.65,5702.9400141,N,00949.3380571,E,2,4,3.0,-6.678,M,40.592,M,2.3,0123*56
$GPVTG,081.69,T,-558.21,M,003.689,N,006.831,K,D*0E
$GPGGA,093723.70,5702.9400222,N,00949.3381515,E,2,4,3.0,-6.682,M,40.592,M,2.3,0123*52
$GPVTG,081.66,T,-558.24,M,003.704,N,006.859,K,D*0E
$GPGGA,093723.75,5702.9400277,N,00949.3382453,E,2,4,3.0,-6.693,M,40.592,M,2.3,0123*57
$GPVTG,081.97,T,-557.93,M,003.706,N,006.864,K,D*0F
$GPGGA,093723.80,5702.9400315,N,00949.3383352,E,2,4,3.0,-6.700,M,40.592,M,2.3,0123*54
$GPVTG,082.39,T,-557.51,M,003.661,N,006.780,K,D*03
$GPGGA,093723.85,5702.9400008,N,00949.3384352,E,2,4,3.0,-6.673,M,40.592,M,2.6,0123*59
$GPVTG,082.18,T,-557.72,M,003.680,N,006.815,K,D*0D
$GPGGA,093723.90,5702.9400075,N,00949.3385277,E,2,4,3.0,-6.686,M,40.592,M,2.6,0123*5A
$GPVTG,082.26,T,-557.64,M,003.674,N,006.805,K,D*0D
$GPGGA,093723.95,5702.9400145,N,00949.3386211,E,2,4,3.0,-6.701,M,40.592,M,2.6,0123*50
$GPVTG,082.31,T,-557.59,M,003.680,N,006.815,K,D*0F
$GPGGA,093724.00,5702.9400271,N,00949.3387140,E,2,4,3.0,-6.715,M,40.592,M,2.6,0123*5C
$GPVTG,081.62,T,-558.28,M,003.686,N,006.826,K,D*05
$GPGGA,093724.05,5702.9400505,N,00949.3388234,E,2,4,3.0,-6.684,M,40.592,M,2.8,0123*55
$GPVTG,079.63,T,-560.27,M,003.737,N,006.921,K,D*0A
$GPGGA,093724.10,5702.9400563,N,00949.3389182,E,2,4,3.0,-6.703,M,40.592,M,2.8,0123*50
$GPVTG,080.13,T,-559.77,M,003.749,N,006.944,K,D*0E
$GPGGA,093724.15,5702.9400643,N,00949.3390132,E,2,4,3.0,-6.717,M,40.592,M,2.8,0123*52
$GPVTG,080.20,T,-559.70,M,003.765,N,006.973,K,D*03
$GPGGA,093724.20,5702.9400769,N,00949.3391050,E,2,4,3.0,-6.728,M,40.592,M,2.8,0123*55
$GPVTG,079.58,T,-560.32,M,003.750,N,006.946,K,D*06
$GPGGA,093724.25,5702.9400077,N,00949.3392185,E,2,4,3.0,-6.680,M,40.592,M,3.0,0123*58
$GPVTG,080.78,T,-559.12,M,003.793,N,007.024,K,D*09
$GPGGA,093724.30,5702.9400179,N,00949.3393139,E,2,4,3.0,-6.691,M,40.592,M,3.0,0123*55
$GPVTG,080.50,T,-559.40,M,003.806,N,007.049,K,D*0C
$GPGGA,093724.35,5702.9400255,N,00949.3394030,E,2,4,3.0,-6.703,M,40.592,M,3.0,0123*58
$GPVTG,080.46,T,-559.44,M,003.754,N,006.952,K,D*05
$GPGGA,093724.40,5702.9400323,N,00949.3394956,E,2,4,3.0,-6.714,M,40.592,M,3.0,0123*55
$GPVTG,080.61,T,-559.29,M,003.741,N,006.928,K,D*02
$GPGGA,093724.45,5702.9400103,N,00949.3395965,E,2,4,3.0,-6.683,M,40.592,M,3.2,0123*5C
$GPVTG,080.65,T,-559.25,M,003.739,N,006.924,K,D*09
$GPGGA,093724.50,5702.9400189,N,00949.3396876,E,2,4,3.0,-6.691,M,40.592,M,3.2,0123*59
$GPVTG,080.53,T,-559.37,M,003.717,N,006.885,K,D*09
$GPGGA,093724.55,5702.9400198,N,00949.3397790,E,2,4,3.0,-6.699,M,40.592,M,3.2,0123*52
$GPVTG,081.41,T,-558.49,M,003.692,N,006.838,K,D*09
$GPGGA,093724.60,5702.9400314,N,00949.3398703,E,2,4,3.0,-6.707,M,40.592,M,3.2,0123*51
$GPVTG,080.95,T,-558.95,M,003.683,N,006.821,K,D*08
$GPGGA,093724.65,5702.9400184,N,00949.3399708,E,2,4,3.0,-6.682,M,40.592,M,3.4,0123*5F
$GPVTG,080.67,T,-559.23,M,003.692,N,006.838,K,D*01
$GPGGA,093724.70,5702.9400304,N,00949.3400643,E,2,4,3.0,-6.692,M,40.592,M,3.4,0123*59
$GPVTG,080.15,T,-559.75,M,003.702,N,006.856,K,D*07
$GPGGA,093724.75,5702.9400352,N,00949.3401564,E,2,4,3.0,-6.704,M,40.592,M,3.4,0123*56
$GPVTG,080.55,T,-559.35,M,003.691,N,006.836,K,D*0A
$GPGGA,093724.80,5702.9400437,N,00949.3402489,E,2,4,3.0,-6.719,M,40.592,M,3.4,0123*55
$GPVTG,080.51,T,-559.39,M,003.689,N,006.833,K,D*0E
$GPGGA,093724.85,5702.9400117,N,00949.3403570,E,2,4,3.0,-6.684,M,40.592,M,3.6,0123*56
$GPVTG,080.54,T,-559.36,M,003.709,N,006.870,K,D*0A
$GPGGA,093724.90,5702.9400235,N,00949.3404503,E,2,4,3.0,-6.696,M,40.592,M,3.6,0123*51
$GPVTG,080.10,T,-559.80,M,003.716,N,006.881,K,D*07
$GPGGA,093724.95,5702.9400289,N,00949.3405460,E,2,4,3.0,-6.712,M,40.592,M,3.6,0123*5B
$GPVTG,080.46,T,-559.44,M,003.728,N,006.904,K,D*0D
$GPGGA,093725.00,5702.9400340,N,00949.3406392,E,2,4,3.0,-6.727,M,40.592,M,3.6,0123*5D
$GPVTG,080.76,T,-559.14,M,003.724,N,006.896,K,D*0D
$GPGGA,093725.05,5702.9400023,N,00949.3407409,E,2,4,3.0,-6.694,M,40.592,M,1.9,0123*5E
$GPVTG,080.87,T,-559.03,M,003.701,N,006.855,K,D*0D
$GPGGA,093725.10,5702.9400132,N,00949.3408328,E,2,4,3.0,-6.707,M,40.592,M,1.9,0123*5B
$GPVTG,080.52,T,-559.38,M,003.698,N,006.848,K,D*00
$GPGGA,093725.15,5702.9400162,N,00949.3409268,E,2,4,3.0,-6.717,M,40.592,M,1.9,0123*5E
$GPVTG,081.05,T,-558.85,M,003.698,N,006.849,K,D*05
$GPGGA,093725.20,5702.9400277,N,00949.3410202,E,2,4,3.0,-6.723,M,40.592,M,1.9,0123*5C
$GPVTG,080.75,T,-559.15,M,003.703,N,006.858,K,D*08
$GPGGA,093725.25,5702.9400384,N,00949.3411150,E,2,4,3.0,-6.697,M,40.592,M,2.2,0123*57
$GPVTG,079.49,T,-560.41,M,003.684,N,006.822,K,D*09
$GPGGA,093725.30,5702.9400461,N,00949.3412044,E,2,4,3.0,-6.708,M,40.592,M,2.2,0123*5F
$GPVTG,079.56,T,-560.34,M,003.664,N,006.785,K,D*09
$GPGGA,093725.35,5702.9400520,N,00949.3412941,E,2,4,3.0,-6.718,M,40.592,M,2.2,0123*53
$GPVTG,079.78,T,-560.12,M,003.646,N,006.752,K,D*0B
$GPGGA,093725.40,5702.9400584,N,00949.3413884,E,2,4,3.0,-6.729,M,40.592,M,2.2,0123*54
$GPVTG,079.99,T,-559.91,M,003.656,N,006.771,K,D*05
$GPGGA,093725.45,5702.9400065,N,00949.3414907,E,2,4,3.0,-6.693,M,40.592,M,2.4,0123*50
$GPVTG,080.31,T,-559.59,M,003.664,N,006.786,K,D*0C
$GPGGA,093725.50,5702.9400160,N,00949.3415808,E,2,4,3.0,-6.701,M,40.592,M,2.4,0123*55
$GPVTG,080.17,T,-559.73,M,003.653,N,006.766,K,D*0A
$GPGGA,093725.55,5702.9400235,N,00949.3416713,E,2,4,3.0,-6.710,M,40.592,M,2.4,0123*55
$GPVTG,080.22,T,-559.68,M,003.644,N,006.748,K,D*0C
$GPGGA,093725.60,5702.9400348,N,00949.3417651,E,2,4,3.0,-6.719,M,40.592,M,2.4,0123*57
$GPVTG,080.03,T,-559.87,M,003.656,N,006.770,K,D*06
$GPGGA,093725.65,5702.9400465,N,00949.3418622,E,2,4,3.0,-6.700,M,40.592,M,2.7,0123*5A
$GPVTG,079.11,T,-560.79,M,003.653,N,006.765,K,D*09
$GPGGA,093725.70,5702.9400568,N,00949.3419604,E,2,4,3.0,-6.715,M,40.592,M,2.7,0123*53
$GPVTG,079.09,T,-560.81,M,003.691,N,006.836,K,D*00
$GPGGA,093725.75,5702.9400656,N,00949.3420511,E,2,4,3.0,-6.728,M,40.592,M,2.7,0123*5B
$GPVTG,079.08,T,-560.82,M,003.682,N,006.819,K,D*0D
$GPGGA,093725.80,5702.9400725,N,00949.3421392,E,2,4,3.0,-6.740,M,40.592,M,2.7,0123*56
$GPVTG,079.17,T,-560.73,M,003.659,N,006.776,K,D*0D
$GPGGA,093725.85,5702.9400191,N,00949.3422453,E,2,4,3.0,-6.695,M,40.592,M,2.9,0123*54
$GPVTG,079.58,T,-560.32,M,003.657,N,006.773,K,D*08
$GPGGA,093725.90,5702.9400313,N,00949.3423356,E,2,4,3.0,-6.705,M,40.592,M,2.9,0123*53
$GPVTG,079.26,T,-560.64,M,003.652,N,006.764,K,D*01
$GPGGA,093725.95,5702.9400425,N,00949.3424267,E,2,4,3.0,-6.715,M,40.592,M,2.9,0123*51
$GPVTG,079.07,T,-560.83,M,003.651,N,006.762,K,D*0E
$GPGGA,093726.00,5702.9400536,N,00949.3425233,E,2,4,3.0,-6.724,M,40.592,M,2.9,0123*5F
$GPVTG,079.00,T,-560.90,M,003.679,N,006.814,K,D*0F
$GPGGA,093726.05,5702.9400702,N,00949.3426226,E,2,4,3.0,-6.702,M,40.592,M,1.7,0123*51
$GPVTG,078.05,T,-561.85,M,003.686,N,006.827,K,D*0E
$GPGGA,093726.10,5702.9400789,N,00949.3427159,E,2,4,3.0,-6.713,M,40.592,M,1.7,0123*5C
$GPVTG,078.16,T,-561.74,M,003.693,N,006.840,K,D*07
$GPGGA,093726.15,5702.9400879,N,00949.3428072,E,2,4,3.0,-6.725,M,40.592,M,1.7,0123*5B
$GPVTG,078.20,T,-561.70,M,003.689,N,006.832,K,D*08
$GPGGA,093726.20,5702.9400970,N,00949.3428979,E,2,4,3.0,-6.739,M,40.592,M,1.7,0123*5A
$GPVTG,078.20,T,-561.70,M,003.682,N,006.819,K,D*0A
$GPGGA,093726.25,5702.9400540,N,00949.3430010,E,2,4,3.0,-6.707,M,40.592,M,2.0,0123*56
$GPVTG,078.35,T,-561.55,M,003.694,N,006.841,K,D*03
$GPGGA,093726.30,5702.9400701,N,00949.3430946,E,2,4,3.0,-6.716,M,40.592,M,2.0,0123*5F
$GPVTG,077.85,T,-562.05,M,003.710,N,006.871,K,D*0F
$GPGGA,093726.35,5702.9400780,N,00949.3431895,E,2,4,3.0,-6.729,M,40.592,M,2.0,0123*51
$GPVTG,078.03,T,-561.87,M,003.724,N,006.896,K,D*09
$GPGGA,093726.40,5702.9400873,N,00949.3432811,E,2,4,3.0,-6.742,M,40.592,M,2.0,0123*52
$GPVTG,078.04,T,-561.86,M,003.719,N,006.888,K,D*0E
$GPGGA,093726.45,5702.9401085,N,00949.3433749,E,2,4,3.0,-6.721,M,40.592,M,2.2,0123*53
$GPVTG,076.94,T,-562.96,M,003.690,N,006.834,K,D*0C
$GPGGA,093726.50,5702.9401186,N,00949.3434663,E,2,4,3.0,-6.734,M,40.592,M,2.2,0123*5F
$GPVTG,076.96,T,-562.94,M,003.688,N,006.830,K,D*01
$GPGGA,093726.55,5702.9401358,N,00949.3435621,E,2,4,3.0,-6.745,M,40.592,M,2.2,0123*5A
$GPVTG,076.56,T,-563.34,M,003.718,N,006.885,K,D*00
$GPGGA,093726.60,5702.9401482,N,00949.3436559,E,2,4,3.0,-6.757,M,40.592,M,2.2,0123*50
$GPVTG,076.47,T,-563.43,M,003.729,N,006.906,K,D*08
$GPGGA,093726.65,5702.9401675,N,00949.3437532,E,2,4,3.0,-6.731,M,40.592,M,2.4,0123*55
$GPVTG,075.82,T,-564.08,M,003.721,N,006.892,K,D*0E
$GPGGA,093726.70,5702.9401679,N,00949.3438455,E,2,4,3.0,-6.745,M,40.592,M,2.4,0123*51
$GPVTG,076.05,T,-563.85,M,003.720,N,006.889,K,D*0B
$GPGGA,093726.75,5702.9401881,N,00949.3439444,E,2,4,3.0,-6.762,M,40.592,M,2.4,0123*59
$GPVTG,075.88,T,-564.02,M,003.764,N,006.971,K,D*03
$GPGGA,093726.80,5702.9402072,N,00949.3440333,E,2,4,3.0,-6.775,M,40.592,M,2.4,0123*5B
$GPVTG,075.50,T,-564.40,M,003.749,N,006.943,K,D*0E
$GPGGA,093726.85,5702.9401971,N,00949.3441370,E,2,4,3.0,-6.742,M,40.592,M,2.7,0123*56
$GPVTG,074.99,T,-564.91,M,003.762,N,006.968,K,D*06
$GPGGA,093726.90,5702.9402216,N,00949.3442286,E,2,4,3.0,-6.755,M,40.592,M,2.7,0123*56
$GPVTG,074.46,T,-565.44,M,003.766,N,006.975,K,D*05
$GPGGA,093726.95,5702.9402283,N,00949.3443217,E,2,4,3.0,-6.768,M,40.592,M,2.7,0123*58
$GPVTG,074.59,T,-565.31,M,003.772,N,006.986,K,D*00
$GPGGA,093727.00,5702.9402364,N,00949.3444127,E,2,4,3.0,-6.778,M,40.592,M,2.7,0123*5B
$GPVTG,074.61,T,-565.29,M,003.758,N,006.960,K,D*02
$GPGGA,093727.05,5702.9402223,N,00949.3445138,E,2,4,3.0,-6.753,M,40.592,M,1.6,0123*58
$GPVTG,074.61,T,-565.29,M,003.774,N,006.990,K,D*03
$GPGGA,093727.10,5702.9402387,N,00949.3446097,E,2,4,3.0,-6.764,M,40.592,M,1.6,0123*50
$GPVTG,074.36,T,-565.54,M,003.821,N,007.077,K,D*05
$GPGGA,093727.15,5702.9402602,N,00949.3447033,E,2,4,3.0,-6.772,M,40.592,M,1.6,0123*55
$GPVTG,073.49,T,-566.41,M,003.845,N,007.121,K,D*0D
$GPGGA,093727.20,5702.9402737,N,00949.3447957,E,2,4,3.0,-6.776,M,40.592,M,1.6,0123*5B
$GPVTG,073.42,T,-566.48,M,003.837,N,007.106,K,D*0F
$GPGGA,093727.25,5702.9402890,N,00949.3448921,E,2,4,3.0,-6.770,M,40.592,M,1.9,0123*5B
$GPVTG,072.92,T,-566.98,M,003.842,N,007.116,K,D*0D
$GPGGA,093727.30,5702.9403036,N,00949.3449826,E,2,4,3.0,-6.785,M,40.592,M,1.9,0123*57
$GPVTG,072.64,T,-567.26,M,003.816,N,007.068,K,D*09
$GPGGA,093727.35,5702.9403258,N,00949.3450746,E,2,4,3.0,-6.798,M,40.592,M,1.9,0123*55
$GPVTG,072.08,T,-567.82,M,003.820,N,007.074,K,D*05
$GPGGA,093727.40,5702.9403231,N,00949.3451646,E,2,4,3.0,-6.812,M,40.592,M,1.9,0123*55
$GPVTG,072.80,T,-567.10,M,003.774,N,006.989,K,D*0A
$GPGGA,093727.45,5702.9402770,N,00949.3452709,E,2,4,3.0,-6.776,M,40.592,M,2.1,0123*5E
$GPVTG,074.08,T,-565.82,M,003.788,N,007.016,K,D*08
$GPGGA,093727.50,5702.9402977,N,00949.3453624,E,2,4,3.0,-6.789,M,40.592,M,2.1,0123*5C
$GPVTG,072.91,T,-566.99,M,003.796,N,007.030,K,D*0C
$GPGGA,093727.55,5702.9403147,N,00949.3454613,E,2,4,3.0,-6.805,M,40.592,M,2.1,0123*5B
$GPVTG,072.92,T,-566.98,M,003.877,N,007.181,K,D*05
$GPGGA,093727.60,5702.9403276,N,00949.3455581,E,2,4,3.0,-6.817,M,40.592,M,2.1,0123*56
$GPVTG,073.32,T,-566.58,M,003.909,N,007.239,K,D*0A
$GPGGA,093727.65,5702.9403540,N,00949.3456610,E,2,4,3.0,-6.797,M,40.592,M,2.3,0123*5C
$GPVTG,073.39,T,-566.51,M,003.899,N,007.221,K,D*09
$GPGGA,093727.70,5702.9403602,N,00949.3457473,E,2,4,3.0,-6.805,M,40.592,M,2.3,0123*5F
$GPVTG,073.50,T,-566.40,M,003.803,N,007.043,K,D*03
$GPGGA,093727.75,5702.9403876,N,00949.3458418,E,2,4,3.0,-6.815,M,40.592,M,2.3,0123*54
$GPVTG,072.68,T,-567.22,M,003.836,N,007.105,K,D*09
$GPGGA,093727.80,5702.9404078,N,00949.3459370,E,2,4,3.0,-6.825,M,40.592,M,2.3,0123*54
$GPVTG,072.36,T,-567.54,M,003.867,N,007.162,K,D*06
$GPGGA,093727.85,5702.9403959,N,00949.3460374,E,2,4,3.0,-6.805,M,40.592,M,2.6,0123*55
$GPVTG,071.89,T,-568.01,M,003.886,N,007.197,K,D*0B
$GPGGA,093727.90,5702.9404150,N,00949.3461295,E,2,4,3.0,-6.819,M,40.592,M,2.6,0123*55
$GPVTG,071.22,T,-568.68,M,003.880,N,007.186,K,D*03
$GPGGA,093727.95,5702.9404334,N,00949.3462251,E,2,4,3.0,-6.832,M,40.592,M,2.6,0123*52
$GPVTG,070.99,T,-568.91,M,003.913,N,007.247,K,D*01
$GPGGA,093728.00,5702.9404537,N,00949.3463215,E,2,4,3.0,-6.841,M,40.592,M,2.6,0123*51
$GPVTG,070.59,T,-569.31,M,003.954,N,007.323,K,D*06
$GPGGA,093728.05,5702.9404667,N,00949.3464244,E,2,4,3.0,-6.824,M,40.592,M,2.8,0123*5C
$GPVTG,070.01,T,-569.89,M,003.964,N,007.342,K,D*0C
$GPGGA,093728.10,5702.9404852,N,00949.3465163,E,2,4,3.0,-6.840,M,40.592,M,2.8,0123*55
$GPVTG,069.66,T,-570.24,M,003.944,N,007.304,K,D*0A
$GPGGA,093728.15,5702.9405096,N,00949.3466077,E,2,4,3.0,-6.850,M,40.592,M,2.8,0123*57
$GPVTG,068.91,T,-570.99,M,003.932,N,007.282,K,D*0B
$GPGGA,093728.20,5702.9405194,N,00949.3466997,E,2,4,3.0,-6.861,M,40.592,M,2.8,0123*57
$GPVTG,069.26,T,-570.64,M,003.903,N,007.228,K,D*06
$GPGGA,093728.25,5702.9404874,N,00949.3468018,E,2,4,3.0,-6.825,M,40.592,M,3.0,0123*5D
$GPVTG,070.00,T,-569.90,M,003.857,N,007.142,K,D*06
$GPGGA,093728.30,5702.9405049,N,00949.3468987,E,2,4,3.0,-6.836,M,40.592,M,3.0,0123*53
$GPVTG,070.29,T,-569.61,M,003.905,N,007.233,K,D*00
$GPGGA,093728.35,5702.9405231,N,00949.3469884,E,2,4,3.0,-6.841,M,40.592,M,3.0,0123*58
$GPVTG,069.94,T,-569.96,M,003.865,N,007.159,K,D*0E
$GPGGA,093728.40,5702.9405428,N,00949.3470828,E,2,4,3.0,-6.850,M,40.592,M,3.0,0123*5A
$GPVTG,069.72,T,-570.18,M,003.891,N,007.206,K,D*0A
$GPGGA,093728.45,5702.9405433,N,00949.3471842,E,2,4,3.0,-6.834,M,40.592,M,3.2,0123*58
$GPVTG,069.60,T,-570.30,M,003.931,N,007.281,K,D*07
$GPGGA,093728.50,5702.9405639,N,00949.3472805,E,2,4,3.0,-6.844,M,40.592,M,3.2,0123*53
$GPVTG,069.39,T,-570.51,M,003.974,N,007.360,K,D*03
$GPGGA,093728.55,5702.9405819,N,00949.3473771,E,2,4,3.0,-6.854,M,40.592,M,3.2,0123*56
$GPVTG,069.57,T,-570.33,M,004.002,N,007.412,K,D*02
$GPGGA,093728.60,5702.9405991,N,00949.3474717,E,2,4,3.0,-6.864,M,40.592,M,3.2,0123*55
$GPVTG,069.70,T,-570.20,M,004.000,N,007.408,K,D*0C
$GPGGA,093728.65,5702.9406033,N,00949.3475751,E,2,4,3.0,-6.846,M,40.592,M,3.4,0123*57
$GPVTG,069.14,T,-570.76,M,004.019,N,007.443,K,D*0A
$GPGGA,093728.70,5702.9406362,N,00949.3476666,E,2,4,3.0,-6.858,M,40.592,M,3.4,0123*5D
$GPVTG,068.01,T,-571.89,M,004.008,N,007.423,K,D*08
$GPGGA,093728.75,5702.9406617,N,00949.3477629,E,2,4,3.0,-6.872,M,40.592,M,3.4,0123*5D
$GPVTG,067.62,T,-572.28,M,004.043,N,007.488,K,D*04
$GPGGA,093728.80,5702.9406721,N,00949.3478557,E,2,4,3.0,-6.883,M,40.592,M,3.4,0123*58
$GPVTG,067.98,T,-571.92,M,004.009,N,007.424,K,D*0B
$GPGGA,093728.85,5702.9406727,N,00949.3479561,E,2,4,3.0,-6.869,M,40.592,M,3.6,0123*59
$GPVTG,068.14,T,-571.76,M,003.993,N,007.395,K,D*0A
$GPGGA,093728.90,5702.9406954,N,00949.3480459,E,2,4,3.0,-6.879,M,40.592,M,3.6,0123*5A
$GPVTG,067.53,T,-572.37,M,003.952,N,007.320,K,D*03
$GPGGA,093728.95,5702.9407031,N,00949.3481350,E,2,4,3.0,-6.892,M,40.592,M,3.6,0123*5E
$GPVTG,068.14,T,-571.76,M,003.879,N,007.184,K,D*0D
$GPGGA,093729.00,5702.9407218,N,00949.3482296,E,2,4,3.0,-6.903,M,40.592,M,3.6,0123*5B
$GPVTG,068.28,T,-571.62,M,003.899,N,007.222,K,D*06
$GPGGA,093729.05,5702.9406865,N,00949.3483330,E,2,4,3.0,-6.861,M,40.592,M,1.9,0123*5B
$GPVTG,068.78,T,-571.12,M,003.899,N,007.222,K,D*04
$GPGGA,093729.10,5702.9407085,N,00949.3484267,E,2,4,3.0,-6.870,M,40.592,M,1.9,0123*5C
$GPVTG,068.29,T,-571.61,M,003.923,N,007.265,K,D*07
$GPGGA,093729.15,5702.9407307,N,00949.3485242,E,2,4,3.0,-6.890,M,40.592,M,1.9,0123*58
$GPVTG,068.16,T,-571.74,M,003.986,N,007.382,K,D*08
$GPGGA,093729.20,5702.9407494,N,00949.3486206,E,2,4,3.0,-6.903,M,40.592,M,1.9,0123*5B
$GPVTG,068.48,T,-571.42,M,004.010,N,007.427,K,D*0F
$GPGGA,093729.25,5702.9407977,N,00949.3487185,E,2,4,3.0,-6.884,M,40.592,M,2.2,0123*51
$GPVTG,067.91,T,-571.99,M,003.955,N,007.324,K,D*09
$GPGGA,093729.30,5702.9408078,N,00949.3488109,E,2,4,3.0,-6.900,M,40.592,M,2.2,0123*5A
$GPVTG,068.48,T,-571.42,M,003.927,N,007.272,K,D*03
$GPGGA,093729.35,5702.9408499,N,00949.3489071,E,2,4,3.0,-6.918,M,40.592,M,2.2,0123*52
$GPVTG,067.05,T,-572.85,M,004.004,N,007.416,K,D*06
$GPGGA,093729.40,5702.9408588,N,00949.3489971,E,2,4,3.0,-6.930,M,40.592,M,2.2,0123*52
$GPVTG,067.61,T,-572.29,M,003.943,N,007.303,K,D*0C
$GPGGA,093729.45,5702.9408199,N,00949.3491007,E,2,4,3.0,-6.890,M,40.592,M,2.4,0123*5F
$GPVTG,068.19,T,-571.71,M,003.929,N,007.276,K,D*0D
$GPGGA,093729.50,5702.9408556,N,00949.3491961,E,2,4,3.0,-6.900,M,40.592,M,2.4,0123*5D
$GPVTG,067.02,T,-572.88,M,003.993,N,007.395,K,D*00
$GPGGA,093729.55,5702.9408866,N,00949.3492869,E,2,4,3.0,-6.909,M,40.592,M,2.4,0123*55
$GPVTG,065.96,T,-573.94,M,003.991,N,007.392,K,D*06
$GPGGA,093729.60,5702.9409050,N,00949.3493833,E,2,4,3.0,-6.928,M,40.592,M,2.4,0123*52
$GPVTG,066.36,T,-573.54,M,004.023,N,007.450,K,D*0D
$GPGGA,093729.65,5702.9409032,N,00949.3494863,E,2,4,3.0,-6.898,M,40.592,M,2.7,0123*58
$GPVTG,066.09,T,-573.81,M,004.043,N,007.488,K,D*0A
$GPGGA,093729.70,5702.9409107,N,00949.3495789,E,2,4,3.0,-6.913,M,40.592,M,2.7,0123*53
$GPVTG,067.25,T,-572.65,M,003.993,N,007.395,K,D*06
$GPGGA,093729.75,5702.9409271,N,00949.3496734,E,2,4,3.0,-6.925,M,40.592,M,2.7,0123*54
$GPVTG,067.70,T,-572.20,M,003.992,N,007.394,K,D*07
$GPGGA,093729.80,5702.9409598,N,00949.3497664,E,2,4,3.0,-6.936,M,40.592,M,2.7,0123*59
$GPVTG,066.52,T,-573.38,M,004.018,N,007.442,K,D*0E
$GPGGA,093729.85,5702.9409406,N,00949.3498707,E,2,4,3.0,-6.889,M,40.592,M,2.9,0123*5A
$GPVTG,065.15,T,-574.75,M,004.055,N,007.510,K,D*0F
$GPGGA,093729.90,5702.9409570,N,00949.3499659,E,2,4,3.0,-6.895,M,40.592,M,2.9,0123*58
$GPVTG,065.77,T,-574.13,M,004.057,N,007.513,K,D*0A
$GPGGA,093729.95,5702.9409756,N,00949.3500564,E,2,4,3.0,-6.902,M,40.592,M,2.9,0123*58
$GPVTG,065.83,T,-574.07,M,004.012,N,007.430,K,D*05
$GPGGA,093730.00,5702.9409914,N,00949.3501530,E,2,4,3.0,-6.915,M,40.592,M,2.9,0123*52
$GPVTG,066.59,T,-573.31,M,004.030,N,007.463,K,D*05
$GPGGA,093730.05,5702.9409806,N,00949.3502567,E,2,4,3.0,-6.888,M,40.592,M,1.7,0123*5C
$GPVTG,067.57,T,-572.33,M,004.032,N,007.467,K,D*0F
$GPGGA,093730.10,5702.9409981,N,00949.3503528,E,2,4,3.0,-6.903,M,40.592,M,1.7,0123*5E
$GPVTG,068.03,T,-571.87,M,004.041,N,007.485,K,D*05
$GPGGA,093730.15,5702.9410204,N,00949.3504487,E,2,4,3.0,-6.914,M,40.592,M,1.7,0123*50
$GPVTG,067.97,T,-571.93,M,004.060,N,007.519,K,D*05
$GPGGA,093730.20,5702.9410442,N,00949.3505436,E,2,4,3.0,-6.922,M,40.592,M,1.7,0123*5C
$GPVTG,067.69,T,-572.21,M,004.066,N,007.531,K,D*02
$GPGGA,093730.25,5702.9410175,N,00949.3506471,E,2,4,3.0,-6.877,M,40.592,M,2.0,0123*5D
$GPVTG,066.68,T,-573.22,M,004.069,N,007.536,K,D*08
$GPGGA,093730.30,5702.9410366,N,00949.3507448,E,2,4,3.0,-6.888,M,40.592,M,2.0,0123*52
$GPVTG,067.12,T,-572.78,M,004.093,N,007.580,K,D*02
$GPGGA,093730.35,5702.9410535,N,00949.3508385,E,2,4,3.0,-6.898,M,40.592,M,2.0,0123*5F
$GPVTG,067.47,T,-572.43,M,004.062,N,007.524,K,D*0A
$GPGGA,093730.40,5702.9410771,N,00949.3509344,E,2,4,3.0,-6.908,M,40.592,M,2.0,0123*5B
$GPVTG,067.29,T,-572.61,M,004.077,N,007.550,K,D*05
$GPGGA,093730.45,5702.9410767,N,00949.3510374,E,2,4,3.0,-6.883,M,40.592,M,2.2,0123*52
$GPVTG,067.41,T,-572.49,M,004.084,N,007.563,K,D*0D
$GPGGA,093730.50,5702.9410896,N,00949.3511298,E,2,4,3.0,-6.894,M,40.592,M,2.2,0123*53
$GPVTG,068.09,T,-571.81,M,004.024,N,007.452,K,D*00
$GPGGA,093730.55,5702.9411073,N,00949.3512204,E,2,4,3.0,-6.904,M,40.592,M,2.2,0123*5A
$GPVTG,068.14,T,-571.76,M,003.967,N,007.348,K,D*01
$GPGGA,093730.60,5702.9411245,N,00949.3513194,E,2,4,3.0,-6.917,M,40.592,M,2.2,0123*52
$GPVTG,068.79,T,-571.11,M,004.008,N,007.423,K,D*06
$GPGGA,093730.65,5702.9410867,N,00949.3514214,E,2,4,3.0,-6.875,M,40.592,M,2.4,0123*53
$GPVTG,070.19,T,-569.71,M,003.932,N,007.282,K,D*0C
$GPGGA,093730.70,5702.9411032,N,00949.3515154,E,2,4,3.0,-6.882,M,40.592,M,2.4,0123*50
$GPVTG,070.73,T,-569.17,M,003.914,N,007.248,K,D*02
$GPGGA,093730.75,5702.9411231,N,00949.3516130,E,2,4,3.0,-6.892,M,40.592,M,2.4,0123*54
$GPVTG,070.71,T,-569.19,M,003.957,N,007.329,K,D*0F
$GPGGA,093730.80,5702.9411400,N,00949.3517074,E,2,4,3.0,-6.901,M,40.592,M,2.4,0123*51
$GPVTG,071.01,T,-568.89,M,003.944,N,007.305,K,D*0D
$GPGGA,093730.85,5702.9411460,N,00949.3518047,E,2,4,3.0,-6.878,M,40.592,M,2.7,0123*51
$GPVTG,070.72,T,-569.18,M,003.903,N,007.228,K,D*0C
$GPGGA,093730.90,5702.9411679,N,00949.3519001,E,2,4,3.0,-6.893,M,40.592,M,2.7,0123*59
$GPVTG,070.63,T,-569.27,M,003.921,N,007.261,K,D*0D
$GPGGA,093730.95,5702.9411985,N,00949.3519965,E,2,4,3.0,-6.905,M,40.592,M,2.7,0123*55
$GPVTG,069.96,T,-569.94,M,003.963,N,007.339,K,D*0D
$GPGGA,093731.00,5702.9412147,N,00949.3520911,E,2,4,3.0,-6.918,M,40.592,M,2.7,0123*58
$GPVTG,070.22,T,-569.68,M,003.957,N,007.329,K,D*0F
$GPGGA,093731.05,5702.9411829,N,00949.3521971,E,2,4,3.0,-6.884,M,40.592,M,1.6,0123*5E
$GPVTG,071.38,T,-568.52,M,003.931,N,007.280,K,D*0F
$GPGGA,093731.10,5702.9412078,N,00949.3522952,E,2,4,3.0,-6.895,M,40.592,M,1.6,0123*57
$GPVTG,071.06,T,-568.84,M,003.981,N,007.374,K,D*08
$GPGGA,093731.15,5702.9412193,N,00949.3523898,E,2,4,3.0,-6.905,M,40.592,M,1.6,0123*58
$GPVTG,071.68,T,-568.22,M,003.959,N,007.333,K,D*0A
$GPGGA,093731.20,5702.9412452,N,00949.3524869,E,2,4,3.0,-6.915,M,40.592,M,1.6,0123*5E
$GPVTG,071.15,T,-568.75,M,003.995,N,007.399,K,D*02
$GPGGA,093731.25,5702.9412361,N,00949.3525864,E,2,4,3.0,-6.886,M,40.592,M,1.9,0123*54
$GPVTG,069.77,T,-570.13,M,003.987,N,007.384,K,D*09
$GPGGA,093731.30,5702.9412575,N,00949.3526751,E,2,4,3.0,-6.896,M,40.592,M,1.9,0123*58
$GPVTG,069.17,T,-570.73,M,003.921,N,007.261,K,D*0F
$GPGGA,093731.35,5702.9412602,N,00949.3527696,E,2,4,3.0,-6.909,M,40.592,M,1.9,0123*52
$GPVTG,070.80,T,-569.10,M,003.887,N,007.199,K,D*0D
$GPGGA,093731.40,5702.9412678,N,00949.3528651,E,2,4,3.0,-6.923,M,40.592,M,1.9,0123*51
$GPVTG,071.98,T,-567.92,M,003.880,N,007.185,K,D*0B
$GPGGA,093731.45,5702.9412350,N,00949.3529732,E,2,4,3.0,-6.882,M,40.592,M,2.1,0123*5F
$GPVTG,073.24,T,-566.66,M,003.892,N,007.208,K,D*01
$GPGGA,093731.50,5702.9412526,N,00949.3530669,E,2,4,3.0,-6.891,M,40.592,M,2.1,0123*59
$GPVTG,072.90,T,-567.00,M,003.886,N,007.197,K,D*0E
$GPGGA,093731.55,5702.9412666,N,00949.3531578,E,2,4,3.0,-6.899,M,40.592,M,2.1,0123*51
$GPVTG,073.21,T,-566.69,M,003.834,N,007.101,K,D*0D
$GPGGA,093731.60,5702.9412837,N,00949.3532512,E,2,4,3.0,-6.908,M,40.592,M,2.1,0123*5B
$GPVTG,073.10,T,-566.80,M,003.831,N,007.095,K,D*01
$GPGGA,093731.65,5702.9412954,N,00949.3533531,E,2,4,3.0,-6.882,M,40.592,M,2.3,0123*5B
$GPVTG,073.08,T,-566.82,M,003.831,N,007.094,K,D*0B
$GPGGA,093731.70,5702.9413296,N,00949.3534453,E,2,4,3.0,-6.895,M,40.592,M,2.3,0123*5F
$GPVTG,071.77,T,-568.13,M,003.841,N,007.113,K,D*0E
$GPGGA,093731.75,5702.9413592,N,00949.3535402,E,2,4,3.0,-6.911,M,40.592,M,2.3,0123*51
$GPVTG,070.96,T,-568.94,M,003.878,N,007.183,K,D*0C
$GPGGA,093731.80,5702.9413634,N,00949.3536385,E,2,4,3.0,-6.926,M,40.592,M,2.3,0123*5B
$GPVTG,072.27,T,-567.63,M,003.907,N,007.236,K,D*07
$GPGGA,093731.85,5702.9413517,N,00949.3537437,E,2,4,3.0,-6.894,M,40.592,M,2.6,0123*5E
$GPVTG,071.51,T,-568.39,M,003.925,N,007.269,K,D*0F
$GPGGA,093731.90,5702.9413630,N,00949.3538343,E,2,4,3.0,-6.908,M,40.592,M,2.6,0123*53
