$GPGGA,095124.05,5702.9845368,N,00949.4923761,E,2,5,1.5,-3.389,M,40.595,M,1.7,0123*5C
$GPVTG,289.57,T,-350.33,M,006.206,N,011.493,K,D*00
$GPGGA,095124.10,5702.9845671,N,00949.4922307,E,2,5,1.5,-3.389,M,40.595,M,1.7,0123*50
$GPVTG,289.77,T,-350.13,M,006.185,N,011.455,K,D*02
$GPGGA,095124.15,5702.9845960,N,00949.4920837,E,2,5,1.5,-3.391,M,40.595,M,1.7,0123*59
$GPVTG,289.72,T,-350.18,M,006.175,N,011.436,K,D*06
$GPGGA,095124.20,5702.9846239,N,00949.4919359,E,2,5,1.5,-3.395,M,40.595,M,1.7,0123*56
$GPVTG,289.54,T,-350.36,M,006.169,N,011.425,K,D*01
$GPGGA,095124.25,5702.9846537,N,00949.4917904,E,2,5,1.5,-3.398,M,40.595,M,1.9,0123*55
$GPVTG,289.73,T,-350.17,M,006.176,N,011.439,K,D*04
$GPGGA,095124.30,5702.9846804,N,00949.4916350,E,2,5,1.5,-3.400,M,40.595,M,1.9,0123*50
$GPVTG,289.18,T,-350.72,M,006.231,N,011.541,K,D*04
$GPGGA,095124.35,5702.9847098,N,00949.4914839,E,2,5,1.5,-3.401,M,40.595,M,1.9,0123*5E
$GPVTG,289.18,T,-350.72,M,006.254,N,011.582,K,D*08
$GPGGA,095124.40,5702.9847398,N,00949.4913392,E,2,5,1.5,-3.402,M,40.595,M,1.9,0123*51
$GPVTG,289.45,T,-350.45,M,006.220,N,011.519,K,D*05
$GPGGA,095124.45,5702.9847670,N,00949.4911929,E,2,5,1.5,-3.408,M,40.595,M,2.2,0123*5D
$GPVTG,289.32,T,-350.58,M,006.210,N,011.502,K,D*00
$GPGGA,095124.50,5702.9847965,N,00949.4910447,E,2,5,1.5,-3.409,M,40.595,M,2.2,0123*57
$GPVTG,289.42,T,-350.48,M,006.209,N,011.499,K,D*0D
$GPGGA,095124.55,5702.9848229,N,00949.4908958,E,2,5,1.5,-3.411,M,40.595,M,2.2,0123*5D
$GPVTG,289.09,T,-350.81,M,006.198,N,011.479,K,D*02
$GPGGA,095124.60,5702.9848494,N,00949.4907447,E,2,5,1.5,-3.412,M,40.595,M,2.2,0123*54
$GPVTG,288.76,T,-351.14,M,006.210,N,011.501,K,D*0B
$GPGGA,095124.65,5702.9848757,N,00949.4905969,E,2,5,1.5,-3.419,M,40.595,M,2.4,0123*53
$GPVTG,288.61,T,-351.29,M,006.214,N,011.509,K,D*0F
$GPGGA,095124.70,5702.9849040,N,00949.4904505,E,2,5,1.5,-3.420,M,40.595,M,2.4,0123*5A
$GPVTG,288.72,T,-351.18,M,006.190,N,011.465,K,D*0B
$GPGGA,095124.75,5702.9849363,N,00949.4902999,E,2,5,1.5,-3.423,M,40.595,M,2.4,0123*51
$GPVTG,289.23,T,-350.67,M,006.225,N,011.529,K,D*03
$GPGGA,095124.80,5702.9849628,N,00949.4901515,E,2,5,1.5,-3.424,M,40.595,M,2.4,0123*5D
$GPVTG,288.98,T,-350.92,M,006.208,N,011.498,K,D*0C
$GPGGA,095124.85,5702.9849881,N,00949.4900069,E,2,5,1.5,-3.424,M,40.595,M,2.7,0123*59
$GPVTG,288.75,T,-351.15,M,006.173,N,011.432,K,D*0E
$GPGGA,095124.90,5702.9850152,N,00949.4898622,E,2,5,1.5,-3.424,M,40.595,M,2.7,0123*5B
$GPVTG,288.75,T,-351.15,M,006.132,N,011.357,K,D*0F
$GPGGA,095124.95,5702.9850431,N,00949.4897143,E,2,5,1.5,-3.423,M,40.595,M,2.7,0123*56
$GPVTG,288.76,T,-351.14,M,006.130,N,011.353,K,D*0B
$GPGGA,095125.00,5702.9850703,N,00949.4895631,E,2,5,1.5,-3.422,M,40.595,M,2.7,0123*58
$GPVTG,288.61,T,-351.29,M,006.155,N,011.400,K,D*01
$GPGGA,095125.05,5702.9850960,N,00949.4894152,E,2,5,1.5,-3.430,M,40.595,M,1.5,0123*57
$GPVTG,288.32,T,-351.58,M,006.169,N,011.424,K,D*08
$GPGGA,095125.10,5702.9851229,N,00949.4892679,E,2,5,1.5,-3.432,M,40.595,M,1.5,0123*5E
$GPVTG,288.29,T,-351.61,M,006.153,N,011.395,K,D*0C
$GPGGA,095125.15,5702.9851496,N,00949.4891190,E,2,5,1.5,-3.434,M,40.595,M,1.5,0123*5C
$GPVTG,288.20,T,-351.70,M,006.153,N,011.395,K,D*05
$GPGGA,095125.20,5702.9851802,N,00949.4889746,E,2,5,1.5,-3.436,M,40.595,M,1.5,0123*5D
$GPVTG,288.77,T,-351.13,M,006.132,N,011.356,K,D*0A
$GPGGA,095125.25,5702.9852063,N,00949.4888228,E,2,5,1.5,-3.434,M,40.595,M,1.8,0123*57
$GPVTG,288.53,T,-351.37,M,006.174,N,011.434,K,D*0B
$GPGGA,095125.30,5702.9852347,N,00949.4886732,E,2,5,1.5,-3.434,M,40.595,M,1.8,0123*56
$GPVTG,288.62,T,-351.28,M,006.187,N,011.458,K,D*01
$GPGGA,095125.35,5702.9852620,N,00949.4885252,E,2,5,1.5,-3.436,M,40.595,M,1.8,0123*55
$GPVTG,288.62,T,-351.28,M,006.178,N,011.442,K,D*0A
$GPGGA,095125.40,5702.9852861,N,00949.4883747,E,2,5,1.5,-3.438,M,40.595,M,1.8,0123*55
$GPVTG,288.14,T,-351.76,M,006.178,N,011.442,K,D*00
$GPGGA,095125.45,5702.9853139,N,00949.4882285,E,2,5,1.5,-3.442,M,40.595,M,2.0,0123*59
$GPVTG,288.34,T,-351.56,M,006.174,N,011.435,K,D*0C
$GPGGA,095125.50,5702.9853443,N,00949.4880796,E,2,5,1.5,-3.445,M,40.595,M,2.0,0123*57
$GPVTG,288.77,T,-351.13,M,006.189,N,011.462,K,D*0A
$GPGGA,095125.55,5702.9853730,N,00949.4879326,E,2,5,1.5,-3.449,M,40.595,M,2.0,0123*50
$GPVTG,288.98,T,-350.92,M,006.178,N,011.441,K,D*0C
$GPGGA,095125.60,5702.9853984,N,00949.4877801,E,2,5,1.5,-3.452,M,40.595,M,2.0,0123*5D
$GPVTG,288.57,T,-351.33,M,006.201,N,011.485,K,D*00
$GPGGA,095125.65,5702.9854256,N,00949.4876305,E,2,5,1.5,-3.445,M,40.595,M,2.2,0123*51
$GPVTG,288.60,T,-351.30,M,006.213,N,011.507,K,D*0F
$GPGGA,095125.70,5702.9854555,N,00949.4874864,E,2,5,1.5,-3.445,M,40.595,M,2.2,0123*5F
$GPVTG,289.07,T,-350.83,M,006.179,N,011.443,K,D*08
$GPGGA,095125.75,5702.9854816,N,00949.4873348,E,2,5,1.5,-3.442,M,40.595,M,2.2,0123*55
$GPVTG,288.78,T,-351.12,M,006.197,N,011.476,K,D*0E
$GPGGA,095125.80,5702.9855088,N,00949.4871832,E,2,5,1.5,-3.441,M,40.595,M,2.2,0123*56
$GPVTG,288.66,T,-351.24,M,006.217,N,011.514,K,D*0A
$GPGGA,095125.85,5702.9855362,N,00949.4870384,E,2,5,1.5,-3.443,M,40.595,M,2.5,0123*56
$GPVTG,288.64,T,-351.26,M,006.196,N,011.474,K,D*07
$GPGGA,095125.90,5702.9855603,N,00949.4868902,E,2,5,1.5,-3.442,M,40.595,M,2.5,0123*5C
$GPVTG,288.23,T,-351.67,M,006.171,N,011.429,K,D*00
$GPGGA,095125.95,5702.9855886,N,00949.4867426,E,2,5,1.5,-3.441,M,40.595,M,2.5,0123*5D
$GPVTG,288.43,T,-351.47,M,006.164,N,011.416,K,D*0C
$GPGGA,095126.00,5702.9856167,N,00949.4865889,E,2,5,1.5,-3.440,M,40.595,M,2.5,0123*5D
$GPVTG,288.41,T,-351.49,M,006.211,N,011.503,K,D*04
$GPGGA,095126.05,5702.9856451,N,00949.4864478,E,2,5,1.5,-3.458,M,40.595,M,2.7,0123*50
$GPVTG,288.65,T,-351.25,M,006.175,N,011.436,K,D*0E
$GPGGA,095126.10,5702.9856742,N,00949.4862968,E,2,5,1.5,-3.460,M,40.595,M,2.7,0123*54
$GPVTG,288.81,T,-351.09,M,006.201,N,011.484,K,D*03
$GPGGA,095126.15,5702.9856962,N,00949.4861458,E,2,5,1.5,-3.464,M,40.595,M,2.7,0123*54
$GPVTG,288.04,T,-351.86,M,006.191,N,011.467,K,D*0E
$GPGGA,095126.20,5702.9857246,N,00949.4859978,E,2,5,1.5,-3.464,M,40.595,M,2.7,0123*5A
$GPVTG,288.26,T,-351.64,M,006.185,N,011.455,K,D*06
$GPGGA,095126.25,5702.9857529,N,00949.4858481,E,2,5,1.5,-3.448,M,40.595,M,2.9,0123*5B
$GPVTG,288.45,T,-351.45,M,006.199,N,011.480,K,D*05
$GPGGA,095126.30,5702.9857817,N,00949.4856996,E,2,5,1.5,-3.445,M,40.595,M,2.9,0123*57
$GPVTG,288.68,T,-351.22,M,006.199,N,011.480,K,D*0B
$GPGGA,095126.35,5702.9858089,N,00949.4855523,E,2,5,1.5,-3.439,M,40.595,M,2.9,0123*58
$GPVTG,288.70,T,-351.20,M,006.180,N,011.445,K,D*01
$GPGGA,095126.40,5702.9858333,N,00949.4853997,E,2,5,1.5,-3.440,M,40.595,M,2.9,0123*53
$GPVTG,288.22,T,-351.68,M,006.198,N,011.478,K,D*0D
$GPGGA,095126.45,5702.9858600,N,00949.4852536,E,2,5,1.5,-3.462,M,40.595,M,3.1,0123*5C
$GPVTG,287.99,T,-351.91,M,006.202,N,011.485,K,D*06
$GPGGA,095126.50,5702.9858873,N,00949.4851060,E,2,5,1.5,-3.466,M,40.595,M,3.1,0123*53
$GPVTG,288.10,T,-351.80,M,006.184,N,011.453,K,D*0E
$GPGGA,095126.55,5702.9859136,N,00949.4849580,E,2,5,1.5,-3.471,M,40.595,M,3.1,0123*5B
$GPVTG,288.07,T,-351.83,M,006.169,N,011.425,K,D*09
$GPGGA,095126.60,5702.9859400,N,00949.4848108,E,2,5,1.5,-3.475,M,40.595,M,3.1,0123*5C
$GPVTG,288.07,T,-351.83,M,006.149,N,011.389,K,D*0A
$GPGGA,095126.65,5702.9859674,N,00949.4846572,E,2,5,1.5,-3.446,M,40.595,M,3.3,0123*5D
$GPVTG,288.16,T,-351.74,M,006.184,N,011.453,K,D*03
$GPGGA,095126.70,5702.9859931,N,00949.4845080,E,2,5,1.5,-3.445,M,40.595,M,3.3,0123*5F
$GPVTG,288.01,T,-351.89,M,006.178,N,011.441,K,D*07
$GPGGA,095126.75,5702.9860209,N,00949.4843581,E,2,5,1.5,-3.443,M,40.595,M,3.3,0123*54
$GPVTG,288.14,T,-351.76,M,006.187,N,011.459,K,D*0A
$GPGGA,095126.80,5702.9860470,N,00949.4842104,E,2,5,1.5,-3.439,M,40.595,M,3.3,0123*53
$GPVTG,288.10,T,-351.80,M,006.170,N,011.426,K,D*07
$GPGGA,095126.85,5702.9860728,N,00949.4840661,E,2,5,1.5,-3.459,M,40.595,M,3.5,0123*5E
$GPVTG,287.77,T,-352.13,M,006.154,N,011.397,K,D*0B
$GPGGA,095126.90,5702.9861001,N,00949.4839140,E,2,5,1.5,-3.463,M,40.595,M,3.5,0123*54
$GPVTG,287.81,T,-352.09,M,006.184,N,011.453,K,D*0B
$GPGGA,095126.95,5702.9861252,N,00949.4837625,E,2,5,1.5,-3.465,M,40.595,M,3.5,0123*59
$GPVTG,287.58,T,-352.32,M,006.195,N,011.473,K,D*05
$GPGGA,095127.00,5702.9861558,N,00949.4836159,E,2,5,1.5,-3.470,M,40.595,M,3.5,0123*50
$GPVTG,288.23,T,-351.67,M,006.186,N,011.457,K,D*01
$GPGGA,095127.05,5702.9861809,N,00949.4834678,E,2,5,1.5,-3.462,M,40.595,M,2.1,0123*5C
$GPVTG,288.01,T,-351.89,M,006.171,N,011.429,K,D*00
$GPGGA,095127.10,5702.9862065,N,00949.4833179,E,2,5,1.5,-3.462,M,40.595,M,2.1,0123*58
$GPVTG,287.86,T,-352.04,M,006.172,N,011.431,K,D*0C
$GPGGA,095127.15,5702.9862290,N,00949.4831649,E,2,5,1.5,-3.465,M,40.595,M,2.1,0123*54
$GPVTG,287.25,T,-352.65,M,006.187,N,011.459,K,D*06
$GPGGA,095127.20,5702.9862576,N,00949.4830127,E,2,5,1.5,-3.467,M,40.595,M,2.1,0123*51
$GPVTG,287.54,T,-352.36,M,006.220,N,011.520,K,D*07
$GPGGA,095127.25,5702.9862864,N,00949.4828654,E,2,5,1.5,-3.480,M,40.595,M,2.4,0123*5C
$GPVTG,287.73,T,-352.17,M,006.228,N,011.534,K,D*0C
$GPGGA,095127.30,5702.9863100,N,00949.4827188,E,2,5,1.5,-3.482,M,40.595,M,2.4,0123*59
$GPVTG,287.47,T,-352.43,M,006.182,N,011.449,K,D*02
$GPGGA,095127.35,5702.9863388,N,00949.4825720,E,2,5,1.5,-3.489,M,40.595,M,2.4,0123*53
$GPVTG,287.92,T,-351.98,M,006.167,N,011.421,K,D*0A
$GPGGA,095127.40,5702.9863609,N,00949.4824191,E,2,5,1.5,-3.497,M,40.595,M,2.4,0123*5F
$GPVTG,287.27,T,-352.63,M,006.178,N,011.442,K,D*08
$GPGGA,095127.45,5702.9863849,N,00949.4822674,E,2,5,1.5,-3.474,M,40.595,M,2.7,0123*54
$GPVTG,286.96,T,-352.94,M,006.179,N,011.443,K,D*0B
$GPGGA,095127.50,5702.9864145,N,00949.4821166,E,2,5,1.5,-3.473,M,40.595,M,2.7,0123*52
$GPVTG,287.48,T,-352.42,M,006.203,N,011.488,K,D*0B
$GPGGA,095127.55,5702.9864392,N,00949.4819671,E,2,5,1.5,-3.475,M,40.595,M,2.7,0123*53
$GPVTG,287.33,T,-352.57,M,006.191,N,011.467,K,D*0A
$GPGGA,095127.60,5702.9864631,N,00949.4818174,E,2,5,1.5,-3.474,M,40.595,M,2.7,0123*5B
$GPVTG,287.10,T,-352.80,M,006.180,N,011.444,K,D*00
$GPGGA,095127.65,5702.9864878,N,00949.4816746,E,2,5,1.5,-3.479,M,40.595,M,2.9,0123*57
$GPVTG,286.82,T,-353.08,M,006.127,N,011.347,K,D*02
$GPGGA,095127.70,5702.9865142,N,00949.4815248,E,2,5,1.5,-3.477,M,40.595,M,2.9,0123*54
$GPVTG,286.98,T,-352.92,M,006.135,N,011.362,K,D*0F
$GPGGA,095127.75,5702.9865366,N,00949.4813718,E,2,5,1.5,-3.477,M,40.595,M,2.9,0123*53
$GPVTG,286.51,T,-353.39,M,006.154,N,011.398,K,D*08
$GPGGA,095127.80,5702.9865631,N,00949.4812178,E,2,5,1.5,-3.478,M,40.595,M,2.9,0123*50
$GPVTG,286.62,T,-353.28,M,006.197,N,011.477,K,D*01
$GPGGA,095127.85,5702.9865904,N,00949.4810725,E,2,5,1.5,-3.480,M,40.595,M,3.2,0123*5D
$GPVTG,286.76,T,-353.14,M,006.171,N,011.429,K,D*08
$GPGGA,095127.90,5702.9866172,N,00949.4809208,E,2,5,1.5,-3.481,M,40.595,M,3.2,0123*50
$GPVTG,286.95,T,-352.95,M,006.193,N,011.469,K,D*05
$GPGGA,095127.95,5702.9866418,N,00949.4807702,E,2,5,1.5,-3.483,M,40.595,M,3.2,0123*5F
$GPVTG,286.87,T,-353.03,M,006.192,N,011.468,K,D*08
$GPGGA,095128.00,5702.9866660,N,00949.4806181,E,2,5,1.5,-3.483,M,40.595,M,3.2,0123*5D
$GPVTG,286.71,T,-353.19,M,006.203,N,011.489,K,D*0E
$GPGGA,095128.05,5702.9866901,N,00949.4804758,E,2,5,1.5,-3.504,M,40.595,M,1.7,0123*59
$GPVTG,286.48,T,-353.42,M,006.145,N,011.381,K,D*04
$GPGGA,095128.10,5702.9867153,N,00949.4803233,E,2,5,1.5,-3.509,M,40.595,M,1.7,0123*51
$GPVTG,286.49,T,-353.41,M,006.170,N,011.427,K,D*0B
$GPGGA,095128.15,5702.9867418,N,00949.4801772,E,2,5,1.5,-3.515,M,40.595,M,1.7,0123*51
$GPVTG,286.84,T,-353.06,M,006.139,N,011.370,K,D*01
$GPGGA,095128.20,5702.9867649,N,00949.4800260,E,2,5,1.5,-3.522,M,40.595,M,1.7,0123*52
$GPVTG,286.59,T,-353.31,M,006.145,N,011.381,K,D*00
$GPGGA,095128.25,5702.9867881,N,00949.4798721,E,2,5,1.5,-3.493,M,40.595,M,1.9,0123*56
$GPVTG,286.25,T,-353.65,M,006.154,N,011.398,K,D*02
$GPGGA,095128.30,5702.9868128,N,00949.4797174,E,2,5,1.5,-3.490,M,40.595,M,1.9,0123*5D
$GPVTG,286.19,T,-353.71,M,006.196,N,011.475,K,D*02
$GPGGA,095128.35,5702.9868372,N,00949.4795617,E,2,5,1.5,-3.488,M,40.595,M,1.9,0123*5C
$GPVTG,286.08,T,-353.82,M,006.241,N,011.558,K,D*09
$GPGGA,095128.40,5702.9868594,N,00949.4794124,E,2,5,1.5,-3.491,M,40.595,M,1.9,0123*5E
$GPVTG,285.85,T,-354.05,M,006.212,N,011.505,K,D*09
$GPGGA,095128.45,5702.9868842,N,00949.4792642,E,2,5,1.5,-3.514,M,40.595,M,2.2,0123*58
$GPVTG,285.60,T,-354.30,M,006.213,N,011.507,K,D*07
$GPGGA,095128.50,5702.9869077,N,00949.4791168,E,2,5,1.5,-3.518,M,40.595,M,2.2,0123*53
$GPVTG,285.66,T,-354.24,M,006.174,N,011.435,K,D*06
$GPGGA,095128.55,5702.9869356,N,00949.4789636,E,2,5,1.5,-3.520,M,40.595,M,2.2,0123*58
$GPVTG,286.17,T,-353.73,M,006.212,N,011.504,K,D*06
$GPGGA,095128.60,5702.9869595,N,00949.4788199,E,2,5,1.5,-3.522,M,40.595,M,2.2,0123*56
$GPVTG,286.33,T,-353.57,M,006.142,N,011.375,K,D*00
$GPGGA,095128.65,5702.9869828,N,00949.4786664,E,2,5,1.5,-3.507,M,40.595,M,2.4,0123*52
$GPVTG,285.89,T,-354.01,M,006.161,N,011.411,K,D*02
$GPGGA,095128.70,5702.9870044,N,00949.4785131,E,2,5,1.5,-3.508,M,40.595,M,2.4,0123*57
$GPVTG,285.55,T,-354.35,M,006.176,N,011.438,K,D*09
$GPGGA,095128.75,5702.9870266,N,00949.4783627,E,2,5,1.5,-3.511,M,40.595,M,2.4,0123*5E
$GPVTG,285.40,T,-354.50,M,006.164,N,011.416,K,D*01
$GPGGA,095128.80,5702.9870506,N,00949.4782141,E,2,5,1.5,-3.508,M,40.595,M,2.4,0123*5B
$GPVTG,285.55,T,-354.35,M,006.146,N,011.382,K,D*0C
$GPGGA,095128.85,5702.9870751,N,00949.4780653,E,2,5,1.5,-3.497,M,40.595,M,2.7,0123*5C
$GPVTG,285.45,T,-354.45,M,006.135,N,011.362,K,D*00
$GPGGA,095128.90,5702.9870942,N,00949.4779139,E,2,5,1.5,-3.497,M,40.595,M,2.7,0123*59
$GPVTG,284.89,T,-355.01,M,006.126,N,011.346,K,D*04
$GPGGA,095128.95,5702.9871197,N,00949.4777610,E,2,5,1.5,-3.500,M,40.595,M,2.7,0123*50
$GPVTG,285.23,T,-354.67,M,006.158,N,011.404,K,D*0C
$GPGGA,095129.00,5702.9871403,N,00949.4776040,E,2,5,1.5,-3.498,M,40.595,M,2.7,0123*57
$GPVTG,284.79,T,-355.11,M,006.203,N,011.488,K,D*0B
$GPGGA,095129.05,5702.9871631,N,00949.4774612,E,2,5,1.5,-3.504,M,40.595,M,1.5,0123*57
$GPVTG,284.67,T,-355.23,M,006.135,N,011.362,K,D*00
$GPGGA,095129.10,5702.9871846,N,00949.4773106,E,2,5,1.5,-3.506,M,40.595,M,1.5,0123*5A
$GPVTG,284.57,T,-355.33,M,006.129,N,011.351,K,D*0F
$GPGGA,095129.15,5702.9872076,N,00949.4771599,E,2,5,1.5,-3.505,M,40.595,M,1.5,0123*54
$GPVTG,284.69,T,-355.21,M,006.131,N,011.354,K,D*0D
$GPGGA,095129.20,5702.9872336,N,00949.4770093,E,2,5,1.5,-3.506,M,40.595,M,1.5,0123*58
$GPVTG,285.23,T,-354.67,M,006.142,N,011.376,K,D*05
$GPGGA,095129.25,5702.9872578,N,00949.4768626,E,2,5,1.5,-3.507,M,40.595,M,1.8,0123*5C
$GPVTG,285.23,T,-354.67,M,006.118,N,011.331,K,D*09
$GPGGA,095129.30,5702.9872836,N,00949.4767133,E,2,5,1.5,-3.508,M,40.595,M,1.8,0123*5C
$GPVTG,285.71,T,-354.19,M,006.121,N,011.336,K,D*0A
$GPGGA,095129.35,5702.9873055,N,00949.4765596,E,2,5,1.5,-3.511,M,40.595,M,1.8,0123*54
$GPVTG,285.51,T,-354.39,M,006.149,N,011.387,K,D*0E
$GPGGA,095129.40,5702.9873240,N,00949.4764062,E,2,5,1.5,-3.515,M,40.595,M,1.8,0123*5B
$GPVTG,284.88,T,-355.02,M,006.156,N,011.401,K,D*05
$GPGGA,095129.45,5702.9873522,N,00949.4762525,E,2,5,1.5,-3.509,M,40.595,M,2.0,0123*5B
$GPVTG,285.43,T,-354.47,M,006.203,N,011.487,K,D*0E
$GPGGA,095129.50,5702.9873762,N,00949.4761021,E,2,5,1.5,-3.507,M,40.595,M,2.0,0123*55
$GPVTG,285.62,T,-354.28,M,006.198,N,011.478,K,D*05
$GPGGA,095129.55,5702.9874032,N,00949.4759522,E,2,5,1.5,-3.507,M,40.595,M,2.0,0123*58
$GPVTG,286.20,T,-353.70,M,006.200,N,011.483,K,D*0C
$GPGGA,095129.60,5702.9874236,N,00949.4757998,E,2,5,1.5,-3.507,M,40.595,M,2.0,0123*5B
$GPVTG,285.77,T,-354.13,M,006.198,N,011.479,K,D*08
$GPGGA,095129.65,5702.9874519,N,00949.4756496,E,2,5,1.5,-3.502,M,40.595,M,2.2,0123*51
$GPVTG,286.12,T,-353.78,M,006.212,N,011.505,K,D*09
$GPGGA,095129.70,5702.9874741,N,00949.4754962,E,2,5,1.5,-3.503,M,40.595,M,2.2,0123*5F
$GPVTG,285.90,T,-354.00,M,006.224,N,011.528,K,D*02
$GPGGA,095129.75,5702.9874999,N,00949.4753435,E,2,5,1.5,-3.501,M,40.595,M,2.2,0123*5B
$GPVTG,286.21,T,-353.69,M,006.243,N,011.561,K,D*0F
$GPGGA,095129.80,5702.9875240,N,00949.4751924,E,2,5,1.5,-3.502,M,40.595,M,2.2,0123*53
$GPVTG,286.29,T,-353.61,M,006.237,N,011.551,K,D*0F
$GPGGA,095129.85,5702.9875499,N,00949.4750444,E,2,5,1.5,-3.510,M,40.595,M,2.5,0123*5A
$GPVTG,286.33,T,-353.57,M,006.218,N,011.517,K,D*0E
$GPGGA,095129.90,5702.9875737,N,00949.4748894,E,2,5,1.5,-3.512,M,40.595,M,2.5,0123*53
$GPVTG,286.26,T,-353.64,M,006.249,N,011.573,K,D*0C
$GPGGA,095129.95,5702.9875965,N,00949.4747373,E,2,5,1.5,-3.516,M,40.595,M,2.5,0123*56
$GPVTG,286.12,T,-353.78,M,006.244,N,011.564,K,D*0D
$GPGGA,095130.00,5702.9876233,N,00949.4745870,E,2,5,1.5,-3.519,M,40.595,M,2.5,0123*5C
$GPVTG,286.57,T,-353.33,M,006.241,N,011.557,K,D*06
$GPGGA,095130.05,5702.9876483,N,00949.4744374,E,2,5,1.5,-3.513,M,40.595,M,2.7,0123*52
$GPVTG,286.60,T,-353.30,M,006.217,N,011.514,K,D*05
$GPGGA,095130.10,5702.9876728,N,00949.4742879,E,2,5,1.5,-3.513,M,40.595,M,2.7,0123*54
$GPVTG,286.69,T,-353.21,M,006.198,N,011.480,K,D*04
$GPGGA,095130.15,5702.9876949,N,00949.4741382,E,2,5,1.5,-3.513,M,40.595,M,2.7,0123*54
$GPVTG,286.45,T,-353.45,M,006.175,N,011.437,K,D*07
$GPGGA,095130.20,5702.9877173,N,00949.4739874,E,2,5,1.5,-3.511,M,40.595,M,2.7,0123*5D
$GPVTG,286.24,T,-353.66,M,006.165,N,011.418,K,D*0D
$GPGGA,095130.25,5702.9877427,N,00949.4738345,E,2,5,1.5,-3.503,M,40.595,M,2.9,0123*59
$GPVTG,286.14,T,-353.76,M,006.188,N,011.461,K,D*02
$GPGGA,095130.30,5702.9877657,N,00949.4736860,E,2,5,1.5,-3.498,M,40.595,M,2.9,0123*59
$GPVTG,286.09,T,-353.81,M,006.160,N,011.408,K,D*0F
$GPGGA,095130.35,5702.9877910,N,00949.4735362,E,2,5,1.5,-3.494,M,40.595,M,2.9,0123*56
$GPVTG,286.33,T,-353.57,M,006.156,N,011.401,K,D*01
$GPGGA,095130.40,5702.9878173,N,00949.4733872,E,2,5,1.5,-3.490,M,40.595,M,2.9,0123*5E
$GPVTG,286.69,T,-353.21,M,006.151,N,011.392,K,D*05
$GPGGA,095130.45,5702.9878465,N,00949.4732434,E,2,5,1.5,-3.504,M,40.595,M,3.1,0123*53
$GPVTG,287.06,T,-352.84,M,006.130,N,011.353,K,D*09
$GPGGA,095130.50,5702.9878722,N,00949.4730923,E,2,5,1.5,-3.507,M,40.595,M,3.1,0123*5D
$GPVTG,287.19,T,-352.71,M,006.147,N,011.383,K,D*00
$GPGGA,095130.55,5702.9878974,N,00949.4729410,E,2,5,1.5,-3.509,M,40.595,M,3.1,0123*5E
$GPVTG,287.22,T,-352.68,M,006.161,N,011.410,K,D*09
$GPGGA,095130.60,5702.9879214,N,00949.4727927,E,2,5,1.5,-3.511,M,40.595,M,3.1,0123*5A
$GPVTG,287.16,T,-352.74,M,006.142,N,011.375,K,D*06
$GPGGA,095130.65,5702.9879502,N,00949.4726447,E,2,5,1.5,-3.507,M,40.595,M,3.3,0123*50
$GPVTG,287.60,T,-352.30,M,006.136,N,011.363,K,D*03
$GPGGA,095130.70,5702.9879747,N,00949.4724970,E,2,5,1.5,-3.505,M,40.595,M,3.3,0123*5E
$GPVTG,287.58,T,-352.32,M,006.118,N,011.330,K,D*00
$GPGGA,095130.75,5702.9880038,N,00949.4723446,E,2,5,1.5,-3.509,M,40.595,M,3.3,0123*51
$GPVTG,288.02,T,-351.88,M,006.165,N,011.418,K,D*05
$GPGGA,095130.80,5702.9880320,N,00949.4721970,E,2,5,1.5,-3.512,M,40.595,M,3.3,0123*51
$GPVTG,288.41,T,-351.49,M,006.161,N,011.410,K,D*03
$GPGGA,095130.85,5702.9880577,N,00949.4720449,E,2,5,1.5,-3.492,M,40.595,M,3.5,0123*59
$GPVTG,288.12,T,-351.78,M,006.166,N,011.419,K,D*09
$GPGGA,095130.90,5702.9880832,N,00949.4718964,E,2,5,1.5,-3.490,M,40.595,M,3.5,0123*5A
$GPVTG,288.10,T,-351.80,M,006.157,N,011.403,K,D*05
$GPGGA,095130.95,5702.9881118,N,00949.4717472,E,2,5,1.5,-3.485,M,40.595,M,3.5,0123*5E
$GPVTG,288.45,T,-351.45,M,006.169,N,011.425,K,D*05
$GPGGA,095131.00,5702.9881408,N,00949.4715983,E,2,5,1.5,-3.480,M,40.595,M,3.5,0123*53
$GPVTG,288.82,T,-351.08,M,006.180,N,011.446,K,D*05
$GPGGA,095131.05,5702.9881686,N,00949.4714531,E,2,5,1.5,-3.498,M,40.595,M,2.1,0123*5A
$GPVTG,288.68,T,-351.22,M,006.162,N,011.412,K,D*04
$GPGGA,095131.10,5702.9881971,N,00949.4713021,E,2,5,1.5,-3.500,M,40.595,M,2.1,0123*5A
$GPVTG,288.87,T,-351.03,M,006.190,N,011.465,K,D*0B
$GPGGA,095131.15,5702.9882269,N,00949.4711535,E,2,5,1.5,-3.499,M,40.595,M,2.1,0123*5D
$GPVTG,289.25,T,-350.65,M,006.200,N,011.482,K,D*00
$GPGGA,095131.20,5702.9882553,N,00949.4710042,E,2,5,1.5,-3.501,M,40.595,M,2.1,0123*51
$GPVTG,289.39,T,-350.51,M,006.208,N,011.496,K,D*07
$GPGGA,095131.25,5702.9882845,N,00949.4708556,E,2,5,1.5,-3.486,M,40.595,M,2.4,0123*5C
$GPVTG,289.55,T,-350.35,M,006.191,N,011.467,K,D*02
$GPGGA,095131.30,5702.9883087,N,00949.4707053,E,2,5,1.5,-3.487,M,40.595,M,2.4,0123*51
$GPVTG,289.04,T,-350.86,M,006.188,N,011.461,K,D*00
$GPGGA,095131.35,5702.9883387,N,00949.4705559,E,2,5,1.5,-3.483,M,40.595,M,2.4,0123*5E
$GPVTG,289.36,T,-350.54,M,006.206,N,011.493,K,D*06
$GPGGA,095131.40,5702.9883636,N,00949.4704050,E,2,5,1.5,-3.480,M,40.595,M,2.4,0123*5D
$GPVTG,288.93,T,-350.97,M,006.209,N,011.500,K,D*03
$GPGGA,095131.45,5702.9883946,N,00949.4702563,E,2,5,1.5,-3.494,M,40.595,M,2.7,0123*55
$GPVTG,289.15,T,-350.75,M,006.222,N,011.523,K,D*08
$GPGGA,095131.50,5702.9884239,N,00949.4701092,E,2,5,1.5,-3.496,M,40.595,M,2.7,0123*5F
$GPVTG,289.43,T,-350.47,M,006.211,N,011.502,K,D*09
$GPGGA,095131.55,5702.9884558,N,00949.4699657,E,2,5,1.5,-3.498,M,40.595,M,2.7,0123*5B
$GPVTG,290.09,T,-349.81,M,006.182,N,011.448,K,D*0B
$GPGGA,095131.60,5702.9884859,N,00949.4698166,E,2,5,1.5,-3.499,M,40.595,M,2.7,0123*54
$GPVTG,290.27,T,-349.63,M,006.197,N,011.476,K,D*02
$GPGGA,095131.65,5702.9885150,N,00949.4696624,E,2,5,1.5,-3.488,M,40.595,M,2.9,0123*51
$GPVTG,290.02,T,-349.88,M,006.228,N,011.534,K,D*00
$GPGGA,095131.70,5702.9885446,N,00949.4695202,E,2,5,1.5,-3.487,M,40.595,M,2.9,0123*5B
$GPVTG,290.33,T,-349.57,M,006.175,N,011.436,K,D*08
$GPGGA,095131.75,5702.9885771,N,00949.4693747,E,2,5,1.5,-3.487,M,40.595,M,2.9,0123*5B
$GPVTG,290.87,T,-349.03,M,006.171,N,011.429,K,D*0C
$GPGGA,095131.80,5702.9886079,N,00949.4692262,E,2,5,1.5,-3.487,M,40.595,M,2.9,0123*5E
$GPVTG,291.01,T,-348.89,M,006.188,N,011.460,K,D*0B
$GPGGA,095131.85,5702.9886392,N,00949.4690775,E,2,5,1.5,-3.478,M,40.595,M,3.2,0123*56
$GPVTG,291.02,T,-348.88,M,006.186,N,011.456,K,D*02
$GPGGA,095131.90,5702.9886686,N,00949.4689306,E,2,5,1.5,-3.476,M,40.595,M,3.2,0123*54
$GPVTG,290.99,T,-348.91,M,006.179,N,011.443,K,D*0D
$GPGGA,095131.95,5702.9886987,N,00949.4687817,E,2,5,1.5,-3.473,M,40.595,M,3.2,0123*5F
$GPVTG,290.97,T,-348.93,M,006.194,N,011.472,K,D*00
$GPGGA,095132.00,5702.9887284,N,00949.4686358,E,2,5,1.5,-3.475,M,40.595,M,3.2,0123*5E
$GPVTG,290.98,T,-348.92,M,006.179,N,011.444,K,D*08
$GPGGA,095132.05,5702.9887585,N,00949.4684868,E,2,5,1.5,-3.475,M,40.595,M,1.7,0123*50
$GPVTG,290.78,T,-349.12,M,006.182,N,011.450,K,D*0E
$GPGGA,095132.10,5702.9887876,N,00949.4683387,E,2,5,1.5,-3.473,M,40.595,M,1.7,0123*5E
$GPVTG,290.65,T,-349.25,M,006.186,N,011.456,K,D*04
$GPGGA,095132.15,5702.9888172,N,00949.4681896,E,2,5,1.5,-3.472,M,40.595,M,1.7,0123*51
$GPVTG,290.55,T,-349.35,M,006.199,N,011.481,K,D*02
$GPGGA,095132.20,5702.9888466,N,00949.4680375,E,2,5,1.5,-3.473,M,40.595,M,1.7,0123*51
$GPVTG,290.35,T,-349.55,M,006.236,N,011.549,K,D*01
$GPGGA,095132.25,5702.9888797,N,00949.4678920,E,2,5,1.5,-3.473,M,40.595,M,1.9,0123*5A
$GPVTG,290.75,T,-349.15,M,006.212,N,011.504,K,D*0E
$GPGGA,095132.30,5702.9889101,N,00949.4677474,E,2,5,1.5,-3.473,M,40.595,M,1.9,0123*55
$GPVTG,290.89,T,-349.01,M,006.187,N,011.458,K,D*0F
$GPGGA,095132.35,5702.9889385,N,00949.4675980,E,2,5,1.5,-3.475,M,40.595,M,1.9,0123*5C
$GPVTG,290.59,T,-349.31,M,006.195,N,011.473,K,D*0B
$GPGGA,095132.40,5702.9889643,N,00949.4674501,E,2,5,1.5,-3.477,M,40.595,M,1.9,0123*57
$GPVTG,290.03,T,-349.87,M,006.177,N,011.439,K,D*0B
$GPGGA,095132.45,5702.9889996,N,00949.4673028,E,2,5,1.5,-3.471,M,40.595,M,2.2,0123*52
$GPVTG,290.78,T,-349.12,M,006.182,N,011.449,K,D*06
$GPGGA,095132.50,5702.9890320,N,00949.4671560,E,2,5,1.5,-3.471,M,40.595,M,2.2,0123*52
$GPVTG,291.09,T,-348.81,M,006.191,N,011.465,K,D*06
$GPGGA,095132.55,5702.9890630,N,00949.4670068,E,2,5,1.5,-3.473,M,40.595,M,2.2,0123*5D
$GPVTG,291.09,T,-348.81,M,006.212,N,011.504,K,D*08
$GPGGA,095132.60,5702.9890925,N,00949.4668604,E,2,5,1.5,-3.475,M,40.595,M,2.2,0123*53
$GPVTG,290.99,T,-348.91,M,006.197,N,011.477,K,D*0A
$GPGGA,095132.65,5702.9891246,N,00949.4667114,E,2,5,1.5,-3.456,M,40.595,M,2.4,0123*57
$GPVTG,291.05,T,-348.85,M,006.190,N,011.464,K,D*0E
$GPGGA,095132.70,5702.9891585,N,00949.4665627,E,2,5,1.5,-3.456,M,40.595,M,2.4,0123*5E
$GPVTG,291.45,T,-348.45,M,006.223,N,011.525,K,D*09
$GPGGA,095132.75,5702.9891911,N,00949.4664153,E,2,5,1.5,-3.456,M,40.595,M,2.4,0123*5F
$GPVTG,291.65,T,-348.25,M,006.233,N,011.543,K,D*0C
$GPGGA,095132.80,5702.9892217,N,00949.4662682,E,2,5,1.5,-3.456,M,40.595,M,2.4,0123*56
$GPVTG,291.59,T,-348.31,M,006.228,N,011.534,K,D*0C
$GPGGA,095132.85,5702.9892552,N,00949.4661138,E,2,5,1.5,-3.453,M,40.595,M,2.7,0123*56
$GPVTG,291.53,T,-348.37,M,006.279,N,011.629,K,D*0B
$GPGGA,095132.90,5702.9892891,N,00949.4659669,E,2,5,1.5,-3.454,M,40.595,M,2.7,0123*5F
$GPVTG,291.89,T,-348.01,M,006.284,N,011.637,K,D*04
$GPGGA,095132.95,5702.9893177,N,00949.4658206,E,2,5,1.5,-3.456,M,40.595,M,2.7,0123*54
$GPVTG,291.54,T,-348.36,M,006.253,N,011.581,K,D*04
$GPGGA,095133.00,5702.9893501,N,00949.4656741,E,2,5,1.5,-3.457,M,40.595,M,2.7,0123*55
$GPVTG,291.71,T,-348.19,M,006.248,N,011.572,K,D*08
$GPGGA,095133.05,5702.9893839,N,00949.4655236,E,2,5,1.5,-3.448,M,40.595,M,1.5,0123*5F
$GPVTG,291.83,T,-348.07,M,006.264,N,011.601,K,D*03
$GPGGA,095133.10,5702.9894173,N,00949.4653761,E,2,5,1.5,-3.446,M,40.595,M,1.5,0123*54
$GPVTG,292.06,T,-347.84,M,006.271,N,011.614,K,D*09
$GPGGA,095133.15,5702.9894486,N,00949.4652235,E,2,5,1.5,-3.443,M,40.595,M,1.5,0123*5E
$GPVTG,291.80,T,-348.10,M,006.309,N,011.684,K,D*01
$GPGGA,095133.20,5702.9894821,N,00949.4650764,E,2,5,1.5,-3.442,M,40.595,M,1.5,0123*5B
$GPVTG,292.04,T,-347.86,M,006.307,N,011.680,K,D*04
$GPGGA,095133.25,5702.9895161,N,00949.4649305,E,2,5,1.5,-3.451,M,40.595,M,1.8,0123*56
$GPVTG,292.13,T,-347.77,M,006.287,N,011.643,K,D*0A
$GPGGA,095133.30,5702.9895453,N,00949.4647835,E,2,5,1.5,-3.456,M,40.595,M,1.8,0123*57
$GPVTG,291.77,T,-348.13,M,006.260,N,011.594,K,D*06
$GPGGA,095133.35,5702.9895804,N,00949.4646370,E,2,5,1.5,-3.456,M,40.595,M,1.8,0123*57
$GPVTG,292.20,T,-347.70,M,006.266,N,011.605,K,D*00
$GPGGA,095133.40,5702.9896138,N,00949.4644905,E,2,5,1.5,-3.456,M,40.595,M,1.8,0123*5A
$GPVTG,292.37,T,-347.53,M,006.261,N,011.595,K,D*0A
$GPGGA,095133.45,5702.9896475,N,00949.4643444,E,2,5,1.5,-3.438,M,40.595,M,2.0,0123*5F
$GPVTG,292.57,T,-347.33,M,006.235,N,011.547,K,D*04
$GPGGA,095133.50,5702.9896815,N,00949.4641969,E,2,5,1.5,-3.438,M,40.595,M,2.0,0123*51
$GPVTG,292.69,T,-347.21,M,006.243,N,011.563,K,D*0D
$GPGGA,095133.55,5702.9897143,N,00949.4640500,E,2,5,1.5,-3.439,M,40.595,M,2.0,0123*5C
$GPVTG,292.72,T,-347.18,M,006.243,N,011.562,K,D*0C
$GPGGA,095133.60,5702.9897427,N,00949.4639005,E,2,5,1.5,-3.436,M,40.595,M,2.0,0123*5C
$GPVTG,292.33,T,-347.57,M,006.249,N,011.572,K,D*09
$GPGGA,095133.65,5702.9897775,N,00949.4637540,E,2,5,1.5,-3.436,M,40.595,M,2.2,0123*55
$GPVTG,292.56,T,-347.34,M,006.241,N,011.559,K,D*0E
$GPGGA,095133.70,5702.9898116,N,00949.4636114,E,2,5,1.5,-3.437,M,40.595,M,2.2,0123*58
$GPVTG,292.79,T,-347.11,M,006.214,N,011.509,K,D*01
$GPGGA,095133.75,5702.9898427,N,00949.4634588,E,2,5,1.5,-3.438,M,40.595,M,2.2,0123*56
$GPVTG,292.50,T,-347.40,M,006.256,N,011.586,K,D*0F
$GPGGA,095133.80,5702.9898734,N,00949.4633129,E,2,5,1.5,-3.439,M,40.595,M,2.2,0123*54
$GPVTG,292.38,T,-347.52,M,006.240,N,011.556,K,D*08
$GPGGA,095133.85,5702.9899127,N,00949.4631713,E,2,5,1.5,-3.416,M,40.595,M,2.5,0123*53
$GPVTG,292.76,T,-347.14,M,006.203,N,011.487,K,D*0A
$GPGGA,095133.90,5702.9899456,N,00949.4630274,E,2,5,1.5,-3.414,M,40.595,M,2.5,0123*53
$GPVTG,292.84,T,-347.06,M,006.185,N,011.455,K,D*06
$GPGGA,095133.95,5702.9899792,N,00949.4628769,E,2,5,1.5,-3.414,M,40.595,M,2.5,0123*5D
$GPVTG,292.76,T,-347.14,M,006.224,N,011.526,K,D*05
$GPGGA,095134.00,5702.9900156,N,00949.4627352,E,2,5,1.5,-3.411,M,40.595,M,2.5,0123*5F
$GPVTG,293.20,T,-346.70,M,006.202,N,011.486,K,D*0B
$GPGGA,095134.05,5702.9900495,N,00949.4625911,E,2,5,1.5,-3.411,M,40.595,M,2.7,0123*5D
$GPVTG,293.34,T,-346.56,M,006.185,N,011.454,K,D*09
$GPGGA,095134.10,5702.9900822,N,00949.4624449,E,2,5,1.5,-3.409,M,40.595,M,2.7,0123*51
$GPVTG,293.25,T,-346.65,M,006.189,N,011.461,K,D*03
$GPGGA,095134.15,5702.9901161,N,00949.4622997,E,2,5,1.5,-3.411,M,40.595,M,2.7,0123*5A
$GPVTG,293.30,T,-346.60,M,006.190,N,011.465,K,D*0E
$GPGGA,095134.20,5702.9901487,N,00949.4621530,E,2,5,1.5,-3.411,M,40.595,M,2.7,0123*53
$GPVTG,293.17,T,-346.73,M,006.198,N,011.479,K,D*0C
$GPGGA,095134.25,5702.9901827,N,00949.4620045,E,2,5,1.5,-3.401,M,40.595,M,2.9,0123*59
$GPVTG,293.01,T,-346.89,M,006.214,N,011.507,K,D*01
$GPGGA,095134.30,5702.9902184,N,00949.4618611,E,2,5,1.5,-3.399,M,40.595,M,2.9,0123*54
$GPVTG,293.35,T,-346.55,M,006.207,N,011.496,K,D*0C
$GPGGA,095134.35,5702.9902526,N,00949.4617191,E,2,5,1.5,-3.399,M,40.595,M,2.9,0123*5D
$GPVTG,293.52,T,-346.38,M,006.183,N,011.451,K,D*02
$GPGGA,095134.40,5702.9902839,N,00949.4615747,E,2,5,1.5,-3.401,M,40.595,M,2.9,0123*55
$GPVTG,293.26,T,-346.64,M,006.167,N,011.421,K,D*05
$GPGGA,095134.45,5702.9903183,N,00949.4614283,E,2,5,1.5,-3.391,M,40.595,M,3.1,0123*52
$GPVTG,293.06,T,-346.84,M,006.171,N,011.429,K,D*06
$GPGGA,095134.50,5702.9903519,N,00949.4612801,E,2,5,1.5,-3.394,M,40.595,M,3.1,0123*52
$GPVTG,292.97,T,-346.93,M,006.206,N,011.493,K,D*0B
$GPGGA,095134.55,5702.9903885,N,00949.4611368,E,2,5,1.5,-3.396,M,40.595,M,3.1,0123*5A
$GPVTG,293.52,T,-346.38,M,006.210,N,011.502,K,D*0C
$GPGGA,095134.60,5702.9904266,N,00949.4609974,E,2,5,1.5,-3.396,M,40.595,M,3.1,0123*52
$GPVTG,294.33,T,-345.57,M,006.190,N,011.463,K,D*0B
$GPGGA,095134.65,5702.9904624,N,00949.4608483,E,2,5,1.5,-3.391,M,40.595,M,3.3,0123*54
$GPVTG,294.24,T,-345.66,M,006.228,N,011.534,K,D*0C
$GPGGA,095134.70,5702.9904928,N,00949.4607029,E,2,5,1.5,-3.394,M,40.595,M,3.3,0123*5D
$GPVTG,293.62,T,-346.28,M,006.207,N,011.495,K,D*07
$GPGGA,095134.75,5702.9905244,N,00949.4605592,E,2,5,1.5,-3.394,M,40.595,M,3.3,0123*5F
$GPVTG,293.32,T,-346.58,M,006.182,N,011.448,K,D*0B
$GPGGA,095134.80,5702.9905567,N,00949.4604075,E,2,5,1.5,-3.394,M,40.595,M,3.3,0123*5E
$GPVTG,292.85,T,-347.05,M,006.234,N,011.545,K,D*0D
$GPGGA,095134.85,5702.9905956,N,00949.4602645,E,2,5,1.5,-3.389,M,40.595,M,3.5,0123*5C
$GPVTG,293.64,T,-346.26,M,006.235,N,011.546,K,D*01
$GPGGA,095134.90,5702.9906315,N,00949.4601239,E,2,5,1.5,-3.393,M,40.595,M,3.5,0123*51
$GPVTG,294.00,T,-345.90,M,006.205,N,011.492,K,D*01
$GPGGA,095134.95,5702.9906652,N,00949.4599809,E,2,5,1.5,-3.397,M,40.595,M,3.5,0123*5D
$GPVTG,293.94,T,-345.96,M,006.187,N,011.458,K,D*02
$GPGGA,095135.00,5702.9907003,N,00949.4598370,E,2,5,1.5,-3.402,M,40.595,M,3.5,0123*5C
$GPVTG,294.03,T,-345.87,M,006.187,N,011.459,K,D*0A
$GPGGA,095135.05,5702.9907348,N,00949.4596880,E,2,5,1.5,-3.392,M,40.595,M,2.1,0123*54
$GPVTG,293.86,T,-346.04,M,006.218,N,011.516,K,D*07
$GPGGA,095135.10,5702.9907682,N,00949.4595412,E,2,5,1.5,-3.392,M,40.595,M,2.1,0123*57
$GPVTG,293.63,T,-346.27,M,006.230,N,011.537,K,D*04
$GPGGA,095135.15,5702.9908026,N,00949.4594011,E,2,5,1.5,-3.393,M,40.595,M,2.1,0123*52
$GPVTG,293.79,T,-346.11,M,006.188,N,011.459,K,D*03
$GPGGA,095135.20,5702.9908375,N,00949.4592525,E,2,5,1.5,-3.394,M,40.595,M,2.1,0123*52
$GPVTG,293.69,T,-346.21,M,006.227,N,011.533,K,D*0A
$GPGGA,095135.25,5702.9908726,N,00949.4591073,E,2,5,1.5,-3.381,M,40.595,M,2.4,0123*51
$GPVTG,293.74,T,-346.16,M,006.224,N,011.527,K,D*04
$GPGGA,095135.30,5702.9909085,N,00949.4589638,E,2,5,1.5,-3.381,M,40.595,M,2.4,0123*5A
$GPVTG,293.95,T,-345.95,M,006.221,N,011.522,K,D*03
$GPGGA,095135.35,5702.9909420,N,00949.4588195,E,2,5,1.5,-3.383,M,40.595,M,2.4,0123*57
$GPVTG,293.80,T,-346.10,M,006.210,N,011.501,K,D*0A
$GPGGA,095135.40,5702.9909760,N,00949.4586802,E,2,5,1.5,-3.383,M,40.595,M,2.4,0123*5B
$GPVTG,293.92,T,-345.98,M,006.160,N,011.408,K,D*06
$GPGGA,095135.45,5702.9910109,N,00949.4585392,E,2,5,1.5,-3.391,M,40.595,M,2.7,0123*5E
$GPVTG,293.98,T,-345.92,M,006.143,N,011.377,K,D*08
$GPGGA,095135.50,5702.9910474,N,00949.4583932,E,2,5,1.5,-3.394,M,40.595,M,2.7,0123*56
$GPVTG,294.14,T,-345.76,M,006.177,N,011.440,K,D*05
$GPGGA,095135.55,5702.9910797,N,00949.4582514,E,2,5,1.5,-3.399,M,40.595,M,2.7,0123*59
$GPVTG,293.89,T,-346.01,M,006.145,N,011.381,K,D*0E
$GPGGA,095135.60,5702.9911158,N,00949.4581054,E,2,5,1.5,-3.402,M,40.595,M,2.7,0123*5C
$GPVTG,294.00,T,-345.90,M,006.176,N,011.438,K,D*06
$GPGGA,095135.65,5702.9911510,N,00949.4579614,E,2,5,1.5,-3.373,M,40.595,M,2.9,0123*5B
$GPVTG,294.22,T,-345.68,M,006.157,N,011.403,K,D*0A
$GPGGA,095135.70,5702.9911844,N,00949.4578179,E,2,5,1.5,-3.372,M,40.595,M,2.9,0123*5F
$GPVTG,294.03,T,-345.87,M,006.150,N,011.391,K,D*03
$GPGGA,095135.75,5702.9912211,N,00949.4576719,E,2,5,1.5,-3.371,M,40.595,M,2.9,0123*5E
$GPVTG,294.19,T,-345.71,M,006.186,N,011.457,K,D*07
$GPGGA,095135.80,5702.9912592,N,00949.4575336,E,2,5,1.5,-3.370,M,40.595,M,2.9,0123*53
$GPVTG,294.78,T,-345.12,M,006.161,N,011.409,K,D*07
$GPGGA,095135.85,5702.9912996,N,00949.4573953,E,2,5,1.5,-3.379,M,40.595,M,3.2,0123*52
$GPVTG,295.46,T,-344.44,M,006.161,N,011.410,K,D*01
$GPGGA,095135.90,5702.9913345,N,00949.4572503,E,2,5,1.5,-3.381,M,40.595,M,3.2,0123*5C
$GPVTG,295.24,T,-344.66,M,006.178,N,011.441,K,D*09
$GPGGA,095135.95,5702.9913718,N,00949.4571071,E,2,5,1.5,-3.382,M,40.595,M,3.2,0123*55
$GPVTG,295.40,T,-344.50,M,006.191,N,011.466,K,D*0C
$GPGGA,095136.00,5702.9914062,N,00949.4569649,E,2,5,1.5,-3.382,M,40.595,M,3.2,0123*53
$GPVTG,295.20,T,-344.70,M,006.177,N,011.440,K,D*04
$GPGGA,095136.05,5702.9914410,N,00949.4568214,E,2,5,1.5,-3.362,M,40.595,M,1.7,0123*53
$GPVTG,295.13,T,-344.77,M,006.165,N,011.418,K,D*0D
$GPGGA,095136.10,5702.9914772,N,00949.4566761,E,2,5,1.5,-3.362,M,40.595,M,1.7,0123*59
$GPVTG,295.05,T,-344.85,M,006.192,N,011.467,K,D*07
$GPGGA,095136.15,5702.9915139,N,00949.4565325,E,2,5,1.5,-3.359,M,40.595,M,1.7,0123*5B
$GPVTG,295.11,T,-344.79,M,006.203,N,011.488,K,D*0B
$GPGGA,095136.20,5702.9915535,N,00949.4563950,E,2,5,1.5,-3.357,M,40.595,M,1.7,0123*55
$GPVTG,295.75,T,-344.15,M,006.181,N,011.447,K,D*09
$GPGGA,095136.25,5702.9915901,N,00949.4562529,E,2,5,1.5,-3.366,M,40.595,M,1.9,0123*54
$GPVTG,295.65,T,-344.25,M,006.191,N,011.466,K,D*09
$GPGGA,095136.30,5702.9916277,N,00949.4561119,E,2,5,1.5,-3.368,M,40.595,M,1.9,0123*53
$GPVTG,295.83,T,-344.07,M,006.187,N,011.459,K,D*0A
$GPGGA,095136.35,5702.9916632,N,00949.4559675,E,2,5,1.5,-3.369,M,40.595,M,1.9,0123*54
$GPVTG,295.57,T,-344.33,M,006.199,N,011.481,K,D*0E
$GPGGA,095136.40,5702.9917020,N,00949.4558250,E,2,5,1.5,-3.372,M,40.595,M,1.9,0123*5A
$GPVTG,295.84,T,-344.06,M,006.215,N,011.509,K,D*00
$GPGGA,095136.45,5702.9917416,N,00949.4556795,E,2,5,1.5,-3.363,M,40.595,M,2.2,0123*54
$GPVTG,296.20,T,-343.70,M,006.254,N,011.583,K,D*0C
$GPGGA,095136.50,5702.9917779,N,00949.4555364,E,2,5,1.5,-3.365,M,40.595,M,2.2,0123*55
$GPVTG,296.04,T,-343.86,M,006.251,N,011.577,K,D*0D
$GPGGA,095136.55,5702.9918134,N,00949.4553957,E,2,5,1.5,-3.365,M,40.595,M,2.2,0123*5C
$GPVTG,295.89,T,-344.01,M,006.222,N,011.524,K,D*01
$GPGGA,095136.60,5702.9918501,N,00949.4552550,E,2,5,1.5,-3.368,M,40.595,M,2.2,0123*5F
$GPVTG,295.88,T,-344.02,M,006.205,N,011.491,K,D*09
$GPGGA,095136.65,5702.9918858,N,00949.4551124,E,2,5,1.5,-3.353,M,40.595,M,2.4,0123*51
$GPVTG,295.81,T,-344.09,M,006.192,N,011.468,K,D*00
$GPGGA,095136.70,5702.9919252,N,00949.4549698,E,2,5,1.5,-3.350,M,40.595,M,2.4,0123*5E
$GPVTG,296.07,T,-343.83,M,006.212,N,011.505,K,D*09
$GPGGA,095136.75,5702.9919693,N,00949.4548248,E,2,5,1.5,-3.349,M,40.595,M,2.4,0123*52
$GPVTG,296.78,T,-343.12,M,006.280,N,011.631,K,D*06
$GPGGA,095136.80,5702.9920065,N,00949.4546789,E,2,5,1.5,-3.349,M,40.595,M,2.4,0123*5B
$GPVTG,296.52,T,-343.38,M,006.302,N,011.671,K,D*09
$GPGGA,095136.85,5702.9920418,N,00949.4545379,E,2,5,1.5,-3.337,M,40.595,M,2.7,0123*52
$GPVTG,296.28,T,-343.62,M,006.263,N,011.598,K,D*09
$GPGGA,095136.90,5702.9920800,N,00949.4543956,E,2,5,1.5,-3.336,M,40.595,M,2.7,0123*53
$GPVTG,296.32,T,-343.58,M,006.260,N,011.594,K,D*04
$GPGGA,095136.95,5702.9921215,N,00949.4542565,E,2,5,1.5,-3.333,M,40.595,M,2.7,0123*51
$GPVTG,296.87,T,-343.03,M,006.254,N,011.583,K,D*05
$GPGGA,095137.00,5702.9921616,N,00949.4541118,E,2,5,1.5,-3.332,M,40.595,M,2.7,0123*57
$GPVTG,296.97,T,-342.93,M,006.286,N,011.642,K,D*0D
$GPGGA,095137.05,5702.9922012,N,00949.4539688,E,2,5,1.5,-3.326,M,40.595,M,1.5,0123*56
$GPVTG,297.13,T,-342.77,M,006.299,N,011.667,K,D*03
$GPGGA,095137.10,5702.9922410,N,00949.4538253,E,2,5,1.5,-3.325,M,40.595,M,1.5,0123*54
$GPVTG,297.20,T,-342.70,M,006.313,N,011.693,K,D*0C
$GPGGA,095137.15,5702.9922774,N,00949.4536812,E,2,5,1.5,-3.325,M,40.595,M,1.5,0123*51
$GPVTG,296.80,T,-343.10,M,006.307,N,011.680,K,D*07
$GPGGA,095137.20,5702.9923150,N,00949.4535388,E,2,5,1.5,-3.324,M,40.595,M,1.5,0123*5C
$GPVTG,296.66,T,-343.24,M,006.295,N,011.658,K,D*07
$GPGGA,095137.25,5702.9923584,N,00949.4534030,E,2,5,1.5,-3.319,M,40.595,M,1.8,0123*56
$GPVTG,297.64,T,-342.26,M,006.272,N,011.616,K,D*04
$GPGGA,095137.30,5702.9923976,N,00949.4532611,E,2,5,1.5,-3.319,M,40.595,M,1.8,0123*50
$GPVTG,297.61,T,-342.29,M,006.271,N,011.614,K,D*0F
$GPGGA,095137.35,5702.9924356,N,00949.4531161,E,2,5,1.5,-3.322,M,40.595,M,1.8,0123*51
$GPVTG,297.30,T,-342.60,M,006.287,N,011.643,K,D*0D
$GPGGA,095137.40,5702.9924746,N,00949.4529753,E,2,5,1.5,-3.322,M,40.595,M,1.8,0123*58
$GPVTG,297.29,T,-342.61,M,006.271,N,011.614,K,D*0F
$GPGGA,095137.45,5702.9925112,N,00949.4528318,E,2,5,1.5,-3.317,M,40.595,M,2.0,0123*5C
$GPVTG,297.04,T,-342.86,M,006.269,N,011.610,K,D*04
$GPGGA,095137.50,5702.9925542,N,00949.4526888,E,2,5,1.5,-3.318,M,40.595,M,2.0,0123*5A
$GPVTG,297.45,T,-342.45,M,006.302,N,011.671,K,D*05
$GPGGA,095137.55,5702.9925936,N,00949.4525511,E,2,5,1.5,-3.317,M,40.595,M,2.0,0123*51
$GPVTG,297.59,T,-342.31,M,006.262,N,011.597,K,D*07
$GPGGA,095137.60,5702.9926319,N,00949.4524101,E,2,5,1.5,-3.316,M,40.595,M,2.0,0123*56
$GPVTG,297.44,T,-342.46,M,006.247,N,011.569,K,D*0D
$GPGGA,095137.65,5702.9926681,N,00949.4522645,E,2,5,1.5,-3.316,M,40.595,M,2.2,0123*54
$GPVTG,297.18,T,-342.72,M,006.267,N,011.607,K,D*0A
$GPGGA,095137.70,5702.9927085,N,00949.4521227,E,2,5,1.5,-3.315,M,40.595,M,2.2,0123*53
$GPVTG,297.25,T,-342.65,M,006.271,N,011.613,K,D*00
$GPGGA,095137.75,5702.9927488,N,00949.4519828,E,2,5,1.5,-3.313,M,40.595,M,2.2,0123*57
$GPVTG,297.38,T,-342.52,M,006.259,N,011.592,K,D*08
$GPGGA,095137.80,5702.9927895,N,00949.4518439,E,2,5,1.5,-3.314,M,40.595,M,2.2,0123*57
$GPVTG,297.55,T,-342.35,M,006.243,N,011.563,K,D*07
$GPGGA,095137.85,5702.9928274,N,00949.4517028,E,2,5,1.5,-3.297,M,40.595,M,2.5,0123*5E
$GPVTG,297.49,T,-342.41,M,006.229,N,011.536,K,D*05
$GPGGA,095137.90,5702.9928684,N,00949.4515588,E,2,5,1.5,-3.298,M,40.595,M,2.5,0123*53
$GPVTG,297.49,T,-342.41,M,006.258,N,011.589,K,D*07
$GPGGA,095137.95,5702.9929084,N,00949.4514184,E,2,5,1.5,-3.297,M,40.595,M,2.5,0123*57
$GPVTG,297.55,T,-342.35,M,006.252,N,011.578,K,D*0D
$GPGGA,095138.00,5702.9929507,N,00949.4512735,E,2,5,1.5,-3.298,M,40.595,M,2.5,0123*5F
$GPVTG,297.65,T,-342.26,M,006.293,N,011.654,K,D*0C
$GPGGA,095138.05,5702.9929897,N,00949.4511364,E,2,5,1.5,-3.296,M,40.595,M,2.7,0123*51
$GPVTG,297.87,T,-342.03,M,006.255,N,011.583,K,D*04
$GPGGA,095138.10,5702.9930298,N,00949.4509935,E,2,5,1.5,-3.298,M,40.595,M,2.7,0123*51
$GPVTG,297.80,T,-342.10,M,006.270,N,011.612,K,D*0D
$GPGGA,095138.15,5702.9930702,N,00949.4508480,E,2,5,1.5,-3.298,M,40.595,M,2.7,0123*50
$GPVTG,297.66,T,-342.24,M,006.305,N,011.676,K,D*03
$GPGGA,095138.20,5702.9931122,N,00949.4507072,E,2,5,1.5,-3.297,M,40.595,M,2.7,0123*5A
$GPVTG,297.87,T,-342.03,M,006.307,N,011.681,K,D*03
$GPGGA,095138.25,5702.9931538,N,00949.4505684,E,2,5,1.5,-3.283,M,40.595,M,2.9,0123*56
$GPVTG,298.16,T,-341.74,M,006.293,N,011.654,K,D*03
$GPGGA,095138.30,5702.9931939,N,00949.4504289,E,2,5,1.5,-3.281,M,40.595,M,2.9,0123*55
$GPVTG,298.20,T,-341.70,M,006.278,N,011.628,K,D*0C
$GPGGA,095138.35,5702.9932335,N,00949.4502848,E,2,5,1.5,-3.279,M,40.595,M,2.9,0123*53
$GPVTG,298.01,T,-341.89,M,006.296,N,011.661,K,D*04
$GPGGA,095138.40,5702.9932749,N,00949.4501422,E,2,5,1.5,-3.277,M,40.595,M,2.9,0123*53
$GPVTG,298.04,T,-341.86,M,006.309,N,011.685,K,D*03
$GPGGA,095138.45,5702.9933131,N,00949.4500020,E,2,5,1.5,-3.279,M,40.595,M,3.1,0123*5E
$GPVTG,298.28,T,-341.62,M,006.300,N,011.668,K,D*0D
$GPGGA,095138.50,5702.9933595,N,00949.4498593,E,2,5,1.5,-3.277,M,40.595,M,3.1,0123*53
$GPVTG,298.69,T,-341.21,M,006.338,N,011.739,K,D*01
$GPGGA,095138.55,5702.9934002,N,00949.4497198,E,2,5,1.5,-3.273,M,40.595,M,3.1,0123*5E
$GPVTG,298.72,T,-341.18,M,006.322,N,011.708,K,D*08
$GPGGA,095138.60,5702.9934422,N,00949.4495844,E,2,5,1.5,-3.271,M,40.595,M,3.1,0123*56
$GPVTG,299.00,T,-340.90,M,006.283,N,011.636,K,D*0B
$GPGGA,095138.65,5702.9934827,N,00949.4494463,E,2,5,1.5,-3.274,M,40.595,M,3.3,0123*55
$GPVTG,299.24,T,-340.66,M,006.273,N,011.617,K,D*08
$GPGGA,095138.70,5702.9935210,N,00949.4493036,E,2,5,1.5,-3.274,M,40.595,M,3.3,0123*5D
$GPVTG,298.85,T,-341.05,M,006.276,N,011.623,K,D*04
$GPGGA,095138.75,5702.9935654,N,00949.4491617,E,2,5,1.5,-3.274,M,40.595,M,3.3,0123*5B
$GPVTG,299.05,T,-340.85,M,006.303,N,011.673,K,D*02
$GPGGA,095138.80,5702.9936089,N,00949.4490224,E,2,5,1.5,-3.275,M,40.595,M,3.3,0123*50
$GPVTG,299.25,T,-340.65,M,006.304,N,011.675,K,D*0F
$GPGGA,095138.85,5702.9936484,N,00949.4488860,E,2,5,1.5,-3.265,M,40.595,M,3.5,0123*58
$GPVTG,299.05,T,-340.85,M,006.251,N,011.576,K,D*02
$GPGGA,095138.90,5702.9936930,N,00949.4487480,E,2,5,1.5,-3.264,M,40.595,M,3.5,0123*52
$GPVTG,299.45,T,-340.45,M,006.256,N,011.587,K,D*03
$GPGGA,095138.95,5702.9937359,N,00949.4486038,E,2,5,1.5,-3.264,M,40.595,M,3.5,0123*55
$GPVTG,299.33,T,-340.57,M,006.301,N,011.669,K,D*01
$GPGGA,095139.00,5702.9937782,N,00949.4484645,E,2,5,1.5,-3.264,M,40.595,M,3.5,0123*54
$GPVTG,299.36,T,-340.54,M,006.296,N,011.661,K,D*00
$GPGGA,095139.05,5702.9938184,N,00949.4483275,E,2,5,1.5,-3.255,M,40.595,M,2.1,0123*59
$GPVTG,299.32,T,-340.58,M,006.252,N,011.579,K,D*0A
$GPGGA,095139.10,5702.9938593,N,00949.4481870,E,2,5,1.5,-3.252,M,40.595,M,2.1,0123*55
$GPVTG,299.04,T,-340.86,M,006.251,N,011.576,K,D*00
$GPGGA,095139.15,5702.9939004,N,00949.4480482,E,2,5,1.5,-3.249,M,40.595,M,2.1,0123*50
$GPVTG,298.93,T,-340.97,M,006.239,N,011.554,K,D*01
$GPGGA,095139.20,5702.9939404,N,00949.4479107,E,2,5,1.5,-3.245,M,40.595,M,2.1,0123*50
$GPVTG,298.76,T,-341.14,M,006.209,N,011.500,K,D*02
$GPGGA,095139.25,5702.9939797,N,00949.4477709,E,2,5,1.5,-3.244,M,40.595,M,2.4,0123*5E
$GPVTG,298.50,T,-341.40,M,006.214,N,011.507,K,D*0C
$GPGGA,095139.30,5702.9940232,N,00949.4476319,E,2,5,1.5,-3.244,M,40.595,M,2.4,0123*5A
$GPVTG,298.78,T,-341.12,M,006.229,N,011.536,K,D*0D
$GPGGA,095139.35,5702.9940629,N,00949.4474961,E,2,5,1.5,-3.243,M,40.595,M,2.4,0123*51
$GPVTG,298.68,T,-341.22,M,006.187,N,011.458,K,D*01
$GPGGA,095139.40,5702.9941081,N,00949.4473618,E,2,5,1.5,-3.241,M,40.595,M,2.4,0123*52
$GPVTG,299.35,T,-340.55,M,006.180,N,011.446,K,D*01
$GPGGA,095139.45,5702.9941519,N,00949.4472247,E,2,5,1.5,-3.244,M,40.595,M,2.7,0123*5A
$GPVTG,299.71,T,-340.19,M,006.201,N,011.485,K,D*0C
$GPGGA,095139.50,5702.9941942,N,00949.4470861,E,2,5,1.5,-3.242,M,40.595,M,2.7,0123*56
$GPVTG,299.69,T,-340.21,M,006.208,N,011.497,K,D*04
$GPGGA,095139.55,5702.9942354,N,00949.4469525,E,2,5,1.5,-3.241,M,40.595,M,2.7,0123*5B
$GPVTG,299.75,T,-340.15,M,006.166,N,011.419,K,D*03
$GPGGA,095139.60,5702.9942790,N,00949.4468150,E,2,5,1.5,-3.239,M,40.595,M,2.7,0123*59
$GPVTG,299.91,T,-339.99,M,006.179,N,011.444,K,D*05
$GPGGA,095139.65,5702.9943195,N,00949.4466793,E,2,5,1.5,-3.244,M,40.595,M,2.9,0123*5D
$GPVTG,299.86,T,-340.04,M,006.172,N,011.431,K,D*00
$GPGGA,095139.70,5702.9943605,N,00949.4465426,E,2,5,1.5,-3.247,M,40.595,M,2.9,0123*5A
$GPVTG,299.81,T,-340.09,M,006.165,N,011.418,K,D*07
$GPGGA,095139.75,5702.9944055,N,00949.4464089,E,2,5,1.5,-3.245,M,40.595,M,2.9,0123*59
$GPVTG,300.13,T,-339.77,M,006.155,N,011.399,K,D*07
$GPGGA,095139.80,5702.9944474,N,00949.4462733,E,2,5,1.5,-3.248,M,40.595,M,2.9,0123*59
$GPVTG,300.14,T,-339.76,M,006.147,N,011.385,K,D*0F
$GPGGA,095139.85,5702.9944918,N,00949.4461400,E,2,5,1.5,-3.235,M,40.595,M,3.2,0123*5B
$GPVTG,300.43,T,-339.47,M,006.134,N,011.361,K,D*01
$GPGGA,095139.90,5702.9945354,N,00949.4460049,E,2,5,1.5,-3.236,M,40.595,M,3.2,0123*57
$GPVTG,300.54,T,-339.36,M,006.135,N,011.361,K,D*00
$GPGGA,095139.95,5702.9945776,N,00949.4458661,E,2,5,1.5,-3.236,M,40.595,M,3.2,0123*51
$GPVTG,300.40,T,-339.50,M,006.155,N,011.399,K,D*04
$GPGGA,095140.00,5702.9946175,N,00949.4457286,E,2,5,1.5,-3.237,M,40.595,M,3.2,0123*56
$GPVTG,300.13,T,-339.77,M,006.155,N,011.399,K,D*07
$GPGGA,095140.05,5702.9946591,N,00949.4455941,E,2,5,1.5,-3.230,M,40.595,M,1.7,0123*5F
$GPVTG,300.18,T,-339.72,M,006.143,N,011.377,K,D*0E
$GPGGA,095140.10,5702.9947057,N,00949.4454621,E,2,5,1.5,-3.229,M,40.595,M,1.7,0123*55
$GPVTG,300.65,T,-339.25,M,006.137,N,011.365,K,D*06
$GPGGA,095140.15,5702.9947532,N,00949.4453288,E,2,5,1.5,-3.225,M,40.595,M,1.7,0123*5A
$GPVTG,301.10,T,-338.80,M,006.147,N,011.385,K,D*02
$GPGGA,095140.20,5702.9947933,N,00949.4451906,E,2,5,1.5,-3.224,M,40.595,M,1.7,0123*5F
$GPVTG,300.71,T,-339.19,M,006.156,N,011.402,K,D*0D
$GPGGA,095140.25,5702.9948290,N,00949.4450503,E,2,5,1.5,-3.226,M,40.595,M,1.9,0123*53
$GPVTG,300.12,T,-339.78,M,006.166,N,011.419,K,D*06
$GPGGA,095140.30,5702.9948747,N,00949.4449183,E,2,5,1.5,-3.225,M,40.595,M,1.9,0123*5F
$GPVTG,300.52,T,-339.38,M,006.155,N,011.399,K,D*09
$GPGGA,095140.35,5702.9949203,N,00949.4447864,E,2,5,1.5,-3.224,M,40.595,M,1.9,0123*51
$GPVTG,300.88,T,-339.02,M,006.146,N,011.382,K,D*0F
$GPGGA,095140.40,5702.9949620,N,00949.4446510,E,2,5,1.5,-3.221,M,40.595,M,1.9,0123*5C
$GPVTG,300.72,T,-339.18,M,006.141,N,011.374,K,D*0F
$GPGGA,095140.45,5702.9950026,N,00949.4445113,E,2,5,1.5,-3.219,M,40.595,M,2.2,0123*56
$GPVTG,300.64,T,-339.26,M,006.175,N,011.436,K,D*03
$GPGGA,095140.50,5702.9950447,N,00949.4443759,E,2,5,1.5,-3.219,M,40.595,M,2.2,0123*5F
$GPVTG,300.54,T,-339.36,M,006.170,N,011.427,K,D*04
$GPGGA,095140.55,5702.9950895,N,00949.4442408,E,2,5,1.5,-3.218,M,40.595,M,2.2,0123*5E
$GPVTG,300.68,T,-339.22,M,006.179,N,011.443,K,D*05
$GPGGA,095140.60,5702.9951327,N,00949.4441023,E,2,5,1.5,-3.217,M,40.595,M,2.2,0123*5A
$GPVTG,300.54,T,-339.36,M,006.202,N,011.487,K,D*08
$GPGGA,095140.65,5702.9951737,N,00949.4439707,E,2,5,1.5,-3.217,M,40.595,M,2.4,0123*52
$GPVTG,300.75,T,-339.15,M,006.164,N,011.415,K,D*02
$GPGGA,095140.70,5702.9952190,N,00949.4438357,E,2,5,1.5,-3.219,M,40.595,M,2.4,0123*50
$GPVTG,300.95,T,-338.95,M,006.178,N,011.441,K,D*09
$GPGGA,095140.75,5702.9952608,N,00949.4436981,E,2,5,1.5,-3.220,M,40.595,M,2.4,0123*56
$GPVTG,300.64,T,-339.26,M,006.187,N,011.457,K,D*09
$GPGGA,095140.80,5702.9953018,N,00949.4435636,E,2,5,1.5,-3.221,M,40.595,M,2.4,0123*5B
$GPVTG,300.41,T,-339.49,M,006.163,N,011.414,K,D*0A
$GPGGA,095140.85,5702.9953425,N,00949.4434272,E,2,5,1.5,-3.209,M,40.595,M,2.7,0123*58
$GPVTG,300.08,T,-339.82,M,006.156,N,011.400,K,D*03
$GPGGA,095140.90,5702.9953866,N,00949.4432897,E,2,5,1.5,-3.208,M,40.595,M,2.7,0123*51
$GPVTG,300.11,T,-339.79,M,006.180,N,011.446,K,D*06
$GPGGA,095140.95,5702.9954330,N,00949.4431572,E,2,5,1.5,-3.208,M,40.595,M,2.7,0123*5E
$GPVTG,300.58,T,-339.32,M,006.177,N,011.441,K,D*0B
$GPGGA,095141.00,5702.9954774,N,00949.4430210,E,2,5,1.5,-3.208,M,40.595,M,2.7,0123*55
$GPVTG,300.64,T,-339.26,M,006.191,N,011.465,K,D*0F
$GPGGA,095141.05,5702.9955196,N,00949.4428828,E,2,5,1.5,-3.209,M,40.595,M,1.5,0123*53
$GPVTG,300.49,T,-339.41,M,006.211,N,011.503,K,D*0B
$GPGGA,095141.10,5702.9955630,N,00949.4427540,E,2,5,1.5,-3.209,M,40.595,M,1.5,0123*50
$GPVTG,300.75,T,-339.15,M,006.162,N,011.412,K,D*03
$GPGGA,095141.15,5702.9956104,N,00949.4426211,E,2,5,1.5,-3.211,M,40.595,M,1.5,0123*5D
$GPVTG,301.15,T,-338.76,M,006.168,N,011.422,K,D*09
$GPGGA,095141.20,5702.9956513,N,00949.4424790,E,2,5,1.5,-3.210,M,40.595,M,1.5,0123*56
$GPVTG,300.63,T,-339.27,M,006.206,N,011.494,K,D*0A
$GPGGA,095141.25,5702.9956996,N,00949.4423474,E,2,5,1.5,-3.196,M,40.595,M,1.8,0123*5C
$GPVTG,301.16,T,-338.74,M,006.202,N,011.486,K,D*09
$GPGGA,095141.30,5702.9957444,N,00949.4422124,E,2,5,1.5,-3.195,M,40.595,M,1.8,0123*59
$GPVTG,301.25,T,-338.65,M,006.206,N,011.494,K,D*0E
$GPGGA,095141.35,5702.9957925,N,00949.4420780,E,2,5,1.5,-3.193,M,40.595,M,1.8,0123*5A
$GPVTG,301.67,T,-338.23,M,006.228,N,011.534,K,D*0D
$GPGGA,095141.40,5702.9958375,N,00949.4419439,E,2,5,1.5,-3.192,M,40.595,M,1.8,0123*52
$GPVTG,301.76,T,-338.14,M,006.225,N,011.528,K,D*09
$GPGGA,095141.45,5702.9958766,N,00949.4418101,E,2,5,1.5,-3.201,M,40.595,M,2.0,0123*5C
$GPVTG,301.04,T,-338.86,M,006.169,N,011.425,K,D*00
$GPGGA,095141.50,5702.9959201,N,00949.4416731,E,2,5,1.5,-3.203,M,40.595,M,2.0,0123*54
$GPVTG,300.83,T,-339.07,M,006.184,N,011.453,K,D*04
$GPGGA,095141.55,5702.9959662,N,00949.4415422,E,2,5,1.5,-3.202,M,40.595,M,2.0,0123*53
$GPVTG,301.36,T,-338.54,M,006.170,N,011.428,K,D*0B
$GPGGA,095141.60,5702.9960136,N,00949.4414072,E,2,5,1.5,-3.203,M,40.595,M,2.0,0123*58
$GPVTG,301.75,T,-338.15,M,006.203,N,011.488,K,D*04
$GPGGA,095141.65,5702.9960592,N,00949.4412740,E,2,5,1.5,-3.195,M,40.595,M,2.2,0123*59
$GPVTG,302.03,T,-337.87,M,006.201,N,011.484,K,D*0C
$GPGGA,095141.70,5702.9961024,N,00949.4411364,E,2,5,1.5,-3.198,M,40.595,M,2.2,0123*58
$GPVTG,301.64,T,-338.27,M,006.213,N,011.507,K,D*02
$GPGGA,095141.75,5702.9961463,N,00949.4410028,E,2,5,1.5,-3.199,M,40.595,M,2.2,0123*51
$GPVTG,301.57,T,-338.33,M,006.199,N,011.480,K,D*08
$GPGGA,095141.80,5702.9961887,N,00949.4408632,E,2,5,1.5,-3.200,M,40.595,M,2.2,0123*5A
$GPVTG,301.05,T,-338.85,M,006.221,N,011.521,K,D*08
$GPGGA,095141.85,5702.9962335,N,00949.4407293,E,2,5,1.5,-3.184,M,40.595,M,2.5,0123*56
$GPVTG,301.34,T,-338.56,M,006.212,N,011.505,K,D*02
$GPGGA,095141.90,5702.9962763,N,00949.4405926,E,2,5,1.5,-3.181,M,40.595,M,2.5,0123*57
$GPVTG,301.03,T,-338.87,M,006.212,N,011.505,K,D*0A
$GPGGA,095141.95,5702.9963219,N,00949.4404570,E,2,5,1.5,-3.180,M,40.595,M,2.5,0123*54
$GPVTG,301.15,T,-338.75,M,006.226,N,011.530,K,D*01
$GPGGA,095142.00,5702.9963684,N,00949.4403200,E,2,5,1.5,-3.176,M,40.595,M,2.5,0123*55
$GPVTG,301.30,T,-338.60,M,006.255,N,011.585,K,D*08
$GPGGA,095142.05,5702.9964147,N,00949.4401908,E,2,5,1.5,-3.182,M,40.595,M,2.7,0123*57
$GPVTG,301.64,T,-338.26,M,006.227,N,011.532,K,D*02
$GPGGA,095142.10,5702.9964584,N,00949.4400571,E,2,5,1.5,-3.182,M,40.595,M,2.7,0123*5B
$GPVTG,301.55,T,-338.35,M,006.208,N,011.497,K,D*01
$GPGGA,095142.15,5702.9964996,N,00949.4399150,E,2,5,1.5,-3.181,M,40.595,M,2.7,0123*52
$GPVTG,300.79,T,-339.11,M,006.238,N,011.554,K,D*04
$GPGGA,095142.20,5702.9965413,N,00949.4397841,E,2,5,1.5,-3.181,M,40.595,M,2.7,0123*52
$GPVTG,300.67,T,-339.23,M,006.179,N,011.443,K,D*0B
$GPGGA,095142.25,5702.9965853,N,00949.4396527,E,2,5,1.5,-3.172,M,40.595,M,2.9,0123*51
$GPVTG,300.96,T,-338.94,M,006.153,N,011.395,K,D*0C
$GPGGA,095142.30,5702.9966335,N,00949.4395161,E,2,5,1.5,-3.173,M,40.595,M,2.9,0123*59
$GPVTG,301.35,T,-338.55,M,006.201,N,011.484,K,D*0A
$GPGGA,095142.35,5702.9966785,N,00949.4393782,E,2,5,1.5,-3.172,M,40.595,M,2.9,0123*5F
$GPVTG,301.26,T,-338.64,M,006.229,N,011.536,K,D*08
$GPGGA,095142.40,5702.9967219,N,00949.4392426,E,2,5,1.5,-3.172,M,40.595,M,2.9,0123*50
$GPVTG,301.09,T,-338.81,M,006.222,N,011.523,K,D*01
$GPGGA,095142.45,5702.9967649,N,00949.4391084,E,2,5,1.5,-3.173,M,40.595,M,3.1,0123*53
$GPVTG,300.95,T,-338.95,M,006.210,N,011.501,K,D*01
$GPGGA,095142.50,5702.9968089,N,00949.4389730,E,2,5,1.5,-3.172,M,40.595,M,3.1,0123*52
$GPVTG,300.91,T,-338.99,M,006.208,N,011.498,K,D*01
$GPGGA,095142.55,5702.9968522,N,00949.4388395,E,2,5,1.5,-3.175,M,40.595,M,3.1,0123*5E
$GPVTG,300.87,T,-339.03,M,006.186,N,011.456,K,D*03
$GPGGA,095142.60,5702.9968958,N,00949.4387038,E,2,5,1.5,-3.177,M,40.595,M,3.1,0123*50
$GPVTG,300.76,T,-339.14,M,006.186,N,011.456,K,D*0B
$GPGGA,095142.65,5702.9969421,N,00949.4385624,E,2,5,1.5,-3.160,M,40.595,M,3.3,0123*5A
$GPVTG,300.91,T,-338.99,M,006.252,N,011.579,K,D*00
$GPGGA,095142.70,5702.9969874,N,00949.4384303,E,2,5,1.5,-3.158,M,40.595,M,3.3,0123*58
$GPVTG,301.18,T,-338.72,M,006.228,N,011.534,K,D*01
$GPGGA,095142.75,5702.9970309,N,00949.4382975,E,2,5,1.5,-3.159,M,40.595,M,3.3,0123*58
$GPVTG,301.17,T,-338.73,M,006.199,N,011.481,K,D*09
$GPGGA,095142.80,5702.9970766,N,00949.4381598,E,2,5,1.5,-3.159,M,40.595,M,3.3,0123*53
$GPVTG,301.20,T,-338.70,M,006.230,N,011.537,K,D*02
$GPGGA,095142.85,5702.9971205,N,00949.4380223,E,2,5,1.5,-3.162,M,40.595,M,3.5,0123*5F
$GPVTG,301.05,T,-338.85,M,006.249,N,011.574,K,D*06
$GPGGA,095142.90,5702.9971672,N,00949.4378837,E,2,5,1.5,-3.162,M,40.595,M,3.5,0123*57
$GPVTG,301.08,T,-338.82,M,006.277,N,011.626,K,D*05
$GPGGA,095142.95,5702.9972089,N,00949.4377496,E,2,5,1.5,-3.162,M,40.595,M,3.5,0123*5B
$GPVTG,300.96,T,-338.94,M,006.251,N,011.577,K,D*07
$GPGGA,095143.00,5702.9972535,N,00949.4376131,E,2,5,1.5,-3.164,M,40.595,M,3.5,0123*5B
$GPVTG,300.94,T,-338.96,M,006.256,N,011.585,K,D*0D
$GPGGA,095143.05,5702.9972980,N,00949.4374764,E,2,5,1.5,-3.156,M,40.595,M,2.1,0123*5C
$GPVTG,300.92,T,-338.98,M,006.261,N,011.595,K,D*00
$GPGGA,095143.10,5702.9973422,N,00949.4373398,E,2,5,1.5,-3.155,M,40.595,M,2.1,0123*5F
$GPVTG,300.87,T,-339.03,M,006.262,N,011.597,K,D*06
$GPGGA,095143.15,5702.9973911,N,00949.4372044,E,2,5,1.5,-3.154,M,40.595,M,2.1,0123*55
$GPVTG,301.21,T,-338.69,M,006.276,N,011.623,K,D*0F
$GPGGA,095143.20,5702.9974385,N,00949.4370682,E,2,5,1.5,-3.155,M,40.595,M,2.1,0123*5C
$GPVTG,301.41,T,-338.49,M,006.288,N,011.646,K,D*09
$GPGGA,095143.25,5702.9974787,N,00949.4369356,E,2,5,1.5,-3.162,M,40.595,M,2.4,0123*5A
$GPVTG,301.17,T,-338.73,M,006.240,N,011.557,K,D*04
$GPGGA,095143.30,5702.9975240,N,00949.4368002,E,2,5,1.5,-3.162,M,40.595,M,2.4,0123*52
$GPVTG,301.26,T,-338.64,M,006.241,N,011.558,K,D*0E
$GPGGA,095143.35,5702.9975702,N,00949.4366678,E,2,5,1.5,-3.164,M,40.595,M,2.4,0123*57
$GPVTG,301.54,T,-338.36,M,006.224,N,011.526,K,D*06
$GPGGA,095143.40,5702.9976160,N,00949.4365316,E,2,5,1.5,-3.166,M,40.595,M,2.4,0123*58
$GPVTG,301.60,T,-338.30,M,006.236,N,011.549,K,D*0D
$GPGGA,095143.45,5702.9976610,N,00949.4363953,E,2,5,1.5,-3.171,M,40.595,M,2.7,0123*55
$GPVTG,301.76,T,-338.14,M,006.265,N,011.602,K,D*06
$GPGGA,095143.50,5702.9977043,N,00949.4362573,E,2,5,1.5,-3.173,M,40.595,M,2.7,0123*5D
$GPVTG,301.29,T,-338.61,M,006.262,N,011.597,K,D*06
$GPGGA,095143.55,5702.9977481,N,00949.4361255,E,2,5,1.5,-3.176,M,40.595,M,2.7,0123*57
$GPVTG,301.31,T,-338.59,M,006.216,N,011.512,K,D*0A
$GPGGA,095143.60,5702.9977930,N,00949.4359921,E,2,5,1.5,-3.178,M,40.595,M,2.7,0123*5B
$GPVTG,301.41,T,-338.49,M,006.200,N,011.483,K,D*02
$GPGGA,095143.65,5702.9978374,N,00949.4358528,E,2,5,1.5,-3.154,M,40.595,M,2.9,0123*5F
$GPVTG,301.33,T,-338.57,M,006.228,N,011.535,K,D*0E
$GPGGA,095143.70,5702.9978802,N,00949.4357175,E,2,5,1.5,-3.150,M,40.595,M,2.9,0123*56
$GPVTG,301.08,T,-338.82,M,006.211,N,011.502,K,D*00
$GPGGA,095143.75,5702.9979250,N,00949.4355834,E,2,5,1.5,-3.149,M,40.595,M,2.9,0123*59
$GPVTG,301.17,T,-338.73,M,006.202,N,011.487,K,D*0E
$GPGGA,095143.80,5702.9979682,N,00949.4354474,E,2,5,1.5,-3.146,M,40.595,M,2.9,0123*5E
$GPVTG,300.96,T,-338.94,M,006.198,N,011.478,K,D*0F
$GPGGA,095143.85,5702.9980156,N,00949.4353182,E,2,5,1.5,-3.161,M,40.595,M,3.2,0123*57
$GPVTG,301.42,T,-338.48,M,006.187,N,011.458,K,D*0A
$GPGGA,095143.90,5702.9980630,N,00949.4351812,E,2,5,1.5,-3.162,M,40.595,M,3.2,0123*55
$GPVTG,301.63,T,-338.27,M,006.226,N,011.531,K,D*06
$GPGGA,095143.95,5702.9981082,N,00949.4350460,E,2,5,1.5,-3.162,M,40.595,M,3.2,0123*56
$GPVTG,301.65,T,-338.25,M,006.229,N,011.536,K,D*0A
$GPGGA,095144.00,5702.9981495,N,00949.4349095,E,2,5,1.5,-3.166,M,40.595,M,3.2,0123*5D
$GPVTG,301.13,T,-338.77,M,006.212,N,011.505,K,D*04
$GPGGA,095144.05,5702.9981960,N,00949.4347726,E,2,5,1.5,-3.158,M,40.595,M,3.4,0123*55
$GPVTG,301.40,T,-338.50,M,006.241,N,011.558,K,D*09
$GPGGA,095144.10,5702.9982407,N,00949.4346399,E,2,5,1.5,-3.157,M,40.595,M,3.4,0123*50
$GPVTG,301.49,T,-338.41,M,006.218,N,011.516,K,D*06
$GPGGA,095144.15,5702.9982853,N,00949.4345055,E,2,5,1.5,-3.158,M,40.595,M,3.4,0123*57
$GPVTG,301.48,T,-338.42,M,006.211,N,011.502,K,D*08
$GPGGA,095144.20,5702.9983276,N,00949.4343700,E,2,5,1.5,-3.160,M,40.595,M,3.4,0123*57
$GPVTG,301.14,T,-338.76,M,006.195,N,011.473,K,D*0E
$GPGGA,095144.25,5702.9983722,N,00949.4342313,E,2,5,1.5,-3.174,M,40.595,M,1.9,0123*5B
$GPVTG,300.94,T,-338.96,M,006.237,N,011.551,K,D*03
$GPGGA,095144.30,5702.9984174,N,00949.4340977,E,2,5,1.5,-3.178,M,40.595,M,1.9,0123*5B
$GPVTG,301.10,T,-338.80,M,006.226,N,011.531,K,D*0F
$GPGGA,095144.35,5702.9984621,N,00949.4339627,E,2,5,1.5,-3.181,M,40.595,M,1.9,0123*5B
$GPVTG,301.12,T,-338.78,M,006.223,N,011.526,K,D*09
$GPGGA,095144.40,5702.9985100,N,00949.4338314,E,2,5,1.5,-3.181,M,40.595,M,1.9,0123*58
$GPVTG,301.68,T,-338.22,M,006.216,N,011.512,K,D*0A
$GPGGA,095144.45,5702.9985541,N,00949.4336896,E,2,5,1.5,-3.152,M,40.595,M,2.2,0123*55
$GPVTG,301.44,T,-338.46,M,006.251,N,011.578,K,D*09
$GPGGA,095144.50,5702.9985975,N,00949.4335528,E,2,5,1.5,-3.149,M,40.595,M,2.2,0123*5B
$GPVTG,301.18,T,-338.72,M,006.250,N,011.576,K,D*08
$GPGGA,095144.55,5702.9986419,N,00949.4334152,E,2,5,1.5,-3.147,M,40.595,M,2.2,0123*5C
$GPVTG,301.05,T,-338.85,M,006.262,N,011.598,K,D*0D
$GPGGA,095144.60,5702.9986859,N,00949.4332796,E,2,5,1.5,-3.147,M,40.595,M,2.2,0123*5A
$GPVTG,300.97,T,-338.93,M,006.253,N,011.581,K,D*0A
$GPGGA,095144.65,5702.9987336,N,00949.4331507,E,2,5,1.5,-3.159,M,40.595,M,2.4,0123*5C
$GPVTG,301.51,T,-338.39,M,006.235,N,011.546,K,D*0A
$GPGGA,095144.70,5702.9987771,N,00949.4330140,E,2,5,1.5,-3.159,M,40.595,M,2.4,0123*59
$GPVTG,301.27,T,-338.63,M,006.234,N,011.546,K,D*05
$GPGGA,095144.75,5702.9988232,N,00949.4328764,E,2,5,1.5,-3.160,M,40.595,M,2.4,0123*52
$GPVTG,301.32,T,-338.58,M,006.261,N,011.595,K,D*07
$GPGGA,095144.80,5702.9988659,N,00949.4327400,E,2,5,1.5,-3.160,M,40.595,M,2.4,0123*5F
$GPVTG,301.03,T,-338.87,M,006.248,N,011.572,K,D*05
$GPGGA,095144.85,5702.9989108,N,00949.4326052,E,2,5,1.5,-3.161,M,40.595,M,2.7,0123*58
$GPVTG,301.09,T,-338.81,M,006.244,N,011.564,K,D*02
$GPGGA,095144.90,5702.9989598,N,00949.4324697,E,2,5,1.5,-3.161,M,40.595,M,2.7,0123*5C
$GPVTG,301.35,T,-338.55,M,006.259,N,011.591,K,D*02
$GPGGA,095144.95,5702.9990062,N,00949.4323325,E,2,5,1.5,-3.158,M,40.595,M,2.7,0123*50
$GPVTG,301.40,T,-338.50,M,006.276,N,011.623,K,D*02
$GPGGA,095145.00,5702.9990510,N,00949.4322011,E,2,5,1.5,-3.160,M,40.595,M,2.7,0123*53
$GPVTG,301.57,T,-338.33,M,006.242,N,011.560,K,D*02
$GPGGA,095145.05,5702.9990979,N,00949.4320667,E,2,5,1.5,-3.165,M,40.595,M,2.9,0123*5B
$GPVTG,301.69,T,-338.21,M,006.248,N,011.571,K,D*06
$GPGGA,095145.10,5702.9991400,N,00949.4319318,E,2,5,1.5,-3.166,M,40.595,M,2.9,0123*59
$GPVTG,301.53,T,-338.37,M,006.231,N,011.540,K,D*04
$GPGGA,095145.15,5702.9991832,N,00949.4317980,E,2,5,1.5,-3.165,M,40.595,M,2.9,0123*57
$GPVTG,301.46,T,-338.44,M,006.212,N,011.505,K,D*04
$GPGGA,095145.20,5702.9992254,N,00949.4316587,E,2,5,1.5,-3.165,M,40.595,M,2.9,0123*52
$GPVTG,301.09,T,-338.81,M,006.229,N,011.535,K,D*0D
$GPGGA,095145.25,5702.9992731,N,00949.4315220,E,2,5,1.5,-3.149,M,40.595,M,1.8,0123*54
$GPVTG,301.22,T,-338.68,M,006.246,N,011.567,K,D*0D
$GPGGA,095145.30,5702.9993212,N,00949.4313845,E,2,5,1.5,-3.146,M,40.595,M,1.8,0123*55
$GPVTG,301.40,T,-338.50,M,006.275,N,011.622,K,D*00
$GPGGA,095145.35,5702.9993661,N,00949.4312527,E,2,5,1.5,-3.143,M,40.595,M,1.8,0123*5D
$GPVTG,301.55,T,-338.35,M,006.244,N,011.565,K,D*05
$GPGGA,095145.40,5702.9994156,N,00949.4311211,E,2,5,1.5,-3.141,M,40.595,M,1.8,0123*58
$GPVTG,302.07,T,-337.83,M,006.241,N,011.558,K,D*08
$GPGGA,095145.45,5702.9994555,N,00949.4309874,E,2,5,1.5,-3.165,M,40.595,M,2.0,0123*57
$GPVTG,302.03,T,-337.87,M,006.224,N,011.528,K,D*0C
$GPGGA,095145.50,5702.9994959,N,00949.4308518,E,2,5,1.5,-3.164,M,40.595,M,2.0,0123*54
$GPVTG,301.57,T,-338.33,M,006.202,N,011.487,K,D*0E
$GPGGA,095145.55,5702.9995376,N,00949.4307146,E,2,5,1.5,-3.165,M,40.595,M,2.0,0123*56
$GPVTG,301.19,T,-338.71,M,006.202,N,011.486,K,D*03
$GPGGA,095145.60,5702.9995819,N,00949.4305793,E,2,5,1.5,-3.166,M,40.595,M,2.0,0123*5D
