$GPGGA,095404.25,5703.0142738,N,00949.4448228,E,2,5,1.6,-3.920,M,40.595,M,1.9,0123*52
$GPVTG,119.40,T,-520.50,M,004.973,N,009.209,K,D*0F
$GPGGA,095404.30,5703.0142402,N,00949.4449332,E,2,5,1.6,-3.921,M,40.595,M,1.9,0123*56
$GPVTG,119.39,T,-520.51,M,004.974,N,009.212,K,D*0D
$GPGGA,095404.35,5703.0142059,N,00949.4450467,E,2,5,1.6,-3.929,M,40.595,M,1.9,0123*5E
$GPVTG,119.29,T,-520.61,M,005.002,N,009.264,K,D*07
$GPGGA,095404.40,5703.0141720,N,00949.4451594,E,2,5,1.6,-3.936,M,40.595,M,1.9,0123*54
$GPVTG,119.20,T,-520.70,M,005.019,N,009.295,K,D*0A
$GPGGA,095404.45,5703.0141382,N,00949.4452704,E,2,5,1.6,-3.929,M,40.595,M,2.2,0123*53
$GPVTG,119.23,T,-520.67,M,005.011,N,009.280,K,D*03
$GPGGA,095404.50,5703.0141050,N,00949.4453784,E,2,5,1.6,-3.939,M,40.595,M,2.2,0123*53
$GPVTG,119.32,T,-520.58,M,004.987,N,009.236,K,D*05
$GPGGA,095404.55,5703.0140705,N,00949.4454850,E,2,5,1.6,-3.942,M,40.595,M,2.2,0123*5D
$GPVTG,119.58,T,-520.32,M,004.961,N,009.188,K,D*0B
$GPGGA,095404.60,5703.0140383,N,00949.4455965,E,2,5,1.6,-3.949,M,40.595,M,2.2,0123*5C
$GPVTG,119.36,T,-520.54,M,004.964,N,009.193,K,D*0C
$GPGGA,095404.65,5703.0140050,N,00949.4457134,E,2,5,1.6,-3.928,M,40.595,M,2.4,0123*5B
$GPVTG,119.23,T,-520.67,M,004.951,N,009.170,K,D*03
$GPGGA,095404.70,5703.0139683,N,00949.4458201,E,2,5,1.6,-3.936,M,40.595,M,2.4,0123*5C
$GPVTG,119.71,T,-520.19,M,004.941,N,009.151,K,D*0F
$GPGGA,095404.75,5703.0139348,N,00949.4459305,E,2,5,1.6,-3.948,M,40.595,M,2.4,0123*56
$GPVTG,119.65,T,-520.25,M,004.945,N,009.159,K,D*09
$GPGGA,095404.80,5703.0139005,N,00949.4460446,E,2,5,1.6,-3.962,M,40.595,M,2.4,0123*54
$GPVTG,119.48,T,-520.42,M,004.981,N,009.224,K,D*06
$GPGGA,095404.85,5703.0138645,N,00949.4461670,E,2,5,1.6,-3.930,M,40.595,M,2.7,0123*50
$GPVTG,119.54,T,-520.36,M,004.974,N,009.211,K,D*04
$GPGGA,095404.90,5703.0138278,N,00949.4462810,E,2,5,1.6,-3.934,M,40.595,M,2.7,0123*51
$GPVTG,119.62,T,-520.28,M,005.018,N,009.293,K,D*06
$GPGGA,095404.95,5703.0137977,N,00949.4463924,E,2,5,1.6,-3.938,M,40.595,M,2.7,0123*54
$GPVTG,119.20,T,-520.70,M,005.006,N,009.271,K,D*0E
$GPGGA,095405.00,5703.0137647,N,00949.4465043,E,2,5,1.6,-3.940,M,40.595,M,2.7,0123*54
$GPVTG,119.06,T,-520.84,M,005.011,N,009.280,K,D*09
$GPGGA,095405.05,5703.0137325,N,00949.4466082,E,2,5,1.6,-3.940,M,40.595,M,2.9,0123*50
$GPVTG,119.22,T,-520.68,M,004.963,N,009.192,K,D*00
$GPGGA,095405.10,5703.0136979,N,00949.4467172,E,2,5,1.6,-3.951,M,40.595,M,2.9,0123*59
$GPVTG,119.37,T,-520.53,M,004.958,N,009.183,K,D*04
$GPGGA,095405.15,5703.0136620,N,00949.4468242,E,2,5,1.6,-3.963,M,40.595,M,2.9,0123*51
$GPVTG,119.73,T,-520.17,M,004.945,N,009.158,K,D*0E
$GPGGA,095405.20,5703.0136268,N,00949.4469307,E,2,5,1.6,-3.973,M,40.595,M,2.9,0123*5F
$GPVTG,120.02,T,-519.88,M,004.927,N,009.126,K,D*03
$GPGGA,095405.25,5703.0135940,N,00949.4470587,E,2,5,1.6,-3.942,M,40.595,M,1.8,0123*5E
$GPVTG,119.54,T,-520.36,M,004.967,N,009.198,K,D*04
$GPGGA,095405.30,5703.0135585,N,00949.4471715,E,2,5,1.6,-3.950,M,40.595,M,1.8,0123*54
$GPVTG,119.55,T,-520.35,M,004.996,N,009.253,K,D*0C
$GPGGA,095405.35,5703.0135266,N,00949.4472813,E,2,5,1.6,-3.955,M,40.595,M,1.8,0123*54
$GPVTG,119.38,T,-520.52,M,004.982,N,009.227,K,D*00
$GPGGA,095405.40,5703.0134933,N,00949.4473902,E,2,5,1.6,-3.959,M,40.595,M,1.8,0123*50
$GPVTG,119.40,T,-520.50,M,004.970,N,009.204,K,D*01
$GPGGA,095405.45,5703.0134639,N,00949.4474950,E,2,5,1.6,-3.957,M,40.595,M,2.0,0123*55
$GPVTG,119.46,T,-520.44,M,004.915,N,009.103,K,D*05
$GPGGA,095405.50,5703.0134261,N,00949.4476018,E,2,5,1.6,-3.964,M,40.595,M,2.0,0123*5F
$GPVTG,119.99,T,-519.91,M,004.915,N,009.102,K,D*04
$GPGGA,095405.55,5703.0133889,N,00949.4477101,E,2,5,1.6,-3.974,M,40.595,M,2.0,0123*58
$GPVTG,120.33,T,-519.57,M,004.925,N,009.122,K,D*05
$GPGGA,095405.60,5703.0133574,N,00949.4478203,E,2,5,1.6,-3.986,M,40.595,M,2.0,0123*52
$GPVTG,120.01,T,-519.89,M,004.923,N,009.117,K,D*07
$GPGGA,095405.65,5703.0133252,N,00949.4479327,E,2,5,1.6,-3.969,M,40.595,M,2.2,0123*51
$GPVTG,120.06,T,-519.84,M,004.880,N,009.038,K,D*09
$GPGGA,095405.70,5703.0132929,N,00949.4480465,E,2,5,1.6,-3.981,M,40.595,M,2.2,0123*52
$GPVTG,119.62,T,-520.28,M,004.914,N,009.101,K,D*0A
$GPGGA,095405.75,5703.0132600,N,00949.4481586,E,2,5,1.6,-3.994,M,40.595,M,2.2,0123*5A
$GPVTG,119.38,T,-520.52,M,004.935,N,009.139,K,D*00
$GPGGA,095405.80,5703.0132256,N,00949.4482670,E,2,5,1.6,-4.001,M,40.595,M,2.2,0123*5C
$GPVTG,119.49,T,-520.41,M,004.931,N,009.133,K,D*0A
$GPGGA,095405.85,5703.0131900,N,00949.4483846,E,2,5,1.6,-3.980,M,40.595,M,2.5,0123*58
$GPVTG,119.79,T,-520.11,M,004.918,N,009.108,K,D*0F
$GPGGA,095405.90,5703.0131567,N,00949.4484935,E,2,5,1.6,-3.987,M,40.595,M,2.5,0123*54
$GPVTG,119.73,T,-520.17,M,004.915,N,009.103,K,D*05
$GPGGA,095405.95,5703.0131223,N,00949.4486010,E,2,5,1.6,-3.992,M,40.595,M,2.5,0123*5E
$GPVTG,119.85,T,-520.05,M,004.908,N,009.091,K,D*09
$GPGGA,095406.00,5703.0130882,N,00949.4487128,E,2,5,1.6,-4.000,M,40.595,M,2.5,0123*5F
$GPVTG,119.71,T,-520.19,M,004.934,N,009.137,K,D*0D
$GPGGA,095406.05,5703.0130555,N,00949.4488195,E,2,5,1.6,-3.998,M,40.595,M,2.7,0123*59
$GPVTG,119.76,T,-520.14,M,004.909,N,009.092,K,D*07
$GPGGA,095406.10,5703.0130203,N,00949.4489278,E,2,5,1.6,-4.007,M,40.595,M,2.7,0123*50
$GPVTG,119.91,T,-519.99,M,004.913,N,009.099,K,D*01
$GPGGA,095406.15,5703.0129882,N,00949.4490355,E,2,5,1.6,-4.017,M,40.595,M,2.7,0123*59
$GPVTG,119.79,T,-520.11,M,004.899,N,009.072,K,D*0B
$GPGGA,095406.20,5703.0129531,N,00949.4491437,E,2,5,1.6,-4.029,M,40.595,M,2.7,0123*55
$GPVTG,119.92,T,-519.98,M,004.903,N,009.081,K,D*0B
$GPGGA,095406.25,5703.0129189,N,00949.4492649,E,2,5,1.6,-4.015,M,40.595,M,2.9,0123*5E
$GPVTG,119.69,T,-520.21,M,004.938,N,009.144,K,D*07
$GPGGA,095406.30,5703.0128850,N,00949.4493724,E,2,5,1.6,-4.021,M,40.595,M,2.9,0123*5A
$GPVTG,119.76,T,-520.14,M,004.927,N,009.124,K,D*07
$GPGGA,095406.35,5703.0128522,N,00949.4494793,E,2,5,1.6,-4.028,M,40.595,M,2.9,0123*55
$GPVTG,119.75,T,-520.15,M,004.908,N,009.091,K,D*07
$GPGGA,095406.40,5703.0128171,N,00949.4495880,E,2,5,1.6,-4.038,M,40.595,M,2.9,0123*58
$GPVTG,119.86,T,-520.04,M,004.915,N,009.103,K,D*0D
$GPGGA,095406.45,5703.0127838,N,00949.4496967,E,2,5,1.6,-4.029,M,40.595,M,3.1,0123*54
$GPVTG,120.10,T,-519.80,M,004.873,N,009.025,K,D*0A
$GPGGA,095406.50,5703.0127501,N,00949.4498059,E,2,5,1.6,-4.039,M,40.595,M,3.1,0123*5C
$GPVTG,120.02,T,-519.88,M,004.883,N,009.043,K,D*0E
$GPGGA,095406.55,5703.0127185,N,00949.4499152,E,2,5,1.6,-4.048,M,40.595,M,3.1,0123*5C
$GPVTG,119.73,T,-520.17,M,004.882,N,009.042,K,D*0E
$GPGGA,095406.60,5703.0126841,N,00949.4500258,E,2,5,1.6,-4.059,M,40.595,M,3.1,0123*52
$GPVTG,119.67,T,-520.23,M,004.904,N,009.083,K,D*0E
$GPGGA,095406.65,5703.0126500,N,00949.4501450,E,2,5,1.6,-4.046,M,40.595,M,3.3,0123*5C
$GPVTG,119.52,T,-520.38,M,004.922,N,009.115,K,D*08
$GPGGA,095406.70,5703.0126154,N,00949.4502513,E,2,5,1.6,-4.053,M,40.595,M,3.3,0123*5C
$GPVTG,119.73,T,-520.17,M,004.909,N,009.091,K,D*02
$GPGGA,095406.75,5703.0125797,N,00949.4503629,E,2,5,1.6,-4.063,M,40.595,M,3.3,0123*5B
$GPVTG,119.75,T,-520.15,M,004.942,N,009.152,K,D*07
$GPGGA,095406.80,5703.0125471,N,00949.4504748,E,2,5,1.6,-4.075,M,40.595,M,3.3,0123*5C
$GPVTG,119.47,T,-520.43,M,004.960,N,009.185,K,D*0F
$GPGGA,095406.85,5703.0125144,N,00949.4505913,E,2,5,1.6,-4.064,M,40.595,M,3.5,0123*5D
$GPVTG,119.33,T,-520.57,M,004.963,N,009.192,K,D*0C
$GPGGA,095406.90,5703.0124821,N,00949.4506950,E,2,5,1.6,-4.072,M,40.595,M,3.5,0123*51
$GPVTG,119.48,T,-520.42,M,004.913,N,009.100,K,D*08
$GPGGA,095406.95,5703.0124480,N,00949.4508019,E,2,5,1.6,-4.080,M,40.595,M,3.5,0123*54
$GPVTG,119.61,T,-520.29,M,004.902,N,009.079,K,D*01
$GPGGA,095407.00,5703.0124124,N,00949.4509087,E,2,5,1.6,-4.087,M,40.595,M,3.5,0123*53
$GPVTG,119.89,T,-520.01,M,004.898,N,009.071,K,D*07
$GPGGA,095407.05,5703.0123769,N,00949.4510234,E,2,5,1.6,-4.070,M,40.595,M,3.7,0123*56
$GPVTG,120.12,T,-519.78,M,004.909,N,009.092,K,D*0F
$GPGGA,095407.10,5703.0123453,N,00949.4511360,E,2,5,1.6,-4.078,M,40.595,M,3.7,0123*51
$GPVTG,119.68,T,-520.22,M,004.930,N,009.131,K,D*0F
$GPGGA,095407.15,5703.0123133,N,00949.4512470,E,2,5,1.6,-4.084,M,40.595,M,3.7,0123*51
$GPVTG,119.38,T,-520.52,M,004.939,N,009.146,K,D*04
$GPGGA,095407.20,5703.0122825,N,00949.4513530,E,2,5,1.6,-4.088,M,40.595,M,3.7,0123*50
$GPVTG,119.25,T,-520.65,M,004.901,N,009.077,K,D*04
$GPGGA,095407.25,5703.0122507,N,00949.4514683,E,2,5,1.6,-4.077,M,40.595,M,2.4,0123*56
$GPVTG,119.13,T,-520.77,M,004.932,N,009.135,K,D*05
$GPGGA,095407.30,5703.0122145,N,00949.4515789,E,2,5,1.6,-4.086,M,40.595,M,2.4,0123*54
$GPVTG,119.33,T,-520.57,M,004.957,N,009.180,K,D*08
$GPGGA,095407.35,5703.0121774,N,00949.4516917,E,2,5,1.6,-4.095,M,40.595,M,2.4,0123*5E
$GPVTG,119.49,T,-520.41,M,004.999,N,009.258,K,D*06
$GPGGA,095407.40,5703.0121424,N,00949.4518037,E,2,5,1.6,-4.105,M,40.595,M,2.4,0123*57
$GPVTG,119.50,T,-520.40,M,005.020,N,009.296,K,D*07
$GPGGA,095407.45,5703.0121035,N,00949.4519143,E,2,5,1.6,-4.108,M,40.595,M,2.7,0123*5B
$GPVTG,119.90,T,-520.00,M,004.985,N,009.232,K,D*06
$GPGGA,095407.50,5703.0120734,N,00949.4520209,E,2,5,1.6,-4.115,M,40.595,M,2.7,0123*53
$GPVTG,119.67,T,-520.23,M,004.943,N,009.154,K,D*06
$GPGGA,095407.55,5703.0120458,N,00949.4521314,E,2,5,1.6,-4.120,M,40.595,M,2.7,0123*55
$GPVTG,119.00,T,-520.90,M,004.922,N,009.116,K,D*0E
$GPGGA,095407.60,5703.0120111,N,00949.4522371,E,2,5,1.6,-4.124,M,40.595,M,2.7,0123*5F
$GPVTG,119.30,T,-520.60,M,004.900,N,009.075,K,D*06
$GPGGA,095407.65,5703.0119790,N,00949.4523486,E,2,5,1.6,-4.111,M,40.595,M,2.9,0123*59
$GPVTG,119.59,T,-520.31,M,004.895,N,009.065,K,D*01
$GPGGA,095407.70,5703.0119453,N,00949.4524575,E,2,5,1.6,-4.122,M,40.595,M,2.9,0123*5B
$GPVTG,119.59,T,-520.31,M,004.897,N,009.069,K,D*0F
$GPGGA,095407.75,5703.0119110,N,00949.4525705,E,2,5,1.6,-4.135,M,40.595,M,2.9,0123*5E
$GPVTG,119.44,T,-520.46,M,004.932,N,009.135,K,D*05
$GPGGA,095407.80,5703.0118772,N,00949.4526782,E,2,5,1.6,-4.146,M,40.595,M,2.9,0123*5F
$GPVTG,119.54,T,-520.36,M,004.922,N,009.115,K,D*00
$GPGGA,095407.85,5703.0118409,N,00949.4528034,E,2,5,1.6,-4.126,M,40.595,M,3.2,0123*5D
$GPVTG,119.30,T,-520.60,M,004.942,N,009.152,K,D*04
$GPGGA,095407.90,5703.0118084,N,00949.4529094,E,2,5,1.6,-4.131,M,40.595,M,3.2,0123*55
$GPVTG,119.36,T,-520.54,M,004.911,N,009.094,K,D*08
$GPGGA,095407.95,5703.0117760,N,00949.4530204,E,2,5,1.6,-4.137,M,40.595,M,3.2,0123*57
$GPVTG,119.16,T,-520.74,M,004.921,N,009.115,K,D*03
$GPGGA,095408.00,5703.0117414,N,00949.4531333,E,2,5,1.6,-4.144,M,40.595,M,3.2,0123*54
$GPVTG,119.08,T,-520.82,M,004.954,N,009.176,K,D*02
$GPGGA,095408.05,5703.0117107,N,00949.4532418,E,2,5,1.6,-4.144,M,40.595,M,3.4,0123*5D
$GPVTG,119.11,T,-520.79,M,004.945,N,009.158,K,D*02
$GPGGA,095408.10,5703.0116756,N,00949.4533515,E,2,5,1.6,-4.151,M,40.595,M,3.4,0123*53
$GPVTG,119.26,T,-520.64,M,004.954,N,009.174,K,D*04
$GPGGA,095408.15,5703.0116428,N,00949.4534581,E,2,5,1.6,-4.162,M,40.595,M,3.4,0123*56
$GPVTG,119.33,T,-520.57,M,004.927,N,009.124,K,D*01
$GPGGA,095408.20,5703.0116106,N,00949.4535694,E,2,5,1.6,-4.173,M,40.595,M,3.4,0123*5F
$GPVTG,119.11,T,-520.79,M,004.936,N,009.141,K,D*0E
$GPGGA,095408.25,5703.0115769,N,00949.4536849,E,2,5,1.6,-4.167,M,40.595,M,1.9,0123*51
$GPVTG,119.11,T,-520.79,M,004.921,N,009.113,K,D*0F
$GPGGA,095408.30,5703.0115418,N,00949.4537906,E,2,5,1.6,-4.177,M,40.595,M,1.9,0123*5A
$GPVTG,119.45,T,-520.45,M,004.901,N,009.076,K,D*01
$GPGGA,095408.35,5703.0115048,N,00949.4539024,E,2,5,1.6,-4.187,M,40.595,M,1.9,0123*56
$GPVTG,119.64,T,-520.26,M,004.939,N,009.146,K,D*0E
$GPGGA,095408.40,5703.0114712,N,00949.4540132,E,2,5,1.6,-4.195,M,40.595,M,1.9,0123*56
$GPVTG,119.55,T,-520.35,M,004.951,N,009.169,K,D*0D
$GPGGA,095408.45,5703.0114356,N,00949.4541323,E,2,5,1.6,-4.178,M,40.595,M,2.2,0123*5F
$GPVTG,119.56,T,-520.34,M,004.947,N,009.161,K,D*00
$GPGGA,095408.50,5703.0114005,N,00949.4542388,E,2,5,1.6,-4.182,M,40.595,M,2.2,0123*59
$GPVTG,119.83,T,-520.07,M,004.931,N,009.132,K,D*0F
$GPGGA,095408.55,5703.0113697,N,00949.4543515,E,2,5,1.6,-4.189,M,40.595,M,2.2,0123*5E
$GPVTG,119.37,T,-520.53,M,004.945,N,009.158,K,D*0E
$GPGGA,095408.60,5703.0113346,N,00949.4544602,E,2,5,1.6,-4.192,M,40.595,M,2.2,0123*59
$GPVTG,119.54,T,-520.36,M,004.946,N,009.160,K,D*00
$GPGGA,095408.65,5703.0113038,N,00949.4545678,E,2,5,1.6,-4.183,M,40.595,M,2.4,0123*5C
$GPVTG,119.66,T,-520.24,M,004.916,N,009.105,K,D*04
$GPGGA,095408.70,5703.0112696,N,00949.4546789,E,2,5,1.6,-4.192,M,40.595,M,2.4,0123*57
$GPVTG,119.60,T,-520.30,M,004.936,N,009.141,K,D*05
$GPGGA,095408.75,5703.0112309,N,00949.4547894,E,2,5,1.6,-4.202,M,40.595,M,2.4,0123*59
$GPVTG,120.02,T,-519.88,M,004.969,N,009.203,K,D*0D
$GPGGA,095408.80,5703.0111995,N,00949.4548979,E,2,5,1.6,-4.210,M,40.595,M,2.4,0123*51
$GPVTG,119.80,T,-520.10,M,004.950,N,009.168,K,D*02
$GPGGA,095408.85,5703.0111623,N,00949.4550168,E,2,5,1.6,-4.203,M,40.595,M,2.7,0123*56
$GPVTG,119.86,T,-520.04,M,004.975,N,009.214,K,D*0E
$GPGGA,095408.90,5703.0111303,N,00949.4551263,E,2,5,1.6,-4.210,M,40.595,M,2.7,0123*5E
$GPVTG,119.65,T,-520.25,M,004.965,N,009.196,K,D*08
$GPGGA,095408.95,5703.0110977,N,00949.4552335,E,2,5,1.6,-4.215,M,40.595,M,2.7,0123*57
$GPVTG,119.64,T,-520.26,M,004.941,N,009.151,K,D*07
$GPGGA,095409.00,5703.0110657,N,00949.4553463,E,2,5,1.6,-4.221,M,40.595,M,2.7,0123*55
$GPVTG,119.29,T,-520.61,M,004.959,N,009.184,K,D*0C
$GPGGA,095409.05,5703.0110333,N,00949.4554526,E,2,5,1.6,-4.220,M,40.595,M,2.9,0123*5F
$GPVTG,119.69,T,-520.21,M,004.915,N,009.102,K,D*0A
$GPGGA,095409.10,5703.0109986,N,00949.4555658,E,2,5,1.6,-4.234,M,40.595,M,2.9,0123*59
$GPVTG,119.56,T,-520.34,M,004.952,N,009.171,K,D*05
$GPGGA,095409.15,5703.0109655,N,00949.4556799,E,2,5,1.6,-4.249,M,40.595,M,2.9,0123*58
$GPVTG,119.26,T,-520.64,M,004.984,N,009.231,K,D*0B
$GPGGA,095409.20,5703.0109293,N,00949.4557904,E,2,5,1.6,-4.261,M,40.595,M,2.9,0123*51
$GPVTG,119.48,T,-520.42,M,004.999,N,009.259,K,D*05
$GPGGA,095409.25,5703.0108874,N,00949.4559111,E,2,5,1.6,-4.244,M,40.595,M,1.8,0123*51
$GPVTG,119.95,T,-519.95,M,004.970,N,009.204,K,D*0A
$GPGGA,095409.30,5703.0108567,N,00949.4560125,E,2,5,1.6,-4.246,M,40.595,M,1.8,0123*55
$GPVTG,120.03,T,-519.87,M,004.892,N,009.059,K,D*0B
$GPGGA,095409.35,5703.0108238,N,00949.4561219,E,2,5,1.6,-4.248,M,40.595,M,1.8,0123*5E
$GPVTG,119.89,T,-520.01,M,004.894,N,009.063,K,D*08
$GPGGA,095409.40,5703.0107904,N,00949.4562342,E,2,5,1.6,-4.253,M,40.595,M,1.8,0123*51
$GPVTG,119.66,T,-520.24,M,004.920,N,009.112,K,D*07
$GPGGA,095409.45,5703.0107624,N,00949.4563433,E,2,5,1.6,-4.236,M,40.595,M,2.0,0123*51
$GPVTG,119.46,T,-520.44,M,004.933,N,009.137,K,D*06
$GPGGA,095409.50,5703.0107283,N,00949.4564561,E,2,5,1.6,-4.247,M,40.595,M,2.0,0123*5B
$GPVTG,119.31,T,-520.59,M,004.962,N,009.190,K,D*03
$GPGGA,095409.55,5703.0106927,N,00949.4565645,E,2,5,1.6,-4.257,M,40.595,M,2.0,0123*5F
$GPVTG,119.56,T,-520.34,M,004.962,N,009.190,K,D*09
$GPGGA,095409.60,5703.0106579,N,00949.4566705,E,2,5,1.6,-4.267,M,40.595,M,2.0,0123*5B
$GPVTG,119.83,T,-520.07,M,004.940,N,009.148,K,D*04
$GPGGA,095409.65,5703.0106207,N,00949.4567895,E,2,5,1.6,-4.256,M,40.595,M,2.2,0123*57
$GPVTG,119.81,T,-520.09,M,004.923,N,009.117,K,D*07
$GPGGA,095409.70,5703.0105870,N,00949.4569011,E,2,5,1.6,-4.266,M,40.595,M,2.2,0123*53
$GPVTG,119.66,T,-520.24,M,004.943,N,009.154,K,D*00
$GPGGA,095409.75,5703.0105537,N,00949.4570095,E,2,5,1.6,-4.275,M,40.595,M,2.2,0123*5E
$GPVTG,119.64,T,-520.26,M,004.934,N,009.137,K,D*05
$GPGGA,095409.80,5703.0105184,N,00949.4571179,E,2,5,1.6,-4.279,M,40.595,M,2.2,0123*56
$GPVTG,119.82,T,-520.08,M,004.935,N,009.139,K,D*0E
$GPGGA,095409.85,5703.0104850,N,00949.4572320,E,2,5,1.6,-4.270,M,40.595,M,2.5,0123*51
$GPVTG,119.78,T,-520.12,M,004.934,N,009.137,K,D*0F
$GPGGA,095409.90,5703.0104509,N,00949.4573424,E,2,5,1.6,-4.278,M,40.595,M,2.5,0123*5E
$GPVTG,119.73,T,-520.17,M,004.945,N,009.159,K,D*0F
$GPGGA,095409.95,5703.0104154,N,00949.4574503,E,2,5,1.6,-4.287,M,40.595,M,2.5,0123*54
$GPVTG,119.95,T,-519.95,M,004.943,N,009.155,K,D*0D
$GPGGA,095410.00,5703.0103836,N,00949.4575661,E,2,5,1.6,-4.297,M,40.595,M,2.5,0123*5D
$GPVTG,119.40,T,-520.50,M,004.984,N,009.230,K,D*0D
$GPGGA,095410.05,5703.0103473,N,00949.4576821,E,2,5,1.6,-4.287,M,40.595,M,2.7,0123*5F
$GPVTG,119.61,T,-520.29,M,004.985,N,009.232,K,D*03
$GPGGA,095410.10,5703.0103147,N,00949.4577856,E,2,5,1.6,-4.294,M,40.595,M,2.7,0123*5A
$GPVTG,119.80,T,-520.10,M,004.930,N,009.130,K,D*09
$GPGGA,095410.15,5703.0102812,N,00949.4578890,E,2,5,1.6,-4.299,M,40.595,M,2.7,0123*5F
$GPVTG,120.04,T,-519.86,M,004.885,N,009.047,K,D*04
$GPGGA,095410.20,5703.0102426,N,00949.4579987,E,2,5,1.6,-4.304,M,40.595,M,2.7,0123*51
$GPVTG,120.42,T,-519.48,M,004.919,N,009.109,K,D*0B
$GPGGA,095410.25,5703.0102091,N,00949.4581133,E,2,5,1.6,-4.286,M,40.595,M,2.9,0123*59
$GPVTG,120.24,T,-519.66,M,004.918,N,009.108,K,D*07
$GPGGA,095410.30,5703.0101750,N,00949.4582208,E,2,5,1.6,-4.295,M,40.595,M,2.9,0123*5E
$GPVTG,120.28,T,-519.62,M,004.911,N,009.094,K,D*02
$GPGGA,095410.35,5703.0101430,N,00949.4583260,E,2,5,1.6,-4.302,M,40.595,M,2.9,0123*5E
$GPVTG,120.23,T,-519.67,M,004.877,N,009.033,K,D*00
$GPGGA,095410.40,5703.0101097,N,00949.4584367,E,2,5,1.6,-4.311,M,40.595,M,2.9,0123*56
$GPVTG,120.02,T,-519.88,M,004.895,N,009.065,K,D*0D
$GPGGA,095410.45,5703.0100762,N,00949.4585564,E,2,5,1.6,-4.300,M,40.595,M,3.1,0123*52
$GPVTG,119.91,T,-519.99,M,004.913,N,009.099,K,D*01
$GPGGA,095410.50,5703.0100397,N,00949.4586640,E,2,5,1.6,-4.311,M,40.595,M,3.1,0123*5E
$GPVTG,120.20,T,-519.70,M,004.919,N,009.111,K,D*0D
$GPGGA,095410.55,5703.0100069,N,00949.4587736,E,2,5,1.6,-4.321,M,40.595,M,3.1,0123*5B
$GPVTG,120.00,T,-519.90,M,004.923,N,009.117,K,D*0E
$GPGGA,095410.60,5703.0099728,N,00949.4588810,E,2,5,1.6,-4.332,M,40.595,M,3.1,0123*58
$GPVTG,120.05,T,-519.85,M,004.915,N,009.103,K,D*0F
$GPGGA,095410.65,5703.0099365,N,00949.4589982,E,2,5,1.6,-4.324,M,40.595,M,3.3,0123*5E
$GPVTG,120.17,T,-519.73,M,004.913,N,009.099,K,D*01
$GPGGA,095410.70,5703.0099015,N,00949.4591055,E,2,5,1.6,-4.331,M,40.595,M,3.3,0123*50
$GPVTG,120.29,T,-519.61,M,004.910,N,009.094,K,D*01
$GPGGA,095410.75,5703.0098662,N,00949.4592125,E,2,5,1.6,-4.339,M,40.595,M,3.3,0123*5F
$GPVTG,120.45,T,-519.45,M,004.907,N,009.088,K,D*06
$GPGGA,095410.80,5703.0098321,N,00949.4593185,E,2,5,1.6,-4.345,M,40.595,M,3.3,0123*57
$GPVTG,120.54,T,-519.36,M,004.893,N,009.061,K,D*09
$GPGGA,095410.85,5703.0097986,N,00949.4594328,E,2,5,1.6,-4.333,M,40.595,M,3.5,0123*5F
$GPVTG,120.35,T,-519.55,M,004.898,N,009.072,K,D*02
$GPGGA,095410.90,5703.0097674,N,00949.4595393,E,2,5,1.6,-4.343,M,40.595,M,3.5,0123*5F
$GPVTG,120.12,T,-519.78,M,004.874,N,009.027,K,D*0A
$GPGGA,095410.95,5703.0097368,N,00949.4596511,E,2,5,1.6,-4.356,M,40.595,M,3.5,0123*59
$GPVTG,119.57,T,-520.33,M,004.890,N,009.056,K,D*08
$GPGGA,095411.00,5703.0097000,N,00949.4597602,E,2,5,1.6,-4.369,M,40.595,M,3.5,0123*55
$GPVTG,119.81,T,-520.09,M,004.912,N,009.097,K,D*0C
$GPGGA,095411.05,5703.0096681,N,00949.4598844,E,2,5,1.6,-4.348,M,40.595,M,3.7,0123*5C
$GPVTG,119.50,T,-520.40,M,004.944,N,009.157,K,D*03
$GPGGA,095411.10,5703.0096338,N,00949.4599920,E,2,5,1.6,-4.356,M,40.595,M,3.7,0123*52
$GPVTG,119.61,T,-520.29,M,004.937,N,009.144,K,D*08
$GPGGA,095411.15,5703.0096030,N,00949.4600994,E,2,5,1.6,-4.360,M,40.595,M,3.7,0123*55
$GPVTG,119.37,T,-520.53,M,004.912,N,009.098,K,D*01
$GPGGA,095411.20,5703.0095689,N,00949.4602063,E,2,5,1.6,-4.366,M,40.595,M,3.7,0123*51
$GPVTG,119.50,T,-520.40,M,004.902,N,009.078,K,D*0D
$GPGGA,095411.25,5703.0095363,N,00949.4603138,E,2,5,1.6,-4.364,M,40.595,M,2.4,0123*5B
$GPVTG,119.63,T,-520.27,M,004.865,N,009.009,K,D*0A
$GPGGA,095411.30,5703.0095023,N,00949.4604193,E,2,5,1.6,-4.377,M,40.595,M,2.4,0123*5C
$GPVTG,119.79,T,-520.11,M,004.848,N,008.978,K,D*05
$GPGGA,095411.35,5703.0094665,N,00949.4605278,E,2,5,1.6,-4.387,M,40.595,M,2.4,0123*54
$GPVTG,119.95,T,-519.95,M,004.865,N,009.011,K,D*09
$GPGGA,095411.40,5703.0094319,N,00949.4606356,E,2,5,1.6,-4.397,M,40.595,M,2.4,0123*57
$GPVTG,120.03,T,-519.87,M,004.871,N,009.022,K,D*0A
$GPGGA,095411.45,5703.0093970,N,00949.4607620,E,2,5,1.6,-4.369,M,40.595,M,2.7,0123*57
$GPVTG,119.67,T,-520.23,M,004.908,N,009.091,K,D*01
$GPGGA,095411.50,5703.0093651,N,00949.4608741,E,2,5,1.6,-4.376,M,40.595,M,2.7,0123*58
$GPVTG,119.30,T,-520.60,M,004.929,N,009.129,K,D*05
$GPGGA,095411.55,5703.0093314,N,00949.4609862,E,2,5,1.6,-4.382,M,40.595,M,2.7,0123*5D
$GPVTG,119.14,T,-520.76,M,004.956,N,009.178,K,D*08
$GPGGA,095411.60,5703.0093003,N,00949.4610965,E,2,5,1.6,-4.388,M,40.595,M,2.7,0123*5A
$GPVTG,118.84,T,-521.06,M,004.952,N,009.171,K,D*0B
$GPGGA,095411.65,5703.0092676,N,00949.4612117,E,2,5,1.6,-4.383,M,40.595,M,2.9,0123*50
$GPVTG,118.94,T,-520.96,M,004.988,N,009.238,K,D*0B
$GPGGA,095411.70,5703.0092291,N,00949.4613154,E,2,5,1.6,-4.390,M,40.595,M,2.9,0123*5D
$GPVTG,119.72,T,-520.18,M,004.964,N,009.193,K,D*04
$GPGGA,095411.75,5703.0091937,N,00949.4614226,E,2,5,1.6,-4.394,M,40.595,M,2.9,0123*59
$GPVTG,119.97,T,-519.93,M,004.955,N,009.177,K,D*0E
$GPGGA,095411.80,5703.0091622,N,00949.4615265,E,2,5,1.6,-4.397,M,40.595,M,2.9,0123*5D
$GPVTG,119.99,T,-519.91,M,004.905,N,009.083,K,D*0D
$GPGGA,095411.85,5703.0091284,N,00949.4616310,E,2,5,1.6,-4.405,M,40.595,M,3.2,0123*56
$GPVTG,119.94,T,-519.96,M,004.886,N,009.049,K,D*0B
$GPGGA,095411.90,5703.0090975,N,00949.4617391,E,2,5,1.6,-4.415,M,40.595,M,3.2,0123*5F
$GPVTG,119.66,T,-520.24,M,004.871,N,009.021,K,D*03
$GPGGA,095411.95,5703.0090628,N,00949.4618515,E,2,5,1.6,-4.430,M,40.595,M,3.2,0123*5F
$GPVTG,119.55,T,-520.35,M,004.908,N,009.090,K,D*06
$GPGGA,095412.00,5703.0090279,N,00949.4619599,E,2,5,1.6,-4.449,M,40.595,M,3.2,0123*5B
$GPVTG,119.69,T,-520.21,M,004.913,N,009.100,K,D*0E
$GPGGA,095412.05,5703.0089939,N,00949.4620874,E,2,5,1.6,-4.424,M,40.595,M,3.4,0123*50
$GPVTG,119.59,T,-520.31,M,004.921,N,009.114,K,D*08
$GPGGA,095412.10,5703.0089581,N,00949.4621918,E,2,5,1.6,-4.434,M,40.595,M,3.4,0123*50
$GPVTG,120.03,T,-519.87,M,004.898,N,009.072,K,D*08
$GPGGA,095412.15,5703.0089239,N,00949.4623042,E,2,5,1.6,-4.443,M,40.595,M,3.4,0123*55
$GPVTG,119.85,T,-520.05,M,004.932,N,009.134,K,D*0E
$GPGGA,095412.20,5703.0088888,N,00949.4624127,E,2,5,1.6,-4.449,M,40.595,M,3.4,0123*5D
$GPVTG,119.97,T,-519.93,M,004.936,N,009.142,K,D*0D
$GPGGA,095412.25,5703.0088545,N,00949.4625237,E,2,5,1.6,-4.434,M,40.595,M,1.9,0123*52
$GPVTG,120.15,T,-519.75,M,004.898,N,009.070,K,D*00
$GPGGA,095412.30,5703.0088227,N,00949.4626311,E,2,5,1.6,-4.442,M,40.595,M,1.9,0123*52
$GPVTG,119.98,T,-519.92,M,004.882,N,009.041,K,D*0F
$GPGGA,095412.35,5703.0087859,N,00949.4627399,E,2,5,1.6,-4.450,M,40.595,M,1.9,0123*59
$GPVTG,120.22,T,-519.68,M,004.902,N,009.079,K,D*03
$GPGGA,095412.40,5703.0087527,N,00949.4628477,E,2,5,1.6,-4.460,M,40.595,M,1.9,0123*54
$GPVTG,120.15,T,-519.75,M,004.897,N,009.069,K,D*07
$GPGGA,095412.45,5703.0087255,N,00949.4629675,E,2,5,1.6,-4.441,M,40.595,M,2.2,0123*59
$GPVTG,119.44,T,-520.46,M,004.929,N,009.129,K,D*02
$GPGGA,095412.50,5703.0086898,N,00949.4630806,E,2,5,1.6,-4.449,M,40.595,M,2.2,0123*5D
$GPVTG,119.42,T,-520.48,M,004.971,N,009.206,K,D*09
$GPGGA,095412.55,5703.0086548,N,00949.4631924,E,2,5,1.6,-4.458,M,40.595,M,2.2,0123*58
$GPVTG,119.41,T,-520.49,M,004.995,N,009.251,K,D*03
$GPGGA,095412.60,5703.0086184,N,00949.4632976,E,2,5,1.6,-4.465,M,40.595,M,2.2,0123*50
$GPVTG,119.86,T,-520.04,M,004.973,N,009.209,K,D*04
$GPGGA,095412.65,5703.0085819,N,00949.4634088,E,2,5,1.6,-4.458,M,40.595,M,2.4,0123*5D
$GPVTG,120.23,T,-519.67,M,004.950,N,009.167,K,D*04
$GPGGA,095412.70,5703.0085484,N,00949.4635116,E,2,5,1.6,-4.461,M,40.595,M,2.4,0123*5C
$GPVTG,120.47,T,-519.43,M,004.902,N,009.078,K,D*08
$GPGGA,095412.75,5703.0085142,N,00949.4636254,E,2,5,1.6,-4.471,M,40.595,M,2.4,0123*51
$GPVTG,120.18,T,-519.72,M,004.944,N,009.157,K,D*0E
$GPGGA,095412.80,5703.0084795,N,00949.4637332,E,2,5,1.6,-4.481,M,40.595,M,2.4,0123*59
$GPVTG,120.27,T,-519.63,M,004.940,N,009.149,K,D*09
$GPGGA,095412.85,5703.0084525,N,00949.4638454,E,2,5,1.6,-4.472,M,40.595,M,2.7,0123*52
$GPVTG,119.80,T,-520.10,M,004.939,N,009.147,K,D*00
$GPGGA,095412.90,5703.0084190,N,00949.4639589,E,2,5,1.6,-4.483,M,40.595,M,2.7,0123*52
$GPVTG,119.52,T,-520.38,M,004.972,N,009.208,K,D*02
$GPGGA,095412.95,5703.0083832,N,00949.4640658,E,2,5,1.6,-4.493,M,40.595,M,2.7,0123*51
$GPVTG,119.82,T,-520.08,M,004.961,N,009.189,K,D*04
$GPGGA,095413.00,5703.0083484,N,00949.4641721,E,2,5,1.6,-4.504,M,40.595,M,2.7,0123*5C
$GPVTG,120.03,T,-519.87,M,004.943,N,009.154,K,D*0A
$GPGGA,095413.05,5703.0083119,N,00949.4642946,E,2,5,1.6,-4.485,M,40.595,M,2.9,0123*52
$GPVTG,120.29,T,-519.61,M,004.966,N,009.197,K,D*02
$GPGGA,095413.10,5703.0082796,N,00949.4644032,E,2,5,1.6,-4.489,M,40.595,M,2.9,0123*56
$GPVTG,120.10,T,-519.80,M,004.952,N,009.172,K,D*0B
$GPGGA,095413.15,5703.0082456,N,00949.4645115,E,2,5,1.6,-4.497,M,40.595,M,2.9,0123*56
$GPVTG,120.11,T,-519.79,M,004.946,N,009.160,K,D*0A
$GPGGA,095413.20,5703.0082100,N,00949.4646201,E,2,5,1.6,-4.505,M,40.595,M,2.9,0123*59
$GPVTG,120.25,T,-519.65,M,004.951,N,009.168,K,D*0E
$GPGGA,095413.25,5703.0081787,N,00949.4647293,E,2,5,1.6,-4.499,M,40.595,M,1.8,0123*5A
$GPVTG,120.18,T,-519.72,M,004.923,N,009.117,K,D*0B
$GPGGA,095413.30,5703.0081458,N,00949.4648390,E,2,5,1.6,-4.508,M,40.595,M,1.8,0123*5B
$GPVTG,119.99,T,-519.91,M,004.925,N,009.122,K,D*05
$GPGGA,095413.35,5703.0081131,N,00949.4649442,E,2,5,1.6,-4.517,M,40.595,M,1.8,0123*53
$GPVTG,120.03,T,-519.87,M,004.892,N,009.060,K,D*01
$GPGGA,095413.40,5703.0080816,N,00949.4650537,E,2,5,1.6,-4.529,M,40.595,M,1.8,0123*5A
$GPVTG,119.71,T,-520.19,M,004.890,N,009.057,K,D*05
$GPGGA,095413.45,5703.0080502,N,00949.4651775,E,2,5,1.6,-4.508,M,40.595,M,2.0,0123*5A
$GPVTG,119.48,T,-520.42,M,004.925,N,009.122,K,D*0D
$GPGGA,095413.50,5703.0080120,N,00949.4652864,E,2,5,1.6,-4.516,M,40.595,M,2.0,0123*59
$GPVTG,119.90,T,-520.00,M,004.946,N,009.161,K,D*0C
$GPGGA,095413.55,5703.0079774,N,00949.4653908,E,2,5,1.6,-4.525,M,40.595,M,2.0,0123*57
$GPVTG,120.17,T,-519.73,M,004.915,N,009.102,K,D*04
$GPGGA,095413.60,5703.0079459,N,00949.4655024,E,2,5,1.6,-4.537,M,40.595,M,2.0,0123*5F
$GPVTG,119.75,T,-520.15,M,004.927,N,009.125,K,D*04
$GPGGA,095413.65,5703.0079116,N,00949.4656262,E,2,5,1.6,-4.527,M,40.595,M,2.2,0123*54
$GPVTG,119.32,T,-520.58,M,004.955,N,009.177,K,D*0C
$GPGGA,095413.70,5703.0078737,N,00949.4657309,E,2,5,1.6,-4.537,M,40.595,M,2.2,0123*58
$GPVTG,119.94,T,-519.96,M,004.938,N,009.145,K,D*02
$GPGGA,095413.75,5703.0078400,N,00949.4658370,E,2,5,1.6,-4.543,M,40.595,M,2.2,0123*58
$GPVTG,120.04,T,-519.86,M,004.916,N,009.105,K,D*08
$GPGGA,095413.80,5703.0078081,N,00949.4659449,E,2,5,1.6,-4.549,M,40.595,M,2.2,0123*59
$GPVTG,119.86,T,-520.04,M,004.902,N,009.078,K,D*06
$GPGGA,095413.85,5703.0077789,N,00949.4660621,E,2,5,1.6,-4.527,M,40.595,M,2.5,0123*55
$GPVTG,119.56,T,-520.34,M,004.901,N,009.076,K,D*05
$GPGGA,095413.90,5703.0077427,N,00949.4661676,E,2,5,1.6,-4.534,M,40.595,M,2.5,0123*57
$GPVTG,119.95,T,-519.95,M,004.890,N,009.056,K,D*00
$GPGGA,095413.95,5703.0077072,N,00949.4662758,E,2,5,1.6,-4.544,M,40.595,M,2.5,0123*5F
$GPVTG,120.10,T,-519.80,M,004.898,N,009.071,K,D*0E
$GPGGA,095414.00,5703.0076690,N,00949.4663903,E,2,5,1.6,-4.555,M,40.595,M,2.5,0123*5E
$GPVTG,120.19,T,-519.71,M,004.966,N,009.198,K,D*0F
$GPGGA,095414.05,5703.0076358,N,00949.4665123,E,2,5,1.6,-4.550,M,40.595,M,2.7,0123*51
$GPVTG,119.70,T,-520.20,M,005.019,N,009.296,K,D*09
$GPGGA,095414.10,5703.0076045,N,00949.4666210,E,2,5,1.6,-4.559,M,40.595,M,2.7,0123*53
$GPVTG,119.47,T,-520.43,M,004.997,N,009.255,K,D*09
$GPGGA,095414.15,5703.0075721,N,00949.4667257,E,2,5,1.6,-4.564,M,40.595,M,2.7,0123*5C
$GPVTG,119.56,T,-520.34,M,004.950,N,009.168,K,D*0F
$GPGGA,095414.20,5703.0075367,N,00949.4668286,E,2,5,1.6,-4.569,M,40.595,M,2.7,0123*52
$GPVTG,120.02,T,-519.88,M,004.909,N,009.092,K,D*01
$GPGGA,095414.25,5703.0075097,N,00949.4669457,E,2,5,1.6,-4.554,M,40.595,M,2.9,0123*50
$GPVTG,119.47,T,-520.43,M,004.902,N,009.079,K,D*09
$GPGGA,095414.30,5703.0074753,N,00949.4670541,E,2,5,1.6,-4.561,M,40.595,M,2.9,0123*52
$GPVTG,119.56,T,-520.34,M,004.903,N,009.081,K,D*0F
$GPGGA,095414.35,5703.0074382,N,00949.4671605,E,2,5,1.6,-4.571,M,40.595,M,2.9,0123*5C
$GPVTG,119.99,T,-519.91,M,004.902,N,009.079,K,D*0F
$GPGGA,095414.40,5703.0074051,N,00949.4672719,E,2,5,1.6,-4.586,M,40.595,M,2.9,0123*54
$GPVTG,119.76,T,-520.14,M,004.921,N,009.113,K,D*05
$GPGGA,095414.45,5703.0073706,N,00949.4673936,E,2,5,1.6,-4.570,M,40.595,M,3.1,0123*51
$GPVTG,119.76,T,-520.14,M,004.935,N,009.140,K,D*06
$GPGGA,095414.50,5703.0073370,N,00949.4675034,E,2,5,1.6,-4.580,M,40.595,M,3.1,0123*52
$GPVTG,119.67,T,-520.23,M,004.940,N,009.149,K,D*09
$GPGGA,095414.55,5703.0073025,N,00949.4676098,E,2,5,1.6,-4.591,M,40.595,M,3.1,0123*51
$GPVTG,119.86,T,-520.04,M,004.924,N,009.119,K,D*04
$GPGGA,095414.60,5703.0072680,N,00949.4677197,E,2,5,1.6,-4.597,M,40.595,M,3.1,0123*56
$GPVTG,119.85,T,-520.05,M,004.935,N,009.140,K,D*0A
$GPGGA,095414.65,5703.0072360,N,00949.4678415,E,2,5,1.6,-4.571,M,40.595,M,3.3,0123*52
$GPVTG,119.50,T,-520.40,M,004.934,N,009.137,K,D*02
$GPGGA,095414.70,5703.0072011,N,00949.4679517,E,2,5,1.6,-4.575,M,40.595,M,3.3,0123*55
$GPVTG,119.54,T,-520.36,M,004.948,N,009.163,K,D*0D
$GPGGA,095414.75,5703.0071660,N,00949.4680622,E,2,5,1.6,-4.582,M,40.595,M,3.3,0123*58
$GPVTG,119.59,T,-520.31,M,004.964,N,009.193,K,D*06
$GPGGA,095414.80,5703.0071322,N,00949.4681726,E,2,5,1.6,-4.586,M,40.595,M,3.3,0123*51
$GPVTG,119.53,T,-520.37,M,004.971,N,009.206,K,D*01
$GPGGA,095414.85,5703.0071056,N,00949.4682733,E,2,5,1.6,-4.586,M,40.595,M,3.5,0123*55
$GPVTG,119.58,T,-520.32,M,004.926,N,009.122,K,D*08
$GPGGA,095414.90,5703.0070738,N,00949.4683835,E,2,5,1.6,-4.598,M,40.595,M,3.5,0123*58
$GPVTG,119.33,T,-520.57,M,004.926,N,009.122,K,D*06
$GPGGA,095414.95,5703.0070387,N,00949.4684953,E,2,5,1.6,-4.607,M,40.595,M,3.5,0123*5E
$GPVTG,119.33,T,-520.57,M,004.953,N,009.172,K,D*01
$GPGGA,095415.00,5703.0070066,N,00949.4686056,E,2,5,1.6,-4.617,M,40.595,M,3.5,0123*50
$GPVTG,119.14,T,-520.77,M,004.951,N,009.169,K,D*0E
$GPGGA,095415.05,5703.0069739,N,00949.4687230,E,2,5,1.6,-4.604,M,40.595,M,3.7,0123*53
$GPVTG,119.12,T,-520.78,M,004.935,N,009.140,K,D*0E
$GPGGA,095415.10,5703.0069389,N,00949.4688322,E,2,5,1.6,-4.613,M,40.595,M,3.7,0123*53
$GPVTG,119.28,T,-520.62,M,004.940,N,009.150,K,D*0F
$GPGGA,095415.15,5703.0069061,N,00949.4689429,E,2,5,1.6,-4.622,M,40.595,M,3.7,0123*5C
$GPVTG,119.14,T,-520.76,M,004.945,N,009.159,K,D*09
$GPGGA,095415.20,5703.0068734,N,00949.4690454,E,2,5,1.6,-4.626,M,40.595,M,3.7,0123*5A
$GPVTG,119.40,T,-520.50,M,004.888,N,009.052,K,D*06
$GPGGA,095415.25,5703.0068411,N,00949.4691566,E,2,5,1.6,-4.602,M,40.595,M,2.4,0123*5E
$GPVTG,119.62,T,-520.28,M,004.859,N,009.000,K,D*02
$GPGGA,095415.30,5703.0068087,N,00949.4692647,E,2,5,1.6,-4.608,M,40.595,M,2.4,0123*58
$GPVTG,119.52,T,-520.38,M,004.853,N,008.988,K,D*02
$GPGGA,095415.35,5703.0067727,N,00949.4693799,E,2,5,1.6,-4.620,M,40.595,M,2.4,0123*56
$GPVTG,119.42,T,-520.48,M,004.919,N,009.110,K,D*03
$GPGGA,095415.40,5703.0067406,N,00949.4694924,E,2,5,1.6,-4.632,M,40.595,M,2.4,0123*58
$GPVTG,119.11,T,-520.79,M,004.939,N,009.147,K,D*07
$GPGGA,095415.45,5703.0067081,N,00949.4696149,E,2,5,1.6,-4.626,M,40.595,M,2.7,0123*51
$GPVTG,118.57,T,-521.33,M,004.979,N,009.220,K,D*0D
$GPGGA,095415.50,5703.0066773,N,00949.4697250,E,2,5,1.6,-4.633,M,40.595,M,2.7,0123*50
$GPVTG,118.34,T,-521.56,M,004.966,N,009.197,K,D*0A
$GPGGA,095415.55,5703.0066386,N,00949.4698277,E,2,5,1.6,-4.637,M,40.595,M,2.7,0123*55
$GPVTG,119.26,T,-520.64,M,004.935,N,009.139,K,D*0A
$GPGGA,095415.60,5703.0066049,N,00949.4699355,E,2,5,1.6,-4.647,M,40.595,M,2.7,0123*54
$GPVTG,119.35,T,-520.55,M,004.923,N,009.117,K,D*01
$GPGGA,095415.65,5703.0065713,N,00949.4700468,E,2,5,1.6,-4.636,M,40.595,M,2.9,0123*5A
$GPVTG,119.46,T,-520.44,M,004.904,N,009.083,K,D*0C
$GPGGA,095415.70,5703.0065398,N,00949.4701565,E,2,5,1.6,-4.643,M,40.595,M,2.9,0123*56
$GPVTG,119.23,T,-520.67,M,004.900,N,009.075,K,D*03
$GPGGA,095415.75,5703.0065079,N,00949.4702699,E,2,5,1.6,-4.649,M,40.595,M,2.9,0123*56
$GPVTG,118.87,T,-521.03,M,004.927,N,009.125,K,D*0E
$GPGGA,095415.80,5703.0064717,N,00949.4703785,E,2,5,1.6,-4.657,M,40.595,M,2.9,0123*50
$GPVTG,119.21,T,-520.69,M,004.934,N,009.138,K,D*00
$GPGGA,095415.85,5703.0064416,N,00949.4704915,E,2,5,1.6,-4.641,M,40.595,M,3.2,0123*5A
$GPVTG,119.06,T,-520.84,M,004.906,N,009.086,K,D*03
$GPGGA,095415.90,5703.0064101,N,00949.4706008,E,2,5,1.6,-4.653,M,40.595,M,3.2,0123*59
$GPVTG,118.89,T,-521.01,M,004.898,N,009.072,K,D*04
$GPGGA,095415.95,5703.0063778,N,00949.4707095,E,2,5,1.6,-4.666,M,40.595,M,3.2,0123*50
$GPVTG,118.83,T,-521.07,M,004.891,N,009.059,K,D*08
$GPGGA,095416.00,5703.0063463,N,00949.4708191,E,2,5,1.6,-4.674,M,40.595,M,3.2,0123*5F
$GPVTG,118.66,T,-521.24,M,004.888,N,009.052,K,D*01
$GPGGA,095416.05,5703.0063091,N,00949.4709441,E,2,5,1.6,-4.641,M,40.595,M,3.4,0123*5A
$GPVTG,118.93,T,-520.97,M,004.914,N,009.101,K,D*01
$GPGGA,095416.10,5703.0062770,N,00949.4710581,E,2,5,1.6,-4.644,M,40.595,M,3.4,0123*57
$GPVTG,118.61,T,-521.29,M,004.945,N,009.159,K,D*01
$GPGGA,095416.15,5703.0062482,N,00949.4711662,E,2,5,1.6,-4.650,M,40.595,M,3.4,0123*56
$GPVTG,118.28,T,-521.62,M,004.913,N,009.098,K,D*0C
$GPGGA,095416.20,5703.0062159,N,00949.4712726,E,2,5,1.6,-4.656,M,40.595,M,3.4,0123*57
$GPVTG,118.40,T,-521.50,M,004.886,N,009.048,K,D*03
$GPGGA,095416.25,5703.0061836,N,00949.4713834,E,2,5,1.6,-4.650,M,40.595,M,1.9,0123*55
$GPVTG,118.51,T,-521.39,M,004.913,N,009.100,K,D*0C
$GPGGA,095416.30,5703.0061538,N,00949.4714986,E,2,5,1.6,-4.663,M,40.595,M,1.9,0123*5D
$GPVTG,117.96,T,-521.94,M,004.943,N,009.154,K,D*0B
$GPGGA,095416.35,5703.0061214,N,00949.4716069,E,2,5,1.6,-4.675,M,40.595,M,1.9,0123*5C
$GPVTG,118.03,T,-521.87,M,004.927,N,009.125,K,D*0E
$GPGGA,095416.40,5703.0060891,N,00949.4717119,E,2,5,1.6,-4.685,M,40.595,M,1.9,0123*50
$GPVTG,118.26,T,-521.64,M,004.886,N,009.049,K,D*05
$GPGGA,095416.45,5703.0060501,N,00949.4718332,E,2,5,1.6,-4.675,M,40.595,M,2.2,0123*52
$GPVTG,118.56,T,-521.34,M,004.907,N,009.089,K,D*03
$GPGGA,095416.50,5703.0060155,N,00949.4719424,E,2,5,1.6,-4.683,M,40.595,M,2.2,0123*5B
$GPVTG,118.76,T,-521.14,M,004.913,N,009.099,K,D*07
$GPGGA,095416.55,5703.0059847,N,00949.4720530,E,2,5,1.6,-4.693,M,40.595,M,2.2,0123*51
$GPVTG,118.52,T,-521.38,M,004.912,N,009.096,K,D*01
$GPGGA,095416.60,5703.0059524,N,00949.4721614,E,2,5,1.6,-4.706,M,40.595,M,2.2,0123*56
$GPVTG,118.55,T,-521.35,M,004.900,N,009.074,K,D*04
$GPGGA,095416.65,5703.0059192,N,00949.4722820,E,2,5,1.6,-4.675,M,40.595,M,2.4,0123*53
$GPVTG,118.50,T,-521.40,M,004.891,N,009.058,K,D*04
$GPGGA,095416.70,5703.0058868,N,00949.4723935,E,2,5,1.6,-4.680,M,40.595,M,2.4,0123*54
$GPVTG,118.38,T,-521.52,M,004.906,N,009.086,K,D*05
$GPGGA,095416.75,5703.0058514,N,00949.4725079,E,2,5,1.6,-4.686,M,40.595,M,2.4,0123*56
$GPVTG,118.44,T,-521.46,M,004.955,N,009.176,K,D*03
$GPGGA,095416.80,5703.0058194,N,00949.4726191,E,2,5,1.6,-4.693,M,40.595,M,2.4,0123*50
$GPVTG,118.33,T,-521.57,M,004.959,N,009.183,K,D*05
$GPGGA,095416.85,5703.0057853,N,00949.4727344,E,2,5,1.6,-4.679,M,40.595,M,2.7,0123*54
$GPVTG,118.58,T,-521.32,M,004.987,N,009.236,K,D*05
$GPGGA,095416.90,5703.0057542,N,00949.4728390,E,2,5,1.6,-4.686,M,40.595,M,2.7,0123*5B
$GPVTG,118.70,T,-521.20,M,004.932,N,009.135,K,D*02
$GPGGA,095416.95,5703.0057238,N,00949.4729523,E,2,5,1.6,-4.692,M,40.595,M,2.7,0123*5E
$GPVTG,118.31,T,-521.59,M,004.947,N,009.161,K,D*0A
$GPGGA,095417.00,5703.0056918,N,00949.4730601,E,2,5,1.6,-4.696,M,40.595,M,2.7,0123*54
$GPVTG,118.39,T,-521.51,M,004.923,N,009.118,K,D*06
$GPGGA,095417.05,5703.0056609,N,00949.4731761,E,2,5,1.6,-4.684,M,40.595,M,2.9,0123*55
$GPVTG,118.29,T,-521.61,M,004.947,N,009.162,K,D*0B
$GPGGA,095417.10,5703.0056304,N,00949.4732875,E,2,5,1.6,-4.696,M,40.595,M,2.9,0123*53
$GPVTG,118.04,T,-521.86,M,004.945,N,009.158,K,D*06
$GPGGA,095417.15,5703.0055946,N,00949.4733993,E,2,5,1.6,-4.705,M,40.595,M,2.9,0123*5A
$GPVTG,118.31,T,-521.59,M,004.969,N,009.202,K,D*00
$GPGGA,095417.20,5703.0055577,N,00949.4735076,E,2,5,1.6,-4.718,M,40.595,M,2.9,0123*5A
$GPVTG,118.84,T,-521.06,M,004.969,N,009.202,K,D*04
$GPGGA,095417.25,5703.0055223,N,00949.4736260,E,2,5,1.6,-4.698,M,40.595,M,1.8,0123*54
$GPVTG,119.01,T,-520.89,M,004.935,N,009.139,K,D*0C
$GPGGA,095417.30,5703.0054861,N,00949.4737337,E,2,5,1.6,-4.705,M,40.595,M,1.8,0123*5A
$GPVTG,119.43,T,-520.47,M,004.932,N,009.134,K,D*02
$GPGGA,095417.35,5703.0054558,N,00949.4738442,E,2,5,1.6,-4.710,M,40.595,M,1.8,0123*56
$GPVTG,119.13,T,-520.77,M,004.925,N,009.120,K,D*07
$GPGGA,095417.40,5703.0054248,N,00949.4739597,E,2,5,1.6,-4.720,M,40.595,M,1.8,0123*59
$GPVTG,118.65,T,-521.25,M,004.959,N,009.184,K,D*04
$GPGGA,095417.45,5703.0053945,N,00949.4740740,E,2,5,1.6,-4.712,M,40.595,M,2.0,0123*51
$GPVTG,118.64,T,-521.26,M,004.953,N,009.173,K,D*04
$GPGGA,095417.50,5703.0053607,N,00949.4741767,E,2,5,1.6,-4.723,M,40.595,M,2.0,0123*5A
$GPVTG,119.11,T,-520.79,M,004.899,N,009.073,K,D*0A
$GPGGA,095417.55,5703.0053266,N,00949.4742852,E,2,5,1.6,-4.734,M,40.595,M,2.0,0123*50
$GPVTG,119.28,T,-520.62,M,004.897,N,009.069,K,D*0F
$GPGGA,095417.60,5703.0052945,N,00949.4743929,E,2,5,1.6,-4.744,M,40.595,M,2.0,0123*56
$GPVTG,119.26,T,-520.64,M,004.881,N,009.039,K,D*05
$GPGGA,095417.65,5703.0052641,N,00949.4745221,E,2,5,1.6,-4.699,M,40.595,M,2.2,0123*5E
$GPVTG,118.88,T,-521.02,M,004.896,N,009.068,K,D*03
$GPGGA,095417.70,5703.0052279,N,00949.4746371,E,2,5,1.6,-4.706,M,40.595,M,2.2,0123*55
$GPVTG,118.93,T,-520.97,M,004.956,N,009.178,K,D*09
$GPGGA,095417.75,5703.0051947,N,00949.4747498,E,2,5,1.6,-4.711,M,40.595,M,2.2,0123*52
$GPVTG,118.82,T,-521.08,M,004.977,N,009.218,K,D*08
$GPGGA,095417.80,5703.0051617,N,00949.4748580,E,2,5,1.6,-4.715,M,40.595,M,2.2,0123*51
$GPVTG,118.92,T,-520.98,M,004.960,N,009.186,K,D*03
$GPGGA,095417.85,5703.0051315,N,00949.4749707,E,2,5,1.6,-4.709,M,40.595,M,2.5,0123*55
$GPVTG,118.79,T,-521.11,M,004.966,N,009.198,K,D*0F
$GPGGA,095417.90,5703.0050982,N,00949.4750857,E,2,5,1.6,-4.717,M,40.595,M,2.5,0123*59
$GPVTG,118.60,T,-521.30,M,005.003,N,009.266,K,D*0D
$GPGGA,095417.95,5703.0050655,N,00949.4751935,E,2,5,1.6,-4.727,M,40.595,M,2.5,0123*5E
$GPVTG,118.70,T,-521.20,M,004.977,N,009.218,K,D*0F
$GPGGA,095418.00,5703.0050313,N,00949.4752993,E,2,5,1.6,-4.735,M,40.595,M,2.5,0123*56
$GPVTG,119.06,T,-520.84,M,004.946,N,009.160,K,D*0E
$GPGGA,095418.05,5703.0050012,N,00949.4754144,E,2,5,1.6,-4.719,M,40.595,M,2.7,0123*59
$GPVTG,119.07,T,-520.83,M,004.910,N,009.093,K,D*06
$GPGGA,095418.10,5703.0049680,N,00949.4755221,E,2,5,1.6,-4.724,M,40.595,M,2.7,0123*57
$GPVTG,119.18,T,-520.73,M,004.896,N,009.066,K,D*02
$GPGGA,095418.15,5703.0049321,N,00949.4756315,E,2,5,1.6,-4.733,M,40.595,M,2.7,0123*5F
$GPVTG,119.45,T,-520.45,M,004.910,N,009.093,K,D*0A
$GPGGA,095418.20,5703.0048969,N,00949.4757401,E,2,5,1.6,-4.742,M,40.595,M,2.7,0123*5B
$GPVTG,119.68,T,-520.22,M,004.914,N,009.100,K,D*0B
$GPGGA,095418.25,5703.0048639,N,00949.4758590,E,2,5,1.6,-4.722,M,40.595,M,2.9,0123*5A
$GPVTG,119.62,T,-520.28,M,004.904,N,009.083,K,D*00
$GPGGA,095418.30,5703.0048306,N,00949.4759694,E,2,5,1.6,-4.729,M,40.595,M,2.9,0123*5A
$GPVTG,119.55,T,-520.35,M,004.914,N,009.102,K,D*01
$GPGGA,095418.35,5703.0047997,N,00949.4760847,E,2,5,1.6,-4.738,M,40.595,M,2.9,0123*58
$GPVTG,119.00,T,-520.90,M,004.950,N,009.167,K,D*0D
$GPGGA,095418.40,5703.0047636,N,00949.4761945,E,2,5,1.6,-4.746,M,40.595,M,2.9,0123*55
$GPVTG,119.28,T,-520.62,M,004.963,N,009.192,K,D*00
$GPGGA,095418.45,5703.0047262,N,00949.4763081,E,2,5,1.6,-4.727,M,40.595,M,3.1,0123*58
$GPVTG,120.11,T,-519.79,M,004.941,N,009.151,K,D*0F
$GPGGA,095418.50,5703.0046940,N,00949.4764127,E,2,5,1.6,-4.734,M,40.595,M,3.1,0123*5E
$GPVTG,120.19,T,-519.71,M,004.899,N,009.073,K,D*0A
$GPGGA,095418.55,5703.0046588,N,00949.4765233,E,2,5,1.6,-4.742,M,40.595,M,3.1,0123*55
$GPVTG,120.22,T,-519.68,M,004.922,N,009.116,K,D*09
$GPGGA,095418.60,5703.0046271,N,00949.4766339,E,2,5,1.6,-4.748,M,40.595,M,3.1,0123*50
$GPVTG,119.91,T,-519.99,M,004.926,N,009.123,K,D*07
$GPGGA,095418.65,5703.0045993,N,00949.4767518,E,2,5,1.6,-4.720,M,40.595,M,3.3,0123*59
$GPVTG,119.52,T,-520.38,M,004.900,N,009.075,K,D*0F
$GPGGA,095418.70,5703.0045657,N,00949.4768625,E,2,5,1.6,-4.729,M,40.595,M,3.3,0123*51
$GPVTG,119.44,T,-520.46,M,004.916,N,009.104,K,D*01
$GPGGA,095418.75,5703.0045336,N,00949.4769740,E,2,5,1.6,-4.737,M,40.595,M,3.3,0123*5A
$GPVTG,119.18,T,-520.72,M,004.929,N,009.128,K,D*0D
$GPGGA,095418.80,5703.0044963,N,00949.4770886,E,2,5,1.6,-4.747,M,40.595,M,3.3,0123*51
$GPVTG,119.30,T,-520.60,M,004.988,N,009.238,K,D*0D
$GPGGA,095418.85,5703.0044667,N,00949.4772090,E,2,5,1.6,-4.725,M,40.595,M,3.5,0123*50
$GPVTG,119.13,T,-520.77,M,004.965,N,009.195,K,D*0D
$GPGGA,095418.90,5703.0044304,N,00949.4773119,E,2,5,1.6,-4.729,M,40.595,M,3.5,0123*59
$GPVTG,119.75,T,-520.15,M,004.925,N,009.121,K,D*02
$GPGGA,095418.95,5703.0043955,N,00949.4774196,E,2,5,1.6,-4.733,M,40.595,M,3.5,0123*5E
$GPVTG,119.94,T,-519.96,M,004.922,N,009.115,K,D*0C
$GPGGA,095419.00,5703.0043611,N,00949.4775325,E,2,5,1.6,-4.740,M,40.595,M,3.5,0123*53
$GPVTG,119.78,T,-520.12,M,004.955,N,009.176,K,D*0D
$GPGGA,095419.05,5703.0043311,N,00949.4776443,E,2,5,1.6,-4.728,M,40.595,M,3.7,0123*5B
$GPVTG,119.74,T,-520.16,M,004.924,N,009.119,K,D*0A
$GPGGA,095419.10,5703.0042951,N,00949.4777519,E,2,5,1.6,-4.735,M,40.595,M,3.7,0123*53
$GPVTG,120.04,T,-519.86,M,004.925,N,009.121,K,D*0E
$GPGGA,095419.15,5703.0042641,N,00949.4778656,E,2,5,1.6,-4.747,M,40.595,M,3.7,0123*5A
$GPVTG,119.51,T,-520.40,M,004.949,N,009.165,K,D*0E
$GPGGA,095419.20,5703.0042326,N,00949.4779703,E,2,5,1.6,-4.759,M,40.595,M,3.7,0123*57
$GPVTG,119.52,T,-520.38,M,004.903,N,009.081,K,D*07
$GPGGA,095419.25,5703.0042032,N,00949.4780990,E,2,5,1.6,-4.730,M,40.595,M,2.4,0123*5B
$GPVTG,119.08,T,-520.82,M,004.929,N,009.128,K,D*03
$GPGGA,095419.30,5703.0041659,N,00949.4782099,E,2,5,1.6,-4.738,M,40.595,M,2.4,0123*5D
$GPVTG,119.39,T,-520.51,M,004.959,N,009.184,K,D*0E
$GPGGA,095419.35,5703.0041291,N,00949.4783206,E,2,5,1.6,-4.746,M,40.595,M,2.4,0123*54
$GPVTG,119.64,T,-520.26,M,004.983,N,009.228,K,D*04
$GPGGA,095419.40,5703.0040958,N,00949.4784277,E,2,5,1.6,-4.751,M,40.595,M,2.4,0123*5E
$GPVTG,119.70,T,-520.20,M,004.960,N,009.186,K,D*0D
$GPGGA,095419.45,5703.0040650,N,00949.4785398,E,2,5,1.6,-4.737,M,40.595,M,2.7,0123*5E
$GPVTG,119.69,T,-520.21,M,004.920,N,009.111,K,D*0E
$GPGGA,095419.50,5703.0040304,N,00949.4786478,E,2,5,1.6,-4.744,M,40.595,M,2.7,0123*50
$GPVTG,119.83,T,-520.07,M,004.916,N,009.104,K,D*0F
$GPGGA,095419.55,5703.0039958,N,00949.4787575,E,2,5,1.6,-4.756,M,40.595,M,2.7,0123*56
$GPVTG,119.87,T,-520.03,M,004.928,N,009.126,K,D*02
$GPGGA,095419.60,5703.0039620,N,00949.4788677,E,2,5,1.6,-4.769,M,40.595,M,2.7,0123*52
$GPVTG,119.80,T,-520.10,M,004.937,N,009.143,K,D*0A
$GPGGA,095419.65,5703.0039289,N,00949.4789941,E,2,5,1.6,-4.733,M,40.595,M,2.9,0123*5A
$GPVTG,119.76,T,-520.14,M,004.958,N,009.183,K,D*02
$GPGGA,095419.70,5703.0038970,N,00949.4790986,E,2,5,1.6,-4.737,M,40.595,M,2.9,0123*55
$GPVTG,119.80,T,-520.10,M,004.912,N,009.098,K,D*0A
$GPGGA,095419.75,5703.0038644,N,00949.4792101,E,2,5,1.6,-4.742,M,40.595,M,2.9,0123*5F
$GPVTG,119.55,T,-520.35,M,004.928,N,009.127,K,D*09
$GPGGA,095419.80,5703.0038316,N,00949.4793209,E,2,5,1.6,-4.751,M,40.595,M,2.9,0123*5F
$GPVTG,119.37,T,-520.53,M,004.937,N,009.144,K,D*06
$GPGGA,095419.85,5703.0038022,N,00949.4794372,E,2,5,1.6,-4.737,M,40.595,M,3.2,0123*5E
$GPVTG,119.30,T,-520.60,M,004.946,N,009.161,K,D*00
$GPGGA,095419.90,5703.0037657,N,00949.4795471,E,2,5,1.6,-4.749,M,40.595,M,3.2,0123*5D
$GPVTG,119.56,T,-520.34,M,004.964,N,009.193,K,D*0C
$GPGGA,095419.95,5703.0037331,N,00949.4796508,E,2,5,1.6,-4.758,M,40.595,M,3.2,0123*51
$GPVTG,119.73,T,-520.17,M,004.914,N,009.101,K,D*06
$GPGGA,095420.00,5703.0037003,N,00949.4797556,E,2,5,1.6,-4.764,M,40.595,M,3.2,0123*50
$GPVTG,119.83,T,-520.07,M,004.879,N,009.036,K,D*07
$GPGGA,095420.05,5703.0036672,N,00949.4798902,E,2,5,1.6,-4.720,M,40.595,M,3.4,0123*50
$GPVTG,119.31,T,-520.59,M,004.950,N,009.168,K,D*05
$GPGGA,095420.10,5703.0036351,N,00949.4800007,E,2,5,1.6,-4.727,M,40.595,M,3.4,0123*55
$GPVTG,119.11,T,-520.79,M,004.952,N,009.170,K,D*0E
$GPGGA,095420.15,5703.0036014,N,00949.4801136,E,2,5,1.6,-4.735,M,40.595,M,3.4,0123*53
$GPVTG,118.96,T,-520.94,M,004.978,N,009.218,K,D*06
$GPGGA,095420.20,5703.0035648,N,00949.4802165,E,2,5,1.6,-4.743,M,40.595,M,3.4,0123*5D
$GPVTG,119.61,T,-520.29,M,004.938,N,009.145,K,D*06
$GPGGA,095420.25,5703.0035365,N,00949.4803305,E,2,5,1.6,-4.730,M,40.595,M,1.9,0123*5C
$GPVTG,119.37,T,-520.53,M,004.908,N,009.090,K,D*02
$GPGGA,095420.30,5703.0035013,N,00949.4804414,E,2,5,1.6,-4.741,M,40.595,M,1.9,0123*5C
$GPVTG,119.44,T,-520.46,M,004.931,N,009.131,K,D*02
$GPGGA,095420.35,5703.0034689,N,00949.4805538,E,2,5,1.6,-4.752,M,40.595,M,1.9,0123*51
$GPVTG,119.16,T,-520.74,M,004.949,N,009.165,K,D*0A
$GPGGA,095420.40,5703.0034346,N,00949.4806578,E,2,5,1.6,-4.757,M,40.595,M,1.9,0123*57
$GPVTG,119.51,T,-520.39,M,004.910,N,009.093,K,D*04
$GPGGA,095420.45,5703.0034017,N,00949.4807799,E,2,5,1.6,-4.733,M,40.595,M,2.2,0123*53
$GPVTG,119.55,T,-520.35,M,004.917,N,009.107,K,D*07
$GPGGA,095420.50,5703.0033693,N,00949.4808899,E,2,5,1.6,-4.744,M,40.595,M,2.2,0123*5A
$GPVTG,119.39,T,-520.51,M,004.919,N,009.111,K,D*06
$GPGGA,095420.55,5703.0033350,N,00949.4809957,E,2,5,1.6,-4.755,M,40.595,M,2.2,0123*57
$GPVTG,119.63,T,-520.27,M,004.898,N,009.072,K,D*04
$GPGGA,095420.60,5703.0033016,N,00949.4811050,E,2,5,1.6,-4.765,M,40.595,M,2.2,0123*54
$GPVTG,119.58,T,-520.32,M,004.902,N,009.078,K,D*00
$GPGGA,095420.65,5703.0032723,N,00949.4812316,E,2,5,1.6,-4.733,M,40.595,M,2.4,0123*56
$GPVTG,119.12,T,-520.78,M,004.919,N,009.110,K,D*05
$GPGGA,095420.70,5703.0032389,N,00949.4813421,E,2,5,1.6,-4.742,M,40.595,M,2.4,0123*52
$GPVTG,119.06,T,-520.84,M,004.929,N,009.128,K,D*0B
$GPGGA,095420.75,5703.0032056,N,00949.4814509,E,2,5,1.6,-4.753,M,40.595,M,2.4,0123*5A
$GPVTG,119.08,T,-520.82,M,004.925,N,009.121,K,D*06
$GPGGA,095420.80,5703.0031731,N,00949.4815604,E,2,5,1.6,-4.761,M,40.595,M,2.4,0123*5B
$GPVTG,118.98,T,-520.92,M,004.922,N,009.116,K,D*0C
$GPGGA,095420.85,5703.0031411,N,00949.4816823,E,2,5,1.6,-4.730,M,40.595,M,2.7,0123*50
$GPVTG,119.21,T,-520.69,M,004.939,N,009.147,K,D*05
$GPGGA,095420.90,5703.0031072,N,00949.4817942,E,2,5,1.6,-4.744,M,40.595,M,2.7,0123*51
$GPVTG,119.12,T,-520.78,M,004.959,N,009.185,K,D*0D
$GPGGA,095420.95,5703.0030772,N,00949.4819007,E,2,5,1.6,-4.754,M,40.595,M,2.7,0123*55
$GPVTG,118.95,T,-520.95,M,004.919,N,009.110,K,D*08
$GPGGA,095421.00,5703.0030436,N,00949.4820114,E,2,5,1.6,-4.760,M,40.595,M,2.7,0123*55
$GPVTG,118.92,T,-520.98,M,004.931,N,009.132,K,D*08
$GPGGA,095421.05,5703.0030115,N,00949.4821272,E,2,5,1.6,-4.732,M,40.595,M,2.9,0123*5F
$GPVTG,119.25,T,-520.65,M,004.896,N,009.068,K,D*05
$GPGGA,095421.10,5703.0029798,N,00949.4822353,E,2,5,1.6,-4.739,M,40.595,M,2.9,0123*5A
$GPVTG,119.14,T,-520.76,M,004.882,N,009.042,K,D*08
$GPGGA,095421.15,5703.0029495,N,00949.4823475,E,2,5,1.6,-4.749,M,40.595,M,2.9,0123*54
$GPVTG,118.70,T,-521.20,M,004.896,N,009.067,K,D*0B
$GPGGA,095421.20,5703.0029175,N,00949.4824581,E,2,5,1.6,-4.761,M,40.595,M,2.9,0123*5E
$GPVTG,118.54,T,-521.36,M,004.901,N,009.078,K,D*0B
$GPGGA,095421.25,5703.0028876,N,00949.4825822,E,2,5,1.6,-4.730,M,40.595,M,1.8,0123*53
$GPVTG,118.50,T,-521.40,M,004.925,N,009.121,K,D*05
$GPGGA,095421.30,5703.0028519,N,00949.4826876,E,2,5,1.6,-4.744,M,40.595,M,1.8,0123*52
$GPVTG,118.98,T,-520.92,M,004.905,N,009.084,K,D*03
$GPGGA,095421.35,5703.0028211,N,00949.4827973,E,2,5,1.6,-4.754,M,40.595,M,1.8,0123*5C
$GPVTG,118.74,T,-521.16,M,004.898,N,009.071,K,D*03
$GPGGA,095421.40,5703.0027911,N,00949.4829077,E,2,5,1.6,-4.762,M,40.595,M,1.8,0123*5C
$GPVTG,118.39,T,-521.51,M,004.894,N,009.063,K,D*06
$GPGGA,095421.45,5703.0027571,N,00949.4830333,E,2,5,1.6,-4.723,M,40.595,M,2.0,0123*56
$GPVTG,118.52,T,-521.38,M,004.902,N,009.079,K,D*01
$GPGGA,095421.50,5703.0027232,N,00949.4831399,E,2,5,1.6,-4.729,M,40.595,M,2.0,0123*59
$GPVTG,118.77,T,-521.13,M,004.885,N,009.047,K,D*0C
$GPGGA,095421.55,5703.0026905,N,00949.4832493,E,2,5,1.6,-4.736,M,40.595,M,2.0,0123*52
$GPVTG,118.75,T,-521.15,M,004.888,N,009.052,K,D*01
$GPGGA,095421.60,5703.0026574,N,00949.4833649,E,2,5,1.6,-4.746,M,40.595,M,2.0,0123*5D
$GPVTG,118.46,T,-521.44,M,004.938,N,009.145,K,D*08
$GPGGA,095421.65,5703.0026298,N,00949.4834800,E,2,5,1.6,-4.727,M,40.595,M,2.2,0123*5C
$GPVTG,118.22,T,-521.68,M,004.932,N,009.135,K,D*09
$GPGGA,095421.70,5703.0025967,N,00949.4835831,E,2,5,1.6,-4.740,M,40.595,M,2.2,0123*52
$GPVTG,118.60,T,-521.30,M,004.882,N,009.041,K,D*0A
$GPGGA,095421.75,5703.0025643,N,00949.4836945,E,2,5,1.6,-4.754,M,40.595,M,2.2,0123*5A
$GPVTG,118.47,T,-521.43,M,004.897,N,009.069,K,D*05
$GPGGA,095421.80,5703.0025318,N,00949.4838051,E,2,5,1.6,-4.763,M,40.595,M,2.2,0123*5D
$GPVTG,118.40,T,-521.50,M,004.905,N,009.084,K,D*09
$GPGGA,095421.85,5703.0025029,N,00949.4839378,E,2,5,1.6,-4.722,M,40.595,M,2.5,0123*52
$GPVTG,117.81,T,-522.09,M,004.929,N,009.129,K,D*0C
$GPGGA,095421.90,5703.0024682,N,00949.4840534,E,2,5,1.6,-4.728,M,40.595,M,2.5,0123*5A
$GPVTG,117.80,T,-522.10,M,004.981,N,009.226,K,D*0B
$GPGGA,095421.95,5703.0024324,N,00949.4841576,E,2,5,1.6,-4.735,M,40.595,M,2.5,0123*5D
$GPVTG,118.44,T,-521.46,M,004.945,N,009.158,K,D*0E
$GPGGA,095422.00,5703.0024004,N,00949.4842650,E,2,5,1.6,-4.742,M,40.595,M,2.5,0123*57
$GPVTG,118.51,T,-521.39,M,004.919,N,009.110,K,D*07
$GPGGA,095422.05,5703.0023734,N,00949.4843817,E,2,5,1.6,-4.713,M,40.595,M,2.7,0123*5B
$GPVTG,118.20,T,-521.70,M,004.912,N,009.097,K,D*09
$GPGGA,095422.10,5703.0023442,N,00949.4844923,E,2,5,1.6,-4.717,M,40.595,M,2.7,0123*58
$GPVTG,117.85,T,-522.05,M,004.902,N,009.079,K,D*09
$GPGGA,095422.15,5703.0023090,N,00949.4846033,E,2,5,1.6,-4.725,M,40.595,M,2.7,0123*5D
$GPVTG,118.10,T,-521.80,M,004.923,N,009.117,K,D*0E
$GPGGA,095422.20,5703.0022720,N,00949.4847148,E,2,5,1.6,-4.734,M,40.595,M,2.7,0123*5A
$GPVTG,118.51,T,-521.39,M,004.954,N,009.174,K,D*0C
$GPGGA,095422.25,5703.0022426,N,00949.4848380,E,2,5,1.6,-4.708,M,40.595,M,2.9,0123*52
$GPVTG,118.23,T,-521.67,M,004.984,N,009.230,K,D*0C
$GPGGA,095422.30,5703.0022127,N,00949.4849477,E,2,5,1.6,-4.716,M,40.595,M,2.9,0123*53
$GPVTG,118.02,T,-521.88,M,004.961,N,009.188,K,D*05
$GPGGA,095422.35,5703.0021803,N,00949.4850572,E,2,5,1.6,-4.725,M,40.595,M,2.9,0123*56
$GPVTG,118.09,T,-521.81,M,004.951,N,009.168,K,D*0A
$GPGGA,095422.40,5703.0021452,N,00949.4851661,E,2,5,1.6,-4.731,M,40.595,M,2.9,0123*59
$GPVTG,118.44,T,-521.46,M,004.948,N,009.164,K,D*0C
$GPGGA,095422.45,5703.0021138,N,00949.4852834,E,2,5,1.6,-4.708,M,40.595,M,3.1,0123*5B
$GPVTG,118.54,T,-521.36,M,004.910,N,009.094,K,D*09
$GPGGA,095422.50,5703.0020834,N,00949.4853877,E,2,5,1.6,-4.716,M,40.595,M,3.1,0123*52
$GPVTG,118.61,T,-521.29,M,004.856,N,008.993,K,D*0D
$GPGGA,095422.55,5703.0020502,N,00949.4854973,E,2,5,1.6,-4.725,M,40.595,M,3.1,0123*5D
$GPVTG,118.68,T,-521.22,M,004.862,N,009.004,K,D*0E
$GPGGA,095422.60,5703.0020157,N,00949.4856107,E,2,5,1.6,-4.735,M,40.595,M,3.1,0123*57
$GPVTG,118.68,T,-521.22,M,004.903,N,009.081,K,D*05
$GPGGA,095422.65,5703.0019852,N,00949.4857348,E,2,5,1.6,-4.695,M,40.595,M,3.3,0123*55
$GPVTG,118.61,T,-521.29,M,004.909,N,009.091,K,D*0C
$GPGGA,095422.70,5703.0019537,N,00949.4858514,E,2,5,1.6,-4.706,M,40.595,M,3.3,0123*54
$GPVTG,118.18,T,-521.72,M,004.957,N,009.180,K,D*06
$GPGGA,095422.75,5703.0019216,N,00949.4859637,E,2,5,1.6,-4.713,M,40.595,M,3.3,0123*52
$GPVTG,118.06,T,-521.84,M,004.968,N,009.202,K,D*05
$GPGGA,095422.80,5703.0018907,N,00949.4860721,E,2,5,1.6,-4.717,M,40.595,M,3.3,0123*5A
$GPVTG,118.03,T,-521.87,M,004.943,N,009.154,K,D*0A
$GPGGA,095422.85,5703.0018568,N,00949.4861870,E,2,5,1.6,-4.695,M,40.595,M,3.5,0123*5D
$GPVTG,118.57,T,-521.33,M,004.917,N,009.107,K,D*03
$GPGGA,095422.90,5703.0018250,N,00949.4862976,E,2,5,1.6,-4.700,M,40.595,M,3.5,0123*5C
$GPVTG,118.47,T,-521.43,M,004.919,N,009.109,K,D*05
$GPGGA,095422.95,5703.0017932,N,00949.4864138,E,2,5,1.6,-4.708,M,40.595,M,3.5,0123*55
$GPVTG,118.11,T,-521.79,M,004.962,N,009.190,K,D*03
$GPGGA,095423.00,5703.0017601,N,00949.4865221,E,2,5,1.6,-4.716,M,40.595,M,3.5,0123*52
$GPVTG,118.29,T,-521.61,M,004.946,N,009.160,K,D*08
$GPGGA,095423.05,5703.0017289,N,00949.4866325,E,2,5,1.6,-4.703,M,40.595,M,3.7,0123*53
$GPVTG,118.49,T,-521.41,M,004.906,N,009.087,K,D*00
$GPGGA,095423.10,5703.0016977,N,00949.4867459,E,2,5,1.6,-4.716,M,40.595,M,3.7,0123*55
$GPVTG,118.19,T,-521.71,M,004.926,N,009.123,K,D*0B
$GPGGA,095423.15,5703.0016682,N,00949.4868538,E,2,5,1.6,-4.726,M,40.595,M,3.7,0123*5F
$GPVTG,118.02,T,-521.88,M,004.894,N,009.064,K,D*0D
$GPGGA,095423.20,5703.0016339,N,00949.4869591,E,2,5,1.6,-4.734,M,40.595,M,3.7,0123*5D
$GPVTG,118.47,T,-521.44,M,004.868,N,009.016,K,D*0A
$GPGGA,095423.25,5703.0016001,N,00949.4870825,E,2,5,1.6,-4.691,M,40.595,M,2.4,0123*56
$GPVTG,118.69,T,-521.21,M,004.872,N,009.023,K,D*08
$GPGGA,095423.30,5703.0015707,N,00949.4871969,E,2,5,1.6,-4.699,M,40.595,M,2.4,0123*50
$GPVTG,118.14,T,-521.76,M,004.898,N,009.071,K,D*03
$GPGGA,095423.35,5703.0015348,N,00949.4873065,E,2,5,1.6,-4.705,M,40.595,M,2.4,0123*59
$GPVTG,118.53,T,-521.37,M,004.912,N,009.097,K,D*0E
$GPGGA,095423.40,5703.0015045,N,00949.4874189,E,2,5,1.6,-4.714,M,40.595,M,2.4,0123*51
$GPVTG,118.18,T,-521.72,M,004.922,N,009.115,K,D*08
$GPGGA,095423.45,5703.0014721,N,00949.4875338,E,2,5,1.6,-4.702,M,40.595,M,2.7,0123*5D
$GPVTG,118.32,T,-521.58,M,004.921,N,009.114,K,D*0A
$GPGGA,095423.50,5703.0014407,N,00949.4876437,E,2,5,1.6,-4.713,M,40.595,M,2.7,0123*55
$GPVTG,118.23,T,-521.67,M,004.916,N,009.104,K,D*03
$GPGGA,095423.55,5703.0014073,N,00949.4877558,E,2,5,1.6,-4.723,M,40.595,M,2.7,0123*5D
$GPVTG,118.25,T,-521.65,M,004.936,N,009.141,K,D*04
$GPGGA,095423.60,5703.0013753,N,00949.4878617,E,2,5,1.6,-4.732,M,40.595,M,2.7,0123*5E
$GPVTG,118.42,T,-521.48,M,004.900,N,009.076,K,D*0A
$GPGGA,095423.65,5703.0013424,N,00949.4879808,E,2,5,1.6,-4.708,M,40.595,M,2.9,0123*5E
$GPVTG,118.44,T,-521.46,M,004.866,N,009.012,K,D*01
$GPGGA,095423.70,5703.0013064,N,00949.4880845,E,2,5,1.6,-4.716,M,40.595,M,2.9,0123*5A
$GPVTG,119.09,T,-520.81,M,004.840,N,008.964,K,D*0E
$GPGGA,095423.75,5703.0012721,N,00949.4881990,E,2,5,1.6,-4.725,M,40.595,M,2.9,0123*50
$GPVTG,118.98,T,-520.92,M,004.893,N,009.062,K,D*05
$GPGGA,095423.80,5703.0012379,N,00949.4883129,E,2,5,1.6,-4.736,M,40.595,M,2.9,0123*59
$GPVTG,118.90,T,-521.00,M,004.936,N,009.142,K,D*0A
$GPGGA,095423.85,5703.0012070,N,00949.4884393,E,2,5,1.6,-4.695,M,40.595,M,3.2,0123*50
$GPVTG,118.46,T,-521.44,M,004.958,N,009.182,K,D*05
$GPGGA,095423.90,5703.0011783,N,00949.4885515,E,2,5,1.6,-4.702,M,40.595,M,3.2,0123*5A
$GPVTG,117.99,T,-521.91,M,004.955,N,009.176,K,D*06
$GPGGA,095423.95,5703.0011466,N,00949.4886617,E,2,5,1.6,-4.706,M,40.595,M,3.2,0123*51
$GPVTG,117.95,T,-521.95,M,004.949,N,009.166,K,D*02
$GPGGA,095424.00,5703.0011128,N,00949.4887672,E,2,5,1.6,-4.713,M,40.595,M,3.2,0123*53
$GPVTG,118.33,T,-521.57,M,004.917,N,009.106,K,D*02
$GPGGA,095424.05,5703.0010797,N,00949.4888777,E,2,5,1.6,-4.690,M,40.595,M,3.4,0123*52
$GPVTG,118.93,T,-520.97,M,004.911,N,009.095,K,D*08
$GPGGA,095424.10,5703.0010494,N,00949.4889969,E,2,5,1.6,-4.695,M,40.595,M,3.4,0123*53
$GPVTG,118.23,T,-521.67,M,004.973,N,009.210,K,D*06
$GPGGA,095424.15,5703.0010160,N,00949.4891108,E,2,5,1.6,-4.703,M,40.595,M,3.4,0123*50
$GPVTG,118.16,T,-521.74,M,005.001,N,009.262,K,D*0A
$GPGGA,095424.20,5703.0009824,N,00949.4892224,E,2,5,1.6,-4.713,M,40.595,M,3.4,0123*58
$GPVTG,118.25,T,-521.65,M,005.009,N,009.277,K,D*06
$GPGGA,095424.25,5703.0009495,N,00949.4893351,E,2,5,1.6,-4.709,M,40.595,M,1.9,0123*5D
$GPVTG,118.29,T,-521.61,M,004.982,N,009.226,K,D*01
$GPGGA,095424.30,5703.0009145,N,00949.4894352,E,2,5,1.6,-4.720,M,40.595,M,1.9,0123*5E
$GPVTG,119.06,T,-520.84,M,004.908,N,009.090,K,D*0A
$GPGGA,095424.35,5703.0008834,N,00949.4895435,E,2,5,1.6,-4.731,M,40.595,M,1.9,0123*52
$GPVTG,118.97,T,-520.93,M,004.889,N,009.055,K,D*04
$GPGGA,095424.40,5703.0008496,N,00949.4896529,E,2,5,1.6,-4.742,M,40.595,M,1.9,0123*5F
$GPVTG,119.09,T,-520.81,M,004.894,N,009.063,K,D*08
$GPGGA,095424.45,5703.0008139,N,00949.4897864,E,2,5,1.6,-4.695,M,40.595,M,2.2,0123*5C
$GPVTG,118.91,T,-520.99,M,004.931,N,009.132,K,D*0A
$GPGGA,095424.50,5703.0007810,N,00949.4899007,E,2,5,1.6,-4.701,M,40.595,M,2.2,0123*5A
$GPVTG,118.70,T,-521.20,M,004.965,N,009.195,K,D*0A
$GPGGA,095424.55,5703.0007507,N,00949.4900083,E,2,5,1.6,-4.705,M,40.595,M,2.2,0123*5D
$GPVTG,118.59,T,-521.31,M,004.931,N,009.133,K,D*0C
$GPGGA,095424.60,5703.0007170,N,00949.4901204,E,2,5,1.6,-4.710,M,40.595,M,2.2,0123*57
$GPVTG,118.59,T,-521.31,M,004.951,N,009.169,K,D*05
$GPGGA,095424.65,5703.0006877,N,00949.4902353,E,2,5,1.6,-4.695,M,40.595,M,2.4,0123*57
$GPVTG,118.37,T,-521.53,M,004.951,N,009.170,K,D*01
$GPGGA,095424.70,5703.0006526,N,00949.4903465,E,2,5,1.6,-4.706,M,40.595,M,2.4,0123*52
$GPVTG,118.57,T,-521.33,M,004.967,N,009.199,K,D*03
$GPGGA,095424.75,5703.0006209,N,00949.4904585,E,2,5,1.6,-4.715,M,40.595,M,2.4,0123*57
$GPVTG,118.40,T,-521.50,M,004.973,N,009.210,K,D*07
$GPGGA,095424.80,5703.0005892,N,00949.4905675,E,2,5,1.6,-4.719,M,40.595,M,2.4,0123*57
$GPVTG,118.40,T,-521.50,M,004.955,N,009.176,K,D*00
$GPGGA,095424.85,5703.0005540,N,00949.4906885,E,2,5,1.6,-4.689,M,40.595,M,2.7,0123*59
$GPVTG,118.64,T,-521.26,M,004.962,N,009.190,K,D*0B
$GPGGA,095424.90,5703.0005198,N,00949.4908035,E,2,5,1.6,-4.697,M,40.595,M,2.7,0123*5E
$GPVTG,118.56,T,-521.34,M,005.002,N,009.263,K,D*08
$GPGGA,095424.95,5703.0004867,N,00949.4909166,E,2,5,1.6,-4.707,M,40.595,M,2.7,0123*5D
$GPVTG,118.49,T,-521.41,M,005.017,N,009.292,K,D*0E
$GPGGA,095425.00,5703.0004552,N,00949.4910281,E,2,5,1.6,-4.716,M,40.595,M,2.7,0123*59
$GPVTG,118.34,T,-521.56,M,005.011,N,009.280,K,D*07
$GPGGA,095425.05,5703.0004229,N,00949.4911441,E,2,5,1.6,-4.703,M,40.595,M,2.9,0123*56
$GPVTG,118.21,T,-521.69,M,004.992,N,009.246,K,D*06
$GPGGA,095425.10,5703.0003881,N,00949.4912507,E,2,5,1.6,-4.712,M,40.595,M,2.9,0123*5D
$GPVTG,118.64,T,-521.26,M,004.964,N,009.194,K,D*09
$GPGGA,095425.15,5703.0003547,N,00949.4913578,E,2,5,1.6,-4.720,M,40.595,M,2.9,0123*57
$GPVTG,118.88,T,-521.02,M,004.938,N,009.144,K,D*09
$GPGGA,095425.20,5703.0003247,N,00949.4914646,E,2,5,1.6,-4.731,M,40.595,M,2.9,0123*5F
$GPVTG,118.77,T,-521.13,M,004.897,N,009.069,K,D*03
$GPGGA,095425.25,5703.0002912,N,00949.4915885,E,2,5,1.6,-4.702,M,40.595,M,1.8,0123*52
$GPVTG,118.74,T,-521.16,M,004.932,N,009.134,K,D*02
$GPGGA,095425.30,5703.0002575,N,00949.4916976,E,2,5,1.6,-4.712,M,40.595,M,1.8,0123*54
$GPVTG,118.88,T,-521.02,M,004.926,N,009.124,K,D*00
$GPGGA,095425.35,5703.0002255,N,00949.4918091,E,2,5,1.6,-4.720,M,40.595,M,1.8,0123*5B
$GPVTG,118.73,T,-521.17,M,004.933,N,009.136,K,D*07
$GPGGA,095425.40,5703.0001918,N,00949.4919213,E,2,5,1.6,-4.730,M,40.595,M,1.8,0123*50
$GPVTG,118.72,T,-521.18,M,004.952,N,009.172,K,D*0E
$GPGGA,095425.45,5703.0001544,N,00949.4920425,E,2,5,1.6,-4.710,M,40.595,M,2.0,0123*50
$GPVTG,118.85,T,-521.05,M,004.962,N,009.189,K,D*0D
$GPGGA,095425.50,5703.0001227,N,00949.4921547,E,2,5,1.6,-4.718,M,40.595,M,2.0,0123*5A
$GPVTG,118.64,T,-521.26,M,004.969,N,009.203,K,D*09
$GPGGA,095425.55,5703.0000909,N,00949.4922620,E,2,5,1.6,-4.727,M,40.595,M,2.0,0123*54
$GPVTG,118.69,T,-521.21,M,004.938,N,009.145,K,D*06
$GPGGA,095425.60,5703.0000597,N,00949.4923679,E,2,5,1.6,-4.734,M,40.595,M,2.0,0123*56
$GPVTG,118.74,T,-521.16,M,004.897,N,009.069,K,D*05
$GPGGA,095425.65,5703.0000296,N,00949.4924867,E,2,5,1.6,-4.694,M,40.595,M,2.2,0123*5A
$GPVTG,118.61,T,-521.29,M,004.884,N,009.045,K,D*01
$GPGGA,095425.70,5702.9999969,N,00949.4926094,E,2,5,1.6,-4.701,M,40.595,M,2.2,0123*5F
$GPVTG,117.99,T,-521.91,M,004.985,N,009.232,K,D*08
$GPGGA,095425.75,5702.9999621,N,00949.4927251,E,2,5,1.6,-4.706,M,40.595,M,2.2,0123*54
$GPVTG,117.99,T,-521.91,M,005.030,N,009.316,K,D*09
$GPGGA,095425.80,5702.9999298,N,00949.4928372,E,2,5,1.6,-4.714,M,40.595,M,2.2,0123*54
