$GPGGA,094146.30,5702.9943945,N,00949.2668635,E,2,4,3.0,-5.025,M,40.592,M,2.0,0123*5D
$GPVTG,074.39,T,-565.51,M,004.690,N,008.685,K,D*08
$GPGGA,094146.35,5702.9944157,N,00949.2669707,E,2,4,3.0,-5.032,M,40.592,M,2.0,0123*53
$GPVTG,073.77,T,-566.13,M,004.603,N,008.525,K,D*03
$GPGGA,094146.40,5702.9944404,N,00949.2670915,E,2,4,3.0,-5.039,M,40.592,M,2.0,0123*5C
$GPVTG,073.48,T,-566.42,M,004.690,N,008.685,K,D*08
$GPGGA,094146.45,5702.9944322,N,00949.2672208,E,2,4,3.0,-5.004,M,40.592,M,2.2,0123*53
$GPVTG,073.26,T,-566.64,M,004.752,N,008.801,K,D*09
$GPGGA,094146.50,5702.9944532,N,00949.2673376,E,2,4,3.0,-5.014,M,40.592,M,2.2,0123*58
$GPVTG,073.08,T,-566.82,M,004.771,N,008.837,K,D*09
$GPGGA,094146.55,5702.9944624,N,00949.2674536,E,2,4,3.0,-5.028,M,40.592,M,2.2,0123*53
$GPVTG,073.81,T,-566.09,M,004.756,N,008.808,K,D*02
$GPGGA,094146.60,5702.9944764,N,00949.2675668,E,2,4,3.0,-5.037,M,40.592,M,2.2,0123*57
$GPVTG,074.01,T,-565.89,M,004.718,N,008.739,K,D*01
$GPGGA,094146.65,5702.9944304,N,00949.2676992,E,2,4,3.0,-4.990,M,40.592,M,2.4,0123*5A
$GPVTG,076.24,T,-563.66,M,004.705,N,008.714,K,D*00
$GPGGA,094146.70,5702.9944432,N,00949.2678178,E,2,4,3.0,-4.993,M,40.592,M,2.4,0123*5D
$GPVTG,076.65,T,-563.25,M,004.729,N,008.758,K,D*04
$GPGGA,094146.75,5702.9944603,N,00949.2679398,E,2,4,3.0,-4.999,M,40.592,M,2.4,0123*5F
$GPVTG,076.78,T,-563.12,M,004.792,N,008.876,K,D*0F
$GPGGA,094146.80,5702.9944613,N,00949.2680576,E,2,4,3.0,-4.999,M,40.592,M,2.4,0123*54
$GPVTG,077.96,T,-561.94,M,004.775,N,008.843,K,D*0D
$GPGGA,094146.85,5702.9944839,N,00949.2681679,E,2,4,3.0,-5.012,M,40.592,M,2.7,0123*52
$GPVTG,078.61,T,-561.29,M,004.736,N,008.772,K,D*06
$GPGGA,094146.90,5702.9945013,N,00949.2682798,E,2,4,3.0,-5.018,M,40.592,M,2.7,0123*50
$GPVTG,078.25,T,-561.65,M,004.675,N,008.658,K,D*01
$GPGGA,094146.95,5702.9945269,N,00949.2683914,E,2,4,3.0,-5.022,M,40.592,M,2.7,0123*58
$GPVTG,077.26,T,-562.64,M,004.632,N,008.578,K,D*0D
$GPGGA,094147.00,5702.9945344,N,00949.2685101,E,2,4,3.0,-5.029,M,40.592,M,2.7,0123*5A
$GPVTG,077.99,T,-561.91,M,004.654,N,008.620,K,D*0E
$GPGGA,094147.05,5702.9945680,N,00949.2686266,E,2,5,3.0,-5.030,M,40.592,M,1.6,0123*58
$GPVTG,077.78,T,-562.12,M,004.643,N,008.598,K,D*0F
$GPGGA,094147.10,5702.9945985,N,00949.2687453,E,2,5,3.0,-5.043,M,40.592,M,1.6,0123*53
$GPVTG,076.46,T,-563.44,M,004.702,N,008.707,K,D*01
$GPGGA,094147.15,5702.9946230,N,00949.2688626,E,2,5,3.0,-5.054,M,40.592,M,1.6,0123*59
$GPVTG,075.75,T,-564.15,M,004.728,N,008.757,K,D*0C
$GPGGA,094147.20,5702.9946198,N,00949.2689737,E,2,5,3.0,-5.062,M,40.592,M,1.6,0123*5B
$GPVTG,077.21,T,-562.69,M,004.638,N,008.590,K,D*0B
$GPGGA,094147.25,5702.9943749,N,00949.2691374,E,2,5,3.0,-4.904,M,40.592,M,1.9,0123*5C
$GPVTG,078.58,T,-561.32,M,004.609,N,008.536,K,D*09
$GPGGA,094147.30,5702.9943895,N,00949.2692526,E,2,5,3.0,-4.903,M,40.592,M,1.9,0123*53
$GPVTG,078.44,T,-561.46,M,004.609,N,008.537,K,D*06
$GPGGA,094147.35,5702.9944032,N,00949.2693661,E,2,5,3.0,-4.902,M,40.592,M,1.9,0123*54
$GPVTG,078.40,T,-561.50,M,004.588,N,008.497,K,D*04
$GPGGA,094147.40,5702.9943980,N,00949.2694823,E,2,5,3.0,-4.904,M,40.592,M,1.9,0123*58
$GPVTG,080.89,T,-559.01,M,004.567,N,008.458,K,D*0B
$GPGGA,094147.45,5702.9941891,N,00949.2696284,E,2,5,3.0,-4.791,M,40.592,M,2.1,0123*52
$GPVTG,080.79,T,-559.11,M,004.532,N,008.394,K,D*02
$GPGGA,094147.50,5702.9942111,N,00949.2697463,E,2,5,3.0,-4.805,M,40.592,M,2.1,0123*58
$GPVTG,079.69,T,-560.21,M,004.588,N,008.498,K,D*06
$GPGGA,094147.55,5702.9942322,N,00949.2698633,E,2,5,3.0,-4.815,M,40.592,M,2.1,0123*56
$GPVTG,078.83,T,-561.07,M,004.626,N,008.568,K,D*0F
$GPGGA,094147.60,5702.9942474,N,00949.2699798,E,2,5,3.0,-4.829,M,40.592,M,2.1,0123*5A
$GPVTG,078.65,T,-561.25,M,004.643,N,008.598,K,D*0B
$GPGGA,094147.65,5702.9939909,N,00949.2701489,E,2,5,3.0,-4.652,M,40.592,M,2.3,0123*57
$GPVTG,078.78,T,-561.12,M,004.617,N,008.551,K,D*07
$GPGGA,094147.70,5702.9939963,N,00949.2702630,E,2,5,3.0,-4.656,M,40.592,M,2.3,0123*58
$GPVTG,079.57,T,-560.33,M,004.592,N,008.505,K,D*06
$GPGGA,094147.75,5702.9940145,N,00949.2703777,E,2,5,3.0,-4.657,M,40.592,M,2.3,0123*5D
$GPVTG,079.01,T,-560.89,M,004.597,N,008.514,K,D*01
$GPGGA,094147.80,5702.9940242,N,00949.2704882,E,2,5,3.0,-4.659,M,40.592,M,2.3,0123*5F
$GPVTG,079.23,T,-560.67,M,004.543,N,008.413,K,D*0E
$GPGGA,094147.85,5702.9938012,N,00949.2706427,E,2,5,3.0,-4.525,M,40.592,M,2.6,0123*5E
$GPVTG,079.34,T,-560.56,M,004.537,N,008.403,K,D*08
$GPGGA,094147.90,5702.9938116,N,00949.2707626,E,2,5,3.0,-4.539,M,40.592,M,2.6,0123*50
$GPVTG,079.74,T,-560.16,M,004.603,N,008.526,K,D*0A
$GPGGA,094147.95,5702.9938356,N,00949.2708698,E,2,5,3.0,-4.547,M,40.592,M,2.6,0123*50
$GPVTG,078.36,T,-561.54,M,004.532,N,008.393,K,D*03
$GPGGA,094148.00,5702.9938470,N,00949.2709857,E,2,5,3.0,-4.559,M,40.592,M,2.6,0123*53
$GPVTG,078.59,T,-561.31,M,004.555,N,008.435,K,D*03
$GPGGA,094148.05,5702.9936234,N,00949.2711509,E,2,5,3.0,-4.411,M,40.592,M,2.8,0123*52
$GPVTG,078.65,T,-561.25,M,004.609,N,008.536,K,D*01
$GPGGA,094148.10,5702.9936364,N,00949.2712638,E,2,5,3.0,-4.416,M,40.592,M,2.8,0123*57
$GPVTG,078.60,T,-561.30,M,004.588,N,008.498,K,D*0F
$GPGGA,094148.15,5702.9936445,N,00949.2713761,E,2,5,3.0,-4.421,M,40.592,M,2.8,0123*5E
$GPVTG,079.02,T,-560.88,M,004.557,N,008.440,K,D*0F
$GPGGA,094148.20,5702.9936537,N,00949.2714919,E,2,5,3.0,-4.425,M,40.592,M,2.8,0123*5E
$GPVTG,079.41,T,-560.49,M,004.572,N,008.467,K,D*07
$GPGGA,094148.25,5702.9934655,N,00949.2716449,E,2,5,3.0,-4.313,M,40.592,M,3.0,0123*5F
$GPVTG,079.81,T,-560.09,M,004.611,N,008.540,K,D*0D
$GPGGA,094148.30,5702.9934922,N,00949.2717598,E,2,5,3.0,-4.323,M,40.592,M,3.0,0123*5B
$GPVTG,078.38,T,-561.52,M,004.632,N,008.579,K,D*0A
$GPGGA,094148.35,5702.9935087,N,00949.2718743,E,2,5,3.0,-4.333,M,40.592,M,3.0,0123*53
$GPVTG,078.03,T,-561.87,M,004.633,N,008.580,K,D*0D
$GPGGA,094148.40,5702.9935192,N,00949.2719943,E,2,5,3.0,-4.351,M,40.592,M,3.0,0123*5F
$GPVTG,078.42,T,-561.48,M,004.685,N,008.677,K,D*0D
$GPGGA,094148.45,5702.9933301,N,00949.2721507,E,2,5,3.0,-4.227,M,40.592,M,3.2,0123*51
$GPVTG,078.30,T,-561.60,M,004.687,N,008.680,K,D*08
$GPGGA,094148.50,5702.9933479,N,00949.2722615,E,2,4,3.0,-4.239,M,40.592,M,3.2,0123*50
$GPVTG,077.82,T,-562.08,M,004.632,N,008.578,K,D*09
$GPGGA,094148.55,5702.9933835,N,00949.2723808,E,2,4,3.0,-4.244,M,40.592,M,3.2,0123*58
$GPVTG,076.56,T,-563.34,M,004.704,N,008.711,K,D*06
$GPGGA,094148.60,5702.9933931,N,00949.2724916,E,2,4,3.0,-4.246,M,40.592,M,3.2,0123*50
$GPVTG,076.64,T,-563.26,M,004.642,N,008.598,K,D*04
$GPGGA,094148.65,5702.9934686,N,00949.2726022,E,2,4,3.0,-4.255,M,40.592,M,3.4,0123*59
$GPVTG,075.37,T,-564.53,M,004.627,N,008.568,K,D*08
$GPGGA,094148.70,5702.9934880,N,00949.2727115,E,2,4,3.0,-4.265,M,40.592,M,3.4,0123*52
$GPVTG,074.81,T,-565.09,M,004.576,N,008.474,K,D*01
$GPGGA,094148.75,5702.9935152,N,00949.2728278,E,2,4,3.0,-4.280,M,40.592,M,3.4,0123*5C
$GPVTG,074.06,T,-565.84,M,004.625,N,008.566,K,D*0C
$GPGGA,094148.80,5702.9935453,N,00949.2729433,E,2,4,3.0,-4.296,M,40.592,M,3.4,0123*5D
$GPVTG,073.12,T,-566.78,M,004.668,N,008.645,K,D*05
$GPGGA,094148.85,5702.9935425,N,00949.2730705,E,2,4,3.0,-4.266,M,40.592,M,3.6,0123*5A
$GPVTG,073.53,T,-566.37,M,004.665,N,008.639,K,D*0D
$GPGGA,094148.90,5702.9935674,N,00949.2731880,E,2,4,3.0,-4.276,M,40.592,M,3.6,0123*5A
$GPVTG,072.99,T,-566.91,M,004.721,N,008.743,K,D*0B
$GPGGA,094148.95,5702.9935958,N,00949.2733100,E,2,4,3.0,-4.284,M,40.592,M,3.6,0123*50
$GPVTG,072.43,T,-567.47,M,004.825,N,008.937,K,D*00
$GPGGA,094149.00,5702.9936044,N,00949.2734262,E,2,4,3.0,-4.291,M,40.592,M,3.6,0123*5E
$GPVTG,072.99,T,-566.91,M,004.815,N,008.917,K,D*0C
$GPGGA,094149.05,5702.9935769,N,00949.2735552,E,2,4,3.0,-4.254,M,40.592,M,1.9,0123*51
$GPVTG,074.17,T,-565.73,M,004.816,N,008.919,K,D*0E
$GPGGA,094149.10,5702.9935774,N,00949.2736672,E,2,4,3.0,-4.253,M,40.592,M,1.9,0123*5C
$GPVTG,075.24,T,-564.66,M,004.735,N,008.769,K,D*0D
$GPGGA,094149.15,5702.9936054,N,00949.2737816,E,2,4,3.0,-4.250,M,40.592,M,1.9,0123*51
$GPVTG,074.26,T,-565.64,M,004.737,N,008.773,K,D*04
$GPGGA,094149.20,5702.9936240,N,00949.2738978,E,2,4,3.0,-4.248,M,40.592,M,1.9,0123*5F
$GPVTG,074.11,T,-565.79,M,004.745,N,008.788,K,D*0D
$GPGGA,094149.25,5702.9936417,N,00949.2740164,E,2,4,3.0,-4.226,M,40.592,M,2.2,0123*54
$GPVTG,074.39,T,-565.51,M,004.737,N,008.774,K,D*0B
$GPGGA,094149.30,5702.9936587,N,00949.2741303,E,2,4,3.0,-4.233,M,40.592,M,2.2,0123*5E
$GPVTG,074.27,T,-565.63,M,004.
$GPGGA,094156.65,5702.9959339,N,00949.2912444,E,2,4,3.0,-4.135,M,40.592,M,3.4,0123*54
$GPVTG,076.19,T,-563.71,M,004.629,N,008.573,K,D*04
$GPGGA,094156.70,5702.9959396,N,00949.2913619,E,2,4,3.0,-4.139,M,40.592,M,3.4,0123*52
$GPVTG,077.17,T,-562.73,M,004.643,N,008.598,K,D*01
$GPGGA,094156.75,5702.9959509,N,00949.2914818,E,2,4,3.0,-4.141,M,40.592,M,3.4,0123*50
$GPVTG,077.66,T,-562.24,M,004.688,N,008.683,K,D*0B
$GPGGA,094156.80,5702.9959651,N,00949.2915957,E,2,4,3.0,-4.143,M,40.592,M,3.4,0123*5D
$GPVTG,077.70,T,-562.20,M,004.664,N,008.638,K,D*0A
$GPGGA,094156.85,5702.9960189,N,00949.2917037,E,2,4,3.0,-4.163,M,40.592,M,3.6,0123*5D
$GPVTG,076.75,T,-563.15,M,004.643,N,008.598,K,D*05
$GPGGA,094156.90,5702.9960494,N,00949.2918166,E,2,4,3.0,-4.173,M,40.592,M,3.6,0123*5B
$GPVTG,075.37,T,-564.53,M,004.642,N,008.596,K,D*0A
$GPGGA,094156.95,5702.9960594,N,00949.2919321,E,2,4,3.0,-4.186,M,40.592,M,3.6,0123*55
$GPVTG,075.91,T,-563.99,M,004.639,N,008.591,K,D*0C
$GPGGA,094157.00,5702.9960656,N,00949.2920425,E,2,4,3.0,-4.196,M,40.592,M,3.6,0123*5D
$GPVTG,076.56,T,-563.34,M,004.575,N,008.474,K,D*02
$GPGGA,094157.05,5702.9960979,N,00949.2921591,E,2,4,3.0,-4.194,M,40.592,M,1.9,0123*5A
$GPVTG,075.34,T,-564.56,M,004.592,N,008.505,K,D*08
$GPGGA,094157.10,5702.9961232,N,00949.2922670,E,2,4,3.0,-4.198,M,40.592,M,1.9,0123*58
$GPVTG,074.31,T,-565.59,M,004.542,N,008.412,K,D*08
$GPGGA,094157.15,5702.9961503,N,00949.2923763,E,2,4,3.0,-4.203,M,40.592,M,1.9,0123*5B
$GPVTG,073.31,T,-566.59,M,004.525,N,008.380,K,D*01
$GPGGA,094157.20,5702.9961707,N,00949.2924890,E,2,4,3.0,-4.214,M,40.592,M,1.9,0123*59
$GPVTG,073.08,T,-566.82,M,004.539,N,008.407,K,D*08
$GPGGA,094157.25,5702.9962185,N,00949.2926128,E,2,4,3.0,-4.206,M,40.592,M,2.2,0123*50
$GPVTG,073.29,T,-566.61,M,004.622,N,008.560,K,D*0F
$GPGGA,094157.30,5702.9962422,N,00949.2927257,E,2,4,3.0,-4.217,M,40.592,M,2.2,0123*56
$GPVTG,072.77,T,-567.13,M,004.637,N,008.588,K,D*03
$GPGGA,094157.35,5702.9962647,N,00949.2928448,E,2,4,3.0,-4.235,M,40.592,M,2.2,0123*55
$GPVTG,072.65,T,-567.25,M,004.715,N,008.732,K,D*07
$GPGGA,094157.40,5702.9962918,N,00949.2929606,E,2,4,3.0,-4.251,M,40.592,M,2.2,0123*59
$GPVTG,072.04,T,-567.86,M,004.755,N,008.806,K,D*05
$GPGGA,094157.45,5702.9962521,N,00949.2930867,E,2,4,3.0,-4.214,M,40.592,M,2.4,0123*5C
$GPVTG,072.12,T,-567.78,M,004.725,N,008.750,K,D*08
$GPGGA,094157.50,5702.9962596,N,00949.2932025,E,2,4,3.0,-4.216,M,40.592,M,2.4,0123*5A
$GPVTG,073.14,T,-566.76,M,004.721,N,008.743,K,D*06
$GPGGA,094157.55,5702.9962728,N,00949.2933179,E,2,4,3.0,-4.216,M,40.592,M,2.4,0123*51
$GPVTG,073.58,T,-566.32,M,004.724,N,008.748,K,D*00
$GPGGA,094157.60,5702.9962775,N,00949.2934316,E,2,4,3.0,-4.218,M,40.592,M,2.4,0123*5D
$GPVTG,074.59,T,-565.31,M,004.690,N,008.686,K,D*0B
$GPGGA,094157.65,5702.9962906,N,00949.2935429,E,2,4,3.0,-4.210,M,40.592,M,2.7,0123*53
$GPVTG,075.61,T,-564.29,M,004.619,N,008.555,K,D*05
$GPGGA,094157.70,5702.9963068,N,00949.2936627,E,2,4,3.0,-4.216,M,40.592,M,2.7,0123*5E
$GPVTG,075.85,T,-564.05,M,004.686,N,008.679,K,D*0A
$GPGGA,094157.75,5702.9963287,N,00949.2937793,E,2,4,3.0,-4.222,M,40.592,M,2.7,0123*50
$GPVTG,075.49,T,-564.41,M,004.713,N,008.728,K,D*02
$GPGGA,094157.80,5702.9963428,N,00949.2938965,E,2,4,3.0,-4.228,M,40.592,M,2.7,0123*5B
$GPVTG,075.77,T,-564.13,M,004.730,N,008.761,K,D*04
$GPGGA,094157.85,5702.9963678,N,00949.2940142,E,2,4,3.0,-4.239,M,40.592,M,2.9,0123*55
$GPVTG,076.24,T,-563.66,M,004.762,N,008.819,K,D*03
$GPGGA,094157.90,5702.9963857,N,00949.2941293,E,2,4,3.0,-4.246,M,40.592,M,2.9,0123*54
$GPVTG,076.06,T,-563.84,M,004.748,N,008.793,K,D*0A
$GPGGA,094157.95,5702.9963890,N,00949.2942422,E,2,4,3.0,-4.252,M,40.592,M,2.9,0123*50
$GPVTG,077.00,T,-562.90,M,004.689,N,008.683,K,D*05
$GPGGA,094158.00,5702.9963971,N,00949.2943586,E,2,4,3.0,-4.259,M,40.592,M,2.9,0123*58
$GPVTG,077.63,T,-562.27,M,004.683,N,008.673,K,D*09
$GPGGA,094158.05,5702.9964537,N,00949.2944598,E,2,4,3.0,-4.283,M,40.592,M,1.7,0123*56
$GPVTG,075.15,T,-564.75,M,004.612,N,008.541,K,D*01
$GPGGA,094158.10,5702.9964931,N,00949.2945674,E,2,4,3.0,-4.292,M,40.592,M,1.7,0123*58
$GPVTG,072.92,T,-566.98,M,004.580,N,008.481,K,D*0D
$GPGGA,094158.15,5702.9965045,N,00949.2946766,E,2,4,3.0,-4.302,M,40.592,M,1.7,0123*5F
$GPVTG,073.26,T,-566.64,M,004.525,N,008.380,K,D*09
$GPGGA,094158.20,5702.9965091,N,00949.2947921,E,2,4,3.0,-4.318,M,40.592,M,1.7,0123*57
$GPVTG,074.42,T,-565.48,M,004.538,N,008.404,K,D*06
$GPGGA,094158.25,5702.9965566,N,00949.2949111,E,2,4,3.0,-4.316,M,40.592,M,2.0,0123*50
$GPVTG,073.93,T,-565.97,M,004.573,N,008.470,K,D*03
$GPGGA,094158.30,5702.9965948,N,00949.2950266,E,2,4,3.0,-4.332,M,40.592,M,2.0,0123*59
$GPVTG,072.26,T,-567.64,M,004.650,N,008.611,K,D*05
$GPGGA,094158.35,5702.9966219,N,00949.2951444,E,2,4,3.0,-4.352,M,40.592,M,2.0,0123*51
$GPVTG,071.77,T,-568.13,M,004.722,N,008.745,K,D*09
$GPGGA,094158.40,5702.9966428,N,00949.2952641,E,2,4,3.0,-4.370,M,40.592,M,2.0,0123*53
$GPVTG,071.86,T,-568.04,M,004.792,N,008.874,K,D*07
$GPGGA,094158.45,5702.9966205,N,00949.2953931,E,2,4,3.0,-4.342,M,40.592,M,2.2,0123*55
$GPVTG,072.43,T,-567.47,M,004.780,N,008.852,K,D*02
$GPGGA,094158.50,5702.9966514,N,00949.2955076,E,2,4,3.0,-4.348,M,40.592,M,2.2,0123*50
$GPVTG,071.42,T,-568.48,M,004.802,N,008.893,K,D*08
$GPGGA,094158.55,5702.9966818,N,00949.2956182,E,2,4,3.0,-4.352,M,40.592,M,2.2,0123*56
$GPVTG,070.37,T,-569.53,M,004.778,N,008.849,K,D*05
$GPGGA,094158.60,5702.9966901,N,00949.2957315,E,2,4,3.0,-4.354,M,40.592,M,2.2,0123*52
$GPVTG,071.19,T,-568.71,M,004.741,N,008.780,K,D*09
$GPGGA,094158.65,5702.9966922,N,00949.2958469,E,2,4,3.0,-4.328,M,40.592,M,2.4,0123*58
$GPVTG,072.40,T,-567.50,M,004.660,N,008.631,K,D*03
$GPGGA,094158.70,5702.9966932,N,00949.2959617,E,2,4,3.0,-4.332,M,40.592,M,2.4,0123*5C
$GPVTG,073.94,T,-565.96,M,004.638,N,008.590,K,D*06
$GPGGA,094158.75,5702.9967112,N,00949.2960785,E,2,4,3.0,-4.337,M,40.592,M,2.4,0123*57
$GPVTG,074.06,T,-565.84,M,004.674,N,008.656,K,D*08
$GPGGA,094158.80,5702.9967337,N,00949.2961939,E,2,4,3.0,-4.344,M,40.592,M,2.4,0123*54
$GPVTG,073.76,T,-566.14,M,004.695,N,008.696,K,D*01
$GPGGA,094158.85,5702.9967125,N,00949.2963188,E,2,4,3.0,-4.333,M,40.592,M,2.7,0123*53
$GPVTG,075.09,T,-564.81,M,004.745,N,008.787,K,D*0C
$GPGGA,094158.90,5702.9967281,N,00949.2964364,E,2,4,3.0,-4.344,M,40.592,M,2.7,0123*5D
$GPVTG,075.33,T,-564.57,M,004.764,N,008.823,K,D*0C
$GPGGA,094158.95,5702.9967381,N,00949.2965580,E,2,4,3.0,-4.351,M,40.592,M,2.7,0123*50
$GPVTG,076.09,T,-563.81,M,004.814,N,008.915,K,D*06
$GPGGA,094159.00,5702.9967722,N,00949.2966722,E,2,4,3.0,-4.349,M,40.592,M,2.7,0123*50
$GPVTG,074.72,T,-565.18,M,004.810,N,008.909,K,D*07
$GPGGA,094159.05,5702.9967931,N,00949.2967857,E,2,4,3.0,-4.355,M,40.592,M,1.6,0123*5A
$GPVTG,075.59,T,-564.31,M,004.764,N,008.822,K,D*01
$GPGGA,094159.10,5702.9968031,N,00949.2968998,E,2,4,3.0,-4.361,M,40.592,M,1.6,0123*52
$GPVTG,076.10,T,-563.80,M,004.722,N,008.745,K,D*0E
$GPGGA,094159.15,5702.9968082,N,00949.2970108,E,2,4,3.0,-4.364,M,40.592,M,1.6,0123*52
$GPVTG,076.86,T,-563.04,M,004.643,N,008.600,K,D*0B
$GPGGA,094159.20,5702.9968265,N,00949.2971247,E,2,4,3.0,-4.371,M,40.592,M,1.6,0123*52
$GPVTG,076.65,T,-563.25,M,004.630,N,008.574,K,D*01
$GPGGA,094159.25,5702.9967924,N,00949.2972461,E,2,4,3.0,-4.347,M,40.592,M,1.9,0123*5D
$GPVTG,077.61,T,-562.29,M,004.600,N,008.518,K,D*00
$GPGGA,094159.30,5702.9968041,N,00949.2973653,E,2,4,3.0,-4.355,M,40.592,M,1.9,0123*5D
$GPVTG,078.07,T,-561.83,M,004.644,N,008.601,K,D*07
$GPGGA,094159.35,5702.9968103,N,00949.2974828,E,2,4,3.0,-4.363,M,40.592,M,1.9,0123*5F
$GPVTG,078.87,T,-561.03,M,004.653,N,008.618,K,D*09
$GPGGA,094159.40,5702.9968237,N,00949.2976021,E,2,4,3.0,-4.370,M,40.592,M,1.9,0123*58
$GPVTG,079.08,T,-560.82,M,004.690,N,008.685,K,D*0C
$GPGGA,094159.45,5702.9968236,N,00949.2977220,E,2,4,3.0,-4.375,M,40.592,M,2.1,0123*50
$GPVTG,080.93,T,-558.97,M,004.704,N,008.712,K,D*04
$GPGGA,094159.50,5702.9968365,N,00949.2978336,E,2,4,3.0,-4.379,M,40.592,M,2.1,0123*56
$GPVTG,080.84,T,-559.06,M,004.638,N,008.589,K,D*05
$GPGGA,094159.55,5702.9968514,N,00949.2979491,E,2,4,3.0,-4.385,M,40.592,M,2.1,0123*5B
$GPVTG,080.69,T,-559.21,M,004.631,N,008.576,K,D*0A
$GPGGA,094159.60,5702.9968582,N,00949.2980606,E,2,4,3.0,-4.392,M,40.592,M,2.1,0123*5E
$GPVTG,081.11,T,-558.79,M,004.571,N,008.465,K,D*0C
$GPGGA,094159.65,5702.9968754,N,00949.2981690,E,2,4,3.0,-4.409,M,40.592,M,2.3,0123*5B
$GPVTG,081.35,T,-558.55,M,004.516,N,008.363,K,D*04
$GPGGA,094159.70,5702.9968841,N,00949.2982777,E,2,4,3.0,-4.419,M,40.592,M,2.3,0123*5E
$GPVTG,081.54,T,-558.36,M,004.444,N,008.230,K,D*07
$GPGGA,094159.75,5702.9969075,N,00949.2983939,E,2,4,3.0,-4.433,M,40.592,M,2.3,0123*58
$GPVTG,080.63,T,-559.27,M,004.487,N,008.310,K,D*0F
$GPGGA,094159.80,5702.9969193,N,00949.2985066,E,2,4,3.0,-4.445,M,40.592,M,2.3,0123*5F
$GPVTG,080.67,T,-559.23,M,004.475,N,008.288,K,D*02
$GPGGA,094159.85,5702.9969309,N,00949.2986259,E,2,4,3.0,-4.441,M,40.592,M,2.6,0123*57
$GPVTG,079.56,T,-560.34,M,004.506,N,008.344,K,D*0E
$GPGGA,094159.90,5702.9969512,N,00949.2987378,E,2,4,3.0,-4.451,M,40.592,M,2.6,0123*5D
$GPVTG,078.85,T,-561.05,M,004.498,N,008.331,K,D*06
$GPGGA,094159.95,5702.9969635,N,00949.2988503,E,2,4,3.0,-4.462,M,40.592,M,2.6,0123*5B
$GPVTG,078.90,T,-561.00,M,004.491,N,008.316,K,D*0B
$GPGGA,094200.00,5702.9969721,N,00949.2989612,E,2,4,3.0,-4.475,M,40.592,M,2.6,0123*58
$GPVTG,079.22,T,-560.68,M,004.464,N,008.267,K,D*01
$GPGGA,094200.05,5702.9970078,N,00949.2990756,E,2,4,3.0,-4.476,M,40.592,M,2.8,0123*5A
$GPVTG,078.29,T,-561.61,M,004.474,N,008.286,K,D*0D
$GPGGA,094200.10,5702.9970154,N,00949.2991869,E,2,4,3.0,-4.491,M,40.592,M,2.8,0123*5A
$GPVTG,078.76,T,-561.14,M,004.456,N,008.253,K,D*0D
$GPGGA,094200.15,5702.9970260,N,00949.2992979,E,2,4,3.0,-4.509,M,40.592,M,2.8,0123*58
$GPVTG,078.92,T,-560.98,M,004.442,N,008.227,K,D*04
$GPGGA,094200.20,5702.9970517,N,00949.2994147,E,2,4,3.0,-4.528,M,40.592,M,2.8,0123*59
$GPVTG,078.03,T,-561.87,M,004.516,N,008.364,K,D*05
$GPGGA,094200.25,5702.9970238,N,00949.2995381,E,2,4,3.0,-4.495,M,40.592,M,3.0,0123*51
$GPVTG,077.98,T,-561.92,M,004.487,N,008.309,K,D*0E
$GPGGA,094200.30,5702.9970342,N,00949.2996561,E,2,4,3.0,-4.503,M,40.592,M,3.0,0123*5C
$GPVTG,078.41,T,-561.49,M,004.552,N,008.431,K,D*06
$GPGGA,094200.35,5702.9970451,N,00949.2997704,E,2,4,3.0,-4.511,M,40.592,M,3.0,0123*5F
$GPVTG,078.62,T,-561.28,M,004.565,N,008.454,K,D*07
$GPGGA,094200.40,5702.9970488,N,00949.2998822,E,2,4,3.0,-4.519,M,40.592,M,3.0,0123*55
$GPVTG,079.32,T,-560.58,M,004.538,N,008.405,K,D*09
$GPGGA,094200.45,5702.9970730,N,00949.2999929,E,2,4,3.0,-4.528,M,40.592,M,3.2,0123*5B
$GPVTG,078.74,T,-561.16,M,004.525,N,008.379,K,D*01
$GPGGA,094200.50,5702.9970989,N,00949.3001018,E,2,4,3.0,-4.539,M,40.592,M,3.2,0123*51
$GPVTG,077.51,T,-562.39,M,004.499,N,008.332,K,D*0E
$GPGGA,094200.55,5702.9970974,N,00949.3002142,E,2,4,3.0,-4.554,M,40.592,M,3.2,0123*50
$GPVTG,078.71,T,-561.19,M,004.482,N,008.300,K,D*09
$GPGGA,094200.60,5702.9971259,N,00949.3003254,E,2,4,3.0,-4.570,M,40.592,M,3.2,0123*50
$GPVTG,077.43,T,-562.47,M,004.492,N,008.319,K,D*06
$GPGGA,094200.65,5702.9971427,N,00949.3004462,E,2,4,3.0,-4.566,M,40.592,M,3.4,0123*5F
$GPVTG,076.67,T,-563.23,M,004.541,N,008.409,K,D*0B
$GPGGA,094200.70,5702.9971662,N,00949.3005588,E,2,4,3.0,-4.582,M,40.592,M,3.4,0123*56
$GPVTG,075.84,T,-564.06,M,004.560,N,008.445,K,D*0E
$GPGGA,094200.75,5702.9971787,N,00949.3006712,E,2,4,3.0,-4.596,M,40.592,M,3.4,0123*5E
$GPVTG,075.99,T,-563.91,M,004.556,N,008.438,K,D*04
$GPGGA,094200.80,5702.9971883,N,00949.3007839,E,2,4,3.0,-4.606,M,40.592,M,3.4,0123*52
$GPVTG,076.37,T,-563.53,M,004.553,N,008.433,K,D*03
$GPGGA,094200.85,5702.9971839,N,00949.3009026,E,2,4,3.0,-4.597,M,40.592,M,3.6,0123*57
$GPVTG,076.32,T,-563.58,M,004.554,N,008.434,K,D*0D
$GPGGA,094200.90,5702.9972046,N,00949.3010142,E,2,4,3.0,-4.612,M,40.592,M,3.6,0123*55
$GPVTG,075.73,T,-564.17,M,004.555,N,008.436,K,D*04
$GPGGA,094200.95,5702.9972211,N,00949.3011252,E,2,4,3.0,-4.624,M,40.592,M,3.6,0123*56
$GPVTG,075.53,T,-564.37,M,004.543,N,008.414,K,D*03
$GPGGA,094201.00,5702.9972350,N,00949.3012404,E,2,4,3.0,-4.636,M,40.592,M,3.6,0123*5A
$GPVTG,075.69,T,-564.21,M,004.576,N,008.475,K,D*0C
$GPGGA,094201.05,5702.9972341,N,00949.3013602,E,2,4,3.0,-4.628,M,40.592,M,1.9,0123*58
$GPVTG,076.34,T,-563.56,M,004.592,N,008.504,K,D*0D
$GPGGA,094201.10,5702.9972428,N,00949.3014752,E,2,4,3.0,-4.641,M,40.592,M,1.9,0123*58
$GPVTG,076.91,T,-562.99,M,004.604,N,008.527,K,D*0D
$GPGGA,094201.15,5702.9972595,N,00949.3015894,E,2,4,3.0,-4.655,M,40.592,M,1.9,0123*5B
$GPVTG,076.74,T,-563.16,M,004.618,N,008.553,K,D*0E
$GPGGA,094201.20,5702.9972672,N,00949.3016984,E,2,4,3.0,-4.661,M,40.592,M,1.9,0123*53
$GPVTG,077.12,T,-562.78,M,004.556,N,008.438,K,D*03
$GPGGA,094201.25,5702.9972662,N,00949.3018124,E,2,4,3.0,-4.665,M,40.592,M,2.2,0123*57
$GPVTG,077.66,T,-562.24,M,004.553,N,008.433,K,D*07
$GPGGA,094201.30,5702.9972879,N,00949.3019268,E,2,4,3.0,-4.680,M,40.592,M,2.2,0123*56
$GPVTG,077.02,T,-562.88,M,004.581,N,008.483,K,D*07
$GPGGA,094201.35,5702.9973199,N,00949.3020390,E,2,4,3.0,-4.698,M,40.592,M,2.2,0123*50
$GPVTG,075.54,T,-564.36,M,004.597,N,008.514,K,D*0D
$GPGGA,094201.40,5702.9973462,N,00949.3021553,E,2,4,3.0,-4.719,M,40.592,M,2.2,0123*53
$GPVTG,074.77,T,-565.13,M,004.650,N,008.611,K,D*05
$GPGGA,094201.45,5702.9973579,N,00949.3022753,E,2,4,3.0,-4.706,M,40.592,M,2.4,0123*54
$GPVTG,074.07,T,-565.83,M,004.639,N,008.591,K,D*0F
$GPGGA,094201.50,5702.9973691,N,00949.3023839,E,2,4,3.0,-4.720,M,40.592,M,2.4,0123*53
$GPVTG,074.27,T,-565.63,M,004.578,N,008.478,K,D*03
$GPGGA,094201.55,5702.9973777,N,00949.3024991,E,2,4,3.0,-4.732,M,40.592,M,2.4,0123*58
$GPVTG,074.92,T,-564.98,M,004.594,N,008.508,K,D*0C
$GPGGA,094201.60,5702.9974030,N,00949.3026120,E,2,4,3.0,-4.743,M,40.592,M,2.4,0123*5B
$GPVTG,074.17,T,-565.73,M,004.610,N,008.537,K,D*06
$GPGGA,094201.65,5702.9973654,N,00949.3027384,E,2,4,3.0,-4.700,M,40.592,M,2.7,0123*54
$GPVTG,074.12,T,-565.78,M,004.608,N,008.534,K,D*02
$GPGGA,094201.70,5702.9973731,N,00949.3028507,E,2,4,3.0,-4.709,M,40.592,M,2.7,0123*59
$GPVTG,074.81,T,-565.09,M,004.587,N,008.495,K,D*00
$GPGGA,094201.75,5702.9973679,N,00949.3029666,E,2,4,3.0,-4.719,M,40.592,M,2.7,0123*55
$GPVTG,076.61,T,-563.29,M,004.588,N,008.498,K,D*0A
$GPGGA,094201.80,5702.9973724,N,00949.3030831,E,2,4,3.0,-4.725,M,40.592,M,2.7,0123*5D
$GPVTG,077.53,T,-562.37,M,004.609,N,008.536,K,D*0B
$GPGGA,094201.85,5702.9973773,N,00949.3031985,E,2,4,3.0,-4.730,M,40.592,M,2.9,0123*5F
$GPVTG,078.39,T,-561.51,M,004.632,N,008.578,K,D*09
$GPGGA,094201.90,5702.9974021,N,00949.3033146,E,2,4,3.0,-4.737,M,40.592,M,2.9,0123*5E
$GPVTG,077.53,T,-562.37,M,004.666,N,008.642,K,D*02
$GPGGA,094201.95,5702.9974216,N,00949.3034238,E,2,4,3.0,-4.744,M,40.592,M,2.9,0123*54
$GPVTG,076.97,T,-562.93,M,004.611,N,008.539,K,D*0A
$GPGGA,094202.00,5702.9974282,N,00949.3035345,E,2,4,3.0,-4.752,M,40.592,M,2.9,0123*5B
$GPVTG,077.49,T,-562.41,M,004.563,N,008.451,K,D*0E
$GPGGA,094202.05,5702.9974785,N,00949.3036464,E,2,4,3.0,-4.769,M,40.592,M,1.7,0123*5E
$GPVTG,077.07,T,-562.83,M,004.581,N,008.485,K,D*0F
$GPGGA,094202.10,5702.9974922,N,00949.3037615,E,2,4,3.0,-4.789,M,40.592,M,1.7,0123*52
$GPVTG,077.18,T,-562.72,M,004.597,N,008.515,K,D*00
$GPGGA,094202.15,5702.9975031,N,00949.3038747,E,2,4,3.0,-4.804,M,40.592,M,1.7,0123*5E
$GPVTG,077.45,T,-562.45,M,004.583,N,008.489,K,D*0D
$GPGGA,094202.20,5702.9975260,N,00949.3039834,E,2,4,3.0,-4.816,M,40.592,M,1.7,0123*57
$GPVTG,076.60,T,-563.30,M,004.540,N,008.408,K,D*0E
$GPGGA,094202.25,5702.9974725,N,00949.3041137,E,2,4,3.0,-4.774,M,40.592,M,2.0,0123*5D
$GPVTG,077.09,T,-562.81,M,004.558,N,008.441,K,D*0F
$GPGGA,094202.30,5702.9974845,N,00949.3042332,E,2,4,3.0,-4.782,M,40.592,M,2.0,0123*5D
$GPVTG,077.50,T,-562.40,M,004.627,N,008.568,K,D*0F
$GPGGA,094202.35,5702.9974698,N,00949.3043484,E,2,4,3.0,-4.791,M,40.592,M,2.0,0123*5F
$GPVTG,079.90,T,-560.00,M,004.600,N,008.518,K,D*09
$GPGGA,094202.40,5702.9974702,N,00949.3044590,E,2,4,3.0,-4.796,M,40.592,M,2.0,0123*5B
$GPVTG,080.82,T,-559.08,M,004.542,N,008.411,K,D*03
$GPGGA,094202.45,5702.9974986,N,00949.3045709,E,2,4,3.0,-4.804,M,40.592,M,2.2,0123*59
$GPVTG,079.75,T,-560.15,M,004.568,N,008.460,K,D*05
$GPGGA,094202.50,5702.9975126,N,00949.3046879,E,2,4,3.0,-4.816,M,40.592,M,2.2,0123*56
$GPVTG,079.72,T,-560.18,M,004.603,N,008.524,K,D*00
$GPGGA,094202.55,5702.9975269,N,00949.3048076,E,2,4,3.0,-4.830,M,40.592,M,2.2,0123*56
$GPVTG,079.72,T,-560.18,M,004.660,N,008.630,K,D*03
$GPGGA,094202.60,5702.9975281,N,00949.3049192,E,2,4,3.0,-4.842,M,40.592,M,2.2,0123*59
$GPVTG,080.54,T,-559.36,M,004.605,N,008.528,K,D*0E
$GPGGA,094202.65,5702.9975883,N,00949.3050276,E,2,4,3.0,-4.856,M,40.592,M,2.4,0123*56
$GPVTG,079.73,T,-560.17,M,004.546,N,008.419,K,D*03
$GPGGA,094202.70,5702.9975990,N,00949.3051362,E,2,4,3.0,-4.863,M,40.592,M,2.4,0123*52
$GPVTG,079.74,T,-560.16,M,004.479,N,008.295,K,D*0A
$GPGGA,094202.75,5702.9976144,N,00949.3052475,E,2,4,3.0,-4.876,M,40.592,M,2.4,0123*53
$GPVTG,079.43,T,-560.47,M,004.462,N,008.264,K,D*0E
$GPGGA,094202.80,5702.9976400,N,00949.3053618,E,2,4,3.0,-4.893,M,40.592,M,2.4,0123*5F
$GPVTG,078.38,T,-561.52,M,004.497,N,008.328,K,D*05
$GPGGA,094202.85,5702.9976294,N,00949.3054913,E,2,4,3.0,-4.874,M,40.592,M,2.7,0123*58
$GPVTG,078.88,T,-561.02,M,004.564,N,008.453,K,D*0D
$GPGGA,094202.90,5702.9976539,N,00949.3056043,E,2,4,3.0,-4.887,M,40.592,M,2.7,0123*5E
$GPVTG,077.83,T,-562.07,M,004.572,N,008.468,K,D*00
$GPGGA,094202.95,5702.9976775,N,00949.3057174,E,2,4,3.0,-4.898,M,40.592,M,2.7,0123*5B
$GPVTG,076.97,T,-562.93,M,004.582,N,008.485,K,D*05
$GPGGA,094203.00,5702.9976882,N,00949.3058286,E,2,4,3.0,-4.910,M,40.592,M,2.7,0123*51
$GPVTG,077.13,T,-562.77,M,004.552,N,008.430,K,D*01
$GPGGA,094203.05,5702.9976264,N,00949.3059583,E,2,4,3.0,-4.871,M,40.592,M,1.6,0123*51
$GPVTG,080.23,T,-559.67,M,004.542,N,008.411,K,D*01
$GPGGA,094203.10,5702.9976252,N,00949.3060772,E,2,4,3.0,-4.878,M,40.592,M,1.6,0123*5F
$GPVTG,081.49,T,-558.41,M,004.588,N,008.497,K,D*01
$GPGGA,094203.15,5702.9976329,N,00949.3061889,E,2,4,3.0,-4.881,M,40.592,M,1.6,0123*5B
$GPVTG,081.74,T,-558.16,M,004.552,N,008.429,K,D*0F
$GPGGA,094203.20,5702.9976408,N,00949.3063022,E,2,4,3.0,-4.887,M,40.592,M,1.6,0123*54
$GPVTG,081.98,T,-557.92,M,004.539,N,008.406,K,D*0E
$GPGGA,094203.25,5702.9976530,N,00949.3064116,E,2,4,3.0,-4.915,M,40.592,M,1.9,0123*5F
$GPVTG,081.17,T,-558.73,M,004.571,N,008.465,K,D*00
$GPGGA,094203.30,5702.9976673,N,00949.3065249,E,2,4,3.0,-4.933,M,40.592,M,1.9,0123*53
$GPVTG,080.87,T,-559.03,M,004.560,N,008.445,K,D*0C
$GPGGA,094203.35,5702.9976751,N,00949.3066350,E,2,4,3.0,-4.948,M,40.592,M,1.9,0123*51
$GPVTG,081.06,T,-558.84,M,004.509,N,008.351,K,D*07
$GPGGA,094203.40,5702.9976774,N,00949.3067481,E,2,4,3.0,-4.961,M,40.592,M,1.9,0123*55
$GPVTG,081.76,T,-558.14,M,004.495,N,008.325,K,D*0E
$GPGGA,094203.45,5702.9976772,N,00949.3068702,E,2,4,3.0,-4.950,M,40.592,M,2.1,0123*58
$GPVTG,082.78,T,-557.12,M,004.505,N,008.343,K,D*02
$GPGGA,094203.50,5702.9976859,N,00949.3069804,E,2,4,3.0,-4.962,M,40.592,M,2.1,0123*53
$GPVTG,082.81,T,-557.09,M,004.462,N,008.264,K,D*0A
$GPGGA,094203.55,5702.9976985,N,00949.3070935,E,2,4,3.0,-4.974,M,40.592,M,2.1,0123*5A
$GPVTG,082.58,T,-557.32,M,004.464,N,008.268,K,D*0C
$GPGGA,094203.60,5702.9977258,N,00949.3072092,E,2,4,3.0,-4.989,M,40.592,M,2.1,0123*52
$GPVTG,081.21,T,-558.69,M,004.510,N,008.352,K,D*0A
$GPGGA,094203.65,5702.9977468,N,00949.3073183,E,2,4,3.0,-4.999,M,40.592,M,2.3,0123*51
$GPVTG,080.72,T,-559.18,M,004.446,N,008.234,K,D*09
$GPGGA,094203.70,5702.9977591,N,00949.3074262,E,2,4,3.0,-5.012,M,40.592,M,2.3,0123*52
$GPVTG,080.46,T,-559.44,M,004.396,N,008.142,K,D*0F
$GPGGA,094203.75,5702.9977601,N,00949.3075301,E,2,4,3.0,-5.029,M,40.592,M,2.3,0123*50
$GPVTG,081.11,T,-558.79,M,004.299,N,007.962,K,D*08
$GPGGA,094203.80,5702.9977872,N,00949.3076371,E,2,4,3.0,-5.049,M,40.592,M,2.3,0123*52
$GPVTG,079.59,T,-560.31,M,004.284,N,007.934,K,D*0B
$GPGGA,094203.85,5702.9977613,N,00949.3077669,E,2,4,3.0,-5.035,M,40.592,M,2.6,0123*5D
$GPVTG,079.57,T,-560.33,M,004.412,N,008.171,K,D*08
$GPGGA,094203.90,5702.9977707,N,00949.3078849,E,2,4,3.0,-5.051,M,40.592,M,2.6,0123*5C
$GPVTG,079.91,T,-559.99,M,004.493,N,008.321,K,D*06
$GPGGA,094203.95,5702.9977800,N,00949.3079923,E,2,4,3.0,-5.065,M,40.592,M,2.6,0123*5A
$GPVTG,079.93,T,-559.97,M,004.440,N,008.223,K,D*07
$GPGGA,094204.00,5702.9977892,N,00949.3080993,E,2,4,3.0,-5.081,M,40.592,M,2.6,0123*5D
$GPVTG,079.97,T,-559.93,M,004.391,N,008.133,K,D*0E
$GPGGA,094204.05,5702.9977805,N,00949.3082156,E,2,4,3.0,-5.074,M,40.592,M,2.8,0123*51
$GPVTG,080.03,T,-559.87,M,004.386,N,008.123,K,D*07
$GPGGA,094204.10,5702.9977870,N,00949.3083277,E,2,4,3.0,-5.087,M,40.592,M,2.8,0123*5A
$GPVTG,080.46,T,-559.44,M,004.400,N,008.149,K,D*0C
$GPGGA,094204.15,5702.9977960,N,00949.3084376,E,2,4,3.0,-5.101,M,40.592,M,2.8,0123*57
$GPVTG,080.58,T,-559.32,M,004.391,N,008.132,K,D*01
$GPGGA,094204.20,5702.9978039,N,00949.3085520,E,2,4,3.0,-5.120,M,40.592,M,2.8,0123*5C
$GPVTG,080.88,T,-559.02,M,004.431,N,008.206,K,D*06
$GPGGA,094204.25,5702.9978036,N,00949.3086670,E,2,4,3.0,-5.122,M,40.592,M,3.0,0123*58
$GPVTG,080.94,T,-558.96,M,004.430,N,008.205,K,D*05
$GPGGA,094204.30,5702.9978082,N,00949.3087713,E,2,4,3.0,-5.136,M,40.592,M,3.0,0123*53
$GPVTG,081.30,T,-558.60,M,004.347,N,008.051,K,D*07
$GPGGA,094204.35,5702.9978152,N,00949.3088838,E,2,4,3.0,-5.150,M,40.592,M,3.0,0123*53
$GPVTG,081.60,T,-558.30,M,004.372,N,008.097,K,D*0B
$GPGGA,094204.40,5702.9978201,N,00949.3089867,E,2,4,3.0,-5.158,M,40.592,M,3.0,0123*57
$GPVTG,081.87,T,-558.03,M,004.285,N,007.937,K,D*07
$GPGGA,094204.45,5702.9978560,N,00949.3090933,E,2,4,3.0,-5.171,M,40.592,M,3.2,0123*53
$GPVTG,079.68,T,-560.22,M,004.283,N,007.932,K,D*0A
$GPGGA,094204.50,5702.9978631,N,00949.3092037,E,2,4,3.0,-5.192,M,40.592,M,3.2,0123*52
$GPVTG,080.05,T,-559.85,M,004.301,N,007.966,K,D*0A
$GPGGA,094204.55,5702.9978744,N,00949.3093105,E,2,4,3.0,-5.217,M,40.592,M,3.2,0123*5B
$GPVTG,079.93,T,-559.97,M,004.283,N,007.931,K,D*09
$GPGGA,094204.60,5702.9978990,N,00949.3094163,E,2,4,3.0,-5.238,M,40.592,M,3.2,0123*50
$GPVTG,078.66,T,-561.24,M,004.272,N,007.912,K,D*0E
$GPGGA,094204.65,5702.9978872,N,00949.3095449,E,2,4,3.0,-5.214,M,40.592,M,3.4,0123*5C
$GPVTG,079.17,T,-560.73,M,004.358,N,008.071,K,D*00
$GPGGA,094204.70,5702.9978755,N,00949.3096555,E,2,4,3.0,-5.233,M,40.592,M,3.4,0123*58
$GPVTG,081.26,T,-558.64,M,004.352,N,008.060,K,D*02
$GPGGA,094204.75,5702.9978860,N,00949.3097640,E,2,4,3.0,-5.249,M,40.592,M,3.4,0123*5F
$GPVTG,081.20,T,-558.70,M,004.345,N,008.047,K,D*02
$GPGGA,094204.80,5702.9979118,N,00949.3098715,E,2,4,3.0,-5.262,M,40.592,M,3.4,0123*55
$GPVTG,079.84,T,-560.06,M,004.345,N,008.048,K,D*0E
$GPGGA,094204.85,5702.9979148,N,00949.3099752,E,2,4,3.0,-5.272,M,40.592,M,3.6,0123*54
$GPVTG,079.57,T,-560.33,M,004.282,N,007.930,K,D*05
$GPGGA,094204.90,5702.9979130,N,00949.3100806,E,2,4,3.0,-5.287,M,40.592,M,3.6,0123*5A
$GPVTG,080.64,T,-559.26,M,004.239,N,007.851,K,D*0B
$GPGGA,094204.95,5702.9979222,N,00949.3101846,E,2,4,3.0,-5.305,M,40.592,M,3.6,0123*51
$GPVTG,080.63,T,-559.27,M,004.201,N,007.779,K,D*03
$GPGGA,094205.00,5702.9979255,N,00949.3102854,E,2,4,3.0,-5.324,M,40.592,M,3.6,0123*5F
$GPVTG,081.07,T,-558.83,M,004.129,N,007.648,K,D*05
$GPGGA,094205.05,5702.9979013,N,00949.3104061,E,2,4,3.0,-5.321,M,40.592,M,1.9,0123*5A
$GPVTG,082.42,T,-557.48,M,004.217,N,007.810,K,D*02
$GPGGA,094205.10,5702.9979258,N,00949.3105148,E,2,4,3.0,-5.337,M,40.592,M,1.9,0123*5F
$GPVTG,081.10,T,-558.80,M,004.253,N,007.876,K,D*0D
$GPGGA,094205.15,5702.9979397,N,00949.3106274,E,2,4,3.0,-5.357,M,40.592,M,1.9,0123*51
$GPVTG,080.89,T,-559.01,M,004.319,N,007.998,K,D*0A
$GPGGA,094205.20,5702.9979340,N,00949.3107321,E,2,4,3.0,-5.374,M,40.592,M,1.9,0123*5C
$GPVTG,082.07,T,-557.83,M,004.271,N,007.910,K,D*05
$GPGGA,094205.25,5702.9979422,N,00949.3108359,E,2,4,3.0,-5.373,M,40.592,M,2.2,0123*55
$GPVTG,081.16,T,-558.74,M,004.173,N,007.728,K,D*05
$GPGGA,094205.30,5702.9979420,N,00949.3109411,E,2,4,3.0,-5.389,M,40.592,M,2.2,0123*5C
$GPVTG,082.07,T,-557.83,M,004.156,N,007.696,K,D*02
$GPGGA,094205.35,5702.9979513,N,00949.3110463,E,2,4,3.0,-5.406,M,40.592,M,2.2,0123*55
$GPVTG,082.03,T,-557.87,M,004.151,N,007.687,K,D*05
$GPGGA,094205.40,5702.9979524,N,00949.3111538,E,2,4,3.0,-5.425,M,40.592,M,2.2,0123*5C
$GPVTG,082.77,T,-557.13,M,004.168,N,007.718,K,D*06
$GPGGA,094205.45,5702.9979598,N,00949.3112691,E,2,4,3.0,-5.425,M,40.592,M,2.4,0123*5B
$GPVTG,082.20,T,-557.70,M,004.224,N,007.823,K,D*0D
$GPGGA,094205.50,5702.9979636,N,00949.3113761,E,2,4,3.0,-5.448,M,40.592,M,2.4,0123*5C
$GPVTG,082.68,T,-557.22,M,004.227,N,007.828,K,D*0E
$GPGGA,094205.55,5702.9979663,N,00949.3114813,E,2,4,3.0,-5.466,M,40.592,M,2.4,0123*58
$GPVTG,083.18,T,-556.72,M,004.208,N,007.794,K,D*09
$GPGGA,094205.60,5702.9979783,N,00949.3115881,E,2,4,3.0,-5.483,M,40.592,M,2.4,0123*50
$GPVTG,082.87,T,-557.03,M,004.218,N,007.811,K,D*0A
$GPGGA,094205.65,5702.9979600,N,00949.3117006,E,2,4,3.0,-5.472,M,40.592,M,2.7,0123*57
$GPVTG,083.26,T,-556.64,M,004.184,N,007.749,K,D*04
$GPGGA,094205.70,5702.9979642,N,00949.3118047,E,2,4,3.0,-5.487,M,40.592,M,2.7,0123*55
$GPVTG,083.59,T,-556.31,M,004.160,N,007.704,K,D*0F
$GPGGA,094205.75,5702.9979639,N,00949.3119130,E,2,4,3.0,-5.504,M,40.592,M,2.7,0123*56
$GPVTG,084.38,T,-555.52,M,004.186,N,007.752,K,D*02
$GPGGA,094205.80,5702.9979539,N,00949.3120139,E,2,4,3.0,-5.521,M,40.592,M,2.7,0123*5B
$GPVTG,085.89,T,-554.01,M,004.119,N,007.629,K,D*05
$GPGGA,094205.85,5702.9979390,N,00949.3121207,E,2,4,3.0,-5.526,M,40.592,M,2.9,0123*5D
$GPVTG,087.18,T,-552.72,M,004.107,N,007.607,K,D*0E
$GPGGA,094205.90,5702.9979541,N,00949.3122228,E,2,4,3.0,-5.540,M,40.592,M,2.9,0123*5D
$GPVTG,086.17,T,-553.73,M,004.077,N,007.550,K,D*07
$GPGGA,094205.95,5702.9979493,N,00949.3123303,E,2,4,3.0,-5.559,M,40.592,M,2.9,0123*57
$GPVTG,087.23,T,-552.67,M,004.109,N,007.610,K,D*0A
$GPGGA,094206.00,5702.9979399,N,00949.3124403,E,2,4,3.0,-5.580,M,40.592,M,2.9,0123*51
$GPVTG,088.64,T,-551.26,M,004.165,N,007.713,K,D*08
$GPGGA,094206.05,5702.9979300,N,00949.3125456,E,2,4,3.0,-5.582,M,40.592,M,1.7,0123*5A
$GPVTG,089.13,T,-550.77,M,004.108,N,007.609,K,D*0D
$GPGGA,094206.10,5702.9979501,N,00949.3126503,E,2,4,3.0,-5.598,M,40.592,M,1.7,0123*50
$GPVTG,087.52,T,-552.38,M,004.110,N,007.612,K,D*0C
$GPGGA,094206.15,5702.9979502,N,00949.3127504,E,2,4,3.0,-5.613,M,40.592,M,1.7,0123*50
$GPVTG,087.94,T,-551.96,M,004.057,N,007.513,K,D*01
$GPGGA,094206.20,5702.9979515,N,00949.3128578,E,2,4,3.0,-5.630,M,40.592,M,1.7,0123*55
$GPVTG,088.26,T,-551.64,M,004.094,N,007.582,K,D*0D
$GPGGA,094206.25,5702.9979595,N,00949.3129671,E,2,4,3.0,-5.623,M,40.592,M,2.0,0123*55
$GPVTG,088.40,T,-551.50,M,004.081,N,007.559,K,D*08
$GPGGA,094206.30,5702.9979565,N,00949.3130748,E,2,4,3.0,-5.640,M,40.592,M,2.0,0123*58
$GPVTG,089.09,T,-550.81,M,004.122,N,007.634,K,D*09
$GPGGA,094206.35,5702.9979754,N,00949.3131785,E,2,4,3.0,-5.658,M,40.592,M,2.0,0123*54
$GPVTG,087.69,T,-552.21,M,004.113,N,007.618,K,D*05
$GPGGA,094206.40,5702.9979532,N,00949.3132826,E,2,4,3.0,-5.676,M,40.592,M,2.0,0123*5D
$GPVTG,090.07,T,-549.83,M,004.106,N,007.604,K,D*00
$GPGGA,094206.45,5702.9979214,N,00949.3133904,E,2,4,3.0,-5.678,M,40.592,M,2.2,0123*57
$GPVTG,091.59,T,-548.31,M,004.083,N,007.561,K,D*0E
$GPGGA,094206.50,5702.9979214,N,00949.3134967,E,2,4,3.0,-5.696,M,40.592,M,2.2,0123*51
$GPVTG,091.77,T,-548.13,M,004.109,N,007.610,K,D*04
$GPGGA,094206.55,5702.9979375,N,00949.3136029,E,2,4,3.0,-5.711,M,40.592,M,2.2,0123*5D
$GPVTG,090.49,T,-549.41,M,004.127,N,007.643,K,D*04
$GPGGA,094206.60,5702.9979449,N,00949.3137082,E,2,4,3.0,-5.728,M,40.592,M,2.2,0123*59
$GPVTG,090.05,T,-549.85,M,004.133,N,007.654,K,D*07
$GPGGA,094206.65,5702.9979609,N,00949.3138158,E,2,4,3.0,-5.731,M,40.592,M,2.4,0123*5D
$GPVTG,088.96,T,-550.94,M,004.111,N,007.614,K,D*08
$GPGGA,094206.70,5702.9979596,N,00949.3139168,E,2,4,3.0,-5.747,M,40.592,M,2.4,0123*5F
$GPVTG,089.34,T,-550.56,M,004.069,N,007.536,K,D*02
$GPGGA,094206.75,5702.9979537,N,00949.3140222,E,2,4,3.0,-5.761,M,40.592,M,2.4,0123*56
$GPVTG,090.11,T,-549.79,M,004.085,N,007.566,K,D*0F
$GPGGA,094206.80,5702.9979510,N,00949.3141253,E,2,4,3.0,-5.782,M,40.592,M,2.4,0123*53
$GPVTG,090.54,T,-549.36,M,004.074,N,007.546,K,D*09
$GPGGA,094206.85,5702.9979316,N,00949.3142341,E,2,4,3.0,-5.778,M,40.592,M,2.7,0123*51
$GPVTG,091.71,T,-548.19,M,004.067,N,007.532,K,D*02
$GPGGA,094206.90,5702.9979350,N,00949.3143406,E,2,4,3.0,-5.793,M,40.592,M,2.7,0123*57
$GPVTG,091.45,T,-548.45,M,004.100,N,007.593,K,D*07
$GPGGA,094206.95,5702.9979297,N,00949.3144421,E,2,4,3.0,-5.813,M,40.592,M,2.7,0123*5D
$GPVTG,092.04,T,-547.86,M,004.071,N,007.539,K,D*06
$GPGGA,094207.00,5702.9979323,N,00949.3145536,E,2,4,3.0,-5.837,M,40.592,M,2.7,0123*5E
$GPVTG,091.83,T,-548.07,M,004.158,N,007.700,K,D*0E
$GPGGA,094207.05,5702.9979220,N,00949.3146660,E,2,4,3.0,-5.845,M,40.592,M,1.6,0123*5D
$GPVTG,090.45,T,-549.45,M,004.191,N,007.762,K,D*03
$GPGGA,094207.10,5702.9979178,N,00949.3147671,E,2,4,3.0,-5.862,M,40.592,M,1.6,0123*53
$GPVTG,090.96,T,-548.94,M,004.139,N,007.665,K,D*04
$GPGGA,094207.15,5702.9979183,N,00949.3148631,E,2,4,3.0,-5.870,M,40.592,M,1.6,0123*5A
$GPVTG,091.02,T,-548.88,M,004.037,N,007.476,K,D*0A
$GPGGA,094207.20,5702.9979110,N,00949.3149624,E,2,4,3.0,-5.884,M,40.592,M,1.6,0123*58
$GPVTG,091.76,T,-548.14,M,003.989,N,007.388,K,D*01
$GPGGA,094207.25,5702.9979128,N,00949.3150745,E,2,4,3.0,-5.890,M,40.592,M,1.9,0123*52
$GPVTG,092.35,T,-547.55,M,004.058,N,007.516,K,D*0C
$GPGGA,094207.30,5702.9979173,N,00949.3151774,E,2,4,3.0,-5.910,M,40.592,M,1.9,0123*52
$GPVTG,091.88,T,-548.02,M,004.050,N,007.501,K,D*0A
$GPGGA,094207.35,5702.9979240,N,00949.3152806,E,2,4,3.0,-5.929,M,40.592,M,1.9,0123*57
$GPVTG,091.27,T,-548.64,M,004.047,N,007.496,K,D*06
$GPGGA,094207.40,5702.9979208,N,00949.3153841,E,2,4,3.0,-5.951,M,40.592,M,1.9,0123*54
$GPVTG,091.58,T,-548.32,M,004.051,N,007.503,K,D*07
$GPGGA,094207.45,5702.9978804,N,00949.3154951,E,2,4,3.0,-5.944,M,40.592,M,2.1,0123*5E
$GPVTG,092.13,T,-547.77,M,004.051,N,007.502,K,D*04
$GPGGA,094207.50,5702.9978709,N,00949.3155964,E,2,4,3.0,-5.958,M,40.592,M,2.1,0123*52
$GPVTG,093.04,T,-546.86,M,004.031,N,007.465,K,D*0A
$GPGGA,094207.55,5702.9978658,N,00949.3156990,E,2,4,3.0,-5.971,M,40.592,M,2.1,0123*51
$GPVTG,093.44,T,-546.46,M,004.030,N,007.464,K,D*02
$GPGGA,094207.60,5702.9978748,N,00949.3158053,E,2,4,3.0,-5.982,M,40.592,M,2.1,0123*53
$GPVTG,092.49,T,-547.41,M,004.067,N,007.532,K,D*08
$GPGGA,094207.65,5702.9978888,N,00949.3159065,E,2,4,3.0,-5.996,M,40.592,M,2.3,0123*56
$GPVTG,092.53,T,-547.37,M,004.046,N,007.493,K,D*0B
$GPGGA,094207.70,5702.9978889,N,00949.3160029,E,2,4,3.0,-6.014,M,40.592,M,2.3,0123*51
$GPVTG,092.46,T,-547.44,M,003.969,N,007.350,K,D*00
$GPGGA,094207.75,5702.9978915,N,00949.3161051,E,2,4,3.0,-6.036,M,40.592,M,2.3,0123*5E
$GPVTG,092.12,T,-547.78,M,003.972,N,007.356,K,D*02
$GPGGA,094207.80,5702.9978814,N,00949.3162129,E,2,4,3.0,-6.054,M,40.592,M,2.3,0123*5D
$GPVTG,092.93,T,-546.97,M,004.043,N,007.488,K,D*03
$GPGGA,094207.85,5702.9978609,N,00949.3163199,E,2,4,3.0,-6.062,M,40.592,M,2.6,0123*50
$GPVTG,093.31,T,-546.59,M,004.044,N,007.489,K,D*0E
$GPGGA,094207.90,5702.9978869,N,00949.3164240,E,2,4,3.0,-6.084,M,40.592,M,2.6,0123*54
$GPVTG,090.58,T,-549.32,M,004.054,N,007.508,K,D*09
$GPGGA,094207.95,5702.9978778,N,00949.3165209,E,2,4,3.0,-6.105,M,40.592,M,2.6,0123*5A
$GPVTG,091.41,T,-548.49,M,003.987,N,007.385,K,D*0E
$GPGGA,094208.00,5702.9978637,N,00949.3166266,E,2,4,3.0,-6.127,M,40.592,M,2.6,0123*59
$GPVTG,092.59,T,-547.31,M,004.033,N,007.470,K,D*08
$GPGGA,094208.05,5702.9978524,N,00949.3167369,E,2,4,3.0,-6.127,M,40.592,M,2.8,0123*5C
$GPVTG,091.71,T,-548.19,M,004.037,N,007.477,K,D*07
$GPGGA,094208.10,5702.9978616,N,00949.3168369,E,2,4,3.0,-6.143,M,40.592,M,2.8,0123*57
$GPVTG,090.70,T,-549.20,M,004.006,N,007.419,K,D*06
$GPGGA,094208.15,5702.9978659,N,00949.3169479,E,2,4,3.0,-6.164,M,40.592,M,2.8,0123*5B
$GPVTG,090.24,T,-549.66,M,004.108,N,007.608,K,D*08
$GPGGA,094208.20,5702.9978718,N,00949.3170495,E,2,4,3.0,-6.182,M,40.592,M,2.8,0123*5B
$GPVTG,089.67,T,-550.23,M,004.086,N,007.567,K,D*03
$GPGGA,094208.25,5702.9978850,N,00949.3171507,E,2,4,3.0,-6.177,M,40.592,M,3.0,0123*55
$GPVTG,089.87,T,-550.03,M,003.990,N,007.390,K,D*08
$GPGGA,094208.30,5702.9978820,N,00949.3172466,E,2,4,3.0,-6.196,M,40.592,M,3.0,0123*5C
$GPVTG,090.15,T,-549.75,M,003.920,N,007.260,K,D*07
$GPGGA,094208.35,5702.9978884,N,00949.3173478,E,2,4,3.0,-6.216,M,40.592,M,3.0,0123*52
$GPVTG,089.53,T,-550.37,M,003.922,N,007.264,K,D*05
$GPGGA,094208.40,5702.9978895,N,00949.3174511,E,2,4,3.0,-6.236,M,40.592,M,3.0,0123*5B
$GPVTG,089.43,T,-550.47,M,003.950,N,007.315,K,D*01
$GPGGA,094208.45,5702.9978583,N,00949.3175653,E,2,4,3.0,-6.235,M,40.592,M,3.2,0123*51
$GPVTG,088.97,T,-550.93,M,004.032,N,007.467,K,D*08
$GPGGA,094208.50,5702.9978465,N,00949.3176705,E,2,4,3.0,-6.257,M,40.592,M,3.2,0123*59
$GPVTG,090.15,T,-549.75,M,004.066,N,007.531,K,D*08
$GPGGA,094208.55,5702.9978502,N,00949.3177696,E,2,4,3.0,-6.274,M,40.592,M,3.2,0123*57
$GPVTG,089.80,T,-550.10,M,004.026,N,007.455,K,D*00
$GPGGA,094208.60,5702.9978552,N,00949.3178749,E,2,4,3.0,-6.293,M,40.592,M,3.2,0123*51
$GPVTG,089.35,T,-550.55,M,004.060,N,007.520,K,D*0E
$GPGGA,094208.65,5702.9978395,N,00949.3179867,E,2,4,3.0,-6.292,M,40.592,M,3.4,0123*5C
$GPVTG,089.69,T,-550.21,M,004.099,N,007.591,K,D*08
$GPGGA,094208.70,5702.9978309,N,00949.3180845,E,2,4,3.0,-6.307,M,40.592,M,3.4,0123*56
$GPVTG,090.56,T,-549.34,M,004.033,N,007.469,K,D*06
$GPGGA,094208.75,5702.9978326,N,00949.3181863,E,2,4,3.0,-6.322,M,40.592,M,3.4,0123*5C
$GPVTG,090.37,T,-549.53,M,004.024,N,007.453,K,D*0F
$GPGGA,094208.80,5702.9978173,N,00949.3182883,E,2,4,3.0,-6.337,M,40.592,M,3.4,0123*5D
$GPVTG,091.75,T,-548.15,M,004.021,N,007.447,K,D*0B
$GPGGA,094208.85,5702.9978050,N,00949.3183906,E,2,4,3.0,-6.340,M,40.592,M,3.6,0123*57
$GPVTG,091.49,T,-548.41,M,003.995,N,007.398,K,D*01
$GPGGA,094208.90,5702.9978058,N,00949.3184892,E,2,4,3.0,-6.355,M,40.592,M,3.6,0123*54
$GPVTG,091.33,T,-548.57,M,003.955,N,007.325,K,D*01
$GPGGA,094208.95,5702.9978094,N,00949.3185921,E,2,4,3.0,-6.372,M,40.592,M,3.6,0123*5C
$GPVTG,090.92,T,-548.98,M,003.972,N,007.357,K,D*08
$GPGGA,094209.00,5702.9978112,N,00949.3186980,E,2,4,3.0,-6.389,M,40.592,M,3.6,0123*52
$GPVTG,090.69,T,-549.21,M,004.021,N,007.447,K,D*01
$GPGGA,094209.05,5702.9978164,N,00949.3188031,E,2,4,3.0,-6.387,M,40.592,M,1.9,0123*58
$GPVTG,091.15,T,-548.75,M,003.993,N,007.394,K,D*05
$GPGGA,094209.10,5702.9978039,N,00949.3189013,E,2,4,3.0,-6.406,M,40.592,M,1.9,0123*5A
$GPVTG,092.34,T,-547.56,M,003.954,N,007.323,K,D*0C
$GPGGA,094209.15,5702.9978129,N,00949.3190036,E,2,4,3.0,-6.425,M,40.592,M,1.9,0123*51
$GPVTG,091.37,T,-548.53,M,003.966,N,007.345,K,D*07
$GPGGA,094209.20,5702.9978198,N,00949.3191101,E,2,4,3.0,-6.445,M,40.592,M,1.9,0123*5F
$GPVTG,090.65,T,-549.25,M,004.024,N,007.452,K,D*08
$GPGGA,094209.25,5702.9977757,N,00949.3192257,E,2,4,3.0,-6.438,M,40.592,M,2.2,0123*51
$GPVTG,091.20,T,-548.70,M,004.087,N,007.569,K,D*09
$GPGGA,094209.30,5702.9977721,N,00949.3193300,E,2,4,3.0,-6.455,M,40.592,M,2.2,0123*5D
$GPVTG,091.46,T,-548.44,M,004.102,N,007.597,K,D*03
$GPGGA,094209.35,5702.9977678,N,00949.3194327,E,2,4,3.0,-6.472,M,40.592,M,2.2,0123*52
$GPVTG,091.75,T,-548.15,M,004.096,N,007.586,K,D*0B
$GPGGA,094209.40,5702.9977717,N,00949.3195355,E,2,4,3.0,-6.485,M,40.592,M,2.2,0123*54
$GPVTG,091.31,T,-548.59,M,004.090,N,007.575,K,D*09
$GPGGA,094209.45,5702.9977568,N,00949.3196402,E,2,4,3.0,-6.482,M,40.592,M,2.4,0123*5C
$GPVTG,092.01,T,-547.89,M,004.055,N,007.510,K,D*01
$GPGGA,094209.50,5702.9977543,N,00949.3197394,E,2,4,3.0,-6.498,M,40.592,M,2.4,0123*53
$GPVTG,092.14,T,-547.76,M,004.011,N,007.429,K,D*0E
$GPGGA,094209.55,5702.9977585,N,00949.3198458,E,2,4,3.0,-6.514,M,40.592,M,2.4,0123*51
$GPVTG,091.60,T,-548.30,M,004.057,N,007.513,K,D*09
$GPGGA,094209.60,5702.9977502,N,00949.3199504,E,2,4,3.0,-6.533,M,40.592,M,2.4,0123*54
$GPVTG,092.23,T,-547.67,M,004.077,N,007.550,K,D*05
$GPGGA,094209.65,5702.9969132,N,00949.3202011,E,2,5,3.0,-6.060,M,40.592,M,2.7,0123*58
$GPVTG,093.25,T,-546.65,M,004.033,N,007.469,K,D*0A
$GPGGA,094209.70,5702.9969084,N,00949.3203034,E,2,5,3.0,-6.076,M,40.592,M,2.7,0123*51
$GPVTG,093.55,T,-546.35,M,004.031,N,007.465,K,D*06
$GPGGA,094209.75,5702.9969050,N,00949.3204023,E,2,5,3.0,-6.090,M,40.592,M,2.7,0123*54
$GPVTG,093.70,T,-546.20,M,003.990,N,007.389,K,D*05
$GPGGA,094209.80,5702.9969000,N,00949.3205039,E,2,5,3.0,-6.104,M,40.592,M,2.7,0123*5D
$GPVTG,093.97,T,-545.93,M,003.987,N,007.385,K,D*0D
$GPGGA,094209.85,5702.9959775,N,00949.3207829,E,2,5,3.0,-5.575,M,40.592,M,2.9,0123*5A
$GPVTG,096.60,T,-543.30,M,004.129,N,007.648,K,D*00
$GPGGA,094209.90,5702.9959648,N,00949.3208912,E,2,5,3.0,-5.589,M,40.592,M,2.9,0123*54
$GPVTG,097.79,T,-542.11,M,004.199,N,007.776,K,D*0C
$GPGGA,094209.95,5702.9959505,N,00949.3209923,E,2,5,3.0,-5.604,M,40.592,M,2.9,0123*5E
$GPVTG,099.14,T,-540.76,M,004.175,N,007.732,K,D*08
$GPGGA,094210.00,5702.9959353,N,00949.3210987,E,2,5,3.0,-5.620,M,40.592,M,2.9,0123*5F
$GPVTG,100.28,T,-539.62,M,004.216,N,007.808,K,D*0D
$GPGGA,094210.05,5702.9951998,N,00949.3213376,E,2,5,3.0,-5.190,M,40.592,M,1.7,0123*59
$GPVTG,101.82,T,-538.08,M,004.224,N,007.824,K,D*0E
$GPGGA,094210.10,5702.9951832,N,00949.3214366,E,2,5,3.0,-5.196,M,40.592,M,1.7,0123*5C
$GPVTG,103.05,T,-536.85,M,004.176,N,007.734,K,D*02
$GPGGA,094210.15,5702.9951662,N,00949.3215428,E,2,5,3.0,-5.207,M,40.592,M,1.7,0123*55
$GPVTG,103.89,T,-536.01,M,004.221,N,007.817,K,D*05
$GPGGA,094210.20,5702.9951509,N,00949.3216442,E,2,5,3.0,-5.217,M,40.592,M,1.7,0123*53
$GPVTG,104.61,T,-535.29,M,004.204,N,007.786,K,D*0D
$GPGGA,094210.25,5702.9945593,N,00949.3218599,E,2,5,3.0,-4.880,M,40.592,M,2.0,0123*58
$GPVTG,104.73,T,-535.17,M,004.257,N,007.884,K,D*08
$GPGGA,094210.30,5702.9945508,N,00949.3219686,E,2,5,3.0,-4.894,M,40.592,M,2.0,0123*57
$GPVTG,104.26,T,-535.64,M,004.302,N,007.966,K,D*00
$GPGGA,094210.35,5702.9945423,N,00949.3220726,E,2,5,3.0,-4.904,M,40.592,M,2.0,0123*53
$GPVTG,104.01,T,-535.89,M,004.284,N,007.934,K,D*0E
$GPGGA,094210.40,5702.9945219,N,00949.3221750,E,2,5,3.0,-4.919,M,40.592,M,2.0,0123*52
$GPVTG,105.17,T,-534.73,M,004.275,N,007.917,K,D*03
$GPGGA,094210.45,5702.9939957,N,00949.3223889,E,2,5,3.0,-4.602,M,40.592,M,2.2,0123*53
$GPVTG,105.28,T,-534.62,M,004.355,N,008.066,K,D*0C
$GPGGA,094210.50,5702.9939797,N,00949.3224987,E,2,5,3.0,-4.616,M,40.592,M,2.2,0123*58
$GPVTG,105.53,T,-534.37,M,004.408,N,008.164,K,D*0C
$GPGGA,094210.55,5702.9939586,N,00949.3226064,E,2,5,3.0,-4.628,M,40.592,M,2.2,0123*54
$GPVTG,106.37,T,-533.53,M,004.440,N,008.223,K,D*04
$GPGGA,094210.60,5702.9939423,N,00949.3227087,E,2,5,3.0,-4.633,M,40.592,M,2.2,0123*5A
$GPVTG,106.88,T,-533.02,M,004.396,N,008.141,K,D*0F
$GPGGA,094210.65,5702.9934811,N,00949.3228920,E,2,5,3.0,-4.367,M,40.592,M,2.4,0123*56
$GPVTG,108.07,T,-531.83,M,004.316,N,007.993,K,D*0D
$GPGGA,094210.70,5702.9934606,N,00949.3229948,E,2,5,3.0,-4.376,M,40.592,M,2.4,0123*55
$GPVTG,108.83,T,-531.07,M,004.308,N,007.978,K,D*07
$GPGGA,094210.75,5702.9934484,N,00949.3231055,E,2,5,3.0,-4.390,M,40.592,M,2.4,0123*5C
$GPVTG,108.24,T,-531.66,M,004.368,N,008.089,K,D*03
$GPGGA,094210.80,5702.9934376,N,00949.3232145,E,2,5,3.0,-4.402,M,40.592,M,2.4,0123*53
$GPVTG,107.64,T,-532.26,M,004.396,N,008.141,K,D*0B
$GPGGA,094210.85,5702.9930285,N,00949.3233997,E,2,5,3.0,-4.163,M,40.592,M,2.7,0123*58
$GPVTG,107.19,T,-532.71,M,004.389,N,008.129,K,D*03
$GPGGA,094210.90,5702.9930044,N,00949.3235045,E,2,5,3.0,-4.182,M,40.592,M,2.7,0123*5C
$GPVTG,108.22,T,-531.68,M,004.398,N,008.145,K,D*05
$GPGGA,094210.95,5702.9929931,N,00949.3236081,E,2,5,3.0,-4.195,M,40.592,M,2.7,0123*57
$GPVTG,107.84,T,-532.06,M,004.358,N,008.071,K,D*07
$GPGGA,094211.00,5702.9929751,N,00949.3237172,E,2,5,3.0,-4.207,M,40.592,M,2.7,0123*56
$GPVTG,107.92,T,-531.98,M,004.401,N,008.152,K,D*0F
$GPGGA,094211.05,5702.9925948,N,00949.3238988,E,2,5,3.0,-3.983,M,40.592,M,1.6,0123*59
$GPVTG,107.97,T,-531.93,M,004.426,N,008.197,K,D*0D
$GPGGA,094211.10,5702.9925801,N,00949.3240019,E,2,5,3.0,-3.986,M,40.592,M,1.6,0123*5A
$GPVTG,107.95,T,-531.95,M,004.381,N,008.114,K,D*08
$GPGGA,094211.15,5702.9925656,N,00949.3241005,E,2,5,3.0,-3.992,M,40.592,M,1.6,0123*5A
$GPVTG,108.09,T,-531.81,M,004.294,N,007.953,K,D*06
$GPGGA,094211.20,5702.9925475,N,00949.3242072,E,2,5,3.0,-4.000,M,40.592,M,1.6,0123*59
$GPVTG,108.19,T,-531.71,M,004.319,N,007.999,K,D*0A
$GPGGA,094211.25,5702.9922142,N,00949.3243799,E,2,5,3.0,-3.794,M,40.592,M,1.9,0123*5B
$GPVTG,107.37,T,-532.53,M,004.328,N,008.015,K,D*0A
$GPGGA,094211.30,5702.9922027,N,00949.3244858,E,2,5,3.0,-3.807,M,40.592,M,1.9,0123*5D
$GPVTG,106.81,T,-533.09,M,004.323,N,008.007,K,D*00
$GPGGA,094211.35,5702.9921900,N,00949.3245938,E,2,5,3.0,-3.819,M,40.592,M,1.9,0123*5E
$GPVTG,106.33,T,-533.57,M,004.344,N,008.045,K,D*05
$GPGGA,094211.40,5702.9921685,N,00949.3247026,E,2,5,3.0,-3.837,M,40.592,M,1.9,0123*56
$GPVTG,106.78,T,-533.12,M,004.392,N,008.133,K,D*00
$GPGGA,094211.45,5702.9918313,N,00949.3248774,E,2,5,3.0,-3.633,M,40.592,M,2.1,0123*5D
$GPVTG,106.62,T,-533.28,M,004.377,N,008.106,K,D*0F
$GPGGA,094211.50,5702.9918225,N,00949.3249904,E,2,5,3.0,-3.644,M,40.592,M,2.1,0123*55
$GPVTG,105.53,T,-534.37,M,004.436,N,008.216,K,D*07
$GPGGA,094211.55,5702.9917977,N,00949.3250986,E,2,5,3.0,-3.654,M,40.592,M,2.1,0123*50
$GPVTG,106.41,T,-533.49,M,004.465,N,008.270,K,D*0F
$GPGGA,094211.60,5702.9917830,N,00949.3252054,E,2,5,3.0,-3.661,M,40.592,M,2.1,0123*56
$GPVTG,106.27,T,-533.63,M,004.451,N,008.243,K,D*00
$GPGGA,094211.65,5702.9914947,N,00949.3253630,E,2,5,3.0,-3.489,M,40.592,M,2.3,0123*52
$GPVTG,106.59,T,-533.31,M,004.376,N,008.104,K,D*0C
$GPGGA,094211.70,5702.9914722,N,00949.3254631,E,2,5,3.0,-3.493,M,40.592,M,2.3,0123*56
$GPVTG,107.50,T,-532.40,M,004.315,N,007.991,K,D*0D
$GPGGA,094211.75,5702.9914551,N,00949.3255716,E,2,5,3.0,-3.501,M,40.592,M,2.3,0123*5A
$GPVTG,107.39,T,-532.51,M,004.347,N,008.051,K,D*0F
$GPGGA,094211.80,5702.9914389,N,00949.3256830,E,2,5,3.0,-3.510,M,40.592,M,2.3,0123*5B
$GPVTG,107.08,T,-532.82,M,004.405,N,008.157,K,D*05
$GPGGA,094211.85,5702.9911923,N,00949.3258313,E,2,5,3.0,-3.370,M,40.592,M,2.6,0123*50
$GPVTG,106.73,T,-533.17,M,004.319,N,007.999,K,D*0A
$GPGGA,094211.90,5702.9911771,N,00949.3259321,E,2,5,3.0,-3.382,M,40.592,M,2.6,0123*50
$GPVTG,106.80,T,-533.10,M,004.260,N,007.890,K,D*06
$GPGGA,094211.95,5702.9911628,N,00949.3260449,E,2,5,3.0,-3.402,M,40.592,M,2.6,0123*54
$GPVTG,106.22,T,-533.68,M,004.343,N,008.043,K,D*08
$GPGGA,094212.00,5702.9911570,N,00949.3261560,E,2,5,3.0,-3.416,M,40.592,M,2.6,0123*5B
$GPVTG,104.95,T,-534.95,M,004.376,N,008.105,K,D*06
$GPGGA,094212.05,5702.9909133,N,00949.3263137,E,2,5,3.0,-3.256,M,40.592,M,2.8,0123*5C
$GPVTG,105.24,T,-534.66,M,004.348,N,008.053,K,D*0E
$GPGGA,094212.10,5702.9909012,N,00949.3264193,E,2,5,3.0,-3.261,M,40.592,M,2.8,0123*57
$GPVTG,104.84,T,-535.06,M,004.330,N,008.018,K,D*02
$GPGGA,094212.15,5702.9908791,N,00949.3265261,E,2,5,3.0,-3.271,M,40.592,M,2.8,0123*51
$GPVTG,105.49,T,-534.41,M,004.349,N,008.054,K,D*06
$GPGGA,094212.20,5702.9908625,N,00949.3266252,E,2,5,3.0,-3.275,M,40.592,M,2.8,0123*5E
$GPVTG,105.84,T,-534.06,M,004.269,N,007.907,K,D*07
$GPGGA,094212.25,5702.9906791,N,00949.3267668,E,2,5,3.0,-3.172,M,40.592,M,3.0,0123*5A
$GPVTG,104.93,T,-534.97,M,004.277,N,007.920,K,D*02
$GPGGA,094212.30,5702.9906653,N,00949.3268723,E,2,5,3.0,-3.188,M,40.592,M,3.0,0123*55
$GPVTG,104.72,T,-535.18,M,004.272,N,007.912,K,D*0F
$GPGGA,094212.35,5702.9906577,N,00949.3269814,E,2,5,3.0,-3.206,M,40.592,M,3.0,0123*5A
$GPVTG,103.73,T,-536.17,M,004.296,N,007.957,K,D*0E
$GPGGA,094212.40,5702.9906447,N,00949.3270897,E,2,5,3.0,-3.221,M,40.592,M,3.0,0123*5C
$GPVTG,103.42,T,-536.48,M,004.319,N,007.999,K,D*02
$GPGGA,094212.45,5702.9904525,N,00949.3272447,E,2,5,3.0,-3.102,M,40.592,M,3.2,0123*5D
$GPVTG,103.79,T,-536.11,M,004.390,N,008.130,K,D*03
$GPGGA,094212.50,5702.9904391,N,00949.3273490,E,2,5,3.0,-3.108,M,40.592,M,3.2,0123*51
$GPVTG,103.71,T,-536.19,M,004.351,N,008.057,K,D*0E
$GPGGA,094212.55,5702.9904225,N,00949.3274522,E,2,5,3.0,-3.111,M,40.592,M,3.2,0123*5D
$GPVTG,104.02,T,-535.88,M,004.311,N,007.984,K,D*0A
$GPGGA,094212.60,5702.9904039,N,00949.3275581,E,2,5,3.0,-3.117,M,40.592,M,3.2,0123*5A
$GPVTG,104.41,T,-535.49,M,004.313,N,007.988,K,D*0E
$GPGGA,094212.65,5702.9902663,N,00949.3276881,E,2,5,3.0,-3.051,M,40.592,M,3.4,0123*5B
$GPVTG,103.74,T,-536.16,M,004.292,N,007.948,K,D*02
$GPGGA,094212.70,5702.9902595,N,00949.3277912,E,2,5,3.0,-3.069,M,40.592,M,3.4,0123*54
$GPVTG,102.94,T,-536.96,M,004.239,N,007.851,K,D*0D
$GPGGA,094212.75,5702.9902511,N,00949.3278983,E,2,5,3.0,-3.084,M,40.592,M,3.4,0123*59
$GPVTG,102.24,T,-537.66,M,004.244,N,007.860,K,D*00
$GPGGA,094212.80,5702.9902418,N,00949.3280076,E,2,5,3.0,-3.104,M,40.592,M,3.4,0123*56
$GPVTG,101.63,T,-538.27,M,004.275,N,007.918,K,D*06
$GPGGA,094212.85,5702.9900824,N,00949.3281595,E,2,5,3.0,-2.990,M,40.592,M,3.6,0123*5D
$GPVTG,101.72,T,-538.18,M,004.326,N,008.011,K,D*02
$GPGGA,094212.90,5702.9900633,N,00949.3282623,E,2,5,3.0,-2.993,M,40.592,M,3.6,0123*5F
$GPVTG,102.51,T,-537.39,M,004.287,N,007.940,K,D*04
$GPGGA,094212.95,5702.9900484,N,00949.3283651,E,2,5,3.0,-2.997,M,40.592,M,3.6,0123*54
$GPVTG,102.76,T,-537.14,M,004.248,N,007.868,K,D*06
$GPGGA,094213.00,5702.9900360,N,00949.3284685,E,2,5,3.0,-2.999,M,40.592,M,3.6,0123*54
$GPVTG,102.68,T,-537.22,M,004.219,N,007.814,K,D*03
$GPGGA,094213.05,5702.9899343,N,00949.3285946,E,2,5,3.0,-2.951,M,40.592,M,1.9,0123*59
$GPVTG,102.09,T,-537.81,M,004.235,N,007.843,K,D*01
$GPGGA,094213.10,5702.9899273,N,00949.3287021,E,2,5,3.0,-2.965,M,40.592,M,1.9,0123*52
$GPVTG,101.31,T,-538.59,M,004.246,N,007.863,K,D*05
$GPGGA,094213.15,5702.9899124,N,00949.3288100,E,2,5,3.0,-2.983,M,40.592,M,1.9,0123*53
$GPVTG,101.48,T,-538.42,M,004.273,N,007.913,K,D*01
$GPGGA,094213.20,5702.9899026,N,00949.3289178,E,2,5,3.0,-3.000,M,40.592,M,1.9,0123*5B
$GPVTG,101.08,T,-538.82,M,004.285,N,007.936,K,D*07
$GPGGA,094213.25,5702.9897753,N,00949.3290566,E,2,5,3.0,-2.916,M,40.592,M,2.2,0123*51
$GPVTG,101.53,T,-538.37,M,004.283,N,007.931,K,D*06
$GPGGA,094213.30,5702.9897577,N,00949.3291668,E,2,5,3.0,-2.928,M,40.592,M,2.2,0123*50
$GPVTG,101.94,T,-537.96,M,004.335,N,008.028,K,D*0B
$GPGGA,094213.35,5702.9897438,N,00949.3292759,E,2,5,3.0,-2.935,M,40.592,M,2.2,0123*53
$GPVTG,101.98,T,-537.92,M,004.358,N,008.070,K,D*05
$GPGGA,094213.40,5702.9897343,N,00949.3293824,E,2,5,3.0,-2.939,M,40.592,M,2.2,0123*52
$GPVTG,101.62,T,-538.28,M,004.341,N,008.039,K,D*0B
$GPGGA,094213.45,5702.9896544,N,00949.3294996,E,2,5,3.0,-2.890,M,40.592,M,2.4,0123*5C
$GPVTG,101.73,T,-538.17,M,004.246,N,007.864,K,D*0E
$GPGGA,094213.50,5702.9896444,N,00949.3296063,E,2,5,3.0,-2.901,M,40.592,M,2.4,0123*51
$GPVTG,101.41,T,-538.49,M,004.247,N,007.866,K,D*07
$GPGGA,094213.55,5702.9896357,N,00949.3297135,E,2,5,3.0,-2.915,M,40.592,M,2.4,0123*57
$GPVTG,100.96,T,-538.94,M,004.251,N,007.873,K,D*0F
$GPGGA,094213.60,5702.9896225,N,00949.3298203,E,2,5,3.0,-2.932,M,40.592,M,2.4,0123*59
$GPVTG,101.05,T,-538.85,M,004.259,N,007.887,K,D*07
$GPGGA,094213.65,5702.9895514,N,00949.3299429,E,2,5,3.0,-2.894,M,40.592,M,2.7,0123*5B
$GPVTG,101.13,T,-538.77,M,004.238,N,007.849,K,D*08
$GPGGA,094213.70,5702.9895430,N,00949.3300462,E,2,5,3.0,-2.910,M,40.592,M,2.7,0123*5B
$GPVTG,100.79,T,-539.11,M,004.200,N,007.778,K,D*02
$GPGGA,094213.75,5702.9895270,N,00949.3301505,E,2,5,3.0,-2.927,M,40.592,M,2.7,0123*59
$GPVTG,101.28,T,-538.62,M,004.193,N,007.765,K,D*07
$GPGGA,094213.80,5702.9895157,N,00949.3302581,E,2,5,3.0,-2.942,M,40.592,M,2.7,0123*59
$GPVTG,101.12,T,-538.78,M,004.217,N,007.810,K,D*07
$GPGGA,094213.85,5702.9894461,N,00949.3303896,E,2,5,3.0,-2.894,M,40.592,M,2.9,0123*53
$GPVTG,100.38,T,-539.52,M,004.267,N,007.902,K,D*02
$GPGGA,094213.90,5702.9894346,N,00949.3304984,E,2,5,3.0,-2.909,M,40.592,M,2.9,0123*55
$GPVTG,100.30,T,-539.60,M,004.295,N,007.955,K,D*04
$GPGGA,094213.95,5702.9894279,N,00949.3306010,E,2,5,3.0,-2.920,M,40.592,M,2.9,0123*50
$GPVTG,099.88,T,-540.02,M,004.239,N,007.851,K,D*0F
$GPGGA,094214.00,5702.9894095,N,00949.3307049,E,2,5,3.0,-2.932,M,40.592,M,2.9,0123*55
$GPVTG,100.73,T,-539.17,M,004.224,N,007.824,K,D*0E
$GPGGA,094214.05,5702.9893621,N,00949.3308217,E,2,5,3.0,-2.894,M,40.592,M,1.7,0123*58
$GPVTG,100.48,T,-539.42,M,004.167,N,007.717,K,D*0D
$GPGGA,094214.10,5702.9893542,N,00949.3309295,E,2,5,3.0,-2.906,M,40.592,M,1.7,0123*5B
$GPVTG,099.99,T,-539.91,M,004.195,N,007.770,K,D*02
