$GPGGA,123651.55,5703.3627303,N,00952.2578989,E,2,12,0.8,-0.976,M,40.593,M,3.9,0123*63\r\n
$GPGGA,123651.60,5703.3627556,N,00952.2579158,E,2,12,0.8,-0.977,M,40.593,M,3.9,0123*67\r\n
$GPGGA,123651.65,5703.3627816,N,00952.2579340,E,2,12,0.8,-0.973,M,40.593,M,4.1,0123*6B\r\n
$GPGGA,123651.70,5703.3628071,N,00952.2579517,E,2,12,0.8,-0.972,M,40.593,M,4.1,0123*6C\r\n
$GPGGA,123651.75,5703.3628327,N,00952.2579700,E,2,12,0.8,-0.967,M,40.593,M,4.1,0123*69\r\n
$GPGGA,123651.80,5703.3628576,N,00952.2579881,E,2,12,0.8,-0.961,M,40.593,M,4.1,0123*61\r\n
$GPGGA,123651.85,5703.3628824,N,00952.2580058,E,2,12,0.8,-0.958,M,40.593,M,4.3,0123*6C\r\n
$GPGGA,123651.90,5703.3629081,N,00952.2580248,E,2,12,0.8,-0.953,M,40.593,M,4.3,0123*66\r\n
$GPGGA,123651.95,5703.3629329,N,00952.2580439,E,2,12,0.8,-0.950,M,40.593,M,4.3,0123*61\r\n
$GPGGA,123652.00,5703.3629581,N,00952.2580620,E,2,12,0.8,-0.948,M,40.593,M,4.3,0123*69\r\n
$GPGGA,123652.05,5703.3629848,N,00952.2580809,E,2,12,0.8,-0.943,M,40.593,M,4.5,0123*6C\r\n
$GPGGA,123652.10,5703.3630105,N,00952.2580990,E,2,12,0.8,-0.942,M,40.593,M,4.5,0123*60\r\n
$GPGGA,123652.15,5703.3630367,N,00952.2581166,E,2,12,0.8,-0.942,M,40.593,M,4.5,0123*63\r\n
$GPGGA,123652.20,5703.3630631,N,00952.2581329,E,2,12,0.8,-0.943,M,40.593,M,4.5,0123*6B\r\n
$GPGGA,123652.25,5703.3630905,N,00952.2581498,E,2,12,0.8,-0.941,M,40.593,M,1.8,0123*61\r\n
$GPGGA,123652.30,5703.3631171,N,00952.2581662,E,2,12,0.8,-0.943,M,40.593,M,1.8,0123*6A\r\n
$GPGGA,123652.35,5703.3631443,N,00952.2581819,E,2,12,0.8,-0.947,M,40.593,M,1.8,0123*6D\r\n
$GPGGA,123652.40,5703.3631717,N,00952.2581973,E,2,12,0.8,-0.949,M,40.593,M,1.8,0123*6E\r\n
$GPGGA,123652.45,5703.3631991,N,00952.2582131,E,2,12,0.8,-0.951,M,40.593,M,2.0,0123*64\r\n
$GPGGA,123652.50,5703.3632252,N,00952.2582288,E,2,12,0.8,-0.955,M,40.593,M,2.0,0123*62\r\n
$GPGGA,123652.55,5703.3632522,N,00952.2582450,E,2,12,0.8,-0.958,M,40.593,M,2.0,0123*69\r\n
$GPGGA,123652.60,5703.3632783,N,00952.2582607,E,2,12,0.8,-0.963,M,40.593,M,2.0,0123*6E\r\n
$GPGGA,123652.65,5703.3633053,N,00952.2582755,E,2,12,0.8,-0.963,M,40.593,M,2.3,0123*65\r\n
$GPGGA,123652.70,5703.3633321,N,00952.2582901,E,2,12,0.8,-0.964,M,40.593,M,2.3,0123*6F\r\n
$GPGGA,123652.75,5703.3633594,N,00952.2583050,E,2,12,0.8,-0.966,M,40.593,M,2.3,0123*6C\r\n
$GPGGA,123652.80,5703.3633871,N,00952.2583197,E,2,12,0.8,-0.967,M,40.593,M,2.3,0123*6B\r\n
$GPGGA,123652.85,5703.3634143,N,00952.2583343,E,2,12,0.8,-0.966,M,40.593,M,2.5,0123*6D\r\n
$GPGGA,123652.90,5703.3634408,N,00952.2583503,E,2,12,0.8,-0.967,M,40.593,M,2.5,0123*60\r\n
$GPGGA,123652.95,5703.3634681,N,00952.2583662,E,2,12,0.8,-0.967,M,40.593,M,2.5,0123*62\r\n
$GPGGA,123653.00,5703.3634946,N,00952.2583819,E,2,12,0.8,-0.967,M,40.593,M,2.5,0123*69\r\n
$GPGGA,123653.05,5703.3635215,N,00952.2583996,E,2,12,0.8,-0.962,M,40.593,M,2.7,0123*61\r\n
$GPGGA,123653.10,5703.3635476,N,00952.2584166,E,2,12,0.8,-0.958,M,40.593,M,2.7,0123*6F\r\n
$GPGGA,123653.15,5703.3635737,N,00952.2584345,E,2,12,0.8,-0.955,M,40.593,M,2.7,0123*62\r\n
$GPGGA,123653.20,5703.3636004,N,00952.2584527,E,2,12,0.8,-0.952,M,40.593,M,2.7,0123*65\r\n
$GPGGA,123653.25,5703.3636271,N,00952.2584722,E,2,12,0.8,-0.953,M,40.593,M,1.6,0123*64\r\n
$GPGGA,123653.30,5703.3636531,N,00952.2584928,E,2,12,0.8,-0.952,M,40.593,M,1.6,0123*66\r\n
$GPGGA,123653.35,5703.3636793,N,00952.2585127,E,2,12,0.8,-0.951,M,40.593,M,1.6,0123*6C\r\n
$GPGGA,123653.40,5703.3637058,N,00952.2585319,E,2,12,0.8,-0.950,M,40.593,M,1.6,0123*61\r\n
$GPGGA,123653.45,5703.3637331,N,00952.2585530,E,2,12,0.8,-0.946,M,40.593,M,1.8,0123*6C\r\n
$GPGGA,123653.50,5703.3637599,N,00952.2585720,E,2,12,0.8,-0.944,M,40.593,M,1.8,0123*6D\r\n
$GPGGA,123653.55,5703.3637861,N,00952.2585902,E,2,12,0.8,-0.943,M,40.593,M,1.8,0123*6B\r\n
$GPGGA,123653.60,5703.3638128,N,00952.2586077,E,2,12,0.8,-0.945,M,40.593,M,1.8,0123*68\r\n
$GPGGA,123653.65,5703.3638412,N,00952.2586243,E,2,12,0.8,-0.943,M,40.593,M,2.0,0123*69\r\n
$GPGGA,123653.70,5703.3638681,N,00952.2586393,E,2,12,0.8,-0.944,M,40.593,M,2.0,0123*6E\r\n
$GPGGA,123653.75,5703.3638959,N,00952.2586527,E,2,12,0.8,-0.945,M,40.593,M,2.0,0123*69\r\n
$GPGGA,123653.80,5703.3639244,N,00952.2586662,E,2,12,0.8,-0.948,M,40.593,M,2.0,0123*6A\r\n
$GPGGA,123653.85,5703.3639528,N,00952.2586803,E,2,12,0.8,-0.950,M,40.593,M,2.2,0123*60\r\n
$GPGGA,123653.90,5703.3639810,N,00952.2586943,E,2,12,0.8,-0.951,M,40.593,M,2.2,0123*66\r\n
$GPGGA,123653.95,5703.3640086,N,00952.2587089,E,2,12,0.8,-0.952,M,40.593,M,2.2,0123*67\r\n
$GPGGA,123654.00,5703.3640360,N,00952.2587223,E,2,12,0.8,-0.956,M,40.593,M,2.2,0123*61\r\n
$GPGGA,123654.05,5703.3640636,N,00952.2587368,E,2,12,0.8,-0.958,M,40.593,M,2.5,0123*65\r\n
$GPGGA,123654.10,5703.3640913,N,00952.2587531,E,2,12,0.8,-0.959,M,40.593,M,2.5,0123*62\r\n
$GPGGA,123654.15,5703.3641196,N,00952.2587702,E,2,12,0.8,-0.958,M,40.593,M,2.5,0123*60\r\n
$GPGGA,123654.20,5703.3641464,N,00952.2587868,E,2,12,0.8,-0.961,M,40.593,M,2.5,0123*67\r\n
$GPGGA,123654.25,5703.3641736,N,00952.2588048,E,2,12,0.8,-0.957,M,40.593,M,2.7,0123*64\r\n
$GPGGA,123654.30,5703.3641998,N,00952.2588234,E,2,12,0.8,-0.957,M,40.593,M,2.7,0123*63\r\n
$GPGGA,123654.35,5703.3642272,N,00952.2588429,E,2,12,0.8,-0.955,M,40.593,M,2.7,0123*62\r\n
$GPGGA,123654.40,5703.3642545,N,00952.2588618,E,2,12,0.8,-0.954,M,40.593,M,2.7,0123*62\r\n
$GPGGA,123654.45,5703.3642812,N,00952.2588793,E,2,12,0.8,-0.952,M,40.593,M,2.9,0123*62\r\n
$GPGGA,123654.50,5703.3643076,N,00952.2588970,E,2,12,0.8,-0.949,M,40.593,M,2.9,0123*64\r\n
$GPGGA,123654.55,5703.3643341,N,00952.2589153,E,2,12,0.8,-0.946,M,40.593,M,2.9,0123*61\r\n
$GPGGA,123654.60,5703.3643611,N,00952.2589334,E,2,12,0.8,-0.944,M,40.593,M,2.9,0123*66\r\n
$GPGGA,123654.65,5703.3643894,N,00952.2589515,E,2,12,0.8,-0.939,M,40.593,M,3.1,0123*66\r\n
$GPGGA,123654.70,5703.3644171,N,00952.2589692,E,2,12,0.8,-0.937,M,40.593,M,3.1,0123*65\r\n
$GPGGA,123654.75,5703.3644450,N,00952.2589858,E,2,12,0.8,-0.937,M,40.593,M,3.1,0123*6E\r\n
$GPGGA,123654.80,5703.3644725,N,00952.2590021,E,2,12,0.8,-0.937,M,40.593,M,3.1,0123*6B\r\n
$GPGGA,123654.85,5703.3645005,N,00952.2590177,E,2,12,0.8,-0.940,M,40.593,M,3.3,0123*6A\r\n
$GPGGA,123654.90,5703.3645283,N,00952.2590334,E,2,12,0.8,-0.944,M,40.593,M,3.3,0123*63\r\n
$GPGGA,123654.95,5703.3645560,N,00952.2590506,E,2,12,0.8,-0.946,M,40.593,M,3.3,0123*69\r\n
$GPGGA,123655.00,5703.3645835,N,00952.2590665,E,2,12,0.8,-0.948,M,40.593,M,3.3,0123*61\r\n
$GPGGA,123655.05,5703.3646117,N,00952.2590824,E,2,12,0.8,-0.942,M,40.593,M,3.5,0123*69\r\n
$GPGGA,123655.10,5703.3646402,N,00952.2590973,E,2,12,0.8,-0.943,M,40.593,M,3.5,0123*6E\r\n
$GPGGA,123655.15,5703.3646680,N,00952.2591129,E,2,12,0.8,-0.945,M,40.593,M,3.5,0123*63\r\n
$GPGGA,123655.20,5703.3646956,N,00952.2591282,E,2,12,0.8,-0.947,M,40.593,M,3.5,0123*61\r\n
$GPGGA,123655.25,5703.3647239,N,00952.2591438,E,2,12,0.8,-0.947,M,40.593,M,3.7,0123*62\r\n
$GPGGA,123655.30,5703.3647520,N,00952.2591590,E,2,12,0.8,-0.948,M,40.593,M,3.7,0123*65\r\n
$GPGGA,123655.35,5703.3647796,N,00952.2591748,E,2,12,0.8,-0.950,M,40.593,M,3.7,0123*61\r\n
$GPGGA,123655.40,5703.3648076,N,00952.2591904,E,2,12,0.8,-0.952,M,40.593,M,3.7,0123*61\r\n
$GPGGA,123655.45,5703.3648358,N,00952.2592063,E,2,12,0.8,-0.954,M,40.593,M,3.9,0123*68\r\n
$GPGGA,123655.50,5703.3648641,N,00952.2592229,E,2,12,0.8,-0.955,M,40.593,M,3.9,0123*6C\r\n
$GPGGA,123655.55,5703.3648922,N,00952.2592393,E,2,12,0.8,-0.959,M,40.593,M,3.9,0123*6F\r\n
$GPGGA,123655.60,5703.3649206,N,00952.2592555,E,2,12,0.8,-0.960,M,40.593,M,3.9,0123*63\r\n
$GPGGA,123655.65,5703.3649485,N,00952.2592727,E,2,12,0.8,-0.958,M,40.593,M,4.1,0123*68\r\n
$GPGGA,123655.70,5703.3649768,N,00952.2592900,E,2,12,0.8,-0.958,M,40.593,M,4.1,0123*67\r\n
$GPGGA,123655.75,5703.3650043,N,00952.2593078,E,2,12,0.8,-0.958,M,40.593,M,4.1,0123*63\r\n
$GPGGA,123655.80,5703.3650312,N,00952.2593269,E,2,12,0.8,-0.956,M,40.593,M,4.1,0123*62\r\n
$GPGGA,123655.85,5703.3650582,N,00952.2593464,E,2,12,0.8,-0.954,M,40.593,M,4.3,0123*63\r\n
$GPGGA,123655.90,5703.3650859,N,00952.2593645,E,2,12,0.8,-0.949,M,40.593,M,4.3,0123*61\r\n
$GPGGA,123655.95,5703.3651136,N,00952.2593831,E,2,12,0.8,-0.941,M,40.593,M,4.3,0123*60\r\n
$GPGGA,123656.00,5703.3651408,N,00952.2594009,E,2,12,0.8,-0.937,M,40.593,M,4.3,0123*62\r\n
$GPGGA,123656.05,5703.3651691,N,00952.2594193,E,2,12,0.8,-0.931,M,40.593,M,4.5,0123*67\r\n
$GPGGA,123656.10,5703.3651968,N,00952.2594382,E,2,12,0.8,-0.930,M,40.593,M,4.5,0123*69\r\n
$GPGGA,123656.15,5703.3652244,N,00952.2594574,E,2,12,0.8,-0.929,M,40.593,M,4.5,0123*6D\r\n
$GPGGA,123656.20,5703.3652530,N,00952.2594751,E,2,12,0.8,-0.927,M,40.593,M,4.5,0123*64\r\n
$GPGGA,123656.25,5703.3652814,N,00952.2594916,E,2,12,0.8,-0.929,M,40.593,M,1.8,0123*61\r\n
$GPGGA,123656.30,5703.3653106,N,00952.2595083,E,2,12,0.8,-0.929,M,40.593,M,1.8,0123*6A\r\n
$GPGGA,123656.35,5703.3653396,N,00952.2595247,E,2,12,0.8,-0.928,M,40.593,M,1.8,0123*6F\r\n
$GPGGA,123656.40,5703.3653688,N,00952.2595388,E,2,12,0.8,-0.931,M,40.593,M,1.8,0123*6D\r\n
$GPGGA,123656.45,5703.3653975,N,00952.2595517,E,2,12,0.8,-0.941,M,40.593,M,2.0,0123*69\r\n
$GPGGA,123656.50,5703.3654258,N,00952.2595656,E,2,12,0.8,-0.946,M,40.593,M,2.0,0123*6F\r\n
$GPGGA,123656.55,5703.3654549,N,00952.2595794,E,2,12,0.8,-0.950,M,40.593,M,2.0,0123*65\r\n
$GPGGA,123656.60,5703.3654842,N,00952.2595960,E,2,12,0.8,-0.951,M,40.593,M,2.0,0123*61\r\n
$GPGGA,123656.65,5703.3655132,N,00952.2596121,E,2,12,0.8,-0.948,M,40.593,M,2.3,0123*6E\r\n
$GPGGA,123656.70,5703.3655419,N,00952.2596265,E,2,12,0.8,-0.949,M,40.593,M,2.3,0123*64\r\n
$GPGGA,123656.75,5703.3655705,N,00952.2596418,E,2,12,0.8,-0.949,M,40.593,M,2.3,0123*63\r\n
$GPGGA,123656.80,5703.3655985,N,00952.2596584,E,2,12,0.8,-0.948,M,40.593,M,2.3,0123*6A\r\n
$GPGGA,123656.85,5703.3656269,N,00952.2596767,E,2,12,0.8,-0.949,M,40.593,M,2.5,0123*6D\r\n
$GPGGA,123656.90,5703.3656553,N,00952.2596961,E,2,12,0.8,-0.947,M,40.593,M,2.5,0123*61\r\n
$GPGGA,123656.95,5703.3656825,N,00952.2597170,E,2,12,0.8,-0.946,M,40.593,M,2.5,0123*60\r\n
$GPGGA,123657.00,5703.3657102,N,00952.2597380,E,2,12,0.8,-0.945,M,40.593,M,2.5,0123*6E\r\n
$GPGGA,123657.05,5703.3657379,N,00952.2597598,E,2,12,0.8,-0.941,M,40.593,M,2.7,0123*6C\r\n
$GPGGA,123657.10,5703.3657655,N,00952.2597809,E,2,12,0.8,-0.939,M,40.593,M,2.7,0123*69\r\n
$GPGGA,123657.15,5703.3657940,N,00952.2598023,E,2,12,0.8,-0.933,M,40.593,M,2.7,0123*62\r\n
$GPGGA,123657.20,5703.3658215,N,00952.2598225,E,2,12,0.8,-0.930,M,40.593,M,2.7,0123*67\r\n
$GPGGA,123657.25,5703.3658499,N,00952.2598423,E,2,12,0.8,-0.924,M,40.593,M,1.6,0123*67\r\n
$GPGGA,123657.30,5703.3658776,N,00952.2598619,E,2,12,0.8,-0.922,M,40.593,M,1.6,0123*6C\r\n
$GPGGA,123657.35,5703.3659052,N,00952.2598793,E,2,12,0.8,-0.923,M,40.593,M,1.6,0123*6B\r\n
$GPGGA,123657.40,5703.3659330,N,00952.2598969,E,2,12,0.8,-0.923,M,40.593,M,1.6,0123*65\r\n
$GPGGA,123657.45,5703.3659622,N,00952.2599132,E,2,12,0.8,-0.923,M,40.593,M,1.8,0123*6F\r\n
$GPGGA,123657.50,5703.3659916,N,00952.2599309,E,2,12,0.8,-0.925,M,40.593,M,1.8,0123*6F\r\n
$GPGGA,123657.55,5703.3660205,N,00952.2599475,E,2,12,0.8,-0.928,M,40.593,M,1.8,0123*68\r\n
$GPGGA,123657.60,5703.3660496,N,00952.2599634,E,2,12,0.8,-0.932,M,40.593,M,1.8,0123*6E\r\n
$GPGGA,123657.65,5703.3660799,N,00952.2599798,E,2,12,0.8,-0.935,M,40.593,M,2.0,0123*6C\r\n
$GPGGA,123657.70,5703.3661094,N,00952.2599963,E,2,12,0.8,-0.941,M,40.593,M,2.0,0123*6A\r\n
$GPGGA,123657.75,5703.3661389,N,00952.2600133,E,2,12,0.8,-0.944,M,40.593,M,2.0,0123*6B\r\n
$GPGGA,123657.80,5703.3661684,N,00952.2600289,E,2,12,0.8,-0.947,M,40.593,M,2.0,0123*68\r\n
$GPGGA,123657.85,5703.3661972,N,00952.2600454,E,2,12,0.8,-0.947,M,40.593,M,2.2,0123*6F\r\n
$GPGGA,123657.90,5703.3662260,N,00952.2600631,E,2,12,0.8,-0.947,M,40.593,M,2.2,0123*61\r\n
$GPGGA,123657.95,5703.3662542,N,00952.2600814,E,2,12,0.8,-0.947,M,40.593,M,2.2,0123*6A\r\n
$GPGGA,123658.00,5703.3662826,N,00952.2601006,E,2,12,0.8,-0.947,M,40.593,M,2.2,0123*6C\r\n
$GPGGA,123658.05,5703.3663111,N,00952.2601212,E,2,12,0.8,-0.943,M,40.593,M,2.5,0123*61\r\n
$GPGGA,123658.10,5703.3663387,N,00952.2601404,E,2,12,0.8,-0.940,M,40.593,M,2.5,0123*6A\r\n
$GPGGA,123658.15,5703.3663673,N,00952.2601591,E,2,12,0.8,-0.936,M,40.593,M,2.5,0123*6D\r\n
$GPGGA,123658.20,5703.3663957,N,00952.2601784,E,2,12,0.8,-0.932,M,40.593,M,2.5,0123*60\r\n
$GPGGA,123658.25,5703.3664243,N,00952.2601989,E,2,12,0.8,-0.929,M,40.593,M,2.7,0123*67\r\n
$GPGGA,123658.30,5703.3664524,N,00952.2602192,E,2,12,0.8,-0.927,M,40.593,M,2.7,0123*6A\r\n
$GPGGA,123658.35,5703.3664800,N,00952.2602408,E,2,12,0.8,-0.925,M,40.593,M,2.7,0123*60\r\n
$GPGGA,123658.40,5703.3665087,N,00952.2602620,E,2,12,0.8,-0.925,M,40.593,M,2.7,0123*6C\r\n
$GPGGA,123658.45,5703.3665371,N,00952.2602824,E,2,12,0.8,-0.923,M,40.593,M,2.9,0123*61\r\n
$GPGGA,123658.50,5703.3665660,N,00952.2603023,E,2,12,0.8,-0.922,M,40.593,M,2.9,0123*6F\r\n
$GPGGA,123658.55,5703.3665944,N,00952.2603213,E,2,12,0.8,-0.923,M,40.593,M,2.9,0123*63\r\n
$GPGGA,123658.60,5703.3666227,N,00952.2603399,E,2,12,0.8,-0.923,M,40.593,M,2.9,0123*6B\r\n
$GPGGA,123658.65,5703.3666522,N,00952.2603595,E,2,12,0.8,-0.922,M,40.593,M,3.1,0123*6E\r\n
$GPGGA,123658.70,5703.3666815,N,00952.2603777,E,2,12,0.8,-0.921,M,40.593,M,3.1,0123*6E\r\n
$GPGGA,123658.75,5703.3667102,N,00952.2603963,E,2,12,0.8,-0.923,M,40.593,M,3.1,0123*6C\r\n
$GPGGA,123658.80,5703.3667393,N,00952.2604140,E,2,12,0.8,-0.925,M,40.593,M,3.1,0123*64\r\n
$GPGGA,123658.85,5703.3667683,N,00952.2604302,E,2,12,0.8,-0.930,M,40.593,M,3.3,0123*67\r\n
$GPGGA,123658.90,5703.3667972,N,00952.2604465,E,2,12,0.8,-0.933,M,40.593,M,3.3,0123*67\r\n
$GPGGA,123658.95,5703.3668267,N,00952.2604646,E,2,12,0.8,-0.933,M,40.593,M,3.3,0123*61\r\n
$GPGGA,123659.00,5703.3668565,N,00952.2604822,E,2,12,0.8,-0.936,M,40.593,M,3.3,0123*60\r\n
$GPGGA,123659.05,5703.3668864,N,00952.2605001,E,2,12,0.8,-0.937,M,40.593,M,3.5,0123*66\r\n
$GPGGA,123659.10,5703.3669156,N,00952.2605176,E,2,12,0.8,-0.941,M,40.593,M,3.5,0123*6B\r\n
$GPGGA,123659.15,5703.3669447,N,00952.2605352,E,2,12,0.8,-0.944,M,40.593,M,3.5,0123*6A\r\n
$GPGGA,123659.20,5703.3669734,N,00952.2605555,E,2,12,0.8,-0.945,M,40.593,M,3.5,0123*6B\r\n
$GPGGA,123659.25,5703.3670016,N,00952.2605764,E,2,12,0.8,-0.943,M,40.593,M,3.7,0123*65\r\n
$GPGGA,123659.30,5703.3670303,N,00952.2605971,E,2,12,0.8,-0.944,M,40.593,M,3.7,0123*6B\r\n
$GPGGA,123659.35,5703.3670586,N,00952.2606176,E,2,12,0.8,-0.943,M,40.593,M,3.7,0123*6E\r\n
$GPGGA,123659.40,5703.3670875,N,00952.2606395,E,2,12,0.8,-0.940,M,40.593,M,3.7,0123*61\r\n
$GPGGA,123659.45,5703.3671159,N,00952.2606600,E,2,12,0.8,-0.937,M,40.593,M,3.9,0123*65\r\n
$GPGGA,123659.50,5703.3671443,N,00952.2606803,E,2,12,0.8,-0.934,M,40.593,M,3.9,0123*61\r\n
$GPGGA,123659.55,5703.3671730,N,00952.2607022,E,2,12,0.8,-0.931,M,40.593,M,3.9,0123*6C\r\n
$GPGGA,123659.60,5703.3672012,N,00952.2607245,E,2,12,0.8,-0.926,M,40.593,M,3.9,0123*6B\r\n
$GPGGA,123659.65,5703.3672294,N,00952.2607465,E,2,12,0.8,-0.924,M,40.593,M,4.1,0123*6B\r\n
$GPGGA,123659.70,5703.3672575,N,00952.2607670,E,2,12,0.8,-0.921,M,40.593,M,4.1,0123*64\r\n
$GPGGA,123659.75,5703.3672864,N,00952.2607868,E,2,12,0.8,-0.917,M,40.593,M,4.1,0123*6E\r\n
$GPGGA,123659.80,5703.3673163,N,00952.2608055,E,2,12,0.8,-0.916,M,40.593,M,4.1,0123*63\r\n
$GPGGA,123659.85,5703.3673464,N,00952.2608246,E,2,12,0.8,-0.915,M,40.593,M,4.3,0123*65\r\n
$GPGGA,123659.90,5703.3673763,N,00952.2608420,E,2,12,0.8,-0.916,M,40.593,M,4.3,0123*60\r\n
$GPGGA,123659.95,5703.3674066,N,00952.2608590,E,2,12,0.8,-0.916,M,40.593,M,4.3,0123*6A\r\n
$GPGGA,123700.00,5703.3674370,N,00952.2608772,E,2,12,0.8,-0.920,M,40.593,M,4.3,0123*64\r\n
$GPGGA,123700.05,5703.3674676,N,00952.2608952,E,2,12,0.8,-0.920,M,40.593,M,4.5,0123*68\r\n
$GPGGA,123700.10,5703.3674973,N,00952.2609121,E,2,12,0.8,-0.923,M,40.593,M,4.5,0123*68\r\n
$GPGGA,123700.15,5703.3675264,N,00952.2609312,E,2,12,0.8,-0.927,M,40.593,M,4.5,0123*67\r\n
$GPGGA,123700.20,5703.3675558,N,00952.2609497,E,2,12,0.8,-0.929,M,40.593,M,4.5,0123*6D\r\n
$GPGGA,123700.25,5703.3675853,N,00952.2609692,E,2,12,0.8,-0.932,M,40.593,M,1.8,0123*6B\r\n
$GPGGA,123700.30,5703.3676147,N,00952.2609896,E,2,12,0.8,-0.932,M,40.593,M,1.8,0123*6A\r\n
$GPGGA,123700.35,5703.3676436,N,00952.2610098,E,2,12,0.8,-0.931,M,40.593,M,1.8,0123*61\r\n
$GPGGA,123700.40,5703.3676719,N,00952.2610299,E,2,12,0.8,-0.931,M,40.593,M,1.8,0123*6E\r\n
$GPGGA,123700.45,5703.3677004,N,00952.2610510,E,2,12,0.8,-0.928,M,40.593,M,2.0,0123*64\r\n
$GPGGA,123700.50,5703.3677297,N,00952.2610733,E,2,12,0.8,-0.925,M,40.593,M,2.0,0123*66\r\n
$GPGGA,123700.55,5703.3677592,N,00952.2610943,E,2,12,0.8,-0.921,M,40.593,M,2.0,0123*6C\r\n
$GPGGA,123700.60,5703.3677889,N,00952.2611136,E,2,12,0.8,-0.918,M,40.593,M,2.0,0123*6C\r\n
$GPGGA,123700.65,5703.3678187,N,00952.2611335,E,2,12,0.8,-0.919,M,40.593,M,2.3,0123*62\r\n
$GPGGA,123700.70,5703.3678474,N,00952.2611537,E,2,12,0.8,-0.917,M,40.593,M,2.3,0123*65\r\n
$GPGGA,123700.75,5703.3678768,N,00952.2611748,E,2,12,0.8,-0.914,M,40.593,M,2.3,0123*67\r\n
$GPGGA,123700.80,5703.3679073,N,00952.2611954,E,2,12,0.8,-0.910,M,40.593,M,2.3,0123*66\r\n
$GPGGA,123700.85,5703.3679381,N,00952.2612156,E,2,12,0.8,-0.908,M,40.593,M,2.5,0123*6B\r\n
$GPGGA,123700.90,5703.3679700,N,00952.2612368,E,2,12,0.8,-0.905,M,40.593,M,2.5,0123*60\r\n
$GPGGA,123700.95,5703.3680018,N,00952.2612576,E,2,12,0.8,-0.901,M,40.593,M,2.5,0123*60\r\n
$GPGGA,123701.00,5703.3680345,N,00952.2612779,E,2,12,0.8,-0.899,M,40.593,M,2.5,0123*6B\r\n
$GPGGA,123701.05,5703.3680677,N,00952.2612992,E,2,12,0.8,-0.895,M,40.593,M,2.7,0123*6F\r\n
$GPGGA,123701.10,5703.3681009,N,00952.2613207,E,2,12,0.8,-0.892,M,40.593,M,2.7,0123*64\r\n
$GPGGA,123701.15,5703.3681353,N,00952.2613427,E,2,12,0.8,-0.887,M,40.593,M,2.7,0123*6D\r\n
$GPGGA,123701.20,5703.3681704,N,00952.2613636,E,2,12,0.8,-0.885,M,40.593,M,2.7,0123*6D\r\n
$GPGGA,123701.25,5703.3682059,N,00952.2613852,E,2,12,0.8,-0.880,M,40.593,M,1.6,0123*6F\r\n
$GPGGA,123701.30,5703.3682424,N,00952.2614057,E,2,12,0.8,-0.876,M,40.593,M,1.6,0123*66\r\n
$GPGGA,123701.35,5703.3682811,N,00952.2614273,E,2,12,0.8,-0.870,M,40.593,M,1.6,0123*6B\r\n
$GPGGA,123701.40,5703.3683203,N,00952.2614501,E,2,12,0.8,-0.865,M,40.593,M,1.6,0123*67\r\n
$GPGGA,123701.45,5703.3683610,N,00952.2614727,E,2,12,0.8,-0.864,M,40.593,M,1.8,0123*6D\r\n
$GPGGA,123701.50,5703.3684027,N,00952.2614952,E,2,12,0.8,-0.862,M,40.593,M,1.8,0123*66\r\n
$GPGGA,123701.55,5703.3684444,N,00952.2615185,E,2,12,0.8,-0.861,M,40.593,M,1.8,0123*62\r\n
$GPGGA,123701.60,5703.3684872,N,00952.2615424,E,2,12,0.8,-0.859,M,40.593,M,1.8,0123*68\r\n
$GPGGA,123701.65,5703.3685318,N,00952.2615686,E,2,12,0.8,-0.860,M,40.593,M,2.0,0123*60\r\n
$GPGGA,123701.70,5703.3685775,N,00952.2615942,E,2,12,0.8,-0.859,M,40.593,M,2.0,0123*66\r\n
$GPGGA,123701.75,5703.3686236,N,00952.2616190,E,2,12,0.8,-0.856,M,40.593,M,2.0,0123*69\r\n
$GPGGA,123701.80,5703.3686698,N,00952.2616442,E,2,12,0.8,-0.853,M,40.593,M,2.0,0123*6C\r\n
$GPGGA,123701.85,5703.3687177,N,00952.2616700,E,2,12,0.8,-0.844,M,40.593,M,2.2,0123*6F\r\n
$GPGGA,123701.90,5703.3687665,N,00952.2616953,E,2,12,0.8,-0.838,M,40.593,M,2.2,0123*6C\r\n
$GPGGA,123701.95,5703.3688168,N,00952.2617214,E,2,12,0.8,-0.833,M,40.593,M,2.2,0123*6E\r\n
$GPGGA,123702.00,5703.3688687,N,00952.2617491,E,2,12,0.8,-0.830,M,40.593,M,2.2,0123*6F\r\n
$GPGGA,123702.05,5703.3689218,N,00952.2617781,E,2,12,0.8,-0.825,M,40.593,M,2.5,0123*68\r\n
$GPGGA,123702.10,5703.3689747,N,00952.2618082,E,2,12,0.8,-0.819,M,40.593,M,2.5,0123*67\r\n
$GPGGA,123702.15,5703.3690289,N,00952.2618371,E,2,12,0.8,-0.816,M,40.593,M,2.5,0123*6D\r\n
$GPGGA,123702.20,5703.3690835,N,00952.2618664,E,2,12,0.8,-0.816,M,40.593,M,2.5,0123*67\r\n
$GPGGA,123702.25,5703.3691392,N,00952.2618954,E,2,12,0.8,-0.817,M,40.593,M,2.7,0123*6A\r\n
$GPGGA,123702.30,5703.3691955,N,00952.2619237,E,2,12,0.8,-0.815,M,40.593,M,2.7,0123*62\r\n
$GPGGA,123702.35,5703.3692530,N,00952.2619520,E,2,12,0.8,-0.814,M,40.593,M,2.7,0123*6B\r\n
$GPGGA,123702.40,5703.3693116,N,00952.2619796,E,2,12,0.8,-0.813,M,40.593,M,2.7,0123*60\r\n
$GPGGA,123702.45,5703.3693704,N,00952.2620075,E,2,12,0.8,-0.813,M,40.593,M,2.9,0123*6E\r\n
$GPGGA,123702.50,5703.3694301,N,00952.2620348,E,2,12,0.8,-0.813,M,40.593,M,2.9,0123*61\r\n
$GPGGA,123702.55,5703.3694899,N,00952.2620612,E,2,12,0.8,-0.814,M,40.593,M,2.9,0123*63\r\n
$GPGGA,123702.60,5703.3695503,N,00952.2620865,E,2,12,0.8,-0.817,M,40.593,M,2.9,0123*67\r\n
$GPGGA,123702.65,5703.3696114,N,00952.2621134,E,2,12,0.8,-0.820,M,40.593,M,3.1,0123*62\r\n
$GPGGA,123702.70,5703.3696735,N,00952.2621388,E,2,12,0.8,-0.822,M,40.593,M,3.1,0123*64\r\n
$GPGGA,123702.75,5703.3697358,N,00952.2621642,E,2,12,0.8,-0.824,M,40.593,M,3.1,0123*6A\r\n
$GPGGA,123702.80,5703.3697991,N,00952.2621881,E,2,12,0.8,-0.823,M,40.593,M,3.1,0123*69\r\n
$GPGGA,123702.85,5703.3698627,N,00952.2622124,E,2,12,0.8,-0.821,M,40.593,M,3.3,0123*64\r\n
$GPGGA,123702.90,5703.3699253,N,00952.2622380,E,2,12,0.8,-0.821,M,40.593,M,3.3,0123*6A\r\n
$GPGGA,123702.95,5703.3699895,N,00952.2622621,E,2,12,0.8,-0.819,M,40.593,M,3.3,0123*6A\r\n
$GPGGA,123703.00,5703.3700542,N,00952.2622867,E,2,12,0.8,-0.816,M,40.593,M,3.3,0123*62\r\n
$GPGGA,123703.05,5703.3701178,N,00952.2623142,E,2,12,0.8,-0.810,M,40.593,M,3.5,0123*64\r\n
$GPGGA,123703.10,5703.3701815,N,00952.2623397,E,2,12,0.8,-0.808,M,40.593,M,3.5,0123*61\r\n
$GPGGA,123703.15,5703.3702457,N,00952.2623645,E,2,12,0.8,-0.805,M,40.593,M,3.5,0123*6A\r\n
$GPGGA,123703.20,5703.3703104,N,00952.2623880,E,2,12,0.8,-0.803,M,40.593,M,3.5,0123*6F\r\n
$GPGGA,123703.25,5703.3703767,N,00952.2624117,E,2,12,0.8,-0.796,M,40.593,M,3.7,0123*68\r\n
$GPGGA,123703.30,5703.3704429,N,00952.2624339,E,2,12,0.8,-0.793,M,40.593,M,3.7,0123*69\r\n
$GPGGA,123703.35,5703.3705089,N,00952.2624549,E,2,12,0.8,-0.791,M,40.593,M,3.7,0123*60\r\n
$GPGGA,123703.40,5703.3705756,N,00952.2624757,E,2,12,0.8,-0.791,M,40.593,M,3.7,0123*6A\r\n
$GPGGA,123703.45,5703.3706418,N,00952.2624947,E,2,12,0.8,-0.795,M,40.593,M,3.9,0123*60\r\n
$GPGGA,123703.50,5703.3707081,N,00952.2625132,E,2,12,0.8,-0.798,M,40.593,M,3.9,0123*67\r\n
$GPGGA,123703.55,5703.3707752,N,00952.2625320,E,2,12,0.8,-0.799,M,40.593,M,3.9,0123*6B\r\n
$GPGGA,123703.60,5703.3708426,N,00952.2625486,E,2,12,0.8,-0.801,M,40.593,M,3.9,0123*67\r\n
$GPGGA,123703.65,5703.3709107,N,00952.2625659,E,2,12,0.8,-0.801,M,40.593,M,4.1,0123*6A\r\n
$GPGGA,123703.70,5703.3709785,N,00952.2625831,E,2,12,0.8,-0.800,M,40.593,M,4.1,0123*63\r\n
$GPGGA,123703.75,5703.3710458,N,00952.2625980,E,2,12,0.8,-0.801,M,40.593,M,4.1,0123*67\r\n
$GPGGA,123703.80,5703.3711139,N,00952.2626127,E,2,12,0.8,-0.802,M,40.593,M,4.1,0123*6B\r\n
$GPGGA,123703.85,5703.3711824,N,00952.2626263,E,2,12,0.8,-0.806,M,40.593,M,4.3,0123*6E\r\n
$GPGGA,123703.90,5703.3712510,N,00952.2626396,E,2,12,0.8,-0.809,M,40.593,M,4.3,0123*67\r\n
$GPGGA,123703.95,5703.3713197,N,00952.2626514,E,2,12,0.8,-0.810,M,40.593,M,4.3,0123*6C\r\n
$GPGGA,123704.00,5703.3713876,N,00952.2626630,E,2,12,0.8,-0.814,M,40.593,M,4.3,0123*60\r\n
$GPGGA,123704.05,5703.3714567,N,00952.2626757,E,2,12,0.8,-0.812,M,40.593,M,4.5,0123*6F\r\n
$GPGGA,123704.10,5703.3715249,N,00952.2626869,E,2,12,0.8,-0.813,M,40.593,M,4.5,0123*62\r\n
$GPGGA,123704.15,5703.3715931,N,00952.2626963,E,2,12,0.8,-0.812,M,40.593,M,4.5,0123*69\r\n
$GPGGA,123704.20,5703.3716620,N,00952.2627077,E,2,12,0.8,-0.811,M,40.593,M,4.5,0123*6D\r\n
$GPGGA,123704.25,5703.3717318,N,00952.2627183,E,2,12,0.8,-0.806,M,40.593,M,1.8,0123*63\r\n
$GPGGA,123704.30,5703.3718007,N,00952.2627255,E,2,12,0.8,-0.805,M,40.593,M,1.8,0123*6E\r\n
$GPGGA,123704.35,5703.3718700,N,00952.2627335,E,2,12,0.8,-0.802,M,40.593,M,1.8,0123*6B\r\n
$GPGGA,123704.40,5703.3719398,N,00952.2627397,E,2,12,0.8,-0.799,M,40.593,M,1.8,0123*68\r\n
$GPGGA,123704.45,5703.3720094,N,00952.2627454,E,2,12,0.8,-0.797,M,40.593,M,2.0,0123*65\r\n
$GPGGA,123704.50,5703.3720789,N,00952.2627499,E,2,12,0.8,-0.796,M,40.593,M,2.0,0123*6A\r\n
$GPGGA,123704.55,5703.3721488,N,00952.2627524,E,2,12,0.8,-0.795,M,40.593,M,2.0,0123*68\r\n
$GPGGA,123704.60,5703.3722184,N,00952.2627527,E,2,12,0.8,-0.798,M,40.593,M,2.0,0123*6A\r\n
$GPGGA,123704.65,5703.3722891,N,00952.2627527,E,2,12,0.8,-0.798,M,40.593,M,2.3,0123*61\r\n
$GPGGA,123704.70,5703.3723602,N,00952.2627533,E,2,12,0.8,-0.801,M,40.593,M,2.3,0123*6A\r\n
$GPGGA,123704.75,5703.3724315,N,00952.2627535,E,2,12,0.8,-0.803,M,40.593,M,2.3,0123*6F\r\n
$GPGGA,123704.80,5703.3725018,N,00952.2627500,E,2,12,0.8,-0.805,M,40.593,M,2.3,0123*6A\r\n
$GPGGA,123704.85,5703.3725718,N,00952.2627450,E,2,12,0.8,-0.810,M,40.593,M,2.5,0123*6E\r\n
$GPGGA,123704.90,5703.3726429,N,00952.2627405,E,2,12,0.8,-0.812,M,40.593,M,2.5,0123*6A\r\n
$GPGGA,123704.95,5703.3727132,N,00952.2627360,E,2,12,0.8,-0.813,M,40.593,M,2.5,0123*64\r\n
$GPGGA,123705.00,5703.3727828,N,00952.2627292,E,2,12,0.8,-0.812,M,40.593,M,2.5,0123*66\r\n
$GPGGA,123705.05,5703.3728520,N,00952.2627226,E,2,12,0.8,-0.810,M,40.593,M,2.7,0123*66\r\n
$GPGGA,123705.10,5703.3729211,N,00952.2627166,E,2,12,0.8,-0.808,M,40.593,M,2.7,0123*68\r\n
$GPGGA,123705.15,5703.3729903,N,00952.2627083,E,2,12,0.8,-0.805,M,40.593,M,2.7,0123*62\r\n
$GPGGA,123705.20,5703.3730603,N,00952.2626991,E,2,12,0.8,-0.797,M,40.593,M,2.7,0123*6C\r\n
$GPGGA,123705.25,5703.3731299,N,00952.2626875,E,2,12,0.8,-0.794,M,40.593,M,1.6,0123*65\r\n
$GPGGA,123705.30,5703.3732002,N,00952.2626746,E,2,12,0.8,-0.791,M,40.593,M,1.6,0123*68\r\n
$GPGGA,123705.35,5703.3732708,N,00952.2626641,E,2,12,0.8,-0.789,M,40.593,M,1.6,0123*6F\r\n
$GPGGA,123705.40,5703.3733411,N,00952.2626521,E,2,12,0.8,-0.789,M,40.593,M,1.6,0123*62\r\n
$GPGGA,123705.45,5703.3734124,N,00952.2626403,E,2,12,0.8,-0.791,M,40.593,M,1.8,0123*65\r\n
$GPGGA,123705.50,5703.3734839,N,00952.2626249,E,2,12,0.8,-0.791,M,40.593,M,1.8,0123*6C\r\n
$GPGGA,123705.55,5703.3735561,N,00952.2626080,E,2,12,0.8,-0.794,M,40.593,M,1.8,0123*6A\r\n
$GPGGA,123705.60,5703.3736288,N,00952.2625902,E,2,12,0.8,-0.797,M,40.593,M,1.8,0123*6C\r\n
$GPGGA,123705.65,5703.3737012,N,00952.2625722,E,2,12,0.8,-0.798,M,40.593,M,2.0,0123*61\r\n
$GPGGA,123705.70,5703.3737722,N,00952.2625531,E,2,12,0.8,-0.800,M,40.593,M,2.0,0123*6F\r\n
$GPGGA,123705.75,5703.3738430,N,00952.2625330,E,2,12,0.8,-0.802,M,40.593,M,2.0,0123*60\r\n
$GPGGA,123705.80,5703.3739137,N,00952.2625116,E,2,12,0.8,-0.801,M,40.593,M,2.0,0123*6C\r\n
$GPGGA,123705.85,5703.3739845,N,00952.2624887,E,2,12,0.8,-0.807,M,40.593,M,2.2,0123*61\r\n
$GPGGA,123705.90,5703.3740552,N,00952.2624640,E,2,12,0.8,-0.805,M,40.593,M,2.2,0123*67\r\n
$GPGGA,123705.95,5703.3741252,N,00952.2624388,E,2,12,0.8,-0.803,M,40.593,M,2.2,0123*63\r\n
$GPGGA,123706.00,5703.3741955,N,00952.2624157,E,2,12,0.8,-0.800,M,40.593,M,2.2,0123*63\r\n
$GPGGA,123706.05,5703.3742661,N,00952.2623933,E,2,12,0.8,-0.798,M,40.593,M,2.5,0123*69\r\n
$GPGGA,123706.10,5703.3743368,N,00952.2623682,E,2,12,0.8,-0.795,M,40.593,M,2.5,0123*68\r\n
$GPGGA,123706.15,5703.3744081,N,00952.2623420,E,2,12,0.8,-0.790,M,40.593,M,2.5,0123*61\r\n
$GPGGA,123706.20,5703.3744799,N,00952.2623160,E,2,12,0.8,-0.788,M,40.593,M,2.5,0123*61\r\n
$GPGGA,123706.25,5703.3745507,N,00952.2622885,E,2,12,0.8,-0.790,M,40.593,M,2.7,0123*68\r\n
$GPGGA,123706.30,5703.3746211,N,00952.2622619,E,2,12,0.8,-0.788,M,40.593,M,2.7,0123*6D\r\n
$GPGGA,123706.35,5703.3746923,N,00952.2622340,E,2,12,0.8,-0.785,M,40.593,M,2.7,0123*66\r\n
$GPGGA,123706.40,5703.3747632,N,00952.2622057,E,2,12,0.8,-0.781,M,40.593,M,2.7,0123*6B\r\n
$GPGGA,123706.45,5703.3748342,N,00952.2621744,E,2,12,0.8,-0.781,M,40.593,M,2.9,0123*6B\r\n
$GPGGA,123706.50,5703.3749058,N,00952.2621414,E,2,12,0.8,-0.781,M,40.593,M,2.9,0123*60\r\n
$GPGGA,123706.55,5703.3749774,N,00952.2621078,E,2,12,0.8,-0.781,M,40.593,M,2.9,0123*62\r\n
$GPGGA,123706.60,5703.3750486,N,00952.2620738,E,2,12,0.8,-0.783,M,40.593,M,2.9,0123*62\r\n
$GPGGA,123706.65,5703.3751195,N,00952.2620397,E,2,12,0.8,-0.786,M,40.593,M,3.1,0123*6C\r\n
$GPGGA,123706.70,5703.3751908,N,00952.2620043,E,2,12,0.8,-0.788,M,40.593,M,3.1,0123*60\r\n
$GPGGA,123706.75,5703.3752620,N,00952.2619700,E,2,12,0.8,-0.786,M,40.593,M,3.1,0123*67\r\n
$GPGGA,123706.80,5703.3753336,N,00952.2619340,E,2,12,0.8,-0.784,M,40.593,M,3.1,0123*6C\r\n
$GPGGA,123706.85,5703.3754037,N,00952.2618988,E,2,12,0.8,-0.784,M,40.593,M,3.3,0123*61\r\n
$GPGGA,123706.90,5703.3754737,N,00952.2618643,E,2,12,0.8,-0.784,M,40.593,M,3.3,0123*6A\r\n
$GPGGA,123706.95,5703.3755431,N,00952.2618275,E,2,12,0.8,-0.783,M,40.593,M,3.3,0123*6D\r\n
$GPGGA,123707.00,5703.3756136,N,00952.2617922,E,2,12,0.8,-0.778,M,40.593,M,3.3,0123*63\r\n
$GPGGA,123707.05,5703.3756848,N,00952.2617561,E,2,12,0.8,-0.774,M,40.593,M,3.5,0123*67\r\n
$GPGGA,123707.10,5703.3757552,N,00952.2617174,E,2,12,0.8,-0.775,M,40.593,M,3.5,0123*65\r\n
$GPGGA,123707.15,5703.3758260,N,00952.2616787,E,2,12,0.8,-0.776,M,40.593,M,3.5,0123*61\r\n
$GPGGA,123707.20,5703.3758967,N,00952.2616399,E,2,12,0.8,-0.779,M,40.593,M,3.5,0123*6F\r\n
$GPGGA,123707.25,5703.3759679,N,00952.2615993,E,2,12,0.8,-0.780,M,40.593,M,3.7,0123*6C\r\n
$GPGGA,123707.30,5703.3760385,N,00952.2615600,E,2,12,0.8,-0.779,M,40.593,M,3.7,0123*67\r\n
$GPGGA,123707.35,5703.3761089,N,00952.2615203,E,2,12,0.8,-0.779,M,40.593,M,3.7,0123*6B\r\n
$GPGGA,123707.40,5703.3761791,N,00952.2614799,E,2,12,0.8,-0.779,M,40.593,M,3.7,0123*60\r\n
$GPGGA,123707.45,5703.3762493,N,00952.2614390,E,2,12,0.8,-0.779,M,40.593,M,3.9,0123*64\r\n
$GPGGA,123707.50,5703.3763189,N,00952.2613964,E,2,12,0.8,-0.780,M,40.593,M,3.9,0123*6F\r\n
$GPGGA,123707.55,5703.3763879,N,00952.2613540,E,2,12,0.8,-0.783,M,40.593,M,3.9,0123*65\r\n
$GPGGA,123707.60,5703.3764575,N,00952.2613113,E,2,12,0.8,-0.786,M,40.593,M,3.9,0123*62\r\n
$GPGGA,123707.65,5703.3765266,N,00952.2612696,E,2,12,0.8,-0.780,M,40.593,M,4.1,0123*61\r\n
$GPGGA,123707.70,5703.3765959,N,00952.2612257,E,2,12,0.8,-0.779,M,40.593,M,4.1,0123*6D\r\n
$GPGGA,123707.75,5703.3766646,N,00952.2611827,E,2,12,0.8,-0.776,M,40.593,M,4.1,0123*6B\r\n
$GPGGA,123707.80,5703.3767333,N,00952.2611373,E,2,12,0.8,-0.778,M,40.593,M,4.1,0123*63\r\n
$GPGGA,123707.85,5703.3768022,N,00952.2610934,E,2,12,0.8,-0.776,M,40.593,M,4.3,0123*6E\r\n
$GPGGA,123707.90,5703.3768710,N,00952.2610483,E,2,12,0.8,-0.775,M,40.593,M,4.3,0123*6E\r\n
$GPGGA,123707.95,5703.3769404,N,00952.2610027,E,2,12,0.8,-0.778,M,40.593,M,4.3,0123*6B\r\n
$GPGGA,123708.00,5703.3770095,N,00952.2609564,E,2,12,0.8,-0.780,M,40.593,M,4.3,0123*61\r\n
$GPGGA,123708.05,5703.3770791,N,00952.2609113,E,2,12,0.8,-0.780,M,40.593,M,4.5,0123*65\r\n
$GPGGA,123708.10,5703.3771489,N,00952.2608635,E,2,12,0.8,-0.783,M,40.593,M,4.5,0123*6B\r\n
$GPGGA,123708.15,5703.3772177,N,00952.2608162,E,2,12,0.8,-0.786,M,40.593,M,4.5,0123*69\r\n
$GPGGA,123708.20,5703.3772866,N,00952.2607688,E,2,12,0.8,-0.785,M,40.593,M,4.5,0123*69\r\n
$GPGGA,123708.25,5703.3773550,N,00952.2607201,E,2,12,0.8,-0.783,M,40.593,M,1.8,0123*6E\r\n
$GPGGA,123708.30,5703.3774230,N,00952.2606713,E,2,12,0.8,-0.785,M,40.593,M,1.8,0123*6D\r\n
$GPGGA,123708.35,5703.3774917,N,00952.2606216,E,2,12,0.8,-0.783,M,40.593,M,1.8,0123*60\r\n
$GPGGA,123708.40,5703.3775596,N,00952.2605706,E,2,12,0.8,-0.784,M,40.593,M,1.8,0123*66\r\n
$GPGGA,123708.45,5703.3776271,N,00952.2605208,E,2,12,0.8,-0.782,M,40.593,M,2.0,0123*68\r\n
$GPGGA,123708.50,5703.3776943,N,00952.2604687,E,2,12,0.8,-0.785,M,40.593,M,2.0,0123*63\r\n
$GPGGA,123708.55,5703.3777617,N,00952.2604182,E,2,12,0.8,-0.784,M,40.593,M,2.0,0123*6A\r\n
$GPGGA,123708.60,5703.3778303,N,00952.2603681,E,2,12,0.8,-0.782,M,40.593,M,2.0,0123*66\r\n
$GPGGA,123708.65,5703.3778980,N,00952.2603158,E,2,12,0.8,-0.780,M,40.593,M,2.3,0123*60\r\n
$GPGGA,123708.70,5703.3779649,N,00952.2602612,E,2,12,0.8,-0.783,M,40.593,M,2.3,0123*64\r\n
$GPGGA,123708.75,5703.3780340,N,00952.2602092,E,2,12,0.8,-0.781,M,40.593,M,2.3,0123*67\r\n
$GPGGA,123708.80,5703.3781012,N,00952.2601575,E,2,12,0.8,-0.780,M,40.593,M,2.3,0123*66\r\n
$GPGGA,123708.85,5703.3781676,N,00952.2601024,E,2,12,0.8,-0.783,M,40.593,M,2.5,0123*63\r\n
$GPGGA,123708.90,5703.3782343,N,00952.2600450,E,2,12,0.8,-0.783,M,40.593,M,2.5,0123*61\r\n
$GPGGA,123708.95,5703.3783013,N,00952.2599866,E,2,12,0.8,-0.785,M,40.593,M,2.5,0123*6F\r\n
$GPGGA,123709.00,5703.3783692,N,00952.2599301,E,2,12,0.8,-0.785,M,40.593,M,2.5,0123*67\r\n
$GPGGA,123709.05,5703.3784363,N,00952.2598744,E,2,12,0.8,-0.784,M,40.593,M,2.7,0123*69\r\n
$GPGGA,123709.10,5703.3785029,N,00952.2598183,E,2,12,0.8,-0.785,M,40.593,M,2.7,0123*6D\r\n
$GPGGA,123709.15,5703.3785697,N,00952.2597614,E,2,12,0.8,-0.785,M,40.593,M,2.7,0123*6D\r\n
$GPGGA,123709.20,5703.3786366,N,00952.2597037,E,2,12,0.8,-0.784,M,40.593,M,2.7,0123*65\r\n
$GPGGA,123709.25,5703.3787027,N,00952.2596431,E,2,12,0.8,-0.783,M,40.593,M,1.6,0123*61\r\n
$GPGGA,123709.30,5703.3787668,N,00952.2595796,E,2,12,0.8,-0.785,M,40.593,M,1.6,0123*63\r\n
$GPGGA,123709.35,5703.3788306,N,00952.2595172,E,2,12,0.8,-0.786,M,40.593,M,1.6,0123*6B\r\n
$GPGGA,123709.40,5703.3788960,N,00952.2594561,E,2,12,0.8,-0.787,M,40.593,M,1.6,0123*65\r\n
$GPGGA,123709.45,5703.3789613,N,00952.2593957,E,2,12,0.8,-0.786,M,40.593,M,1.8,0123*6B\r\n
$GPGGA,123709.50,5703.3790259,N,00952.2593317,E,2,12,0.8,-0.786,M,40.593,M,1.8,0123*63\r\n
$GPGGA,123709.55,5703.3790892,N,00952.2592662,E,2,12,0.8,-0.789,M,40.593,M,1.8,0123*62\r\n
$GPGGA,123709.60,5703.3791534,N,00952.2592016,E,2,12,0.8,-0.788,M,40.593,M,1.8,0123*60\r\n
$GPGGA,123709.65,5703.3792187,N,00952.2591357,E,2,12,0.8,-0.784,M,40.593,M,2.0,0123*68\r\n
$GPGGA,123709.70,5703.3792812,N,00952.2590680,E,2,12,0.8,-0.786,M,40.593,M,2.0,0123*65\r\n
$GPGGA,123709.75,5703.3793436,N,00952.2590007,E,2,12,0.8,-0.788,M,40.593,M,2.0,0123*6C\r\n
$GPGGA,123709.80,5703.3794070,N,00952.2589336,E,2,12,0.8,-0.788,M,40.593,M,2.0,0123*6E\r\n
$GPGGA,123709.85,5703.3794688,N,00952.2588657,E,2,12,0.8,-0.791,M,40.593,M,2.2,0123*63\r\n
$GPGGA,123709.90,5703.3795300,N,00952.2587974,E,2,12,0.8,-0.792,M,40.593,M,2.2,0123*61\r\n
$GPGGA,123709.95,5703.3795930,N,00952.2587282,E,2,12,0.8,-0.788,M,40.593,M,2.2,0123*64\r\n
$GPGGA,123710.00,5703.3796552,N,00952.2586574,E,2,12,0.8,-0.785,M,40.593,M,2.2,0123*69\r\n
$GPGGA,123710.05,5703.3797170,N,00952.2585879,E,2,12,0.8,-0.782,M,40.593,M,2.5,0123*6A\r\n
$GPGGA,123710.10,5703.3797771,N,00952.2585171,E,2,12,0.8,-0.784,M,40.593,M,2.5,0123*6E\r\n
$GPGGA,123710.15,5703.3798362,N,00952.2584451,E,2,12,0.8,-0.783,M,40.593,M,2.5,0123*63\r\n
$GPGGA,123710.20,5703.3798958,N,00952.2583725,E,2,12,0.8,-0.780,M,40.593,M,2.5,0123*62\r\n
$GPGGA,123710.25,5703.3799546,N,00952.2582966,E,2,12,0.8,-0.782,M,40.593,M,2.7,0123*6D\r\n
$GPGGA,123710.30,5703.3800131,N,00952.2582202,E,2,12,0.8,-0.783,M,40.593,M,2.7,0123*6A\r\n
$GPGGA,123710.35,5703.3800711,N,00952.2581435,E,2,12,0.8,-0.783,M,40.593,M,2.7,0123*6A\r\n
$GPGGA,123710.40,5703.3801283,N,00952.2580678,E,2,12,0.8,-0.785,M,40.593,M,2.7,0123*6B\r\n
$GPGGA,123710.45,5703.3801862,N,00952.2579908,E,2,12,0.8,-0.786,M,40.593,M,2.9,0123*68\r\n
$GPGGA,123710.50,5703.3802437,N,00952.2579140,E,2,12,0.8,-0.787,M,40.593,M,2.9,0123*66\r\n
$GPGGA,123710.55,5703.3803001,N,00952.2578347,E,2,12,0.8,-0.787,M,40.593,M,2.9,0123*67\r\n
$GPGGA,123710.60,5703.3803565,N,00952.2577540,E,2,12,0.8,-0.786,M,40.593,M,2.9,0123*69\r\n
$GPGGA,123710.65,5703.3804126,N,00952.2576758,E,2,12,0.8,-0.782,M,40.593,M,3.1,0123*6F\r\n
$GPGGA,123710.70,5703.3804676,N,00952.2575961,E,2,12,0.8,-0.780,M,40.593,M,3.1,0123*6C\r\n
$GPGGA,123710.75,5703.3805221,N,00952.2575149,E,2,12,0.8,-0.779,M,40.593,M,3.1,0123*6A\r\n
$GPGGA,123710.80,5703.3805756,N,00952.2574314,E,2,12,0.8,-0.778,M,40.593,M,3.1,0123*6F\r\n
$GPGGA,123710.85,5703.3806295,N,00952.2573492,E,2,12,0.8,-0.783,M,40.593,M,3.3,0123*6B\r\n
$GPGGA,123710.90,5703.3806835,N,00952.2572664,E,2,12,0.8,-0.783,M,40.593,M,3.3,0123*65\r\n
$GPGGA,123710.95,5703.3807370,N,00952.2571838,E,2,12,0.8,-0.780,M,40.593,M,3.3,0123*6C\r\n
$GPGGA,123711.00,5703.3807889,N,00952.2570976,E,2,12,0.8,-0.780,M,40.593,M,3.3,0123*66\r\n
$GPGGA,123711.05,5703.3808415,N,00952.2570136,E,2,12,0.8,-0.780,M,40.593,M,3.5,0123*6F\r\n
$GPGGA,123711.10,5703.3808932,N,00952.2569283,E,2,12,0.8,-0.781,M,40.593,M,3.5,0123*67\r\n
$GPGGA,123711.15,5703.3809451,N,00952.2568432,E,2,12,0.8,-0.780,M,40.593,M,3.5,0123*67\r\n
$GPGGA,123711.20,5703.3809967,N,00952.2567553,E,2,12,0.8,-0.782,M,40.593,M,3.5,0123*62\r\n
$GPGGA,123711.25,5703.3810482,N,00952.2566683,E,2,12,0.8,-0.784,M,40.593,M,3.7,0123*62\r\n
$GPGGA,123711.30,5703.3810994,N,00952.2565809,E,2,12,0.8,-0.782,M,40.593,M,3.7,0123*65\r\n
$GPGGA,123711.35,5703.3811503,N,00952.2564922,E,2,12,0.8,-0.783,M,40.593,M,3.7,0123*6B\r\n
$GPGGA,123711.40,5703.3811999,N,00952.2564013,E,2,12,0.8,-0.783,M,40.593,M,3.7,0123*6D\r\n
$GPGGA,123711.45,5703.3812486,N,00952.2563091,E,2,12,0.8,-0.784,M,40.593,M,3.9,0123*6C\r\n
$GPGGA,123711.50,5703.3812970,N,00952.2562168,E,2,12,0.8,-0.787,M,40.593,M,3.9,0123*69\r\n
$GPGGA,123711.55,5703.3813462,N,00952.2561244,E,2,12,0.8,-0.788,M,40.593,M,3.9,0123*62\r\n
$GPGGA,123711.60,5703.3813946,N,00952.2560318,E,2,12,0.8,-0.788,M,40.593,M,3.9,0123*66\r\n
$GPGGA,123711.65,5703.3814420,N,00952.2559386,E,2,12,0.8,-0.789,M,40.593,M,4.1,0123*6A\r\n
$GPGGA,123711.70,5703.3814887,N,00952.2558443,E,2,12,0.8,-0.792,M,40.593,M,4.1,0123*6A\r\n
$GPGGA,123711.75,5703.3815351,N,00952.2557481,E,2,12,0.8,-0.792,M,40.593,M,4.1,0123*6F\r\n
$GPGGA,123711.80,5703.3815808,N,00952.2556527,E,2,12,0.8,-0.793,M,40.593,M,4.1,0123*6F\r\n
$GPGGA,123711.85,5703.3816264,N,00952.2555561,E,2,12,0.8,-0.791,M,40.593,M,4.3,0123*68\r\n
$GPGGA,123711.90,5703.3816722,N,00952.2554588,E,2,12,0.8,-0.793,M,40.593,M,4.3,0123*6F\r\n
$GPGGA,123711.95,5703.3817173,N,00952.2553623,E,2,12,0.8,-0.789,M,40.593,M,4.3,0123*67\r\n
$GPGGA,123712.00,5703.3817611,N,00952.2552652,E,2,12,0.8,-0.789,M,40.593,M,4.3,0123*6C\r\n
$GPGGA,123712.05,5703.3818044,N,00952.2551682,E,2,12,0.8,-0.788,M,40.593,M,4.5,0123*69\r\n
$GPGGA,123712.10,5703.3818474,N,00952.2550697,E,2,12,0.8,-0.787,M,40.593,M,4.5,0123*60\r\n
$GPGGA,123712.15,5703.3818903,N,00952.2549701,E,2,12,0.8,-0.786,M,40.593,M,4.5,0123*6F\r\n
$GPGGA,123712.20,5703.3819336,N,00952.2548693,E,2,12,0.8,-0.787,M,40.593,M,4.5,0123*6E\r\n
$GPGGA,123712.25,5703.3819767,N,00952.2547696,E,2,12,0.8,-0.787,M,40.593,M,1.8,0123*69\r\n
$GPGGA,123712.30,5703.3820194,N,00952.2546703,E,2,12,0.8,-0.787,M,40.593,M,1.8,0123*61\r\n
$GPGGA,123712.35,5703.3820610,N,00952.2545701,E,2,12,0.8,-0.786,M,40.593,M,1.8,0123*6F\r\n
$GPGGA,123712.40,5703.3821034,N,00952.2544688,E,2,12,0.8,-0.787,M,40.593,M,1.8,0123*6C\r\n
$GPGGA,123712.45,5703.3821455,N,00952.2543661,E,2,12,0.8,-0.790,M,40.593,M,2.0,0123*67\r\n
$GPGGA,123712.50,5703.3821875,N,00952.2542640,E,2,12,0.8,-0.790,M,40.593,M,2.0,0123*6F\r\n
$GPGGA,123712.55,5703.3822293,N,00952.2541611,E,2,12,0.8,-0.789,M,40.593,M,2.0,0123*64\r\n
$GPGGA,123712.60,5703.3822696,N,00952.2540561,E,2,12,0.8,-0.792,M,40.593,M,2.0,0123*6C\r\n
$GPGGA,123712.65,5703.3823081,N,00952.2539507,E,2,12,0.8,-0.794,M,40.593,M,2.3,0123*63\r\n
$GPGGA,123712.70,5703.3823463,N,00952.2538457,E,2,12,0.8,-0.794,M,40.593,M,2.3,0123*6A\r\n
$GPGGA,123712.75,5703.3823841,N,00952.2537379,E,2,12,0.8,-0.792,M,40.593,M,2.3,0123*61\r\n
$GPGGA,123712.80,5703.3824234,N,00952.2536315,E,2,12,0.8,-0.789,M,40.593,M,2.3,0123*65\r\n
$GPGGA,123712.85,5703.3824619,N,00952.2535275,E,2,12,0.8,-0.787,M,40.593,M,2.5,0123*67\r\n
$GPGGA,123712.90,5703.3825006,N,00952.2534227,E,2,12,0.8,-0.788,M,40.593,M,2.5,0123*63\r\n
$GPGGA,123712.95,5703.3825386,N,00952.2533178,E,2,12,0.8,-0.783,M,40.593,M,2.5,0123*68\r\n
$GPGGA,123713.00,5703.3825752,N,00952.2532115,E,2,12,0.8,-0.781,M,40.593,M,2.5,0123*60\r\n
$GPGGA,123713.05,5703.3826116,N,00952.2531049,E,2,12,0.8,-0.779,M,40.593,M,2.7,0123*6E\r\n
$GPGGA,123713.10,5703.3826485,N,00952.2529969,E,2,12,0.8,-0.776,M,40.593,M,2.7,0123*68\r\n
$GPGGA,123713.15,5703.3826853,N,00952.2528895,E,2,12,0.8,-0.775,M,40.593,M,2.7,0123*6A\r\n
$GPGGA,123713.20,5703.3827206,N,00952.2527803,E,2,12,0.8,-0.779,M,40.593,M,2.7,0123*6B\r\n
$GPGGA,123713.25,5703.3827547,N,00952.2526706,E,2,12,0.8,-0.785,M,40.593,M,1.6,0123*66\r\n
$GPGGA,123713.30,5703.3827889,N,00952.2525611,E,2,12,0.8,-0.784,M,40.593,M,1.6,0123*68\r\n
$GPGGA,123713.35,5703.3828234,N,00952.2524521,E,2,12,0.8,-0.784,M,40.593,M,1.6,0123*6F\r\n
$GPGGA,123713.40,5703.3828572,N,00952.2523401,E,2,12,0.8,-0.784,M,40.593,M,1.6,0123*6C\r\n
$GPGGA,123713.45,5703.3828904,N,00952.2522279,E,2,12,0.8,-0.782,M,40.593,M,1.8,0123*64\r\n
$GPGGA,123713.50,5703.3829232,N,00952.2521156,E,2,12,0.8,-0.784,M,40.593,M,1.8,0123*64\r\n
$GPGGA,123713.55,5703.3829550,N,00952.2520026,E,2,12,0.8,-0.786,M,40.593,M,1.8,0123*67\r\n
$GPGGA,123713.60,5703.3829872,N,00952.2518890,E,2,12,0.8,-0.785,M,40.593,M,1.8,0123*61\r\n
$GPGGA,123713.65,5703.3830199,N,00952.2517748,E,2,12,0.8,-0.784,M,40.593,M,2.0,0123*6F\r\n
$GPGGA,123713.70,5703.3830528,N,00952.2516598,E,2,12,0.8,-0.786,M,40.593,M,2.0,0123*69\r\n
$GPGGA,123713.75,5703.3830849,N,00952.2515460,E,2,12,0.8,-0.785,M,40.593,M,2.0,0123*60\r\n
$GPGGA,123713.80,5703.3831172,N,00952.2514333,E,2,12,0.8,-0.785,M,40.593,M,2.0,0123*6A\r\n
$GPGGA,123713.85,5703.3831486,N,00952.2513198,E,2,12,0.8,-0.784,M,40.593,M,2.2,0123*66\r\n
$GPGGA,123713.90,5703.3831805,N,00952.2512060,E,2,12,0.8,-0.786,M,40.593,M,2.2,0123*60\r\n
$GPGGA,123713.95,5703.3832126,N,00952.2510937,E,2,12,0.8,-0.786,M,40.593,M,2.2,0123*67\r\n
$GPGGA,123714.00,5703.3832439,N,00952.2509817,E,2,12,0.8,-0.786,M,40.593,M,2.2,0123*6C\r\n
$GPGGA,123714.05,5703.3832746,N,00952.2508698,E,2,12,0.8,-0.790,M,40.593,M,2.5,0123*6A\r\n
$GPGGA,123714.10,5703.3833044,N,00952.2507537,E,2,12,0.8,-0.794,M,40.593,M,2.5,0123*67\r\n
$GPGGA,123714.15,5703.3833343,N,00952.2506371,E,2,12,0.8,-0.795,M,40.593,M,2.5,0123*62\r\n
$GPGGA,123714.20,5703.3833629,N,00952.2505195,E,2,12,0.8,-0.798,M,40.593,M,2.5,0123*6B\r\n
$GPGGA,123714.25,5703.3833928,N,00952.2504020,E,2,12,0.8,-0.801,M,40.593,M,2.7,0123*63\r\n
$GPGGA,123714.30,5703.3834225,N,00952.2502863,E,2,12,0.8,-0.799,M,40.593,M,2.7,0123*61\r\n
$GPGGA,123714.35,5703.3834505,N,00952.2501691,E,2,12,0.8,-0.800,M,40.593,M,2.7,0123*6E\r\n
$GPGGA,123714.40,5703.3834783,N,00952.2500503,E,2,12,0.8,-0.800,M,40.593,M,2.7,0123*69\r\n
$GPGGA,123714.45,5703.3835062,N,00952.2499319,E,2,12,0.8,-0.797,M,40.593,M,2.9,0123*66\r\n
$GPGGA,123714.50,5703.3835346,N,00952.2498139,E,2,12,0.8,-0.795,M,40.593,M,2.9,0123*64\r\n
$GPGGA,123714.55,5703.3835624,N,00952.2496955,E,2,12,0.8,-0.793,M,40.593,M,2.9,0123*6A\r\n
$GPGGA,123714.60,5703.3835884,N,00952.2495761,E,2,12,0.8,-0.792,M,40.593,M,2.9,0123*63\r\n
$GPGGA,123714.65,5703.3836134,N,00952.2494555,E,2,12,0.8,-0.790,M,40.593,M,3.1,0123*68\r\n
$GPGGA,123714.70,5703.3836390,N,00952.2493353,E,2,12,0.8,-0.786,M,40.593,M,3.1,0123*60\r\n
$GPGGA,123714.75,5703.3836651,N,00952.2492146,E,2,12,0.8,-0.784,M,40.593,M,3.1,0123*68\r\n
$GPGGA,123714.80,5703.3836913,N,00952.2490956,E,2,12,0.8,-0.784,M,40.593,M,3.1,0123*60\r\n
$GPGGA,123714.85,5703.3837164,N,00952.2489776,E,2,12,0.8,-0.784,M,40.593,M,3.3,0123*6A\r\n
$GPGGA,123714.90,5703.3837418,N,00952.2488584,E,2,12,0.8,-0.781,M,40.593,M,3.3,0123*6B\r\n
$GPGGA,123714.95,5703.3837661,N,00952.2487374,E,2,12,0.8,-0.779,M,40.593,M,3.3,0123*63\r\n
$GPGGA,123715.00,5703.3837905,N,00952.2486172,E,2,12,0.8,-0.776,M,40.593,M,3.3,0123*69\r\n
$GPGGA,123715.05,5703.3838146,N,00952.2484995,E,2,12,0.8,-0.775,M,40.593,M,3.5,0123*6A\r\n
$GPGGA,123715.10,5703.3838380,N,00952.2483787,E,2,12,0.8,-0.776,M,40.593,M,3.5,0123*6F\r\n
$GPGGA,123715.15,5703.3838610,N,00952.2482599,E,2,12,0.8,-0.774,M,40.593,M,3.5,0123*68\r\n
$GPGGA,123715.20,5703.3838842,N,00952.2481403,E,2,12,0.8,-0.771,M,40.593,M,3.5,0123*63\r\n
$GPGGA,123715.25,5703.3839057,N,00952.2480193,E,2,12,0.8,-0.771,M,40.593,M,3.7,0123*64\r\n
$GPGGA,123715.30,5703.3839275,N,00952.2478965,E,2,12,0.8,-0.773,M,40.593,M,3.7,0123*66\r\n
$GPGGA,123715.35,5703.3839495,N,00952.2477747,E,2,12,0.8,-0.773,M,40.593,M,3.7,0123*6A\r\n
$GPGGA,123715.40,5703.3839715,N,00952.2476539,E,2,12,0.8,-0.772,M,40.593,M,3.7,0123*68\r\n
$GPGGA,123715.45,5703.3839932,N,00952.2475328,E,2,12,0.8,-0.774,M,40.593,M,3.9,0123*6B\r\n
$GPGGA,123715.50,5703.3840144,N,00952.2474110,E,2,12,0.8,-0.774,M,40.593,M,3.9,0123*60\r\n
$GPGGA,123715.55,5703.3840355,N,00952.2472892,E,2,12,0.8,-0.774,M,40.593,M,3.9,0123*62\r\n
$GPGGA,123715.60,5703.3840556,N,00952.2471669,E,2,12,0.8,-0.777,M,40.593,M,3.9,0123*6B\r\n
$GPGGA,123715.65,5703.3840747,N,00952.2470460,E,2,12,0.8,-0.778,M,40.593,M,4.1,0123*66\r\n
$GPGGA,123715.70,5703.3840932,N,00952.2469238,E,2,12,0.8,-0.777,M,40.593,M,4.1,0123*62\r\n
$GPGGA,123715.75,5703.3841122,N,00952.2468018,E,2,12,0.8,-0.776,M,40.593,M,4.1,0123*6F\r\n
$GPGGA,123715.80,5703.3841306,N,00952.2466804,E,2,12,0.8,-0.777,M,40.593,M,4.1,0123*6B\r\n
$GPGGA,123715.85,5703.3841494,N,00952.2465578,E,2,12,0.8,-0.783,M,40.593,M,4.3,0123*6E\r\n
$GPGGA,123715.90,5703.3841681,N,00952.2464356,E,2,12,0.8,-0.787,M,40.593,M,4.3,0123*63\r\n
$GPGGA,123715.95,5703.3841867,N,00952.2463135,E,2,12,0.8,-0.790,M,40.593,M,4.3,0123*66\r\n
$GPGGA,123716.00,5703.3842045,N,00952.2461924,E,2,12,0.8,-0.793,M,40.593,M,4.3,0123*6B\r\n
$GPGGA,123716.05,5703.3842222,N,00952.2460724,E,2,12,0.8,-0.790,M,40.593,M,4.5,0123*67\r\n
$GPGGA,123716.10,5703.3842385,N,00952.2459468,E,2,12,0.8,-0.793,M,40.593,M,4.5,0123*6D\r\n
$GPGGA,123716.15,5703.3842556,N,00952.2458228,E,2,12,0.8,-0.794,M,40.593,M,4.5,0123*64\r\n
$GPGGA,123716.20,5703.3842716,N,00952.2456991,E,2,12,0.8,-0.794,M,40.593,M,4.5,0123*63\r\n
$GPGGA,123716.25,5703.3842868,N,00952.2455740,E,2,12,0.8,-0.795,M,40.593,M,4.7,0123*62\r\n
$GPGGA,123716.30,5703.3843015,N,00952.2454498,E,2,12,0.8,-0.794,M,40.593,M,4.7,0123*63\r\n
$GPGGA,123716.35,5703.3843155,N,00952.2453267,E,2,12,0.8,-0.794,M,40.593,M,4.7,0123*62\r\n
$GPGGA,123716.40,5703.3843284,N,00952.2452061,E,2,12,0.8,-0.794,M,40.593,M,4.7,0123*6A\r\n
$GPGGA,123716.45,5703.3843408,N,00952.2450846,E,2,12,0.8,-0.798,M,40.593,M,2.0,0123*6F\r\n
$GPGGA,123716.50,5703.3843535,N,00952.2449621,E,2,12,0.8,-0.795,M,40.593,M,2.0,0123*6E\r\n
$GPGGA,123716.55,5703.3843656,N,00952.2448389,E,2,12,0.8,-0.794,M,40.593,M,2.0,0123*6A\r\n
$GPGGA,123716.60,5703.3843771,N,00952.2447165,E,2,12,0.8,-0.794,M,40.593,M,2.0,0123*67\r\n
$GPGGA,123716.65,5703.3843885,N,00952.2445942,E,2,12,0.8,-0.792,M,40.593,M,2.3,0123*6C\r\n
$GPGGA,123716.70,5703.3843998,N,00952.2444716,E,2,12,0.8,-0.792,M,40.593,M,2.3,0123*6B\r\n
$GPGGA,123716.75,5703.3844104,N,00952.2443474,E,2,12,0.8,-0.794,M,40.593,M,2.3,0123*62\r\n
$GPGGA,123716.80,5703.3844212,N,00952.2442244,E,2,12,0.8,-0.794,M,40.593,M,2.3,0123*68\r\n
$GPGGA,123716.85,5703.3844315,N,00952.2441005,E,2,12,0.8,-0.794,M,40.593,M,2.5,0123*69\r\n
$GPGGA,123716.90,5703.3844409,N,00952.2439742,E,2,12,0.8,-0.797,M,40.593,M,2.5,0123*6F\r\n
$GPGGA,123716.95,5703.3844505,N,00952.2438485,E,2,12,0.8,-0.800,M,40.593,M,2.5,0123*6F\r\n
$GPGGA,123717.00,5703.3844600,N,00952.2437241,E,2,12,0.8,-0.801,M,40.593,M,2.5,0123*64\r\n
$GPGGA,123717.05,5703.3844693,N,00952.2436016,E,2,12,0.8,-0.801,M,40.593,M,2.7,0123*68\r\n
$GPGGA,123717.10,5703.3844784,N,00952.2434766,E,2,12,0.8,-0.802,M,40.593,M,2.7,0123*6A\r\n
$GPGGA,123717.15,5703.3844873,N,00952.2433518,E,2,12,0.8,-0.803,M,40.593,M,2.7,0123*65\r\n
$GPGGA,123717.20,5703.3844945,N,00952.2432265,E,2,12,0.8,-0.807,M,40.593,M,2.7,0123*6F\r\n
$GPGGA,123717.25,5703.3845023,N,00952.2431011,E,2,12,0.8,-0.806,M,40.593,M,3.0,0123*67\r\n
$GPGGA,123717.30,5703.3845095,N,00952.2429777,E,2,12,0.8,-0.806,M,40.593,M,3.0,0123*60\r\n
$GPGGA,123717.35,5703.3845166,N,00952.2428543,E,2,12,0.8,-0.805,M,40.593,M,3.0,0123*6F\r\n
$GPGGA,123717.40,5703.3845231,N,00952.2427283,E,2,12,0.8,-0.805,M,40.593,M,3.0,0123*68\r\n
$GPGGA,123717.45,5703.3845284,N,00952.2426028,E,2,12,0.8,-0.805,M,40.593,M,1.8,0123*6B\r\n
$GPGGA,123717.50,5703.3845331,N,00952.2424777,E,2,12,0.8,-0.806,M,40.593,M,1.8,0123*6C\r\n
$GPGGA,123717.55,5703.3845378,N,00952.2423530,E,2,12,0.8,-0.804,M,40.593,M,1.8,0123*60\r\n
$GPGGA,123717.60,5703.3845416,N,00952.2422271,E,2,12,0.8,-0.807,M,40.593,M,1.8,0123*69\r\n
$GPGGA,123717.65,5703.3845453,N,00952.2420994,E,2,12,0.8,-0.813,M,40.593,M,2.0,0123*61\r\n
$GPGGA,123717.70,5703.3845491,N,00952.2419727,E,2,12,0.8,-0.813,M,40.593,M,2.0,0123*67\r\n
$GPGGA,123717.75,5703.3845533,N,00952.2418459,E,2,12,0.8,-0.814,M,40.593,M,2.0,0123*67\r\n
$GPGGA,123717.80,5703.3845560,N,00952.2417197,E,2,12,0.8,-0.814,M,40.593,M,2.0,0123*63\r\n
$GPGGA,123717.85,5703.3845589,N,00952.2415935,E,2,12,0.8,-0.811,M,40.593,M,2.2,0123*64\r\n
$GPGGA,123717.90,5703.3845612,N,00952.2414681,E,2,12,0.8,-0.810,M,40.593,M,2.2,0123*61\r\n
$GPGGA,123717.95,5703.3845628,N,00952.2413434,E,2,12,0.8,-0.808,M,40.593,M,2.2,0123*6F\r\n
$GPGGA,123718.00,5703.3845643,N,00952.2412172,E,2,12,0.8,-0.806,M,40.593,M,2.2,0123*69\r\n
$GPGGA,123718.05,5703.3845656,N,00952.2410930,E,2,12,0.8,-0.806,M,40.593,M,2.5,0123*63\r\n
$GPGGA,123718.10,5703.3845668,N,00952.2409668,E,2,12,0.8,-0.806,M,40.593,M,2.5,0123*60\r\n
$GPGGA,123718.15,5703.3845670,N,00952.2408406,E,2,12,0.8,-0.806,M,40.593,M,2.5,0123*67\r\n
$GPGGA,123718.20,5703.3845665,N,00952.2407127,E,2,12,0.8,-0.807,M,40.593,M,2.5,0123*6D\r\n
$GPGGA,123718.25,5703.3845668,N,00952.2405865,E,2,12,0.8,-0.806,M,40.593,M,2.7,0123*6B\r\n
$GPGGA,123718.30,5703.3845669,N,00952.2404604,E,2,12,0.8,-0.803,M,40.593,M,2.7,0123*63\r\n
$GPGGA,123718.35,5703.3845663,N,00952.2403338,E,2,12,0.8,-0.803,M,40.593,M,2.7,0123*61\r\n
$GPGGA,123718.40,5703.3845658,N,00952.2402092,E,2,12,0.8,-0.802,M,40.593,M,2.7,0123*68\r\n
$GPGGA,123718.45,5703.3845629,N,00952.2400838,E,2,12,0.8,-0.799,M,40.593,M,2.9,0123*62\r\n
$GPGGA,123718.50,5703.3845605,N,00952.2399578,E,2,12,0.8,-0.797,M,40.593,M,2.9,0123*68\r\n
$GPGGA,123718.55,5703.3845580,N,00952.2398312,E,2,12,0.8,-0.796,M,40.593,M,2.9,0123*69\r\n
$GPGGA,123718.60,5703.3845550,N,00952.2397061,E,2,12,0.8,-0.796,M,40.593,M,2.9,0123*6A\r\n
$GPGGA,123718.65,5703.3845511,N,00952.2395812,E,2,12,0.8,-0.796,M,40.593,M,3.1,0123*6D\r\n
$GPGGA,123718.70,5703.3845479,N,00952.2394560,E,2,12,0.8,-0.793,M,40.593,M,3.1,0123*6A\r\n
$GPGGA,123718.75,5703.3845444,N,00952.2393297,E,2,12,0.8,-0.794,M,40.593,M,3.1,0123*6E\r\n
$GPGGA,123718.80,5703.3845401,N,00952.2392043,E,2,12,0.8,-0.792,M,40.593,M,3.1,0123*69\r\n
$GPGGA,123718.85,5703.3845345,N,00952.2390791,E,2,12,0.8,-0.795,M,40.593,M,3.3,0123*64\r\n
$GPGGA,123718.90,5703.3845295,N,00952.2389542,E,2,12,0.8,-0.793,M,40.593,M,3.3,0123*6E\r\n
$GPGGA,123718.95,5703.3845241,N,00952.2388297,E,2,12,0.8,-0.793,M,40.593,M,3.3,0123*6C\r\n
$GPGGA,123719.00,5703.3845175,N,00952.2387062,E,2,12,0.8,-0.794,M,40.593,M,3.3,0123*65\r\n
$GPGGA,123719.05,5703.3845119,N,00952.2385841,E,2,12,0.8,-0.792,M,40.593,M,3.5,0123*61\r\n
$GPGGA,123719.10,5703.3845057,N,00952.2384597,E,2,12,0.8,-0.790,M,40.593,M,3.5,0123*6B\r\n
$GPGGA,123719.15,5703.3844995,N,00952.2383363,E,2,12,0.8,-0.789,M,40.593,M,3.5,0123*6A\r\n
$GPGGA,123719.20,5703.3844926,N,00952.2382120,E,2,12,0.8,-0.787,M,40.593,M,3.5,0123*6E\r\n
$GPGGA,123719.25,5703.3844854,N,00952.2380889,E,2,12,0.8,-0.789,M,40.593,M,3.7,0123*6B\r\n
$GPGGA,123719.30,5703.3844779,N,00952.2379658,E,2,12,0.8,-0.792,M,40.593,M,3.7,0123*61\r\n
$GPGGA,123719.35,5703.3844717,N,00952.2378434,E,2,12,0.8,-0.791,M,40.593,M,3.7,0123*66\r\n
$GPGGA,123719.40,5703.3844640,N,00952.2377207,E,2,12,0.8,-0.791,M,40.593,M,3.7,0123*6E\r\n
$GPGGA,123719.45,5703.3844557,N,00952.2375977,E,2,12,0.8,-0.792,M,40.593,M,0.7,0123*60\r\n
$GPGGA,123719.50,5703.3844479,N,00952.2374743,E,2,12,0.8,-0.793,M,40.593,M,0.7,0123*60\r\n
$GPGGA,123719.55,5703.3844399,N,00952.2373519,E,2,12,0.8,-0.794,M,40.593,M,0.7,0123*61\r\n
$GPGGA,123719.60,5703.3844315,N,00952.2372317,E,2,12,0.8,-0.798,M,40.593,M,0.7,0123*66\r\n
$GPGGA,123719.65,5703.3844225,N,00952.2371094,E,2,12,0.8,-0.801,M,40.593,M,1.0,0123*63\r\n
$GPGGA,123719.70,5703.3844140,N,00952.2369872,E,2,12,0.8,-0.803,M,40.593,M,1.0,0123*6C\r\n
$GPGGA,123719.75,5703.3844045,N,00952.2368670,E,2,12,0.8,-0.803,M,40.593,M,1.0,0123*60\r\n
$GPGGA,123719.80,5703.3843946,N,00952.2367463,E,2,12,0.8,-0.805,M,40.593,M,1.0,0123*6E\r\n
$GPGGA,123719.85,5703.3843838,N,00952.2366256,E,2,12,0.8,-0.809,M,40.593,M,1.2,0123*6C\r\n
$GPGGA,123719.90,5703.3843737,N,00952.2365057,E,2,12,0.8,-0.810,M,40.593,M,1.2,0123*60\r\n
$GPGGA,123719.95,5703.3843644,N,00952.2363864,E,2,12,0.8,-0.811,M,40.593,M,1.2,0123*6F\r\n
$GPGGA,123720.00,5703.3843543,N,00952.2362660,E,2,12,0.8,-0.815,M,40.593,M,1.2,0123*62\r\n
$GPGGA,123720.05,5703.3843440,N,00952.2361482,E,2,12,0.8,-0.816,M,40.593,M,1.5,0123*6C\r\n
$GPGGA,123720.10,5703.3843329,N,00952.2360301,E,2,12,0.8,-0.819,M,40.593,M,1.5,0123*62\r\n
$GPGGA,123720.15,5703.3843223,N,00952.2359115,E,2,12,0.8,-0.819,M,40.593,M,1.5,0123*61\r\n
$GPGGA,123720.20,5703.3843115,N,00952.2357926,E,2,12,0.8,-0.820,M,40.593,M,1.5,0123*6D\r\n
$GPGGA,123720.25,5703.3842997,N,00952.2356724,E,2,12,0.8,-0.818,M,40.593,M,1.8,0123*60\r\n
$GPGGA,123720.30,5703.3842875,N,00952.2355532,E,2,12,0.8,-0.820,M,40.593,M,1.8,0123*64\r\n
$GPGGA,123720.35,5703.3842744,N,00952.2354339,E,2,12,0.8,-0.820,M,40.593,M,1.8,0123*60\r\n
$GPGGA,123720.40,5703.3842623,N,00952.2353152,E,2,12,0.8,-0.822,M,40.593,M,1.8,0123*68\r\n
$GPGGA,123720.45,5703.3842504,N,00952.2351954,E,2,12,0.8,-0.832,M,40.593,M,2.0,0123*6D\r\n
$GPGGA,123720.50,5703.3842385,N,00952.2350763,E,2,12,0.8,-0.833,M,40.593,M,2.0,0123*6C\r\n
$GPGGA,123720.55,5703.3842272,N,00952.2349568,E,2,12,0.8,-0.836,M,40.593,M,2.0,0123*64\r\n
$GPGGA,123720.60,5703.3842153,N,00952.2348374,E,2,12,0.8,-0.839,M,40.593,M,2.0,0123*67\r\n
$GPGGA,123720.65,5703.3842017,N,00952.2347196,E,2,12,0.8,-0.839,M,40.593,M,2.3,0123*61\r\n
$GPGGA,123720.70,5703.3841877,N,00952.2346011,E,2,12,0.8,-0.839,M,40.593,M,2.3,0123*67\r\n
$GPGGA,123720.75,5703.3841743,N,00952.2344827,E,2,12,0.8,-0.839,M,40.593,M,2.3,0123*65\r\n
$GPGGA,123720.80,5703.3841612,N,00952.2343653,E,2,12,0.8,-0.839,M,40.593,M,2.3,0123*60\r\n
$GPGGA,123720.85,5703.3841474,N,00952.2342462,E,2,12,0.8,-0.844,M,40.593,M,2.5,0123*6A\r\n
$GPGGA,123720.90,5703.3841335,N,00952.2341270,E,2,12,0.8,-0.844,M,40.593,M,2.5,0123*6A\r\n
$GPGGA,123720.95,5703.3841195,N,00952.2340068,E,2,12,0.8,-0.846,M,40.593,M,2.5,0123*6F\r\n
$GPGGA,123721.00,5703.3841050,N,00952.2338886,E,2,12,0.8,-0.846,M,40.593,M,2.5,0123*6D\r\n
$GPGGA,123721.05,5703.3840912,N,00952.2337717,E,2,12,0.8,-0.846,M,40.593,M,2.7,0123*6C\r\n
$GPGGA,123721.10,5703.3840767,N,00952.2336547,E,2,12,0.8,-0.843,M,40.593,M,2.7,0123*67\r\n
$GPGGA,123721.15,5703.3840618,N,00952.2335363,E,2,12,0.8,-0.843,M,40.593,M,2.7,0123*68\r\n
$GPGGA,123721.20,5703.3840462,N,00952.2334176,E,2,12,0.8,-0.841,M,40.593,M,2.7,0123*64\r\n
$GPGGA,123721.25,5703.3840316,N,00952.2332991,E,2,12,0.8,-0.840,M,40.593,M,3.0,0123*65\r\n
$GPGGA,123721.30,5703.3840160,N,00952.2331801,E,2,12,0.8,-0.838,M,40.593,M,3.0,0123*66\r\n
$GPGGA,123721.35,5703.3840004,N,00952.2330625,E,2,12,0.8,-0.836,M,40.593,M,3.0,0123*67\r\n
$GPGGA,123721.40,5703.3839847,N,00952.2329440,E,2,12,0.8,-0.836,M,40.593,M,3.0,0123*6D\r\n
$GPGGA,123721.45,5703.3839684,N,00952.2328256,E,2,12,0.8,-0.835,M,40.593,M,1.8,0123*60\r\n
$GPGGA,123721.50,5703.3839515,N,00952.2327076,E,2,12,0.8,-0.835,M,40.593,M,1.8,0123*60\r\n
$GPGGA,123721.55,5703.3839341,N,00952.2325900,E,2,12,0.8,-0.835,M,40.593,M,1.8,0123*68\r\n
$GPGGA,123721.60,5703.3839179,N,00952.2324730,E,2,12,0.8,-0.832,M,40.593,M,1.8,0123*6C\r\n
$GPGGA,123721.65,5703.3839007,N,00952.2323550,E,2,12,0.8,-0.831,M,40.593,M,2.0,0123*6A\r\n
$GPGGA,123721.70,5703.3838827,N,00952.2322360,E,2,12,0.8,-0.831,M,40.593,M,2.0,0123*61\r\n
$GPGGA,123721.75,5703.3838639,N,00952.2321169,E,2,12,0.8,-0.832,M,40.593,M,2.0,0123*6E\r\n
$GPGGA,123721.80,5703.3838454,N,00952.2319985,E,2,12,0.8,-0.835,M,40.593,M,2.0,0123*6B\r\n
$GPGGA,123721.85,5703.3838253,N,00952.2318829,E,2,12,0.8,-0.837,M,40.593,M,2.2,0123*69\r\n
$GPGGA,123721.90,5703.3838056,N,00952.2317668,E,2,12,0.8,-0.839,M,40.593,M,2.2,0123*60\r\n
$GPGGA,123721.95,5703.3837857,N,00952.2316506,E,2,12,0.8,-0.839,M,40.593,M,2.2,0123*69\r\n
$GPGGA,123722.00,5703.3837657,N,00952.2315353,E,2,12,0.8,-0.840,M,40.593,M,2.2,0123*63\r\n
$GPGGA,123722.05,5703.3837454,N,00952.2314213,E,2,12,0.8,-0.838,M,40.593,M,2.5,0123*6B\r\n
$GPGGA,123722.10,5703.3837254,N,00952.2313061,E,2,12,0.8,-0.837,M,40.593,M,2.5,0123*66\r\n
$GPGGA,123722.15,5703.3837051,N,00952.2311899,E,2,12,0.8,-0.836,M,40.593,M,2.5,0123*68\r\n
$GPGGA,123722.20,5703.3836854,N,00952.2310743,E,2,12,0.8,-0.835,M,40.593,M,2.5,0123*68\r\n
$GPGGA,123722.25,5703.3836650,N,00952.2309592,E,2,12,0.8,-0.832,M,40.593,M,2.7,0123*64\r\n
$GPGGA,123722.30,5703.3836436,N,00952.2308458,E,2,12,0.8,-0.832,M,40.593,M,2.7,0123*64\r\n
$GPGGA,123722.35,5703.3836219,N,00952.2307309,E,2,12,0.8,-0.834,M,40.593,M,2.7,0123*60\r\n
$GPGGA,123722.40,5703.3836011,N,00952.2306179,E,2,12,0.8,-0.832,M,40.593,M,2.7,0123*6A\r\n
$GPGGA,123722.45,5703.3835786,N,00952.2305052,E,2,12,0.8,-0.832,M,40.593,M,2.9,0123*60\r\n
$GPGGA,123722.50,5703.3835572,N,00952.2303930,E,2,12,0.8,-0.830,M,40.593,M,2.9,0123*64\r\n
$GPGGA,123722.55,5703.3835347,N,00952.2302805,E,2,12,0.8,-0.828,M,40.593,M,2.9,0123*6E\r\n
$GPGGA,123722.60,5703.3835127,N,00952.2301690,E,2,12,0.8,-0.826,M,40.593,M,2.9,0123*63\r\n
$GPGGA,123722.65,5703.3834907,N,00952.2300564,E,2,12,0.8,-0.824,M,40.593,M,3.1,0123*6F\r\n
$GPGGA,123722.70,5703.3834682,N,00952.2299451,E,2,12,0.8,-0.824,M,40.593,M,3.1,0123*6F\r\n
$GPGGA,123722.75,5703.3834454,N,00952.2298354,E,2,12,0.8,-0.825,M,40.593,M,3.1,0123*61\r\n
$GPGGA,123722.80,5703.3834213,N,00952.2297262,E,2,12,0.8,-0.827,M,40.593,M,3.1,0123*67\r\n
$GPGGA,123722.85,5703.3833977,N,00952.2296164,E,2,12,0.8,-0.828,M,40.593,M,3.3,0123*65\r\n
$GPGGA,123722.90,5703.3833736,N,00952.2295081,E,2,12,0.8,-0.829,M,40.593,M,3.3,0123*62\r\n
$GPGGA,123722.95,5703.3833496,N,00952.2293989,E,2,12,0.8,-0.830,M,40.593,M,3.3,0123*61\r\n
$GPGGA,123723.00,5703.3833246,N,00952.2292906,E,2,12,0.8,-0.833,M,40.593,M,3.3,0123*62\r\n
$GPGGA,123723.05,5703.3832994,N,00952.2291833,E,2,12,0.8,-0.835,M,40.593,M,3.5,0123*66\r\n
$GPGGA,123723.10,5703.3832742,N,00952.2290758,E,2,12,0.8,-0.837,M,40.593,M,3.5,0123*66\r\n
$GPGGA,123723.15,5703.3832483,N,00952.2289692,E,2,12,0.8,-0.841,M,40.593,M,3.5,0123*63\r\n
$GPGGA,123723.20,5703.3832229,N,00952.2288632,E,2,12,0.8,-0.844,M,40.593,M,3.5,0123*6D\r\n
$GPGGA,123723.25,5703.3831973,N,00952.2287576,E,2,12,0.8,-0.845,M,40.593,M,3.7,0123*60\r\n
$GPGGA,123723.30,5703.3831706,N,00952.2286515,E,2,12,0.8,-0.847,M,40.593,M,3.7,0123*6E\r\n
$GPGGA,123723.35,5703.3831448,N,00952.2285463,E,2,12,0.8,-0.849,M,40.593,M,3.7,0123*6F\r\n
$GPGGA,123723.40,5703.3831196,N,00952.2284410,E,2,12,0.8,-0.850,M,40.593,M,3.7,0123*66\r\n
$GPGGA,123723.45,5703.3830925,N,00952.2283344,E,2,12,0.8,-0.854,M,40.593,M,3.9,0123*69\r\n
$GPGGA,123723.50,5703.3830663,N,00952.2282297,E,2,12,0.8,-0.857,M,40.593,M,3.9,0123*6D\r\n
$GPGGA,123723.55,5703.3830390,N,00952.2281267,E,2,12,0.8,-0.857,M,40.593,M,3.9,0123*6D\r\n
$GPGGA,123723.60,5703.3830120,N,00952.2280234,E,2,12,0.8,-0.859,M,40.593,M,3.9,0123*6B\r\n
$GPGGA,123723.65,5703.3829856,N,00952.2279218,E,2,12,0.8,-0.856,M,40.593,M,4.1,0123*66\r\n
$GPGGA,123723.70,5703.3829584,N,00952.2278190,E,2,12,0.8,-0.855,M,40.593,M,4.1,0123*61\r\n
$GPGGA,123723.75,5703.3829311,N,00952.2277152,E,2,12,0.8,-0.856,M,40.593,M,4.1,0123*6C\r\n
$GPGGA,123723.80,5703.3829026,N,00952.2276117,E,2,12,0.8,-0.859,M,40.593,M,4.1,0123*6E\r\n
$GPGGA,123723.85,5703.3828741,N,00952.2275113,E,2,12,0.8,-0.856,M,40.593,M,4.3,0123*66\r\n
$GPGGA,123723.90,5703.3828448,N,00952.2274097,E,2,12,0.8,-0.857,M,40.593,M,4.3,0123*65\r\n
$GPGGA,123723.95,5703.3828155,N,00952.2273095,E,2,12,0.8,-0.859,M,40.593,M,4.3,0123*62\r\n
$GPGGA,123724.00,5703.3827865,N,00952.2272096,E,2,12,0.8,-0.860,M,40.593,M,4.3,0123*64\r\n
$GPGGA,123724.05,5703.3827583,N,00952.2271109,E,2,12,0.8,-0.864,M,40.593,M,4.5,0123*62\r\n
$GPGGA,123724.10,5703.3827286,N,00952.2270113,E,2,12,0.8,-0.866,M,40.593,M,4.5,0123*6C\r\n
$GPGGA,123724.15,5703.3826978,N,00952.2269109,E,2,12,0.8,-0.869,M,40.593,M,4.5,0123*6E\r\n
$GPGGA,123724.20,5703.3826677,N,00952.2268126,E,2,12,0.8,-0.872,M,40.593,M,4.5,0123*6E\r\n
$GPGGA,123724.25,5703.3826375,N,00952.2267148,E,2,12,0.8,-0.871,M,40.593,M,4.7,0123*6A\r\n
$GPGGA,123724.30,5703.3826069,N,00952.2266173,E,2,12,0.8,-0.872,M,40.593,M,4.7,0123*6A\r\n
$GPGGA,123724.35,5703.3825754,N,00952.2265205,E,2,12,0.8,-0.872,M,40.593,M,4.7,0123*64\r\n
$GPGGA,123724.40,5703.3825442,N,00952.2264226,E,2,12,0.8,-0.873,M,40.593,M,4.7,0123*63\r\n
$GPGGA,123724.45,5703.3825133,N,00952.2263262,E,2,12,0.8,-0.870,M,40.593,M,2.0,0123*60\r\n
