$GPGGA,120533.00,5700.9252729,N,00959.1687768,E,2,6,1.3,8.071,M,40.583,M,2.7,0136*70\r\n
$GPGGA,120533.05,5700.9252751,N,00959.1687886,E,2,6,1.3,8.030,M,40.583,M,2.9,0136*7E\r\n
$GPGGA,120533.10,5700.9252751,N,00959.1687889,E,2,6,1.3,8.030,M,40.583,M,2.9,0136*75\r\n
$GPGGA,120533.15,5700.9252751,N,00959.1687889,E,2,6,1.3,8.030,M,40.583,M,2.9,0136*70\r\n
$GPGGA,120533.20,5700.9252751,N,00959.1687892,E,2,5,1.3,8.030,M,40.583,M,2.9,0136*7F\r\n
$GPGGA,120533.25,5700.9252761,N,00959.1687834,E,2,5,1.3,8.015,M,40.583,M,1.9,0136*71\r\n
$GPGGA,120533.30,5700.9252761,N,00959.1687830,E,2,5,1.3,8.015,M,40.583,M,1.9,0136*71\r\n
$GPGGA,120533.35,5700.9252761,N,00959.1687828,E,2,5,1.3,8.015,M,40.583,M,1.9,0136*7D\r\n
$GPGGA,120533.40,5700.9252760,N,00959.1687829,E,2,5,1.3,8.015,M,40.583,M,1.9,0136*7F\r\n
$GPGGA,120533.45,5700.9252751,N,00959.1687878,E,2,5,1.3,7.996,M,40.583,M,2.1,0136*7A\r\n
$GPGGA,120533.50,5700.9252751,N,00959.1687878,E,2,5,1.3,7.996,M,40.583,M,2.1,0136*7E\r\n
$GPGGA,120533.55,5700.9252750,N,00959.1687876,E,2,5,1.3,7.996,M,40.583,M,2.1,0136*74\r\n
$GPGGA,120533.60,5700.9252750,N,00959.1687877,E,2,5,1.3,7.995,M,40.583,M,2.1,0136*70\r\n
$GPGGA,120533.65,5700.9252764,N,00959.1687922,E,2,6,1.3,7.975,M,40.583,M,2.3,0136*7C\r\n
$GPGGA,120533.70,5700.9252764,N,00959.1687922,E,2,6,1.3,7.975,M,40.583,M,2.3,0136*78\r\n
$GPGGA,120533.75,5700.9252764,N,00959.1687918,E,2,6,1.3,7.975,M,40.583,M,2.3,0136*74\r\n
$GPGGA,120533.80,5700.9252764,N,00959.1687916,E,2,6,1.3,7.975,M,40.583,M,2.3,0136*70\r\n
$GPGGA,120533.85,5700.9252789,N,00959.1687836,E,2,6,1.3,7.962,M,40.583,M,2.6,0136*76\r\n
$GPGGA,120533.90,5700.9252789,N,00959.1687829,E,2,6,1.3,7.962,M,40.583,M,2.6,0136*7C\r\n
$GPGGA,120533.95,5700.9252789,N,00959.1687825,E,2,6,1.3,7.962,M,40.583,M,2.6,0136*75\r\n
$GPGGA,120534.00,5700.9252788,N,00959.1687818,E,2,6,1.3,7.962,M,40.583,M,2.6,0136*71\r\n
$GPGGA,120534.05,5700.9252715,N,00959.1687934,E,2,6,1.3,7.940,M,40.583,M,2.8,0136*71\r\n
$GPGGA,120534.10,5700.9252714,N,00959.1687932,E,2,6,1.3,7.940,M,40.583,M,2.8,0136*72\r\n
$GPGGA,120534.15,5700.9252713,N,00959.1687928,E,2,6,1.3,7.940,M,40.583,M,2.8,0136*7B\r\n
$GPGGA,120534.20,5700.9252712,N,00959.1687928,E,2,6,1.3,7.940,M,40.583,M,2.8,0136*7C\r\n
$GPGGA,120534.25,5700.9252834,N,00959.1688001,E,2,6,1.3,7.920,M,40.583,M,3.0,0136*70\r\n
$GPGGA,120534.30,5700.9252833,N,00959.1688001,E,2,6,1.3,7.920,M,40.583,M,3.0,0136*73\r\n
$GPGGA,120534.35,5700.9252833,N,00959.1687999,E,2,6,1.3,7.920,M,40.583,M,3.0,0136*71\r\n
$GPGGA,120534.40,5700.9252834,N,00959.1687997,E,2,6,1.3,7.920,M,40.583,M,3.0,0136*7A\r\n
$GPGGA,120534.45,5700.9252786,N,00959.1687947,E,2,6,1.3,7.901,M,40.583,M,3.2,0136*75\r\n
$GPGGA,120534.50,5700.9252786,N,00959.1687946,E,2,6,1.3,7.901,M,40.583,M,3.2,0136*70\r\n
$GPGGA,120534.55,5700.9252785,N,00959.1687941,E,2,6,1.3,7.901,M,40.583,M,3.2,0136*71\r\n
$GPGGA,120534.60,5700.9252784,N,00959.1687939,E,2,6,1.3,7.901,M,40.583,M,3.2,0136*79\r\n
$GPGGA,120534.65,5700.9252758,N,00959.1688083,E,2,6,1.3,7.877,M,40.583,M,3.4,0136*7C\r\n
$GPGGA,120534.70,5700.9252757,N,00959.1688089,E,2,6,1.3,7.877,M,40.583,M,3.4,0136*7D\r\n
$GPGGA,120534.75,5700.9252756,N,00959.1688091,E,2,6,1.3,7.877,M,40.583,M,3.4,0136*70\r\n
$GPGGA,120534.80,5700.9252754,N,00959.1688093,E,2,6,1.3,7.877,M,40.583,M,3.4,0136*7A\r\n
$GPGGA,120534.85,5700.9252819,N,00959.1688110,E,2,6,1.3,7.852,M,40.583,M,3.6,0136*76\r\n
$GPGGA,120534.90,5700.9252819,N,00959.1688114,E,2,6,1.3,7.852,M,40.583,M,3.6,0136*76\r\n
$GPGGA,120534.95,5700.9252818,N,00959.1688120,E,2,6,1.3,7.852,M,40.583,M,3.6,0136*75\r\n
$GPGGA,120535.00,5700.9252817,N,00959.1688125,E,2,6,1.3,7.852,M,40.583,M,3.6,0136*72\r\n
$GPGGA,120535.05,5700.9252837,N,00959.1688157,E,2,6,1.3,7.837,M,40.583,M,3.8,0136*7D\r\n
$GPGGA,120535.15,5700.9252836,N,00959.1688167,E,2,6,1.3,7.836,M,40.583,M,3.8,0136*7F\r\n
$GPGGA,120538.85,5700.9252186,N,00959.1687312,E,2,6,1.3,8.006,M,40.583,M,3.6,0136*7C\r\n
$GPGGA,120538.90,5700.9252187,N,00959.1687312,E,2,6,1.3,8.006,M,40.583,M,3.6,0136*79\r\n
$GPGGA,120538.95,5700.9252187,N,00959.1687312,E,2,6,1.3,8.006,M,40.583,M,3.6,0136*7C\r\n
$GPGGA,120539.00,5700.9252187,N,00959.1687314,E,2,6,1.3,8.006,M,40.583,M,3.6,0136*77\r\n
$GPGGA,120539.05,5700.9252096,N,00959.1687201,E,2,6,1.3,8.026,M,40.583,M,1.9,0136*79\r\n
$GPGGA,120539.10,5700.9252096,N,00959.1687200,E,2,6,1.3,8.026,M,40.583,M,1.9,0136*7C\r\n
$GPGGA,120539.15,5700.9252096,N,00959.1687200,E,2,6,1.3,8.025,M,40.583,M,1.9,0136*7A\r\n
$GPGGA,120539.20,5700.9252096,N,00959.1687201,E,2,6,1.3,8.025,M,40.583,M,1.9,0136*7D\r\n
$GPGGA,120539.25,5700.9252064,N,00959.1687153,E,2,6,1.3,8.053,M,40.583,M,2.2,0136*78\r\n
$GPGGA,120539.30,5700.9252063,N,00959.1687152,E,2,6,1.3,8.053,M,40.583,M,2.2,0136*7A\r\n
$GPGGA,120539.35,5700.9252063,N,00959.1687154,E,2,6,1.3,8.053,M,40.583,M,2.2,0136*79\r\n
$GPGGA,120539.40,5700.9252063,N,00959.1687153,E,2,6,1.3,8.053,M,40.583,M,2.2,0136*7C\r\n
$GPGGA,120539.45,5700.9252049,N,00959.1687098,E,2,6,1.3,8.073,M,40.583,M,2.4,0136*73\r\n
$GPGGA,120539.50,5700.9252049,N,00959.1687097,E,2,6,1.3,8.073,M,40.583,M,2.4,0136*78\r\n
$GPGGA,120539.55,5700.9252048,N,00959.1687098,E,2,6,1.3,8.073,M,40.583,M,2.4,0136*73\r\n
$GPGGA,120539.60,5700.9252048,N,00959.1687099,E,2,6,1.3,8.073,M,40.583,M,2.4,0136*74\r\n
$GPGGA,120539.65,5700.9251970,N,00959.1687136,E,2,6,1.3,8.090,M,40.583,M,2.7,0136*7A\r\n
$GPGGA,120539.70,5700.9251970,N,00959.1687137,E,2,6,1.3,8.090,M,40.583,M,2.7,0136*7F\r\n
$GPGGA,120539.75,5700.9251969,N,00959.1687140,E,2,6,1.3,8.089,M,40.583,M,2.7,0136*7A\r\n
$GPGGA,120539.80,5700.9251969,N,00959.1687143,E,2,6,1.3,8.089,M,40.583,M,2.7,0136*73\r\n
$GPGGA,120539.85,5700.9251956,N,00959.1687001,E,2,6,1.3,8.100,M,40.583,M,2.9,0136*73\r\n
$GPGGA,120539.90,5700.9251956,N,00959.1687004,E,2,6,1.3,8.100,M,40.583,M,2.9,0136*72\r\n
$GPGGA,120539.95,5700.9251955,N,00959.1687004,E,2,6,1.3,8.100,M,40.583,M,2.9,0136*74\r\n
$GPGGA,120540.00,5700.9251954,N,00959.1687005,E,2,6,1.3,8.100,M,40.583,M,2.9,0136*76\r\n
$GPGGA,120540.05,5700.9251917,N,00959.1686986,E,2,6,1.3,8.119,M,40.583,M,1.7,0136*72\r\n
$GPGGA,120540.10,5700.9251917,N,00959.1686988,E,2,6,1.3,8.119,M,40.583,M,1.7,0136*78\r\n
$GPGGA,120540.15,5700.9251917,N,00959.1686988,E,2,6,1.3,8.119,M,40.583,M,1.7,0136*7D\r\n
$GPGGA,120540.20,5700.9251916,N,00959.1686990,E,2,6,1.3,8.119,M,40.583,M,1.7,0136*73\r\n
$GPGGA,120540.25,5700.9251936,N,00959.1687012,E,2,6,1.3,8.130,M,40.583,M,2.0,0136*79\r\n
$GPGGA,120540.30,5700.9251936,N,00959.1687013,E,2,6,1.3,8.130,M,40.583,M,2.0,0136*7C\r\n
$GPGGA,120540.35,5700.9251935,N,00959.1687014,E,2,6,1.3,8.130,M,40.583,M,2.0,0136*7D\r\n
$GPGGA,120540.40,5700.9251935,N,00959.1687016,E,2,6,1.3,8.130,M,40.583,M,2.0,0136*7D\r\n
$GPGGA,120540.45,5700.9251904,N,00959.1687009,E,2,6,1.3,8.140,M,40.583,M,2.2,0136*71\r\n
$GPGGA,120540.50,5700.9251904,N,00959.1687012,E,2,6,1.3,8.140,M,40.583,M,2.2,0136*7F\r\n
$GPGGA,120540.55,5700.9251903,N,00959.1687014,E,2,6,1.3,8.140,M,40.583,M,2.2,0136*7B\r\n
$GPGGA,120540.60,5700.9251903,N,00959.1687017,E,2,6,1.3,8.140,M,40.583,M,2.2,0136*7E\r\n
$GPGGA,120540.65,5700.9251907,N,00959.1686990,E,2,6,1.3,8.141,M,40.583,M,2.4,0136*7F\r\n
$GPGGA,120540.70,5700.9251907,N,00959.1686991,E,2,6,1.3,8.141,M,40.583,M,2.4,0136*7A\r\n
$GPGGA,120540.75,5700.9251906,N,00959.1686993,E,2,6,1.3,8.141,M,40.583,M,2.4,0136*7C\r\n
$GPGGA,120540.80,5700.9251906,N,00959.1686994,E,2,6,1.3,8.141,M,40.583,M,2.4,0136*71\r\n
$GPGGA,120540.85,5700.9251861,N,00959.1686973,E,2,6,1.3,8.149,M,40.583,M,2.7,0136*76\r\n
$GPGGA,120540.90,5700.9251860,N,00959.1686973,E,2,6,1.3,8.149,M,40.583,M,2.7,0136*73\r\n
$GPGGA,120540.95,5700.9251860,N,00959.1686975,E,2,6,1.3,8.149,M,40.583,M,2.7,0136*70\r\n
$GPGGA,120541.00,5700.9251860,N,00959.1686975,E,2,6,1.3,8.149,M,40.583,M,2.7,0136*7D\r\n
$GPGGA,120541.05,5700.9251917,N,00959.1687004,E,2,6,1.3,8.160,M,40.583,M,1.6,0136*7E\r\n
$GPGGA,120541.10,5700.9251916,N,00959.1687005,E,2,6,1.3,8.160,M,40.583,M,1.6,0136*7A\r\n
$GPGGA,120541.15,5700.9251916,N,00959.1687006,E,2,6,1.3,8.159,M,40.583,M,1.6,0136*76\r\n
$GPGGA,120541.20,5700.9251917,N,00959.1687007,E,2,6,1.3,8.159,M,40.583,M,1.6,0136*70\r\n
$GPGGA,120541.25,5700.9251914,N,00959.1687006,E,2,6,1.3,8.163,M,40.583,M,1.9,0136*71\r\n
$GPGGA,120541.30,5700.9251914,N,00959.1687008,E,2,6,1.3,8.163,M,40.583,M,1.9,0136*7B\r\n
$GPGGA,120541.35,5700.9251914,N,00959.1687009,E,2,6,1.3,8.163,M,40.583,M,1.9,0136*7F\r\n
$GPGGA,120541.40,5700.9251914,N,00959.1687009,E,2,6,1.3,8.163,M,40.583,M,1.9,0136*7D\r\n
$GPGGA,120541.45,5700.9251851,N,00959.1686972,E,2,6,1.3,8.166,M,40.583,M,2.1,0136*72\r\n
$GPGGA,120541.50,5700.9251851,N,00959.1686972,E,2,6,1.3,8.166,M,40.583,M,2.1,0136*76\r\n
$GPGGA,120541.60,5700.9251850,N,00959.1686975,E,\x002,6,1.3,8.166,M,40.583,M,2.1,0136*73\r\n
$GPGGA,120544.45,5700.9252134,N,00959.1686896,E,2,6,1.3,8.263,M,40.583,M,2.2,0136*70\r\n
$GPGGA,120544.50,5700.9252134,N,00959.1686898,E,2,6,1.3,8.263,M,40.583,M,2.2,0136*7A\r\n
$GPGGA,120544.55,5700.9252134,N,00959.1686893,E,2,6,1.3,8.263,M,40.583,M,2.2,0136*74\r\n
$GPGGA,120544.60,5700.9252134,N,00959.1686893,E,2,6,1.3,8.263,M,40.583,M,2.2,0136*72\r\n
$GPGGA,120544.65,5700.9252135,N,00959.1686859,E,2,6,1.3,8.279,M,40.583,M,2.4,0136*7D\r\n
$GPGGA,120544.70,5700.9252135,N,00959.1686858,E,2,6,1.3,8.279,M,40.583,M,2.4,0136*78\r\n
$GPGGA,120544.75,5700.9252135,N,00959.1686861,E,2,6,1.3,8.279,M,40.583,M,2.4,0136*77\r\n
$GPGGA,120544.80,5700.9252134,N,00959.1686861,E,2,6,1.3,8.279,M,40.583,M,2.4,0136*7C\r\n
$GPGGA,120544.85,5700.9252101,N,00959.1686916,E,2,6,1.3,8.288,M,40.583,M,2.7,0136*73\r\n
$GPGGA,120544.90,5700.9252100,N,00959.1686919,E,2,6,1.3,8.288,M,40.583,M,2.7,0136*79\r\n
$GPGGA,120544.95,5700.9252099,N,00959.1686921,E,2,6,1.3,8.288,M,40.583,M,2.7,0136*76\r\n
$GPGGA,120545.00,5700.9252097,N,00959.1686921,E,2,6,1.3,8.288,M,40.583,M,2.7,0136*75\r\n
$GPGGA,120545.05,5700.9252112,N,00959.1686804,E,2,6,1.3,8.308,M,40.583,M,1.6,0136*71\r\n
$GPGGA,120545.10,5700.9252112,N,00959.1686804,E,2,6,1.3,8.308,M,40.583,M,1.6,0136*75\r\n
$GPGGA,120545.15,5700.9252111,N,00959.1686810,E,2,6,1.3,8.308,M,40.583,M,1.6,0136*76\r\n
$GPGGA,120545.20,5700.9252111,N,00959.1686811,E,2,6,1.3,8.308,M,40.583,M,1.6,0136*71\r\n
$GPGGA,120545.25,5700.9252224,N,00959.1686852,E,2,6,1.3,8.311,M,40.583,M,1.9,0136*71\r\n
$GPGGA,120545.30,5700.9252223,N,00959.1686854,E,2,6,1.3,8.311,M,40.583,M,1.9,0136*74\r\n
$GPGGA,120545.35,5700.9252222,N,00959.1686858,E,2,6,1.3,8.311,M,40.583,M,1.9,0136*7C\r\n
$GPGGA,120545.40,5700.9252222,N,00959.1686862,E,2,6,1.3,8.311,M,40.583,M,1.9,0136*77\r\n
$GPGGA,120545.45,5700.9252184,N,00959.1686849,E,2,6,1.3,8.317,M,40.583,M,2.1,0136*79\r\n
$GPGGA,120545.50,5700.9252184,N,00959.1686849,E,2,6,1.3,8.317,M,40.583,M,2.1,0136*7D\r\n
$GPGGA,120545.55,5700.9252182,N,00959.1686851,E,2,6,1.3,8.317,M,40.583,M,2.1,0136*77\r\n
$GPGGA,120545.60,5700.9252181,N,00959.1686855,E,2,6,1.3,8.317,M,40.583,M,2.1,0136*76\r\n
$GPGGA,120545.65,5700.9252247,N,00959.1686764,E,2,6,1.3,8.318,M,40.583,M,2.3,0136*7A\r\n
$GPGGA,120545.70,5700.9252247,N,00959.1686764,E,2,6,1.3,8.318,M,40.583,M,2.3,0136*7E\r\n
$GPGGA,120545.75,5700.9252246,N,00959.1686767,E,2,6,1.3,8.317,M,40.583,M,2.3,0136*76\r\n
$GPGGA,120545.80,5700.9252245,N,00959.1686768,E,2,6,1.3,8.317,M,40.583,M,2.3,0136*70\r\n
$GPGGA,120545.85,5700.9252271,N,00959.1686842,E,2,6,1.3,8.323,M,40.583,M,2.6,0136*77\r\n
$GPGGA,120545.90,5700.9252270,N,00959.1686844,E,2,6,1.3,8.323,M,40.583,M,2.6,0136*74\r\n
$GPGGA,120545.95,5700.9252269,N,00959.1686846,E,2,6,1.3,8.323,M,40.583,M,2.6,0136*7B\r\n
$GPGGA,120546.00,5700.9252268,N,00959.1686849,E,2,6,1.3,8.323,M,40.583,M,2.6,0136*7A\r\n
$GPGGA,120546.05,5700.9252296,N,00959.1686865,E,2,6,1.3,8.322,M,40.583,M,2.8,0136*7F\r\n
$GPGGA,120546.10,5700.9252295,N,00959.1686868,E,2,6,1.3,8.322,M,40.583,M,2.8,0136*75\r\n
$GPGGA,120546.15,5700.9252293,N,00959.1686871,E,2,6,1.3,8.322,M,40.583,M,2.8,0136*7E\r\n
$GPGGA,120546.20,5700.9252292,N,00959.1686876,E,2,6,1.3,8.322,M,40.583,M,2.8,0136*7E\r\n
$GPGGA,120546.25,5700.9252349,N,00959.1686747,E,2,6,1.3,8.324,M,40.583,M,3.0,0136*7E\r\n
$GPGGA,120546.30,5700.9252349,N,00959.1686747,E,2,6,1.3,8.324,M,40.583,M,3.0,0136*7A\r\n
$GPGGA,120546.35,5700.9252348,N,00959.1686745,E,2,6,1.3,8.324,M,40.583,M,3.0,0136*7C\r\n
$GPGGA,120546.40,5700.9252348,N,00959.1686745,E,2,6,1.3,8.324,M,40.583,M,3.0,0136*7E\r\n
$GPGGA,120546.45,5700.9252383,N,00959.1686830,E,2,6,1.3,8.333,M,40.583,M,3.2,0136*75\r\n
$GPGGA,120546.50,5700.9252382,N,00959.1686832,E,2,6,1.3,8.332,M,40.583,M,3.2,0136*73\r\n
$GPGGA,120546.55,5700.9252381,N,00959.1686838,E,2,6,1.3,8.332,M,40.583,M,3.2,0136*7F\r\n
$GPGGA,120546.60,5700.9252381,N,00959.1686845,E,2,6,1.3,8.332,M,40.583,M,3.2,0136*73\r\n
$GPGGA,120546.65,5700.9252392,N,00959.1686777,E,2,6,1.3,8.340,M,40.583,M,3.4,0136*79\r\n
$GPGGA,120546.70,5700.9252391,N,00959.1686781,E,2,6,1.3,8.340,M,40.583,M,3.4,0136*77\r\n
$GPGGA,120546.75,5700.9252390,N,00959.1686783,E,2,6,1.3,8.340,M,40.583,M,3.4,0136*71\r\n
$GPGGA,120546.80,5700.9252389,N,00959.1686785,E,2,6,1.3,8.340,M,40.583,M,3.4,0136*75\r\n
$GPGGA,120546.85,5700.9252436,N,00959.1686753,E,2,6,1.3,8.351,M,40.583,M,3.6,0136*7A\r\n
$GPGGA,120546.90,5700.9252436,N,00959.1686755,E,2,6,1.3,8.351,M,40.583,M,3.6,0136*78\r\n
$GPGGA,120546.95,5700.9252434,N,00959.1686756,E,2,6,1.3,8.351,M,40.583,M,3.6,0136*7C\r\n
$GPGGA,120547.00,5700.9252434,N,00959.1686760,E,2,5,1.3,8.352,M,40.583,M,3.6,0136*74\r\n
$GPGGA,120547.05,5700.9252481,N,00959.1686879,E,2,5,1.3,8.326,M,40.583,M,1.9,0136*76\r\n
$GPGGA,\x00120547.10,5700.9252480,N,00959.1686883,E,2,5,1.3,8.326,M,40.58\x003,M,1.9,0136*76\r\n
$GPGGA,120547.15,5700.9252479,N,00959.1686886,E,2,5,1.3\x00,8.326,M,40.583,M,1.9,0136*70\r\n
$GPGGA,120549.95,5700.9253165,N,00959.1687739,E,2,6,1.3,8.120,M,40.583,M,2.6,0136*7E\r\n
$GPGGA,120550.00,5700.9253163,N,00959.1687735,E,2,6,1.3,8.120,M,40.583,M,2.6,0136*70\r\n
$GPGGA,120550.05,5700.9253148,N,00959.1687832,E,2,6,1.3,8.126,M,40.583,M,2.8,0136*7C\r\n
$GPGGA,120550.10,5700.9253148,N,00959.1687829,E,2,6,1.3,8.126,M,40.583,M,2.8,0136*72\r\n
$GPGGA,120550.15,5700.9253147,N,00959.1687826,E,2,6,1.3,8.126,M,40.583,M,2.8,0136*77\r\n
$GPGGA,120550.20,5700.9253147,N,00959.1687824,E,2,6,1.3,8.126,M,40.583,M,2.8,0136*73\r\n
$GPGGA,120550.25,5700.9253205,N,00959.1687830,E,2,6,1.3,8.131,M,40.583,M,3.0,0136*79\r\n
$GPGGA,120550.30,5700.9253205,N,00959.1687826,E,2,6,1.3,8.130,M,40.583,M,3.0,0136*7B\r\n
$GPGGA,120550.35,5700.9253205,N,00959.1687822,E,2,6,1.3,8.130,M,40.583,M,3.0,0136*7A\r\n
$GPGGA,120550.40,5700.9253206,N,00959.1687818,E,2,6,1.3,8.130,M,40.583,M,3.0,0136*72\r\n
$GPGGA,120550.45,5700.9253168,N,00959.1687834,E,2,6,1.3,8.145,M,40.583,M,3.2,0136*72\r\n
$GPGGA,120550.50,5700.9253167,N,00959.1687831,E,2,6,1.3,8.145,M,40.583,M,3.2,0136*7C\r\n
$GPGGA,120550.55,5700.9253167,N,00959.1687827,E,2,6,1.3,8.145,M,40.583,M,3.2,0136*7E\r\n
$GPGGA,120550.60,5700.9253168,N,00959.1687822,E,2,6,1.3,8.145,M,40.583,M,3.2,0136*72\r\n
$GPGGA,120550.65,5700.9253180,N,00959.1687824,E,2,6,1.3,8.161,M,40.583,M,3.4,0136*77\r\n
$GPGGA,120550.70,5700.9253180,N,00959.1687820,E,2,6,1.3,8.161,M,40.583,M,3.4,0136*77\r\n
$GPGGA,120550.75,5700.9253179,N,00959.1687818,E,2,6,1.3,8.161,M,40.583,M,3.4,0136*7F\r\n
$GPGGA,120550.80,5700.9253179,N,00959.1687815,E,2,6,1.3,8.161,M,40.583,M,3.4,0136*78\r\n
$GPGGA,120550.85,5700.9253134,N,00959.1687798,E,2,6,1.3,8.175,M,40.583,M,3.6,0136*79\r\n
$GPGGA,120550.90,5700.9253133,N,00959.1687795,E,2,6,1.3,8.175,M,40.583,M,3.6,0136*77\r\n
$GPGGA,120550.95,5700.9253133,N,00959.1687791,E,2,6,1.3,8.176,M,40.583,M,3.6,0136*75\r\n
$GPGGA,120551.00,5700.9253132,N,00959.1687787,E,2,6,1.3,8.176,M,40.583,M,3.6,0136*7E\r\n
$GPGGA,120551.05,5700.9253150,N,00959.1687752,E,2,6,1.3,8.197,M,40.583,M,1.9,0136*75\r\n
$GPGGA,120551.10,5700.9253150,N,00959.1687750,E,2,6,1.3,8.197,M,40.583,M,1.9,0136*73\r\n
$GPGGA,120551.15,5700.9253150,N,00959.1687746,E,2,6,1.3,8.197,M,40.583,M,1.9,0136*71\r\n
$GPGGA,120551.20,5700.9253149,N,00959.1687742,E,2,6,1.3,8.197,M,40.583,M,1.9,0136*7B\r\n
$GPGGA,120551.25,5700.9253121,N,00959.1687729,E,2,6,1.3,8.220,M,40.583,M,2.2,0136*7A\r\n
$GPGGA,120551.30,5700.9253120,N,00959.1687726,E,2,6,1.3,8.220,M,40.583,M,2.2,0136*70\r\n
$GPGGA,120551.35,5700.9253120,N,00959.1687724,E,2,6,1.3,8.220,M,40.583,M,2.2,0136*77\r\n
$GPGGA,120551.40,5700.9253120,N,00959.1687721,E,2,6,1.3,8.221,M,40.583,M,2.2,0136*71\r\n
$GPGGA,120551.45,5700.9253162,N,00959.1687737,E,2,6,1.3,8.239,M,40.583,M,2.4,0136*7A\r\n
$GPGGA,120551.50,5700.9253161,N,00959.1687736,E,2,6,1.3,8.239,M,40.583,M,2.4,0136*7C\r\n
$GPGGA,120551.55,5700.9253161,N,00959.1687734,E,2,6,1.3,8.239,M,40.583,M,2.4,0136*7B\r\n
$GPGGA,120551.60,5700.9253160,N,00959.1687734,E,2,6,1.3,8.239,M,40.583,M,2.4,0136*7C\r\n
$GPGGA,120551.65,5700.9253067,N,00959.1687656,E,2,6,1.3,8.258,M,40.583,M,2.7,0136*7E\r\n
$GPGGA,120551.70,5700.9253066,N,00959.1687656,E,2,6,1.3,8.258,M,40.583,M,2.7,0136*7B\r\n
$GPGGA,120551.75,5700.9253065,N,00959.1687654,E,2,6,1.3,8.258,M,40.583,M,2.7,0136*7F\r\n
$GPGGA,120551.80,5700.9253064,N,00959.1687653,E,2,6,1.3,8.258,M,40.583,M,2.7,0136*73\r\n
$GPGGA,120551.85,5700.9253134,N,00959.1687579,E,2,6,1.3,8.285,M,40.583,M,2.9,0136*77\r\n
$GPGGA,120551.90,5700.9253133,N,00959.1687578,E,2,6,1.3,8.285,M,40.583,M,2.9,0136*75\r\n
$GPGGA,120551.95,5700.9253133,N,00959.1687577,E,2,6,1.3,8.285,M,40.583,M,2.9,0136*7F\r\n
$GPGGA,120552.00,5700.9253132,N,00959.1687577,E,2,6,1.3,8.285,M,40.583,M,2.9,0136*71\r\n
$GPGGA,120552.05,5700.9253097,N,00959.1687591,E,2,6,1.3,8.306,M,40.583,M,1.7,0136*75\r\n
$GPGGA,120552.10,5700.9253096,N,00959.1687591,E,2,6,1.3,8.306,M,40.583,M,1.7,0136*70\r\n
$GPGGA,120552.15,5700.9253096,N,00959.1687592,E,2,6,1.3,8.306,M,40.583,M,1.7,0136*76\r\n
$GPGGA,120552.20,5700.9253095,N,00959.1687594,E,2,6,1.3,8.306,M,40.583,M,1.7,0136*75\r\n
$GPGGA,120552.25,5700.9253100,N,00959.1687558,E,2,6,1.3,8.323,M,40.583,M,2.0,0136*7E\r\n
$GPGGA,120552.30,5700.9253099,N,00959.1687560,E,2,6,1.3,8.323,M,40.583,M,2.0,0136*70\r\n
$GPGGA,120552.35,5700.9253099,N,00959.1687562,E,2,6,1.3,8.323,M,40.583,M,2.0,0136*77\r\n
$GPGGA,120552.40,5700.9253098,N,00959.1687564,E,2,6,1.3,8.323,M,40.583,M,2.0,0136*72\r\n
$GPGGA,120552.45,5700.9253087,N,00959.1687512,E,2,6,1.3,8.351,M,40.583,M,2.2,0136*7F\r\n
$GPGGA,120552.50,5700.9253087,N,00959.1687515,E,2,6,1.3,8.351,M,40.583,M,2.2,0136*7C\r\n
$GPGGA,120552.55,5700.9253087,N,00959.1687518,E,2,6,1.3,8.351,M,40.583,M,2.2,0136*74\r\n
$GPGGA,120552.60,5700.9253086,N,00959.1687521,E,2,6,1.3,8.351,M,40.583,M,2.2,0136*79\r\n
$GPGGA,120552.70,5700.9253092,N,00959.1687438,E,\x002,6,1.3,8.378,M,40.583,M,2.4,0136*79\r\n
$GPGGA,120555.55,5700.9253094,N,00959.1686927,E,2,6,1.3,8.655,M,40.583,M,2.4,0136*77\r\n
$GPGGA,120555.60,5700.9253094,N,00959.1686930,E,2,6,1.3,8.654,M,40.583,M,2.4,0136*76\r\n
$GPGGA,120555.65,5700.9253138,N,00959.1686944,E,2,6,1.3,8.670,M,40.583,M,2.7,0136*72\r\n
$GPGGA,120555.70,5700.9253138,N,00959.1686943,E,2,6,1.3,8.670,M,40.583,M,2.7,0136*71\r\n
$GPGGA,120555.75,5700.9253138,N,00959.1686944,E,2,6,1.3,8.670,M,40.583,M,2.7,0136*73\r\n
$GPGGA,120555.80,5700.9253138,N,00959.1686942,E,2,6,1.3,8.670,M,40.583,M,2.7,0136*7F\r\n
$GPGGA,120555.85,5700.9253123,N,00959.1686926,E,2,6,1.3,8.680,M,40.583,M,2.9,0136*73\r\n
$GPGGA,120555.90,5700.9253123,N,00959.1686926,E,2,6,1.3,8.680,M,40.583,M,2.9,0136*77\r\n
$GPGGA,120555.95,5700.9253123,N,00959.1686926,E,2,6,1.3,8.680,M,40.583,M,2.9,0136*72\r\n
$GPGGA,120556.00,5700.9253122,N,00959.1686925,E,2,6,1.3,8.680,M,40.583,M,2.9,0136*7F\r\n
$GPGGA,120556.05,5700.9253114,N,00959.1686909,E,2,6,1.3,8.690,M,40.583,M,1.7,0136*7D\r\n
$GPGGA,120556.10,5700.9253114,N,00959.1686910,E,2,6,1.3,8.690,M,40.583,M,1.7,0136*71\r\n
$GPGGA,120556.15,5700.9253113,N,00959.1686909,E,2,6,1.3,8.690,M,40.583,M,1.7,0136*7B\r\n
$GPGGA,120556.20,5700.9253112,N,00959.1686908,E,2,6,1.3,8.690,M,40.583,M,1.7,0136*7D\r\n
$GPGGA,120556.25,5700.9253143,N,00959.1686910,E,2,6,1.3,8.707,M,40.583,M,2.0,0136*7E\r\n
$GPGGA,120556.30,5700.9253142,N,00959.1686908,E,2,6,1.3,8.706,M,40.583,M,2.0,0136*73\r\n
$GPGGA,120556.35,5700.9253142,N,00959.1686908,E,2,6,1.3,8.706,M,40.583,M,2.0,0136*76\r\n
$GPGGA,120556.40,5700.9253142,N,00959.1686909,E,2,6,1.3,8.706,M,40.583,M,2.0,0136*75\r\n
$GPGGA,120556.45,5700.9253175,N,00959.1686859,E,2,6,1.3,8.717,M,40.583,M,2.2,0136*72\r\n
$GPGGA,120556.50,5700.9253174,N,00959.1686858,E,2,6,1.3,8.717,M,40.583,M,2.2,0136*76\r\n
$GPGGA,120556.55,5700.9253174,N,00959.1686857,E,2,6,1.3,8.717,M,40.583,M,2.2,0136*7C\r\n
$GPGGA,120556.60,5700.9253174,N,00959.1686856,E,2,6,1.3,8.717,M,40.583,M,2.2,0136*7B\r\n
$GPGGA,120556.65,5700.9253142,N,00959.1686887,E,2,6,1.3,8.733,M,40.583,M,2.4,0136*77\r\n
$GPGGA,120556.70,5700.9253142,N,00959.1686887,E,2,6,1.3,8.733,M,40.583,M,2.4,0136*73\r\n
$GPGGA,120556.75,5700.9253141,N,00959.1686888,E,2,6,1.3,8.733,M,40.583,M,2.4,0136*7A\r\n
$GPGGA,120556.80,5700.9253141,N,00959.1686887,E,2,6,1.3,8.733,M,40.583,M,2.4,0136*7F\r\n
$GPGGA,120556.85,5700.9253162,N,00959.1686764,E,2,6,1.3,8.747,M,40.583,M,2.7,0136*79\r\n
$GPGGA,120556.90,5700.9253161,N,00959.1686758,E,2,6,1.3,8.747,M,40.583,M,2.7,0136*71\r\n
$GPGGA,120556.95,5700.9253161,N,00959.1686752,E,2,6,1.3,8.746,M,40.583,M,2.7,0136*7F\r\n
$GPGGA,120557.00,5700.9253161,N,00959.1686747,E,2,6,1.3,8.746,M,40.583,M,2.7,0136*76\r\n
$GPGGA,120557.05,5700.9253168,N,00959.1686854,E,2,6,1.3,8.762,M,40.583,M,1.6,0136*73\r\n
$GPGGA,120557.10,5700.9253168,N,00959.1686850,E,2,6,1.3,8.762,M,40.583,M,1.6,0136*73\r\n
$GPGGA,120557.15,5700.9253168,N,00959.1686848,E,2,6,1.3,8.762,M,40.583,M,1.6,0136*7F\r\n
$GPGGA,120557.20,5700.9253167,N,00959.1686843,E,2,6,1.3,8.762,M,40.583,M,1.6,0136*7D\r\n
$GPGGA,120557.25,5700.9253157,N,00959.1686797,E,2,6,1.3,8.777,M,40.583,M,1.9,0136*76\r\n
$GPGGA,120557.30,5700.9253156,N,00959.1686794,E,2,6,1.3,8.777,M,40.583,M,1.9,0136*70\r\n
$GPGGA,120557.35,5700.9253156,N,00959.1686790,E,2,6,1.3,8.777,M,40.583,M,1.9,0136*71\r\n
$GPGGA,120557.40,5700.9253156,N,00959.1686787,E,2,6,1.3,8.777,M,40.583,M,1.9,0136*75\r\n
$GPGGA,120557.45,5700.9253183,N,00959.1686775,E,2,6,1.3,8.789,M,40.583,M,2.1,0136*7F\r\n
$GPGGA,120557.50,5700.9253182,N,00959.1686774,E,2,6,1.3,8.789,M,40.583,M,2.1,0136*7B\r\n
$GPGGA,120557.55,5700.9253181,N,00959.1686772,E,2,6,1.3,8.789,M,40.583,M,2.1,0136*7B\r\n
$GPGGA,120557.60,5700.9253181,N,00959.1686770,E,2,6,1.3,8.789,M,40.583,M,2.1,0136*7F\r\n
$GPGGA,120557.65,5700.9253196,N,00959.1686820,E,2,6,1.3,8.799,M,40.583,M,2.3,0136*75\r\n
$GPGGA,120557.70,5700.9253196,N,00959.1686818,E,2,6,1.3,8.799,M,40.583,M,2.3,0136*7A\r\n
$GPGGA,120557.75,5700.9253195,N,00959.1686817,E,2,6,1.3,8.800,M,40.583,M,2.3,0136*7C\r\n
$GPGGA,120557.80,5700.9253195,N,00959.1686815,E,2,6,1.3,8.800,M,40.583,M,2.3,0136*74\r\n
$GPGGA,120557.85,5700.9253212,N,00959.1686791,E,2,6,1.3,8.808,M,40.583,M,2.6,0136*73\r\n
$GPGGA,120557.90,5700.9253211,N,00959.1686791,E,2,6,1.3,8.808,M,40.583,M,2.6,0136*74\r\n
$GPGGA,120557.95,5700.9253211,N,00959.1686787,E,2,6,1.3,8.808,M,40.583,M,2.6,0136*76\r\n
$GPGGA,120558.00,5700.9253211,N,00959.1686786,E,2,6,1.3,8.808,M,40.583,M,2.6,0136*74\r\n
$GPGGA,120558.05,5700.9253211,N,00959.1686755,E,2,6,1.3,8.825,M,40.583,M,2.8,0136*7E\r\n
$GPGGA,120558.10,5700.9253212,N,00959.1686752,E,2,6,1.3,8.825,M,40.583,M,2.8,0136*7E\r\n
$GPGGA,120558.15,5700.9253212,N,00959.1686748,E,2,6,1.3,8.825,M,40.583,M,2.8,0136*70\r\n
$GPGGA,120558.25,5700.9253261,N,00959.1686823,E,\x002,6,1.3,8.820,M,40.583,M,3.0,0136*79\r\n
$GPGGA,120601.05,5700.9253485,N,00959.1687041,E,2,6,1.3,8.878,M,40.583,M,1.6,0136*7C\r\n
$GPGGA,120601.10,5700.9253485,N,00959.1687045,E,2,6,1.3,8.878,M,40.583,M,1.6,0136*7C\r\n
$GPGGA,120601.15,5700.9253485,N,00959.1687046,E,2,6,1.3,8.878,M,40.583,M,1.6,0136*7A\r\n
$GPGGA,120601.20,5700.9253485,N,00959.1687042,E,2,6,1.3,8.878,M,40.583,M,1.6,0136*78\r\n
$GPGGA,120601.25,5700.9253520,N,00959.1686983,E,2,6,1.3,8.888,M,40.583,M,1.9,0136*76\r\n
$GPGGA,120601.30,5700.9253520,N,00959.1686981,E,2,6,1.3,8.888,M,40.583,M,1.9,0136*70\r\n
$GPGGA,120601.35,5700.9253520,N,00959.1686980,E,2,6,1.3,8.888,M,40.583,M,1.9,0136*74\r\n
$GPGGA,120601.40,5700.9253520,N,00959.1686977,E,2,6,1.3,8.888,M,40.583,M,1.9,0136*7E\r\n
$GPGGA,120601.45,5700.9253524,N,00959.1687023,E,2,6,1.3,8.893,M,40.583,M,2.1,0136*77\r\n
$GPGGA,120601.50,5700.9253523,N,00959.1687022,E,2,6,1.3,8.893,M,40.583,M,2.1,0136*75\r\n
$GPGGA,120601.55,5700.9253523,N,00959.1687024,E,2,6,1.3,8.893,M,40.583,M,2.1,0136*76\r\n
$GPGGA,120601.60,5700.9253523,N,00959.1687021,E,2,6,1.3,8.893,M,40.583,M,2.1,0136*75\r\n
$GPGGA,120601.65,5700.9253529,N,00959.1687002,E,2,6,1.3,8.908,M,40.583,M,2.3,0136*7A\r\n
$GPGGA,120601.70,5700.9253529,N,00959.1687002,E,2,6,1.3,8.908,M,40.583,M,2.3,0136*7E\r\n
$GPGGA,120601.75,5700.9253529,N,00959.1687002,E,2,6,1.3,8.908,M,40.583,M,2.3,0136*7B\r\n
$GPGGA,120601.80,5700.9253530,N,00959.1687005,E,2,6,1.3,8.908,M,40.583,M,2.3,0136*7E\r\n
$GPGGA,120601.85,5700.9253476,N,00959.1687072,E,2,6,1.3,8.922,M,40.583,M,2.6,0136*75\r\n
$GPGGA,120601.90,5700.9253476,N,00959.1687075,E,2,6,1.3,8.922,M,40.583,M,2.6,0136*76\r\n
$GPGGA,120601.95,5700.9253476,N,00959.1687079,E,2,6,1.3,8.922,M,40.583,M,2.6,0136*7F\r\n
$GPGGA,120602.00,5700.9253475,N,00959.1687086,E,2,6,1.3,8.922,M,40.583,M,2.6,0136*73\r\n
$GPGGA,120602.05,5700.9253491,N,00959.1687035,E,2,6,1.3,8.933,M,40.583,M,2.8,0136*7A\r\n
$GPGGA,120602.10,5700.9253490,N,00959.1687040,E,2,6,1.3,8.933,M,40.583,M,2.8,0136*7D\r\n
$GPGGA,120602.15,5700.9253490,N,00959.1687046,E,2,6,1.3,8.933,M,40.583,M,2.8,0136*7E\r\n
$GPGGA,120602.20,5700.9253489,N,00959.1687053,E,2,6,1.3,8.933,M,40.583,M,2.8,0136*74\r\n
$GPGGA,120602.25,5700.9253435,N,00959.1686978,E,2,6,1.3,8.947,M,40.583,M,3.0,0136*7D\r\n
$GPGGA,120602.30,5700.9253434,N,00959.1686984,E,2,6,1.3,8.947,M,40.583,M,3.0,0136*7B\r\n
$GPGGA,120602.35,5700.9253433,N,00959.1686991,E,2,6,1.3,8.947,M,40.583,M,3.0,0136*7D\r\n
$GPGGA,120602.40,5700.9253432,N,00959.1686997,E,2,6,1.3,8.946,M,40.583,M,3.0,0136*79\r\n
$GPGGA,120602.45,5700.9253470,N,00959.1686952,E,2,6,1.3,8.962,M,40.583,M,3.2,0136*77\r\n
$GPGGA,120602.50,5700.9253470,N,00959.1686959,E,2,6,1.3,8.962,M,40.583,M,3.2,0136*78\r\n
$GPGGA,120602.55,5700.9253469,N,00959.1686966,E,2,6,1.3,8.962,M,40.583,M,3.2,0136*79\r\n
$GPGGA,120602.60,5700.9253469,N,00959.1686972,E,2,6,1.3,8.961,M,40.583,M,3.2,0136*79\r\n
$GPGGA,120602.65,5700.9253465,N,00959.1686980,E,2,6,1.3,8.981,M,40.583,M,3.4,0136*75\r\n
$GPGGA,120602.70,5700.9253464,N,00959.1686987,E,2,6,1.3,8.981,M,40.583,M,3.4,0136*77\r\n
$GPGGA,120602.75,5700.9253464,N,00959.1686994,E,2,6,1.3,8.980,M,40.583,M,3.4,0136*71\r\n
$GPGGA,120602.80,5700.9253464,N,00959.1687002,E,2,6,1.3,8.980,M,40.583,M,3.4,0136*7C\r\n
$GPGGA,120602.85,5700.9253410,N,00959.1686966,E,2,6,1.3,9.003,M,40.583,M,3.6,0136*71\r\n
$GPGGA,120602.90,5700.9253410,N,00959.1686973,E,2,6,1.3,9.003,M,40.583,M,3.6,0136*71\r\n
$GPGGA,120602.95,5700.9253409,N,00959.1686981,E,2,6,1.3,9.003,M,40.583,M,3.6,0136*71\r\n
$GPGGA,120603.00,5700.9253409,N,00959.1686988,E,2,6,1.3,9.002,M,40.583,M,3.6,0136*74\r\n
$GPGGA,120603.05,5700.9253410,N,00959.1686906,E,2,6,1.3,9.018,M,40.583,M,1.9,0136*79\r\n
$GPGGA,120603.10,5700.9253410,N,00959.1686913,E,2,6,1.3,9.018,M,40.583,M,1.9,0136*79\r\n
$GPGGA,120603.15,5700.9253409,N,00959.1686918,E,2,6,1.3,9.018,M,40.583,M,1.9,0136*7F\r\n
$GPGGA,120603.20,5700.9253409,N,00959.1686926,E,2,6,1.3,9.017,M,40.583,M,1.9,0136*7B\r\n
$GPGGA,120603.25,5700.9253422,N,00959.1686935,E,2,6,1.3,9.034,M,40.583,M,2.2,0136*7C\r\n
$GPGGA,120603.30,5700.9253422,N,00959.1686941,E,2,6,1.3,9.034,M,40.583,M,2.2,0136*7B\r\n
$GPGGA,120603.35,5700.9253422,N,00959.1686943,E,2,6,1.3,9.033,M,40.583,M,2.2,0136*7B\r\n
$GPGGA,120603.40,5700.9253422,N,00959.1686951,E,2,6,1.3,9.033,M,40.583,M,2.2,0136*7A\r\n
$GPGGA,120603.45,5700.9253425,N,00959.1686905,E,2,6,1.3,9.058,M,40.583,M,2.4,0136*72\r\n
$GPGGA,120603.50,5700.9253425,N,00959.1686912,E,2,6,1.3,9.057,M,40.583,M,2.4,0136*7F\r\n
$GPGGA,120603.55,5700.9253424,N,00959.1686918,E,2,6,1.3,9.057,M,40.583,M,2.4,0136*71\r\n
$GPGGA,120603.60,5700.9253424,N,00959.1686925,E,2,6,1.3,9.057,M,40.583,M,2.4,0136*79\r\n
$GPGGA,120603.65,5700.9253359,N,00959.1686984,E,2,6,1.3,9.078,M,40.583,M,2.7,0136*74\r\n
$GPGGA,120603.75,5700.9253359,N,00959.1686998,E,\x002,6,1.3,9.077,M,40.583,M,2.7,0136*77\r\n
$GPGGA,120606.55,5700.9253527,N,00959.1687364,E,2,6,1.3,9.208,M,40.583,M,3.2,0136*79\r\n
$GPGGA,120606.60,5700.9253527,N,00959.1687362,E,2,6,1.3,9.208,M,40.583,M,3.2,0136*79\r\n
$GPGGA,120606.65,5700.9253546,N,00959.1687379,E,2,6,1.3,9.207,M,40.583,M,3.4,0136*78\r\n
$GPGGA,120606.70,5700.9253547,N,00959.1687377,E,2,6,1.3,9.207,M,40.583,M,3.4,0136*73\r\n
$GPGGA,120606.75,5700.9253547,N,00959.1687374,E,2,6,1.3,9.207,M,40.583,M,3.4,0136*75\r\n
$GPGGA,120606.80,5700.9253548,N,00959.1687372,E,2,6,1.3,9.207,M,40.583,M,3.4,0136*76\r\n
$GPGGA,120606.85,5700.9253578,N,00959.1687411,E,2,6,1.3,9.212,M,40.583,M,3.6,0136*74\r\n
$GPGGA,120606.90,5700.9253579,N,00959.1687409,E,2,6,1.3,9.212,M,40.583,M,3.6,0136*78\r\n
$GPGGA,120606.95,5700.9253579,N,00959.1687404,E,2,6,1.3,9.212,M,40.583,M,3.6,0136*70\r\n
$GPGGA,120607.00,5700.9253581,N,00959.1687401,E,2,6,1.3,9.212,M,40.583,M,3.6,0136*7F\r\n
$GPGGA,120607.05,5700.9253575,N,00959.1687493,E,2,6,1.3,9.214,M,40.583,M,1.9,0136*71\r\n
$GPGGA,120607.10,5700.9253576,N,00959.1687491,E,2,6,1.3,9.214,M,40.583,M,1.9,0136*74\r\n
$GPGGA,120607.15,5700.9253577,N,00959.1687487,E,2,6,1.3,9.214,M,40.583,M,1.9,0136*77\r\n
$GPGGA,120607.20,5700.9253578,N,00959.1687485,E,2,6,1.3,9.214,M,40.583,M,1.9,0136*7C\r\n
$GPGGA,120607.25,5700.9253556,N,00959.1687579,E,2,6,1.3,9.217,M,40.583,M,2.2,0136*7C\r\n
$GPGGA,120607.30,5700.9253556,N,00959.1687576,E,2,6,1.3,9.217,M,40.583,M,2.2,0136*77\r\n
$GPGGA,120607.35,5700.9253558,N,00959.1687573,E,2,6,1.3,9.217,M,40.583,M,2.2,0136*79\r\n
$GPGGA,120607.40,5700.9253559,N,00959.1687571,E,2,6,1.3,9.217,M,40.583,M,2.2,0136*78\r\n
$GPGGA,120607.45,5700.9253616,N,00959.1687602,E,2,6,1.3,9.220,M,40.583,M,2.4,0136*70\r\n
$GPGGA,120607.50,5700.9253617,N,00959.1687600,E,2,6,1.3,9.220,M,40.583,M,2.4,0136*77\r\n
$GPGGA,120607.55,5700.9253618,N,00959.1687598,E,2,6,1.3,9.220,M,40.583,M,2.4,0136*7F\r\n
$GPGGA,120607.60,5700.9253619,N,00959.1687596,E,2,6,1.3,9.220,M,40.583,M,2.4,0136*76\r\n
$GPGGA,120607.65,5700.9253579,N,00959.1687698,E,2,6,1.3,9.218,M,40.583,M,2.7,0136*73\r\n
$GPGGA,120607.70,5700.9253580,N,00959.1687695,E,2,6,1.3,9.218,M,40.583,M,2.7,0136*7C\r\n
$GPGGA,120607.75,5700.9253581,N,00959.1687693,E,2,6,1.3,9.218,M,40.583,M,2.7,0136*7E\r\n
$GPGGA,120607.80,5700.9253582,N,00959.1687691,E,2,6,1.3,9.218,M,40.583,M,2.7,0136*75\r\n
$GPGGA,120607.85,5700.9253610,N,00959.1687762,E,2,6,1.3,9.214,M,40.583,M,2.9,0136*77\r\n
$GPGGA,120607.90,5700.9253611,N,00959.1687761,E,2,6,1.3,9.214,M,40.583,M,2.9,0136*71\r\n
$GPGGA,120607.95,5700.9253611,N,00959.1687758,E,2,6,1.3,9.214,M,40.583,M,2.9,0136*7E\r\n
$GPGGA,120608.00,5700.9253612,N,00959.1687755,E,2,6,1.3,9.215,M,40.583,M,2.9,0136*72\r\n
$GPGGA,120608.05,5700.9253628,N,00959.1687809,E,2,6,1.3,9.208,M,40.583,M,1.7,0136*79\r\n
$GPGGA,120608.10,5700.9253629,N,00959.1687807,E,2,6,1.3,9.208,M,40.583,M,1.7,0136*72\r\n
$GPGGA,120608.15,5700.9253629,N,00959.1687805,E,2,6,1.3,9.208,M,40.583,M,1.7,0136*75\r\n
$GPGGA,120608.20,5700.9253630,N,00959.1687802,E,2,6,1.3,9.208,M,40.583,M,1.7,0136*7C\r\n
$GPGGA,120608.25,5700.9253633,N,00959.1687942,E,2,6,1.3,9.197,M,40.583,M,2.0,0136*7E\r\n
$GPGGA,120608.30,5700.9253634,N,00959.1687941,E,2,6,1.3,9.197,M,40.583,M,2.0,0136*7E\r\n
$GPGGA,120608.35,5700.9253634,N,00959.1687940,E,2,6,1.3,9.197,M,40.583,M,2.0,0136*7A\r\n
$GPGGA,120608.40,5700.9253635,N,00959.1687938,E,2,6,1.3,9.198,M,40.583,M,2.0,0136*79\r\n
$GPGGA,120608.45,5700.9253630,N,00959.1688016,E,2,6,1.3,9.189,M,40.583,M,2.2,0136*71\r\n
$GPGGA,120608.50,5700.9253630,N,00959.1688015,E,2,6,1.3,9.189,M,40.583,M,2.2,0136*76\r\n
$GPGGA,120608.55,5700.9253631,N,00959.1688012,E,2,6,1.3,9.189,M,40.583,M,2.2,0136*75\r\n
$GPGGA,120608.60,5700.9253632,N,00959.1688009,E,2,6,1.3,9.189,M,40.583,M,2.2,0136*7A\r\n
$GPGGA,120608.65,5700.9253675,N,00959.1688108,E,2,6,1.3,9.179,M,40.583,M,2.4,0136*75\r\n
$GPGGA,120608.70,5700.9253675,N,00959.1688108,E,2,6,1.3,9.179,M,40.583,M,2.4,0136*71\r\n
$GPGGA,120608.75,5700.9253676,N,00959.1688107,E,2,6,1.3,9.179,M,40.583,M,2.4,0136*78\r\n
$GPGGA,120608.80,5700.9253676,N,00959.1688106,E,2,6,1.3,9.180,M,40.583,M,2.4,0136*75\r\n
$GPGGA,120608.85,5700.9253641,N,00959.1688226,E,2,6,1.3,9.170,M,40.583,M,2.7,0136*79\r\n
$GPGGA,120608.90,5700.9253642,N,00959.1688225,E,2,6,1.3,9.170,M,40.583,M,2.7,0136*7D\r\n
$GPGGA,120608.95,5700.9253643,N,00959.1688225,E,2,6,1.3,9.170,M,40.583,M,2.7,0136*79\r\n
$GPGGA,120609.00,5700.9253642,N,00959.1688224,E,2,6,1.3,9.170,M,40.583,M,2.7,0136*74\r\n
$GPGGA,120609.05,5700.9253706,N,00959.1688363,E,2,6,1.3,9.156,M,40.583,M,1.6,0136*74\r\n
$GPGGA,120609.10,5700.9253706,N,00959.1688364,E,2,6,1.3,9.156,M,40.583,M,1.6,0136*77\r\n
$GPGGA,120609.15,5700.9253705,N,00959.1688366,E,2,6,1.3,9.156,M,40.583,M,1.6,0136*73\r\n
$GPGGA,120609.25,5700.9253653,N,00959.1688454,E,2,6,1.3,9.145,M,40.583,M,1.9,0136*79\r\n
$GPGGA,120612.10,5700.9253809,N,00959.1690113,E,2,6,1.3,8.840,M,40.583,M,1.7,0136*78\r\n
$GPGGA,120612.15,5700.9253808,N,00959.1690116,E,2,6,1.3,8.840,M,40.583,M,1.7,0136*79\r\n
$GPGGA,120612.20,5700.9253807,N,00959.1690118,E,2,6,1.3,8.840,M,40.583,M,1.7,0136*7E\r\n
$GPGGA,120612.25,5700.9253770,N,00959.1690271,E,2,6,1.3,8.815,M,40.583,M,2.0,0136*7C\r\n
$GPGGA,120612.30,5700.9253769,N,00959.1690273,E,2,6,1.3,8.815,M,40.583,M,2.0,0136*72\r\n
$GPGGA,120612.35,5700.9253768,N,00959.1690274,E,2,6,1.3,8.815,M,40.583,M,2.0,0136*71\r\n
$GPGGA,120612.40,5700.9253767,N,00959.1690277,E,2,6,1.3,8.815,M,40.583,M,2.0,0136*7F\r\n
$GPGGA,120612.45,5700.9253818,N,00959.1690399,E,2,6,1.3,8.787,M,40.583,M,2.2,0136*7A\r\n
$GPGGA,120612.50,5700.9253817,N,00959.1690402,E,2,6,1.3,8.787,M,40.583,M,2.2,0136*74\r\n
$GPGGA,120612.55,5700.9253816,N,00959.1690404,E,2,6,1.3,8.787,M,40.583,M,2.2,0136*76\r\n
$GPGGA,120612.60,5700.9253816,N,00959.1690407,E,2,6,1.3,8.786,M,40.583,M,2.2,0136*72\r\n
$GPGGA,120612.65,5700.9253835,N,00959.1690511,E,2,6,1.3,8.758,M,40.583,M,2.4,0136*75\r\n
$GPGGA,120612.70,5700.9253835,N,00959.1690514,E,2,6,1.3,8.758,M,40.583,M,2.4,0136*74\r\n
$GPGGA,120612.75,5700.9253834,N,00959.1690516,E,2,6,1.3,8.758,M,40.583,M,2.4,0136*72\r\n
$GPGGA,120612.80,5700.9253834,N,00959.1690517,E,2,6,1.3,8.757,M,40.583,M,2.4,0136*76\r\n
$GPGGA,120612.85,5700.9253821,N,00959.1690576,E,2,6,1.3,8.726,M,40.583,M,2.7,0136*75\r\n
$GPGGA,120612.90,5700.9253820,N,00959.1690578,E,2,6,1.3,8.726,M,40.583,M,2.7,0136*7E\r\n
$GPGGA,120612.95,5700.9253820,N,00959.1690580,E,2,6,1.3,8.726,M,40.583,M,2.7,0136*7C\r\n
$GPGGA,120613.00,5700.9253820,N,00959.1690581,E,2,6,1.3,8.726,M,40.583,M,2.7,0136*70\r\n
$GPGGA,120613.05,5700.9253846,N,00959.1690708,E,2,6,1.3,8.697,M,40.583,M,1.6,0136*7F\r\n
$GPGGA,120613.10,5700.9253846,N,00959.1690710,E,2,6,1.3,8.697,M,40.583,M,1.6,0136*72\r\n
$GPGGA,120613.15,5700.9253846,N,00959.1690712,E,2,6,1.3,8.697,M,40.583,M,1.6,0136*75\r\n
$GPGGA,120613.20,5700.9253846,N,00959.1690713,E,2,6,1.3,8.697,M,40.583,M,1.6,0136*72\r\n
$GPGGA,120613.25,5700.9253857,N,00959.1690857,E,2,6,1.3,8.664,M,40.583,M,1.9,0136*7B\r\n
$GPGGA,120613.30,5700.9253857,N,00959.1690858,E,2,6,1.3,8.664,M,40.583,M,1.9,0136*70\r\n
$GPGGA,120613.35,5700.9253856,N,00959.1690860,E,2,6,1.3,8.664,M,40.583,M,1.9,0136*7F\r\n
$GPGGA,120613.40,5700.9253857,N,00959.1690860,E,2,6,1.3,8.664,M,40.583,M,1.9,0136*7C\r\n
$GPGGA,120613.45,5700.9253865,N,00959.1690943,E,2,6,1.3,8.631,M,40.583,M,2.1,0136*73\r\n
$GPGGA,120613.50,5700.9253865,N,00959.1690944,E,2,6,1.3,8.630,M,40.583,M,2.1,0136*71\r\n
$GPGGA,120613.55,5700.9253865,N,00959.1690945,E,2,6,1.3,8.630,M,40.583,M,2.1,0136*75\r\n
$GPGGA,120613.60,5700.9253865,N,00959.1690948,E,2,6,1.3,8.630,M,40.583,M,2.1,0136*7E\r\n
$GPGGA,120613.65,5700.9253842,N,00959.1691096,E,2,6,1.3,8.596,M,40.583,M,2.3,0136*78\r\n
$GPGGA,120613.70,5700.9253842,N,00959.1691096,E,2,6,1.3,8.596,M,40.583,M,2.3,0136*7C\r\n
$GPGGA,120613.75,5700.9253842,N,00959.1691096,E,2,6,1.3,8.596,M,40.583,M,2.3,0136*79\r\n
$GPGGA,120613.80,5700.9253843,N,00959.1691097,E,2,6,1.3,8.596,M,40.583,M,2.3,0136*73\r\n
$GPGGA,120613.85,5700.9253860,N,00959.1691137,E,2,6,1.3,8.562,M,40.583,M,2.6,0136*72\r\n
$GPGGA,120613.90,5700.9253861,N,00959.1691137,E,2,6,1.3,8.562,M,40.583,M,2.6,0136*77\r\n
$GPGGA,120613.95,5700.9253861,N,00959.1691137,E,2,6,1.3,8.562,M,40.583,M,2.6,0136*72\r\n
$GPGGA,120614.00,5700.9253860,N,00959.1691137,E,2,6,1.3,8.562,M,40.583,M,2.6,0136*78\r\n
$GPGGA,120614.05,5700.9253828,N,00959.1691310,E,2,6,1.3,8.535,M,40.583,M,2.8,0136*7A\r\n
$GPGGA,120614.10,5700.9253828,N,00959.1691311,E,2,6,1.3,8.535,M,40.583,M,2.8,0136*7F\r\n
$GPGGA,120614.15,5700.9253828,N,00959.1691311,E,2,6,1.3,8.535,M,40.583,M,2.8,0136*7A\r\n
$GPGGA,120614.20,5700.9253828,N,00959.1691311,E,2,6,1.3,8.535,M,40.583,M,2.8,0136*7C\r\n
$GPGGA,120614.25,5700.9253853,N,00959.1691409,E,2,6,1.3,8.498,M,40.583,M,3.0,0136*74\r\n
$GPGGA,120614.30,5700.9253853,N,00959.1691409,E,2,6,1.3,8.498,M,40.583,M,3.0,0136*70\r\n
$GPGGA,120614.35,5700.9253853,N,00959.1691408,E,2,6,1.3,8.498,M,40.583,M,3.0,0136*74\r\n
$GPGGA,120614.40,5700.9253853,N,00959.1691408,E,2,6,1.3,8.498,M,40.583,M,3.0,0136*76\r\n
$GPGGA,120614.45,5700.9253844,N,00959.1691480,E,2,6,1.3,8.464,M,40.583,M,3.2,0136*74\r\n
$GPGGA,120614.50,5700.9253844,N,00959.1691481,E,2,6,1.3,8.463,M,40.583,M,3.2,0136*76\r\n
$GPGGA,120614.55,5700.9253844,N,00959.1691480,E,2,6,1.3,8.464,M,40.583,M,3.2,0136*75\r\n
$GPGGA,120614.60,5700.9253844,N,00959.1691480,E,2,6,1.3,8.464,M,40.583,M,3.2,0136*73\r\n
$GPGGA,120614.65,5700.9253858,N,00959.1691648,E,2,6,1.3,8.420,M,40.583,M,3.4,0136*7B\r\n
$GPGGA,120614.70,5700.9253858,N,00959.1691649,E,2,6,1.\x003,8.420,M,40.583,M,3.4,0136*7E\r\n
$GPGGA,120614.75,5700.9253857,N,00959.1691650,E,2,6,1.3,8.419,M,40.583,M,3.4,0136*76\r\n
$GPGGA,120614.80,5700.9253857,N,00K,D*0A\r\n
$GPGGA,120617.55,5700.9254135,N,00959.1693750,E,2,6,1.3,7.794,M,40.583,M,2.1,0136*73\r\n
$GPGGA,120617.60,5700.9254135,N,00959.1693752,E,2,6,1.3,7.794,M,40.583,M,2.1,0136*77\r\n
$GPGGA,120617.65,5700.9254213,N,00959.1693971,E,2,6,1.3,7.726,M,40.583,M,2.3,0136*71\r\n
$GPGGA,120617.70,5700.9254213,N,00959.1693972,E,2,6,1.3,7.726,M,40.583,M,2.3,0136*76\r\n
$GPGGA,120617.75,5700.9254213,N,00959.1693974,E,2,6,1.3,7.726,M,40.583,M,2.3,0136*75\r\n
$GPGGA,120617.80,5700.9254213,N,00959.1693977,E,2,6,1.3,7.726,M,40.583,M,2.3,0136*7C\r\n
$GPGGA,120617.85,5700.9254223,N,00959.1694207,E,2,6,1.3,7.661,M,40.583,M,2.6,0136*76\r\n
$GPGGA,120617.90,5700.9254223,N,00959.1694208,E,2,6,1.3,7.661,M,40.583,M,2.6,0136*7D\r\n
$GPGGA,120617.95,5700.9254223,N,00959.1694211,E,2,6,1.3,7.660,M,40.583,M,2.6,0136*71\r\n
$GPGGA,120618.00,5700.9254223,N,00959.1694213,E,2,6,1.3,7.660,M,40.583,M,2.6,0136*70\r\n
$GPGGA,120618.05,5700.9254315,N,00959.1694368,E,2,6,1.3,7.602,M,40.583,M,2.8,0136*76\r\n
$GPGGA,120618.10,5700.9254315,N,00959.1694369,E,2,6,1.3,7.601,M,40.583,M,2.8,0136*70\r\n
$GPGGA,120618.15,5700.9254315,N,00959.1694371,E,2,6,1.3,7.601,M,40.583,M,2.8,0136*7C\r\n
$GPGGA,120618.20,5700.9254315,N,00959.1694373,E,2,6,1.3,7.601,M,40.583,M,2.8,0136*78\r\n
$GPGGA,120618.25,5700.9254314,N,00959.1694563,E,2,6,1.3,7.547,M,40.583,M,3.0,0136*73\r\n
$GPGGA,120618.30,5700.9254314,N,00959.1694566,E,2,6,1.3,7.546,M,40.583,M,3.0,0136*73\r\n
$GPGGA,120618.35,5700.9254314,N,00959.1694568,E,2,6,1.3,7.546,M,40.583,M,3.0,0136*78\r\n
$GPGGA,120618.40,5700.9254314,N,00959.1694570,E,2,6,1.3,7.546,M,40.583,M,3.0,0136*73\r\n
$GPGGA,120618.45,5700.9254428,N,00959.1694739,E,2,6,1.3,7.486,M,40.583,M,3.2,0136*7E\r\n
$GPGGA,120618.50,5700.9254427,N,00959.1694740,E,2,6,1.3,7.485,M,40.583,M,3.2,0136*78\r\n
$GPGGA,120618.55,5700.9254428,N,00959.1694740,E,2,6,1.3,7.486,M,40.583,M,3.2,0136*71\r\n
$GPGGA,120618.60,5700.9254428,N,00959.1694743,E,2,6,1.3,7.485,M,40.583,M,3.2,0136*77\r\n
$GPGGA,120618.65,5700.9254443,N,00959.1694899,E,2,6,1.3,7.424,M,40.583,M,3.4,0136*7A\r\n
$GPGGA,120618.70,5700.9254443,N,00959.1694899,E,2,6,1.3,7.424,M,40.583,M,3.4,0136*7E\r\n
$GPGGA,120618.75,5700.9254443,N,00959.1694900,E,2,6,1.3,7.424,M,40.583,M,3.4,0136*7A\r\n
$GPGGA,120618.80,5700.9254443,N,00959.1694901,E,2,6,1.3,7.424,M,40.583,M,3.4,0136*71\r\n
$GPGGA,120618.85,5700.9254450,N,00959.1695031,E,2,6,1.3,7.366,M,40.583,M,3.6,0136*7E\r\n
$GPGGA,120618.90,5700.9254450,N,00959.1695032,E,2,5,1.3,7.366,M,40.583,M,3.6,0136*7A\r\n
$GPGGA,120618.95,5700.9254450,N,00959.1695034,E,2,5,1.3,7.366,M,40.583,M,3.6,0136*79\r\n
$GPGGA,120619.00,5700.9254450,N,00959.1695032,E,2,5,1.3,7.366,M,40.583,M,3.6,0136*72\r\n
$GPGGA,120619.05,5700.9254458,N,00959.1695014,E,2,6,1.3,7.341,M,40.583,M,1.9,0136*70\r\n
$GPGGA,120619.10,5700.9254458,N,00959.1695015,E,2,6,1.3,7.340,M,40.583,M,1.9,0136*74\r\n
$GPGGA,120619.15,5700.9254457,N,00959.1695016,E,2,6,1.3,7.340,M,40.583,M,1.9,0136*7D\r\n
$GPGGA,120619.20,5700.9254458,N,00959.1695015,E,2,6,1.3,7.340,M,40.583,M,1.9,0136*77\r\n
$GPGGA,120619.25,5700.9254438,N,00959.1695098,E,2,6,1.3,7.310,M,40.583,M,2.2,0136*7C\r\n
$GPGGA,120619.30,5700.9254437,N,00959.1695097,E,2,6,1.3,7.310,M,40.583,M,2.2,0136*78\r\n
$GPGGA,120619.35,5700.9254437,N,00959.1695097,E,2,6,1.3,7.310,M,40.583,M,2.2,0136*7D\r\n
$GPGGA,120619.40,5700.9254438,N,00959.1695099,E,2,6,1.3,7.310,M,40.583,M,2.2,0136*7E\r\n
$GPGGA,120619.45,5700.9254417,N,00959.1695136,E,2,6,1.3,7.296,M,40.583,M,2.4,0136*7B\r\n
$GPGGA,120619.50,5700.9254417,N,00959.1695136,E,2,6,1.3,7.296,M,40.583,M,2.4,0136*7F\r\n
$GPGGA,120619.55,5700.9254418,N,00959.1695137,E,2,6,1.3,7.296,M,40.583,M,2.4,0136*74\r\n
$GPGGA,120619.60,5700.9254418,N,00959.1695139,E,2,6,1.3,7.296,M,40.583,M,2.4,0136*7C\r\n
$GPGGA,120619.65,5700.9254399,N,00959.1695070,E,2,6,1.3,7.271,M,40.583,M,2.7,0136*71\r\n
$GPGGA,120619.70,5700.9254399,N,00959.1695071,E,2,6,1.3,7.271,M,40.583,M,2.7,0136*74\r\n
$GPGGA,120619.75,5700.9254400,N,00959.1695070,E,2,6,1.3,7.271,M,40.583,M,2.7,0136*77\r\n
$GPGGA,120619.80,5700.9254401,N,00959.1695071,E,2,6,1.3,7.271,M,40.583,M,2.7,0136*7D\r\n
$GPGGA,120619.85,5700.9254391,N,00959.1695085,E,2,6,1.3,7.250,M,40.583,M,2.9,0136*70\r\n
$GPGGA,120619.90,5700.9254391,N,00959.1695086,E,2,6,1.3,7.250,M,40.583,M,2.9,0136*77\r\n
$GPGGA,120619.95,5700.9254392,N,00959.1695087,E,2,6,1.3,7.250,M,40.583,M,2.9,0136*70\r\n
$GPGGA,120620.00,5700.9254393,N,00959.1695088,E,2,6,1.3,7.250,M,40.583,M,2.9,0136*78\r\n
$GPGGA,120620.05,5700.9254347,N,00959.1695152,E,2,6,1.3,7.224,M,40.583,M,1.7,0136*7C\r\n
$GPGGA,120620.10,5700.9254347,N,00959.1695151,E,2,6,1.3,7.224,M,40.583,M,1.7,0136*7B\r\n
$GPGGA,120620.15,5700.9254348,N,00959.1695152,E,2,6,1.3,7.224,M,40.583,M,1.7,0136*72\r\n
$GPGGA,120620.25,5700.9254314,N,00959.1695199,E,\x002,6,1.3,7.200,M,40.583,M,2.0,0136*7D\r\n
$GPGGA,120623.10,5700.9254198,N,00959.1696200,E,2,6,1.3,6.856,M,40.583,M,1.9,0136*7C\r\n
$GPGGA,120623.15,5700.9254197,N,00959.1696202,E,2,6,1.3,6.856,M,40.583,M,1.9,0136*74\r\n
$GPGGA,120623.20,5700.9254196,N,00959.1696205,E,2,6,1.3,6.856,M,40.583,M,1.9,0136*74\r\n
$GPGGA,120623.25,5700.9254204,N,00959.1696256,E,2,6,1.3,6.828,M,40.583,M,2.2,0136*7E\r\n
$GPGGA,120623.30,5700.9254204,N,00959.1696258,E,2,6,1.3,6.828,M,40.583,M,2.2,0136*74\r\n
$GPGGA,120623.35,5700.9254203,N,00959.1696262,E,2,6,1.3,6.828,M,40.583,M,2.2,0136*7F\r\n
$GPGGA,120623.40,5700.9254202,N,00959.1696263,E,2,6,1.3,6.828,M,40.583,M,2.2,0136*7D\r\n
$GPGGA,120623.45,5700.9254243,N,00959.1696286,E,2,6,1.3,6.815,M,40.583,M,2.4,0136*7E\r\n
$GPGGA,120623.50,5700.9254243,N,00959.1696287,E,2,6,1.3,6.815,M,40.583,M,2.4,0136*7B\r\n
$GPGGA,120623.55,5700.9254243,N,00959.1696289,E,2,6,1.3,6.815,M,40.583,M,2.4,0136*70\r\n
$GPGGA,120623.60,5700.9254243,N,00959.1696290,E,2,6,1.3,6.815,M,40.583,M,2.4,0136*7E\r\n
$GPGGA,120623.65,5700.9254170,N,00959.1696352,E,2,6,1.3,6.790,M,40.583,M,2.7,0136*76\r\n
$GPGGA,120623.70,5700.9254170,N,00959.1696352,E,2,6,1.3,6.790,M,40.583,M,2.7,0136*72\r\n
$GPGGA,120623.75,5700.9254169,N,00959.1696353,E,2,6,1.3,6.790,M,40.583,M,2.7,0136*7E\r\n
$GPGGA,120623.80,5700.9254167,N,00959.1696355,E,2,6,1.3,6.790,M,40.583,M,2.7,0136*7C\r\n
$GPGGA,120623.85,5700.9254164,N,00959.1696408,E,2,6,1.3,6.774,M,40.583,M,2.9,0136*71\r\n
$GPGGA,120623.90,5700.9254163,N,00959.1696410,E,2,6,1.3,6.774,M,40.583,M,2.9,0136*7B\r\n
$GPGGA,120623.95,5700.9254162,N,00959.1696411,E,2,6,1.3,6.774,M,40.583,M,2.9,0136*7E\r\n
$GPGGA,120624.00,5700.9254161,N,00959.1696414,E,2,6,1.3,6.774,M,40.583,M,2.9,0136*73\r\n
$GPGGA,120624.05,5700.9254207,N,00959.1696459,E,2,6,1.3,6.755,M,40.583,M,1.7,0136*72\r\n
$GPGGA,120624.10,5700.9254207,N,00959.1696460,E,2,6,1.3,6.755,M,40.583,M,1.7,0136*7C\r\n
$GPGGA,120624.15,5700.9254206,N,00959.1696462,E,2,6,1.3,6.755,M,40.583,M,1.7,0136*7A\r\n
$GPGGA,120624.20,5700.9254205,N,00959.1696463,E,2,6,1.3,6.755,M,40.583,M,1.7,0136*7E\r\n
$GPGGA,120624.25,5700.9254166,N,00959.1696506,E,2,6,1.3,6.735,M,40.583,M,2.0,0136*7D\r\n
$GPGGA,120624.30,5700.9254166,N,00959.1696508,E,2,6,1.3,6.735,M,40.583,M,2.0,0136*77\r\n
$GPGGA,120624.35,5700.9254165,N,00959.1696508,E,2,6,1.3,6.735,M,40.583,M,2.0,0136*71\r\n
$GPGGA,120624.40,5700.9254164,N,00959.1696510,E,2,6,1.3,6.735,M,40.583,M,2.0,0136*7B\r\n
$GPGGA,120624.45,5700.9254181,N,00959.1696513,E,2,6,1.3,6.722,M,40.583,M,2.2,0136*72\r\n
$GPGGA,120624.50,5700.9254181,N,00959.1696514,E,2,6,1.3,6.722,M,40.583,M,2.2,0136*71\r\n
$GPGGA,120624.55,5700.9254180,N,00959.1696514,E,2,6,1.3,6.722,M,40.583,M,2.2,0136*75\r\n
$GPGGA,120624.60,5700.9254180,N,00959.1696515,E,2,6,1.3,6.722,M,40.583,M,2.2,0136*72\r\n
$GPGGA,120624.65,5700.9254157,N,00959.1696601,E,2,6,1.3,6.705,M,40.583,M,2.4,0136*78\r\n
$GPGGA,120624.70,5700.9254156,N,00959.1696602,E,2,6,1.3,6.705,M,40.583,M,2.4,0136*7E\r\n
$GPGGA,120624.75,5700.9254156,N,00959.1696601,E,2,6,1.3,6.705,M,40.583,M,2.4,0136*78\r\n
$GPGGA,120624.80,5700.9254156,N,00959.1696602,E,2,6,1.3,6.705,M,40.583,M,2.4,0136*71\r\n
$GPGGA,120624.85,5700.9254155,N,00959.1696677,E,2,6,1.3,6.697,M,40.583,M,2.7,0136*7C\r\n
$GPGGA,120624.90,5700.9254155,N,00959.1696678,E,2,6,1.3,6.697,M,40.583,M,2.7,0136*77\r\n
$GPGGA,120624.95,5700.9254155,N,00959.1696679,E,2,6,1.3,6.697,M,40.583,M,2.7,0136*73\r\n
$GPGGA,120625.00,5700.9254154,N,00959.1696681,E,2,6,1.3,6.697,M,40.583,M,2.7,0136*78\r\n
$GPGGA,120625.05,5700.9254123,N,00959.1696675,E,2,6,1.3,6.680,M,40.583,M,1.6,0136*72\r\n
$GPGGA,120625.10,5700.9254123,N,00959.1696677,E,2,6,1.3,6.680,M,40.583,M,1.6,0136*74\r\n
$GPGGA,120625.15,5700.9254122,N,00959.1696678,E,2,6,1.3,6.680,M,40.583,M,1.6,0136*7F\r\n
$GPGGA,120625.20,5700.9254122,N,00959.1696677,E,2,6,1.3,6.680,M,40.583,M,1.6,0136*76\r\n
$GPGGA,120625.25,5700.9254064,N,00959.1696663,E,2,6,1.3,6.671,M,40.583,M,1.9,0136*74\r\n
$GPGGA,120625.30,5700.9254064,N,00959.1696662,E,2,6,1.3,6.671,M,40.583,M,1.9,0136*71\r\n
$GPGGA,120625.35,5700.9254063,N,00959.1696661,E,2,6,1.3,6.671,M,40.583,M,1.9,0136*70\r\n
$GPGGA,120625.40,5700.9254062,N,00959.1696661,E,2,6,1.3,6.671,M,40.583,M,1.9,0136*73\r\n
$GPGGA,120625.45,5700.9254105,N,00959.1696704,E,2,6,1.3,6.660,M,40.583,M,2.1,0136*7F\r\n
$GPGGA,120625.50,5700.9254105,N,00959.1696705,E,2,6,1.3,6.660,M,40.583,M,2.1,0136*7A\r\n
$GPGGA,120625.55,5700.9254105,N,00959.1696706,E,2,6,1.3,6.660,M,40.583,M,2.1,0136*7C\r\n
$GPGGA,120625.60,5700.9254105,N,00959.1696705,E,2,6,1.3,6.660,M,40.583,M,2.1,0136*79\r\n
$GPGGA,120625.65,5700.9254054,N,00959.1696739,E,2,6,1.3,6.651,M,40.583,M,2.3,0136*76\r\n
$GPGGA,120625.70,5700.9254053,N,00959.1696739,E,2,6,1.3,6.651,M,40.583,M,2.3,0136*75\r\n
$GPGGA,120625.75,5700.9254053,N,00959.1696738,E,2,6,1.3,6.651,M,40.583,M,2.3,0136*71\r\n
$GPGGA,120625.85,5700.9253991,N,00959.1696740,E,\x002,6,1.3,6.644,M,40.583,M,2.6,0136*70\r\n
$GPGGA,120628.70,5700.9253741,N,00959.1697137,E,2,6,1.3,6.526,M,40.583,M,2.4,0136*76\r\n
