$GPGGA,085446.05,5703.3863412,N,00952.0070697,E,2,9,1.0,-1.539,M,40.593,M,1.6,0123*51
$GPVTG,222.95,T,-416.95,M,004.001,N,007.410,K,D*0D
$GPGGA,085446.10,5703.3863024,N,00952.0070011,E,2,9,1.0,-1.538,M,40.593,M,1.6,0123*5D
$GPVTG,223.26,T,-416.64,M,003.953,N,007.321,K,D*06
$GPGGA,085446.15,5703.3862631,N,00952.0069328,E,2,9,1.0,-1.538,M,40.593,M,1.6,0123*5A
$GPVTG,223.33,T,-416.57,M,003.924,N,007.268,K,D*0E
$GPGGA,085446.20,5703.3862215,N,00952.0068635,E,2,9,1.0,-1.538,M,40.593,M,1.6,0123*56
$GPVTG,222.90,T,-417.00,M,003.968,N,007.350,K,D*07
$GPGGA,085446.25,5703.3861802,N,00952.0067958,E,2,9,1.0,-1.541,M,40.593,M,1.8,0123*57
$GPVTG,222.38,T,-417.52,M,003.964,N,007.342,K,D*0D
$GPGGA,085446.30,5703.3861394,N,00952.0067275,E,2,9,1.0,-1.539,M,40.593,M,1.8,0123*5C
$GPVTG,222.26,T,-417.64,M,003.972,N,007.357,K,D*04
$GPGGA,085446.35,5703.3860994,N,00952.0066594,E,2,9,1.0,-1.539,M,40.593,M,1.8,0123*5B
$GPVTG,222.38,T,-417.52,M,003.958,N,007.331,K,D*06
$GPGGA,085446.40,5703.3860591,N,00952.0065898,E,2,9,1.0,-1.538,M,40.593,M,1.8,0123*53
$GPVTG,222.71,T,-417.19,M,003.975,N,007.361,K,D*0E
$GPGGA,085446.45,5703.3860190,N,00952.0065214,E,2,9,1.0,-1.538,M,40.593,M,2.1,0123*57
$GPVTG,222.78,T,-417.12,M,003.971,N,007.353,K,D*09
$GPGGA,085446.50,5703.3859790,N,00952.0064520,E,2,9,1.0,-1.540,M,40.593,M,2.1,0123*51
$GPVTG,223.09,T,-416.81,M,003.972,N,007.357,K,D*02
$GPGGA,085446.55,5703.3859389,N,00952.0063824,E,2,9,1.0,-1.538,M,40.593,M,2.1,0123*59
$GPVTG,223.30,T,-416.60,M,003.980,N,007.371,K,D*0E
$GPGGA,085446.60,5703.3858995,N,00952.0063127,E,2,9,1.0,-1.536,M,40.593,M,2.1,0123*5D
$GPVTG,223.67,T,-416.23,M,003.969,N,007.351,K,D*0E
$GPGGA,085446.65,5703.3858592,N,00952.0062429,E,2,9,1.0,-1.537,M,40.593,M,2.3,0123*5A
$GPVTG,223.68,T,-416.22,M,003.973,N,007.358,K,D*02
$GPGGA,085446.70,5703.3858176,N,00952.0061738,E,2,9,1.0,-1.539,M,40.593,M,2.3,0123*5E
$GPVTG,223.13,T,-416.77,M,004.004,N,007.414,K,D*0F
$GPGGA,085446.75,5703.3857769,N,00952.0061041,E,2,9,1.0,-1.539,M,40.593,M,2.3,0123*55
$GPVTG,223.05,T,-416.85,M,004.013,N,007.433,K,D*06
$GPGGA,085446.80,5703.3857365,N,00952.0060329,E,2,9,1.0,-1.542,M,40.593,M,2.3,0123*57
$GPVTG,223.41,T,-416.49,M,004.035,N,007.473,K,D*06
$GPGGA,085446.85,5703.3856952,N,00952.0059608,E,2,9,1.0,-1.550,M,40.593,M,2.5,0123*54
$GPVTG,223.64,T,-416.26,M,004.058,N,007.516,K,D*01
$GPGGA,085446.90,5703.3856552,N,00952.0058912,E,2,9,1.0,-1.552,M,40.593,M,2.5,0123*5B
$GPVTG,223.60,T,-416.30,M,004.033,N,007.468,K,D*07
$GPGGA,085446.95,5703.3856156,N,00952.0058222,E,2,9,1.0,-1.551,M,40.593,M,2.5,0123*55
$GPVTG,223.56,T,-416.34,M,003.992,N,007.393,K,D*00
$GPGGA,085447.00,5703.3855753,N,00952.0057531,E,2,9,1.0,-1.553,M,40.593,M,2.5,0123*50
$GPVTG,223.33,T,-416.57,M,003.983,N,007.377,K,D*0C
$GPGGA,085447.05,5703.3855364,N,00952.0056858,E,2,9,1.0,-1.543,M,40.593,M,1.5,0123*54
$GPVTG,223.22,T,-416.68,M,003.970,N,007.352,K,D*0B
$GPGGA,085447.10,5703.3854954,N,00952.0056161,E,2,9,1.0,-1.543,M,40.593,M,1.5,0123*5B
$GPVTG,223.02,T,-416.88,M,003.991,N,007.391,K,D*07
$GPGGA,085447.15,5703.3854547,N,00952.0055459,E,2,9,1.0,-1.543,M,40.593,M,1.5,0123*5D
$GPVTG,223.10,T,-416.80,M,004.007,N,007.421,K,D*01
$GPGGA,085447.20,5703.3854155,N,00952.0054770,E,2,9,1.0,-1.541,M,40.593,M,1.5,0123*57
$GPVTG,223.30,T,-416.60,M,003.969,N,007.351,K,D*0B
$GPGGA,085447.25,5703.3853752,N,00952.0054075,E,2,9,1.0,-1.543,M,40.593,M,1.8,0123*59
$GPVTG,223.33,T,-416.57,M,003.960,N,007.335,K,D*07
$GPGGA,085447.30,5703.3853345,N,00952.0053388,E,2,9,1.0,-1.541,M,40.593,M,1.8,0123*5B
$GPVTG,223.02,T,-416.88,M,003.966,N,007.346,K,D*05
$GPGGA,085447.35,5703.3852933,N,00952.0052689,E,2,9,1.0,-1.540,M,40.593,M,1.8,0123*50
$GPVTG,222.90,T,-417.00,M,004.000,N,007.409,K,D*0C
$GPGGA,085447.40,5703.3852518,N,00952.0051994,E,2,9,1.0,-1.541,M,40.593,M,1.8,0123*56
$GPVTG,222.64,T,-417.26,M,004.025,N,007.454,K,D*0C
$GPGGA,085447.45,5703.3852129,N,00952.0051305,E,2,9,1.0,-1.537,M,40.593,M,2.0,0123*5D
$GPVTG,223.05,T,-416.85,M,003.994,N,007.396,K,D*0F
$GPGGA,085447.50,5703.3851731,N,00952.0050599,E,2,9,1.0,-1.538,M,40.593,M,2.0,0123*58
$GPVTG,223.51,T,-416.39,M,003.998,N,007.405,K,D*08
$GPGGA,085447.55,5703.3851332,N,00952.0049899,E,2,9,1.0,-1.538,M,40.593,M,2.0,0123*5F
$GPVTG,223.68,T,-416.22,M,003.992,N,007.394,K,D*0D
$GPGGA,085447.60,5703.3850922,N,00952.0049207,E,2,9,1.0,-1.535,M,40.593,M,2.0,0123*53
$GPVTG,223.31,T,-416.59,M,004.000,N,007.408,K,D*0A
$GPGGA,085447.65,5703.3850525,N,00952.0048508,E,2,9,1.0,-1.533,M,40.593,M,2.2,0123*50
$GPVTG,223.49,T,-416.41,M,003.998,N,007.404,K,D*0F
$GPGGA,085447.70,5703.3850123,N,00952.0047813,E,2,9,1.0,-1.534,M,40.593,M,2.2,0123*59
$GPVTG,223.43,T,-416.47,M,003.991,N,007.391,K,D*01
$GPGGA,085447.75,5703.3849723,N,00952.0047101,E,2,9,1.0,-1.537,M,40.593,M,2.2,0123*5B
$GPVTG,223.80,T,-416.10,M,004.005,N,007.417,K,D*06
$GPGGA,085447.80,5703.3849315,N,00952.0046387,E,2,9,1.0,-1.540,M,40.593,M,2.2,0123*5D
$GPVTG,223.83,T,-416.07,M,004.035,N,007.473,K,D*02
$GPGGA,085447.85,5703.3848910,N,00952.0045691,E,2,9,1.0,-1.538,M,40.593,M,2.4,0123*5E
$GPVTG,223.52,T,-416.38,M,004.034,N,007.470,K,D*00
$GPGGA,085447.90,5703.3848506,N,00952.0044992,E,2,9,1.0,-1.539,M,40.593,M,2.4,0123*5D
$GPVTG,223.41,T,-416.49,M,004.025,N,007.455,K,D*03
$GPGGA,085447.95,5703.3848097,N,00952.0044287,E,2,9,1.0,-1.540,M,40.593,M,2.4,0123*54
$GPVTG,223.33,T,-416.57,M,004.037,N,007.477,K,D*0A
$GPGGA,085448.00,5703.3847702,N,00952.0043579,E,2,9,1.0,-1.542,M,40.593,M,2.4,0123*50
$GPVTG,223.71,T,-416.19,M,004.019,N,007.443,K,D*0D
$GPGGA,085448.05,5703.3847312,N,00952.0042884,E,2,9,1.0,-1.535,M,40.593,M,2.6,0123*5C
$GPVTG,223.94,T,-415.96,M,004.009,N,007.424,K,D*02
$GPGGA,085448.10,5703.3846912,N,00952.0042185,E,2,9,1.0,-1.537,M,40.593,M,2.6,0123*59
$GPVTG,223.87,T,-416.03,M,003.995,N,007.399,K,D*05
$GPGGA,085448.15,5703.3846514,N,00952.0041486,E,2,9,1.0,-1.540,M,40.593,M,2.6,0123*53
$GPVTG,223.83,T,-416.07,M,003.982,N,007.375,K,D*01
$GPGGA,085448.20,5703.3846110,N,00952.0040773,E,2,9,1.0,-1.541,M,40.593,M,2.6,0123*5C
$GPVTG,223.90,T,-416.00,M,004.006,N,007.419,K,D*0B
$GPGGA,085448.25,5703.3845713,N,00952.0040072,E,2,9,1.0,-1.539,M,40.593,M,2.9,0123*59
$GPVTG,223.89,T,-416.01,M,004.001,N,007.410,K,D*0C
$GPGGA,085448.30,5703.3845313,N,00952.0039354,E,2,9,1.0,-1.538,M,40.593,M,2.9,0123*51
$GPVTG,224.13,T,-415.77,M,004.019,N,007.443,K,D*05
$GPGGA,085448.35,5703.3844908,N,00952.0038656,E,2,9,1.0,-1.537,M,40.593,M,2.9,0123*5C
$GPVTG,223.77,T,-416.13,M,004.013,N,007.433,K,D*0C
$GPGGA,085448.40,5703.3844507,N,00952.0037954,E,2,9,1.0,-1.538,M,40.593,M,2.9,0123*50
$GPVTG,223.69,T,-416.21,M,004.009,N,007.425,K,D*0E
$GPGGA,085448.45,5703.3844109,N,00952.0037262,E,2,9,1.0,-1.536,M,40.593,M,3.1,0123*56
$GPVTG,223.52,T,-416.38,M,003.987,N,007.384,K,D*0A
$GPGGA,085448.50,5703.3843711,N,00952.0036569,E,2,9,1.0,-1.535,M,40.593,M,3.1,0123*54
$GPVTG,223.44,T,-416.46,M,003.970,N,007.352,K,D*07
$GPGGA,085448.55,5703.3843322,N,00952.0035855,E,2,9,1.0,-1.535,M,40.593,M,3.1,0123*54
$GPVTG,224.10,T,-415.80,M,003.968,N,007.348,K,D*0A
$GPGGA,085448.60,5703.3842924,N,00952.0035138,E,2,9,1.0,-1.532,M,40.593,M,3.1,0123*5A
$GPVTG,224.39,T,-415.51,M,003.990,N,007.389,K,D*07
$GPGGA,085448.65,5703.3842513,N,00952.0034430,E,2,9,1.0,-1.533,M,40.593,M,3.3,0123*58
$GPVTG,224.01,T,-415.89,M,004.001,N,007.410,K,D*08
$GPGGA,085448.70,5703.3842106,N,00952.0033733,E,2,9,1.0,-1.534,M,40.593,M,3.3,0123*5C
$GPVTG,223.61,T,-416.29,M,004.007,N,007.422,K,D*07
$GPGGA,085448.75,5703.3841713,N,00952.0033006,E,2,9,1.0,-1.535,M,40.593,M,3.3,0123*58
$GPVTG,224.29,T,-415.61,M,004.022,N,007.448,K,D*08
$GPGGA,085448.80,5703.3841316,N,00952.0032284,E,2,9,1.0,-1.535,M,40.593,M,3.3,0123*5A
$GPVTG,224.56,T,-415.34,M,004.034,N,007.471,K,D*0D
$GPGGA,085448.85,5703.3840927,N,00952.0031573,E,2,9,1.0,-1.534,M,40.593,M,3.5,0123*5D
$GPVTG,224.79,T,-415.11,M,004.009,N,007.424,K,D*09
$GPGGA,085448.90,5703.3840528,N,00952.0030866,E,2,9,1.0,-1.534,M,40.593,M,3.5,0123*52
$GPVTG,224.55,T,-415.35,M,004.003,N,007.413,K,D*0F
$GPGGA,085448.95,5703.3840123,N,00952.0030157,E,2,9,1.0,-1.533,M,40.593,M,3.5,0123*54
$GPVTG,224.20,T,-415.70,M,004.015,N,007.436,K,D*0C
$GPGGA,085449.00,5703.3839725,N,00952.0029432,E,2,9,1.0,-1.534,M,40.593,M,3.5,0123*5E
$GPVTG,224.48,T,-415.42,M,004.033,N,007.469,K,D*0D
$GPGGA,085449.05,5703.3839329,N,00952.0028734,E,2,9,1.0,-1.531,M,40.593,M,2.4,0123*52
$GPVTG,224.28,T,-415.62,M,004.011,N,007.429,K,D*0D
$GPGGA,085449.10,5703.3838936,N,00952.0028028,E,2,9,1.0,-1.529,M,40.593,M,2.4,0123*50
$GPVTG,224.29,T,-415.61,M,003.992,N,007.393,K,D*0C
$GPGGA,085449.15,5703.3838542,N,00952.0027324,E,2,9,1.0,-1.528,M,40.593,M,2.4,0123*5B
$GPVTG,224.24,T,-415.66,M,003.977,N,007.365,K,D*04
$GPGGA,085449.20,5703.3838141,N,00952.0026645,E,2,9,1.0,-1.528,M,40.593,M,2.4,0123*59
$GPVTG,223.50,T,-416.40,M,003.947,N,007.311,K,D*07
$GPGGA,085449.25,5703.3837729,N,00952.0025938,E,2,9,1.0,-1.528,M,40.593,M,2.7,0123*5E
$GPVTG,223.23,T,-416.67,M,003.989,N,007.387,K,D*0B
$GPGGA,085449.30,5703.3837321,N,00952.0025215,E,2,9,1.0,-1.527,M,40.593,M,2.7,0123*5D
$GPVTG,223.48,T,-416.42,M,004.038,N,007.479,K,D*03
$GPGGA,085449.35,5703.3836928,N,00952.0024497,E,2,9,1.0,-1.527,M,40.593,M,2.7,0123*57
$GPVTG,224.05,T,-415.85,M,004.034,N,007.472,K,D*02
$GPGGA,085449.40,5703.3836538,N,00952.0023789,E,2,9,1.0,-1.527,M,40.593,M,2.7,0123*53
$GPVTG,224.32,T,-415.58,M,004.007,N,007.421,K,D*00
$GPGGA,085449.45,5703.3836135,N,00952.0023075,E,2,9,1.0,-1.532,M,40.593,M,2.9,0123*51
$GPVTG,224.34,T,-415.56,M,004.000,N,007.408,K,D*04
$GPGGA,085449.50,5703.3835736,N,00952.0022363,E,2,9,1.0,-1.534,M,40.593,M,2.9,0123*50
$GPVTG,224.36,T,-415.54,M,004.007,N,007.421,K,D*08
$GPGGA,085449.55,5703.3835332,N,00952.0021642,E,2,9,1.0,-1.534,M,40.593,M,2.9,0123*50
$GPVTG,224.37,T,-415.53,M,004.032,N,007.466,K,D*0B
$GPGGA,085449.60,5703.3834930,N,00952.0020923,E,2,9,1.0,-1.534,M,40.593,M,2.9,0123*56
$GPVTG,224.38,T,-415.52,M,004.045,N,007.492,K,D*0E
$GPGGA,085449.65,5703.3834531,N,00952.0020207,E,2,9,1.0,-1.537,M,40.593,M,3.2,0123*5A
$GPVTG,224.41,T,-415.49,M,004.036,N,007.475,K,D*07
$GPGGA,085449.70,5703.3834138,N,00952.0019495,E,2,9,1.0,-1.538,M,40.593,M,3.2,0123*5B
$GPVTG,224.52,T,-415.38,M,004.016,N,007.438,K,D*08
$GPGGA,085449.75,5703.3833737,N,00952.0018788,E,2,9,1.0,-1.539,M,40.593,M,3.2,0123*5F
$GPVTG,224.24,T,-415.66,M,004.012,N,007.430,K,D*0E
$GPGGA,085449.80,5703.3833330,N,00952.0018083,E,2,9,1.0,-1.539,M,40.593,M,3.2,0123*5A
$GPVTG,223.83,T,-416.07,M,004.021,N,007.446,K,D*01
$GPGGA,085449.85,5703.3832923,N,00952.0017372,E,2,9,1.0,-1.541,M,40.593,M,3.4,0123*5D
$GPVTG,223.68,T,-416.22,M,004.026,N,007.457,K,D*04
$GPGGA,085449.90,5703.3832534,N,00952.0016653,E,2,9,1.0,-1.539,M,40.593,M,3.4,0123*5B
$GPVTG,224.26,T,-415.64,M,004.012,N,007.431,K,D*0F
$GPGGA,085449.95,5703.3832142,N,00952.0015934,E,2,9,1.0,-1.539,M,40.593,M,3.4,0123*56
$GPVTG,224.62,T,-415.28,M,004.005,N,007.417,K,D*05
$GPGGA,085450.00,5703.3831754,N,00952.0015221,E,2,9,1.0,-1.534,M,40.593,M,3.4,0123*52
$GPVTG,224.86,T,-415.04,M,003.985,N,007.381,K,D*0F
$GPGGA,085450.05,5703.3831359,N,00952.0014523,E,2,9,1.0,-1.528,M,40.593,M,1.6,0123*57
$GPVTG,224.61,T,-415.29,M,003.984,N,007.378,K,D*0E
$GPGGA,085450.10,5703.3830951,N,00952.0013805,E,2,9,1.0,-1.527,M,40.593,M,1.6,0123*51
$GPVTG,224.30,T,-415.60,M,004.019,N,007.443,K,D*02
$GPGGA,085450.15,5703.3830563,N,00952.0013092,E,2,9,1.0,-1.525,M,40.593,M,1.6,0123*5D
$GPVTG,224.61,T,-415.29,M,003.998,N,007.404,K,D*0F
$GPGGA,085450.20,5703.3830179,N,00952.0012379,E,2,9,1.0,-1.520,M,40.593,M,1.6,0123*56
$GPVTG,224.93,T,-414.97,M,003.972,N,007.357,K,D*03
$GPGGA,085450.25,5703.3829780,N,00952.0011651,E,2,9,1.0,-1.524,M,40.593,M,1.8,0123*5D
$GPVTG,225.09,T,-414.81,M,003.984,N,007.378,K,D*02
$GPGGA,085450.30,5703.3829377,N,00952.0010928,E,2,9,1.0,-1.525,M,40.593,M,1.8,0123*54
$GPVTG,224.89,T,-415.01,M,004.017,N,007.439,K,D*04
$GPGGA,085450.35,5703.3828982,N,00952.0010209,E,2,9,1.0,-1.522,M,40.593,M,1.8,0123*5F
$GPVTG,224.89,T,-415.01,M,004.018,N,007.441,K,D*04
$GPGGA,085450.40,5703.3828583,N,00952.0009491,E,2,9,1.0,-1.521,M,40.593,M,1.8,0123*5C
$GPVTG,224.74,T,-415.16,M,004.027,N,007.458,K,D*04
$GPGGA,085450.45,5703.3828171,N,00952.0008762,E,2,9,1.0,-1.525,M,40.593,M,2.1,0123*50
$GPVTG,224.47,T,-415.43,M,004.060,N,007.518,K,D*02
$GPGGA,085450.50,5703.3827771,N,00952.0008036,E,2,9,1.0,-1.527,M,40.593,M,2.1,0123*59
$GPVTG,224.53,T,-415.37,M,004.068,N,007.534,K,D*02
$GPGGA,085450.55,5703.3827377,N,00952.0007313,E,2,9,1.0,-1.529,M,40.593,M,2.1,0123*5B
$GPVTG,224.69,T,-415.21,M,004.055,N,007.511,K,D*05
$GPGGA,085450.60,5703.3826982,N,00952.0006601,E,2,9,1.0,-1.530,M,40.593,M,2.1,0123*53
$GPVTG,224.55,T,-415.35,M,004.032,N,007.467,K,D*0E
$GPGGA,085450.65,5703.3826594,N,00952.0005878,E,2,9,1.0,-1.528,M,40.593,M,2.3,0123*55
$GPVTG,224.85,T,-415.05,M,004.028,N,007.460,K,D*0C
$GPGGA,085450.70,5703.3826202,N,00952.0005152,E,2,9,1.0,-1.530,M,40.593,M,2.3,0123*51
$GPVTG,225.10,T,-414.80,M,004.022,N,007.449,K,D*0C
$GPGGA,085450.75,5703.3825817,N,00952.0004431,E,2,9,1.0,-1.531,M,40.593,M,2.3,0123*59
$GPVTG,225.33,T,-414.57,M,003.999,N,007.406,K,D*02
$GPGGA,085450.80,5703.3825419,N,00952.0003715,E,2,9,1.0,-1.531,M,40.593,M,2.3,0123*53
$GPVTG,225.01,T,-414.89,M,004.001,N,007.410,K,D*08
$GPGGA,085450.85,5703.3825029,N,00952.0002995,E,2,9,1.0,-1.528,M,40.593,M,2.5,0123*58
$GPVTG,225.09,T,-414.81,M,003.997,N,007.402,K,D*0A
$GPGGA,085450.90,5703.3824639,N,00952.0002267,E,2,9,1.0,-1.528,M,40.593,M,2.5,0123*5C
$GPVTG,225.30,T,-414.60,M,004.001,N,007.411,K,D*0C
$GPGGA,085450.95,5703.3824245,N,00952.0001530,E,2,9,1.0,-1.530,M,40.593,M,2.5,0123*59
$GPVTG,225.52,T,-414.38,M,004.027,N,007.457,K,D*03
$GPGGA,085451.00,5703.3823851,N,00952.0000806,E,2,9,1.0,-1.530,M,40.593,M,2.5,0123*55
$GPVTG,225.38,T,-414.52,M,004.025,N,007.455,K,D*03
$GPGGA,085451.05,5703.3823468,N,00952.0000093,E,2,9,1.0,-1.528,M,40.593,M,1.5,0123*58
$GPVTG,225.53,T,-414.37,M,003.991,N,007.391,K,D*03
$GPGGA,085451.10,5703.3823084,N,00951.9999371,E,2,9,1.0,-1.527,M,40.593,M,1.5,0123*59
$GPVTG,225.65,T,-414.25,M,003.974,N,007.360,K,D*00
$GPGGA,085451.15,5703.3822682,N,00951.9998647,E,2,9,1.0,-1.529,M,40.593,M,1.5,0123*52
$GPVTG,225.22,T,-414.68,M,004.006,N,007.419,K,D*08
$GPGGA,085451.20,5703.3822292,N,00951.9997927,E,2,9,1.0,-1.528,M,40.593,M,1.5,0123*56
$GPVTG,225.16,T,-414.74,M,004.000,N,007.408,K,D*04
$GPGGA,085451.25,5703.3821917,N,00951.9997213,E,2,9,1.0,-1.519,M,40.593,M,1.8,0123*55
$GPVTG,225.37,T,-414.53,M,003.987,N,007.385,K,D*01
$GPGGA,085451.30,5703.3821534,N,00951.9996490,E,2,9,1.0,-1.517,M,40.593,M,1.8,0123*5E
$GPVTG,225.55,T,-414.35,M,003.976,N,007.364,K,D*04
$GPGGA,085451.35,5703.3821143,N,00951.9995767,E,2,9,1.0,-1.517,M,40.593,M,1.8,0123*57
$GPVTG,225.46,T,-414.44,M,003.983,N,007.376,K,D*09
$GPGGA,085451.40,5703.3820765,N,00951.9995050,E,2,9,1.0,-1.517,M,40.593,M,1.8,0123*55
$GPVTG,225.66,T,-414.24,M,003.955,N,007.324,K,D*01
$GPGGA,085451.45,5703.3820372,N,00951.9994318,E,2,9,1.0,-1.524,M,40.593,M,2.0,0123*57
$GPVTG,225.79,T,-414.11,M,003.952,N,007.318,K,D*01
$GPGGA,085451.50,5703.3819985,N,00951.9993578,E,2,9,1.0,-1.524,M,40.593,M,2.0,0123*5C
$GPVTG,226.09,T,-413.81,M,003.983,N,007.377,K,D*0E
$GPGGA,085451.55,5703.3819605,N,00951.9992842,E,2,9,1.0,-1.525,M,40.593,M,2.0,0123*5A
$GPVTG,226.40,T,-413.50,M,003.987,N,007.383,K,D*00
$GPGGA,085451.60,5703.3819218,N,00951.9992106,E,2,9,1.0,-1.525,M,40.593,M,2.0,0123*5D
$GPVTG,226.38,T,-413.52,M,004.004,N,007.415,K,D*00
$GPGGA,085451.65,5703.3818850,N,00951.9991384,E,2,9,1.0,-1.522,M,40.593,M,2.2,0123*51
$GPVTG,226.56,T,-413.34,M,003.977,N,007.366,K,D*01
$GPGGA,085451.70,5703.3818473,N,00951.9990643,E,2,9,1.0,-1.520,M,40.593,M,2.2,0123*55
$GPVTG,226.85,T,-413.05,M,003.981,N,007.372,K,D*01
$GPGGA,085451.75,5703.3818106,N,00951.9989908,E,2,9,1.0,-1.519,M,40.593,M,2.2,0123*55
$GPVTG,227.25,T,-412.65,M,003.954,N,007.323,K,D*01
$GPGGA,085451.80,5703.3817739,N,00951.9989179,E,2,9,1.0,-1.521,M,40.593,M,2.2,0123*5F
$GPVTG,227.38,T,-412.52,M,003.926,N,007.271,K,D*0A
$GPGGA,085451.85,5703.3817347,N,00951.9988447,E,2,9,1.0,-1.526,M,40.593,M,2.4,0123*5F
$GPVTG,226.78,T,-413.12,M,003.946,N,007.308,K,D*03
$GPGGA,085451.90,5703.3816953,N,00951.9987710,E,2,9,1.0,-1.526,M,40.593,M,2.4,0123*5B
$GPVTG,226.27,T,-413.63,M,003.991,N,007.391,K,D*05
$GPGGA,085451.95,5703.3816554,N,00951.9986980,E,2,9,1.0,-1.527,M,40.593,M,2.4,0123*52
$GPVTG,225.64,T,-414.26,M,004.023,N,007.452,K,D*08
$GPGGA,085452.00,5703.3816177,N,00951.9986245,E,2,9,1.0,-1.530,M,40.593,M,2.4,0123*5C
$GPVTG,225.96,T,-413.94,M,004.012,N,007.430,K,D*0D
$GPGGA,085452.05,5703.3815808,N,00951.9985515,E,2,9,1.0,-1.526,M,40.593,M,2.6,0123*5F
$GPVTG,226.41,T,-413.49,M,004.003,N,007.413,K,D*05
$GPGGA,085452.10,5703.3815448,N,00951.9984773,E,2,9,1.0,-1.525,M,40.593,M,2.6,0123*53
$GPVTG,227.22,T,-412.68,M,003.966,N,007.345,K,D*0A
$GPGGA,085452.15,5703.3815073,N,00951.9984028,E,2,9,1.0,-1.523,M,40.593,M,2.6,0123*55
$GPVTG,227.43,T,-412.47,M,003.972,N,007.356,K,D*07
$GPGGA,085452.20,5703.3814691,N,00951.9983285,E,2,9,1.0,-1.525,M,40.593,M,2.6,0123*5C
$GPVTG,227.25,T,-412.65,M,003.990,N,007.390,K,D*01
$GPGGA,085452.25,5703.3814307,N,00951.9982536,E,2,9,1.0,-1.529,M,40.593,M,2.9,0123*5E
$GPVTG,227.18,T,-412.72,M,004.004,N,007.416,K,D*03
$GPGGA,085452.30,5703.3813934,N,00951.9981797,E,2,9,1.0,-1.530,M,40.593,M,2.9,0123*55
$GPVTG,227.24,T,-412.66,M,003.986,N,007.383,K,D*06
$GPGGA,085452.35,5703.3813557,N,00951.9981053,E,2,9,1.0,-1.529,M,40.593,M,2.9,0123*5E
$GPVTG,227.19,T,-412.71,M,003.991,N,007.391,K,D*0B
$GPGGA,085452.40,5703.3813169,N,00951.9980309,E,2,9,1.0,-1.530,M,40.593,M,2.9,0123*50
$GPVTG,226.85,T,-413.05,M,004.014,N,007.434,K,D*06
$GPGGA,085452.45,5703.3812814,N,00951.9979580,E,2,9,1.0,-1.524,M,40.593,M,3.1,0123*5A
$GPVTG,227.17,T,-412.73,M,003.976,N,007.363,K,D*03
$GPGGA,085452.50,5703.3812436,N,00951.9978831,E,2,9,1.0,-1.524,M,40.593,M,3.1,0123*54
$GPVTG,227.24,T,-412.66,M,003.989,N,007.387,K,D*0D
$GPGGA,085452.55,5703.3812061,N,00951.9978081,E,2,9,1.0,-1.524,M,40.593,M,3.1,0123*54
$GPVTG,227.38,T,-412.52,M,003.995,N,007.399,K,D*05
$GPGGA,085452.60,5703.3811689,N,00951.9977342,E,2,9,1.0,-1.519,M,40.593,M,3.1,0123*5C
$GPVTG,227.36,T,-412.54,M,003.979,N,007.369,K,D*00
$GPGGA,085452.65,5703.3811303,N,00951.9976590,E,2,9,1.0,-1.525,M,40.593,M,3.3,0123*5B
$GPVTG,227.30,T,-412.60,M,003.974,N,007.359,K,D*0F
$GPGGA,085452.70,5703.3810934,N,00951.9975837,E,2,9,1.0,-1.525,M,40.593,M,3.3,0123*53
$GPVTG,227.67,T,-412.23,M,003.975,N,007.362,K,D*03
$GPGGA,085452.75,5703.3810562,N,00951.9975079,E,2,9,1.0,-1.526,M,40.593,M,3.3,0123*58
$GPVTG,227.89,T,-412.01,M,003.993,N,007.395,K,D*03
$GPGGA,085452.80,5703.3810188,N,00951.9974319,E,2,9,1.0,-1.527,M,40.593,M,3.3,0123*57
$GPVTG,228.04,T,-411.86,M,004.011,N,007.428,K,D*00
$GPGGA,085452.85,5703.3809826,N,00951.9973564,E,2,9,1.0,-1.527,M,40.593,M,3.5,0123*5A
$GPVTG,228.43,T,-411.47,M,003.983,N,007.376,K,D*07
$GPGGA,085452.90,5703.3809449,N,00951.9972793,E,2,9,1.0,-1.528,M,40.593,M,3.5,0123*5F
$GPVTG,228.45,T,-411.45,M,004.024,N,007.452,K,D*01
$GPGGA,085452.95,5703.3809072,N,00951.9972040,E,2,9,1.0,-1.529,M,40.593,M,3.5,0123*5E
$GPVTG,228.12,T,-411.78,M,004.025,N,007.454,K,D*0A
$GPGGA,085453.00,5703.3808698,N,00951.9971302,E,2,9,1.0,-1.530,M,40.593,M,3.5,0123*5E
$GPVTG,227.63,T,-412.27,M,003.998,N,007.404,K,D*07
$GPGGA,085453.05,5703.3808330,N,00951.9970560,E,2,9,1.0,-1.520,M,40.593,M,2.4,0123*5E
$GPVTG,227.56,T,-412.34,M,004.010,N,007.426,K,D*0D
$GPGGA,085453.10,5703.3807964,N,00951.9969793,E,2,9,1.0,-1.520,M,40.593,M,2.4,0123*58
$GPVTG,228.08,T,-411.82,M,004.013,N,007.432,K,D*01
$GPGGA,085453.15,5703.3807591,N,00951.9969013,E,2,9,1.0,-1.520,M,40.593,M,2.4,0123*54
$GPVTG,228.46,T,-411.44,M,004.048,N,007.496,K,D*01
$GPGGA,085453.20,5703.3807218,N,00951.9968256,E,2,9,1.0,-1.520,M,40.593,M,2.4,0123*56
$GPVTG,228.27,T,-411.63,M,004.038,N,007.478,K,D*04
$GPGGA,085453.25,5703.3806843,N,00951.9967505,E,2,9,1.0,-1.522,M,40.593,M,2.7,0123*59
$GPVTG,227.97,T,-411.93,M,004.018,N,007.441,K,D*07
$GPGGA,085453.30,5703.3806469,N,00951.9966738,E,2,9,1.0,-1.522,M,40.593,M,2.7,0123*54
$GPVTG,228.06,T,-411.84,M,004.030,N,007.463,K,D*0C
$GPGGA,085453.35,5703.3806110,N,00951.9965977,E,2,9,1.0,-1.523,M,40.593,M,2.7,0123*5D
$GPVTG,228.51,T,-411.39,M,004.001,N,007.409,K,D*06
$GPGGA,085453.40,5703.3805745,N,00951.9965194,E,2,9,1.0,-1.523,M,40.593,M,2.7,0123*5F
$GPVTG,229.02,T,-410.88,M,004.024,N,007.453,K,D*02
$GPGGA,085453.45,5703.3805376,N,00951.9964426,E,2,9,1.0,-1.520,M,40.593,M,2.9,0123*5E
$GPVTG,228.90,T,-411.00,M,004.040,N,007.482,K,D*07
$GPGGA,085453.50,5703.3805001,N,00951.9963658,E,2,9,1.0,-1.522,M,40.593,M,2.9,0123*57
$GPVTG,228.65,T,-411.25,M,004.050,N,007.500,K,D*00
$GPGGA,085453.55,5703.3804628,N,00951.9962911,E,2,9,1.0,-1.520,M,40.593,M,2.9,0123*5F
$GPVTG,228.16,T,-411.74,M,004.019,N,007.443,K,D*0B
$GPGGA,085453.60,5703.3804262,N,00951.9962160,E,2,9,1.0,-1.519,M,40.593,M,2.9,0123*57
$GPVTG,228.05,T,-411.85,M,003.989,N,007.389,K,D*01
$GPGGA,085453.65,5703.3803886,N,00951.9961386,E,2,9,1.0,-1.527,M,40.593,M,3.2,0123*5B
$GPVTG,228.28,T,-411.62,M,003.992,N,007.394,K,D*01
$GPGGA,085453.70,5703.3803521,N,00951.9960613,E,2,9,1.0,-1.528,M,40.593,M,3.2,0123*58
$GPVTG,228.67,T,-411.23,M,004.002,N,007.412,K,D*01
$GPGGA,085453.75,5703.3803158,N,00951.9959829,E,2,9,1.0,-1.530,M,40.593,M,3.2,0123*53
$GPVTG,229.19,T,-410.71,M,004.023,N,007.451,K,D*0B
$GPGGA,085453.80,5703.3802793,N,00951.9959046,E,2,9,1.0,-1.533,M,40.593,M,3.2,0123*5B
$GPVTG,229.46,T,-410.44,M,004.041,N,007.483,K,D*0C
$GPGGA,085453.85,5703.3802434,N,00951.9958290,E,2,9,1.0,-1.528,M,40.593,M,3.4,0123*54
$GPVTG,229.20,T,-410.70,M,004.025,N,007.454,K,D*03
$GPGGA,085453.90,5703.3802057,N,00951.9957532,E,2,9,1.0,-1.526,M,40.593,M,3.4,0123*5F
$GPVTG,228.56,T,-411.34,M,004.027,N,007.457,K,D*03
$GPGGA,085453.95,5703.3801688,N,00951.9956759,E,2,9,1.0,-1.529,M,40.593,M,3.4,0123*5C
$GPVTG,228.63,T,-411.27,M,004.033,N,007.469,K,D*0F
$GPGGA,085454.00,5703.3801326,N,00951.9955991,E,2,9,1.0,-1.530,M,40.593,M,3.4,0123*57
$GPVTG,228.79,T,-411.11,M,004.017,N,007.439,K,D*02
$GPGGA,085454.05,5703.3800978,N,00951.9955248,E,2,9,1.0,-1.520,M,40.593,M,1.6,0123*5C
$GPVTG,228.89,T,-411.01,M,003.987,N,007.384,K,D*0A
$GPGGA,085454.10,5703.3800624,N,00951.9954488,E,2,9,1.0,-1.520,M,40.593,M,1.6,0123*55
$GPVTG,229.11,T,-410.79,M,003.956,N,007.326,K,D*00
$GPGGA,085454.15,5703.3800245,N,00951.9953718,E,2,9,1.0,-1.520,M,40.593,M,1.6,0123*5E
$GPVTG,228.68,T,-411.22,M,003.999,N,007.407,K,D*07
$GPGGA,085454.20,5703.3799867,N,00951.9952947,E,2,9,1.0,-1.521,M,40.593,M,1.6,0123*59
$GPVTG,228.43,T,-411.47,M,004.032,N,007.468,K,D*0B
$GPGGA,085454.25,5703.3799503,N,00951.9952175,E,2,9,1.0,-1.525,M,40.593,M,1.8,0123*50
$GPVTG,228.70,T,-411.20,M,004.019,N,007.443,K,D*0A
$GPGGA,085454.30,5703.3799142,N,00951.9951414,E,2,9,1.0,-1.526,M,40.593,M,1.8,0123*57
$GPVTG,228.81,T,-411.09,M,003.997,N,007.402,K,D*02
$GPGGA,085454.35,5703.3798772,N,00951.9950646,E,2,9,1.0,-1.528,M,40.593,M,1.8,0123*5C
$GPVTG,228.71,T,-411.19,M,004.010,N,007.427,K,D*0A
$GPGGA,085454.40,5703.3798412,N,00951.9949870,E,2,9,1.0,-1.531,M,40.593,M,1.8,0123*50
$GPVTG,229.09,T,-410.81,M,004.012,N,007.430,K,D*00
$GPGGA,085454.45,5703.3798064,N,00951.9949110,E,2,10,1.0,-1.526,M,40.593,M,2.1,0123*6B
$GPVTG,229.37,T,-410.53,M,003.987,N,007.384,K,D*08
$GPGGA,085454.50,5703.3797699,N,00951.9948356,E,2,10,1.0,-1.523,M,40.593,M,2.1,0123*60
$GPVTG,228.99,T,-410.91,M,003.972,N,007.355,K,D*05
$GPGGA,085454.55,5703.3797338,N,00951.9947601,E,2,10,1.0,-1.524,M,40.593,M,2.1,0123*64
$GPVTG,228.89,T,-411.01,M,003.955,N,007.324,K,D*0F
$GPGGA,085454.60,5703.3796967,N,00951.9946832,E,2,10,1.0,-1.525,M,40.593,M,2.1,0123*6D
$GPVTG,228.72,T,-411.18,M,003.985,N,007.381,K,D*01
$GPGGA,085454.65,5703.3796603,N,00951.9946061,E,2,10,1.0,-1.526,M,40.593,M,2.3,0123*6A
$GPVTG,228.90,T,-411.00,M,003.993,N,007.396,K,D*05
$GPGGA,085454.70,5703.3796241,N,00951.9945292,E,2,10,1.0,-1.530,M,40.593,M,2.3,0123*66
$GPVTG,229.04,T,-410.86,M,003.998,N,007.403,K,D*06
$GPGGA,085454.75,5703.3795877,N,00951.9944523,E,2,10,1.0,-1.532,M,40.593,M,2.3,0123*61
$GPVTG,229.05,T,-410.85,M,004.002,N,007.412,K,D*09
$GPGGA,085454.80,5703.3795508,N,00951.9943754,E,2,10,1.0,-1.535,M,40.593,M,2.3,0123*6C
$GPVTG,228.90,T,-411.00,M,004.016,N,007.437,K,D*0A
$GPGGA,085454.85,5703.3795148,N,00951.9942995,E,2,10,1.0,-1.532,M,40.593,M,2.5,0123*6A
$GPVTG,228.76,T,-411.14,M,004.018,N,007.442,K,D*0B
$GPGGA,085454.90,5703.3794788,N,00951.9942230,E,2,10,1.0,-1.533,M,40.593,M,2.5,0123*60
$GPVTG,228.89,T,-411.01,M,004.005,N,007.417,K,D*03
$GPGGA,085454.95,5703.3794428,N,00951.9941458,E,2,10,1.0,-1.534,M,40.593,M,2.5,0123*60
$GPVTG,229.13,T,-410.77,M,004.001,N,007.410,K,D*02
$GPGGA,085455.00,5703.3794067,N,00951.9940686,E,2,10,1.0,-1.537,M,40.593,M,2.5,0123*61
$GPVTG,229.27,T,-410.63,M,004.002,N,007.411,K,D*02
$GPGGA,085455.05,5703.3793719,N,00951.9939931,E,2,10,1.0,-1.529,M,40.593,M,1.5,0123*6C
$GPVTG,229.46,T,-410.44,M,003.993,N,007.394,K,D*0C
$GPGGA,085455.10,5703.3793360,N,00951.9939159,E,2,10,1.0,-1.528,M,40.593,M,1.5,0123*65
$GPVTG,229.54,T,-410.36,M,003.991,N,007.391,K,D*0D
$GPGGA,085455.15,5703.3793002,N,00951.9938386,E,2,10,1.0,-1.530,M,40.593,M,1.5,0123*6F
$GPVTG,229.66,T,-410.24,M,003.989,N,007.387,K,D*01
$GPGGA,085455.20,5703.3792639,N,00951.9937609,E,2,10,1.0,-1.533,M,40.593,M,1.5,0123*68
$GPVTG,229.66,T,-410.24,M,004.003,N,007.413,K,D*07
$GPGGA,085455.25,5703.3792275,N,00951.9936832,E,2,10,1.0,-1.538,M,40.593,M,1.8,0123*60
$GPVTG,229.62,T,-410.28,M,004.000,N,007.409,K,D*07
$GPGGA,085455.30,5703.3791907,N,00951.9936054,E,2,10,1.0,-1.539,M,40.593,M,1.8,0123*60
$GPVTG,229.43,T,-410.47,M,004.022,N,007.448,K,D*08
$GPGGA,085455.35,5703.3791551,N,00951.9935276,E,2,10,1.0,-1.541,M,40.593,M,1.8,0123*64
$GPVTG,229.68,T,-410.22,M,004.015,N,007.437,K,D*0E
$GPGGA,085455.40,5703.3791191,N,00951.9934507,E,2,10,1.0,-1.542,M,40.593,M,1.8,0123*6D
$GPVTG,229.55,T,-410.35,M,004.003,N,007.413,K,D*07
$GPGGA,085455.45,5703.3790839,N,00951.9933729,E,2,10,1.0,-1.537,M,40.593,M,2.0,0123*62
$GPVTG,229.72,T,-410.18,M,004.016,N,007.438,K,D*00
$GPGGA,085455.50,5703.3790477,N,00951.9932963,E,2,10,1.0,-1.535,M,40.593,M,2.0,0123*63
$GPVTG,229.46,T,-410.44,M,004.004,N,007.415,K,D*02
$GPGGA,085455.55,5703.3790120,N,00951.9932193,E,2,10,1.0,-1.533,M,40.593,M,2.0,0123*60
$GPVTG,229.50,T,-410.40,M,003.988,N,007.386,K,D*06
$GPGGA,085455.60,5703.3789759,N,00951.9931421,E,2,10,1.0,-1.532,M,40.593,M,2.0,0123*68
$GPVTG,229.43,T,-410.47,M,003.990,N,007.390,K,D*0D
$GPGGA,085455.65,5703.3789378,N,00951.9930649,E,2,10,1.0,-1.539,M,40.593,M,2.2,0123*6E
$GPVTG,228.87,T,-411.03,M,004.004,N,007.416,K,D*0F
$GPGGA,085455.70,5703.3789015,N,00951.9929884,E,2,10,1.0,-1.539,M,40.593,M,2.2,0123*65
$GPVTG,228.79,T,-411.11,M,003.998,N,007.403,K,D*02
$GPGGA,085455.75,5703.3788651,N,00951.9929102,E,2,10,1.0,-1.541,M,40.593,M,2.2,0123*6F
$GPVTG,229.01,T,-410.89,M,004.021,N,007.446,K,D*01
$GPGGA,085455.80,5703.3788285,N,00951.9928320,E,2,10,1.0,-1.540,M,40.593,M,2.2,0123*6A
$GPVTG,229.16,T,-410.74,M,004.041,N,007.484,K,D*0D
$GPGGA,085455.85,5703.3787928,N,00951.9927552,E,2,10,1.0,-1.535,M,40.593,M,2.4,0123*64
$GPVTG,229.20,T,-410.70,M,004.032,N,007.466,K,D*04
$GPGGA,085455.90,5703.3787562,N,00951.9926789,E,2,10,1.0,-1.535,M,40.593,M,2.4,0123*67
$GPVTG,228.93,T,-410.97,M,004.018,N,007.441,K,D*09
$GPGGA,085455.95,5703.3787206,N,00951.9926017,E,2,10,1.0,-1.535,M,40.593,M,2.4,0123*67
$GPVTG,229.22,T,-410.68,M,004.001,N,007.409,K,D*06
$GPGGA,085456.00,5703.3786848,N,00951.9925237,E,2,10,1.0,-1.534,M,40.593,M,2.4,0123*6B
$GPVTG,229.56,T,-410.34,M,004.005,N,007.417,K,D*07
$GPGGA,085456.05,5703.3786480,N,00951.9924463,E,2,10,1.0,-1.533,M,40.593,M,2.6,0123*65
$GPVTG,229.48,T,-410.42,M,004.027,N,007.457,K,D*0D
$GPGGA,085456.10,5703.3786129,N,00951.9923696,E,2,10,1.0,-1.532,M,40.593,M,2.6,0123*69
$GPVTG,229.68,T,-410.22,M,003.991,N,007.391,K,D*07
$GPGGA,085456.15,5703.3785767,N,00951.9922915,E,2,10,1.0,-1.530,M,40.593,M,2.6,0123*64
$GPVTG,229.75,T,-410.15,M,004.006,N,007.418,K,D*09
$GPGGA,085456.20,5703.3785400,N,00951.9922127,E,2,10,1.0,-1.531,M,40.593,M,2.6,0123*68
$GPVTG,229.70,T,-410.20,M,004.037,N,007.477,K,D*01
$GPGGA,085456.25,5703.3785026,N,00951.9921367,E,2,10,1.0,-1.533,M,40.593,M,2.9,0123*65
$GPVTG,228.96,T,-410.94,M,004.025,N,007.454,K,D*05
$GPGGA,085456.30,5703.3784665,N,00951.9920585,E,2,10,1.0,-1.534,M,40.593,M,2.9,0123*6D
$GPVTG,229.21,T,-410.69,M,004.029,N,007.463,K,D*02
$GPGGA,085456.35,5703.3784304,N,00951.9919800,E,2,10,1.0,-1.537,M,40.593,M,2.9,0123*63
$GPVTG,229.46,T,-410.44,M,004.037,N,007.477,K,D*06
$GPGGA,085456.40,5703.3783933,N,00951.9919006,E,2,10,1.0,-1.540,M,40.593,M,2.9,0123*66
$GPVTG,229.51,T,-410.39,M,004.074,N,007.546,K,D*0E
$GPGGA,085456.45,5703.3783572,N,00951.9918232,E,2,10,1.0,-1.537,M,40.593,M,3.1,0123*67
$GPVTG,229.38,T,-410.52,M,004.070,N,007.538,K,D*01
$GPGGA,085456.50,5703.3783218,N,00951.9917462,E,2,10,1.0,-1.536,M,40.593,M,3.1,0123*65
$GPVTG,229.51,T,-410.39,M,004.027,N,007.458,K,D*06
$GPGGA,085456.55,5703.3782851,N,00951.9916682,E,2,10,1.0,-1.532,M,40.593,M,3.1,0123*6F
$GPVTG,229.39,T,-410.51,M,004.035,N,007.473,K,D*0C
$GPGGA,085456.60,5703.3782490,N,00951.9915888,E,2,10,1.0,-1.532,M,40.593,M,3.1,0123*6F
$GPVTG,229.75,T,-410.15,M,004.051,N,007.502,K,D*01
$GPGGA,085456.65,5703.3782123,N,00951.9915116,E,2,10,1.0,-1.537,M,40.593,M,3.3,0123*6E
$GPVTG,229.47,T,-410.43,M,004.027,N,007.458,K,D*0C
$GPGGA,085456.70,5703.3781759,N,00951.9914353,E,2,10,1.0,-1.538,M,40.593,M,3.3,0123*6F
$GPVTG,229.13,T,-410.77,M,004.005,N,007.417,K,D*01
$GPGGA,085456.75,5703.3781406,N,00951.9913582,E,2,10,1.0,-1.536,M,40.593,M,3.3,0123*60
$GPVTG,229.41,T,-410.49,M,003.978,N,007.368,K,D*00
$GPGGA,085456.80,5703.3781042,N,00951.9912786,E,2,10,1.0,-1.536,M,40.593,M,3.3,0123*69
$GPVTG,229.73,T,-410.17,M,004.021,N,007.447,K,D*02
$GPGGA,085456.85,5703.3780685,N,00951.9912004,E,2,10,1.0,-1.536,M,40.593,M,3.5,0123*6B
$GPVTG,229.94,T,-409.96,M,004.019,N,007.444,K,D*02
$GPGGA,085456.90,5703.3780330,N,00951.9911207,E,2,10,1.0,-1.536,M,40.593,M,3.5,0123*66
$GPVTG,230.36,T,-409.54,M,004.036,N,007.474,K,D*02
$GPGGA,085456.95,5703.3779963,N,00951.9910413,E,2,10,1.0,-1.538,M,40.593,M,3.5,0123*65
$GPVTG,230.24,T,-409.66,M,004.065,N,007.528,K,D*0E
$GPGGA,085457.00,5703.3779600,N,00951.9909636,E,2,10,1.0,-1.539,M,40.593,M,3.5,0123*6E
$GPVTG,229.91,T,-409.99,M,004.050,N,007.500,K,D*04
$GPGGA,085457.05,5703.3779237,N,00951.9908871,E,2,10,1.0,-1.540,M,40.593,M,2.4,0123*69
$GPVTG,229.63,T,-410.27,M,004.026,N,007.456,K,D*07
$GPGGA,085457.10,5703.3778881,N,00951.9908085,E,2,10,1.0,-1.540,M,40.593,M,2.4,0123*68
$GPVTG,229.85,T,-410.05,M,004.022,N,007.448,K,D*04
$GPGGA,085457.15,5703.3778515,N,00951.9907302,E,2,10,1.0,-1.541,M,40.593,M,2.4,0123*6F
$GPVTG,229.64,T,-410.26,M,004.035,N,007.474,K,D*03
$GPGGA,085457.20,5703.3778148,N,00951.9906502,E,2,10,1.0,-1.544,M,40.593,M,2.4,0123*67
$GPVTG,229.79,T,-410.11,M,004.072,N,007.542,K,D*0C
$GPGGA,085457.25,5703.3777792,N,00951.9905719,E,2,10,1.0,-1.544,M,40.593,M,2.7,0123*64
$GPVTG,229.87,T,-410.03,M,004.059,N,007.518,K,D*08
$GPGGA,085457.30,5703.3777441,N,00951.9904938,E,2,10,1.0,-1.544,M,40.593,M,2.7,0123*61
$GPVTG,230.11,T,-409.79,M,004.028,N,007.460,K,D*02
$GPGGA,085457.35,5703.3777086,N,00951.9904152,E,2,10,1.0,-1.544,M,40.593,M,2.7,0123*6F
$GPVTG,230.26,T,-409.64,M,004.021,N,007.446,K,D*07
$GPGGA,085457.40,5703.3776731,N,00951.9903374,E,2,10,1.0,-1.543,M,40.593,M,2.7,0123*61
$GPVTG,230.22,T,-409.68,M,004.002,N,007.412,K,D*0F
$GPGGA,085457.45,5703.3776377,N,00951.9902597,E,2,10,1.0,-1.536,M,40.593,M,2.9,0123*64
$GPVTG,230.06,T,-409.84,M,004.013,N,007.432,K,D*09
$GPGGA,085457.50,5703.3776022,N,00951.9901793,E,2,10,1.0,-1.534,M,40.593,M,2.9,0123*64
$GPVTG,230.51,T,-409.39,M,004.038,N,007.479,K,D*0B
$GPGGA,085457.55,5703.3775670,N,00951.9901020,E,2,10,1.0,-1.531,M,40.593,M,2.9,0123*69
$GPVTG,230.40,T,-409.50,M,004.002,N,007.413,K,D*01
$GPGGA,085457.60,5703.3775318,N,00951.9900252,E,2,10,1.0,-1.531,M,40.593,M,2.9,0123*62
$GPVTG,230.18,T,-409.72,M,003.970,N,007.353,K,D*04
$GPGGA,085457.65,5703.3774953,N,00951.9899465,E,2,10,1.0,-1.534,M,40.593,M,3.2,0123*6F
$GPVTG,230.04,T,-409.86,M,003.984,N,007.378,K,D*00
$GPGGA,085457.70,5703.3774607,N,00951.9898667,E,2,10,1.0,-1.534,M,40.593,M,3.2,0123*64
$GPVTG,230.68,T,-409.22,M,003.996,N,007.401,K,D*0E
$GPGGA,085457.75,5703.3774257,N,00951.9897887,E,2,10,1.0,-1.533,M,40.593,M,3.2,0123*68
$GPVTG,230.69,T,-409.21,M,003.983,N,007.377,K,D*0E
$GPGGA,085457.80,5703.3773895,N,00951.9897100,E,2,10,1.0,-1.534,M,40.593,M,3.2,0123*60
$GPVTG,230.43,T,-409.47,M,004.008,N,007.422,K,D*0C
$GPGGA,085457.85,5703.3773540,N,00951.9896327,E,2,10,1.0,-1.529,M,40.593,M,3.4,0123*6C
$GPVTG,230.06,T,-409.84,M,004.014,N,007.434,K,D*08
$GPGGA,085457.90,5703.3773188,N,00951.9895551,E,2,10,1.0,-1.528,M,40.593,M,3.4,0123*6D
$GPVTG,230.07,T,-409.83,M,003.995,N,007.399,K,D*09
$GPGGA,085457.95,5703.3772829,N,00951.9894772,E,2,10,1.0,-1.527,M,40.593,M,3.4,0123*66
$GPVTG,229.91,T,-409.99,M,004.000,N,007.409,K,D*09
$GPGGA,085458.00,5703.3772479,N,00951.9893997,E,2,10,1.0,-1.525,M,40.593,M,3.4,0123*6C
$GPVTG,230.00,T,-409.90,M,003.982,N,007.374,K,D*09
$GPGGA,085458.05,5703.3772114,N,00951.9893225,E,2,10,1.0,-1.526,M,40.593,M,1.6,0123*66
$GPVTG,229.75,T,-410.15,M,003.992,N,007.392,K,D*0F
$GPGGA,085458.10,5703.3771766,N,00951.9892448,E,2,10,1.0,-1.527,M,40.593,M,1.6,0123*6F
$GPVTG,230.02,T,-409.88,M,003.976,N,007.363,K,D*0F
$GPGGA,085458.15,5703.3771402,N,00951.9891664,E,2,10,1.0,-1.529,M,40.593,M,1.6,0123*6A
$GPVTG,229.86,T,-410.04,M,004.004,N,007.416,K,D*09
$GPGGA,085458.20,5703.3771048,N,00951.9890877,E,2,10,1.0,-1.531,M,40.593,M,1.6,0123*62
$GPVTG,230.11,T,-409.79,M,004.013,N,007.433,K,D*0C
$GPGGA,085458.25,5703.3770701,N,00951.9890100,E,2,10,1.0,-1.533,M,40.593,M,1.8,0123*69
$GPVTG,230.33,T,-409.57,M,003.991,N,007.390,K,D*0A
$GPGGA,085458.30,5703.3770350,N,00951.9889336,E,2,10,1.0,-1.533,M,40.593,M,1.8,0123*62
$GPVTG,230.13,T,-409.77,M,003.962,N,007.337,K,D*0B
$GPGGA,085458.35,5703.3769984,N,00951.9888559,E,2,10,1.0,-1.534,M,40.593,M,1.8,0123*65
$GPVTG,229.73,T,-410.17,M,003.989,N,007.387,K,D*05
$GPGGA,085458.40,5703.3769616,N,00951.9887780,E,2,10,1.0,-1.537,M,40.593,M,1.8,0123*69
$GPVTG,229.42,T,-410.48,M,004.014,N,007.434,K,D*08
$GPGGA,085458.45,5703.3769263,N,00951.9887000,E,2,10,1.0,-1.537,M,40.593,M,2.1,0123*6F
$GPVTG,229.65,T,-410.25,M,004.019,N,007.443,K,D*0B
$GPGGA,085458.50,5703.3768914,N,00951.9886229,E,2,10,1.0,-1.539,M,40.593,M,2.1,0123*67
$GPVTG,229.85,T,-410.05,M,003.988,N,007.387,K,D*0E
$GPGGA,085458.55,5703.3768566,N,00951.9885472,E,2,10,1.0,-1.537,M,40.593,M,2.1,0123*6E
$GPVTG,229.79,T,-410.11,M,003.943,N,007.303,K,D*03
$GPGGA,085458.60,5703.3768216,N,00951.9884694,E,2,10,1.0,-1.536,M,40.593,M,2.1,0123*62
$GPVTG,230.09,T,-409.81,M,003.948,N,007.312,K,D*06
$GPGGA,085458.65,5703.3767868,N,00951.9883933,E,2,10,1.0,-1.531,M,40.593,M,2.3,0123*6B
$GPVTG,229.99,T,-409.91,M,003.936,N,007.290,K,D*04
$GPGGA,085458.70,5703.3767522,N,00951.9883177,E,2,10,1.0,-1.530,M,40.593,M,2.3,0123*65
$GPVTG,229.96,T,-409.94,M,003.904,N,007.230,K,D*05
$GPGGA,085458.75,5703.3767174,N,00951.9882409,E,2,10,1.0,-1.530,M,40.593,M,2.3,0123*6A
$GPVTG,230.08,T,-409.82,M,003.906,N,007.233,K,D*0C
$GPGGA,085458.80,5703.3766822,N,00951.9881652,E,2,10,1.0,-1.528,M,40.593,M,2.3,0123*6D
$GPVTG,229.88,T,-410.02,M,003.900,N,007.223,K,D*0B
$GPGGA,085458.85,5703.3766453,N,00951.9880877,E,2,10,1.0,-1.534,M,40.593,M,2.5,0123*61
$GPVTG,229.62,T,-410.28,M,003.929,N,007.276,K,D*0C
$GPGGA,085458.90,5703.3766095,N,00951.9880104,E,2,10,1.0,-1.535,M,40.593,M,2.5,0123*67
$GPVTG,229.60,T,-410.30,M,003.957,N,007.329,K,D*05
$GPGGA,085458.95,5703.3765745,N,00951.9879340,E,2,10,1.0,-1.534,M,40.593,M,2.5,0123*6E
$GPVTG,229.70,T,-410.20,M,003.947,N,007.310,K,D*0E
$GPGGA,085459.00,5703.3765394,N,00951.9878570,E,2,10,1.0,-1.535,M,40.593,M,2.5,0123*6E
$GPVTG,229.87,T,-410.03,M,003.948,N,007.312,K,D*0A
$GPGGA,085459.05,5703.3765047,N,00951.9877815,E,2,10,1.0,-1.531,M,40.593,M,1.5,0123*60
$GPVTG,229.91,T,-409.99,M,003.944,N,007.305,K,D*0C
$GPGGA,085459.10,5703.3764704,N,00951.9877047,E,2,10,1.0,-1.529,M,40.593,M,1.5,0123*63
$GPVTG,230.27,T,-409.63,M,003.927,N,007.272,K,D*08
$GPGGA,085459.15,5703.3764352,N,00951.9876291,E,2,10,1.0,-1.527,M,40.593,M,1.5,0123*67
$GPVTG,229.96,T,-409.94,M,003.914,N,007.249,K,D*0A
$GPGGA,085459.20,5703.3763993,N,00951.9875536,E,2,10,1.0,-1.527,M,40.593,M,1.5,0123*68
$GPVTG,229.51,T,-410.39,M,003.919,N,007.258,K,D*03
$GPGGA,085459.25,5703.3763637,N,00951.9874755,E,2,10,1.0,-1.528,M,40.593,M,1.8,0123*68
$GPVTG,229.75,T,-410.15,M,003.952,N,007.319,K,D*00
$GPGGA,085459.30,5703.3763300,N,00951.9873973,E,2,10,1.0,-1.530,M,40.593,M,1.8,0123*69
$GPVTG,230.61,T,-409.29,M,003.946,N,007.308,K,D*0F
$GPGGA,085459.35,5703.3762950,N,00951.9873204,E,2,10,1.0,-1.532,M,40.593,M,1.8,0123*6B
$GPVTG,230.49,T,-409.41,M,003.945,N,007.306,K,D*06
$GPGGA,085459.40,5703.3762593,N,00951.9872444,E,2,10,1.0,-1.532,M,40.593,M,1.8,0123*69
$GPVTG,230.03,T,-409.87,M,003.943,N,007.303,K,D*01
$GPGGA,085459.45,5703.3762237,N,00951.9871690,E,2,10,1.0,-1.531,M,40.593,M,2.0,0123*65
$GPVTG,229.51,T,-410.39,M,003.939,N,007.295,K,D*00
$GPGGA,085459.50,5703.3761880,N,00951.9870905,E,2,10,1.0,-1.533,M,40.593,M,2.0,0123*64
$GPVTG,229.77,T,-410.13,M,003.977,N,007.366,K,D*0B
$GPGGA,085459.55,5703.3761540,N,00951.9870125,E,2,10,1.0,-1.534,M,40.593,M,2.0,0123*6D
$GPVTG,230.41,T,-409.49,M,003.966,N,007.345,K,D*00
$GPGGA,085459.60,5703.3761197,N,00951.9869341,E,2,10,1.0,-1.537,M,40.593,M,2.0,0123*6E
$GPVTG,230.87,T,-409.03,M,003.964,N,007.341,K,D*02
$GPGGA,085459.65,5703.3760837,N,00951.9868559,E,2,10,1.0,-1.542,M,40.593,M,2.2,0123*67
$GPVTG,230.56,T,-409.34,M,003.987,N,007.383,K,D*09
$GPGGA,085459.70,5703.3760489,N,00951.9867770,E,2,10,1.0,-1.543,M,40.593,M,2.2,0123*6D
$GPVTG,230.85,T,-409.05,M,003.995,N,007.398,K,D*0C
$GPGGA,085459.75,5703.3760159,N,00951.9866999,E,2,10,1.0,-1.538,M,40.593,M,2.2,0123*64
$GPVTG,231.29,T,-408.61,M,003.940,N,007.297,K,D*0E
$GPGGA,085459.80,5703.3759817,N,00951.9866220,E,2,10,1.0,-1.536,M,40.593,M,2.2,0123*60
$GPVTG,231.36,T,-408.54,M,003.930,N,007.278,K,D*00
$GPGGA,085459.85,5703.3759480,N,00951.9865462,E,2,10,1.0,-1.531,M,40.593,M,2.4,0123*65
$GPVTG,231.08,T,-408.82,M,003.902,N,007.226,K,D*0C
$GPGGA,085459.90,5703.3759123,N,00951.9864696,E,2,10,1.0,-1.531,M,40.593,M,2.4,0123*65
$GPVTG,230.43,T,-409.47,M,003.915,N,007.251,K,D*0C
$GPGGA,085459.95,5703.3758788,N,00951.9863935,E,2,10,1.0,-1.530,M,40.593,M,2.4,0123*66
$GPVTG,230.61,T,-409.29,M,003.881,N,007.188,K,D*0F
$GPGGA,085500.00,5703.3758451,N,00951.9863158,E,2,10,1.0,-1.529,M,40.593,M,2.4,0123*6B
$GPVTG,230.97,T,-408.93,M,003.883,N,007.192,K,D*0F
$GPGGA,085500.05,5703.3758098,N,00951.9862398,E,2,10,1.0,-1.527,M,40.593,M,2.6,0123*6C
$GPVTG,230.56,T,-409.34,M,003.899,N,007.221,K,D*0E
$GPGGA,085500.10,5703.3757740,N,00951.9861617,E,2,10,1.0,-1.528,M,40.593,M,2.6,0123*6B
$GPVTG,230.29,T,-409.61,M,003.946,N,007.308,K,D*0F
$GPGGA,085500.15,5703.3757381,N,00951.9860831,E,2,10,1.0,-1.529,M,40.593,M,2.6,0123*6D
$GPVTG,230.14,T,-409.76,M,003.991,N,007.392,K,D*0E
$GPGGA,085500.20,5703.3757038,N,00951.9860058,E,2,10,1.0,-1.528,M,40.593,M,2.6,0123*6C
$GPVTG,230.35,T,-409.55,M,003.972,N,007.356,K,D*09
$GPGGA,085500.25,5703.3756700,N,00951.9859269,E,2,10,1.0,-1.530,M,40.593,M,2.9,0123*68
$GPVTG,230.99,T,-408.91,M,003.974,N,007.359,K,D*0F
$GPGGA,085500.30,5703.3756356,N,00951.9858502,E,2,10,1.0,-1.532,M,40.593,M,2.9,0123*62
$GPVTG,230.84,T,-409.06,M,003.947,N,007.310,K,D*01
$GPGGA,085500.35,5703.3756006,N,00951.9857726,E,2,10,1.0,-1.533,M,40.593,M,2.9,0123*6B
$GPVTG,230.70,T,-409.20,M,003.950,N,007.316,K,D*0E
$GPGGA,085500.40,5703.3755657,N,00951.9856953,E,2,10,1.0,-1.534,M,40.593,M,2.9,0123*62
$GPVTG,230.52,T,-409.38,M,003.948,N,007.311,K,D*09
$GPGGA,085500.45,5703.3755312,N,00951.9856177,E,2,10,1.0,-1.532,M,40.593,M,3.1,0123*62
$GPVTG,230.54,T,-409.36,M,003.955,N,007.325,K,D*0A
$GPGGA,085500.50,5703.3754975,N,00951.9855382,E,2,10,1.0,-1.535,M,40.593,M,3.1,0123*60
$GPVTG,231.25,T,-408.65,M,003.962,N,007.337,K,D*0D
$GPGGA,085500.55,5703.3754620,N,00951.9854599,E,2,10,1.0,-1.537,M,40.593,M,3.1,0123*65
$GPVTG,230.92,T,-408.98,M,003.982,N,007.374,K,D*0B
$GPGGA,085500.60,5703.3754254,N,00951.9853821,E,2,10,1.0,-1.536,M,40.593,M,3.1,0123*6C
$GPVTG,230.19,T,-409.71,M,004.009,N,007.425,K,D*00
$GPGGA,085500.65,5703.3753905,N,00951.9853056,E,2,10,1.0,-1.538,M,40.593,M,3.3,0123*65
$GPVTG,230.04,T,-409.86,M,003.968,N,007.348,K,D*01
$GPGGA,085500.70,5703.3753567,N,00951.9852282,E,2,10,1.0,-1.536,M,40.593,M,3.3,0123*6D
$GPVTG,230.45,T,-409.45,M,003.938,N,007.293,K,D*09
$GPGGA,085500.75,5703.3753221,N,00951.9851494,E,2,10,1.0,-1.536,M,40.593,M,3.3,0123*6F
$GPVTG,230.75,T,-409.15,M,003.954,N,007.322,K,D*0E
$GPGGA,085500.80,5703.3752879,N,00951.9850694,E,2,10,1.0,-1.535,M,40.593,M,3.3,0123*63
$GPVTG,231.36,T,-408.54,M,003.974,N,007.360,K,D*08
$GPGGA,085500.85,5703.3752540,N,00951.9849903,E,2,10,1.0,-1.540,M,40.593,M,3.5,0123*6C
$GPVTG,231.78,T,-408.12,M,003.955,N,007.324,K,D*03
$GPGGA,085500.90,5703.3752197,N,00951.9849114,E,2,10,1.0,-1.538,M,40.593,M,3.5,0123*67
$GPVTG,231.80,T,-408.10,M,003.958,N,007.331,K,D*0F
$GPGGA,085500.95,5703.3751846,N,00951.9848338,E,2,10,1.0,-1.538,M,40.593,M,3.5,0123*69
$GPVTG,231.28,T,-408.62,M,003.958,N,007.330,K,D*09
$GPGGA,085501.00,5703.3751503,N,00951.9847559,E,2,10,1.0,-1.539,M,40.593,M,3.5,0123*67
$GPVTG,231.19,T,-408.71,M,003.947,N,007.311,K,D*04
$GPGGA,085501.05,5703.3751166,N,00951.9846766,E,2,10,1.0,-1.537,M,40.593,M,2.4,0123*64
$GPVTG,231.71,T,-408.19,M,003.962,N,007.337,K,D*07
$GPGGA,085501.10,5703.3750818,N,00951.9845983,E,2,10,1.0,-1.536,M,40.593,M,2.4,0123*66
$GPVTG,231.39,T,-408.51,M,003.966,N,007.345,K,D*06
$GPGGA,085501.15,5703.3750462,N,00951.9845208,E,2,10,1.0,-1.535,M,40.593,M,2.4,0123*69
$GPVTG,230.73,T,-409.17,M,003.970,N,007.353,K,D*0A
$GPGGA,085501.20,5703.3750104,N,00951.9844425,E,2,10,1.0,-1.536,M,40.593,M,2.4,0123*61
$GPVTG,230.35,T,-409.55,M,003.992,N,007.393,K,D*0E
$GPGGA,085501.25,5703.3749752,N,00951.9843633,E,2,10,1.0,-1.537,M,40.593,M,2.7,0123*69
$GPVTG,230.42,T,-409.48,M,004.007,N,007.420,K,D*0F
$GPGGA,085501.30,5703.3749411,N,00951.9842854,E,2,10,1.0,-1.539,M,40.593,M,2.7,0123*69
$GPVTG,230.65,T,-409.25,M,003.980,N,007.371,K,D*03
$GPGGA,085501.35,5703.3749059,N,00951.9842077,E,2,10,1.0,-1.539,M,40.593,M,2.7,0123*6D
$GPVTG,230.44,T,-409.46,M,003.975,N,007.362,K,D*0D
$GPGGA,085501.40,5703.3748715,N,00951.9841291,E,2,10,1.0,-1.539,M,40.593,M,2.7,0123*68
$GPVTG,230.73,T,-409.17,M,003.970,N,007.352,K,D*0B
$GPGGA,085501.45,5703.3748368,N,00951.9840502,E,2,10,1.0,-1.531,M,40.593,M,2.9,0123*69
$GPVTG,230.77,T,-409.13,M,004.004,N,007.416,K,D*01
$GPGGA,085501.50,5703.3748036,N,00951.9839708,E,2,10,1.0,-1.531,M,40.593,M,2.9,0123*63
$GPVTG,231.48,T,-408.42,M,003.982,N,007.374,K,D*0A
$GPGGA,085501.55,5703.3747713,N,00951.9838903,E,2,10,1.0,-1.531,M,40.593,M,2.9,0123*6D
$GPVTG,232.54,T,-407.36,M,003.964,N,007.341,K,D*06
$GPGGA,085501.60,5703.3747375,N,00951.9838098,E,2,10,1.0,-1.529,M,40.593,M,2.9,0123*6D
$GPVTG,232.76,T,-407.14,M,003.977,N,007.365,K,D*02
$GPGGA,085501.65,5703.3747019,N,00951.9837301,E,2,10,1.0,-1.536,M,40.593,M,3.2,0123*69
$GPVTG,232.22,T,-407.68,M,003.982,N,007.375,K,D*03
$GPGGA,085501.70,5703.3746666,N,00951.9836497,E,2,10,1.0,-1.537,M,40.593,M,3.2,0123*6A
$GPVTG,231.89,T,-408.01,M,004.016,N,007.438,K,D*0C
$GPGGA,085501.75,5703.3746323,N,00951.9835701,E,2,10,1.0,-1.540,M,40.593,M,3.2,0123*64
$GPVTG,231.78,T,-408.12,M,004.009,N,007.424,K,D*03
$GPGGA,085501.80,5703.3745990,N,00951.9834896,E,2,10,1.0,-1.540,M,40.593,M,3.2,0123*6F
$GPVTG,232.21,T,-407.69,M,004.000,N,007.408,K,D*08
$GPGGA,085501.85,5703.3745660,N,00951.9834081,E,2,10,1.0,-1.537,M,40.593,M,3.4,0123*62
$GPVTG,232.75,T,-407.15,M,004.013,N,007.433,K,D*08
$GPGGA,085501.90,5703.3745330,N,00951.9833285,E,2,10,1.0,-1.537,M,40.593,M,3.4,0123*67
$GPVTG,232.86,T,-407.04,M,003.980,N,007.371,K,D*01
$GPGGA,085501.95,5703.3744993,N,00951.9832490,E,2,10,1.0,-1.537,M,40.593,M,3.4,0123*63
$GPVTG,232.64,T,-407.26,M,003.966,N,007.344,K,D*03
$GPGGA,085502.00,5703.3744661,N,00951.9831685,E,2,10,1.0,-1.536,M,40.593,M,3.4,0123*6A
$GPVTG,232.79,T,-407.11,M,003.962,N,007.339,K,D*05
$GPGGA,085502.05,5703.3744336,N,00951.9830897,E,2,10,1.0,-1.529,M,40.593,M,1.6,0123*6A
$GPVTG,232.83,T,-407.07,M,003.966,N,007.344,K,D*09
$GPGGA,085502.10,5703.3744001,N,00951.9830107,E,2,10,1.0,-1.530,M,40.593,M,1.6,0123*61
$GPVTG,232.56,T,-407.34,M,003.949,N,007.313,K,D*0E
$GPGGA,085502.15,5703.3743666,N,00951.9829314,E,2,10,1.0,-1.530,M,40.593,M,1.6,0123*6C
$GPVTG,232.43,T,-407.47,M,003.938,N,007.294,K,D*06
$GPGGA,085502.20,5703.3743335,N,00951.9828523,E,2,10,1.0,-1.531,M,40.593,M,1.6,0123*6B
$GPVTG,232.42,T,-407.48,M,003.924,N,007.268,K,D*06
$GPGGA,085502.25,5703.3743006,N,00951.9827713,E,2,10,1.0,-1.527,M,40.593,M,1.8,0123*6A
$GPVTG,232.68,T,-407.22,M,003.967,N,007.348,K,D*06
$GPGGA,085502.30,5703.3742666,N,00951.9826910,E,2,10,1.0,-1.529,M,40.593,M,1.8,0123*6D
$GPVTG,232.50,T,-407.40,M,003.982,N,007.376,K,D*0F
$GPGGA,085502.35,5703.3742314,N,00951.9826095,E,2,10,1.0,-1.529,M,40.593,M,1.8,0123*6C
$GPVTG,232.14,T,-407.76,M,004.034,N,007.472,K,D*0A
$GPGGA,085502.40,5703.3741989,N,00951.9825288,E,2,10,1.0,-1.528,M,40.593,M,1.8,0123*6F
$GPVTG,232.67,T,-407.23,M,004.009,N,007.424,K,D*03
$GPGGA,085502.45,5703.3741661,N,00951.9824472,E,2,10,1.0,-1.534,M,40.593,M,2.1,0123*66
$GPVTG,233.17,T,-406.73,M,003.994,N,007.396,K,D*05
$GPGGA,085502.50,5703.3741328,N,00951.9823659,E,2,10,1.0,-1.536,M,40.593,M,2.1,0123*64
$GPVTG,233.25,T,-406.65,M,003.997,N,007.402,K,D*0A
$GPGGA,085502.55,5703.3740991,N,00951.9822846,E,2,10,1.0,-1.537,M,40.593,M,2.1,0123*68
$GPVTG,233.14,T,-406.76,M,004.007,N,007.421,K,D*0C
$GPGGA,085502.60,5703.3740658,N,00951.9822033,E,2,10,1.0,-1.536,M,40.593,M,2.1,0123*6F
$GPVTG,233.14,T,-406.76,M,004.006,N,007.419,K,D*06
$GPGGA,085502.65,5703.3740331,N,00951.9821216,E,2,10,1.0,-1.536,M,40.593,M,2.3,0123*64
$GPVTG,233.42,T,-406.48,M,004.004,N,007.416,K,D*05
$GPGGA,085502.70,5703.3740004,N,00951.9820404,E,2,10,1.0,-1.539,M,40.593,M,2.3,0123*6E
$GPVTG,233.53,T,-406.37,M,003.990,N,007.390,K,D*07
$GPGGA,085502.75,5703.3739677,N,00951.9819586,E,2,10,1.0,-1.538,M,40.593,M,2.3,0123*67
$GPVTG,233.70,T,-406.20,M,003.989,N,007.388,K,D*01
$GPGGA,085502.80,5703.3739350,N,00951.9818765,E,2,10,1.0,-1.537,M,40.593,M,2.3,0123*6C
$GPVTG,233.86,T,-406.04,M,003.992,N,007.394,K,D*09
$GPGGA,085502.85,5703.3739016,N,00951.9817937,E,2,10,1.0,-1.541,M,40.593,M,2.5,0123*69
$GPVTG,233.92,T,-405.98,M,004.003,N,007.413,K,D*04
$GPGGA,085502.90,5703.3738688,N,00951.9817119,E,2,10,1.0,-1.541,M,40.593,M,2.5,0123*69
$GPVTG,233.89,T,-406.01,M,003.999,N,007.407,K,D*05
$GPGGA,085502.95,5703.3738350,N,00951.9816284,E,2,10,1.0,-1.542,M,40.593,M,2.5,0123*69
$GPVTG,233.78,T,-406.12,M,004.039,N,007.481,K,D*03
$GPGGA,085503.00,5703.3738019,N,00951.9815461,E,2,10,1.0,-1.544,M,40.593,M,2.5,0123*62
$GPVTG,233.71,T,-406.19,M,004.039,N,007.480,K,D*00
$GPGGA,085503.05,5703.3737704,N,00951.9814661,E,2,10,1.0,-1.534,M,40.593,M,1.5,0123*64
$GPVTG,233.60,T,-406.30,M,004.041,N,007.485,K,D*01
$GPGGA,085503.10,5703.3737372,N,00951.9813833,E,2,10,1.0,-1.533,M,40.593,M,1.5,0123*6C
$GPVTG,233.62,T,-406.28,M,004.046,N,007.494,K,D*0D
$GPGGA,085503.15,5703.3737039,N,00951.9813005,E,2,10,1.0,-1.534,M,40.593,M,1.5,0123*6F
$GPVTG,233.59,T,-406.31,M,004.049,N,007.499,K,D*0F
$GPGGA,085503.20,5703.3736699,N,00951.9812181,E,2,10,1.0,-1.536,M,40.593,M,1.5,0123*6A
$GPVTG,233.28,T,-406.62,M,004.058,N,007.516,K,D*09
$GPGGA,085503.25,5703.3736381,N,00951.9811357,E,2,10,1.0,-1.536,M,40.593,M,1.8,0123*64
$GPVTG,233.76,T,-406.14,M,004.030,N,007.464,K,D*09
$GPGGA,085503.30,5703.3736054,N,00951.9810510,E,2,10,1.0,-1.536,M,40.593,M,1.8,0123*6F
$GPVTG,234.21,T,-405.69,M,004.055,N,007.511,K,D*05
$GPGGA,085503.35,5703.3735711,N,00951.9809682,E,2,10,1.0,-1.535,M,40.593,M,1.8,0123*6C
$GPVTG,233.72,T,-406.18,M,004.070,N,007.538,K,D*0D
$GPGGA,085503.40,5703.3735364,N,00951.9808840,E,2,10,1.0,-1.535,M,40.593,M,1.8,0123*69
$GPVTG,233.39,T,-406.51,M,004.111,N,007.613,K,D*03
$GPGGA,085503.45,5703.3735027,N,00951.9807994,E,2,10,1.0,-1.539,M,40.593,M,2.0,0123*68
$GPVTG,233.63,T,-406.27,M,004.113,N,007.617,K,D*0B
$GPGGA,085503.50,5703.3734704,N,00951.9807155,E,2,10,1.0,-1.541,M,40.593,M,2.0,0123*61
$GPVTG,234.09,T,-405.81,M,004.089,N,007.573,K,D*0C
$GPGGA,085503.55,5703.3734385,N,00951.9806326,E,2,10,1.0,-1.542,M,40.593,M,2.0,0123*6D
$GPVTG,234.40,T,-405.50,M,004.047,N,007.496,K,D*05
$GPGGA,085503.60,5703.3734056,N,00951.9805491,E,2,10,1.0,-1.543,M,40.593,M,2.0,0123*6F
$GPVTG,234.38,T,-405.52,M,004.043,N,007.488,K,D*03
$GPGGA,085503.65,5703.3733720,N,00951.9804655,E,2,10,1.0,-1.539,M,40.593,M,2.2,0123*6F
$GPVTG,234.05,T,-405.85,M,004.067,N,007.533,K,D*00
$GPGGA,085503.70,5703.3733388,N,00951.9803819,E,2,10,1.0,-1.538,M,40.593,M,2.2,0123*6D
$GPVTG,233.98,T,-405.92,M,004.068,N,007.535,K,D*0C
$GPGGA,085503.75,5703.3733061,N,00951.9802967,E,2,10,1.0,-1.536,M,40.593,M,2.2,0123*6B
$GPVTG,234.40,T,-405.51,M,004.085,N,007.566,K,D*04
$GPGGA,085503.80,5703.3732736,N,00951.9802128,E,2,10,1.0,-1.535,M,40.593,M,2.2,0123*65
$GPVTG,234.53,T,-405.37,M,004.072,N,007.540,K,D*0A
$GPGGA,085503.85,5703.3732412,N,00951.9801275,E,2,10,1.0,-1.534,M,40.593,M,2.4,0123*6A
$GPVTG,234.91,T,-404.99,M,004.073,N,007.544,K,D*04
$GPGGA,085503.90,5703.3732098,N,00951.9800438,E,2,10,1.0,-1.532,M,40.593,M,2.4,0123*60
$GPVTG,235.24,T,-404.66,M,004.038,N,007.479,K,D*0B
$GPGGA,085503.95,5703.3731782,N,00951.9799601,E,2,10,1.0,-1.529,M,40.593,M,2.4,0123*67
$GPVTG,235.39,T,-404.51,M,004.017,N,007.439,K,D*0A
$GPGGA,085504.00,5703.3731463,N,00951.9798767,E,2,10,1.0,-1.524,M,40.593,M,2.4,0123*6D
$GPVTG,235.32,T,-404.58,M,004.003,N,007.413,K,D*05
$GPGGA,085504.05,5703.3731125,N,00951.9797936,E,2,10,1.0,-1.524,M,40.593,M,2.6,0123*68
$GPVTG,234.58,T,-405.32,M,004.040,N,007.483,K,D*0B
$GPGGA,085504.10,5703.3730791,N,00951.9797101,E,2,10,1.0,-1.522,M,40.593,M,2.6,0123*6E
$GPVTG,234.19,T,-405.71,M,004.052,N,007.505,K,D*05
$GPGGA,085504.15,5703.3730461,N,00951.9796257,E,2,10,1.0,-1.520,M,40.593,M,2.6,0123*64
$GPVTG,234.16,T,-405.74,M,004.069,N,007.535,K,D*04
$GPGGA,085504.20,5703.3730129,N,00951.9795420,E,2,10,1.0,-1.518,M,40.593,M,2.6,0123*65
$GPVTG,234.00,T,-405.90,M,004.072,N,007.542,K,D*03
$GPGGA,085504.25,5703.3729780,N,00951.9794575,E,2,10,1.0,-1.527,M,40.593,M,2.9,0123*6E
$GPVTG,233.63,T,-406.27,M,004.085,N,007.566,K,D*00
$GPGGA,085504.30,5703.3729452,N,00951.9793730,E,2,10,1.0,-1.525,M,40.593,M,2.9,0123*60
$GPVTG,233.90,T,-406.00,M,004.090,N,007.574,K,D*0E
$GPGGA,085504.35,5703.3729121,N,00951.9792891,E,2,10,1.0,-1.527,M,40.593,M,2.9,0123*63
$GPVTG,233.90,T,-406.00,M,004.088,N,007.571,K,D*02
$GPGGA,085504.40,5703.3728787,N,00951.9792050,E,2,10,1.0,-1.529,M,40.593,M,2.9,0123*61
$GPVTG,233.89,T,-406.01,M,004.093,N,007.581,K,D*0E
$GPGGA,085504.45,5703.3728464,N,00951.9791208,E,2,10,1.0,-1.527,M,40.593,M,3.1,0123*61
$GPVTG,234.18,T,-405.72,M,004.088,N,007.572,K,D*00
$GPGGA,085504.50,5703.3728126,N,00951.9790368,E,2,10,1.0,-1.525,M,40.593,M,3.1,0123*62
$GPVTG,233.91,T,-405.99,M,004.098,N,007.590,K,D*0E
$GPGGA,085504.55,5703.3727802,N,00951.9789540,E,2,10,1.0,-1.523,M,40.593,M,3.1,0123*65
$GPVTG,234.04,T,-405.86,M,004.059,N,007.518,K,D*06
$GPGGA,085504.60,5703.3727479,N,00951.9788723,E,2,10,1.0,-1.521,M,40.593,M,3.1,0123*67
$GPVTG,233.96,T,-405.94,M,004.015,N,007.435,K,D*0F
$GPGGA,085504.65,5703.3727156,N,00951.9787883,E,2,10,1.0,-1.522,M,40.593,M,3.3,0123*61
$GPVTG,234.38,T,-405.52,M,004.012,N,007.430,K,D*04
$GPGGA,085504.70,5703.3726830,N,00951.9787045,E,2,10,1.0,-1.523,M,40.593,M,3.3,0123*6E
$GPVTG,234.51,T,-405.39,M,004.020,N,007.445,K,D*05
$GPGGA,085504.75,5703.3726509,N,00951.9786202,E,2,10,1.0,-1.522,M,40.593,M,3.3,0123*6D
$GPVTG,234.80,T,-405.10,M,004.028,N,007.460,K,D*0D
$GPGGA,085504.80,5703.3726193,N,00951.9785365,E,2,10,1.0,-1.521,M,40.593,M,3.3,0123*60
$GPVTG,235.12,T,-404.78,M,004.016,N,007.437,K,D*07
$GPGGA,085504.85,5703.3725864,N,00951.9784524,E,2,10,1.0,-1.521,M,40.593,M,3.5,0123*63
$GPVTG,234.97,T,-404.93,M,004.030,N,007.463,K,D*0B
$GPGGA,085504.90,5703.3725549,N,00951.9783686,E,2,10,1.0,-1.522,M,40.593,M,3.5,0123*6A
$GPVTG,235.22,T,-404.68,M,004.018,N,007.441,K,D*0A
$GPGGA,085504.95,5703.3725231,N,00951.9782858,E,2,10,1.0,-1.520,M,40.593,M,3.5,0123*69
$GPVTG,235.12,T,-404.78,M,003.997,N,007.403,K,D*07
$GPGGA,085505.00,5703.3724910,N,00951.9782050,E,2,10,1.0,-1.520,M,40.593,M,3.5,0123*6D
$GPVTG,234.62,T,-405.28,M,003.957,N,007.328,K,D*07
$GPGGA,085505.05,5703.3724591,N,00951.9781236,E,2,10,1.0,-1.517,M,40.593,M,2.4,0123*68
$GPVTG,234.40,T,-405.50,M,003.969,N,007.351,K,D*0B
$GPGGA,085505.10,5703.3724267,N,00951.9780410,E,2,10,1.0,-1.513,M,40.593,M,2.4,0123*65
$GPVTG,234.29,T,-405.61,M,003.977,N,007.365,K,D*0E
$GPGGA,085505.15,5703.3723959,N,00951.9779574,E,2,10,1.0,-1.512,M,40.593,M,2.4,0123*65
$GPVTG,234.96,T,-404.94,M,003.972,N,007.357,K,D*05
$GPGGA,085505.20,5703.3723636,N,00951.9778738,E,2,10,1.0,-1.512,M,40.593,M,2.4,0123*6E
$GPVTG,234.90,T,-405.00,M,003.994,N,007.397,K,D*0B
$GPGGA,085505.25,5703.3723318,N,00951.9777907,E,2,10,1.0,-1.514,M,40.593,M,2.7,0123*6A
$GPVTG,235.06,T,-404.84,M,003.979,N,007.369,K,D*0A
$GPGGA,085505.30,5703.3723003,N,00951.9777081,E,2,10,1.0,-1.515,M,40.593,M,2.7,0123*61
$GPVTG,235.11,T,-404.79,M,003.970,N,007.352,K,D*0F
$GPGGA,085505.35,5703.3722701,N,00951.9776256,E,2,10,1.0,-1.515,M,40.593,M,2.7,0123*69
$GPVTG,235.56,T,-404.34,M,003.940,N,007.297,K,D*0E
$GPGGA,085505.40,5703.3722398,N,00951.9775424,E,2,10,1.0,-1.511,M,40.593,M,2.7,0123*6B
$GPVTG,235.98,T,-403.92,M,003.931,N,007.280,K,D*07
$GPGGA,085505.45,5703.3722084,N,00951.9774590,E,2,10,1.0,-1.514,M,40.593,M,2.9,0123*64
$GPVTG,235.94,T,-403.96,M,003.941,N,007.298,K,D*01
$GPGGA,085505.50,5703.3721756,N,00951.9773750,E,2,10,1.0,-1.516,M,40.593,M,2.9,0123*60
$GPVTG,235.42,T,-404.48,M,003.989,N,007.388,K,D*0A
$GPGGA,085505.55,5703.3721435,N,00951.9772918,E,2,10,1.0,-1.518,M,40.593,M,2.9,0123*6E
$GPVTG,235.12,T,-404.78,M,004.003,N,007.413,K,D*05
$GPGGA,085505.60,5703.3721126,N,00951.9772082,E,2,10,1.0,-1.517,M,40.593,M,2.9,0123*6A
$GPVTG,235.38,T,-404.52,M,003.995,N,007.400,K,D*06
$GPGGA,085505.65,5703.3720811,N,00951.9771257,E,2,10,1.0,-1.518,M,40.593,M,3.2,0123*6F
$GPVTG,235.22,T,-404.68,M,003.980,N,007.370,K,D*00
$GPGGA,085505.70,5703.3720492,N,00951.9770421,E,2,10,1.0,-1.520,M,40.593,M,3.2,0123*61
$GPVTG,235.12,T,-404.78,M,003.994,N,007.397,K,D*0E
$GPGGA,085505.75,5703.3720174,N,00951.9769598,E,2,10,1.0,-1.521,M,40.593,M,3.2,0123*63
$GPVTG,234.87,T,-405.03,M,003.982,N,007.375,K,D*05
$GPGGA,085505.80,5703.3719860,N,00951.9768761,E,2,10,1.0,-1.521,M,40.593,M,3.2,0123*6A
$GPVTG,235.06,T,-404.84,M,003.989,N,007.388,K,D*0A
$GPGGA,085505.85,5703.3719544,N,00951.9767929,E,2,10,1.0,-1.524,M,40.593,M,3.4,0123*6A
$GPVTG,235.15,T,-404.75,M,003.977,N,007.366,K,D*07
$GPGGA,085505.90,5703.3719233,N,00951.9767103,E,2,10,1.0,-1.523,M,40.593,M,3.4,0123*6E
$GPVTG,235.21,T,-404.69,M,003.963,N,007.339,K,D*02
$GPGGA,085505.95,5703.3718917,N,00951.9766285,E,2,10,1.0,-1.522,M,40.593,M,3.4,0123*6A
$GPVTG,234.98,T,-404.92,M,003.948,N,007.311,K,D*06
$GPGGA,085506.00,5703.3718600,N,00951.9765476,E,2,10,1.0,-1.520,M,40.593,M,3.4,0123*67
$GPVTG,234.61,T,-405.29,M,003.928,N,007.275,K,D*04
$GPGGA,085506.05,5703.3718280,N,00951.9764655,E,2,10,1.0,-1.513,M,40.593,M,1.6,0123*6C
$GPVTG,234.52,T,-405.38,M,003.953,N,007.322,K,D*0B
$GPGGA,085506.10,5703.3717973,N,00951.9763835,E,2,10,1.0,-1.510,M,40.593,M,1.6,0123*6C
$GPVTG,234.84,T,-405.06,M,003.935,N,007.288,K,D*0C
$GPGGA,085506.15,5703.3717668,N,00951.9763006,E,2,10,1.0,-1.508,M,40.593,M,1.6,0123*6D
$GPVTG,235.33,T,-404.57,M,003.933,N,007.285,K,D*0F
$GPGGA,085506.20,5703.3717365,N,00951.9762195,E,2,10,1.0,-1.507,M,40.593,M,1.6,0123*66
$GPVTG,235.45,T,-404.45,M,003.900,N,007.222,K,D*00
$GPGGA,085506.25,5703.3717046,N,00951.9761358,E,2,10,1.0,-1.517,M,40.593,M,1.8,0123*6E
$GPVTG,235.63,T,-404.27,M,003.915,N,007.251,K,D*00
$GPGGA,085506.30,5703.3716724,N,00951.9760515,E,2,10,1.0,-1.515,M,40.593,M,1.8,0123*64
$GPVTG,235.49,T,-404.41,M,003.971,N,007.355,K,D*0F
$GPGGA,085506.35,5703.3716408,N,00951.9759695,E,2,10,1.0,-1.513,M,40.593,M,1.8,0123*6B
$GPVTG,235.20,T,-404.70,M,003.966,N,007.345,K,D*05
$GPGGA,085506.40,5703.3716093,N,00951.9758875,E,2,10,1.0,-1.516,M,40.593,M,1.8,0123*6B
$GPVTG,235.02,T,-404.88,M,003.958,N,007.331,K,D*0C
$GPGGA,085506.45,5703.3715791,N,00951.9758056,E,2,10,1.0,-1.513,M,40.593,M,2.1,0123*6E
$GPVTG,235.21,T,-404.69,M,003.948,N,007.312,K,D*02
$GPGGA,085506.50,5703.3715481,N,00951.9757231,E,2,10,1.0,-1.512,M,40.593,M,2.1,0123*65
$GPVTG,235.30,T,-404.60,M,003.944,N,007.304,K,D*00
$GPGGA,085506.55,5703.3715165,N,00951.9756399,E,2,10,1.0,-1.512,M,40.593,M,2.1,0123*6D
$GPVTG,235.25,T,-404.65,M,003.965,N,007.343,K,D*01
$GPGGA,085506.60,5703.3714858,N,00951.9755568,E,2,10,1.0,-1.513,M,40.593,M,2.1,0123*67
$GPVTG,235.52,T,-404.38,M,003.960,N,007.334,K,D*0C
$GPGGA,085506.65,5703.3714553,N,00951.9754736,E,2,10,1.0,-1.515,M,40.593,M,2.3,0123*68
$GPVTG,235.76,T,-404.14,M,003.962,N,007.338,K,D*0A
$GPGGA,085506.70,5703.3714235,N,00951.9753895,E,2,10,1.0,-1.520,M,40.593,M,2.3,0123*6C
$GPVTG,235.64,T,-404.26,M,003.991,N,007.392,K,D*04
$GPGGA,085506.75,5703.3713924,N,00951.9753078,E,2,10,1.0,-1.519,M,40.593,M,2.3,0123*64
$GPVTG,235.40,T,-404.50,M,003.962,N,007.338,K,D*0F
$GPGGA,085506.80,5703.3713608,N,00951.9752258,E,2,10,1.0,-1.518,M,40.593,M,2.3,0123*6F
$GPVTG,235.08,T,-404.82,M,003.954,N,007.324,K,D*04
$GPGGA,085506.85,5703.3713299,N,00951.9751424,E,2,10,1.0,-1.521,M,40.593,M,2.5,0123*64
$GPVTG,235.40,T,-404.50,M,003.951,N,007.318,K,D*0D
$GPGGA,085506.90,5703.3712979,N,00951.9750591,E,2,10,1.0,-1.523,M,40.593,M,2.5,0123*68
$GPVTG,235.16,T,-404.74,M,003.974,N,007.360,K,D*00
$GPGGA,085506.95,5703.3712670,N,00951.9749768,E,2,10,1.0,-1.524,M,40.593,M,2.5,0123*60
$GPVTG,235.22,T,-404.68,M,003.958,N,007.330,K,D*01
$GPGGA,085507.00,5703.3712354,N,00951.9748943,E,2,10,1.0,-1.526,M,40.593,M,2.5,0123*6A
$GPVTG,235.08,T,-404.82,M,003.959,N,007.331,K,D*0D
$GPGGA,085507.05,5703.3712049,N,00951.9748142,E,2,10,1.0,-1.519,M,40.593,M,1.5,0123*66
$GPVTG,235.01,T,-404.89,M,003.923,N,007.265,K,D*02
$GPGGA,085507.10,5703.3711745,N,00951.9747319,E,2,10,1.0,-1.517,M,40.593,M,1.5,0123*67
$GPVTG,235.33,T,-404.57,M,003.912,N,007.244,K,D*01
$GPGGA,085507.15,5703.3711438,N,00951.9746489,E,2,10,1.0,-1.515,M,40.593,M,1.5,0123*66
$GPVTG,235.58,T,-404.32,M,003.922,N,007.263,K,D*09
$GPGGA,085507.20,5703.3711125,N,00951.9745664,E,2,10,1.0,-1.515,M,40.593,M,1.5,0123*6B
$GPVTG,235.47,T,-404.43,M,003.932,N,007.283,K,D*0E
$GPGGA,085507.25,5703.3710810,N,00951.9744842,E,2,10,1.0,-1.512,M,40.593,M,1.8,0123*61
$GPVTG,235.20,T,-404.70,M,003.946,N,007.308,K,D*0E
$GPGGA,085507.30,5703.3710503,N,00951.9744008,E,2,10,1.0,-1.512,M,40.593,M,1.8,0123*6C
$GPVTG,235.52,T,-404.38,M,003.956,N,007.327,K,D*0B
$GPGGA,085507.35,5703.3710206,N,00951.9743181,E,2,10,1.0,-1.514,M,40.593,M,1.8,0123*6A
$GPVTG,236.00,T,-403.90,M,003.933,N,007.283,K,D*06
$GPGGA,085507.40,5703.3709897,N,00951.9742349,E,2,10,1.0,-1.516,M,40.593,M,1.8,0123*67
$GPVTG,236.00,T,-403.90,M,003.943,N,007.302,K,D*09
$GPGGA,085507.45,5703.3709596,N,00951.9741521,E,2,10,1.0,-1.515,M,40.593,M,2.0,0123*6D
$GPVTG,236.13,T,-403.77,M,003.940,N,007.297,K,D*0C
$GPGGA,085507.50,5703.3709291,N,00951.9740676,E,2,10,1.0,-1.516,M,40.593,M,2.0,0123*6A
