$GPGGA,093204.65,5703.4143559,N,00952.3142368,E,2,11,0.8,-1.780,M,40.593,M,3.3,0123*63
$GPVTG,256.23,T,-383.67,M,004.253,N,007.877,K,D*0D
$GPGGA,093204.70,5703.4143420,N,00952.3141318,E,2,11,0.8,-1.781,M,40.593,M,3.3,0123*6D
$GPVTG,256.15,T,-383.75,M,004.254,N,007.879,K,D*02
$GPGGA,093204.75,5703.4143285,N,00952.3140268,E,2,11,0.8,-1.781,M,40.593,M,3.3,0123*66
$GPVTG,256.34,T,-383.56,M,004.250,N,007.871,K,D*0C
$GPGGA,093204.80,5703.4143156,N,00952.3139220,E,2,11,0.8,-1.782,M,40.593,M,3.3,0123*60
$GPVTG,256.70,T,-383.20,M,004.238,N,007.848,K,D*09
$GPGGA,093204.85,5703.4143010,N,00952.3138174,E,2,11,0.8,-1.786,M,40.593,M,3.5,0123*67
$GPVTG,256.21,T,-383.69,M,004.239,N,007.850,K,D*08
$GPGGA,093204.90,5703.4142870,N,00952.3137117,E,2,11,0.8,-1.788,M,40.593,M,3.5,0123*68
$GPVTG,256.20,T,-383.70,M,004.258,N,007.886,K,D*0D
$GPGGA,093204.95,5703.4142725,N,00952.3136080,E,2,11,0.8,-1.789,M,40.593,M,3.5,0123*6D
$GPVTG,255.88,T,-384.02,M,004.235,N,007.844,K,D*0B
$GPGGA,093205.00,5703.4142586,N,00952.3135043,E,2,11,0.8,-1.791,M,40.593,M,3.5,0123*6E
$GPVTG,255.89,T,-384.01,M,004.215,N,007.806,K,D*0D
$GPGGA,093205.05,5703.4142448,N,00952.3134011,E,2,11,0.8,-1.792,M,40.593,M,2.1,0123*68
$GPVTG,255.92,T,-383.98,M,004.200,N,007.779,K,D*03
$GPGGA,093205.10,5703.4142308,N,00952.3132980,E,2,11,0.8,-1.792,M,40.593,M,2.1,0123*68
$GPVTG,255.91,T,-383.99,M,004.181,N,007.744,K,D*05
$GPGGA,093205.15,5703.4142177,N,00952.3131940,E,2,11,0.8,-1.791,M,40.593,M,2.1,0123*6B
$GPVTG,256.39,T,-383.51,M,004.182,N,007.746,K,D*01
$GPGGA,093205.20,5703.4142041,N,00952.3130900,E,2,11,0.8,-1.793,M,40.593,M,2.1,0123*6E
$GPVTG,256.48,T,-383.42,M,004.187,N,007.754,K,D*03
$GPGGA,093205.25,5703.4141903,N,00952.3129855,E,2,11,0.8,-1.794,M,40.593,M,2.3,0123*6B
$GPVTG,256.51,T,-383.39,M,004.205,N,007.789,K,D*0E
$GPGGA,093205.30,5703.4141769,N,00952.3128812,E,2,11,0.8,-1.795,M,40.593,M,2.3,0123*6E
$GPVTG,256.67,T,-383.23,M,004.210,N,007.798,K,D*04
$GPGGA,093205.35,5703.4141637,N,00952.3127768,E,2,11,0.8,-1.794,M,40.593,M,2.3,0123*6D
$GPVTG,256.87,T,-383.03,M,004.214,N,007.804,K,D*06
$GPGGA,093205.40,5703.4141504,N,00952.3126723,E,2,11,0.8,-1.796,M,40.593,M,2.3,0123*60
$GPVTG,256.95,T,-382.95,M,004.219,N,007.814,K,D*07
$GPGGA,093205.45,5703.4141367,N,00952.3125685,E,2,11,0.8,-1.796,M,40.593,M,2.6,0123*6D
$GPVTG,256.74,T,-383.16,M,004.211,N,007.799,K,D*00
$GPGGA,093205.50,5703.4141229,N,00952.3124630,E,2,11,0.8,-1.797,M,40.593,M,2.6,0123*6C
$GPVTG,256.69,T,-383.21,M,004.239,N,007.850,K,D*08
$GPGGA,093205.55,5703.4141085,N,00952.3123588,E,2,11,0.8,-1.797,M,40.593,M,2.6,0123*6A
$GPVTG,256.25,T,-383.65,M,004.237,N,007.847,K,D*08
$GPGGA,093205.60,5703.4140933,N,00952.3122540,E,2,11,0.8,-1.800,M,40.593,M,2.6,0123*6D
$GPVTG,255.64,T,-384.26,M,004.253,N,007.877,K,D*0F
$GPGGA,093205.65,5703.4140784,N,00952.3121492,E,2,11,0.8,-1.807,M,40.593,M,2.9,0123*6F
$GPVTG,255.41,T,-384.49,M,004.260,N,007.889,K,D*00
$GPGGA,093205.70,5703.4140635,N,00952.3120441,E,2,11,0.8,-1.810,M,40.593,M,2.9,0123*69
$GPVTG,255.25,T,-384.65,M,004.269,N,007.907,K,D*02
$GPGGA,093205.75,5703.4140484,N,00952.3119380,E,2,11,0.8,-1.812,M,40.593,M,2.9,0123*66
$GPVTG,255.14,T,-384.76,M,004.298,N,007.960,K,D*0D
$GPGGA,093205.80,5703.4140327,N,00952.3118309,E,2,11,0.8,-1.815,M,40.593,M,2.9,0123*65
$GPVTG,254.94,T,-384.96,M,004.340,N,008.038,K,D*05
$GPGGA,093205.85,5703.4140177,N,00952.3117238,E,2,11,0.8,-1.816,M,40.593,M,3.1,0123*61
$GPVTG,255.09,T,-384.81,M,004.362,N,008.078,K,D*02
$GPGGA,093205.90,5703.4140022,N,00952.3116174,E,2,11,0.8,-1.819,M,40.593,M,3.1,0123*61
$GPVTG,254.97,T,-384.93,M,004.361,N,008.077,K,D*0B
$GPGGA,093205.95,5703.4139878,N,00952.3115103,E,2,11,0.8,-1.819,M,40.593,M,3.1,0123*6E
$GPVTG,255.43,T,-384.47,M,004.362,N,008.078,K,D*06
$GPGGA,093206.00,5703.4139725,N,00952.3114049,E,2,11,0.8,-1.820,M,40.593,M,3.1,0123*62
$GPVTG,255.26,T,-384.64,M,004.332,N,008.022,K,D*0E
$GPGGA,093206.05,5703.4139574,N,00952.3112981,E,2,11,0.8,-1.819,M,40.593,M,1.7,0123*64
$GPVTG,255.31,T,-384.59,M,004.341,N,008.040,K,D*06
$GPGGA,093206.10,5703.4139423,N,00952.3111914,E,2,11,0.8,-1.817,M,40.593,M,1.7,0123*62
$GPVTG,255.36,T,-384.54,M,004.341,N,008.040,K,D*0C
$GPGGA,093206.15,5703.4139272,N,00952.3110842,E,2,11,0.8,-1.818,M,40.593,M,1.7,0123*69
$GPVTG,255.43,T,-384.47,M,004.350,N,008.057,K,D*0A
$GPGGA,093206.20,5703.4139114,N,00952.3109765,E,2,11,0.8,-1.818,M,40.593,M,1.7,0123*6E
$GPVTG,255.23,T,-384.67,M,004.371,N,008.095,K,D*03
$GPGGA,093206.25,5703.4138966,N,00952.3108690,E,2,11,0.8,-1.817,M,40.593,M,1.9,0123*6C
$GPVTG,255.49,T,-384.41,M,004.372,N,008.097,K,D*0A
$GPGGA,093206.30,5703.4138819,N,00952.3107611,E,2,11,0.8,-1.815,M,40.593,M,1.9,0123*65
$GPVTG,255.71,T,-384.19,M,004.377,N,008.106,K,D*00
$GPGGA,093206.35,5703.4138664,N,00952.3106526,E,2,11,0.8,-1.812,M,40.593,M,1.9,0123*65
$GPVTG,255.62,T,-384.28,M,004.398,N,008.145,K,D*06
$GPGGA,093206.40,5703.4138504,N,00952.3105446,E,2,11,0.8,-1.812,M,40.593,M,1.9,0123*66
$GPVTG,255.23,T,-384.67,M,004.406,N,008.160,K,D*0F
$GPGGA,093206.45,5703.4138352,N,00952.3104358,E,2,11,0.8,-1.805,M,40.593,M,2.2,0123*61
$GPVTG,255.33,T,-384.57,M,004.423,N,008.191,K,D*04
$GPGGA,093206.50,5703.4138197,N,00952.3103278,E,2,11,0.8,-1.801,M,40.593,M,2.2,0123*6E
$GPVTG,255.25,T,-384.65,M,004.416,N,008.178,K,D*03
$GPGGA,093206.55,5703.4138040,N,00952.3102199,E,2,11,0.8,-1.800,M,40.593,M,2.2,0123*6C
$GPVTG,255.14,T,-384.76,M,004.405,N,008.159,K,D*02
$GPGGA,093206.60,5703.4137877,N,00952.3101115,E,2,11,0.8,-1.798,M,40.593,M,2.2,0123*60
$GPVTG,254.82,T,-385.08,M,004.417,N,008.180,K,D*03
$GPGGA,093206.65,5703.4137713,N,00952.3100020,E,2,11,0.8,-1.798,M,40.593,M,2.4,0123*68
$GPVTG,254.70,T,-385.20,M,004.442,N,008.226,K,D*0B
$GPGGA,093206.70,5703.4137545,N,00952.3098922,E,2,11,0.8,-1.796,M,40.593,M,2.4,0123*68
$GPVTG,254.45,T,-385.45,M,004.471,N,008.281,K,D*03
$GPGGA,093206.75,5703.4137378,N,00952.3097822,E,2,11,0.8,-1.794,M,40.593,M,2.4,0123*69
$GPVTG,254.33,T,-385.57,M,004.492,N,008.319,K,D*0C
$GPGGA,093206.80,5703.4137204,N,00952.3096724,E,2,11,0.8,-1.794,M,40.593,M,2.4,0123*61
$GPVTG,253.98,T,-385.92,M,004.505,N,008.344,K,D*04
$GPGGA,093206.85,5703.4137032,N,00952.3095630,E,2,11,0.8,-1.792,M,40.593,M,2.7,0123*61
$GPVTG,253.76,T,-386.14,M,004.504,N,008.341,K,D*0D
$GPGGA,093206.90,5703.4136854,N,00952.3094549,E,2,11,0.8,-1.792,M,40.593,M,2.7,0123*60
$GPVTG,253.32,T,-386.58,M,004.479,N,008.295,K,D*06
$GPGGA,093206.95,5703.4136670,N,00952.3093454,E,2,11,0.8,-1.791,M,40.593,M,2.7,0123*64
$GPVTG,252.93,T,-386.97,M,004.492,N,008.320,K,D*05
$GPGGA,093207.00,5703.4136491,N,00952.3092345,E,2,11,0.8,-1.790,M,40.593,M,2.7,0123*63
$GPVTG,253.00,T,-386.90,M,004.526,N,008.382,K,D*0F
$GPGGA,093207.05,5703.4136315,N,00952.3091251,E,2,11,0.8,-1.795,M,40.593,M,1.6,0123*6D
$GPVTG,253.11,T,-386.79,M,004.517,N,008.365,K,D*03
$GPGGA,093207.10,5703.4136143,N,00952.3090164,E,2,11,0.8,-1.796,M,40.593,M,1.6,0123*6F
$GPVTG,253.33,T,-386.57,M,004.488,N,008.311,K,D*0B
$GPGGA,093207.15,5703.4135965,N,00952.3089064,E,2,11,0.8,-1.796,M,40.593,M,1.6,0123*6C
$GPVTG,253.35,T,-386.55,M,004.498,N,008.330,K,D*0D
$GPGGA,093207.20,5703.4135784,N,00952.3087963,E,2,11,0.8,-1.797,M,40.593,M,1.6,0123*6A
$GPVTG,253.25,T,-386.65,M,004.511,N,008.354,K,D*0D
$GPGGA,093207.25,5703.4135605,N,00952.3086860,E,2,11,0.8,-1.795,M,40.593,M,1.8,0123*68
$GPVTG,253.28,T,-386.62,M,004.522,N,008.375,K,D*04
$GPGGA,093207.30,5703.4135435,N,00952.3085763,E,2,11,0.8,-1.794,M,40.593,M,1.8,0123*63
$GPVTG,253.64,T,-386.26,M,004.509,N,008.350,K,D*02
$GPGGA,093207.35,5703.4135260,N,00952.3084667,E,2,11,0.8,-1.795,M,40.593,M,1.8,0123*65
$GPVTG,253.69,T,-386.21,M,004.501,N,008.336,K,D*00
$GPGGA,093207.40,5703.4135079,N,00952.3083567,E,2,11,0.8,-1.795,M,40.593,M,1.8,0123*69
$GPVTG,253.52,T,-386.38,M,004.508,N,008.349,K,D*01
$GPGGA,093207.45,5703.4134894,N,00952.3082468,E,2,11,0.8,-1.792,M,40.593,M,2.0,0123*65
$GPVTG,253.17,T,-386.73,M,004.516,N,008.364,K,D*0F
$GPGGA,093207.50,5703.4134715,N,00952.3081374,E,2,11,0.8,-1.792,M,40.593,M,2.0,0123*6E
$GPVTG,253.19,T,-386.71,M,004.505,N,008.344,K,D*03
$GPGGA,093207.55,5703.4134544,N,00952.3080281,E,2,11,0.8,-1.793,M,40.593,M,2.0,0123*66
$GPVTG,253.49,T,-386.41,M,004.487,N,008.310,K,D*0F
$GPGGA,093207.60,5703.4134369,N,00952.3079175,E,2,11,0.8,-1.792,M,40.593,M,2.0,0123*66
$GPVTG,253.65,T,-386.25,M,004.507,N,008.347,K,D*08
$GPGGA,093207.65,5703.4134192,N,00952.3078068,E,2,11,0.8,-1.794,M,40.593,M,2.3,0123*6C
$GPVTG,253.73,T,-386.17,M,004.521,N,008.373,K,D*0D
$GPGGA,093207.70,5703.4134027,N,00952.3076956,E,2,11,0.8,-1.795,M,40.593,M,2.3,0123*6C
$GPVTG,254.29,T,-385.61,M,004.529,N,008.388,K,D*0B
$GPGGA,093207.75,5703.4133857,N,00952.3075853,E,2,11,0.8,-1.799,M,40.593,M,2.3,0123*6A
$GPVTG,254.35,T,-385.55,M,004.523,N,008.377,K,D*0B
$GPGGA,093207.80,5703.4133675,N,00952.3074756,E,2,11,0.8,-1.801,M,40.593,M,2.3,0123*6B
$GPVTG,253.88,T,-386.02,M,004.515,N,008.361,K,D*09
$GPGGA,093207.85,5703.4133508,N,00952.3073662,E,2,11,0.8,-1.799,M,40.593,M,2.5,0123*6E
$GPVTG,254.06,T,-385.84,M,004.492,N,008.319,K,D*04
$GPGGA,093207.90,5703.4133333,N,00952.3072572,E,2,11,0.8,-1.797,M,40.593,M,2.5,0123*69
$GPVTG,253.86,T,-386.04,M,004.474,N,008.287,K,D*0E
$GPGGA,093207.95,5703.4133170,N,00952.3071477,E,2,11,0.8,-1.796,M,40.593,M,2.5,0123*6F
$GPVTG,254.27,T,-385.63,M,004.462,N,008.264,K,D*0A
$GPGGA,093208.00,5703.4132985,N,00952.3070380,E,2,11,0.8,-1.797,M,40.593,M,2.5,0123*60
$GPVTG,253.63,T,-386.27,M,004.482,N,008.300,K,D*03
$GPGGA,093208.05,5703.4132809,N,00952.3069288,E,2,11,0.8,-1.799,M,40.593,M,2.7,0123*6D
$GPVTG,253.48,T,-386.42,M,004.481,N,008.298,K,D*0A
$GPGGA,093208.10,5703.4132632,N,00952.3068194,E,2,11,0.8,-1.800,M,40.593,M,2.7,0123*6F
$GPVTG,253.39,T,-386.51,M,004.482,N,008.301,K,D*0C
$GPGGA,093208.15,5703.4132460,N,00952.3067102,E,2,11,0.8,-1.800,M,40.593,M,2.7,0123*6F
$GPVTG,253.56,T,-386.34,M,004.474,N,008.287,K,D*00
$GPGGA,093208.20,5703.4132293,N,00952.3066006,E,2,11,0.8,-1.800,M,40.593,M,2.7,0123*67
$GPVTG,253.94,T,-385.96,M,004.474,N,008.286,K,D*04
$GPGGA,093208.25,5703.4132127,N,00952.3064912,E,2,11,0.8,-1.801,M,40.593,M,2.9,0123*6F
$GPVTG,254.22,T,-385.68,M,004.468,N,008.276,K,D*0D
$GPGGA,093208.30,5703.4131956,N,00952.3063816,E,2,11,0.8,-1.801,M,40.593,M,2.9,0123*64
$GPVTG,254.19,T,-385.71,M,004.473,N,008.284,K,D*0A
$GPGGA,093208.35,5703.4131784,N,00952.3062720,E,2,11,0.8,-1.803,M,40.593,M,2.9,0123*69
$GPVTG,254.17,T,-385.73,M,004.478,N,008.293,K,D*0B
$GPGGA,093208.40,5703.4131604,N,00952.3061631,E,2,11,0.8,-1.803,M,40.593,M,2.9,0123*60
$GPVTG,253.72,T,-386.18,M,004.475,N,008.288,K,D*06
$GPGGA,093208.45,5703.4131424,N,00952.3060526,E,2,11,0.8,-1.805,M,40.593,M,3.1,0123*6E
$GPVTG,253.49,T,-386.41,M,004.507,N,008.346,K,D*05
$GPGGA,093208.50,5703.4131247,N,00952.3059433,E,2,11,0.8,-1.808,M,40.593,M,3.1,0123*6B
$GPVTG,253.36,T,-386.54,M,004.501,N,008.336,K,D*08
$GPGGA,093208.55,5703.4131077,N,00952.3058337,E,2,11,0.8,-1.809,M,40.593,M,3.1,0123*6C
$GPVTG,253.64,T,-386.26,M,004.493,N,008.322,K,D*05
$GPGGA,093208.60,5703.4130920,N,00952.3057247,E,2,11,0.8,-1.810,M,40.593,M,3.1,0123*61
$GPVTG,254.35,T,-385.55,M,004.464,N,008.268,K,D*06
$GPGGA,093208.65,5703.4130753,N,00952.3056161,E,2,11,0.8,-1.811,M,40.593,M,3.3,0123*6B
$GPVTG,254.44,T,-385.46,M,004.444,N,008.230,K,D*0D
$GPGGA,093208.70,5703.4130585,N,00952.3055059,E,2,11,0.8,-1.813,M,40.593,M,3.3,0123*6D
$GPVTG,254.51,T,-385.39,M,004.465,N,008.270,K,D*06
$GPGGA,093208.75,5703.4130418,N,00952.3053961,E,2,11,0.8,-1.814,M,40.593,M,3.3,0123*6E
$GPVTG,254.55,T,-385.35,M,004.471,N,008.281,K,D*05
$GPGGA,093208.80,5703.4130256,N,00952.3052852,E,2,11,0.8,-1.816,M,40.593,M,3.3,0123*6A
$GPVTG,254.88,T,-385.02,M,004.495,N,008.324,K,D*05
$GPGGA,093208.85,5703.4130093,N,00952.3051747,E,2,11,0.8,-1.816,M,40.593,M,3.5,0123*6A
$GPVTG,254.92,T,-384.98,M,004.505,N,008.343,K,D*05
$GPGGA,093208.90,5703.4129939,N,00952.3050633,E,2,11,0.8,-1.818,M,40.593,M,3.5,0123*62
$GPVTG,255.44,T,-384.46,M,004.519,N,008.369,K,D*09
$GPGGA,093208.95,5703.4129791,N,00952.3049530,E,2,11,0.8,-1.818,M,40.593,M,3.5,0123*63
$GPVTG,255.92,T,-383.98,M,004.500,N,008.334,K,D*06
$GPGGA,093209.00,5703.4129631,N,00952.3048434,E,2,11,0.8,-1.818,M,40.593,M,3.5,0123*61
$GPVTG,255.70,T,-384.20,M,004.479,N,008.296,K,D*08
$GPGGA,093209.05,5703.4129486,N,00952.3047339,E,2,11,0.8,-1.819,M,40.593,M,2.1,0123*6B
$GPVTG,256.10,T,-383.80,M,004.445,N,008.232,K,D*01
$GPGGA,093209.10,5703.4129336,N,00952.3046233,E,2,11,0.8,-1.819,M,40.593,M,2.1,0123*69
$GPVTG,256.24,T,-383.66,M,004.455,N,008.251,K,D*0A
$GPGGA,093209.15,5703.4129179,N,00952.3045120,E,2,11,0.8,-1.817,M,40.593,M,2.1,0123*69
$GPVTG,256.06,T,-383.84,M,004.483,N,008.303,K,D*0B
$GPGGA,093209.20,5703.4129014,N,00952.3044014,E,2,11,0.8,-1.818,M,40.593,M,2.1,0123*6D
$GPVTG,255.51,T,-384.39,M,004.495,N,008.324,K,D*09
$GPGGA,093209.25,5703.4128863,N,00952.3042914,E,2,11,0.8,-1.816,M,40.593,M,2.3,0123*62
$GPVTG,255.61,T,-384.29,M,004.483,N,008.303,K,D*09
$GPGGA,093209.30,5703.4128713,N,00952.3041799,E,2,11,0.8,-1.816,M,40.593,M,2.3,0123*66
$GPVTG,255.86,T,-384.04,M,004.501,N,008.336,K,D*02
$GPGGA,093209.35,5703.4128558,N,00952.3040691,E,2,11,0.8,-1.816,M,40.593,M,2.3,0123*66
$GPVTG,255.78,T,-384.12,M,004.502,N,008.338,K,D*09
$GPGGA,093209.40,5703.4128395,N,00952.3039584,E,2,11,0.8,-1.819,M,40.593,M,2.3,0123*65
$GPVTG,255.39,T,-384.51,M,004.506,N,008.346,K,D*06
$GPGGA,093209.45,5703.4128244,N,00952.3038472,E,2,11,0.8,-1.818,M,40.593,M,2.6,0123*60
$GPVTG,255.58,T,-384.32,M,004.511,N,008.354,K,D*01
$GPGGA,093209.50,5703.4128084,N,00952.3037347,E,2,11,0.8,-1.818,M,40.593,M,2.6,0123*64
$GPVTG,255.48,T,-384.42,M,004.546,N,008.420,K,D*01
$GPGGA,093209.55,5703.4127913,N,00952.3036223,E,2,11,0.8,-1.820,M,40.593,M,2.6,0123*60
$GPVTG,254.98,T,-384.92,M,004.574,N,008.472,K,D*06
$GPGGA,093209.60,5703.4127757,N,00952.3035097,E,2,11,0.8,-1.820,M,40.593,M,2.6,0123*66
$GPVTG,255.20,T,-384.70,M,004.585,N,008.491,K,D*0B
$GPGGA,093209.65,5703.4127605,N,00952.3033975,E,2,11,0.8,-1.818,M,40.593,M,2.9,0123*62
$GPVTG,255.52,T,-384.38,M,004.577,N,008.477,K,D*07
$GPGGA,093209.70,5703.4127442,N,00952.3032853,E,2,11,0.8,-1.819,M,40.593,M,2.9,0123*62
$GPVTG,255.36,T,-384.54,M,004.578,N,008.479,K,D*0E
$GPGGA,093209.75,5703.4127280,N,00952.3031731,E,2,11,0.8,-1.817,M,40.593,M,2.9,0123*69
$GPVTG,255.23,T,-384.67,M,004.576,N,008.474,K,D*09
$GPGGA,093209.80,5703.4127125,N,00952.3030604,E,2,11,0.8,-1.817,M,40.593,M,2.9,0123*69
$GPVTG,255.50,T,-384.40,M,004.576,N,008.475,K,D*09
$GPGGA,093209.85,5703.4126959,N,00952.3029483,E,2,11,0.8,-1.824,M,40.593,M,3.1,0123*62
$GPVTG,255.26,T,-384.64,M,004.569,N,008.461,K,D*05
$GPGGA,093209.90,5703.4126795,N,00952.3028359,E,2,11,0.8,-1.822,M,40.593,M,3.1,0123*6F
$GPVTG,255.09,T,-384.81,M,004.573,N,008.470,K,D*08
$GPGGA,093209.95,5703.4126632,N,00952.3027223,E,2,11,0.8,-1.821,M,40.593,M,3.1,0123*66
$GPVTG,255.12,T,-384.78,M,004.599,N,008.517,K,D*00
$GPGGA,093210.00,5703.4126468,N,00952.3026091,E,2,11,0.8,-1.822,M,40.593,M,3.1,0123*66
$GPVTG,255.11,T,-384.79,M,004.608,N,008.534,K,D*08
$GPGGA,093210.05,5703.4126296,N,00952.3024959,E,2,11,0.8,-1.818,M,40.593,M,1.7,0123*66
$GPVTG,254.68,T,-385.22,M,004.613,N,008.544,K,D*05
$GPGGA,093210.10,5703.4126124,N,00952.3023827,E,2,11,0.8,-1.817,M,40.593,M,1.7,0123*68
$GPVTG,254.45,T,-385.45,M,004.623,N,008.562,K,D*0C
$GPGGA,093210.15,5703.4125964,N,00952.3022706,E,2,11,0.8,-1.816,M,40.593,M,1.7,0123*6E
$GPVTG,254.73,T,-385.17,M,004.595,N,008.511,K,D*04
$GPGGA,093210.20,5703.4125796,N,00952.3021570,E,2,11,0.8,-1.814,M,40.593,M,1.7,0123*69
$GPVTG,254.75,T,-385.15,M,004.610,N,008.539,K,D*04
$GPGGA,093210.25,5703.4125630,N,00952.3020432,E,2,11,0.8,-1.813,M,40.593,M,1.9,0123*6E
$GPVTG,254.86,T,-385.04,M,004.625,N,008.565,K,D*07
$GPGGA,093210.30,5703.4125455,N,00952.3019284,E,2,11,0.8,-1.812,M,40.593,M,1.9,0123*6B
$GPVTG,254.62,T,-385.28,M,004.661,N,008.633,K,D*03
$GPGGA,093210.35,5703.4125281,N,00952.3018145,E,2,11,0.8,-1.812,M,40.593,M,1.9,0123*6E
$GPVTG,254.45,T,-385.45,M,004.666,N,008.641,K,D*0F
$GPGGA,093210.40,5703.4125106,N,00952.3017012,E,2,11,0.8,-1.811,M,40.593,M,1.9,0123*6F
$GPVTG,254.27,T,-385.63,M,004.656,N,008.623,K,D*08
$GPGGA,093210.45,5703.4124929,N,00952.3015876,E,2,11,0.8,-1.809,M,40.593,M,2.2,0123*67
$GPVTG,254.09,T,-385.81,M,004.655,N,008.620,K,D*08
$GPGGA,093210.50,5703.4124756,N,00952.3014736,E,2,11,0.8,-1.807,M,40.593,M,2.2,0123*61
$GPVTG,254.17,T,-385.73,M,004.656,N,008.624,K,D*0D
$GPGGA,093210.55,5703.4124577,N,00952.3013602,E,2,11,0.8,-1.806,M,40.593,M,2.2,0123*65
$GPVTG,253.93,T,-385.97,M,004.651,N,008.615,K,D*09
$GPGGA,093210.60,5703.4124401,N,00952.3012466,E,2,11,0.8,-1.807,M,40.593,M,2.2,0123*63
$GPVTG,253.95,T,-385.95,M,004.648,N,008.608,K,D*09
$GPGGA,093210.65,5703.4124218,N,00952.3011334,E,2,11,0.8,-1.807,M,40.593,M,2.4,0123*6D
$GPVTG,253.67,T,-386.23,M,004.644,N,008.600,K,D*0E
$GPGGA,093210.70,5703.4124037,N,00952.3010201,E,2,11,0.8,-1.806,M,40.593,M,2.4,0123*61
$GPVTG,253.56,T,-386.34,M,004.642,N,008.597,K,D*01
$GPGGA,093210.75,5703.4123855,N,00952.3009065,E,2,11,0.8,-1.804,M,40.593,M,2.4,0123*65
$GPVTG,253.51,T,-386.39,M,004.649,N,008.610,K,D*0C
$GPGGA,093210.80,5703.4123668,N,00952.3007942,E,2,11,0.8,-1.802,M,40.593,M,2.4,0123*6B
$GPVTG,253.17,T,-386.73,M,004.633,N,008.580,K,D*07
$GPGGA,093210.85,5703.4123487,N,00952.3006803,E,2,11,0.8,-1.801,M,40.593,M,2.7,0123*68
$GPVTG,253.32,T,-386.58,M,004.647,N,008.606,K,D*07
$GPGGA,093210.90,5703.4123304,N,00952.3005668,E,2,11,0.8,-1.798,M,40.593,M,2.7,0123*6F
$GPVTG,253.38,T,-386.52,M,004.651,N,008.613,K,D*04
$GPGGA,093210.95,5703.4123121,N,00952.3004541,E,2,11,0.8,-1.797,M,40.593,M,2.7,0123*69
$GPVTG,253.34,T,-386.56,M,004.639,N,008.591,K,D*0B
$GPGGA,093211.00,5703.4122923,N,00952.3003410,E,2,11,0.8,-1.795,M,40.593,M,2.7,0123*6F
$GPVTG,252.76,T,-387.14,M,004.653,N,008.617,K,D*0A
$GPGGA,093211.05,5703.4122728,N,00952.3002280,E,2,11,0.8,-1.794,M,40.593,M,1.6,0123*62
$GPVTG,252.42,T,-387.48,M,004.651,N,008.613,K,D*02
$GPGGA,093211.10,5703.4122543,N,00952.3001140,E,2,11,0.8,-1.794,M,40.593,M,1.6,0123*65
$GPVTG,252.75,T,-387.15,M,004.666,N,008.641,K,D*0D
$GPGGA,093211.15,5703.4122353,N,00952.3000012,E,2,11,0.8,-1.793,M,40.593,M,1.6,0123*67
$GPVTG,252.69,T,-387.21,M,004.658,N,008.626,K,D*0B
$GPGGA,093211.20,5703.4122156,N,00952.2998885,E,2,11,0.8,-1.794,M,40.593,M,1.6,0123*6E
$GPVTG,252.43,T,-387.47,M,004.655,N,008.621,K,D*09
$GPGGA,093211.25,5703.4121968,N,00952.2997750,E,2,11,0.8,-1.794,M,40.593,M,1.8,0123*6B
$GPVTG,252.63,T,-387.27,M,004.660,N,008.631,K,D*0A
$GPGGA,093211.30,5703.4121776,N,00952.2996624,E,2,11,0.8,-1.793,M,40.593,M,1.8,0123*6A
$GPVTG,252.62,T,-387.28,M,004.651,N,008.613,K,D*06
$GPGGA,093211.35,5703.4121569,N,00952.2995485,E,2,11,0.8,-1.794,M,40.593,M,1.8,0123*6E
$GPVTG,252.10,T,-387.80,M,004.685,N,008.676,K,D*0B
$GPGGA,093211.40,5703.4121365,N,00952.2994367,E,2,11,0.8,-1.795,M,40.593,M,1.8,0123*6D
$GPVTG,251.69,T,-388.21,M,004.664,N,008.638,K,D*07
$GPGGA,093211.45,5703.4121167,N,00952.2993254,E,2,11,0.8,-1.796,M,40.593,M,2.0,0123*66
$GPVTG,251.63,T,-388.27,M,004.633,N,008.580,K,D*09
$GPGGA,093211.50,5703.4120975,N,00952.2992141,E,2,11,0.8,-1.792,M,40.593,M,2.0,0123*6A
$GPVTG,251.86,T,-388.04,M,004.606,N,008.530,K,D*0E
$GPGGA,093211.55,5703.4120776,N,00952.2991030,E,2,11,0.8,-1.790,M,40.593,M,2.0,0123*64
$GPVTG,251.76,T,-388.15,M,004.591,N,008.503,K,D*0C
$GPGGA,093211.60,5703.4120573,N,00952.2989916,E,2,11,0.8,-1.789,M,40.593,M,2.0,0123*69
$GPVTG,251.56,T,-388.34,M,004.598,N,008.515,K,D*03
$GPGGA,093211.65,5703.4120374,N,00952.2988813,E,2,11,0.8,-1.785,M,40.593,M,2.3,0123*67
$GPVTG,251.49,T,-388.41,M,004.580,N,008.481,K,D*0A
$GPGGA,093211.70,5703.4120178,N,00952.2987706,E,2,11,0.8,-1.785,M,40.593,M,2.3,0123*69
$GPVTG,251.65,T,-388.25,M,004.569,N,008.463,K,D*0D
$GPGGA,093211.75,5703.4119978,N,00952.2986595,E,2,11,0.8,-1.783,M,40.593,M,2.3,0123*61
$GPVTG,251.66,T,-388.24,M,004.579,N,008.480,K,D*03
$GPGGA,093211.80,5703.4119779,N,00952.2985498,E,2,11,0.8,-1.777,M,40.593,M,2.3,0123*60
$GPVTG,251.57,T,-388.33,M,004.559,N,008.443,K,D*0A
$GPGGA,093211.85,5703.4119573,N,00952.2984394,E,2,11,0.8,-1.779,M,40.593,M,2.5,0123*6F
$GPVTG,251.40,T,-388.50,M,004.562,N,008.449,K,D*0B
$GPGGA,093211.90,5703.4119374,N,00952.2983300,E,2,11,0.8,-1.778,M,40.593,M,2.5,0123*61
$GPVTG,251.40,T,-388.50,M,004.543,N,008.414,K,D*00
$GPGGA,093211.95,5703.4119162,N,00952.2982199,E,2,11,0.8,-1.777,M,40.593,M,2.5,0123*6D
$GPVTG,250.96,T,-388.94,M,004.562,N,008.448,K,D*08
$GPGGA,093212.00,5703.4118954,N,00952.2981096,E,2,11,0.8,-1.777,M,40.593,M,2.5,0123*63
$GPVTG,250.80,T,-389.10,M,004.575,N,008.473,K,D*0C
$GPGGA,093212.05,5703.4118739,N,00952.2980004,E,2,11,0.8,-1.779,M,40.593,M,2.7,0123*65
$GPVTG,250.37,T,-389.53,M,004.560,N,008.445,K,D*06
$GPGGA,093212.10,5703.4118532,N,00952.2978921,E,2,11,0.8,-1.777,M,40.593,M,2.7,0123*6F
$GPVTG,250.33,T,-389.57,M,004.534,N,008.397,K,D*0F
$GPGGA,093212.15,5703.4118318,N,00952.2977844,E,2,11,0.8,-1.775,M,40.593,M,2.7,0123*6B
$GPVTG,249.99,T,-389.91,M,004.514,N,008.359,K,D*0D
$GPGGA,093212.20,5703.4118100,N,00952.2976762,E,2,11,0.8,-1.777,M,40.593,M,2.7,0123*6E
$GPVTG,249.72,T,-390.18,M,004.514,N,008.361,K,D*0A
$GPGGA,093212.25,5703.4117882,N,00952.2975674,E,2,11,0.8,-1.778,M,40.593,M,2.9,0123*63
$GPVTG,249.57,T,-390.33,M,004.533,N,008.396,K,D*09
$GPGGA,093212.30,5703.4117662,N,00952.2974593,E,2,11,0.8,-1.778,M,40.593,M,2.9,0123*6C
$GPVTG,249.40,T,-390.50,M,004.535,N,008.398,K,D*02
$GPGGA,093212.35,5703.4117441,N,00952.2973524,E,2,11,0.8,-1.777,M,40.593,M,2.9,0123*6E
$GPVTG,249.15,T,-390.75,M,004.514,N,008.359,K,D*0B
$GPGGA,093212.40,5703.4117213,N,00952.2972452,E,2,11,0.8,-1.776,M,40.593,M,2.9,0123*6D
$GPVTG,248.79,T,-391.11,M,004.514,N,008.360,K,D*09
$GPGGA,093212.45,5703.4116980,N,00952.2971380,E,2,11,0.8,-1.779,M,40.593,M,3.1,0123*65
$GPVTG,248.34,T,-391.56,M,004.521,N,008.373,K,D*07
$GPGGA,093212.50,5703.4116755,N,00952.2970310,E,2,11,0.8,-1.779,M,40.593,M,3.1,0123*6F
$GPVTG,248.40,T,-391.50,M,004.514,N,008.360,K,D*06
$GPGGA,093212.55,5703.4116527,N,00952.2969243,E,2,11,0.8,-1.784,M,40.593,M,3.1,0123*60
$GPVTG,248.32,T,-391.58,M,004.508,N,008.350,K,D*05
$GPGGA,093212.60,5703.4116305,N,00952.2968180,E,2,11,0.8,-1.787,M,40.593,M,3.1,0123*6E
$GPVTG,248.50,T,-391.40,M,004.491,N,008.318,K,D*05
$GPGGA,093212.65,5703.4116080,N,00952.2967138,E,2,11,0.8,-1.788,M,40.593,M,3.3,0123*64
$GPVTG,248.39,T,-391.51,M,004.442,N,008.226,K,D*08
$GPGGA,093212.70,5703.4115844,N,00952.2966089,E,2,11,0.8,-1.789,M,40.593,M,3.3,0123*68
$GPVTG,247.91,T,-391.99,M,004.438,N,008.220,K,D*0A
$GPGGA,093212.75,5703.4115614,N,00952.2965032,E,2,11,0.8,-1.790,M,40.593,M,3.3,0123*6D
$GPVTG,247.91,T,-391.99,M,004.447,N,008.235,K,D*06
$GPGGA,093212.80,5703.4115389,N,00952.2963975,E,2,11,0.8,-1.791,M,40.593,M,3.3,0123*6B
$GPVTG,248.16,T,-391.74,M,004.452,N,008.245,K,D*06
$GPGGA,093212.85,5703.4115169,N,00952.2962923,E,2,11,0.8,-1.791,M,40.593,M,3.5,0123*66
$GPVTG,248.50,T,-391.40,M,004.441,N,008.225,K,D*07
$GPGGA,093212.90,5703.4114949,N,00952.2961872,E,2,11,0.8,-1.793,M,40.593,M,3.5,0123*6D
$GPVTG,248.75,T,-391.15,M,004.429,N,008.203,K,D*0A
$GPGGA,093212.95,5703.4114730,N,00952.2960831,E,2,11,0.8,-1.793,M,40.593,M,3.5,0123*6E
$GPVTG,248.86,T,-391.04,M,004.403,N,008.154,K,D*0F
$GPGGA,093213.00,5703.4114506,N,00952.2959784,E,2,11,0.8,-1.793,M,40.593,M,3.5,0123*6F
$GPVTG,248.80,T,-391.10,M,004.404,N,008.155,K,D*0A
$GPGGA,093213.05,5703.4114288,N,00952.2958738,E,2,11,0.8,-1.796,M,40.593,M,2.1,0123*6D
$GPVTG,248.94,T,-390.96,M,004.387,N,008.126,K,D*08
$GPGGA,093213.10,5703.4114066,N,00952.2957700,E,2,11,0.8,-1.797,M,40.593,M,2.1,0123*6E
$GPVTG,248.83,T,-391.07,M,004.376,N,008.105,K,D*08
$GPGGA,093213.15,5703.4113839,N,00952.2956672,E,2,11,0.8,-1.799,M,40.593,M,2.1,0123*65
$GPVTG,248.44,T,-391.46,M,004.359,N,008.073,K,D*0B
$GPGGA,093213.20,5703.4113609,N,00952.2955637,E,2,11,0.8,-1.802,M,40.593,M,2.1,0123*61
$GPVTG,248.07,T,-391.83,M,004.367,N,008.087,K,D*03
$GPGGA,093213.25,5703.4113406,N,00952.2954609,E,2,11,0.8,-1.799,M,40.593,M,2.3,0123*6A
$GPVTG,248.84,T,-391.06,M,004.334,N,008.026,K,D*08
$GPGGA,093213.30,5703.4113184,N,00952.2953573,E,2,11,0.8,-1.800,M,40.593,M,2.3,0123*67
$GPVTG,248.78,T,-391.12,M,004.344,N,008.045,K,D*0C
$GPGGA,093213.35,5703.4112962,N,00952.2952545,E,2,11,0.8,-1.801,M,40.593,M,2.3,0123*66
$GPVTG,248.62,T,-391.28,M,004.341,N,008.039,K,D*00
$GPGGA,093213.40,5703.4112749,N,00952.2951513,E,2,11,0.8,-1.801,M,40.593,M,2.3,0123*63
$GPVTG,248.90,T,-391.00,M,004.337,N,008.033,K,D*0C
$GPGGA,093213.45,5703.4112528,N,00952.2950484,E,2,11,0.8,-1.805,M,40.593,M,2.6,0123*6C
$GPVTG,248.80,T,-391.10,M,004.336,N,008.029,K,D*06
$GPGGA,093213.50,5703.4112312,N,00952.2949459,E,2,11,0.8,-1.806,M,40.593,M,2.6,0123*6C
$GPVTG,248.83,T,-391.07,M,004.325,N,008.010,K,D*0B
$GPGGA,093213.55,5703.4112098,N,00952.2948436,E,2,11,0.8,-1.808,M,40.593,M,2.6,0123*6E
$GPVTG,248.92,T,-390.98,M,004.311,N,007.984,K,D*00
$GPGGA,093213.60,5703.4111884,N,00952.2947405,E,2,11,0.8,-1.811,M,40.593,M,2.6,0123*69
$GPVTG,249.10,T,-390.80,M,004.320,N,008.000,K,D*0A
$GPGGA,093213.65,5703.4111678,N,00952.2946360,E,2,11,0.8,-1.812,M,40.593,M,2.9,0123*68
$GPVTG,249.62,T,-390.28,M,004.345,N,008.047,K,D*0D
$GPGGA,093213.70,5703.4111467,N,00952.2945331,E,2,11,0.8,-1.812,M,40.593,M,2.9,0123*67
$GPVTG,249.64,T,-390.26,M,004.336,N,008.031,K,D*00
$GPGGA,093213.75,5703.4111250,N,00952.2944307,E,2,11,0.8,-1.813,M,40.593,M,2.9,0123*65
$GPVTG,249.33,T,-390.57,M,004.325,N,008.009,K,D*0D
$GPGGA,093213.80,5703.4111036,N,00952.2943277,E,2,11,0.8,-1.814,M,40.593,M,2.9,0123*6B
$GPVTG,249.28,T,-390.62,M,004.328,N,008.015,K,D*01
$GPGGA,093213.85,5703.4110827,N,00952.2942236,E,2,11,0.8,-1.819,M,40.593,M,3.1,0123*67
$GPVTG,249.57,T,-390.33,M,004.342,N,008.041,K,D*00
$GPGGA,093213.90,5703.4110625,N,00952.2941203,E,2,11,0.8,-1.821,M,40.593,M,3.1,0123*61
$GPVTG,249.94,T,-389.96,M,004.331,N,008.021,K,D*0A
$GPGGA,093213.95,5703.4110416,N,00952.2940172,E,2,11,0.8,-1.825,M,40.593,M,3.1,0123*66
$GPVTG,249.91,T,-389.99,M,004.327,N,008.013,K,D*06
$GPGGA,093214.00,5703.4110220,N,00952.2939124,E,2,11,0.8,-1.826,M,40.593,M,3.1,0123*60
$GPVTG,250.52,T,-389.38,M,004.343,N,008.043,K,D*0D
$GPGGA,093214.05,5703.4110014,N,00952.2938084,E,2,11,0.8,-1.823,M,40.593,M,1.7,0123*6B
$GPVTG,250.36,T,-389.54,M,004.344,N,008.046,K,D*07
$GPGGA,093214.10,5703.4109812,N,00952.2937042,E,2,11,0.8,-1.824,M,40.593,M,1.7,0123*6B
$GPVTG,250.49,T,-389.41,M,004.349,N,008.055,K,D*04
$GPGGA,093214.15,5703.4109600,N,00952.2935998,E,2,11,0.8,-1.827,M,40.593,M,1.7,0123*6C
$GPVTG,250.16,T,-389.74,M,004.365,N,008.083,K,D*0D
$GPGGA,093214.20,5703.4109389,N,00952.2934950,E,2,11,0.8,-1.827,M,40.593,M,1.7,0123*6B
$GPVTG,250.00,T,-389.90,M,004.383,N,008.117,K,D*04
$GPGGA,093214.25,5703.4109188,N,00952.2933905,E,2,11,0.8,-1.833,M,40.593,M,1.9,0123*61
$GPVTG,250.30,T,-389.60,M,004.374,N,008.100,K,D*06
$GPGGA,093214.30,5703.4108995,N,00952.2932854,E,2,11,0.8,-1.835,M,40.593,M,1.9,0123*62
$GPVTG,250.83,T,-389.07,M,004.373,N,008.098,K,D*08
$GPGGA,093214.35,5703.4108796,N,00952.2931806,E,2,11,0.8,-1.838,M,40.593,M,1.9,0123*63
$GPVTG,250.93,T,-388.97,M,004.370,N,008.094,K,D*0E
$GPGGA,093214.40,5703.4108611,N,00952.2930755,E,2,11,0.8,-1.839,M,40.593,M,1.9,0123*66
$GPVTG,251.60,T,-388.30,M,004.358,N,008.071,K,D*0F
$GPGGA,093214.45,5703.4108413,N,00952.2929700,E,2,11,0.8,-1.838,M,40.593,M,2.2,0123*62
$GPVTG,251.52,T,-388.38,M,004.373,N,008.098,K,D*08
$GPGGA,093214.50,5703.4108211,N,00952.2928653,E,2,11,0.8,-1.840,M,40.593,M,2.2,0123*6B
$GPVTG,251.19,T,-388.71,M,004.369,N,008.092,K,D*0B
$GPGGA,093214.55,5703.4108010,N,00952.2927596,E,2,11,0.8,-1.841,M,40.593,M,2.2,0123*69
$GPVTG,251.06,T,-388.84,M,004.386,N,008.124,K,D*02
$GPGGA,093214.60,5703.4107816,N,00952.2926541,E,2,11,0.8,-1.843,M,40.593,M,2.2,0123*67
$GPVTG,251.18,T,-388.72,M,004.386,N,008.123,K,D*03
$GPGGA,093214.65,5703.4107622,N,00952.2925480,E,2,11,0.8,-1.838,M,40.593,M,2.4,0123*6E
$GPVTG,251.30,T,-388.60,M,004.401,N,008.150,K,D*06
$GPGGA,093214.70,5703.4107440,N,00952.2924422,E,2,11,0.8,-1.837,M,40.593,M,2.4,0123*6A
$GPVTG,251.88,T,-388.02,M,004.386,N,008.124,K,D*0A
$GPGGA,093214.75,5703.4107245,N,00952.2923363,E,2,11,0.8,-1.836,M,40.593,M,2.4,0123*68
$GPVTG,251.76,T,-388.14,M,004.392,N,008.134,K,D*08
$GPGGA,093214.80,5703.4107056,N,00952.2922287,E,2,11,0.8,-1.836,M,40.593,M,2.4,0123*68
$GPVTG,252.04,T,-387.86,M,004.421,N,008.187,K,D*0D
$GPGGA,093214.85,5703.4106877,N,00952.2921207,E,2,11,0.8,-1.834,M,40.593,M,2.7,0123*6D
$GPVTG,252.63,T,-387.27,M,004.439,N,008.221,K,D*01
$GPGGA,093214.90,5703.4106694,N,00952.2920121,E,2,11,0.8,-1.833,M,40.593,M,2.7,0123*6B
$GPVTG,252.93,T,-386.97,M,004.463,N,008.266,K,D*08
$GPGGA,093214.95,5703.4106512,N,00952.2919050,E,2,11,0.8,-1.831,M,40.593,M,2.7,0123*6C
$GPVTG,252.97,T,-386.93,M,004.449,N,008.239,K,D*0A
$GPGGA,093215.00,5703.4106319,N,00952.2917975,E,2,11,0.8,-1.830,M,40.593,M,2.7,0123*6D
$GPVTG,252.59,T,-387.31,M,004.452,N,008.244,K,D*01
$GPGGA,093215.05,5703.4106126,N,00952.2916907,E,2,11,0.8,-1.830,M,40.593,M,1.6,0123*60
$GPVTG,252.14,T,-387.76,M,004.431,N,008.206,K,D*08
$GPGGA,093215.10,5703.4105938,N,00952.2915841,E,2,11,0.8,-1.829,M,40.593,M,1.6,0123*68
$GPVTG,252.08,T,-387.82,M,004.417,N,008.179,K,D*01
$GPGGA,093215.15,5703.4105751,N,00952.2914764,E,2,11,0.8,-1.828,M,40.593,M,1.6,0123*64
$GPVTG,252.15,T,-387.75,M,004.428,N,008.201,K,D*05
$GPGGA,093215.20,5703.4105569,N,00952.2913683,E,2,11,0.8,-1.825,M,40.593,M,1.6,0123*69
$GPVTG,252.44,T,-387.46,M,004.441,N,008.224,K,D*09
$GPGGA,093215.25,5703.4105384,N,00952.2912602,E,2,11,0.8,-1.827,M,40.593,M,1.8,0123*6D
$GPVTG,252.60,T,-387.30,M,004.447,N,008.237,K,D*0A
$GPGGA,093215.30,5703.4105197,N,00952.2911536,E,2,11,0.8,-1.826,M,40.593,M,1.8,0123*6F
$GPVTG,252.41,T,-387.49,M,004.428,N,008.200,K,D*0A
$GPGGA,093215.35,5703.4105001,N,00952.2910466,E,2,11,0.8,-1.826,M,40.593,M,1.8,0123*61
$GPVTG,251.95,T,-387.95,M,004.431,N,008.206,K,D*0F
$GPGGA,093215.40,5703.4104807,N,00952.2909381,E,2,11,0.8,-1.827,M,40.593,M,1.8,0123*6B
$GPVTG,251.86,T,-388.04,M,004.459,N,008.259,K,D*0E
$GPGGA,093215.45,5703.4104635,N,00952.2908307,E,2,11,0.8,-1.823,M,40.593,M,2.0,0123*61
$GPVTG,252.56,T,-387.34,M,004.440,N,008.222,K,D*08
$GPGGA,093215.50,5703.4104461,N,00952.2907218,E,2,11,0.8,-1.822,M,40.593,M,2.0,0123*67
$GPVTG,253.16,T,-386.74,M,004.451,N,008.244,K,D*08
$GPGGA,093215.55,5703.4104285,N,00952.2906147,E,2,11,0.8,-1.822,M,40.593,M,2.0,0123*66
$GPVTG,253.32,T,-386.58,M,004.426,N,008.197,K,D*0D
$GPGGA,093215.60,5703.4104098,N,00952.2905077,E,2,11,0.8,-1.822,M,40.593,M,2.0,0123*6F
$GPVTG,252.92,T,-386.98,M,004.419,N,008.183,K,D*03
$GPGGA,093215.65,5703.4103915,N,00952.2903992,E,2,11,0.8,-1.824,M,40.593,M,2.3,0123*60
$GPVTG,252.97,T,-386.93,M,004.437,N,008.218,K,D*00
$GPGGA,093215.70,5703.4103741,N,00952.2902907,E,2,11,0.8,-1.823,M,40.593,M,2.3,0123*61
$GPVTG,253.34,T,-386.56,M,004.443,N,008.229,K,D*00
$GPGGA,093215.75,5703.4103570,N,00952.2901826,E,2,11,0.8,-1.823,M,40.593,M,2.3,0123*65
$GPVTG,253.64,T,-386.26,M,004.437,N,008.217,K,D*0C
$GPGGA,093215.80,5703.4103397,N,00952.2900739,E,2,11,0.8,-1.824,M,40.593,M,2.3,0123*67
$GPVTG,253.79,T,-386.11,M,004.446,N,008.234,K,D*03
$GPGGA,093215.85,5703.4103223,N,00952.2899667,E,2,11,0.8,-1.822,M,40.593,M,2.5,0123*67
$GPVTG,253.70,T,-386.20,M,004.422,N,008.190,K,D*07
$GPGGA,093215.90,5703.4103039,N,00952.2898596,E,2,11,0.8,-1.821,M,40.593,M,2.5,0123*65
$GPVTG,253.23,T,-386.67,M,004.413,N,008.173,K,D*0D
$GPGGA,093215.95,5703.4102850,N,00952.2897529,E,2,11,0.8,-1.822,M,40.593,M,2.5,0123*6E
$GPVTG,252.63,T,-387.27,M,004.406,N,008.160,K,D*0B
$GPGGA,093216.00,5703.4102663,N,00952.2896452,E,2,11,0.8,-1.821,M,40.593,M,2.5,0123*60
$GPVTG,252.36,T,-387.54,M,004.421,N,008.189,K,D*0D
$GPGGA,093216.05,5703.4102486,N,00952.2895381,E,2,11,0.8,-1.825,M,40.593,M,2.7,0123*60
$GPVTG,252.59,T,-387.31,M,004.398,N,008.144,K,D*03
$GPGGA,093216.10,5703.4102309,N,00952.2894309,E,2,11,0.8,-1.823,M,40.593,M,2.7,0123*63
$GPVTG,252.78,T,-387.12,M,004.397,N,008.144,K,D*0E
$GPGGA,093216.15,5703.4102131,N,00952.2893240,E,2,11,0.8,-1.822,M,40.593,M,2.7,0123*65
$GPVTG,252.87,T,-387.03,M,004.393,N,008.136,K,D*0F
$GPGGA,093216.20,5703.4101954,N,00952.2892178,E,2,11,0.8,-1.821,M,40.593,M,2.7,0123*61
$GPVTG,252.91,T,-386.99,M,004.375,N,008.103,K,D*04
$GPGGA,093216.25,5703.4101780,N,00952.2891120,E,2,11,0.8,-1.818,M,40.593,M,2.9,0123*69
$GPVTG,253.05,T,-386.85,M,004.357,N,008.069,K,D*08
$GPGGA,093216.30,5703.4101599,N,00952.2890059,E,2,11,0.8,-1.816,M,40.593,M,2.9,0123*67
$GPVTG,252.87,T,-387.03,M,004.355,N,008.066,K,D*01
$GPGGA,093216.35,5703.4101414,N,00952.2889001,E,2,11,0.8,-1.812,M,40.593,M,2.9,0123*67
$GPVTG,252.54,T,-387.36,M,004.355,N,008.066,K,D*09
$GPGGA,093216.40,5703.4101235,N,00952.2887938,E,2,11,0.8,-1.813,M,40.593,M,2.9,0123*6C
$GPVTG,252.62,T,-387.28,M,004.361,N,008.077,K,D*04
$GPGGA,093216.45,5703.4101065,N,00952.2886877,E,2,11,0.8,-1.814,M,40.593,M,3.1,0123*6B
$GPVTG,253.08,T,-386.82,M,004.353,N,008.061,K,D*0E
$GPGGA,093216.50,5703.4100881,N,00952.2885818,E,2,11,0.8,-1.812,M,40.593,M,3.1,0123*60
$GPVTG,252.77,T,-387.13,M,004.356,N,008.068,K,D*02
$GPGGA,093216.55,5703.4100690,N,00952.2884760,E,2,11,0.8,-1.811,M,40.593,M,3.1,0123*69
$GPVTG,252.24,T,-387.66,M,004.367,N,008.087,K,D*05
$GPGGA,093216.60,5703.4100503,N,00952.2883699,E,2,11,0.8,-1.809,M,40.593,M,3.1,0123*6F
$GPVTG,252.06,T,-387.84,M,004.377,N,008.105,K,D*03
$GPGGA,093216.65,5703.4100323,N,00952.2882643,E,2,11,0.8,-1.807,M,40.593,M,3.3,0123*64
$GPVTG,252.17,T,-387.73,M,004.370,N,008.092,K,D*03
$GPGGA,093216.70,5703.4100140,N,00952.2881583,E,2,11,0.8,-1.806,M,40.593,M,3.3,0123*6A
$GPVTG,252.25,T,-387.65,M,004.371,N,008.094,K,D*02
$GPGGA,093216.75,5703.4099953,N,00952.2880530,E,2,11,0.8,-1.806,M,40.593,M,3.3,0123*6D
$GPVTG,252.06,T,-387.84,M,004.362,N,008.079,K,D*0D
$GPGGA,093216.80,5703.4099770,N,00952.2879486,E,2,11,0.8,-1.806,M,40.593,M,3.3,0123*62
$GPVTG,252.01,T,-387.89,M,004.335,N,008.029,K,D*00
$GPGGA,093216.85,5703.4099571,N,00952.2878426,E,2,11,0.8,-1.813,M,40.593,M,3.5,0123*6D
$GPVTG,251.57,T,-388.33,M,004.362,N,008.078,K,D*08
$GPGGA,093216.90,5703.4099376,N,00952.2877368,E,2,11,0.8,-1.811,M,40.593,M,3.5,0123*68
$GPVTG,251.33,T,-388.57,M,004.377,N,008.106,K,D*04
$GPGGA,093216.95,5703.4099183,N,00952.2876323,E,2,11,0.8,-1.811,M,40.593,M,3.5,0123*6B
$GPVTG,251.15,T,-388.76,M,004.360,N,008.075,K,D*00
$GPGGA,093217.00,5703.4098984,N,00952.2875276,E,2,11,0.8,-1.811,M,40.593,M,3.5,0123*6A
$GPVTG,250.85,T,-389.05,M,004.358,N,008.071,K,D*02
$GPGGA,093217.05,5703.4098797,N,00952.2874240,E,2,11,0.8,-1.808,M,40.593,M,2.1,0123*6A
$GPVTG,250.91,T,-388.99,M,004.321,N,008.002,K,D*09
$GPGGA,093217.10,5703.4098605,N,00952.2873193,E,2,11,0.8,-1.808,M,40.593,M,2.1,0123*6E
$GPVTG,251.06,T,-388.84,M,004.325,N,008.010,K,D*0D
$GPGGA,093217.15,5703.4098407,N,00952.2872152,E,2,11,0.8,-1.806,M,40.593,M,2.1,0123*69
$GPVTG,250.85,T,-389.05,M,004.326,N,008.011,K,D*0D
$GPGGA,093217.20,5703.4098203,N,00952.2871117,E,2,11,0.8,-1.805,M,40.593,M,2.1,0123*6C
$GPVTG,250.43,T,-389.47,M,004.321,N,008.002,K,D*04
$GPGGA,093217.25,5703.4097996,N,00952.2870072,E,2,11,0.8,-1.809,M,40.593,M,2.3,0123*6C
$GPVTG,250.15,T,-389.75,M,004.339,N,008.036,K,D*08
$GPGGA,093217.30,5703.4097801,N,00952.2869030,E,2,11,0.8,-1.809,M,40.593,M,2.3,0123*69
$GPVTG,250.41,T,-389.49,M,004.338,N,008.033,K,D*02
$GPGGA,093217.35,5703.4097594,N,00952.2867999,E,2,11,0.8,-1.808,M,40.593,M,2.3,0123*68
$GPVTG,250.07,T,-389.83,M,004.329,N,008.017,K,D*00
$GPGGA,093217.40,5703.4097399,N,00952.2866956,E,2,11,0.8,-1.808,M,40.593,M,2.3,0123*63
$GPVTG,250.38,T,-389.52,M,004.331,N,008.022,K,D*0F
$GPGGA,093217.45,5703.4097199,N,00952.2865912,E,2,11,0.8,-1.807,M,40.593,M,2.6,0123*6D
$GPVTG,250.47,T,-389.43,M,004.344,N,008.045,K,D*04
$GPGGA,093217.50,5703.4097004,N,00952.2864869,E,2,11,0.8,-1.804,M,40.593,M,2.6,0123*63
$GPVTG,250.73,T,-389.17,M,004.343,N,008.043,K,D*03
$GPGGA,093217.55,5703.4096804,N,00952.2863832,E,2,11,0.8,-1.805,M,40.593,M,2.6,0123*67
$GPVTG,250.65,T,-389.25,M,004.335,N,008.029,K,D*08
$GPGGA,093217.60,5703.4096605,N,00952.2862800,E,2,11,0.8,-1.803,M,40.593,M,2.6,0123*68
$GPVTG,250.59,T,-389.31,M,004.317,N,007.996,K,D*00
$GPGGA,093217.65,5703.4096402,N,00952.2861760,E,2,11,0.8,-1.806,M,40.593,M,2.9,0123*68
$GPVTG,250.49,T,-389.41,M,004.327,N,008.013,K,D*0E
$GPGGA,093217.70,5703.4096199,N,00952.2860715,E,2,11,0.8,-1.808,M,40.593,M,2.9,0123*66
$GPVTG,250.44,T,-389.46,M,004.342,N,008.041,K,D*00
$GPGGA,093217.75,5703.4096000,N,00952.2859678,E,2,11,0.8,-1.808,M,40.593,M,2.9,0123*62
$GPVTG,250.48,T,-389.42,M,004.335,N,008.029,K,D*06
$GPGGA,093217.80,5703.4095801,N,00952.2858651,E,2,11,0.8,-1.806,M,40.593,M,2.9,0123*66
$GPVTG,250.44,T,-389.46,M,004.310,N,007.981,K,D*0D
$GPGGA,093217.85,5703.4095593,N,00952.2857615,E,2,11,0.8,-1.801,M,40.593,M,3.1,0123*64
$GPVTG,250.03,T,-389.87,M,004.326,N,008.013,K,D*0B
$GPGGA,093217.90,5703.4095398,N,00952.2856574,E,2,11,0.8,-1.800,M,40.593,M,3.1,0123*69
$GPVTG,250.41,T,-389.49,M,004.327,N,008.013,K,D*0E
$GPGGA,093217.95,5703.4095189,N,00952.2855547,E,2,11,0.8,-1.798,M,40.593,M,3.1,0123*63
$GPVTG,249.98,T,-389.92,M,004.317,N,007.995,K,D*0F
$GPGGA,093218.00,5703.4094984,N,00952.2854528,E,2,11,0.8,-1.796,M,40.593,M,3.1,0123*62
$GPVTG,249.81,T,-390.09,M,004.291,N,007.947,K,D*0D
$GPGGA,093218.05,5703.4094778,N,00952.2853499,E,2,11,0.8,-1.799,M,40.593,M,1.7,0123*6D
$GPVTG,249.66,T,-390.24,M,004.286,N,007.937,K,D*0A
$GPGGA,093218.10,5703.4094569,N,00952.2852480,E,2,11,0.8,-1.800,M,40.593,M,1.7,0123*6D
$GPVTG,249.41,T,-390.49,M,004.278,N,007.924,K,D*07
$GPGGA,093218.15,5703.4094365,N,00952.2851476,E,2,11,0.8,-1.798,M,40.593,M,1.7,0123*66
$GPVTG,249.35,T,-390.55,M,004.239,N,007.850,K,D*0E
$GPGGA,093218.20,5703.4094161,N,00952.2850456,E,2,11,0.8,-1.799,M,40.593,M,1.7,0123*64
$GPVTG,249.47,T,-390.43,M,004.245,N,007.862,K,D*06
$GPGGA,093218.25,5703.4093956,N,00952.2849440,E,2,11,0.8,-1.797,M,40.593,M,1.9,0123*65
$GPVTG,249.49,T,-390.41,M,004.249,N,007.868,K,D*0C
$GPGGA,093218.30,5703.4093753,N,00952.2848417,E,2,11,0.8,-1.796,M,40.593,M,1.9,0123*68
$GPVTG,249.70,T,-390.20,M,004.260,N,007.889,K,D*05
$GPGGA,093218.35,5703.4093552,N,00952.2847394,E,2,11,0.8,-1.798,M,40.593,M,1.9,0123*63
$GPVTG,249.93,T,-389.97,M,004.268,N,007.905,K,D*01
$GPGGA,093218.40,5703.4093350,N,00952.2846377,E,2,11,0.8,-1.797,M,40.593,M,1.9,0123*66
$GPVTG,250.02,T,-389.88,M,004.263,N,007.896,K,D*0F
$GPGGA,093218.45,5703.4093143,N,00952.2845360,E,2,11,0.8,-1.799,M,40.593,M,2.2,0123*60
$GPVTG,249.84,T,-390.06,M,004.264,N,007.897,K,D*01
$GPGGA,093218.50,5703.4092938,N,00952.2844328,E,2,11,0.8,-1.802,M,40.593,M,2.2,0123*61
$GPVTG,249.95,T,-389.95,M,004.292,N,007.948,K,D*09
$GPGGA,093218.55,5703.4092739,N,00952.2843305,E,2,11,0.8,-1.804,M,40.593,M,2.2,0123*65
$GPVTG,250.15,T,-389.75,M,004.285,N,007.936,K,D*08
$GPGGA,093218.60,5703.4092538,N,00952.2842285,E,2,11,0.8,-1.803,M,40.593,M,2.2,0123*6F
$GPVTG,250.18,T,-389.72,M,004.278,N,007.923,K,D*04
$GPGGA,093218.65,5703.4092338,N,00952.2841276,E,2,11,0.8,-1.806,M,40.593,M,2.4,0123*60
$GPVTG,250.18,T,-389.72,M,004.247,N,007.866,K,D*08
$GPGGA,093218.70,5703.4092139,N,00952.2840271,E,2,11,0.8,-1.807,M,40.593,M,2.4,0123*60
$GPVTG,250.10,T,-389.80,M,004.219,N,007.814,K,D*03
$GPGGA,093218.75,5703.4091937,N,00952.2839257,E,2,11,0.8,-1.807,M,40.593,M,2.4,0123*6A
$GPVTG,250.07,T,-389.83,M,004.222,N,007.820,K,D*09
$GPGGA,093218.80,5703.4091738,N,00952.2838238,E,2,11,0.8,-1.809,M,40.593,M,2.4,0123*67
$GPVTG,250.18,T,-389.72,M,004.235,N,007.842,K,D*0B
$GPGGA,093218.85,5703.4091532,N,00952.2837205,E,2,11,0.8,-1.811,M,40.593,M,2.7,0123*61
$GPVTG,250.06,T,-389.84,M,004.280,N,007.927,K,D*01
$GPGGA,093218.90,5703.4091326,N,00952.2836184,E,2,11,0.8,-1.812,M,40.593,M,2.7,0123*6E
$GPVTG,249.91,T,-389.99,M,004.285,N,007.936,K,D*0E
$GPGGA,093218.95,5703.4091120,N,00952.2835169,E,2,11,0.8,-1.812,M,40.593,M,2.7,0123*6F
$GPVTG,249.69,T,-390.21,M,004.277,N,007.921,K,D*09
$GPGGA,093219.00,5703.4090911,N,00952.2834173,E,2,11,0.8,-1.812,M,40.593,M,2.7,0123*63
$GPVTG,249.27,T,-390.63,M,004.237,N,007.848,K,D*0F
$GPGGA,093219.05,5703.4090706,N,00952.2833171,E,2,11,0.8,-1.812,M,40.593,M,1.6,0123*69
$GPVTG,249.08,T,-390.82,M,004.212,N,007.800,K,D*06
$GPGGA,093219.10,5703.4090494,N,00952.2832167,E,2,11,0.8,-1.813,M,40.593,M,1.6,0123*62
$GPVTG,248.84,T,-391.06,M,004.214,N,007.804,K,D*0C
$GPGGA,093219.15,5703.4090276,N,00952.2831158,E,2,11,0.8,-1.816,M,40.593,M,1.6,0123*67
$GPVTG,248.48,T,-391.42,M,004.233,N,007.840,K,D*09
$GPGGA,093219.20,5703.4090063,N,00952.2830147,E,2,11,0.8,-1.818,M,40.593,M,1.6,0123*66
$GPVTG,248.51,T,-391.39,M,004.248,N,007.867,K,D*04
$GPGGA,093219.25,5703.4089852,N,00952.2829159,E,2,11,0.8,-1.815,M,40.593,M,1.8,0123*65
$GPVTG,248.37,T,-391.53,M,004.214,N,007.804,K,D*04
$GPGGA,093219.30,5703.4089639,N,00952.2828170,E,2,11,0.8,-1.814,M,40.593,M,1.8,0123*69
$GPVTG,248.27,T,-391.63,M,004.192,N,007.764,K,D*02
$GPGGA,093219.35,5703.4089423,N,00952.2827167,E,2,11,0.8,-1.814,M,40.593,M,1.8,0123*6C
$GPVTG,248.25,T,-391.65,M,004.208,N,007.794,K,D*09
$GPGGA,093219.40,5703.4089216,N,00952.2826156,E,2,11,0.8,-1.814,M,40.593,M,1.8,0123*6D
$GPVTG,248.70,T,-391.20,M,004.228,N,007.830,K,D*0B
$GPGGA,093219.45,5703.4089006,N,00952.2825140,E,2,11,0.8,-1.815,M,40.593,M,2.0,0123*65
$GPVTG,249.00,T,-390.90,M,004.253,N,007.876,K,D*09
$GPGGA,093219.50,5703.4088805,N,00952.2824131,E,2,11,0.8,-1.814,M,40.593,M,2.0,0123*6D
$GPVTG,249.49,T,-390.41,M,004.245,N,007.862,K,D*0A
$GPGGA,093219.55,5703.4088597,N,00952.2823117,E,2,11,0.8,-1.817,M,40.593,M,2.0,0123*6E
$GPVTG,249.60,T,-390.30,M,004.257,N,007.883,K,D*0B
$GPGGA,093219.60,5703.4088382,N,00952.2822119,E,2,11,0.8,-1.817,M,40.593,M,2.0,0123*65
$GPVTG,249.14,T,-390.76,M,004.240,N,007.853,K,D*01
$GPGGA,093219.65,5703.4088175,N,00952.2821113,E,2,11,0.8,-1.816,M,40.593,M,2.3,0123*61
$GPVTG,249.23,T,-390.67,M,004.234,N,007.842,K,D*06
$GPGGA,093219.70,5703.4087952,N,00952.2820107,E,2,11,0.8,-1.814,M,40.593,M,2.3,0123*61
$GPVTG,248.59,T,-391.31,M,004.250,N,007.872,K,D*09
$GPGGA,093219.75,5703.4087732,N,00952.2819105,E,2,11,0.8,-1.814,M,40.593,M,2.3,0123*64
$GPVTG,248.28,T,-391.63,M,004.250,N,007.871,K,D*0B
$GPGGA,093219.80,5703.4087506,N,00952.2818091,E,2,11,0.8,-1.815,M,40.593,M,2.3,0123*67
$GPVTG,247.88,T,-392.02,M,004.280,N,007.927,K,D*05
$GPGGA,093219.85,5703.4087279,N,00952.2817091,E,2,11,0.8,-1.816,M,40.593,M,2.5,0123*67
$GPVTG,247.52,T,-392.38,M,004.274,N,007.915,K,D*01
$GPGGA,093219.90,5703.4087062,N,00952.2816096,E,2,11,0.8,-1.815,M,40.593,M,2.5,0123*6E
$GPVTG,247.61,T,-392.29,M,004.248,N,007.868,K,D*05
$GPGGA,093219.95,5703.4086847,N,00952.2815111,E,2,11,0.8,-1.814,M,40.593,M,2.5,0123*69
$GPVTG,247.72,T,-392.18,M,004.209,N,007.795,K,D*0D
$GPGGA,093220.00,5703.4086616,N,00952.2814122,E,2,11,0.8,-1.814,M,40.593,M,2.5,0123*64
$GPVTG,247.21,T,-392.69,M,004.209,N,007.795,K,D*0D
$GPGGA,093220.05,5703.4086391,N,00952.2813128,E,2,11,0.8,-1.813,M,40.593,M,2.7,0123*63
$GPVTG,247.02,T,-392.88,M,004.212,N,007.800,K,D*0A
$GPGGA,093220.10,5703.4086174,N,00952.2812130,E,2,11,0.8,-1.812,M,40.593,M,2.7,0123*67
$GPVTG,247.44,T,-392.46,M,004.215,N,007.805,K,D*08
$GPGGA,093220.15,5703.4085946,N,00952.2811132,E,2,11,0.8,-1.811,M,40.593,M,2.7,0123*6A
$GPVTG,247.32,T,-392.58,M,004.232,N,007.838,K,D*0D
$GPGGA,093220.20,5703.4085716,N,00952.2810127,E,2,11,0.8,-1.811,M,40.593,M,2.7,0123*62
$GPVTG,247.23,T,-392.67,M,004.262,N,007.894,K,D*02
$GPGGA,093220.25,5703.4085489,N,00952.2809130,E,2,11,0.8,-1.814,M,40.593,M,2.9,0123*67
$GPVTG,247.28,T,-392.62,M,004.258,N,007.887,K,D*07
$GPGGA,093220.30,5703.4085267,N,00952.2808134,E,2,11,0.8,-1.813,M,40.593,M,2.9,0123*67
$GPVTG,247.43,T,-392.47,M,004.251,N,007.872,K,D*0E
$GPGGA,093220.35,5703.4085046,N,00952.2807146,E,2,11,0.8,-1.812,M,40.593,M,2.9,0123*68
$GPVTG,247.53,T,-392.37,M,004.226,N,007.827,K,D*08
$GPGGA,093220.40,5703.4084825,N,00952.2806145,E,2,11,0.8,-1.811,M,40.593,M,2.9,0123*67
$GPVTG,247.76,T,-392.14,M,004.235,N,007.843,K,D*0E
$GPGGA,093220.45,5703.4084602,N,00952.2805146,E,2,11,0.8,-1.809,M,40.593,M,3.1,0123*69
$GPVTG,247.80,T,-392.10,M,004.239,N,007.850,K,D*0D
$GPGGA,093220.50,5703.4084381,N,00952.2804150,E,2,11,0.8,-1.808,M,40.593,M,3.1,0123*64
$GPVTG,247.88,T,-392.02,M,004.234,N,007.841,K,D*0B
$GPGGA,093220.55,5703.4084159,N,00952.2803137,E,2,11,0.8,-1.810,M,40.593,M,3.1,0123*69
$GPVTG,248.04,T,-391.86,M,004.263,N,007.895,K,D*04
$GPGGA,093220.60,5703.4083944,N,00952.2802140,E,2,11,0.8,-1.809,M,40.593,M,3.1,0123*65
$GPVTG,248.27,T,-391.63,M,004.244,N,007.860,K,D*01
$GPGGA,093220.65,5703.4083721,N,00952.2801140,E,2,11,0.8,-1.807,M,40.593,M,3.3,0123*62
$GPVTG,248.10,T,-391.80,M,004.247,N,007.865,K,D*0E
$GPGGA,093220.70,5703.4083502,N,00952.2800149,E,2,11,0.8,-1.804,M,40.593,M,3.3,0123*6E
$GPVTG,248.06,T,-391.84,M,004.226,N,007.826,K,D*0D
$GPGGA,093220.75,5703.4083270,N,00952.2799157,E,2,11,0.8,-1.803,M,40.593,M,3.3,0123*6E
$GPVTG,247.46,T,-392.44,M,004.230,N,007.834,K,D*0D
$GPGGA,093220.80,5703.4083047,N,00952.2798161,E,2,11,0.8,-1.801,M,40.593,M,3.3,0123*64
$GPVTG,247.46,T,-392.44,M,004.230,N,007.834,K,D*0D
$GPGGA,093220.85,5703.4082824,N,00952.2797170,E,2,11,0.8,-1.803,M,40.593,M,3.5,0123*66
$GPVTG,247.49,T,-392.41,M,004.219,N,007.814,K,D*0E
$GPGGA,093220.90,5703.4082604,N,00952.2796176,E,2,11,0.8,-1.805,M,40.593,M,3.5,0123*6F
$GPVTG,247.63,T,-392.27,M,004.216,N,007.809,K,D*05
$GPGGA,093220.95,5703.4082382,N,00952.2795179,E,2,11,0.8,-1.802,M,40.593,M,3.5,0123*6A
$GPVTG,247.69,T,-392.21,M,004.223,N,007.821,K,D*05
$GPGGA,093221.00,5703.4082159,N,00952.2794190,E,2,11,0.8,-1.799,M,40.593,M,3.5,0123*68
$GPVTG,247.59,T,-392.31,M,004.214,N,007.804,K,D*04
$GPGGA,093221.05,5703.4081938,N,00952.2793187,E,2,11,0.8,-1.795,M,40.593,M,2.1,0123*69
$GPVTG,247.50,T,-392.40,M,004.227,N,007.829,K,D*04
$GPGGA,093221.10,5703.4081713,N,00952.2792195,E,2,11,0.8,-1.794,M,40.593,M,2.1,0123*69
$GPVTG,247.43,T,-392.47,M,004.225,N,007.825,K,D*0F
$GPGGA,093221.15,5703.4081488,N,00952.2791214,E,2,11,0.8,-1.792,M,40.593,M,2.1,0123*62
$GPVTG,247.23,T,-392.67,M,004.206,N,007.789,K,D*03
$GPGGA,093221.20,5703.4081275,N,00952.2790221,E,2,11,0.8,-1.790,M,40.593,M,2.1,0123*65
$GPVTG,247.82,T,-392.08,M,004.198,N,007.775,K,D*06
$GPGGA,093221.25,5703.4081054,N,00952.2789234,E,2,11,0.8,-1.791,M,40.593,M,2.3,0123*6E
$GPVTG,247.78,T,-392.12,M,004.193,N,007.765,K,D*02
$GPGGA,093221.30,5703.4080827,N,00952.2788243,E,2,11,0.8,-1.792,M,40.593,M,2.3,0123*65
$GPVTG,247.57,T,-392.33,M,004.204,N,007.785,K,D*0F
$GPGGA,093221.35,5703.4080598,N,00952.2787249,E,2,11,0.8,-1.793,M,40.593,M,2.3,0123*6D
$GPVTG,247.31,T,-392.59,M,004.223,N,007.822,K,D*04
$GPGGA,093221.40,5703.4080377,N,00952.2786251,E,2,11,0.8,-1.790,M,40.593,M,2.3,0123*63
$GPVTG,247.57,T,-392.33,M,004.233,N,007.839,K,D*03
$GPGGA,093221.45,5703.4080153,N,00952.2785252,E,2,11,0.8,-1.793,M,40.593,M,2.6,0123*64
$GPVTG,247.64,T,-392.26,M,004.242,N,007.856,K,D*08
$GPGGA,093221.50,5703.4079931,N,00952.2784262,E,2,11,0.8,-1.796,M,40.593,M,2.6,0123*6D
$GPVTG,247.63,T,-392.27,M,004.232,N,007.838,K,D*01
$GPGGA,093221.55,5703.4079705,N,00952.2783260,E,2,11,0.8,-1.797,M,40.593,M,2.6,0123*65
$GPVTG,247.62,T,-392.28,M,004.249,N,007.869,K,D*07
$GPGGA,093221.60,5703.4079484,N,00952.2782267,E,2,11,0.8,-1.796,M,40.593,M,2.6,0123*6E
$GPVTG,247.66,T,-392.24,M,004.238,N,007.849,K,D*0B
$GPGGA,093221.65,5703.4079265,N,00952.2781274,E,2,11,0.8,-1.794,M,40.593,M,2.9,0123*6E
$GPVTG,247.82,T,-392.08,M,004.227,N,007.829,K,D*07
$GPGGA,093221.70,5703.4079047,N,00952.2780267,E,2,11,0.8,-1.794,M,40.593,M,2.9,0123*6B
$GPVTG,248.11,T,-391.79,M,004.243,N,007.859,K,D*02
$GPGGA,093221.75,5703.4078828,N,00952.2779275,E,2,11,0.8,-1.796,M,40.593,M,2.9,0123*69
$GPVTG,248.09,T,-391.81,M,004.228,N,007.830,K,D*0E
$GPGGA,093221.80,5703.4078609,N,00952.2778299,E,2,11,0.8,-1.795,M,40.593,M,2.9,0123*6E
$GPVTG,247.91,T,-391.99,M,004.186,N,007.752,K,D*05
$GPGGA,093221.85,5703.4078386,N,00952.2777321,E,2,11,0.8,-1.795,M,40.593,M,3.1,0123*6D
$GPVTG,247.62,T,-392.28,M,004.167,N,007.717,K,D*0E
$GPGGA,093221.90,5703.4078163,N,00952.2776335,E,2,11,0.8,-1.796,M,40.593,M,3.1,0123*67
$GPVTG,247.48,T,-392.42,M,004.173,N,007.729,K,D*02
$GPGGA,093221.95,5703.4077940,N,00952.2775355,E,2,11,0.8,-1.796,M,40.593,M,3.1,0123*61
$GPVTG,247.38,T,-392.52,M,004.167,N,007.717,K,D*0C
$GPGGA,093222.00,5703.4077718,N,00952.2774373,E,2,11,0.8,-1.796,M,40.593,M,3.1,0123*68
$GPVTG,247.35,T,-392.55,M,004.168,N,007.719,K,D*07
$GPGGA,093222.05,5703.4077503,N,00952.2773382,E,2,11,0.8,-1.794,M,40.593,M,1.7,0123*6A
$GPVTG,247.56,T,-392.34,M,004.166,N,007.716,K,D*04
$GPGGA,093222.10,5703.4077283,N,00952.2772401,E,2,11,0.8,-1.795,M,40.593,M,1.7,0123*6D
$GPVTG,247.58,T,-392.32,M,004.166,N,007.716,K,D*0C
$GPGGA,093222.15,5703.4077060,N,00952.2771415,E,2,11,0.8,-1.795,M,40.593,M,1.7,0123*61
$GPVTG,247.53,T,-392.37,M,004.179,N,007.739,K,D*01
$GPGGA,093222.20,5703.4076840,N,00952.2770432,E,2,11,0.8,-1.795,M,40.593,M,1.7,0123*68
$GPVTG,247.59,T,-392.31,M,004.178,N,007.739,K,D*0C
$GPGGA,093222.25,5703.4076625,N,00952.2769454,E,2,11,0.8,-1.795,M,40.593,M,1.9,0123*66
$GPVTG,247.78,T,-392.12,M,004.165,N,007.713,K,D*0A
$GPGGA,093222.30,5703.4076400,N,00952.2768472,E,2,11,0.8,-1.795,M,40.593,M,1.9,0123*62
$GPVTG,247.56,T,-392.34,M,004.174,N,007.731,K,D*02
$GPGGA,093222.35,5703.4076185,N,00952.2767490,E,2,11,0.8,-1.795,M,40.593,M,1.9,0123*6C
$GPVTG,247.79,T,-392.11,M,004.168,N,007.719,K,D*0F
$GPGGA,093222.40,5703.4075973,N,00952.2766514,E,2,11,0.8,-1.796,M,40.593,M,1.9,0123*63
$GPVTG,248.04,T,-391.86,M,004.149,N,007.684,K,D*01
$GPGGA,093222.45,5703.4075748,N,00952.2765527,E,2,11,0.8,-1.803,M,40.593,M,2.2,0123*68
$GPVTG,247.80,T,-392.10,M,004.168,N,007.720,K,D*02
$GPGGA,093222.50,5703.4075524,N,00952.2764557,E,2,11,0.8,-1.805,M,40.593,M,2.2,0123*64
$GPVTG,247.46,T,-392.44,M,004.154,N,007.694,K,D*08
$GPGGA,093222.55,5703.4075313,N,00952.2763588,E,2,11,0.8,-1.805,M,40.593,M,2.2,0123*66
$GPVTG,247.75,T,-392.15,M,004.127,N,007.643,K,D*02
$GPGGA,093222.60,5703.4075099,N,00952.2762612,E,2,11,0.8,-1.807,M,40.593,M,2.2,0123*62
$GPVTG,247.91,T,-391.99,M,004.125,N,007.639,K,D*00
$GPGGA,093222.65,5703.4074889,N,00952.2761656,E,2,11,0.8,-1.803,M,40.593,M,2.4,0123*6E
$GPVTG,247.99,T,-391.91,M,004.085,N,007.565,K,D*01
$GPGGA,093222.70,5703.4074669,N,00952.2760690,E,2,11,0.8,-1.803,M,40.593,M,2.4,0123*61
$GPVTG,247.69,T,-392.21,M,004.088,N,007.570,K,D*0F
$GPGGA,093222.75,5703.4074459,N,00952.2759717,E,2,11,0.8,-1.806,M,40.593,M,2.4,0123*64
$GPVTG,248.03,T,-391.87,M,004.094,N,007.582,K,D*03
$GPGGA,093222.80,5703.4074250,N,00952.2758752,E,2,11,0.8,-1.806,M,40.593,M,2.4,0123*61
$GPVTG,248.22,T,-391.68,M,004.084,N,007.564,K,D*08
$GPGGA,093222.85,5703.4074051,N,00952.2757785,E,2,11,0.8,-1.805,M,40.593,M,2.7,0123*62
$GPVTG,248.78,T,-391.12,M,004.071,N,007.540,K,D*06
$GPGGA,093222.90,5703.4073837,N,00952.2756811,E,2,11,0.8,-1.808,M,40.593,M,2.7,0123*67
$GPVTG,248.58,T,-391.32,M,004.094,N,007.583,K,D*02
$GPGGA,093222.95,5703.4073632,N,00952.2755838,E,2,11,0.8,-1.808,M,40.593,M,2.7,0123*61
$GPVTG,248.83,T,-391.07,M,004.098,N,007.589,K,D*04
$GPGGA,093223.00,5703.4073422,N,00952.2754865,E,2,11,0.8,-1.809,M,40.593,M,2.7,0123*67
$GPVTG,248.70,T,-391.20,M,004.106,N,007.605,K,D*0C
$GPGGA,093223.05,5703.4073220,N,00952.2753882,E,2,11,0.8,-1.808,M,40.593,M,1.6,0123*6B
$GPVTG,248.83,T,-391.07,M,004.112,N,007.615,K,D*01
$GPGGA,093223.10,5703.4073014,N,00952.2752911,E,2,11,0.8,-1.810,M,40.593,M,1.6,0123*69
$GPVTG,248.86,T,-391.04,M,004.106,N,007.604,K,D*02
$GPGGA,093223.15,5703.4072807,N,00952.2751945,E,2,11,0.8,-1.812,M,40.593,M,1.6,0123*67
$GPVTG,248.77,T,-391.13,M,004.093,N,007.580,K,D*08
$GPGGA,093223.20,5703.4072600,N,00952.2750964,E,2,11,0.8,-1.814,M,40.593,M,1.6,0123*6C
$GPVTG,248.81,T,-391.09,M,004.113,N,007.617,K,D*0E
$GPGGA,093223.25,5703.4072390,N,00952.2749968,E,2,11,0.8,-1.818,M,40.593,M,1.8,0123*63
$GPVTG,248.92,T,-390.98,M,004.158,N,007.701,K,D*0C
$GPGGA,093223.30,5703.4072185,N,00952.2748963,E,2,11,0.8,-1.823,M,40.593,M,1.8,0123*63
$GPVTG,249.22,T,-390.68,M,004.202,N,007.782,K,D*0E
$GPGGA,093223.35,5703.4071979,N,00952.2747964,E,2,11,0.8,-1.825,M,40.593,M,1.8,0123*60
$GPVTG,249.34,T,-390.56,M,004.217,N,007.810,K,D*04
$GPGGA,093223.40,5703.4071773,N,00952.2746969,E,2,11,0.8,-1.827,M,40.593,M,1.8,0123*68
$GPVTG,249.33,T,-390.57,M,004.214,N,007.805,K,D*05
$GPGGA,093223.45,5703.4071553,N,00952.2745967,E,2,11,0.8,-1.834,M,40.593,M,2.0,0123*69
$GPVTG,248.86,T,-391.04,M,004.237,N,007.846,K,D*0B
$GPGGA,093223.50,5703.4071335,N,00952.2744962,E,2,11,0.8,-1.841,M,40.593,M,2.0,0123*6D
$GPVTG,248.53,T,-391.37,M,004.257,N,007.885,K,D*0A
$GPGGA,093223.55,5703.4071123,N,00952.2743950,E,2,11,0.8,-1.845,M,40.593,M,2.0,0123*6F
$GPVTG,248.67,T,-391.23,M,004.272,N,007.912,K,D*00
$GPGGA,093223.60,5703.4070918,N,00952.2742949,E,2,11,0.8,-1.849,M,40.593,M,2.0,0123*6D
$GPVTG,248.95,T,-390.95,M,004.251,N,007.874,K,D*01
$GPGGA,093223.65,5703.4070699,N,00952.2741941,E,2,11,0.8,-1.851,M,40.593,M,2.3,0123*6F
$GPVTG,248.63,T,-391.27,M,004.264,N,007.897,K,D*0B
$GPGGA,093223.70,5703.4070493,N,00952.2740930,E,2,11,0.8,-1.854,M,40.593,M,2.3,0123*61
$GPVTG,248.98,T,-390.92,M,004.263,N,007.895,K,D*05
$GPGGA,093223.75,5703.4070281,N,00952.2739924,E,2,11,0.8,-1.855,M,40.593,M,2.3,0123*6B
$GPVTG,248.95,T,-390.95,M,004.256,N,007.881,K,D*0C
$GPGGA,093223.80,5703.4070067,N,00952.2738909,E,2,11,0.8,-1.857,M,40.593,M,2.3,0123*67
$GPVTG,248.92,T,-390.98,M,004.269,N,007.905,K,D*07
$GPGGA,093223.85,5703.4069850,N,00952.2737893,E,2,11,0.8,-1.859,M,40.593,M,2.5,0123*63
$GPVTG,248.78,T,-391.12,M,004.283,N,007.932,K,D*00
$GPGGA,093223.90,5703.4069640,N,00952.2736864,E,2,11,0.8,-1.859,M,40.593,M,2.5,0123*61
$GPVTG,249.13,T,-390.77,M,004.309,N,007.980,K,D*04
$GPGGA,093223.95,5703.4069428,N,00952.2735851,E,2,11,0.8,-1.859,M,40.593,M,2.5,0123*6D
$GPVTG,249.06,T,-390.84,M,004.297,N,007.959,K,D*0E
$GPGGA,093224.00,5703.4069216,N,00952.2734838,E,2,11,0.8,-1.858,M,40.593,M,2.5,0123*62
$GPVTG,249.04,T,-390.86,M,004.285,N,007.937,K,D*05
$GPGGA,093224.05,5703.4069011,N,00952.2733811,E,2,11,0.8,-1.855,M,40.593,M,2.7,0123*61
$GPVTG,249.24,T,-390.66,M,004.284,N,007.935,K,D*0A
$GPGGA,093224.10,5703.4068799,N,00952.2732800,E,2,11,0.8,-1.853,M,40.593,M,2.7,0123*64
$GPVTG,249.13,T,-390.77,M,004.272,N,007.912,K,D*02
$GPGGA,093224.15,5703.4068588,N,00952.2731781,E,2,11,0.8,-1.851,M,40.593,M,2.7,0123*64
$GPVTG,249.16,T,-390.74,M,004.279,N,007.924,K,D*0A
$GPGGA,093224.20,5703.4068372,N,00952.2730745,E,2,11,0.8,-1.848,M,40.593,M,2.7,0123*60
$GPVTG,249.16,T,-390.74,M,004.321,N,008.002,K,D*04
$GPGGA,093224.25,5703.4068160,N,00952.2729707,E,2,11,0.8,-1.845,M,40.593,M,2.9,0123*69
$GPVTG,249.30,T,-390.60,M,004.350,N,008.055,K,D*01
$GPGGA,093224.30,5703.4067946,N,00952.2728669,E,2,11,0.8,-1.843,M,40.593,M,2.9,0123*60
$GPVTG,249.35,T,-390.55,M,004.369,N,008.092,K,D*03
$GPGGA,093224.35,5703.4067731,N,00952.2727622,E,2,11,0.8,-1.841,M,40.593,M,2.9,0123*69
$GPVTG,249.37,T,-390.53,M,004.396,N,008.141,K,D*08
$GPGGA,093224.40,5703.4067525,N,00952.2726584,E,2,11,0.8,-1.840,M,40.593,M,2.9,0123*63
$GPVTG,249.71,T,-390.19,M,004.382,N,008.116,K,D*03
$GPGGA,093224.45,5703.4067314,N,00952.2725538,E,2,11,0.8,-1.841,M,40.593,M,3.1,0123*6E
$GPVTG,249.80,T,-390.10,M,004.392,N,008.134,K,D*05
$GPGGA,093224.50,5703.4067109,N,00952.2724488,E,2,11,0.8,-1.838,M,40.593,M,3.1,0123*61
$GPVTG,250.09,T,-389.81,M,004.397,N,008.143,K,D*09
$GPGGA,093224.55,5703.4066904,N,00952.2723448,E,2,11,0.8,-1.834,M,40.593,M,3.1,0123*67
$GPVTG,250.20,T,-389.70,M,004.380,N,008.111,K,D*0D
$GPGGA,093224.60,5703.4066691,N,00952.2722406,E,2,11,0.8,-1.833,M,40.593,M,3.1,0123*6E
$GPVTG,249.95,T,-389.95,M,004.377,N,008.106,K,D*0E
$GPGGA,093224.65,5703.4066479,N,00952.2721362,E,2,11,0.8,-1.829,M,40.593,M,3.3,0123*60
$GPVTG,249.79,T,-390.11,M,004.381,N,008.113,K,D*05
$GPGGA,093224.70,5703.4066266,N,00952.2720312,E,2,11,0.8,-1.826,M,40.593,M,3.3,0123*65
$GPVTG,249.69,T,-390.21,M,004.394,N,008.137,K,D*05
$GPGGA,093224.75,5703.4066059,N,00952.2719263,E,2,11,0.8,-1.825,M,40.593,M,3.3,0123*60
$GPVTG,249.87,T,-390.03,M,004.395,N,008.140,K,D*04
$GPGGA,093224.80,5703.4065840,N,00952.2718217,E,2,11,0.8,-1.828,M,40.593,M,3.3,0123*66
$GPVTG,249.47,T,-390.43,M,004.401,N,008.151,K,D*06
$GPGGA,093224.85,5703.4065624,N,00952.2717159,E,2,11,0.8,-1.827,M,40.593,M,3.5,0123*60
$GPVTG,249.38,T,-390.52,M,004.427,N,008.198,K,D*0F
$GPGGA,093224.90,5703.4065406,N,00952.2716108,E,2,11,0.8,-1.826,M,40.593,M,3.5,0123*62
$GPVTG,249.23,T,-390.67,M,004.431,N,008.206,K,D*00
$GPGGA,093224.95,5703.4065189,N,00952.2715058,E,2,11,0.8,-1.825,M,40.593,M,3.5,0123*61
$GPVTG,249.16,T,-390.74,M,004.429,N,008.203,K,D*08
$GPGGA,093225.00,5703.4064978,N,00952.2714005,E,2,11,0.8,-1.824,M,40.593,M,3.5,0123*63
$GPVTG,249.39,T,-390.51,M,004.425,N,008.195,K,D*02
$GPGGA,093225.05,5703.4064766,N,00952.2712942,E,2,11,0.8,-1.827,M,40.593,M,2.1,0123*6D
$GPVTG,249.41,T,-390.49,M,004.433,N,008.210,K,D*0D
$GPGGA,093225.10,5703.4064547,N,00952.2711886,E,2,11,0.8,-1.826,M,40.593,M,2.1,0123*63
$GPVTG,249.29,T,-390.61,M,004.442,N,008.226,K,D*0A
$GPGGA,093225.15,5703.4064337,N,00952.2710832,E,2,11,0.8,-1.827,M,40.593,M,2.1,0123*68
$GPVTG,249.56,T,-390.34,M,004.431,N,008.206,K,D*04
$GPGGA,093225.20,5703.4064127,N,00952.2709775,E,2,11,0.8,-1.827,M,40.593,M,2.1,0123*69
$GPVTG,249.79,T,-390.11,M,004.428,N,008.201,K,D*01
$GPGGA,093225.25,5703.4063916,N,00952.2708713,E,2,11,0.8,-1.828,M,40.593,M,2.3,0123*6D
$GPVTG,249.91,T,-389.99,M,004.439,N,008.221,K,D*0D
$GPGGA,093225.30,5703.4063711,N,00952.2707653,E,2,11,0.8,-1.830,M,40.593,M,2.3,0123*63
$GPVTG,250.26,T,-389.64,M,004.432,N,008.209,K,D*0A
$GPGGA,093225.35,5703.4063509,N,00952.2706594,E,2,11,0.8,-1.828,M,40.593,M,2.3,0123*6D
$GPVTG,250.58,T,-389.32,M,004.423,N,008.192,K,D*01
$GPGGA,093225.40,5703.4063314,N,00952.2705530,E,2,11,0.8,-1.827,M,40.593,M,2.3,0123*67
$GPVTG,251.09,T,-388.81,M,004.418,N,008.182,K,D*04
$GPGGA,093225.45,5703.4063116,N,00952.2704471,E,2,11,0.8,-1.826,M,40.593,M,2.6,0123*63
$GPVTG,251.27,T,-388.63,M,004.411,N,008.168,K,D*09
$GPGGA,093225.50,5703.4062917,N,00952.2703410,E,2,11,0.8,-1.828,M,40.593,M,2.6,0123*61
$GPVTG,251.35,T,-388.55,M,004.407,N,008.162,K,D*02
$GPGGA,093225.55,5703.4062734,N,00952.2702343,E,2,11,0.8,-1.827,M,40.593,M,2.6,0123*64
$GPVTG,252.06,T,-387.84,M,004.400,N,008.149,K,D*0C
$GPGGA,093225.60,5703.4062538,N,00952.2701279,E,2,11,0.8,-1.825,M,40.593,M,2.6,0123*65
$GPVTG,251.94,T,-387.96,M,004.406,N,008.159,K,D*00
$GPGGA,093225.65,5703.4062346,N,00952.2700215,E,2,11,0.8,-1.828,M,40.593,M,2.9,0123*66
$GPVTG,252.02,T,-387.88,M,004.403,N,008.154,K,D*0B
$GPGGA,093225.70,5703.4062152,N,00952.2699151,E,2,11,0.8,-1.830,M,40.593,M,2.9,0123*6E
$GPVTG,251.93,T,-387.97,M,004.404,N,008.157,K,D*0A
$GPGGA,093225.75,5703.4061964,N,00952.2698085,E,2,11,0.8,-1.831,M,40.593,M,2.9,0123*6D
$GPVTG,252.10,T,-387.80,M,004.403,N,008.155,K,D*01
$GPGGA,093225.80,5703.4061776,N,00952.2697014,E,2,11,0.8,-1.833,M,40.593,M,2.9,0123*6F
$GPVTG,252.21,T,-387.69,M,004.413,N,008.174,K,D*06
$GPGGA,093225.85,5703.4061592,N,00952.2695947,E,2,11,0.8,-1.832,M,40.593,M,3.1,0123*67
$GPVTG,252.39,T,-387.51,M,004.410,N,008.167,K,D*05
$GPGGA,093225.90,5703.4061409,N,00952.2694883,E,2,11,0.8,-1.832,M,40.593,M,3.1,0123*68
$GPVTG,252.57,T,-387.33,M,004.398,N,008.145,K,D*0E
$GPGGA,093225.95,5703.4061215,N,00952.2693814,E,2,11,0.8,-1.832,M,40.593,M,3.1,0123*6F
$GPVTG,252.19,T,-387.71,M,004.412,N,008.171,K,D*00
$GPGGA,093226.00,5703.4061025,N,00952.2692757,E,2,11,0.8,-1.831,M,40.593,M,3.1,0123*6B
$GPVTG,252.03,T,-387.87,M,004.393,N,008.135,K,D*0C
