$GPGGA,090101.20,5703.5030217,N,00952.3642067,E,2,11,1.0,-1.600,M,40.593,M,2.4,0123*63
$GPVTG,069.52,T,-570.38,M,005.925,N,010.972,K,D*0C
$GPGGA,090101.25,5703.5030535,N,00952.3643456,E,2,11,1.0,-1.603,M,40.593,M,2.7,0123*66
$GPVTG,068.40,T,-571.50,M,005.923,N,010.970,K,D*05
$GPGGA,090101.30,5703.5030849,N,00952.3644864,E,2,11,1.0,-1.603,M,40.593,M,2.7,0123*6E
$GPVTG,067.95,T,-571.95,M,005.946,N,011.012,K,D*04
$GPGGA,090101.35,5703.5031147,N,00952.3646278,E,2,11,1.0,-1.605,M,40.593,M,2.7,0123*6E
$GPVTG,068.13,T,-571.77,M,005.958,N,011.035,K,D*03
$GPGGA,090101.40,5703.5031436,N,00952.3647711,E,2,11,1.0,-1.605,M,40.593,M,2.7,0123*64
$GPVTG,068.69,T,-571.21,M,005.990,N,011.093,K,D*05
$GPGGA,090101.45,5703.5031721,N,00952.3649146,E,2,11,1.0,-1.604,M,40.593,M,2.9,0123*61
$GPVTG,069.26,T,-570.64,M,006.008,N,011.126,K,D*0B
$GPGGA,090101.50,5703.5032002,N,00952.3650540,E,2,11,1.0,-1.604,M,40.593,M,2.9,0123*6A
$GPVTG,069.49,T,-570.41,M,005.940,N,011.001,K,D*07
$GPGGA,090101.55,5703.5032278,N,00952.3651897,E,2,11,1.0,-1.603,M,40.593,M,2.9,0123*61
$GPVTG,069.53,T,-570.37,M,005.815,N,010.770,K,D*0C
$GPGGA,090101.60,5703.5032564,N,00952.3653268,E,2,11,1.0,-1.600,M,40.593,M,2.9,0123*66
$GPVTG,069.41,T,-570.49,M,005.767,N,010.681,K,D*03
$GPGGA,090101.65,5703.5032850,N,00952.3654657,E,2,11,1.0,-1.601,M,40.593,M,3.2,0123*6D
$GPVTG,069.35,T,-570.55,M,005.783,N,010.710,K,D*0E
$GPGGA,090101.70,5703.5033155,N,00952.3656047,E,2,11,1.0,-1.602,M,40.593,M,3.2,0123*62
$GPVTG,068.83,T,-571.07,M,005.812,N,010.764,K,D*00
$GPGGA,090101.75,5703.5033464,N,00952.3657447,E,2,11,1.0,-1.606,M,40.593,M,3.2,0123*61
$GPVTG,068.42,T,-571.48,M,005.862,N,010.856,K,D*0F
$GPGGA,090101.80,5703.5033772,N,00952.3658852,E,2,11,1.0,-1.612,M,40.593,M,3.2,0123*6D
$GPVTG,068.19,T,-571.71,M,005.907,N,010.940,K,D*0F
$GPGGA,090101.85,5703.5034073,N,00952.3660289,E,2,11,1.0,-1.609,M,40.593,M,3.4,0123*62
$GPVTG,068.67,T,-571.23,M,005.964,N,011.045,K,D*09
$GPGGA,090101.90,5703.5034355,N,00952.3661707,E,2,11,1.0,-1.611,M,40.593,M,3.4,0123*6A
$GPVTG,069.22,T,-570.68,M,005.970,N,011.056,K,D*00
$GPGGA,090101.95,5703.5034640,N,00952.3663110,E,2,11,1.0,-1.610,M,40.593,M,3.4,0123*6D
$GPVTG,069.42,T,-570.48,M,005.945,N,011.009,K,D*08
$GPGGA,090102.00,5703.5034931,N,00952.3664478,E,2,11,1.0,-1.605,M,40.593,M,3.4,0123*63
$GPVTG,069.13,T,-570.77,M,005.865,N,010.863,K,D*06
$GPGGA,090102.05,5703.5035218,N,00952.3665814,E,2,11,1.0,-1.606,M,40.593,M,1.6,0123*63
$GPVTG,068.79,T,-571.11,M,005.780,N,010.705,K,D*01
$GPGGA,090102.10,5703.5035515,N,00952.3667185,E,2,11,1.0,-1.605,M,40.593,M,1.6,0123*6D
$GPVTG,068.55,T,-571.35,M,005.765,N,010.677,K,D*06
$GPGGA,090102.15,5703.5035804,N,00952.3668577,E,2,11,1.0,-1.606,M,40.593,M,1.6,0123*60
$GPVTG,068.73,T,-571.17,M,005.792,N,010.727,K,D*0E
$GPGGA,090102.20,5703.5036105,N,00952.3669972,E,2,11,1.0,-1.611,M,40.593,M,1.6,0123*63
$GPVTG,068.61,T,-571.29,M,005.834,N,010.804,K,D*0D
$GPGGA,090102.25,5703.5036410,N,00952.3671412,E,2,11,1.0,-1.612,M,40.593,M,1.8,0123*68
$GPVTG,068.86,T,-571.04,M,005.929,N,010.980,K,D*0B
$GPGGA,090102.30,5703.5036693,N,00952.3672861,E,2,11,1.0,-1.620,M,40.593,M,1.8,0123*6F
$GPVTG,069.54,T,-570.36,M,006.010,N,011.131,K,D*06
$GPGGA,090102.35,5703.5036975,N,00952.3674268,E,2,11,1.0,-1.625,M,40.593,M,1.8,0123*6D
$GPVTG,069.77,T,-570.13,M,005.982,N,011.079,K,D*0C
$GPGGA,090102.40,5703.5037259,N,00952.3675663,E,2,11,1.0,-1.624,M,40.593,M,1.8,0123*64
$GPVTG,069.74,T,-570.16,M,005.936,N,010.993,K,D*09
$GPGGA,090102.45,5703.5037537,N,00952.3677042,E,2,11,1.0,-1.626,M,40.593,M,2.1,0123*61
$GPVTG,069.69,T,-570.21,M,005.876,N,010.882,K,D*05
$GPGGA,090102.50,5703.5037812,N,00952.3678411,E,2,11,1.0,-1.619,M,40.593,M,2.1,0123*6E
$GPVTG,069.75,T,-570.15,M,005.799,N,010.739,K,D*0E
$GPGGA,090102.55,5703.5038095,N,00952.3679765,E,2,11,1.0,-1.612,M,40.593,M,2.1,0123*69
$GPVTG,069.48,T,-570.42,M,005.728,N,010.609,K,D*0A
$GPGGA,090102.60,5703.5038403,N,00952.3681121,E,2,11,1.0,-1.607,M,40.593,M,2.1,0123*61
$GPVTG,068.55,T,-571.35,M,005.717,N,010.587,K,D*0F
$GPGGA,090102.65,5703.5038713,N,00952.3682505,E,2,11,1.0,-1.604,M,40.593,M,2.3,0123*66
$GPVTG,068.10,T,-571.80,M,005.764,N,010.675,K,D*0A
$GPGGA,090102.70,5703.5039021,N,00952.3683915,E,2,11,1.0,-1.607,M,40.593,M,2.3,0123*6A
$GPVTG,067.98,T,-571.92,M,005.857,N,010.847,K,D*06
$GPGGA,090102.75,5703.5039328,N,00952.3685361,E,2,11,1.0,-1.609,M,40.593,M,2.3,0123*64
$GPVTG,068.21,T,-571.69,M,005.989,N,011.091,K,D*0F
$GPGGA,090102.80,5703.5039621,N,00952.3686815,E,2,11,1.0,-1.615,M,40.593,M,2.3,0123*64
$GPVTG,068.81,T,-571.09,M,006.077,N,011.254,K,D*03
$GPGGA,090102.85,5703.5039901,N,00952.3688251,E,2,11,1.0,-1.623,M,40.593,M,2.5,0123*6B
$GPVTG,069.42,T,-570.48,M,006.087,N,011.272,K,D*02
$GPGGA,090102.90,5703.5040176,N,00952.3689669,E,2,11,1.0,-1.626,M,40.593,M,2.5,0123*62
$GPVTG,069.94,T,-569.96,M,006.040,N,011.186,K,D*01
$GPGGA,090102.95,5703.5040467,N,00952.3691071,E,2,11,1.0,-1.622,M,40.593,M,2.5,0123*60
$GPVTG,069.75,T,-570.15,M,005.985,N,011.084,K,D*0D
$GPGGA,090103.00,5703.5040752,N,00952.3692460,E,2,11,1.0,-1.619,M,40.593,M,2.5,0123*67
$GPVTG,069.66,T,-570.24,M,005.911,N,010.948,K,D*08
$GPGGA,090103.05,5703.5041045,N,00952.3693831,E,2,11,1.0,-1.614,M,40.593,M,1.5,0123*65
$GPVTG,069.31,T,-570.59,M,005.855,N,010.844,K,D*0C
$GPGGA,090103.10,5703.5041327,N,00952.3695222,E,2,11,1.0,-1.611,M,40.593,M,1.5,0123*6D
$GPVTG,069.40,T,-570.50,M,005.827,N,010.791,K,D*01
$GPGGA,090103.15,5703.5041624,N,00952.3696611,E,2,11,1.0,-1.606,M,40.593,M,1.5,0123*6F
$GPVTG,069.07,T,-570.83,M,005.822,N,010.783,K,D*0A
$GPGGA,090103.20,5703.5041906,N,00952.3697993,E,2,11,1.0,-1.603,M,40.593,M,1.5,0123*67
$GPVTG,069.20,T,-570.70,M,005.798,N,010.737,K,D*02
$GPGGA,090103.25,5703.5042191,N,00952.3699416,E,2,11,1.0,-1.596,M,40.593,M,1.8,0123*6B
$GPVTG,069.56,T,-570.34,M,005.857,N,010.848,K,D*08
$GPGGA,090103.30,5703.5042473,N,00952.3700846,E,2,11,1.0,-1.594,M,40.593,M,1.8,0123*6C
$GPVTG,069.87,T,-570.03,M,005.917,N,010.959,K,D*04
$GPGGA,090103.35,5703.5042776,N,00952.3702276,E,2,11,1.0,-1.593,M,40.593,M,1.8,0123*63
$GPVTG,069.52,T,-570.38,M,005.979,N,011.074,K,D*0B
$GPGGA,090103.40,5703.5043087,N,00952.3703694,E,2,11,1.0,-1.595,M,40.593,M,1.8,0123*66
$GPVTG,068.91,T,-570.99,M,006.008,N,011.127,K,D*05
$GPGGA,090103.45,5703.5043403,N,00952.3705101,E,2,11,1.0,-1.606,M,40.593,M,2.0,0123*64
$GPVTG,067.99,T,-571.91,M,006.042,N,011.190,K,D*09
$GPGGA,090103.50,5703.5043703,N,00952.3706529,E,2,11,1.0,-1.608,M,40.593,M,2.0,0123*60
$GPVTG,068.16,T,-571.74,M,006.053,N,011.210,K,D*01
$GPGGA,090103.55,5703.5043991,N,00952.3707937,E,2,11,1.0,-1.606,M,40.593,M,2.0,0123*6C
$GPVTG,068.53,T,-571.37,M,006.005,N,011.121,K,D*05
$GPGGA,090103.60,5703.5044274,N,00952.3709320,E,2,11,1.0,-1.600,M,40.593,M,2.0,0123*69
$GPVTG,068.79,T,-571.11,M,005.915,N,010.955,K,D*08
$GPGGA,090103.65,5703.5044578,N,00952.3710681,E,2,11,1.0,-1.600,M,40.593,M,2.2,0123*63
$GPVTG,068.10,T,-571.80,M,005.857,N,010.847,K,D*0A
$GPGGA,090103.70,5703.5044884,N,00952.3712045,E,2,11,1.0,-1.595,M,40.593,M,2.2,0123*6A
$GPVTG,067.76,T,-572.14,M,005.808,N,010.756,K,D*0E
$GPGGA,090103.75,5703.5045182,N,00952.3713426,E,2,11,1.0,-1.593,M,40.593,M,2.2,0123*67
$GPVTG,067.89,T,-572.01,M,005.799,N,010.740,K,D*0A
$GPGGA,090103.80,5703.5045477,N,00952.3714830,E,2,11,1.0,-1.593,M,40.593,M,2.2,0123*6E
$GPVTG,068.26,T,-571.64,M,005.841,N,010.818,K,D*08
$GPGGA,090103.85,5703.5045763,N,00952.3716236,E,2,11,1.0,-1.592,M,40.593,M,2.4,0123*64
$GPVTG,068.80,T,-571.10,M,005.871,N,010.872,K,D*08
$GPGGA,090103.90,5703.5046051,N,00952.3717633,E,2,11,1.0,-1.592,M,40.593,M,2.4,0123*65
$GPVTG,069.11,T,-570.79,M,005.873,N,010.877,K,D*08
$GPGGA,090103.95,5703.5046326,N,00952.3719024,E,2,11,1.0,-1.591,M,40.593,M,2.4,0123*6E
$GPVTG,069.61,T,-570.29,M,005.848,N,010.831,K,D*00
$GPGGA,090104.00,5703.5046612,N,00952.3720412,E,2,11,1.0,-1.589,M,40.593,M,2.4,0123*65
$GPVTG,069.67,T,-570.23,M,005.837,N,010.811,K,D*06
$GPGGA,090104.05,5703.5046914,N,00952.3721762,E,2,11,1.0,-1.586,M,40.593,M,2.6,0123*61
$GPVTG,068.93,T,-570.97,M,005.805,N,010.750,K,D*08
$GPGGA,090104.10,5703.5047232,N,00952.3723140,E,2,11,1.0,-1.584,M,40.593,M,2.6,0123*6D
$GPVTG,068.10,T,-571.80,M,005.826,N,010.791,K,D*08
$GPGGA,090104.15,5703.5047534,N,00952.3724531,E,2,11,1.0,-1.586,M,40.593,M,2.6,0123*6E
$GPVTG,068.05,T,-571.85,M,005.854,N,010.841,K,D*0E
$GPGGA,090104.20,5703.5047848,N,00952.3725946,E,2,11,1.0,-1.591,M,40.593,M,2.6,0123*65
$GPVTG,067.89,T,-572.01,M,005.929,N,010.980,K,D*0D
$GPGGA,090104.25,5703.5048158,N,00952.3727377,E,2,11,1.0,-1.599,M,40.593,M,2.9,0123*6A
$GPVTG,067.96,T,-571.94,M,006.011,N,011.133,K,D*0C
$GPGGA,090104.30,5703.5048460,N,00952.3728811,E,2,11,1.0,-1.607,M,40.593,M,2.9,0123*60
$GPVTG,068.29,T,-571.61,M,006.057,N,011.217,K,D*0A
$GPGGA,090104.35,5703.5048759,N,00952.3730229,E,2,11,1.0,-1.615,M,40.593,M,2.9,0123*67
$GPVTG,068.52,T,-571.38,M,006.048,N,011.201,K,D*03
$GPGGA,090104.40,5703.5049061,N,00952.3731601,E,2,11,1.0,-1.617,M,40.593,M,2.9,0123*65
$GPVTG,068.25,T,-571.65,M,005.954,N,011.027,K,D*0A
$GPGGA,090104.45,5703.5049366,N,00952.3732914,E,2,11,1.0,-1.612,M,40.593,M,3.1,0123*60
$GPVTG,067.61,T,-572.29,M,005.775,N,010.694,K,D*0C
$GPGGA,090104.50,5703.5049679,N,00952.3734236,E,2,11,1.0,-1.605,M,40.593,M,3.1,0123*64
$GPVTG,066.95,T,-572.95,M,005.685,N,010.529,K,D*0A
$GPGGA,090104.55,5703.5049991,N,00952.3735576,E,2,11,1.0,-1.599,M,40.593,M,3.1,0123*6C
$GPVTG,066.69,T,-573.21,M,005.664,N,010.490,K,D*0B
$GPGGA,090104.60,5703.5050287,N,00952.3736937,E,2,11,1.0,-1.596,M,40.593,M,3.1,0123*6B
$GPVTG,067.19,T,-572.71,M,005.679,N,010.518,K,D*04
$GPGGA,090104.65,5703.5050586,N,00952.3738297,E,2,11,1.0,-1.597,M,40.593,M,3.3,0123*64
$GPVTG,067.37,T,-572.53,M,005.716,N,010.585,K,D*04
$GPGGA,090104.70,5703.5050881,N,00952.3739655,E,2,11,1.0,-1.595,M,40.593,M,3.3,0123*63
$GPVTG,067.75,T,-572.15,M,005.721,N,010.595,K,D*05
$GPGGA,090104.75,5703.5051177,N,00952.3741015,E,2,11,1.0,-1.591,M,40.593,M,3.3,0123*6E
$GPVTG,068.00,T,-571.90,M,005.734,N,010.620,K,D*0F
$GPGGA,090104.80,5703.5051478,N,00952.3742390,E,2,11,1.0,-1.589,M,40.593,M,3.3,0123*6A
$GPVTG,068.16,T,-571.74,M,005.776,N,010.697,K,D*08
$GPGGA,090104.85,5703.5051766,N,00952.3743788,E,2,11,1.0,-1.594,M,40.593,M,3.5,0123*65
$GPVTG,068.60,T,-571.30,M,005.855,N,010.843,K,D*00
$GPGGA,090104.90,5703.5052078,N,00952.3745171,E,2,11,1.0,-1.598,M,40.593,M,3.5,0123*60
$GPVTG,068.30,T,-571.60,M,005.884,N,010.897,K,D*05
$GPGGA,090104.95,5703.5052394,N,00952.3746522,E,2,11,1.0,-1.603,M,40.593,M,3.5,0123*64
$GPVTG,067.68,T,-572.22,M,005.848,N,010.831,K,D*0E
$GPGGA,090105.00,5703.5052700,N,00952.3747878,E,2,11,1.0,-1.608,M,40.593,M,3.5,0123*68
$GPVTG,067.51,T,-572.39,M,005.817,N,010.774,K,D*0A
$GPGGA,090105.05,5703.5053006,N,00952.3749249,E,2,11,1.0,-1.615,M,40.593,M,2.4,0123*67
$GPVTG,067.55,T,-572.35,M,005.851,N,010.836,K,D*09
$GPGGA,090105.10,5703.5053314,N,00952.3750644,E,2,11,1.0,-1.619,M,40.593,M,2.4,0123*6E
$GPVTG,067.68,T,-572.22,M,005.892,N,010.911,K,D*0A
$GPGGA,090105.15,5703.5053621,N,00952.3752029,E,2,11,1.0,-1.621,M,40.593,M,2.4,0123*6C
$GPVTG,067.74,T,-572.16,M,005.898,N,010.922,K,D*0A
$GPGGA,090105.20,5703.5053923,N,00952.3753361,E,2,11,1.0,-1.619,M,40.593,M,2.4,0123*62
$GPVTG,067.56,T,-572.34,M,005.796,N,010.735,K,D*03
$GPGGA,090105.25,5703.5054225,N,00952.3754675,E,2,11,1.0,-1.613,M,40.593,M,2.7,0123*63
$GPVTG,067.28,T,-572.62,M,005.690,N,010.537,K,D*0E
$GPGGA,090105.30,5703.5054529,N,00952.3756012,E,2,11,1.0,-1.609,M,40.593,M,2.7,0123*62
$GPVTG,067.22,T,-572.68,M,005.665,N,010.491,K,D*09
$GPGGA,090105.35,5703.5054823,N,00952.3757379,E,2,11,1.0,-1.609,M,40.593,M,2.7,0123*6F
$GPVTG,067.71,T,-572.19,M,005.697,N,010.551,K,D*09
$GPGGA,090105.40,5703.5055144,N,00952.3758769,E,2,11,1.0,-1.609,M,40.593,M,2.7,0123*6E
$GPVTG,067.51,T,-572.39,M,005.799,N,010.740,K,D*04
$GPGGA,090105.45,5703.5055465,N,00952.3760165,E,2,11,1.0,-1.613,M,40.593,M,2.9,0123*69
$GPVTG,067.35,T,-572.55,M,005.887,N,010.903,K,D*05
$GPGGA,090105.50,5703.5055783,N,00952.3761564,E,2,11,1.0,-1.621,M,40.593,M,2.9,0123*63
$GPVTG,067.37,T,-572.53,M,005.945,N,011.010,K,D*04
$GPGGA,090105.55,5703.5056101,N,00952.3762954,E,2,11,1.0,-1.627,M,40.593,M,2.9,0123*63
$GPVTG,067.28,T,-572.62,M,005.963,N,011.044,K,D*0D
$GPGGA,090105.60,5703.5056414,N,00952.3764350,E,2,11,1.0,-1.632,M,40.593,M,2.9,0123*68
$GPVTG,067.38,T,-572.52,M,005.974,N,011.065,K,D*0A
$GPGGA,090105.65,5703.5056703,N,00952.3765757,E,2,11,1.0,-1.641,M,40.593,M,3.2,0123*64
$GPVTG,068.14,T,-571.76,M,005.983,N,011.081,K,D*0C
$GPGGA,090105.70,5703.5057012,N,00952.3767168,E,2,11,1.0,-1.641,M,40.593,M,3.2,0123*6E
$GPVTG,068.24,T,-571.66,M,005.999,N,011.110,K,D*0C
$GPGGA,090105.75,5703.5057329,N,00952.3768535,E,2,11,1.0,-1.640,M,40.593,M,3.2,0123*62
$GPVTG,067.74,T,-572.16,M,005.935,N,010.991,K,D*04
$GPGGA,090105.80,5703.5057647,N,00952.3769902,E,2,11,1.0,-1.638,M,40.593,M,3.2,0123*63
$GPVTG,067.34,T,-572.56,M,005.887,N,010.903,K,D*07
$GPGGA,090105.85,5703.5057962,N,00952.3771255,E,2,11,1.0,-1.629,M,40.593,M,3.4,0123*68
$GPVTG,067.11,T,-572.79,M,005.817,N,010.772,K,D*0C
$GPGGA,090105.90,5703.5058256,N,00952.3772568,E,2,11,1.0,-1.620,M,40.593,M,3.4,0123*6C
$GPVTG,067.18,T,-572.72,M,005.683,N,010.525,K,D*0D
$GPGGA,090105.95,5703.5058564,N,00952.3773884,E,2,11,1.0,-1.613,M,40.593,M,3.4,0123*61
$GPVTG,066.90,T,-573.00,M,005.617,N,010.403,K,D*00
$GPGGA,090106.00,5703.5058889,N,00952.3775252,E,2,11,1.0,-1.605,M,40.593,M,3.4,0123*60
$GPVTG,066.64,T,-573.26,M,005.697,N,010.550,K,D*00
$GPGGA,090106.05,5703.5059203,N,00952.3776628,E,2,11,1.0,-1.604,M,40.593,M,1.6,0123*67
$GPVTG,066.77,T,-573.13,M,005.793,N,010.729,K,D*0D
$GPGGA,090106.10,5703.5059543,N,00952.3778028,E,2,11,1.0,-1.604,M,40.593,M,1.6,0123*68
$GPVTG,066.41,T,-573.49,M,005.909,N,010.944,K,D*0F
$GPGGA,090106.15,5703.5059860,N,00952.3779458,E,2,11,1.0,-1.608,M,40.593,M,1.6,0123*6F
$GPVTG,067.01,T,-572.89,M,006.015,N,011.140,K,D*0D
$GPGGA,090106.20,5703.5060180,N,00952.3780865,E,2,11,1.0,-1.612,M,40.593,M,1.6,0123*6B
$GPVTG,067.17,T,-572.73,M,006.044,N,011.194,K,D*02
$GPGGA,090106.25,5703.5060486,N,00952.3782276,E,2,11,1.0,-1.617,M,40.593,M,1.8,0123*6C
$GPVTG,067.67,T,-572.23,M,006.048,N,011.201,K,D*03
$GPGGA,090106.30,5703.5060821,N,00952.3783671,E,2,11,1.0,-1.621,M,40.593,M,1.8,0123*6E
$GPVTG,067.15,T,-572.75,M,006.043,N,011.191,K,D*04
$GPGGA,090106.35,5703.5061150,N,00952.3785069,E,2,11,1.0,-1.625,M,40.593,M,1.8,0123*68
$GPVTG,066.92,T,-572.98,M,006.032,N,011.172,K,D*02
$GPGGA,090106.40,5703.5061485,N,00952.3786448,E,2,11,1.0,-1.628,M,40.593,M,1.8,0123*6E
$GPVTG,066.42,T,-573.48,M,005.996,N,011.104,K,D*06
$GPGGA,090106.45,5703.5061807,N,00952.3787829,E,2,11,1.0,-1.626,M,40.593,M,2.1,0123*63
$GPVTG,066.44,T,-573.46,M,005.958,N,011.035,K,D*0F
$GPGGA,090106.50,5703.5062131,N,00952.3789216,E,2,11,1.0,-1.621,M,40.593,M,2.1,0123*67
$GPVTG,066.50,T,-573.40,M,005.942,N,011.005,K,D*04
$GPGGA,090106.55,5703.5062447,N,00952.3790607,E,2,11,1.0,-1.618,M,40.593,M,2.1,0123*60
$GPVTG,066.82,T,-573.08,M,005.930,N,010.983,K,D*04
$GPGGA,090106.60,5703.5062761,N,00952.3791988,E,2,11,1.0,-1.617,M,40.593,M,2.1,0123*67
$GPVTG,067.03,T,-572.87,M,005.902,N,010.931,K,D*02
$GPGGA,090106.65,5703.5063098,N,00952.3793391,E,2,11,1.0,-1.612,M,40.593,M,2.3,0123*65
$GPVTG,066.77,T,-573.13,M,005.945,N,011.011,K,D*05
$GPGGA,090106.70,5703.5063445,N,00952.3794788,E,2,11,1.0,-1.613,M,40.593,M,2.3,0123*6F
$GPVTG,066.22,T,-573.68,M,005.984,N,011.083,K,D*0F
$GPGGA,090106.75,5703.5063785,N,00952.3796187,E,2,11,1.0,-1.614,M,40.593,M,2.3,0123*69
$GPVTG,066.02,T,-573.88,M,006.009,N,011.129,K,D*0D
$GPGGA,090106.80,5703.5064117,N,00952.3797592,E,2,11,1.0,-1.610,M,40.593,M,2.3,0123*6C
$GPVTG,066.16,T,-573.74,M,006.026,N,011.161,K,D*0A
$GPGGA,090106.85,5703.5064428,N,00952.3798958,E,2,11,1.0,-1.613,M,40.593,M,2.5,0123*60
$GPVTG,066.33,T,-573.57,M,005.970,N,011.056,K,D*00
$GPGGA,090106.90,5703.5064756,N,00952.3800338,E,2,11,1.0,-1.611,M,40.593,M,2.5,0123*6E
$GPVTG,066.35,T,-573.55,M,005.942,N,011.005,K,D*03
$GPGGA,090106.95,5703.5065093,N,00952.3801733,E,2,11,1.0,-1.609,M,40.593,M,2.5,0123*63
$GPVTG,066.22,T,-573.68,M,005.963,N,011.044,K,D*0D
$GPGGA,090107.00,5703.5065425,N,00952.3803137,E,2,11,1.0,-1.607,M,40.593,M,2.5,0123*69
$GPVTG,066.34,T,-573.56,M,005.991,N,011.095,K,D*06
$GPGGA,090107.05,5703.5065763,N,00952.3804529,E,2,11,1.0,-1.600,M,40.593,M,1.5,0123*65
$GPVTG,066.32,T,-573.58,M,005.988,N,011.089,K,D*0B
$GPGGA,090107.10,5703.5066100,N,00952.3805918,E,2,11,1.0,-1.600,M,40.593,M,1.5,0123*6E
$GPVTG,066.17,T,-573.73,M,005.985,N,011.084,K,D*05
$GPGGA,090107.15,5703.5066440,N,00952.3807318,E,2,11,1.0,-1.600,M,40.593,M,1.5,0123*62
$GPVTG,066.07,T,-573.83,M,006.006,N,011.122,K,D*07
$GPGGA,090107.20,5703.5066769,N,00952.3808717,E,2,11,1.0,-1.601,M,40.593,M,1.5,0123*69
$GPVTG,066.28,T,-573.62,M,006.005,N,011.122,K,D*06
$GPGGA,090107.25,5703.5067082,N,00952.3810134,E,2,11,1.0,-1.603,M,40.593,M,1.8,0123*6E
$GPVTG,066.95,T,-572.95,M,006.026,N,011.161,K,D*0F
$GPGGA,090107.30,5703.5067397,N,00952.3811534,E,2,11,1.0,-1.601,M,40.593,M,1.8,0123*6A
$GPVTG,067.29,T,-572.61,M,006.001,N,011.114,K,D*05
$GPGGA,090107.35,5703.5067725,N,00952.3812915,E,2,11,1.0,-1.601,M,40.593,M,1.8,0123*6E
$GPVTG,067.06,T,-572.84,M,005.962,N,011.041,K,D*0D
$GPGGA,090107.40,5703.5068055,N,00952.3814322,E,2,11,1.0,-1.599,M,40.593,M,1.8,0123*69
$GPVTG,066.99,T,-572.91,M,005.983,N,011.081,K,D*0D
$GPGGA,090107.45,5703.5068386,N,00952.3815721,E,2,11,1.0,-1.595,M,40.593,M,2.0,0123*60
$GPVTG,066.97,T,-572.93,M,005.969,N,011.055,K,D*0C
$GPGGA,090107.50,5703.5068721,N,00952.3817120,E,2,11,1.0,-1.592,M,40.593,M,2.0,0123*6F
$GPVTG,066.71,T,-573.19,M,005.982,N,011.078,K,D*0D
$GPGGA,090107.55,5703.5069050,N,00952.3818523,E,2,11,1.0,-1.591,M,40.593,M,2.0,0123*61
$GPVTG,066.70,T,-573.20,M,005.993,N,011.099,K,D*09
$GPGGA,090107.60,5703.5069384,N,00952.3819907,E,2,11,1.0,-1.589,M,40.593,M,2.0,0123*6F
$GPVTG,066.42,T,-573.48,M,005.972,N,011.061,K,D*0E
$GPGGA,090107.65,5703.5069721,N,00952.3821267,E,2,11,1.0,-1.600,M,40.593,M,2.2,0123*67
$GPVTG,065.56,T,-574.34,M,005.972,N,011.061,K,D*04
$GPGGA,090107.70,5703.5070066,N,00952.3822670,E,2,11,1.0,-1.603,M,40.593,M,2.2,0123*6D
$GPVTG,065.46,T,-574.44,M,006.009,N,011.129,K,D*09
$GPGGA,090107.75,5703.5070379,N,00952.3824070,E,2,11,1.0,-1.607,M,40.593,M,2.2,0123*61
$GPVTG,066.25,T,-573.65,M,005.990,N,011.093,K,D*01
$GPGGA,090107.80,5703.5070702,N,00952.3825463,E,2,11,1.0,-1.606,M,40.593,M,2.2,0123*65
$GPVTG,066.55,T,-573.35,M,005.975,N,011.065,K,D*01
$GPGGA,090107.85,5703.5071050,N,00952.3826859,E,2,11,1.0,-1.595,M,40.593,M,2.4,0123*68
$GPVTG,066.39,T,-573.51,M,005.957,N,011.033,K,D*0A
$GPGGA,090107.90,5703.5071402,N,00952.3828233,E,2,11,1.0,-1.591,M,40.593,M,2.4,0123*63
$GPVTG,065.73,T,-574.17,M,005.952,N,011.023,K,D*06
$GPGGA,090107.95,5703.5071752,N,00952.3829594,E,2,11,1.0,-1.587,M,40.593,M,2.4,0123*6C
$GPVTG,065.17,T,-574.73,M,005.927,N,010.977,K,D*0D
$GPGGA,090108.00,5703.5072087,N,00952.3830973,E,2,11,1.0,-1.585,M,40.593,M,2.4,0123*6C
$GPVTG,065.36,T,-574.54,M,005.925,N,010.973,K,D*0D
$GPGGA,090108.05,5703.5072409,N,00952.3832349,E,2,11,1.0,-1.584,M,40.593,M,2.6,0123*69
$GPVTG,065.74,T,-574.16,M,005.934,N,010.989,K,D*08
$GPGGA,090108.10,5703.5072748,N,00952.3833723,E,2,11,1.0,-1.583,M,40.593,M,2.6,0123*65
$GPVTG,065.68,T,-574.22,M,005.929,N,010.981,K,D*06
$GPGGA,090108.15,5703.5073079,N,00952.3835135,E,2,11,1.0,-1.584,M,40.593,M,2.6,0123*64
$GPVTG,066.17,T,-573.73,M,005.984,N,011.083,K,D*03
$GPGGA,090108.20,5703.5073407,N,00952.3836541,E,2,11,1.0,-1.589,M,40.593,M,2.6,0123*66
$GPVTG,066.51,T,-573.39,M,006.010,N,011.130,K,D*01
$GPGGA,090108.25,5703.5073747,N,00952.3837923,E,2,11,1.0,-1.593,M,40.593,M,2.9,0123*69
$GPVTG,066.24,T,-573.66,M,005.996,N,011.105,K,D*0B
$GPGGA,090108.30,5703.5074088,N,00952.3839283,E,2,11,1.0,-1.592,M,40.593,M,2.9,0123*60
$GPVTG,065.82,T,-574.08,M,005.945,N,011.009,K,D*08
$GPGGA,090108.35,5703.5074415,N,00952.3840659,E,2,11,1.0,-1.587,M,40.593,M,2.9,0123*6C
$GPVTG,066.04,T,-573.86,M,005.921,N,010.965,K,D*04
$GPGGA,090108.40,5703.5074743,N,00952.3842033,E,2,11,1.0,-1.584,M,40.593,M,2.9,0123*65
$GPVTG,066.18,T,-573.72,M,005.901,N,010.928,K,D*09
$GPGGA,090108.45,5703.5075073,N,00952.3843390,E,2,11,1.0,-1.582,M,40.593,M,3.1,0123*61
$GPVTG,066.04,T,-573.86,M,005.867,N,010.866,K,D*05
$GPGGA,090108.50,5703.5075414,N,00952.3844743,E,2,11,1.0,-1.582,M,40.593,M,3.1,0123*6D
$GPVTG,065.67,T,-574.23,M,005.847,N,010.829,K,D*02
$GPGGA,090108.55,5703.5075758,N,00952.3846098,E,2,11,1.0,-1.580,M,40.593,M,3.1,0123*62
$GPVTG,065.31,T,-574.59,M,005.845,N,010.826,K,D*01
$GPGGA,090108.60,5703.5076083,N,00952.3847465,E,2,11,1.0,-1.580,M,40.593,M,3.1,0123*61
$GPVTG,065.71,T,-574.19,M,005.846,N,010.827,K,D*03
$GPGGA,090108.65,5703.5076396,N,00952.3848835,E,2,11,1.0,-1.584,M,40.593,M,3.3,0123*63
$GPVTG,066.30,T,-573.60,M,005.850,N,010.834,K,D*09
$GPGGA,090108.70,5703.5076723,N,00952.3850198,E,2,11,1.0,-1.583,M,40.593,M,3.3,0123*6D
$GPVTG,066.36,T,-573.54,M,005.848,N,010.831,K,D*04
$GPGGA,090108.75,5703.5077073,N,00952.3851573,E,2,11,1.0,-1.582,M,40.593,M,3.3,0123*6A
$GPVTG,065.86,T,-574.04,M,005.897,N,010.921,K,D*0C
$GPGGA,090108.80,5703.5077407,N,00952.3852971,E,2,11,1.0,-1.586,M,40.593,M,3.3,0123*6E
$GPVTG,066.06,T,-573.84,M,005.955,N,011.028,K,D*06
$GPGGA,090108.85,5703.5077740,N,00952.3854371,E,2,11,1.0,-1.591,M,40.593,M,3.5,0123*67
$GPVTG,066.29,T,-573.61,M,005.990,N,011.094,K,D*0E
$GPGGA,090108.90,5703.5078071,N,00952.3855769,E,2,11,1.0,-1.600,M,40.593,M,3.5,0123*6E
$GPVTG,066.45,T,-573.45,M,006.010,N,011.130,K,D*0F
$GPGGA,090108.95,5703.5078408,N,00952.3857155,E,2,11,1.0,-1.605,M,40.593,M,3.5,0123*6F
$GPVTG,066.28,T,-573.62,M,006.005,N,011.121,K,D*05
$GPGGA,090109.00,5703.5078724,N,00952.3858516,E,2,11,1.0,-1.609,M,40.593,M,3.5,0123*6F
$GPVTG,066.53,T,-573.37,M,005.926,N,010.976,K,D*09
$GPGGA,090109.05,5703.5079051,N,00952.3859875,E,2,11,1.0,-1.605,M,40.593,M,2.4,0123*6B
$GPVTG,066.36,T,-573.54,M,005.888,N,010.905,K,D*0E
$GPGGA,090109.10,5703.5079392,N,00952.3861238,E,2,11,1.0,-1.603,M,40.593,M,2.4,0123*6D
$GPVTG,065.92,T,-573.98,M,005.877,N,010.885,K,D*0A
$GPGGA,090109.15,5703.5079719,N,00952.3862583,E,2,11,1.0,-1.601,M,40.593,M,2.4,0123*69
$GPVTG,065.86,T,-574.04,M,005.824,N,010.785,K,D*04
$GPGGA,090109.20,5703.5080050,N,00952.3863911,E,2,11,1.0,-1.602,M,40.593,M,2.4,0123*66
$GPVTG,065.59,T,-574.31,M,005.765,N,010.677,K,D*06
$GPGGA,090109.25,5703.5080390,N,00952.3865262,E,2,11,1.0,-1.595,M,40.593,M,2.7,0123*6B
$GPVTG,065.44,T,-574.46,M,005.765,N,010.676,K,D*0B
$GPGGA,090109.30,5703.5080724,N,00952.3866624,E,2,11,1.0,-1.593,M,40.593,M,2.7,0123*67
$GPVTG,065.51,T,-574.39,M,005.800,N,010.741,K,D*0E
$GPGGA,090109.35,5703.5081053,N,00952.3868007,E,2,11,1.0,-1.592,M,40.593,M,2.7,0123*6C
$GPVTG,065.89,T,-574.01,M,005.862,N,010.856,K,D*0D
$GPGGA,090109.40,5703.5081366,N,00952.3869396,E,2,11,1.0,-1.593,M,40.593,M,2.7,0123*60
$GPVTG,066.65,T,-573.25,M,005.894,N,010.917,K,D*00
$GPGGA,090109.45,5703.5081685,N,00952.3870769,E,2,11,1.0,-1.596,M,40.593,M,2.9,0123*6A
$GPVTG,066.82,T,-573.08,M,005.905,N,010.937,K,D*0D
$GPGGA,090109.50,5703.5082014,N,00952.3872123,E,2,11,1.0,-1.597,M,40.593,M,2.9,0123*68
$GPVTG,066.57,T,-573.33,M,005.877,N,010.883,K,D*07
$GPGGA,090109.55,5703.5082341,N,00952.3873464,E,2,11,1.0,-1.598,M,40.593,M,2.9,0123*66
$GPVTG,066.31,T,-573.59,M,005.826,N,010.791,K,D*03
$GPGGA,090109.60,5703.5082659,N,00952.3874832,E,2,11,1.0,-1.595,M,40.593,M,2.9,0123*69
$GPVTG,066.58,T,-573.32,M,005.832,N,010.800,K,D*03
$GPGGA,090109.65,5703.5082989,N,00952.3876218,E,2,11,1.0,-1.597,M,40.593,M,3.2,0123*66
$GPVTG,066.57,T,-573.33,M,005.882,N,010.893,K,D*0C
$GPGGA,090109.70,5703.5083331,N,00952.3877617,E,2,11,1.0,-1.603,M,40.593,M,3.2,0123*6E
$GPVTG,066.33,T,-573.57,M,005.955,N,011.029,K,D*0F
$GPGGA,090109.75,5703.5083672,N,00952.3879038,E,2,11,1.0,-1.614,M,40.593,M,3.2,0123*6A
$GPVTG,066.34,T,-573.56,M,006.045,N,011.195,K,D*04
$GPGGA,090109.80,5703.5084005,N,00952.3880466,E,2,11,1.0,-1.625,M,40.593,M,3.2,0123*6A
$GPVTG,066.57,T,-573.33,M,006.105,N,011.306,K,D*0F
$GPGGA,090109.85,5703.5084318,N,00952.3881877,E,2,11,1.0,-1.637,M,40.593,M,3.4,0123*68
$GPVTG,067.07,T,-572.83,M,006.096,N,011.290,K,D*04
$GPGGA,090109.90,5703.5084634,N,00952.3883248,E,2,11,1.0,-1.639,M,40.593,M,3.4,0123*6D
$GPVTG,067.12,T,-572.78,M,006.002,N,011.115,K,D*07
$GPGGA,090109.95,5703.5084938,N,00952.3884568,E,2,11,1.0,-1.634,M,40.593,M,3.4,0123*64
$GPVTG,067.09,T,-572.81,M,005.824,N,010.786,K,D*09
$GPGGA,090110.00,5703.5085253,N,00952.3885915,E,2,11,1.0,-1.625,M,40.593,M,3.4,0123*60
$GPVTG,066.98,T,-572.92,M,005.761,N,010.669,K,D*0C
$GPGGA,090110.05,5703.5085585,N,00952.3887294,E,2,11,1.0,-1.608,M,40.593,M,1.6,0123*66
$GPVTG,066.88,T,-573.02,M,005.778,N,010.700,K,D*03
$GPGGA,090110.10,5703.5085914,N,00952.3888648,E,2,11,1.0,-1.605,M,40.593,M,1.6,0123*61
$GPVTG,066.50,T,-573.40,M,005.775,N,010.695,K,D*00
$GPGGA,090110.15,5703.5086248,N,00952.3890005,E,2,11,1.0,-1.601,M,40.593,M,1.6,0123*67
$GPVTG,066.11,T,-573.79,M,005.792,N,010.727,K,D*0E
$GPGGA,090110.20,5703.5086574,N,00952.3891365,E,2,11,1.0,-1.600,M,40.593,M,1.6,0123*6C
$GPVTG,066.08,T,-573.82,M,005.807,N,010.754,K,D*05
$GPGGA,090110.25,5703.5086907,N,00952.3892737,E,2,11,1.0,-1.602,M,40.593,M,1.8,0123*6D
$GPVTG,065.91,T,-573.99,M,005.859,N,010.851,K,D*0D
$GPGGA,090110.30,5703.5087229,N,00952.3894135,E,2,11,1.0,-1.604,M,40.593,M,1.8,0123*6B
$GPVTG,066.37,T,-573.53,M,005.919,N,010.963,K,D*01
$GPGGA,090110.35,5703.5087539,N,00952.3895557,E,2,11,1.0,-1.607,M,40.593,M,1.8,0123*6A
$GPVTG,067.20,T,-572.70,M,005.988,N,011.091,K,D*0B
$GPGGA,090110.40,5703.5087862,N,00952.3896957,E,2,11,1.0,-1.609,M,40.593,M,1.8,0123*6A
$GPVTG,067.26,T,-572.64,M,006.009,N,011.129,K,D*09
$GPGGA,090110.45,5703.5088203,N,00952.3898333,E,2,11,1.0,-1.608,M,40.593,M,2.1,0123*60
$GPVTG,066.72,T,-573.18,M,005.978,N,011.072,K,D*00
$GPGGA,090110.50,5703.5088528,N,00952.3899693,E,2,11,1.0,-1.607,M,40.593,M,2.1,0123*6B
$GPVTG,066.50,T,-573.40,M,005.919,N,010.962,K,D*03
$GPGGA,090110.55,5703.5088855,N,00952.3901070,E,2,11,1.0,-1.608,M,40.593,M,2.1,0123*6D
$GPVTG,066.44,T,-573.46,M,005.909,N,010.944,K,D*05
$GPGGA,090110.60,5703.5089179,N,00952.3902462,E,2,11,1.0,-1.612,M,40.593,M,2.1,0123*62
$GPVTG,066.60,T,-573.30,M,005.929,N,010.980,K,D*08
$GPGGA,090110.65,5703.5089514,N,00952.3903873,E,2,11,1.0,-1.610,M,40.593,M,2.3,0123*65
$GPVTG,066.71,T,-573.19,M,005.964,N,011.046,K,D*08
$GPGGA,090110.70,5703.5089844,N,00952.3905289,E,2,11,1.0,-1.616,M,40.593,M,2.3,0123*66
$GPVTG,066.81,T,-573.09,M,006.017,N,011.143,K,D*0C
$GPGGA,090110.75,5703.5090163,N,00952.3906715,E,2,11,1.0,-1.617,M,40.593,M,2.3,0123*65
$GPVTG,067.24,T,-572.66,M,006.056,N,011.216,K,D*0C
$GPGGA,090110.80,5703.5090472,N,00952.3908094,E,2,11,1.0,-1.616,M,40.593,M,2.3,0123*6B
$GPVTG,067.45,T,-572.45,M,005.982,N,011.078,K,D*03
$GPGGA,090110.85,5703.5090771,N,00952.3909444,E,2,11,1.0,-1.612,M,40.593,M,2.5,0123*64
$GPVTG,067.58,T,-572.32,M,005.871,N,010.873,K,D*00
$GPGGA,090110.90,5703.5091082,N,00952.3910787,E,2,11,1.0,-1.609,M,40.593,M,2.5,0123*64
$GPVTG,067.40,T,-572.50,M,005.783,N,010.709,K,D*0D
$GPGGA,090110.95,5703.5091414,N,00952.3912164,E,2,11,1.0,-1.605,M,40.593,M,2.5,0123*6F
$GPVTG,066.90,T,-573.00,M,005.816,N,010.771,K,D*09
$GPGGA,090111.00,5703.5091736,N,00952.3913546,E,2,11,1.0,-1.602,M,40.593,M,2.5,0123*63
$GPVTG,066.88,T,-573.02,M,005.842,N,010.820,K,D*08
$GPGGA,090111.05,5703.5092044,N,00952.3914932,E,2,11,1.0,-1.597,M,40.593,M,1.5,0123*63
$GPVTG,067.30,T,-572.60,M,005.857,N,010.847,K,D*0A
$GPGGA,090111.10,5703.5092362,N,00952.3916325,E,2,11,1.0,-1.597,M,40.593,M,1.5,0123*6E
$GPVTG,067.34,T,-572.56,M,005.893,N,010.914,K,D*04
$GPGGA,090111.15,5703.5092691,N,00952.3917705,E,2,11,1.0,-1.597,M,40.593,M,1.5,0123*65
$GPVTG,066.96,T,-572.94,M,005.908,N,010.942,K,D*03
$GPGGA,090111.20,5703.5093018,N,00952.3919100,E,2,11,1.0,-1.599,M,40.593,M,1.5,0123*66
$GPVTG,066.86,T,-573.04,M,005.942,N,011.004,K,D*0E
$GPGGA,090111.25,5703.5093332,N,00952.3920504,E,2,11,1.0,-1.603,M,40.593,M,1.8,0123*6F
$GPVTG,067.14,T,-572.76,M,005.975,N,011.065,K,D*03
$GPGGA,090111.30,5703.5093638,N,00952.3921912,E,2,11,1.0,-1.604,M,40.593,M,1.8,0123*69
$GPVTG,067.64,T,-572.26,M,005.984,N,011.082,K,D*06
$GPGGA,090111.35,5703.5093943,N,00952.3923294,E,2,11,1.0,-1.603,M,40.593,M,1.8,0123*6F
$GPVTG,067.84,T,-572.06,M,005.938,N,010.998,K,D*0E
$GPGGA,090111.40,5703.5094245,N,00952.3924660,E,2,11,1.0,-1.601,M,40.593,M,1.8,0123*6D
$GPVTG,067.94,T,-571.96,M,005.871,N,010.873,K,D*0D
$GPGGA,090111.45,5703.5094566,N,00952.3926042,E,2,11,1.0,-1.600,M,40.593,M,2.0,0123*60
$GPVTG,067.60,T,-572.30,M,005.873,N,010.877,K,D*0F
$GPGGA,090111.50,5703.5094884,N,00952.3927452,E,2,11,1.0,-1.601,M,40.593,M,2.0,0123*60
$GPVTG,067.61,T,-572.29,M,005.925,N,010.973,K,D*01
$GPGGA,090111.55,5703.5095203,N,00952.3928866,E,2,11,1.0,-1.608,M,40.593,M,2.0,0123*6C
$GPVTG,067.61,T,-572.29,M,005.973,N,011.063,K,D*0B
$GPGGA,090111.60,5703.5095524,N,00952.3930308,E,2,11,1.0,-1.619,M,40.593,M,2.0,0123*62
$GPVTG,067.75,T,-572.15,M,006.058,N,011.220,K,D*07
$GPGGA,090111.65,5703.5095847,N,00952.3931765,E,2,11,1.0,-1.627,M,40.593,M,2.2,0123*6E
$GPVTG,067.93,T,-571.97,M,006.134,N,011.361,K,D*09
$GPGGA,090111.70,5703.5096173,N,00952.3933200,E,2,11,1.0,-1.629,M,40.593,M,2.2,0123*6D
$GPVTG,067.74,T,-572.16,M,006.154,N,011.397,K,D*05
$GPGGA,090111.75,5703.5096473,N,00952.3934575,E,2,11,1.0,-1.621,M,40.593,M,2.2,0123*67
$GPVTG,067.88,T,-572.02,M,006.022,N,011.152,K,D*08
$GPGGA,090111.80,5703.5096781,N,00952.3935921,E,2,11,1.0,-1.611,M,40.593,M,2.2,0123*6C
$GPVTG,067.54,T,-572.36,M,005.879,N,010.888,K,D*04
$GPGGA,090111.85,5703.5097076,N,00952.3937278,E,2,11,1.0,-1.605,M,40.593,M,2.4,0123*61
$GPVTG,067.69,T,-572.21,M,005.796,N,010.734,K,D*0A
$GPGGA,090111.90,5703.5097372,N,00952.3938663,E,2,11,1.0,-1.600,M,40.593,M,2.4,0123*66
$GPVTG,068.09,T,-571.81,M,005.787,N,010.717,K,D*0B
$GPGGA,090111.95,5703.5097677,N,00952.3940063,E,2,11,1.0,-1.597,M,40.593,M,2.4,0123*67
$GPVTG,068.25,T,-571.65,M,005.827,N,010.791,K,D*04
$GPGGA,090112.00,5703.5097987,N,00952.3941475,E,2,11,1.0,-1.598,M,40.593,M,2.4,0123*65
$GPVTG,068.26,T,-571.64,M,005.890,N,010.908,K,D*04
$GPGGA,090112.05,5703.5098314,N,00952.3942894,E,2,11,1.0,-1.597,M,40.593,M,2.6,0123*62
$GPVTG,067.76,T,-572.14,M,005.986,N,011.085,K,D*01
$GPGGA,090112.10,5703.5098631,N,00952.3944313,E,2,11,1.0,-1.599,M,40.593,M,2.6,0123*68
$GPVTG,067.74,T,-572.16,M,006.022,N,011.154,K,D*08
$GPGGA,090112.15,5703.5098946,N,00952.3945761,E,2,11,1.0,-1.604,M,40.593,M,2.6,0123*65
$GPVTG,067.94,T,-571.96,M,006.097,N,011.291,K,D*09
$GPGGA,090112.20,5703.5099251,N,00952.3947197,E,2,11,1.0,-1.608,M,40.593,M,2.6,0123*6E
$GPVTG,068.31,T,-571.59,M,006.110,N,011.315,K,D*09
$GPGGA,090112.25,5703.5099543,N,00952.3948617,E,2,11,1.0,-1.613,M,40.593,M,2.9,0123*6A
$GPVTG,068.73,T,-571.17,M,006.074,N,011.248,K,D*0F
$GPGGA,090112.30,5703.5099853,N,00952.3950035,E,2,11,1.0,-1.611,M,40.593,M,2.9,0123*6F
$GPVTG,068.59,T,-571.31,M,006.051,N,011.207,K,D*0F
$GPGGA,090112.35,5703.5100180,N,00952.3951426,E,2,11,1.0,-1.612,M,40.593,M,2.9,0123*68
$GPVTG,067.79,T,-572.11,M,006.003,N,011.117,K,D*06
$GPGGA,090112.40,5703.5100490,N,00952.3952808,E,2,11,1.0,-1.608,M,40.593,M,2.9,0123*66
$GPVTG,067.60,T,-572.30,M,005.935,N,010.991,K,D*05
$GPGGA,090112.45,5703.5100790,N,00952.3954198,E,2,11,1.0,-1.600,M,40.593,M,3.1,0123*67
$GPVTG,067.87,T,-572.03,M,005.887,N,010.904,K,D*08
$GPGGA,090112.50,5703.5101082,N,00952.3955598,E,2,11,1.0,-1.592,M,40.593,M,3.1,0123*6B
$GPVTG,068.34,T,-571.56,M,005.874,N,010.878,K,D*0A
$GPGGA,090112.55,5703.5101383,N,00952.3957007,E,2,11,1.0,-1.590,M,40.593,M,3.1,0123*6F
$GPVTG,068.54,T,-571.36,M,005.892,N,010.912,K,D*0F
$GPGGA,090112.60,5703.5101687,N,00952.3958405,E,2,11,1.0,-1.590,M,40.593,M,3.1,0123*61
$GPVTG,068.48,T,-571.42,M,005.895,N,010.918,K,D*0C
$GPGGA,090112.65,5703.5101998,N,00952.3959802,E,2,11,1.0,-1.587,M,40.593,M,3.3,0123*6B
$GPVTG,068.24,T,-571.66,M,005.904,N,010.935,K,D*06
$GPGGA,090112.70,5703.5102317,N,00952.3961203,E,2,11,1.0,-1.584,M,40.593,M,3.3,0123*62
$GPVTG,067.86,T,-572.04,M,005.929,N,010.980,K,D*07
$GPGGA,090112.75,5703.5102637,N,00952.3962599,E,2,11,1.0,-1.584,M,40.593,M,3.3,0123*67
$GPVTG,067.51,T,-572.39,M,005.941,N,011.003,K,D*0E
$GPGGA,090112.80,5703.5102950,N,00952.3964011,E,2,11,1.0,-1.586,M,40.593,M,3.3,0123*62
$GPVTG,067.57,T,-572.33,M,005.970,N,011.057,K,D*01
$GPGGA,090112.85,5703.5103264,N,00952.3965460,E,2,11,1.0,-1.589,M,40.593,M,3.5,0123*60
$GPVTG,067.94,T,-571.96,M,006.050,N,011.206,K,D*0C
$GPGGA,090112.90,5703.5103592,N,00952.3966922,E,2,11,1.0,-1.597,M,40.593,M,3.5,0123*6D
$GPVTG,067.86,T,-572.04,M,006.152,N,011.393,K,D*09
$GPGGA,090112.95,5703.5103901,N,00952.3968379,E,2,11,1.0,-1.606,M,40.593,M,3.5,0123*6F
$GPVTG,068.22,T,-571.68,M,006.184,N,011.453,K,D*01
$GPGGA,090113.00,5703.5104190,N,00952.3969827,E,2,11,1.0,-1.610,M,40.593,M,3.5,0123*63
$GPVTG,068.96,T,-570.94,M,006.162,N,011.413,K,D*00
$GPGGA,090113.05,5703.5104478,N,00952.3971242,E,2,11,1.0,-1.608,M,40.593,M,2.4,0123*6C
$GPVTG,069.39,T,-570.51,M,006.077,N,011.254,K,D*0D
$GPGGA,090113.10,5703.5104757,N,00952.3972664,E,2,11,1.0,-1.603,M,40.593,M,2.4,0123*6E
$GPVTG,069.89,T,-570.01,M,006.014,N,011.138,K,D*0F
$GPGGA,090113.15,5703.5105024,N,00952.3974056,E,2,11,1.0,-1.598,M,40.593,M,2.4,0123*69
$GPVTG,070.37,T,-569.53,M,005.900,N,010.927,K,D*05
$GPGGA,090113.20,5703.5105310,N,00952.3975417,E,2,11,1.0,-1.592,M,40.593,M,2.4,0123*61
$GPVTG,069.99,T,-569.91,M,005.787,N,010.717,K,D*0B
$GPGGA,090113.25,5703.5105592,N,00952.3976807,E,2,11,1.0,-1.590,M,40.593,M,2.7,0123*67
$GPVTG,069.85,T,-570.05,M,005.777,N,010.699,K,D*0B
$GPGGA,090113.30,5703.5105885,N,00952.3978229,E,2,11,1.0,-1.590,M,40.593,M,2.7,0123*60
$GPVTG,069.74,T,-570.16,M,005.837,N,010.811,K,D*02
$GPGGA,090113.35,5703.5106180,N,00952.3979666,E,2,11,1.0,-1.591,M,40.593,M,2.7,0123*65
$GPVTG,069.68,T,-570.22,M,005.920,N,010.964,K,D*0C
$GPGGA,090113.40,5703.5106491,N,00952.3981108,E,2,11,1.0,-1.593,M,40.593,M,2.7,0123*68
$GPVTG,069.19,T,-570.71,M,006.006,N,011.124,K,D*0F
$GPGGA,090113.45,5703.5106795,N,00952.3982542,E,2,11,1.0,-1.593,M,40.593,M,2.9,0123*6D
$GPVTG,069.02,T,-570.88,M,006.035,N,011.178,K,D*0A
$GPGGA,090113.50,5703.5107093,N,00952.3983965,E,2,11,1.0,-1.596,M,40.593,M,2.9,0123*64
$GPVTG,068.94,T,-570.96,M,006.034,N,011.175,K,D*07
$GPGGA,090113.55,5703.5107393,N,00952.3985392,E,2,11,1.0,-1.596,M,40.593,M,2.9,0123*66
$GPVTG,068.87,T,-571.03,M,006.037,N,011.181,K,D*00
$GPGGA,090113.60,5703.5107693,N,00952.3986818,E,2,11,1.0,-1.596,M,40.593,M,2.9,0123*6F
$GPVTG,068.79,T,-571.11,M,006.035,N,011.177,K,D*09
$GPGGA,090113.65,5703.5107998,N,00952.3988248,E,2,11,1.0,-1.595,M,40.593,M,3.2,0123*66
$GPVTG,068.75,T,-571.15,M,006.030,N,011.168,K,D*0A
$GPGGA,090113.70,5703.5108305,N,00952.3989664,E,2,11,1.0,-1.595,M,40.593,M,3.2,0123*68
$GPVTG,068.49,T,-571.41,M,006.017,N,011.144,K,D*0F
$GPGGA,090113.75,5703.5108602,N,00952.3991082,E,2,11,1.0,-1.596,M,40.593,M,3.2,0123*6B
$GPVTG,068.59,T,-571.31,M,005.999,N,011.109,K,D*0C
$GPGGA,090113.80,5703.5108904,N,00952.3992482,E,2,11,1.0,-1.596,M,40.593,M,3.2,0123*6F
$GPVTG,068.43,T,-571.47,M,005.956,N,011.031,K,D*0F
$GPGGA,090113.85,5703.5109209,N,00952.3993849,E,2,11,1.0,-1.598,M,40.593,M,3.4,0123*6F
$GPVTG,067.82,T,-572.08,M,005.898,N,010.923,K,D*0D
$GPGGA,090113.90,5703.5109519,N,00952.3995211,E,2,11,1.0,-1.590,M,40.593,M,3.4,0123*64
$GPVTG,067.42,T,-572.48,M,005.834,N,010.804,K,D*07
$GPGGA,090113.95,5703.5109815,N,00952.3996585,E,2,11,1.0,-1.587,M,40.593,M,3.4,0123*6F
$GPVTG,067.64,T,-572.26,M,005.799,N,010.740,K,D*0C
$GPGGA,090114.00,5703.5110097,N,00952.3997987,E,2,11,1.0,-1.587,M,40.593,M,3.4,0123*61
$GPVTG,068.47,T,-571.43,M,005.816,N,010.771,K,D*08
$GPGGA,090114.05,5703.5110407,N,00952.3999403,E,2,11,1.0,-1.578,M,40.593,M,1.6,0123*66
$GPVTG,068.63,T,-571.27,M,005.868,N,010.868,K,D*02
$GPGGA,090114.10,5703.5110721,N,00952.4000843,E,2,11,1.0,-1.581,M,40.593,M,1.6,0123*65
$GPVTG,068.57,T,-571.33,M,005.979,N,011.073,K,D*02
$GPGGA,090114.15,5703.5111024,N,00952.4002296,E,2,11,1.0,-1.583,M,40.593,M,1.6,0123*61
$GPVTG,068.85,T,-571.05,M,006.066,N,011.235,K,D*0C
$GPGGA,090114.20,5703.5111317,N,00952.4003730,E,2,11,1.0,-1.588,M,40.593,M,1.6,0123*67
$GPVTG,069.20,T,-570.70,M,006.075,N,011.252,K,D*02
$GPGGA,090114.25,5703.5111617,N,00952.4005129,E,2,11,1.0,-1.586,M,40.593,M,1.8,0123*6F
$GPVTG,069.07,T,-570.83,M,006.006,N,011.122,K,D*0B
$GPGGA,090114.30,5703.5111912,N,00952.4006492,E,2,11,1.0,-1.581,M,40.593,M,1.8,0123*60
$GPVTG,068.75,T,-571.15,M,005.892,N,010.912,K,D*0D
$GPGGA,090114.35,5703.5112204,N,00952.4007848,E,2,11,1.0,-1.570,M,40.593,M,1.8,0123*6E
$GPVTG,068.57,T,-571.33,M,005.796,N,010.734,K,D*08
$GPGGA,090114.40,5703.5112492,N,00952.4009224,E,2,11,1.0,-1.561,M,40.593,M,1.8,0123*6B
$GPVTG,068.73,T,-571.17,M,005.766,N,010.678,K,D*0E
$GPGGA,090114.45,5703.5112773,N,00952.4010610,E,2,11,1.0,-1.563,M,40.593,M,2.1,0123*61
$GPVTG,068.87,T,-571.03,M,005.796,N,010.735,K,D*07
$GPGGA,090114.50,5703.5113066,N,00952.4012013,E,2,11,1.0,-1.564,M,40.593,M,2.1,0123*67
$GPVTG,069.01,T,-570.89,M,005.834,N,010.805,K,D*00
$GPGGA,090114.55,5703.5113347,N,00952.4013419,E,2,11,1.0,-1.568,M,40.593,M,2.1,0123*61
$GPVTG,069.42,T,-570.48,M,005.858,N,010.849,K,D*08
$GPGGA,090114.60,5703.5113653,N,00952.4014841,E,2,11,1.0,-1.572,M,40.593,M,2.1,0123*6A
$GPVTG,069.15,T,-570.75,M,005.931,N,010.984,K,D*0A
$GPGGA,090114.65,5703.5113945,N,00952.4016261,E,2,11,1.0,-1.582,M,40.593,M,2.3,0123*60
$GPVTG,069.07,T,-570.83,M,005.990,N,011.093,K,D*05
$GPGGA,090114.70,5703.5114242,N,00952.4017672,E,2,11,1.0,-1.585,M,40.593,M,2.3,0123*6F
$GPVTG,069.01,T,-570.89,M,005.989,N,011.092,K,D*00
$GPGGA,090114.75,5703.5114547,N,00952.4019064,E,2,11,1.0,-1.583,M,40.593,M,2.3,0123*61
$GPVTG,068.61,T,-571.29,M,005.958,N,011.034,K,D*0C
$GPGGA,090114.80,5703.5114861,N,00952.4020427,E,2,11,1.0,-1.581,M,40.593,M,2.3,0123*69
$GPVTG,067.85,T,-572.05,M,005.890,N,010.908,K,D*06
$GPGGA,090114.85,5703.5115153,N,00952.4021800,E,2,11,1.0,-1.582,M,40.593,M,2.5,0123*68
$GPVTG,067.89,T,-572.01,M,005.853,N,010.841,K,D*0D
$GPGGA,090114.90,5703.5115448,N,00952.4023188,E,2,11,1.0,-1.580,M,40.593,M,2.5,0123*6A
$GPVTG,068.11,T,-571.79,M,005.844,N,010.823,K,D*0D
$GPGGA,090114.95,5703.5115736,N,00952.4024584,E,2,11,1.0,-1.579,M,40.593,M,2.5,0123*6C
$GPVTG,068.53,T,-571.37,M,005.847,N,010.830,K,D*00
$GPGGA,090115.00,5703.5116018,N,00952.4025971,E,2,11,1.0,-1.581,M,40.593,M,2.5,0123*69
$GPVTG,068.99,T,-570.91,M,005.830,N,010.797,K,D*09
$GPGGA,090115.05,5703.5116307,N,00952.4027341,E,2,11,1.0,-1.584,M,40.593,M,1.5,0123*6C
$GPVTG,068.84,T,-571.06,M,005.827,N,010.791,K,D*0A
$GPGGA,090115.10,5703.5116599,N,00952.4028722,E,2,11,1.0,-1.585,M,40.593,M,1.5,0123*66
$GPVTG,068.87,T,-571.03,M,005.819,N,010.777,K,D*09
$GPGGA,090115.15,5703.5116885,N,00952.4030108,E,2,11,1.0,-1.586,M,40.593,M,1.5,0123*67
$GPVTG,069.09,T,-570.81,M,005.816,N,010.772,K,D*0F
$GPGGA,090115.20,5703.5117178,N,00952.4031496,E,2,11,1.0,-1.587,M,40.593,M,1.5,0123*69
$GPVTG,069.04,T,-570.86,M,005.829,N,010.795,K,D*00
$GPGGA,090115.25,5703.5117454,N,00952.4032869,E,2,11,1.0,-1.585,M,40.593,M,1.8,0123*67
$GPVTG,069.31,T,-570.59,M,005.802,N,010.746,K,D*03
$GPGGA,090115.30,5703.5117715,N,00952.4034239,E,2,11,1.0,-1.581,M,40.593,M,1.8,0123*68
$GPVTG,069.96,T,-569.94,M,005.751,N,010.650,K,D*08
$GPGGA,090115.35,5703.5117983,N,00952.4035594,E,2,11,1.0,-1.577,M,40.593,M,1.8,0123*64
$GPVTG,070.18,T,-569.72,M,005.697,N,010.551,K,D*07
$GPGGA,090115.40,5703.5118273,N,00952.4036966,E,2,11,1.0,-1.573,M,40.593,M,1.8,0123*6B
$GPVTG,069.76,T,-570.14,M,005.717,N,010.588,K,D*02
$GPGGA,090115.45,5703.5118555,N,00952.4038345,E,2,11,1.0,-1.569,M,40.593,M,2.0,0123*68
$GPVTG,069.66,T,-570.24,M,005.742,N,010.635,K,D*05
$GPGGA,090115.50,5703.5118844,N,00952.4039739,E,2,11,1.0,-1.567,M,40.593,M,2.0,0123*61
$GPVTG,069.53,T,-570.37,M,005.795,N,010.732,K,D*0D
$GPGGA,090115.55,5703.5119131,N,00952.4041131,E,2,11,1.0,-1.567,M,40.593,M,2.0,0123*6F
$GPVTG,069.43,T,-570.47,M,005.830,N,010.796,K,D*05
$GPGGA,090115.60,5703.5119422,N,00952.4042543,E,2,11,1.0,-1.571,M,40.593,M,2.0,0123*6B
$GPVTG,069.38,T,-570.52,M,005.891,N,010.910,K,D*06
$GPGGA,090115.65,5703.5119707,N,00952.4043941,E,2,11,1.0,-1.583,M,40.593,M,2.2,0123*6A
$GPVTG,069.21,T,-570.69,M,005.927,N,010.977,K,D*0B
$GPGGA,090115.70,5703.5119983,N,00952.4045351,E,2,11,1.0,-1.591,M,40.593,M,2.2,0123*62
$GPVTG,069.60,T,-570.30,M,005.934,N,010.989,K,D*01
$GPGGA,090115.75,5703.5120254,N,00952.4046777,E,2,11,1.0,-1.595,M,40.593,M,2.2,0123*6B
$GPVTG,070.14,T,-569.76,M,005.957,N,011.032,K,D*0D
$GPGGA,090115.80,5703.5120529,N,00952.4048168,E,2,11,1.0,-1.597,M,40.593,M,2.2,0123*68
$GPVTG,070.20,T,-569.70,M,005.904,N,010.935,K,D*05
$GPGGA,090115.85,5703.5120804,N,00952.4049554,E,2,11,1.0,-1.598,M,40.593,M,2.4,0123*6C
$GPVTG,070.24,T,-569.66,M,005.849,N,010.832,K,D*08
$GPGGA,090115.90,5703.5121091,N,00952.4050935,E,2,11,1.0,-1.601,M,40.593,M,2.4,0123*6D
$GPVTG,069.82,T,-570.08,M,005.819,N,010.776,K,D*06
$GPGGA,090115.95,5703.5121384,N,00952.4052325,E,2,11,1.0,-1.601,M,40.593,M,2.4,0123*66
$GPVTG,069.40,T,-570.50,M,005.826,N,010.789,K,D*09
$GPGGA,090116.00,5703.5121691,N,00952.4053705,E,2,11,1.0,-1.600,M,40.593,M,2.4,0123*6E
$GPVTG,068.62,T,-571.28,M,005.831,N,010.799,K,D*01
$GPGGA,090116.05,5703.5121992,N,00952.4055060,E,2,11,1.0,-1.597,M,40.593,M,2.6,0123*6A
$GPVTG,068.15,T,-571.75,M,005.790,N,010.723,K,D*0C
$GPGGA,090116.10,5703.5122278,N,00952.4056433,E,2,11,1.0,-1.599,M,40.593,M,2.6,0123*6D
$GPVTG,068.32,T,-571.58,M,005.775,N,010.695,K,D*01
$GPGGA,090116.15,5703.5122550,N,00952.4057816,E,2,11,1.0,-1.604,M,40.593,M,2.6,0123*68
$GPVTG,068.94,T,-570.96,M,005.771,N,010.688,K,D*06
$GPGGA,090116.20,5703.5122821,N,00952.4059228,E,2,11,1.0,-1.606,M,40.593,M,2.6,0123*6E
$GPVTG,069.71,T,-570.19,M,005.823,N,010.784,K,D*0E
$GPGGA,090116.25,5703.5123104,N,00952.4060639,E,2,11,1.0,-1.607,M,40.593,M,2.9,0123*64
$GPVTG,069.89,T,-570.01,M,005.870,N,010.872,K,D*00
$GPGGA,090116.30,5703.5123369,N,00952.4062027,E,2,11,1.0,-1.604,M,40.593,M,2.9,0123*61
$GPVTG,070.32,T,-569.58,M,005.841,N,010.818,K,D*02
$GPGGA,090116.35,5703.5123630,N,00952.4063393,E,2,11,1.0,-1.601,M,40.593,M,2.9,0123*65
$GPVTG,070.62,T,-569.28,M,005.772,N,010.690,K,D*01
$GPGGA,090116.40,5703.5123900,N,00952.4064747,E,2,11,1.0,-1.598,M,40.593,M,2.9,0123*62
$GPVTG,070.45,T,-569.45,M,005.710,N,010.575,K,D*03
$GPGGA,090116.45,5703.5124177,N,00952.4066129,E,2,11,1.0,-1.587,M,40.593,M,3.1,0123*63
$GPVTG,070.45,T,-569.45,M,005.709,N,010.574,K,D*0A
$GPGGA,090116.50,5703.5124455,N,00952.4067526,E,2,11,1.0,-1.586,M,40.593,M,3.1,0123*69
$GPVTG,070.36,T,-569.54,M,005.761,N,010.669,K,D*0F
$GPGGA,090116.55,5703.5124725,N,00952.4068949,E,2,11,1.0,-1.587,M,40.593,M,3.1,0123*63
$GPVTG,070.64,T,-569.26,M,005.840,N,010.815,K,D*04
$GPGGA,090116.60,5703.5124993,N,00952.4070360,E,2,11,1.0,-1.592,M,40.593,M,3.1,0123*6A
$GPVTG,070.80,T,-569.10,M,005.871,N,010.872,K,D*08
$GPGGA,090116.65,5703.5125276,N,00952.4071776,E,2,11,1.0,-1.595,M,40.593,M,3.3,0123*69
$GPVTG,070.58,T,-569.32,M,005.901,N,010.929,K,D*04
$GPGGA,090116.70,5703.5125553,N,00952.4073195,E,2,11,1.0,-1.599,M,40.593,M,3.3,0123*68
$GPVTG,070.50,T,-569.40,M,005.930,N,010.982,K,D*0A
$GPGGA,090116.75,5703.5125827,N,00952.4074609,E,2,11,1.0,-1.601,M,40.593,M,3.3,0123*64
$GPVTG,070.49,T,-569.41,M,005.933,N,010.989,K,D*0B
$GPGGA,090116.80,5703.5126096,N,00952.4076033,E,2,11,1.0,-1.603,M,40.593,M,3.3,0123*60
$GPVTG,070.68,T,-569.22,M,005.945,N,011.010,K,D*04
$GPGGA,090116.85,5703.5126370,N,00952.4077453,E,2,11,1.0,-1.608,M,40.593,M,3.5,0123*60
$GPVTG,070.66,T,-569.24,M,005.941,N,011.003,K,D*0A
$GPGGA,090116.90,5703.5126661,N,00952.4078894,E,2,11,1.0,-1.614,M,40.593,M,3.5,0123*64
$GPVTG,070.28,T,-569.62,M,005.995,N,011.103,K,D*0A
$GPGGA,090116.95,5703.5126966,N,00952.4080319,E,2,11,1.0,-1.614,M,40.593,M,3.5,0123*60
$GPVTG,069.50,T,-570.40,M,006.020,N,011.149,K,D*0F
$GPGGA,090117.00,5703.5127253,N,00952.4081708,E,2,11,1.0,-1.613,M,40.593,M,3.5,0123*63
$GPVTG,069.19,T,-570.71,M,005.947,N,011.013,K,D*05
$GPGGA,090117.05,5703.5127512,N,00952.4083075,E,2,11,1.0,-1.613,M,40.593,M,2.4,0123*6B
$GPVTG,069.58,T,-570.32,M,005.848,N,010.831,K,D*00
$GPGGA,090117.10,5703.5127790,N,00952.4084461,E,2,11,1.0,-1.609,M,40.593,M,2.4,0123*6A
$GPVTG,069.55,T,-570.35,M,005.811,N,010.762,K,D*0F
$GPGGA,090117.15,5703.5128065,N,00952.4085858,E,2,11,1.0,-1.605,M,40.593,M,2.4,0123*66
$GPVTG,069.76,T,-570.14,M,005.807,N,010.755,K,D*0E
$GPGGA,090117.20,5703.5128328,N,00952.4087266,E,2,11,1.0,-1.602,M,40.593,M,2.4,0123*68
$GPVTG,070.33,T,-569.57,M,005.814,N,010.768,K,D*04
$GPGGA,090117.25,5703.5128593,N,00952.4088688,E,2,11,1.0,-1.600,M,40.593,M,2.7,0123*61
$GPVTG,070.78,T,-569.12,M,005.854,N,010.841,K,D*0A
$GPGGA,090117.30,5703.5128868,N,00952.4090116,E,2,11,1.0,-1.600,M,40.593,M,2.7,0123*65
$GPVTG,070.85,T,-569.05,M,005.901,N,010.929,K,D*00
$GPGGA,090117.35,5703.5129155,N,00952.4091520,E,2,11,1.0,-1.598,M,40.593,M,2.7,0123*64
$GPVTG,070.36,T,-569.54,M,005.902,N,010.931,K,D*06
$GPGGA,090117.40,5703.5129441,N,00952.4092933,E,2,11,1.0,-1.597,M,40.593,M,2.7,0123*64
$GPVTG,070.04,T,-569.86,M,005.919,N,010.962,K,D*04
$GPGGA,090117.45,5703.5129709,N,00952.4094369,E,2,11,1.0,-1.593,M,40.593,M,2.9,0123*67
$GPVTG,070.58,T,-569.32,M,005.945,N,011.010,K,D*06
$GPGGA,090117.50,5703.5129963,N,00952.4095814,E,2,11,1.0,-1.594,M,40.593,M,2.9,0123*66
$GPVTG,071.31,T,-568.59,M,005.971,N,011.058,K,D*0F
$GPGGA,090117.55,5703.5130232,N,00952.4097282,E,2,11,1.0,-1.596,M,40.593,M,2.9,0123*61
$GPVTG,071.52,T,-568.38,M,006.043,N,011.192,K,D*01
$GPGGA,090117.60,5703.5130510,N,00952.4098744,E,2,11,1.0,-1.599,M,40.593,M,2.9,0123*6F
$GPVTG,071.37,T,-568.53,M,006.086,N,011.271,K,D*08
$GPGGA,090117.65,5703.5130772,N,00952.4100174,E,2,11,1.0,-1.611,M,40.593,M,3.2,0123*60
$GPVTG,071.19,T,-568.71,M,006.069,N,011.241,K,D*06
$GPGGA,090117.70,5703.5131042,N,00952.4101607,E,2,11,1.0,-1.615,M,40.593,M,3.2,0123*67
$GPVTG,071.12,T,-568.78,M,006.032,N,011.171,K,D*0A
$GPGGA,090117.75,5703.5131306,N,00952.4103043,E,2,11,1.0,-1.615,M,40.593,M,3.2,0123*65
$GPVTG,071.21,T,-568.69,M,006.002,N,011.116,K,D*08
$GPGGA,090117.80,5703.5131588,N,00952.4104460,E,2,11,1.0,-1.609,M,40.593,M,3.2,0123*60
$GPVTG,070.68,T,-569.22,M,005.960,N,011.038,K,D*09
$GPGGA,090117.85,5703.5131873,N,00952.4105865,E,2,11,1.0,-1.603,M,40.593,M,3.4,0123*68
$GPVTG,070.10,T,-569.80,M,005.917,N,010.958,K,D*00
$GPGGA,090117.90,5703.5132145,N,00952.4107287,E,2,11,1.0,-1.601,M,40.593,M,3.4,0123*65
$GPVTG,070.19,T,-569.71,M,005.906,N,010.938,K,D*01
$GPGGA,090117.95,5703.5132410,N,00952.4108748,E,2,11,1.0,-1.598,M,40.593,M,3.4,0123*6F
$GPVTG,070.74,T,-569.16,M,005.968,N,011.053,K,D*06
$GPGGA,090118.00,5703.5132674,N,00952.4110191,E,2,11,1.0,-1.597,M,40.593,M,3.4,0123*68
$GPVTG,071.05,T,-568.85,M,005.980,N,011.076,K,D*0B
$GPGGA,090118.05,5703.5132939,N,00952.4111629,E,2,11,1.0,-1.597,M,40.593,M,1.6,0123*6E
$GPVTG,071.17,T,-568.73,M,006.002,N,011.116,K,D*06
$GPGGA,090118.10,5703.5133215,N,00952.4113070,E,2,11,1.0,-1.601,M,40.593,M,1.6,0123*6A
$GPVTG,071.01,T,-568.89,M,006.009,N,011.129,K,D*03
$GPGGA,090118.15,5703.5133480,N,00952.4114516,E,2,11,1.0,-1.602,M,40.593,M,1.6,0123*64
$GPVTG,071.20,T,-568.70,M,006.011,N,011.133,K,D*04
$GPGGA,090118.20,5703.5133748,N,00952.4115983,E,2,11,1.0,-1.603,M,40.593,M,1.6,0123*65
$GPVTG,071.39,T,-568.51,M,006.053,N,011.211,K,D*0A
$GPGGA,090118.25,5703.5134012,N,00952.4117456,E,2,11,1.0,-1.603,M,40.593,M,1.8,0123*66
$GPVTG,071.66,T,-568.24,M,006.087,N,011.273,K,D*0F
$GPGGA,090118.30,5703.5134283,N,00952.4118902,E,2,11,1.0,-1.598,M,40.593,M,1.8,0123*6A
$GPVTG,071.49,T,-568.41,M,006.062,N,011.226,K,D*0A
$GPGGA,090118.35,5703.5134558,N,00952.4120309,E,2,11,1.0,-1.595,M,40.593,M,1.8,0123*69
$GPVTG,070.97,T,-568.93,M,005.975,N,011.065,K,D*0E
$GPGGA,090118.40,5703.5134834,N,00952.4121735,E,2,11,1.0,-1.593,M,40.593,M,1.8,0123*60
$GPVTG,070.69,T,-569.21,M,005.949,N,011.017,K,D*0D
$GPGGA,090118.45,5703.5135115,N,00952.4123193,E,2,11,1.0,-1.593,M,40.593,M,2.1,0123*6C
$GPVTG,070.58,T,-569.32,M,005.999,N,011.109,K,D*0E
$GPGGA,090118.50,5703.5135388,N,00952.4124665,E,2,11,1.0,-1.593,M,40.593,M,2.1,0123*67
$GPVTG,070.79,T,-569.11,M,006.055,N,011.215,K,D*08
$GPGGA,090118.55,5703.5135645,N,00952.4126157,E,2,11,1.0,-1.595,M,40.593,M,2.1,0123*64
$GPVTG,071.52,T,-568.38,M,006.115,N,011.325,K,D*0D
$GPGGA,090118.60,5703.5135900,N,00952.4127611,E,2,11,1.0,-1.595,M,40.593,M,2.1,0123*68
$GPVTG,071.87,T,-568.03,M,006.082,N,011.264,K,D*06
$GPGGA,090118.65,5703.5136165,N,00952.4129032,E,2,11,1.0,-1.596,M,40.593,M,2.3,0123*6D
$GPVTG,071.51,T,-568.39,M,006.013,N,011.136,K,D*08
$GPGGA,090118.70,5703.5136428,N,00952.4130480,E,2,11,1.0,-1.593,M,40.593,M,2.3,0123*65
$GPVTG,071.58,T,-568.32,M,006.001,N,011.114,K,D*09
$GPGGA,090118.75,5703.5136689,N,00952.4131951,E,2,11,1.0,-1.595,M,40.593,M,2.3,0123*6F
$GPVTG,071.81,T,-568.09,M,006.035,N,011.176,K,D*06
$GPGGA,090118.80,5703.5136956,N,00952.4133428,E,2,11,1.0,-1.598,M,40.593,M,2.3,0123*64
$GPVTG,071.83,T,-568.07,M,006.078,N,011.256,K,D*02
$GPGGA,090118.85,5703.5137228,N,00952.4134905,E,2,11,1.0,-1.601,M,40.593,M,2.5,0123*62
$GPVTG,071.59,T,-568.31,M,006.120,N,011.334,K,D*09
$GPGGA,090118.90,5703.5137502,N,00952.4136347,E,2,11,1.0,-1.597,M,40.593,M,2.5,0123*6B
$GPVTG,071.23,T,-568.67,M,006.074,N,011.249,K,D*0C
$GPGGA,090118.95,5703.5137769,N,00952.4137751,E,2,11,1.0,-1.591,M,40.593,M,2.5,0123*65
$GPVTG,070.94,T,-568.96,M,005.962,N,011.042,K,D*0B
$GPGGA,090119.00,5703.5138032,N,00952.4139184,E,2,11,1.0,-1.592,M,40.593,M,2.5,0123*6D
$GPVTG,071.02,T,-568.88,M,005.937,N,010.996,K,D*0B
$GPGGA,090119.05,5703.5138298,N,00952.4140671,E,2,11,1.0,-1.587,M,40.593,M,1.5,0123*6E
$GPVTG,071.47,T,-568.43,M,006.029,N,011.166,K,D*0E
$GPGGA,090119.10,5703.5138572,N,00952.4142143,E,2,11,1.0,-1.591,M,40.593,M,1.5,0123*6A
$GPVTG,071.39,T,-568.51,M,006.073,N,011.248,K,D*04
$GPGGA,090119.15,5703.5138841,N,00952.4143608,E,2,11,1.0,-1.594,M,40.593,M,1.5,0123*6E
$GPVTG,071.37,T,-568.53,M,006.085,N,011.270,K,D*0A
$GPGGA,090119.20,5703.5139107,N,00952.4145072,E,2,11,1.0,-1.591,M,40.593,M,1.5,0123*6A
$GPVTG,071.47,T,-568.43,M,006.088,N,011.274,K,D*05
$GPGGA,090119.25,5703.5139371,N,00952.4146507,E,2,11,1.0,-1.585,M,40.593,M,1.8,0123*60
$GPVTG,071.44,T,-568.46,M,006.024,N,011.156,K,D*06
$GPGGA,090119.30,5703.5139624,N,00952.4147941,E,2,11,1.0,-1.582,M,40.593,M,1.8,0123*69
$GPVTG,071.67,T,-568.23,M,005.972,N,011.061,K,D*08
$GPGGA,090119.35,5703.5139888,N,00952.4149395,E,2,11,1.0,-1.577,M,40.593,M,1.8,0123*63
$GPVTG,071.70,T,-568.20,M,005.985,N,011.085,K,D*0F
$GPGGA,090119.40,5703.5140152,N,00952.4150862,E,2,11,1.0,-1.576,M,40.593,M,1.8,0123*6B
$GPVTG,071.76,T,-568.14,M,006.022,N,011.152,K,D*02
$GPGGA,090119.45,5703.5140401,N,00952.4152320,E,2,11,1.0,-1.583,M,40.593,M,2.0,0123*63
$GPVTG,071.96,T,-567.94,M,006.044,N,011.194,K,D*01
$GPGGA,090119.50,5703.5140666,N,00952.4153779,E,2,11,1.0,-1.584,M,40.593,M,2.0,0123*6A
$GPVTG,071.86,T,-568.04,M,006.048,N,011.201,K,D*05
$GPGGA,090119.55,5703.5140937,N,00952.4155204,E,2,11,1.0,-1.584,M,40.593,M,2.0,0123*6D
$GPVTG,071.39,T,-568.51,M,005.993,N,011.099,K,D*0E
$GPGGA,090119.60,5703.5141208,N,00952.4156661,E,2,11,1.0,-1.586,M,40.593,M,2.0,0123*6B
$GPVTG,071.26,T,-568.64,M,006.014,N,011.138,K,D*09
$GPGGA,090119.65,5703.5141479,N,00952.4158121,E,2,11,1.0,-1.585,M,40.593,M,2.2,0123*62
$GPVTG,071.28,T,-568.62,M,006.025,N,011.158,K,D*05
$GPGGA,090119.70,5703.5141729,N,00952.4159579,E,2,11,1.0,-1.587,M,40.593,M,2.2,0123*6A
$GPVTG,071.75,T,-568.15,M,006.022,N,011.153,K,D*01
$GPGGA,090119.75,5703.5141985,N,00952.4161055,E,2,11,1.0,-1.589,M,40.593,M,2.2,0123*69
$GPVTG,072.07,T,-567.83,M,006.057,N,011.217,K,D*06
$GPGGA,090119.80,5703.5142246,N,00952.4162523,E,2,11,1.0,-1.590,M,40.593,M,2.2,0123*6B
$GPVTG,072.12,T,-567.78,M,006.070,N,011.241,K,D*00
$GPGGA,090119.85,5703.5142502,N,00952.4163963,E,2,11,1.0,-1.590,M,40.593,M,2.4,0123*66
$GPVTG,072.06,T,-567.84,M,006.022,N,011.152,K,D*00
$GPGGA,090119.90,5703.5142759,N,00952.4165399,E,2,11,1.0,-1.591,M,40.593,M,2.4,0123*66
$GPVTG,071.99,T,-567.91,M,005.980,N,011.075,K,D*07
$GPGGA,090119.95,5703.5143013,N,00952.4166851,E,2,11,1.0,-1.591,M,40.593,M,2.4,0123*67
$GPVTG,072.11,T,-567.79,M,005.977,N,011.070,K,D*0F
$GPGGA,090120.00,5703.5143271,N,00952.4168309,E,2,11,1.0,-1.593,M,40.593,M,2.4,0123*6D
$GPVTG,072.10,T,-567.80,M,005.995,N,011.102,K,D*00
$GPGGA,090120.05,5703.5143541,N,00952.4169771,E,2,11,1.0,-1.586,M,40.593,M,2.6,0123*60
$GPVTG,071.92,T,-567.98,M,006.022,N,011.152,K,D*03
$GPGGA,090120.10,5703.5143781,N,00952.4171225,E,2,11,1.0,-1.583,M,40.593,M,2.6,0123*62
$GPVTG,072.45,T,-567.45,M,006.002,N,011.115,K,D*0B
$GPGGA,090120.15,5703.5144022,N,00952.4172686,E,2,11,1.0,-1.578,M,40.593,M,2.6,0123*64
$GPVTG,072.83,T,-567.07,M,006.002,N,011.116,K,D*04
$GPGGA,090120.20,5703.5144264,N,00952.4174130,E,2,11,1.0,-1.572,M,40.593,M,2.6,0123*64
$GPVTG,072.99,T,-566.91,M,005.972,N,011.059,K,D*06
$GPGGA,090120.25,5703.5144511,N,00952.4175519,E,2,11,1.0,-1.571,M,40.593,M,2.9,0123*66
$GPVTG,072.44,T,-567.46,M,005.868,N,010.867,K,D*03
$GPGGA,090120.30,5703.5144770,N,00952.4176932,E,2,11,1.0,-1.567,M,40.593,M,2.9,0123*66
$GPVTG,071.98,T,-567.92,M,005.838,N,010.811,K,D*0C
$GPGGA,090120.35,5703.5145021,N,00952.4178366,E,2,11,1.0,-1.567,M,40.593,M,2.9,0123*64
$GPVTG,072.02,T,-567.88,M,005.855,N,010.843,K,D*0B
$GPGGA,090120.40,5703.5145269,N,00952.4179814,E,2,11,1.0,-1.567,M,40.593,M,2.9,0123*67
$GPVTG,072.23,T,-567.67,M,005.897,N,010.922,K,D*01
$GPGGA,090120.45,5703.5145526,N,00952.4181275,E,2,11,1.0,-1.566,M,40.593,M,3.1,0123*6C
$GPVTG,072.30,T,-567.60,M,005.952,N,011.022,K,D*04
$GPGGA,090120.50,5703.5145779,N,00952.4182728,E,2,11,1.0,-1.568,M,40.593,M,3.1,0123*60
$GPVTG,072.34,T,-567.56,M,005.980,N,011.075,K,D*08
$GPGGA,090120.55,5703.5146040,N,00952.4184204,E,2,11,1.0,-1.568,M,40.593,M,3.1,0123*66
$GPVTG,072.24,T,-567.66,M,006.049,N,011.204,K,D*01
$GPGGA,090120.60,5703.5146303,N,00952.4185651,E,2,11,1.0,-1.571,M,40.593,M,3.1,0123*69
$GPVTG,071.92,T,-567.98,M,006.043,N,011.192,K,D*08
$GPGGA,090120.65,5703.5146566,N,00952.4187081,E,2,11,1.0,-1.576,M,40.593,M,3.3,0123*65
$GPVTG,071.50,T,-568.40,M,006.014,N,011.137,K,D*01
$GPGGA,090120.70,5703.5146826,N,00952.4188512,E,2,11,1.0,-1.574,M,40.593,M,3.3,0123*6A
$GPVTG,071.40,T,-568.50,M,005.978,N,011.072,K,D*01
$GPGGA,090120.75,5703.5147070,N,00952.4189943,E,2,11,1.0,-1.572,M,40.593,M,3.3,0123*6A
$GPVTG,071.77,T,-568.13,M,005.937,N,010.995,K,D*08
$GPGGA,090120.80,5703.5147302,N,00952.4191375,E,2,11,1.0,-1.567,M,40.593,M,3.3,0123*64
$GPVTG,072.47,T,-567.43,M,005.901,N,010.929,K,D*00
$GPGGA,090120.85,5703.5147539,N,00952.4192792,E,2,11,1.0,-1.567,M,40.593,M,3.5,0123*67
$GPVTG,072.65,T,-567.25,M,005.864,N,010.861,K,D*0F
$GPGGA,090120.90,5703.5147781,N,00952.4194221,E,2,11,1.0,-1.563,M,40.593,M,3.5,0123*6D
$GPVTG,072.80,T,-567.10,M,005.857,N,010.847,K,D*06
$GPGGA,090120.95,5703.5148024,N,00952.4195637,E,2,11,1.0,-1.561,M,40.593,M,3.5,0123*6F
$GPVTG,072.78,T,-567.12,M,005.832,N,010.801,K,D*02
$GPGGA,090121.00,5703.5148262,N,00952.4197056,E,2,11,1.0,-1.558,M,40.593,M,3.5,0123*6B
$GPVTG,072.90,T,-567.00,M,005.820,N,010.779,K,D*04
$GPGGA,090121.05,5703.5148511,N,00952.4198497,E,2,11,1.0,-1.551,M,40.593,M,2.4,0123*62
$GPVTG,072.87,T,-567.03,M,005.854,N,010.841,K,D*06
$GPGGA,090121.10,5703.5148773,N,00952.4199943,E,2,11,1.0,-1.553,M,40.593,M,2.4,0123*67
$GPVTG,072.43,T,-567.47,M,005.913,N,010.951,K,D*0C
$GPGGA,090121.15,5703.5149022,N,00952.4201400,E,2,11,1.0,-1.557,M,40.593,M,2.4,0123*6C
$GPVTG,072.48,T,-567.42,M,005.966,N,011.049,K,D*01
$GPGGA,090121.20,5703.5149278,N,00952.4202862,E,2,11,1.0,-1.561,M,40.593,M,2.4,0123*69
$GPVTG,072.37,T,-567.53,M,006.017,N,011.144,K,D*09
$GPGGA,090121.25,5703.5149507,N,00952.4204312,E,2,11,1.0,-1.567,M,40.593,M,2.7,0123*6C
$GPVTG,072.79,T,-567.11,M,006.020,N,011.149,K,D*0C
$GPGGA,090121.30,5703.5149743,N,00952.4205743,E,2,11,1.0,-1.568,M,40.593,M,2.7,0123*64
$GPVTG,072.97,T,-566.93,M,005.968,N,011.052,K,D*0A
$GPGGA,090121.35,5703.5149999,N,00952.4207159,E,2,11,1.0,-1.565,M,40.593,M,2.7,0123*6A
$GPVTG,072.46,T,-567.44,M,005.917,N,010.958,K,D*07
$GPGGA,090121.40,5703.5150285,N,00952.4208569,E,2,11,1.0,-1.559,M,40.593,M,2.7,0123*61
$GPVTG,071.18,T,-568.72,M,005.898,N,010.924,K,D*08
$GPGGA,090121.45,5703.5150529,N,00952.4209978,E,2,11,1.0,-1.561,M,40.593,M,2.9,0123*6D
$GPVTG,071.31,T,-568.59,M,005.862,N,010.856,K,D*0B
$GPGGA,090121.50,5703.5150766,N,00952.4211411,E,2,11,1.0,-1.562,M,40.593,M,2.9,0123*68
$GPVTG,071.95,T,-567.95,M,005.864,N,010.859,K,D*03
$GPGGA,090121.55,5703.5151006,N,00952.4212846,E,2,11,1.0,-1.564,M,40.593,M,2.9,0123*66
$GPVTG,072.34,T,-567.56,M,005.876,N,010.882,K,D*01
$GPGGA,090121.60,5703.5151264,N,00952.4214284,E,2,11,1.0,-1.565,M,40.593,M,2.9,0123*65
$GPVTG,072.17,T,-567.73,M,005.907,N,010.941,K,D*0E
$GPGGA,090121.65,5703.5151525,N,00952.4215686,E,2,11,1.0,-1.570,M,40.593,M,3.2,0123*6B
$GPVTG,071.58,T,-568.32,M,005.881,N,010.891,K,D*0F
$GPGGA,090121.70,5703.5151787,N,00952.4217103,E,2,11,1.0,-1.570,M,40.593,M,3.2,0123*6D
$GPVTG,071.34,T,-568.56,M,005.877,N,010.885,K,D*0B
$GPGGA,090121.75,5703.5152019,N,00952.4218535,E,2,11,1.0,-1.570,M,40.593,M,3.2,0123*65
$GPVTG,072.14,T,-567.76,M,005.877,N,010.883,K,D*01
$GPGGA,090121.80,5703.5152267,N,00952.4219966,E,2,11,1.0,-1.571,M,40.593,M,3.2,0123*6E
$GPVTG,072.27,T,-567.63,M,005.888,N,010.905,K,D*0A
$GPGGA,090121.85,5703.5152529,N,00952.4221393,E,2,11,1.0,-1.569,M,40.593,M,3.4,0123*62
$GPVTG,072.00,T,-567.90,M,005.898,N,010.923,K,D*06
$GPGGA,090121.90,5703.5152774,N,00952.4222824,E,2,11,1.0,-1.567,M,40.593,M,3.4,0123*66
$GPVTG,072.22,T,-567.68,M,005.901,N,010.929,K,D*0A
$GPGGA,090121.95,5703.5153018,N,00952.4224243,E,2,11,1.0,-1.565,M,40.593,M,3.4,0123*60
$GPVTG,072.37,T,-567.53,M,005.878,N,010.885,K,D*0E
$GPGGA,090122.00,5703.5153257,N,00952.4225630,E,2,11,1.0,-1.559,M,40.593,M,3.4,0123*68
$GPVTG,072.42,T,-567.48,M,005.798,N,010.738,K,D*0E
$GPGGA,090122.05,5703.5153511,N,00952.4227016,E,2,11,1.0,-1.552,M,40.593,M,1.6,0123*63
$GPVTG,072.00,T,-567.90,M,005.752,N,010.653,K,D*07
$GPGGA,090122.10,5703.5153762,N,00952.4228433,E,2,11,1.0,-1.552,M,40.593,M,1.6,0123*6D
$GPVTG,071.99,T,-567.91,M,005.783,N,010.710,K,D*0F
$GPGGA,090122.15,5703.5153994,N,00952.4229866,E,2,11,1.0,-1.556,M,40.593,M,1.6,0123*66
$GPVTG,072.62,T,-567.28,M,005.824,N,010.785,K,D*04
$GPGGA,090122.20,5703.5154225,N,00952.4231305,E,2,11,1.0,-1.559,M,40.593,M,1.6,0123*6E
$GPVTG,073.15,T,-566.75,M,005.862,N,010.857,K,D*0E
$GPGGA,090122.25,5703.5154452,N,00952.4232744,E,2,11,1.0,-1.561,M,40.593,M,1.8,0123*6A
$GPVTG,073.56,T,-566.34,M,005.891,N,010.910,K,D*02
$GPGGA,090122.30,5703.5154689,N,00952.4234166,E,2,11,1.0,-1.560,M,40.593,M,1.8,0123*6B
$GPVTG,073.49,T,-566.41,M,005.878,N,010.886,K,D*07
$GPGGA,090122.35,5703.5154946,N,00952.4235580,E,2,11,1.0,-1.558,M,40.593,M,1.8,0123*64
$GPVTG,072.81,T,-567.09,M,005.871,N,010.872,K,D*0D
$GPGGA,090122.40,5703.5155199,N,00952.4237005,E,2,11,1.0,-1.562,M,40.593,M,1.8,0123*6E
$GPVTG,072.42,T,-567.48,M,005.881,N,010.892,K,D*06
$GPGGA,090122.45,5703.5155441,N,00952.4238443,E,2,11,1.0,-1.569,M,40.593,M,2.1,0123*63
$GPVTG,072.47,T,-567.43,M,005.914,N,010.953,K,D*09
$GPGGA,090122.50,5703.5155688,N,00952.4239905,E,2,11,1.0,-1.572,M,40.593,M,2.1,0123*64
$GPVTG,072.57,T,-567.33,M,005.974,N,011.065,K,D*04
$GPGGA,090122.55,5703.5155916,N,00952.4241344,E,2,11,1.0,-1.576,M,40.593,M,2.1,0123*6D
$GPVTG,073.07,T,-566.83,M,005.954,N,011.026,K,D*0F
