$GPGGA,093507.25,5703.3661028,N,00952.0997171,E,2,11,0.8,-1.939,M,40.593,M,1.8,0123*6C
$GPVTG,050.07,T,-589.83,M,006.827,N,012.643,K,D*0F
$GPGGA,093507.30,5703.3661606,N,00952.0998458,E,2,11,0.8,-1.940,M,40.593,M,1.8,0123*6D
$GPVTG,050.11,T,-589.79,M,006.723,N,012.452,K,D*04
$GPGGA,093507.35,5703.3662180,N,00952.0999748,E,2,11,0.8,-1.938,M,40.593,M,1.8,0123*6E
$GPVTG,050.33,T,-589.57,M,006.641,N,012.298,K,D*0D
$GPGGA,093507.40,5703.3662724,N,00952.1001037,E,2,11,0.8,-1.933,M,40.593,M,1.8,0123*69
$GPVTG,051.17,T,-588.73,M,006.519,N,012.073,K,D*04
$GPGGA,093507.45,5703.3663282,N,00952.1002311,E,2,11,0.8,-1.926,M,40.593,M,2.0,0123*6F
$GPVTG,051.31,T,-588.59,M,006.441,N,011.929,K,D*01
$GPGGA,093507.50,5703.3663852,N,00952.1003585,E,2,11,0.8,-1.921,M,40.593,M,2.0,0123*61
$GPVTG,051.09,T,-588.81,M,006.422,N,011.894,K,D*0D
$GPGGA,093507.55,5703.3664425,N,00952.1004880,E,2,11,0.8,-1.917,M,40.593,M,2.0,0123*65
$GPVTG,051.11,T,-588.79,M,006.458,N,011.961,K,D*05
$GPGGA,093507.60,5703.3664995,N,00952.1006164,E,2,11,0.8,-1.912,M,40.593,M,2.0,0123*61
$GPVTG,051.05,T,-588.85,M,006.465,N,011.973,K,D*0E
$GPGGA,093507.65,5703.3665557,N,00952.1007436,E,2,11,0.8,-1.905,M,40.593,M,2.3,0123*61
$GPVTG,051.03,T,-588.87,M,006.438,N,011.923,K,D*07
$GPGGA,093507.70,5703.3666117,N,00952.1008723,E,2,11,0.8,-1.900,M,40.593,M,2.3,0123*6B
$GPVTG,051.24,T,-588.66,M,006.444,N,011.934,K,D*00
$GPGGA,093507.75,5703.3666690,N,00952.1010033,E,2,11,0.8,-1.896,M,40.593,M,2.3,0123*67
$GPVTG,051.35,T,-588.55,M,006.516,N,012.067,K,D*0A
$GPGGA,093507.80,5703.3667275,N,00952.1011354,E,2,11,0.8,-1.897,M,40.593,M,2.3,0123*61
$GPVTG,051.23,T,-588.67,M,006.610,N,012.242,K,D*0C
$GPGGA,093507.85,5703.3667856,N,00952.1012672,E,2,11,0.8,-1.903,M,40.593,M,2.5,0123*67
$GPVTG,051.17,T,-588.73,M,006.661,N,012.337,K,D*0B
$GPGGA,093507.90,5703.3668456,N,00952.1013998,E,2,11,0.8,-1.912,M,40.593,M,2.5,0123*6A
$GPVTG,050.78,T,-589.12,M,006.740,N,012.483,K,D*0F
$GPGGA,093507.95,5703.3669066,N,00952.1015317,E,2,11,0.8,-1.920,M,40.593,M,2.5,0123*63
$GPVTG,050.19,T,-589.71,M,006.802,N,012.597,K,D*00
$GPGGA,093508.00,5703.3669649,N,00952.1016643,E,2,11,0.8,-1.930,M,40.593,M,2.5,0123*6D
$GPVTG,050.46,T,-589.44,M,006.789,N,012.574,K,D*0D
$GPGGA,093508.05,5703.3670239,N,00952.1017975,E,2,11,0.8,-1.938,M,40.593,M,2.7,0123*62
$GPVTG,050.73,T,-589.17,M,006.803,N,012.599,K,D*03
$GPGGA,093508.10,5703.3670824,N,00952.1019321,E,2,11,0.8,-1.947,M,40.593,M,2.7,0123*6D
$GPVTG,051.06,T,-588.84,M,006.808,N,012.609,K,D*0A
$GPGGA,093508.15,5703.3671391,N,00952.1020654,E,2,11,0.8,-1.951,M,40.593,M,2.7,0123*66
$GPVTG,051.55,T,-588.35,M,006.750,N,012.500,K,D*0E
$GPGGA,093508.20,5703.3671963,N,00952.1021974,E,2,11,0.8,-1.950,M,40.593,M,2.7,0123*6A
$GPVTG,051.61,T,-588.29,M,006.694,N,012.397,K,D*05
$GPGGA,093508.25,5703.3672531,N,00952.1023263,E,2,11,0.8,-1.946,M,40.593,M,2.9,0123*61
$GPVTG,051.41,T,-588.49,M,006.592,N,012.208,K,D*03
$GPGGA,093508.30,5703.3673095,N,00952.1024519,E,2,11,0.8,-1.936,M,40.593,M,2.9,0123*65
$GPVTG,050.93,T,-588.97,M,006.468,N,011.979,K,D*04
$GPGGA,093508.35,5703.3673658,N,00952.1025733,E,2,11,0.8,-1.922,M,40.593,M,2.9,0123*69
$GPVTG,050.17,T,-589.73,M,006.320,N,011.705,K,D*0D
$GPGGA,093508.40,5703.3674224,N,00952.1026984,E,2,11,0.8,-1.909,M,40.593,M,2.9,0123*6B
$GPVTG,050.07,T,-589.83,M,006.296,N,011.661,K,D*0C
$GPGGA,093508.45,5703.3674798,N,00952.1028250,E,2,11,0.8,-1.900,M,40.593,M,3.1,0123*60
$GPVTG,050.00,T,-589.90,M,006.342,N,011.745,K,D*06
$GPGGA,093508.50,5703.3675363,N,00952.1029534,E,2,11,0.8,-1.896,M,40.593,M,3.1,0123*6F
$GPVTG,050.46,T,-589.44,M,006.389,N,011.833,K,D*04
$GPGGA,093508.55,5703.3675942,N,00952.1030861,E,2,11,0.8,-1.897,M,40.593,M,3.1,0123*67
$GPVTG,050.95,T,-588.95,M,006.529,N,012.093,K,D*0A
$GPGGA,093508.60,5703.3676529,N,00952.1032205,E,2,11,0.8,-1.902,M,40.593,M,3.1,0123*64
$GPVTG,051.27,T,-588.63,M,006.670,N,012.353,K,D*0B
$GPGGA,093508.65,5703.3677133,N,00952.1033576,E,2,11,0.8,-1.912,M,40.593,M,3.3,0123*6E
$GPVTG,051.35,T,-588.55,M,006.841,N,012.670,K,D*05
$GPGGA,093508.70,5703.3677721,N,00952.1034942,E,2,11,0.8,-1.924,M,40.593,M,3.3,0123*66
$GPVTG,051.63,T,-588.27,M,006.904,N,012.785,K,D*08
$GPGGA,093508.75,5703.3678295,N,00952.1036302,E,2,11,0.8,-1.931,M,40.593,M,3.3,0123*6E
$GPVTG,052.02,T,-587.88,M,006.894,N,012.767,K,D*02
$GPGGA,093508.80,5703.3678867,N,00952.1037636,E,2,11,0.8,-1.936,M,40.593,M,3.3,0123*67
$GPVTG,052.04,T,-587.86,M,006.823,N,012.636,K,D*03
$GPGGA,093508.85,5703.3679431,N,00952.1038918,E,2,11,0.8,-1.936,M,40.593,M,3.5,0123*66
$GPVTG,051.63,T,-588.27,M,006.664,N,012.342,K,D*0E
$GPGGA,093508.90,5703.3679991,N,00952.1040173,E,2,11,0.8,-1.930,M,40.593,M,3.5,0123*69
$GPVTG,051.10,T,-588.80,M,006.500,N,012.039,K,D*09
$GPGGA,093508.95,5703.3680562,N,00952.1041444,E,2,11,0.8,-1.919,M,40.593,M,3.5,0123*61
$GPVTG,050.69,T,-589.21,M,006.442,N,011.931,K,D*09
$GPGGA,093509.00,5703.3681124,N,00952.1042712,E,2,11,0.8,-1.908,M,40.593,M,3.5,0123*68
$GPVTG,050.61,T,-589.29,M,006.393,N,011.840,K,D*05
$GPGGA,093509.05,5703.3681689,N,00952.1043976,E,2,11,0.8,-1.903,M,40.593,M,2.1,0123*6E
$GPVTG,050.57,T,-589.33,M,006.373,N,011.803,K,D*02
$GPGGA,093509.10,5703.3682262,N,00952.1045279,E,2,11,0.8,-1.906,M,40.593,M,2.1,0123*6F
$GPVTG,050.80,T,-589.10,M,006.446,N,011.938,K,D*01
$GPGGA,093509.15,5703.3682845,N,00952.1046598,E,2,11,0.8,-1.910,M,40.593,M,2.1,0123*69
$GPVTG,050.89,T,-589.01,M,006.552,N,012.133,K,D*0C
$GPGGA,093509.20,5703.3683439,N,00952.1047931,E,2,11,0.8,-1.913,M,40.593,M,2.1,0123*64
$GPVTG,050.88,T,-589.02,M,006.670,N,012.354,K,D*0E
$GPGGA,093509.25,5703.3684019,N,00952.1049266,E,2,11,0.8,-1.921,M,40.593,M,2.3,0123*64
$GPVTG,051.15,T,-588.75,M,006.729,N,012.463,K,D*04
$GPGGA,093509.30,5703.3684600,N,00952.1050588,E,2,11,0.8,-1.925,M,40.593,M,2.3,0123*65
$GPVTG,051.18,T,-588.72,M,006.735,N,012.473,K,D*02
$GPGGA,093509.35,5703.3685161,N,00952.1051916,E,2,11,0.8,-1.929,M,40.593,M,2.3,0123*67
$GPVTG,051.68,T,-588.22,M,006.701,N,012.410,K,D*02
$GPGGA,093509.40,5703.3685730,N,00952.1053217,E,2,11,0.8,-1.932,M,40.593,M,2.3,0123*65
$GPVTG,051.57,T,-588.33,M,006.640,N,012.297,K,D*03
$GPGGA,093509.45,5703.3686306,N,00952.1054528,E,2,11,0.8,-1.935,M,40.593,M,2.6,0123*6C
$GPVTG,051.39,T,-588.51,M,006.632,N,012.283,K,D*0F
$GPGGA,093509.50,5703.3686884,N,00952.1055846,E,2,11,0.8,-1.937,M,40.593,M,2.6,0123*6F
$GPVTG,051.30,T,-588.60,M,006.638,N,012.293,K,D*0F
$GPGGA,093509.55,5703.3687435,N,00952.1057167,E,2,11,0.8,-1.938,M,40.593,M,2.6,0123*6A
$GPVTG,051.89,T,-588.01,M,006.593,N,012.210,K,D*03
$GPGGA,093509.60,5703.3687990,N,00952.1058462,E,2,11,0.8,-1.935,M,40.593,M,2.6,0123*6C
$GPVTG,051.92,T,-587.98,M,006.525,N,012.084,K,D*04
$GPGGA,093509.65,5703.3688525,N,00952.1059757,E,2,11,0.8,-1.926,M,40.593,M,2.9,0123*6D
$GPVTG,052.40,T,-587.50,M,006.440,N,011.927,K,D*0D
$GPGGA,093509.70,5703.3689077,N,00952.1061081,E,2,11,0.8,-1.921,M,40.593,M,2.9,0123*6A
$GPVTG,052.70,T,-587.20,M,006.469,N,011.980,K,D*0F
$GPGGA,093509.75,5703.3689635,N,00952.1062406,E,2,11,0.8,-1.919,M,40.593,M,2.9,0123*6C
$GPVTG,052.70,T,-587.20,M,006.509,N,012.055,K,D*0A
$GPGGA,093509.80,5703.3690191,N,00952.1063731,E,2,11,0.8,-1.924,M,40.593,M,2.9,0123*6F
$GPVTG,052.70,T,-587.20,M,006.536,N,012.104,K,D*03
$GPGGA,093509.85,5703.3690773,N,00952.1065076,E,2,11,0.8,-1.926,M,40.593,M,3.1,0123*69
$GPVTG,052.26,T,-587.64,M,006.643,N,012.302,K,D*05
$GPGGA,093509.90,5703.3691343,N,00952.1066393,E,2,11,0.8,-1.926,M,40.593,M,3.1,0123*60
$GPVTG,051.92,T,-587.98,M,006.643,N,012.302,K,D*0A
$GPGGA,093509.95,5703.3691897,N,00952.1067676,E,2,11,0.8,-1.921,M,40.593,M,3.1,0123*6F
$GPVTG,051.65,T,-588.25,M,006.552,N,012.135,K,D*0E
$GPGGA,093510.00,5703.3692440,N,00952.1068947,E,2,11,0.8,-1.918,M,40.593,M,3.1,0123*66
$GPVTG,051.62,T,-588.28,M,006.446,N,011.938,K,D*06
$GPGGA,093510.05,5703.3693013,N,00952.1070247,E,2,11,0.8,-1.915,M,40.593,M,1.7,0123*6B
$GPVTG,051.34,T,-588.56,M,006.489,N,012.017,K,D*08
$GPGGA,093510.10,5703.3693606,N,00952.1071556,E,2,11,0.8,-1.914,M,40.593,M,1.7,0123*6A
$GPVTG,050.74,T,-589.16,M,006.578,N,012.183,K,D*0B
$GPGGA,093510.15,5703.3694187,N,00952.1072893,E,2,11,0.8,-1.918,M,40.593,M,1.7,0123*6D
$GPVTG,050.92,T,-588.98,M,006.664,N,012.341,K,D*06
$GPGGA,093510.20,5703.3694765,N,00952.1074240,E,2,11,0.8,-1.926,M,40.593,M,1.7,0123*6E
$GPVTG,051.27,T,-588.63,M,006.727,N,012.458,K,D*04
$GPGGA,093510.25,5703.3695335,N,00952.1075573,E,2,11,0.8,-1.926,M,40.593,M,1.9,0123*63
$GPVTG,051.56,T,-588.34,M,006.721,N,012.447,K,D*08
$GPGGA,093510.30,5703.3695897,N,00952.1076895,E,2,11,0.8,-1.929,M,40.593,M,1.9,0123*6D
$GPVTG,051.81,T,-588.09,M,006.679,N,012.369,K,D*0B
$GPGGA,093510.35,5703.3696457,N,00952.1078231,E,2,11,0.8,-1.930,M,40.593,M,1.9,0123*69
$GPVTG,052.16,T,-587.74,M,006.662,N,012.339,K,D*0C
$GPGGA,093510.40,5703.3697023,N,00952.1079578,E,2,11,0.8,-1.932,M,40.593,M,1.9,0123*64
$GPVTG,052.38,T,-587.52,M,006.681,N,012.373,K,D*07
$GPGGA,093510.45,5703.3697603,N,00952.1080908,E,2,11,0.8,-1.941,M,40.593,M,2.2,0123*64
$GPVTG,051.95,T,-587.95,M,006.697,N,012.403,K,D*0F
$GPGGA,093510.50,5703.3698184,N,00952.1082243,E,2,11,0.8,-1.942,M,40.593,M,2.2,0123*62
$GPVTG,051.71,T,-588.19,M,006.713,N,012.432,K,D*01
$GPGGA,093510.55,5703.3698754,N,00952.1083578,E,2,11,0.8,-1.946,M,40.593,M,2.2,0123*66
$GPVTG,051.78,T,-588.12,M,006.699,N,012.406,K,D*07
$GPGGA,093510.60,5703.3699298,N,00952.1084909,E,2,11,0.8,-1.948,M,40.593,M,2.2,0123*67
$GPVTG,052.38,T,-587.52,M,006.625,N,012.270,K,D*0B
$GPGGA,093510.65,5703.3699837,N,00952.1086207,E,2,11,0.8,-1.942,M,40.593,M,2.4,0123*66
$GPVTG,052.58,T,-587.32,M,006.510,N,012.057,K,D*09
$GPGGA,093510.70,5703.3700369,N,00952.1087493,E,2,11,0.8,-1.930,M,40.593,M,2.4,0123*6C
$GPVTG,052.75,T,-587.15,M,006.401,N,011.855,K,D*0B
$GPGGA,093510.75,5703.3700893,N,00952.1088802,E,2,11,0.8,-1.919,M,40.593,M,2.4,0123*67
$GPVTG,053.31,T,-586.59,M,006.355,N,011.769,K,D*05
$GPGGA,093510.80,5703.3701440,N,00952.1090117,E,2,11,0.8,-1.909,M,40.593,M,2.4,0123*6B
$GPVTG,053.22,T,-586.68,M,006.388,N,011.830,K,D*06
$GPGGA,093510.85,5703.3701979,N,00952.1091434,E,2,11,0.8,-1.896,M,40.593,M,2.7,0123*68
$GPVTG,053.33,T,-586.57,M,006.403,N,011.858,K,D*00
$GPGGA,093510.90,5703.3702533,N,00952.1092756,E,2,11,0.8,-1.895,M,40.593,M,2.7,0123*6A
$GPVTG,053.04,T,-586.86,M,006.465,N,011.973,K,D*00
$GPGGA,093510.95,5703.3703103,N,00952.1094105,E,2,11,0.8,-1.898,M,40.593,M,2.7,0123*62
$GPVTG,052.74,T,-587.16,M,006.585,N,012.195,K,D*02
$GPGGA,093511.00,5703.3703684,N,00952.1095468,E,2,11,0.8,-1.905,M,40.593,M,2.7,0123*6D
$GPVTG,052.39,T,-587.51,M,006.714,N,012.434,K,D*0C
$GPGGA,093511.05,5703.3704287,N,00952.1096833,E,2,11,0.8,-1.913,M,40.593,M,1.6,0123*6C
$GPVTG,051.77,T,-588.13,M,006.851,N,012.687,K,D*08
$GPGGA,093511.10,5703.3704878,N,00952.1098218,E,2,11,0.8,-1.926,M,40.593,M,1.6,0123*69
$GPVTG,051.71,T,-588.19,M,006.940,N,012.852,K,D*03
$GPGGA,093511.15,5703.3705450,N,00952.1099609,E,2,11,0.8,-1.938,M,40.593,M,1.6,0123*61
$GPVTG,052.16,T,-587.74,M,006.957,N,012.883,K,D*0F
$GPGGA,093511.20,5703.3706023,N,00952.1100964,E,2,11,0.8,-1.941,M,40.593,M,1.6,0123*6F
$GPVTG,052.10,T,-587.80,M,006.898,N,012.775,K,D*06
$GPGGA,093511.25,5703.3706571,N,00952.1102288,E,2,11,0.8,-1.945,M,40.593,M,1.8,0123*69
$GPVTG,052.29,T,-587.61,M,006.745,N,012.493,K,D*07
$GPGGA,093511.30,5703.3707107,N,00952.1103598,E,2,11,0.8,-1.941,M,40.593,M,1.8,0123*6A
$GPVTG,052.58,T,-587.32,M,006.585,N,012.196,K,D*09
$GPGGA,093511.35,5703.3707644,N,00952.1104919,E,2,11,0.8,-1.933,M,40.593,M,1.8,0123*68
$GPVTG,052.95,T,-586.95,M,006.498,N,012.034,K,D*00
$GPGGA,093511.40,5703.3708183,N,00952.1106222,E,2,11,0.8,-1.929,M,40.593,M,1.8,0123*63
$GPVTG,052.94,T,-586.96,M,006.421,N,011.892,K,D*07
$GPGGA,093511.45,5703.3708726,N,00952.1107536,E,2,11,0.8,-1.923,M,40.593,M,2.0,0123*6D
$GPVTG,052.97,T,-586.93,M,006.407,N,011.865,K,D*0D
$GPGGA,093511.50,5703.3709280,N,00952.1108843,E,2,11,0.8,-1.910,M,40.593,M,2.0,0123*61
$GPVTG,052.64,T,-587.26,M,006.417,N,011.885,K,D*01
$GPGGA,093511.55,5703.3709831,N,00952.1110139,E,2,11,0.8,-1.903,M,40.593,M,2.0,0123*6B
$GPVTG,052.36,T,-587.54,M,006.412,N,011.875,K,D*09
$GPGGA,093511.60,5703.3710389,N,00952.1111468,E,2,11,0.8,-1.902,M,40.593,M,2.0,0123*6C
$GPVTG,052.37,T,-587.53,M,006.484,N,012.009,K,D*00
$GPGGA,093511.65,5703.3710954,N,00952.1112811,E,2,11,0.8,-1.901,M,40.593,M,2.3,0123*62
$GPVTG,052.38,T,-587.52,M,006.572,N,012.172,K,D*0B
$GPGGA,093511.70,5703.3711508,N,00952.1114198,E,2,11,0.8,-1.909,M,40.593,M,2.3,0123*64
$GPVTG,053.10,T,-586.80,M,006.687,N,012.384,K,D*0C
$GPGGA,093511.75,5703.3712066,N,00952.1115591,E,2,11,0.8,-1.917,M,40.593,M,2.3,0123*6C
$GPVTG,053.51,T,-586.39,M,006.780,N,012.556,K,D*04
$GPGGA,093511.80,5703.3712639,N,00952.1116980,E,2,11,0.8,-1.922,M,40.593,M,2.3,0123*63
$GPVTG,053.40,T,-586.50,M,006.853,N,012.692,K,D*01
$GPGGA,093511.85,5703.3713213,N,00952.1118358,E,2,11,0.8,-1.927,M,40.593,M,2.5,0123*69
$GPVTG,053.10,T,-586.80,M,006.879,N,012.739,K,D*01
$GPGGA,093511.90,5703.3713771,N,00952.1119706,E,2,11,0.8,-1.931,M,40.593,M,2.5,0123*65
$GPVTG,052.91,T,-586.99,M,006.802,N,012.598,K,D*04
$GPGGA,093511.95,5703.3714304,N,00952.1121025,E,2,11,0.8,-1.930,M,40.593,M,2.5,0123*6D
$GPVTG,053.04,T,-586.86,M,006.643,N,012.303,K,D*08
$GPGGA,093512.00,5703.3714839,N,00952.1122322,E,2,11,0.8,-1.920,M,40.593,M,2.5,0123*61
$GPVTG,052.90,T,-587.00,M,006.499,N,012.035,K,D*08
$GPGGA,093512.05,5703.3715390,N,00952.1123621,E,2,11,0.8,-1.915,M,40.593,M,2.7,0123*6E
$GPVTG,052.51,T,-587.39,M,006.450,N,011.946,K,D*04
$GPGGA,093512.10,5703.3715942,N,00952.1124960,E,2,11,0.8,-1.913,M,40.593,M,2.7,0123*64
$GPVTG,052.64,T,-587.26,M,006.489,N,012.017,K,D*06
$GPGGA,093512.15,5703.3716495,N,00952.1126315,E,2,11,0.8,-1.916,M,40.593,M,2.7,0123*6A
$GPVTG,052.91,T,-586.99,M,006.552,N,012.135,K,D*0F
$GPGGA,093512.20,5703.3717072,N,00952.1127662,E,2,11,0.8,-1.922,M,40.593,M,2.7,0123*63
$GPVTG,052.45,T,-587.45,M,006.636,N,012.290,K,D*0B
$GPGGA,093512.25,5703.3717642,N,00952.1129059,E,2,11,0.8,-1.930,M,40.593,M,2.9,0123*6E
$GPVTG,052.81,T,-587.09,M,006.765,N,012.528,K,D*08
$GPGGA,093512.30,5703.3718201,N,00952.1130452,E,2,11,0.8,-1.935,M,40.593,M,2.9,0123*64
$GPVTG,053.23,T,-586.67,M,006.818,N,012.627,K,D*01
$GPGGA,093512.35,5703.3718748,N,00952.1131804,E,2,11,0.8,-1.936,M,40.593,M,2.9,0123*64
$GPVTG,053.36,T,-586.54,M,006.754,N,012.508,K,D*0C
$GPGGA,093512.40,5703.3719290,N,00952.1133137,E,2,11,0.8,-1.931,M,40.593,M,2.9,0123*6B
$GPVTG,053.34,T,-586.56,M,006.661,N,012.337,K,D*01
$GPGGA,093512.45,5703.3719815,N,00952.1134454,E,2,11,0.8,-1.928,M,40.593,M,3.1,0123*6F
$GPVTG,053.55,T,-586.35,M,006.535,N,012.103,K,D*04
$GPGGA,093512.50,5703.3720353,N,00952.1135761,E,2,11,0.8,-1.921,M,40.593,M,3.1,0123*65
$GPVTG,053.29,T,-586.61,M,006.457,N,011.958,K,D*0E
$GPGGA,093512.55,5703.3720891,N,00952.1137068,E,2,11,0.8,-1.913,M,40.593,M,3.1,0123*68
$GPVTG,053.10,T,-586.80,M,006.412,N,011.875,K,D*04
$GPGGA,093512.60,5703.3721440,N,00952.1138380,E,2,11,0.8,-1.906,M,40.593,M,3.1,0123*61
$GPVTG,052.81,T,-587.09,M,006.420,N,011.890,K,D*07
$GPGGA,093512.65,5703.3722000,N,00952.1139705,E,2,11,0.8,-1.901,M,40.593,M,3.3,0123*6A
$GPVTG,052.49,T,-587.41,M,006.478,N,011.996,K,D*05
$GPGGA,093512.70,5703.3722552,N,00952.1141049,E,2,11,0.8,-1.899,M,40.593,M,3.3,0123*6C
$GPVTG,052.66,T,-587.24,M,006.543,N,012.117,K,D*00
$GPGGA,093512.75,5703.3723100,N,00952.1142380,E,2,11,0.8,-1.900,M,40.593,M,3.3,0123*6F
$GPVTG,052.76,T,-587.14,M,006.556,N,012.142,K,D*06
$GPGGA,093512.80,5703.3723652,N,00952.1143735,E,2,11,0.8,-1.902,M,40.593,M,3.3,0123*6C
$GPVTG,052.98,T,-586.92,M,006.616,N,012.252,K,D*0C
$GPGGA,093512.85,5703.3724208,N,00952.1145101,E,2,11,0.8,-1.904,M,40.593,M,3.5,0123*62
$GPVTG,053.19,T,-586.71,M,006.675,N,012.362,K,D*0E
$GPGGA,093512.90,5703.3724767,N,00952.1146496,E,2,11,0.8,-1.911,M,40.593,M,3.5,0123*66
$GPVTG,053.50,T,-586.40,M,006.769,N,012.535,K,D*09
$GPGGA,093512.95,5703.3725331,N,00952.1147874,E,2,11,0.8,-1.919,M,40.593,M,3.5,0123*6C
$GPVTG,053.40,T,-586.50,M,006.806,N,012.606,K,D*0C
$GPGGA,093513.00,5703.3725892,N,00952.1149272,E,2,11,0.8,-1.931,M,40.593,M,3.5,0123*6B
$GPVTG,053.58,T,-586.32,M,006.850,N,012.686,K,D*0A
$GPGGA,093513.05,5703.3726453,N,00952.1150659,E,2,11,0.8,-1.942,M,40.593,M,2.1,0123*68
$GPVTG,053.65,T,-586.25,M,006.861,N,012.706,K,D*09
$GPGGA,093513.10,5703.3727009,N,00952.1152042,E,2,11,0.8,-1.949,M,40.593,M,2.1,0123*63
$GPVTG,053.65,T,-586.25,M,006.835,N,012.658,K,D*02
$GPGGA,093513.15,5703.3727539,N,00952.1153378,E,2,11,0.8,-1.949,M,40.593,M,2.1,0123*6B
$GPVTG,053.75,T,-586.15,M,006.682,N,012.376,K,D*0B
$GPGGA,093513.20,5703.3728061,N,00952.1154660,E,2,11,0.8,-1.941,M,40.593,M,2.1,0123*69
$GPVTG,053.44,T,-586.46,M,006.466,N,011.976,K,D*0E
$GPGGA,093513.25,5703.3728610,N,00952.1155947,E,2,11,0.8,-1.930,M,40.593,M,2.3,0123*63
$GPVTG,052.69,T,-587.21,M,006.385,N,011.826,K,D*0E
$GPGGA,093513.30,5703.3729142,N,00952.1157255,E,2,11,0.8,-1.923,M,40.593,M,2.3,0123*6E
$GPVTG,052.81,T,-587.09,M,006.349,N,011.757,K,D*0B
$GPGGA,093513.35,5703.3729665,N,00952.1158578,E,2,11,0.8,-1.914,M,40.593,M,2.3,0123*6A
$GPVTG,053.34,T,-586.56,M,006.342,N,011.746,K,D*04
$GPGGA,093513.40,5703.3730189,N,00952.1159912,E,2,11,0.8,-1.909,M,40.593,M,2.3,0123*68
$GPVTG,053.82,T,-586.08,M,006.373,N,011.802,K,D*0F
$GPGGA,093513.45,5703.3730725,N,00952.1161234,E,2,11,0.8,-1.904,M,40.593,M,2.6,0123*61
$GPVTG,053.71,T,-586.19,M,006.404,N,011.860,K,D*00
$GPGGA,093513.50,5703.3731270,N,00952.1162560,E,2,11,0.8,-1.899,M,40.593,M,2.6,0123*61
$GPVTG,053.45,T,-586.45,M,006.455,N,011.955,K,D*0D
$GPGGA,093513.55,5703.3731810,N,00952.1163897,E,2,11,0.8,-1.895,M,40.593,M,2.6,0123*60
$GPVTG,053.50,T,-586.40,M,006.501,N,012.040,K,D*02
$GPGGA,093513.60,5703.3732360,N,00952.1165241,E,2,11,0.8,-1.896,M,40.593,M,2.6,0123*6D
$GPVTG,053.34,T,-586.56,M,006.563,N,012.155,K,D*06
$GPGGA,093513.65,5703.3732920,N,00952.1166598,E,2,11,0.8,-1.898,M,40.593,M,2.9,0123*67
$GPVTG,053.14,T,-586.76,M,006.643,N,012.303,K,D*06
$GPGGA,093513.70,5703.3733471,N,00952.1167939,E,2,11,0.8,-1.904,M,40.593,M,2.9,0123*69
$GPVTG,053.02,T,-586.88,M,006.650,N,012.316,K,D*06
$GPGGA,093513.75,5703.3734023,N,00952.1169295,E,2,11,0.8,-1.909,M,40.593,M,2.9,0123*66
$GPVTG,053.07,T,-586.83,M,006.675,N,012.362,K,D*0C
$GPGGA,093513.80,5703.3734584,N,00952.1170668,E,2,11,0.8,-1.917,M,40.593,M,2.9,0123*65
$GPVTG,053.09,T,-586.81,M,006.735,N,012.473,K,D*02
$GPGGA,093513.85,5703.3735140,N,00952.1172044,E,2,11,0.8,-1.926,M,40.593,M,3.1,0123*6C
$GPVTG,053.26,T,-586.64,M,006.763,N,012.524,K,D*04
$GPGGA,093513.90,5703.3735692,N,00952.1173437,E,2,11,0.8,-1.938,M,40.593,M,3.1,0123*6E
$GPVTG,053.62,T,-586.28,M,006.797,N,012.587,K,D*0E
$GPGGA,093513.95,5703.3736238,N,00952.1174833,E,2,11,0.8,-1.947,M,40.593,M,3.1,0123*6B
$GPVTG,054.02,T,-585.88,M,006.805,N,012.603,K,D*0D
$GPGGA,093514.00,5703.3736798,N,00952.1176192,E,2,11,0.8,-1.957,M,40.593,M,3.1,0123*6E
$GPVTG,053.58,T,-586.32,M,006.767,N,012.533,K,D*0C
$GPGGA,093514.05,5703.3737349,N,00952.1177520,E,2,11,0.8,-1.962,M,40.593,M,1.7,0123*6C
$GPVTG,053.16,T,-586.74,M,006.678,N,012.367,K,D*0C
$GPGGA,093514.10,5703.3737873,N,00952.1178801,E,2,11,0.8,-1.954,M,40.593,M,1.7,0123*6E
$GPVTG,052.96,T,-586.94,M,006.476,N,011.994,K,D*02
$GPGGA,093514.15,5703.3738368,N,00952.1180040,E,2,11,0.8,-1.936,M,40.593,M,1.7,0123*6B
$GPVTG,053.10,T,-586.80,M,006.214,N,011.508,K,D*03
$GPGGA,093514.20,5703.3738857,N,00952.1181301,E,2,11,0.8,-1.916,M,40.593,M,1.7,0123*6F
$GPVTG,053.72,T,-586.18,M,006.071,N,011.243,K,D*0F
$GPGGA,093514.25,5703.3739349,N,00952.1182599,E,2,11,0.8,-1.902,M,40.593,M,1.9,0123*60
$GPVTG,054.52,T,-585.38,M,006.062,N,011.227,K,D*0B
$GPGGA,093514.30,5703.3739861,N,00952.1183904,E,2,11,0.8,-1.891,M,40.593,M,1.9,0123*67
$GPVTG,054.66,T,-585.24,M,006.127,N,011.346,K,D*07
$GPGGA,093514.35,5703.3740386,N,00952.1185226,E,2,11,0.8,-1.887,M,40.593,M,1.9,0123*64
$GPVTG,054.56,T,-585.34,M,006.241,N,011.559,K,D*0E
$GPGGA,093514.40,5703.3740931,N,00952.1186571,E,2,11,0.8,-1.887,M,40.593,M,1.9,0123*66
$GPVTG,054.21,T,-585.69,M,006.405,N,011.862,K,D*05
$GPGGA,093514.45,5703.3741476,N,00952.1187941,E,2,11,0.8,-1.888,M,40.593,M,2.2,0123*65
$GPVTG,054.19,T,-585.71,M,006.558,N,012.146,K,D*02
$GPGGA,093514.50,5703.3742026,N,00952.1189332,E,2,11,0.8,-1.895,M,40.593,M,2.2,0123*6F
$GPVTG,054.18,T,-585.72,M,006.704,N,012.416,K,D*0B
$GPGGA,093514.55,5703.3742575,N,00952.1190744,E,2,11,0.8,-1.909,M,40.593,M,2.2,0123*60
$GPVTG,054.40,T,-585.50,M,006.826,N,012.643,K,D*0B
$GPGGA,093514.60,5703.3743140,N,00952.1192153,E,2,11,0.8,-1.928,M,40.593,M,2.2,0123*64
$GPVTG,054.12,T,-585.78,M,006.919,N,012.815,K,D*06
$GPGGA,093514.65,5703.3743699,N,00952.1193570,E,2,11,0.8,-1.945,M,40.593,M,2.4,0123*6B
$GPVTG,054.11,T,-585.79,M,006.966,N,012.901,K,D*08
$GPGGA,093514.70,5703.3744254,N,00952.1194978,E,2,11,0.8,-1.959,M,40.593,M,2.4,0123*63
$GPVTG,054.05,T,-585.85,M,006.961,N,012.891,K,D*01
$GPGGA,093514.75,5703.3744801,N,00952.1196311,E,2,11,0.8,-1.963,M,40.593,M,2.4,0123*62
$GPVTG,053.46,T,-586.44,M,006.799,N,012.592,K,D*08
$GPGGA,093514.80,5703.3745335,N,00952.1197585,E,2,11,0.8,-1.961,M,40.593,M,2.4,0123*6D
$GPVTG,052.70,T,-587.20,M,006.556,N,012.142,K,D*07
$GPGGA,093514.85,5703.3745858,N,00952.1198878,E,2,11,0.8,-1.956,M,40.593,M,2.7,0123*6F
$GPVTG,052.71,T,-587.19,M,006.404,N,011.860,K,D*00
$GPGGA,093514.90,5703.3746369,N,00952.1200174,E,2,11,0.8,-1.946,M,40.593,M,2.7,0123*67
$GPVTG,053.14,T,-586.76,M,006.290,N,011.650,K,D*0C
$GPGGA,093514.95,5703.3746882,N,00952.1201469,E,2,11,0.8,-1.934,M,40.593,M,2.7,0123*61
$GPVTG,053.46,T,-586.44,M,006.231,N,011.539,K,D*0D
$GPGGA,093515.00,5703.3747395,N,00952.1202795,E,2,11,0.8,-1.925,M,40.593,M,2.7,0123*63
$GPVTG,054.11,T,-585.79,M,006.257,N,011.588,K,D*0F
$GPGGA,093515.05,5703.3747905,N,00952.1204135,E,2,11,0.8,-1.914,M,40.593,M,1.6,0123*6F
$GPVTG,054.78,T,-585.12,M,006.310,N,011.686,K,D*02
$GPGGA,093515.10,5703.3748438,N,00952.1205488,E,2,11,0.8,-1.910,M,40.593,M,1.6,0123*61
$GPVTG,054.77,T,-585.13,M,006.416,N,011.882,K,D*07
$GPGGA,093515.15,5703.3748970,N,00952.1206857,E,2,11,0.8,-1.914,M,40.593,M,1.6,0123*6C
$GPVTG,054.86,T,-585.04,M,006.521,N,012.076,K,D*0A
$GPGGA,093515.20,5703.3749491,N,00952.1208242,E,2,11,0.8,-1.913,M,40.593,M,1.6,0123*6E
$GPVTG,055.30,T,-584.60,M,006.592,N,012.208,K,D*06
$GPGGA,093515.25,5703.3750034,N,00952.1209592,E,2,11,0.8,-1.908,M,40.593,M,1.8,0123*67
$GPVTG,054.67,T,-585.23,M,006.617,N,012.256,K,D*06
$GPGGA,093515.30,5703.3750567,N,00952.1210938,E,2,11,0.8,-1.907,M,40.593,M,1.8,0123*6B
$GPVTG,054.36,T,-585.54,M,006.606,N,012.233,K,D*01
$GPGGA,093515.35,5703.3751104,N,00952.1212308,E,2,11,0.8,-1.910,M,40.593,M,1.8,0123*63
$GPVTG,054.30,T,-585.60,M,006.638,N,012.293,K,D*07
$GPGGA,093515.40,5703.3751647,N,00952.1213697,E,2,11,0.8,-1.915,M,40.593,M,1.8,0123*66
$GPVTG,054.30,T,-585.60,M,006.699,N,012.406,K,D*06
$GPGGA,093515.45,5703.3752187,N,00952.1215109,E,2,11,0.8,-1.925,M,40.593,M,2.0,0123*65
$GPVTG,054.61,T,-585.29,M,006.769,N,012.537,K,D*02
$GPGGA,093515.50,5703.3752731,N,00952.1216526,E,2,11,0.8,-1.936,M,40.593,M,2.0,0123*62
$GPVTG,054.77,T,-585.13,M,006.826,N,012.642,K,D*09
$GPGGA,093515.55,5703.3753263,N,00952.1217940,E,2,11,0.8,-1.948,M,40.593,M,2.0,0123*60
$GPVTG,055.08,T,-584.82,M,006.828,N,012.646,K,D*03
$GPGGA,093515.60,5703.3753813,N,00952.1219359,E,2,11,0.8,-1.957,M,40.593,M,2.0,0123*69
$GPVTG,054.93,T,-584.97,M,006.864,N,012.711,K,D*0F
$GPGGA,093515.65,5703.3754362,N,00952.1220759,E,2,11,0.8,-1.966,M,40.593,M,2.3,0123*69
$GPVTG,054.63,T,-585.27,M,006.848,N,012.683,K,D*0E
$GPGGA,093515.70,5703.3754894,N,00952.1222114,E,2,11,0.8,-1.966,M,40.593,M,2.3,0123*62
$GPVTG,054.34,T,-585.56,M,006.722,N,012.449,K,D*0D
$GPGGA,093515.75,5703.3755418,N,00952.1223400,E,2,11,0.8,-1.957,M,40.593,M,2.3,0123*6D
$GPVTG,053.61,T,-586.29,M,006.501,N,012.039,K,D*01
$GPGGA,093515.80,5703.3755931,N,00952.1224670,E,2,11,0.8,-1.940,M,40.593,M,2.3,0123*65
$GPVTG,053.25,T,-586.65,M,006.307,N,011.681,K,D*0F
$GPGGA,093515.85,5703.3756444,N,00952.1225948,E,2,11,0.8,-1.922,M,40.593,M,2.5,0123*6B
$GPVTG,053.17,T,-586.73,M,006.200,N,011.483,K,D*0F
$GPGGA,093515.90,5703.3756945,N,00952.1227256,E,2,11,0.8,-1.906,M,40.593,M,2.5,0123*63
$GPVTG,053.84,T,-586.06,M,006.175,N,011.437,K,D*09
$GPGGA,093515.95,5703.3757435,N,00952.1228556,E,2,11,0.8,-1.894,M,40.593,M,2.5,0123*6F
$GPVTG,054.58,T,-585.32,M,006.138,N,011.368,K,D*0F
$GPGGA,093516.00,5703.3757925,N,00952.1229885,E,2,11,0.8,-1.885,M,40.593,M,2.5,0123*6E
$GPVTG,055.42,T,-584.48,M,006.177,N,011.441,K,D*0E
$GPGGA,093516.05,5703.3758431,N,00952.1231250,E,2,11,0.8,-1.871,M,40.593,M,2.7,0123*6E
$GPVTG,056.00,T,-583.90,M,006.309,N,011.684,K,D*09
$GPGGA,093516.10,5703.3758960,N,00952.1232636,E,2,11,0.8,-1.869,M,40.593,M,2.7,0123*6D
$GPVTG,055.89,T,-584.01,M,006.480,N,012.000,K,D*0B
$GPGGA,093516.15,5703.3759502,N,00952.1234039,E,2,11,0.8,-1.876,M,40.593,M,2.7,0123*60
$GPVTG,055.58,T,-584.32,M,006.652,N,012.319,K,D*01
$GPGGA,093516.20,5703.3760064,N,00952.1235480,E,2,11,0.8,-1.888,M,40.593,M,2.7,0123*6F
$GPVTG,055.18,T,-584.72,M,006.864,N,012.712,K,D*05
$GPGGA,093516.25,5703.3760618,N,00952.1236940,E,2,11,0.8,-1.908,M,40.593,M,2.9,0123*62
$GPVTG,055.24,T,-584.66,M,007.010,N,012.982,K,D*02
$GPGGA,093516.30,5703.3761164,N,00952.1238406,E,2,11,0.8,-1.926,M,40.593,M,2.9,0123*66
$GPVTG,055.46,T,-584.44,M,007.083,N,013.118,K,D*06
$GPGGA,093516.35,5703.3761710,N,00952.1239837,E,2,11,0.8,-1.936,M,40.593,M,2.9,0123*68
$GPVTG,055.26,T,-584.64,M,007.053,N,013.061,K,D*00
$GPGGA,093516.40,5703.3762249,N,00952.1241175,E,2,11,0.8,-1.937,M,40.593,M,2.9,0123*61
$GPVTG,054.31,T,-585.59,M,006.842,N,012.672,K,D*04
$GPGGA,093516.45,5703.3762766,N,00952.1242471,E,2,11,0.8,-1.938,M,40.593,M,3.1,0123*68
$GPVTG,053.72,T,-586.18,M,006.579,N,012.185,K,D*08
$GPGGA,093516.50,5703.3763285,N,00952.1243785,E,2,11,0.8,-1.935,M,40.593,M,3.1,0123*61
$GPVTG,053.54,T,-586.36,M,006.432,N,011.912,K,D*0B
$GPGGA,093516.55,5703.3763794,N,00952.1245112,E,2,11,0.8,-1.929,M,40.593,M,3.1,0123*62
$GPVTG,053.93,T,-585.97,M,006.347,N,011.755,K,D*00
$GPGGA,093516.60,5703.3764310,N,00952.1246436,E,2,11,0.8,-1.923,M,40.593,M,3.1,0123*61
$GPVTG,054.07,T,-585.83,M,006.312,N,011.690,K,D*07
$GPGGA,093516.65,5703.3764834,N,00952.1247769,E,2,11,0.8,-1.921,M,40.593,M,3.3,0123*61
$GPVTG,054.07,T,-585.83,M,006.339,N,011.740,K,D*02
$GPGGA,093516.70,5703.3765349,N,00952.1249116,E,2,11,0.8,-1.917,M,40.593,M,3.3,0123*60
$GPVTG,054.50,T,-585.40,M,006.373,N,011.803,K,D*09
$GPGGA,093516.75,5703.3765862,N,00952.1250477,E,2,11,0.8,-1.914,M,40.593,M,3.3,0123*6E
$GPVTG,055.01,T,-584.89,M,006.424,N,011.898,K,D*0F
$GPGGA,093516.80,5703.3766385,N,00952.1251842,E,2,11,0.8,-1.910,M,40.593,M,3.3,0123*6A
$GPVTG,055.11,T,-584.79,M,006.488,N,012.016,K,D*0A
$GPGGA,093516.85,5703.3766896,N,00952.1253220,E,2,11,0.8,-1.910,M,40.593,M,3.5,0123*6C
$GPVTG,055.59,T,-584.31,M,006.530,N,012.093,K,D*05
$GPGGA,093516.90,5703.3767410,N,00952.1254613,E,2,11,0.8,-1.915,M,40.593,M,3.5,0123*6D
$GPVTG,055.94,T,-583.96,M,006.588,N,012.202,K,D*07
$GPGGA,093516.95,5703.3767927,N,00952.1256012,E,2,11,0.8,-1.921,M,40.593,M,3.5,0123*63
$GPVTG,056.10,T,-583.80,M,006.641,N,012.298,K,D*0A
$GPGGA,093517.00,5703.3768447,N,00952.1257414,E,2,11,0.8,-1.928,M,40.593,M,3.5,0123*60
$GPVTG,056.14,T,-583.76,M,006.678,N,012.368,K,D*03
$GPGGA,093517.05,5703.3768965,N,00952.1258803,E,2,11,0.8,-1.926,M,40.593,M,2.1,0123*66
$GPVTG,056.11,T,-583.79,M,006.670,N,012.352,K,D*08
$GPGGA,093517.10,5703.3769469,N,00952.1260196,E,2,11,0.8,-1.930,M,40.593,M,2.1,0123*6B
$GPVTG,056.33,T,-583.57,M,006.640,N,012.296,K,D*0E
$GPGGA,093517.15,5703.3769966,N,00952.1261564,E,2,11,0.8,-1.927,M,40.593,M,2.1,0123*62
$GPVTG,056.39,T,-583.51,M,006.557,N,012.143,K,D*0C
$GPGGA,093517.20,5703.3770455,N,00952.1262878,E,2,11,0.8,-1.919,M,40.593,M,2.1,0123*6F
$GPVTG,056.09,T,-583.81,M,006.393,N,011.839,K,D*0B
$GPGGA,093517.25,5703.3770965,N,00952.1264195,E,2,11,0.8,-1.906,M,40.593,M,2.3,0123*64
$GPVTG,055.37,T,-584.53,M,006.325,N,011.714,K,D*00
$GPGGA,093517.30,5703.3771479,N,00952.1265508,E,2,11,0.8,-1.899,M,40.593,M,2.3,0123*67
$GPVTG,054.72,T,-585.18,M,006.298,N,011.665,K,D*0E
$GPGGA,093517.35,5703.3772003,N,00952.1266857,E,2,11,0.8,-1.896,M,40.593,M,2.3,0123*63
$GPVTG,054.45,T,-585.45,M,006.371,N,011.799,K,D*06
$GPGGA,093517.40,5703.3772533,N,00952.1268235,E,2,11,0.8,-1.901,M,40.593,M,2.3,0123*68
$GPVTG,054.50,T,-585.40,M,006.489,N,012.018,K,D*0A
$GPGGA,093517.45,5703.3773067,N,00952.1269623,E,2,11,0.8,-1.910,M,40.593,M,2.6,0123*6F
$GPVTG,054.54,T,-585.36,M,006.600,N,012.223,K,D*06
$GPGGA,093517.50,5703.3773608,N,00952.1271024,E,2,11,0.8,-1.922,M,40.593,M,2.6,0123*6D
$GPVTG,054.57,T,-585.33,M,006.706,N,012.419,K,D*08
$GPGGA,093517.55,5703.3774141,N,00952.1272446,E,2,11,0.8,-1.933,M,40.593,M,2.6,0123*66
$GPVTG,054.95,T,-584.95,M,006.792,N,012.579,K,D*01
$GPGGA,093517.60,5703.3774665,N,00952.1273862,E,2,11,0.8,-1.940,M,40.593,M,2.6,0123*6E
$GPVTG,055.39,T,-584.51,M,006.812,N,012.615,K,D*00
$GPGGA,093517.65,5703.3775164,N,00952.1275257,E,2,11,0.8,-1.944,M,40.593,M,2.9,0123*6D
$GPVTG,056.06,T,-583.84,M,006.729,N,012.463,K,D*04
$GPGGA,093517.70,5703.3775638,N,00952.1276628,E,2,11,0.8,-1.946,M,40.593,M,2.9,0123*6A
$GPVTG,056.86,T,-583.04,M,006.574,N,012.175,K,D*0C
$GPGGA,093517.75,5703.3776120,N,00952.1277967,E,2,11,0.8,-1.943,M,40.593,M,2.9,0123*62
$GPVTG,056.93,T,-582.97,M,006.423,N,011.895,K,D*04
$GPGGA,093517.80,5703.3776621,N,00952.1279300,E,2,11,0.8,-1.936,M,40.593,M,2.9,0123*69
$GPVTG,056.39,T,-583.51,M,006.348,N,011.757,K,D*04
$GPGGA,093517.85,5703.3777127,N,00952.1280658,E,2,11,0.8,-1.925,M,40.593,M,3.1,0123*69
$GPVTG,056.16,T,-583.74,M,006.354,N,011.768,K,D*0F
$GPGGA,093517.90,5703.3777620,N,00952.1282041,E,2,11,0.8,-1.922,M,40.593,M,3.1,0123*66
$GPVTG,056.56,T,-583.34,M,006.396,N,011.846,K,D*02
$GPGGA,093517.95,5703.3778110,N,00952.1283414,E,2,11,0.8,-1.916,M,40.593,M,3.1,0123*6A
$GPVTG,056.75,T,-583.15,M,006.409,N,011.870,K,D*04
$GPGGA,093518.00,5703.3778592,N,00952.1284787,E,2,11,0.8,-1.912,M,40.593,M,3.1,0123*6D
$GPVTG,057.09,T,-582.81,M,006.407,N,011.866,K,D*0B
$GPGGA,093518.05,5703.3779082,N,00952.1286165,E,2,11,0.8,-1.912,M,40.593,M,1.7,0123*61
$GPVTG,057.19,T,-582.71,M,006.434,N,011.915,K,D*00
$GPGGA,093518.10,5703.3779576,N,00952.1287550,E,2,11,0.8,-1.911,M,40.593,M,1.7,0123*6B
$GPVTG,057.16,T,-582.74,M,006.468,N,011.979,K,D*09
$GPGGA,093518.15,5703.3780070,N,00952.1288938,E,2,11,0.8,-1.909,M,40.593,M,1.7,0123*6F
$GPVTG,057.11,T,-582.79,M,006.498,N,012.035,K,D*0E
$GPGGA,093518.20,5703.3780570,N,00952.1290322,E,2,11,0.8,-1.908,M,40.593,M,1.7,0123*65
$GPVTG,056.86,T,-583.04,M,006.523,N,012.080,K,D*05
$GPGGA,093518.25,5703.3781072,N,00952.1291687,E,2,11,0.8,-1.904,M,40.593,M,1.9,0123*6F
$GPVTG,056.47,T,-583.43,M,006.501,N,012.040,K,D*07
$GPGGA,093518.30,5703.3781585,N,00952.1293059,E,2,11,0.8,-1.902,M,40.593,M,1.9,0123*67
$GPVTG,055.96,T,-583.94,M,006.523,N,012.080,K,D*0E
$GPGGA,093518.35,5703.3782095,N,00952.1294422,E,2,11,0.8,-1.902,M,40.593,M,1.9,0123*6A
$GPVTG,055.61,T,-584.29,M,006.518,N,012.072,K,D*02
$GPGGA,093518.40,5703.3782602,N,00952.1295796,E,2,11,0.8,-1.904,M,40.593,M,1.9,0123*6B
$GPVTG,055.56,T,-584.34,M,006.526,N,012.087,K,D*0D
$GPGGA,093518.45,5703.3783116,N,00952.1297169,E,2,11,0.8,-1.913,M,40.593,M,2.2,0123*67
$GPVTG,055.39,T,-584.51,M,006.547,N,012.124,K,D*08
$GPGGA,093518.50,5703.3783629,N,00952.1298543,E,2,11,0.8,-1.920,M,40.593,M,2.2,0123*6B
$GPVTG,055.34,T,-584.56,M,006.556,N,012.141,K,D*01
$GPGGA,093518.55,5703.3784147,N,00952.1299932,E,2,11,0.8,-1.925,M,40.593,M,2.2,0123*68
$GPVTG,055.38,T,-584.52,M,006.598,N,012.219,K,D*05
$GPGGA,093518.60,5703.3784654,N,00952.1301328,E,2,11,0.8,-1.934,M,40.593,M,2.2,0123*6A
$GPVTG,055.76,T,-584.14,M,006.613,N,012.247,K,D*06
$GPGGA,093518.65,5703.3785157,N,00952.1302751,E,2,11,0.8,-1.941,M,40.593,M,2.4,0123*67
$GPVTG,056.40,T,-583.50,M,006.658,N,012.331,K,D*08
$GPGGA,093518.70,5703.3785657,N,00952.1304171,E,2,11,0.8,-1.946,M,40.593,M,2.4,0123*61
$GPVTG,056.89,T,-583.01,M,006.672,N,012.357,K,D*01
$GPGGA,093518.75,5703.3786148,N,00952.1305585,E,2,11,0.8,-1.950,M,40.593,M,2.4,0123*67
$GPVTG,057.32,T,-582.58,M,006.653,N,012.321,K,D*0F
$GPGGA,093518.80,5703.3786633,N,00952.1306983,E,2,11,0.8,-1.952,M,40.593,M,2.4,0123*6D
$GPVTG,057.61,T,-582.29,M,006.592,N,012.209,K,D*0A
$GPGGA,093518.85,5703.3787113,N,00952.1308376,E,2,11,0.8,-1.958,M,40.593,M,2.7,0123*6B
$GPVTG,057.77,T,-582.13,M,006.537,N,012.106,K,D*07
$GPGGA,093518.90,5703.3787609,N,00952.1309701,E,2,11,0.8,-1.953,M,40.593,M,2.7,0123*6D
$GPVTG,056.83,T,-583.07,M,006.404,N,011.860,K,D*02
$GPGGA,093518.95,5703.3788089,N,00952.1310993,E,2,11,0.8,-1.939,M,40.593,M,2.7,0123*68
$GPVTG,056.19,T,-583.71,M,006.236,N,011.549,K,D*01
$GPGGA,093519.00,5703.3788566,N,00952.1312290,E,2,11,0.8,-1.921,M,40.593,M,2.7,0123*62
$GPVTG,055.90,T,-584.00,M,006.134,N,011.360,K,D*0E
$GPGGA,093519.05,5703.3789046,N,00952.1313611,E,2,11,0.8,-1.901,M,40.593,M,1.6,0123*6D
$GPVTG,056.07,T,-583.83,M,006.123,N,011.340,K,D*0B
$GPGGA,093519.10,5703.3789532,N,00952.1314933,E,2,11,0.8,-1.887,M,40.593,M,1.6,0123*68
$GPVTG,055.97,T,-583.93,M,006.150,N,011.389,K,D*01
$GPGGA,093519.15,5703.3790031,N,00952.1316279,E,2,11,0.8,-1.880,M,40.593,M,1.6,0123*63
$GPVTG,055.85,T,-584.05,M,006.246,N,011.568,K,D*07
$GPGGA,093519.20,5703.3790519,N,00952.1317631,E,2,11,0.8,-1.879,M,40.593,M,1.6,0123*65
$GPVTG,056.13,T,-583.77,M,006.307,N,011.681,K,D*09
$GPGGA,093519.25,5703.3791017,N,00952.1319003,E,2,11,0.8,-1.880,M,40.593,M,1.8,0123*6B
$GPVTG,056.27,T,-583.63,M,006.404,N,011.861,K,D*0F
$GPGGA,093519.30,5703.3791536,N,00952.1320410,E,2,11,0.8,-1.886,M,40.593,M,1.8,0123*63
$GPVTG,056.19,T,-583.71,M,006.567,N,012.162,K,D*0C
$GPGGA,093519.35,5703.3792057,N,00952.1321850,E,2,11,0.8,-1.897,M,40.593,M,1.8,0123*6E
$GPVTG,056.37,T,-583.53,M,006.731,N,012.466,K,D*00
$GPGGA,093519.40,5703.3792577,N,00952.1323298,E,2,11,0.8,-1.913,M,40.593,M,1.8,0123*6A
$GPVTG,056.55,T,-583.35,M,006.843,N,012.674,K,D*0F
$GPGGA,093519.45,5703.3793097,N,00952.1324746,E,2,11,0.8,-1.931,M,40.593,M,2.0,0123*6F
$GPVTG,056.65,T,-583.25,M,006.904,N,012.785,K,D*00
$GPGGA,093519.50,5703.3793616,N,00952.1326193,E,2,11,0.8,-1.948,M,40.593,M,2.0,0123*66
$GPVTG,056.69,T,-583.21,M,006.918,N,012.813,K,D*05
$GPGGA,093519.55,5703.3794125,N,00952.1327611,E,2,11,0.8,-1.960,M,40.593,M,2.0,0123*65
$GPVTG,056.65,T,-583.25,M,006.847,N,012.680,K,D*02
$GPGGA,093519.60,5703.3794625,N,00952.1329015,E,2,11,0.8,-1.968,M,40.593,M,2.0,0123*60
$GPVTG,056.68,T,-583.22,M,006.745,N,012.491,K,D*07
$GPGGA,093519.65,5703.3795108,N,00952.1330363,E,2,11,0.8,-1.974,M,40.593,M,2.3,0123*68
$GPVTG,056.57,T,-583.33,M,006.546,N,012.124,K,D*01
$GPGGA,093519.70,5703.3795568,N,00952.1331644,E,2,11,0.8,-1.964,M,40.593,M,2.3,0123*6E
$GPVTG,056.41,T,-583.49,M,006.249,N,011.573,K,D*06
$GPGGA,093519.75,5703.3796025,N,00952.1332938,E,2,11,0.8,-1.948,M,40.593,M,2.3,0123*6D
$GPVTG,056.60,T,-583.30,M,006.072,N,011.246,K,D*00
$GPGGA,093519.80,5703.3796490,N,00952.1334264,E,2,11,0.8,-1.936,M,40.593,M,2.3,0123*60
$GPVTG,056.95,T,-582.95,M,006.043,N,011.191,K,D*0F
$GPGGA,093519.85,5703.3796959,N,00952.1335605,E,2,11,0.8,-1.913,M,40.593,M,2.5,0123*6E
$GPVTG,057.31,T,-582.59,M,006.075,N,011.250,K,D*0B
$GPGGA,093519.90,5703.3797439,N,00952.1336931,E,2,11,0.8,-1.902,M,40.593,M,2.5,0123*6B
$GPVTG,057.03,T,-582.87,M,006.114,N,011.322,K,D*0B
$GPGGA,093519.95,5703.3797939,N,00952.1338278,E,2,11,0.8,-1.895,M,40.593,M,2.5,0123*64
$GPVTG,056.50,T,-583.40,M,006.228,N,011.534,K,D*0B
$GPGGA,093520.00,5703.3798443,N,00952.1339654,E,2,11,0.8,-1.895,M,40.593,M,2.5,0123*66
$GPVTG,056.33,T,-583.57,M,006.372,N,011.800,K,D*0C
$GPGGA,093520.05,5703.3798948,N,00952.1341059,E,2,11,0.8,-1.895,M,40.593,M,2.7,0123*63
$GPVTG,056.58,T,-583.32,M,006.519,N,012.074,K,D*01
$GPGGA,093520.10,5703.3799454,N,00952.1342490,E,2,11,0.8,-1.904,M,40.593,M,2.7,0123*6D
$GPVTG,056.87,T,-583.03,M,006.661,N,012.336,K,D*08
$GPGGA,093520.15,5703.3799957,N,00952.1343935,E,2,11,0.8,-1.915,M,40.593,M,2.7,0123*65
$GPVTG,057.22,T,-582.68,M,006.765,N,012.529,K,D*07
$GPGGA,093520.20,5703.3800465,N,00952.1345377,E,2,11,0.8,-1.926,M,40.593,M,2.7,0123*6A
$GPVTG,057.25,T,-582.65,M,006.824,N,012.637,K,D*0B
$GPGGA,093520.25,5703.3800960,N,00952.1346789,E,2,11,0.8,-1.930,M,40.593,M,2.9,0123*68
$GPVTG,057.27,T,-582.63,M,006.772,N,012.541,K,D*01
$GPGGA,093520.30,5703.3801450,N,00952.1348188,E,2,11,0.8,-1.937,M,40.593,M,2.9,0123*6D
$GPVTG,057.29,T,-582.61,M,006.687,N,012.385,K,D*08
$GPGGA,093520.35,5703.3801941,N,00952.1349572,E,2,11,0.8,-1.943,M,40.593,M,2.9,0123*66
$GPVTG,057.12,T,-582.78,M,006.599,N,012.221,K,D*0B
$GPGGA,093520.40,5703.3802429,N,00952.1350936,E,2,11,0.8,-1.942,M,40.593,M,2.9,0123*61
$GPVTG,056.86,T,-583.04,M,006.495,N,012.030,K,D*02
$GPGGA,093520.45,5703.3802912,N,00952.1352271,E,2,11,0.8,-1.938,M,40.593,M,3.1,0123*6F
$GPVTG,056.51,T,-583.39,M,006.371,N,011.798,K,D*0D
$GPGGA,093520.50,5703.3803385,N,00952.1353592,E,2,11,0.8,-1.932,M,40.593,M,3.1,0123*6F
$GPVTG,056.45,T,-583.45,M,006.248,N,011.572,K,D*0E
$GPGGA,093520.55,5703.3803888,N,00952.1354934,E,2,11,0.8,-1.928,M,40.593,M,3.1,0123*60
$GPVTG,055.92,T,-583.98,M,006.270,N,011.612,K,D*09
$GPGGA,093520.60,5703.3804387,N,00952.1356315,E,2,11,0.8,-1.924,M,40.593,M,3.1,0123*62
$GPVTG,056.08,T,-583.82,M,006.360,N,011.778,K,D*0F
$GPGGA,093520.65,5703.3804871,N,00952.1357704,E,2,11,0.8,-1.920,M,40.593,M,3.3,0123*66
$GPVTG,056.67,T,-583.23,M,006.411,N,011.874,K,D*0F
$GPGGA,093520.70,5703.3805349,N,00952.1359096,E,2,11,0.8,-1.922,M,40.593,M,3.3,0123*63
$GPVTG,057.28,T,-582.62,M,006.447,N,011.939,K,D*0A
$GPGGA,093520.75,5703.3805840,N,00952.1360492,E,2,11,0.8,-1.920,M,40.593,M,3.3,0123*6C
$GPVTG,057.39,T,-582.51,M,006.498,N,012.034,K,D*0F
$GPGGA,093520.80,5703.3806326,N,00952.1361891,E,2,11,0.8,-1.920,M,40.593,M,3.3,0123*60
$GPVTG,057.55,T,-582.35,M,006.528,N,012.089,K,D*0B
$GPGGA,093520.85,5703.3806812,N,00952.1363298,E,2,11,0.8,-1.922,M,40.593,M,3.5,0123*6C
$GPVTG,057.74,T,-582.16,M,006.556,N,012.141,K,D*05
$GPGGA,093520.90,5703.3807306,N,00952.1364706,E,2,11,0.8,-1.926,M,40.593,M,3.5,0123*66
$GPVTG,057.61,T,-582.29,M,006.590,N,012.204,K,D*05
$GPGGA,093520.95,5703.3807809,N,00952.1366107,E,2,11,0.8,-1.929,M,40.593,M,3.5,0123*6D
$GPVTG,057.22,T,-582.68,M,006.607,N,012.237,K,D*0A
$GPGGA,093521.00,5703.3808303,N,00952.1367488,E,2,11,0.8,-1.926,M,40.593,M,3.5,0123*62
$GPVTG,056.93,T,-582.97,M,006.568,N,012.164,K,D*0E
$GPGGA,093521.05,5703.3808789,N,00952.1368826,E,2,11,0.8,-1.919,M,40.593,M,2.1,0123*6F
$GPVTG,056.59,T,-583.31,M,006.447,N,011.940,K,D*04
$GPGGA,093521.10,5703.3809269,N,00952.1370187,E,2,11,0.8,-1.914,M,40.593,M,2.1,0123*67
$GPVTG,056.70,T,-583.20,M,006.390,N,011.835,K,D*01
$GPGGA,093521.15,5703.3809741,N,00952.1371590,E,2,11,0.8,-1.914,M,40.593,M,2.1,0123*6E
$GPVTG,057.43,T,-582.47,M,006.419,N,011.887,K,D*0F
$GPGGA,093521.20,5703.3810218,N,00952.1373005,E,2,11,0.8,-1.919,M,40.593,M,2.1,0123*6F
$GPVTG,057.94,T,-581.96,M,006.474,N,011.990,K,D*06
$GPGGA,093521.25,5703.3810726,N,00952.1374427,E,2,11,0.8,-1.928,M,40.593,M,2.3,0123*61
$GPVTG,057.56,T,-582.34,M,006.577,N,012.181,K,D*0A
$GPGGA,093521.30,5703.3811230,N,00952.1375855,E,2,11,0.8,-1.935,M,40.593,M,2.3,0123*62
$GPVTG,057.41,T,-582.49,M,006.653,N,012.321,K,D*0B
$GPGGA,093521.35,5703.3811730,N,00952.1377279,E,2,11,0.8,-1.938,M,40.593,M,2.3,0123*69
$GPVTG,057.31,T,-582.59,M,006.686,N,012.382,K,D*0C
$GPGGA,093521.40,5703.3812219,N,00952.1378647,E,2,11,0.8,-1.937,M,40.593,M,2.3,0123*6F
$GPVTG,056.99,T,-582.91,M,006.581,N,012.187,K,D*08
$GPGGA,093521.45,5703.3812703,N,00952.1379982,E,2,11,0.8,-1.926,M,40.593,M,2.6,0123*66
$GPVTG,056.55,T,-583.35,M,006.439,N,011.924,K,D*07
$GPGGA,093521.50,5703.3813184,N,00952.1381303,E,2,11,0.8,-1.919,M,40.593,M,2.6,0123*62
$GPVTG,056.22,T,-583.68,M,006.315,N,011.695,K,D*03
$GPGGA,093521.55,5703.3813676,N,00952.1382646,E,2,11,0.8,-1.910,M,40.593,M,2.6,0123*63
$GPVTG,055.98,T,-583.92,M,006.298,N,011.663,K,D*09
$GPGGA,093521.60,5703.3814161,N,00952.1384014,E,2,11,0.8,-1.903,M,40.593,M,2.6,0123*66
$GPVTG,056.32,T,-583.58,M,006.325,N,011.715,K,D*0B
$GPGGA,093521.65,5703.3814658,N,00952.1385387,E,2,11,0.8,-1.900,M,40.593,M,2.9,0123*6A
$GPVTG,056.33,T,-583.57,M,006.384,N,011.824,K,D*03
$GPGGA,093521.70,5703.3815156,N,00952.1386769,E,2,11,0.8,-1.905,M,40.593,M,2.9,0123*64
$GPVTG,056.42,T,-583.48,M,006.447,N,011.939,K,D*0E
$GPGGA,093521.75,5703.3815659,N,00952.1388176,E,2,11,0.8,-1.911,M,40.593,M,2.9,0123*6A
$GPVTG,056.61,T,-583.29,M,006.541,N,012.114,K,D*0B
$GPGGA,093521.80,5703.3816156,N,00952.1389594,E,2,11,0.8,-1.916,M,40.593,M,2.9,0123*65
$GPVTG,056.96,T,-582.94,M,006.613,N,012.247,K,D*05
$GPGGA,093521.85,5703.3816646,N,00952.1391014,E,2,11,0.8,-1.923,M,40.593,M,3.1,0123*6D
$GPVTG,057.38,T,-582.52,M,006.647,N,012.310,K,D*08
$GPGGA,093521.90,5703.3817136,N,00952.1392441,E,2,11,0.8,-1.929,M,40.593,M,3.1,0123*65
$GPVTG,057.72,T,-582.18,M,006.670,N,012.353,K,D*0B
$GPGGA,093521.95,5703.3817629,N,00952.1393845,E,2,11,0.8,-1.935,M,40.593,M,3.1,0123*6D
$GPVTG,057.60,T,-582.30,M,006.642,N,012.301,K,D*04
$GPGGA,093522.00,5703.3818133,N,00952.1395237,E,2,11,0.8,-1.939,M,40.593,M,3.1,0123*64
$GPVTG,057.10,T,-582.80,M,006.618,N,012.256,K,D*04
$GPGGA,093522.05,5703.3818639,N,00952.1396598,E,2,11,0.8,-1.936,M,40.593,M,1.7,0123*66
$GPVTG,056.45,T,-583.45,M,006.547,N,012.124,K,D*02
$GPGGA,093522.10,5703.3819137,N,00952.1397919,E,2,11,0.8,-1.926,M,40.593,M,1.7,0123*6F
$GPVTG,055.73,T,-584.17,M,006.415,N,011.881,K,D*07
$GPGGA,093522.15,5703.3819620,N,00952.1399245,E,2,11,0.8,-1.918,M,40.593,M,1.7,0123*6A
$GPVTG,055.67,T,-584.23,M,006.313,N,011.692,K,D*08
$GPGGA,093522.20,5703.3820124,N,00952.1400573,E,2,11,0.8,-1.914,M,40.593,M,1.7,0123*6C
$GPVTG,055.24,T,-584.66,M,006.294,N,011.657,K,D*09
$GPGGA,093522.25,5703.3820623,N,00952.1401936,E,2,11,0.8,-1.911,M,40.593,M,1.9,0123*6E
$GPVTG,055.47,T,-584.43,M,006.344,N,011.748,K,D*08
$GPGGA,093522.30,5703.3821128,N,00952.1403340,E,2,11,0.8,-1.912,M,40.593,M,1.9,0123*6D
$GPVTG,055.96,T,-583.94,M,006.468,N,011.978,K,D*0D
$GPGGA,093522.35,5703.3821643,N,00952.1404761,E,2,11,0.8,-1.919,M,40.593,M,1.9,0123*69
$GPVTG,056.22,T,-583.68,M,006.605,N,012.232,K,D*0D
$GPGGA,093522.40,5703.3822140,N,00952.1406200,E,2,11,0.8,-1.930,M,40.593,M,1.9,0123*67
$GPVTG,057.00,T,-582.90,M,006.689,N,012.387,K,D*01
$GPGGA,093522.45,5703.3822647,N,00952.1407652,E,2,11,0.8,-1.942,M,40.593,M,2.2,0123*6D
$GPVTG,057.35,T,-582.55,M,006.782,N,012.560,K,D*0B
$GPGGA,093522.50,5703.3823153,N,00952.1409091,E,2,11,0.8,-1.946,M,40.593,M,2.2,0123*69
$GPVTG,057.42,T,-582.48,M,006.806,N,012.605,K,D*04
$GPGGA,093522.55,5703.3823632,N,00952.1410475,E,2,11,0.8,-1.944,M,40.593,M,2.2,0123*68
$GPVTG,057.58,T,-582.32,M,006.662,N,012.338,K,D*05
$GPGGA,093522.60,5703.3824075,N,00952.1411799,E,2,11,0.8,-1.933,M,40.593,M,2.2,0123*6C
$GPVTG,057.97,T,-581.93,M,006.387,N,011.830,K,D*00
$GPGGA,093522.65,5703.3824513,N,00952.1413122,E,2,11,0.8,-1.919,M,40.593,M,2.4,0123*66
$GPVTG,058.41,T,-581.49,M,006.188,N,011.461,K,D*06
$GPGGA,093522.70,5703.3824976,N,00952.1414458,E,2,11,0.8,-1.903,M,40.593,M,2.4,0123*69
$GPVTG,058.22,T,-581.68,M,006.131,N,011.355,K,D*02
$GPGGA,093522.75,5703.3825457,N,00952.1415797,E,2,11,0.8,-1.889,M,40.593,M,2.4,0123*61
$GPVTG,057.61,T,-582.29,M,006.147,N,011.385,K,D*00
$GPGGA,093522.80,5703.3825944,N,00952.1417156,E,2,11,0.8,-1.881,M,40.593,M,2.4,0123*65
$GPVTG,057.18,T,-582.72,M,006.225,N,011.529,K,D*07
$GPGGA,093522.85,5703.3826448,N,00952.1418537,E,2,11,0.8,-1.878,M,40.593,M,2.7,0123*6B
$GPVTG,056.70,T,-583.20,M,006.357,N,011.774,K,D*00
$GPGGA,093522.90,5703.3826981,N,00952.1419929,E,2,11,0.8,-1.882,M,40.593,M,2.7,0123*60
$GPVTG,055.78,T,-584.12,M,006.527,N,012.087,K,D*04
$GPGGA,093522.95,5703.3827517,N,00952.1421351,E,2,11,0.8,-1.889,M,40.593,M,2.7,0123*62
$GPVTG,055.38,T,-584.52,M,006.700,N,012.408,K,D*00
$GPGGA,093523.00,5703.3828051,N,00952.1422767,E,2,11,0.8,-1.900,M,40.593,M,2.7,0123*65
$GPVTG,055.12,T,-584.78,M,006.797,N,012.588,K,D*07
$GPGGA,093523.05,5703.3828572,N,00952.1424196,E,2,11,0.8,-1.915,M,40.593,M,1.6,0123*6C
$GPVTG,055.48,T,-584.42,M,006.849,N,012.684,K,D*02
$GPGGA,093523.10,5703.3829081,N,00952.1425620,E,2,11,0.8,-1.925,M,40.593,M,1.6,0123*68
$GPVTG,055.90,T,-584.00,M,006.834,N,012.657,K,D*05
$GPGGA,093523.15,5703.3829584,N,00952.1427035,E,2,11,0.8,-1.934,M,40.593,M,1.6,0123*6D
$GPVTG,056.30,T,-583.60,M,006.782,N,012.560,K,D*08
$GPGGA,093523.20,5703.3830088,N,00952.1428469,E,2,11,0.8,-1.943,M,40.593,M,1.6,0123*68
$GPVTG,056.75,T,-583.15,M,006.768,N,012.534,K,D*0E
$GPGGA,093523.25,5703.3830587,N,00952.1429910,E,2,11,0.8,-1.954,M,40.593,M,1.8,0123*6D
$GPVTG,057.25,T,-582.65,M,006.758,N,012.516,K,D*0F
$GPGGA,093523.30,5703.3831094,N,00952.1431350,E,2,11,0.8,-1.961,M,40.593,M,1.8,0123*6E
$GPVTG,057.35,T,-582.55,M,006.758,N,012.515,K,D*0E
$GPGGA,093523.35,5703.3831588,N,00952.1432740,E,2,11,0.8,-1.963,M,40.593,M,1.8,0123*67
$GPVTG,057.23,T,-582.67,M,006.644,N,012.305,K,D*03
$GPGGA,093523.40,5703.3832070,N,00952.1434101,E,2,11,0.8,-1.958,M,40.593,M,1.8,0123*69
$GPVTG,057.15,T,-582.75,M,006.494,N,012.027,K,D*09
$GPGGA,093523.45,5703.3832506,N,00952.1435425,E,2,11,0.8,-1.948,M,40.593,M,2.0,0123*60
$GPVTG,057.84,T,-582.06,M,006.253,N,011.580,K,D*03
$GPGGA,093523.50,5703.3832935,N,00952.1436730,E,2,11,0.8,-1.927,M,40.593,M,2.0,0123*65
$GPVTG,058.43,T,-581.47,M,006.047,N,011.199,K,D*0A
$GPGGA,093523.55,5703.3833394,N,00952.1438043,E,2,11,0.8,-1.905,M,40.593,M,2.0,0123*6D
$GPVTG,058.15,T,-581.75,M,005.993,N,011.100,K,D*0B
$GPGGA,093523.60,5703.3833866,N,00952.1439345,E,2,11,0.8,-1.886,M,40.593,M,2.0,0123*63
$GPVTG,057.43,T,-582.47,M,005.987,N,011.087,K,D*0E
$GPGGA,093523.65,5703.3834344,N,00952.1440663,E,2,11,0.8,-1.862,M,40.593,M,2.3,0123*6C
$GPVTG,056.99,T,-582.91,M,006.035,N,011.176,K,D*0F
$GPGGA,093523.70,5703.3834844,N,00952.1442016,E,2,11,0.8,-1.852,M,40.593,M,2.3,0123*66
$GPVTG,056.42,T,-583.48,M,006.193,N,011.470,K,D*02
$GPGGA,093523.75,5703.3835334,N,00952.1443392,E,2,11,0.8,-1.851,M,40.593,M,2.3,0123*63
$GPVTG,056.55,T,-583.35,M,006.333,N,011.729,K,D*09
$GPGGA,093523.80,5703.3835830,N,00952.1444811,E,2,11,0.8,-1.859,M,40.593,M,2.3,0123*69
$GPVTG,056.94,T,-582.96,M,006.511,N,012.058,K,D*08
$GPGGA,093523.85,5703.3836351,N,00952.1446271,E,2,11,0.8,-1.872,M,40.593,M,2.5,0123*62
$GPVTG,056.97,T,-582.93,M,006.739,N,012.481,K,D*06
$GPGGA,093523.90,5703.3836897,N,00952.1447750,E,2,11,0.8,-1.892,M,40.593,M,2.5,0123*6E
$GPVTG,056.53,T,-583.37,M,006.962,N,012.894,K,D*09
$GPGGA,093523.95,5703.3837422,N,00952.1449242,E,2,11,0.8,-1.916,M,40.593,M,2.5,0123*6D
$GPVTG,056.79,T,-583.11,M,007.078,N,013.108,K,D*0B
$GPGGA,093524.00,5703.3837954,N,00952.1450749,E,2,11,0.8,-1.941,M,40.593,M,2.5,0123*6E
$GPVTG,056.91,T,-582.99,M,007.169,N,013.277,K,D*06
$GPGGA,093524.05,5703.3838465,N,00952.1452225,E,2,11,0.8,-1.964,M,40.593,M,2.7,0123*63
$GPVTG,057.21,T,-582.69,M,007.119,N,013.184,K,D*0B
$GPGGA,093524.10,5703.3838928,N,00952.1453594,E,2,11,0.8,-1.969,M,40.593,M,2.7,0123*62
$GPVTG,057.50,T,-582.40,M,006.783,N,012.561,K,D*0C
$GPGGA,093524.15,5703.3839379,N,00952.1454899,E,2,11,0.8,-1.958,M,40.593,M,2.7,0123*6D
$GPVTG,057.45,T,-582.45,M,006.405,N,011.861,K,D*0E
$GPGGA,093524.20,5703.3839822,N,00952.1456159,E,2,11,0.8,-1.939,M,40.593,M,2.7,0123*6E
$GPVTG,057.21,T,-582.69,M,006.061,N,011.226,K,D*0D
$GPGGA,093524.25,5703.3840268,N,00952.1457444,E,2,11,0.8,-1.926,M,40.593,M,2.9,0123*69
$GPVTG,057.28,T,-582.62,M,005.901,N,010.929,K,D*06
$GPGGA,093524.30,5703.3840725,N,00952.1458763,E,2,11,0.8,-1.914,M,40.593,M,2.9,0123*69
$GPVTG,057.46,T,-582.44,M,005.903,N,010.932,K,D*02
$GPGGA,093524.35,5703.3841200,N,00952.1460093,E,2,11,0.8,-1.901,M,40.593,M,2.9,0123*68
$GPVTG,057.25,T,-582.65,M,005.985,N,011.084,K,D*0F
$GPGGA,093524.40,5703.3841674,N,00952.1461425,E,2,11,0.8,-1.893,M,40.593,M,2.9,0123*6F
$GPVTG,057.13,T,-582.77,M,006.065,N,011.232,K,D*02
$GPGGA,093524.45,5703.3842149,N,00952.1462768,E,2,11,0.8,-1.887,M,40.593,M,3.1,0123*65
$GPVTG,057.12,T,-582.78,M,006.156,N,011.401,K,D*0B
$GPGGA,093524.50,5703.3842630,N,00952.1464136,E,2,11,0.8,-1.885,M,40.593,M,3.1,0123*61
$GPVTG,057.21,T,-582.69,M,006.277,N,011.625,K,D*0F
$GPGGA,093524.55,5703.3843109,N,00952.1465520,E,2,11,0.8,-1.885,M,40.593,M,3.1,0123*6A
$GPVTG,057.48,T,-582.42,M,006.385,N,011.825,K,D*0B
$GPGGA,093524.60,5703.3843604,N,00952.1466932,E,2,11,0.8,-1.890,M,40.593,M,3.1,0123*6E
$GPVTG,057.47,T,-582.43,M,006.530,N,012.094,K,D*0C
$GPGGA,093524.65,5703.3844103,N,00952.1468374,E,2,11,0.8,-1.898,M,40.593,M,3.3,0123*60
$GPVTG,057.68,T,-582.22,M,006.675,N,012.362,K,D*0E
$GPGGA,093524.70,5703.3844583,N,00952.1469827,E,2,11,0.8,-1.912,M,40.593,M,3.3,0123*67
$GPVTG,058.28,T,-581.62,M,006.748,N,012.497,K,D*00
$GPGGA,093524.75,5703.3845061,N,00952.1471266,E,2,11,0.8,-1.925,M,40.593,M,3.3,0123*68
$GPVTG,058.57,T,-581.33,M,006.752,N,012.505,K,D*0D
$GPGGA,093524.80,5703.3845552,N,00952.1472697,E,2,11,0.8,-1.937,M,40.593,M,3.3,0123*6D
$GPVTG,058.35,T,-581.55,M,006.746,N,012.493,K,D*02
$GPGGA,093524.85,5703.3846038,N,00952.1474102,E,2,11,0.8,-1.953,M,40.593,M,3.5,0123*6B
$GPVTG,057.98,T,-581.92,M,006.681,N,012.374,K,D*05
$GPGGA,093524.90,5703.3846510,N,00952.1475479,E,2,11,0.8,-1.956,M,40.593,M,3.5,0123*6D
$GPVTG,057.83,T,-582.07,M,006.548,N,012.127,K,D*02
$GPGGA,093524.95,5703.3846992,N,00952.1476824,E,2,11,0.8,-1.956,M,40.593,M,3.5,0123*69
$GPVTG,057.18,T,-582.72,M,006.418,N,011.887,K,D*06
$GPGGA,093525.00,5703.3847474,N,00952.1478151,E,2,11,0.8,-1.950,M,40.593,M,3.5,0123*63
$GPVTG,056.57,T,-583.33,M,006.305,N,011.677,K,D*02
$GPGGA,093525.05,5703.3847956,N,00952.1479495,E,2,11,0.8,-1.945,M,40.593,M,2.1,0123*66
$GPVTG,056.47,T,-583.43,M,006.266,N,011.604,K,D*04
$GPGGA,093525.10,5703.3848432,N,00952.1480862,E,2,11,0.8,-1.943,M,40.593,M,2.1,0123*66
$GPVTG,056.76,T,-583.14,M,006.284,N,011.638,K,D*07
$GPGGA,093525.15,5703.3848899,N,00952.1482221,E,2,11,0.8,-1.942,M,40.593,M,2.1,0123*60
$GPVTG,057.17,T,-582.73,M,006.276,N,011.623,K,D*06
$GPGGA,093525.20,5703.3849371,N,00952.1483594,E,2,11,0.8,-1.936,M,40.593,M,2.1,0123*61
$GPVTG,057.50,T,-582.40,M,006.309,N,011.685,K,D*00
$GPGGA,093525.25,5703.3849847,N,00952.1484971,E,2,11,0.8,-1.933,M,40.593,M,2.3,0123*6D
$GPVTG,057.64,T,-582.26,M,006.352,N,011.764,K,D*07
$GPGGA,093525.30,5703.3850321,N,00952.1486348,E,2,11,0.8,-1.929,M,40.593,M,2.3,0123*63
$GPVTG,057.77,T,-582.13,M,006.379,N,011.813,K,D*05
$GPGGA,093525.35,5703.3850778,N,00952.1487724,E,2,11,0.8,-1.926,M,40.593,M,2.3,0123*6E
$GPVTG,058.28,T,-581.62,M,006.364,N,011.787,K,D*0B
$GPGGA,093525.40,5703.3851245,N,00952.1489130,E,2,11,0.8,-1.920,M,40.593,M,2.3,0123*6D
$GPVTG,058.61,T,-581.29,M,006.422,N,011.894,K,D*01
$GPGGA,093525.45,5703.3851715,N,00952.1490532,E,2,11,0.8,-1.917,M,40.593,M,2.6,0123*67
$GPVTG,058.72,T,-581.18,M,006.458,N,011.961,K,D*07
$GPGGA,093525.50,5703.3852192,N,00952.1491925,E,2,11,0.8,-1.918,M,40.593,M,2.6,0123*6D
$GPVTG,058.47,T,-581.43,M,006.476,N,011.994,K,D*09
$GPGGA,093525.55,5703.3852661,N,00952.1493309,E,2,11,0.8,-1.920,M,40.593,M,2.6,0123*6E
$GPVTG,058.36,T,-581.54,M,006.455,N,011.956,K,D*06
$GPGGA,093525.60,5703.3853147,N,00952.1494713,E,2,11,0.8,-1.921,M,40.593,M,2.6,0123*63
$GPVTG,058.02,T,-581.88,M,006.502,N,012.042,K,D*0C
$GPGGA,093525.65,5703.3853640,N,00952.1496121,E,2,11,0.8,-1.918,M,40.593,M,2.9,0123*66
$GPVTG,057.66,T,-582.24,M,006.552,N,012.134,K,D*01
$GPGGA,093525.70,5703.3854117,N,00952.1497526,E,2,11,0.8,-1.921,M,40.593,M,2.9,0123*68
$GPVTG,057.77,T,-582.13,M,006.551,N,012.132,K,D*00
$GPGGA,093525.75,5703.3854592,N,00952.1498915,E,2,11,0.8,-1.924,M,40.593,M,2.9,0123*62
$GPVTG,057.75,T,-582.15,M,006.514,N,012.063,K,D*00
$GPGGA,093525.80,5703.3855081,N,00952.1500303,E,2,11,0.8,-1.928,M,40.593,M,2.9,0123*6F
$GPVTG,057.40,T,-582.50,M,006.507,N,012.051,K,D*04
$GPGGA,093525.85,5703.3855580,N,00952.1501703,E,2,11,0.8,-1.933,M,40.593,M,3.1,0123*68
$GPVTG,056.99,T,-582.91,M,006.548,N,012.127,K,D*07
$GPGGA,093525.90,5703.3856058,N,00952.1503107,E,2,11,0.8,-1.935,M,40.593,M,3.1,0123*69
$GPVTG,057.30,T,-582.60,M,006.540,N,012.112,K,D*05
$GPGGA,093525.95,5703.3856533,N,00952.1504490,E,2,11,0.8,-1.935,M,40.593,M,3.1,0123*68
$GPVTG,057.47,T,-582.43,M,006.490,N,012.019,K,D*02
$GPGGA,093526.00,5703.3857019,N,00952.1505894,E,2,11,0.8,-1.936,M,40.593,M,3.1,0123*61
$GPVTG,057.49,T,-582.41,M,006.510,N,012.057,K,D*0D
$GPGGA,093526.05,5703.3857513,N,00952.1507287,E,2,11,0.8,-1.931,M,40.593,M,1.7,0123*62
$GPVTG,057.36,T,-582.54,M,006.516,N,012.068,K,D*0B
$GPGGA,093526.10,5703.3858007,N,00952.1508661,E,2,11,0.8,-1.931,M,40.593,M,1.7,0123*6A
$GPVTG,056.94,T,-582.96,M,006.492,N,012.024,K,D*09
$GPGGA,093526.15,5703.3858485,N,00952.1510014,E,2,11,0.8,-1.927,M,40.593,M,1.7,0123*6B
$GPVTG,056.83,T,-583.07,M,006.411,N,011.874,K,D*03
$GPGGA,093526.20,5703.3858962,N,00952.1511384,E,2,11,0.8,-1.920,M,40.593,M,1.7,0123*65
$GPVTG,057.03,T,-582.87,M,006.385,N,011.825,K,D*0D
$GPGGA,093526.25,5703.3859447,N,00952.1512775,E,2,11,0.8,-1.922,M,40.593,M,1.9,0123*6E
$GPVTG,057.18,T,-582.72,M,006.424,N,011.897,K,D*08
$GPGGA,093526.30,5703.3859931,N,00952.1514194,E,2,11,0.8,-1.923,M,40.593,M,1.9,0123*68
$GPVTG,057.60,T,-582.30,M,006.501,N,012.039,K,D*08
$GPGGA,093526.35,5703.3860432,N,00952.1515614,E,2,11,0.8,-1.924,M,40.593,M,1.9,0123*60
$GPVTG,057.45,T,-582.45,M,006.584,N,012.194,K,D*06
$GPGGA,093526.40,5703.3860922,N,00952.1517022,E,2,11,0.8,-1.929,M,40.593,M,1.9,0123*62
$GPVTG,057.49,T,-582.41,M,006.600,N,012.223,K,D*0E
$GPGGA,093526.45,5703.3861369,N,00952.1518447,E,2,11,0.8,-1.935,M,40.593,M,2.2,0123*6E
$GPVTG,058.72,T,-581.18,M,006.558,N,012.146,K,D*08
$GPGGA,093526.50,5703.3861828,N,00952.1519824,E,2,11,0.8,-1.932,M,40.593,M,2.2,0123*6B
$GPVTG,058.82,T,-581.08,M,006.459,N,011.962,K,D*0B
$GPGGA,093526.55,5703.3862286,N,00952.1521196,E,2,11,0.8,-1.925,M,40.593,M,2.2,0123*6E
$GPVTG,058.84,T,-581.06,M,006.377,N,011.810,K,D*0C
$GPGGA,093526.60,5703.3862760,N,00952.1522555,E,2,11,0.8,-1.918,M,40.593,M,2.2,0123*63
$GPVTG,058.28,T,-581.62,M,006.331,N,011.725,K,D*03
$GPGGA,093526.65,5703.3863250,N,00952.1523929,E,2,11,0.8,-1.912,M,40.593,M,2.4,0123*6B
$GPVTG,057.59,T,-582.31,M,006.362,N,011.782,K,D*04
$GPGGA,093526.70,5703.3863732,N,00952.1525327,E,2,11,0.8,-1.910,M,40.593,M,2.4,0123*6E
$GPVTG,057.55,T,-582.35,M,006.419,N,011.888,K,D*02
$GPGGA,093526.75,5703.3864211,N,00952.1526745,E,2,11,0.8,-1.912,M,40.593,M,2.4,0123*69
$GPVTG,057.82,T,-582.08,M,006.491,N,012.022,K,D*0D
$GPGGA,093526.80,5703.3864696,N,00952.1528158,E,2,11,0.8,-1.916,M,40.593,M,2.4,0123*68
$GPVTG,057.82,T,-582.08,M,006.542,N,012.116,K,D*04
$GPGGA,093526.85,5703.3865166,N,00952.1529570,E,2,11,0.8,-1.920,M,40.593,M,2.7,0123*6D
$GPVTG,058.17,T,-581.73,M,006.546,N,012.124,K,D*0D
$GPGGA,093526.90,5703.3865636,N,00952.1530994,E,2,11,0.8,-1.927,M,40.593,M,2.7,0123*62
$GPVTG,058.53,T,-581.37,M,006.564,N,012.157,K,D*09
$GPGGA,093526.95,5703.3866110,N,00952.1532426,E,2,11,0.8,-1.933,M,40.593,M,2.7,0123*64
$GPVTG,058.72,T,-581.18,M,006.593,N,012.210,K,D*0F
$GPGGA,093527.00,5703.3866595,N,00952.1533843,E,2,11,0.8,-1.935,M,40.593,M,2.7,0123*68
$GPVTG,058.42,T,-581.48,M,006.600,N,012.222,K,D*01
$GPGGA,093527.05,5703.3867073,N,00952.1535241,E,2,11,0.8,-1.932,M,40.593,M,1.6,0123*6A
$GPVTG,058.28,T,-581.62,M,006.550,N,012.131,K,D*02
$GPGGA,093527.10,5703.3867541,N,00952.1536627,E,2,11,0.8,-1.930,M,40.593,M,1.6,0123*6F
$GPVTG,058.20,T,-581.70,M,006.479,N,012.000,K,D*00
$GPGGA,093527.15,5703.3868011,N,00952.1538027,E,2,11,0.8,-1.929,M,40.593,M,1.6,0123*65
$GPVTG,058.27,T,-581.63,M,006.459,N,011.963,K,D*08
$GPGGA,093527.20,5703.3868486,N,00952.1539416,E,2,11,0.8,-1.926,M,40.593,M,1.6,0123*61
$GPVTG,058.08,T,-581.82,M,006.439,N,011.925,K,D*0E
$GPGGA,093527.25,5703.3868963,N,00952.1540775,E,2,11,0.8,-1.921,M,40.593,M,1.8,0123*63
$GPVTG,057.62,T,-582.28,M,006.379,N,011.814,K,D*0E
$GPGGA,093527.30,5703.3869421,N,00952.1542127,E,2,11,0.8,-1.911,M,40.593,M,1.8,0123*6D
$GPVTG,057.70,T,-582.20,M,006.299,N,011.665,K,D*02
$GPGGA,093527.35,5703.3869891,N,00952.1543504,E,2,11,0.8,-1.906,M,40.593,M,1.8,0123*6D
$GPVTG,057.77,T,-582.13,M,006.313,N,011.691,K,D*0D
$GPGGA,093527.40,5703.3870361,N,00952.1544885,E,2,11,0.8,-1.903,M,40.593,M,1.8,0123*65
$GPVTG,057.86,T,-582.04,M,006.339,N,011.740,K,D*00
$GPGGA,093527.45,5703.3870835,N,00952.1546291,E,2,11,0.8,-1.902,M,40.593,M,2.0,0123*6D
$GPVTG,058.10,T,-581.80,M,006.412,N,011.875,K,D*08
$GPGGA,093527.50,5703.3871316,N,00952.1547729,E,2,11,0.8,-1.907,M,40.593,M,2.0,0123*60
$GPVTG,058.38,T,-581.52,M,006.533,N,012.098,K,D*07
$GPGGA,093527.55,5703.3871805,N,00952.1549171,E,2,11,0.8,-1.917,M,40.593,M,2.0,0123*68
$GPVTG,058.35,T,-581.55,M,006.633,N,012.284,K,D*01
$GPGGA,093527.60,5703.3872297,N,00952.1550606,E,2,11,0.8,-1.927,M,40.593,M,2.0,0123*60
$GPVTG,058.17,T,-581.73,M,006.686,N,012.382,K,D*0C
$GPGGA,093527.65,5703.3872791,N,00952.1552005,E,2,11,0.8,-1.931,M,40.593,M,2.3,0123*65
$GPVTG,057.64,T,-582.26,M,006.654,N,012.324,K,D*07
$GPGGA,093527.70,5703.3873283,N,00952.1553393,E,2,11,0.8,-1.932,M,40.593,M,2.3,0123*68
$GPVTG,057.19,T,-582.71,M,006.601,N,012.225,K,D*0F
$GPGGA,093527.75,5703.3873743,N,00952.1554801,E,2,11,0.8,-1.933,M,40.593,M,2.3,0123*62
$GPVTG,057.89,T,-582.01,M,006.538,N,012.108,K,D*04
$GPGGA,093527.80,5703.3874208,N,00952.1556201,E,2,11,0.8,-1.933,M,40.593,M,2.3,0123*6D
$GPVTG,058.22,T,-581.68,M,006.487,N,012.015,K,D*0E
$GPGGA,093527.85,5703.3874680,N,00952.1557591,E,2,11,0.8,-1.931,M,40.593,M,2.5,0123*67
$GPVTG,058.23,T,-581.67,M,006.448,N,011.942,K,D*0B
$GPGGA,093527.90,5703.3875165,N,00952.1558985,E,2,11,0.8,-1.932,M,40.593,M,2.5,0123*6B
$GPVTG,057.90,T,-582.00,M,006.455,N,011.954,K,D*05
$GPGGA,093527.95,5703.3875634,N,00952.1560382,E,2,11,0.8,-1.934,M,40.593,M,2.5,0123*6D
$GPVTG,058.10,T,-581.80,M,006.443,N,011.932,K,D*0E
$GPGGA,093528.00,5703.3876103,N,00952.1561780,E,2,11,0.8,-1.931,M,40.593,M,2.5,0123*6C
$GPVTG,058.26,T,-581.64,M,006.440,N,011.926,K,D*07
$GPGGA,093528.05,5703.3876564,N,00952.1563189,E,2,11,0.8,-1.927,M,40.593,M,2.7,0123*64
$GPVTG,058.76,T,-581.14,M,006.440,N,011.928,K,D*0B
$GPGGA,093528.10,5703.3877016,N,00952.1564580,E,2,11,0.8,-1.923,M,40.593,M,2.7,0123*6F
$GPVTG,059.07,T,-580.83,M,006.399,N,011.851,K,D*0F
$GPGGA,093528.15,5703.3877459,N,00952.1565954,E,2,11,0.8,-1.918,M,40.593,M,2.7,0123*69
$GPVTG,059.37,T,-580.53,M,006.326,N,011.715,K,D*0A
$GPGGA,093528.20,5703.3877902,N,00952.1567294,E,2,11,0.8,-1.909,M,40.593,M,2.7,0123*69
$GPVTG,059.19,T,-580.71,M,006.217,N,011.514,K,D*06
$GPGGA,093528.25,5703.3878365,N,00952.1568661,E,2,11,0.8,-1.896,M,40.593,M,2.9,0123*60
$GPVTG,058.81,T,-581.09,M,006.231,N,011.539,K,D*03
$GPGGA,093528.30,5703.3878837,N,00952.1570050,E,2,11,0.8,-1.890,M,40.593,M,2.9,0123*63
$GPVTG,058.50,T,-581.40,M,006.307,N,011.681,K,D*06
$GPGGA,093528.35,5703.3879321,N,00952.1571465,E,2,11,0.8,-1.891,M,40.593,M,2.9,0123*69
$GPVTG,058.23,T,-581.67,M,006.433,N,011.913,K,D*03
$GPGGA,093528.40,5703.3879810,N,00952.1572890,E,2,11,0.8,-1.899,M,40.593,M,2.9,0123*6F
$GPVTG,057.98,T,-581.92,M,006.545,N,012.122,K,D*0F
$GPGGA,093528.45,5703.3880309,N,00952.1574318,E,2,11,0.8,-1.906,M,40.593,M,3.1,0123*6C
$GPVTG,057.62,T,-582.28,M,006.641,N,012.300,K,D*0D
$GPGGA,093528.50,5703.3880802,N,00952.1575735,E,2,11,0.8,-1.916,M,40.593,M,3.1,0123*63
$GPVTG,057.40,T,-582.50,M,006.670,N,012.352,K,D*07
$GPGGA,093528.55,5703.3881304,N,00952.1577161,E,2,11,0.8,-1.924,M,40.593,M,3.1,0123*6E
$GPVTG,057.14,T,-582.76,M,006.709,N,012.425,K,D*0A
$GPGGA,093528.60,5703.3881810,N,00952.1578591,E,2,11,0.8,-1.934,M,40.593,M,3.1,0123*63
$GPVTG,056.91,T,-582.99,M,006.742,N,012.486,K,D*01
