0,5703.3759761,N,00952.0865088,E,2,11,0.8,-1.862,M,40.593,M,3.1,0123*61
$GPVTG,239.88,T,-400.02,M,004.526,N,008.383,K,D*00
$GPGGA,093349.95,5703.3759446,N,00952.0864084,E,2,11,0.8,-1.859,M,40.593,M,3.1,0123*67
$GPVTG,239.93,T,-399.97,M,004.546,N,008.419,K,D*03
$GPGGA,093350.00,5703.3759141,N,00952.0863077,E,2,11,0.8,-1.856,M,40.593,M,3.1,0123*65
$GPVTG,240.38,T,-399.52,M,004.548,N,008.422,K,D*03
$GPGGA,093350.05,5703.3758834,N,00952.0862069,E,2,11,0.8,-1.858,M,40.593,M,1.7,0123*6E
$GPVTG,240.49,T,-399.41,M,004.572,N,008.467,K,D*0F
$GPGGA,093350.10,5703.3758523,N,00952.0861067,E,2,11,0.8,-1.855,M,40.593,M,1.7,0123*61
$GPVTG,240.47,T,-399.43,M,004.563,N,008.450,K,D*07
$GPGGA,093350.15,5703.3758211,N,00952.0860064,E,2,11,0.8,-1.853,M,40.593,M,1.7,0123*66
$GPVTG,240.42,T,-399.48,M,004.554,N,008.434,K,D*0F
$GPGGA,093350.20,5703.3757887,N,00952.0859050,E,2,11,0.8,-1.851,M,40.593,M,1.7,0123*65
$GPVTG,240.07,T,-399.83,M,004.589,N,008.499,K,D*0E
$GPGGA,093350.25,5703.3757567,N,00952.0858023,E,2,11,0.8,-1.850,M,40.593,M,1.9,0123*69
$GPVTG,240.11,T,-399.79,M,004.632,N,008.578,K,D*01
$GPGGA,093350.30,5703.3757258,N,00952.0857001,E,2,11,0.8,-1.847,M,40.593,M,1.9,0123*6F
$GPVTG,240.49,T,-399.41,M,004.629,N,008.574,K,D*01
$GPGGA,093350.35,5703.3756943,N,00952.0855992,E,2,11,0.8,-1.845,M,40.593,M,1.9,0123*69
$GPVTG,240.38,T,-399.52,M,004.609,N,008.536,K,D*01
$GPGGA,093350.40,5703.3756621,N,00952.0854993,E,2,11,0.8,-1.842,M,40.593,M,1.9,0123*67
$GPVTG,239.91,T,-399.99,M,004.587,N,008.496,K,D*05
$GPGGA,093350.45,5703.3756301,N,00952.0853985,E,2,11,0.8,-1.839,M,40.593,M,2.2,0123*61
$GPVTG,239.74,T,-400.16,M,004.586,N,008.494,K,D*0D
$GPGGA,093350.50,5703.3755977,N,00952.0852960,E,2,11,0.8,-1.839,M,40.593,M,2.2,0123*67
$GPVTG,239.75,T,-400.15,M,004.623,N,008.563,K,D*0A
$GPGGA,093350.55,5703.3755653,N,00952.0851937,E,2,11,0.8,-1.836,M,40.593,M,2.2,0123*65
$GPVTG,239.73,T,-400.17,M,004.644,N,008.601,K,D*08
$GPGGA,093350.60,5703.3755333,N,00952.0850918,E,2,11,0.8,-1.832,M,40.593,M,2.2,0123*68
$GPVTG,239.84,T,-400.06,M,004.643,N,008.598,K,D*04
$GPGGA,093350.65,5703.3755008,N,00952.0849892,E,2,11,0.8,-1.835,M,40.593,M,2.4,0123*6C
$GPVTG,239.82,T,-400.08,M,004.659,N,008.628,K,D*0F
$GPGGA,093350.70,5703.3754681,N,00952.0848872,E,2,11,0.8,-1.835,M,40.593,M,2.4,0123*61
$GPVTG,239.69,T,-400.21,M,004.662,N,008.635,K,D*05
$GPGGA,093350.75,5703.3754352,N,00952.0847855,E,2,11,0.8,-1.836,M,40.593,M,2.4,0123*66
$GPVTG,239.46,T,-400.44,M,004.662,N,008.634,K,D*0A
$GPGGA,093350.80,5703.3754026,N,00952.0846834,E,2,11,0.8,-1.836,M,40.593,M,2.4,0123*6A
$GPVTG,239.44,T,-400.46,M,004.664,N,008.637,K,D*0F
$GPGGA,093350.85,5703.3753705,N,00952.0845811,E,2,11,0.8,-1.835,M,40.593,M,2.7,0123*6A
$GPVTG,239.67,T,-400.23,M,004.657,N,008.624,K,D*0F
$GPGGA,093350.90,5703.3753364,N,00952.0844806,E,2,11,0.8,-1.835,M,40.593,M,2.7,0123*6A
$GPVTG,238.94,T,-400.96,M,004.654,N,008.620,K,D*0B
$GPGGA,093350.95,5703.3753033,N,00952.0843799,E,2,11,0.8,-1.833,M,40.593,M,2.7,0123*66
$GPVTG,238.77,T,-401.13,M,004.640,N,008.592,K,D*05
$GPGGA,093351.00,5703.3752699,N,00952.0842785,E,2,11,0.8,-1.833,M,40.593,M,2.7,0123*60
$GPVTG,238.69,T,-401.21,M,004.646,N,008.604,K,D*01
$GPGGA,093351.05,5703.3752380,N,00952.0841784,E,2,11,0.8,-1.833,M,40.593,M,1.6,0123*68
$GPVTG,238.90,T,-401.00,M,004.618,N,008.552,K,D*0F
$GPGGA,093351.10,5703.3752056,N,00952.0840760,E,2,11,0.8,-1.831,M,40.593,M,1.6,0123*6D
$GPVTG,239.33,T,-400.57,M,004.633,N,008.580,K,D*02
$GPGGA,093351.15,5703.3751723,N,00952.0839749,E,2,11,0.8,-1.828,M,40.593,M,1.6,0123*63
$GPVTG,239.11,T,-400.79,M,004.638,N,008.589,K,D*0C
$GPGGA,093351.20,5703.3751383,N,00952.0838747,E,2,11,0.8,-1.826,M,40.593,M,1.6,0123*6A
$GPVTG,238.62,T,-401.28,M,004.637,N,008.588,K,D*02
$GPGGA,093351.25,5703.3751051,N,00952.0837751,E,2,11,0.8,-1.825,M,40.593,M,1.8,0123*66
$GPVTG,238.48,T,-401.42,M,004.613,N,008.544,K,D*00
$GPGGA,093351.30,5703.3750726,N,00952.0836753,E,2,11,0.8,-1.824,M,40.593,M,1.8,0123*66
$GPVTG,238.67,T,-401.23,M,004.590,N,008.500,K,D*02
$GPGGA,093351.35,5703.3750396,N,00952.0835737,E,2,11,0.8,-1.825,M,40.593,M,1.8,0123*6C
$GPVTG,238.92,T,-400.98,M,004.613,N,008.542,K,D*07
$GPGGA,093351.40,5703.3750070,N,00952.0834737,E,2,11,0.8,-1.823,M,40.593,M,1.8,0123*62
$GPVTG,239.03,T,-400.87,M,004.596,N,008.512,K,D*0B
$GPGGA,093351.45,5703.3749735,N,00952.0833732,E,2,11,0.8,-1.825,M,40.593,M,2.0,0123*66
$GPVTG,238.85,T,-401.05,M,004.609,N,008.537,K,D*0D
$GPGGA,093351.50,5703.3749408,N,00952.0832716,E,2,11,0.8,-1.825,M,40.593,M,2.0,0123*68
$GPVTG,239.09,T,-400.81,M,004.625,N,008.566,K,D*0F
$GPGGA,093351.55,5703.3749073,N,00952.0831719,E,2,11,0.8,-1.822,M,40.593,M,2.0,0123*6E
$GPVTG,238.77,T,-401.13,M,004.615,N,008.548,K,D*02
$GPGGA,093351.60,5703.3748741,N,00952.0830742,E,2,11,0.8,-1.821,M,40.593,M,2.0,0123*63
$GPVTG,238.39,T,-401.51,M,004.570,N,008.463,K,D*06
$GPGGA,093351.65,5703.3748406,N,00952.0829756,E,2,11,0.8,-1.818,M,40.593,M,2.3,0123*62
$GPVTG,238.10,T,-401.80,M,004.562,N,008.450,K,D*02
$GPGGA,093351.70,5703.3748065,N,00952.0828762,E,2,11,0.8,-1.819,M,40.593,M,2.3,0123*60
$GPVTG,237.85,T,-402.05,M,004.581,N,008.484,K,D*0B
$GPGGA,093351.75,5703.3747722,N,00952.0827762,E,2,11,0.8,-1.816,M,40.593,M,2.3,0123*6E
$GPVTG,237.74,T,-402.16,M,004.611,N,008.540,K,D*04
$GPGGA,093351.80,5703.3747387,N,00952.0826757,E,2,11,0.8,-1.816,M,40.593,M,2.3,0123*68
$GPVTG,238.01,T,-401.89,M,004.627,N,008.569,K,D*02
$GPGGA,093351.85,5703.3747051,N,00952.0825764,E,2,11,0.8,-1.819,M,40.593,M,2.5,0123*6F
$GPVTG,238.04,T,-401.86,M,004.618,N,008.553,K,D*0D
$GPGGA,093351.90,5703.3746702,N,00952.0824781,E,2,11,0.8,-1.819,M,40.593,M,2.5,0123*61
$GPVTG,237.44,T,-402.46,M,004.616,N,008.549,K,D*0C
$GPGGA,093351.95,5703.3746354,N,00952.0823791,E,2,11,0.8,-1.821,M,40.593,M,2.5,0123*6E
$GPVTG,237.19,T,-402.71,M,004.625,N,008.565,K,D*0E
$GPGGA,093352.00,5703.3746015,N,00952.0822802,E,2,11,0.8,-1.821,M,40.593,M,2.5,0123*63
$GPVTG,237.37,T,-402.53,M,004.613,N,008.544,K,D*04
$GPGGA,093352.05,5703.3745671,N,00952.0821822,E,2,11,0.8,-1.823,M,40.593,M,2.7,0123*60
$GPVTG,237.08,T,-402.82,M,004.611,N,008.539,K,D*0C
$GPGGA,093352.10,5703.3745324,N,00952.0820840,E,2,11,0.8,-1.823,M,40.593,M,2.7,0123*64
$GPVTG,236.94,T,-402.96,M,004.606,N,008.531,K,D*03
$GPGGA,093352.15,5703.3744964,N,00952.0819866,E,2,11,0.8,-1.827,M,40.593,M,2.7,0123*64
$GPVTG,236.31,T,-403.59,M,004.613,N,008.544,K,D*08
$GPGGA,093352.20,5703.3744615,N,00952.0818893,E,2,11,0.8,-1.829,M,40.593,M,2.7,0123*6E
$GPVTG,236.24,T,-403.66,M,004.599,N,008.517,K,D*07
$GPGGA,093352.25,5703.3744275,N,00952.0817922,E,2,11,0.8,-1.832,M,40.593,M,2.9,0123*69
$GPVTG,236.56,T,-403.34,M,004.569,N,008.462,K,D*09
$GPGGA,093352.30,5703.3743916,N,00952.0816957,E,2,11,0.8,-1.832,M,40.593,M,2.9,0123*67
$GPVTG,236.09,T,-403.81,M,004.571,N,008.466,K,D*00
$GPGGA,093352.35,5703.3743559,N,00952.0815987,E,2,11,0.8,-1.834,M,40.593,M,2.9,0123*6D
$GPVTG,235.88,T,-404.02,M,004.582,N,008.486,K,D*04
$GPGGA,093352.40,5703.3743205,N,00952.0815016,E,2,11,0.8,-1.835,M,40.593,M,2.9,0123*61
$GPVTG,235.92,T,-403.98,M,004.586,N,008.493,K,D*0B
$GPGGA,093352.45,5703.3742859,N,00952.0814059,E,2,11,0.8,-1.832,M,40.593,M,3.1,0123*62
$GPVTG,235.99,T,-403.91,M,004.556,N,008.437,K,D*0A
$GPGGA,093352.50,5703.3742512,N,00952.0813110,E,2,11,0.8,-1.833,M,40.593,M,3.1,0123*6E
$GPVTG,235.97,T,-403.93,M,004.519,N,008.369,K,D*01
$GPGGA,093352.55,5703.3742149,N,00952.0812147,E,2,11,0.8,-1.834,M,40.593,M,3.1,0123*65
$GPVTG,235.63,T,-404.27,M,004.549,N,008.426,K,D*0B
$GPGGA,093352.60,5703.3741798,N,00952.0811185,E,2,11,0.8,-1.833,M,40.593,M,3.1,0123*60
$GPVTG,235.83,T,-404.07,M,004.549,N,008.424,K,D*05
$GPGGA,093352.65,5703.3741450,N,00952.0810223,E,2,11,0.8,-1.837,M,40.593,M,3.3,0123*6A
$GPVTG,236.07,T,-403.83,M,004.541,N,008.410,K,D*0E
$GPGGA,093352.70,5703.3741099,N,00952.0809243,E,2,11,0.8,-1.836,M,40.593,M,3.3,0123*60
$GPVTG,236.43,T,-403.47,M,004.575,N,008.472,K,D*05
$GPGGA,093352.75,5703.3740754,N,00952.0808282,E,2,11,0.8,-1.837,M,40.593,M,3.3,0123*6F
$GPVTG,236.60,T,-403.30,M,004.554,N,008.434,K,D*05
$GPGGA,093352.80,5703.3740415,N,00952.0807321,E,2,11,0.8,-1.838,M,40.593,M,3.3,0123*6B
$GPVTG,236.89,T,-403.01,M,004.527,N,008.385,K,D*09
$GPGGA,093352.85,5703.3740065,N,00952.0806365,E,2,11,0.8,-1.836,M,40.593,M,3.5,0123*64
$GPVTG,236.62,T,-403.28,M,004.523,N,008.376,K,D*0F
$GPGGA,093352.90,5703.3739713,N,00952.0805406,E,2,11,0.8,-1.836,M,40.593,M,3.5,0123*69
$GPVTG,236.38,T,-403.52,M,004.529,N,008.388,K,D*06
$GPGGA,093352.95,5703.3739369,N,00952.0804445,E,2,11,0.8,-1.835,M,40.593,M,3.5,0123*60
$GPVTG,236.50,T,-403.40,M,004.523,N,008.377,K,D*01
$GPGGA,093353.00,5703.3739021,N,00952.0803480,E,2,11,0.8,-1.835,M,40.593,M,3.5,0123*6C
$GPVTG,236.53,T,-403.37,M,004.532,N,008.394,K,D*0F
$GPGGA,093353.05,5703.3738681,N,00952.0802537,E,2,11,0.8,-1.839,M,40.593,M,2.1,0123*61
$GPVTG,236.41,T,-403.49,M,004.502,N,008.337,K,D*0F
$GPGGA,093353.10,5703.3738331,N,00952.0801581,E,2,11,0.8,-1.841,M,40.593,M,2.1,0123*6A
$GPVTG,236.28,T,-403.62,M,004.509,N,008.350,K,D*03
$GPGGA,093353.15,5703.3737974,N,00952.0800617,E,2,11,0.8,-1.839,M,40.593,M,2.1,0123*69
$GPVTG,236.03,T,-403.87,M,004.540,N,008.409,K,D*07
$GPGGA,093353.20,5703.3737626,N,00952.0799656,E,2,11,0.8,-1.840,M,40.593,M,2.1,0123*63
$GPVTG,236.13,T,-403.77,M,004.544,N,008.416,K,D*03
$GPGGA,093353.25,5703.3737273,N,00952.0798702,E,2,11,0.8,-1.840,M,40.593,M,2.3,0123*61
$GPVTG,235.93,T,-403.97,M,004.543,N,008.413,K,D*04
$GPGGA,093353.30,5703.3736927,N,00952.0797766,E,2,11,0.8,-1.843,M,40.593,M,2.3,0123*60
$GPVTG,235.80,T,-404.10,M,004.495,N,008.326,K,D*05
$GPGGA,093353.35,5703.3736574,N,00952.0796819,E,2,11,0.8,-1.845,M,40.593,M,2.3,0123*6F
$GPVTG,235.64,T,-404.26,M,004.497,N,008.329,K,D*07
$GPGGA,093353.40,5703.3736216,N,00952.0795871,E,2,11,0.8,-1.846,M,40.593,M,2.3,0123*60
$GPVTG,235.39,T,-404.51,M,004.511,N,008.354,K,D*0A
$GPGGA,093353.45,5703.3735867,N,00952.0794930,E,2,11,0.8,-1.846,M,40.593,M,2.6,0123*6A
$GPVTG,235.44,T,-404.46,M,004.491,N,008.318,K,D*07
$GPGGA,093353.50,5703.3735514,N,00952.0793990,E,2,11,0.8,-1.847,M,40.593,M,2.6,0123*6B
$GPVTG,235.37,T,-404.53,M,004.487,N,008.309,K,D*00
$GPGGA,093353.55,5703.3735160,N,00952.0793035,E,2,11,0.8,-1.847,M,40.593,M,2.6,0123*6F
$GPVTG,235.53,T,-404.37,M,004.510,N,008.353,K,D*00
$GPGGA,093353.60,5703.3734799,N,00952.0792097,E,2,11,0.8,-1.848,M,40.593,M,2.6,0123*6E
$GPVTG,235.12,T,-404.78,M,004.513,N,008.357,K,D*09
$GPGGA,093353.65,5703.3734443,N,00952.0791166,E,2,11,0.8,-1.855,M,40.593,M,2.9,0123*60
$GPVTG,234.96,T,-404.94,M,004.490,N,008.316,K,D*09
$GPGGA,093353.70,5703.3734097,N,00952.0790229,E,2,11,0.8,-1.857,M,40.593,M,2.9,0123*62
$GPVTG,235.30,T,-404.60,M,004.469,N,008.276,K,D*0E
$GPGGA,093353.75,5703.3733746,N,00952.0789281,E,2,11,0.8,-1.857,M,40.593,M,2.9,0123*61
$GPVTG,235.52,T,-404.38,M,004.484,N,008.304,K,D*00
$GPGGA,093353.80,5703.3733391,N,00952.0788337,E,2,11,0.8,-1.858,M,40.593,M,2.9,0123*67
$GPVTG,235.51,T,-404.39,M,004.493,N,008.321,K,D*03
$GPGGA,093353.85,5703.3733044,N,00952.0787403,E,2,11,0.8,-1.854,M,40.593,M,3.1,0123*63
$GPVTG,235.56,T,-404.34,M,004.474,N,008.285,K,D*0F
$GPGGA,093353.90,5703.3732711,N,00952.0786466,E,2,11,0.8,-1.854,M,40.593,M,3.1,0123*63
$GPVTG,236.22,T,-403.68,M,004.434,N,008.212,K,D*0B
$GPGGA,093353.95,5703.3732367,N,00952.0785527,E,2,11,0.8,-1.856,M,40.593,M,3.1,0123*66
$GPVTG,236.27,T,-403.63,M,004.433,N,008.209,K,D*08
$GPGGA,093354.00,5703.3732016,N,00952.0784583,E,2,11,0.8,-1.856,M,40.593,M,3.1,0123*67
$GPVTG,236.15,T,-403.75,M,004.454,N,008.248,K,D*0A
$GPGGA,093354.05,5703.3731673,N,00952.0783646,E,2,11,0.8,-1.857,M,40.593,M,1.7,0123*6C
$GPVTG,236.12,T,-403.78,M,004.456,N,008.252,K,D*09
$GPGGA,093354.10,5703.3731325,N,00952.0782710,E,2,11,0.8,-1.856,M,40.593,M,1.7,0123*6C
$GPVTG,235.93,T,-403.97,M,004.455,N,008.251,K,D*02
$GPGGA,093354.15,5703.3730973,N,00952.0781777,E,2,11,0.8,-1.854,M,40.593,M,1.7,0123*61
$GPVTG,235.64,T,-404.26,M,004.455,N,008.252,K,D*04
$GPGGA,093354.20,5703.3730625,N,00952.0780841,E,2,11,0.8,-1.855,M,40.593,M,1.7,0123*61
$GPVTG,235.60,T,-404.30,M,004.455,N,008.250,K,D*05
$GPGGA,093354.25,5703.3730275,N,00952.0779911,E,2,11,0.8,-1.857,M,40.593,M,1.9,0123*6B
$GPVTG,235.46,T,-404.44,M,004.447,N,008.236,K,D*01
$GPGGA,093354.30,5703.3729917,N,00952.0778977,E,2,11,0.8,-1.859,M,40.593,M,1.9,0123*67
$GPVTG,235.10,T,-404.80,M,004.468,N,008.274,K,D*01
$GPGGA,093354.35,5703.3729570,N,00952.0778034,E,2,11,0.8,-1.857,M,40.593,M,1.9,0123*6F
$GPVTG,235.43,T,-404.47,M,004.475,N,008.288,K,D*03
$GPGGA,093354.40,5703.3729229,N,00952.0777102,E,2,11,0.8,-1.855,M,40.593,M,1.9,0123*6F
$GPVTG,235.72,T,-404.18,M,004.447,N,008.237,K,D*0E
$GPGGA,093354.45,5703.3728883,N,00952.0776163,E,2,11,0.8,-1.857,M,40.593,M,2.2,0123*6D
$GPVTG,235.88,T,-404.02,M,004.450,N,008.241,K,D*07
$GPGGA,093354.50,5703.3728536,N,00952.0775222,E,2,11,0.8,-1.858,M,40.593,M,2.2,0123*60
$GPVTG,235.94,T,-403.96,M,004.458,N,008.256,K,D*0E
$GPGGA,093354.55,5703.3728188,N,00952.0774274,E,2,11,0.8,-1.860,M,40.593,M,2.2,0123*6D
$GPVTG,236.05,T,-403.85,M,004.475,N,008.288,K,D*0B
$GPGGA,093354.60,5703.3727844,N,00952.0773340,E,2,11,0.8,-1.863,M,40.593,M,2.2,0123*6F
$GPVTG,236.05,T,-403.85,M,004.459,N,008.258,K,D*08
$GPGGA,093354.65,5703.3727507,N,00952.0772414,E,2,11,0.8,-1.863,M,40.593,M,2.4,0123*61
$GPVTG,236.17,T,-403.73,M,004.417,N,008.180,K,D*0E
$GPGGA,093354.70,5703.3727162,N,00952.0771478,E,2,11,0.8,-1.864,M,40.593,M,2.4,0123*6C
$GPVTG,236.11,T,-403.79,M,004.422,N,008.190,K,D*05
$GPGGA,093354.75,5703.3726814,N,00952.0770517,E,2,11,0.8,-1.865,M,40.593,M,2.4,0123*68
$GPVTG,236.32,T,-403.58,M,004.475,N,008.289,K,D*0E
$GPGGA,093354.80,5703.3726464,N,00952.0769559,E,2,11,0.8,-1.867,M,40.593,M,2.4,0123*69
$GPVTG,236.31,T,-403.59,M,004.511,N,008.355,K,D*0F
$GPGGA,093354.85,5703.3726116,N,00952.0768592,E,2,11,0.8,-1.866,M,40.593,M,2.7,0123*68
$GPVTG,236.48,T,-403.42,M,004.548,N,008.423,K,D*01
$GPGGA,093354.90,5703.3725773,N,00952.0767639,E,2,11,0.8,-1.867,M,40.593,M,2.7,0123*66
$GPVTG,236.57,T,-403.33,M,004.534,N,008.397,K,D*0A
$GPGGA,093354.95,5703.3725427,N,00952.0766680,E,2,11,0.8,-1.867,M,40.593,M,2.7,0123*62
$GPVTG,236.60,T,-403.30,M,004.536,N,008.400,K,D*06
$GPGGA,093355.00,5703.3725088,N,00952.0765726,E,2,11,0.8,-1.869,M,40.593,M,2.7,0123*6E
$GPVTG,236.77,T,-403.13,M,004.516,N,008.364,K,D*06
$GPGGA,093355.05,5703.3724753,N,00952.0764781,E,2,11,0.8,-1.871,M,40.593,M,1.6,0123*6C
$GPVTG,236.80,T,-403.10,M,004.488,N,008.313,K,D*0B
$GPGGA,093355.10,5703.3724406,N,00952.0763825,E,2,11,0.8,-1.872,M,40.593,M,1.6,0123*6E
$GPVTG,236.63,T,-403.27,M,004.500,N,008.334,K,D*06
$GPGGA,093355.15,5703.3724057,N,00952.0762868,E,2,11,0.8,-1.872,M,40.593,M,1.6,0123*63
$GPVTG,236.45,T,-403.45,M,004.511,N,008.354,K,D*00
$GPGGA,093355.20,5703.3723719,N,00952.0761915,E,2,11,0.8,-1.871,M,40.593,M,1.6,0123*64
$GPVTG,236.65,T,-403.25,M,004.492,N,008.320,K,D*0D
$GPGGA,093355.25,5703.3723384,N,00952.0760966,E,2,11,0.8,-1.871,M,40.593,M,1.8,0123*6A
$GPVTG,236.90,T,-403.00,M,004.466,N,008.271,K,D*0E
$GPGGA,093355.30,5703.3723040,N,00952.0760008,E,2,11,0.8,-1.870,M,40.593,M,1.8,0123*65
$GPVTG,236.80,T,-403.10,M,004.482,N,008.301,K,D*02
$GPGGA,093355.35,5703.3722702,N,00952.0759055,E,2,11,0.8,-1.869,M,40.593,M,1.8,0123*6A
$GPVTG,236.91,T,-402.99,M,004.473,N,008.285,K,D*01
$GPGGA,093355.40,5703.3722361,N,00952.0758096,E,2,11,0.8,-1.868,M,40.593,M,1.8,0123*66
$GPVTG,236.94,T,-402.96,M,004.485,N,008.306,K,D*08
$GPGGA,093355.45,5703.3722016,N,00952.0757136,E,2,11,0.8,-1.868,M,40.593,M,2.0,0123*6F
$GPVTG,236.83,T,-403.07,M,004.504,N,008.341,K,D*0C
$GPGGA,093355.50,5703.3721679,N,00952.0756177,E,2,11,0.8,-1.869,M,40.593,M,2.0,0123*62
$GPVTG,237.00,T,-402.90,M,004.499,N,008.332,K,D*08
$GPGGA,093355.55,5703.3721346,N,00952.0755226,E,2,11,0.8,-1.868,M,40.593,M,2.0,0123*6B
$GPVTG,237.16,T,-402.74,M,004.473,N,008.284,K,D*0D
$GPGGA,093355.60,5703.3721008,N,00952.0754272,E,2,11,0.8,-1.864,M,40.593,M,2.0,0123*68
$GPVTG,237.11,T,-402.79,M,004.469,N,008.277,K,D*00
$GPGGA,093355.65,5703.3720679,N,00952.0753316,E,2,11,0.8,-1.869,M,40.593,M,2.3,0123*66
$GPVTG,237.45,T,-402.45,M,004.454,N,008.248,K,D*0C
$GPGGA,093355.70,5703.3720341,N,00952.0752345,E,2,11,0.8,-1.871,M,40.593,M,2.3,0123*62
$GPVTG,237.52,T,-402.38,M,004.489,N,008.313,K,D*0F
$GPGGA,093355.75,5703.3720002,N,00952.0751393,E,2,11,0.8,-1.871,M,40.593,M,2.3,0123*6B
$GPVTG,237.31,T,-402.59,M,004.481,N,008.298,K,D*07
$GPGGA,093355.80,5703.3719672,N,00952.0750433,E,2,11,0.8,-1.871,M,40.593,M,2.3,0123*66
$GPVTG,237.51,T,-402.39,M,004.473,N,008.285,K,D*06
$GPGGA,093355.85,5703.3719342,N,00952.0749455,E,2,11,0.8,-1.868,M,40.593,M,2.5,0123*63
$GPVTG,237.91,T,-401.99,M,004.500,N,008.335,K,D*0C
$GPGGA,093355.90,5703.3718999,N,00952.0748463,E,2,11,0.8,-1.866,M,40.593,M,2.5,0123*60
$GPVTG,237.92,T,-401.98,M,004.565,N,008.454,K,D*0D
$GPGGA,093355.95,5703.3718670,N,00952.0747488,E,2,11,0.8,-1.866,M,40.593,M,2.5,0123*67
$GPVTG,238.13,T,-401.77,M,004.552,N,008.431,K,D*0D
$GPGGA,093356.00,5703.3718340,N,00952.0746511,E,2,11,0.8,-1.866,M,40.593,M,2.5,0123*6E
$GPVTG,238.28,T,-401.62,M,004.545,N,008.417,K,D*03
$GPGGA,093356.05,5703.3718000,N,00952.0745546,E,2,11,0.8,-1.869,M,40.593,M,2.7,0123*60
$GPVTG,237.72,T,-402.18,M,004.546,N,008.420,K,D*0A
$GPGGA,093356.10,5703.3717663,N,00952.0744572,E,2,11,0.8,-1.871,M,40.593,M,2.7,0123*67
$GPVTG,237.63,T,-402.27,M,004.545,N,008.418,K,D*0E
$GPGGA,093356.15,5703.3717328,N,00952.0743587,E,2,11,0.8,-1.871,M,40.593,M,2.7,0123*65
$GPVTG,237.78,T,-402.12,M,004.561,N,008.447,K,D*0E
$GPGGA,093356.20,5703.3716995,N,00952.0742614,E,2,11,0.8,-1.869,M,40.593,M,2.7,0123*6F
$GPVTG,237.83,T,-402.07,M,004.543,N,008.413,K,D*0F
$GPGGA,093356.25,5703.3716659,N,00952.0741652,E,2,11,0.8,-1.870,M,40.593,M,2.9,0123*62
$GPVTG,237.57,T,-402.33,M,004.517,N,008.365,K,D*06
$GPGGA,093356.30,5703.3716328,N,00952.0740677,E,2,11,0.8,-1.871,M,40.593,M,2.9,0123*62
$GPVTG,237.80,T,-402.10,M,004.513,N,008.358,K,D*07
$GPGGA,093356.35,5703.3715991,N,00952.0739692,E,2,11,0.8,-1.873,M,40.593,M,2.9,0123*6B
$GPVTG,237.86,T,-402.04,M,004.540,N,008.408,K,D*00
$GPGGA,093356.40,5703.3715653,N,00952.0738711,E,2,11,0.8,-1.873,M,40.593,M,2.9,0123*63
$GPVTG,237.81,T,-402.09,M,004.553,N,008.433,K,D*00
$GPGGA,093356.45,5703.3715320,N,00952.0737730,E,2,11,0.8,-1.874,M,40.593,M,3.1,0123*65
$GPVTG,237.94,T,-401.96,M,004.554,N,008.434,K,D*01
$GPGGA,093356.50,5703.3714981,N,00952.0736747,E,2,11,0.8,-1.874,M,40.593,M,3.1,0123*60
$GPVTG,237.85,T,-402.05,M,004.565,N,008.455,K,D*0D
$GPGGA,093356.55,5703.3714648,N,00952.0735766,E,2,11,0.8,-1.873,M,40.593,M,3.1,0123*68
$GPVTG,237.96,T,-401.94,M,004.560,N,008.445,K,D*00
$GPGGA,093356.60,5703.3714316,N,00952.0734784,E,2,11,0.8,-1.871,M,40.593,M,3.1,0123*6F
$GPVTG,238.07,T,-401.83,M,004.556,N,008.438,K,D*0E
$GPGGA,093356.65,5703.3713982,N,00952.0733803,E,2,11,0.8,-1.870,M,40.593,M,3.3,0123*6E
$GPVTG,238.09,T,-401.81,M,004.550,N,008.427,K,D*0A
$GPGGA,093356.70,5703.3713653,N,00952.0732822,E,2,11,0.8,-1.869,M,40.593,M,3.3,0123*63
$GPVTG,238.24,T,-401.66,M,004.542,N,008.411,K,D*0A
$GPGGA,093356.75,5703.3713318,N,00952.0731843,E,2,11,0.8,-1.870,M,40.593,M,3.3,0123*60
$GPVTG,238.13,T,-401.77,M,004.540,N,008.409,K,D*05
$GPGGA,093356.80,5703.3712976,N,00952.0730857,E,2,11,0.8,-1.869,M,40.593,M,3.3,0123*65
$GPVTG,237.86,T,-402.04,M,004.566,N,008.456,K,D*0F
$GPGGA,093356.85,5703.3712645,N,00952.0729887,E,2,11,0.8,-1.868,M,40.593,M,3.5,0123*6D
$GPVTG,237.85,T,-402.05,M,004.536,N,008.401,K,D*0A
$GPGGA,093356.90,5703.3712305,N,00952.0728914,E,2,11,0.8,-1.866,M,40.593,M,3.5,0123*6C
$GPVTG,237.55,T,-402.35,M,004.536,N,008.401,K,D*04
$GPGGA,093356.95,5703.3711967,N,00952.0727943,E,2,11,0.8,-1.867,M,40.593,M,3.5,0123*68
$GPVTG,237.42,T,-402.48,M,004.531,N,008.392,K,D*02
$GPGGA,093357.00,5703.3711631,N,00952.0726972,E,2,11,0.8,-1.866,M,40.593,M,3.5,0123*6B
$GPVTG,237.40,T,-402.50,M,004.524,N,008.379,K,D*08
$GPGGA,093357.05,5703.3711300,N,00952.0726008,E,2,11,0.8,-1.865,M,40.593,M,2.1,0123*6B
$GPVTG,237.44,T,-402.46,M,004.509,N,008.350,K,D*0F
$GPGGA,093357.10,5703.3710967,N,00952.0725036,E,2,11,0.8,-1.864,M,40.593,M,2.1,0123*6A
$GPVTG,237.56,T,-402.34,M,004.507,N,008.347,K,D*01
$GPGGA,093357.15,5703.3710629,N,00952.0724064,E,2,11,0.8,-1.866,M,40.593,M,2.1,0123*6E
$GPVTG,237.52,T,-402.38,M,004.517,N,008.365,K,D*08
$GPGGA,093357.20,5703.3710299,N,00952.0723081,E,2,11,0.8,-1.863,M,40.593,M,2.1,0123*6E
$GPVTG,237.90,T,-402.00,M,004.529,N,008.388,K,D*03
$GPGGA,093357.25,5703.3709961,N,00952.0722110,E,2,11,0.8,-1.861,M,40.593,M,2.3,0123*67
$GPVTG,237.75,T,-402.15,M,004.529,N,008.388,K,D*0C
$GPGGA,093357.30,5703.3709633,N,00952.0721138,E,2,11,0.8,-1.859,M,40.593,M,2.3,0123*69
$GPVTG,237.98,T,-401.92,M,004.516,N,008.363,K,D*0A
$GPGGA,093357.35,5703.3709303,N,00952.0720166,E,2,11,0.8,-1.859,M,40.593,M,2.3,0123*60
$GPVTG,238.07,T,-401.83,M,004.508,N,008.348,K,D*05
$GPGGA,093357.40,5703.3708979,N,00952.0719175,E,2,11,0.8,-1.857,M,40.593,M,2.3,0123*62
$GPVTG,238.61,T,-401.29,M,004.525,N,008.381,K,D*0F
$GPGGA,093357.45,5703.3708654,N,00952.0718197,E,2,11,0.8,-1.855,M,40.593,M,2.6,0123*6D
$GPVTG,238.76,T,-401.14,M,004.517,N,008.365,K,D*0C
$GPGGA,093357.50,5703.3708318,N,00952.0717233,E,2,11,0.8,-1.853,M,40.593,M,2.6,0123*60
$GPVTG,238.21,T,-401.69,M,004.504,N,008.341,K,D*00
$GPGGA,093357.55,5703.3707982,N,00952.0716275,E,2,11,0.8,-1.853,M,40.593,M,2.6,0123*60
$GPVTG,237.74,T,-402.16,M,004.486,N,008.308,K,D*02
$GPGGA,093357.60,5703.3707652,N,00952.0715302,E,2,11,0.8,-1.854,M,40.593,M,2.6,0123*61
$GPVTG,237.82,T,-402.08,M,004.491,N,008.318,K,D*03
$GPGGA,093357.65,5703.3707329,N,00952.0714342,E,2,11,0.8,-1.858,M,40.593,M,2.9,0123*6B
$GPVTG,238.04,T,-401.86,M,004.457,N,008.255,K,D*05
$GPGGA,093357.70,5703.3707013,N,00952.0713377,E,2,11,0.8,-1.855,M,40.593,M,2.9,0123*69
$GPVTG,238.47,T,-401.43,M,004.435,N,008.214,K,D*0A
$GPGGA,093357.75,5703.3706684,N,00952.0712391,E,2,11,0.8,-1.854,M,40.593,M,2.9,0123*6D
$GPVTG,238.64,T,-401.26,M,004.481,N,008.298,K,D*03
$GPGGA,093357.80,5703.3706355,N,00952.0711412,E,2,11,0.8,-1.854,M,40.593,M,2.9,0123*61
$GPVTG,238.59,T,-401.31,M,004.502,N,008.338,K,D*0A
$GPGGA,093357.85,5703.3706023,N,00952.0710443,E,2,11,0.8,-1.853,M,40.593,M,3.1,0123*6D
$GPVTG,238.29,T,-401.61,M,004.505,N,008.343,K,D*03
$GPGGA,093357.90,5703.3705699,N,00952.0709473,E,2,11,0.8,-1.852,M,40.593,M,3.1,0123*67
$GPVTG,238.36,T,-401.54,M,004.495,N,008.324,K,D*02
$GPGGA,093357.95,5703.3705381,N,00952.0708500,E,2,11,0.8,-1.853,M,40.593,M,3.1,0123*6B
$GPVTG,238.68,T,-401.22,M,004.480,N,008.297,K,D*05
$GPGGA,093358.00,5703.3705052,N,00952.0707512,E,2,11,0.8,-1.857,M,40.593,M,3.1,0123*6D
$GPVTG,238.73,T,-401.17,M,004.513,N,008.358,K,D*00
$GPGGA,093358.05,5703.3704731,N,00952.0706528,E,2,11,0.8,-1.857,M,40.593,M,1.7,0123*67
$GPVTG,238.83,T,-401.07,M,004.523,N,008.376,K,D*01
$GPGGA,093358.10,5703.3704407,N,00952.0705550,E,2,11,0.8,-1.856,M,40.593,M,1.7,0123*68
$GPVTG,238.83,T,-401.07,M,004.516,N,008.363,K,D*03
$GPGGA,093358.15,5703.3704085,N,00952.0704580,E,2,11,0.8,-1.855,M,40.593,M,1.7,0123*6C
$GPVTG,238.77,T,-401.13,M,004.493,N,008.321,K,D*07
$GPGGA,093358.20,5703.3703756,N,00952.0703598,E,2,11,0.8,-1.857,M,40.593,M,1.7,0123*68
$GPVTG,238.62,T,-401.28,M,004.510,N,008.353,K,D*04
$GPGGA,093358.25,5703.3703428,N,00952.0702619,E,2,11,0.8,-1.860,M,40.593,M,1.9,0123*66
$GPVTG,238.56,T,-401.34,M,004.515,N,008.362,K,D*09
$GPGGA,093358.30,5703.3703096,N,00952.0701639,E,2,11,0.8,-1.863,M,40.593,M,1.9,0123*61
$GPVTG,238.32,T,-401.58,M,004.528,N,008.386,K,D*05
$GPGGA,093358.35,5703.3702772,N,00952.0700655,E,2,11,0.8,-1.862,M,40.593,M,1.9,0123*62
$GPVTG,238.52,T,-401.38,M,004.529,N,008.388,K,D*0A
$GPGGA,093358.40,5703.3702461,N,00952.0699675,E,2,11,0.8,-1.864,M,40.593,M,1.9,0123*64
$GPVTG,239.11,T,-400.79,M,004.498,N,008.330,K,D*00
$GPGGA,093358.45,5703.3702142,N,00952.0698692,E,2,11,0.8,-1.864,M,40.593,M,2.2,0123*65
$GPVTG,239.26,T,-400.64,M,004.495,N,008.325,K,D*01
$GPGGA,093358.50,5703.3701815,N,00952.0697688,E,2,11,0.8,-1.868,M,40.593,M,2.2,0123*61
$GPVTG,239.34,T,-400.56,M,004.545,N,008.418,K,D*06
$GPGGA,093358.55,5703.3701498,N,00952.0696690,E,2,11,0.8,-1.869,M,40.593,M,2.2,0123*64
$GPVTG,239.63,T,-400.27,M,004.551,N,008.429,K,D*05
$GPGGA,093358.60,5703.3701192,N,00952.0695707,E,2,11,0.8,-1.867,M,40.593,M,2.2,0123*6F
$GPVTG,240.04,T,-399.86,M,004.507,N,008.347,K,D*0A
$GPGGA,093358.65,5703.3700892,N,00952.0694727,E,2,11,0.8,-1.862,M,40.593,M,2.4,0123*62
$GPVTG,240.42,T,-399.48,M,004.465,N,008.269,K,D*02
$GPGGA,093358.70,5703.3700585,N,00952.0693728,E,2,11,0.8,-1.861,M,40.593,M,2.4,0123*66
$GPVTG,240.71,T,-399.19,M,004.478,N,008.294,K,D*08
$GPGGA,093358.75,5703.3700279,N,00952.0692736,E,2,11,0.8,-1.860,M,40.593,M,2.4,0123*68
$GPVTG,240.81,T,-399.09,M,004.474,N,008.286,K,D*09
$GPGGA,093358.80,5703.3699974,N,00952.0691750,E,2,11,0.8,-1.858,M,40.593,M,2.4,0123*6D
$GPVTG,240.80,T,-399.10,M,004.460,N,008.259,K,D*07
$GPGGA,093358.85,5703.3699663,N,00952.0690775,E,2,11,0.8,-1.860,M,40.593,M,2.7,0123*6F
$GPVTG,240.36,T,-399.54,M,004.441,N,008.225,K,D*02
$GPGGA,093358.90,5703.3699352,N,00952.0689784,E,2,11,0.8,-1.859,M,40.593,M,2.7,0123*60
$GPVTG,240.28,T,-399.62,M,004.459,N,008.259,K,D*0A
$GPGGA,093358.95,5703.3699045,N,00952.0688801,E,2,11,0.8,-1.858,M,40.593,M,2.7,0123*62
$GPVTG,240.24,T,-399.66,M,004.455,N,008.250,K,D*07
$GPGGA,093359.00,5703.3698731,N,00952.0687829,E,2,11,0.8,-1.856,M,40.593,M,2.7,0123*61
$GPVTG,239.78,T,-400.12,M,004.444,N,008.229,K,D*0A
$GPGGA,093359.05,5703.3698428,N,00952.0686850,E,2,11,0.8,-1.848,M,40.593,M,1.6,0123*6D
$GPVTG,239.84,T,-400.06,M,004.442,N,008.226,K,D*05
$GPGGA,093359.10,5703.3698109,N,00952.0685852,E,2,11,0.8,-1.848,M,40.593,M,1.6,0123*6E
$GPVTG,239.74,T,-400.16,M,004.491,N,008.318,K,D*09
$GPGGA,093359.15,5703.3697794,N,00952.0684867,E,2,11,0.8,-1.848,M,40.593,M,1.6,0123*61
$GPVTG,239.59,T,-400.31,M,004.497,N,008.329,K,D*07
$GPGGA,093359.20,5703.3697493,N,00952.0683879,E,2,11,0.8,-1.850,M,40.593,M,1.6,0123*62
$GPVTG,240.08,T,-399.82,M,004.480,N,008.298,K,D*0F
$GPGGA,093359.25,5703.3697179,N,00952.0682895,E,2,11,0.8,-1.853,M,40.593,M,1.8,0123*68
$GPVTG,239.91,T,-399.99,M,004.483,N,008.303,K,D*0B
$GPGGA,093359.30,5703.3696860,N,00952.0681903,E,2,11,0.8,-1.853,M,40.593,M,1.8,0123*61
$GPVTG,239.71,T,-400.19,M,004.506,N,008.346,K,D*07
$GPGGA,093359.35,5703.3696550,N,00952.0680915,E,2,11,0.8,-1.855,M,40.593,M,1.8,0123*6A
$GPVTG,239.83,T,-400.07,M,004.500,N,008.335,K,D*07
$GPGGA,093359.40,5703.3696248,N,00952.0679926,E,2,11,0.8,-1.854,M,40.593,M,1.8,0123*61
$GPVTG,240.24,T,-399.66,M,004.484,N,008.304,K,D*0B
$GPGGA,093359.45,5703.3695950,N,00952.0678936,E,2,11,0.8,-1.853,M,40.593,M,2.0,0123*69
$GPVTG,240.71,T,-399.19,M,004.464,N,008.268,K,D*06
$GPGGA,093359.50,5703.3695635,N,00952.0677955,E,2,11,0.8,-1.853,M,40.593,M,2.0,0123*6B
$GPVTG,240.23,T,-399.67,M,004.467,N,008.272,K,D*00
$GPGGA,093359.55,5703.3695318,N,00952.0676960,E,2,11,0.8,-1.853,M,40.593,M,2.0,0123*63
$GPVTG,240.01,T,-399.89,M,004.496,N,008.327,K,D*0F
$GPGGA,093359.60,5703.3695008,N,00952.0675966,E,2,11,0.8,-1.855,M,40.593,M,2.0,0123*64
$GPVTG,240.09,T,-399.81,M,004.501,N,008.336,K,D*00
$GPGGA,093359.65,5703.3694692,N,00952.0674975,E,2,11,0.8,-1.861,M,40.593,M,2.3,0123*62
$GPVTG,239.92,T,-399.98,M,004.508,N,008.349,K,D*05
$GPGGA,093359.70,5703.3694384,N,00952.0673980,E,2,11,0.8,-1.861,M,40.593,M,2.3,0123*69
$GPVTG,240.11,T,-399.79,M,004.509,N,008.350,K,D*06
$GPGGA,093359.75,5703.3694073,N,00952.0672989,E,2,11,0.8,-1.862,M,40.593,M,2.3,0123*6C
$GPVTG,240.10,T,-399.80,M,004.506,N,008.346,K,D*09
$GPGGA,093359.80,5703.3693768,N,00952.0671978,E,2,11,0.8,-1.863,M,40.593,M,2.3,0123*60
$GPVTG,240.56,T,-399.34,M,004.528,N,008.387,K,D*05
$GPGGA,093359.85,5703.3693465,N,00952.0670969,E,2,11,0.8,-1.866,M,40.593,M,2.5,0123*69
$GPVTG,240.91,T,-398.99,M,004.536,N,008.401,K,D*0E
$GPGGA,093359.90,5703.3693157,N,00952.0669965,E,2,11,0.8,-1.867,M,40.593,M,2.5,0123*6C
$GPVTG,240.89,T,-399.01,M,004.539,N,008.406,K,D*0F
$GPGGA,093359.95,5703.3692850,N,00952.0668952,E,2,11,0.8,-1.867,M,40.593,M,2.5,0123*63
$GPVTG,241.03,T,-398.87,M,004.554,N,008.434,K,D*09
$GPGGA,093400.00,5703.3692551,N,00952.0667938,E,2,11,0.8,-1.866,M,40.593,M,2.5,0123*6A
$GPVTG,241.34,T,-398.56,M,004.551,N,008.429,K,D*08
$GPGGA,093400.05,5703.3692245,N,00952.0666912,E,2,11,0.8,-1.868,M,40.593,M,2.7,0123*68
$GPVTG,241.38,T,-398.52,M,004.586,N,008.493,K,D*0B
$GPGGA,093400.10,5703.3691943,N,00952.0665884,E,2,11,0.8,-1.869,M,40.593,M,2.7,0123*6E
$GPVTG,241.63,T,-398.27,M,004.598,N,008.516,K,D*04
$GPGGA,093400.15,5703.3691643,N,00952.0664872,E,2,11,0.8,-1.870,M,40.593,M,2.7,0123*64
$GPVTG,241.64,T,-398.26,M,004.572,N,008.467,K,D*01
$GPGGA,093400.20,5703.3691331,N,00952.0663864,E,2,11,0.8,-1.874,M,40.593,M,2.7,0123*66
$GPVTG,241.15,T,-398.75,M,004.563,N,008.451,K,D*04
$GPGGA,093400.25,5703.3691028,N,00952.0662862,E,2,11,0.8,-1.872,M,40.593,M,2.9,0123*67
$GPVTG,241.00,T,-398.90,M,004.537,N,008.402,K,D*0C
$GPGGA,093400.30,5703.3690724,N,00952.0661855,E,2,11,0.8,-1.869,M,40.593,M,2.9,0123*64
$GPVTG,240.98,T,-398.92,M,004.526,N,008.382,K,D*01
$GPGGA,093400.35,5703.3690415,N,00952.0660841,E,2,11,0.8,-1.868,M,40.593,M,2.9,0123*65
$GPVTG,240.85,T,-399.05,M,004.539,N,008.407,K,D*06
$GPGGA,093400.40,5703.3690102,N,00952.0659833,E,2,11,0.8,-1.868,M,40.593,M,2.9,0123*6B
$GPVTG,240.56,T,-399.34,M,004.548,N,008.424,K,D*0D
$GPGGA,093400.45,5703.3689794,N,00952.0658837,E,2,11,0.8,-1.864,M,40.593,M,3.1,0123*6F
$GPVTG,240.35,T,-399.55,M,004.530,N,008.389,K,D*00
$GPGGA,093400.50,5703.3689489,N,00952.0657825,E,2,11,0.8,-1.863,M,40.593,M,3.1,0123*6F
$GPVTG,240.61,T,-399.29,M,004.534,N,008.398,K,D*0E
$GPGGA,093400.55,5703.3689191,N,00952.0656803,E,2,11,0.8,-1.864,M,40.593,M,3.1,0123*64
$GPVTG,241.16,T,-398.74,M,004.547,N,008.422,K,D*04
$GPGGA,093400.60,5703.3688889,N,00952.0655774,E,2,11,0.8,-1.862,M,40.593,M,3.1,0123*69
$GPVTG,241.52,T,-398.38,M,004.574,N,008.471,K,D*0A
$GPGGA,093400.65,5703.3688585,N,00952.0654738,E,2,11,0.8,-1.863,M,40.593,M,3.3,0123*67
$GPVTG,241.74,T,-398.16,M,004.609,N,008.536,K,D*09
$GPGGA,093400.70,5703.3688287,N,00952.0653707,E,2,11,0.8,-1.861,M,40.593,M,3.3,0123*6F
$GPVTG,242.00,T,-397.90,M,004.610,N,008.538,K,D*0E
$GPGGA,093400.75,5703.3687985,N,00952.0652682,E,2,11,0.8,-1.859,M,40.593,M,3.3,0123*6A
$GPVTG,241.94,T,-397.96,M,004.605,N,008.528,K,D*03
$GPGGA,093400.80,5703.3687688,N,00952.0651654,E,2,11,0.8,-1.859,M,40.593,M,3.3,0123*6A
$GPVTG,242.13,T,-397.77,M,004.594,N,008.508,K,D*09
$GPGGA,093400.85,5703.3687389,N,00952.0650613,E,2,11,0.8,-1.860,M,40.593,M,3.5,0123*65
$GPVTG,242.28,T,-397.62,M,004.613,N,008.543,K,D*06
$GPGGA,093400.90,5703.3687084,N,00952.0649569,E,2,11,0.8,-1.862,M,40.593,M,3.5,0123*6B
$GPVTG,242.18,T,-397.72,M,004.639,N,008.592,K,D*00
$GPGGA,093400.95,5703.3686780,N,00952.0648536,E,2,11,0.8,-1.863,M,40.593,M,3.5,0123*66
$GPVTG,241.96,T,-397.94,M,004.635,N,008.585,K,D*07
$GPGGA,093401.00,5703.3686477,N,00952.0647495,E,2,11,0.8,-1.862,M,40.593,M,3.5,0123*66
$GPVTG,241.94,T,-397.96,M,004.641,N,008.596,K,D*06
$GPGGA,093401.05,5703.3686179,N,00952.0646454,E,2,11,0.8,-1.859,M,40.593,M,2.1,0123*69
$GPVTG,241.98,T,-397.92,M,004.648,N,008.608,K,D*03
$GPGGA,093401.10,5703.3685880,N,00952.0645422,E,2,11,0.8,-1.858,M,40.593,M,2.1,0123*62
$GPVTG,241.99,T,-397.91,M,004.625,N,008.566,K,D*01
$GPGGA,093401.15,5703.3685587,N,00952.0644375,E,2,11,0.8,-1.858,M,40.593,M,2.1,0123*69
$GPVTG,242.40,T,-397.50,M,004.626,N,008.568,K,D*06
$GPGGA,093401.20,5703.3685291,N,00952.0643319,E,2,11,0.8,-1.856,M,40.593,M,2.1,0123*6C
$GPVTG,242.66,T,-397.24,M,004.651,N,008.613,K,D*0E
$GPGGA,093401.25,5703.3684998,N,00952.0642258,E,2,11,0.8,-1.859,M,40.593,M,2.3,0123*62
$GPVTG,243.00,T,-396.90,M,004.669,N,008.647,K,D*0B
$GPGGA,093401.30,5703.3684703,N,00952.0641218,E,2,11,0.8,-1.858,M,40.593,M,2.3,0123*6C
$GPVTG,242.89,T,-397.01,M,004.644,N,008.601,K,D*0F
$GPGGA,093401.35,5703.3684401,N,00952.0640178,E,2,11,0.8,-1.857,M,40.593,M,2.3,0123*63
$GPVTG,242.52,T,-397.38,M,004.637,N,008.588,K,D*05
$GPGGA,093401.40,5703.3684106,N,00952.0639131,E,2,11,0.8,-1.857,M,40.593,M,2.3,0123*60
$GPVTG,242.60,T,-397.30,M,004.633,N,008.581,K,D*01
$GPGGA,093401.45,5703.3683812,N,00952.0638089,E,2,11,0.8,-1.856,M,40.593,M,2.6,0123*69
$GPVTG,242.60,T,-397.30,M,004.625,N,008.566,K,D*0F
$GPGGA,093401.50,5703.3683520,N,00952.0637044,E,2,11,0.8,-1.856,M,40.593,M,2.6,0123*6F
$GPVTG,242.73,T,-397.17,M,004.619,N,008.555,K,D*07
$GPGGA,093401.55,5703.3683229,N,00952.0635995,E,2,11,0.8,-1.854,M,40.593,M,2.6,0123*61
$GPVTG,242.93,T,-396.97,M,004.621,N,008.557,K,D*09
$GPGGA,093401.60,5703.3682937,N,00952.0634956,E,2,11,0.8,-1.852,M,40.593,M,2.6,0123*6A
$GPVTG,242.86,T,-397.04,M,004.605,N,008.528,K,D*08
$GPGGA,093401.65,5703.3682649,N,00952.0633911,E,2,11,0.8,-1.853,M,40.593,M,2.9,0123*63
$GPVTG,243.04,T,-396.86,M,004.602,N,008.522,K,D*05
$GPGGA,093401.70,5703.3682358,N,00952.0632860,E,2,11,0.8,-1.851,M,40.593,M,2.9,0123*66
$GPVTG,243.15,T,-396.75,M,004.614,N,008.545,K,D*0F
$GPGGA,093401.75,5703.3682069,N,00952.0631806,E,2,11,0.8,-1.850,M,40.593,M,2.9,0123*60
$GPVTG,243.27,T,-396.63,M,004.626,N,008.567,K,D*08
$GPGGA,093401.80,5703.3681786,N,00952.0630750,E,2,11,0.8,-1.851,M,40.593,M,2.9,0123*63
$GPVTG,243.60,T,-396.30,M,004.629,N,008.574,K,D*00
$GPGGA,093401.85,5703.3681506,N,00952.0629690,E,2,11,0.8,-1.852,M,40.593,M,3.1,0123*63
$GPVTG,243.98,T,-395.92,M,004.633,N,008.581,K,D*0D
$GPGGA,093401.90,5703.3681229,N,00952.0628643,E,2,11,0.8,-1.850,M,40.593,M,3.1,0123*60
$GPVTG,244.19,T,-395.71,M,004.606,N,008.530,K,D*02
$GPGGA,093401.95,5703.3680944,N,00952.0627610,E,2,11,0.8,-1.849,M,40.593,M,3.1,0123*65
$GPVTG,243.84,T,-396.06,M,004.574,N,008.471,K,D*00
$GPGGA,093402.00,5703.3680659,N,00952.0626564,E,2,11,0.8,-1.850,M,40.593,M,3.1,0123*60
$GPVTG,243.69,T,-396.21,M,004.578,N,008.478,K,D*03
$GPGGA,093402.05,5703.3680374,N,00952.0625516,E,2,11,0.8,-1.843,M,40.593,M,1.7,0123*6F
$GPVTG,243.44,T,-396.46,M,004.593,N,008.507,K,D*01
$GPGGA,093402.10,5703.3680092,N,00952.0624483,E,2,11,0.8,-1.840,M,40.593,M,1.7,0123*6F
$GPVTG,243.37,T,-396.53,M,004.567,N,008.458,K,D*01
$GPGGA,093402.15,5703.3679814,N,00952.0623441,E,2,11,0.8,-1.840,M,40.593,M,1.7,0123*63
$GPVTG,243.58,T,-396.32,M,004.558,N,008.441,K,D*0B
$GPGGA,093402.20,5703.3679520,N,00952.0622403,E,2,11,0.8,-1.837,M,40.593,M,1.7,0123*68
$GPVTG,243.12,T,-396.78,M,004.571,N,008.465,K,D*06
$GPGGA,093402.25,5703.3679229,N,00952.0621356,E,2,11,0.8,-1.840,M,40.593,M,1.9,0123*69
$GPVTG,243.04,T,-396.86,M,004.590,N,008.500,K,D*0D
$GPGGA,093402.30,5703.3678941,N,00952.0620318,E,2,11,0.8,-1.841,M,40.593,M,1.9,0123*63
$GPVTG,242.96,T,-396.94,M,004.587,N,008.496,K,D*0C
$GPGGA,093402.35,5703.3678658,N,00952.0619291,E,2,11,0.8,-1.841,M,40.593,M,1.9,0123*6B
$GPVTG,242.95,T,-396.95,M,004.558,N,008.441,K,D*06
$GPGGA,093402.40,5703.3678371,N,00952.0618259,E,2,11,0.8,-1.842,M,40.593,M,1.9,0123*61
$GPVTG,242.91,T,-396.99,M,004.552,N,008.430,K,D*02
$GPGGA,093402.45,5703.3678091,N,00952.0617230,E,2,11,0.8,-1.839,M,40.593,M,2.2,0123*6D
$GPVTG,243.11,T,-396.79,M,004.533,N,008.395,K,D*0A
$GPGGA,093402.50,5703.3677818,N,00952.0616186,E,2,11,0.8,-1.838,M,40.593,M,2.2,0123*61
$GPVTG,243.73,T,-396.17,M,004.538,N,008.405,K,D*03
$GPGGA,093402.55,5703.3677530,N,00952.0615148,E,2,11,0.8,-1.839,M,40.593,M,2.2,0123*63
$GPVTG,243.47,T,-396.43,M,004.555,N,008.435,K,D*0D
$GPGGA,093402.60,5703.3677238,N,00952.0614122,E,2,11,0.8,-1.839,M,40.593,M,2.2,0123*67
$GPVTG,243.03,T,-396.87,M,004.550,N,008.427,K,D*03
$GPGGA,093402.65,5703.3676951,N,00952.0613094,E,2,11,0.8,-1.844,M,40.593,M,2.4,0123*60
$GPVTG,242.94,T,-396.96,M,004.541,N,008.410,K,D*08
$GPGGA,093402.70,5703.3676659,N,00952.0612062,E,2,11,0.8,-1.845,M,40.593,M,2.4,0123*6A
$GPVTG,242.71,T,-397.19,M,004.556,N,008.437,K,D*06
$GPGGA,093402.75,5703.3676361,N,00952.0611029,E,2,11,0.8,-1.846,M,40.593,M,2.4,0123*6E
$GPVTG,242.34,T,-397.56,M,004.575,N,008.473,K,D*0D
$GPGGA,093402.80,5703.3676079,N,00952.0609999,E,2,11,0.8,-1.847,M,40.593,M,2.4,0123*64
$GPVTG,242.67,T,-397.23,M,004.560,N,008.445,K,D*08
$GPGGA,093402.85,5703.3675802,N,00952.0608966,E,2,11,0.8,-1.848,M,40.593,M,2.7,0123*6B
$GPVTG,243.16,T,-396.74,M,004.545,N,008.417,K,D*0C
$GPGGA,093402.90,5703.3675512,N,00952.0607937,E,2,11,0.8,-1.849,M,40.593,M,2.7,0123*69
$GPVTG,242.97,T,-396.93,M,004.548,N,008.423,K,D*07
$GPGGA,093402.95,5703.3675220,N,00952.0606912,E,2,11,0.8,-1.849,M,40.593,M,2.7,0123*6C
$GPVTG,242.68,T,-397.22,M,004.545,N,008.417,K,D*06
$GPGGA,093403.00,5703.3674925,N,00952.0605891,E,2,11,0.8,-1.849,M,40.593,M,2.7,0123*67
$GPVTG,242.36,T,-397.54,M,004.541,N,008.409,K,D*07
$GPGGA,093403.05,5703.3674640,N,00952.0604863,E,2,11,0.8,-1.851,M,40.593,M,1.6,0123*69
$GPVTG,242.48,T,-397.42,M,004.541,N,008.410,K,D*01
$GPGGA,093403.10,5703.3674352,N,00952.0603838,E,2,11,0.8,-1.851,M,40.593,M,1.6,0123*62
$GPVTG,242.56,T,-397.34,M,004.536,N,008.401,K,D*0F
$GPGGA,093403.15,5703.3674070,N,00952.0602815,E,2,11,0.8,-1.853,M,40.593,M,1.6,0123*68
$GPVTG,242.81,T,-397.09,M,004.521,N,008.372,K,D*0E
$GPGGA,093403.20,5703.3673781,N,00952.0601804,E,2,11,0.8,-1.854,M,40.593,M,1.6,0123*64
$GPVTG,242.58,T,-397.32,M,004.500,N,008.333,K,D*04
$GPGGA,093403.25,5703.3673489,N,00952.0600794,E,2,11,0.8,-1.852,M,40.593,M,1.8,0123*65
$GPVTG,242.30,T,-397.60,M,004.491,N,008.317,K,D*02
$GPGGA,093403.30,5703.3673203,N,00952.0599779,E,2,11,0.8,-1.852,M,40.593,M,1.8,0123*65
$GPVTG,242.37,T,-397.53,M,004.486,N,008.308,K,D*0D
$GPGGA,093403.35,5703.3672909,N,00952.0598751,E,2,11,0.8,-1.853,M,40.593,M,1.8,0123*6A
$GPVTG,242.34,T,-397.56,M,004.520,N,008.371,K,D*08
$GPGGA,093403.40,5703.3672609,N,00952.0597727,E,2,11,0.8,-1.855,M,40.593,M,1.8,0123*6F
$GPVTG,242.05,T,-397.85,M,004.546,N,008.420,K,D*07
$GPGGA,093403.45,5703.3672319,N,00952.0596699,E,2,11,0.8,-1.857,M,40.593,M,2.0,0123*62
$GPVTG,242.26,T,-397.64,M,004.557,N,008.440,K,D*0F
$GPGGA,093403.50,5703.3672024,N,00952.0595684,E,2,11,0.8,-1.856,M,40.593,M,2.0,0123*65
$GPVTG,242.06,T,-397.84,M,004.546,N,008.420,K,D*05
$GPGGA,093403.55,5703.3671729,N,00952.0594654,E,2,11,0.8,-1.855,M,40.593,M,2.0,0123*66
$GPVTG,242.11,T,-397.79,M,004.563,N,008.451,K,D*00
$GPGGA,093403.60,5703.3671430,N,00952.0593629,E,2,11,0.8,-1.857,M,40.593,M,2.0,0123*64
$GPVTG,241.96,T,-397.94,M,004.572,N,008.467,K,D*0A
$GPGGA,093403.65,5703.3671137,N,00952.0592601,E,2,11,0.8,-1.859,M,40.593,M,2.3,0123*65
$GPVTG,242.10,T,-397.80,M,004.574,N,008.471,K,D*03
$GPGGA,093403.70,5703.3670836,N,00952.0591581,E,2,11,0.8,-1.862,M,40.593,M,2.3,0123*68
$GPVTG,241.86,T,-398.04,M,004.570,N,008.464,K,D*0C
$GPGGA,093403.75,5703.3670531,N,00952.0590557,E,2,11,0.8,-1.863,M,40.593,M,2.3,0123*6C
$GPVTG,241.52,T,-398.38,M,004.582,N,008.486,K,D*0B
$GPGGA,093403.80,5703.3670230,N,00952.0589546,E,2,11,0.8,-1.864,M,40.593,M,2.3,0123*6F
$GPVTG,241.32,T,-398.58,M,004.560,N,008.446,K,D*0B
$GPGGA,093403.85,5703.3669923,N,00952.0588535,E,2,11,0.8,-1.861,M,40.593,M,2.5,0123*6D
$GPVTG,240.97,T,-398.93,M,004.556,N,008.437,K,D*01
$GPGGA,093403.90,5703.3669619,N,00952.0587515,E,2,11,0.8,-1.863,M,40.593,M,2.5,0123*60
$GPVTG,240.98,T,-398.92,M,004.562,N,008.449,K,D*01
$GPGGA,093403.95,5703.3669325,N,00952.0586501,E,2,11,0.8,-1.862,M,40.593,M,2.5,0123*6A
$GPVTG,241.33,T,-398.57,M,004.542,N,008.412,K,D*04
$GPGGA,093404.00,5703.3669023,N,00952.0585473,E,2,11,0.8,-1.863,M,40.593,M,2.5,0123*62
$GPVTG,241.48,T,-398.42,M,004.563,N,008.452,K,D*0B
$GPGGA,093404.05,5703.3668729,N,00952.0584450,E,2,11,0.8,-1.865,M,40.593,M,2.7,0123*6F
$GPVTG,241.73,T,-398.17,M,004.561,N,008.448,K,D*0A
$GPGGA,093404.10,5703.3668418,N,00952.0583432,E,2,11,0.8,-1.865,M,40.593,M,2.7,0123*69
$GPVTG,241.31,T,-398.59,M,004.574,N,008.471,K,D*08
$GPGGA,093404.15,5703.3668113,N,00952.0582409,E,2,11,0.8,-1.867,M,40.593,M,2.7,0123*69
$GPVTG,241.31,T,-398.59,M,004.582,N,008.485,K,D*0A
$GPGGA,093404.20,5703.3667807,N,00952.0581400,E,2,11,0.8,-1.866,M,40.593,M,2.7,0123*67
$GPVTG,241.07,T,-398.83,M,004.564,N,008.452,K,D*0A
$GPGGA,093404.25,5703.3667509,N,00952.0580381,E,2,11,0.8,-1.862,M,40.593,M,2.9,0123*64
$GPVTG,241.29,T,-398.61,M,004.559,N,008.443,K,D*04
$GPGGA,093404.30,5703.3667218,N,00952.0579364,E,2,11,0.8,-1.862,M,40.593,M,2.9,0123*6A
$GPVTG,241.73,T,-398.17,M,004.540,N,008.407,K,D*02
$GPGGA,093404.35,5703.3666919,N,00952.0578334,E,2,11,0.8,-1.863,M,40.593,M,2.9,0123*61
$GPVTG,241.92,T,-397.98,M,004.560,N,008.445,K,D*01
$GPGGA,093404.40,5703.3666614,N,00952.0577302,E,2,11,0.8,-1.861,M,40.593,M,2.9,0123*69
$GPVTG,241.85,T,-398.05,M,004.588,N,008.496,K,D*04
$GPGGA,093404.45,5703.3666324,N,00952.0576280,E,2,11,0.8,-1.864,M,40.593,M,3.1,0123*6C
$GPVTG,242.22,T,-397.68,M,004.563,N,008.452,K,D*03
$GPGGA,093404.50,5703.3666026,N,00952.0575265,E,2,11,0.8,-1.863,M,40.593,M,3.1,0123*66
$GPVTG,242.06,T,-397.84,M,004.548,N,008.423,K,D*08
$GPGGA,093404.55,5703.3665726,N,00952.0574237,E,2,11,0.8,-1.864,M,40.593,M,3.1,0123*66
$GPVTG,242.00,T,-397.90,M,004.562,N,008.448,K,D*0E
$GPGGA,093404.60,5703.3665419,N,00952.0573209,E,2,11,0.8,-1.865,M,40.593,M,3.1,0123*64
$GPVTG,241.69,T,-398.21,M,004.586,N,008.494,K,D*0C
$GPGGA,093404.65,5703.3665111,N,00952.0572184,E,2,11,0.8,-1.864,M,40.593,M,3.3,0123*68
$GPVTG,241.40,T,-398.50,M,004.598,N,008.516,K,D*05
$GPGGA,093404.70,5703.3664816,N,00952.0571176,E,2,11,0.8,-1.864,M,40.593,M,3.3,0123*6D
$GPVTG,241.43,T,-398.47,M,004.555,N,008.436,K,D*02
$GPGGA,093404.75,5703.3664514,N,00952.0570141,E,2,11,0.8,-1.864,M,40.593,M,3.3,0123*62
$GPVTG,241.61,T,-398.29,M,004.581,N,008.484,K,D*0A
$GPGGA,093404.80,5703.3664216,N,00952.0569123,E,2,11,0.8,-1.866,M,40.593,M,3.3,0123*63
$GPVTG,241.64,T,-398.26,M,004.566,N,008.457,K,D*07
$GPGGA,093404.85,5703.3663917,N,00952.0568101,E,2,11,0.8,-1.869,M,40.593,M,3.5,0123*63
$GPVTG,241.70,T,-398.20,M,004.561,N,008.447,K,D*02
$GPGGA,093404.90,5703.3663617,N,00952.0567075,E,2,11,0.8,-1.868,M,40.593,M,3.5,0123*64
$GPVTG,241.76,T,-398.14,M,004.568,N,008.461,K,D*0E
$GPGGA,093404.95,5703.3663318,N,00952.0566032,E,2,11,0.8,-1.867,M,40.593,M,3.5,0123*66
$GPVTG,242.05,T,-397.85,M,004.603,N,008.525,K,D*01
$GPGGA,093405.00,5703.3663010,N,00952.0564990,E,2,11,0.8,-1.867,M,40.593,M,3.5,0123*63
$GPVTG,241.88,T,-398.02,M,004.638,N,008.590,K,D*01
$GPGGA,093405.05,5703.3662706,N,00952.0563965,E,2,11,0.8,-1.863,M,40.593,M,2.1,0123*6B
$GPVTG,241.55,T,-398.35,M,004.628,N,008.571,K,D*0B
$GPGGA,093405.10,5703.3662410,N,00952.0562930,E,2,11,0.8,-1.862,M,40.593,M,2.1,0123*6B
$GPVTG,241.86,T,-398.04,M,004.621,N,008.558,K,D*05
$GPGGA,093405.15,5703.3662114,N,00952.0561907,E,2,11,0.8,-1.863,M,40.593,M,2.1,0123*69
$GPVTG,241.93,T,-397.97,M,004.590,N,008.501,K,D*01
$GPGGA,093405.20,5703.3661806,N,00952.0560884,E,2,11,0.8,-1.865,M,40.593,M,2.1,0123*6B
$GPVTG,241.54,T,-398.36,M,004.588,N,008.498,K,D*06
$GPGGA,093405.25,5703.3661494,N,00952.0559851,E,2,11,0.8,-1.871,M,40.593,M,2.3,0123*6C
$GPVTG,241.28,T,-398.62,M,004.610,N,008.538,K,D*05
$GPGGA,093405.30,5703.3661187,N,00952.0558812,E,2,11,0.8,-1.871,M,40.593,M,2.3,0123*69
$GPVTG,241.33,T,-398.57,M,004.631,N,008.578,K,D*0E
$GPGGA,093405.35,5703.3660870,N,00952.0557770,E,2,11,0.8,-1.871,M,40.593,M,2.3,0123*68
$GPVTG,241.06,T,-398.84,M,004.668,N,008.644,K,D*06
$GPGGA,093405.40,5703.3660558,N,00952.0556719,E,2,11,0.8,-1.872,M,40.593,M,2.3,0123*60
$GPVTG,241.18,T,-398.72,M,004.697,N,008.698,K,D*01
$GPGGA,093405.45,5703.3660261,N,00952.0555672,E,2,11,0.8,-1.871,M,40.593,M,2.6,0123*61
$GPVTG,241.70,T,-398.20,M,004.687,N,008.681,K,D*01
$GPGGA,093405.50,5703.3659957,N,00952.0554637,E,2,11,0.8,-1.873,M,40.593,M,2.6,0123*63
$GPVTG,241.75,T,-398.15,M,004.663,N,008.636,K,D*04
$GPGGA,093405.55,5703.3659648,N,00952.0553597,E,2,11,0.8,-1.873,M,40.593,M,2.6,0123*69
$GPVTG,241.61,T,-398.29,M,004.660,N,008.631,K,D*0A
$GPGGA,093405.60,5703.3659343,N,00952.0552552,E,2,11,0.8,-1.871,M,40.593,M,2.6,0123*6B
$GPVTG,241.73,T,-398.17,M,004.664,N,008.638,K,D*09
$GPGGA,093405.65,5703.3659031,N,00952.0551511,E,2,11,0.8,-1.871,M,40.593,M,2.9,0123*63
$GPVTG,241.51,T,-398.39,M,004.667,N,008.642,K,D*0B
$GPGGA,093405.70,5703.3658721,N,00952.0550476,E,2,11,0.8,-1.873,M,40.593,M,2.9,0123*63
$GPVTG,241.33,T,-398.57,M,004.658,N,008.626,K,D*09
$GPGGA,093405.75,5703.3658417,N,00952.0549430,E,2,11,0.8,-1.875,M,40.593,M,2.9,0123*6C
$GPVTG,241.56,T,-398.34,M,004.660,N,008.630,K,D*03
$GPGGA,093405.80,5703.3658100,N,00952.0548394,E,2,11,0.8,-1.874,M,40.593,M,2.9,0123*6C
$GPVTG,241.17,T,-398.73,M,004.662,N,008.635,K,D*02
$GPGGA,093405.85,5703.3657780,N,00952.0547346,E,2,11,0.8,-1.879,M,40.593,M,3.1,0123*6C
$GPVTG,240.92,T,-398.98,M,004.690,N,008.686,K,D*0E
$GPGGA,093405.90,5703.3657475,N,00952.0546310,E,2,11,0.8,-1.878,M,40.593,M,3.1,0123*62
$GPVTG,241.17,T,-398.73,M,004.665,N,008.640,K,D*07
$GPGGA,093405.95,5703.3657166,N,00952.0545271,E,2,11,0.8,-1.879,M,40.593,M,3.1,0123*64
$GPVTG,241.24,T,-398.66,M,004.661,N,008.632,K,D*02
$GPGGA,093406.00,5703.3656860,N,00952.0544237,E,2,11,0.8,-1.877,M,40.593,M,3.1,0123*68
$GPVTG,241.31,T,-398.59,M,004.642,N,008.598,K,D*08
$GPGGA,093406.05,5703.3656554,N,00952.0543193,E,2,11,0.8,-1.874,M,40.593,M,1.7,0123*6A
$GPVTG,241.51,T,-398.39,M,004.652,N,008.616,K,D*0C
$GPGGA,093406.10,5703.3656241,N,00952.0542148,E,2,11,0.8,-1.875,M,40.593,M,1.7,0123*6B
$GPVTG,241.42,T,-398.48,M,004.670,N,008.648,K,D*03
$GPGGA,093406.15,5703.3655931,N,00952.0541114,E,2,11,0.8,-1.873,M,40.593,M,1.7,0123*6D
$GPVTG,241.34,T,-398.56,M,004.655,N,008.621,K,D*05
$GPGGA,093406.20,5703.3655631,N,00952.0540083,E,2,11,0.8,-1.870,M,40.593,M,1.7,0123*69
$GPVTG,241.56,T,-398.34,M,004.626,N,008.567,K,D*00
$GPGGA,093406.25,5703.3655317,N,00952.0539060,E,2,11,0.8,-1.869,M,40.593,M,1.9,0123*68
$GPVTG,241.14,T,-398.76,M,004.613,N,008.544,K,D*07
$GPGGA,093406.30,5703.3655000,N,00952.0538036,E,2,11,0.8,-1.869,M,40.593,M,1.9,0123*6B
$GPVTG,240.72,T,-399.18,M,004.614,N,008.545,K,D*09
$GPGGA,093406.35,5703.3654695,N,00952.0537015,E,2,11,0.8,-1.865,M,40.593,M,1.9,0123*67
$GPVTG,240.88,T,-399.02,M,004.592,N,008.504,K,D*0F
$GPGGA,093406.40,5703.3654387,N,00952.0535985,E,2,11,0.8,-1.862,M,40.593,M,1.9,0123*66
$GPVTG,240.98,T,-398.92,M,004.598,N,008.516,K,D*0F
$GPGGA,093406.45,5703.3654082,N,00952.0534953,E,2,11,0.8,-1.862,M,40.593,M,2.2,0123*67
$GPVTG,241.27,T,-398.63,M,004.601,N,008.521,K,D*03
$GPGGA,093406.50,5703.3653779,N,00952.0533932,E,2,11,0.8,-1.860,M,40.593,M,2.2,0123*65
$GPVTG,241.38,T,-398.52,M,004.584,N,008.490,K,D*0A
$GPGGA,093406.55,5703.3653470,N,00952.0532911,E,2,11,0.8,-1.859,M,40.593,M,2.2,0123*60
$GPVTG,241.21,T,-398.69,M,004.581,N,008.485,K,D*0B
$GPGGA,093406.60,5703.3653157,N,00952.0531875,E,2,11,0.8,-1.860,M,40.593,M,2.2,0123*6C
$GPVTG,241.15,T,-398.75,M,004.616,N,008.549,K,D*0D
$GPGGA,093406.65,5703.3652854,N,00952.0530849,E,2,11,0.8,-1.857,M,40.593,M,2.4,0123*6E
$GPVTG,241.29,T,-398.61,M,004.609,N,008.535,K,D*02
$GPGGA,093406.70,5703.3652552,N,00952.0529831,E,2,11,0.8,-1.855,M,40.593,M,2.4,0123*64
$GPVTG,241.36,T,-398.54,M,004.583,N,008.488,K,D*0C
$GPGGA,093406.75,5703.3652256,N,00952.0528817,E,2,11,0.8,-1.854,M,40.593,M,2.4,0123*66
$GPVTG,241.58,T,-398.32,M,004.549,N,008.424,K,D*04
$GPGGA,093406.80,5703.3651948,N,00952.0527802,E,2,11,0.8,-1.854,M,40.593,M,2.4,0123*60
$GPVTG,241.31,T,-398.59,M,004.549,N,008.424,K,D*06
$GPGGA,093406.85,5703.3651645,N,00952.0526776,E,2,11,0.8,-1.855,M,40.593,M,2.7,0123*68
$GPVTG,241.45,T,-398.45,M,004.560,N,008.445,K,D*04
$GPGGA,093406.90,5703.3651348,N,00952.0525765,E,2,11,0.8,-1.857,M,40.593,M,2.7,0123*67
$GPVTG,241.55,T,-398.35,M,004.535,N,008.400,K,D*03
$GPGGA,093406.95,5703.3651040,N,00952.0524765,E,2,11,0.8,-1.858,M,40.593,M,2.7,0123*67
$GPVTG,241.11,T,-398.79,M,004.516,N,008.364,K,D*0F
$GPGGA,093407.00,5703.3650739,N,00952.0523763,E,2,11,0.8,-1.857,M,40.593,M,2.7,0123*6C
$GPVTG,241.05,T,-398.85,M,004.499,N,008.332,K,D*0C
$GPGGA,093407.05,5703.3650430,N,00952.0522765,E,2,11,0.8,-1.852,M,40.593,M,1.6,0123*63
$GPVTG,240.65,T,-399.25,M,004.502,N,008.338,K,D*09
$GPGGA,093407.10,5703.3650134,N,00952.0521756,E,2,11,0.8,-1.851,M,40.593,M,1.6,0123*66
$GPVTG,241.07,T,-398.83,M,004.499,N,008.332,K,D*08
$GPGGA,093407.15,5703.3649832,N,00952.0520762,E,2,11,0.8,-1.849,M,40.593,M,1.6,0123*6B
$GPVTG,240.97,T,-398.93,M,004.480,N,008.298,K,D*08
$GPGGA,093407.20,5703.3649530,N,00952.0519772,E,2,11,0.8,-1.847,M,40.593,M,1.6,0123*67
$GPVTG,240.83,T,-399.07,M,004.462,N,008.263,K,D*09
$GPGGA,093407.25,5703.3649231,N,00952.0518779,E,2,11,0.8,-1.851,M,40.593,M,1.8,0123*67
$GPVTG,240.93,T,-398.97,M,004.449,N,008.240,K,D*08
$GPGGA,093407.30,5703.3648931,N,00952.0517778,E,2,11,0.8,-1.851,M,40.593,M,1.8,0123*67
$GPVTG,241.03,T,-398.87,M,004.464,N,008.267,K,D*0B
$GPGGA,093407.35,5703.3648634,N,00952.0516779,E,2,11,0.8,-1.850,M,40.593,M,1.8,0123*69
$GPVTG,241.24,T,-398.66,M,004.466,N,008.271,K,D*04
$GPGGA,093407.40,5703.3648337,N,00952.0515790,E,2,11,0.8,-1.851,M,40.593,M,1.8,0123*68
$GPVTG,241.22,T,-398.68,M,004.450,N,008.242,K,D*09
$GPGGA,093407.45,5703.3648037,N,00952.0514812,E,2,11,0.8,-1.851,M,40.593,M,2.0,0123*61
$GPVTG,240.95,T,-398.95,M,004.424,N,008.194,K,D*0D
$GPGGA,093407.50,5703.3647739,N,00952.0513843,E,2,11,0.8,-1.851,M,40.593,M,2.0,0123*60
$GPVTG,240.75,T,-399.15,M,004.389,N,008.128,K,D*0D
$GPGGA,093407.55,5703.3647439,N,00952.0512873,E,2,11,0.8,-1.851,M,40.593,M,2.0,0123*64
$GPVTG,240.52,T,-399.38,M,004.372,N,008.097,K,D*06
$GPGGA,093407.60,5703.3647141,N,00952.0511899,E,2,11,0.8,-1.851,M,40.593,M,2.0,0123*6F
$GPVTG,240.52,T,-399.38,M,004.371,N,008.095,K,D*07
$GPGGA,093407.65,5703.3646847,N,00952.0510928,E,2,11,0.8,-1.847,M,40.593,M,2.3,0123*6A
$GPVTG,240.64,T,-399.26,M,004.361,N,008.077,K,D*00
$GPGGA,093407.70,5703.3646558,N,00952.0509952,E,2,11,0.8,-1.844,M,40.593,M,2.3,0123*6B
$GPVTG,241.02,T,-398.88,M,004.356,N,008.068,K,D*0E
$GPGGA,093407.75,5703.3646263,N,00952.0508979,E,2,11,0.8,-1.842,M,40.593,M,2.3,0123*6F
$GPVTG,241.03,T,-398.87,M,004.360,N,008.074,K,D*08
$GPGGA,093407.80,5703.3645960,N,00952.0507998,E,2,11,0.8,-1.842,M,40.593,M,2.3,0123*6E
$GPVTG,240.81,T,-399.09,M,004.391,N,008.133,K,D*08
$GPGGA,093407.85,5703.3645668,N,00952.0507023,E,2,11,0.8,-1.845,M,40.593,M,2.5,0123*64
$GPVTG,241.01,T,-398.89,M,004.385,N,008.121,K,D*0E
$GPGGA,093407.90,5703.3645371,N,00952.0506023,E,2,11,0.8,-1.847,M,40.593,M,2.5,0123*6E
$GPVTG,241.25,T,-398.65,M,004.434,N,008.212,K,D*04
$GPGGA,093407.95,5703.3645081,N,00952.0505030,E,2,11,0.8,-1.848,M,40.593,M,2.5,0123*69
$GPVTG,241.59,T,-398.31,M,004.442,N,008.227,K,D*09
$GPGGA,093408.00,5703.3644785,N,00952.0504045,E,2,11,0.8,-1.850,M,40.593,M,2.5,0123*62
$GPVTG,241.48,T,-398.42,M,004.441,N,008.224,K,D*0D
$GPGGA,093408.05,5703.3644500,N,00952.0503056,E,2,11,0.8,-1.849,M,40.593,M,2.7,0123*67
$GPVTG,241.83,T,-398.07,M,004.431,N,008.207,K,D*0D
$GPGGA,093408.10,5703.3644196,N,00952.0502070,E,2,11,0.8,-1.852,M,40.593,M,2.7,0123*67
$GPVTG,241.33,T,-398.57,M,004.442,N,008.227,K,D*05
$GPGGA,093408.15,5703.3643885,N,00952.0501081,E,2,11,0.8,-1.853,M,40.593,M,2.7,0123*62
$GPVTG,240.70,T,-399.20,M,004.468,N,008.274,K,D*0C
$GPGGA,093408.20,5703.3643599,N,00952.0500084,E,2,11,0.8,-1.853,M,40.593,M,2.7,0123*60
$GPVTG,241.30,T,-398.60,M,004.460,N,008.261,K,D*00
$GPGGA,093408.25,5703.3643306,N,00952.0499091,E,2,11,0.8,-1.856,M,40.593,M,2.9,0123*6B
$GPVTG,241.43,T,-398.47,M,004.455,N,008.251,K,D*04
$GPGGA,093408.30,5703.3642998,N,00952.0498119,E,2,11,0.8,-1.860,M,40.593,M,2.9,0123*66
$GPVTG,240.69,T,-399.21,M,004.436,N,008.215,K,D*09
$GPGGA,093408.35,5703.3642684,N,00952.0497133,E,2,11,0.8,-1.864,M,40.593,M,2.9,0123*62
$GPVTG,240.13,T,-399.77,M,004.458,N,008.256,K,D*08
$GPGGA,093408.40,5703.3642392,N,00952.0496139,E,2,11,0.8,-1.866,M,40.593,M,2.9,0123*6B
$GPVTG,240.67,T,-399.23,M,004.455,N,008.250,K,D*01
$GPGGA,093408.45,5703.3642105,N,00952.0495131,E,2,11,0.8,-1.869,M,40.593,M,3.1,0123*6F
$GPVTG,241.50,T,-398.40,M,004.467,N,008.274,K,D*07
$GPGGA,093408.50,5703.3641818,N,00952.0494133,E,2,11,0.8,-1.869,M,40.593,M,3.1,0123*6E
$GPVTG,241.93,T,-397.97,M,004.456,N,008.252,K,D*0B
$GPGGA,093408.55,5703.3641519,N,00952.0493133,E,2,11,0.8,-1.870,M,40.593,M,3.1,0123*68
$GPVTG,241.75,T,-398.15,M,004.473,N,008.283,K,D*0D
$GPGGA,093408.60,5703.3641223,N,00952.0492130,E,2,11,0.8,-1.872,M,40.593,M,3.1,0123*60
$GPVTG,241.78,T,-398.12,M,004.480,N,008.297,K,D*0E
$GPGGA,093408.65,5703.3640927,N,00952.0491120,E,2,11,0.8,-1.876,M,40.593,M,3.3,0123*6F
$GPVTG,241.85,T,-398.05,M,004.499,N,008.333,K,D*0D
$GPGGA,093408.70,5703.3640640,N,00952.0490103,E,2,11,0.8,-1.878,M,40.593,M,3.3,0123*6B
$GPVTG,242.31,T,-397.59,M,004.509,N,008.351,K,D*0B
$GPGGA,093408.75,5703.3640351,N,00952.0489089,E,2,11,0.8,-1.879,M,40.593,M,3.3,0123*61
$GPVTG,242.47,T,-397.43,M,004.511,N,008.355,K,D*0C
$GPGGA,093408.80,5703.3640049,N,00952.0488084,E,2,11,0.8,-1.881,M,40.593,M,3.3,0123*6A
$GPVTG,241.92,T,-397.98,M,004.514,N,008.361,K,D*03
$GPGGA,093408.85,5703.3639752,N,00952.0487086,E,2,11,0.8,-1.883,M,40.593,M,3.5,0123*65
$GPVTG,241.64,T,-398.26,M,004.496,N,008.327,K,D*09
$GPGGA,093408.90,5703.3639450,N,00952.0486079,E,2,11,0.8,-1.884,M,40.593,M,3.5,0123*66
$GPVTG,241.39,T,-398.51,M,004.507,N,008.347,K,D*0E
$GPGGA,093408.95,5703.3639151,N,00952.0485061,E,2,11,0.8,-1.884,M,40.593,M,3.5,0123*6D
$GPVTG,241.43,T,-398.47,M,004.530,N,008.390,K,D*0A
$GPGGA,093409.00,5703.3638847,N,00952.0484034,E,2,11,0.8,-1.885,M,40.593,M,3.5,0123*6F
$GPVTG,241.45,T,-398.45,M,004.570,N,008.463,K,D*01
$GPGGA,093409.05,5703.3638545,N,00952.0483032,E,2,11,0.8,-1.884,M,40.593,M,2.1,0123*60
$GPVTG,241.22,T,-398.68,M,004.551,N,008.428,K,D*03
$GPGGA,093409.10,5703.3638256,N,00952.0482028,E,2,11,0.8,-1.881,M,40.593,M,2.1,0123*6E
$GPVTG,241.57,T,-398.33,M,004.513,N,008.357,K,D*06
$GPGGA,093409.15,5703.3637962,N,00952.0481004,E,2,11,0.8,-1.880,M,40.593,M,2.1,0123*64
$GPVTG,241.89,T,-398.01,M,004.531,N,008.391,K,D*0E
$GPGGA,093409.20,5703.3637661,N,00952.0479978,E,2,11,0.8,-1.878,M,40.593,M,2.1,0123*6C
$GPVTG,241.89,T,-398.01,M,004.558,N,008.442,K,D*08
$GPGGA,093409.25,5703.3637351,N,00952.0478956,E,2,11,0.8,-1.878,M,40.593,M,2.3,0123*60
$GPVTG,241.47,T,-398.43,M,004.583,N,008.489,K,D*0D
$GPGGA,093409.30,5703.3637051,N,00952.0477927,E,2,11,0.8,-1.880,M,40.593,M,2.3,0123*69
$GPVTG,241.61,T,-398.29,M,004.596,N,008.512,K,D*02
$GPGGA,093409.35,5703.3636749,N,00952.0476901,E,2,11,0.8,-1.881,M,40.593,M,2.3,0123*67
$GPVTG,241.62,T,-398.28,M,004.600,N,008.520,K,D*0D
$GPGGA,093409.40,5703.3636445,N,00952.0475875,E,2,11,0.8,-1.880,M,40.593,M,2.3,0123*6A
$GPVTG,241.54,T,-398.36,M,004.603,N,008.524,K,D*00
$GPGGA,093409.45,5703.3636149,N,00952.0474846,E,2,11,0.8,-1.882,M,40.593,M,2.6,0123*60
$GPVTG,241.87,T,-398.03,M,004.592,N,008.505,K,D*00
$GPGGA,093409.50,5703.3635851,N,00952.0473811,E,2,11,0.8,-1.880,M,40.593,M,2.6,0123*60
$GPVTG,242.04,T,-397.86,M,004.601,N,008.520,K,D*04
$GPGGA,093409.55,5703.3635548,N,00952.0472764,E,2,11,0.8,-1.881,M,40.593,M,2.6,0123*6D
$GPVTG,242.10,T,-397.80,M,004.636,N,008.586,K,D*0F
$GPGGA,093409.60,5703.3635254,N,00952.0471724,E,2,11,0.8,-1.880,M,40.593,M,2.6,0123*67
$GPVTG,242.41,T,-397.49,M,004.631,N,008.577,K,D*07
$GPGGA,093409.65,5703.3634953,N,00952.0470685,E,2,11,0.8,-1.877,M,40.593,M,2.9,0123*63
$GPVTG,242.27,T,-397.63,M,004.637,N,008.588,K,D*09
$GPGGA,093409.70,5703.3634657,N,00952.0469649,E,2,11,0.8,-1.876,M,40.593,M,2.9,0123*65
$GPVTG,242.34,T,-397.56,M,004.624,N,008.563,K,D*0A
$GPGGA,093409.75,5703.3634356,N,00952.0468605,E,2,11,0.8,-1.875,M,40.593,M,2.9,0123*6E
$GPVTG,242.29,T,-397.61,M,004.634,N,008.581,K,D*0F
$GPGGA,093409.80,5703.3634061,N,00952.0467572,E,2,11,0.8,-1.874,M,40.593,M,2.9,0123*6E
$GPVTG,242.34,T,-397.56,M,004.614,N,008.545,K,D*0D
$GPGGA,093409.85,5703.3633759,N,00952.0466539,E,2,11,0.8,-1.874,M,40.593,M,3.1,0123*67
$GPVTG,242.10,T,-397.80,M,004.608,N,008.534,K,D*0B
$GPGGA,093409.90,5703.3633457,N,00952.0465502,E,2,11,0.8,-1.871,M,40.593,M,3.1,0123*60
$GPVTG,241.96,T,-397.94,M,004.613,N,008.543,K,D*09
$GPGGA,093409.95,5703.3633151,N,00952.0464452,E,2,11,0.8,-1.870,M,40.593,M,3.1,0123*62
$GPVTG,241.90,T,-398.00,M,004.649,N,008.610,K,D*07
$GPGGA,093410.00,5703.3632843,N,00952.0463414,E,2,11,0.8,-1.867,M,40.593,M,3.1,0123*6E
$GPVTG,241.63,T,-398.27,M,004.652,N,008.616,K,D*02
$GPGGA,093410.05,5703.3632544,N,00952.0462395,E,2,11,0.8,-1.865,M,40.593,M,1.7,0123*68
$GPVTG,241.55,T,-398.35,M,004.611,N,008.540,K,D*03
$GPGGA,093410.10,5703.3632238,N,00952.0461348,E,2,11,0.8,-1.864,M,40.593,M,1.7,0123*62
$GPVTG,241.60,T,-398.30,M,004.638,N,008.590,K,D*06
$GPGGA,093410.15,5703.3631928,N,00952.0460309,E,2,11,0.8,-1.864,M,40.593,M,1.7,0123*6A
$GPVTG,241.43,T,-398.47,M,004.649,N,008.611,K,D*0B
$GPGGA,093410.20,5703.3631622,N,00952.0459272,E,2,11,0.8,-1.863,M,40.593,M,1.7,0123*69
$GPVTG,241.40,T,-398.50,M,004.647,N,008.607,K,D*07
$GPGGA,093410.25,5703.3631314,N,00952.0458236,E,2,11,0.8,-1.863,M,40.593,M,1.9,0123*63
$GPVTG,241.33,T,-398.57,M,004.648,N,008.607,K,D*0B
$GPGGA,093410.30,5703.3631002,N,00952.0457195,E,2,11,0.8,-1.861,M,40.593,M,1.9,0123*64
$GPVTG,241.24,T,-398.66,M,004.660,N,008.629,K,D*09
$GPGGA,093410.35,5703.3630687,N,00952.0456162,E,2,11,0.8,-1.859,M,40.593,M,1.9,0123*69
$GPVTG,240.96,T,-398.94,M,004.660,N,008.629,K,D*0C
$GPGGA,093410.40,5703.3630372,N,00952.0455131,E,2,11,0.8,-1.857,M,40.593,M,1.9,0123*6F
$GPVTG,240.72,T,-399.18,M,004.656,N,008.624,K,D*0B
$GPGGA,093410.45,5703.3630053,N,00952.0454113,E,2,11,0.8,-1.857,M,40.593,M,2.2,0123*63
$GPVTG,240.28,T,-399.62,M,004.637,N,008.587,K,D*04
$GPGGA,093410.50,5703.3629736,N,00952.0453083,E,2,11,0.8,-1.856,M,40.593,M,2.2,0123*65
$GPVTG,240.27,T,-399.63,M,004.643,N,008.598,K,D*07
$GPGGA,093410.55,5703.3629425,N,00952.0452054,E,2,11,0.8,-1.855,M,40.593,M,2.2,0123*69
$GPVTG,240.45,T,-399.45,M,004.634,N,008.582,K,D*0C
$GPGGA,093410.60,5703.3629121,N,00952.0451022,E,2,11,0.8,-1.853,M,40.593,M,2.2,0123*6A
$GPVTG,240.97,T,-398.93,M,004.622,N,008.560,K,D*02
$GPGGA,093410.65,5703.3628815,N,00952.0449989,E,2,11,0.8,-1.853,M,40.593,M,2.4,0123*67
$GPVTG,241.23,T,-398.67,M,004.623,N,008.561,K,D*07
$GPGGA,093410.70,5703.3628492,N,00952.0448974,E,2,11,0.8,-1.853,M,40.593,M,2.4,0123*63
$GPVTG,240.60,T,-399.30,M,004.614,N,008.544,K,D*01
$GPGGA,093410.75,5703.3628180,N,00952.0447952,E,2,11,0.8,-1.850,M,40.593,M,2.4,0123*68
$GPVTG,240.61,T,-399.29,M,004.608,N,008.533,K,D*05
$GPGGA,093410.80,5703.3627867,N,00952.0446932,E,2,11,0.8,-1.848,M,40.593,M,2.4,0123*63
$GPVTG,240.57,T,-399.33,M,004.600,N,008.519,K,D*0B
$GPGGA,093410.85,5703.3627549,N,00952.0445920,E,2,11,0.8,-1.848,M,40.593,M,2.7,0123*64
$GPVTG,240.27,T,-399.63,M,004.591,N,008.503,K,D*09
$GPGGA,093410.90,5703.3627225,N,00952.0444894,E,2,11,0.8,-1.847,M,40.593,M,2.7,0123*6D
$GPVTG,240.01,T,-399.89,M,004.624,N,008.564,K,D*05
$GPGGA,093410.95,5703.3626909,N,00952.0443884,E,2,11,0.8,-1.847,M,40.593,M,2.7,0123*6A
$GPVTG,239.95,T,-399.95,M,004.602,N,008.524,K,D*0B
$GPGGA,093411.00,5703.3626595,N,00952.0442876,E,2,11,0.8,-1.845,M,40.593,M,2.7,0123*60
$GPVTG,239.99,T,-399.91,M,004.581,N,008.484,K,D*00
$GPGGA,093411.05,5703.3626270,N,00952.0441875,E,2,11,0.8,-1.846,M,40.593,M,1.6,0123*68
$GPVTG,239.58,T,-400.32,M,004.576,N,008.475,K,D*05
$GPGGA,093411.10,5703.3625949,N,00952.0440876,E,2,11,0.8,-1.846,M,40.593,M,1.6,0123*6C
$GPVTG,239.38,T,-400.52,M,004.564,N,008.452,K,D*03
$GPGGA,093411.15,5703.3625628,N,00952.0439872,E,2,11,0.8,-1.848,M,40.593,M,1.6,0123*65
$GPVTG,239.38,T,-400.52,M,004.563,N,008.451,K,D*07
$GPGGA,093411.20,5703.3625299,N,00952.0438875,E,2,11,0.8,-1.847,M,40.593,M,1.6,0123*64
$GPVTG,238.99,T,-400.91,M,004.570,N,008.463,K,D*01
$GPGGA,093411.25,5703.3624973,N,00952.0437877,E,2,11,0.8,-1.848,M,40.593,M,1.8,0123*63
$GPVTG,238.90,T,-401.00,M,004.568,N,008.460,K,D*0B
$GPGGA,093411.30,5703.3624656,N,00952.0436879,E,2,11,0.8,-1.847,M,40.593,M,1.8,0123*6F
