059.12,T,-580.78,M,004.986,N,009.235,K,D*08
$GPGGA,085249.00,5703.3825920,N,00951.9863413,E,2,10,1.0,-1.577,M,40.593,M,3.5,0123*6E
$GPVTG,059.13,T,-580.77,M,005.012,N,009.282,K,D*0F
$GPGGA,085249.05,5703.3826254,N,00951.9864499,E,2,10,1.0,-1.590,M,40.593,M,2.4,0123*6C
$GPVTG,059.39,T,-580.51,M,005.021,N,009.298,K,D*08
$GPGGA,085249.10,5703.3826612,N,00951.9865599,E,2,10,1.0,-1.595,M,40.593,M,2.4,0123*6B
$GPVTG,059.34,T,-580.56,M,005.047,N,009.347,K,D*01
$GPGGA,085249.15,5703.3826953,N,00951.9866676,E,2,10,1.0,-1.602,M,40.593,M,2.4,0123*68
$GPVTG,059.53,T,-580.37,M,004.995,N,009.250,K,D*07
$GPGGA,085249.20,5703.3827296,N,00951.9867733,E,2,10,1.0,-1.608,M,40.593,M,2.4,0123*66
$GPVTG,059.41,T,-580.49,M,004.922,N,009.116,K,D*00
$GPGGA,085249.25,5703.3827644,N,00951.9868799,E,2,10,1.0,-1.607,M,40.593,M,2.7,0123*6B
$GPVTG,059.33,T,-580.57,M,004.883,N,009.044,K,D*06
$GPGGA,085249.30,5703.3827987,N,00951.9869850,E,2,10,1.0,-1.606,M,40.593,M,2.7,0123*65
$GPVTG,059.20,T,-580.70,M,004.835,N,008.955,K,D*04
$GPGGA,085249.35,5703.3828327,N,00951.9870905,E,2,10,1.0,-1.606,M,40.593,M,2.7,0123*66
$GPVTG,059.26,T,-580.64,M,004.810,N,008.908,K,D*08
$GPGGA,085249.40,5703.3828658,N,00951.9871987,E,2,10,1.0,-1.601,M,40.593,M,2.7,0123*65
$GPVTG,059.91,T,-579.99,M,004.828,N,008.941,K,D*06
$GPGGA,085249.45,5703.3829012,N,00951.9873062,E,2,10,1.0,-1.592,M,40.593,M,2.9,0123*6E
$GPVTG,059.65,T,-580.25,M,004.857,N,008.996,K,D*0E
$GPGGA,085249.50,5703.3829344,N,00951.9874117,E,2,10,1.0,-1.587,M,40.593,M,2.9,0123*6A
$GPVTG,059.80,T,-580.10,M,004.822,N,008.930,K,D*0D
$GPGGA,085249.55,5703.3829668,N,00951.9875161,E,2,10,1.0,-1.582,M,40.593,M,2.9,0123*61
$GPVTG,060.07,T,-579.83,M,004.768,N,008.830,K,D*04
$GPGGA,085249.60,5703.3830014,N,00951.9876212,E,2,10,1.0,-1.577,M,40.593,M,2.9,0123*6C
$GPVTG,059.62,T,-580.28,M,004.777,N,008.847,K,D*04
$GPGGA,085249.65,5703.3830351,N,00951.9877273,E,2,10,1.0,-1.575,M,40.593,M,3.2,0123*65
$GPVTG,059.56,T,-580.34,M,004.812,N,008.912,K,D*03
$GPGGA,085249.70,5703.3830686,N,00951.9878327,E,2,10,1.0,-1.572,M,40.593,M,3.2,0123*66
$GPVTG,059.66,T,-580.24,M,004.802,N,008.894,K,D*0F
$GPGGA,085249.75,5703.3831021,N,00951.9879381,E,2,10,1.0,-1.569,M,40.593,M,3.2,0123*6E
$GPVTG,059.67,T,-580.23,M,004.798,N,008.886,K,D*06
$GPGGA,085249.80,5703.3831345,N,00951.9880439,E,2,10,1.0,-1.570,M,40.593,M,3.2,0123*6F
$GPVTG,060.11,T,-579.79,M,004.783,N,008.859,K,D*0C
$GPGGA,085249.85,5703.3831680,N,00951.9881520,E,2,10,1.0,-1.570,M,40.593,M,3.4,0123*68
$GPVTG,060.34,T,-579.56,M,004.835,N,008.955,K,D*09
$GPGGA,085249.90,5703.3832011,N,00951.9882621,E,2,10,1.0,-1.571,M,40.593,M,3.4,0123*61
$GPVTG,060.84,T,-579.06,M,004.895,N,009.066,K,D*05
$GPGGA,085249.95,5703.3832352,N,00951.9883720,E,2,10,1.0,-1.574,M,40.593,M,3.4,0123*64
$GPVTG,060.82,T,-579.08,M,004.945,N,009.159,K,D*0C
$GPGGA,085250.00,5703.3832685,N,00951.9884808,E,2,10,1.0,-1.579,M,40.593,M,3.4,0123*60
$GPVTG,060.88,T,-579.02,M,004.947,N,009.162,K,D*06
$GPGGA,085250.05,5703.3833033,N,00951.9885911,E,2,10,1.0,-1.582,M,40.593,M,1.6,0123*63
$GPVTG,060.50,T,-579.40,M,004.983,N,009.228,K,D*00
$GPGGA,085250.10,5703.3833391,N,00951.9887019,E,2,10,1.0,-1.590,M,40.593,M,1.6,0123*6C
$GPVTG,060.05,T,-579.85,M,005.036,N,009.326,K,D*00
$GPGGA,085250.15,5703.3833750,N,00951.9888123,E,2,10,1.0,-1.596,M,40.593,M,1.6,0123*61
$GPVTG,059.62,T,-580.28,M,005.064,N,009.378,K,D*06
$GPGGA,085250.20,5703.3834093,N,00951.9889208,E,2,10,1.0,-1.598,M,40.593,M,1.6,0123*6D
$GPVTG,059.55,T,-580.35,M,005.024,N,009.305,K,D*00
$GPGGA,085250.25,5703.3834419,N,00951.9890292,E,2,10,1.0,-1.600,M,40.593,M,1.8,0123*69
$GPVTG,060.07,T,-579.83,M,004.963,N,009.191,K,D*02
$GPGGA,085250.30,5703.3834756,N,00951.9891362,E,2,10,1.0,-1.601,M,40.593,M,1.8,0123*6B
$GPVTG,059.98,T,-579.92,M,004.909,N,009.092,K,D*00
$GPGGA,085250.35,5703.3835093,N,00951.9892425,E,2,10,1.0,-1.600,M,40.593,M,1.8,0123*67
$GPVTG,059.87,T,-580.03,M,004.861,N,009.003,K,D*07
$GPGGA,085250.40,5703.3835426,N,00951.9893473,E,2,10,1.0,-1.598,M,40.593,M,1.8,0123*6F
$GPVTG,059.70,T,-580.20,M,004.799,N,008.888,K,D*0C
$GPGGA,085250.45,5703.3835739,N,00951.9894529,E,2,10,1.0,-1.601,M,40.593,M,2.1,0123*67
$GPVTG,060.16,T,-579.74,M,004.782,N,008.856,K,D*08
$GPGGA,085250.50,5703.3836067,N,00951.9895614,E,2,10,1.0,-1.596,M,40.593,M,2.1,0123*6D
$GPVTG,060.58,T,-579.32,M,004.810,N,008.909,K,D*0F
$GPGGA,085250.55,5703.3836376,N,00951.9896693,E,2,10,1.0,-1.591,M,40.593,M,2.1,0123*60
$GPVTG,061.41,T,-578.49,M,004.795,N,008.880,K,D*09
$GPGGA,085250.60,5703.3836696,N,00951.9897750,E,2,10,1.0,-1.586,M,40.593,M,2.1,0123*64
$GPVTG,061.43,T,-578.47,M,004.763,N,008.821,K,D*07
$GPGGA,085250.65,5703.3837033,N,00951.9898821,E,2,10,1.0,-1.574,M,40.593,M,2.3,0123*60
$GPVTG,061.20,T,-578.70,M,004.765,N,008.825,K,D*04
$GPGGA,085250.70,5703.3837354,N,00951.9899892,E,2,10,1.0,-1.571,M,40.593,M,2.3,0123*6A
$GPVTG,061.30,T,-578.60,M,004.774,N,008.842,K,D*05
$GPGGA,085250.75,5703.3837691,N,00951.9900965,E,2,10,1.0,-1.567,M,40.593,M,2.3,0123*6C
$GPVTG,060.89,T,-579.01,M,004.810,N,008.908,K,D*02
$GPGGA,085250.80,5703.3838014,N,00951.9902045,E,2,10,1.0,-1.566,M,40.593,M,2.3,0123*6A
$GPVTG,061.06,T,-578.84,M,004.828,N,008.941,K,D*0E
$GPGGA,085250.85,5703.3838337,N,00951.9903142,E,2,10,1.0,-1.573,M,40.593,M,2.5,0123*68
$GPVTG,061.21,T,-578.69,M,004.895,N,009.065,K,D*00
$GPGGA,085250.90,5703.3838673,N,00951.9904248,E,2,10,1.0,-1.577,M,40.593,M,2.5,0123*63
$GPVTG,061.16,T,-578.74,M,004.950,N,009.167,K,D*03
$GPGGA,085250.95,5703.3838999,N,00951.9905352,E,2,10,1.0,-1.582,M,40.593,M,2.5,0123*6C
$GPVTG,061.36,T,-578.54,M,004.965,N,009.195,K,D*08
$GPGGA,085251.00,5703.3839321,N,00951.9906455,E,2,10,1.0,-1.588,M,40.593,M,2.5,0123*60
$GPVTG,061.61,T,-578.29,M,004.965,N,009.195,K,D*00
$GPGGA,085251.05,5703.3839648,N,00951.9907574,E,2,10,1.0,-1.589,M,40.593,M,1.5,0123*6E
$GPVTG,061.71,T,-578.19,M,004.987,N,009.236,K,D*04
$GPGGA,085251.10,5703.3839973,N,00951.9908702,E,2,10,1.0,-1.594,M,40.593,M,1.5,0123*6D
$GPVTG,062.00,T,-577.90,M,005.017,N,009.292,K,D*00
$GPGGA,085251.15,5703.3840287,N,00951.9909796,E,2,10,1.0,-1.600,M,40.593,M,1.5,0123*64
$GPVTG,062.15,T,-577.75,M,004.959,N,009.184,K,D*09
$GPGGA,085251.20,5703.3840597,N,00951.9910878,E,2,10,1.0,-1.604,M,40.593,M,1.5,0123*67
$GPVTG,062.24,T,-577.66,M,004.888,N,009.053,K,D*0F
$GPGGA,085251.25,5703.3840924,N,00951.9911960,E,2,10,1.0,-1.606,M,40.593,M,1.8,0123*60
$GPVTG,061.76,T,-578.14,M,004.863,N,009.006,K,D*04
$GPGGA,085251.30,5703.3841248,N,00951.9913069,E,2,10,1.0,-1.603,M,40.593,M,1.8,0123*63
$GPVTG,061.80,T,-578.10,M,004.890,N,009.057,K,D*01
$GPGGA,085251.35,5703.3841566,N,00951.9914174,E,2,10,1.0,-1.600,M,40.593,M,1.8,0123*64
$GPVTG,061.99,T,-577.91,M,004.896,N,009.068,K,D*05
$GPGGA,085251.40,5703.3841886,N,00951.9915259,E,2,10,1.0,-1.598,M,40.593,M,1.8,0123*6A
$GPVTG,061.80,T,-578.10,M,004.871,N,009.021,K,D*0F
$GPGGA,085251.45,5703.3842211,N,00951.9916353,E,2,10,1.0,-1.596,M,40.593,M,2.0,0123*65
$GPVTG,061.63,T,-578.27,M,004.879,N,009.035,K,D*0B
$GPGGA,085251.50,5703.3842531,N,00951.9917446,E,2,10,1.0,-1.596,M,40.593,M,2.0,0123*66
$GPVTG,061.67,T,-578.23,M,004.874,N,009.026,K,D*04
$GPGGA,085251.55,5703.3842834,N,00951.9918547,E,2,10,1.0,-1.594,M,40.593,M,2.0,0123*66
$GPVTG,062.29,T,-577.61,M,004.864,N,009.008,K,D*09
$GPGGA,085251.60,5703.3843149,N,00951.9919654,E,2,10,1.0,-1.590,M,40.593,M,2.0,0123*66
$GPVTG,062.48,T,-577.42,M,004.881,N,009.040,K,D*08
$GPGGA,085251.65,5703.3843457,N,00951.9920730,E,2,10,1.0,-1.588,M,40.593,M,2.2,0123*6B
$GPVTG,062.32,T,-577.58,M,004.848,N,008.978,K,D*08
$GPGGA,085251.70,5703.3843770,N,00951.9921818,E,2,10,1.0,-1.583,M,40.593,M,2.2,0123*66
$GPVTG,062.32,T,-577.58,M,004.834,N,008.953,K,D*0A
$GPGGA,085251.75,5703.3844075,N,00951.9922902,E,2,10,1.0,-1.581,M,40.593,M,2.2,0123*6D
$GPVTG,062.49,T,-577.41,M,004.811,N,008.910,K,D*0E
$GPGGA,085251.80,5703.3844383,N,00951.9924001,E,2,10,1.0,-1.581,M,40.593,M,2.2,0123*61
$GPVTG,062.72,T,-577.18,M,004.824,N,008.934,K,D*0A
$GPGGA,085251.85,5703.3844701,N,00951.9925132,E,2,10,1.0,-1.579,M,40.593,M,2.4,0123*6B
$GPVTG,062.85,T,-577.05,M,004.911,N,009.094,K,D*0B
$GPGGA,085251.90,5703.3845005,N,00951.9926244,E,2,10,1.0,-1.578,M,40.593,M,2.4,0123*6D
$GPVTG,063.14,T,-576.76,M,004.914,N,009.101,K,D*0F
$GPGGA,085251.95,5703.3845320,N,00951.9927349,E,2,10,1.0,-1.579,M,40.593,M,2.4,0123*60
$GPVTG,062.94,T,-576.96,M,004.916,N,009.104,K,D*0F
$GPGGA,085252.00,5703.3845638,N,00951.9928469,E,2,10,1.0,-1.581,M,40.593,M,2.4,0123*6E
$GPVTG,062.81,T,-577.09,M,004.946,N,009.160,K,D*0B
$GPGGA,085252.05,5703.3845963,N,00951.9929594,E,2,10,1.0,-1.583,M,40.593,M,2.6,0123*68
$GPVTG,062.41,T,-577.49,M,004.985,N,009.232,K,D*08
$GPGGA,085252.10,5703.3846287,N,00951.9930713,E,2,10,1.0,-1.587,M,40.593,M,2.6,0123*6F
$GPVTG,062.21,T,-577.69,M,004.997,N,009.254,K,D*0F
$GPGGA,085252.15,5703.3846601,N,00951.9931837,E,2,10,1.0,-1.592,M,40.593,M,2.6,0123*6C
$GPVTG,062.39,T,-577.51,M,004.998,N,009.256,K,D*00
$GPGGA,085252.20,5703.3846914,N,00951.9932956,E,2,10,1.0,-1.597,M,40.593,M,2.6,0123*61
$GPVTG,062.54,T,-577.36,M,004.985,N,009.232,K,D*04
$GPGGA,085252.25,5703.3847208,N,00951.9934068,E,2,10,1.0,-1.605,M,40.593,M,2.9,0123*66
$GPVTG,063.03,T,-576.87,M,004.953,N,009.174,K,D*06
$GPGGA,085252.30,5703.3847521,N,00951.9935158,E,2,10,1.0,-1.606,M,40.593,M,2.9,0123*6E
$GPVTG,062.72,T,-577.18,M,004.898,N,009.071,K,D*04
$GPGGA,085252.35,5703.3847848,N,00951.9936245,E,2,10,1.0,-1.604,M,40.593,M,2.9,0123*67
$GPVTG,062.00,T,-577.90,M,004.874,N,009.027,K,D*00
$GPGGA,085252.40,5703.3848164,N,00951.9937337,E,2,10,1.0,-1.601,M,40.593,M,2.9,0123*6D
$GPVTG,061.89,T,-578.01,M,004.855,N,008.992,K,D*00
$GPGGA,085252.45,5703.3848476,N,00951.9938427,E,2,10,1.0,-1.594,M,40.593,M,3.1,0123*61
$GPVTG,062.00,T,-577.90,M,004.829,N,008.944,K,D*05
$GPGGA,085252.50,5703.3848778,N,00951.9939523,E,2,10,1.0,-1.590,M,40.593,M,3.1,0123*68
$GPVTG,062.43,T,-577.47,M,004.818,N,008.923,K,D*0B
$GPGGA,085252.55,5703.3849074,N,00951.9940611,E,2,10,1.0,-1.587,M,40.593,M,3.1,0123*6D
$GPVTG,062.91,T,-576.99,M,004.790,N,008.872,K,D*0C
$GPGGA,085252.60,5703.3849369,N,00951.9941705,E,2,10,1.0,-1.583,M,40.593,M,3.1,0123*65
$GPVTG,063.33,T,-576.57,M,004.783,N,008.858,K,D*0D
$GPGGA,085252.65,5703.3849670,N,00951.9942790,E,2,10,1.0,-1.580,M,40.593,M,3.3,0123*63
$GPVTG,063.32,T,-576.58,M,004.779,N,008.851,K,D*0F
$GPGGA,085252.70,5703.3849976,N,00951.9943881,E,2,10,1.0,-1.578,M,40.593,M,3.3,0123*67
$GPVTG,063.17,T,-576.73,M,004.790,N,008.870,K,D*05
$GPGGA,085252.75,5703.3850278,N,00951.9944989,E,2,10,1.0,-1.575,M,40.593,M,3.3,0123*6C
$GPVTG,063.40,T,-576.50,M,004.824,N,008.935,K,D*06
$GPGGA,085252.80,5703.3850594,N,00951.9946099,E,2,10,1.0,-1.577,M,40.593,M,3.3,0123*6B
$GPVTG,063.09,T,-576.81,M,004.872,N,009.022,K,D*0A
$GPGGA,085252.85,5703.3850920,N,00951.9947216,E,2,10,1.0,-1.575,M,40.593,M,3.5,0123*6D
$GPVTG,062.77,T,-577.13,M,004.909,N,009.091,K,D*0D
$GPGGA,085252.90,5703.3851241,N,00951.9948335,E,2,10,1.0,-1.576,M,40.593,M,3.5,0123*68
$GPVTG,062.50,T,-577.40,M,004.952,N,009.171,K,D*0F
$GPGGA,085252.95,5703.3851559,N,00951.9949459,E,2,10,1.0,-1.576,M,40.593,M,3.5,0123*6F
$GPVTG,062.47,T,-577.43,M,004.983,N,009.228,K,D*09
$GPGGA,085253.00,5703.3851870,N,00951.9950578,E,2,10,1.0,-1.580,M,40.593,M,3.5,0123*67
$GPVTG,062.63,T,-577.27,M,004.982,N,009.226,K,D*02
$GPGGA,085253.05,5703.3852170,N,00951.9951688,E,2,10,1.0,-1.589,M,40.593,M,2.4,0123*6C
$GPVTG,062.72,T,-577.18,M,004.965,N,009.195,K,D*0C
$GPGGA,085253.10,5703.3852472,N,00951.9952800,E,2,10,1.0,-1.593,M,40.593,M,2.4,0123*69
$GPVTG,063.04,T,-576.86,M,004.937,N,009.144,K,D*01
$GPGGA,085253.15,5703.3852786,N,00951.9953887,E,2,10,1.0,-1.595,M,40.593,M,2.4,0123*6C
$GPVTG,062.62,T,-577.28,M,004.887,N,009.051,K,D*0A
$GPGGA,085253.20,5703.3853094,N,00951.9954986,E,2,10,1.0,-1.593,M,40.593,M,2.4,0123*6E
$GPVTG,062.65,T,-577.26,M,004.865,N,009.010,K,D*0A
$GPGGA,085253.25,5703.3853382,N,00951.9956090,E,2,10,1.0,-1.599,M,40.593,M,2.7,0123*6A
$GPVTG,063.30,T,-576.60,M,004.847,N,008.977,K,D*01
$GPGGA,085253.30,5703.3853673,N,00951.9957194,E,2,10,1.0,-1.602,M,40.593,M,2.7,0123*60
$GPVTG,063.77,T,-576.13,M,004.827,N,008.940,K,D*04
$GPGGA,085253.35,5703.3853981,N,00951.9958295,E,2,10,1.0,-1.603,M,40.593,M,2.7,0123*6B
$GPVTG,063.49,T,-576.41,M,004.832,N,008.948,K,D*02
$GPGGA,085253.40,5703.3854289,N,00951.9959410,E,2,10,1.0,-1.605,M,40.593,M,2.7,0123*61
$GPVTG,063.45,T,-576.45,M,004.862,N,009.005,K,D*0E
$GPGGA,085253.45,5703.3854602,N,00951.9960500,E,2,10,1.0,-1.599,M,40.593,M,2.9,0123*61
$GPVTG,063.05,T,-576.85,M,004.834,N,008.953,K,D*0E
$GPGGA,085253.50,5703.3854888,N,00951.9961584,E,2,10,1.0,-1.593,M,40.593,M,2.9,0123*6E
$GPVTG,063.47,T,-576.43,M,004.782,N,008.857,K,D*05
$GPGGA,085253.55,5703.3855172,N,00951.9962672,E,2,10,1.0,-1.582,M,40.593,M,2.9,0123*6F
$GPVTG,063.89,T,-576.01,M,004.753,N,008.802,K,D*0D
$GPGGA,085253.60,5703.3855473,N,00951.9963766,E,2,10,1.0,-1.574,M,40.593,M,2.9,0123*61
$GPVTG,063.75,T,-576.15,M,004.767,N,008.829,K,D*05
$GPGGA,085253.65,5703.3855766,N,00951.9964851,E,2,10,1.0,-1.577,M,40.593,M,3.2,0123*66
$GPVTG,063.48,T,-576.42,M,004.786,N,008.863,K,D*08
$GPGGA,085253.70,5703.3856060,N,00951.9965954,E,2,10,1.0,-1.578,M,40.593,M,3.2,0123*6A
$GPVTG,063.70,T,-576.20,M,004.803,N,008.895,K,D*0C
$GPGGA,085253.75,5703.3856356,N,00951.9967075,E,2,10,1.0,-1.580,M,40.593,M,3.2,0123*66
$GPVTG,064.00,T,-575.90,M,004.851,N,008.984,K,D*02
$GPGGA,085253.80,5703.3856658,N,00951.9968196,E,2,10,1.0,-1.584,M,40.593,M,3.2,0123*60
$GPVTG,063.98,T,-575.92,M,004.892,N,009.061,K,D*0A
$GPGGA,085253.85,5703.3856983,N,00951.9969335,E,2,10,1.0,-1.582,M,40.593,M,3.4,0123*66
$GPVTG,063.62,T,-576.28,M,004.949,N,009.165,K,D*0F
$GPGGA,085253.90,5703.3857304,N,00951.9970465,E,2,10,1.0,-1.587,M,40.593,M,3.4,0123*69
$GPVTG,063.13,T,-576.77,M,004.995,N,009.250,K,D*07
$GPGGA,085253.95,5703.3857627,N,00951.9971589,E,2,10,1.0,-1.592,M,40.593,M,3.4,0123*6E
$GPVTG,062.63,T,-577.27,M,005.017,N,009.291,K,D*0A
$GPGGA,085254.00,5703.3857942,N,00951.9972699,E,2,10,1.0,-1.595,M,40.593,M,3.4,0123*6F
$GPVTG,062.39,T,-577.51,M,004.993,N,009.247,K,D*0B
$GPGGA,085254.05,5703.3858236,N,00951.9973799,E,2,10,1.0,-1.597,M,40.593,M,1.6,0123*6F
$GPVTG,062.59,T,-577.31,M,004.932,N,009.133,K,D*00
$GPGGA,085254.10,5703.3858529,N,00951.9974906,E,2,10,1.0,-1.600,M,40.593,M,1.6,0123*60
$GPVTG,063.09,T,-576.81,M,004.890,N,009.056,K,D*05
$GPGGA,085254.15,5703.3858830,N,00951.9976018,E,2,10,1.0,-1.600,M,40.593,M,1.6,0123*64
$GPVTG,063.32,T,-576.58,M,004.880,N,009.037,K,D*0F
$GPGGA,085254.20,5703.3859126,N,00951.9977125,E,2,10,1.0,-1.599,M,40.593,M,1.6,0123*60
$GPVTG,063.58,T,-576.32,M,004.857,N,008.996,K,D*06
$GPGGA,085254.25,5703.3859409,N,00951.9978215,E,2,10,1.0,-1.601,M,40.593,M,1.8,0123*6E
$GPVTG,063.86,T,-576.04,M,004.817,N,008.920,K,D*09
$GPGGA,085254.30,5703.3859696,N,00951.9979302,E,2,10,1.0,-1.599,M,40.593,M,1.8,0123*6A
$GPVTG,064.06,T,-575.84,M,004.770,N,008.834,K,D*07
$GPGGA,085254.35,5703.3859987,N,00951.9980393,E,2,10,1.0,-1.597,M,40.593,M,1.8,0123*60
$GPVTG,064.13,T,-575.77,M,004.752,N,008.800,K,D*08
$GPGGA,085254.40,5703.3860288,N,00951.9981483,E,2,10,1.0,-1.594,M,40.593,M,1.8,0123*68
$GPVTG,063.80,T,-576.10,M,004.758,N,008.812,K,D*0E
$GPGGA,085254.45,5703.3860601,N,00951.9982584,E,2,10,1.0,-1.587,M,40.593,M,2.1,0123*65
$GPVTG,063.42,T,-576.48,M,004.784,N,008.860,K,D*09
$GPGGA,085254.50,5703.3860910,N,00951.9983674,E,2,10,1.0,-1.583,M,40.593,M,2.1,0123*67
$GPVTG,062.97,T,-576.93,M,004.798,N,008.886,K,D*03
$GPGGA,085254.55,5703.3861208,N,00951.9984760,E,2,10,1.0,-1.581,M,40.593,M,2.1,0123*60
$GPVTG,063.00,T,-576.90,M,004.789,N,008.869,K,D*0E
$GPGGA,085254.60,5703.3861508,N,00951.9985859,E,2,10,1.0,-1.576,M,40.593,M,2.1,0123*6D
$GPVTG,063.12,T,-576.78,M,004.808,N,008.904,K,D*07
$GPGGA,085254.65,5703.3861808,N,00951.9986946,E,2,10,1.0,-1.574,M,40.593,M,2.3,0123*69
$GPVTG,063.07,T,-576.83,M,004.802,N,008.894,K,D*05
$GPGGA,085254.70,5703.3862104,N,00951.9988045,E,2,10,1.0,-1.574,M,40.593,M,2.3,0123*6F
$GPVTG,063.33,T,-576.57,M,004.812,N,008.912,K,D*05
$GPGGA,085254.75,5703.3862412,N,00951.9989174,E,2,10,1.0,-1.576,M,40.593,M,2.3,0123*68
$GPVTG,063.43,T,-576.47,M,004.890,N,009.055,K,D*02
$GPGGA,085254.80,5703.3862722,N,00951.9990304,E,2,10,1.0,-1.577,M,40.593,M,2.3,0123*6E
$GPVTG,063.43,T,-576.47,M,004.946,N,009.160,K,D*0F
$GPGGA,085254.85,5703.3863022,N,00951.9991418,E,2,10,1.0,-1.587,M,40.593,M,2.5,0123*6F
$GPVTG,063.41,T,-576.49,M,004.959,N,009.185,K,D*06
$GPGGA,085254.90,5703.3863325,N,00951.9992533,E,2,10,1.0,-1.592,M,40.593,M,2.5,0123*60
$GPVTG,063.44,T,-576.46,M,004.949,N,009.166,K,D*00
$GPGGA,085254.95,5703.3863634,N,00951.9993650,E,2,10,1.0,-1.598,M,40.593,M,2.5,0123*6D
$GPVTG,063.29,T,-576.61,M,004.948,N,009.164,K,D*0D
$GPGGA,085255.00,5703.3863940,N,00951.9994770,E,2,10,1.0,-1.605,M,40.593,M,2.5,0123*6F
$GPVTG,063.29,T,-576.61,M,004.948,N,009.163,K,D*0A
$GPGGA,085255.05,5703.3864232,N,00951.9995900,E,2,10,1.0,-1.610,M,40.593,M,1.5,0123*6C
$GPVTG,063.64,T,-576.26,M,004.951,N,009.169,K,D*02
$GPGGA,085255.10,5703.3864519,N,00951.9997018,E,2,10,1.0,-1.616,M,40.593,M,1.5,0123*62
$GPVTG,064.18,T,-575.72,M,004.915,N,009.103,K,D*00
$GPGGA,085255.15,5703.3864815,N,00951.9998116,E,2,10,1.0,-1.618,M,40.593,M,1.5,0123*68
$GPVTG,064.02,T,-575.88,M,004.864,N,009.008,K,D*03
$GPGGA,085255.20,5703.3865112,N,00951.9999217,E,2,10,1.0,-1.616,M,40.593,M,1.5,0123*6C
$GPVTG,063.94,T,-575.96,M,004.836,N,008.957,K,D*01
$GPGGA,085255.25,5703.3865421,N,00952.0000313,E,2,10,1.0,-1.609,M,40.593,M,1.8,0123*69
$GPVTG,063.47,T,-576.43,M,004.816,N,008.919,K,D*0C
$GPGGA,085255.30,5703.3865719,N,00952.0001409,E,2,10,1.0,-1.604,M,40.593,M,1.8,0123*65
$GPVTG,063.44,T,-576.46,M,004.800,N,008.889,K,D*05
$GPGGA,085255.35,5703.3866005,N,00952.0002508,E,2,10,1.0,-1.596,M,40.593,M,1.8,0123*62
$GPVTG,063.83,T,-576.07,M,004.785,N,008.861,K,D*0F
$GPGGA,085255.40,5703.3866292,N,00952.0003596,E,2,10,1.0,-1.592,M,40.593,M,1.8,0123*6E
$GPVTG,064.01,T,-575.89,M,004.757,N,008.809,K,D*06
$GPGGA,085255.45,5703.3866588,N,00952.0004693,E,2,10,1.0,-1.590,M,40.593,M,2.0,0123*6F
$GPVTG,063.88,T,-576.02,M,004.773,N,008.840,K,D*0B
$GPGGA,085255.50,5703.3866879,N,00952.0005805,E,2,10,1.0,-1.589,M,40.593,M,2.0,0123*60
$GPVTG,064.16,T,-575.74,M,004.805,N,008.898,K,D*02
$GPGGA,085255.55,5703.3867174,N,00952.0006917,E,2,10,1.0,-1.587,M,40.593,M,2.0,0123*6F
$GPVTG,064.20,T,-575.70,M,004.831,N,008.947,K,D*07
$GPGGA,085255.60,5703.3867483,N,00952.0008013,E,2,10,1.0,-1.586,M,40.593,M,2.0,0123*66
$GPVTG,063.58,T,-576.32,M,004.841,N,008.966,K,D*0E
$GPGGA,085255.65,5703.3867792,N,00952.0009122,E,2,10,1.0,-1.584,M,40.593,M,2.2,0123*62
$GPVTG,063.23,T,-576.67,M,004.873,N,009.025,K,D*0C
$GPGGA,085255.70,5703.3868078,N,00952.0010246,E,2,10,1.0,-1.582,M,40.593,M,2.2,0123*65
$GPVTG,063.88,T,-576.02,M,004.890,N,009.056,K,D*07
$GPGGA,085255.75,5703.3868363,N,00952.0011378,E,2,10,1.0,-1.581,M,40.593,M,2.2,0123*67
$GPVTG,064.51,T,-575.39,M,004.909,N,009.092,K,D*06
$GPGGA,085255.80,5703.3868682,N,00952.0012488,E,2,10,1.0,-1.581,M,40.593,M,2.2,0123*6C
$GPVTG,063.64,T,-576.26,M,004.926,N,009.123,K,D*0C
$GPGGA,085255.85,5703.3868997,N,00952.0013610,E,2,10,1.0,-1.580,M,40.593,M,2.4,0123*67
$GPVTG,063.25,T,-576.65,M,004.943,N,009.154,K,D*0D
$GPGGA,085255.90,5703.3869301,N,00952.0014716,E,2,10,1.0,-1.583,M,40.593,M,2.4,0123*64
$GPVTG,063.13,T,-576.77,M,004.918,N,009.108,K,D*0C
$GPGGA,085255.95,5703.3869589,N,00952.0015824,E,2,10,1.0,-1.587,M,40.593,M,2.4,0123*6C
$GPVTG,063.58,T,-576.32,M,004.884,N,009.044,K,D*0F
$GPGGA,085256.00,5703.3869896,N,00952.0016943,E,2,10,1.0,-1.590,M,40.593,M,2.4,0123*65
$GPVTG,063.48,T,-576.42,M,004.899,N,009.073,K,D*01
$GPGGA,085256.05,5703.3870182,N,00952.0018064,E,2,10,1.0,-1.600,M,40.593,M,2.6,0123*6E
$GPVTG,063.58,T,-576.32,M,004.929,N,009.128,K,D*02
$GPGGA,085256.10,5703.3870488,N,00952.0019188,E,2,10,1.0,-1.605,M,40.593,M,2.6,0123*62
$GPVTG,063.53,T,-576.37,M,004.942,N,009.152,K,D*0C
$GPGGA,085256.15,5703.3870788,N,00952.0020298,E,2,10,1.0,-1.610,M,40.593,M,2.6,0123*68
$GPVTG,063.54,T,-576.36,M,004.914,N,009.100,K,D*0E
$GPGGA,085256.20,5703.3871080,N,00952.0021406,E,2,10,1.0,-1.610,M,40.593,M,2.6,0123*60
$GPVTG,063.80,T,-576.10,M,004.880,N,009.038,K,D*05
$GPGGA,085256.25,5703.3871389,N,00952.0022510,E,2,10,1.0,-1.601,M,40.593,M,2.9,0123*65
$GPVTG,063.58,T,-576.32,M,004.845,N,008.973,K,D*0E
$GPGGA,085256.30,5703.3871680,N,00952.0023594,E,2,10,1.0,-1.594,M,40.593,M,2.9,0123*6F
$GPVTG,063.60,T,-576.30,M,004.790,N,008.871,K,D*03
$GPGGA,085256.35,5703.3871967,N,00952.0024675,E,2,10,1.0,-1.591,M,40.593,M,2.9,0123*62
$GPVTG,063.77,T,-576.13,M,004.743,N,008.783,K,D*08
$GPGGA,085256.40,5703.3872264,N,00952.0025768,E,2,10,1.0,-1.592,M,40.593,M,2.9,0123*64
$GPVTG,063.68,T,-576.22,M,004.748,N,008.794,K,D*09
$GPGGA,085256.45,5703.3872562,N,00952.0026871,E,2,10,1.0,-1.591,M,40.593,M,3.1,0123*6E
$GPVTG,063.56,T,-576.34,M,004.795,N,008.881,K,D*08
$GPGGA,085256.50,5703.3872857,N,00952.0027979,E,2,10,1.0,-1.591,M,40.593,M,3.1,0123*69
$GPVTG,063.74,T,-576.16,M,004.819,N,008.924,K,D*0D
$GPGGA,085256.55,5703.3873145,N,00952.0029088,E,2,10,1.0,-1.592,M,40.593,M,3.1,0123*6D
$GPVTG,064.13,T,-575.77,M,004.826,N,008.938,K,D*0E
$GPGGA,085256.60,5703.3873430,N,00952.0030201,E,2,10,1.0,-1.592,M,40.593,M,3.1,0123*67
$GPVTG,064.51,T,-575.39,M,004.837,N,008.959,K,D*05
$GPGGA,085256.65,5703.3873726,N,00952.0031311,E,2,10,1.0,-1.586,M,40.593,M,3.3,0123*60
$GPVTG,064.57,T,-575.33,M,004.829,N,008.943,K,D*0D
$GPGGA,085256.70,5703.3874021,N,00952.0032414,E,2,10,1.0,-1.584,M,40.593,M,3.3,0123*60
$GPVTG,064.35,T,-575.55,M,004.830,N,008.945,K,D*07
$GPGGA,085256.75,5703.3874321,N,00952.0033517,E,2,10,1.0,-1.586,M,40.593,M,3.3,0123*67
$GPVTG,064.03,T,-575.87,M,004.838,N,008.960,K,D*02
$GPGGA,085256.80,5703.3874622,N,00952.0034640,E,2,10,1.0,-1.590,M,40.593,M,3.3,0123*6A
$GPVTG,063.94,T,-575.96,M,004.880,N,009.037,K,D*02
$GPGGA,085256.85,5703.3874920,N,00952.0035773,E,2,10,1.0,-1.598,M,40.593,M,3.5,0123*6C
$GPVTG,064.02,T,-575.88,M,004.929,N,009.128,K,D*08
$GPGGA,085256.90,5703.3875217,N,00952.0036914,E,2,10,1.0,-1.602,M,40.593,M,3.5,0123*6A
$GPVTG,064.23,T,-575.67,M,004.968,N,009.201,K,D*07
$GPGGA,085256.95,5703.3875515,N,00952.0038043,E,2,10,1.0,-1.605,M,40.593,M,3.5,0123*68
$GPVTG,064.23,T,-575.67,M,004.968,N,009.201,K,D*07
$GPGGA,085257.00,5703.3875809,N,00952.0039147,E,2,10,1.0,-1.610,M,40.593,M,3.5,0123*65
$GPVTG,064.10,T,-575.80,M,004.916,N,009.104,K,D*01
$GPGGA,085257.05,5703.3876103,N,00952.0040267,E,2,10,1.0,-1.609,M,40.593,M,2.4,0123*67
$GPVTG,064.05,T,-575.85,M,004.896,N,009.067,K,D*0D
$GPGGA,085257.10,5703.3876402,N,00952.0041387,E,2,10,1.0,-1.609,M,40.593,M,2.4,0123*69
$GPVTG,063.95,T,-575.95,M,004.896,N,009.068,K,D*0D
$GPGGA,085257.15,5703.3876693,N,00952.0042499,E,2,10,1.0,-1.608,M,40.593,M,2.4,0123*6C
$GPVTG,064.09,T,-575.81,M,004.873,N,009.024,K,D*09
$GPGGA,085257.20,5703.3876980,N,00952.0043607,E,2,10,1.0,-1.608,M,40.593,M,2.4,0123*63
$GPVTG,064.28,T,-575.62,M,004.844,N,008.972,K,D*08
$GPGGA,085257.25,5703.3877264,N,00952.0044714,E,2,10,1.0,-1.610,M,40.593,M,2.7,0123*68
$GPVTG,064.42,T,-575.48,M,004.832,N,008.949,K,D*05
$GPGGA,085257.30,5703.3877561,N,00952.0045811,E,2,10,1.0,-1.609,M,40.593,M,2.7,0123*6D
$GPVTG,064.09,T,-575.81,M,004.813,N,008.913,K,D*03
$GPGGA,085257.35,5703.3877848,N,00952.0046929,E,2,10,1.0,-1.606,M,40.593,M,2.7,0123*68
$GPVTG,064.42,T,-575.48,M,004.826,N,008.937,K,D*09
$GPGGA,085257.40,5703.3878127,N,00952.0048055,E,2,10,1.0,-1.603,M,40.593,M,2.7,0123*6C
$GPVTG,064.97,T,-574.93,M,004.841,N,008.966,K,D*03
$GPGGA,085257.45,5703.3878407,N,00952.0049163,E,2,10,1.0,-1.600,M,40.593,M,2.9,0123*66
$GPVTG,065.13,T,-574.77,M,004.821,N,008.929,K,D*09
$GPGGA,085257.50,5703.3878691,N,00952.0050252,E,2,10,1.0,-1.598,M,40.593,M,2.9,0123*64
$GPVTG,064.94,T,-574.96,M,004.778,N,008.849,K,D*0C
$GPGGA,085257.55,5703.3878977,N,00952.0051357,E,2,10,1.0,-1.599,M,40.593,M,2.9,0123*62
$GPVTG,064.87,T,-575.03,M,004.782,N,008.857,K,D*09
$GPGGA,085257.60,5703.3879260,N,00952.0052476,E,2,10,1.0,-1.598,M,40.593,M,2.9,0123*6E
$GPVTG,065.01,T,-574.89,M,004.808,N,008.904,K,D*0F
$GPGGA,085257.65,5703.3879550,N,00952.0053605,E,2,10,1.0,-1.597,M,40.593,M,3.2,0123*6D
$GPVTG,064.94,T,-574.96,M,004.863,N,009.005,K,D*08
$GPGGA,085257.70,5703.3879852,N,00952.0054724,E,2,10,1.0,-1.597,M,40.593,M,3.2,0123*63
$GPVTG,064.44,T,-575.46,M,004.891,N,009.057,K,D*03
$GPGGA,085257.75,5703.3880152,N,00952.0055842,E,2,10,1.0,-1.600,M,40.593,M,3.2,0123*6A
$GPVTG,064.09,T,-575.81,M,004.905,N,009.085,K,D*02
$GPGGA,085257.80,5703.3880458,N,00952.0056975,E,2,10,1.0,-1.604,M,40.593,M,3.2,0123*6D
$GPVTG,063.82,T,-576.08,M,004.947,N,009.162,K,D*0A
$GPGGA,085257.85,5703.3880767,N,00952.0058121,E,2,10,1.0,-1.605,M,40.593,M,3.4,0123*67
$GPVTG,063.77,T,-576.13,M,004.989,N,009.239,K,D*05
$GPGGA,085257.90,5703.3881060,N,00952.0059264,E,2,10,1.0,-1.607,M,40.593,M,3.4,0123*63
$GPVTG,064.11,T,-575.79,M,005.002,N,009.264,K,D*0E
$GPGGA,085257.95,5703.3881341,N,00952.0060386,E,2,10,1.0,-1.607,M,40.593,M,3.4,0123*61
$GPVTG,064.55,T,-575.35,M,004.950,N,009.167,K,D*09
$GPGGA,085258.00,5703.3881635,N,00952.0061475,E,2,10,1.0,-1.606,M,40.593,M,3.4,0123*6F
$GPVTG,064.14,T,-575.76,M,004.868,N,009.016,K,D*06
$GPGGA,085258.05,5703.3881929,N,00952.0062565,E,2,10,1.0,-1.608,M,40.593,M,1.6,0123*65
$GPVTG,063.43,T,-576.47,M,004.847,N,008.976,K,D*01
$GPGGA,085258.10,5703.3882234,N,00952.0063683,E,2,10,1.0,-1.606,M,40.593,M,1.6,0123*61
$GPVTG,063.32,T,-576.58,M,004.866,N,009.012,K,D*00
$GPGGA,085258.15,5703.3882531,N,00952.0064794,E,2,10,1.0,-1.604,M,40.593,M,1.6,0123*64
$GPVTG,063.42,T,-576.48,M,004.860,N,009.001,K,D*02
$GPGGA,085258.20,5703.3882824,N,00952.0065910,E,2,10,1.0,-1.602,M,40.593,M,1.6,0123*6E
$GPVTG,063.70,T,-576.20,M,004.862,N,009.005,K,D*0B
$GPGGA,085258.25,5703.3883122,N,00952.0067030,E,2,10,1.0,-1.596,M,40.593,M,1.8,0123*6C
$GPVTG,063.84,T,-576.06,M,004.877,N,009.031,K,D*07
$GPGGA,085258.30,5703.3883398,N,00952.0068143,E,2,10,1.0,-1.593,M,40.593,M,1.8,0123*64
$GPVTG,064.57,T,-575.33,M,004.847,N,008.977,K,D*02
$GPGGA,085258.35,5703.3883682,N,00952.0069259,E,2,10,1.0,-1.591,M,40.593,M,1.8,0123*64
$GPVTG,064.87,T,-575.03,M,004.841,N,008.965,K,D*09
$GPGGA,085258.40,5703.3883954,N,00952.0070363,E,2,10,1.0,-1.591,M,40.593,M,1.8,0123*62
$GPVTG,065.33,T,-574.57,M,004.802,N,008.893,K,D*08
$GPGGA,085258.45,5703.3884242,N,00952.0071500,E,2,10,1.0,-1.589,M,40.593,M,2.1,0123*6D
$GPVTG,065.43,T,-574.47,M,004.856,N,008.993,K,D*0E
$GPGGA,085258.50,5703.3884528,N,00952.0072645,E,2,10,1.0,-1.589,M,40.593,M,2.1,0123*63
$GPVTG,065.61,T,-574.29,M,004.905,N,009.085,K,D*0E
$GPGGA,085258.55,5703.3884827,N,00952.0073782,E,2,10,1.0,-1.593,M,40.593,M,2.1,0123*64
$GPVTG,065.21,T,-574.69,M,004.940,N,009.149,K,D*0E
$GPGGA,085258.60,5703.3885125,N,00952.0074922,E,2,10,1.0,-1.598,M,40.593,M,2.1,0123*60
$GPVTG,064.92,T,-574.98,M,004.965,N,009.196,K,D*0C
$GPGGA,085258.65,5703.3885422,N,00952.0076057,E,2,10,1.0,-1.599,M,40.593,M,2.3,0123*6D
$GPVTG,064.80,T,-575.10,M,004.955,N,009.176,K,D*03
$GPGGA,085258.70,5703.3885725,N,00952.0077191,E,2,10,1.0,-1.602,M,40.593,M,2.3,0123*66
$GPVTG,064.36,T,-575.54,M,004.966,N,009.196,K,D*00
$GPGGA,085258.75,5703.3886006,N,00952.0078337,E,2,10,1.0,-1.605,M,40.593,M,2.3,0123*60
$GPVTG,064.90,T,-575.00,M,004.965,N,009.196,K,D*0E
$GPGGA,085258.80,5703.3886291,N,00952.0079472,E,2,10,1.0,-1.608,M,40.593,M,2.3,0123*6C
$GPVTG,065.04,T,-574.86,M,004.948,N,009.164,K,D*0F
$GPGGA,085258.85,5703.3886575,N,00952.0080601,E,2,10,1.0,-1.614,M,40.593,M,2.5,0123*6F
$GPVTG,065.08,T,-574.82,M,004.931,N,009.132,K,D*0A
$GPGGA,085258.90,5703.3886853,N,00952.0081734,E,2,10,1.0,-1.617,M,40.593,M,2.5,0123*67
$GPVTG,065.40,T,-574.50,M,004.908,N,009.090,K,D*0A
$GPGGA,085258.95,5703.3887137,N,00952.0082850,E,2,10,1.0,-1.617,M,40.593,M,2.5,0123*66
$GPVTG,065.27,T,-574.63,M,004.869,N,009.018,K,D*0D
$GPGGA,085259.00,5703.3887424,N,00952.0083954,E,2,10,1.0,-1.617,M,40.593,M,2.5,0123*68
$GPVTG,064.94,T,-574.96,M,004.827,N,008.940,K,D*01
$GPGGA,085259.05,5703.3887691,N,00952.0085078,E,2,10,1.0,-1.613,M,40.593,M,1.5,0123*67
$GPVTG,065.29,T,-574.61,M,004.829,N,008.943,K,D*03
$GPGGA,085259.10,5703.3887958,N,00952.0086179,E,2,10,1.0,-1.612,M,40.593,M,1.5,0123*6B
$GPVTG,065.61,T,-574.29,M,004.774,N,008.841,K,D*07
$GPGGA,085259.15,5703.3888235,N,00952.0087287,E,2,10,1.0,-1.609,M,40.593,M,1.5,0123*68
$GPVTG,065.61,T,-574.29,M,004.764,N,008.823,K,D*02
$GPGGA,085259.20,5703.3888520,N,00952.0088422,E,2,10,1.0,-1.605,M,40.593,M,1.5,0123*67
$GPVTG,065.57,T,-574.33,M,004.819,N,008.925,K,D*0E
$GPGGA,085259.25,5703.3888810,N,00952.0089558,E,2,10,1.0,-1.595,M,40.593,M,1.8,0123*66
$GPVTG,065.51,T,-574.39,M,004.852,N,008.985,K,D*07
$GPGGA,085259.30,5703.3889089,N,00952.0090667,E,2,10,1.0,-1.596,M,40.593,M,1.8,0123*6F
$GPVTG,065.41,T,-574.49,M,004.832,N,008.948,K,D*06
$GPGGA,085259.35,5703.3889369,N,00952.0091792,E,2,10,1.0,-1.595,M,40.593,M,1.8,0123*6E
$GPVTG,065.45,T,-574.45,M,004.845,N,008.973,K,D*06
$GPGGA,085259.40,5703.3889651,N,00952.0092915,E,2,10,1.0,-1.597,M,40.593,M,1.8,0123*62
$GPVTG,065.40,T,-574.50,M,004.855,N,008.991,K,D*0A
$GPGGA,085259.45,5703.3889926,N,00952.0094042,E,2,10,1.0,-1.598,M,40.593,M,2.0,0123*61
$GPVTG,065.61,T,-574.29,M,004.858,N,008.998,K,D*03
$GPGGA,085259.50,5703.3890196,N,00952.0095186,E,2,10,1.0,-1.599,M,40.593,M,2.0,0123*67
$GPVTG,066.10,T,-573.80,M,004.886,N,009.049,K,D*05
$GPGGA,085259.55,5703.3890468,N,00952.0096339,E,2,10,1.0,-1.602,M,40.593,M,2.0,0123*62
$GPVTG,066.44,T,-573.46,M,004.921,N,009.114,K,D*0B
$GPGGA,085259.60,5703.3890754,N,00952.0097482,E,2,10,1.0,-1.604,M,40.593,M,2.0,0123*68
$GPVTG,066.11,T,-573.79,M,004.942,N,009.153,K,D*01
$GPGGA,085259.65,5703.3891040,N,00952.0098620,E,2,10,1.0,-1.603,M,40.593,M,2.2,0123*6E
$GPVTG,065.97,T,-573.93,M,004.923,N,009.117,K,D*0F
$GPGGA,085259.70,5703.3891309,N,00952.0099763,E,2,10,1.0,-1.605,M,40.593,M,2.2,0123*65
$GPVTG,066.26,T,-573.64,M,004.916,N,009.104,K,D*0A
$GPGGA,085259.75,5703.3891589,N,00952.0100900,E,2,10,1.0,-1.604,M,40.593,M,2.2,0123*65
$GPVTG,066.07,T,-573.83,M,004.913,N,009.099,K,D*00
$GPGGA,085259.80,5703.3891864,N,00952.0102025,E,2,10,1.0,-1.605,M,40.593,M,2.2,0123*6C
$GPVTG,065.95,T,-573.95,M,004.883,N,009.043,K,D*00
$GPGGA,085259.85,5703.3892149,N,00952.0103157,E,2,10,1.0,-1.606,M,40.593,M,2.4,0123*6C
$GPVTG,065.63,T,-574.27,M,004.885,N,009.047,K,D*05
$GPGGA,085259.90,5703.3892426,N,00952.0104300,E,2,10,1.0,-1.610,M,40.593,M,2.4,0123*64
$GPVTG,065.75,T,-574.15,M,004.900,N,009.076,K,D*0D
$GPGGA,085259.95,5703.3892695,N,00952.0105453,E,2,10,1.0,-1.615,M,40.593,M,2.4,0123*6E
$GPVTG,066.20,T,-573.70,M,004.918,N,009.108,K,D*0B
$GPGGA,085300.00,5703.3892964,N,00952.0106603,E,2,10,1.0,-1.621,M,40.593,M,2.4,0123*6D
$GPVTG,066.51,T,-573.39,M,004.925,N,009.120,K,D*04
$GPGGA,085300.05,5703.3893231,N,00952.0107741,E,2,10,1.0,-1.621,M,40.593,M,2.6,0123*66
$GPVTG,066.48,T,-573.42,M,004.910,N,009.094,K,D*08
$GPGGA,085300.10,5703.3893516,N,00952.0108877,E,2,10,1.0,-1.619,M,40.593,M,2.6,0123*6E
$GPVTG,066.03,T,-573.87,M,004.911,N,009.095,K,D*0E
$GPGGA,085300.15,5703.3893788,N,00952.0109987,E,2,10,1.0,-1.616,M,40.593,M,2.6,0123*6E
$GPVTG,065.85,T,-574.05,M,004.849,N,008.980,K,D*0E
$GPGGA,085300.20,5703.3894057,N,00952.0111096,E,2,10,1.0,-1.612,M,40.593,M,2.6,0123*6E
$GPVTG,065.82,T,-574.08,M,004.801,N,008.891,K,D*09
$GPGGA,085300.25,5703.3894329,N,00952.0112205,E,2,10,1.0,-1.607,M,40.593,M,2.9,0123*61
$GPVTG,065.72,T,-574.18,M,004.777,N,008.847,K,D*02
$GPGGA,085300.30,5703.3894601,N,00952.0113327,E,2,10,1.0,-1.602,M,40.593,M,2.9,0123*6F
$GPVTG,065.81,T,-574.09,M,004.787,N,008.866,K,D*02
$GPGGA,085300.35,5703.3894871,N,00952.0114463,E,2,10,1.0,-1.600,M,40.593,M,2.9,0123*61
$GPVTG,066.09,T,-573.81,M,004.818,N,008.923,K,D*0F
$GPGGA,085300.40,5703.3895140,N,00952.0115596,E,2,10,1.0,-1.597,M,40.593,M,2.9,0123*6E
$GPVTG,066.31,T,-573.59,M,004.836,N,008.956,K,D*0F
$GPGGA,085300.45,5703.3895401,N,00952.0116731,E,2,10,1.0,-1.596,M,40.593,M,3.1,0123*6F
$GPVTG,066.70,T,-573.20,M,004.849,N,008.980,K,D*07
$GPGGA,085300.50,5703.3895665,N,00952.0117863,E,2,10,1.0,-1.597,M,40.593,M,3.1,0123*63
$GPVTG,066.89,T,-573.01,M,004.848,N,008.979,K,D*05
$GPGGA,085300.55,5703.3895941,N,00952.0119010,E,2,10,1.0,-1.597,M,40.593,M,3.1,0123*6D
$GPVTG,066.70,T,-573.20,M,004.888,N,009.053,K,D*0C
$GPGGA,085300.60,5703.3896213,N,00952.0120152,E,2,10,1.0,-1.601,M,40.593,M,3.1,0123*65
$GPVTG,066.66,T,-573.24,M,004.903,N,009.080,K,D*03
$GPGGA,085300.65,5703.3896488,N,00952.0121292,E,2,10,1.0,-1.608,M,40.593,M,3.3,0123*61
$GPVTG,066.34,T,-573.56,M,004.922,N,009.116,K,D*0C
$GPGGA,085300.70,5703.3896765,N,00952.0122433,E,2,10,1.0,-1.613,M,40.593,M,3.3,0123*61
$GPVTG,066.15,T,-573.75,M,004.926,N,009.123,K,D*0C
$GPGGA,085300.75,5703.3897029,N,00952.0123582,E,2,10,1.0,-1.614,M,40.593,M,3.3,0123*67
$GPVTG,066.53,T,-573.37,M,004.926,N,009.123,K,D*08
$GPGGA,085300.80,5703.3897308,N,00952.0124724,E,2,10,1.0,-1.616,M,40.593,M,3.3,0123*66
$GPVTG,066.26,T,-573.64,M,004.928,N,009.127,K,D*06
$GPGGA,085300.85,5703.3897597,N,00952.0125874,E,2,10,1.0,-1.610,M,40.593,M,3.5,0123*68
$GPVTG,066.02,T,-573.88,M,004.932,N,009.134,K,D*0B
$GPGGA,085300.90,5703.3897870,N,00952.0127017,E,2,10,1.0,-1.608,M,40.593,M,3.5,0123*6E
$GPVTG,066.05,T,-573.85,M,004.925,N,009.121,K,D*03
$GPGGA,085300.95,5703.3898136,N,00952.0128166,E,2,10,1.0,-1.606,M,40.593,M,3.5,0123*69
$GPVTG,066.44,T,-573.46,M,004.921,N,009.114,K,D*0B
$GPGGA,085301.00,5703.3898410,N,00952.0129299,E,2,10,1.0,-1.605,M,40.593,M,3.5,0123*64
$GPVTG,066.28,T,-573.62,M,004.898,N,009.071,K,D*06
$GPGGA,085301.05,5703.3898653,N,00952.0130403,E,2,10,1.0,-1.612,M,40.593,M,2.4,0123*6F
$GPVTG,066.29,T,-573.61,M,004.850,N,008.982,K,D*04
$GPGGA,085301.10,5703.3898923,N,00952.0131530,E,2,10,1.0,-1.611,M,40.593,M,2.4,0123*60
$GPVTG,066.25,T,-573.65,M,004.835,N,008.955,K,D*05
$GPGGA,085301.15,5703.3899199,N,00952.0132666,E,2,10,1.0,-1.612,M,40.593,M,2.4,0123*6D
$GPVTG,066.15,T,-573.75,M,004.848,N,008.978,K,D*02
$GPGGA,085301.20,5703.3899453,N,00952.0133807,E,2,10,1.0,-1.614,M,40.593,M,2.4,0123*66
$GPVTG,066.84,T,-573.06,M,004.845,N,008.974,K,D*0F
$GPGGA,085301.25,5703.3899701,N,00952.0134948,E,2,10,1.0,-1.618,M,40.593,M,2.7,0123*65
$GPVTG,067.41,T,-572.49,M,004.854,N,008.989,K,D*0F
$GPGGA,085301.30,5703.3899968,N,00952.0136085,E,2,10,1.0,-1.618,M,40.593,M,2.7,0123*6A
$GPVTG,067.27,T,-572.63,M,004.857,N,008.995,K,D*09
$GPGGA,085301.35,5703.3900233,N,00952.0137231,E,2,10,1.0,-1.618,M,40.593,M,2.7,0123*67
$GPVTG,067.27,T,-572.63,M,004.874,N,009.026,K,D*08
$GPGGA,085301.40,5703.3900501,N,00952.0138368,E,2,10,1.0,-1.618,M,40.593,M,2.7,0123*61
$GPVTG,067.10,T,-572.80,M,004.872,N,009.023,K,D*02
$GPGGA,085301.45,5703.3900774,N,00952.0139516,E,2,10,1.0,-1.616,M,40.593,M,2.9,0123*6A
$GPVTG,066.89,T,-573.01,M,004.891,N,009.059,K,D*0B
$GPGGA,085301.50,5703.3901051,N,00952.0140656,E,2,10,1.0,-1.617,M,40.593,M,2.9,0123*67
$GPVTG,066.50,T,-573.40,M,004.900,N,009.075,K,D*0D
$GPGGA,085301.55,5703.3901320,N,00952.0141798,E,2,10,1.0,-1.620,M,40.593,M,2.9,0123*61
$GPVTG,066.47,T,-573.43,M,004.902,N,009.079,K,D*06
$GPGGA,085301.60,5703.3901586,N,00952.0142956,E,2,10,1.0,-1.619,M,40.593,M,2.9,0123*68
$GPVTG,066.73,T,-573.17,M,004.927,N,009.125,K,D*0F
$GPGGA,085301.65,5703.3901853,N,00952.0144112,E,2,10,1.0,-1.618,M,40.593,M,3.2,0123*6D
$GPVTG,066.88,T,-573.02,M,004.938,N,009.146,K,D*04
$GPGGA,085301.70,5703.3902121,N,00952.0145256,E,2,10,1.0,-1.619,M,40.593,M,3.2,0123*65
$GPVTG,066.84,T,-573.06,M,004.925,N,009.120,K,D*00
$GPGGA,085301.75,5703.3902398,N,00952.0146401,E,2,10,1.0,-1.618,M,40.593,M,3.2,0123*66
$GPVTG,066.52,T,-573.38,M,004.926,N,009.123,K,D*06
$GPGGA,085301.80,5703.3902666,N,00952.0147562,E,2,10,1.0,-1.617,M,40.593,M,3.2,0123*62
$GPVTG,066.71,T,-573.19,M,004.946,N,009.160,K,D*05
$GPGGA,085301.85,5703.3902927,N,00952.0148699,E,2,10,1.0,-1.622,M,40.593,M,3.4,0123*65
$GPVTG,066.64,T,-573.26,M,004.931,N,009.132,K,D*0A
$GPGGA,085301.90,5703.3903196,N,00952.0149854,E,2,10,1.0,-1.621,M,40.593,M,3.4,0123*6F
$GPVTG,066.73,T,-573.17,M,004.938,N,009.145,K,D*07
$GPGGA,085301.95,5703.3903460,N,00952.0151021,E,2,10,1.0,-1.622,M,40.593,M,3.4,0123*66
$GPVTG,067.04,T,-572.86,M,004.956,N,009.179,K,D*08
$GPGGA,085302.00,5703.3903721,N,00952.0152175,E,2,10,1.0,-1.623,M,40.593,M,3.4,0123*6D
$GPVTG,067.24,T,-572.66,M,004.942,N,009.153,K,D*09
$GPGGA,085302.05,5703.3903979,N,00952.0153321,E,2,10,1.0,-1.622,M,40.593,M,1.6,0123*68
$GPVTG,067.08,T,-572.82,M,004.929,N,009.128,K,D*0C
$GPGGA,085302.10,5703.3904250,N,00952.0154453,E,2,10,1.0,-1.622,M,40.593,M,1.6,0123*6E
$GPVTG,066.73,T,-573.17,M,004.891,N,009.058,K,D*08
$GPGGA,085302.15,5703.3904501,N,00952.0155587,E,2,10,1.0,-1.620,M,40.593,M,1.6,0123*63
$GPVTG,067.16,T,-572.74,M,004.849,N,008.980,K,D*06
$GPGGA,085302.20,5703.3904759,N,00952.0156745,E,2,10,1.0,-1.617,M,40.593,M,1.6,0123*61
$GPVTG,067.51,T,-572.39,M,004.870,N,009.020,K,D*04
$GPGGA,085302.25,5703.3905018,N,00952.0157907,E,2,10,1.0,-1.616,M,40.593,M,1.8,0123*61
$GPVTG,067.64,T,-572.26,M,004.907,N,009.088,K,D*0F
$GPGGA,085302.30,5703.3905278,N,00952.0159070,E,2,10,1.0,-1.614,M,40.593,M,1.8,0123*64
$GPVTG,067.76,T,-572.14,M,004.927,N,009.124,K,D*08
$GPGGA,085302.35,5703.3905533,N,00952.0160235,E,2,10,1.0,-1.610,M,40.593,M,1.8,0123*64
$GPVTG,068.03,T,-571.87,M,004.938,N,009.146,K,D*06
$GPGGA,085302.40,5703.3905794,N,00952.0161401,E,2,10,1.0,-1.610,M,40.593,M,1.8,0123*69
$GPVTG,067.99,T,-571.91,M,004.952,N,009.171,K,D*05
$GPGGA,085302.45,5703.3906044,N,00952.0162549,E,2,10,1.0,-1.617,M,40.593,M,2.1,0123*66
$GPVTG,067.96,T,-571.94,M,004.936,N,009.142,K,D*0D
$GPGGA,085302.50,5703.3906302,N,00952.0163711,E,2,10,1.0,-1.621,M,40.593,M,2.1,0123*68
$GPVTG,067.96,T,-571.94,M,004.937,N,009.143,K,D*0D
$GPGGA,085302.55,5703.3906564,N,00952.0164877,E,2,10,1.0,-1.623,M,40.593,M,2.1,0123*61
$GPVTG,067.86,T,-572.04,M,004.948,N,009.164,K,D*0B
$GPGGA,085302.60,5703.3906820,N,00952.0166035,E,2,10,1.0,-1.625,M,40.593,M,2.1,0123*60
$GPVTG,067.87,T,-572.03,M,004.934,N,009.138,K,D*0F
$GPGGA,085302.65,5703.3907086,N,00952.0167204,E,2,10,1.0,-1.619,M,40.593,M,2.3,0123*6C
$GPVTG,067.93,T,-571.97,M,004.931,N,009.131,K,D*08
$GPGGA,085302.70,5703.3907343,N,00952.0168380,E,2,10,1.0,-1.620,M,40.593,M,2.3,0123*6A
$GPVTG,068.06,T,-571.84,M,004.955,N,009.177,K,D*09
$GPGGA,085302.75,5703.3907598,N,00952.0169549,E,2,10,1.0,-1.620,M,40.593,M,2.3,0123*6D
$GPVTG,068.15,T,-571.75,M,004.958,N,009.182,K,D*02
$GPGGA,085302.80,5703.3907852,N,00952.0170713,E,2,10,1.0,-1.620,M,40.593,M,2.3,0123*69
$GPVTG,068.21,T,-571.69,M,004.946,N,009.160,K,D*0B
$GPGGA,085302.85,5703.3908104,N,00952.0171875,E,2,10,1.0,-1.621,M,40.593,M,2.5,0123*60
$GPVTG,068.21,T,-571.69,M,004.942,N,009.152,K,D*0E
$GPGGA,085302.90,5703.3908356,N,00952.0173040,E,2,10,1.0,-1.622,M,40.593,M,2.5,0123*6E
$GPVTG,068.29,T,-571.61,M,004.935,N,009.140,K,D*0D
$GPGGA,085302.95,5703.3908614,N,00952.0174208,E,2,10,1.0,-1.625,M,40.593,M,2.5,0123*66
$GPVTG,068.20,T,-571.70,M,004.943,N,009.155,K,D*01
$GPGGA,085303.00,5703.3908878,N,00952.0175381,E,2,10,1.0,-1.626,M,40.593,M,2.5,0123*6D
$GPVTG,067.95,T,-571.95,M,004.964,N,009.193,K,D*04
$GPGGA,085303.05,5703.3909126,N,00952.0176540,E,2,10,1.0,-1.625,M,40.593,M,1.5,0123*63
$GPVTG,067.77,T,-572.13,M,004.954,N,009.175,K,D*0E
$GPGGA,085303.10,5703.3909370,N,00952.0177694,E,2,10,1.0,-1.624,M,40.593,M,1.5,0123*6C
$GPVTG,068.11,T,-571.79,M,004.915,N,009.103,K,D*0A
$GPGGA,085303.15,5703.3909617,N,00952.0178845,E,2,10,1.0,-1.619,M,40.593,M,1.5,0123*6E
$GPVTG,068.27,T,-571.63,M,004.885,N,009.047,K,D*0D
$GPGGA,085303.20,5703.3909855,N,00952.0179988,E,2,10,1.0,-1.613,M,40.593,M,1.5,0123*6B
$GPVTG,068.64,T,-571.26,M,004.841,N,008.966,K,D*08
$GPGGA,085303.25,5703.3910096,N,00952.0181137,E,2,10,1.0,-1.609,M,40.593,M,1.8,0123*6C
$GPVTG,068.86,T,-571.04,M,004.830,N,008.945,K,D*03
$GPGGA,085303.30,5703.3910341,N,00952.0182305,E,2,10,1.0,-1.606,M,40.593,M,1.8,0123*6E
$GPVTG,069.01,T,-570.89,M,004.861,N,009.003,K,D*07
$GPGGA,085303.35,5703.3910595,N,00952.0183477,E,2,10,1.0,-1.604,M,40.593,M,1.8,0123*65
$GPVTG,068.85,T,-571.05,M,004.903,N,009.080,K,D*01
$GPGGA,085303.40,5703.3910839,N,00952.0184651,E,2,10,1.0,-1.603,M,40.593,M,1.8,0123*6A
$GPVTG,069.05,T,-570.85,M,004.925,N,009.121,K,D*0F
$GPGGA,085303.45,5703.3911088,N,00952.0185822,E,2,10,1.0,-1.606,M,40.593,M,2.0,0123*69
$GPVTG,068.83,T,-571.07,M,004.956,N,009.178,K,D*03
$GPGGA,085303.50,5703.3911338,N,00952.0186996,E,2,10,1.0,-1.608,M,40.593,M,2.0,0123*66
$GPVTG,068.81,T,-571.09,M,004.966,N,009.196,K,D*0C
$GPGGA,085303.55,5703.3911595,N,00952.0188172,E,2,10,1.0,-1.610,M,40.593,M,2.0,0123*67
$GPVTG,068.52,T,-571.38,M,004.981,N,009.226,K,D*01
$GPGGA,085303.60,5703.3911859,N,00952.0189349,E,2,10,1.0,-1.611,M,40.593,M,2.0,0123*66
$GPVTG,068.11,T,-571.79,M,005.001,N,009.262,K,D*03
$GPGGA,085303.65,5703.3912111,N,00952.0190529,E,2,10,1.0,-1.613,M,40.593,M,2.2,0123*6D
$GPVTG,068.22,T,-571.68,M,005.006,N,009.272,K,D*05
$GPGGA,085303.70,5703.3912351,N,00952.0191680,E,2,10,1.0,-1.617,M,40.593,M,2.2,0123*6A
$GPVTG,068.49,T,-571.41,M,004.938,N,009.145,K,D*01
$GPGGA,085303.75,5703.3912582,N,00952.0192849,E,2,10,1.0,-1.622,M,40.593,M,2.2,0123*69
$GPVTG,069.15,T,-570.75,M,004.913,N,009.099,K,D*06
$GPGGA,085303.80,5703.3912825,N,00952.0194038,E,2,10,1.0,-1.622,M,40.593,M,2.2,0123*6B
$GPVTG,069.41,T,-570.49,M,004.944,N,009.157,K,D*09
$GPGGA,085303.85,5703.3913073,N,00952.0195210,E,2,10,1.0,-1.621,M,40.593,M,2.4,0123*68
$GPVTG,069.29,T,-570.61,M,004.939,N,009.146,K,D*07
$GPGGA,085303.90,5703.3913318,N,00952.0196371,E,2,10,1.0,-1.620,M,40.593,M,2.4,0123*66
$GPVTG,069.15,T,-570.75,M,004.915,N,009.103,K,D*02
$GPGGA,085303.95,5703.3913562,N,00952.0197521,E,2,10,1.0,-1.619,M,40.593,M,2.4,0123*60
$GPVTG,069.00,T,-570.90,M,004.876,N,009.030,K,D*08
$GPGGA,085304.00,5703.3913806,N,00952.0198678,E,2,10,1.0,-1.617,M,40.593,M,2.4,0123*6A
$GPVTG,068.94,T,-570.96,M,004.866,N,009.011,K,D*00
$GPGGA,085304.05,5703.3914033,N,00952.0199825,E,2,10,1.0,-1.619,M,40.593,M,2.6,0123*6D
$GPVTG,068.92,T,-570.98,M,004.848,N,008.978,K,D*03
$GPGGA,085304.10,5703.3914272,N,00952.0200965,E,2,10,1.0,-1.619,M,40.593,M,2.6,0123*68
$GPVTG,068.91,T,-570.99,M,004.815,N,008.917,K,D*00
$GPGGA,085304.15,5703.3914518,N,00952.0202110,E,2,10,1.0,-1.618,M,40.593,M,2.6,0123*6F
$GPVTG,068.72,T,-571.18,M,004.811,N,008.911,K,D*07
$GPGGA,085304.20,5703.3914751,N,00952.0203262,E,2,10,1.0,-1.616,M,40.593,M,2.6,0123*6F
$GPVTG,069.11,T,-570.79,M,004.811,N,008.910,K,D*04
$GPGGA,085304.25,5703.3914989,N,00952.0204426,E,2,10,1.0,-1.609,M,40.593,M,2.9,0123*61
$GPVTG,069.49,T,-570.41,M,004.823,N,008.933,K,D*02
$GPGGA,085304.30,5703.3915223,N,00952.0205590,E,2,10,1.0,-1.608,M,40.593,M,2.9,0123*63
$GPVTG,069.70,T,-570.20,M,004.848,N,008.978,K,D*0D
$GPGGA,085304.35,5703.3915453,N,00952.0206747,E,2,10,1.0,-1.608,M,40.593,M,2.9,0123*6C
$GPVTG,069.93,T,-569.97,M,004.846,N,008.975,K,D*07
$GPGGA,085304.40,5703.3915689,N,00952.0207918,E,2,10,1.0,-1.607,M,40.593,M,2.9,0123*61
$GPVTG,069.99,T,-569.91,M,004.877,N,009.033,K,D*03
$GPGGA,085304.45,5703.3915923,N,00952.0209091,E,2,10,1.0,-1.612,M,40.593,M,3.1,0123*60
$GPVTG,069.94,T,-569.96,M,004.911,N,009.095,K,D*04
$GPGGA,085304.50,5703.3916171,N,00952.0210269,E,2,10,1.0,-1.616,M,40.593,M,3.1,0123*61
$GPVTG,069.59,T,-570.31,M,004.945,N,009.158,K,D*01
$GPGGA,085304.55,5703.3916413,N,00952.0211451,E,2,10,1.0,-1.619,M,40.593,M,3.1,0123*66
$GPVTG,069.52,T,-570.38,M,004.969,N,009.202,K,D*01
$GPGGA,085304.60,5703.3916649,N,00952.0212626,E,2,10,1.0,-1.625,M,40.593,M,3.1,0123*63
$GPVTG,069.59,T,-570.31,M,004.963,N,009.191,K,D*00
$GPGGA,085304.65,5703.3916895,N,00952.0213799,E,2,10,1.0,-1.625,M,40.593,M,3.3,0123*6F
$GPVTG,069.50,T,-570.40,M,004.939,N,009.148,K,D*04
$GPGGA,085304.70,5703.3917135,N,00952.0214975,E,2,10,1.0,-1.629,M,40.593,M,3.3,0123*6E
$GPVTG,069.47,T,-570.43,M,004.942,N,009.152,K,D*06
$GPGGA,085304.75,5703.3917376,N,00952.0216149,E,2,10,1.0,-1.633,M,40.593,M,3.3,0123*60
$GPVTG,069.41,T,-570.49,M,004.941,N,009.150,K,D*0B
$GPGGA,085304.80,5703.3917624,N,00952.0217325,E,2,10,1.0,-1.636,M,40.593,M,3.3,0123*64
$GPVTG,069.17,T,-570.73,M,004.950,N,009.167,K,D*05
$GPGGA,085304.85,5703.3917856,N,00952.0218495,E,2,10,1.0,-1.642,M,40.593,M,3.5,0123*6C
$GPVTG,069.25,T,-570.65,M,004.949,N,009.165,K,D*09
$GPGGA,085304.90,5703.3918078,N,00952.0219661,E,2,10,1.0,-1.641,M,40.593,M,3.5,0123*68
$GPVTG,069.82,T,-570.08,M,004.907,N,009.088,K,D*07
$GPGGA,085304.95,5703.3918295,N,00952.0220826,E,2,10,1.0,-1.643,M,40.593,M,3.5,0123*69
$GPVTG,070.42,T,-569.48,M,004.873,N,009.025,K,D*0A
$GPGGA,085305.00,5703.3918517,N,00952.0221990,E,2,10,1.0,-1.642,M,40.593,M,3.5,0123*65
$GPVTG,070.72,T,-569.18,M,004.851,N,008.985,K,D*0E
$GPGGA,085305.05,5703.3918750,N,00952.0223159,E,2,10,1.0,-1.629,M,40.593,M,2.4,0123*63
$GPVTG,070.52,T,-569.38,M,004.839,N,008.962,K,D*09
$GPGGA,085305.10,5703.3918983,N,00952.0224322,E,2,10,1.0,-1.625,M,40.593,M,2.4,0123*62
$GPVTG,070.32,T,-569.58,M,004.842,N,008.967,K,D*00
$GPGGA,085305.15,5703.3919218,N,00952.0225485,E,2,10,1.0,-1.624,M,40.593,M,2.4,0123*65
$GPVTG,070.08,T,-569.82,M,004.850,N,008.982,K,D*06
$GPGGA,085305.20,5703.3919457,N,00952.0226656,E,2,10,1.0,-1.621,M,40.593,M,2.4,0123*64
$GPVTG,069.83,T,-570.07,M,004.876,N,009.030,K,D*0D
$GPGGA,085305.25,5703.3919688,N,00952.0227836,E,2,10,1.0,-1.623,M,40.593,M,2.7,0123*69
$GPVTG,069.78,T,-570.12,M,004.926,N,009.123,K,D*0A
$GPGGA,085305.30,5703.3919935,N,00952.0229005,E,2,10,1.0,-1.621,M,40.593,M,2.7,0123*60
$GPVTG,069.31,T,-570.59,M,004.936,N,009.141,K,D*0D
$GPGGA,085305.35,5703.3920169,N,00952.0230187,E,2,10,1.0,-1.619,M,40.593,M,2.7,0123*66
$GPVTG,069.55,T,-570.35,M,004.951,N,009.170,K,D*06
$GPGGA,085305.40,5703.3920390,N,00952.0231351,E,2,10,1.0,-1.620,M,40.593,M,2.7,0123*62
$GPVTG,069.98,T,-569.92,M,004.912,N,009.097,K,D*0D
$GPGGA,085305.45,5703.3920614,N,00952.0232510,E,2,10,1.0,-1.622,M,40.593,M,2.9,0123*62
$GPVTG,070.10,T,-569.80,M,004.883,N,009.044,K,D*01
$GPGGA,085305.50,5703.3920854,N,00952.0233685,E,2,10,1.0,-1.619,M,40.593,M,2.9,0123*6A
$GPVTG,069.88,T,-570.02,M,004.904,N,009.082,K,D*0E
$GPGGA,085305.55,5703.3921093,N,00952.0234874,E,2,10,1.0,-1.619,M,40.593,M,2.9,0123*6A
$GPVTG,069.87,T,-570.03,M,004.941,N,009.151,K,D*0E
$GPGGA,085305.60,5703.3921324,N,00952.0236068,E,2,10,1.0,-1.621,M,40.593,M,2.9,0123*6F
$GPVTG,070.13,T,-569.77,M,004.969,N,009.202,K,D*0F
$GPGGA,085305.65,5703.3921557,N,00952.0237270,E,2,10,1.0,-1.629,M,40.593,M,3.2,0123*60
$GPVTG,070.27,T,-569.63,M,005.008,N,009.275,K,D*02
$GPGGA,085305.70,5703.3921804,N,00952.0238461,E,2,10,1.0,-1.635,M,40.593,M,3.2,0123*6B
$GPVTG,069.87,T,-570.03,M,005.022,N,009.300,K,D*05
$GPGGA,085305.75,5703.3922041,N,00952.0239653,E,2,10,1.0,-1.639,M,40.593,M,3.2,0123*6A
$GPVTG,069.88,T,-570.02,M,005.019,N,009.295,K,D*0E
$GPGGA,085305.80,5703.3922269,N,00952.0240836,E,2,10,1.0,-1.638,M,40.593,M,3.2,0123*6A
$GPVTG,070.09,T,-569.81,M,004.988,N,009.238,K,D*0B
$GPGGA,085305.85,5703.3922498,N,00952.0242005,E,2,10,1.0,-1.636,M,40.593,M,3.4,0123*65
$GPVTG,070.16,T,-569.74,M,004.937,N,009.144,K,D*03
$GPGGA,085305.90,5703.3922736,N,00952.0243149,E,2,10,1.0,-1.634,M,40.593,M,3.4,0123*6C
$GPVTG,069.67,T,-570.23,M,004.867,N,009.014,K,D*07
$GPGGA,085305.95,5703.3922969,N,00952.0244311,E,2,10,1.0,-1.632,M,40.593,M,3.4,0123*63
$GPVTG,069.67,T,-570.23,M,004.850,N,008.982,K,D*04
$GPGGA,085306.00,5703.3923214,N,00952.0245478,E,2,10,1.0,-1.626,M,40.593,M,3.4,0123*60
$GPVTG,069.33,T,-570.57,M,004.862,N,009.004,K,D*01
$GPGGA,085306.05,5703.3923421,N,00952.0246642,E,2,10,1.0,-1.625,M,40.593,M,1.6,0123*6E
$GPVTG,069.85,T,-570.05,M,004.864,N,009.009,K,D*00
$GPGGA,085306.10,5703.3923636,N,00952.0247812,E,2,10,1.0,-1.622,M,40.593,M,1.6,0123*63
$GPVTG,070.51,T,-569.39,M,004.856,N,008.993,K,D*0C
$GPGGA,085306.15,5703.3923849,N,00952.0248990,E,2,10,1.0,-1.620,M,40.593,M,1.6,0123*66
$GPVTG,071.12,T,-568.78,M,004.862,N,009.005,K,D*0E
$GPGGA,085306.20,5703.3924069,N,00952.0250175,E,2,10,1.0,-1.617,M,40.593,M,1.6,0123*63
$GPVTG,071.38,T,-568.52,M,004.888,N,009.052,K,D*08
$GPGGA,085306.25,5703.3924283,N,00952.0251362,E,2,10,1.0,-1.621,M,40.593,M,1.8,0123*6E
$GPVTG,071.42,T,-568.48,M,004.932,N,009.134,K,D*0F
$GPGGA,085306.30,5703.3924521,N,00952.0252528,E,2,10,1.0,-1.622,M,40.593,M,1.8,0123*6D
$GPVTG,070.77,T,-569.13,M,004.918,N,009.108,K,D*00
$GPGGA,085306.35,5703.3924751,N,00952.0253716,E,2,10,1.0,-1.623,M,40.593,M,1.8,0123*62
$GPVTG,070.63,T,-569.27,M,004.940,N,009.149,K,D*0A
$GPGGA,085306.40,5703.3924985,N,00952.0254905,E,2,10,1.0,-1.622,M,40.593,M,1.8,0123*6D
$GPVTG,070.44,T,-569.46,M,004.961,N,009.188,K,D*06
$GPGGA,085306.45,5703.3925217,N,00952.0256113,E,2,10,1.0,-1.623,M,40.593,M,2.1,0123*6F
$GPVTG,070.68,T,-569.22,M,004.989,N,009.240,K,D*0B
$GPGGA,085306.50,5703.3925432,N,00952.0257293,E,2,10,1.0,-1.629,M,40.593,M,2.1,0123*6A
$GPVTG,070.99,T,-568.91,M,004.956,N,009.178,K,D*06
$GPGGA,085306.55,5703.3925655,N,00952.0258487,E,2,10,1.0,-1.632,M,40.593,M,2.1,0123*6A
$GPVTG,071.10,T,-568.80,M,004.963,N,009.191,K,D*07
$GPGGA,085306.60,5703.3925880,N,00952.0259676,E,2,10,1.0,-1.635,M,40.593,M,2.1,0123*60
$GPVTG,071.05,T,-568.85,M,004.959,N,009.184,K,D*0B
$GPGGA,085306.65,5703.3926108,N,00952.0260852,E,2,10,1.0,-1.640,M,40.593,M,2.3,0123*6D
$GPVTG,070.65,T,-569.25,M,004.947,N,009.162,K,D*00
$GPGGA,085306.70,5703.3926340,N,00952.0262029,E,2,10,1.0,-1.640,M,40.593,M,2.3,0123*61
$GPVTG,070.38,T,-569.52,M,004.933,N,009.136,K,D*0A
$GPGGA,085306.75,5703.3926567,N,00952.0263218,E,2,10,1.0,-1.638,M,40.593,M,2.3,0123*69
$GPVTG,070.47,T,-569.43,M,004.941,N,009.150,K,D*07
$GPGGA,085306.80,5703.3926790,N,00952.0264400,E,2,10,1.0,-1.636,M,40.593,M,2.3,0123*6F
$GPVTG,070.60,T,-569.30,M,004.929,N,009.128,K,D*07
$GPGGA,085306.85,5703.3927001,N,00952.0265572,E,2,10,1.0,-1.638,M,40.593,M,2.5,0123*69
$GPVTG,070.96,T,-568.94,M,004.899,N,009.073,K,D*04
$GPGGA,085306.90,5703.3927221,N,00952.0266733,E,2,10,1.0,-1.636,M,40.593,M,2.5,0123*67
$GPVTG,070.93,T,-568.97,M,004.859,N,008.999,K,D*02
$GPGGA,085306.95,5703.3927442,N,00952.0267884,E,2,10,1.0,-1.634,M,40.593,M,2.5,0123*61
$GPVTG,070.82,T,-569.08,M,004.814,N,008.916,K,D*0B
$GPGGA,085307.00,5703.3927665,N,00952.0269043,E,2,10,1.0,-1.631,M,40.593,M,2.5,0123*63
$GPVTG,070.71,T,-569.19,M,004.805,N,008.899,K,D*01
$GPGGA,085307.05,5703.3927878,N,00952.0270201,E,2,10,1.0,-1.627,M,40.593,M,1.5,0123*6C
$GPVTG,070.63,T,-569.27,M,004.806,N,008.900,K,D*0D
$GPGGA,085307.10,5703.3928101,N,00952.0271372,E,2,10,1.0,-1.627,M,40.593,M,1.5,0123*64
$GPVTG,070.69,T,-569.21,M,004.828,N,008.942,K,D*0B
$GPGGA,085307.15,5703.3928331,N,00952.0272555,E,2,10,1.0,-1.624,M,40.593,M,1.5,0123*63
$GPVTG,070.57,T,-569.33,M,004.878,N,009.034,K,D*09
$GPGGA,085307.20,5703.3928554,N,00952.0273742,E,2,10,1.0,-1.621,M,40.593,M,1.5,0123*60
$GPVTG,070.75,T,-569.15,M,004.914,N,009.101,K,D*01
$GPGGA,085307.25,5703.3928768,N,00952.0274914,E,2,10,1.0,-1.626,M,40.593,M,1.8,0123*68
$GPVTG,070.85,T,-569.05,M,004.919,N,009.110,K,D*02
$GPGGA,085307.30,5703.3928991,N,00952.0276094,E,2,10,1.0,-1.626,M,40.593,M,1.8,0123*67
$GPVTG,070.89,T,-569.01,M,004.924,N,009.120,K,D*07
$GPGGA,085307.35,5703.3929213,N,00952.0277275,E,2,10,1.0,-1.625,M,40.593,M,1.8,0123*6D
$GPVTG,070.94,T,-568.96,M,004.928,N,009.126,K,D*0E
$GPGGA,085307.40,5703.3929443,N,00952.0278449,E,2,10,1.0,-1.626,M,40.593,M,1.8,0123*69
$GPVTG,070.68,T,-569.22,M,004.920,N,009.113,K,D*0D
$GPGGA,085307.45,5703.3929682,N,00952.0279622,E,2,10,1.0,-1.624,M,40.593,M,2.0,0123*64
$GPVTG,070.30,T,-569.60,M,004.905,N,009.083,K,D*09
$GPGGA,085307.50,5703.3929913,N,00952.0280789,E,2,10,1.0,-1.628,M,40.593,M,2.0,0123*6D
$GPVTG,070.09,T,-569.81,M,004.893,N,009.063,K,D*0C
$GPGGA,085307.55,5703.3930147,N,00952.0281975,E,2,10,1.0,-1.630,M,40.593,M,2.0,0123*6C
$GPVTG,070.01,T,-569.89,M,004.924,N,009.119,K,D*0D
$GPGGA,085307.60,5703.3930373,N,00952.0283162,E,2,10,1.0,-1.631,M,40.593,M,2.0,0123*62
$GPVTG,070.25,T,-569.65,M,004.938,N,009.145,K,D*0D
$GPGGA,085307.65,5703.3930578,N,00952.0284332,E,2,10,1.0,-1.639,M,40.593,M,2.2,0123*60
$GPVTG,070.71,T,-569.19,M,004.924,N,009.120,K,D*09
$GPGGA,085307.70,5703.3930792,N,00952.0285515,E,2,10,1.0,-1.638,M,40.593,M,2.2,0123*61
$GPVTG,071.15,T,-568.75,M,004.917,N,009.107,K,D*04
$GPGGA,085307.75,5703.3931019,N,00952.0286685,E,2,10,1.0,-1.637,M,40.593,M,2.2,0123*67
$GPVTG,070.95,T,-568.95,M,004.900,N,009.074,K,D*00
$GPGGA,085307.80,5703.3931237,N,00952.0287845,E,2,10,1.0,-1.640,M,40.593,M,2.2,0123*60
$GPVTG,071.01,T,-568.89,M,004.858,N,008.997,K,D*08
$GPGGA,085307.85,5703.3931463,N,00952.0288997,E,2,10,1.0,-1.639,M,40.593,M,2.4,0123*6B
$GPVTG,070.70,T,-569.20,M,004.822,N,008.930,K,D*0D
$GPGGA,085307.90,5703.3931685,N,00952.0290159,E,2,10,1.0,-1.637,M,40.593,M,2.4,0123*68
$GPVTG,070.71,T,-569.19,M,004.817,N,008.921,K,D*00
$GPGGA,085307.95,5703.3931910,N,00952.0291343,E,2,10,1.0,-1.634,M,40.593,M,2.4,0123*65
$GPVTG,070.75,T,-569.15,M,004.860,N,009.000,K,D*03
$GPGGA,085308.00,5703.3932139,N,00952.0292499,E,2,10,1.0,-1.634,M,40.593,M,2.4,0123*65
$GPVTG,070.44,T,-569.46,M,004.847,N,008.976,K,D*0B
$GPGGA,085308.05,5703.3932376,N,00952.0293667,E,2,10,1.0,-1.627,M,40.593,M,2.6,0123*6B
$GPVTG,069.96,T,-569.94,M,004.857,N,008.995,K,D*0F
$GPGGA,085308.10,5703.3932607,N,00952.0294832,E,2,10,1.0,-1.629,M,40.593,M,2.6,0123*6B
$GPVTG,069.86,T,-570.04,M,004.865,N,009.011,K,D*0A
$GPGGA,085308.15,5703.3932821,N,00952.0296018,E,2,10,1.0,-1.628,M,40.593,M,2.6,0123*67
$GPVTG,070.53,T,-569.37,M,004.893,N,009.062,K,D*0F
$GPGGA,085308.20,5703.3933044,N,00952.0297181,E,2,10,1.0,-1.627,M,40.593,M,2.6,0123*64
$GPVTG,070.59,T,-569.31,M,004.877,N,009.032,K,D*0C
$GPGGA,085308.25,5703.3933265,N,00952.0298333,E,2,10,1.0,-1.631,M,40.593,M,2.9,0123*6C
$GPVTG,070.52,T,-569.38,M,004.850,N,008.981,K,D*0B
$GPGGA,085308.30,5703.3933485,N,00952.0299496,E,2,10,1.0,-1.633,M,40.593,M,2.9,0123*6B
$GPVTG,070.66,T,-569.24,M,004.843,N,008.969,K,D*05
$GPGGA,085308.35,5703.3933709,N,00952.0300680,E,2,10,1.0,-1.635,M,40.593,M,2.9,0123*6B
$GPVTG,070.82,T,-569.08,M,004.880,N,009.038,K,D*02
$GPGGA,085308.40,5703.3933929,N,00952.0301861,E,2,10,1.0,-1.636,M,40.593,M,2.9,0123*66
$GPVTG,071.01,T,-568.89,M,004.898,N,009.072,K,D*07
$GPGGA,085308.45,5703.3934145,N,00952.0303040,E,2,10,1.0,-1.635,M,40.593,M,3.1,0123*65
$GPVTG,071.35,T,-568.55,M,004.894,N,009.063,K,D*0D
$GPGGA,085308.50,5703.3934360,N,00952.0304208,E,2,10,1.0,-1.639,M,40.593,M,3.1,0123*61
$GPVTG,071.45,T,-568.45,M,004.874,N,009.027,K,D*05
$GPGGA,085308.55,5703.3934589,N,00952.0305384,E,2,10,1.0,-1.642,M,40.593,M,3.1,0123*6D
$GPVTG,071.06,T,-568.84,M,004.888,N,009.053,K,D*0F
$GPGGA,085308.60,5703.3934821,N,00952.0306570,E,2,10,1.0,-1.644,M,40.593,M,3.1,0123*6C
$GPVTG,070.77,T,-569.13,M,004.921,N,009.114,K,D*07
$GPGGA,085308.65,5703.3935046,N,00952.0307758,E,2,10,1.0,-1.641,M,40.593,M,3.3,0123*6F
$GPVTG,070.91,T,-568.99,M,004.926,N,009.124,K,D*08
$GPGGA,085308.70,5703.3935262,N,00952.0308923,E,2,10,1.0,-1.639,M,40.593,M,3.3,0123*6D
$GPVTG,071.01,T,-568.89,M,004.891,N,009.058,K,D*06
$GPGGA,085308.75,5703.3935471,N,00952.0310087,E,2,10,1.0,-1.635,M,40.593,M,3.3,0123*6E
$GPVTG,071.32,T,-568.58,M,004.854,N,008.990,K,D*0F
$GPGGA,085308.80,5703.3935680,N,00952.0311239,E,2,10,1.0,-1.631,M,40.593,M,3.3,0123*6A
$GPVTG,071.44,T,-568.46,M,004.809,N,008.906,K,D*06
$GPGGA,085308.85,5703.3935889,N,00952.0312402,E,2,10,1.0,-1.630,M,40.593,M,3.5,0123*62
$GPVTG,071.63,T,-568.27,M,004.803,N,008.894,K,D*04
$GPGGA,085308.90,5703.3936101,N,00952.0313561,E,2,10,1.0,-1.629,M,40.593,M,3.5,0123*61
$GPVTG,071.63,T,-568.27,M,004.792,N,008.875,K,D*0C
$GPGGA,085308.95,5703.3936310,N,00952.0314728,E,2,10,1.0,-1.626,M,40.593,M,3.5,0123*61
$GPVTG,071.78,T,-568.12,M,004.800,N,008.890,K,D*0F
$GPGGA,085309.00,5703.3936534,N,00952.0315910,E,2,10,1.0,-1.627,M,40.593,M,3.5,0123*69
$GPVTG,071.49,T,-568.41,M,004.850,N,008.983,K,D*0D
$GPGGA,085309.05,5703.3936759,N,00952.0317097,E,2,10,1.0,-1.627,M,40.593,M,2.4,0123*61
$GPVTG,070.99,T,-568.91,M,004.902,N,009.079,K,D*07
$GPGGA,085309.10,5703.3936984,N,00952.0318287,E,2,10,1.0,-1.629,M,40.593,M,2.4,0123*69
$GPVTG,070.88,T,-569.02,M,004.938,N,009.146,K,D*08
$GPGGA,085309.15,5703.3937211,N,00952.0319478,E,2,10,1.0,-1.633,M,40.593,M,2.4,0123*66
$GPVTG,070.77,T,-569.13,M,004.966,N,009.196,K,D*0E
$GPGGA,085309.20,5703.3937435,N,00952.0320678,E,2,10,1.0,-1.637,M,40.593,M,2.4,0123*6C
$GPVTG,070.86,T,-569.04,M,004.994,N,009.249,K,D*0A
$GPGGA,085309.25,5703.3937649,N,00952.0321872,E,2,10,1.0,-1.642,M,40.593,M,2.7,0123*64
$GPVTG,071.13,T,-568.77,M,004.993,N,009.247,K,D*0B
$GPGGA,085309.30,5703.3937855,N,00952.0323054,E,2,10,1.0,-1.645,M,40.593,M,2.7,0123*6A
$GPVTG,071.62,T,-568.28,M,004.953,N,009.173,K,D*0F
$GPGGA,085309.35,5703.3938069,N,00952.0324218,E,2,10,1.0,-1.646,M,40.593,M,2.7,0123*69
$GPVTG,071.53,T,-568.37,M,004.895,N,009.066,K,D*0D
$GPGGA,085309.40,5703.3938282,N,00952.0325386,E,2,10,1.0,-1.645,M,40.593,M,2.7,0123*68
$GPVTG,071.56,T,-568.34,M,004.860,N,009.001,K,D*00
$GPGGA,085309.45,5703.3938491,N,00952.0326566,E,2,10,1.0,-1.643,M,40.593,M,2.9,0123*6A
$GPVTG,071.83,T,-568.07,M,004.857,N,008.995,K,D*09
$GPGGA,085309.50,5703.3938715,N,00952.0327741,E,2,10,1.0,-1.642,M,40.593,M,2.9,0123*66
$GPVTG,071.44,T,-568.46,M,004.861,N,009.003,K,D*05
$GPGGA,085309.55,5703.3938930,N,00952.0328915,E,2,10,1.0,-1.643,M,40.593,M,2.9,0123*6B
$GPVTG,071.43,T,-568.47,M,004.859,N,008.999,K,D*03
$GPGGA,085309.60,5703.3939141,N,00952.0330087,E,2,10,1.0,-1.646,M,40.593,M,2.9,0123*6C
$GPVTG,071.53,T,-568.37,M,004.851,N,008.983,K,D*06
$GPGGA,085309.65,5703.3939361,N,00952.0331271,E,2,10,1.0,-1.645,M,40.593,M,3.2,0123*6A
$GPVTG,071.51,T,-568.39,M,004.870,N,009.019,K,D*02
$GPGGA,085309.70,5703.3939570,N,00952.0332454,E,2,10,1.0,-1.644,M,40.593,M,3.2,0123*6B
$GPVTG,071.74,T,-568.16,M,004.880,N,009.037,K,D*0B
$GPGGA,085309.75,5703.3939781,N,00952.0333628,E,2,10,1.0,-1.643,M,40.593,M,3.2,0123*6D
$GPVTG,071.78,T,-568.12,M,004.872,N,009.023,K,D*0B
$GPGGA,085309.80,5703.3939995,N,00952.0334781,E,2,10,1.0,-1.643,M,40.593,M,3.2,0123*69
$GPVTG,071.57,T,-568.33,M,004.828,N,008.941,K,D*06
$GPGGA,085309.85,5703.3940221,N,00952.0335944,E,2,10,1.0,-1.641,M,40.593,M,3.4,0123*64
$GPVTG,071.00,T,-568.90,M,004.834,N,008.953,K,D*03
$GPGGA,085309.90,5703.3940435,N,00952.0337119,E,2,10,1.0,-1.639,M,40.593,M,3.4,0123*6E
$GPVTG,071.12,T,-568.78,M,004.848,N,008.979,K,D*05
$GPGGA,085309.95,5703.3940647,N,00952.0338290,E,2,10,1.0,-1.638,M,40.593,M,3.4,0123*60
$GPVTG,071.29,T,-568.61,M,004.851,N,008.984,K,D*0F
$GPGGA,085310.00,5703.3940857,N,00952.0339464,E,2,10,1.0,-1.636,M,40.593,M,3.4,0123*69
$GPVTG,071.51,T,-568.39,M,004.854,N,008.989,K,D*05
$GPGGA,085310.05,5703.3941063,N,00952.0340635,E,2,10,1.0,-1.635,M,40.593,M,1.6,0123*69
$GPVTG,071.45,T,-568.45,M,004.865,N,009.010,K,D*01
$GPGGA,085310.10,5703.3941284,N,00952.0341818,E,2,10,1.0,-1.635,M,40.593,M,1.6,0123*66
$GPVTG,071.31,T,-568.59,M,004.892,N,009.059,K,D*0A
$GPGGA,085310.15,5703.3941496,N,00952.0343002,E,2,10,1.0,-1.637,M,40.593,M,1.6,0123*65
$GPVTG,071.55,T,-568.35,M,004.903,N,009.081,K,D*0E
$GPGGA,085310.20,5703.3941709,N,00952.0344199,E,2,10,1.0,-1.640,M,40.593,M,1.6,0123*62
$GPVTG,071.72,T,-568.18,M,004.934,N,009.138,K,D*03
$GPGGA,085310.25,5703.3941922,N,00952.0345409,E,2,10,1.0,-1.642,M,40.593,M,1.8,0123*61
$GPVTG,072.03,T,-567.87,M,004.971,N,009.206,K,D*00
$GPGGA,085310.30,5703.3942137,N,00952.0346614,E,2,10,1.0,-1.647,M,40.593,M,1.8,0123*62
$GPVTG,072.08,T,-567.82,M,004.993,N,009.247,K,D*07
$GPGGA,085310.35,5703.3942355,N,00952.0347794,E,2,10,1.0,-1.649,M,40.593,M,1.8,0123*67
$GPVTG,071.79,T,-568.11,M,004.961,N,009.187,K,D*05
