$GPGGA,110449.85,5703.4910911,N,00952.4617579,E,2,11,0.8,-1.834,M,40.593,M,1.6,0123*67\r\n
$GPGGA,110449.90,5703.4911227,N,00952.4617667,E,2,11,0.8,-1.832,M,40.593,M,1.6,0123*66\r\n
$GPGGA,110449.95,5703.4911545,N,00952.4617758,E,2,11,0.8,-1.830,M,40.593,M,1.6,0123*6F\r\n
$GPGGA,110450.00,5703.4911866,N,00952.4617842,E,2,11,0.8,-1.828,M,40.593,M,1.6,0123*6A\r\n
$GPGGA,110450.05,5703.4912200,N,00952.4617938,E,2,11,0.8,-1.827,M,40.593,M,1.9,0123*6A\r\n
$GPGGA,110450.10,5703.4912516,N,00952.4618031,E,2,11,0.8,-1.829,M,40.593,M,1.9,0123*6F\r\n
$GPGGA,110450.15,5703.4912842,N,00952.4618129,E,2,11,0.8,-1.832,M,40.593,M,1.9,0123*64\r\n
$GPGGA,110450.20,5703.4913168,N,00952.4618223,E,2,11,0.8,-1.834,M,40.593,M,1.9,0123*6D\r\n
$GPGGA,110450.25,5703.4913481,N,00952.4618326,E,2,11,0.8,-1.843,M,40.593,M,2.2,0123*66\r\n
$GPGGA,110450.30,5703.4913804,N,00952.4618434,E,2,11,0.8,-1.845,M,40.593,M,2.2,0123*61\r\n
$GPGGA,110450.35,5703.4914126,N,00952.4618540,E,2,11,0.8,-1.847,M,40.593,M,2.2,0123*6A\r\n
$GPGGA,110450.40,5703.4914441,N,00952.4618644,E,2,11,0.8,-1.852,M,40.593,M,2.2,0123*6F\r\n
$GPGGA,110450.45,5703.4914772,N,00952.4618742,E,2,11,0.8,-1.855,M,40.593,M,1.2,0123*6A\r\n
$GPGGA,110450.50,5703.4915093,N,00952.4618833,E,2,11,0.8,-1.857,M,40.593,M,1.2,0123*6C\r\n
$GPGGA,110450.55,5703.4915417,N,00952.4618909,E,2,11,0.8,-1.858,M,40.593,M,1.2,0123*66\r\n
$GPGGA,110450.60,5703.4915743,N,00952.4618989,E,2,11,0.8,-1.858,M,40.593,M,1.2,0123*6A\r\n
$GPGGA,110450.65,5703.4916055,N,00952.4619090,E,2,11,0.8,-1.859,M,40.593,M,1.5,0123*6A\r\n
$GPGGA,110450.70,5703.4916365,N,00952.4619183,E,2,11,0.8,-1.861,M,40.593,M,1.5,0123*66\r\n
$GPGGA,110450.75,5703.4916682,N,00952.4619273,E,2,11,0.8,-1.862,M,40.593,M,1.5,0123*60\r\n
$GPGGA,110450.80,5703.4916997,N,00952.4619352,E,2,11,0.8,-1.862,M,40.593,M,1.5,0123*63\r\n
$GPGGA,110450.85,5703.4917320,N,00952.4619434,E,2,11,0.8,-1.856,M,40.593,M,1.8,0123*6C\r\n
$GPGGA,110450.90,5703.4917635,N,00952.4619513,E,2,11,0.8,-1.852,M,40.593,M,1.8,0123*69\r\n
$GPGGA,110450.95,5703.4917964,N,00952.4619591,E,2,11,0.8,-1.848,M,40.593,M,1.8,0123*66\r\n
$GPGGA,110451.00,5703.4918283,N,00952.4619669,E,2,11,0.8,-1.846,M,40.593,M,1.8,0123*6C\r\n
$GPGGA,110451.05,5703.4918610,N,00952.4619749,E,2,11,0.8,-1.843,M,40.593,M,2.1,0123*6B\r\n
$GPGGA,110451.10,5703.4918943,N,00952.4619824,E,2,11,0.8,-1.843,M,40.593,M,2.1,0123*62\r\n
$GPGGA,110451.15,5703.4919262,N,00952.4619915,E,2,11,0.8,-1.846,M,40.593,M,2.1,0123*68\r\n
$GPGGA,110451.20,5703.4919588,N,00952.4620007,E,2,11,0.8,-1.847,M,40.593,M,2.1,0123*6C\r\n
$GPGGA,110451.25,5703.4919910,N,00952.4620098,E,2,11,0.8,-1.848,M,40.593,M,2.4,0123*68\r\n
$GPGGA,110451.30,5703.4920230,N,00952.4620175,E,2,11,0.8,-1.849,M,40.593,M,2.4,0123*6C\r\n
$GPGGA,110451.35,5703.4920548,N,00952.4620271,E,2,11,0.8,-1.848,M,40.593,M,2.4,0123*67\r\n
$GPGGA,110451.40,5703.4920875,N,00952.4620378,E,2,11,0.8,-1.847,M,40.593,M,2.4,0123*61\r\n
$GPGGA,110451.45,5703.4921208,N,00952.4620485,E,2,11,0.8,-1.845,M,40.593,M,0.7,0123*63\r\n
$GPGGA,110451.50,5703.4921533,N,00952.4620581,E,2,11,0.8,-1.843,M,40.593,M,0.7,0123*6B\r\n
$GPGGA,110451.55,5703.4921854,N,00952.4620671,E,2,11,0.8,-1.841,M,40.593,M,0.7,0123*6C\r\n
$GPGGA,110451.60,5703.4922173,N,00952.4620772,E,2,11,0.8,-1.840,M,40.593,M,0.7,0123*66\r\n
$GPGGA,110451.65,5703.4922495,N,00952.4620865,E,2,11,0.8,-1.838,M,40.593,M,0.9,0123*66\r\n
$GPGGA,110451.70,5703.4922815,N,00952.4620953,E,2,11,0.8,-1.836,M,40.593,M,0.9,0123*6C\r\n
$GPGGA,110451.75,5703.4923138,N,00952.4621067,E,2,11,0.8,-1.836,M,40.593,M,0.9,0123*61\r\n
$GPGGA,110451.80,5703.4923465,N,00952.4621175,E,2,11,0.8,-1.835,M,40.593,M,0.9,0123*67\r\n
$GPGGA,110451.85,5703.4923776,N,00952.4621277,E,2,11,0.8,-1.839,M,40.593,M,1.2,0123*64\r\n
$GPGGA,110451.90,5703.4924097,N,00952.4621380,E,2,11,0.8,-1.841,M,40.593,M,1.2,0123*69\r\n
$GPGGA,110451.95,5703.4924422,N,00952.4621478,E,2,11,0.8,-1.842,M,40.593,M,1.2,0123*65\r\n
$GPGGA,110452.00,5703.4924748,N,00952.4621577,E,2,11,0.8,-1.845,M,40.593,M,1.2,0123*6C\r\n
$GPGGA,110452.05,5703.4925080,N,00952.4621673,E,2,11,0.8,-1.846,M,40.593,M,1.4,0123*69\r\n
$GPGGA,110452.10,5703.4925408,N,00952.4621772,E,2,11,0.8,-1.848,M,40.593,M,1.4,0123*67\r\n
$GPGGA,110452.15,5703.4925732,N,00952.4621870,E,2,11,0.8,-1.850,M,40.593,M,1.4,0123*6C\r\n
$GPGGA,110452.20,5703.4926059,N,00952.4621976,E,2,11,0.8,-1.851,M,40.593,M,1.4,0123*65\r\n
$GPGGA,110452.25,5703.4926377,N,00952.4622077,E,2,11,0.8,-1.855,M,40.593,M,1.7,0123*63\r\n
$GPGGA,110452.30,5703.4926709,N,00952.4622178,E,2,11,0.8,-1.856,M,40.593,M,1.7,0123*67\r\n
$GPGGA,110452.35,5703.4927032,N,00952.4622278,E,2,11,0.8,-1.856,M,40.593,M,1.7,0123*6F\r\n
$GPGGA,110452.40,5703.4927363,N,00952.4622371,E,2,11,0.8,-1.855,M,40.593,M,1.7,0123*61\r\n
$GPGGA,110452.45,5703.4927696,N,00952.4622471,E,2,11,0.8,-1.851,M,40.593,M,1.9,0123*66\r\n
$GPGGA,110452.50,5703.4928014,N,00952.4622567,E,2,11,0.8,-1.851,M,40.593,M,1.9,0123*67\r\n
$GPGGA,110452.55,5703.4928328,N,00952.4622653,E,2,11,0.8,-1.851,M,40.593,M,1.9,0123*6A\r\n
$GPGGA,110452.60,5703.4928656,N,00952.4622735,E,2,11,0.8,-1.848,M,40.593,M,1.9,0123*69\r\n
$GPGGA,110452.65,5703.4928983,N,00952.4622829,E,2,11,0.8,-1.842,M,40.593,M,2.1,0123*68\r\n
$GPGGA,110452.70,5703.4929311,N,00952.4622921,E,2,11,0.8,-1.841,M,40.593,M,2.1,0123*66\r\n
$GPGGA,110452.75,5703.4929636,N,00952.4623002,E,2,11,0.8,-1.840,M,40.593,M,2.1,0123*6B\r\n
$GPGGA,110452.80,5703.4929959,N,00952.4623073,E,2,11,0.8,-1.838,M,40.593,M,2.1,0123*6E\r\n
$GPGGA,110452.85,5703.4930274,N,00952.4623142,E,2,11,0.8,-1.839,M,40.593,M,2.3,0123*67\r\n
$GPGGA,110452.90,5703.4930596,N,00952.4623225,E,2,11,0.8,-1.839,M,40.593,M,2.3,0123*6A\r\n
$GPGGA,110452.95,5703.4930921,N,00952.4623312,E,2,11,0.8,-1.839,M,40.593,M,2.3,0123*6A\r\n
$GPGGA,110453.00,5703.4931243,N,00952.4623409,E,2,11,0.8,-1.842,M,40.593,M,2.3,0123*68\r\n
$GPGGA,110453.05,5703.4931577,N,00952.4623503,E,2,11,0.8,-1.844,M,40.593,M,2.6,0123*65\r\n
$GPGGA,110453.10,5703.4931898,N,00952.4623608,E,2,11,0.8,-1.845,M,40.593,M,2.6,0123*64\r\n
$GPGGA,110453.15,5703.4932225,N,00952.4623710,E,2,11,0.8,-1.847,M,40.593,M,2.6,0123*64\r\n
$GPGGA,110453.20,5703.4932551,N,00952.4623812,E,2,11,0.8,-1.847,M,40.593,M,2.6,0123*6B\r\n
$GPGGA,110453.25,5703.4932880,N,00952.4623919,E,2,11,0.8,-1.840,M,40.593,M,2.8,0123*6C\r\n
$GPGGA,110453.30,5703.4933202,N,00952.4624017,E,2,11,0.8,-1.841,M,40.593,M,2.8,0123*68\r\n
$GPGGA,110453.35,5703.4933533,N,00952.4624119,E,2,11,0.8,-1.841,M,40.593,M,2.8,0123*67\r\n
$GPGGA,110453.40,5703.4933859,N,00952.4624221,E,2,11,0.8,-1.841,M,40.593,M,2.8,0123*6C\r\n
$GPGGA,110453.45,5703.4934179,N,00952.4624306,E,2,11,0.8,-1.841,M,40.593,M,3.0,0123*68\r\n
$GPGGA,110453.50,5703.4934510,N,00952.4624396,E,2,11,0.8,-1.842,M,40.593,M,3.0,0123*6D\r\n
$GPGGA,110453.55,5703.4934821,N,00952.4624493,E,2,11,0.8,-1.843,M,40.593,M,3.0,0123*64\r\n
$GPGGA,110453.60,5703.4935146,N,00952.4624584,E,2,11,0.8,-1.844,M,40.593,M,3.0,0123*6B\r\n
$GPGGA,110453.65,5703.4935472,N,00952.4624686,E,2,11,0.8,-1.845,M,40.593,M,3.2,0123*6E\r\n
$GPGGA,110453.70,5703.4935803,N,00952.4624781,E,2,11,0.8,-1.842,M,40.593,M,3.2,0123*61\r\n
$GPGGA,110453.75,5703.4936128,N,00952.4624861,E,2,11,0.8,-1.840,M,40.593,M,3.2,0123*64\r\n
$GPGGA,110453.80,5703.4936456,N,00952.4624954,E,2,11,0.8,-1.838,M,40.593,M,3.2,0123*6A\r\n
$GPGGA,110453.85,5703.4936784,N,00952.4625046,E,2,11,0.8,-1.840,M,40.593,M,3.4,0123*61\r\n
$GPGGA,110453.90,5703.4937097,N,00952.4625137,E,2,11,0.8,-1.842,M,40.593,M,3.4,0123*64\r\n
$GPGGA,110453.95,5703.4937414,N,00952.4625237,E,2,11,0.8,-1.845,M,40.593,M,3.4,0123*6A\r\n
$GPGGA,110454.00,5703.4937732,N,00952.4625335,E,2,11,0.8,-1.845,M,40.593,M,3.4,0123*65\r\n
$GPGGA,110454.05,5703.4938057,N,00952.4625425,E,2,11,0.8,-1.841,M,40.593,M,3.6,0123*6B\r\n
$GPGGA,110454.10,5703.4938380,N,00952.4625513,E,2,11,0.8,-1.842,M,40.593,M,3.6,0123*61\r\n
$GPGGA,110454.15,5703.4938706,N,00952.4625604,E,2,11,0.8,-1.841,M,40.593,M,3.6,0123*68\r\n
$GPGGA,110454.20,5703.4939039,N,00952.4625701,E,2,11,0.8,-1.840,M,40.593,M,3.6,0123*61\r\n
$GPGGA,110454.25,5703.4939370,N,00952.4625795,E,2,11,0.8,-1.836,M,40.593,M,3.8,0123*68\r\n
$GPGGA,110454.30,5703.4939691,N,00952.4625890,E,2,11,0.8,-1.834,M,40.593,M,3.8,0123*6E\r\n
$GPGGA,110454.35,5703.4940006,N,00952.4625977,E,2,11,0.8,-1.835,M,40.593,M,3.8,0123*64\r\n
$GPGGA,110454.40,5703.4940331,N,00952.4626073,E,2,11,0.8,-1.832,M,40.593,M,3.8,0123*68\r\n
$GPGGA,110454.45,5703.4940655,N,00952.4626162,E,2,11,0.8,-1.833,M,40.593,M,2.5,0123*66\r\n
$GPGGA,110454.50,5703.4940971,N,00952.4626247,E,2,11,0.8,-1.832,M,40.593,M,2.5,0123*6E\r\n
$GPGGA,110454.55,5703.4941293,N,00952.4626341,E,2,11,0.8,-1.833,M,40.593,M,2.5,0123*6B\r\n
$GPGGA,110454.60,5703.4941620,N,00952.4626432,E,2,11,0.8,-1.833,M,40.593,M,2.5,0123*62\r\n
$GPGGA,110454.65,5703.4941949,N,00952.4626521,E,2,11,0.8,-1.832,M,40.593,M,2.7,0123*67\r\n
$GPGGA,110454.70,5703.4942272,N,00952.4626609,E,2,11,0.8,-1.833,M,40.593,M,2.7,0123*6B\r\n
$GPGGA,110454.75,5703.4942596,N,00952.4626688,E,2,11,0.8,-1.835,M,40.593,M,2.7,0123*6C\r\n
$GPGGA,110454.80,5703.4942923,N,00952.4626779,E,2,11,0.8,-1.837,M,40.593,M,2.7,0123*69\r\n
$GPGGA,110454.85,5703.4943247,N,00952.4626862,E,2,11,0.8,-1.847,M,40.593,M,2.9,0123*68\r\n
$GPGGA,110454.90,5703.4943580,N,00952.4626946,E,2,11,0.8,-1.851,M,40.593,M,2.9,0123*60\r\n
$GPGGA,110454.95,5703.4943909,N,00952.4627028,E,2,11,0.8,-1.853,M,40.593,M,2.9,0123*6A\r\n
$GPGGA,110455.00,5703.4944230,N,00952.4627120,E,2,11,0.8,-1.854,M,40.593,M,2.9,0123*6F\r\n
$GPGGA,110455.05,5703.4944558,N,00952.4627219,E,2,11,0.8,-1.851,M,40.593,M,3.2,0123*65\r\n
$GPGGA,110455.10,5703.4944877,N,00952.4627316,E,2,11,0.8,-1.854,M,40.593,M,3.2,0123*6A\r\n
$GPGGA,110455.15,5703.4945200,N,00952.4627402,E,2,11,0.8,-1.853,M,40.593,M,3.2,0123*61\r\n
$GPGGA,110455.20,5703.4945522,N,00952.4627485,E,2,11,0.8,-1.852,M,40.593,M,3.2,0123*6E\r\n
$GPGGA,110455.25,5703.4945841,N,00952.4627568,E,2,11,0.8,-1.844,M,40.593,M,3.4,0123*60\r\n
$GPGGA,110455.30,5703.4946155,N,00952.4627642,E,2,11,0.8,-1.840,M,40.593,M,3.4,0123*64\r\n
$GPGGA,110455.35,5703.4946470,N,00952.4627725,E,2,11,0.8,-1.836,M,40.593,M,3.4,0123*62\r\n
$GPGGA,110455.40,5703.4946783,N,00952.4627813,E,2,11,0.8,-1.833,M,40.593,M,3.4,0123*60\r\n
$GPGGA,110455.45,5703.4947103,N,00952.4627895,E,2,11,0.8,-1.829,M,40.593,M,2.6,0123*6C\r\n
$GPGGA,110455.50,5703.4947424,N,00952.4627980,E,2,11,0.8,-1.823,M,40.593,M,2.6,0123*67\r\n
$GPGGA,110455.55,5703.4947733,N,00952.4628046,E,2,11,0.8,-1.821,M,40.593,M,2.6,0123*69\r\n
$GPGGA,110455.60,5703.4948046,N,00952.4628120,E,2,11,0.8,-1.819,M,40.593,M,2.6,0123*6F\r\n
$GPGGA,110455.65,5703.4948367,N,00952.4628201,E,2,11,0.8,-1.814,M,40.593,M,2.9,0123*68\r\n
$GPGGA,110455.70,5703.4948685,N,00952.4628283,E,2,11,0.8,-1.814,M,40.593,M,2.9,0123*6F\r\n
$GPGGA,110455.75,5703.4949017,N,00952.4628383,E,2,11,0.8,-1.814,M,40.593,M,2.9,0123*67\r\n
$GPGGA,110455.80,5703.4949353,N,00952.4628474,E,2,11,0.8,-1.814,M,40.593,M,2.9,0123*61\r\n
$GPGGA,110455.85,5703.4949680,N,00952.4628585,E,2,11,0.8,-1.820,M,40.593,M,3.1,0123*6E\r\n
$GPGGA,110455.90,5703.4950008,N,00952.4628701,E,2,11,0.8,-1.824,M,40.593,M,3.1,0123*6E\r\n
$GPGGA,110455.95,5703.4950338,N,00952.4628813,E,2,11,0.8,-1.830,M,40.593,M,3.1,0123*62\r\n
$GPGGA,110456.00,5703.4950667,N,00952.4628923,E,2,11,0.8,-1.833,M,40.593,M,3.1,0123*63\r\n
$GPGGA,110456.05,5703.4950997,N,00952.4629042,E,2,11,0.8,-1.837,M,40.593,M,3.3,0123*6F\r\n
$GPGGA,110456.10,5703.4951317,N,00952.4629153,E,2,11,0.8,-1.842,M,40.593,M,3.3,0123*6B\r\n
$GPGGA,110456.15,5703.4951628,N,00952.4629264,E,2,11,0.8,-1.848,M,40.593,M,3.3,0123*6A\r\n
$GPGGA,110456.20,5703.4951944,N,00952.4629364,E,2,11,0.8,-1.851,M,40.593,M,3.3,0123*60\r\n
$GPGGA,110456.25,5703.4952271,N,00952.4629454,E,2,11,0.8,-1.851,M,40.593,M,3.6,0123*6A\r\n
$GPGGA,110456.30,5703.4952593,N,00952.4629524,E,2,11,0.8,-1.855,M,40.593,M,3.6,0123*67\r\n
$GPGGA,110456.35,5703.4952908,N,00952.4629599,E,2,11,0.8,-1.857,M,40.593,M,3.6,0123*68\r\n
$GPGGA,110456.40,5703.4953224,N,00952.4629671,E,2,11,0.8,-1.857,M,40.593,M,3.6,0123*6B\r\n
$GPGGA,110456.45,5703.4953544,N,00952.4629736,E,2,11,0.8,-1.854,M,40.593,M,1.9,0123*63\r\n
$GPGGA,110456.50,5703.4953868,N,00952.4629810,E,2,11,0.8,-1.852,M,40.593,M,1.9,0123*69\r\n
$GPGGA,110456.55,5703.4954195,N,00952.4629891,E,2,11,0.8,-1.852,M,40.593,M,1.9,0123*69\r\n
$GPGGA,110456.60,5703.4954513,N,00952.4629985,E,2,11,0.8,-1.849,M,40.593,M,1.9,0123*6B\r\n
$GPGGA,110456.65,5703.4954828,N,00952.4630072,E,2,11,0.8,-1.851,M,40.593,M,2.1,0123*60\r\n
$GPGGA,110456.70,5703.4955143,N,00952.4630161,E,2,11,0.8,-1.850,M,40.593,M,2.1,0123*63\r\n
$GPGGA,110456.75,5703.4955463,N,00952.4630251,E,2,11,0.8,-1.844,M,40.593,M,2.1,0123*64\r\n
$GPGGA,110456.80,5703.4955778,N,00952.4630341,E,2,11,0.8,-1.842,M,40.593,M,2.1,0123*61\r\n
$GPGGA,110456.85,5703.4956099,N,00952.4630432,E,2,11,0.8,-1.833,M,40.593,M,2.3,0123*68\r\n
$GPGGA,110456.90,5703.4956424,N,00952.4630514,E,2,11,0.8,-1.828,M,40.593,M,2.3,0123*61\r\n
$GPGGA,110456.95,5703.4956746,N,00952.4630599,E,2,11,0.8,-1.825,M,40.593,M,2.3,0123*6B\r\n
$GPGGA,110457.00,5703.4957065,N,00952.4630701,E,2,11,0.8,-1.821,M,40.593,M,2.3,0123*66\r\n
$GPGGA,110457.05,5703.4957395,N,00952.4630805,E,2,11,0.8,-1.817,M,40.593,M,2.6,0123*64\r\n
$GPGGA,110457.10,5703.4957721,N,00952.4630901,E,2,11,0.8,-1.816,M,40.593,M,2.6,0123*6F\r\n
$GPGGA,110457.15,5703.4958046,N,00952.4631001,E,2,11,0.8,-1.816,M,40.593,M,2.6,0123*6B\r\n
$GPGGA,110457.20,5703.4958370,N,00952.4631105,E,2,11,0.8,-1.816,M,40.593,M,2.6,0123*6E\r\n
$GPGGA,110457.25,5703.4958694,N,00952.4631211,E,2,11,0.8,-1.823,M,40.593,M,2.8,0123*6A\r\n
$GPGGA,110457.30,5703.4959018,N,00952.4631313,E,2,11,0.8,-1.828,M,40.593,M,2.8,0123*65\r\n
$GPGGA,110457.35,5703.4959351,N,00952.4631409,E,2,11,0.8,-1.832,M,40.593,M,2.8,0123*69\r\n
$GPGGA,110457.40,5703.4959677,N,00952.4631511,E,2,11,0.8,-1.836,M,40.593,M,2.8,0123*66\r\n
$GPGGA,110457.45,5703.4959999,N,00952.4631616,E,2,11,0.8,-1.842,M,40.593,M,3.0,0123*62\r\n
$GPGGA,110457.50,5703.4960329,N,00952.4631699,E,2,11,0.8,-1.846,M,40.593,M,3.0,0123*6E\r\n
$GPGGA,110457.55,5703.4960655,N,00952.4631778,E,2,11,0.8,-1.847,M,40.593,M,3.0,0123*6A\r\n
$GPGGA,110457.60,5703.4960973,N,00952.4631844,E,2,11,0.8,-1.850,M,40.593,M,3.0,0123*61\r\n
$GPGGA,110457.65,5703.4961297,N,00952.4631926,E,2,11,0.8,-1.849,M,40.593,M,3.2,0123*6B\r\n
$GPGGA,110457.70,5703.4961616,N,00952.4632012,E,2,11,0.8,-1.847,M,40.593,M,3.2,0123*61\r\n
$GPGGA,110457.75,5703.4961935,N,00952.4632084,E,2,11,0.8,-1.847,M,40.593,M,3.2,0123*65\r\n
$GPGGA,110457.80,5703.4962245,N,00952.4632162,E,2,11,0.8,-1.846,M,40.593,M,3.2,0123*68\r\n
$GPGGA,110457.85,5703.4962568,N,00952.4632246,E,2,11,0.8,-1.843,M,40.593,M,3.4,0123*63\r\n
$GPGGA,110457.90,5703.4962892,N,00952.4632318,E,2,11,0.8,-1.841,M,40.593,M,3.4,0123*67\r\n
$GPGGA,110457.95,5703.4963210,N,00952.4632386,E,2,11,0.8,-1.839,M,40.593,M,3.4,0123*6B\r\n
$GPGGA,110458.00,5703.4963527,N,00952.4632452,E,2,11,0.8,-1.837,M,40.593,M,3.4,0123*6B\r\n
$GPGGA,110458.05,5703.4963850,N,00952.4632520,E,2,11,0.8,-1.832,M,40.593,M,3.6,0123*60\r\n
$GPGGA,110458.10,5703.4964167,N,00952.4632587,E,2,11,0.8,-1.829,M,40.593,M,3.6,0123*69\r\n
$GPGGA,110458.15,5703.4964484,N,00952.4632679,E,2,11,0.8,-1.827,M,40.593,M,3.6,0123*68\r\n
$GPGGA,110458.20,5703.4964807,N,00952.4632750,E,2,11,0.8,-1.826,M,40.593,M,3.6,0123*62\r\n
$GPGGA,110458.25,5703.4965132,N,00952.4632839,E,2,11,0.8,-1.828,M,40.593,M,3.8,0123*69\r\n
$GPGGA,110458.30,5703.4965456,N,00952.4632936,E,2,11,0.8,-1.828,M,40.593,M,3.8,0123*64\r\n
$GPGGA,110458.35,5703.4965778,N,00952.4633037,E,2,11,0.8,-1.828,M,40.593,M,3.8,0123*67\r\n
$GPGGA,110458.40,5703.4966108,N,00952.4633137,E,2,11,0.8,-1.831,M,40.593,M,3.8,0123*6E\r\n
$GPGGA,110458.45,5703.4966427,N,00952.4633227,E,2,11,0.8,-1.830,M,40.593,M,1.2,0123*68\r\n
$GPGGA,110458.50,5703.4966748,N,00952.4633338,E,2,11,0.8,-1.831,M,40.593,M,1.2,0123*68\r\n
$GPGGA,110458.55,5703.4967072,N,00952.4633440,E,2,11,0.8,-1.831,M,40.593,M,1.2,0123*6A\r\n
$GPGGA,110458.60,5703.4967399,N,00952.4633528,E,2,11,0.8,-1.831,M,40.593,M,1.2,0123*65\r\n
$GPGGA,110458.65,5703.4967717,N,00952.4633635,E,2,11,0.8,-1.833,M,40.593,M,1.5,0123*68\r\n
$GPGGA,110458.70,5703.4968034,N,00952.4633737,E,2,11,0.8,-1.836,M,40.593,M,1.5,0123*63\r\n
$GPGGA,110458.75,5703.4968352,N,00952.4633826,E,2,11,0.8,-1.835,M,40.593,M,1.5,0123*69\r\n
$GPGGA,110458.80,5703.4968677,N,00952.4633918,E,2,11,0.8,-1.833,M,40.593,M,1.5,0123*6B\r\n
$GPGGA,110458.85,5703.4969004,N,00952.4633998,E,2,11,0.8,-1.830,M,40.593,M,1.8,0123*6B\r\n
$GPGGA,110458.90,5703.4969322,N,00952.4634087,E,2,11,0.8,-1.831,M,40.593,M,1.8,0123*69\r\n
$GPGGA,110458.95,5703.4969637,N,00952.4634169,E,2,11,0.8,-1.834,M,40.593,M,1.8,0123*69\r\n
$GPGGA,110459.00,5703.4969968,N,00952.4634249,E,2,11,0.8,-1.832,M,40.593,M,1.8,0123*66\r\n
$GPGGA,110459.05,5703.4970296,N,00952.4634314,E,2,11,0.8,-1.832,M,40.593,M,2.1,0123*62\r\n
$GPGGA,110459.10,5703.4970611,N,00952.4634399,E,2,11,0.8,-1.833,M,40.593,M,2.1,0123*69\r\n
$GPGGA,110459.15,5703.4970933,N,00952.4634470,E,2,11,0.8,-1.833,M,40.593,M,2.1,0123*63\r\n
$GPGGA,110459.20,5703.4971248,N,00952.4634540,E,2,11,0.8,-1.833,M,40.593,M,2.1,0123*61\r\n
$GPGGA,110459.25,5703.4971562,N,00952.4634624,E,2,11,0.8,-1.836,M,40.593,M,2.4,0123*6A\r\n
$GPGGA,110459.30,5703.4971884,N,00952.4634713,E,2,11,0.8,-1.836,M,40.593,M,2.4,0123*6E\r\n
$GPGGA,110459.35,5703.4972213,N,00952.4634797,E,2,11,0.8,-1.836,M,40.593,M,2.4,0123*60\r\n
$GPGGA,110459.40,5703.4972538,N,00952.4634880,E,2,11,0.8,-1.838,M,40.593,M,2.4,0123*6B\r\n
$GPGGA,110459.45,5703.4972854,N,00952.4634962,E,2,11,0.8,-1.840,M,40.593,M,0.7,0123*6A\r\n
$GPGGA,110459.50,5703.4973175,N,00952.4635053,E,2,11,0.8,-1.840,M,40.593,M,0.7,0123*6F\r\n
$GPGGA,110459.55,5703.4973496,N,00952.4635149,E,2,11,0.8,-1.839,M,40.593,M,0.7,0123*66\r\n
$GPGGA,110459.60,5703.4973819,N,00952.4635247,E,2,11,0.8,-1.839,M,40.593,M,0.7,0123*66\r\n
$GPGGA,110459.65,5703.4974148,N,00952.4635342,E,2,11,0.8,-1.836,M,40.593,M,0.9,0123*6C\r\n
$GPGGA,110459.70,5703.4974468,N,00952.4635448,E,2,11,0.8,-1.835,M,40.593,M,0.9,0123*61\r\n
$GPGGA,110459.75,5703.4974786,N,00952.4635547,E,2,11,0.8,-1.831,M,40.593,M,0.9,0123*6D\r\n
$GPGGA,110459.80,5703.4975101,N,00952.4635635,E,2,11,0.8,-1.829,M,40.593,M,0.9,0123*60\r\n
$GPGGA,110459.85,5703.4975421,N,00952.4635715,E,2,11,0.8,-1.826,M,40.593,M,1.2,0123*64\r\n
$GPGGA,110459.90,5703.4975740,N,00952.4635807,E,2,11,0.8,-1.826,M,40.593,M,1.2,0123*68\r\n
$GPGGA,110459.95,5703.4976055,N,00952.4635888,E,2,11,0.8,-1.825,M,40.593,M,1.2,0123*69\r\n
$GPGGA,110500.00,5703.4976376,N,00952.4635962,E,2,11,0.8,-1.824,M,40.593,M,1.2,0123*6E\r\n
$GPGGA,110500.05,5703.4976699,N,00952.4636040,E,2,11,0.8,-1.816,M,40.593,M,1.4,0123*62\r\n
$GPGGA,110500.10,5703.4977023,N,00952.4636133,E,2,11,0.8,-1.816,M,40.593,M,1.4,0123*65\r\n
$GPGGA,110500.15,5703.4977348,N,00952.4636208,E,2,11,0.8,-1.815,M,40.593,M,1.4,0123*66\r\n
$GPGGA,110500.20,5703.4977669,N,00952.4636288,E,2,11,0.8,-1.815,M,40.593,M,1.4,0123*6E\r\n
$GPGGA,110500.25,5703.4977990,N,00952.4636380,E,2,11,0.8,-1.823,M,40.593,M,1.7,0123*6D\r\n
$GPGGA,110500.30,5703.4978309,N,00952.4636456,E,2,11,0.8,-1.826,M,40.593,M,1.7,0123*65\r\n
$GPGGA,110500.35,5703.4978629,N,00952.4636534,E,2,11,0.8,-1.830,M,40.593,M,1.7,0123*65\r\n
$GPGGA,110500.40,5703.4978956,N,00952.4636619,E,2,11,0.8,-1.831,M,40.593,M,1.7,0123*6D\r\n
$GPGGA,110500.45,5703.4979286,N,00952.4636704,E,2,11,0.8,-1.834,M,40.593,M,1.9,0123*69\r\n
$GPGGA,110500.50,5703.4979608,N,00952.4636798,E,2,11,0.8,-1.834,M,40.593,M,1.9,0123*6A\r\n
$GPGGA,110500.55,5703.4979926,N,00952.4636878,E,2,11,0.8,-1.834,M,40.593,M,1.9,0123*6D\r\n
$GPGGA,110500.60,5703.4980242,N,00952.4636975,E,2,11,0.8,-1.835,M,40.593,M,1.9,0123*69\r\n
$GPGGA,110500.65,5703.4980570,N,00952.4637079,E,2,11,0.8,-1.833,M,40.593,M,2.1,0123*63\r\n
$GPGGA,110500.70,5703.4980894,N,00952.4637166,E,2,11,0.8,-1.832,M,40.593,M,2.1,0123*6E\r\n
$GPGGA,110500.75,5703.4981214,N,00952.4637247,E,2,11,0.8,-1.827,M,40.593,M,2.1,0123*6C\r\n
$GPGGA,110500.80,5703.4981538,N,00952.4637342,E,2,11,0.8,-1.823,M,40.593,M,2.1,0123*6F\r\n
$GPGGA,110500.85,5703.4981858,N,00952.4637430,E,2,11,0.8,-1.821,M,40.593,M,2.3,0123*63\r\n
$GPGGA,110500.90,5703.4982171,N,00952.4637519,E,2,11,0.8,-1.822,M,40.593,M,2.3,0123*6F\r\n
$GPGGA,110500.95,5703.4982494,N,00952.4637586,E,2,11,0.8,-1.822,M,40.593,M,2.3,0123*62\r\n
$GPGGA,110501.00,5703.4982810,N,00952.4637639,E,2,11,0.8,-1.821,M,40.593,M,2.3,0123*6B\r\n
$GPGGA,110501.05,5703.4983128,N,00952.4637695,E,2,11,0.8,-1.821,M,40.593,M,2.6,0123*6E\r\n
$GPGGA,110501.10,5703.4983450,N,00952.4637770,E,2,11,0.8,-1.818,M,40.593,M,2.6,0123*60\r\n
$GPGGA,110501.15,5703.4983776,N,00952.4637837,E,2,11,0.8,-1.819,M,40.593,M,2.6,0123*6F\r\n
$GPGGA,110501.20,5703.4984108,N,00952.4637920,E,2,11,0.8,-1.821,M,40.593,M,2.6,0123*6D\r\n
$GPGGA,110501.25,5703.4984428,N,00952.4638008,E,2,11,0.8,-1.827,M,40.593,M,2.8,0123*6B\r\n
$GPGGA,110501.30,5703.4984753,N,00952.4638085,E,2,11,0.8,-1.829,M,40.593,M,2.8,0123*6B\r\n
$GPGGA,110501.35,5703.4985071,N,00952.4638152,E,2,11,0.8,-1.833,M,40.593,M,2.8,0123*68\r\n
$GPGGA,110501.40,5703.4985403,N,00952.4638228,E,2,11,0.8,-1.834,M,40.593,M,2.8,0123*62\r\n
$GPGGA,110501.45,5703.4985735,N,00952.4638329,E,2,11,0.8,-1.834,M,40.593,M,1.0,0123*6A\r\n
$GPGGA,110501.50,5703.4986061,N,00952.4638417,E,2,11,0.8,-1.834,M,40.593,M,1.0,0123*61\r\n
$GPGGA,110501.55,5703.4986386,N,00952.4638497,E,2,11,0.8,-1.830,M,40.593,M,1.0,0123*62\r\n
$GPGGA,110501.60,5703.4986706,N,00952.4638588,E,2,11,0.8,-1.827,M,40.593,M,1.0,0123*61\r\n
$GPGGA,110501.65,5703.4987020,N,00952.4638674,E,2,11,0.8,-1.818,M,40.593,M,1.3,0123*69\r\n
$GPGGA,110501.70,5703.4987333,N,00952.4638740,E,2,11,0.8,-1.814,M,40.593,M,1.3,0123*66\r\n
$GPGGA,110501.75,5703.4987647,N,00952.4638807,E,2,11,0.8,-1.808,M,40.593,M,1.3,0123*64\r\n
$GPGGA,110501.80,5703.4987963,N,00952.4638892,E,2,11,0.8,-1.804,M,40.593,M,1.3,0123*67\r\n
$GPGGA,110501.85,5703.4988270,N,00952.4638970,E,2,11,0.8,-1.806,M,40.593,M,1.6,0123*6E\r\n
$GPGGA,110501.90,5703.4988584,N,00952.4639028,E,2,11,0.8,-1.803,M,40.593,M,1.6,0123*66\r\n
$GPGGA,110501.95,5703.4988895,N,00952.4639099,E,2,11,0.8,-1.800,M,40.593,M,1.6,0123*67\r\n
$GPGGA,110502.00,5703.4989216,N,00952.4639178,E,2,11,0.8,-1.799,M,40.593,M,1.6,0123*69\r\n
$GPGGA,110502.05,5703.4989537,N,00952.4639257,E,2,11,0.8,-1.792,M,40.593,M,1.9,0123*62\r\n
$GPGGA,110502.10,5703.4989859,N,00952.4639332,E,2,11,0.8,-1.794,M,40.593,M,1.9,0123*67\r\n
$GPGGA,110502.15,5703.4990180,N,00952.4639413,E,2,11,0.8,-1.797,M,40.593,M,1.9,0123*60\r\n
$GPGGA,110502.20,5703.4990505,N,00952.4639490,E,2,11,0.8,-1.801,M,40.593,M,1.9,0123*64\r\n
$GPGGA,110502.25,5703.4990820,N,00952.4639569,E,2,11,0.8,-1.810,M,40.593,M,2.2,0123*64\r\n
$GPGGA,110502.30,5703.4991151,N,00952.4639650,E,2,11,0.8,-1.814,M,40.593,M,2.2,0123*63\r\n
$GPGGA,110502.35,5703.4991472,N,00952.4639720,E,2,11,0.8,-1.820,M,40.593,M,2.2,0123*63\r\n
$GPGGA,110502.40,5703.4991800,N,00952.4639809,E,2,11,0.8,-1.826,M,40.593,M,2.2,0123*6A\r\n
$GPGGA,110502.45,5703.4992124,N,00952.4639888,E,2,11,0.8,-1.832,M,40.593,M,1.2,0123*6C\r\n
$GPGGA,110502.50,5703.4992450,N,00952.4639974,E,2,11,0.8,-1.837,M,40.593,M,1.2,0123*69\r\n
$GPGGA,110502.55,5703.4992768,N,00952.4640059,E,2,11,0.8,-1.841,M,40.593,M,1.2,0123*6D\r\n
$GPGGA,110502.60,5703.4993095,N,00952.4640147,E,2,11,0.8,-1.842,M,40.593,M,1.2,0123*62\r\n
$GPGGA,110502.65,5703.4993408,N,00952.4640215,E,2,11,0.8,-1.841,M,40.593,M,1.5,0123*67\r\n
$GPGGA,110502.70,5703.4993702,N,00952.4640288,E,2,11,0.8,-1.838,M,40.593,M,1.5,0123*60\r\n
$GPGGA,110502.75,5703.4994010,N,00952.4640342,E,2,11,0.8,-1.831,M,40.593,M,1.5,0123*68\r\n
$GPGGA,110502.80,5703.4994324,N,00952.4640375,E,2,11,0.8,-1.825,M,40.593,M,1.5,0123*67\r\n
$GPGGA,110502.85,5703.4994647,N,00952.4640410,E,2,11,0.8,-1.818,M,40.593,M,1.8,0123*65\r\n
$GPGGA,110502.90,5703.4994963,N,00952.4640468,E,2,11,0.8,-1.814,M,40.593,M,1.8,0123*6B\r\n
$GPGGA,110502.95,5703.4995281,N,00952.4640523,E,2,11,0.8,-1.809,M,40.593,M,1.8,0123*6A\r\n
$GPGGA,110503.00,5703.4995604,N,00952.4640560,E,2,11,0.8,-1.803,M,40.593,M,1.8,0123*63\r\n
$GPGGA,110503.05,5703.4995934,N,00952.4640586,E,2,11,0.8,-1.791,M,40.593,M,2.1,0123*6C\r\n
$GPGGA,110503.10,5703.4996266,N,00952.4640617,E,2,11,0.8,-1.787,M,40.593,M,2.1,0123*6B\r\n
$GPGGA,110503.15,5703.4996589,N,00952.4640643,E,2,11,0.8,-1.784,M,40.593,M,2.1,0123*6A\r\n
$GPGGA,110503.20,5703.4996929,N,00952.4640672,E,2,11,0.8,-1.779,M,40.593,M,2.1,0123*6A\r\n
$GPGGA,110503.25,5703.4997270,N,00952.4640684,E,2,11,0.8,-1.778,M,40.593,M,2.4,0123*64\r\n
$GPGGA,110503.30,5703.4997621,N,00952.4640689,E,2,11,0.8,-1.776,M,40.593,M,2.4,0123*63\r\n
$GPGGA,110503.35,5703.4997969,N,00952.4640701,E,2,11,0.8,-1.776,M,40.593,M,2.4,0123*64\r\n
$GPGGA,110503.40,5703.4998327,N,00952.4640708,E,2,11,0.8,-1.775,M,40.593,M,2.4,0123*63\r\n
$GPGGA,110503.45,5703.4998687,N,00952.4640718,E,2,11,0.8,-1.777,M,40.593,M,0.7,0123*6B\r\n
$GPGGA,110503.50,5703.4999045,N,00952.4640736,E,2,11,0.8,-1.779,M,40.593,M,0.7,0123*64\r\n
$GPGGA,110503.55,5703.4999420,N,00952.4640761,E,2,11,0.8,-1.781,M,40.593,M,0.7,0123*63\r\n
$GPGGA,110503.60,5703.4999800,N,00952.4640782,E,2,11,0.8,-1.782,M,40.593,M,0.7,0123*65\r\n
$GPGGA,110503.65,5703.5000178,N,00952.4640790,E,2,11,0.8,-1.787,M,40.593,M,0.9,0123*66\r\n
$GPGGA,110503.70,5703.5000562,N,00952.4640790,E,2,11,0.8,-1.791,M,40.593,M,0.9,0123*6A\r\n
$GPGGA,110503.75,5703.5000955,N,00952.4640788,E,2,11,0.8,-1.794,M,40.593,M,0.9,0123*6B\r\n
$GPGGA,110503.80,5703.5001345,N,00952.4640781,E,2,11,0.8,-1.794,M,40.593,M,0.9,0123*62\r\n
$GPGGA,110503.85,5703.5001733,N,00952.4640759,E,2,11,0.8,-1.796,M,40.593,M,1.2,0123*6F\r\n
$GPGGA,110503.90,5703.5002125,N,00952.4640722,E,2,11,0.8,-1.798,M,40.593,M,1.2,0123*6B\r\n
$GPGGA,110503.95,5703.5002518,N,00952.4640678,E,2,11,0.8,-1.800,M,40.593,M,1.2,0123*64\r\n
$GPGGA,110504.00,5703.5002909,N,00952.4640616,E,2,11,0.8,-1.801,M,40.593,M,1.2,0123*6A\r\n
$GPGGA,110504.05,5703.5003304,N,00952.4640552,E,2,11,0.8,-1.800,M,40.593,M,1.4,0123*6D\r\n
$GPGGA,110504.10,5703.5003701,N,00952.4640466,E,2,11,0.8,-1.799,M,40.593,M,1.4,0123*61\r\n
$GPGGA,110504.15,5703.5004110,N,00952.4640364,E,2,11,0.8,-1.798,M,40.593,M,1.4,0123*61\r\n
$GPGGA,110504.20,5703.5004520,N,00952.4640259,E,2,11,0.8,-1.796,M,40.593,M,1.4,0123*61\r\n
$GPGGA,110504.25,5703.5004936,N,00952.4640140,E,2,11,0.8,-1.791,M,40.593,M,1.7,0123*60\r\n
$GPGGA,110504.30,5703.5005337,N,00952.4640032,E,2,11,0.8,-1.792,M,40.593,M,1.7,0123*69\r\n
$GPGGA,110504.35,5703.5005751,N,00952.4639913,E,2,11,0.8,-1.791,M,40.593,M,1.7,0123*6F\r\n
$GPGGA,110504.40,5703.5006177,N,00952.4639782,E,2,11,0.8,-1.789,M,40.593,M,1.7,0123*63\r\n
$GPGGA,110504.45,5703.5006587,N,00952.4639668,E,2,11,0.8,-1.785,M,40.593,M,1.9,0123*6A\r\n
$GPGGA,110504.50,5703.5007022,N,00952.4639553,E,2,11,0.8,-1.781,M,40.593,M,1.9,0123*6A\r\n
$GPGGA,110504.55,5703.5007452,N,00952.4639421,E,2,11,0.8,-1.780,M,40.593,M,1.9,0123*69\r\n
$GPGGA,110504.60,5703.5007884,N,00952.4639296,E,2,11,0.8,-1.779,M,40.593,M,1.9,0123*64\r\n
$GPGGA,110504.65,5703.5008311,N,00952.4639174,E,2,11,0.8,-1.783,M,40.593,M,2.1,0123*68\r\n
$GPGGA,110504.70,5703.5008741,N,00952.4639020,E,2,11,0.8,-1.785,M,40.593,M,2.1,0123*6B\r\n
$GPGGA,110504.75,5703.5009177,N,00952.4638861,E,2,11,0.8,-1.787,M,40.593,M,2.1,0123*62\r\n
$GPGGA,110504.80,5703.5009621,N,00952.4638695,E,2,11,0.8,-1.788,M,40.593,M,2.1,0123*66\r\n
$GPGGA,110504.85,5703.5010061,N,00952.4638517,E,2,11,0.8,-1.790,M,40.593,M,2.3,0123*6B\r\n
$GPGGA,110504.90,5703.5010503,N,00952.4638324,E,2,11,0.8,-1.792,M,40.593,M,2.3,0123*6A\r\n
$GPGGA,110504.95,5703.5010949,N,00952.4638118,E,2,11,0.8,-1.793,M,40.593,M,2.3,0123*61\r\n
$GPGGA,110505.00,5703.5011385,N,00952.4637909,E,2,11,0.8,-1.796,M,40.593,M,2.3,0123*65\r\n
$GPGGA,110505.05,5703.5011829,N,00952.4637696,E,2,11,0.8,-1.790,M,40.593,M,2.6,0123*67\r\n
$GPGGA,110505.10,5703.5012263,N,00952.4637471,E,2,11,0.8,-1.792,M,40.593,M,2.6,0123*6D\r\n
$GPGGA,110505.15,5703.5012701,N,00952.4637239,E,2,11,0.8,-1.791,M,40.593,M,2.6,0123*60\r\n
$GPGGA,110505.20,5703.5013148,N,00952.4637007,E,2,11,0.8,-1.786,M,40.593,M,2.6,0123*65\r\n
$GPGGA,110505.25,5703.5013588,N,00952.4636778,E,2,11,0.8,-1.786,M,40.593,M,2.8,0123*68\r\n
$GPGGA,110505.30,5703.5014023,N,00952.4636535,E,2,11,0.8,-1.784,M,40.593,M,2.8,0123*66\r\n
$GPGGA,110505.35,5703.5014460,N,00952.4636272,E,2,11,0.8,-1.782,M,40.593,M,2.8,0123*62\r\n
$GPGGA,110505.40,5703.5014892,N,00952.4636005,E,2,11,0.8,-1.779,M,40.593,M,2.8,0123*67\r\n
$GPGGA,110505.45,5703.5015331,N,00952.4635737,E,2,11,0.8,-1.771,M,40.593,M,1.0,0123*67\r\n
$GPGGA,110505.50,5703.5015779,N,00952.4635460,E,2,11,0.8,-1.769,M,40.593,M,1.0,0123*63\r\n
$GPGGA,110505.55,5703.5016217,N,00952.4635169,E,2,11,0.8,-1.770,M,40.593,M,1.0,0123*6C\r\n
$GPGGA,110505.60,5703.5016651,N,00952.4634873,E,2,11,0.8,-1.768,M,40.593,M,1.0,0123*66\r\n
$GPGGA,110505.65,5703.5017069,N,00952.4634575,E,2,11,0.8,-1.772,M,40.593,M,1.3,0123*6C\r\n
$GPGGA,110505.70,5703.5017508,N,00952.4634263,E,2,11,0.8,-1.774,M,40.593,M,1.3,0123*6C\r\n
$GPGGA,110505.75,5703.5017943,N,00952.4633944,E,2,11,0.8,-1.777,M,40.593,M,1.3,0123*60\r\n
$GPGGA,110505.80,5703.5018361,N,00952.4633604,E,2,11,0.8,-1.779,M,40.593,M,1.3,0123*6A\r\n
$GPGGA,110505.85,5703.5018779,N,00952.4633262,E,2,11,0.8,-1.781,M,40.593,M,1.6,0123*64\r\n
$GPGGA,110505.90,5703.5019194,N,00952.4632919,E,2,11,0.8,-1.785,M,40.593,M,1.6,0123*66\r\n
$GPGGA,110505.95,5703.5019617,N,00952.4632558,E,2,11,0.8,-1.786,M,40.593,M,1.6,0123*65\r\n
$GPGGA,110506.00,5703.5020047,N,00952.4632199,E,2,11,0.8,-1.788,M,40.593,M,1.6,0123*64\r\n
$GPGGA,110506.05,5703.5020475,N,00952.4631839,E,2,11,0.8,-1.786,M,40.593,M,1.9,0123*65\r\n
$GPGGA,110506.10,5703.5020884,N,00952.4631471,E,2,11,0.8,-1.786,M,40.593,M,1.9,0123*63\r\n
$GPGGA,110506.15,5703.5021304,N,00952.4631108,E,2,11,0.8,-1.786,M,40.593,M,1.9,0123*6F\r\n
$GPGGA,110506.20,5703.5021718,N,00952.4630737,E,2,11,0.8,-1.790,M,40.593,M,1.9,0123*6C\r\n
$GPGGA,110506.25,5703.5022131,N,00952.4630363,E,2,11,0.8,-1.789,M,40.593,M,2.2,0123*62\r\n
$GPGGA,110506.30,5703.5022547,N,00952.4629980,E,2,11,0.8,-1.787,M,40.593,M,2.2,0123*62\r\n
$GPGGA,110506.35,5703.5022950,N,00952.4629555,E,2,11,0.8,-1.785,M,40.593,M,2.2,0123*6B\r\n
$GPGGA,110506.40,5703.5023350,N,00952.4629131,E,2,11,0.8,-1.782,M,40.593,M,2.2,0123*63\r\n
$GPGGA,110506.45,5703.5023749,N,00952.4628696,E,2,11,0.8,-1.789,M,40.593,M,2.5,0123*6D\r\n
$GPGGA,110506.50,5703.5024162,N,00952.4628259,E,2,11,0.8,-1.787,M,40.593,M,2.5,0123*68\r\n
$GPGGA,110506.55,5703.5024557,N,00952.4627796,E,2,11,0.8,-1.785,M,40.593,M,2.5,0123*64\r\n
$GPGGA,110506.60,5703.5024940,N,00952.4627341,E,2,11,0.8,-1.785,M,40.593,M,2.5,0123*66\r\n
$GPGGA,110506.65,5703.5025338,N,00952.4626887,E,2,11,0.8,-1.785,M,40.593,M,2.7,0123*65\r\n
$GPGGA,110506.70,5703.5025728,N,00952.4626418,E,2,11,0.8,-1.783,M,40.593,M,2.7,0123*68\r\n
$GPGGA,110506.75,5703.5026113,N,00952.4625924,E,2,11,0.8,-1.781,M,40.593,M,2.7,0123*63\r\n
$GPGGA,110506.80,5703.5026501,N,00952.4625433,E,2,11,0.8,-1.779,M,40.593,M,2.7,0123*62\r\n
$GPGGA,110506.85,5703.5026893,N,00952.4624942,E,2,11,0.8,-1.778,M,40.593,M,2.9,0123*64\r\n
$GPGGA,110506.90,5703.5027281,N,00952.4624431,E,2,11,0.8,-1.777,M,40.593,M,2.9,0123*6E\r\n
$GPGGA,110506.95,5703.5027667,N,00952.4623909,E,2,11,0.8,-1.772,M,40.593,M,2.9,0123*63\r\n
$GPGGA,110507.00,5703.5028047,N,00952.4623373,E,2,11,0.8,-1.773,M,40.593,M,2.9,0123*63\r\n
$GPGGA,110507.05,5703.5028426,N,00952.4622835,E,2,11,0.8,-1.773,M,40.593,M,3.2,0123*67\r\n
$GPGGA,110507.10,5703.5028804,N,00952.4622302,E,2,11,0.8,-1.774,M,40.593,M,3.2,0123*67\r\n
$GPGGA,110507.15,5703.5029183,N,00952.4621762,E,2,11,0.8,-1.773,M,40.593,M,3.2,0123*63\r\n
$GPGGA,110507.20,5703.5029561,N,00952.4621196,E,2,11,0.8,-1.773,M,40.593,M,3.2,0123*60\r\n
$GPGGA,110507.25,5703.5029922,N,00952.4620619,E,2,11,0.8,-1.770,M,40.593,M,3.4,0123*6A\r\n
$GPGGA,110507.30,5703.5030289,N,00952.4620030,E,2,11,0.8,-1.769,M,40.593,M,3.4,0123*69\r\n
$GPGGA,110507.35,5703.5030655,N,00952.4619439,E,2,11,0.8,-1.768,M,40.593,M,3.4,0123*6F\r\n
$GPGGA,110507.40,5703.5031014,N,00952.4618865,E,2,11,0.8,-1.765,M,40.593,M,3.4,0123*66\r\n
$GPGGA,110507.45,5703.5031373,N,00952.4618276,E,2,11,0.8,-1.766,M,40.593,M,2.6,0123*69\r\n
$GPGGA,110507.50,5703.5031717,N,00952.4617666,E,2,11,0.8,-1.765,M,40.593,M,2.6,0123*62\r\n
$GPGGA,110507.55,5703.5032063,N,00952.4617036,E,2,11,0.8,-1.765,M,40.593,M,2.6,0123*63\r\n
$GPGGA,110507.60,5703.5032398,N,00952.4616406,E,2,11,0.8,-1.762,M,40.593,M,2.6,0123*63\r\n
$GPGGA,110507.65,5703.5032731,N,00952.4615787,E,2,11,0.8,-1.758,M,40.593,M,2.9,0123*6E\r\n
$GPGGA,110507.70,5703.5033064,N,00952.4615154,E,2,11,0.8,-1.755,M,40.593,M,2.9,0123*69\r\n
$GPGGA,110507.75,5703.5033398,N,00952.4614505,E,2,11,0.8,-1.756,M,40.593,M,2.9,0123*6E\r\n
$GPGGA,110507.80,5703.5033728,N,00952.4613862,E,2,11,0.8,-1.756,M,40.593,M,2.9,0123*60\r\n
$GPGGA,110507.85,5703.5034042,N,00952.4613204,E,2,11,0.8,-1.759,M,40.593,M,3.1,0123*65\r\n
$GPGGA,110507.90,5703.5034350,N,00952.4612530,E,2,11,0.8,-1.756,M,40.593,M,3.1,0123*6F\r\n
$GPGGA,110507.95,5703.5034650,N,00952.4611844,E,2,11,0.8,-1.757,M,40.593,M,3.1,0123*63\r\n
$GPGGA,110508.00,5703.5034952,N,00952.4611149,E,2,11,0.8,-1.759,M,40.593,M,3.1,0123*67\r\n
$GPGGA,110508.05,5703.5035253,N,00952.4610460,E,2,11,0.8,-1.752,M,40.593,M,3.3,0123*6F\r\n
$GPGGA,110508.10,5703.5035556,N,00952.4609766,E,2,11,0.8,-1.751,M,40.593,M,3.3,0123*67\r\n
$GPGGA,110508.15,5703.5035867,N,00952.4609079,E,2,11,0.8,-1.745,M,40.593,M,3.3,0123*61\r\n
$GPGGA,110508.20,5703.5036164,N,00952.4608375,E,2,11,0.8,-1.743,M,40.593,M,3.3,0123*66\r\n
$GPGGA,110508.25,5703.5036441,N,00952.4607660,E,2,11,0.8,-1.749,M,40.593,M,3.6,0123*60\r\n
$GPGGA,110508.30,5703.5036714,N,00952.4606938,E,2,11,0.8,-1.750,M,40.593,M,3.6,0123*6C\r\n
$GPGGA,110508.35,5703.5036984,N,00952.4606209,E,2,11,0.8,-1.751,M,40.593,M,3.6,0123*66\r\n
$GPGGA,110508.40,5703.5037265,N,00952.4605483,E,2,11,0.8,-1.750,M,40.593,M,3.6,0123*67\r\n
$GPGGA,110508.45,5703.5037543,N,00952.4604753,E,2,11,0.8,-1.750,M,40.593,M,1.9,0123*63\r\n
$GPGGA,110508.50,5703.5037808,N,00952.4604019,E,2,11,0.8,-1.749,M,40.593,M,1.9,0123*64\r\n
$GPGGA,110508.55,5703.5038058,N,00952.4603272,E,2,11,0.8,-1.750,M,40.593,M,1.9,0123*63\r\n
$GPGGA,110508.60,5703.5038303,N,00952.4602503,E,2,11,0.8,-1.750,M,40.593,M,1.9,0123*68\r\n
$GPGGA,110508.65,5703.5038556,N,00952.4601724,E,2,11,0.8,-1.754,M,40.593,M,2.1,0123*60\r\n
$GPGGA,110508.70,5703.5038804,N,00952.4600971,E,2,11,0.8,-1.756,M,40.593,M,2.1,0123*63\r\n
$GPGGA,110508.75,5703.5039045,N,00952.4600213,E,2,11,0.8,-1.758,M,40.593,M,2.1,0123*6B\r\n
$GPGGA,110508.80,5703.5039275,N,00952.4599453,E,2,11,0.8,-1.757,M,40.593,M,2.1,0123*6E\r\n
$GPGGA,110508.85,5703.5039500,N,00952.4598672,E,2,11,0.8,-1.760,M,40.593,M,2.3,0123*68\r\n
$GPGGA,110508.90,5703.5039726,N,00952.4597887,E,2,11,0.8,-1.759,M,40.593,M,2.3,0123*6B\r\n
$GPGGA,110508.95,5703.5039948,N,00952.4597099,E,2,11,0.8,-1.761,M,40.593,M,2.3,0123*64\r\n
$GPGGA,110509.00,5703.5040164,N,00952.4596296,E,2,11,0.8,-1.761,M,40.593,M,2.3,0123*6D\r\n
$GPGGA,110509.05,5703.5040386,N,00952.4595503,E,2,11,0.8,-1.754,M,40.593,M,2.6,0123*6D\r\n
$GPGGA,110509.10,5703.5040599,N,00952.4594718,E,2,11,0.8,-1.754,M,40.593,M,2.6,0123*68\r\n
$GPGGA,110509.15,5703.5040785,N,00952.4593929,E,2,11,0.8,-1.757,M,40.593,M,2.6,0123*6A\r\n
$GPGGA,110509.20,5703.5040974,N,00952.4593117,E,2,11,0.8,-1.759,M,40.593,M,2.6,0123*67\r\n
$GPGGA,110509.25,5703.5041163,N,00952.4592295,E,2,11,0.8,-1.760,M,40.593,M,2.8,0123*61\r\n
$GPGGA,110509.30,5703.5041340,N,00952.4591468,E,2,11,0.8,-1.758,M,40.593,M,2.8,0123*6A\r\n
$GPGGA,110509.35,5703.5041518,N,00952.4590653,E,2,11,0.8,-1.760,M,40.593,M,2.8,0123*64\r\n
$GPGGA,110509.40,5703.5041700,N,00952.4589840,E,2,11,0.8,-1.760,M,40.593,M,2.8,0123*69\r\n
$GPGGA,110509.45,5703.5041863,N,00952.4589015,E,2,11,0.8,-1.762,M,40.593,M,1.0,0123*67\r\n
$GPGGA,110509.50,5703.5042029,N,00952.4588196,E,2,11,0.8,-1.762,M,40.593,M,1.0,0123*6D\r\n
$GPGGA,110509.55,5703.5042180,N,00952.4587359,E,2,11,0.8,-1.764,M,40.593,M,1.0,0123*62\r\n
$GPGGA,110509.60,5703.5042328,N,00952.4586516,E,2,11,0.8,-1.762,M,40.593,M,1.0,0123*6E\r\n
$GPGGA,110509.65,5703.5042479,N,00952.4585685,E,2,11,0.8,-1.759,M,40.593,M,1.3,0123*69\r\n
$GPGGA,110509.70,5703.5042634,N,00952.4584859,E,2,11,0.8,-1.758,M,40.593,M,1.3,0123*69\r\n
$GPGGA,110509.75,5703.5042772,N,00952.4584023,E,2,11,0.8,-1.759,M,40.593,M,1.3,0123*6B\r\n
$GPGGA,110509.80,5703.5042899,N,00952.4583191,E,2,11,0.8,-1.761,M,40.593,M,1.3,0123*6F\r\n
$GPGGA,110509.85,5703.5043036,N,00952.4582349,E,2,11,0.8,-1.766,M,40.593,M,1.6,0123*62\r\n
$GPGGA,110509.90,5703.5043165,N,00952.4581500,E,2,11,0.8,-1.769,M,40.593,M,1.6,0123*66\r\n
$GPGGA,110509.95,5703.5043295,N,00952.4580627,E,2,11,0.8,-1.771,M,40.593,M,1.6,0123*61\r\n
$GPGGA,110510.00,5703.5043412,N,00952.4579768,E,2,11,0.8,-1.770,M,40.593,M,1.6,0123*61\r\n
$GPGGA,110510.05,5703.5043527,N,00952.4578919,E,2,11,0.8,-1.766,M,40.593,M,1.9,0123*62\r\n
$GPGGA,110510.10,5703.5043624,N,00952.4578076,E,2,11,0.8,-1.767,M,40.593,M,1.9,0123*67\r\n
$GPGGA,110510.15,5703.5043708,N,00952.4577225,E,2,11,0.8,-1.771,M,40.593,M,1.9,0123*61\r\n
$GPGGA,110510.20,5703.5043791,N,00952.4576353,E,2,11,0.8,-1.772,M,40.593,M,1.9,0123*65\r\n
$GPGGA,110510.25,5703.5043878,N,00952.4575491,E,2,11,0.8,-1.777,M,40.593,M,2.2,0123*6F\r\n
$GPGGA,110510.30,5703.5043955,N,00952.4574610,E,2,11,0.8,-1.775,M,40.593,M,2.2,0123*6D\r\n
$GPGGA,110510.35,5703.5044025,N,00952.4573744,E,2,11,0.8,-1.774,M,40.593,M,2.2,0123*67\r\n
$GPGGA,110510.40,5703.5044098,N,00952.4572879,E,2,11,0.8,-1.774,M,40.593,M,2.2,0123*63\r\n
$GPGGA,110510.45,5703.5044171,N,00952.4572014,E,2,11,0.8,-1.772,M,40.593,M,1.2,0123*66\r\n
$GPGGA,110510.50,5703.5044239,N,00952.4571153,E,2,11,0.8,-1.771,M,40.593,M,1.2,0123*6F\r\n
$GPGGA,110510.55,5703.5044282,N,00952.4570277,E,2,11,0.8,-1.771,M,40.593,M,1.2,0123*6E\r\n
$GPGGA,110510.60,5703.5044334,N,00952.4569399,E,2,11,0.8,-1.772,M,40.593,M,1.2,0123*6E\r\n
$GPGGA,110510.65,5703.5044391,N,00952.4568516,E,2,11,0.8,-1.772,M,40.593,M,1.5,0123*63\r\n
$GPGGA,110510.70,5703.5044449,N,00952.4567639,E,2,11,0.8,-1.770,M,40.593,M,1.5,0123*66\r\n
$GPGGA,110510.75,5703.5044489,N,00952.4566756,E,2,11,0.8,-1.770,M,40.593,M,1.5,0123*66\r\n
$GPGGA,110510.80,5703.5044518,N,00952.4565878,E,2,11,0.8,-1.770,M,40.593,M,1.5,0123*65\r\n
$GPGGA,110510.85,5703.5044540,N,00952.4565001,E,2,11,0.8,-1.770,M,40.593,M,1.8,0123*66\r\n
$GPGGA,110510.90,5703.5044571,N,00952.4564124,E,2,11,0.8,-1.770,M,40.593,M,1.8,0123*67\r\n
$GPGGA,110510.95,5703.5044589,N,00952.4563244,E,2,11,0.8,-1.767,M,40.593,M,1.8,0123*61\r\n
$GPGGA,110511.00,5703.5044594,N,00952.4562357,E,2,11,0.8,-1.768,M,40.593,M,1.8,0123*6D\r\n
$GPGGA,110511.05,5703.5044606,N,00952.4561471,E,2,11,0.8,-1.765,M,40.593,M,2.1,0123*67\r\n
$GPGGA,110511.10,5703.5044617,N,00952.4560569,E,2,11,0.8,-1.766,M,40.593,M,2.1,0123*69\r\n
$GPGGA,110511.15,5703.5044624,N,00952.4559670,E,2,11,0.8,-1.765,M,40.593,M,2.1,0123*6E\r\n
$GPGGA,110511.20,5703.5044614,N,00952.4558789,E,2,11,0.8,-1.764,M,40.593,M,2.1,0123*6C\r\n
$GPGGA,110511.25,5703.5044596,N,00952.4557910,E,2,11,0.8,-1.765,M,40.593,M,2.4,0123*65\r\n
$GPGGA,110511.30,5703.5044583,N,00952.4556995,E,2,11,0.8,-1.764,M,40.593,M,2.4,0123*68\r\n
$GPGGA,110511.35,5703.5044570,N,00952.4556094,E,2,11,0.8,-1.765,M,40.593,M,2.4,0123*68\r\n
$GPGGA,110511.40,5703.5044553,N,00952.4555199,E,2,11,0.8,-1.764,M,40.593,M,2.4,0123*65\r\n
$GPGGA,110511.45,5703.5044515,N,00952.4554297,E,2,11,0.8,-1.763,M,40.593,M,0.7,0123*68\r\n
$GPGGA,110511.50,5703.5044473,N,00952.4553411,E,2,11,0.8,-1.762,M,40.593,M,0.7,0123*63\r\n
$GPGGA,110511.55,5703.5044430,N,00952.4552521,E,2,11,0.8,-1.762,M,40.593,M,0.7,0123*62\r\n
$GPGGA,110511.60,5703.5044372,N,00952.4551630,E,2,11,0.8,-1.761,M,40.593,M,0.7,0123*66\r\n
$GPGGA,110511.65,5703.5044328,N,00952.4550731,E,2,11,0.8,-1.761,M,40.593,M,0.9,0123*63\r\n
$GPGGA,110511.70,5703.5044273,N,00952.4549847,E,2,11,0.8,-1.758,M,40.593,M,0.9,0123*64\r\n
$GPGGA,110511.75,5703.5044211,N,00952.4548943,E,2,11,0.8,-1.757,M,40.593,M,0.9,0123*6E\r\n
$GPGGA,110511.80,5703.5044125,N,00952.4548067,E,2,11,0.8,-1.756,M,40.593,M,0.9,0123*6E\r\n
$GPGGA,110511.85,5703.5044047,N,00952.4547180,E,2,11,0.8,-1.759,M,40.593,M,1.2,0123*6C\r\n
$GPGGA,110511.90,5703.5043985,N,00952.4546282,E,2,11,0.8,-1.757,M,40.593,M,1.2,0123*66\r\n
$GPGGA,110511.95,5703.5043902,N,00952.4545367,E,2,11,0.8,-1.756,M,40.593,M,1.2,0123*64\r\n
$GPGGA,110512.00,5703.5043816,N,00952.4544481,E,2,11,0.8,-1.761,M,40.593,M,1.2,0123*65\r\n
$GPGGA,110512.05,5703.5043728,N,00952.4543596,E,2,11,0.8,-1.752,M,40.593,M,1.4,0123*64\r\n
$GPGGA,110512.10,5703.5043632,N,00952.4542692,E,2,11,0.8,-1.748,M,40.593,M,1.4,0123*67\r\n
$GPGGA,110512.15,5703.5043530,N,00952.4541802,E,2,11,0.8,-1.749,M,40.593,M,1.4,0123*66\r\n
$GPGGA,110512.20,5703.5043437,N,00952.4540904,E,2,11,0.8,-1.748,M,40.593,M,1.4,0123*61\r\n
$GPGGA,110512.25,5703.5043339,N,00952.4540004,E,2,11,0.8,-1.751,M,40.593,M,1.7,0123*6F\r\n
$GPGGA,110512.30,5703.5043229,N,00952.4539113,E,2,11,0.8,-1.752,M,40.593,M,1.7,0123*61\r\n
$GPGGA,110512.35,5703.5043113,N,00952.4538219,E,2,11,0.8,-1.751,M,40.593,M,1.7,0123*65\r\n
$GPGGA,110512.40,5703.5042996,N,00952.4537330,E,2,11,0.8,-1.748,M,40.593,M,1.7,0123*6E\r\n
$GPGGA,110512.45,5703.5042880,N,00952.4536426,E,2,11,0.8,-1.744,M,40.593,M,1.9,0123*6E\r\n
$GPGGA,110512.50,5703.5042750,N,00952.4535541,E,2,11,0.8,-1.743,M,40.593,M,1.9,0123*6C\r\n
$GPGGA,110512.55,5703.5042618,N,00952.4534644,E,2,11,0.8,-1.742,M,40.593,M,1.9,0123*62\r\n
$GPGGA,110512.60,5703.5042485,N,00952.4533752,E,2,11,0.8,-1.740,M,40.593,M,1.9,0123*61\r\n
$GPGGA,110512.65,5703.5042350,N,00952.4532856,E,2,11,0.8,-1.739,M,40.593,M,2.1,0123*64\r\n
$GPGGA,110512.70,5703.5042210,N,00952.4531985,E,2,11,0.8,-1.740,M,40.593,M,2.1,0123*67\r\n
$GPGGA,110512.75,5703.5042064,N,00952.4531084,E,2,11,0.8,-1.739,M,40.593,M,2.1,0123*65\r\n
$GPGGA,110512.80,5703.5041915,N,00952.4530185,E,2,11,0.8,-1.737,M,40.593,M,2.1,0123*6C\r\n
$GPGGA,110512.85,5703.5041755,N,00952.4529282,E,2,11,0.8,-1.735,M,40.593,M,2.3,0123*6F\r\n
$GPGGA,110512.90,5703.5041597,N,00952.4528388,E,2,11,0.8,-1.735,M,40.593,M,2.3,0123*6D\r\n
$GPGGA,110512.95,5703.5041435,N,00952.4527521,E,2,11,0.8,-1.730,M,40.593,M,2.3,0123*6E\r\n
$GPGGA,110513.00,5703.5041282,N,00952.4526635,E,2,11,0.8,-1.725,M,40.593,M,2.3,0123*6A\r\n
$GPGGA,110513.05,5703.5041118,N,00952.4525761,E,2,11,0.8,-1.721,M,40.593,M,2.6,0123*6D\r\n
$GPGGA,110513.10,5703.5040945,N,00952.4524865,E,2,11,0.8,-1.721,M,40.593,M,2.6,0123*62\r\n
$GPGGA,110513.15,5703.5040777,N,00952.4523966,E,2,11,0.8,-1.720,M,40.593,M,2.6,0123*6C\r\n
$GPGGA,110513.20,5703.5040603,N,00952.4523075,E,2,11,0.8,-1.720,M,40.593,M,2.6,0123*63\r\n
$GPGGA,110513.25,5703.5040419,N,00952.4522205,E,2,11,0.8,-1.724,M,40.593,M,2.8,0123*61\r\n
$GPGGA,110513.30,5703.5040226,N,00952.4521313,E,2,11,0.8,-1.724,M,40.593,M,2.8,0123*6A\r\n
$GPGGA,110513.35,5703.5040033,N,00952.4520435,E,2,11,0.8,-1.726,M,40.593,M,2.8,0123*69\r\n
$GPGGA,110513.40,5703.5039850,N,00952.4519567,E,2,11,0.8,-1.726,M,40.593,M,2.8,0123*64\r\n
$GPGGA,110513.45,5703.5039668,N,00952.4518684,E,2,11,0.8,-1.721,M,40.593,M,1.0,0123*67\r\n
$GPGGA,110513.50,5703.5039465,N,00952.4517818,E,2,11,0.8,-1.723,M,40.593,M,1.0,0123*6A\r\n
$GPGGA,110513.55,5703.5039263,N,00952.4516954,E,2,11,0.8,-1.723,M,40.593,M,1.0,0123*67\r\n
$GPGGA,110513.60,5703.5039060,N,00952.4516070,E,2,11,0.8,-1.724,M,40.593,M,1.0,0123*68\r\n
$GPGGA,110513.65,5703.5038861,N,00952.4515204,E,2,11,0.8,-1.725,M,40.593,M,1.3,0123*65\r\n
$GPGGA,110513.70,5703.5038658,N,00952.4514348,E,2,11,0.8,-1.723,M,40.593,M,1.3,0123*6B\r\n
$GPGGA,110513.75,5703.5038448,N,00952.4513514,E,2,11,0.8,-1.723,M,40.593,M,1.3,0123*65\r\n
$GPGGA,110513.80,5703.5038231,N,00952.4512671,E,2,11,0.8,-1.724,M,40.593,M,1.3,0123*61\r\n
$GPGGA,110513.85,5703.5038012,N,00952.4511803,E,2,11,0.8,-1.722,M,40.593,M,1.6,0123*6C\r\n
$GPGGA,110513.90,5703.5037782,N,00952.4510944,E,2,11,0.8,-1.722,M,40.593,M,1.6,0123*6A\r\n
$GPGGA,110513.95,5703.5037581,N,00952.4510108,E,2,11,0.8,-1.720,M,40.593,M,1.6,0123*6C\r\n
$GPGGA,110514.00,5703.5037378,N,00952.4509267,E,2,11,0.8,-1.717,M,40.593,M,1.6,0123*61\r\n
$GPGGA,110514.05,5703.5037167,N,00952.4508421,E,2,11,0.8,-1.713,M,40.593,M,1.9,0123*66\r\n
$GPGGA,110514.10,5703.5036938,N,00952.4507585,E,2,11,0.8,-1.713,M,40.593,M,1.9,0123*61\r\n
$GPGGA,110514.15,5703.5036699,N,00952.4506723,E,2,11,0.8,-1.716,M,40.593,M,1.9,0123*6A\r\n
$GPGGA,110514.20,5703.5036469,N,00952.4505860,E,2,11,0.8,-1.716,M,40.593,M,1.9,0123*6A\r\n
$GPGGA,110514.25,5703.5036227,N,00952.4505006,E,2,11,0.8,-1.719,M,40.593,M,2.2,0123*6C\r\n
$GPGGA,110514.30,5703.5035989,N,00952.4504200,E,2,11,0.8,-1.720,M,40.593,M,2.2,0123*6B\r\n
$GPGGA,110514.35,5703.5035757,N,00952.4503375,E,2,11,0.8,-1.723,M,40.593,M,2.2,0123*64\r\n
$GPGGA,110514.40,5703.5035505,N,00952.4502550,E,2,11,0.8,-1.724,M,40.593,M,2.2,0123*64\r\n
$GPGGA,110514.45,5703.5035245,N,00952.4501737,E,2,11,0.8,-1.724,M,40.593,M,2.5,0123*65\r\n
$GPGGA,110514.50,5703.5034987,N,00952.4500921,E,2,11,0.8,-1.727,M,40.593,M,2.5,0123*6E\r\n
$GPGGA,110514.55,5703.5034731,N,00952.4500083,E,2,11,0.8,-1.730,M,40.593,M,2.5,0123*6F\r\n
$GPGGA,110514.60,5703.5034477,N,00952.4499270,E,2,11,0.8,-1.732,M,40.593,M,2.5,0123*65\r\n
$GPGGA,110514.65,5703.5034218,N,00952.4498466,E,2,11,0.8,-1.730,M,40.593,M,2.7,0123*6F\r\n
$GPGGA,110514.70,5703.5033952,N,00952.4497675,E,2,11,0.8,-1.728,M,40.593,M,2.7,0123*6F\r\n
$GPGGA,110514.75,5703.5033687,N,00952.4496853,E,2,11,0.8,-1.729,M,40.593,M,2.7,0123*67\r\n
$GPGGA,110514.80,5703.5033432,N,00952.4496033,E,2,11,0.8,-1.728,M,40.593,M,2.7,0123*6E\r\n
$GPGGA,110514.85,5703.5033173,N,00952.4495227,E,2,11,0.8,-1.730,M,40.593,M,2.9,0123*68\r\n
$GPGGA,110514.90,5703.5032906,N,00952.4494416,E,2,11,0.8,-1.731,M,40.593,M,2.9,0123*63\r\n
$GPGGA,110514.95,5703.5032636,N,00952.4493599,E,2,11,0.8,-1.730,M,40.593,M,2.9,0123*6A\r\n
$GPGGA,110515.00,5703.5032355,N,00952.4492785,E,2,11,0.8,-1.732,M,40.593,M,2.9,0123*6B\r\n
$GPGGA,110515.05,5703.5032082,N,00952.4491996,E,2,11,0.8,-1.724,M,40.593,M,3.2,0123*65\r\n
$GPGGA,110515.10,5703.5031805,N,00952.4491182,E,2,11,0.8,-1.725,M,40.593,M,3.2,0123*69\r\n
$GPGGA,110515.15,5703.5031527,N,00952.4490366,E,2,11,0.8,-1.725,M,40.593,M,3.2,0123*68\r\n
$GPGGA,110515.20,5703.5031247,N,00952.4489558,E,2,11,0.8,-1.726,M,40.593,M,3.2,0123*6F\r\n
$GPGGA,110515.25,5703.5030955,N,00952.4488749,E,2,11,0.8,-1.727,M,40.593,M,2.4,0123*66\r\n
$GPGGA,110515.30,5703.5030665,N,00952.4487953,E,2,11,0.8,-1.730,M,40.593,M,2.4,0123*62\r\n
$GPGGA,110515.35,5703.5030369,N,00952.4487158,E,2,11,0.8,-1.729,M,40.593,M,2.4,0123*65\r\n
$GPGGA,110515.40,5703.5030079,N,00952.4486366,E,2,11,0.8,-1.728,M,40.593,M,2.4,0123*6A\r\n
$GPGGA,110515.45,5703.5029770,N,00952.4485567,E,2,11,0.8,-1.733,M,40.593,M,2.6,0123*65\r\n
$GPGGA,110515.50,5703.5029468,N,00952.4484758,E,2,11,0.8,-1.733,M,40.593,M,2.6,0123*64\r\n
$GPGGA,110515.55,5703.5029152,N,00952.4483950,E,2,11,0.8,-1.734,M,40.593,M,2.6,0123*6B\r\n
$GPGGA,110515.60,5703.5028855,N,00952.4483161,E,2,11,0.8,-1.734,M,40.593,M,2.6,0123*68\r\n
$GPGGA,110515.65,5703.5028550,N,00952.4482356,E,2,11,0.8,-1.736,M,40.593,M,2.9,0123*6F\r\n
$GPGGA,110515.70,5703.5028239,N,00952.4481560,E,2,11,0.8,-1.738,M,40.593,M,2.9,0123*6D\r\n
$GPGGA,110515.75,5703.5027931,N,00952.4480774,E,2,11,0.8,-1.737,M,40.593,M,2.9,0123*6D\r\n
$GPGGA,110515.80,5703.5027622,N,00952.4479985,E,2,11,0.8,-1.736,M,40.593,M,2.9,0123*6D\r\n
$GPGGA,110515.85,5703.5027307,N,00952.4479185,E,2,11,0.8,-1.732,M,40.593,M,3.1,0123*6F\r\n
$GPGGA,110515.90,5703.5026987,N,00952.4478384,E,2,11,0.8,-1.731,M,40.593,M,3.1,0123*69\r\n
$GPGGA,110515.95,5703.5026667,N,00952.4477588,E,2,11,0.8,-1.731,M,40.593,M,3.1,0123*68\r\n
$GPGGA,110516.00,5703.5026347,N,00952.4476813,E,2,11,0.8,-1.729,M,40.593,M,3.1,0123*67\r\n
$GPGGA,110516.05,5703.5026032,N,00952.4476043,E,2,11,0.8,-1.729,M,40.593,M,3.3,0123*6C\r\n
$GPGGA,110516.10,5703.5025709,N,00952.4475260,E,2,11,0.8,-1.726,M,40.593,M,3.3,0123*6B\r\n
$GPGGA,110516.15,5703.5025381,N,00952.4474471,E,2,11,0.8,-1.724,M,40.593,M,3.3,0123*6F\r\n
$GPGGA,110516.20,5703.5025039,N,00952.4473687,E,2,11,0.8,-1.727,M,40.593,M,3.3,0123*66\r\n
$GPGGA,110516.25,5703.5024699,N,00952.4472897,E,2,11,0.8,-1.730,M,40.593,M,1.7,0123*60\r\n
$GPGGA,110516.30,5703.5024363,N,00952.4472117,E,2,11,0.8,-1.729,M,40.593,M,1.7,0123*6D\r\n
$GPGGA,110516.35,5703.5024025,N,00952.4471340,E,2,11,0.8,-1.729,M,40.593,M,1.7,0123*6A\r\n
$GPGGA,110516.40,5703.5023683,N,00952.4470554,E,2,11,0.8,-1.730,M,40.593,M,1.7,0123*6F\r\n
$GPGGA,110516.45,5703.5023336,N,00952.4469781,E,2,11,0.8,-1.733,M,40.593,M,1.9,0123*6E\r\n
$GPGGA,110516.50,5703.5023007,N,00952.4468995,E,2,11,0.8,-1.732,M,40.593,M,1.9,0123*60\r\n
$GPGGA,110516.55,5703.5022667,N,00952.4468222,E,2,11,0.8,-1.732,M,40.593,M,1.9,0123*63\r\n
$GPGGA,110516.60,5703.5022329,N,00952.4467435,E,2,11,0.8,-1.733,M,40.593,M,1.9,0123*64\r\n
$GPGGA,110516.65,5703.5021993,N,00952.4466656,E,2,11,0.8,-1.730,M,40.593,M,2.1,0123*67\r\n
$GPGGA,110516.70,5703.5021642,N,00952.4465877,E,2,11,0.8,-1.731,M,40.593,M,2.1,0123*6F\r\n
$GPGGA,110516.75,5703.5021291,N,00952.4465091,E,2,11,0.8,-1.732,M,40.593,M,2.1,0123*63\r\n
$GPGGA,110516.80,5703.5020940,N,00952.4464311,E,2,11,0.8,-1.732,M,40.593,M,2.1,0123*65\r\n
$GPGGA,110516.85,5703.5020586,N,00952.4463536,E,2,11,0.8,-1.731,M,40.593,M,2.3,0123*63\r\n
$GPGGA,110516.90,5703.5020231,N,00952.4462761,E,2,11,0.8,-1.731,M,40.593,M,2.3,0123*6D\r\n
$GPGGA,110516.95,5703.5019866,N,00952.4461992,E,2,11,0.8,-1.732,M,40.593,M,2.3,0123*68\r\n
$GPGGA,110517.00,5703.5019503,N,00952.4461198,E,2,11,0.8,-1.733,M,40.593,M,2.3,0123*68\r\n
$GPGGA,110517.05,5703.5019152,N,00952.4460432,E,2,11,0.8,-1.732,M,40.593,M,2.6,0123*6D\r\n
$GPGGA,110517.10,5703.5018787,N,00952.4459671,E,2,11,0.8,-1.730,M,40.593,M,2.6,0123*6B\r\n
$GPGGA,110517.15,5703.5018422,N,00952.4458897,E,2,11,0.8,-1.732,M,40.593,M,2.6,0123*67\r\n
$GPGGA,110517.20,5703.5018060,N,00952.4458124,E,2,11,0.8,-1.731,M,40.593,M,2.6,0123*61\r\n
$GPGGA,110517.25,5703.5017701,N,00952.4457367,E,2,11,0.8,-1.723,M,40.593,M,2.8,0123*6C\r\n
$GPGGA,110517.30,5703.5017345,N,00952.4456599,E,2,11,0.8,-1.719,M,40.593,M,2.8,0123*63\r\n
$GPGGA,110517.35,5703.5016974,N,00952.4455827,E,2,11,0.8,-1.720,M,40.593,M,2.8,0123*6E\r\n
$GPGGA,110517.40,5703.5016621,N,00952.4455067,E,2,11,0.8,-1.717,M,40.593,M,2.8,0123*6B\r\n
$GPGGA,110517.45,5703.5016255,N,00952.4454283,E,2,11,0.8,-1.717,M,40.593,M,3.0,0123*69\r\n
$GPGGA,110517.50,5703.5015904,N,00952.4453501,E,2,11,0.8,-1.716,M,40.593,M,3.0,0123*6A\r\n
$GPGGA,110517.55,5703.5015539,N,00952.4452741,E,2,11,0.8,-1.715,M,40.593,M,3.0,0123*69\r\n
$GPGGA,110517.60,5703.5015167,N,00952.4451977,E,2,11,0.8,-1.713,M,40.593,M,3.0,0123*6E\r\n
$GPGGA,110517.65,5703.5014795,N,00952.4451203,E,2,11,0.8,-1.712,M,40.593,M,3.2,0123*6A\r\n
$GPGGA,110517.70,5703.5014419,N,00952.4450452,E,2,11,0.8,-1.709,M,40.593,M,3.2,0123*60\r\n
$GPGGA,110517.75,5703.5014050,N,00952.4449694,E,2,11,0.8,-1.708,M,40.593,M,3.2,0123*6D\r\n
$GPGGA,110517.80,5703.5013675,N,00952.4448932,E,2,11,0.8,-1.710,M,40.593,M,3.2,0123*6A\r\n
$GPGGA,110517.85,5703.5013298,N,00952.4448182,E,2,11,0.8,-1.713,M,40.593,M,3.4,0123*6E\r\n
$GPGGA,110517.90,5703.5012918,N,00952.4447433,E,2,11,0.8,-1.714,M,40.593,M,3.4,0123*6F\r\n
$GPGGA,110517.95,5703.5012532,N,00952.4446687,E,2,11,0.8,-1.717,M,40.593,M,3.4,0123*61\r\n
$GPGGA,110518.00,5703.5012150,N,00952.4445944,E,2,11,0.8,-1.721,M,40.593,M,3.4,0123*64\r\n
$GPGGA,110518.05,5703.5011782,N,00952.4445191,E,2,11,0.8,-1.719,M,40.593,M,3.6,0123*62\r\n
$GPGGA,110518.10,5703.5011406,N,00952.4444434,E,2,11,0.8,-1.719,M,40.593,M,3.6,0123*62\r\n
$GPGGA,110518.15,5703.5011031,N,00952.4443685,E,2,11,0.8,-1.717,M,40.593,M,3.6,0123*66\r\n
$GPGGA,110518.20,5703.5010656,N,00952.4442932,E,2,11,0.8,-1.713,M,40.593,M,3.6,0123*60\r\n
$GPGGA,110518.25,5703.5010285,N,00952.4442174,E,2,11,0.8,-1.709,M,40.593,M,3.8,0123*60\r\n
$GPGGA,110518.30,5703.5009908,N,00952.4441422,E,2,11,0.8,-1.710,M,40.593,M,3.8,0123*6F\r\n
$GPGGA,110518.35,5703.5009520,N,00952.4440666,E,2,11,0.8,-1.707,M,40.593,M,3.8,0123*69\r\n
$GPGGA,110518.40,5703.5009140,N,00952.4439908,E,2,11,0.8,-1.702,M,40.593,M,3.8,0123*65\r\n
$GPGGA,110518.45,5703.5008760,N,00952.4439159,E,2,11,0.8,-1.704,M,40.593,M,2.5,0123*63\r\n
$GPGGA,110518.50,5703.5008372,N,00952.4438401,E,2,11,0.8,-1.703,M,40.593,M,2.5,0123*6E\r\n
$GPGGA,110518.55,5703.5007994,N,00952.4437648,E,2,11,0.8,-1.700,M,40.593,M,2.5,0123*65\r\n
$GPGGA,110518.60,5703.5007613,N,00952.4436878,E,2,11,0.8,-1.702,M,40.593,M,2.5,0123*6D\r\n
$GPGGA,110518.65,5703.5007239,N,00952.4436120,E,2,11,0.8,-1.702,M,40.593,M,2.7,0123*62\r\n
$GPGGA,110518.70,5703.5006856,N,00952.4435347,E,2,11,0.8,-1.701,M,40.593,M,2.7,0123*67\r\n
$GPGGA,110518.75,5703.5006457,N,00952.4434600,E,2,11,0.8,-1.701,M,40.593,M,2.7,0123*68\r\n
$GPGGA,110518.80,5703.5006067,N,00952.4433866,E,2,11,0.8,-1.700,M,40.593,M,2.7,0123*6D\r\n
$GPGGA,110518.85,5703.5005672,N,00952.4433126,E,2,11,0.8,-1.701,M,40.593,M,2.9,0123*6B\r\n
$GPGGA,110518.90,5703.5005278,N,00952.4432371,E,2,11,0.8,-1.703,M,40.593,M,2.9,0123*62\r\n
$GPGGA,110518.95,5703.5004873,N,00952.4431625,E,2,11,0.8,-1.705,M,40.593,M,2.9,0123*66\r\n
$GPGGA,110519.00,5703.5004475,N,00952.4430875,E,2,11,0.8,-1.708,M,40.593,M,2.9,0123*66\r\n
$GPGGA,110519.05,5703.5004090,N,00952.4430130,E,2,11,0.8,-1.709,M,40.593,M,3.2,0123*6F\r\n
$GPGGA,110519.10,5703.5003690,N,00952.4429387,E,2,11,0.8,-1.710,M,40.593,M,3.2,0123*64\r\n
$GPGGA,110519.15,5703.5003302,N,00952.4428635,E,2,11,0.8,-1.712,M,40.593,M,3.2,0123*60\r\n
$GPGGA,110519.20,5703.5002908,N,00952.4427880,E,2,11,0.8,-1.713,M,40.593,M,3.2,0123*69\r\n
$GPGGA,110519.25,5703.5002524,N,00952.4427135,E,2,11,0.8,-1.706,M,40.593,M,3.4,0123*6B\r\n
$GPGGA,110519.30,5703.5002141,N,00952.4426405,E,2,11,0.8,-1.702,M,40.593,M,3.4,0123*6B\r\n
$GPGGA,110519.35,5703.5001761,N,00952.4425650,E,2,11,0.8,-1.701,M,40.593,M,3.4,0123*6B\r\n
$GPGGA,110519.40,5703.5001368,N,00952.4424897,E,2,11,0.8,-1.697,M,40.593,M,3.4,0123*6E\r\n
$GPGGA,110519.45,5703.5000962,N,00952.4424153,E,2,11,0.8,-1.697,M,40.593,M,0.7,0123*6B\r\n
$GPGGA,110519.50,5703.5000571,N,00952.4423404,E,2,11,0.8,-1.698,M,40.593,M,0.7,0123*6E\r\n
$GPGGA,110519.55,5703.5000177,N,00952.4422657,E,2,11,0.8,-1.700,M,40.593,M,0.7,0123*6C\r\n
$GPGGA,110519.60,5703.4999777,N,00952.4421925,E,2,11,0.8,-1.701,M,40.593,M,0.7,0123*6C\r\n
$GPGGA,110519.65,5703.4999383,N,00952.4421183,E,2,11,0.8,-1.702,M,40.593,M,0.9,0123*6F\r\n
$GPGGA,110519.70,5703.4998997,N,00952.4420434,E,2,11,0.8,-1.700,M,40.593,M,0.9,0123*6F\r\n
$GPGGA,110519.75,5703.4998618,N,00952.4419680,E,2,11,0.8,-1.700,M,40.593,M,0.9,0123*65\r\n
$GPGGA,110519.80,5703.4998226,N,00952.4418936,E,2,11,0.8,-1.703,M,40.593,M,0.9,0123*66\r\n
$GPGGA,110519.85,5703.4997834,N,00952.4418197,E,2,11,0.8,-1.706,M,40.593,M,1.2,0123*69\r\n
$GPGGA,110519.90,5703.4997439,N,00952.4417438,E,2,11,0.8,-1.706,M,40.593,M,1.2,0123*63\r\n
$GPGGA,110519.95,5703.4997038,N,00952.4416682,E,2,11,0.8,-1.707,M,40.593,M,1.2,0123*60\r\n
$GPGGA,110520.00,5703.4996645,N,00952.4415949,E,2,11,0.8,-1.709,M,40.593,M,1.2,0123*6E\r\n
$GPGGA,110520.05,5703.4996256,N,00952.4415226,E,2,11,0.8,-1.703,M,40.593,M,1.4,0123*63\r\n
$GPGGA,110520.10,5703.4995866,N,00952.4414466,E,2,11,0.8,-1.700,M,40.593,M,1.4,0123*6D\r\n
$GPGGA,110520.15,5703.4995484,N,00952.4413710,E,2,11,0.8,-1.696,M,40.593,M,1.4,0123*63\r\n
$GPGGA,110520.20,5703.4995101,N,00952.4412956,E,2,11,0.8,-1.693,M,40.593,M,1.4,0123*65\r\n
$GPGGA,110520.25,5703.4994709,N,00952.4412198,E,2,11,0.8,-1.700,M,40.593,M,1.7,0123*6D\r\n
$GPGGA,110520.30,5703.4994307,N,00952.4411427,E,2,11,0.8,-1.701,M,40.593,M,1.7,0123*60\r\n
$GPGGA,110520.35,5703.4993915,N,00952.4410671,E,2,11,0.8,-1.701,M,40.593,M,1.7,0123*6B\r\n
$GPGGA,110520.40,5703.4993527,N,00952.4409918,E,2,11,0.8,-1.700,M,40.593,M,1.7,0123*6D\r\n
$GPGGA,110520.45,5703.4993126,N,00952.4409175,E,2,11,0.8,-1.701,M,40.593,M,1.9,0123*61\r\n
$GPGGA,110520.50,5703.4992727,N,00952.4408445,E,2,11,0.8,-1.700,M,40.593,M,1.9,0123*65\r\n
$GPGGA,110520.55,5703.4992335,N,00952.4407691,E,2,11,0.8,-1.702,M,40.593,M,1.9,0123*61\r\n
$GPGGA,110520.60,5703.4991944,N,00952.4406915,E,2,11,0.8,-1.704,M,40.593,M,1.9,0123*6C\r\n
$GPGGA,110520.65,5703.4991545,N,00952.4406166,E,2,11,0.8,-1.707,M,40.593,M,2.1,0123*60\r\n
$GPGGA,110520.70,5703.4991165,N,00952.4405430,E,2,11,0.8,-1.705,M,40.593,M,2.1,0123*65\r\n
$GPGGA,110520.75,5703.4990776,N,00952.4404698,E,2,11,0.8,-1.701,M,40.593,M,2.1,0123*60\r\n
$GPGGA,110520.80,5703.4990386,N,00952.4403938,E,2,11,0.8,-1.701,M,40.593,M,2.1,0123*63\r\n
$GPGGA,110520.85,5703.4989998,N,00952.4403159,E,2,11,0.8,-1.703,M,40.593,M,2.3,0123*64\r\n
$GPGGA,110520.90,5703.4989601,N,00952.4402388,E,2,11,0.8,-1.706,M,40.593,M,2.3,0123*65\r\n
$GPGGA,110520.95,5703.4989216,N,00952.4401632,E,2,11,0.8,-1.707,M,40.593,M,2.3,0123*64\r\n
$GPGGA,110521.00,5703.4988836,N,00952.4400880,E,2,11,0.8,-1.704,M,40.593,M,2.3,0123*65\r\n
$GPGGA,110521.05,5703.4988469,N,00952.4400101,E,2,11,0.8,-1.705,M,40.593,M,2.6,0123*62\r\n
$GPGGA,110521.10,5703.4988099,N,00952.4399337,E,2,11,0.8,-1.703,M,40.593,M,2.6,0123*6B\r\n
$GPGGA,110521.15,5703.4987719,N,00952.4398564,E,2,11,0.8,-1.704,M,40.593,M,2.6,0123*68\r\n
$GPGGA,110521.20,5703.4987336,N,00952.4397804,E,2,11,0.8,-1.705,M,40.593,M,2.6,0123*62\r\n
$GPGGA,110521.25,5703.4986956,N,00952.4397038,E,2,11,0.8,-1.701,M,40.593,M,2.8,0123*67\r\n
$GPGGA,110521.30,5703.4986569,N,00952.4396268,E,2,11,0.8,-1.703,M,40.593,M,2.8,0123*67\r\n
$GPGGA,110521.35,5703.4986173,N,00952.4395491,E,2,11,0.8,-1.706,M,40.593,M,2.8,0123*6B\r\n
$GPGGA,110521.40,5703.4985776,N,00952.4394721,E,2,11,0.8,-1.707,M,40.593,M,2.8,0123*61\r\n
$GPGGA,110521.45,5703.4985393,N,00952.4393969,E,2,11,0.8,-1.710,M,40.593,M,3.0,0123*61\r\n
$GPGGA,110521.50,5703.4985015,N,00952.4393203,E,2,11,0.8,-1.710,M,40.593,M,3.0,0123*6F\r\n
$GPGGA,110521.55,5703.4984639,N,00952.4392433,E,2,11,0.8,-1.710,M,40.593,M,3.0,0123*67\r\n
$GPGGA,110521.60,5703.4984253,N,00952.4391669,E,2,11,0.8,-1.712,M,40.593,M,3.0,0123*65\r\n
$GPGGA,110521.65,5703.4983876,N,00952.4390870,E,2,11,0.8,-1.714,M,40.593,M,3.2,0123*69\r\n
$GPGGA,110521.70,5703.4983501,N,00952.4390058,E,2,11,0.8,-1.719,M,40.593,M,3.2,0123*6F\r\n
$GPGGA,110521.75,5703.4983116,N,00952.4389258,E,2,11,0.8,-1.722,M,40.593,M,3.2,0123*6A\r\n
$GPGGA,110521.80,5703.4982747,N,00952.4388476,E,2,11,0.8,-1.722,M,40.593,M,3.2,0123*68\r\n
$GPGGA,110521.85,5703.4982373,N,00952.4387695,E,2,11,0.8,-1.717,M,40.593,M,3.4,0123*6E\r\n
$GPGGA,110521.90,5703.4982002,N,00952.4386907,E,2,11,0.8,-1.714,M,40.593,M,3.4,0123*69\r\n
$GPGGA,110521.95,5703.4981637,N,00952.4386109,E,2,11,0.8,-1.713,M,40.593,M,3.4,0123*6E\r\n
$GPGGA,110522.00,5703.4981270,N,00952.4385315,E,2,11,0.8,-1.713,M,40.593,M,3.4,0123*6A\r\n
$GPGGA,110522.05,5703.4980905,N,00952.4384528,E,2,11,0.8,-1.712,M,40.593,M,3.6,0123*6D\r\n
$GPGGA,110522.10,5703.4980533,N,00952.4383721,E,2,11,0.8,-1.712,M,40.593,M,3.6,0123*6C\r\n
$GPGGA,110522.15,5703.4980165,N,00952.4382917,E,2,11,0.8,-1.712,M,40.593,M,3.6,0123*64\r\n
$GPGGA,110522.20,5703.4979797,N,00952.4382117,E,2,11,0.8,-1.711,M,40.593,M,3.6,0123*64\r\n
$GPGGA,110522.25,5703.4979415,N,00952.4381326,E,2,11,0.8,-1.710,M,40.593,M,3.8,0123*64\r\n
$GPGGA,110522.30,5703.4979047,N,00952.4380539,E,2,11,0.8,-1.711,M,40.593,M,3.8,0123*6B\r\n
$GPGGA,110522.35,5703.4978669,N,00952.4379754,E,2,11,0.8,-1.713,M,40.593,M,3.8,0123*68\r\n
$GPGGA,110522.40,5703.4978304,N,00952.4378946,E,2,11,0.8,-1.714,M,40.593,M,3.8,0123*6F\r\n
$GPGGA,110522.45,5703.4977938,N,00952.4378147,E,2,11,0.8,-1.720,M,40.593,M,2.5,0123*62\r\n
$GPGGA,110522.50,5703.4977572,N,00952.4377320,E,2,11,0.8,-1.721,M,40.593,M,2.5,0123*69\r\n
$GPGGA,110522.55,5703.4977192,N,00952.4376485,E,2,11,0.8,-1.724,M,40.593,M,2.5,0123*6A\r\n
$GPGGA,110522.60,5703.4976828,N,00952.4375675,E,2,11,0.8,-1.725,M,40.593,M,2.5,0123*6A\r\n
$GPGGA,110522.65,5703.4976469,N,00952.4374860,E,2,11,0.8,-1.721,M,40.593,M,2.7,0123*6B\r\n
$GPGGA,110522.70,5703.4976118,N,00952.4374024,E,2,11,0.8,-1.719,M,40.593,M,2.7,0123*6F\r\n
$GPGGA,110522.75,5703.4975772,N,00952.4373177,E,2,11,0.8,-1.720,M,40.593,M,2.7,0123*69\r\n
