$GPGGA,152527.05,5700.7923985,N,00959.0274914,E,2,8,1.1,13.746,M,40.582,M,1.6,0123*40\r\n
$GPGGA,152527.10,5700.7923985,N,00959.0274913,E,2,8,1.1,13.746,M,40.582,M,1.6,0123*43\r\n
$GPGGA,152527.15,5700.7923984,N,00959.0274915,E,2,8,1.1,13.746,M,40.582,M,1.6,0123*41\r\n
$GPGGA,152527.20,5700.7923985,N,00959.0274912,E,2,8,1.1,13.746,M,40.582,M,1.6,0123*41\r\n
$GPGGA,152527.25,5700.7923992,N,00959.0274922,E,2,8,1.1,13.753,M,40.582,M,1.9,0123*4A\r\n
$GPGGA,152527.30,5700.7923990,N,00959.0274921,E,2,8,1.1,13.753,M,40.582,M,1.9,0123*4F\r\n
$GPGGA,152527.35,5700.7923992,N,00959.0274927,E,2,8,1.1,13.753,M,40.582,M,1.9,0123*4E\r\n
$GPGGA,152527.40,5700.7923989,N,00959.0274925,E,2,8,1.1,13.753,M,40.582,M,1.9,0123*44\r\n
$GPGGA,152527.45,5700.7923990,N,00959.0274923,E,2,8,1.1,13.755,M,40.582,M,2.2,0123*41\r\n
$GPGGA,152527.50,5700.7923988,N,00959.0274922,E,2,8,1.1,13.755,M,40.582,M,2.2,0123*4D\r\n
$GPGGA,152527.55,5700.7923991,N,00959.0274927,E,2,8,1.1,13.755,M,40.582,M,2.2,0123*45\r\n
$GPGGA,152527.60,5700.7923994,N,00959.0274928,E,2,8,1.1,13.755,M,40.582,M,2.2,0123*49\r\n
$GPGGA,152527.65,5700.7924004,N,00959.0274924,E,2,8,1.1,13.752,M,40.582,M,2.4,0123*46\r\n
$GPGGA,152527.70,5700.7924003,N,00959.0274922,E,2,8,1.1,13.752,M,40.582,M,2.4,0123*43\r\n
$GPGGA,152527.75,5700.7924001,N,00959.0274920,E,2,8,1.1,13.752,M,40.582,M,2.4,0123*46\r\n
$GPGGA,152527.80,5700.7924002,N,00959.0274918,E,2,8,1.1,13.752,M,40.582,M,2.4,0123*44\r\n
$GPGGA,152527.85,5700.7923989,N,00959.0274909,E,2,8,1.1,13.752,M,40.582,M,1.2,0123*49\r\n
$GPGGA,152527.90,5700.7923990,N,00959.0274906,E,2,8,1.1,13.752,M,40.582,M,1.2,0123*4A\r\n
$GPGGA,152527.95,5700.7923988,N,00959.0274908,E,2,8,1.1,13.752,M,40.582,M,1.2,0123*48\r\n
$GPGGA,152528.00,5700.7923987,N,00959.0274908,E,2,8,1.1,13.752,M,40.582,M,1.2,0123*44\r\n
$GPGGA,152528.05,5700.7923996,N,00959.0274940,E,2,8,1.1,13.762,M,40.582,M,1.4,0123*48\r\n
$GPGGA,152528.10,5700.7923995,N,00959.0274938,E,2,8,1.1,13.762,M,40.582,M,1.4,0123*40\r\n
$GPGGA,152528.15,5700.7923996,N,00959.0274938,E,2,8,1.1,13.762,M,40.582,M,1.4,0123*46\r\n
$GPGGA,152528.20,5700.7923996,N,00959.0274938,E,2,8,1.1,13.763,M,40.582,M,1.4,0123*41\r\n
$GPGGA,152528.25,5700.7923997,N,00959.0274921,E,2,8,1.1,13.754,M,40.582,M,1.6,0123*4B\r\n
$GPGGA,152528.30,5700.7923997,N,00959.0274920,E,2,8,1.1,13.755,M,40.582,M,1.6,0123*4F\r\n
$GPGGA,152528.35,5700.7923999,N,00959.0274920,E,2,8,1.1,13.755,M,40.582,M,1.6,0123*44\r\n
$GPGGA,152528.40,5700.7923998,N,00959.0274923,E,2,8,1.1,13.755,M,40.582,M,1.6,0123*44\r\n
$GPGGA,152528.45,5700.7923992,N,00959.0274932,E,2,8,1.1,13.756,M,40.582,M,1.9,0123*47\r\n
$GPGGA,152528.50,5700.7923992,N,00959.0274932,E,2,8,1.1,13.756,M,40.582,M,1.9,0123*43\r\n
$GPGGA,152528.55,5700.7923991,N,00959.0274931,E,2,8,1.1,13.756,M,40.582,M,1.9,0123*46\r\n
$GPGGA,152528.60,5700.7923993,N,00959.0274932,E,2,8,1.1,13.756,M,40.582,M,1.9,0123*41\r\n
$GPGGA,152528.65,5700.7923992,N,00959.0274930,E,2,8,1.1,13.759,M,40.582,M,2.1,0123*43\r\n
$GPGGA,152528.70,5700.7923994,N,00959.0274933,E,2,8,1.1,13.759,M,40.582,M,2.1,0123*42\r\n
$GPGGA,152528.75,5700.7923992,N,00959.0274933,E,2,8,1.1,13.759,M,40.582,M,2.1,0123*41\r\n
$GPGGA,152528.80,5700.7923991,N,00959.0274935,E,2,8,1.1,13.760,M,40.582,M,2.1,0123*44\r\n
$GPGGA,152528.85,5700.7923981,N,00959.0274932,E,2,8,1.1,13.755,M,40.582,M,2.3,0123*43\r\n
$GPGGA,152528.90,5700.7923981,N,00959.0274936,E,2,8,1.1,13.755,M,40.582,M,2.3,0123*43\r\n
$GPGGA,152528.95,5700.7923979,N,00959.0274935,E,2,8,1.1,13.755,M,40.582,M,2.3,0123*42\r\n
$GPGGA,152529.00,5700.7923978,N,00959.0274940,E,2,8,1.1,13.755,M,40.582,M,2.3,0123*4C\r\n
$GPGGA,152529.05,5700.7923987,N,00959.0274960,E,2,8,1.1,13.761,M,40.582,M,2.5,0123*4A\r\n
$GPGGA,152529.10,5700.7923987,N,00959.0274958,E,2,8,1.1,13.762,M,40.582,M,2.5,0123*46\r\n
$GPGGA,152529.15,5700.7923986,N,00959.0274962,E,2,8,1.1,13.762,M,40.582,M,2.5,0123*4B\r\n
$GPGGA,152529.20,5700.7923985,N,00959.0274963,E,2,8,1.1,13.762,M,40.582,M,2.5,0123*4F\r\n
$GPGGA,152529.25,5700.7923993,N,00959.0274956,E,2,8,1.1,13.763,M,40.582,M,2.7,0123*48\r\n
$GPGGA,152529.30,5700.7923993,N,00959.0274958,E,2,8,1.1,13.763,M,40.582,M,2.7,0123*42\r\n
$GPGGA,152529.35,5700.7923994,N,00959.0274956,E,2,8,1.1,13.763,M,40.582,M,2.7,0123*4E\r\n
$GPGGA,152529.40,5700.7923994,N,00959.0274964,E,2,8,1.1,13.764,M,40.582,M,2.7,0123*4A\r\n
$GPGGA,152529.45,5700.7923995,N,00959.0274969,E,2,8,1.1,13.764,M,40.582,M,2.9,0123*4D\r\n
$GPGGA,152529.50,5700.7923995,N,00959.0274965,E,2,8,1.1,13.764,M,40.582,M,2.9,0123*45\r\n
$GPGGA,152529.55,5700.7923996,N,00959.0274961,E,2,8,1.1,13.765,M,40.582,M,2.9,0123*46\r\n
$GPGGA,152529.60,5700.7923995,N,00959.0274967,E,2,8,1.1,13.765,M,40.582,M,2.9,0123*45\r\n
$GPGGA,152529.65,5700.7923985,N,00959.0274957,E,2,8,1.1,13.767,M,40.582,M,3.1,0123*49\r\n
$GPGGA,152529.70,5700.7923988,N,00959.0274956,E,2,8,1.1,13.768,M,40.582,M,3.1,0123*4E\r\n
$GPGGA,152529.75,5700.7923987,N,00959.0274954,E,2,8,1.1,13.768,M,40.582,M,3.1,0123*46\r\n
$GPGGA,152529.80,5700.7923987,N,00959.0274954,E,2,8,1.1,13.769,M,40.582,M,3.1,0123*4D\r\n
$GPGGA,152529.85,5700.7923998,N,00959.0274950,E,2,8,1.1,13.766,M,40.582,M,2.4,0123*49\r\n
$GPGGA,152529.90,5700.7923999,N,00959.0274954,E,2,8,1.1,13.766,M,40.582,M,2.4,0123*48\r\n
$GPGGA,152529.95,5700.7924002,N,00959.0274952,E,2,8,1.1,13.767,M,40.582,M,2.4,0123*46\r\n
$GPGGA,152530.00,5700.7924002,N,00959.0274952,E,2,8,1.1,13.767,M,40.582,M,2.4,0123*42\r\n
$GPGGA,152530.05,5700.7923998,N,00959.0274972,E,2,8,1.1,13.768,M,40.582,M,2.7,0123*44\r\n
$GPGGA,152530.10,5700.7923998,N,00959.0274971,E,2,8,1.1,13.768,M,40.582,M,2.7,0123*43\r\n
$GPGGA,152530.15,5700.7923997,N,00959.0274973,E,2,8,1.1,13.769,M,40.582,M,2.7,0123*4A\r\n
$GPGGA,152530.20,5700.7923998,N,00959.0274973,E,2,8,1.1,13.769,M,40.582,M,2.7,0123*43\r\n
$GPGGA,152530.25,5700.7923989,N,00959.0274961,E,2,8,1.1,13.764,M,40.582,M,3.0,0123*4E\r\n
$GPGGA,152530.30,5700.7923990,N,00959.0274961,E,2,8,1.1,13.764,M,40.582,M,3.0,0123*42\r\n
$GPGGA,152530.35,5700.7923989,N,00959.0274966,E,2,8,1.1,13.764,M,40.582,M,3.0,0123*48\r\n
$GPGGA,152530.40,5700.7923990,N,00959.0274967,E,2,8,1.1,13.764,M,40.582,M,3.0,0123*43\r\n
$GPGGA,152530.45,5700.7924008,N,00959.0274991,E,2,8,1.1,13.777,M,40.582,M,3.2,0123*40\r\n
$GPGGA,152530.50,5700.7924007,N,00959.0274991,E,2,8,1.1,13.778,M,40.582,M,3.2,0123*44\r\n
$GPGGA,152530.55,5700.7924006,N,00959.0274988,E,2,8,1.1,13.778,M,40.582,M,3.2,0123*48\r\n
$GPGGA,152530.60,5700.7924006,N,00959.0274987,E,2,8,1.1,13.779,M,40.582,M,3.2,0123*40\r\n
$GPGGA,152530.65,5700.7923996,N,00959.0274944,E,2,8,1.1,13.766,M,40.582,M,3.5,0123*44\r\n
$GPGGA,152530.70,5700.7923997,N,00959.0274944,E,2,8,1.1,13.766,M,40.582,M,3.5,0123*41\r\n
$GPGGA,152530.75,5700.7923997,N,00959.0274945,E,2,8,1.1,13.766,M,40.582,M,3.5,0123*45\r\n
$GPGGA,152530.80,5700.7923997,N,00959.0274946,E,2,8,1.1,13.766,M,40.582,M,3.5,0123*4C\r\n
$GPGGA,152530.85,5700.7924007,N,00959.0274977,E,2,8,1.1,13.771,M,40.582,M,1.4,0123*49\r\n
$GPGGA,152530.90,5700.7924008,N,00959.0274975,E,2,8,1.1,13.771,M,40.582,M,1.4,0123*40\r\n
$GPGGA,152530.95,5700.7924009,N,00959.0274975,E,2,8,1.1,13.771,M,40.582,M,1.4,0123*44\r\n
$GPGGA,152531.00,5700.7924011,N,00959.0274980,E,2,8,1.1,13.772,M,40.582,M,1.4,0123*49\r\n
$GPGGA,152531.05,5700.7924017,N,00959.0274983,E,2,8,1.1,13.769,M,40.582,M,1.6,0123*41\r\n
$GPGGA,152531.10,5700.7924019,N,00959.0274978,E,2,8,1.1,13.769,M,40.582,M,1.6,0123*4F\r\n
$GPGGA,152531.15,5700.7924020,N,00959.0274978,E,2,8,1.1,13.769,M,40.582,M,1.6,0123*40\r\n
$GPGGA,152531.20,5700.7924021,N,00959.0274979,E,2,8,1.1,13.769,M,40.582,M,1.6,0123*46\r\n
$GPGGA,152531.25,5700.7924021,N,00959.0274968,E,2,8,1.1,13.768,M,40.582,M,1.9,0123*4D\r\n
$GPGGA,152531.30,5700.7924022,N,00959.0274970,E,2,8,1.1,13.767,M,40.582,M,1.9,0123*4C\r\n
$GPGGA,152531.35,5700.7924025,N,00959.0274970,E,2,8,1.1,13.767,M,40.582,M,1.9,0123*4E\r\n
$GPGGA,152531.40,5700.7924026,N,00959.0274974,E,2,8,1.1,13.767,M,40.582,M,1.9,0123*4B\r\n
$GPGGA,152531.45,5700.7924036,N,00959.0275000,E,2,8,1.1,13.774,M,40.582,M,2.2,0123*4E\r\n
$GPGGA,152531.50,5700.7924036,N,00959.0275000,E,2,8,1.1,13.775,M,40.582,M,2.2,0123*4B\r\n
$GPGGA,152531.55,5700.7924036,N,00959.0275000,E,2,8,1.1,13.775,M,40.582,M,2.2,0123*4E\r\n
$GPGGA,152531.60,5700.7924037,N,00959.0274999,E,2,8,1.1,13.775,M,40.582,M,2.2,0123*41\r\n
$GPGGA,152531.65,5700.7924017,N,00959.0274972,E,2,8,1.1,13.768,M,40.582,M,2.4,0123*49\r\n
$GPGGA,152531.70,5700.7924020,N,00959.0274974,E,2,8,1.1,13.768,M,40.582,M,2.4,0123*4F\r\n
$GPGGA,152531.75,5700.7924022,N,00959.0274977,E,2,8,1.1,13.768,M,40.582,M,2.4,0123*4B\r\n
$GPGGA,152531.80,5700.7924021,N,00959.0274977,E,2,8,1.1,13.768,M,40.582,M,2.4,0123*42\r\n
$GPGGA,152531.85,5700.7924034,N,00959.0275000,E,2,8,1.1,13.772,M,40.582,M,1.2,0123*45\r\n
$GPGGA,152531.90,5700.7924034,N,00959.0274997,E,2,8,1.1,13.772,M,40.582,M,1.2,0123*47\r\n
$GPGGA,152531.95,5700.7924033,N,00959.0274995,E,2,8,1.1,13.772,M,40.582,M,1.2,0123*47\r\n
$GPGGA,152532.00,5700.7924035,N,00959.0274994,E,2,8,1.1,13.772,M,40.582,M,1.2,0123*4F\r\n
$GPGGA,152532.05,5700.7924011,N,00959.0274962,E,2,8,1.1,13.766,M,40.582,M,1.4,0123*46\r\n
$GPGGA,152532.10,5700.7924010,N,00959.0274965,E,2,8,1.1,13.766,M,40.582,M,1.4,0123*44\r\n
$GPGGA,152532.15,5700.7924012,N,00959.0274967,E,2,8,1.1,13.766,M,40.582,M,1.4,0123*41\r\n
$GPGGA,152532.20,5700.7924013,N,00959.0274967,E,2,8,1.1,13.765,M,40.582,M,1.4,0123*45\r\n
$GPGGA,152532.25,5700.7924030,N,00959.0275001,E,2,8,1.1,13.771,M,40.582,M,1.6,0123*4E\r\n
$GPGGA,152532.30,5700.7924030,N,00959.0275001,E,2,8,1.1,13.771,M,40.582,M,1.6,0123*4A\r\n
$GPGGA,152532.35,5700.7924029,N,00959.0275000,E,2,8,1.1,13.771,M,40.582,M,1.6,0123*46\r\n
$GPGGA,152532.40,5700.7924029,N,00959.0274999,E,2,8,1.1,13.771,M,40.582,M,1.6,0123*4C\r\n
$GPGGA,152532.45,5700.7924021,N,00959.0274981,E,2,8,1.1,13.772,M,40.582,M,1.9,0123*44\r\n
$GPGGA,152532.50,5700.7924021,N,00959.0274978,E,2,8,1.1,13.772,M,40.582,M,1.9,0123*46\r\n
$GPGGA,152532.55,5700.7924021,N,00959.0274977,E,2,8,1.1,13.772,M,40.582,M,1.9,0123*4C\r\n
$GPGGA,152532.60,5700.7924020,N,00959.0274978,E,2,8,1.1,13.772,M,40.582,M,1.9,0123*44\r\n
$GPGGA,152532.65,5700.7924016,N,00959.0274967,E,2,8,1.1,13.766,M,40.582,M,2.1,0123*44\r\n
$GPGGA,152532.70,5700.7924016,N,00959.0274972,E,2,8,1.1,13.766,M,40.582,M,2.1,0123*44\r\n
$GPGGA,152532.75,5700.7924016,N,00959.0274971,E,2,8,1.1,13.765,M,40.582,M,2.1,0123*41\r\n
$GPGGA,152532.80,5700.7924015,N,00959.0274968,E,2,8,1.1,13.765,M,40.582,M,2.1,0123*40\r\n
$GPGGA,152532.85,5700.7924030,N,00959.0274993,E,2,8,1.1,13.772,M,40.582,M,2.3,0123*42\r\n
$GPGGA,152532.90,5700.7924027,N,00959.0274993,E,2,8,1.1,13.772,M,40.582,M,2.3,0123*40\r\n
$GPGGA,152532.95,5700.7924027,N,00959.0274995,E,2,8,1.1,13.772,M,40.582,M,2.3,0123*43\r\n
$GPGGA,152533.00,5700.7924028,N,00959.0274991,E,2,8,1.1,13.772,M,40.582,M,2.3,0123*45\r\n
$GPGGA,152533.05,5700.7924018,N,00959.0274974,E,2,8,1.1,13.770,M,40.582,M,2.5,0123*4C\r\n
$GPGGA,152533.10,5700.7924017,N,00959.0274975,E,2,8,1.1,13.770,M,40.582,M,2.5,0123*46\r\n
$GPGGA,152533.15,5700.7924015,N,00959.0274976,E,2,8,1.1,13.770,M,40.582,M,2.5,0123*42\r\n
$GPGGA,152533.20,5700.7924015,N,00959.0274977,E,2,8,1.1,13.770,M,40.582,M,2.5,0123*45\r\n
$GPGGA,152533.25,5700.7924012,N,00959.0274992,E,2,8,1.1,13.770,M,40.582,M,2.7,0123*4E\r\n
$GPGGA,152533.30,5700.7924011,N,00959.0274994,E,2,8,1.1,13.770,M,40.582,M,2.7,0123*4F\r\n
$GPGGA,152533.35,5700.7924012,N,00959.0274995,E,2,8,1.1,13.770,M,40.582,M,2.7,0123*48\r\n
$GPGGA,152533.40,5700.7924010,N,00959.0274994,E,2,8,1.1,13.770,M,40.582,M,2.7,0123*49\r\n
$GPGGA,152533.45,5700.7924019,N,00959.0274988,E,2,8,1.1,13.771,M,40.582,M,2.9,0123*47\r\n
$GPGGA,152533.50,5700.7924020,N,00959.0274985,E,2,8,1.1,13.771,M,40.582,M,2.9,0123*44\r\n
$GPGGA,152533.55,5700.7924019,N,00959.0274986,E,2,8,1.1,13.771,M,40.582,M,2.9,0123*48\r\n
$GPGGA,152533.60,5700.7924019,N,00959.0274986,E,2,8,1.1,13.771,M,40.582,M,2.9,0123*4E\r\n
$GPGGA,152533.65,5700.7924021,N,00959.0274976,E,2,8,1.1,13.770,M,40.582,M,3.1,0123*47\r\n
$GPGGA,152533.70,5700.7924022,N,00959.0274977,E,2,8,1.1,13.770,M,40.582,M,3.1,0123*41\r\n
$GPGGA,152533.75,5700.7924021,N,00959.0274977,E,2,8,1.1,13.770,M,40.582,M,3.1,0123*47\r\n
$GPGGA,152533.80,5700.7924023,N,00959.0274977,E,2,8,1.1,13.770,M,40.582,M,3.1,0123*4F\r\n
$GPGGA,152533.85,5700.7924027,N,00959.0274997,E,2,8,1.1,13.772,M,40.582,M,2.4,0123*46\r\n
$GPGGA,152533.90,5700.7924027,N,00959.0274996,E,2,8,1.1,13.772,M,40.582,M,2.4,0123*43\r\n
$GPGGA,152533.95,5700.7924027,N,00959.0274995,E,2,8,1.1,13.773,M,40.582,M,2.4,0123*44\r\n
$GPGGA,152534.00,5700.7924027,N,00959.0274998,E,2,8,1.1,13.773,M,40.582,M,2.4,0123*42\r\n
$GPGGA,152534.05,5700.7924018,N,00959.0274985,E,2,8,1.1,13.770,M,40.582,M,2.7,0123*47\r\n
$GPGGA,152534.10,5700.7924016,N,00959.0274985,E,2,8,1.1,13.770,M,40.582,M,2.7,0123*4D\r\n
$GPGGA,152534.15,5700.7924017,N,00959.0274981,E,2,8,1.1,13.771,M,40.582,M,2.7,0123*4C\r\n
$GPGGA,152534.20,5700.7924016,N,00959.0274985,E,2,8,1.1,13.771,M,40.582,M,2.7,0123*4F\r\n
$GPGGA,152534.25,5700.7924009,N,00959.0274979,E,2,8,1.1,13.767,M,40.582,M,3.0,0123*46\r\n
$GPGGA,152534.30,5700.7924009,N,00959.0274976,E,2,8,1.1,13.767,M,40.582,M,3.0,0123*4D\r\n
$GPGGA,152534.35,5700.7924010,N,00959.0274975,E,2,8,1.1,13.767,M,40.582,M,3.0,0123*43\r\n
$GPGGA,152534.40,5700.7924010,N,00959.0274975,E,2,8,1.1,13.767,M,40.582,M,3.0,0123*41\r\n
$GPGGA,152534.45,5700.7924025,N,00959.0274984,E,2,8,1.1,13.776,M,40.582,M,3.2,0123*4E\r\n
$GPGGA,152534.50,5700.7924026,N,00959.0274983,E,2,8,1.1,13.777,M,40.582,M,3.2,0123*4F\r\n
$GPGGA,152534.55,5700.7924027,N,00959.0274985,E,2,8,1.1,13.777,M,40.582,M,3.2,0123*4D\r\n
$GPGGA,152534.60,5700.7924028,N,00959.0274983,E,2,8,1.1,13.777,M,40.582,M,3.2,0123*42\r\n
$GPGGA,152534.65,5700.7924029,N,00959.0274984,E,2,8,1.1,13.767,M,40.582,M,3.5,0123*47\r\n
$GPGGA,152534.70,5700.7924028,N,00959.0274982,E,2,8,1.1,13.767,M,40.582,M,3.5,0123*44\r\n
$GPGGA,152534.75,5700.7924027,N,00959.0274983,E,2,8,1.1,13.767,M,40.582,M,3.5,0123*4F\r\n
$GPGGA,152534.80,5700.7924029,N,00959.0274984,E,2,8,1.1,13.766,M,40.582,M,3.5,0123*4D\r\n
$GPGGA,152534.85,5700.7924016,N,00959.0274985,E,2,8,1.1,13.769,M,40.582,M,1.4,0123*49\r\n
$GPGGA,152534.90,5700.7924017,N,00959.0274989,E,2,8,1.1,13.768,M,40.582,M,1.4,0123*41\r\n
$GPGGA,152534.95,5700.7924017,N,00959.0274992,E,2,8,1.1,13.768,M,40.582,M,1.4,0123*4E\r\n
$GPGGA,152535.00,5700.7924016,N,00959.0274990,E,2,8,1.1,13.768,M,40.582,M,1.4,0123*40\r\n
$GPGGA,152535.05,5700.7924012,N,00959.0274983,E,2,8,1.1,13.768,M,40.582,M,1.6,0123*41\r\n
$GPGGA,152535.10,5700.7924014,N,00959.0274981,E,2,8,1.1,13.768,M,40.582,M,1.6,0123*41\r\n
$GPGGA,152535.15,5700.7924014,N,00959.0274984,E,2,8,1.1,13.768,M,40.582,M,1.6,0123*41\r\n
$GPGGA,152535.20,5700.7924012,N,00959.0274988,E,2,8,1.1,13.768,M,40.582,M,1.6,0123*4D\r\n
$GPGGA,152535.25,5700.7924014,N,00959.0274990,E,2,8,1.1,13.770,M,40.582,M,1.9,0123*41\r\n
$GPGGA,152535.30,5700.7924013,N,00959.0274987,E,2,8,1.1,13.770,M,40.582,M,1.9,0123*44\r\n
$GPGGA,152535.35,5700.7924013,N,00959.0274987,E,2,8,1.1,13.770,M,40.582,M,1.9,0123*41\r\n
$GPGGA,152535.40,5700.7924015,N,00959.0274986,E,2,8,1.1,13.770,M,40.582,M,1.9,0123*44\r\n
$GPGGA,152535.45,5700.7924021,N,00959.0274982,E,2,8,1.1,13.771,M,40.582,M,2.2,0123*4B\r\n
$GPGGA,152535.50,5700.7924021,N,00959.0274980,E,2,8,1.1,13.771,M,40.582,M,2.2,0123*4D\r\n
$GPGGA,152535.55,5700.7924020,N,00959.0274982,E,2,8,1.1,13.771,M,40.582,M,2.2,0123*4B\r\n
$GPGGA,152535.60,5700.7924019,N,00959.0274981,E,2,8,1.1,13.771,M,40.582,M,2.2,0123*44\r\n
$GPGGA,152535.65,5700.7924007,N,00959.0274976,E,2,8,1.1,13.767,M,40.582,M,2.4,0123*47\r\n
$GPGGA,152535.70,5700.7924006,N,00959.0274975,E,2,8,1.1,13.767,M,40.582,M,2.4,0123*41\r\n
$GPGGA,152535.75,5700.7924006,N,00959.0274977,E,2,8,1.1,13.767,M,40.582,M,2.4,0123*46\r\n
$GPGGA,152535.80,5700.7924006,N,00959.0274985,E,2,8,1.1,13.767,M,40.582,M,2.4,0123*41\r\n
$GPGGA,152535.85,5700.7924014,N,00959.0275001,E,2,8,1.1,13.771,M,40.582,M,1.2,0123*41\r\n
$GPGGA,152535.90,5700.7924012,N,00959.0274998,E,2,8,1.1,13.770,M,40.582,M,1.2,0123*4A\r\n
$GPGGA,152535.95,5700.7924013,N,00959.0274995,E,2,8,1.1,13.770,M,40.582,M,1.2,0123*43\r\n
$GPGGA,152536.00,5700.7924013,N,00959.0274991,E,2,8,1.1,13.770,M,40.582,M,1.2,0123*48\r\n
$GPGGA,152536.05,5700.7924007,N,00959.0274960,E,2,8,1.1,13.769,M,40.582,M,1.4,0123*48\r\n
$GPGGA,152536.10,5700.7924006,N,00959.0274962,E,2,8,1.1,13.769,M,40.582,M,1.4,0123*4F\r\n
$GPGGA,152536.15,5700.7924005,N,00959.0274969,E,2,8,1.1,13.769,M,40.582,M,1.4,0123*42\r\n
$GPGGA,152536.20,5700.7924006,N,00959.0274970,E,2,8,1.1,13.769,M,40.582,M,1.4,0123*4F\r\n
$GPGGA,152536.25,5700.7924013,N,00959.0274997,E,2,8,1.1,13.772,M,40.582,M,1.6,0123*4F\r\n
$GPGGA,152536.30,5700.7924011,N,00959.0274995,E,2,8,1.1,13.772,M,40.582,M,1.6,0123*4B\r\n
$GPGGA,152536.35,5700.7924011,N,00959.0274996,E,2,8,1.1,13.772,M,40.582,M,1.6,0123*4D\r\n
$GPGGA,152536.40,5700.7924014,N,00959.0275000,E,2,8,1.1,13.772,M,40.582,M,1.6,0123*4D\r\n
$GPGGA,152536.45,5700.7924020,N,00959.0274988,E,2,8,1.1,13.771,M,40.582,M,1.9,0123*4B\r\n
$GPGGA,152536.50,5700.7924021,N,00959.0274988,E,2,8,1.1,13.771,M,40.582,M,1.9,0123*4E\r\n
$GPGGA,152536.55,5700.7924022,N,00959.0274986,E,2,8,1.1,13.771,M,40.582,M,1.9,0123*46\r\n
$GPGGA,152536.60,5700.7924021,N,00959.0274980,E,2,8,1.1,13.771,M,40.582,M,1.9,0123*45\r\n
$GPGGA,152536.65,5700.7924009,N,00959.0274959,E,2,8,1.1,13.765,M,40.582,M,2.1,0123*40\r\n
$GPGGA,152536.70,5700.7924010,N,00959.0274964,E,2,8,1.1,13.765,M,40.582,M,2.1,0123*42\r\n
$GPGGA,152536.75,5700.7924010,N,00959.0274959,E,2,8,1.1,13.765,M,40.582,M,2.1,0123*49\r\n
$GPGGA,152536.80,5700.7924009,N,00959.0274963,E,2,8,1.1,13.765,M,40.582,M,2.1,0123*42\r\n
$GPGGA,152536.85,5700.7924006,N,00959.0275000,E,2,8,1.1,13.773,M,40.582,M,2.3,0123*40\r\n
$GPGGA,152536.90,5700.7924006,N,00959.0274996,E,2,8,1.1,13.773,M,40.582,M,2.3,0123*43\r\n
$GPGGA,152536.95,5700.7924006,N,00959.0274992,E,2,8,1.1,13.773,M,40.582,M,2.3,0123*42\r\n
$GPGGA,152537.00,5700.7924006,N,00959.0274994,E,2,8,1.1,13.774,M,40.582,M,2.3,0123*4E\r\n
$GPGGA,152537.05,5700.7924003,N,00959.0274959,E,2,8,1.1,13.766,M,40.582,M,2.5,0123*4A\r\n
$GPGGA,152537.10,5700.7924004,N,00959.0274961,E,2,8,1.1,13.766,M,40.582,M,2.5,0123*42\r\n
$GPGGA,152537.15,5700.7924003,N,00959.0274962,E,2,8,1.1,13.766,M,40.582,M,2.5,0123*43\r\n
$GPGGA,152537.20,5700.7924002,N,00959.0274960,E,2,8,1.1,13.766,M,40.582,M,2.5,0123*46\r\n
$GPGGA,152537.25,5700.7924010,N,00959.0274983,E,2,8,1.1,13.771,M,40.582,M,2.7,0123*49\r\n
$GPGGA,152537.30,5700.7924010,N,00959.0274986,E,2,8,1.1,13.772,M,40.582,M,2.7,0123*4B\r\n
$GPGGA,152537.35,5700.7924010,N,00959.0274986,E,2,8,1.1,13.772,M,40.582,M,2.7,0123*4E\r\n
$GPGGA,152537.40,5700.7924008,N,00959.0274986,E,2,8,1.1,13.772,M,40.582,M,2.7,0123*45\r\n
$GPGGA,152537.45,5700.7923999,N,00959.0274978,E,2,8,1.1,13.768,M,40.582,M,2.9,0123*42\r\n
$GPGGA,152537.50,5700.7924002,N,00959.0274977,E,2,8,1.1,13.768,M,40.582,M,2.9,0123*45\r\n
$GPGGA,152537.55,5700.7924003,N,00959.0274977,E,2,8,1.1,13.768,M,40.582,M,2.9,0123*41\r\n
$GPGGA,152537.60,5700.7924003,N,00959.0274979,E,2,8,1.1,13.768,M,40.582,M,2.9,0123*49\r\n
$GPGGA,152537.65,5700.7924009,N,00959.0274982,E,2,8,1.1,13.766,M,40.582,M,3.1,0123*45\r\n
$GPGGA,152537.70,5700.7924009,N,00959.0274983,E,2,8,1.1,13.766,M,40.582,M,3.1,0123*40\r\n
$GPGGA,152537.75,5700.7924011,N,00959.0274979,E,2,8,1.1,13.766,M,40.582,M,3.1,0123*49\r\n
$GPGGA,152537.80,5700.7924011,N,00959.0274983,E,2,8,1.1,13.766,M,40.582,M,3.1,0123*46\r\n
$GPGGA,152537.85,5700.7924009,N,00959.0274987,E,2,8,1.1,13.768,M,40.582,M,2.4,0123*44\r\n
$GPGGA,152537.90,5700.7924009,N,00959.0274988,E,2,8,1.1,13.768,M,40.582,M,2.4,0123*4F\r\n
$GPGGA,152537.95,5700.7924007,N,00959.0274989,E,2,8,1.1,13.768,M,40.582,M,2.4,0123*45\r\n
$GPGGA,152538.00,5700.7924007,N,00959.0274993,E,2,8,1.1,13.768,M,40.582,M,2.4,0123*4D\r\n
$GPGGA,152538.05,5700.7924001,N,00959.0274989,E,2,8,1.1,13.767,M,40.582,M,2.7,0123*49\r\n
$GPGGA,152538.10,5700.7924000,N,00959.0274986,E,2,8,1.1,13.767,M,40.582,M,2.7,0123*43\r\n
$GPGGA,152538.15,5700.7924000,N,00959.0274986,E,2,8,1.1,13.767,M,40.582,M,2.7,0123*46\r\n
$GPGGA,152538.20,5700.7923999,N,00959.0274987,E,2,8,1.1,13.767,M,40.582,M,2.7,0123*4F\r\n
$GPGGA,152538.25,5700.7923999,N,00959.0274973,E,2,8,1.1,13.770,M,40.582,M,3.0,0123*41\r\n
$GPGGA,152538.30,5700.7923999,N,00959.0274975,E,2,8,1.1,13.770,M,40.582,M,3.0,0123*43\r\n
$GPGGA,152538.35,5700.7923998,N,00959.0274973,E,2,8,1.1,13.770,M,40.582,M,3.0,0123*41\r\n
$GPGGA,152538.40,5700.7923996,N,00959.0274972,E,2,8,1.1,13.770,M,40.582,M,3.0,0123*4C\r\n
$GPGGA,152538.45,5700.7923999,N,00959.0274978,E,2,8,1.1,13.770,M,40.582,M,3.2,0123*4E\r\n
$GPGGA,152538.50,5700.7923999,N,00959.0274981,E,2,8,1.1,13.771,M,40.582,M,3.2,0123*4D\r\n
$GPGGA,152538.55,5700.7924001,N,00959.0274980,E,2,8,1.1,13.771,M,40.582,M,3.2,0123*46\r\n
$GPGGA,152538.60,5700.7923999,N,00959.0274981,E,2,8,1.1,13.771,M,40.582,M,3.2,0123*4E\r\n
$GPGGA,152538.65,5700.7924008,N,00959.0274986,E,2,8,1.1,13.772,M,40.582,M,3.5,0123*4E\r\n
$GPGGA,152538.70,5700.7924007,N,00959.0274987,E,2,8,1.1,13.772,M,40.582,M,3.5,0123*44\r\n
$GPGGA,152538.75,5700.7924009,N,00959.0274985,E,2,8,1.1,13.772,M,40.582,M,3.5,0123*4D\r\n
$GPGGA,152538.80,5700.7924008,N,00959.0274984,E,2,8,1.1,13.772,M,40.582,M,3.5,0123*47\r\n
$GPGGA,152538.85,5700.7923994,N,00959.0274971,E,2,8,1.1,13.768,M,40.582,M,1.4,0123*4B\r\n
$GPGGA,152538.90,5700.7923996,N,00959.0274968,E,2,8,1.1,13.768,M,40.582,M,1.4,0123*45\r\n
$GPGGA,152538.95,5700.7923998,N,00959.0274962,E,2,8,1.1,13.768,M,40.582,M,1.4,0123*44\r\n
$GPGGA,152539.00,5700.7924000,N,00959.0274962,E,2,8,1.1,13.768,M,40.582,M,1.4,0123*46\r\n
$GPGGA,152539.05,5700.7924024,N,00959.0274954,E,2,8,1.1,13.773,M,40.582,M,1.6,0123*48\r\n
$GPGGA,152539.10,5700.7924025,N,00959.0274950,E,2,8,1.1,13.774,M,40.582,M,1.6,0123*4E\r\n
$GPGGA,152539.15,5700.7924026,N,00959.0274938,E,2,8,1.1,13.774,M,40.582,M,1.6,0123*46\r\n
$GPGGA,152539.20,5700.7924028,N,00959.0274919,E,2,8,1.1,13.775,M,40.582,M,1.6,0123*4C\r\n
$GPGGA,152539.25,5700.7924050,N,00959.0274848,E,2,8,1.1,13.802,M,40.582,M,1.9,0123*43\r\n
$GPGGA,152539.30,5700.7924062,N,00959.0274814,E,2,8,1.1,13.811,M,40.582,M,1.9,0123*4D\r\n
$GPGGA,152539.35,5700.7924074,N,00959.0274780,E,2,8,1.1,13.821,M,40.582,M,1.9,0123*4E\r\n
$GPGGA,152539.40,5700.7924088,N,00959.0274750,E,2,8,1.1,13.832,M,40.582,M,1.9,0123*40\r\n
$GPGGA,152539.45,5700.7924090,N,00959.0274691,E,2,8,1.1,13.844,M,40.582,M,2.2,0123*49\r\n
$GPGGA,152539.50,5700.7924081,N,00959.0274614,E,2,8,1.1,13.851,M,40.582,M,2.2,0123*44\r\n
$GPGGA,152539.55,5700.7924082,N,00959.0274545,E,2,8,1.1,13.862,M,40.582,M,2.2,0123*45\r\n
$GPGGA,152539.60,5700.7924089,N,00959.0274480,E,2,8,1.1,13.875,M,40.582,M,2.2,0123*46\r\n
$GPGGA,152539.65,5700.7924083,N,00959.0274395,E,2,8,1.1,13.886,M,40.582,M,2.4,0123*40\r\n
$GPGGA,152539.70,5700.7924086,N,00959.0274306,E,2,8,1.1,13.893,M,40.582,M,2.4,0123*4F\r\n
$GPGGA,152539.75,5700.7924087,N,00959.0274228,E,2,8,1.1,13.903,M,40.582,M,2.4,0123*4E\r\n
$GPGGA,152539.80,5700.7924093,N,00959.0274173,E,2,8,1.1,13.914,M,40.582,M,2.4,0123*4A\r\n
$GPGGA,152539.85,5700.7924105,N,00959.0274112,E,2,8,1.1,13.923,M,40.582,M,1.2,0123*47\r\n
$GPGGA,152539.90,5700.7924112,N,00959.0274041,E,2,8,1.1,13.933,M,40.582,M,1.2,0123*43\r\n
$GPGGA,152539.95,5700.7924114,N,00959.0273949,E,2,8,1.1,13.940,M,40.582,M,1.2,0123*42\r\n
$GPGGA,152540.00,5700.7924121,N,00959.0273852,E,2,8,1.1,13.948,M,40.582,M,1.2,0123*45\r\n
$GPGGA,152540.05,5700.7924118,N,00959.0273770,E,2,8,1.1,13.961,M,40.582,M,1.4,0123*48\r\n
$GPGGA,152540.10,5700.7924119,N,00959.0273683,E,2,8,1.1,13.971,M,40.582,M,1.4,0123*41\r\n
$GPGGA,152540.15,5700.7924126,N,00959.0273586,E,2,8,1.1,13.979,M,40.582,M,1.4,0123*46\r\n
$GPGGA,152540.20,5700.7924136,N,00959.0273507,E,2,8,1.1,13.989,M,40.582,M,1.4,0123*47\r\n
$GPGGA,152540.25,5700.7924153,N,00959.0273437,E,2,8,1.1,14.003,M,40.582,M,1.6,0123*4D\r\n
$GPGGA,152540.30,5700.7924166,N,00959.0273354,E,2,8,1.1,14.014,M,40.582,M,1.6,0123*4B\r\n
$GPGGA,152540.35,5700.7924178,N,00959.0273271,E,2,8,1.1,14.025,M,40.582,M,1.6,0123*45\r\n
$GPGGA,152540.40,5700.7924190,N,00959.0273183,E,2,8,1.1,14.034,M,40.582,M,1.6,0123*4F\r\n
$GPGGA,152540.45,5700.7924198,N,00959.0273104,E,2,8,1.1,14.044,M,40.582,M,1.9,0123*45\r\n
$GPGGA,152540.50,5700.7924219,N,00959.0273034,E,2,8,1.1,14.055,M,40.582,M,1.9,0123*49\r\n
$GPGGA,152540.55,5700.7924233,N,00959.0272968,E,2,8,1.1,14.065,M,40.582,M,1.9,0123*46\r\n
$GPGGA,152540.60,5700.7924250,N,00959.0272898,E,2,8,1.1,14.072,M,40.582,M,1.9,0123*4D\r\n
$GPGGA,152540.65,5700.7924258,N,00959.0272822,E,2,8,1.1,14.077,M,40.582,M,2.1,0123*4F\r\n
$GPGGA,152540.70,5700.7924270,N,00959.0272768,E,2,8,1.1,14.085,M,40.582,M,2.1,0123*4D\r\n
$GPGGA,152540.75,5700.7924279,N,00959.0272713,E,2,8,1.1,14.092,M,40.582,M,2.1,0123*4B\r\n
$GPGGA,152540.80,5700.7924288,N,00959.0272663,E,2,8,1.1,14.098,M,40.582,M,2.1,0123*43\r\n
$GPGGA,152540.85,5700.7924300,N,00959.0272614,E,2,8,1.1,14.101,M,40.582,M,2.3,0123*44\r\n
$GPGGA,152540.90,5700.7924303,N,00959.0272584,E,2,8,1.1,14.105,M,40.582,M,2.3,0123*4D\r\n
$GPGGA,152540.95,5700.7924308,N,00959.0272556,E,2,8,1.1,14.109,M,40.582,M,2.3,0123*40\r\n
$GPGGA,152541.00,5700.7924309,N,00959.0272518,E,2,8,1.1,14.112,M,40.582,M,2.3,0123*4C\r\n
$GPGGA,152541.05,5700.7924304,N,00959.0272479,E,2,8,1.1,14.112,M,40.582,M,2.5,0123*44\r\n
$GPGGA,152541.10,5700.7924306,N,00959.0272457,E,2,8,1.1,14.114,M,40.582,M,2.5,0123*48\r\n
$GPGGA,152541.15,5700.7924307,N,00959.0272441,E,2,8,1.1,14.116,M,40.582,M,2.5,0123*49\r\n
$GPGGA,152541.20,5700.7924307,N,00959.0272427,E,2,8,1.1,14.116,M,40.582,M,2.5,0123*4F\r\n
$GPGGA,152541.25,5700.7924276,N,00959.0272450,E,2,8,1.1,14.117,M,40.582,M,2.7,0123*4E\r\n
$GPGGA,152541.30,5700.7924272,N,00959.0272442,E,2,8,1.1,14.117,M,40.582,M,2.7,0123*4D\r\n
$GPGGA,152541.35,5700.7924268,N,00959.0272436,E,2,8,1.1,14.116,M,40.582,M,2.7,0123*41\r\n
$GPGGA,152541.40,5700.7924264,N,00959.0272435,E,2,8,1.1,14.115,M,40.582,M,2.7,0123*4F\r\n
$GPGGA,152541.45,5700.7924272,N,00959.0272416,E,2,8,1.1,14.122,M,40.582,M,2.9,0123*46\r\n
$GPGGA,152541.50,5700.7924264,N,00959.0272423,E,2,8,1.1,14.121,M,40.582,M,2.9,0123*40\r\n
$GPGGA,152541.55,5700.7924259,N,00959.0272430,E,2,8,1.1,14.120,M,40.582,M,2.9,0123*48\r\n
$GPGGA,152541.60,5700.7924252,N,00959.0272438,E,2,8,1.1,14.119,M,40.582,M,2.9,0123*47\r\n
$GPGGA,152541.65,5700.7924255,N,00959.0272452,E,2,8,1.1,14.120,M,40.582,M,3.1,0123*4A\r\n
$GPGGA,152541.70,5700.7924250,N,00959.0272468,E,2,8,1.1,14.119,M,40.582,M,3.1,0123*48\r\n
$GPGGA,152541.75,5700.7924243,N,00959.0272480,E,2,8,1.1,14.117,M,40.582,M,3.1,0123*47\r\n
$GPGGA,152541.80,5700.7924238,N,00959.0272491,E,2,8,1.1,14.116,M,40.582,M,3.1,0123*40\r\n
$GPGGA,152541.85,5700.7924264,N,00959.0272486,E,2,8,1.1,14.113,M,40.582,M,2.4,0123*4B\r\n
$GPGGA,152541.90,5700.7924261,N,00959.0272502,E,2,8,1.1,14.110,M,40.582,M,2.4,0123*44\r\n
$GPGGA,152541.95,5700.7924260,N,00959.0272519,E,2,8,1.1,14.108,M,40.582,M,2.4,0123*43\r\n
$GPGGA,152542.00,5700.7924259,N,00959.0272533,E,2,8,1.1,14.106,M,40.582,M,2.4,0123*40\r\n
$GPGGA,152542.05,5700.7924281,N,00959.0272532,E,2,8,1.1,14.123,M,40.582,M,2.7,0123*45\r\n
$GPGGA,152542.10,5700.7924281,N,00959.0272545,E,2,8,1.1,14.122,M,40.582,M,2.7,0123*40\r\n
$GPGGA,152542.15,5700.7924280,N,00959.0272559,E,2,8,1.1,14.121,M,40.582,M,2.7,0123*4A\r\n
$GPGGA,152542.20,5700.7924281,N,00959.0272571,E,2,8,1.1,14.120,M,40.582,M,2.7,0123*46\r\n
$GPGGA,152542.25,5700.7924261,N,00959.0272534,E,2,8,1.1,14.119,M,40.582,M,3.0,0123*40\r\n
$GPGGA,152542.30,5700.7924259,N,00959.0272544,E,2,8,1.1,14.119,M,40.582,M,3.0,0123*48\r\n
$GPGGA,152542.35,5700.7924259,N,00959.0272551,E,2,8,1.1,14.118,M,40.582,M,3.0,0123*48\r\n
$GPGGA,152542.40,5700.7924257,N,00959.0272555,E,2,8,1.1,14.118,M,40.582,M,3.0,0123*40\r\n
$GPGGA,152542.45,5700.7924249,N,00959.0272546,E,2,8,1.1,14.119,M,40.582,M,3.2,0123*4B\r\n
$GPGGA,152542.50,5700.7924247,N,00959.0272548,E,2,8,1.1,14.119,M,40.582,M,3.2,0123*4F\r\n
$GPGGA,152542.55,5700.7924245,N,00959.0272546,E,2,8,1.1,14.119,M,40.582,M,3.2,0123*46\r\n
$GPGGA,152542.60,5700.7924245,N,00959.0272547,E,2,8,1.1,14.119,M,40.582,M,3.2,0123*41\r\n
$GPGGA,152542.65,5700.7924247,N,00959.0272531,E,2,8,1.1,14.119,M,40.582,M,3.5,0123*40\r\n
$GPGGA,152542.70,5700.7924247,N,00959.0272532,E,2,8,1.1,14.119,M,40.582,M,3.5,0123*47\r\n
$GPGGA,152542.75,5700.7924247,N,00959.0272529,E,2,8,1.1,14.120,M,40.582,M,3.5,0123*42\r\n
$GPGGA,152542.80,5700.7924246,N,00959.0272523,E,2,8,1.1,14.120,M,40.582,M,3.5,0123*43\r\n
$GPGGA,152542.85,5700.7924255,N,00959.0272540,E,2,8,1.1,14.120,M,40.582,M,1.4,0123*42\r\n
$GPGGA,152542.90,5700.7924258,N,00959.0272538,E,2,8,1.1,14.121,M,40.582,M,1.4,0123*45\r\n
$GPGGA,152542.95,5700.7924257,N,00959.0272536,E,2,8,1.1,14.121,M,40.582,M,1.4,0123*41\r\n
$GPGGA,152543.00,5700.7924257,N,00959.0272535,E,2,8,1.1,14.122,M,40.582,M,1.4,0123*4C\r\n
$GPGGA,152543.05,5700.7924251,N,00959.0272543,E,2,8,1.1,14.124,M,40.582,M,1.6,0123*4A\r\n
$GPGGA,152543.10,5700.7924254,N,00959.0272545,E,2,8,1.1,14.125,M,40.582,M,1.6,0123*4C\r\n
$GPGGA,152543.15,5700.7924254,N,00959.0272547,E,2,8,1.1,14.125,M,40.582,M,1.6,0123*4B\r\n
$GPGGA,152543.20,5700.7924257,N,00959.0272549,E,2,8,1.1,14.126,M,40.582,M,1.6,0123*43\r\n
$GPGGA,152543.25,5700.7924268,N,00959.0272567,E,2,8,1.1,14.126,M,40.582,M,1.9,0123*49\r\n
$GPGGA,152543.30,5700.7924270,N,00959.0272572,E,2,8,1.1,14.127,M,40.582,M,1.9,0123*41\r\n
$GPGGA,152543.35,5700.7924273,N,00959.0272580,E,2,8,1.1,14.127,M,40.582,M,1.9,0123*4A\r\n
$GPGGA,152543.40,5700.7924277,N,00959.0272590,E,2,8,1.1,14.128,M,40.582,M,1.9,0123*42\r\n
$GPGGA,152543.45,5700.7924273,N,00959.0272609,E,2,8,1.1,14.124,M,40.582,M,2.2,0123*44\r\n
$GPGGA,152543.50,5700.7924276,N,00959.0272617,E,2,8,1.1,14.124,M,40.582,M,2.2,0123*4A\r\n
$GPGGA,152543.55,5700.7924277,N,00959.0272625,E,2,8,1.1,14.125,M,40.582,M,2.2,0123*4E\r\n
$GPGGA,152543.60,5700.7924278,N,00959.0272632,E,2,8,1.1,14.125,M,40.582,M,2.2,0123*41\r\n
$GPGGA,152543.65,5700.7924260,N,00959.0272618,E,2,8,1.1,14.124,M,40.582,M,2.4,0123*42\r\n
$GPGGA,152543.70,5700.7924260,N,00959.0272624,E,2,8,1.1,14.124,M,40.582,M,2.4,0123*49\r\n
$GPGGA,152543.75,5700.7924259,N,00959.0272631,E,2,8,1.1,14.123,M,40.582,M,2.4,0123*45\r\n
$GPGGA,152543.80,5700.7924259,N,00959.0272630,E,2,8,1.1,14.123,M,40.582,M,2.4,0123*4E\r\n
$GPGGA,152543.85,5700.7924255,N,00959.0272616,E,2,8,1.1,14.117,M,40.582,M,1.2,0123*41\r\n
$GPGGA,152543.90,5700.7924255,N,00959.0272626,E,2,8,1.1,14.116,M,40.582,M,1.2,0123*47\r\n
$GPGGA,152543.95,5700.7924255,N,00959.0272630,E,2,8,1.1,14.116,M,40.582,M,1.2,0123*45\r\n
$GPGGA,152544.00,5700.7924254,N,00959.0272628,E,2,8,1.1,14.114,M,40.582,M,1.2,0123*44\r\n
$GPGGA,152544.05,5700.7924276,N,00959.0272652,E,2,8,1.1,14.124,M,40.582,M,1.4,0123*49\r\n
$GPGGA,152544.10,5700.7924278,N,00959.0272662,E,2,8,1.1,14.123,M,40.582,M,1.4,0123*47\r\n
$GPGGA,152544.15,5700.7924280,N,00959.0272667,E,2,8,1.1,14.123,M,40.582,M,1.4,0123*40\r\n
$GPGGA,152544.20,5700.7924282,N,00959.0272672,E,2,8,1.1,14.122,M,40.582,M,1.4,0123*41\r\n
$GPGGA,152544.25,5700.7924298,N,00959.0272679,E,2,8,1.1,14.117,M,40.582,M,1.6,0123*40\r\n
$GPGGA,152544.30,5700.7924302,N,00959.0272681,E,2,8,1.1,14.117,M,40.582,M,1.6,0123*41\r\n
$GPGGA,152544.35,5700.7924304,N,00959.0272683,E,2,8,1.1,14.116,M,40.582,M,1.6,0123*41\r\n
$GPGGA,152544.40,5700.7924305,N,00959.0272681,E,2,8,1.1,14.116,M,40.582,M,1.6,0123*40\r\n
$GPGGA,152544.45,5700.7924288,N,00959.0272647,E,2,8,1.1,14.123,M,40.582,M,1.9,0123*42\r\n
$GPGGA,152544.50,5700.7924288,N,00959.0272642,E,2,8,1.1,14.123,M,40.582,M,1.9,0123*43\r\n
$GPGGA,152544.55,5700.7924288,N,00959.0272639,E,2,8,1.1,14.123,M,40.582,M,1.9,0123*4A\r\n
$GPGGA,152544.60,5700.7924288,N,00959.0272634,E,2,8,1.1,14.123,M,40.582,M,1.9,0123*41\r\n
$GPGGA,152544.65,5700.7924277,N,00959.0272612,E,2,8,1.1,14.125,M,40.582,M,2.1,0123*4D\r\n
$GPGGA,152544.70,5700.7924277,N,00959.0272605,E,2,8,1.1,14.126,M,40.582,M,2.1,0123*4C\r\n
$GPGGA,152544.75,5700.7924274,N,00959.0272602,E,2,8,1.1,14.127,M,40.582,M,2.1,0123*4C\r\n
$GPGGA,152544.80,5700.7924271,N,00959.0272596,E,2,8,1.1,14.128,M,40.582,M,2.1,0123*42\r\n
$GPGGA,152544.85,5700.7924258,N,00959.0272614,E,2,8,1.1,14.126,M,40.582,M,2.3,0123*49\r\n
$GPGGA,152544.90,5700.7924254,N,00959.0272607,E,2,8,1.1,14.127,M,40.582,M,2.3,0123*42\r\n
$GPGGA,152544.95,5700.7924248,N,00959.0272601,E,2,8,1.1,14.128,M,40.582,M,2.3,0123*43\r\n
$GPGGA,152545.00,5700.7924243,N,00959.0272594,E,2,8,1.1,14.129,M,40.582,M,2.3,0123*4B\r\n
$GPGGA,152545.05,5700.7924217,N,00959.0272561,E,2,8,1.1,14.119,M,40.582,M,2.5,0123*40\r\n
$GPGGA,152545.10,5700.7924210,N,00959.0272555,E,2,8,1.1,14.119,M,40.582,M,2.5,0123*44\r\n
$GPGGA,152545.15,5700.7924202,N,00959.0272541,E,2,8,1.1,14.119,M,40.582,M,2.5,0123*47\r\n
$GPGGA,152545.20,5700.7924193,N,00959.0272526,E,2,8,1.1,14.118,M,40.582,M,2.5,0123*4A\r\n
$GPGGA,152545.25,5700.7924199,N,00959.0272514,E,2,8,1.1,14.125,M,40.582,M,2.7,0123*48\r\n
$GPGGA,152545.30,5700.7924190,N,00959.0272496,E,2,8,1.1,14.125,M,40.582,M,2.7,0123*4E\r\n
$GPGGA,152545.35,5700.7924180,N,00959.0272468,E,2,8,1.1,14.125,M,40.582,M,2.7,0123*4B\r\n
$GPGGA,152545.40,5700.7924172,N,00959.0272437,E,2,8,1.1,14.125,M,40.582,M,2.7,0123*4E\r\n
$GPGGA,152545.45,5700.7924178,N,00959.0272379,E,2,8,1.1,14.143,M,40.582,M,2.9,0123*42\r\n
$GPGGA,152545.50,5700.7924167,N,00959.0272356,E,2,8,1.1,14.145,M,40.582,M,2.9,0123*43\r\n
$GPGGA,152545.55,5700.7924150,N,00959.0272330,E,2,8,1.1,14.146,M,40.582,M,2.9,0123*41\r\n
$GPGGA,152545.60,5700.7924147,N,00959.0272301,E,2,8,1.1,14.144,M,40.582,M,2.9,0123*41\r\n
$GPGGA,152545.65,5700.7924155,N,00959.0272296,E,2,8,1.1,14.149,M,40.582,M,2.1,0123*4D\r\n
$GPGGA,152545.70,5700.7924151,N,00959.0272289,E,2,8,1.1,14.149,M,40.582,M,2.1,0123*43\r\n
$GPGGA,152545.75,5700.7924140,N,00959.0272259,E,2,8,1.1,14.147,M,40.582,M,2.1,0123*45\r\n
$GPGGA,152545.80,5700.7924136,N,00959.0272250,E,2,8,1.1,14.147,M,40.582,M,2.1,0123*47\r\n
$GPGGA,152545.85,5700.7924136,N,00959.0272247,E,2,8,1.1,14.147,M,40.582,M,2.4,0123*41\r\n
$GPGGA,152545.90,5700.7924135,N,00959.0272236,E,2,8,1.1,14.147,M,40.582,M,2.4,0123*40\r\n
$GPGGA,152545.95,5700.7924134,N,00959.0272224,E,2,8,1.1,14.146,M,40.582,M,2.4,0123*46\r\n
$GPGGA,152546.00,5700.7924133,N,00959.0272216,E,2,8,1.1,14.146,M,40.582,M,2.4,0123*4F\r\n
$GPGGA,152546.05,5700.7924152,N,00959.0272229,E,2,8,1.1,14.147,M,40.582,M,2.7,0123*43\r\n
$GPGGA,152546.10,5700.7924155,N,00959.0272228,E,2,8,1.1,14.146,M,40.582,M,2.7,0123*40\r\n
$GPGGA,152546.15,5700.7924158,N,00959.0272227,E,2,8,1.1,14.146,M,40.582,M,2.7,0123*47\r\n
$GPGGA,152546.20,5700.7924160,N,00959.0272228,E,2,8,1.1,14.146,M,40.582,M,2.7,0123*45\r\n
$GPGGA,152546.25,5700.7924164,N,00959.0272247,E,2,8,1.1,14.148,M,40.582,M,3.0,0123*45\r\n
$GPGGA,152546.30,5700.7924167,N,00959.0272251,E,2,8,1.1,14.147,M,40.582,M,3.0,0123*4A\r\n
$GPGGA,152546.35,5700.7924171,N,00959.0272258,E,2,8,1.1,14.147,M,40.582,M,3.0,0123*41\r\n
$GPGGA,152546.40,5700.7924178,N,00959.0272264,E,2,8,1.1,14.147,M,40.582,M,3.0,0123*45\r\n
$GPGGA,152546.45,5700.7924175,N,00959.0272258,E,2,8,1.1,14.147,M,40.582,M,3.2,0123*40\r\n
$GPGGA,152546.50,5700.7924181,N,00959.0272260,E,2,8,1.1,14.147,M,40.582,M,3.2,0123*44\r\n
$GPGGA,152546.55,5700.7924188,N,00959.0272263,E,2,8,1.1,14.147,M,40.582,M,3.2,0123*4B\r\n
$GPGGA,152546.60,5700.7924193,N,00959.0272260,E,2,8,1.1,14.147,M,40.582,M,3.2,0123*44\r\n
$GPGGA,152546.65,5700.7924207,N,00959.0272208,E,2,8,1.1,14.160,M,40.582,M,1.1,0123*45\r\n
$GPGGA,152546.70,5700.7924214,N,00959.0272212,E,2,8,1.1,14.161,M,40.582,M,1.1,0123*49\r\n
$GPGGA,152546.75,5700.7924219,N,00959.0272211,E,2,8,1.1,14.162,M,40.582,M,1.1,0123*41\r\n
$GPGGA,152546.80,5700.7924225,N,00959.0272217,E,2,8,1.1,14.163,M,40.582,M,1.1,0123*43\r\n
$GPGGA,152546.85,5700.7924213,N,00959.0272248,E,2,8,1.1,14.156,M,40.582,M,1.4,0123*4A\r\n
$GPGGA,152546.90,5700.7924219,N,00959.0272259,E,2,8,1.1,14.157,M,40.582,M,1.4,0123*45\r\n
$GPGGA,152546.95,5700.7924225,N,00959.0272258,E,2,8,1.1,14.158,M,40.582,M,1.4,0123*41\r\n
$GPGGA,152547.00,5700.7924231,N,00959.0272271,E,2,8,1.1,14.159,M,40.582,M,1.4,0123*43\r\n
$GPGGA,152547.05,5700.7924230,N,00959.0272290,E,2,8,1.1,14.148,M,40.582,M,1.6,0123*4A\r\n
$GPGGA,152547.10,5700.7924232,N,00959.0272293,E,2,8,1.1,14.148,M,40.582,M,1.6,0123*4F\r\n
$GPGGA,152547.15,5700.7924235,N,00959.0272295,E,2,8,1.1,14.148,M,40.582,M,1.6,0123*4B\r\n
$GPGGA,152547.20,5700.7924239,N,00959.0272299,E,2,8,1.1,14.147,M,40.582,M,1.6,0123*42\r\n
$GPGGA,152547.25,5700.7924219,N,00959.0272252,E,2,8,1.1,14.153,M,40.582,M,1.9,0123*48\r\n
$GPGGA,152547.30,5700.7924219,N,00959.0272260,E,2,8,1.1,14.153,M,40.582,M,1.9,0123*4D\r\n
$GPGGA,152547.35,5700.7924219,N,00959.0272266,E,2,8,1.1,14.152,M,40.582,M,1.9,0123*4F\r\n
$GPGGA,152547.40,5700.7924219,N,00959.0272273,E,2,8,1.1,14.152,M,40.582,M,1.9,0123*49\r\n
$GPGGA,152547.45,5700.7924216,N,00959.0272316,E,2,8,1.1,14.147,M,40.582,M,2.2,0123*4D\r\n
$GPGGA,152547.50,5700.7924214,N,00959.0272331,E,2,8,1.1,14.146,M,40.582,M,2.2,0123*4F\r\n
$GPGGA,152547.55,5700.7924210,N,00959.0272338,E,2,8,1.1,14.145,M,40.582,M,2.2,0123*44\r\n
$GPGGA,152547.60,5700.7924207,N,00959.0272345,E,2,8,1.1,14.144,M,40.582,M,2.2,0123*4F\r\n
$GPGGA,152547.65,5700.7924199,N,00959.0272355,E,2,8,1.1,14.138,M,40.582,M,0.9,0123*4D\r\n
$GPGGA,152547.70,5700.7924192,N,00959.0272365,E,2,8,1.1,14.135,M,40.582,M,0.9,0123*4C\r\n
$GPGGA,152547.75,5700.7924189,N,00959.0272389,E,2,8,1.1,14.135,M,40.582,M,0.9,0123*41\r\n
$GPGGA,152547.80,5700.7924184,N,00959.0272391,E,2,8,1.1,14.133,M,40.582,M,0.9,0123*49\r\n
$GPGGA,152547.85,5700.7924188,N,00959.0272408,E,2,8,1.1,14.139,M,40.582,M,1.2,0123*47\r\n
$GPGGA,152547.90,5700.7924185,N,00959.0272415,E,2,8,1.1,14.139,M,40.582,M,1.2,0123*42\r\n
$GPGGA,152547.95,5700.7924180,N,00959.0272424,E,2,8,1.1,14.139,M,40.582,M,1.2,0123*40\r\n
$GPGGA,152548.00,5700.7924177,N,00959.0272424,E,2,8,1.1,14.138,M,40.582,M,1.2,0123*4A\r\n
$GPGGA,152548.05,5700.7924186,N,00959.0272379,E,2,8,1.1,14.137,M,40.582,M,1.4,0123*47\r\n
$GPGGA,152548.10,5700.7924184,N,00959.0272386,E,2,8,1.1,14.136,M,40.582,M,1.4,0123*40\r\n
$GPGGA,152548.15,5700.7924184,N,00959.0272389,E,2,8,1.1,14.136,M,40.582,M,1.4,0123*4A\r\n
$GPGGA,152548.20,5700.7924182,N,00959.0272388,E,2,8,1.1,14.136,M,40.582,M,1.4,0123*4B\r\n
$GPGGA,152548.25,5700.7924198,N,00959.0272409,E,2,8,1.1,14.140,M,40.582,M,1.6,0123*48\r\n
$GPGGA,152548.30,5700.7924198,N,00959.0272409,E,2,8,1.1,14.140,M,40.582,M,1.6,0123*4C\r\n
$GPGGA,152548.35,5700.7924202,N,00959.0272405,E,2,8,1.1,14.140,M,40.582,M,1.6,0123*45\r\n
$GPGGA,152548.40,5700.7924207,N,00959.0272405,E,2,8,1.1,14.141,M,40.582,M,1.6,0123*43\r\n
$GPGGA,152548.45,5700.7924236,N,00959.0272386,E,2,8,1.1,14.149,M,40.582,M,1.9,0123*4F\r\n
$GPGGA,152548.50,5700.7924244,N,00959.0272388,E,2,8,1.1,14.150,M,40.582,M,1.9,0123*48\r\n
$GPGGA,152548.55,5700.7924253,N,00959.0272392,E,2,8,1.1,14.152,M,40.582,M,1.9,0123*42\r\n
$GPGGA,152548.60,5700.7924263,N,00959.0272386,E,2,8,1.1,14.154,M,40.582,M,1.9,0123*44\r\n
$GPGGA,152548.65,5700.7924300,N,00959.0272411,E,2,8,1.1,14.162,M,40.582,M,2.1,0123*42\r\n
$GPGGA,152548.70,5700.7924305,N,00959.0272422,E,2,8,1.1,14.168,M,40.582,M,2.1,0123*49\r\n
$GPGGA,152548.75,5700.7924316,N,00959.0272433,E,2,8,1.1,14.170,M,40.582,M,2.1,0123*47\r\n
$GPGGA,152548.80,5700.7924319,N,00959.0272443,E,2,8,1.1,14.173,M,40.582,M,2.1,0123*46\r\n
$GPGGA,152548.85,5700.7924317,N,00959.0272449,E,2,8,1.1,14.172,M,40.582,M,2.3,0123*44\r\n
$GPGGA,152548.90,5700.7924328,N,00959.0272488,E,2,8,1.1,14.174,M,40.582,M,2.3,0123*47\r\n
$GPGGA,152548.95,5700.7924331,N,00959.0272521,E,2,8,1.1,14.175,M,40.582,M,2.3,0123*49\r\n
$GPGGA,152549.00,5700.7924324,N,00959.0272543,E,2,8,1.1,14.177,M,40.582,M,2.3,0123*46\r\n
$GPGGA,152549.05,5700.7924316,N,00959.0272561,E,2,8,1.1,14.172,M,40.582,M,2.5,0123*41\r\n
$GPGGA,152549.10,5700.7924314,N,00959.0272583,E,2,8,1.1,14.173,M,40.582,M,2.5,0123*4A\r\n
$GPGGA,152549.15,5700.7924311,N,00959.0272617,E,2,8,1.1,14.173,M,40.582,M,2.5,0123*44\r\n
$GPGGA,152549.20,5700.7924307,N,00959.0272648,E,2,8,1.1,14.173,M,40.582,M,2.5,0123*4F\r\n
$GPGGA,152549.25,5700.7924264,N,00959.0272668,E,2,8,1.1,14.170,M,40.582,M,2.7,0123*4D\r\n
$GPGGA,152549.30,5700.7924257,N,00959.0272703,E,2,8,1.1,14.170,M,40.582,M,2.7,0123*45\r\n
$GPGGA,152549.35,5700.7924248,N,00959.0272739,E,2,8,1.1,14.170,M,40.582,M,2.7,0123*47\r\n
$GPGGA,152549.40,5700.7924239,N,00959.0272781,E,2,8,1.1,14.169,M,40.582,M,2.7,0123*48\r\n
$GPGGA,152549.45,5700.7924251,N,00959.0272834,E,2,8,1.1,14.171,M,40.582,M,2.9,0123*45\r\n
$GPGGA,152549.50,5700.7924243,N,00959.0272879,E,2,8,1.1,14.171,M,40.582,M,2.9,0123*4B\r\n
$GPGGA,152549.55,5700.7924235,N,00959.0272926,E,2,8,1.1,14.170,M,40.582,M,2.9,0123*45\r\n
$GPGGA,152549.60,5700.7924226,N,00959.0272975,E,2,8,1.1,14.168,M,40.582,M,2.9,0123*4E\r\n
$GPGGA,152549.65,5700.7924236,N,00959.0273061,E,2,8,1.1,14.169,M,40.582,M,2.1,0123*4E\r\n
$GPGGA,152549.70,5700.7924231,N,00959.0273123,E,2,8,1.1,14.169,M,40.582,M,2.1,0123*4A\r\n
$GPGGA,152549.75,5700.7924217,N,00959.0273179,E,2,8,1.1,14.168,M,40.582,M,2.1,0123*45\r\n
$GPGGA,152549.80,5700.7924202,N,00959.0273240,E,2,8,1.1,14.167,M,40.582,M,2.1,0123*4D\r\n
$GPGGA,152549.85,5700.7924188,N,00959.0273317,E,2,8,1.1,14.172,M,40.582,M,2.4,0123*4B\r\n
$GPGGA,152549.90,5700.7924170,N,00959.0273401,E,2,8,1.1,14.172,M,40.582,M,2.4,0123*48\r\n
$GPGGA,152549.95,5700.7924160,N,00959.0273474,E,2,8,1.1,14.172,M,40.582,M,2.4,0123*4E\r\n
$GPGGA,152550.00,5700.7924137,N,00959.0273556,E,2,8,1.1,14.170,M,40.582,M,2.4,0123*4B\r\n
$GPGGA,152550.05,5700.7924111,N,00959.0273638,E,2,8,1.1,14.168,M,40.582,M,2.7,0123*4B\r\n
$GPGGA,152550.10,5700.7924084,N,00959.0273717,E,2,8,1.1,14.166,M,40.582,M,2.7,0123*40\r\n
$GPGGA,152550.15,5700.7924059,N,00959.0273781,E,2,8,1.1,14.165,M,40.582,M,2.7,0123*49\r\n
$GPGGA,152550.20,5700.7924037,N,00959.0273854,E,2,8,1.1,14.167,M,40.582,M,2.7,0123*42\r\n
$GPGGA,152550.25,5700.7924014,N,00959.0273916,E,2,8,1.1,14.169,M,40.582,M,3.0,0123*49\r\n
$GPGGA,152550.30,5700.7923990,N,00959.0273999,E,2,8,1.1,14.171,M,40.582,M,3.0,0123*41\r\n
$GPGGA,152550.35,5700.7923976,N,00959.0274081,E,2,8,1.1,14.170,M,40.582,M,3.0,0123*4A\r\n
$GPGGA,152550.40,5700.7923966,N,00959.0274183,E,2,8,1.1,14.171,M,40.582,M,3.0,0123*4B\r\n
$GPGGA,152550.45,5700.7923951,N,00959.0274289,E,2,8,1.1,14.165,M,40.582,M,3.2,0123*44\r\n
$GPGGA,152550.50,5700.7923939,N,00959.0274393,E,2,8,1.1,14.163,M,40.582,M,3.2,0123*42\r\n
$GPGGA,152550.55,5700.7923940,N,00959.0274506,E,2,8,1.1,14.164,M,40.582,M,3.2,0123*44\r\n
$GPGGA,152550.60,5700.7923946,N,00959.0274618,E,2,8,1.1,14.165,M,40.582,M,3.2,0123*49\r\n
$GPGGA,152550.65,5700.7923943,N,00959.0274736,E,2,8,1.1,14.171,M,40.582,M,1.1,0123*40\r\n
$GPGGA,152550.70,5700.7923941,N,00959.0274851,E,2,8,1.1,14.171,M,40.582,M,1.1,0123*48\r\n
$GPGGA,152550.75,5700.7923937,N,00959.0274966,E,2,8,1.1,14.169,M,40.582,M,1.1,0123*40\r\n
$GPGGA,152550.80,5700.7923934,N,00959.0275073,E,2,8,1.1,14.167,M,40.582,M,1.1,0123*4B\r\n
$GPGGA,152550.85,5700.7923934,N,00959.0275196,E,2,8,1.1,14.164,M,40.582,M,1.4,0123*42\r\n
$GPGGA,152550.90,5700.7923935,N,00959.0275318,E,2,8,1.1,14.164,M,40.582,M,1.4,0123*43\r\n
$GPGGA,152550.95,5700.7923932,N,00959.0275421,E,2,8,1.1,14.163,M,40.582,M,1.4,0123*4B\r\n
$GPGGA,152551.00,5700.7923926,N,00959.0275528,E,2,8,1.1,14.159,M,40.582,M,1.4,0123*42\r\n
$GPGGA,152551.05,5700.7923915,N,00959.0275653,E,2,8,1.1,14.155,M,40.582,M,1.6,0123*46\r\n
$GPGGA,152551.10,5700.7923906,N,00959.0275778,E,2,8,1.1,14.151,M,40.582,M,1.6,0123*4C\r\n
$GPGGA,152551.15,5700.7923895,N,00959.0275884,E,2,8,1.1,14.150,M,40.582,M,1.6,0123*4F\r\n
$GPGGA,152551.20,5700.7923872,N,00959.0276005,E,2,8,1.1,14.148,M,40.582,M,1.6,0123*4B\r\n
$GPGGA,152551.25,5700.7923854,N,00959.0276137,E,2,8,1.1,14.159,M,40.582,M,1.9,0123*45\r\n
$GPGGA,152551.30,5700.7923832,N,00959.0276250,E,2,8,1.1,14.159,M,40.582,M,1.9,0123*43\r\n
$GPGGA,152551.35,5700.7923819,N,00959.0276362,E,2,8,1.1,14.160,M,40.582,M,1.9,0123*45\r\n
$GPGGA,152551.40,5700.7923808,N,00959.0276477,E,2,8,1.1,14.160,M,40.582,M,1.9,0123*44\r\n
$GPGGA,152551.45,5700.7923790,N,00959.0276594,E,2,8,1.1,14.149,M,40.582,M,2.2,0123*40\r\n
$GPGGA,152551.50,5700.7923779,N,00959.0276723,E,2,8,1.1,14.148,M,40.582,M,2.2,0123*4C\r\n
$GPGGA,152551.55,5700.7923771,N,00959.0276842,E,2,8,1.1,14.148,M,40.582,M,2.2,0123*49\r\n
$GPGGA,152551.60,5700.7923771,N,00959.0276976,E,2,8,1.1,14.146,M,40.582,M,2.2,0123*47\r\n
$GPGGA,152551.65,5700.7923771,N,00959.0277112,E,2,8,1.1,14.156,M,40.582,M,0.9,0123*41\r\n
$GPGGA,152551.70,5700.7923765,N,00959.0277221,E,2,8,1.1,14.156,M,40.582,M,0.9,0123*43\r\n
$GPGGA,152551.75,5700.7923752,N,00959.0277330,E,2,8,1.1,14.157,M,40.582,M,0.9,0123*42\r\n
$GPGGA,152551.80,5700.7923736,N,00959.0277438,E,2,8,1.1,14.156,M,40.582,M,0.9,0123*44\r\n
$GPGGA,152551.85,5700.7923725,N,00959.0277554,E,2,8,1.1,14.157,M,40.582,M,1.2,0123*43\r\n
$GPGGA,152551.90,5700.7923719,N,00959.0277656,E,2,8,1.1,14.158,M,40.582,M,1.2,0123*46\r\n
$GPGGA,152551.95,5700.7923713,N,00959.0277765,E,2,8,1.1,14.159,M,40.582,M,1.2,0123*49\r\n
$GPGGA,152552.00,5700.7923701,N,00959.0277883,E,2,8,1.1,14.160,M,40.582,M,1.2,0123*48\r\n
$GPGGA,152552.05,5700.7923689,N,00959.0277983,E,2,8,1.1,14.159,M,40.582,M,1.4,0123*41\r\n
$GPGGA,152552.10,5700.7923676,N,00959.0278093,E,2,8,1.1,14.162,M,40.582,M,1.4,0123*4A\r\n
$GPGGA,152552.15,5700.7923656,N,00959.0278216,E,2,8,1.1,14.163,M,40.582,M,1.4,0123*43\r\n
$GPGGA,152552.20,5700.7923635,N,00959.0278327,E,2,8,1.1,14.160,M,40.582,M,1.4,0123*40\r\n
$GPGGA,152552.25,5700.7923610,N,00959.0278433,E,2,8,1.1,14.160,M,40.582,M,1.6,0123*42\r\n
$GPGGA,152552.30,5700.7923598,N,00959.0278554,E,2,8,1.1,14.160,M,40.582,M,1.6,0123*45\r\n
$GPGGA,152552.35,5700.7923583,N,00959.0278673,E,2,8,1.1,14.158,M,40.582,M,1.6,0123*47\r\n
$GPGGA,152552.40,5700.7923564,N,00959.0278777,E,2,8,1.1,14.155,M,40.582,M,1.6,0123*44\r\n
$GPGGA,152552.45,5700.7923545,N,00959.0278870,E,2,8,1.1,14.149,M,40.582,M,1.9,0123*48\r\n
$GPGGA,152552.50,5700.7923526,N,00959.0278977,E,2,8,1.1,14.148,M,40.582,M,1.9,0123*4E\r\n
$GPGGA,152552.55,5700.7923516,N,00959.0279079,E,2,8,1.1,14.149,M,40.582,M,1.9,0123*4F\r\n
$GPGGA,152552.60,5700.7923514,N,00959.0279182,E,2,8,1.1,14.148,M,40.582,M,1.9,0123*4F\r\n
$GPGGA,152552.65,5700.7923512,N,00959.0279294,E,2,8,1.1,14.151,M,40.582,M,2.1,0123*4B\r\n
$GPGGA,152552.70,5700.7923501,N,00959.0279400,E,2,8,1.1,14.151,M,40.582,M,2.1,0123*46\r\n
$GPGGA,152552.75,5700.7923493,N,00959.0279508,E,2,8,1.1,14.151,M,40.582,M,2.1,0123*40\r\n
$GPGGA,152552.80,5700.7923490,N,00959.0279624,E,2,8,1.1,14.150,M,40.582,M,2.1,0123*45\r\n
$GPGGA,152552.85,5700.7923478,N,00959.0279723,E,2,8,1.1,14.155,M,40.582,M,2.3,0123*47\r\n
$GPGGA,152552.90,5700.7923468,N,00959.0279812,E,2,8,1.1,14.156,M,40.582,M,2.3,0123*4C\r\n
$GPGGA,152552.95,5700.7923463,N,00959.0279903,E,2,8,1.1,14.156,M,40.582,M,2.3,0123*43\r\n
$GPGGA,152553.00,5700.7923456,N,00959.0279993,E,2,8,1.1,14.155,M,40.582,M,2.3,0123*42\r\n
$GPGGA,152553.05,5700.7923433,N,00959.0280065,E,2,8,1.1,14.151,M,40.582,M,2.5,0123*40\r\n
$GPGGA,152553.10,5700.7923424,N,00959.0280152,E,2,8,1.1,14.151,M,40.582,M,2.5,0123*47\r\n
$GPGGA,152553.15,5700.7923409,N,00959.0280250,E,2,8,1.1,14.152,M,40.582,M,2.5,0123*4F\r\n
$GPGGA,152553.20,5700.7923396,N,00959.0280354,E,2,8,1.1,14.156,M,40.582,M,2.5,0123*49\r\n
$GPGGA,152553.25,5700.7923384,N,00959.0280458,E,2,8,1.1,14.159,M,40.582,M,2.7,0123*49\r\n
$GPGGA,152553.30,5700.7923370,N,00959.0280559,E,2,8,1.1,14.162,M,40.582,M,2.7,0123*4E\r\n
$GPGGA,152553.35,5700.7923354,N,00959.0280668,E,2,8,1.1,14.162,M,40.582,M,2.7,0123*4C\r\n
$GPGGA,152553.40,5700.7923335,N,00959.0280773,E,2,8,1.1,14.163,M,40.582,M,2.7,0123*43\r\n
$GPGGA,152553.45,5700.7923322,N,00959.0280867,E,2,8,1.1,14.162,M,40.582,M,2.9,0123*45\r\n
$GPGGA,152553.50,5700.7923310,N,00959.0280985,E,2,8,1.1,14.164,M,40.582,M,2.9,0123*4B\r\n
$GPGGA,152553.55,5700.7923302,N,00959.0281102,E,2,8,1.1,14.162,M,40.582,M,2.9,0123*4D\r\n
$GPGGA,152553.60,5700.7923289,N,00959.0281214,E,2,8,1.1,14.161,M,40.582,M,2.9,0123*4E\r\n
$GPGGA,152553.65,5700.7923266,N,00959.0281338,E,2,8,1.1,14.157,M,40.582,M,2.1,0123*48\r\n
$GPGGA,152553.70,5700.7923251,N,00959.0281466,E,2,8,1.1,14.158,M,40.582,M,2.1,0123*4B\r\n
$GPGGA,152553.75,5700.7923237,N,00959.0281602,E,2,8,1.1,14.158,M,40.582,M,2.1,0123*4E\r\n
$GPGGA,152553.80,5700.7923223,N,00959.0281719,E,2,8,1.1,14.157,M,40.582,M,2.1,0123*45\r\n
$GPGGA,152553.85,5700.7923221,N,00959.0281844,E,2,8,1.1,14.159,M,40.582,M,2.4,0123*4E\r\n
$GPGGA,152553.90,5700.7923197,N,00959.0281946,E,2,8,1.1,14.157,M,40.582,M,2.4,0123*49\r\n
$GPGGA,152553.95,5700.7923180,N,00959.0282057,E,2,8,1.1,14.156,M,40.582,M,2.4,0123*41\r\n
$GPGGA,152554.00,5700.7923165,N,00959.0282161,E,2,8,1.1,14.157,M,40.582,M,2.4,0123*44\r\n
$GPGGA,152554.05,5700.7923162,N,00959.0282257,E,2,8,1.1,14.154,M,40.582,M,2.7,0123*40\r\n
$GPGGA,152554.10,5700.7923151,N,00959.0282381,E,2,8,1.1,14.156,M,40.582,M,2.7,0123*4C\r\n
$GPGGA,152554.15,5700.7923136,N,00959.0282504,E,2,8,1.1,14.156,M,40.582,M,2.7,0123*43\r\n
$GPGGA,152554.20,5700.7923117,N,00959.0282611,E,2,8,1.1,14.156,M,40.582,M,2.7,0123*41\r\n
$GPGGA,152554.25,5700.7923098,N,00959.0282721,E,2,8,1.1,14.162,M,40.582,M,3.0,0123*41\r\n
$GPGGA,152554.30,5700.7923086,N,00959.0282834,E,2,8,1.1,14.163,M,40.582,M,3.0,0123*40\r\n
$GPGGA,152554.35,5700.7923080,N,00959.0282936,E,2,8,1.1,14.164,M,40.582,M,3.0,0123*47\r\n
$GPGGA,152554.40,5700.7923066,N,00959.0283031,E,2,8,1.1,14.165,M,40.582,M,3.0,0123*43\r\n
$GPGGA,152554.45,5700.7923045,N,00959.0283121,E,2,8,1.1,14.159,M,40.582,M,3.2,0123*4A\r\n
$GPGGA,152554.50,5700.7923023,N,00959.0283190,E,2,8,1.1,14.158,M,40.582,M,3.2,0123*45\r\n
$GPGGA,152554.55,5700.7923007,N,00959.0283291,E,2,8,1.1,14.158,M,40.582,M,3.2,0123*44\r\n
$GPGGA,152554.60,5700.7922995,N,00959.0283380,E,2,8,1.1,14.160,M,40.582,M,3.2,0123*4B\r\n
$GPGGA,152554.65,5700.7922971,N,00959.0283456,E,2,8,1.1,14.161,M,40.582,M,1.1,0123*48\r\n
$GPGGA,152554.70,5700.7922959,N,00959.0283562,E,2,8,1.1,14.161,M,40.582,M,1.1,0123*40\r\n
$GPGGA,152554.75,5700.7922953,N,00959.0283665,E,2,8,1.1,14.162,M,40.582,M,1.1,0123*48\r\n
$GPGGA,152554.80,5700.7922943,N,00959.0283756,E,2,8,1.1,14.161,M,40.582,M,1.1,0123*41\r\n
$GPGGA,152554.85,5700.7922933,N,00959.0283846,E,2,8,1.1,14.157,M,40.582,M,1.4,0123*4D\r\n
$GPGGA,152554.90,5700.7922929,N,00959.0283936,E,2,8,1.1,14.156,M,40.582,M,1.4,0123*45\r\n
$GPGGA,152554.95,5700.7922934,N,00959.0284030,E,2,8,1.1,14.158,M,40.582,M,1.4,0123*4A\r\n
$GPGGA,152555.00,5700.7922931,N,00959.0284115,E,2,8,1.1,14.157,M,40.582,M,1.4,0123*4B\r\n
$GPGGA,152555.05,5700.7922916,N,00959.0284190,E,2,8,1.1,14.154,M,40.582,M,1.6,0123*47\r\n
$GPGGA,152555.10,5700.7922916,N,00959.0284280,E,2,8,1.1,14.152,M,40.582,M,1.6,0123*47\r\n
$GPGGA,152555.15,5700.7922907,N,00959.0284361,E,2,8,1.1,14.149,M,40.582,M,1.6,0123*46\r\n
$GPGGA,152555.20,5700.7922899,N,00959.0284455,E,2,8,1.1,14.150,M,40.582,M,1.6,0123*4E\r\n
$GPGGA,152555.25,5700.7922889,N,00959.0284532,E,2,8,1.1,14.153,M,40.582,M,1.9,0123*46\r\n
$GPGGA,152555.30,5700.7922879,N,00959.0284607,E,2,8,1.1,14.156,M,40.582,M,1.9,0123*4D\r\n
$GPGGA,152555.35,5700.7922866,N,00959.0284685,E,2,8,1.1,14.158,M,40.582,M,1.9,0123*42\r\n
$GPGGA,152555.40,5700.7922850,N,00959.0284760,E,2,8,1.1,14.156,M,40.582,M,1.9,0123*41\r\n
$GPGGA,152555.45,5700.7922842,N,00959.0284827,E,2,8,1.1,14.154,M,40.582,M,2.2,0123*41\r\n
$GPGGA,152555.50,5700.7922836,N,00959.0284883,E,2,8,1.1,14.154,M,40.582,M,2.2,0123*48\r\n
$GPGGA,152555.55,5700.7922833,N,00959.0284940,E,2,8,1.1,14.156,M,40.582,M,2.2,0123*44\r\n
$GPGGA,152555.60,5700.7922812,N,00959.0285004,E,2,8,1.1,14.157,M,40.582,M,2.2,0123*48\r\n
$GPGGA,152555.65,5700.7922795,N,00959.0285059,E,2,8,1.1,14.156,M,40.582,M,0.9,0123*4D\r\n
$GPGGA,152555.70,5700.7922780,N,00959.0285128,E,2,8,1.1,14.156,M,40.582,M,0.9,0123*4A\r\n
$GPGGA,152555.75,5700.7922769,N,00959.0285191,E,2,8,1.1,14.153,M,40.582,M,0.9,0123*4F\r\n
$GPGGA,152555.80,5700.7922771,N,00959.0285267,E,2,8,1.1,14.152,M,40.582,M,0.9,0123*47\r\n
$GPGGA,152555.85,5700.7922779,N,00959.0285354,E,2,8,1.1,14.154,M,40.582,M,1.2,0123*47\r\n
$GPGGA,152555.90,5700.7922781,N,00959.0285422,E,2,8,1.1,14.150,M,40.582,M,1.2,0123*46\r\n
$GPGGA,152555.95,5700.7922794,N,00959.0285494,E,2,8,1.1,14.149,M,40.582,M,1.2,0123*42\r\n
$GPGGA,152556.00,5700.7922802,N,00959.0285567,E,2,8,1.1,14.147,M,40.582,M,1.2,0123*4E\r\n
$GPGGA,152556.05,5700.7922811,N,00959.0285610,E,2,8,1.1,14.145,M,40.582,M,1.4,0123*4E\r\n
$GPGGA,152556.10,5700.7922813,N,00959.0285673,E,2,8,1.1,14.145,M,40.582,M,1.4,0123*4D\r\n
$GPGGA,152556.15,5700.7922812,N,00959.0285735,E,2,8,1.1,14.145,M,40.582,M,1.4,0123*4A\r\n
$GPGGA,152556.20,5700.7922814,N,00959.0285788,E,2,8,1.1,14.145,M,40.582,M,1.4,0123*4C\r\n
$GPGGA,152556.25,5700.7922804,N,00959.0285831,E,2,8,1.1,14.145,M,40.582,M,1.6,0123*47\r\n
$GPGGA,152556.30,5700.7922793,N,00959.0285872,E,2,8,1.1,14.144,M,40.582,M,1.6,0123*44\r\n
$GPGGA,152556.35,5700.7922784,N,00959.0285912,E,2,8,1.1,14.144,M,40.582,M,1.6,0123*40\r\n
$GPGGA,152556.40,5700.7922784,N,00959.0285955,E,2,8,1.1,14.147,M,40.582,M,1.6,0123*42\r\n
$GPGGA,152556.45,5700.7922772,N,00959.0285983,E,2,8,1.1,14.146,M,40.582,M,1.9,0123*4B\r\n
$GPGGA,152556.50,5700.7922766,N,00959.0286017,E,2,8,1.1,14.146,M,40.582,M,1.9,0123*4D\r\n
$GPGGA,152556.55,5700.7922758,N,00959.0286055,E,2,8,1.1,14.146,M,40.582,M,1.9,0123*43\r\n
$GPGGA,152556.60,5700.7922751,N,00959.0286080,E,2,8,1.1,14.146,M,40.582,M,1.9,0123*44\r\n
$GPGGA,152556.65,5700.7922732,N,00959.0286088,E,2,8,1.1,14.141,M,40.582,M,2.1,0123*40\r\n
$GPGGA,152556.70,5700.7922723,N,00959.0286111,E,2,8,1.1,14.140,M,40.582,M,2.1,0123*44\r\n
$GPGGA,152556.75,5700.7922713,N,00959.0286130,E,2,8,1.1,14.140,M,40.582,M,2.1,0123*41\r\n
$GPGGA,152556.80,5700.7922702,N,00959.0286149,E,2,8,1.1,14.140,M,40.582,M,2.1,0123*45\r\n
$GPGGA,152556.85,5700.7922689,N,00959.0286169,E,2,8,1.1,14.141,M,40.582,M,2.3,0123*43\r\n
$GPGGA,152556.90,5700.7922678,N,00959.0286185,E,2,8,1.1,14.141,M,40.582,M,2.3,0123*4B\r\n
$GPGGA,152556.95,5700.7922669,N,00959.0286199,E,2,8,1.1,14.140,M,40.582,M,2.3,0123*42\r\n
$GPGGA,152557.00,5700.7922660,N,00959.0286209,E,2,8,1.1,14.139,M,40.582,M,2.3,0123*42\r\n
$GPGGA,152557.05,5700.7922675,N,00959.0286220,E,2,8,1.1,14.130,M,40.582,M,2.5,0123*47\r\n
$GPGGA,152557.10,5700.7922667,N,00959.0286232,E,2,8,1.1,14.129,M,40.582,M,2.5,0123*4B\r\n
$GPGGA,152557.15,5700.7922660,N,00959.0286240,E,2,8,1.1,14.128,M,40.582,M,2.5,0123*4D\r\n
$GPGGA,152557.20,5700.7922655,N,00959.0286249,E,2,8,1.1,14.127,M,40.582,M,2.5,0123*4B\r\n
$GPGGA,152557.25,5700.7922679,N,00959.0286284,E,2,8,1.1,14.134,M,40.582,M,2.7,0123*41\r\n
$GPGGA,152557.30,5700.7922677,N,00959.0286293,E,2,8,1.1,14.133,M,40.582,M,2.7,0123*4A\r\n
$GPGGA,152557.35,5700.7922677,N,00959.0286299,E,2,8,1.1,14.132,M,40.582,M,2.7,0123*44\r\n
$GPGGA,152557.40,5700.7922679,N,00959.0286305,E,2,8,1.1,14.131,M,40.582,M,2.7,0123*4F\r\n
$GPGGA,152557.45,5700.7922710,N,00959.0286319,E,2,8,1.1,14.135,M,40.582,M,2.9,0123*43\r\n
$GPGGA,152557.50,5700.7922715,N,00959.0286325,E,2,8,1.1,14.135,M,40.582,M,2.9,0123*4D\r\n
$GPGGA,152557.55,5700.7922720,N,00959.0286330,E,2,8,1.1,14.135,M,40.582,M,2.9,0123*4A\r\n
$GPGGA,152557.60,5700.7922725,N,00959.0286339,E,2,8,1.1,14.135,M,40.582,M,2.9,0123*40\r\n
$GPGGA,152557.65,5700.7922726,N,00959.0286362,E,2,8,1.1,14.138,M,40.582,M,2.1,0123*4D\r\n
$GPGGA,152557.70,5700.7922732,N,00959.0286373,E,2,8,1.1,14.139,M,40.582,M,2.1,0123*4D\r\n
$GPGGA,152557.75,5700.7922738,N,00959.0286385,E,2,8,1.1,14.140,M,40.582,M,2.1,0123*45\r\n
$GPGGA,152557.80,5700.7922744,N,00959.0286399,E,2,8,1.1,14.141,M,40.582,M,2.1,0123*48\r\n
$GPGGA,152557.85,5700.7922726,N,00959.0286425,E,2,8,1.1,14.136,M,40.582,M,2.4,0123*4C\r\n
$GPGGA,152557.90,5700.7922734,N,00959.0286439,E,2,8,1.1,14.137,M,40.582,M,2.4,0123*47\r\n
$GPGGA,152557.95,5700.7922743,N,00959.0286455,E,2,8,1.1,14.137,M,40.582,M,2.4,0123*48\r\n
$GPGGA,152558.00,5700.7922753,N,00959.0286476,E,2,8,1.1,14.138,M,40.582,M,2.4,0123*44\r\n
$GPGGA,152558.05,5700.7922760,N,00959.0286518,E,2,8,1.1,14.120,M,40.582,M,2.7,0123*42\r\n
$GPGGA,152558.10,5700.7922770,N,00959.0286564,E,2,8,1.1,14.117,M,40.582,M,2.7,0123*48\r\n
$GPGGA,152558.15,5700.7922774,N,00959.0286615,E,2,8,1.1,14.116,M,40.582,M,2.7,0123*4D\r\n
$GPGGA,152558.20,5700.7922775,N,00959.0286660,E,2,8,1.1,14.110,M,40.582,M,2.7,0123*4E\r\n
$GPGGA,152558.25,5700.7922774,N,00959.0286697,E,2,8,1.1,14.099,M,40.582,M,3.0,0123*44\r\n
$GPGGA,152558.30,5700.7922777,N,00959.0286755,E,2,8,1.1,14.093,M,40.582,M,3.0,0123*46\r\n
$GPGGA,152558.35,5700.7922775,N,00959.0286833,E,2,8,1.1,14.087,M,40.582,M,3.0,0123*4B\r\n
$GPGGA,152558.40,5700.7922765,N,00959.0286906,E,2,8,1.1,14.075,M,40.582,M,3.0,0123*42\r\n
$GPGGA,152558.45,5700.7922758,N,00959.0286994,E,2,8,1.1,14.063,M,40.582,M,3.2,0123*47\r\n
$GPGGA,152558.50,5700.7922762,N,00959.0287086,E,2,8,1.1,14.051,M,40.582,M,3.2,0123*40\r\n
$GPGGA,152558.55,5700.7922756,N,00959.0287180,E,2,8,1.1,14.039,M,40.582,M,3.2,0123*4B\r\n
$GPGGA,152558.60,5700.7922745,N,00959.0287286,E,2,8,1.1,14.027,M,40.582,M,3.2,0123*45\r\n
$GPGGA,152558.65,5700.7922734,N,00959.0287366,E,2,8,1.1,14.011,M,40.582,M,1.1,0123*4D\r\n
$GPGGA,152558.70,5700.7922725,N,00959.0287457,E,2,8,1.1,13.999,M,40.582,M,1.1,0123*42\r\n
$GPGGA,152558.75,5700.7922713,N,00959.0287545,E,2,8,1.1,13.988,M,40.582,M,1.1,0123*40\r\n
$GPGGA,152558.80,5700.7922687,N,00959.0287615,E,2,8,1.1,13.975,M,40.582,M,1.1,0123*42\r\n
$GPGGA,152558.85,5700.7922663,N,00959.0287704,E,2,8,1.1,13.964,M,40.582,M,1.4,0123*49\r\n
