$GPGGA,092501.65,5703.3148106,N,00952.3273135,E,2,11,0.8,-1.860,M,40.593,M,2.2,0123*68\r\n
$GPGGA,092501.70,5703.3147910,N,00952.3273292,E,2,11,0.8,-1.858,M,40.593,M,2.2,0123*69\r\n
$GPGGA,092501.75,5703.3147724,N,00952.3273464,E,2,11,0.8,-1.857,M,40.593,M,2.2,0123*65\r\n
$GPGGA,092501.80,5703.3147527,N,00952.3273646,E,2,11,0.8,-1.856,M,40.593,M,2.2,0123*6D\r\n
$GPGGA,092501.85,5703.3147315,N,00952.3273825,E,2,11,0.8,-1.862,M,40.593,M,2.4,0123*65\r\n
$GPGGA,092501.90,5703.3147081,N,00952.3274011,E,2,11,0.8,-1.864,M,40.593,M,2.4,0123*61\r\n
$GPGGA,092501.95,5703.3146867,N,00952.3274185,E,2,11,0.8,-1.866,M,40.593,M,2.4,0123*6B\r\n
$GPGGA,092502.00,5703.3146653,N,00952.3274351,E,2,11,0.8,-1.866,M,40.593,M,2.4,0123*66\r\n
$GPGGA,092502.05,5703.3146453,N,00952.3274522,E,2,11,0.8,-1.865,M,40.593,M,2.7,0123*63\r\n
$GPGGA,092502.10,5703.3146262,N,00952.3274709,E,2,11,0.8,-1.866,M,40.593,M,2.7,0123*6B\r\n
$GPGGA,092502.15,5703.3146064,N,00952.3274888,E,2,11,0.8,-1.867,M,40.593,M,2.7,0123*6D\r\n
$GPGGA,092502.20,5703.3145852,N,00952.3275043,E,2,11,0.8,-1.868,M,40.593,M,2.7,0123*64\r\n
$GPGGA,092502.25,5703.3145622,N,00952.3275218,E,2,11,0.8,-1.869,M,40.593,M,2.9,0123*6B\r\n
$GPGGA,092502.30,5703.3145392,N,00952.3275387,E,2,11,0.8,-1.866,M,40.593,M,2.9,0123*69\r\n
$GPGGA,092502.35,5703.3145218,N,00952.3275551,E,2,11,0.8,-1.861,M,40.593,M,2.9,0123*65\r\n
$GPGGA,092502.40,5703.3145035,N,00952.3275714,E,2,11,0.8,-1.857,M,40.593,M,2.9,0123*6C\r\n
$GPGGA,092502.45,5703.3144831,N,00952.3275913,E,2,11,0.8,-1.853,M,40.593,M,3.1,0123*60\r\n
$GPGGA,092502.50,5703.3144603,N,00952.3276086,E,2,11,0.8,-1.856,M,40.593,M,3.1,0123*68\r\n
$GPGGA,092502.55,5703.3144400,N,00952.3276243,E,2,11,0.8,-1.858,M,40.593,M,3.1,0123*69\r\n
$GPGGA,092502.60,5703.3144198,N,00952.3276404,E,2,11,0.8,-1.859,M,40.593,M,3.1,0123*6F\r\n
$GPGGA,092502.65,5703.3143969,N,00952.3276607,E,2,11,0.8,-1.868,M,40.593,M,3.3,0123*6A\r\n
$GPGGA,092502.70,5703.3143761,N,00952.3276782,E,2,11,0.8,-1.867,M,40.593,M,3.3,0123*6B\r\n
$GPGGA,092502.75,5703.3143550,N,00952.3276946,E,2,11,0.8,-1.868,M,40.593,M,3.3,0123*67\r\n
$GPGGA,092502.80,5703.3143337,N,00952.3277141,E,2,11,0.8,-1.868,M,40.593,M,3.3,0123*64\r\n
$GPGGA,092502.85,5703.3143141,N,00952.3277309,E,2,11,0.8,-1.862,M,40.593,M,3.5,0123*60\r\n
$GPGGA,092502.90,5703.3142936,N,00952.3277466,E,2,11,0.8,-1.864,M,40.593,M,3.5,0123*65\r\n
$GPGGA,092502.95,5703.3142705,N,00952.3277632,E,2,11,0.8,-1.865,M,40.593,M,3.5,0123*6C\r\n
$GPGGA,092503.00,5703.3142486,N,00952.3277813,E,2,11,0.8,-1.866,M,40.593,M,3.5,0123*67\r\n
$GPGGA,092503.05,5703.3142278,N,00952.3277977,E,2,11,0.8,-1.872,M,40.593,M,3.7,0123*61\r\n
$GPGGA,092503.10,5703.3142058,N,00952.3278155,E,2,11,0.8,-1.870,M,40.593,M,3.7,0123*60\r\n
$GPGGA,092503.15,5703.3141839,N,00952.3278331,E,2,11,0.8,-1.867,M,40.593,M,3.7,0123*6F\r\n
$GPGGA,092503.20,5703.3141621,N,00952.3278512,E,2,11,0.8,-1.868,M,40.593,M,3.7,0123*66\r\n
$GPGGA,092503.25,5703.3141430,N,00952.3278674,E,2,11,0.8,-1.864,M,40.593,M,3.9,0123*60\r\n
$GPGGA,092503.30,5703.3141222,N,00952.3278838,E,2,11,0.8,-1.865,M,40.593,M,3.9,0123*66\r\n
$GPGGA,092503.35,5703.3141012,N,00952.3279006,E,2,11,0.8,-1.866,M,40.593,M,3.9,0123*65\r\n
$GPGGA,092503.40,5703.3140788,N,00952.3279199,E,2,11,0.8,-1.867,M,40.593,M,3.9,0123*64\r\n
$GPGGA,092503.45,5703.3140563,N,00952.3279372,E,2,11,0.8,-1.870,M,40.593,M,1.0,0123*6C\r\n
$GPGGA,092503.50,5703.3140382,N,00952.3279546,E,2,11,0.8,-1.867,M,40.593,M,1.0,0123*66\r\n
$GPGGA,092503.55,5703.3140173,N,00952.3279734,E,2,11,0.8,-1.865,M,40.593,M,1.0,0123*6A\r\n
$GPGGA,092503.60,5703.3139941,N,00952.3279898,E,2,11,0.8,-1.870,M,40.593,M,1.0,0123*66\r\n
$GPGGA,092503.65,5703.3139724,N,00952.3280034,E,2,11,0.8,-1.868,M,40.593,M,1.3,0123*6C\r\n
$GPGGA,092503.70,5703.3139493,N,00952.3280182,E,2,11,0.8,-1.869,M,40.593,M,1.3,0123*6A\r\n
$GPGGA,092503.75,5703.3139266,N,00952.3280362,E,2,11,0.8,-1.867,M,40.593,M,1.3,0123*61\r\n
$GPGGA,092503.80,5703.3139070,N,00952.3280542,E,2,11,0.8,-1.864,M,40.593,M,1.3,0123*69\r\n
$GPGGA,092503.85,5703.3138870,N,00952.3280734,E,2,11,0.8,-1.866,M,40.593,M,1.6,0123*61\r\n
$GPGGA,092503.90,5703.3138686,N,00952.3280903,E,2,11,0.8,-1.863,M,40.593,M,1.6,0123*6D\r\n
$GPGGA,092503.95,5703.3138467,N,00952.3281072,E,2,11,0.8,-1.865,M,40.593,M,1.6,0123*6D\r\n
$GPGGA,092504.00,5703.3138220,N,00952.3281240,E,2,11,0.8,-1.869,M,40.593,M,1.6,0123*6C\r\n
$GPGGA,092504.05,5703.3138009,N,00952.3281401,E,2,11,0.8,-1.865,M,40.593,M,1.9,0123*60\r\n
$GPGGA,092504.10,5703.3137798,N,00952.3281567,E,2,11,0.8,-1.865,M,40.593,M,1.9,0123*65\r\n
$GPGGA,092504.15,5703.3137576,N,00952.3281723,E,2,11,0.8,-1.866,M,40.593,M,1.9,0123*63\r\n
$GPGGA,092504.20,5703.3137341,N,00952.3281895,E,2,11,0.8,-1.864,M,40.593,M,1.9,0123*67\r\n
$GPGGA,092504.25,5703.3137129,N,00952.3282062,E,2,11,0.8,-1.863,M,40.593,M,2.2,0123*62\r\n
$GPGGA,092504.30,5703.3136926,N,00952.3282226,E,2,11,0.8,-1.866,M,40.593,M,2.2,0123*67\r\n
$GPGGA,092504.35,5703.3136693,N,00952.3282420,E,2,11,0.8,-1.867,M,40.593,M,2.2,0123*62\r\n
$GPGGA,092504.40,5703.3136468,N,00952.3282596,E,2,11,0.8,-1.866,M,40.593,M,2.2,0123*6B\r\n
$GPGGA,092504.45,5703.3136264,N,00952.3282740,E,2,11,0.8,-1.866,M,40.593,M,0.7,0123*6A\r\n
$GPGGA,092504.50,5703.3136038,N,00952.3282890,E,2,11,0.8,-1.865,M,40.593,M,0.7,0123*64\r\n
$GPGGA,092504.55,5703.3135825,N,00952.3283056,E,2,11,0.8,-1.862,M,40.593,M,0.7,0123*62\r\n
$GPGGA,092504.60,5703.3135611,N,00952.3283239,E,2,11,0.8,-1.862,M,40.593,M,0.7,0123*66\r\n
$GPGGA,092504.65,5703.3135397,N,00952.3283432,E,2,11,0.8,-1.864,M,40.593,M,1.0,0123*65\r\n
$GPGGA,092504.70,5703.3135202,N,00952.3283625,E,2,11,0.8,-1.862,M,40.593,M,1.0,0123*6E\r\n
$GPGGA,092504.75,5703.3134976,N,00952.3283790,E,2,11,0.8,-1.862,M,40.593,M,1.0,0123*6D\r\n
$GPGGA,092504.80,5703.3134737,N,00952.3283927,E,2,11,0.8,-1.864,M,40.593,M,1.0,0123*68\r\n
$GPGGA,092504.85,5703.3134512,N,00952.3284074,E,2,11,0.8,-1.864,M,40.593,M,1.3,0123*63\r\n
$GPGGA,092504.90,5703.3134295,N,00952.3284248,E,2,11,0.8,-1.864,M,40.593,M,1.3,0123*62\r\n
$GPGGA,092504.95,5703.3134067,N,00952.3284421,E,2,11,0.8,-1.865,M,40.593,M,1.3,0123*60\r\n
$GPGGA,092505.00,5703.3133855,N,00952.3284613,E,2,11,0.8,-1.866,M,40.593,M,1.3,0123*63\r\n
$GPGGA,092505.05,5703.3133645,N,00952.3284803,E,2,11,0.8,-1.862,M,40.593,M,1.5,0123*64\r\n
$GPGGA,092505.10,5703.3133431,N,00952.3284964,E,2,11,0.8,-1.858,M,40.593,M,1.5,0123*68\r\n
$GPGGA,092505.15,5703.3133220,N,00952.3285122,E,2,11,0.8,-1.859,M,40.593,M,1.5,0123*61\r\n
$GPGGA,092505.20,5703.3132974,N,00952.3285306,E,2,11,0.8,-1.860,M,40.593,M,1.5,0123*62\r\n
$GPGGA,092505.25,5703.3132749,N,00952.3285481,E,2,11,0.8,-1.856,M,40.593,M,1.8,0123*67\r\n
$GPGGA,092505.30,5703.3132528,N,00952.3285631,E,2,11,0.8,-1.859,M,40.593,M,1.8,0123*60\r\n
$GPGGA,092505.35,5703.3132307,N,00952.3285797,E,2,11,0.8,-1.862,M,40.593,M,1.8,0123*6B\r\n
$GPGGA,092505.40,5703.3132085,N,00952.3285992,E,2,11,0.8,-1.861,M,40.593,M,1.8,0123*68\r\n
$GPGGA,092505.45,5703.3131860,N,00952.3286195,E,2,11,0.8,-1.865,M,40.593,M,2.0,0123*6E\r\n
$GPGGA,092505.50,5703.3131636,N,00952.3286368,E,2,11,0.8,-1.868,M,40.593,M,2.0,0123*6A\r\n
$GPGGA,092505.55,5703.3131394,N,00952.3286537,E,2,11,0.8,-1.873,M,40.593,M,2.0,0123*64\r\n
$GPGGA,092505.60,5703.3131155,N,00952.3286685,E,2,11,0.8,-1.876,M,40.593,M,2.0,0123*62\r\n
$GPGGA,092505.65,5703.3130932,N,00952.3286863,E,2,11,0.8,-1.871,M,40.593,M,2.2,0123*6C\r\n
$GPGGA,092505.70,5703.3130718,N,00952.3287049,E,2,11,0.8,-1.868,M,40.593,M,2.2,0123*67\r\n
$GPGGA,092505.75,5703.3130503,N,00952.3287242,E,2,11,0.8,-1.866,M,40.593,M,2.2,0123*6D\r\n
$GPGGA,092505.80,5703.3130273,N,00952.3287431,E,2,11,0.8,-1.866,M,40.593,M,2.2,0123*65\r\n
$GPGGA,092505.85,5703.3130040,N,00952.3287619,E,2,11,0.8,-1.857,M,40.593,M,2.4,0123*6E\r\n
$GPGGA,092505.90,5703.3129818,N,00952.3287831,E,2,11,0.8,-1.849,M,40.593,M,2.4,0123*6C\r\n
$GPGGA,092505.95,5703.3129572,N,00952.3288059,E,2,11,0.8,-1.841,M,40.593,M,2.4,0123*69\r\n
$GPGGA,092506.00,5703.3129307,N,00952.3288249,E,2,11,0.8,-1.838,M,40.593,M,2.4,0123*6F\r\n
$GPGGA,092506.05,5703.3129053,N,00952.3288450,E,2,11,0.8,-1.839,M,40.593,M,2.7,0123*64\r\n
$GPGGA,092506.10,5703.3128818,N,00952.3288664,E,2,11,0.8,-1.834,M,40.593,M,2.7,0123*6E\r\n
$GPGGA,092506.15,5703.3128534,N,00952.3288868,E,2,11,0.8,-1.829,M,40.593,M,2.7,0123*66\r\n
$GPGGA,092506.20,5703.3128213,N,00952.3289124,E,2,11,0.8,-1.820,M,40.593,M,2.7,0123*6B\r\n
$GPGGA,092506.25,5703.3127919,N,00952.3289404,E,2,11,0.8,-1.812,M,40.593,M,2.9,0123*68\r\n
$GPGGA,092506.30,5703.3127604,N,00952.3289697,E,2,11,0.8,-1.805,M,40.593,M,2.9,0123*61\r\n
$GPGGA,092506.35,5703.3127276,N,00952.3290002,E,2,11,0.8,-1.800,M,40.593,M,2.9,0123*62\r\n
$GPGGA,092506.40,5703.3126928,N,00952.3290331,E,2,11,0.8,-1.791,M,40.593,M,2.9,0123*65\r\n
$GPGGA,092506.45,5703.3126546,N,00952.3290664,E,2,11,0.8,-1.781,M,40.593,M,3.1,0123*69\r\n
$GPGGA,092506.50,5703.3126158,N,00952.3291028,E,2,11,0.8,-1.771,M,40.593,M,3.1,0123*66\r\n
$GPGGA,092506.55,5703.3125756,N,00952.3291419,E,2,11,0.8,-1.759,M,40.593,M,3.1,0123*64\r\n
$GPGGA,092506.60,5703.3125351,N,00952.3291811,E,2,11,0.8,-1.750,M,40.593,M,3.1,0123*6C\r\n
$GPGGA,092506.65,5703.3124932,N,00952.3292245,E,2,11,0.8,-1.735,M,40.593,M,3.3,0123*6E\r\n
$GPGGA,092506.70,5703.3124465,N,00952.3292674,E,2,11,0.8,-1.727,M,40.593,M,3.3,0123*60\r\n
$GPGGA,092506.75,5703.3123968,N,00952.3293142,E,2,11,0.8,-1.721,M,40.593,M,3.3,0123*67\r\n
$GPGGA,092506.80,5703.3123481,N,00952.3293629,E,2,11,0.8,-1.714,M,40.593,M,3.3,0123*6B\r\n
$GPGGA,092506.85,5703.3122994,N,00952.3294134,E,2,11,0.8,-1.706,M,40.593,M,3.5,0123*6F\r\n
$GPGGA,092506.90,5703.3122489,N,00952.3294619,E,2,11,0.8,-1.699,M,40.593,M,3.5,0123*65\r\n
$GPGGA,092506.95,5703.3121951,N,00952.3295126,E,2,11,0.8,-1.693,M,40.593,M,3.5,0123*6B\r\n
$GPGGA,092507.00,5703.3121408,N,00952.3295681,E,2,11,0.8,-1.684,M,40.593,M,3.5,0123*6B\r\n
$GPGGA,092507.05,5703.3120862,N,00952.3296278,E,2,11,0.8,-1.682,M,40.593,M,3.7,0123*6A\r\n
$GPGGA,092507.10,5703.3120308,N,00952.3296867,E,2,11,0.8,-1.677,M,40.593,M,3.7,0123*67\r\n
$GPGGA,092507.15,5703.3119717,N,00952.3297484,E,2,11,0.8,-1.674,M,40.593,M,3.7,0123*61\r\n
$GPGGA,092507.20,5703.3119122,N,00952.3298141,E,2,11,0.8,-1.669,M,40.593,M,3.7,0123*68\r\n
$GPGGA,092507.25,5703.3118536,N,00952.3298802,E,2,11,0.8,-1.665,M,40.593,M,3.9,0123*61\r\n
$GPGGA,092507.30,5703.3117965,N,00952.3299479,E,2,11,0.8,-1.657,M,40.593,M,3.9,0123*60\r\n
$GPGGA,092507.35,5703.3117387,N,00952.3300162,E,2,11,0.8,-1.651,M,40.593,M,3.9,0123*6B\r\n
$GPGGA,092507.40,5703.3116777,N,00952.3300845,E,2,11,0.8,-1.646,M,40.593,M,3.9,0123*69\r\n
$GPGGA,092507.45,5703.3116155,N,00952.3301553,E,2,11,0.8,-1.637,M,40.593,M,2.4,0123*6B\r\n
$GPGGA,092507.50,5703.3115524,N,00952.3302259,E,2,11,0.8,-1.633,M,40.593,M,2.4,0123*64\r\n
$GPGGA,092507.55,5703.3114861,N,00952.3302985,E,2,11,0.8,-1.629,M,40.593,M,2.4,0123*6D\r\n
$GPGGA,092507.60,5703.3114219,N,00952.3303745,E,2,11,0.8,-1.623,M,40.593,M,2.4,0123*67\r\n
$GPGGA,092507.65,5703.3113596,N,00952.3304515,E,2,11,0.8,-1.620,M,40.593,M,2.6,0123*64\r\n
$GPGGA,092507.70,5703.3112977,N,00952.3305344,E,2,11,0.8,-1.612,M,40.593,M,2.6,0123*60\r\n
$GPGGA,092507.75,5703.3112313,N,00952.3306111,E,2,11,0.8,-1.609,M,40.593,M,2.6,0123*66\r\n
$GPGGA,092507.80,5703.3111641,N,00952.3306907,E,2,11,0.8,-1.604,M,40.593,M,2.6,0123*6F\r\n
$GPGGA,092507.85,5703.3111007,N,00952.3307718,E,2,11,0.8,-1.594,M,40.593,M,2.9,0123*6A\r\n
$GPGGA,092507.90,5703.3110375,N,00952.3308586,E,2,11,0.8,-1.584,M,40.593,M,2.9,0123*62\r\n
$GPGGA,092507.95,5703.3109718,N,00952.3309450,E,2,11,0.8,-1.586,M,40.593,M,2.9,0123*69\r\n
$GPGGA,092508.00,5703.3109075,N,00952.3310279,E,2,11,0.8,-1.589,M,40.593,M,2.9,0123*6C\r\n
$GPGGA,092508.05,5703.3108425,N,00952.3311061,E,2,11,0.8,-1.603,M,40.593,M,3.1,0123*6B\r\n
$GPGGA,092508.10,5703.3107809,N,00952.3311843,E,2,11,0.8,-1.610,M,40.593,M,3.1,0123*68\r\n
$GPGGA,092508.15,5703.3107219,N,00952.3312612,E,2,11,0.8,-1.616,M,40.593,M,3.1,0123*69\r\n
$GPGGA,092508.20,5703.3106636,N,00952.3313379,E,2,11,0.8,-1.624,M,40.593,M,3.1,0123*6F\r\n
$GPGGA,092508.25,5703.3106065,N,00952.3314127,E,2,11,0.8,-1.635,M,40.593,M,3.3,0123*66\r\n
$GPGGA,092508.30,5703.3105512,N,00952.3314832,E,2,11,0.8,-1.649,M,40.593,M,3.3,0123*62\r\n
$GPGGA,092508.35,5703.3104977,N,00952.3315534,E,2,11,0.8,-1.664,M,40.593,M,3.3,0123*6C\r\n
$GPGGA,092508.40,5703.3104431,N,00952.3316186,E,2,11,0.8,-1.682,M,40.593,M,3.3,0123*67\r\n
$GPGGA,092508.45,5703.3103878,N,00952.3316805,E,2,11,0.8,-1.707,M,40.593,M,2.4,0123*6C\r\n
$GPGGA,092508.50,5703.3103392,N,00952.3317413,E,2,11,0.8,-1.722,M,40.593,M,2.4,0123*6A\r\n
$GPGGA,092508.55,5703.3102921,N,00952.3318083,E,2,10,0.8,-1.738,M,40.593,M,2.4,0123*64\r\n
$GPGGA,092508.60,5703.3102480,N,00952.3318694,E,2,10,0.8,-1.753,M,40.593,M,2.4,0123*69\r\n
$GPGGA,092508.65,5703.3102095,N,00952.3319283,E,2,10,0.8,-1.766,M,40.593,M,2.7,0123*6A\r\n
$GPGGA,092508.70,5703.3101706,N,00952.3319852,E,2,10,0.8,-1.781,M,40.593,M,2.7,0123*6F\r\n
$GPGGA,092508.75,5703.3101290,N,00952.3320372,E,2,10,0.8,-1.792,M,40.593,M,2.7,0123*61\r\n
$GPGGA,092508.80,5703.3100878,N,00952.3320899,E,2,10,0.8,-1.799,M,40.593,M,2.7,0123*63\r\n
$GPGGA,092508.85,5703.3100511,N,00952.3321398,E,2,11,0.8,-1.808,M,40.593,M,2.9,0123*67\r\n
$GPGGA,092508.90,5703.3100157,N,00952.3321939,E,2,11,0.8,-1.820,M,40.593,M,2.9,0123*6E\r\n
$GPGGA,092508.95,5703.3099784,N,00952.3322425,E,2,11,0.8,-1.835,M,40.593,M,2.9,0123*65\r\n
$GPGGA,092509.00,5703.3099407,N,00952.3322920,E,2,11,0.8,-1.849,M,40.593,M,2.9,0123*63\r\n
$GPGGA,092509.05,5703.3099061,N,00952.3323430,E,2,11,0.8,-1.866,M,40.593,M,3.1,0123*6B\r\n
$GPGGA,092509.10,5703.3098739,N,00952.3323960,E,2,11,0.8,-1.874,M,40.593,M,3.1,0123*6F\r\n
$GPGGA,092509.15,5703.3098418,N,00952.3324494,E,2,11,0.8,-1.884,M,40.593,M,3.1,0123*64\r\n
$GPGGA,092509.20,5703.3098107,N,00952.3325001,E,2,11,0.8,-1.892,M,40.593,M,3.1,0123*67\r\n
$GPGGA,092509.25,5703.3097795,N,00952.3325507,E,2,11,0.8,-1.892,M,40.593,M,3.4,0123*66\r\n
$GPGGA,092509.30,5703.3097458,N,00952.3326033,E,2,11,0.8,-1.909,M,40.593,M,3.4,0123*62\r\n
$GPGGA,092509.35,5703.3097140,N,00952.3326535,E,2,11,0.8,-1.919,M,40.593,M,3.4,0123*69\r\n
$GPGGA,092509.40,5703.3096827,N,00952.3327062,E,2,11,0.8,-1.923,M,40.593,M,3.4,0123*6D\r\n
$GPGGA,092509.45,5703.3096498,N,00952.3327598,E,2,11,0.8,-1.932,M,40.593,M,2.0,0123*65\r\n
$GPGGA,092509.50,5703.3096162,N,00952.3328115,E,2,11,0.8,-1.945,M,40.593,M,2.0,0123*6F\r\n
$GPGGA,092509.55,5703.3095819,N,00952.3328638,E,2,11,0.8,-1.955,M,40.593,M,2.0,0123*65\r\n
$GPGGA,092509.60,5703.3095495,N,00952.3329139,E,2,11,0.8,-1.961,M,40.593,M,2.0,0123*6B\r\n
$GPGGA,092509.65,5703.3095170,N,00952.3329662,E,2,11,0.8,-1.964,M,40.593,M,2.2,0123*6E\r\n
$GPGGA,092509.70,5703.3094858,N,00952.3330153,E,2,11,0.8,-1.969,M,40.593,M,2.2,0123*68\r\n
$GPGGA,092509.75,5703.3094531,N,00952.3330645,E,2,11,0.8,-1.976,M,40.593,M,2.2,0123*61\r\n
$GPGGA,092509.80,5703.3094198,N,00952.3331212,E,2,11,0.8,-1.976,M,40.593,M,2.2,0123*6B\r\n
$GPGGA,092509.85,5703.3093865,N,00952.3331751,E,2,11,0.8,-1.974,M,40.593,M,2.4,0123*64\r\n
$GPGGA,092509.90,5703.3093562,N,00952.3332268,E,2,11,0.8,-1.971,M,40.593,M,2.4,0123*63\r\n
$GPGGA,092509.95,5703.3093261,N,00952.3332831,E,2,11,0.8,-1.966,M,40.593,M,2.4,0123*62\r\n
$GPGGA,092510.00,5703.3092952,N,00952.3333365,E,2,11,0.8,-1.960,M,40.593,M,2.4,0123*61\r\n
$GPGGA,092510.05,5703.3092686,N,00952.3333891,E,2,11,0.8,-1.943,M,40.593,M,2.7,0123*60\r\n
$GPGGA,092510.10,5703.3092350,N,00952.3334436,E,2,11,0.8,-1.938,M,40.593,M,2.7,0123*60\r\n
$GPGGA,092510.15,5703.3092028,N,00952.3335010,E,2,11,0.8,-1.928,M,40.593,M,2.7,0123*69\r\n
$GPGGA,092510.20,5703.3091715,N,00952.3335603,E,2,11,0.8,-1.919,M,40.593,M,2.7,0123*63\r\n
$GPGGA,092510.25,5703.3091399,N,00952.3336191,E,2,11,0.8,-1.909,M,40.593,M,2.9,0123*66\r\n
$GPGGA,092510.30,5703.3091069,N,00952.3336741,E,2,11,0.8,-1.906,M,40.593,M,2.9,0123*6A\r\n
$GPGGA,092510.35,5703.3090726,N,00952.3337297,E,2,11,0.8,-1.901,M,40.593,M,2.9,0123*6A\r\n
$GPGGA,092510.40,5703.3090414,N,00952.3337840,E,2,11,0.8,-1.892,M,40.593,M,2.9,0123*61\r\n
$GPGGA,092510.45,5703.3090096,N,00952.3338405,E,2,11,0.8,-1.893,M,40.593,M,3.1,0123*60\r\n
$GPGGA,092510.50,5703.3089767,N,00952.3338985,E,2,11,0.8,-1.888,M,40.593,M,3.1,0123*6A\r\n
$GPGGA,092510.55,5703.3089450,N,00952.3339532,E,2,11,0.8,-1.881,M,40.593,M,3.1,0123*60\r\n
$GPGGA,092510.60,5703.3089119,N,00952.3340136,E,2,11,0.8,-1.874,M,40.593,M,3.1,0123*6A\r\n
$GPGGA,092510.65,5703.3088818,N,00952.3340734,E,2,11,0.8,-1.864,M,40.593,M,3.3,0123*61\r\n
$GPGGA,092510.70,5703.3088521,N,00952.3341296,E,2,11,0.8,-1.861,M,40.593,M,3.3,0123*6B\r\n
$GPGGA,092510.75,5703.3088204,N,00952.3341823,E,2,11,0.8,-1.857,M,40.593,M,3.3,0123*6F\r\n
$GPGGA,092510.80,5703.3087880,N,00952.3342382,E,2,11,0.8,-1.851,M,40.593,M,3.3,0123*69\r\n
$GPGGA,092510.85,5703.3087586,N,00952.3342973,E,2,11,0.8,-1.843,M,40.593,M,3.5,0123*66\r\n
$GPGGA,092510.90,5703.3087287,N,00952.3343531,E,2,11,0.8,-1.839,M,40.593,M,3.5,0123*62\r\n
$GPGGA,092510.95,5703.3086985,N,00952.3344094,E,2,11,0.8,-1.834,M,40.593,M,3.5,0123*6F\r\n
$GPGGA,092511.00,5703.3086675,N,00952.3344637,E,2,11,0.8,-1.833,M,40.593,M,3.5,0123*6A\r\n
$GPGGA,092511.05,5703.3086342,N,00952.3345198,E,2,11,0.8,-1.839,M,40.593,M,3.7,0123*65\r\n
$GPGGA,092511.10,5703.3086026,N,00952.3345738,E,2,11,0.8,-1.840,M,40.593,M,3.7,0123*62\r\n
$GPGGA,092511.15,5703.3085712,N,00952.3346305,E,2,11,0.8,-1.837,M,40.593,M,3.7,0123*6D\r\n
$GPGGA,092511.20,5703.3085401,N,00952.3346851,E,2,11,0.8,-1.837,M,40.593,M,3.7,0123*60\r\n
$GPGGA,092511.25,5703.3085086,N,00952.3347407,E,2,11,0.8,-1.835,M,40.593,M,3.9,0123*6C\r\n
$GPGGA,092511.30,5703.3084810,N,00952.3347947,E,2,10,0.8,-1.832,M,40.593,M,3.9,0123*61\r\n
$GPGGA,092511.35,5703.3084530,N,00952.3348489,E,2,10,0.8,-1.829,M,40.593,M,3.9,0123*61\r\n
$GPGGA,092511.40,5703.3084238,N,00952.3349035,E,2,10,0.8,-1.826,M,40.593,M,3.9,0123*61\r\n
$GPGGA,092511.45,5703.3083967,N,00952.3349555,E,2,10,0.8,-1.822,M,40.593,M,2.4,0123*69\r\n
$GPGGA,092511.50,5703.3083659,N,00952.3350038,E,2,10,0.8,-1.823,M,40.593,M,2.4,0123*68\r\n
$GPGGA,092511.55,5703.3083348,N,00952.3350558,E,2,10,0.8,-1.823,M,40.593,M,2.4,0123*6B\r\n
$GPGGA,092511.60,5703.3083067,N,00952.3351061,E,2,10,0.8,-1.821,M,40.593,M,2.4,0123*6F\r\n
$GPGGA,092511.65,5703.3082800,N,00952.3351575,E,2,11,0.8,-1.816,M,40.593,M,2.6,0123*65\r\n
$GPGGA,092511.70,5703.3082524,N,00952.3352111,E,2,11,0.8,-1.809,M,40.593,M,2.6,0123*61\r\n
$GPGGA,092511.75,5703.3082219,N,00952.3352618,E,2,11,0.8,-1.812,M,40.593,M,2.6,0123*69\r\n
$GPGGA,092511.80,5703.3081936,N,00952.3353117,E,2,11,0.8,-1.814,M,40.593,M,2.6,0123*69\r\n
$GPGGA,092511.85,5703.3081651,N,00952.3353592,E,2,11,0.8,-1.822,M,40.593,M,2.9,0123*61\r\n
$GPGGA,092511.90,5703.3081358,N,00952.3354080,E,2,11,0.8,-1.825,M,40.593,M,2.9,0123*6F\r\n
$GPGGA,092511.95,5703.3081080,N,00952.3354573,E,2,11,0.8,-1.827,M,40.593,M,2.9,0123*67\r\n
$GPGGA,092512.00,5703.3080804,N,00952.3355067,E,2,11,0.8,-1.825,M,40.593,M,2.9,0123*6E\r\n
$GPGGA,092512.05,5703.3080549,N,00952.3355557,E,2,11,0.8,-1.816,M,40.593,M,3.1,0123*60\r\n
$GPGGA,092512.10,5703.3080280,N,00952.3356035,E,2,11,0.8,-1.820,M,40.593,M,3.1,0123*61\r\n
$GPGGA,092512.15,5703.3080016,N,00952.3356531,E,2,11,0.8,-1.818,M,40.593,M,3.1,0123*63\r\n
$GPGGA,092512.20,5703.3079744,N,00952.3357021,E,2,11,0.8,-1.821,M,40.593,M,3.1,0123*6C\r\n
$GPGGA,092512.25,5703.3079472,N,00952.3357486,E,2,11,0.8,-1.827,M,40.593,M,3.3,0123*62\r\n
$GPGGA,092512.30,5703.3079202,N,00952.3357952,E,2,11,0.8,-1.829,M,40.593,M,3.3,0123*6D\r\n
$GPGGA,092512.35,5703.3078970,N,00952.3358432,E,2,11,0.8,-1.827,M,40.593,M,3.3,0123*6D\r\n
$GPGGA,092512.40,5703.3078686,N,00952.3358905,E,2,11,0.8,-1.832,M,40.593,M,3.3,0123*64\r\n
$GPGGA,092512.45,5703.3078397,N,00952.3359374,E,2,11,0.8,-1.840,M,40.593,M,2.4,0123*6A\r\n
$GPGGA,092512.50,5703.3078144,N,00952.3359872,E,2,11,0.8,-1.843,M,40.593,M,2.4,0123*6C\r\n
$GPGGA,092512.55,5703.3077895,N,00952.3360335,E,2,11,0.8,-1.846,M,40.593,M,2.4,0123*64\r\n
$GPGGA,092512.60,5703.3077638,N,00952.3360762,E,2,11,0.8,-1.851,M,40.593,M,2.4,0123*6B\r\n
$GPGGA,092512.65,5703.3077399,N,00952.3361229,E,2,11,0.8,-1.852,M,40.593,M,2.7,0123*6B\r\n
$GPGGA,092512.70,5703.3077147,N,00952.3361698,E,2,11,0.8,-1.855,M,40.593,M,2.7,0123*67\r\n
$GPGGA,092512.75,5703.3076889,N,00952.3362170,E,2,11,0.8,-1.858,M,40.593,M,2.7,0123*67\r\n
$GPGGA,092512.80,5703.3076634,N,00952.3362630,E,2,11,0.8,-1.860,M,40.593,M,2.7,0123*6D\r\n
$GPGGA,092512.85,5703.3076385,N,00952.3363084,E,2,11,0.8,-1.857,M,40.593,M,2.9,0123*65\r\n
$GPGGA,092512.90,5703.3076136,N,00952.3363545,E,2,11,0.8,-1.861,M,40.593,M,2.9,0123*66\r\n
$GPGGA,092512.95,5703.3075897,N,00952.3364000,E,2,11,0.8,-1.865,M,40.593,M,2.9,0123*65\r\n
$GPGGA,092513.00,5703.3075652,N,00952.3364432,E,2,11,0.8,-1.870,M,40.593,M,2.9,0123*6E\r\n
$GPGGA,092513.05,5703.3075425,N,00952.3364901,E,2,11,0.8,-1.867,M,40.593,M,3.1,0123*6B\r\n
$GPGGA,092513.10,5703.3075190,N,00952.3365395,E,2,11,0.8,-1.864,M,40.593,M,3.1,0123*61\r\n
$GPGGA,092513.15,5703.3074945,N,00952.3365875,E,2,11,0.8,-1.865,M,40.593,M,3.1,0123*61\r\n
$GPGGA,092513.20,5703.3074688,N,00952.3366328,E,2,11,0.8,-1.869,M,40.593,M,3.1,0123*65\r\n
$GPGGA,092513.25,5703.3074473,N,00952.3366815,E,2,11,0.8,-1.866,M,40.593,M,3.4,0123*69\r\n
$GPGGA,092513.30,5703.3074239,N,00952.3367305,E,2,11,0.8,-1.864,M,40.593,M,3.4,0123*6C\r\n
$GPGGA,092513.35,5703.3073997,N,00952.3367769,E,2,11,0.8,-1.863,M,40.593,M,3.4,0123*68\r\n
$GPGGA,092513.40,5703.3073770,N,00952.3368231,E,2,11,0.8,-1.863,M,40.593,M,3.4,0123*6A\r\n
$GPGGA,092513.45,5703.3073550,N,00952.3368716,E,2,11,0.8,-1.857,M,40.593,M,2.0,0123*6D\r\n
$GPGGA,092513.50,5703.3073288,N,00952.3369180,E,2,11,0.8,-1.856,M,40.593,M,2.0,0123*62\r\n
$GPGGA,092513.55,5703.3073035,N,00952.3369622,E,2,11,0.8,-1.858,M,40.593,M,2.0,0123*62\r\n
$GPGGA,092513.60,5703.3072815,N,00952.3370092,E,2,11,0.8,-1.859,M,40.593,M,2.0,0123*6B\r\n
$GPGGA,092513.65,5703.3072564,N,00952.3370594,E,2,11,0.8,-1.871,M,40.593,M,2.2,0123*6E\r\n
$GPGGA,092513.70,5703.3072315,N,00952.3371091,E,2,11,0.8,-1.872,M,40.593,M,2.2,0123*68\r\n
$GPGGA,092513.75,5703.3072072,N,00952.3371552,E,2,11,0.8,-1.874,M,40.593,M,2.2,0123*63\r\n
$GPGGA,092513.80,5703.3071809,N,00952.3372050,E,2,11,0.8,-1.875,M,40.593,M,2.2,0123*6B\r\n
$GPGGA,092513.85,5703.3071597,N,00952.3372539,E,2,11,0.8,-1.866,M,40.593,M,2.4,0123*6A\r\n
$GPGGA,092513.90,5703.3071365,N,00952.3373039,E,2,11,0.8,-1.857,M,40.593,M,2.4,0123*63\r\n
$GPGGA,092513.95,5703.3071117,N,00952.3373527,E,2,11,0.8,-1.856,M,40.593,M,2.4,0123*6A\r\n
$GPGGA,092514.00,5703.3070883,N,00952.3373998,E,2,11,0.8,-1.856,M,40.593,M,2.4,0123*6C\r\n
$GPGGA,092514.05,5703.3070657,N,00952.3374479,E,2,11,0.8,-1.855,M,40.593,M,2.7,0123*6B\r\n
$GPGGA,092514.10,5703.3070398,N,00952.3374957,E,2,11,0.8,-1.856,M,40.593,M,2.7,0123*6B\r\n
$GPGGA,092514.15,5703.3070124,N,00952.3375428,E,2,11,0.8,-1.860,M,40.593,M,2.7,0123*6A\r\n
$GPGGA,092514.20,5703.3069907,N,00952.3375929,E,2,11,0.8,-1.858,M,40.593,M,2.7,0123*6A\r\n
$GPGGA,092514.25,5703.3069697,N,00952.3376443,E,2,11,0.8,-1.855,M,40.593,M,2.9,0123*68\r\n
$GPGGA,092514.30,5703.3069466,N,00952.3376925,E,2,11,0.8,-1.850,M,40.593,M,2.9,0123*68\r\n
$GPGGA,092514.35,5703.3069225,N,00952.3377379,E,2,11,0.8,-1.850,M,40.593,M,2.9,0123*6E\r\n
$GPGGA,092514.40,5703.3068977,N,00952.3377872,E,2,11,0.8,-1.850,M,40.593,M,2.9,0123*61\r\n
$GPGGA,092514.45,5703.3068759,N,00952.3378374,E,2,11,0.8,-1.842,M,40.593,M,0.9,0123*65\r\n
$GPGGA,092514.50,5703.3068528,N,00952.3378865,E,2,11,0.8,-1.841,M,40.593,M,0.9,0123*6D\r\n
$GPGGA,092514.55,5703.3068269,N,00952.3379330,E,2,11,0.8,-1.836,M,40.593,M,0.9,0123*60\r\n
$GPGGA,092514.60,5703.3068011,N,00952.3379814,E,2,11,0.8,-1.837,M,40.593,M,0.9,0123*67\r\n
$GPGGA,092514.65,5703.3067780,N,00952.3380312,E,2,11,0.8,-1.840,M,40.593,M,1.3,0123*62\r\n
$GPGGA,092514.70,5703.3067544,N,00952.3380815,E,2,11,0.8,-1.841,M,40.593,M,1.3,0123*61\r\n
$GPGGA,092514.75,5703.3067309,N,00952.3381320,E,2,11,0.8,-1.840,M,40.593,M,1.3,0123*66\r\n
$GPGGA,092514.80,5703.3067047,N,00952.3381795,E,2,11,0.8,-1.841,M,40.593,M,1.3,0123*6E\r\n
$GPGGA,092514.85,5703.3066845,N,00952.3382258,E,2,11,0.8,-1.832,M,40.593,M,1.6,0123*66\r\n
$GPGGA,092514.90,5703.3066624,N,00952.3382730,E,2,11,0.8,-1.827,M,40.593,M,1.6,0123*64\r\n
$GPGGA,092514.95,5703.3066406,N,00952.3383213,E,2,11,0.8,-1.824,M,40.593,M,1.6,0123*65\r\n
$GPGGA,092515.00,5703.3066183,N,00952.3383696,E,2,11,0.8,-1.823,M,40.593,M,1.6,0123*6E\r\n
$GPGGA,092515.05,5703.3065961,N,00952.3384172,E,2,11,0.8,-1.821,M,40.593,M,1.9,0123*6B\r\n
$GPGGA,092515.10,5703.3065720,N,00952.3384629,E,2,11,0.8,-1.824,M,40.593,M,1.9,0123*68\r\n
$GPGGA,092515.15,5703.3065466,N,00952.3385111,E,2,11,0.8,-1.823,M,40.593,M,1.9,0123*66\r\n
$GPGGA,092515.20,5703.3065249,N,00952.3385567,E,2,11,0.8,-1.821,M,40.593,M,1.9,0123*6C\r\n
$GPGGA,092515.25,5703.3065007,N,00952.3386042,E,2,11,0.8,-1.820,M,40.593,M,2.1,0123*6A\r\n
$GPGGA,092515.30,5703.3064767,N,00952.3386510,E,2,11,0.8,-1.820,M,40.593,M,2.1,0123*6C\r\n
$GPGGA,092515.35,5703.3064535,N,00952.3386988,E,2,11,0.8,-1.824,M,40.593,M,2.1,0123*65\r\n
$GPGGA,092515.40,5703.3064304,N,00952.3387469,E,2,11,0.8,-1.828,M,40.593,M,2.1,0123*6C\r\n
$GPGGA,092515.45,5703.3064081,N,00952.3387915,E,2,11,0.8,-1.832,M,40.593,M,1.0,0123*68\r\n
$GPGGA,092515.50,5703.3063879,N,00952.3388352,E,2,11,0.8,-1.828,M,40.593,M,1.0,0123*69\r\n
$GPGGA,092515.55,5703.3063662,N,00952.3388795,E,2,11,0.8,-1.829,M,40.593,M,1.0,0123*66\r\n
$GPGGA,092515.60,5703.3063456,N,00952.3389250,E,2,11,0.8,-1.830,M,40.593,M,1.0,0123*60\r\n
$GPGGA,092515.65,5703.3063255,N,00952.3389731,E,2,11,0.8,-1.822,M,40.593,M,1.3,0123*62\r\n
$GPGGA,092515.70,5703.3063033,N,00952.3390177,E,2,11,0.8,-1.824,M,40.593,M,1.3,0123*6E\r\n
$GPGGA,092515.75,5703.3062814,N,00952.3390635,E,2,11,0.8,-1.822,M,40.593,M,1.3,0123*60\r\n
$GPGGA,092515.80,5703.3062588,N,00952.3391085,E,2,11,0.8,-1.822,M,40.593,M,1.3,0123*6E\r\n
$GPGGA,092515.85,5703.3062372,N,00952.3391529,E,2,11,0.8,-1.822,M,40.593,M,1.6,0123*6E\r\n
$GPGGA,092515.90,5703.3062170,N,00952.3391969,E,2,11,0.8,-1.825,M,40.593,M,1.6,0123*65\r\n
$GPGGA,092515.95,5703.3061950,N,00952.3392440,E,2,11,0.8,-1.829,M,40.593,M,1.6,0123*60\r\n
$GPGGA,092516.00,5703.3061705,N,00952.3392883,E,2,11,0.8,-1.831,M,40.593,M,1.6,0123*6B\r\n
$GPGGA,092516.05,5703.3061487,N,00952.3393326,E,2,11,0.8,-1.837,M,40.593,M,1.9,0123*6B\r\n
$GPGGA,092516.10,5703.3061299,N,00952.3393804,E,2,11,0.8,-1.839,M,40.593,M,1.9,0123*63\r\n
$GPGGA,092516.15,5703.3061081,N,00952.3394259,E,2,11,0.8,-1.842,M,40.593,M,1.9,0123*64\r\n
$GPGGA,092516.20,5703.3060882,N,00952.3394710,E,2,11,0.8,-1.844,M,40.593,M,1.9,0123*66\r\n
$GPGGA,092516.25,5703.3060702,N,00952.3395176,E,2,11,0.8,-1.829,M,40.593,M,2.2,0123*60\r\n
$GPGGA,092516.30,5703.3060476,N,00952.3395632,E,2,11,0.8,-1.833,M,40.593,M,2.2,0123*68\r\n
$GPGGA,092516.35,5703.3060269,N,00952.3396076,E,2,11,0.8,-1.840,M,40.593,M,2.2,0123*64\r\n
$GPGGA,092516.40,5703.3060052,N,00952.3396519,E,2,11,0.8,-1.845,M,40.593,M,2.2,0123*65\r\n
$GPGGA,092516.45,5703.3059809,N,00952.3396986,E,2,11,0.8,-1.857,M,40.593,M,0.7,0123*62\r\n
$GPGGA,092516.50,5703.3059609,N,00952.3397458,E,2,11,0.8,-1.855,M,40.593,M,0.7,0123*65\r\n
$GPGGA,092516.55,5703.3059417,N,00952.3397917,E,2,11,0.8,-1.856,M,40.593,M,0.7,0123*68\r\n
$GPGGA,092516.60,5703.3059198,N,00952.3398382,E,2,11,0.8,-1.863,M,40.593,M,0.7,0123*63\r\n
$GPGGA,092516.65,5703.3059025,N,00952.3398803,E,2,11,0.8,-1.858,M,40.593,M,1.0,0123*6D\r\n
$GPGGA,092516.70,5703.3058816,N,00952.3399266,E,2,11,0.8,-1.858,M,40.593,M,1.0,0123*68\r\n
$GPGGA,092516.75,5703.3058626,N,00952.3399761,E,2,11,0.8,-1.853,M,40.593,M,1.0,0123*69\r\n
$GPGGA,092516.80,5703.3058423,N,00952.3400255,E,2,11,0.8,-1.852,M,40.593,M,1.0,0123*60\r\n
$GPGGA,092516.85,5703.3058250,N,00952.3400728,E,2,11,0.8,-1.851,M,40.593,M,1.3,0123*68\r\n
$GPGGA,092516.90,5703.3058070,N,00952.3401194,E,2,11,0.8,-1.849,M,40.593,M,1.3,0123*65\r\n
$GPGGA,092516.95,5703.3057846,N,00952.3401654,E,2,11,0.8,-1.852,M,40.593,M,1.3,0123*63\r\n
$GPGGA,092517.00,5703.3057638,N,00952.3402122,E,2,11,0.8,-1.854,M,40.593,M,1.3,0123*6A\r\n
$GPGGA,092517.05,5703.3057422,N,00952.3402592,E,2,11,0.8,-1.853,M,40.593,M,1.5,0123*68\r\n
$GPGGA,092517.10,5703.3057240,N,00952.3403034,E,2,11,0.8,-1.856,M,40.593,M,1.5,0123*63\r\n
$GPGGA,092517.15,5703.3057071,N,00952.3403533,E,2,11,0.8,-1.852,M,40.593,M,1.5,0123*60\r\n
$GPGGA,092517.20,5703.3056904,N,00952.3404010,E,2,11,0.8,-1.845,M,40.593,M,1.5,0123*69\r\n
$GPGGA,092517.25,5703.3056707,N,00952.3404498,E,2,11,0.8,-1.838,M,40.593,M,1.8,0123*62\r\n
$GPGGA,092517.30,5703.3056474,N,00952.3404963,E,2,11,0.8,-1.841,M,40.593,M,1.8,0123*66\r\n
$GPGGA,092517.35,5703.3056281,N,00952.3405445,E,2,11,0.8,-1.842,M,40.593,M,1.8,0123*64\r\n
$GPGGA,092517.40,5703.3056105,N,00952.3405918,E,2,11,0.8,-1.840,M,40.593,M,1.8,0123*6E\r\n
$GPGGA,092517.45,5703.3055892,N,00952.3406409,E,2,11,0.8,-1.850,M,40.593,M,2.0,0123*6B\r\n
$GPGGA,092517.50,5703.3055699,N,00952.3406912,E,2,11,0.8,-1.846,M,40.593,M,2.0,0123*6A\r\n
$GPGGA,092517.55,5703.3055513,N,00952.3407380,E,2,11,0.8,-1.843,M,40.593,M,2.0,0123*6B\r\n
$GPGGA,092517.60,5703.3055305,N,00952.3407847,E,2,11,0.8,-1.843,M,40.593,M,2.0,0123*6C\r\n
$GPGGA,092517.65,5703.3055145,N,00952.3408329,E,2,11,0.8,-1.840,M,40.593,M,2.2,0123*62\r\n
$GPGGA,092517.70,5703.3054958,N,00952.3408814,E,2,11,0.8,-1.840,M,40.593,M,2.2,0123*66\r\n
$GPGGA,092517.75,5703.3054738,N,00952.3409298,E,2,11,0.8,-1.833,M,40.593,M,2.2,0123*60\r\n
$GPGGA,092517.80,5703.3054546,N,00952.3409765,E,2,11,0.8,-1.830,M,40.593,M,2.2,0123*65\r\n
$GPGGA,092517.85,5703.3054382,N,00952.3410244,E,2,11,0.8,-1.826,M,40.593,M,2.4,0123*61\r\n
$GPGGA,092517.90,5703.3054198,N,00952.3410723,E,2,11,0.8,-1.832,M,40.593,M,2.4,0123*6D\r\n
$GPGGA,092517.95,5703.3054025,N,00952.3411205,E,2,11,0.8,-1.829,M,40.593,M,2.4,0123*65\r\n
$GPGGA,092518.00,5703.3053818,N,00952.3411695,E,2,11,0.8,-1.826,M,40.593,M,2.4,0123*65\r\n
$GPGGA,092518.05,5703.3053587,N,00952.3412156,E,2,11,0.8,-1.828,M,40.593,M,2.7,0123*6D\r\n
$GPGGA,092518.10,5703.3053403,N,00952.3412638,E,2,11,0.8,-1.827,M,40.593,M,2.7,0123*64\r\n
$GPGGA,092518.15,5703.3053218,N,00952.3413109,E,2,11,0.8,-1.824,M,40.593,M,2.7,0123*6A\r\n
$GPGGA,092518.20,5703.3053045,N,00952.3413581,E,2,11,0.8,-1.823,M,40.593,M,2.7,0123*65\r\n
$GPGGA,092518.25,5703.3052890,N,00952.3414026,E,2,10,0.8,-1.816,M,40.593,M,2.9,0123*67\r\n
$GPGGA,092518.30,5703.3052713,N,00952.3414508,E,2,10,0.8,-1.817,M,40.593,M,2.9,0123*6F\r\n
$GPGGA,092518.35,5703.3052516,N,00952.3415001,E,2,10,0.8,-1.817,M,40.593,M,2.9,0123*60\r\n
$GPGGA,092518.40,5703.3052307,N,00952.3415439,E,2,10,0.8,-1.818,M,40.593,M,2.9,0123*64\r\n
$GPGGA,092518.45,5703.3052075,N,00952.3415864,E,2,11,0.8,-1.835,M,40.593,M,3.1,0123*64\r\n
$GPGGA,092518.50,5703.3051871,N,00952.3416305,E,2,11,0.8,-1.839,M,40.593,M,3.1,0123*6C\r\n
$GPGGA,092518.55,5703.3051710,N,00952.3416787,E,2,11,0.8,-1.832,M,40.593,M,3.1,0123*64\r\n
$GPGGA,092518.60,5703.3051548,N,00952.3417250,E,2,11,0.8,-1.828,M,40.593,M,3.1,0123*68\r\n
$GPGGA,092518.65,5703.3051384,N,00952.3417707,E,2,11,0.8,-1.821,M,40.593,M,3.3,0123*67\r\n
$GPGGA,092518.70,5703.3051198,N,00952.3418167,E,2,11,0.8,-1.824,M,40.593,M,3.3,0123*66\r\n
$GPGGA,092518.75,5703.3051012,N,00952.3418621,E,2,11,0.8,-1.827,M,40.593,M,3.3,0123*66\r\n
$GPGGA,092518.80,5703.3050836,N,00952.3419079,E,2,11,0.8,-1.828,M,40.593,M,3.3,0123*66\r\n
$GPGGA,092518.85,5703.3050645,N,00952.3419539,E,2,10,0.8,-1.835,M,40.593,M,3.5,0123*63\r\n
$GPGGA,092518.90,5703.3050459,N,00952.3419994,E,2,10,0.8,-1.837,M,40.593,M,3.5,0123*61\r\n
$GPGGA,092518.95,5703.3050273,N,00952.3420437,E,2,10,0.8,-1.840,M,40.593,M,3.5,0123*64\r\n
$GPGGA,092519.00,5703.3050102,N,00952.3420886,E,2,10,0.8,-1.842,M,40.593,M,3.5,0123*68\r\n
$GPGGA,092519.05,5703.3049938,N,00952.3421345,E,2,10,0.8,-1.832,M,40.593,M,3.7,0123*64\r\n
$GPGGA,092519.10,5703.3049757,N,00952.3421795,E,2,10,0.8,-1.835,M,40.593,M,3.7,0123*69\r\n
$GPGGA,092519.15,5703.3049557,N,00952.3422238,E,2,10,0.8,-1.843,M,40.593,M,3.7,0123*6E\r\n
$GPGGA,092519.20,5703.3049376,N,00952.3422673,E,2,10,0.8,-1.847,M,40.593,M,3.7,0123*62\r\n
$GPGGA,092519.25,5703.3049177,N,00952.3423138,E,2,10,0.8,-1.854,M,40.593,M,3.9,0123*61\r\n
$GPGGA,092519.30,5703.3048988,N,00952.3423587,E,2,10,0.8,-1.857,M,40.593,M,3.9,0123*6F\r\n
$GPGGA,092519.35,5703.3048794,N,00952.3424042,E,2,10,0.8,-1.857,M,40.593,M,3.9,0123*62\r\n
$GPGGA,092519.40,5703.3048627,N,00952.3424493,E,2,10,0.8,-1.856,M,40.593,M,3.9,0123*60\r\n
$GPGGA,092519.45,5703.3048490,N,00952.3424924,E,2,11,0.8,-1.849,M,40.593,M,2.4,0123*69\r\n
$GPGGA,092519.50,5703.3048334,N,00952.3425378,E,2,11,0.8,-1.849,M,40.593,M,2.4,0123*66\r\n
$GPGGA,092519.55,5703.3048157,N,00952.3425862,E,2,11,0.8,-1.851,M,40.593,M,2.4,0123*6D\r\n
$GPGGA,092519.60,5703.3047976,N,00952.3426329,E,2,11,0.8,-1.851,M,40.593,M,2.4,0123*68\r\n
$GPGGA,092519.65,5703.3047789,N,00952.3426776,E,2,11,0.8,-1.859,M,40.593,M,2.6,0123*67\r\n
$GPGGA,092519.70,5703.3047621,N,00952.3427214,E,2,11,0.8,-1.858,M,40.593,M,2.6,0123*61\r\n
$GPGGA,092519.75,5703.3047432,N,00952.3427673,E,2,11,0.8,-1.858,M,40.593,M,2.6,0123*61\r\n
$GPGGA,092519.80,5703.3047255,N,00952.3428122,E,2,11,0.8,-1.856,M,40.593,M,2.6,0123*6E\r\n
$GPGGA,092519.85,5703.3047078,N,00952.3428571,E,2,11,0.8,-1.854,M,40.593,M,2.9,0123*69\r\n
$GPGGA,092519.90,5703.3046902,N,00952.3429020,E,2,11,0.8,-1.855,M,40.593,M,2.9,0123*69\r\n
$GPGGA,092519.95,5703.3046733,N,00952.3429491,E,2,11,0.8,-1.854,M,40.593,M,2.9,0123*6F\r\n
$GPGGA,092520.00,5703.3046566,N,00952.3429955,E,2,11,0.8,-1.851,M,40.593,M,2.9,0123*6B\r\n
$GPGGA,092520.05,5703.3046406,N,00952.3430393,E,2,11,0.8,-1.844,M,40.593,M,3.1,0123*6C\r\n
$GPGGA,092520.10,5703.3046209,N,00952.3430844,E,2,11,0.8,-1.843,M,40.593,M,3.1,0123*67\r\n
$GPGGA,092520.15,5703.3046043,N,00952.3431307,E,2,11,0.8,-1.844,M,40.593,M,3.1,0123*64\r\n
$GPGGA,092520.20,5703.3045877,N,00952.3431807,E,2,11,0.8,-1.841,M,40.593,M,3.1,0123*60\r\n
$GPGGA,092520.25,5703.3045687,N,00952.3432249,E,2,11,0.8,-1.847,M,40.593,M,3.3,0123*63\r\n
$GPGGA,092520.30,5703.3045506,N,00952.3432710,E,2,11,0.8,-1.846,M,40.593,M,3.3,0123*65\r\n
$GPGGA,092520.35,5703.3045343,N,00952.3433152,E,2,11,0.8,-1.845,M,40.593,M,3.3,0123*65\r\n
$GPGGA,092520.40,5703.3045176,N,00952.3433602,E,2,11,0.8,-1.844,M,40.593,M,3.3,0123*60\r\n
$GPGGA,092520.45,5703.3044987,N,00952.3434054,E,2,11,0.8,-1.844,M,40.593,M,2.4,0123*66\r\n
$GPGGA,092520.50,5703.3044811,N,00952.3434499,E,2,11,0.8,-1.846,M,40.593,M,2.4,0123*6B\r\n
$GPGGA,092520.55,5703.3044638,N,00952.3434966,E,2,11,0.8,-1.844,M,40.593,M,2.4,0123*64\r\n
$GPGGA,092520.60,5703.3044446,N,00952.3435445,E,2,11,0.8,-1.841,M,40.593,M,2.4,0123*61\r\n
$GPGGA,092520.65,5703.3044267,N,00952.3435873,E,2,11,0.8,-1.838,M,40.593,M,2.7,0123*65\r\n
$GPGGA,092520.70,5703.3044109,N,00952.3436330,E,2,11,0.8,-1.834,M,40.593,M,2.7,0123*69\r\n
$GPGGA,092520.75,5703.3043935,N,00952.3436790,E,2,11,0.8,-1.832,M,40.593,M,2.7,0123*64\r\n
$GPGGA,092520.80,5703.3043766,N,00952.3437230,E,2,11,0.8,-1.828,M,40.593,M,2.7,0123*63\r\n
$GPGGA,092520.85,5703.3043581,N,00952.3437689,E,2,11,0.8,-1.830,M,40.593,M,2.9,0123*6C\r\n
$GPGGA,092520.90,5703.3043379,N,00952.3438169,E,2,11,0.8,-1.834,M,40.593,M,2.9,0123*6B\r\n
$GPGGA,092520.95,5703.3043213,N,00952.3438627,E,2,11,0.8,-1.833,M,40.593,M,2.9,0123*69\r\n
$GPGGA,092521.00,5703.3043072,N,00952.3439058,E,2,11,0.8,-1.829,M,40.593,M,2.9,0123*65\r\n
$GPGGA,092521.05,5703.3042927,N,00952.3439483,E,2,11,0.8,-1.825,M,40.593,M,3.1,0123*6F\r\n
$GPGGA,092521.10,5703.3042747,N,00952.3439933,E,2,11,0.8,-1.821,M,40.593,M,3.1,0123*61\r\n
$GPGGA,092521.15,5703.3042565,N,00952.3440386,E,2,11,0.8,-1.824,M,40.593,M,3.1,0123*69\r\n
$GPGGA,092521.20,5703.3042389,N,00952.3440834,E,2,11,0.8,-1.826,M,40.593,M,3.1,0123*6B\r\n
$GPGGA,092521.25,5703.3042238,N,00952.3441293,E,2,11,0.8,-1.817,M,40.593,M,3.4,0123*64\r\n
$GPGGA,092521.30,5703.3042068,N,00952.3441725,E,2,11,0.8,-1.817,M,40.593,M,3.4,0123*6F\r\n
$GPGGA,092521.35,5703.3041882,N,00952.3442149,E,2,11,0.8,-1.821,M,40.593,M,3.4,0123*6F\r\n
$GPGGA,092521.40,5703.3041685,N,00952.3442568,E,2,11,0.8,-1.820,M,40.593,M,3.4,0123*62\r\n
$GPGGA,092521.45,5703.3041467,N,00952.3442990,E,2,11,0.8,-1.831,M,40.593,M,2.0,0123*67\r\n
$GPGGA,092521.50,5703.3041301,N,00952.3443418,E,2,11,0.8,-1.830,M,40.593,M,2.0,0123*69\r\n
$GPGGA,092521.55,5703.3041145,N,00952.3443858,E,2,11,0.8,-1.827,M,40.593,M,2.0,0123*60\r\n
$GPGGA,092521.60,5703.3040973,N,00952.3444284,E,2,11,0.8,-1.827,M,40.593,M,2.0,0123*66\r\n
$GPGGA,092521.65,5703.3040806,N,00952.3444726,E,2,11,0.8,-1.821,M,40.593,M,2.2,0123*69\r\n
$GPGGA,092521.70,5703.3040648,N,00952.3445176,E,2,11,0.8,-1.818,M,40.593,M,2.2,0123*61\r\n
$GPGGA,092521.75,5703.3040488,N,00952.3445620,E,2,11,0.8,-1.817,M,40.593,M,2.2,0123*61\r\n
$GPGGA,092521.80,5703.3040327,N,00952.3446067,E,2,11,0.8,-1.817,M,40.593,M,2.2,0123*6F\r\n
$GPGGA,092521.85,5703.3040163,N,00952.3446483,E,2,11,0.8,-1.817,M,40.593,M,2.4,0123*60\r\n
$GPGGA,092521.90,5703.3039975,N,00952.3446879,E,2,11,0.8,-1.821,M,40.593,M,2.4,0123*69\r\n
$GPGGA,092521.95,5703.3039773,N,00952.3447285,E,2,11,0.8,-1.826,M,40.593,M,2.4,0123*6B\r\n
$GPGGA,092522.00,5703.3039582,N,00952.3447704,E,2,11,0.8,-1.828,M,40.593,M,2.4,0123*6A\r\n
$GPGGA,092522.05,5703.3039390,N,00952.3448130,E,2,11,0.8,-1.835,M,40.593,M,2.7,0123*6B\r\n
$GPGGA,092522.10,5703.3039220,N,00952.3448565,E,2,11,0.8,-1.840,M,40.593,M,2.7,0123*63\r\n
$GPGGA,092522.15,5703.3039047,N,00952.3448986,E,2,11,0.8,-1.842,M,40.593,M,2.7,0123*66\r\n
$GPGGA,092522.20,5703.3038887,N,00952.3449418,E,2,11,0.8,-1.841,M,40.593,M,2.7,0123*6D\r\n
$GPGGA,092522.25,5703.3038740,N,00952.3449837,E,2,11,0.8,-1.839,M,40.593,M,2.9,0123*6C\r\n
$GPGGA,092522.30,5703.3038562,N,00952.3450242,E,2,11,0.8,-1.841,M,40.593,M,2.9,0123*65\r\n
$GPGGA,092522.35,5703.3038365,N,00952.3450689,E,2,11,0.8,-1.840,M,40.593,M,2.9,0123*63\r\n
$GPGGA,092522.40,5703.3038208,N,00952.3451125,E,2,11,0.8,-1.836,M,40.593,M,2.9,0123*6A\r\n
$GPGGA,092522.45,5703.3038064,N,00952.3451540,E,2,11,0.8,-1.836,M,40.593,M,3.1,0123*69\r\n
$GPGGA,092522.50,5703.3037893,N,00952.3451957,E,2,11,0.8,-1.841,M,40.593,M,3.1,0123*68\r\n
$GPGGA,092522.55,5703.3037727,N,00952.3452348,E,2,11,0.8,-1.844,M,40.593,M,3.1,0123*6F\r\n
$GPGGA,092522.60,5703.3037567,N,00952.3452757,E,2,11,0.8,-1.842,M,40.593,M,3.1,0123*63\r\n
$GPGGA,092522.65,5703.3037389,N,00952.3453190,E,2,11,0.8,-1.841,M,40.593,M,3.3,0123*6D\r\n
$GPGGA,092522.70,5703.3037224,N,00952.3453642,E,2,11,0.8,-1.841,M,40.593,M,3.3,0123*67\r\n
$GPGGA,092522.75,5703.3037063,N,00952.3454094,E,2,11,0.8,-1.845,M,40.593,M,3.3,0123*6D\r\n
$GPGGA,092522.80,5703.3036901,N,00952.3454531,E,2,11,0.8,-1.847,M,40.593,M,3.3,0123*63\r\n
$GPGGA,092522.85,5703.3036721,N,00952.3454954,E,2,11,0.8,-1.851,M,40.593,M,3.5,0123*64\r\n
$GPGGA,092522.90,5703.3036539,N,00952.3455362,E,2,11,0.8,-1.852,M,40.593,M,3.5,0123*66\r\n
$GPGGA,092522.95,5703.3036349,N,00952.3455778,E,2,11,0.8,-1.854,M,40.593,M,3.5,0123*6B\r\n
$GPGGA,092523.00,5703.3036182,N,00952.3456190,E,2,11,0.8,-1.854,M,40.593,M,3.5,0123*60\r\n
$GPGGA,092523.05,5703.3036015,N,00952.3456615,E,2,11,0.8,-1.848,M,40.593,M,3.7,0123*6F\r\n
$GPGGA,092523.10,5703.3035824,N,00952.3457068,E,2,11,0.8,-1.850,M,40.593,M,3.7,0123*66\r\n
$GPGGA,092523.15,5703.3035648,N,00952.3457496,E,2,11,0.8,-1.851,M,40.593,M,3.7,0123*63\r\n
$GPGGA,092523.20,5703.3035492,N,00952.3457912,E,2,11,0.8,-1.851,M,40.593,M,3.7,0123*61\r\n
$GPGGA,092523.25,5703.3035330,N,00952.3458338,E,2,11,0.8,-1.853,M,40.593,M,3.9,0123*6A\r\n
$GPGGA,092523.30,5703.3035165,N,00952.3458758,E,2,11,0.8,-1.853,M,40.593,M,3.9,0123*6E\r\n
$GPGGA,092523.35,5703.3034999,N,00952.3459220,E,2,11,0.8,-1.850,M,40.593,M,3.9,0123*69\r\n
$GPGGA,092523.40,5703.3034816,N,00952.3459653,E,2,11,0.8,-1.847,M,40.593,M,3.9,0123*6B\r\n
$GPGGA,092523.45,5703.3034623,N,00952.3460065,E,2,11,0.8,-1.843,M,40.593,M,2.4,0123*67\r\n
$GPGGA,092523.50,5703.3034462,N,00952.3460471,E,2,11,0.8,-1.840,M,40.593,M,2.4,0123*66\r\n
$GPGGA,092523.55,5703.3034323,N,00952.3460884,E,2,11,0.8,-1.837,M,40.593,M,2.4,0123*67\r\n
$GPGGA,092523.60,5703.3034157,N,00952.3461308,E,2,11,0.8,-1.835,M,40.593,M,2.4,0123*6C\r\n
$GPGGA,092523.65,5703.3033972,N,00952.3461736,E,2,11,0.8,-1.836,M,40.593,M,2.6,0123*69\r\n
$GPGGA,092523.70,5703.3033813,N,00952.3462183,E,2,11,0.8,-1.835,M,40.593,M,2.6,0123*63\r\n
$GPGGA,092523.75,5703.3033648,N,00952.3462622,E,2,11,0.8,-1.830,M,40.593,M,2.6,0123*6F\r\n
$GPGGA,092523.80,5703.3033479,N,00952.3463048,E,2,11,0.8,-1.830,M,40.593,M,2.6,0123*6E\r\n
$GPGGA,092523.85,5703.3033305,N,00952.3463471,E,2,11,0.8,-1.830,M,40.593,M,2.9,0123*66\r\n
$GPGGA,092523.90,5703.3033099,N,00952.3463896,E,2,11,0.8,-1.828,M,40.593,M,2.9,0123*68\r\n
$GPGGA,092523.95,5703.3032906,N,00952.3464314,E,2,11,0.8,-1.828,M,40.593,M,2.9,0123*65\r\n
$GPGGA,092524.00,5703.3032738,N,00952.3464741,E,2,11,0.8,-1.829,M,40.593,M,2.9,0123*68\r\n
$GPGGA,092524.05,5703.3032549,N,00952.3465136,E,2,11,0.8,-1.836,M,40.593,M,3.1,0123*69\r\n
$GPGGA,092524.10,5703.3032361,N,00952.3465555,E,2,11,0.8,-1.838,M,40.593,M,3.1,0123*6E\r\n
