$GPGGA,140651.15,5703.3768688,N,00952.2725188,E,2,11,0.9,-1.475,M,40.593,M,3.6,0123*6F\r\n
$GPGGA,140651.20,5703.3768984,N,00952.2725618,E,2,11,0.9,-1.474,M,40.593,M,3.6,0123*65\r\n
$GPGGA,140651.25,5703.3769275,N,00952.2726065,E,2,11,0.9,-1.475,M,40.593,M,2.0,0123*6D\r\n
$GPGGA,140651.30,5703.3769566,N,00952.2726513,E,2,11,0.9,-1.476,M,40.593,M,2.0,0123*6B\r\n
$GPGGA,140651.35,5703.3769863,N,00952.2726956,E,2,11,0.9,-1.478,M,40.593,M,2.0,0123*65\r\n
$GPGGA,140651.40,5703.3770165,N,00952.2727393,E,2,11,0.9,-1.482,M,40.593,M,2.0,0123*67\r\n
$GPGGA,140651.45,5703.3770474,N,00952.2727837,E,2,11,0.9,-1.484,M,40.593,M,2.3,0123*67\r\n
$GPGGA,140651.50,5703.3770769,N,00952.2728292,E,2,11,0.9,-1.484,M,40.593,M,2.3,0123*66\r\n
$GPGGA,140651.55,5703.3771063,N,00952.2728732,E,2,11,0.9,-1.485,M,40.593,M,2.3,0123*61\r\n
$GPGGA,140651.60,5703.3771361,N,00952.2729180,E,2,11,0.9,-1.486,M,40.593,M,2.3,0123*6B\r\n
$GPGGA,140651.65,5703.3771655,N,00952.2729607,E,2,11,0.9,-1.488,M,40.593,M,2.5,0123*6C\r\n
$GPGGA,140651.70,5703.3771953,N,00952.2730044,E,2,11,0.9,-1.492,M,40.593,M,2.5,0123*63\r\n
$GPGGA,140651.75,5703.3772250,N,00952.2730477,E,2,11,0.9,-1.495,M,40.593,M,2.5,0123*6E\r\n
$GPGGA,140651.80,5703.3772551,N,00952.2730894,E,2,11,0.9,-1.494,M,40.593,M,2.5,0123*62\r\n
$GPGGA,140651.85,5703.3772845,N,00952.2731313,E,2,11,0.9,-1.493,M,40.593,M,2.7,0123*6F\r\n
$GPGGA,140651.90,5703.3773139,N,00952.2731737,E,2,11,0.9,-1.492,M,40.593,M,2.7,0123*6B\r\n
$GPGGA,140651.95,5703.3773428,N,00952.2732162,E,2,11,0.9,-1.492,M,40.593,M,2.7,0123*6E\r\n
$GPGGA,140652.00,5703.3773716,N,00952.2732575,E,2,11,0.9,-1.489,M,40.593,M,2.7,0123*67\r\n
$GPGGA,140652.05,5703.3774011,N,00952.2732989,E,2,11,0.9,-1.483,M,40.593,M,3.0,0123*66\r\n
$GPGGA,140652.10,5703.3774308,N,00952.2733413,E,2,11,0.9,-1.480,M,40.593,M,3.0,0123*65\r\n
$GPGGA,140652.15,5703.3774602,N,00952.2733848,E,2,11,0.9,-1.479,M,40.593,M,3.0,0123*6B\r\n
$GPGGA,140652.20,5703.3774894,N,00952.2734278,E,2,11,0.9,-1.477,M,40.593,M,3.0,0123*6C\r\n
$GPGGA,140652.25,5703.3775186,N,00952.2734721,E,2,11,0.9,-1.480,M,40.593,M,2.7,0123*65\r\n
$GPGGA,140652.30,5703.3775483,N,00952.2735157,E,2,11,0.9,-1.480,M,40.593,M,2.7,0123*67\r\n
$GPGGA,140652.35,5703.3775784,N,00952.2735583,E,2,11,0.9,-1.479,M,40.593,M,2.7,0123*6D\r\n
$GPGGA,140652.40,5703.3776087,N,00952.2736022,E,2,11,0.9,-1.482,M,40.593,M,2.7,0123*61\r\n
$GPGGA,140652.45,5703.3776397,N,00952.2736466,E,2,11,0.9,-1.485,M,40.593,M,2.9,0123*6B\r\n
$GPGGA,140652.50,5703.3776701,N,00952.2736911,E,2,11,0.9,-1.492,M,40.593,M,2.9,0123*6F\r\n
$GPGGA,140652.55,5703.3777007,N,00952.2737344,E,2,11,0.9,-1.494,M,40.593,M,2.9,0123*67\r\n
$GPGGA,140652.60,5703.3777312,N,00952.2737767,E,2,11,0.9,-1.497,M,40.593,M,2.9,0123*60\r\n
$GPGGA,140652.65,5703.3777608,N,00952.2738193,E,2,11,0.9,-1.501,M,40.593,M,3.2,0123*6D\r\n
$GPGGA,140652.70,5703.3777900,N,00952.2738630,E,2,11,0.9,-1.499,M,40.593,M,3.2,0123*60\r\n
$GPGGA,140652.75,5703.3778188,N,00952.2739060,E,2,11,0.9,-1.497,M,40.593,M,3.2,0123*6E\r\n
$GPGGA,140652.80,5703.3778471,N,00952.2739473,E,2,11,0.9,-1.494,M,40.593,M,3.2,0123*62\r\n
$GPGGA,140652.85,5703.3778768,N,00952.2739890,E,2,11,0.9,-1.489,M,40.593,M,3.4,0123*67\r\n
$GPGGA,140652.90,5703.3779057,N,00952.2740288,E,2,11,0.9,-1.486,M,40.593,M,3.4,0123*6B\r\n
$GPGGA,140652.95,5703.3779345,N,00952.2740704,E,2,11,0.9,-1.482,M,40.593,M,3.4,0123*6B\r\n
$GPGGA,140653.00,5703.3779638,N,00952.2741126,E,2,11,0.9,-1.479,M,40.593,M,3.4,0123*6A\r\n
$GPGGA,140653.05,5703.3779924,N,00952.2741535,E,2,11,0.9,-1.476,M,40.593,M,3.6,0123*66\r\n
$GPGGA,140653.10,5703.3780220,N,00952.2741958,E,2,11,0.9,-1.475,M,40.593,M,3.6,0123*6F\r\n
$GPGGA,140653.15,5703.3780521,N,00952.2742367,E,2,11,0.9,-1.472,M,40.593,M,3.6,0123*6E\r\n
$GPGGA,140653.20,5703.3780835,N,00952.2742779,E,2,11,0.9,-1.471,M,40.593,M,3.6,0123*68\r\n
$GPGGA,140653.25,5703.3781148,N,00952.2743172,E,2,11,0.9,-1.471,M,40.593,M,1.6,0123*61\r\n
$GPGGA,140653.30,5703.3781466,N,00952.2743578,E,2,11,0.9,-1.472,M,40.593,M,1.6,0123*61\r\n
$GPGGA,140653.35,5703.3781787,N,00952.2744003,E,2,11,0.9,-1.477,M,40.593,M,1.6,0123*63\r\n
$GPGGA,140653.40,5703.3782104,N,00952.2744425,E,2,11,0.9,-1.482,M,40.593,M,1.6,0123*65\r\n
$GPGGA,140653.45,5703.3782411,N,00952.2744843,E,2,11,0.9,-1.488,M,40.593,M,1.9,0123*68\r\n
$GPGGA,140653.50,5703.3782719,N,00952.2745258,E,2,11,0.9,-1.490,M,40.593,M,1.9,0123*6F\r\n
$GPGGA,140653.55,5703.3783014,N,00952.2745686,E,2,11,0.9,-1.493,M,40.593,M,1.9,0123*65\r\n
$GPGGA,140653.60,5703.3783306,N,00952.2746113,E,2,11,0.9,-1.494,M,40.593,M,1.9,0123*6C\r\n
$GPGGA,140653.65,5703.3783588,N,00952.2746540,E,2,11,0.9,-1.496,M,40.593,M,2.1,0123*62\r\n
$GPGGA,140653.70,5703.3783877,N,00952.2746962,E,2,11,0.9,-1.495,M,40.593,M,2.1,0123*64\r\n
$GPGGA,140653.75,5703.3784160,N,00952.2747385,E,2,11,0.9,-1.491,M,40.593,M,2.1,0123*6F\r\n
$GPGGA,140653.80,5703.3784455,N,00952.2747801,E,2,11,0.9,-1.487,M,40.593,M,2.1,0123*66\r\n
$GPGGA,140653.85,5703.3784744,N,00952.2748221,E,2,11,0.9,-1.483,M,40.593,M,2.3,0123*61\r\n
$GPGGA,140653.90,5703.3785043,N,00952.2748630,E,2,11,0.9,-1.479,M,40.593,M,2.3,0123*65\r\n
$GPGGA,140653.95,5703.3785334,N,00952.2749037,E,2,11,0.9,-1.477,M,40.593,M,2.3,0123*6D\r\n
$GPGGA,140654.00,5703.3785632,N,00952.2749442,E,2,11,0.9,-1.476,M,40.593,M,2.3,0123*62\r\n
$GPGGA,140654.05,5703.3785946,N,00952.2749833,E,2,11,0.9,-1.478,M,40.593,M,2.5,0123*69\r\n
$GPGGA,140654.10,5703.3786262,N,00952.2750226,E,2,11,0.9,-1.476,M,40.593,M,2.5,0123*6B\r\n
$GPGGA,140654.15,5703.3786586,N,00952.2750605,E,2,11,0.9,-1.475,M,40.593,M,2.5,0123*65\r\n
$GPGGA,140654.20,5703.3786904,N,00952.2750993,E,2,11,0.9,-1.476,M,40.593,M,2.5,0123*66\r\n
$GPGGA,140654.25,5703.3787213,N,00952.2751397,E,2,11,0.9,-1.478,M,40.593,M,2.8,0123*63\r\n
$GPGGA,140654.30,5703.3787517,N,00952.2751795,E,2,11,0.9,-1.478,M,40.593,M,2.8,0123*62\r\n
$GPGGA,140654.35,5703.3787820,N,00952.2752190,E,2,11,0.9,-1.478,M,40.593,M,2.8,0123*6E\r\n
$GPGGA,140654.40,5703.3788129,N,00952.2752571,E,2,11,0.9,-1.476,M,40.593,M,2.8,0123*66\r\n
$GPGGA,140654.45,5703.3788424,N,00952.2752967,E,2,11,0.9,-1.480,M,40.593,M,3.0,0123*60\r\n
$GPGGA,140654.50,5703.3788724,N,00952.2753366,E,2,11,0.9,-1.480,M,40.593,M,3.0,0123*6D\r\n
$GPGGA,140654.55,5703.3789027,N,00952.2753778,E,2,11,0.9,-1.479,M,40.593,M,3.0,0123*60\r\n
$GPGGA,140654.60,5703.3789338,N,00952.2754180,E,2,11,0.9,-1.479,M,40.593,M,3.0,0123*6D\r\n
$GPGGA,140654.65,5703.3789640,N,00952.2754580,E,2,11,0.9,-1.482,M,40.593,M,3.2,0123*60\r\n
$GPGGA,140654.70,5703.3789938,N,00952.2754972,E,2,11,0.9,-1.483,M,40.593,M,3.2,0123*64\r\n
$GPGGA,140654.75,5703.3790246,N,00952.2755369,E,2,11,0.9,-1.483,M,40.593,M,3.2,0123*6A\r\n
$GPGGA,140654.80,5703.3790548,N,00952.2755764,E,2,11,0.9,-1.483,M,40.593,M,3.2,0123*60\r\n
$GPGGA,140654.85,5703.3790849,N,00952.2756161,E,2,11,0.9,-1.487,M,40.593,M,3.4,0123*6B\r\n
$GPGGA,140654.90,5703.3791165,N,00952.2756569,E,2,11,0.9,-1.490,M,40.593,M,3.4,0123*63\r\n
$GPGGA,140654.95,5703.3791472,N,00952.2756971,E,2,11,0.9,-1.491,M,40.593,M,3.4,0123*61\r\n
$GPGGA,140655.00,5703.3791771,N,00952.2757376,E,2,11,0.9,-1.494,M,40.593,M,3.4,0123*65\r\n
$GPGGA,140655.05,5703.3792068,N,00952.2757777,E,2,11,0.9,-1.500,M,40.593,M,3.6,0123*67\r\n
$GPGGA,140655.10,5703.3792373,N,00952.2758165,E,2,11,0.9,-1.500,M,40.593,M,3.6,0123*60\r\n
$GPGGA,140655.15,5703.3792679,N,00952.2758563,E,2,11,0.9,-1.500,M,40.593,M,3.6,0123*68\r\n
$GPGGA,140655.20,5703.3792983,N,00952.2758966,E,2,11,0.9,-1.501,M,40.593,M,3.6,0123*6C\r\n
$GPGGA,140655.25,5703.3793289,N,00952.2759362,E,2,11,0.9,-1.498,M,40.593,M,2.0,0123*60\r\n
$GPGGA,140655.30,5703.3793592,N,00952.2759748,E,2,11,0.9,-1.497,M,40.593,M,2.0,0123*6A\r\n
$GPGGA,140655.35,5703.3793904,N,00952.2760129,E,2,11,0.9,-1.494,M,40.593,M,2.0,0123*64\r\n
$GPGGA,140655.40,5703.3794217,N,00952.2760515,E,2,11,0.9,-1.491,M,40.593,M,2.0,0123*66\r\n
$GPGGA,140655.45,5703.3794531,N,00952.2760902,E,2,11,0.9,-1.491,M,40.593,M,2.3,0123*69\r\n
$GPGGA,140655.50,5703.3794842,N,00952.2761283,E,2,11,0.9,-1.492,M,40.593,M,2.3,0123*64\r\n
$GPGGA,140655.55,5703.3795152,N,00952.2761658,E,2,11,0.9,-1.490,M,40.593,M,2.3,0123*68\r\n
$GPGGA,140655.60,5703.3795458,N,00952.2762044,E,2,11,0.9,-1.489,M,40.593,M,2.3,0123*61\r\n
$GPGGA,140655.65,5703.3795769,N,00952.2762424,E,2,11,0.9,-1.489,M,40.593,M,2.5,0123*61\r\n
$GPGGA,140655.70,5703.3796079,N,00952.2762795,E,2,11,0.9,-1.488,M,40.593,M,2.5,0123*68\r\n
$GPGGA,140655.75,5703.3796391,N,00952.2763170,E,2,11,0.9,-1.485,M,40.593,M,2.5,0123*69\r\n
$GPGGA,140655.80,5703.3796700,N,00952.2763542,E,2,11,0.9,-1.482,M,40.593,M,2.5,0123*6D\r\n
$GPGGA,140655.85,5703.3797009,N,00952.2763930,E,2,11,0.9,-1.478,M,40.593,M,2.7,0123*69\r\n
$GPGGA,140655.90,5703.3797315,N,00952.2764322,E,2,11,0.9,-1.479,M,40.593,M,2.7,0123*6C\r\n
$GPGGA,140655.95,5703.3797625,N,00952.2764700,E,2,11,0.9,-1.480,M,40.593,M,2.7,0123*6D\r\n
$GPGGA,140656.00,5703.3797935,N,00952.2765086,E,2,11,0.9,-1.482,M,40.593,M,2.7,0123*66\r\n
$GPGGA,140656.05,5703.3798246,N,00952.2765480,E,2,11,0.9,-1.485,M,40.593,M,3.0,0123*60\r\n
$GPGGA,140656.10,5703.3798555,N,00952.2765863,E,2,11,0.9,-1.487,M,40.593,M,3.0,0123*62\r\n
$GPGGA,140656.15,5703.3798865,N,00952.2766243,E,2,11,0.9,-1.488,M,40.593,M,3.0,0123*6D\r\n
$GPGGA,140656.20,5703.3799188,N,00952.2766615,E,2,11,0.9,-1.489,M,40.593,M,3.0,0123*66\r\n
$GPGGA,140656.25,5703.3799506,N,00952.2766993,E,2,11,0.9,-1.491,M,40.593,M,3.2,0123*6B\r\n
$GPGGA,140656.30,5703.3799820,N,00952.2767368,E,2,11,0.9,-1.496,M,40.593,M,3.2,0123*6E\r\n
$GPGGA,140656.35,5703.3800134,N,00952.2767742,E,2,11,0.9,-1.500,M,40.593,M,3.2,0123*6A\r\n
$GPGGA,140656.40,5703.3800449,N,00952.2768119,E,2,11,0.9,-1.503,M,40.593,M,3.2,0123*63\r\n
$GPGGA,140656.45,5703.3800767,N,00952.2768507,E,2,11,0.9,-1.505,M,40.593,M,2.9,0123*6E\r\n
$GPGGA,140656.50,5703.3801083,N,00952.2768876,E,2,11,0.9,-1.506,M,40.593,M,2.9,0123*6E\r\n
$GPGGA,140656.55,5703.3801403,N,00952.2769236,E,2,11,0.9,-1.505,M,40.593,M,2.9,0123*6B\r\n
$GPGGA,140656.60,5703.3801722,N,00952.2769602,E,2,11,0.9,-1.504,M,40.593,M,2.9,0123*6F\r\n
$GPGGA,140656.65,5703.3802037,N,00952.2769964,E,2,11,0.9,-1.500,M,40.593,M,3.2,0123*6B\r\n
$GPGGA,140656.70,5703.3802351,N,00952.2770333,E,2,11,0.9,-1.499,M,40.593,M,3.2,0123*6D\r\n
$GPGGA,140656.75,5703.3802667,N,00952.2770706,E,2,11,0.9,-1.499,M,40.593,M,3.2,0123*6A\r\n
$GPGGA,140656.80,5703.3802989,N,00952.2771079,E,2,11,0.9,-1.499,M,40.593,M,3.2,0123*61\r\n
$GPGGA,140656.85,5703.3803305,N,00952.2771438,E,2,11,0.9,-1.498,M,40.593,M,3.4,0123*6D\r\n
$GPGGA,140656.90,5703.3803619,N,00952.2771802,E,2,11,0.9,-1.497,M,40.593,M,3.4,0123*6B\r\n
$GPGGA,140656.95,5703.3803936,N,00952.2772156,E,2,11,0.9,-1.496,M,40.593,M,3.4,0123*66\r\n
$GPGGA,140657.00,5703.3804247,N,00952.2772513,E,2,11,0.9,-1.495,M,40.593,M,3.4,0123*67\r\n
$GPGGA,140657.05,5703.3804568,N,00952.2772877,E,2,11,0.9,-1.493,M,40.593,M,3.6,0123*63\r\n
$GPGGA,140657.10,5703.3804885,N,00952.2773212,E,2,11,0.9,-1.490,M,40.593,M,3.6,0123*62\r\n
$GPGGA,140657.15,5703.3805200,N,00952.2773558,E,2,11,0.9,-1.488,M,40.593,M,3.6,0123*61\r\n
$GPGGA,140657.20,5703.3805524,N,00952.2773917,E,2,11,0.9,-1.484,M,40.593,M,3.6,0123*6D\r\n
$GPGGA,140657.25,5703.3805852,N,00952.2774263,E,2,11,0.9,-1.485,M,40.593,M,3.8,0123*64\r\n
$GPGGA,140657.30,5703.3806177,N,00952.2774625,E,2,11,0.9,-1.485,M,40.593,M,3.8,0123*6B\r\n
$GPGGA,140657.35,5703.3806495,N,00952.2774983,E,2,11,0.9,-1.486,M,40.593,M,3.8,0123*67\r\n
$GPGGA,140657.40,5703.3806814,N,00952.2775333,E,2,11,0.9,-1.488,M,40.593,M,3.8,0123*6E\r\n
$GPGGA,140657.45,5703.3807133,N,00952.2775699,E,2,11,0.9,-1.489,M,40.593,M,1.9,0123*61\r\n
$GPGGA,140657.50,5703.3807455,N,00952.2776078,E,2,11,0.9,-1.491,M,40.593,M,1.9,0123*63\r\n
$GPGGA,140657.55,5703.3807780,N,00952.2776455,E,2,11,0.9,-1.493,M,40.593,M,1.9,0123*64\r\n
$GPGGA,140657.60,5703.3808113,N,00952.2776827,E,2,11,0.9,-1.498,M,40.593,M,1.9,0123*63\r\n
$GPGGA,140657.65,5703.3808439,N,00952.2777209,E,2,11,0.9,-1.505,M,40.593,M,2.1,0123*62\r\n
$GPGGA,140657.70,5703.3808758,N,00952.2777592,E,2,11,0.9,-1.511,M,40.593,M,2.1,0123*62\r\n
$GPGGA,140657.75,5703.3809078,N,00952.2777981,E,2,11,0.9,-1.516,M,40.593,M,2.1,0123*6A\r\n
$GPGGA,140657.80,5703.3809399,N,00952.2778365,E,2,11,0.9,-1.520,M,40.593,M,2.1,0123*66\r\n
$GPGGA,140657.85,5703.3809725,N,00952.2778724,E,2,11,0.9,-1.520,M,40.593,M,2.3,0123*63\r\n
$GPGGA,140657.90,5703.3810053,N,00952.2779077,E,2,11,0.9,-1.522,M,40.593,M,2.3,0123*6B\r\n
$GPGGA,140657.95,5703.3810370,N,00952.2779436,E,2,11,0.9,-1.520,M,40.593,M,2.3,0123*6F\r\n
$GPGGA,140658.00,5703.3810684,N,00952.2779787,E,2,11,0.9,-1.518,M,40.593,M,2.3,0123*60\r\n
$GPGGA,140658.05,5703.3811004,N,00952.2780130,E,2,11,0.9,-1.516,M,40.593,M,2.5,0123*6E\r\n
$GPGGA,140658.10,5703.3811317,N,00952.2780482,E,2,11,0.9,-1.513,M,40.593,M,2.5,0123*62\r\n
$GPGGA,140658.15,5703.3811627,N,00952.2780829,E,2,11,0.9,-1.509,M,40.593,M,2.5,0123*67\r\n
$GPGGA,140658.20,5703.3811948,N,00952.2781157,E,2,11,0.9,-1.502,M,40.593,M,2.5,0123*6D\r\n
$GPGGA,140658.25,5703.3812261,N,00952.2781480,E,2,11,0.9,-1.499,M,40.593,M,2.8,0123*6A\r\n
$GPGGA,140658.30,5703.3812590,N,00952.2781812,E,2,11,0.9,-1.494,M,40.593,M,2.8,0123*6D\r\n
$GPGGA,140658.35,5703.3812914,N,00952.2782159,E,2,11,0.9,-1.491,M,40.593,M,2.8,0123*68\r\n
$GPGGA,140658.40,5703.3813238,N,00952.2782530,E,2,11,0.9,-1.489,M,40.593,M,2.8,0123*6C\r\n
$GPGGA,140658.45,5703.3813576,N,00952.2782894,E,2,11,0.9,-1.483,M,40.593,M,3.0,0123*64\r\n
$GPGGA,140658.50,5703.3813896,N,00952.2783258,E,2,11,0.9,-1.485,M,40.593,M,3.0,0123*6E\r\n
$GPGGA,140658.55,5703.3814212,N,00952.2783628,E,2,11,0.9,-1.489,M,40.593,M,3.0,0123*65\r\n
$GPGGA,140658.60,5703.3814535,N,00952.2784005,E,2,11,0.9,-1.496,M,40.593,M,3.0,0123*61\r\n
$GPGGA,140658.65,5703.3814878,N,00952.2784391,E,2,11,0.9,-1.502,M,40.593,M,3.2,0123*60\r\n
$GPGGA,140658.70,5703.3815213,N,00952.2784783,E,2,11,0.9,-1.508,M,40.593,M,3.2,0123*6F\r\n
$GPGGA,140658.75,5703.3815533,N,00952.2785167,E,2,11,0.9,-1.514,M,40.593,M,3.2,0123*6F\r\n
$GPGGA,140658.80,5703.3815854,N,00952.2785537,E,2,11,0.9,-1.519,M,40.593,M,3.2,0123*65\r\n
$GPGGA,140658.85,5703.3816176,N,00952.2785912,E,2,11,0.9,-1.523,M,40.593,M,3.4,0123*6E\r\n
$GPGGA,140658.90,5703.3816498,N,00952.2786288,E,2,11,0.9,-1.526,M,40.593,M,3.4,0123*61\r\n
$GPGGA,140658.95,5703.3816824,N,00952.2786653,E,2,11,0.9,-1.527,M,40.593,M,3.4,0123*6C\r\n
$GPGGA,140659.00,5703.3817146,N,00952.2787010,E,2,11,0.9,-1.526,M,40.593,M,3.4,0123*6C\r\n
$GPGGA,140659.05,5703.3817464,N,00952.2787368,E,2,11,0.9,-1.527,M,40.593,M,3.6,0123*63\r\n
$GPGGA,140659.10,5703.3817779,N,00952.2787727,E,2,11,0.9,-1.525,M,40.593,M,3.6,0123*65\r\n
$GPGGA,140659.15,5703.3818092,N,00952.2788076,E,2,11,0.9,-1.524,M,40.593,M,3.6,0123*60\r\n
$GPGGA,140659.20,5703.3818406,N,00952.2788427,E,2,11,0.9,-1.521,M,40.593,M,3.6,0123*6A\r\n
$GPGGA,140659.25,5703.3818729,N,00952.2788765,E,2,11,0.9,-1.518,M,40.593,M,3.8,0123*60\r\n
$GPGGA,140659.30,5703.3819054,N,00952.2789105,E,2,11,0.9,-1.513,M,40.593,M,3.8,0123*62\r\n
$GPGGA,140659.35,5703.3819385,N,00952.2789433,E,2,11,0.9,-1.509,M,40.593,M,3.8,0123*63\r\n
$GPGGA,140659.40,5703.3819698,N,00952.2789784,E,2,11,0.9,-1.507,M,40.593,M,3.8,0123*69\r\n
$GPGGA,140659.45,5703.3820018,N,00952.2790153,E,2,11,0.9,-1.502,M,40.593,M,2.3,0123*63\r\n
$GPGGA,140659.50,5703.3820346,N,00952.2790521,E,2,11,0.9,-1.500,M,40.593,M,2.3,0123*6C\r\n
$GPGGA,140659.55,5703.3820663,N,00952.2790886,E,2,11,0.9,-1.499,M,40.593,M,2.3,0123*6A\r\n
$GPGGA,140659.60,5703.3820983,N,00952.2791263,E,2,11,0.9,-1.499,M,40.593,M,2.3,0123*6D\r\n
$GPGGA,140659.65,5703.3821303,N,00952.2791635,E,2,11,0.9,-1.503,M,40.593,M,2.5,0123*68\r\n
$GPGGA,140659.70,5703.3821623,N,00952.2792010,E,2,11,0.9,-1.505,M,40.593,M,2.5,0123*6F\r\n
$GPGGA,140659.75,5703.3821958,N,00952.2792378,E,2,11,0.9,-1.507,M,40.593,M,2.5,0123*66\r\n
$GPGGA,140659.80,5703.3822282,N,00952.2792734,E,2,11,0.9,-1.509,M,40.593,M,2.5,0123*61\r\n
$GPGGA,140659.85,5703.3822604,N,00952.2793098,E,2,11,0.9,-1.510,M,40.593,M,2.7,0123*64\r\n
$GPGGA,140659.90,5703.3822930,N,00952.2793469,E,2,11,0.9,-1.512,M,40.593,M,2.7,0123*60\r\n
$GPGGA,140659.95,5703.3823260,N,00952.2793821,E,2,11,0.9,-1.513,M,40.593,M,2.7,0123*6B\r\n
$GPGGA,140700.00,5703.3823586,N,00952.2794179,E,2,11,0.9,-1.516,M,40.593,M,2.7,0123*63\r\n
$GPGGA,140700.05,5703.3823901,N,00952.2794561,E,2,11,0.9,-1.523,M,40.593,M,3.0,0123*68\r\n
$GPGGA,140700.10,5703.3824225,N,00952.2794911,E,2,11,0.9,-1.524,M,40.593,M,3.0,0123*6A\r\n
$GPGGA,140700.15,5703.3824541,N,00952.2795266,E,2,11,0.9,-1.525,M,40.593,M,3.0,0123*61\r\n
$GPGGA,140700.20,5703.3824866,N,00952.2795634,E,2,11,0.9,-1.525,M,40.593,M,3.0,0123*6C\r\n
$GPGGA,140700.25,5703.3825178,N,00952.2796004,E,2,11,0.9,-1.529,M,40.593,M,3.2,0123*66\r\n
$GPGGA,140700.30,5703.3825490,N,00952.2796367,E,2,11,0.9,-1.530,M,40.593,M,3.2,0123*6F\r\n
$GPGGA,140700.35,5703.3825816,N,00952.2796729,E,2,11,0.9,-1.529,M,40.593,M,3.2,0123*6E\r\n
$GPGGA,140700.40,5703.3826143,N,00952.2797107,E,2,11,0.9,-1.527,M,40.593,M,3.2,0123*63\r\n
$GPGGA,140700.45,5703.3826463,N,00952.2797475,E,2,11,0.9,-1.525,M,40.593,M,2.9,0123*69\r\n
$GPGGA,140700.50,5703.3826784,N,00952.2797842,E,2,11,0.9,-1.524,M,40.593,M,2.9,0123*6E\r\n
$GPGGA,140700.55,5703.3827101,N,00952.2798211,E,2,11,0.9,-1.521,M,40.593,M,2.9,0123*67\r\n
$GPGGA,140700.60,5703.3827415,N,00952.2798583,E,2,11,0.9,-1.519,M,40.593,M,2.9,0123*66\r\n
$GPGGA,140700.65,5703.3827729,N,00952.2798957,E,2,11,0.9,-1.516,M,40.593,M,3.2,0123*6F\r\n
$GPGGA,140700.70,5703.3828038,N,00952.2799322,E,2,11,0.9,-1.512,M,40.593,M,3.2,0123*6E\r\n
$GPGGA,140700.75,5703.3828353,N,00952.2799691,E,2,11,0.9,-1.507,M,40.593,M,3.2,0123*6C\r\n
$GPGGA,140700.80,5703.3828675,N,00952.2800059,E,2,11,0.9,-1.503,M,40.593,M,3.2,0123*6E\r\n
$GPGGA,140700.85,5703.3828996,N,00952.2800430,E,2,11,0.9,-1.501,M,40.593,M,3.4,0123*66\r\n
$GPGGA,140700.90,5703.3829315,N,00952.2800805,E,2,11,0.9,-1.502,M,40.593,M,3.4,0123*6B\r\n
$GPGGA,140700.95,5703.3829636,N,00952.2801183,E,2,11,0.9,-1.504,M,40.593,M,3.4,0123*6A\r\n
$GPGGA,140701.00,5703.3829952,N,00952.2801546,E,2,11,0.9,-1.507,M,40.593,M,3.4,0123*64\r\n
$GPGGA,140701.05,5703.3830265,N,00952.2801917,E,2,11,0.9,-1.517,M,40.593,M,3.6,0123*6D\r\n
$GPGGA,140701.10,5703.3830603,N,00952.2802280,E,2,11,0.9,-1.521,M,40.593,M,3.6,0123*6E\r\n
$GPGGA,140701.15,5703.3830937,N,00952.2802642,E,2,11,0.9,-1.525,M,40.593,M,3.6,0123*6D\r\n
$GPGGA,140701.20,5703.3831271,N,00952.2803006,E,2,11,0.9,-1.528,M,40.593,M,3.6,0123*69\r\n
$GPGGA,140701.25,5703.3831614,N,00952.2803354,E,2,11,0.9,-1.527,M,40.593,M,3.8,0123*6E\r\n
$GPGGA,140701.30,5703.3831945,N,00952.2803701,E,2,11,0.9,-1.530,M,40.593,M,3.8,0123*63\r\n
$GPGGA,140701.35,5703.3832271,N,00952.2804058,E,2,11,0.9,-1.534,M,40.593,M,3.8,0123*61\r\n
$GPGGA,140701.40,5703.3832595,N,00952.2804429,E,2,11,0.9,-1.537,M,40.593,M,3.8,0123*6F\r\n
$GPGGA,140701.45,5703.3832913,N,00952.2804809,E,2,11,0.9,-1.542,M,40.593,M,1.9,0123*67\r\n
$GPGGA,140701.50,5703.3833225,N,00952.2805174,E,2,11,0.9,-1.543,M,40.593,M,1.9,0123*6F\r\n
$GPGGA,140701.55,5703.3833538,N,00952.2805534,E,2,11,0.9,-1.542,M,40.593,M,1.9,0123*60\r\n
$GPGGA,140701.60,5703.3833855,N,00952.2805901,E,2,11,0.9,-1.538,M,40.593,M,1.9,0123*67\r\n
$GPGGA,140701.65,5703.3834165,N,00952.2806264,E,2,11,0.9,-1.526,M,40.593,M,2.1,0123*60\r\n
$GPGGA,140701.70,5703.3834477,N,00952.2806631,E,2,11,0.9,-1.521,M,40.593,M,2.1,0123*61\r\n
$GPGGA,140701.75,5703.3834782,N,00952.2806997,E,2,11,0.9,-1.519,M,40.593,M,2.1,0123*65\r\n
$GPGGA,140701.80,5703.3835096,N,00952.2807358,E,2,11,0.9,-1.514,M,40.593,M,2.1,0123*69\r\n
$GPGGA,140701.85,5703.3835413,N,00952.2807723,E,2,11,0.9,-1.510,M,40.593,M,2.3,0123*6B\r\n
$GPGGA,140701.90,5703.3835728,N,00952.2808085,E,2,11,0.9,-1.507,M,40.593,M,2.3,0123*66\r\n
$GPGGA,140701.95,5703.3836045,N,00952.2808455,E,2,11,0.9,-1.505,M,40.593,M,2.3,0123*67\r\n
$GPGGA,140702.00,5703.3836360,N,00952.2808814,E,2,11,0.9,-1.507,M,40.593,M,2.3,0123*67\r\n
$GPGGA,140702.05,5703.3836677,N,00952.2809173,E,2,11,0.9,-1.511,M,40.593,M,2.5,0123*69\r\n
$GPGGA,140702.10,5703.3837009,N,00952.2809527,E,2,11,0.9,-1.514,M,40.593,M,2.5,0123*63\r\n
$GPGGA,140702.15,5703.3837342,N,00952.2809893,E,2,11,0.9,-1.519,M,40.593,M,2.5,0123*65\r\n
$GPGGA,140702.20,5703.3837676,N,00952.2810256,E,2,11,0.9,-1.525,M,40.593,M,2.5,0123*65\r\n
$GPGGA,140702.25,5703.3838011,N,00952.2810624,E,2,11,0.9,-1.528,M,40.593,M,2.8,0123*69\r\n
$GPGGA,140702.30,5703.3838347,N,00952.2810992,E,2,11,0.9,-1.532,M,40.593,M,2.8,0123*64\r\n
$GPGGA,140702.35,5703.3838674,N,00952.2811366,E,2,11,0.9,-1.538,M,40.593,M,2.8,0123*6E\r\n
$GPGGA,140702.40,5703.3838995,N,00952.2811737,E,2,11,0.9,-1.542,M,40.593,M,2.8,0123*61\r\n
$GPGGA,140702.45,5703.3839301,N,00952.2812124,E,2,11,0.9,-1.546,M,40.593,M,3.0,0123*68\r\n
$GPGGA,140702.50,5703.3839611,N,00952.2812506,E,2,11,0.9,-1.547,M,40.593,M,3.0,0123*6D\r\n
$GPGGA,140702.55,5703.3839919,N,00952.2812883,E,2,11,0.9,-1.547,M,40.593,M,3.0,0123*6F\r\n
$GPGGA,140702.60,5703.3840229,N,00952.2813258,E,2,11,0.9,-1.546,M,40.593,M,3.0,0123*63\r\n
$GPGGA,140702.65,5703.3840535,N,00952.2813634,E,2,11,0.9,-1.544,M,40.593,M,3.2,0123*62\r\n
$GPGGA,140702.70,5703.3840844,N,00952.2813992,E,2,11,0.9,-1.539,M,40.593,M,3.2,0123*64\r\n
$GPGGA,140702.75,5703.3841156,N,00952.2814361,E,2,11,0.9,-1.534,M,40.593,M,3.2,0123*66\r\n
$GPGGA,140702.80,5703.3841469,N,00952.2814722,E,2,11,0.9,-1.530,M,40.593,M,3.2,0123*62\r\n
$GPGGA,140702.85,5703.3841782,N,00952.2815074,E,2,11,0.9,-1.523,M,40.593,M,3.4,0123*60\r\n
$GPGGA,140702.90,5703.3842098,N,00952.2815418,E,2,11,0.9,-1.517,M,40.593,M,3.4,0123*62\r\n
$GPGGA,140702.95,5703.3842425,N,00952.2815762,E,2,11,0.9,-1.514,M,40.593,M,3.4,0123*68\r\n
$GPGGA,140703.00,5703.3842747,N,00952.2816120,E,2,11,0.9,-1.513,M,40.593,M,3.4,0123*66\r\n
$GPGGA,140703.05,5703.3843061,N,00952.2816474,E,2,11,0.9,-1.514,M,40.593,M,3.6,0123*60\r\n
$GPGGA,140703.10,5703.3843383,N,00952.2816832,E,2,11,0.9,-1.513,M,40.593,M,3.6,0123*62\r\n
$GPGGA,140703.15,5703.3843710,N,00952.2817198,E,2,11,0.9,-1.511,M,40.593,M,3.6,0123*63\r\n
$GPGGA,140703.20,5703.3844032,N,00952.2817563,E,2,11,0.9,-1.510,M,40.593,M,3.6,0123*64\r\n
$GPGGA,140703.25,5703.3844342,N,00952.2817948,E,2,11,0.9,-1.514,M,40.593,M,3.8,0123*6A\r\n
$GPGGA,140703.30,5703.3844655,N,00952.2818316,E,2,11,0.9,-1.516,M,40.593,M,3.8,0123*61\r\n
$GPGGA,140703.35,5703.3844972,N,00952.2818692,E,2,11,0.9,-1.519,M,40.593,M,3.8,0123*68\r\n
$GPGGA,140703.40,5703.3845294,N,00952.2819071,E,2,11,0.9,-1.523,M,40.593,M,3.8,0123*6B\r\n
$GPGGA,140703.45,5703.3845606,N,00952.2819467,E,2,11,0.9,-1.527,M,40.593,M,2.3,0123*6C\r\n
$GPGGA,140703.50,5703.3845929,N,00952.2819860,E,2,11,0.9,-1.531,M,40.593,M,2.3,0123*66\r\n
$GPGGA,140703.55,5703.3846246,N,00952.2820255,E,2,11,0.9,-1.538,M,40.593,M,2.3,0123*6D\r\n
$GPGGA,140703.60,5703.3846556,N,00952.2820656,E,2,11,0.9,-1.542,M,40.593,M,2.3,0123*67\r\n
$GPGGA,140703.65,5703.3846867,N,00952.2821065,E,2,11,0.9,-1.546,M,40.593,M,2.5,0123*68\r\n
$GPGGA,140703.70,5703.3847190,N,00952.2821458,E,2,11,0.9,-1.550,M,40.593,M,2.5,0123*61\r\n
$GPGGA,140703.75,5703.3847508,N,00952.2821844,E,2,11,0.9,-1.552,M,40.593,M,2.5,0123*62\r\n
$GPGGA,140703.80,5703.3847817,N,00952.2822219,E,2,11,0.9,-1.555,M,40.593,M,2.5,0123*6D\r\n
$GPGGA,140703.85,5703.3848125,N,00952.2822608,E,2,11,0.9,-1.553,M,40.593,M,2.7,0123*6F\r\n
$GPGGA,140703.90,5703.3848436,N,00952.2822960,E,2,11,0.9,-1.549,M,40.593,M,2.7,0123*66\r\n
$GPGGA,140703.95,5703.3848759,N,00952.2823305,E,2,11,0.9,-1.544,M,40.593,M,2.7,0123*6C\r\n
$GPGGA,140704.00,5703.3849086,N,00952.2823643,E,2,11,0.9,-1.540,M,40.593,M,2.7,0123*60\r\n
$GPGGA,140704.05,5703.3849398,N,00952.2823976,E,2,11,0.9,-1.536,M,40.593,M,3.0,0123*67\r\n
$GPGGA,140704.10,5703.3849721,N,00952.2824319,E,2,11,0.9,-1.530,M,40.593,M,3.0,0123*67\r\n
$GPGGA,140704.15,5703.3850043,N,00952.2824648,E,2,11,0.9,-1.524,M,40.593,M,3.0,0123*6D\r\n
$GPGGA,140704.20,5703.3850358,N,00952.2824979,E,2,11,0.9,-1.517,M,40.593,M,3.0,0123*6F\r\n
$GPGGA,140704.25,5703.3850678,N,00952.2825308,E,2,11,0.9,-1.513,M,40.593,M,3.2,0123*66\r\n
$GPGGA,140704.30,5703.3851003,N,00952.2825642,E,2,11,0.9,-1.511,M,40.593,M,3.2,0123*60\r\n
$GPGGA,140704.35,5703.3851325,N,00952.2825995,E,2,11,0.9,-1.508,M,40.593,M,3.2,0123*6F\r\n
$GPGGA,140704.40,5703.3851649,N,00952.2826357,E,2,11,0.9,-1.507,M,40.593,M,3.2,0123*6A\r\n
$GPGGA,140704.45,5703.3851966,N,00952.2826740,E,2,11,0.9,-1.508,M,40.593,M,2.9,0123*6A\r\n
$GPGGA,140704.50,5703.3852284,N,00952.2827123,E,2,11,0.9,-1.509,M,40.593,M,2.9,0123*69\r\n
$GPGGA,140704.55,5703.3852596,N,00952.2827499,E,2,11,0.9,-1.514,M,40.593,M,2.9,0123*60\r\n
$GPGGA,140704.60,5703.3852915,N,00952.2827899,E,2,11,0.9,-1.519,M,40.593,M,2.9,0123*60\r\n
$GPGGA,140704.65,5703.3853234,N,00952.2828292,E,2,11,0.9,-1.527,M,40.593,M,3.2,0123*65\r\n
$GPGGA,140704.70,5703.3853554,N,00952.2828693,E,2,11,0.9,-1.534,M,40.593,M,3.2,0123*67\r\n
$GPGGA,140704.75,5703.3853870,N,00952.2829085,E,2,11,0.9,-1.540,M,40.593,M,3.2,0123*6A\r\n
$GPGGA,140704.80,5703.3854184,N,00952.2829480,E,2,11,0.9,-1.546,M,40.593,M,3.2,0123*62\r\n
$GPGGA,140704.85,5703.3854509,N,00952.2829877,E,2,11,0.9,-1.549,M,40.593,M,3.4,0123*6B\r\n
$GPGGA,140704.90,5703.3854827,N,00952.2830269,E,2,11,0.9,-1.553,M,40.593,M,3.4,0123*68\r\n
$GPGGA,140704.95,5703.3855139,N,00952.2830664,E,2,11,0.9,-1.556,M,40.593,M,3.4,0123*66\r\n
$GPGGA,140705.00,5703.3855449,N,00952.2831048,E,2,11,0.9,-1.557,M,40.593,M,3.4,0123*61\r\n
$GPGGA,140705.05,5703.3855763,N,00952.2831415,E,2,11,0.9,-1.560,M,40.593,M,3.6,0123*65\r\n
$GPGGA,140705.10,5703.3856090,N,00952.2831768,E,2,11,0.9,-1.559,M,40.593,M,3.6,0123*6A\r\n
$GPGGA,140705.15,5703.3856411,N,00952.2832129,E,2,11,0.9,-1.559,M,40.593,M,3.6,0123*62\r\n
$GPGGA,140705.20,5703.3856731,N,00952.2832478,E,2,11,0.9,-1.556,M,40.593,M,3.6,0123*6B\r\n
$GPGGA,140705.25,5703.3857054,N,00952.2832807,E,2,11,0.9,-1.551,M,40.593,M,3.8,0123*66\r\n
$GPGGA,140705.30,5703.3857383,N,00952.2833140,E,2,11,0.9,-1.546,M,40.593,M,3.8,0123*66\r\n
$GPGGA,140705.35,5703.3857703,N,00952.2833485,E,2,11,0.9,-1.541,M,40.593,M,3.8,0123*64\r\n
$GPGGA,140705.40,5703.3858030,N,00952.2833818,E,2,11,0.9,-1.535,M,40.593,M,3.8,0123*65\r\n
$GPGGA,140705.45,5703.3858360,N,00952.2834144,E,2,11,0.9,-1.525,M,40.593,M,1.9,0123*63\r\n
$GPGGA,140705.50,5703.3858676,N,00952.2834485,E,2,11,0.9,-1.519,M,40.593,M,1.9,0123*62\r\n
$GPGGA,140705.55,5703.3858987,N,00952.2834828,E,2,11,0.9,-1.513,M,40.593,M,1.9,0123*67\r\n
$GPGGA,140705.60,5703.3859293,N,00952.2835184,E,2,11,0.9,-1.508,M,40.593,M,1.9,0123*6A\r\n
$GPGGA,140705.65,5703.3859597,N,00952.2835561,E,2,11,0.9,-1.507,M,40.593,M,2.1,0123*67\r\n
$GPGGA,140705.70,5703.3859914,N,00952.2835952,E,2,11,0.9,-1.505,M,40.593,M,2.1,0123*6A\r\n
$GPGGA,140705.75,5703.3860233,N,00952.2836332,E,2,11,0.9,-1.503,M,40.593,M,2.1,0123*62\r\n
$GPGGA,140705.80,5703.3860543,N,00952.2836697,E,2,11,0.9,-1.501,M,40.593,M,2.1,0123*60\r\n
$GPGGA,140705.85,5703.3860852,N,00952.2837078,E,2,11,0.9,-1.507,M,40.593,M,2.3,0123*6A\r\n
$GPGGA,140705.90,5703.3861162,N,00952.2837464,E,2,11,0.9,-1.516,M,40.593,M,2.3,0123*6C\r\n
$GPGGA,140705.95,5703.3861485,N,00952.2837851,E,2,11,0.9,-1.524,M,40.593,M,2.3,0123*6E\r\n
$GPGGA,140706.00,5703.3861810,N,00952.2838246,E,2,11,0.9,-1.533,M,40.593,M,2.3,0123*64\r\n
$GPGGA,140706.05,5703.3862130,N,00952.2838658,E,2,11,0.9,-1.547,M,40.593,M,2.5,0123*67\r\n
$GPGGA,140706.10,5703.3862453,N,00952.2839056,E,2,11,0.9,-1.554,M,40.593,M,2.5,0123*68\r\n
$GPGGA,140706.15,5703.3862785,N,00952.2839434,E,2,11,0.9,-1.563,M,40.593,M,2.5,0123*61\r\n
$GPGGA,140706.20,5703.3863108,N,00952.2839807,E,2,11,0.9,-1.570,M,40.593,M,2.5,0123*6B\r\n
$GPGGA,140706.25,5703.3863431,N,00952.2840189,E,2,11,0.9,-1.574,M,40.593,M,2.8,0123*69\r\n
$GPGGA,140706.30,5703.3863739,N,00952.2840583,E,2,11,0.9,-1.581,M,40.593,M,2.8,0123*62\r\n
$GPGGA,140706.35,5703.3864041,N,00952.2840957,E,2,11,0.9,-1.583,M,40.593,M,2.8,0123*6F\r\n
$GPGGA,140706.40,5703.3864356,N,00952.2841319,E,2,11,0.9,-1.580,M,40.593,M,2.8,0123*6A\r\n
$GPGGA,140706.45,5703.3864673,N,00952.2841669,E,2,11,0.9,-1.573,M,40.593,M,0.9,0123*60\r\n
$GPGGA,140706.50,5703.3864970,N,00952.2842003,E,2,11,0.9,-1.566,M,40.593,M,0.9,0123*65\r\n
$GPGGA,140706.55,5703.3865277,N,00952.2842323,E,2,11,0.9,-1.560,M,40.593,M,0.9,0123*6A\r\n
$GPGGA,140706.60,5703.3865581,N,00952.2842665,E,2,11,0.9,-1.553,M,40.593,M,0.9,0123*65\r\n
$GPGGA,140706.65,5703.3865899,N,00952.2842995,E,2,11,0.9,-1.537,M,40.593,M,1.2,0123*6C\r\n
$GPGGA,140706.70,5703.3866215,N,00952.2843327,E,2,11,0.9,-1.527,M,40.593,M,1.2,0123*66\r\n
$GPGGA,140706.75,5703.3866535,N,00952.2843666,E,2,11,0.9,-1.518,M,40.593,M,1.2,0123*6A\r\n
$GPGGA,140706.80,5703.3866857,N,00952.2844003,E,2,11,0.9,-1.508,M,40.593,M,1.2,0123*6A\r\n
$GPGGA,140706.85,5703.3867179,N,00952.2844351,E,2,11,0.9,-1.502,M,40.593,M,1.5,0123*62\r\n
$GPGGA,140706.90,5703.3867501,N,00952.2844711,E,2,11,0.9,-1.501,M,40.593,M,1.5,0123*6E\r\n
$GPGGA,140706.95,5703.3867819,N,00952.2845069,E,2,11,0.9,-1.503,M,40.593,M,1.5,0123*64\r\n
$GPGGA,140707.00,5703.3868151,N,00952.2845442,E,2,11,0.9,-1.505,M,40.593,M,1.5,0123*68\r\n
$GPGGA,140707.05,5703.3868475,N,00952.2845837,E,2,11,0.9,-1.515,M,40.593,M,1.8,0123*6C\r\n
$GPGGA,140707.10,5703.3868796,N,00952.2846250,E,2,11,0.9,-1.524,M,40.593,M,1.8,0123*6C\r\n
$GPGGA,140707.15,5703.3869113,N,00952.2846668,E,2,11,0.9,-1.535,M,40.593,M,1.8,0123*6C\r\n
$GPGGA,140707.20,5703.3869428,N,00952.2847078,E,2,11,0.9,-1.544,M,40.593,M,1.8,0123*67\r\n
$GPGGA,140707.25,5703.3869752,N,00952.2847466,E,2,11,0.9,-1.555,M,40.593,M,2.0,0123*6C\r\n
$GPGGA,140707.30,5703.3870072,N,00952.2847850,E,2,11,0.9,-1.561,M,40.593,M,2.0,0123*6B\r\n
$GPGGA,140707.35,5703.3870392,N,00952.2848240,E,2,11,0.9,-1.566,M,40.593,M,2.0,0123*60\r\n
$GPGGA,140707.40,5703.3870703,N,00952.2848622,E,2,11,0.9,-1.573,M,40.593,M,2.0,0123*6A\r\n
$GPGGA,140707.45,5703.3871016,N,00952.2849006,E,2,11,0.9,-1.578,M,40.593,M,2.3,0123*64\r\n
$GPGGA,140707.50,5703.3871327,N,00952.2849363,E,2,11,0.9,-1.581,M,40.593,M,2.3,0123*67\r\n
$GPGGA,140707.55,5703.3871645,N,00952.2849711,E,2,11,0.9,-1.580,M,40.593,M,2.3,0123*63\r\n
$GPGGA,140707.60,5703.3871952,N,00952.2850069,E,2,11,0.9,-1.579,M,40.593,M,2.3,0123*6A\r\n
$GPGGA,140707.65,5703.3872269,N,00952.2850425,E,2,11,0.9,-1.575,M,40.593,M,2.5,0123*69\r\n
$GPGGA,140707.70,5703.3872580,N,00952.2850770,E,2,11,0.9,-1.570,M,40.593,M,2.5,0123*6B\r\n
$GPGGA,140707.75,5703.3872884,N,00952.2851098,E,2,11,0.9,-1.561,M,40.593,M,2.5,0123*67\r\n
$GPGGA,140707.80,5703.3873199,N,00952.2851424,E,2,11,0.9,-1.553,M,40.593,M,2.5,0123*6B\r\n
$GPGGA,140707.85,5703.3873520,N,00952.2851745,E,2,11,0.9,-1.541,M,40.593,M,2.7,0123*6D\r\n
$GPGGA,140707.90,5703.3873841,N,00952.2852067,E,2,11,0.9,-1.531,M,40.593,M,2.7,0123*60\r\n
$GPGGA,140707.95,5703.3874159,N,00952.2852408,E,2,11,0.9,-1.522,M,40.593,M,2.7,0123*6D\r\n
$GPGGA,140708.00,5703.3874476,N,00952.2852757,E,2,11,0.9,-1.516,M,40.593,M,2.7,0123*68\r\n
$GPGGA,140708.05,5703.3874783,N,00952.2853121,E,2,11,0.9,-1.515,M,40.593,M,3.0,0123*67\r\n
$GPGGA,140708.10,5703.3875097,N,00952.2853484,E,2,11,0.9,-1.509,M,40.593,M,3.0,0123*67\r\n
$GPGGA,140708.15,5703.3875410,N,00952.2853845,E,2,11,0.9,-1.506,M,40.593,M,3.0,0123*67\r\n
$GPGGA,140708.20,5703.3875729,N,00952.2854203,E,2,11,0.9,-1.507,M,40.593,M,3.0,0123*66\r\n
$GPGGA,140708.25,5703.3876058,N,00952.2854584,E,2,11,0.9,-1.511,M,40.593,M,3.2,0123*6C\r\n
$GPGGA,140708.30,5703.3876374,N,00952.2854989,E,2,11,0.9,-1.523,M,40.593,M,3.2,0123*65\r\n
$GPGGA,140708.35,5703.3876691,N,00952.2855405,E,2,11,0.9,-1.535,M,40.593,M,3.2,0123*61\r\n
$GPGGA,140708.40,5703.3877019,N,00952.2855822,E,2,11,0.9,-1.547,M,40.593,M,3.2,0123*68\r\n
$GPGGA,140708.45,5703.3877352,N,00952.2856247,E,2,11,0.9,-1.562,M,40.593,M,2.9,0123*66\r\n
$GPGGA,140708.50,5703.3877676,N,00952.2856662,E,2,11,0.9,-1.573,M,40.593,M,2.9,0123*62\r\n
$GPGGA,140708.55,5703.3878003,N,00952.2857037,E,2,11,0.9,-1.580,M,40.593,M,2.9,0123*67\r\n
$GPGGA,140708.60,5703.3878326,N,00952.2857393,E,2,11,0.9,-1.586,M,40.593,M,2.9,0123*6E\r\n
$GPGGA,140708.65,5703.3878639,N,00952.2857775,E,2,11,0.9,-1.594,M,40.593,M,3.2,0123*65\r\n
$GPGGA,140708.70,5703.3878937,N,00952.2858160,E,2,11,0.9,-1.598,M,40.593,M,3.2,0123*61\r\n
$GPGGA,140708.75,5703.3879235,N,00952.2858536,E,2,11,0.9,-1.595,M,40.593,M,3.2,0123*66\r\n
$GPGGA,140708.80,5703.3879529,N,00952.2858905,E,2,11,0.9,-1.586,M,40.593,M,3.2,0123*68\r\n
$GPGGA,140708.85,5703.3879833,N,00952.2859240,E,2,11,0.9,-1.572,M,40.593,M,3.4,0123*6D\r\n
$GPGGA,140708.90,5703.3880135,N,00952.2859558,E,2,11,0.9,-1.561,M,40.593,M,3.4,0123*6C\r\n
$GPGGA,140708.95,5703.3880441,N,00952.2859869,E,2,11,0.9,-1.548,M,40.593,M,3.4,0123*6B\r\n
$GPGGA,140709.00,5703.3880747,N,00952.2860198,E,2,11,0.9,-1.533,M,40.593,M,3.4,0123*62\r\n
$GPGGA,140709.05,5703.3881052,N,00952.2860532,E,2,11,0.9,-1.515,M,40.593,M,3.6,0123*67\r\n
$GPGGA,140709.10,5703.3881356,N,00952.2860841,E,2,11,0.9,-1.500,M,40.593,M,3.6,0123*69\r\n
$GPGGA,140709.15,5703.3881665,N,00952.2861164,E,2,11,0.9,-1.488,M,40.593,M,3.6,0123*67\r\n
$GPGGA,140709.20,5703.3881974,N,00952.2861499,E,2,11,0.9,-1.481,M,40.593,M,3.6,0123*60\r\n
$GPGGA,140709.25,5703.3882292,N,00952.2861845,E,2,11,0.9,-1.477,M,40.593,M,3.8,0123*6F\r\n
$GPGGA,140709.30,5703.3882619,N,00952.2862195,E,2,11,0.9,-1.475,M,40.593,M,3.8,0123*69\r\n
$GPGGA,140709.35,5703.3882947,N,00952.2862555,E,2,11,0.9,-1.482,M,40.593,M,3.8,0123*68\r\n
$GPGGA,140709.40,5703.3883272,N,00952.2862936,E,2,11,0.9,-1.495,M,40.593,M,3.8,0123*69\r\n
$GPGGA,140709.45,5703.3883599,N,00952.2863324,E,2,11,0.9,-1.514,M,40.593,M,1.9,0123*6D\r\n
$GPGGA,140709.50,5703.3883942,N,00952.2863730,E,2,11,0.9,-1.531,M,40.593,M,1.9,0123*65\r\n
$GPGGA,140709.55,5703.3884277,N,00952.2864151,E,2,11,0.9,-1.552,M,40.593,M,1.9,0123*69\r\n
$GPGGA,140709.60,5703.3884599,N,00952.2864562,E,2,11,0.9,-1.572,M,40.593,M,1.9,0123*6E\r\n
$GPGGA,140709.65,5703.3884911,N,00952.2864944,E,2,11,0.9,-1.590,M,40.593,M,2.1,0123*68\r\n
$GPGGA,140709.70,5703.3885217,N,00952.2865300,E,2,11,0.9,-1.598,M,40.593,M,2.1,0123*63\r\n
$GPGGA,140709.75,5703.3885508,N,00952.2865662,E,2,11,0.9,-1.602,M,40.593,M,2.1,0123*6E\r\n
$GPGGA,140709.80,5703.3885789,N,00952.2866048,E,2,11,0.9,-1.604,M,40.593,M,2.1,0123*64\r\n
$GPGGA,140709.85,5703.3886095,N,00952.2866399,E,2,11,0.9,-1.594,M,40.593,M,2.3,0123*6F\r\n
$GPGGA,140709.90,5703.3886386,N,00952.2866727,E,2,11,0.9,-1.584,M,40.593,M,2.3,0123*6A\r\n
$GPGGA,140709.95,5703.3886668,N,00952.2867055,E,2,11,0.9,-1.576,M,40.593,M,2.3,0123*64\r\n
$GPGGA,140710.00,5703.3886955,N,00952.2867394,E,2,11,0.9,-1.563,M,40.593,M,2.3,0123*6B\r\n
$GPGGA,140710.05,5703.3887223,N,00952.2867721,E,2,11,0.9,-1.553,M,40.593,M,2.5,0123*6A\r\n
$GPGGA,140710.10,5703.3887513,N,00952.2868030,E,2,11,0.9,-1.537,M,40.593,M,2.5,0123*60\r\n
$GPGGA,140710.15,5703.3887808,N,00952.2868356,E,2,11,0.9,-1.522,M,40.593,M,2.5,0123*65\r\n
$GPGGA,140710.20,5703.3888112,N,00952.2868673,E,2,11,0.9,-1.506,M,40.593,M,2.5,0123*6A\r\n
$GPGGA,140710.25,5703.3888420,N,00952.2869002,E,2,11,0.9,-1.495,M,40.593,M,2.8,0123*6C\r\n
$GPGGA,140710.30,5703.3888729,N,00952.2869337,E,2,11,0.9,-1.489,M,40.593,M,2.8,0123*6A\r\n
$GPGGA,140710.35,5703.3889048,N,00952.2869668,E,2,11,0.9,-1.485,M,40.593,M,2.8,0123*6D\r\n
$GPGGA,140710.40,5703.3889375,N,00952.2870012,E,2,11,0.9,-1.487,M,40.593,M,2.8,0123*63\r\n
$GPGGA,140710.45,5703.3889692,N,00952.2870373,E,2,11,0.9,-1.496,M,40.593,M,3.0,0123*67\r\n
$GPGGA,140710.50,5703.3890017,N,00952.2870742,E,2,11,0.9,-1.505,M,40.593,M,3.0,0123*6D\r\n
$GPGGA,140710.55,5703.3890343,N,00952.2871126,E,2,11,0.9,-1.516,M,40.593,M,3.0,0123*6D\r\n
$GPGGA,140710.60,5703.3890673,N,00952.2871503,E,2,11,0.9,-1.531,M,40.593,M,3.0,0123*6B\r\n
$GPGGA,140710.65,5703.3890973,N,00952.2871904,E,2,11,0.9,-1.552,M,40.593,M,3.2,0123*6D\r\n
$GPGGA,140710.70,5703.3891276,N,00952.2872305,E,2,11,0.9,-1.567,M,40.593,M,3.2,0123*68\r\n
$GPGGA,140710.75,5703.3891588,N,00952.2872674,E,2,11,0.9,-1.575,M,40.593,M,3.2,0123*6B\r\n
$GPGGA,140710.80,5703.3891892,N,00952.2873029,E,2,11,0.9,-1.576,M,40.593,M,3.2,0123*6B\r\n
$GPGGA,140710.85,5703.3892196,N,00952.2873375,E,2,11,0.9,-1.578,M,40.593,M,3.4,0123*62\r\n
$GPGGA,140710.90,5703.3892492,N,00952.2873727,E,2,11,0.9,-1.581,M,40.593,M,3.4,0123*62\r\n
$GPGGA,140710.95,5703.3892778,N,00952.2874068,E,2,11,0.9,-1.581,M,40.593,M,3.4,0123*6B\r\n
$GPGGA,140711.00,5703.3893064,N,00952.2874422,E,2,11,0.9,-1.580,M,40.593,M,3.4,0123*66\r\n
$GPGGA,140711.05,5703.3893340,N,00952.2874774,E,2,11,0.9,-1.581,M,40.593,M,3.6,0123*65\r\n
$GPGGA,140711.10,5703.3893637,N,00952.2875100,E,2,11,0.9,-1.572,M,40.593,M,3.6,0123*6C\r\n
$GPGGA,140711.15,5703.3893927,N,00952.2875416,E,2,11,0.9,-1.564,M,40.593,M,3.6,0123*62\r\n
$GPGGA,140711.20,5703.3894221,N,00952.2875737,E,2,11,0.9,-1.556,M,40.593,M,3.6,0123*6F\r\n
$GPGGA,140711.25,5703.3894517,N,00952.2876078,E,2,11,0.9,-1.546,M,40.593,M,3.8,0123*68\r\n
$GPGGA,140711.30,5703.3894824,N,00952.2876408,E,2,11,0.9,-1.539,M,40.593,M,3.8,0123*6A\r\n
$GPGGA,140711.35,5703.3895129,N,00952.2876762,E,2,11,0.9,-1.532,M,40.593,M,3.8,0123*6E\r\n
$GPGGA,140711.40,5703.3895435,N,00952.2877110,E,2,11,0.9,-1.528,M,40.593,M,3.8,0123*6D\r\n
$GPGGA,140711.45,5703.3895740,N,00952.2877475,E,2,11,0.9,-1.525,M,40.593,M,2.3,0123*68\r\n
$GPGGA,140711.50,5703.3896051,N,00952.2877828,E,2,11,0.9,-1.523,M,40.593,M,2.3,0123*6A\r\n
$GPGGA,140711.55,5703.3896357,N,00952.2878190,E,2,11,0.9,-1.525,M,40.593,M,2.3,0123*69\r\n
$GPGGA,140711.60,5703.3896666,N,00952.2878567,E,2,11,0.9,-1.528,M,40.593,M,2.3,0123*69\r\n
$GPGGA,140711.65,5703.3896970,N,00952.2878942,E,2,11,0.9,-1.539,M,40.593,M,2.5,0123*69\r\n
$GPGGA,140711.70,5703.3897274,N,00952.2879313,E,2,11,0.9,-1.544,M,40.593,M,2.5,0123*66\r\n
$GPGGA,140711.75,5703.3897584,N,00952.2879681,E,2,11,0.9,-1.550,M,40.593,M,2.5,0123*60\r\n
$GPGGA,140711.80,5703.3897898,N,00952.2880050,E,2,11,0.9,-1.556,M,40.593,M,2.5,0123*60\r\n
$GPGGA,140711.85,5703.3898216,N,00952.2880413,E,2,11,0.9,-1.559,M,40.593,M,2.7,0123*68\r\n
$GPGGA,140711.90,5703.3898525,N,00952.2880784,E,2,11,0.9,-1.562,M,40.593,M,2.7,0123*6E\r\n
$GPGGA,140711.95,5703.3898828,N,00952.2881143,E,2,11,0.9,-1.563,M,40.593,M,2.7,0123*66\r\n
$GPGGA,140712.00,5703.3899129,N,00952.2881503,E,2,11,0.9,-1.565,M,40.593,M,2.7,0123*66\r\n
$GPGGA,140712.05,5703.3899418,N,00952.2881866,E,2,11,0.9,-1.569,M,40.593,M,3.0,0123*60\r\n
$GPGGA,140712.10,5703.3899722,N,00952.2882212,E,2,11,0.9,-1.567,M,40.593,M,3.0,0123*6A\r\n
$GPGGA,140712.15,5703.3900025,N,00952.2882559,E,2,11,0.9,-1.566,M,40.593,M,3.0,0123*67\r\n
$GPGGA,140712.20,5703.3900329,N,00952.2882900,E,2,11,0.9,-1.563,M,40.593,M,3.0,0123*6B\r\n
$GPGGA,140712.25,5703.3900625,N,00952.2883237,E,2,11,0.9,-1.559,M,40.593,M,2.7,0123*66\r\n
$GPGGA,140712.30,5703.3900929,N,00952.2883586,E,2,11,0.9,-1.556,M,40.593,M,2.7,0123*63\r\n
$GPGGA,140712.35,5703.3901231,N,00952.2883932,E,2,11,0.9,-1.553,M,40.593,M,2.7,0123*63\r\n
$GPGGA,140712.40,5703.3901534,N,00952.2884274,E,2,11,0.9,-1.548,M,40.593,M,2.7,0123*67\r\n
$GPGGA,140712.45,5703.3901848,N,00952.2884612,E,2,11,0.9,-1.543,M,40.593,M,2.9,0123*65\r\n
$GPGGA,140712.50,5703.3902150,N,00952.2884958,E,2,11,0.9,-1.539,M,40.593,M,2.9,0123*6E\r\n
$GPGGA,140712.55,5703.3902445,N,00952.2885316,E,2,11,0.9,-1.537,M,40.593,M,2.9,0123*65\r\n
$GPGGA,140712.60,5703.3902755,N,00952.2885676,E,2,11,0.9,-1.535,M,40.593,M,2.9,0123*60\r\n
$GPGGA,140712.65,5703.3903053,N,00952.2886047,E,2,11,0.9,-1.539,M,40.593,M,3.2,0123*64\r\n
$GPGGA,140712.70,5703.3903354,N,00952.2886419,E,2,11,0.9,-1.540,M,40.593,M,3.2,0123*65\r\n
$GPGGA,140712.75,5703.3903656,N,00952.2886785,E,2,11,0.9,-1.541,M,40.593,M,3.2,0123*60\r\n
$GPGGA,140712.80,5703.3903959,N,00952.2887157,E,2,11,0.9,-1.542,M,40.593,M,3.2,0123*61\r\n
$GPGGA,140712.85,5703.3904267,N,00952.2887530,E,2,11,0.9,-1.543,M,40.593,M,3.4,0123*67\r\n
$GPGGA,140712.90,5703.3904574,N,00952.2887906,E,2,11,0.9,-1.547,M,40.593,M,3.4,0123*6B\r\n
$GPGGA,140712.95,5703.3904882,N,00952.2888292,E,2,11,0.9,-1.552,M,40.593,M,3.4,0123*67\r\n
$GPGGA,140713.00,5703.3905196,N,00952.2888671,E,2,11,0.9,-1.556,M,40.593,M,3.4,0123*6A\r\n
$GPGGA,140713.05,5703.3905502,N,00952.2889056,E,2,11,0.9,-1.563,M,40.593,M,3.6,0123*60\r\n
$GPGGA,140713.10,5703.3905807,N,00952.2889424,E,2,11,0.9,-1.568,M,40.593,M,3.6,0123*66\r\n
$GPGGA,140713.15,5703.3906109,N,00952.2889800,E,2,11,0.9,-1.571,M,40.593,M,3.6,0123*65\r\n
$GPGGA,140713.20,5703.3906417,N,00952.2890169,E,2,11,0.9,-1.572,M,40.593,M,3.6,0123*64\r\n
$GPGGA,140713.25,5703.3906731,N,00952.2890521,E,2,11,0.9,-1.575,M,40.593,M,1.6,0123*6B\r\n
$GPGGA,140713.30,5703.3907037,N,00952.2890871,E,2,11,0.9,-1.573,M,40.593,M,1.6,0123*61\r\n
$GPGGA,140713.35,5703.3907351,N,00952.2891222,E,2,11,0.9,-1.571,M,40.593,M,1.6,0123*68\r\n
$GPGGA,140713.40,5703.3907660,N,00952.2891574,E,2,11,0.9,-1.569,M,40.593,M,1.6,0123*60\r\n
$GPGGA,140713.45,5703.3907966,N,00952.2891940,E,2,11,0.9,-1.564,M,40.593,M,1.9,0123*65\r\n
$GPGGA,140713.50,5703.3908259,N,00952.2892283,E,2,11,0.9,-1.562,M,40.593,M,1.9,0123*68\r\n
$GPGGA,140713.55,5703.3908557,N,00952.2892639,E,2,11,0.9,-1.558,M,40.593,M,1.9,0123*68\r\n
$GPGGA,140713.60,5703.3908855,N,00952.2893000,E,2,11,0.9,-1.556,M,40.593,M,1.9,0123*62\r\n
$GPGGA,140713.65,5703.3909150,N,00952.2893363,E,2,11,0.9,-1.553,M,40.593,M,2.1,0123*62\r\n
$GPGGA,140713.70,5703.3909452,N,00952.2893714,E,2,11,0.9,-1.549,M,40.593,M,2.1,0123*6E\r\n
$GPGGA,140713.75,5703.3909758,N,00952.2894077,E,2,11,0.9,-1.545,M,40.593,M,2.1,0123*6B\r\n
$GPGGA,140713.80,5703.3910061,N,00952.2894451,E,2,11,0.9,-1.543,M,40.593,M,2.1,0123*62\r\n
$GPGGA,140713.85,5703.3910382,N,00952.2894816,E,2,11,0.9,-1.541,M,40.593,M,2.3,0123*66\r\n
$GPGGA,140713.90,5703.3910695,N,00952.2895195,E,2,11,0.9,-1.541,M,40.593,M,2.3,0123*62\r\n
$GPGGA,140713.95,5703.3911000,N,00952.2895589,E,2,11,0.9,-1.542,M,40.593,M,2.3,0123*66\r\n
$GPGGA,140714.00,5703.3911307,N,00952.2895976,E,2,11,0.9,-1.546,M,40.593,M,2.3,0123*61\r\n
$GPGGA,140714.05,5703.3911608,N,00952.2896355,E,2,11,0.9,-1.549,M,40.593,M,2.5,0123*6F\r\n
$GPGGA,140714.10,5703.3911915,N,00952.2896728,E,2,11,0.9,-1.551,M,40.593,M,2.5,0123*6F\r\n
$GPGGA,140714.15,5703.3912218,N,00952.2897105,E,2,11,0.9,-1.551,M,40.593,M,2.5,0123*67\r\n
$GPGGA,140714.20,5703.3912530,N,00952.2897494,E,2,11,0.9,-1.552,M,40.593,M,2.5,0123*62\r\n
$GPGGA,140714.25,5703.3912842,N,00952.2897888,E,2,11,0.9,-1.558,M,40.593,M,2.8,0123*69\r\n
$GPGGA,140714.30,5703.3913147,N,00952.2898270,E,2,11,0.9,-1.561,M,40.593,M,2.8,0123*68\r\n
$GPGGA,140714.35,5703.3913455,N,00952.2898638,E,2,11,0.9,-1.563,M,40.593,M,2.8,0123*61\r\n
$GPGGA,140714.40,5703.3913769,N,00952.2899014,E,2,11,0.9,-1.565,M,40.593,M,2.8,0123*60\r\n
$GPGGA,140714.45,5703.3914080,N,00952.2899389,E,2,11,0.9,-1.567,M,40.593,M,3.0,0123*6E\r\n
$GPGGA,140714.50,5703.3914390,N,00952.2899770,E,2,11,0.9,-1.566,M,40.593,M,3.0,0123*6B\r\n
$GPGGA,140714.55,5703.3914697,N,00952.2900151,E,2,11,0.9,-1.567,M,40.593,M,3.0,0123*69\r\n
$GPGGA,140714.60,5703.3915002,N,00952.2900526,E,2,11,0.9,-1.569,M,40.593,M,3.0,0123*6E\r\n
$GPGGA,140714.65,5703.3915312,N,00952.2900900,E,2,11,0.9,-1.570,M,40.593,M,3.2,0123*6B\r\n
$GPGGA,140714.70,5703.3915623,N,00952.2901270,E,2,11,0.9,-1.568,M,40.593,M,3.2,0123*6C\r\n
$GPGGA,140714.75,5703.3915932,N,00952.2901628,E,2,11,0.9,-1.564,M,40.593,M,3.2,0123*63\r\n
$GPGGA,140714.80,5703.3916245,N,00952.2902005,E,2,11,0.9,-1.562,M,40.593,M,3.2,0123*6D\r\n
$GPGGA,140714.85,5703.3916563,N,00952.2902377,E,2,11,0.9,-1.557,M,40.593,M,3.4,0123*6D\r\n
$GPGGA,140714.90,5703.3916864,N,00952.2902740,E,2,11,0.9,-1.554,M,40.593,M,3.4,0123*60\r\n
$GPGGA,140714.95,5703.3917161,N,00952.2903110,E,2,11,0.9,-1.549,M,40.593,M,3.4,0123*66\r\n
$GPGGA,140715.00,5703.3917463,N,00952.2903485,E,2,11,0.9,-1.544,M,40.593,M,3.4,0123*68\r\n
$GPGGA,140715.05,5703.3917756,N,00952.2903860,E,2,11,0.9,-1.539,M,40.593,M,3.6,0123*67\r\n
$GPGGA,140715.10,5703.3918060,N,00952.2904228,E,2,11,0.9,-1.532,M,40.593,M,3.6,0123*64\r\n
$GPGGA,140715.15,5703.3918360,N,00952.2904602,E,2,11,0.9,-1.527,M,40.593,M,3.6,0123*6A\r\n
$GPGGA,140715.20,5703.3918661,N,00952.2904981,E,2,11,0.9,-1.523,M,40.593,M,3.6,0123*68\r\n
$GPGGA,140715.25,5703.3918961,N,00952.2905342,E,2,11,0.9,-1.520,M,40.593,M,2.0,0123*62\r\n
$GPGGA,140715.30,5703.3919274,N,00952.2905692,E,2,11,0.9,-1.515,M,40.593,M,2.0,0123*66\r\n
$GPGGA,140715.35,5703.3919586,N,00952.2906048,E,2,11,0.9,-1.514,M,40.593,M,2.0,0123*6A\r\n
$GPGGA,140715.40,5703.3919902,N,00952.2906427,E,2,11,0.9,-1.519,M,40.593,M,2.0,0123*68\r\n
$GPGGA,140715.45,5703.3920217,N,00952.2906822,E,2,11,0.9,-1.524,M,40.593,M,2.3,0123*6C\r\n
$GPGGA,140715.50,5703.3920537,N,00952.2907236,E,2,11,0.9,-1.532,M,40.593,M,2.3,0123*64\r\n
$GPGGA,140715.55,5703.3920862,N,00952.2907654,E,2,11,0.9,-1.544,M,40.593,M,2.3,0123*6D\r\n
$GPGGA,140715.60,5703.3921186,N,00952.2908057,E,2,11,0.9,-1.559,M,40.593,M,2.3,0123*6F\r\n
$GPGGA,140715.65,5703.3921505,N,00952.2908448,E,2,11,0.9,-1.574,M,40.593,M,2.5,0123*66\r\n
$GPGGA,140715.70,5703.3921830,N,00952.2908826,E,2,11,0.9,-1.577,M,40.593,M,2.5,0123*6E\r\n
$GPGGA,140715.75,5703.3922131,N,00952.2909214,E,2,11,0.9,-1.581,M,40.593,M,2.5,0123*63\r\n
$GPGGA,140715.80,5703.3922428,N,00952.2909597,E,2,11,0.9,-1.583,M,40.593,M,2.5,0123*6A\r\n
$GPGGA,140715.85,5703.3922724,N,00952.2909959,E,2,11,0.9,-1.576,M,40.593,M,2.7,0123*66\r\n
$GPGGA,140715.90,5703.3923019,N,00952.2910312,E,2,11,0.9,-1.569,M,40.593,M,2.7,0123*69\r\n
$GPGGA,140715.95,5703.3923307,N,00952.2910659,E,2,11,0.9,-1.561,M,40.593,M,2.7,0123*62\r\n
$GPGGA,140716.00,5703.3923602,N,00952.2911004,E,2,11,0.9,-1.552,M,40.593,M,2.7,0123*62\r\n
$GPGGA,140716.05,5703.3923881,N,00952.2911368,E,2,11,0.9,-1.547,M,40.593,M,3.0,0123*69\r\n
$GPGGA,140716.10,5703.3924178,N,00952.2911721,E,2,11,0.9,-1.538,M,40.593,M,3.0,0123*64\r\n
$GPGGA,140716.15,5703.3924468,N,00952.2912079,E,2,11,0.9,-1.529,M,40.593,M,3.0,0123*6C\r\n
$GPGGA,140716.20,5703.3924763,N,00952.2912423,E,2,11,0.9,-1.517,M,40.593,M,3.0,0123*64\r\n
$GPGGA,140716.25,5703.3925069,N,00952.2912779,E,2,11,0.9,-1.508,M,40.593,M,2.7,0123*69\r\n
$GPGGA,140716.30,5703.3925385,N,00952.2913136,E,2,11,0.9,-1.504,M,40.593,M,2.7,0123*6C\r\n
$GPGGA,140716.35,5703.3925698,N,00952.2913506,E,2,11,0.9,-1.504,M,40.593,M,2.7,0123*67\r\n
$GPGGA,140716.40,5703.3926006,N,00952.2913896,E,2,11,0.9,-1.507,M,40.593,M,2.7,0123*60\r\n
$GPGGA,140716.45,5703.3926324,N,00952.2914289,E,2,11,0.9,-1.514,M,40.593,M,2.9,0123*69\r\n
$GPGGA,140716.50,5703.3926645,N,00952.2914694,E,2,11,0.9,-1.523,M,40.593,M,2.9,0123*63\r\n
$GPGGA,140716.55,5703.3926948,N,00952.2915110,E,2,11,0.9,-1.536,M,40.593,M,2.9,0123*6A\r\n
$GPGGA,140716.60,5703.3927254,N,00952.2915527,E,2,11,0.9,-1.549,M,40.593,M,2.9,0123*63\r\n
$GPGGA,140716.65,5703.3927563,N,00952.2915940,E,2,11,0.9,-1.558,M,40.593,M,3.2,0123*62\r\n
$GPGGA,140716.70,5703.3927876,N,00952.2916310,E,2,11,0.9,-1.560,M,40.593,M,3.2,0123*68\r\n
$GPGGA,140716.75,5703.3928191,N,00952.2916677,E,2,11,0.9,-1.561,M,40.593,M,3.2,0123*67\r\n
$GPGGA,140716.80,5703.3928488,N,00952.2917060,E,2,11,0.9,-1.564,M,40.593,M,3.2,0123*64\r\n
$GPGGA,140716.85,5703.3928777,N,00952.2917437,E,2,11,0.9,-1.563,M,40.593,M,3.4,0123*65\r\n
$GPGGA,140716.90,5703.3929069,N,00952.2917817,E,2,11,0.9,-1.564,M,40.593,M,3.4,0123*61\r\n
$GPGGA,140716.95,5703.3929365,N,00952.2918173,E,2,11,0.9,-1.559,M,40.593,M,3.4,0123*61\r\n
$GPGGA,140717.00,5703.3929658,N,00952.2918522,E,2,11,0.9,-1.552,M,40.593,M,3.4,0123*6C\r\n
$GPGGA,140717.05,5703.3929943,N,00952.2918867,E,2,11,0.9,-1.545,M,40.593,M,3.6,0123*64\r\n
$GPGGA,140717.10,5703.3930241,N,00952.2919219,E,2,11,0.9,-1.538,M,40.593,M,3.6,0123*69\r\n
$GPGGA,140717.15,5703.3930537,N,00952.2919583,E,2,11,0.9,-1.531,M,40.593,M,3.6,0123*67\r\n
$GPGGA,140717.20,5703.3930824,N,00952.2919951,E,2,11,0.9,-1.528,M,40.593,M,3.6,0123*65\r\n
$GPGGA,140717.25,5703.3931113,N,00952.2920320,E,2,11,0.9,-1.523,M,40.593,M,1.6,0123*63\r\n
$GPGGA,140717.30,5703.3931418,N,00952.2920694,E,2,11,0.9,-1.518,M,40.593,M,1.6,0123*6B\r\n
$GPGGA,140717.35,5703.3931720,N,00952.2921074,E,2,11,0.9,-1.515,M,40.593,M,1.6,0123*62\r\n
$GPGGA,140717.40,5703.3932029,N,00952.2921453,E,2,11,0.9,-1.517,M,40.593,M,1.6,0123*6E\r\n
$GPGGA,140717.45,5703.3932347,N,00952.2921843,E,2,11,0.9,-1.515,M,40.593,M,1.9,0123*60\r\n
$GPGGA,140717.50,5703.3932652,N,00952.2922240,E,2,11,0.9,-1.522,M,40.593,M,1.9,0123*6B\r\n
$GPGGA,140717.55,5703.3932955,N,00952.2922641,E,2,11,0.9,-1.529,M,40.593,M,1.9,0123*68\r\n
$GPGGA,140717.60,5703.3933249,N,00952.2923052,E,2,11,0.9,-1.537,M,40.593,M,1.9,0123*63\r\n
$GPGGA,140717.65,5703.3933547,N,00952.2923447,E,2,11,0.9,-1.543,M,40.593,M,2.1,0123*67\r\n
$GPGGA,140717.70,5703.3933849,N,00952.2923826,E,2,11,0.9,-1.544,M,40.593,M,2.1,0123*6C\r\n
$GPGGA,140717.75,5703.3934149,N,00952.2924185,E,2,11,0.9,-1.544,M,40.593,M,2.1,0123*60\r\n
$GPGGA,140717.80,5703.3934451,N,00952.2924562,E,2,11,0.9,-1.545,M,40.593,M,2.1,0123*6A\r\n
$GPGGA,140717.85,5703.3934741,N,00952.2924924,E,2,11,0.9,-1.542,M,40.593,M,2.3,0123*66\r\n
$GPGGA,140717.90,5703.3935033,N,00952.2925291,E,2,11,0.9,-1.542,M,40.593,M,2.3,0123*65\r\n
$GPGGA,140717.95,5703.3935319,N,00952.2925660,E,2,11,0.9,-1.539,M,40.593,M,2.3,0123*6D\r\n
$GPGGA,140718.00,5703.3935611,N,00952.2926037,E,2,11,0.9,-1.536,M,40.593,M,2.3,0123*6B\r\n
$GPGGA,140718.05,5703.3935891,N,00952.2926408,E,2,11,0.9,-1.538,M,40.593,M,2.5,0123*68\r\n
$GPGGA,140718.10,5703.3936181,N,00952.2926786,E,2,11,0.9,-1.536,M,40.593,M,2.5,0123*6C\r\n
$GPGGA,140718.15,5703.3936468,N,00952.2927161,E,2,11,0.9,-1.533,M,40.593,M,2.5,0123*60\r\n
$GPGGA,140718.20,5703.3936760,N,00952.2927538,E,2,11,0.9,-1.529,M,40.593,M,2.5,0123*6E\r\n
$GPGGA,140718.25,5703.3937060,N,00952.2927924,E,2,11,0.9,-1.526,M,40.593,M,2.8,0123*6E\r\n
$GPGGA,140718.30,5703.3937345,N,00952.2928319,E,2,11,0.9,-1.529,M,40.593,M,2.8,0123*6A\r\n
$GPGGA,140718.35,5703.3937644,N,00952.2928716,E,2,11,0.9,-1.532,M,40.593,M,2.8,0123*6A\r\n
$GPGGA,140718.40,5703.3937943,N,00952.2929115,E,2,11,0.9,-1.537,M,40.593,M,2.8,0123*61\r\n
$GPGGA,140718.45,5703.3938239,N,00952.2929506,E,2,11,0.9,-1.545,M,40.593,M,3.0,0123*67\r\n
$GPGGA,140718.50,5703.3938544,N,00952.2929894,E,2,11,0.9,-1.548,M,40.593,M,3.0,0123*65\r\n
$GPGGA,140718.55,5703.3938850,N,00952.2930291,E,2,11,0.9,-1.551,M,40.593,M,3.0,0123*67\r\n
$GPGGA,140718.60,5703.3939152,N,00952.2930681,E,2,11,0.9,-1.553,M,40.593,M,3.0,0123*6C\r\n
$GPGGA,140718.65,5703.3939453,N,00952.2931072,E,2,11,0.9,-1.556,M,40.593,M,3.2,0123*61\r\n
$GPGGA,140718.70,5703.3939746,N,00952.2931437,E,2,11,0.9,-1.557,M,40.593,M,3.2,0123*66\r\n
$GPGGA,140718.75,5703.3940041,N,00952.2931820,E,2,11,0.9,-1.558,M,40.593,M,3.2,0123*68\r\n
$GPGGA,140718.80,5703.3940326,N,00952.2932205,E,2,11,0.9,-1.559,M,40.593,M,3.2,0123*6F\r\n
$GPGGA,140718.85,5703.3940610,N,00952.2932607,E,2,11,0.9,-1.559,M,40.593,M,3.4,0123*6A\r\n
$GPGGA,140718.90,5703.3940895,N,00952.2932982,E,2,11,0.9,-1.557,M,40.593,M,3.4,0123*61\r\n
$GPGGA,140718.95,5703.3941177,N,00952.2933349,E,2,11,0.9,-1.554,M,40.593,M,3.4,0123*6F\r\n
$GPGGA,140719.00,5703.3941455,N,00952.2933711,E,2,11,0.9,-1.548,M,40.593,M,3.4,0123*63\r\n
$GPGGA,140719.05,5703.3941725,N,00952.2934099,E,2,11,0.9,-1.545,M,40.593,M,3.6,0123*6D\r\n
$GPGGA,140719.10,5703.3941999,N,00952.2934499,E,2,11,0.9,-1.543,M,40.593,M,3.6,0123*62\r\n
$GPGGA,140719.15,5703.3942277,N,00952.2934889,E,2,11,0.9,-1.537,M,40.593,M,3.6,0123*61\r\n
$GPGGA,140719.20,5703.3942564,N,00952.2935267,E,2,11,0.9,-1.533,M,40.593,M,3.6,0123*6D\r\n
$GPGGA,140719.25,5703.3942857,N,00952.2935656,E,2,11,0.9,-1.525,M,40.593,M,2.0,0123*63\r\n
$GPGGA,140719.30,5703.3943149,N,00952.2936048,E,2,11,0.9,-1.521,M,40.593,M,2.0,0123*6E\r\n
$GPGGA,140719.35,5703.3943438,N,00952.2936438,E,2,11,0.9,-1.521,M,40.593,M,2.0,0123*6B\r\n
$GPGGA,140719.40,5703.3943733,N,00952.2936834,E,2,11,0.9,-1.523,M,40.593,M,2.0,0123*63\r\n
$GPGGA,140719.45,5703.3944042,N,00952.2937224,E,2,11,0.9,-1.526,M,40.593,M,2.3,0123*6C\r\n
$GPGGA,140719.50,5703.3944335,N,00952.2937614,E,2,11,0.9,-1.530,M,40.593,M,2.3,0123*6B\r\n
$GPGGA,140719.55,5703.3944625,N,00952.2938015,E,2,11,0.9,-1.539,M,40.593,M,2.3,0123*6B\r\n
$GPGGA,140719.60,5703.3944922,N,00952.2938428,E,2,11,0.9,-1.548,M,40.593,M,2.3,0123*69\r\n
$GPGGA,140719.65,5703.3945224,N,00952.2938853,E,2,11,0.9,-1.556,M,40.593,M,2.5,0123*69\r\n
$GPGGA,140719.70,5703.3945529,N,00952.2939270,E,2,11,0.9,-1.565,M,40.593,M,2.5,0123*6D\r\n
$GPGGA,140719.75,5703.3945825,N,00952.2939669,E,2,11,0.9,-1.571,M,40.593,M,2.5,0123*60\r\n
$GPGGA,140719.80,5703.3946114,N,00952.2940067,E,2,11,0.9,-1.574,M,40.593,M,2.5,0123*61\r\n
$GPGGA,140719.85,5703.3946410,N,00952.2940465,E,2,11,0.9,-1.576,M,40.593,M,2.7,0123*63\r\n
$GPGGA,140719.90,5703.3946691,N,00952.2940873,E,2,11,0.9,-1.578,M,40.593,M,2.7,0123*69\r\n
$GPGGA,140719.95,5703.3946977,N,00952.2941277,E,2,11,0.9,-1.580,M,40.593,M,2.7,0123*63\r\n
$GPGGA,140720.00,5703.3947249,N,00952.2941674,E,2,11,0.9,-1.579,M,40.593,M,2.7,0123*63\r\n
$GPGGA,140720.05,5703.3947514,N,00952.2942079,E,2,11,0.9,-1.578,M,40.593,M,3.0,0123*66\r\n
$GPGGA,140720.10,5703.3947786,N,00952.2942469,E,2,11,0.9,-1.575,M,40.593,M,3.0,0123*63\r\n
$GPGGA,140720.15,5703.3948053,N,00952.2942878,E,2,11,0.9,-1.569,M,40.593,M,3.0,0123*67\r\n
$GPGGA,140720.20,5703.3948333,N,00952.2943262,E,2,11,0.9,-1.562,M,40.593,M,3.0,0123*6F\r\n
$GPGGA,140720.25,5703.3948615,N,00952.2943651,E,2,11,0.9,-1.548,M,40.593,M,2.7,0123*61\r\n
$GPGGA,140720.30,5703.3948897,N,00952.2944037,E,2,11,0.9,-1.542,M,40.593,M,2.7,0123*6A\r\n
$GPGGA,140720.35,5703.3949182,N,00952.2944416,E,2,11,0.9,-1.536,M,40.593,M,2.7,0123*67\r\n
$GPGGA,140720.40,5703.3949471,N,00952.2944803,E,2,11,0.9,-1.531,M,40.593,M,2.7,0123*63\r\n
$GPGGA,140720.45,5703.3949761,N,00952.2945206,E,2,11,0.9,-1.533,M,40.593,M,2.9,0123*66\r\n
$GPGGA,140720.50,5703.3950053,N,00952.2945606,E,2,11,0.9,-1.530,M,40.593,M,2.9,0123*6B\r\n
$GPGGA,140720.55,5703.3950347,N,00952.2946008,E,2,11,0.9,-1.530,M,40.593,M,2.9,0123*63\r\n
$GPGGA,140720.60,5703.3950649,N,00952.2946412,E,2,11,0.9,-1.532,M,40.593,M,2.9,0123*63\r\n
$GPGGA,140720.65,5703.3950944,N,00952.2946815,E,2,11,0.9,-1.537,M,40.593,M,3.2,0123*60\r\n
$GPGGA,140720.70,5703.3951234,N,00952.2947222,E,2,11,0.9,-1.542,M,40.593,M,3.2,0123*64\r\n
$GPGGA,140720.75,5703.3951524,N,00952.2947635,E,2,11,0.9,-1.547,M,40.593,M,3.2,0123*60\r\n
$GPGGA,140720.80,5703.3951826,N,00952.2948034,E,2,11,0.9,-1.552,M,40.593,M,3.2,0123*69\r\n
$GPGGA,140720.85,5703.3952112,N,00952.2948450,E,2,11,0.9,-1.557,M,40.593,M,3.4,0123*64\r\n
$GPGGA,140720.90,5703.3952399,N,00952.2948875,E,2,11,0.9,-1.563,M,40.593,M,3.4,0123*6D\r\n
$GPGGA,140720.95,5703.3952688,N,00952.2949298,E,2,11,0.9,-1.569,M,40.593,M,3.4,0123*6F\r\n
$GPGGA,140721.00,5703.3952975,N,00952.2949724,E,2,11,0.9,-1.574,M,40.593,M,3.4,0123*61\r\n
$GPGGA,140721.05,5703.3953257,N,00952.2950143,E,2,11,0.9,-1.578,M,40.593,M,3.6,0123*6F\r\n
$GPGGA,140721.10,5703.3953548,N,00952.2950556,E,2,11,0.9,-1.579,M,40.593,M,3.6,0123*63\r\n
$GPGGA,140721.15,5703.3953833,N,00952.2950965,E,2,11,0.9,-1.580,M,40.593,M,3.6,0123*6D\r\n
$GPGGA,140721.20,5703.3954118,N,00952.2951373,E,2,11,0.9,-1.579,M,40.593,M,3.6,0123*66\r\n
$GPGGA,140721.25,5703.3954387,N,00952.2951771,E,2,11,0.9,-1.582,M,40.593,M,1.6,0123*67\r\n
$GPGGA,140721.30,5703.3954674,N,00952.2952166,E,2,11,0.9,-1.580,M,40.593,M,1.6,0123*6B\r\n
$GPGGA,140721.35,5703.3954965,N,00952.2952546,E,2,11,0.9,-1.575,M,40.593,M,1.6,0123*6D\r\n
$GPGGA,140721.40,5703.3955246,N,00952.2952933,E,2,11,0.9,-1.569,M,40.593,M,1.6,0123*67\r\n
$GPGGA,140721.45,5703.3955530,N,00952.2953309,E,2,11,0.9,-1.561,M,40.593,M,1.9,0123*61\r\n
$GPGGA,140721.50,5703.3955816,N,00952.2953686,E,2,11,0.9,-1.554,M,40.593,M,1.9,0123*68\r\n
$GPGGA,140721.55,5703.3956102,N,00952.2954071,E,2,11,0.9,-1.546,M,40.593,M,1.9,0123*68\r\n
$GPGGA,140721.60,5703.3956385,N,00952.2954460,E,2,11,0.9,-1.541,M,40.593,M,1.9,0123*60\r\n
$GPGGA,140721.65,5703.3956668,N,00952.2954851,E,2,11,0.9,-1.537,M,40.593,M,2.1,0123*67\r\n
$GPGGA,140721.70,5703.3956948,N,00952.2955248,E,2,11,0.9,-1.532,M,40.593,M,2.1,0123*68\r\n
$GPGGA,140721.75,5703.3957238,N,00952.2955651,E,2,11,0.9,-1.529,M,40.593,M,2.1,0123*66\r\n
$GPGGA,140721.80,5703.3957525,N,00952.2956066,E,2,11,0.9,-1.528,M,40.593,M,2.1,0123*67\r\n
$GPGGA,140721.85,5703.3957809,N,00952.2956466,E,2,11,0.9,-1.528,M,40.593,M,2.3,0123*67\r\n
$GPGGA,140721.90,5703.3958101,N,00952.2956877,E,2,11,0.9,-1.529,M,40.593,M,2.3,0123*60\r\n
$GPGGA,140721.95,5703.3958402,N,00952.2957303,E,2,11,0.9,-1.533,M,40.593,M,2.3,0123*61\r\n
$GPGGA,140722.00,5703.3958692,N,00952.2957732,E,2,11,0.9,-1.542,M,40.593,M,2.3,0123*65\r\n
$GPGGA,140722.05,5703.3958968,N,00952.2958173,E,2,11,0.9,-1.557,M,40.593,M,2.5,0123*64\r\n
$GPGGA,140722.10,5703.3959255,N,00952.2958610,E,2,11,0.9,-1.568,M,40.593,M,2.5,0123*6A\r\n
$GPGGA,140722.15,5703.3959550,N,00952.2959025,E,2,11,0.9,-1.576,M,40.593,M,2.5,0123*63\r\n
$GPGGA,140722.20,5703.3959851,N,00952.2959422,E,2,11,0.9,-1.580,M,40.593,M,2.5,0123*63\r\n
$GPGGA,140722.25,5703.3960154,N,00952.2959802,E,2,11,0.9,-1.584,M,40.593,M,2.8,0123*67\r\n
$GPGGA,140722.30,5703.3960448,N,00952.2960193,E,2,11,0.9,-1.586,M,40.593,M,2.8,0123*62\r\n
$GPGGA,140722.35,5703.3960737,N,00952.2960587,E,2,11,0.9,-1.587,M,40.593,M,2.8,0123*6C\r\n
$GPGGA,140722.40,5703.3961022,N,00952.2960972,E,2,11,0.9,-1.588,M,40.593,M,2.8,0123*65\r\n
$GPGGA,140722.45,5703.3961314,N,00952.2961343,E,2,11,0.9,-1.583,M,40.593,M,3.0,0123*6D\r\n
$GPGGA,140722.50,5703.3961604,N,00952.2961723,E,2,11,0.9,-1.579,M,40.593,M,3.0,0123*6A\r\n
$GPGGA,140722.55,5703.3961888,N,00952.2962096,E,2,11,0.9,-1.575,M,40.593,M,3.0,0123*63\r\n
$GPGGA,140722.60,5703.3962172,N,00952.2962485,E,2,11,0.9,-1.569,M,40.593,M,3.0,0123*61\r\n
$GPGGA,140722.65,5703.3962456,N,00952.2962874,E,2,11,0.9,-1.564,M,40.593,M,3.2,0123*6A\r\n
$GPGGA,140722.70,5703.3962743,N,00952.2963258,E,2,11,0.9,-1.560,M,40.593,M,3.2,0123*68\r\n
$GPGGA,140722.75,5703.3963017,N,00952.2963664,E,2,11,0.9,-1.555,M,40.593,M,3.2,0123*67\r\n
$GPGGA,140722.80,5703.3963298,N,00952.2964074,E,2,11,0.9,-1.550,M,40.593,M,3.2,0123*6D\r\n
$GPGGA,140722.85,5703.3963585,N,00952.2964502,E,2,11,0.9,-1.550,M,40.593,M,3.4,0123*61\r\n
$GPGGA,140722.90,5703.3963875,N,00952.2964941,E,2,11,0.9,-1.550,M,40.593,M,3.4,0123*6C\r\n
$GPGGA,140722.95,5703.3964165,N,00952.2965373,E,2,11,0.9,-1.552,M,40.593,M,3.4,0123*6E\r\n
$GPGGA,140723.00,5703.3964455,N,00952.2965793,E,2,11,0.9,-1.554,M,40.593,M,3.4,0123*69\r\n
$GPGGA,140723.05,5703.3964730,N,00952.2966207,E,2,11,0.9,-1.554,M,40.593,M,3.6,0123*65\r\n
$GPGGA,140723.10,5703.3965021,N,00952.2966613,E,2,11,0.9,-1.556,M,40.593,M,3.6,0123*64\r\n
$GPGGA,140723.15,5703.3965320,N,00952.2967014,E,2,11,0.9,-1.559,M,40.593,M,3.6,0123*6C\r\n
$GPGGA,140723.20,5703.3965617,N,00952.2967423,E,2,11,0.9,-1.564,M,40.593,M,3.6,0123*65\r\n
$GPGGA,140723.25,5703.3965922,N,00952.2967821,E,2,11,0.9,-1.569,M,40.593,M,2.0,0123*6D\r\n
$GPGGA,140723.30,5703.3966228,N,00952.2968214,E,2,11,0.9,-1.570,M,40.593,M,2.0,0123*60\r\n
$GPGGA,140723.35,5703.3966526,N,00952.2968606,E,2,11,0.9,-1.573,M,40.593,M,2.0,0123*68\r\n
$GPGGA,140723.40,5703.3966828,N,00952.2968978,E,2,11,0.9,-1.575,M,40.593,M,2.0,0123*69\r\n
$GPGGA,140723.45,5703.3967139,N,00952.2969353,E,2,11,0.9,-1.573,M,40.593,M,2.3,0123*63\r\n
$GPGGA,140723.50,5703.3967438,N,00952.2969746,E,2,11,0.9,-1.573,M,40.593,M,2.3,0123*63\r\n
$GPGGA,140723.55,5703.3967734,N,00952.2970141,E,2,11,0.9,-1.572,M,40.593,M,2.3,0123*61\r\n
$GPGGA,140723.60,5703.3968024,N,00952.2970534,E,2,11,0.9,-1.570,M,40.593,M,2.3,0123*6A\r\n
$GPGGA,140723.65,5703.3968311,N,00952.2970932,E,2,11,0.9,-1.571,M,40.593,M,2.5,0123*67\r\n
$GPGGA,140723.70,5703.3968591,N,00952.2971326,E,2,11,0.9,-1.569,M,40.593,M,2.5,0123*6A\r\n
$GPGGA,140723.75,5703.3968885,N,00952.2971711,E,2,11,0.9,-1.565,M,40.593,M,2.5,0123*6B\r\n
$GPGGA,140723.80,5703.3969176,N,00952.2972113,E,2,11,0.9,-1.562,M,40.593,M,2.5,0123*65\r\n
$GPGGA,140723.85,5703.3969454,N,00952.2972530,E,2,11,0.9,-1.558,M,40.593,M,2.7,0123*6B\r\n
$GPGGA,140723.90,5703.3969735,N,00952.2972947,E,2,11,0.9,-1.555,M,40.593,M,2.7,0123*6A\r\n
$GPGGA,140723.95,5703.3970020,N,00952.2973362,E,2,11,0.9,-1.553,M,40.593,M,2.7,0123*6E\r\n
$GPGGA,140724.00,5703.3970298,N,00952.2973769,E,2,11,0.9,-1.552,M,40.593,M,2.7,0123*6A\r\n
$GPGGA,140724.05,5703.3970573,N,00952.2974154,E,2,11,0.9,-1.550,M,40.593,M,3.0,0123*66\r\n
