$GPGGA,095425.65,5703.3676740,N,00952.2070475,E,2,11,0.9,-1.291,M,40.592,M,2.4,0123*65\r\n
$GPGGA,095425.70,5703.3676859,N,00952.2070134,E,2,11,0.9,-1.290,M,40.592,M,2.4,0123*67\r\n
$GPGGA,095425.75,5703.3676974,N,00952.2069803,E,2,11,0.9,-1.288,M,40.592,M,2.4,0123*60\r\n
$GPGGA,095425.80,5703.3677094,N,00952.2069469,E,2,11,0.9,-1.288,M,40.592,M,2.4,0123*6C\r\n
$GPGGA,095425.85,5703.3677213,N,00952.2069139,E,2,11,0.9,-1.287,M,40.592,M,1.3,0123*6F\r\n
$GPGGA,095425.90,5703.3677337,N,00952.2068828,E,2,11,0.9,-1.288,M,40.592,M,1.3,0123*6B\r\n
$GPGGA,095425.95,5703.3677469,N,00952.2068503,E,2,11,0.9,-1.289,M,40.592,M,1.3,0123*67\r\n
$GPGGA,095426.00,5703.3677603,N,00952.2068166,E,2,11,0.9,-1.288,M,40.592,M,1.3,0123*60\r\n
$GPGGA,095426.05,5703.3677730,N,00952.2067831,E,2,11,0.9,-1.282,M,40.592,M,1.6,0123*6F\r\n
$GPGGA,095426.10,5703.3677856,N,00952.2067481,E,2,11,0.9,-1.282,M,40.592,M,1.6,0123*63\r\n
$GPGGA,095426.15,5703.3677990,N,00952.2067133,E,2,11,0.9,-1.283,M,40.592,M,1.6,0123*60\r\n
$GPGGA,095426.20,5703.3678123,N,00952.2066772,E,2,11,0.9,-1.282,M,40.592,M,1.6,0123*6A\r\n
$GPGGA,095426.25,5703.3678246,N,00952.2066402,E,2,11,0.9,-1.286,M,40.592,M,1.8,0123*61\r\n
$GPGGA,095426.30,5703.3678368,N,00952.2066039,E,2,11,0.9,-1.289,M,40.592,M,1.8,0123*6B\r\n
$GPGGA,095426.35,5703.3678498,N,00952.2065681,E,2,11,0.9,-1.288,M,40.592,M,1.8,0123*61\r\n
$GPGGA,095426.40,5703.3678630,N,00952.2065331,E,2,11,0.9,-1.290,M,40.592,M,1.8,0123*64\r\n
$GPGGA,095426.45,5703.3678763,N,00952.2064990,E,2,11,0.9,-1.290,M,40.592,M,2.0,0123*6D\r\n
$GPGGA,095426.50,5703.3678898,N,00952.2064663,E,2,11,0.9,-1.290,M,40.592,M,2.0,0123*61\r\n
$GPGGA,095426.55,5703.3679024,N,00952.2064322,E,2,11,0.9,-1.291,M,40.592,M,2.0,0123*6B\r\n
$GPGGA,095426.60,5703.3679150,N,00952.2063991,E,2,11,0.9,-1.292,M,40.592,M,2.0,0123*69\r\n
$GPGGA,095426.65,5703.3679279,N,00952.2063653,E,2,11,0.9,-1.288,M,40.592,M,2.3,0123*6D\r\n
$GPGGA,095426.70,5703.3679402,N,00952.2063317,E,2,11,0.9,-1.289,M,40.592,M,2.3,0123*67\r\n
$GPGGA,095426.75,5703.3679529,N,00952.2062982,E,2,11,0.9,-1.289,M,40.592,M,2.3,0123*6D\r\n
$GPGGA,095426.80,5703.3679664,N,00952.2062639,E,2,11,0.9,-1.286,M,40.592,M,2.3,0123*6D\r\n
$GPGGA,095426.85,5703.3679787,N,00952.2062284,E,2,11,0.9,-1.288,M,40.592,M,1.7,0123*6F\r\n
$GPGGA,095426.90,5703.3679901,N,00952.2061918,E,2,11,0.9,-1.285,M,40.592,M,1.7,0123*6B\r\n
$GPGGA,095426.95,5703.3680025,N,00952.2061558,E,2,11,0.9,-1.283,M,40.592,M,1.7,0123*69\r\n
$GPGGA,095427.00,5703.3680155,N,00952.2061208,E,2,11,0.9,-1.284,M,40.592,M,1.7,0123*67\r\n
$GPGGA,095427.05,5703.3680279,N,00952.2060846,E,2,11,0.9,-1.279,M,40.592,M,1.9,0123*62\r\n
$GPGGA,095427.10,5703.3680399,N,00952.2060485,E,2,11,0.9,-1.276,M,40.592,M,1.9,0123*65\r\n
$GPGGA,095427.15,5703.3680522,N,00952.2060127,E,2,11,0.9,-1.274,M,40.592,M,1.9,0123*69\r\n
$GPGGA,095427.20,5703.3680661,N,00952.2059777,E,2,11,0.9,-1.272,M,40.592,M,1.9,0123*64\r\n
$GPGGA,095427.25,5703.3680795,N,00952.2059441,E,2,11,0.9,-1.273,M,40.592,M,2.2,0123*64\r\n
$GPGGA,095427.30,5703.3680931,N,00952.2059100,E,2,11,0.9,-1.279,M,40.592,M,2.2,0123*6A\r\n
$GPGGA,095427.35,5703.3681071,N,00952.2058756,E,2,11,0.9,-1.286,M,40.592,M,2.2,0123*67\r\n
$GPGGA,095427.40,5703.3681210,N,00952.2058410,E,2,11,0.9,-1.290,M,40.592,M,2.2,0123*66\r\n
$GPGGA,095427.45,5703.3681353,N,00952.2058067,E,2,11,0.9,-1.297,M,40.592,M,2.4,0123*60\r\n
$GPGGA,095427.50,5703.3681490,N,00952.2057720,E,2,11,0.9,-1.302,M,40.592,M,2.4,0123*6A\r\n
$GPGGA,095427.55,5703.3681623,N,00952.2057378,E,2,11,0.9,-1.306,M,40.592,M,2.4,0123*68\r\n
$GPGGA,095427.60,5703.3681753,N,00952.2057037,E,2,11,0.9,-1.309,M,40.592,M,2.4,0123*6F\r\n
$GPGGA,095427.65,5703.3681884,N,00952.2056695,E,2,11,0.9,-1.310,M,40.592,M,2.6,0123*6A\r\n
$GPGGA,095427.70,5703.3682010,N,00952.2056345,E,2,11,0.9,-1.307,M,40.592,M,2.6,0123*66\r\n
$GPGGA,095427.75,5703.3682130,N,00952.2055979,E,2,11,0.9,-1.305,M,40.592,M,2.6,0123*64\r\n
$GPGGA,095427.80,5703.3682248,N,00952.2055613,E,2,11,0.9,-1.304,M,40.592,M,2.6,0123*60\r\n
$GPGGA,095427.85,5703.3682367,N,00952.2055245,E,2,11,0.9,-1.297,M,40.592,M,2.9,0123*6A\r\n
$GPGGA,095427.90,5703.3682503,N,00952.2054875,E,2,11,0.9,-1.291,M,40.592,M,2.9,0123*64\r\n
$GPGGA,095427.95,5703.3682621,N,00952.2054504,E,2,11,0.9,-1.286,M,40.592,M,2.9,0123*6F\r\n
$GPGGA,095428.00,5703.3682747,N,00952.2054145,E,2,11,0.9,-1.278,M,40.592,M,2.9,0123*6D\r\n
$GPGGA,095428.05,5703.3682876,N,00952.2053801,E,2,11,0.9,-1.270,M,40.592,M,3.1,0123*6A\r\n
$GPGGA,095428.10,5703.3683005,N,00952.2053461,E,2,11,0.9,-1.271,M,40.592,M,3.1,0123*68\r\n
$GPGGA,095428.15,5703.3683142,N,00952.2053116,E,2,11,0.9,-1.274,M,40.592,M,3.1,0123*6F\r\n
$GPGGA,095428.20,5703.3683291,N,00952.2052754,E,2,11,0.9,-1.275,M,40.592,M,3.1,0123*64\r\n
$GPGGA,095428.25,5703.3683442,N,00952.2052413,E,2,11,0.9,-1.275,M,40.592,M,3.3,0123*6B\r\n
$GPGGA,095428.30,5703.3683602,N,00952.2052075,E,2,11,0.9,-1.279,M,40.592,M,3.3,0123*61\r\n
$GPGGA,095428.35,5703.3683755,N,00952.2051739,E,2,11,0.9,-1.286,M,40.592,M,3.3,0123*6B\r\n
$GPGGA,095428.40,5703.3683896,N,00952.2051380,E,2,11,0.9,-1.292,M,40.592,M,3.3,0123*6A\r\n
$GPGGA,095428.45,5703.3684032,N,00952.2051017,E,2,11,0.9,-1.296,M,40.592,M,3.5,0123*61\r\n
$GPGGA,095428.50,5703.3684166,N,00952.2050673,E,2,11,0.9,-1.294,M,40.592,M,3.5,0123*62\r\n
$GPGGA,095428.55,5703.3684299,N,00952.2050319,E,2,11,0.9,-1.293,M,40.592,M,3.5,0123*6A\r\n
$GPGGA,095428.60,5703.3684430,N,00952.2049966,E,2,11,0.9,-1.292,M,40.592,M,3.5,0123*62\r\n
$GPGGA,095428.65,5703.3684559,N,00952.2049599,E,2,11,0.9,-1.290,M,40.592,M,3.7,0123*65\r\n
$GPGGA,095428.70,5703.3684696,N,00952.2049236,E,2,11,0.9,-1.283,M,40.592,M,3.7,0123*61\r\n
$GPGGA,095428.75,5703.3684812,N,00952.2048876,E,2,11,0.9,-1.280,M,40.592,M,3.7,0123*6A\r\n
$GPGGA,095428.80,5703.3684928,N,00952.2048502,E,2,11,0.9,-1.279,M,40.592,M,3.7,0123*60\r\n
$GPGGA,095428.85,5703.3685046,N,00952.2048125,E,2,11,0.9,-1.277,M,40.592,M,1.4,0123*6B\r\n
$GPGGA,095428.90,5703.3685175,N,00952.2047757,E,2,11,0.9,-1.272,M,40.592,M,1.4,0123*67\r\n
$GPGGA,095428.95,5703.3685301,N,00952.2047393,E,2,11,0.9,-1.271,M,40.592,M,1.4,0123*6C\r\n
$GPGGA,095429.00,5703.3685433,N,00952.2047041,E,2,11,0.9,-1.271,M,40.592,M,1.4,0123*6B\r\n
$GPGGA,095429.05,5703.3685571,N,00952.2046687,E,2,11,0.9,-1.271,M,40.592,M,1.6,0123*66\r\n
$GPGGA,095429.10,5703.3685721,N,00952.2046324,E,2,11,0.9,-1.272,M,40.592,M,1.6,0123*6A\r\n
$GPGGA,095429.15,5703.3685867,N,00952.2045975,E,2,11,0.9,-1.276,M,40.592,M,1.6,0123*6B\r\n
$GPGGA,095429.20,5703.3686014,N,00952.2045619,E,2,11,0.9,-1.280,M,40.592,M,1.6,0123*6E\r\n
$GPGGA,095429.25,5703.3686153,N,00952.2045278,E,2,11,0.9,-1.289,M,40.592,M,1.9,0123*6C\r\n
$GPGGA,095429.30,5703.3686295,N,00952.2044941,E,2,11,0.9,-1.298,M,40.592,M,1.9,0123*61\r\n
$GPGGA,095429.35,5703.3686441,N,00952.2044601,E,2,11,0.9,-1.303,M,40.592,M,1.9,0123*63\r\n
$GPGGA,095429.40,5703.3686586,N,00952.2044280,E,2,11,0.9,-1.305,M,40.592,M,1.9,0123*60\r\n
$GPGGA,095429.45,5703.3686723,N,00952.2043939,E,2,11,0.9,-1.306,M,40.592,M,2.2,0123*6D\r\n
$GPGGA,095429.50,5703.3686847,N,00952.2043606,E,2,11,0.9,-1.308,M,40.592,M,2.2,0123*69\r\n
$GPGGA,095429.55,5703.3686977,N,00952.2043285,E,2,11,0.9,-1.307,M,40.592,M,2.2,0123*6E\r\n
$GPGGA,095429.60,5703.3687117,N,00952.2042965,E,2,11,0.9,-1.305,M,40.592,M,2.2,0123*61\r\n
$GPGGA,095429.65,5703.3687248,N,00952.2042633,E,2,11,0.9,-1.303,M,40.592,M,1.1,0123*67\r\n
$GPGGA,095429.70,5703.3687381,N,00952.2042303,E,2,11,0.9,-1.301,M,40.592,M,1.1,0123*63\r\n
$GPGGA,095429.75,5703.3687514,N,00952.2041964,E,2,11,0.9,-1.298,M,40.592,M,1.1,0123*65\r\n
$GPGGA,095429.80,5703.3687640,N,00952.2041624,E,2,11,0.9,-1.294,M,40.592,M,1.1,0123*6A\r\n
$GPGGA,095429.85,5703.3687776,N,00952.2041291,E,2,11,0.9,-1.283,M,40.592,M,1.3,0123*65\r\n
$GPGGA,095429.90,5703.3687906,N,00952.2040925,E,2,11,0.9,-1.279,M,40.592,M,1.3,0123*68\r\n
$GPGGA,095429.95,5703.3688025,N,00952.2040534,E,2,11,0.9,-1.274,M,40.592,M,1.3,0123*6B\r\n
$GPGGA,095430.00,5703.3688157,N,00952.2040159,E,2,11,0.9,-1.271,M,40.592,M,1.3,0123*61\r\n
$GPGGA,095430.05,5703.3688294,N,00952.2039789,E,2,11,0.9,-1.271,M,40.592,M,1.6,0123*68\r\n
$GPGGA,095430.10,5703.3688438,N,00952.2039417,E,2,11,0.9,-1.274,M,40.592,M,1.6,0123*6D\r\n
$GPGGA,095430.15,5703.3688581,N,00952.2039063,E,2,11,0.9,-1.279,M,40.592,M,1.6,0123*61\r\n
$GPGGA,095430.20,5703.3688739,N,00952.2038693,E,2,11,0.9,-1.284,M,40.592,M,1.6,0123*6C\r\n
$GPGGA,095430.25,5703.3688890,N,00952.2038321,E,2,11,0.9,-1.288,M,40.592,M,1.8,0123*6B\r\n
$GPGGA,095430.30,5703.3689031,N,00952.2037952,E,2,11,0.9,-1.290,M,40.592,M,1.8,0123*65\r\n
$GPGGA,095430.35,5703.3689168,N,00952.2037586,E,2,11,0.9,-1.293,M,40.592,M,1.8,0123*6B\r\n
$GPGGA,095430.40,5703.3689309,N,00952.2037236,E,2,11,0.9,-1.299,M,40.592,M,1.8,0123*6A\r\n
$GPGGA,095430.45,5703.3689458,N,00952.2036888,E,2,11,0.9,-1.302,M,40.592,M,2.0,0123*6A\r\n
$GPGGA,095430.50,5703.3689615,N,00952.2036547,E,2,11,0.9,-1.305,M,40.592,M,2.0,0123*6C\r\n
$GPGGA,095430.55,5703.3689762,N,00952.2036221,E,2,11,0.9,-1.306,M,40.592,M,2.0,0123*6C\r\n
$GPGGA,095430.60,5703.3689906,N,00952.2035877,E,2,11,0.9,-1.310,M,40.592,M,2.0,0123*6B\r\n
$GPGGA,095430.65,5703.3690066,N,00952.2035550,E,2,11,0.9,-1.309,M,40.592,M,1.4,0123*6E\r\n
$GPGGA,095430.70,5703.3690206,N,00952.2035214,E,2,11,0.9,-1.310,M,40.592,M,1.4,0123*61\r\n
$GPGGA,095430.75,5703.3690348,N,00952.2034884,E,2,11,0.9,-1.309,M,40.592,M,1.4,0123*65\r\n
$GPGGA,095430.80,5703.3690488,N,00952.2034536,E,2,11,0.9,-1.308,M,40.592,M,1.4,0123*61\r\n
$GPGGA,095430.85,5703.3690623,N,00952.2034170,E,2,11,0.9,-1.306,M,40.592,M,1.7,0123*6C\r\n
$GPGGA,095430.90,5703.3690759,N,00952.2033800,E,2,11,0.9,-1.300,M,40.592,M,1.7,0123*6B\r\n
$GPGGA,095430.95,5703.3690896,N,00952.2033448,E,2,11,0.9,-1.295,M,40.592,M,1.7,0123*6F\r\n
$GPGGA,095431.00,5703.3691032,N,00952.2033087,E,2,11,0.9,-1.290,M,40.592,M,1.7,0123*67\r\n
$GPGGA,095431.05,5703.3691163,N,00952.2032717,E,2,11,0.9,-1.289,M,40.592,M,1.9,0123*6E\r\n
$GPGGA,095431.10,5703.3691305,N,00952.2032350,E,2,11,0.9,-1.284,M,40.592,M,1.9,0123*62\r\n
$GPGGA,095431.15,5703.3691440,N,00952.2031971,E,2,11,0.9,-1.282,M,40.592,M,1.9,0123*6D\r\n
$GPGGA,095431.20,5703.3691579,N,00952.2031599,E,2,11,0.9,-1.277,M,40.592,M,1.9,0123*60\r\n
$GPGGA,095431.25,5703.3691725,N,00952.2031240,E,2,11,0.9,-1.275,M,40.592,M,2.2,0123*67\r\n
$GPGGA,095431.30,5703.3691875,N,00952.2030894,E,2,11,0.9,-1.272,M,40.592,M,2.2,0123*6C\r\n
$GPGGA,095431.35,5703.3692027,N,00952.2030528,E,2,11,0.9,-1.271,M,40.592,M,2.2,0123*6C\r\n
$GPGGA,095431.40,5703.3692182,N,00952.2030168,E,2,11,0.9,-1.277,M,40.592,M,2.2,0123*66\r\n
$GPGGA,095431.45,5703.3692336,N,00952.2029800,E,2,11,0.9,-1.287,M,40.592,M,2.4,0123*68\r\n
$GPGGA,095431.50,5703.3692508,N,00952.2029443,E,2,11,0.9,-1.293,M,40.592,M,2.4,0123*69\r\n
$GPGGA,095431.55,5703.3692679,N,00952.2029085,E,2,11,0.9,-1.298,M,40.592,M,2.4,0123*6C\r\n
$GPGGA,095431.60,5703.3692828,N,00952.2028735,E,2,11,0.9,-1.307,M,40.592,M,2.4,0123*6A\r\n
$GPGGA,095431.65,5703.3692975,N,00952.2028403,E,2,11,0.9,-1.307,M,40.592,M,2.6,0123*62\r\n
$GPGGA,095431.70,5703.3693127,N,00952.2028060,E,2,11,0.9,-1.308,M,40.592,M,2.6,0123*66\r\n
$GPGGA,095431.75,5703.3693276,N,00952.2027715,E,2,11,0.9,-1.307,M,40.592,M,2.6,0123*61\r\n
$GPGGA,095431.80,5703.3693410,N,00952.2027376,E,2,11,0.9,-1.308,M,40.592,M,2.6,0123*63\r\n
$GPGGA,095431.85,5703.3693542,N,00952.2027024,E,2,11,0.9,-1.309,M,40.592,M,2.9,0123*6A\r\n
$GPGGA,095431.90,5703.3693675,N,00952.2026646,E,2,11,0.9,-1.305,M,40.592,M,2.9,0123*66\r\n
$GPGGA,095431.95,5703.3693802,N,00952.2026274,E,2,11,0.9,-1.301,M,40.592,M,2.9,0123*6C\r\n
$GPGGA,095432.00,5703.3693926,N,00952.2025906,E,2,11,0.9,-1.299,M,40.592,M,2.9,0123*69\r\n
$GPGGA,095432.05,5703.3694052,N,00952.2025534,E,2,11,0.9,-1.298,M,40.592,M,3.1,0123*64\r\n
$GPGGA,095432.10,5703.3694186,N,00952.2025177,E,2,11,0.9,-1.295,M,40.592,M,3.1,0123*66\r\n
$GPGGA,095432.15,5703.3694332,N,00952.2024812,E,2,11,0.9,-1.292,M,40.592,M,3.1,0123*62\r\n
$GPGGA,095432.20,5703.3694472,N,00952.2024442,E,2,11,0.9,-1.292,M,40.592,M,3.1,0123*6E\r\n
$GPGGA,095432.25,5703.3694616,N,00952.2024084,E,2,11,0.9,-1.293,M,40.592,M,3.3,0123*66\r\n
$GPGGA,095432.30,5703.3694764,N,00952.2023729,E,2,11,0.9,-1.293,M,40.592,M,3.3,0123*61\r\n
$GPGGA,095432.35,5703.3694908,N,00952.2023377,E,2,11,0.9,-1.296,M,40.592,M,3.3,0123*6A\r\n
$GPGGA,095432.40,5703.3695057,N,00952.2023005,E,2,11,0.9,-1.301,M,40.592,M,3.3,0123*63\r\n
$GPGGA,095432.45,5703.3695215,N,00952.2022629,E,2,11,0.9,-1.293,M,40.592,M,3.5,0123*67\r\n
$GPGGA,095432.50,5703.3695363,N,00952.2022249,E,2,11,0.9,-1.292,M,40.592,M,3.5,0123*60\r\n
$GPGGA,095432.55,5703.3695500,N,00952.2021869,E,2,11,0.9,-1.290,M,40.592,M,3.5,0123*6F\r\n
$GPGGA,095432.60,5703.3695633,N,00952.2021495,E,2,11,0.9,-1.292,M,40.592,M,3.5,0123*67\r\n
$GPGGA,095432.65,5703.3695756,N,00952.2021116,E,2,11,0.9,-1.297,M,40.592,M,1.1,0123*6D\r\n
$GPGGA,095432.70,5703.3695905,N,00952.2020751,E,2,11,0.9,-1.296,M,40.592,M,1.1,0123*64\r\n
$GPGGA,095432.75,5703.3696052,N,00952.2020373,E,2,11,0.9,-1.296,M,40.592,M,1.1,0123*6D\r\n
$GPGGA,095432.80,5703.3696196,N,00952.2020002,E,2,11,0.9,-1.299,M,40.592,M,1.1,0123*64\r\n
$GPGGA,095432.85,5703.3696346,N,00952.2019643,E,2,11,0.9,-1.300,M,40.592,M,1.4,0123*63\r\n
$GPGGA,095432.90,5703.3696496,N,00952.2019275,E,2,11,0.9,-1.306,M,40.592,M,1.4,0123*6A\r\n
$GPGGA,095432.95,5703.3696645,N,00952.2018913,E,2,11,0.9,-1.310,M,40.592,M,1.4,0123*6E\r\n
$GPGGA,095433.00,5703.3696803,N,00952.2018557,E,2,11,0.9,-1.312,M,40.592,M,1.4,0123*61\r\n
$GPGGA,095433.05,5703.3696967,N,00952.2018195,E,2,11,0.9,-1.314,M,40.592,M,1.6,0123*69\r\n
$GPGGA,095433.10,5703.3697132,N,00952.2017836,E,2,11,0.9,-1.314,M,40.592,M,1.6,0123*6B\r\n
$GPGGA,095433.15,5703.3697304,N,00952.2017482,E,2,11,0.9,-1.312,M,40.592,M,1.6,0123*6C\r\n
$GPGGA,095433.20,5703.3697470,N,00952.2017117,E,2,11,0.9,-1.311,M,40.592,M,1.6,0123*64\r\n
$GPGGA,095433.25,5703.3697640,N,00952.2016743,E,2,11,0.9,-1.309,M,40.592,M,1.9,0123*60\r\n
$GPGGA,095433.30,5703.3697800,N,00952.2016354,E,2,11,0.9,-1.306,M,40.592,M,1.9,0123*63\r\n
$GPGGA,095433.35,5703.3697959,N,00952.2015966,E,2,11,0.9,-1.303,M,40.592,M,1.9,0123*66\r\n
$GPGGA,095433.40,5703.3698128,N,00952.2015559,E,2,11,0.9,-1.296,M,40.592,M,1.9,0123*68\r\n
$GPGGA,095433.45,5703.3698309,N,00952.2015150,E,2,11,0.9,-1.282,M,40.592,M,2.2,0123*6C\r\n
$GPGGA,095433.50,5703.3698484,N,00952.2014726,E,2,11,0.9,-1.279,M,40.592,M,2.2,0123*68\r\n
$GPGGA,095433.55,5703.3698673,N,00952.2014313,E,2,11,0.9,-1.272,M,40.592,M,2.2,0123*6E\r\n
$GPGGA,095433.60,5703.3698872,N,00952.2013882,E,2,11,0.9,-1.266,M,40.592,M,2.2,0123*66\r\n
$GPGGA,095433.65,5703.3699070,N,00952.2013439,E,2,11,0.9,-1.267,M,40.592,M,1.1,0123*65\r\n
$GPGGA,095433.70,5703.3699285,N,00952.2013015,E,2,11,0.9,-1.264,M,40.592,M,1.1,0123*60\r\n
$GPGGA,095433.75,5703.3699511,N,00952.2012605,E,2,11,0.9,-1.263,M,40.592,M,1.1,0123*6E\r\n
$GPGGA,095433.80,5703.3699746,N,00952.2012179,E,2,11,0.9,-1.263,M,40.592,M,1.1,0123*68\r\n
$GPGGA,095433.85,5703.3699988,N,00952.2011750,E,2,11,0.9,-1.258,M,40.592,M,1.3,0123*65\r\n
$GPGGA,095433.90,5703.3700232,N,00952.2011312,E,2,11,0.9,-1.254,M,40.592,M,1.3,0123*64\r\n
$GPGGA,095433.95,5703.3700481,N,00952.2010876,E,2,11,0.9,-1.252,M,40.592,M,1.3,0123*61\r\n
$GPGGA,095434.00,5703.3700734,N,00952.2010444,E,2,11,0.9,-1.253,M,40.592,M,1.3,0123*6B\r\n
$GPGGA,095434.05,5703.3700993,N,00952.2010007,E,2,11,0.9,-1.260,M,40.592,M,1.6,0123*6B\r\n
$GPGGA,095434.10,5703.3701264,N,00952.2009567,E,2,11,0.9,-1.263,M,40.592,M,1.6,0123*65\r\n
$GPGGA,095434.15,5703.3701544,N,00952.2009144,E,2,11,0.9,-1.268,M,40.592,M,1.6,0123*6B\r\n
$GPGGA,095434.20,5703.3701835,N,00952.2008706,E,2,11,0.9,-1.273,M,40.592,M,1.6,0123*6D\r\n
$GPGGA,095434.25,5703.3702136,N,00952.2008263,E,2,11,0.9,-1.276,M,40.592,M,1.8,0123*6C\r\n
$GPGGA,095434.30,5703.3702446,N,00952.2007792,E,2,11,0.9,-1.277,M,40.592,M,1.8,0123*6F\r\n
$GPGGA,095434.35,5703.3702749,N,00952.2007309,E,2,11,0.9,-1.275,M,40.592,M,1.8,0123*62\r\n
$GPGGA,095434.40,5703.3703028,N,00952.2006787,E,2,11,0.9,-1.276,M,40.592,M,1.8,0123*61\r\n
$GPGGA,095434.45,5703.3703321,N,00952.2006273,E,2,11,0.9,-1.272,M,40.592,M,2.0,0123*6F\r\n
$GPGGA,095434.50,5703.3703623,N,00952.2005753,E,2,11,0.9,-1.270,M,40.592,M,2.0,0123*6A\r\n
$GPGGA,095434.55,5703.3703921,N,00952.2005242,E,2,11,0.9,-1.266,M,40.592,M,2.0,0123*60\r\n
$GPGGA,095434.60,5703.3704255,N,00952.2004731,E,2,11,0.9,-1.261,M,40.592,M,2.0,0123*6E\r\n
$GPGGA,095434.65,5703.3704578,N,00952.2004221,E,2,11,0.9,-1.252,M,40.592,M,1.4,0123*60\r\n
$GPGGA,095434.70,5703.3704903,N,00952.2003708,E,2,11,0.9,-1.248,M,40.592,M,1.4,0123*66\r\n
$GPGGA,095434.75,5703.3705236,N,00952.2003182,E,2,11,0.9,-1.245,M,40.592,M,1.4,0123*66\r\n
$GPGGA,095434.80,5703.3705563,N,00952.2002643,E,2,11,0.9,-1.245,M,40.592,M,1.4,0123*60\r\n
$GPGGA,095434.85,5703.3705901,N,00952.2002094,E,2,11,0.9,-1.250,M,40.592,M,1.7,0123*66\r\n
$GPGGA,095434.90,5703.3706253,N,00952.2001540,E,2,11,0.9,-1.246,M,40.592,M,1.7,0123*65\r\n
$GPGGA,095434.95,5703.3706607,N,00952.2000989,E,2,11,0.9,-1.246,M,40.592,M,1.7,0123*6D\r\n
$GPGGA,095435.00,5703.3706952,N,00952.2000438,E,2,11,0.9,-1.253,M,40.592,M,1.7,0123*6C\r\n
$GPGGA,095435.05,5703.3707303,N,00952.1999890,E,2,11,0.9,-1.259,M,40.592,M,1.9,0123*66\r\n
$GPGGA,095435.10,5703.3707676,N,00952.1999327,E,2,11,0.9,-1.261,M,40.592,M,1.9,0123*69\r\n
$GPGGA,095435.15,5703.3708042,N,00952.1998757,E,2,11,0.9,-1.263,M,40.592,M,1.9,0123*62\r\n
$GPGGA,095435.20,5703.3708409,N,00952.1998174,E,2,11,0.9,-1.262,M,40.592,M,1.9,0123*69\r\n
$GPGGA,095435.25,5703.3708775,N,00952.1997586,E,2,11,0.9,-1.262,M,40.592,M,2.2,0123*6A\r\n
$GPGGA,095435.30,5703.3709138,N,00952.1996990,E,2,11,0.9,-1.265,M,40.592,M,2.2,0123*6D\r\n
$GPGGA,095435.35,5703.3709504,N,00952.1996399,E,2,11,0.9,-1.264,M,40.592,M,2.2,0123*61\r\n
$GPGGA,095435.40,5703.3709881,N,00952.1995794,E,2,11,0.9,-1.264,M,40.592,M,2.2,0123*69\r\n
$GPGGA,095435.45,5703.3710245,N,00952.1995167,E,2,11,0.9,-1.265,M,40.592,M,2.4,0123*6B\r\n
$GPGGA,095435.50,5703.3710613,N,00952.1994526,E,2,11,0.9,-1.265,M,40.592,M,2.4,0123*68\r\n
$GPGGA,095435.55,5703.3710989,N,00952.1993901,E,2,11,0.9,-1.263,M,40.592,M,2.4,0123*69\r\n
$GPGGA,095435.60,5703.3711371,N,00952.1993276,E,2,11,0.9,-1.259,M,40.592,M,2.4,0123*61\r\n
$GPGGA,095435.65,5703.3711748,N,00952.1992646,E,2,11,0.9,-1.258,M,40.592,M,2.6,0123*6F\r\n
$GPGGA,095435.70,5703.3712118,N,00952.1991994,E,2,11,0.9,-1.259,M,40.592,M,2.6,0123*69\r\n
$GPGGA,095435.75,5703.3712499,N,00952.1991351,E,2,11,0.9,-1.258,M,40.592,M,2.6,0123*62\r\n
$GPGGA,095435.80,5703.3712889,N,00952.1990711,E,2,11,0.9,-1.258,M,40.592,M,2.6,0123*64\r\n
$GPGGA,095435.85,5703.3713277,N,00952.1990053,E,2,11,0.9,-1.258,M,40.592,M,2.9,0123*65\r\n
$GPGGA,095435.90,5703.3713667,N,00952.1989387,E,2,11,0.9,-1.257,M,40.592,M,2.9,0123*69\r\n
$GPGGA,095435.95,5703.3714047,N,00952.1988709,E,2,11,0.9,-1.255,M,40.592,M,2.9,0123*6E\r\n
$GPGGA,095436.00,5703.3714422,N,00952.1988013,E,2,11,0.9,-1.257,M,40.592,M,2.9,0123*68\r\n
$GPGGA,095436.05,5703.3714804,N,00952.1987300,E,2,11,0.9,-1.257,M,40.592,M,3.1,0123*62\r\n
$GPGGA,095436.10,5703.3715198,N,00952.1986586,E,2,11,0.9,-1.259,M,40.592,M,3.1,0123*6C\r\n
$GPGGA,095436.15,5703.3715593,N,00952.1985869,E,2,11,0.9,-1.261,M,40.592,M,3.1,0123*62\r\n
$GPGGA,095436.20,5703.3715975,N,00952.1985151,E,2,11,0.9,-1.264,M,40.592,M,3.1,0123*67\r\n
$GPGGA,095436.25,5703.3716359,N,00952.1984412,E,2,11,0.9,-1.266,M,40.592,M,3.3,0123*66\r\n
$GPGGA,095436.30,5703.3716736,N,00952.1983645,E,2,11,0.9,-1.266,M,40.592,M,3.3,0123*68\r\n
$GPGGA,095436.35,5703.3717087,N,00952.1982872,E,2,11,0.9,-1.266,M,40.592,M,3.3,0123*6A\r\n
$GPGGA,095436.40,5703.3717448,N,00952.1982091,E,2,11,0.9,-1.262,M,40.592,M,3.3,0123*6E\r\n
$GPGGA,095436.45,5703.3717806,N,00952.1981302,E,2,11,0.9,-1.257,M,40.592,M,3.5,0123*67\r\n
$GPGGA,095436.50,5703.3718157,N,00952.1980509,E,2,11,0.9,-1.252,M,40.592,M,3.5,0123*68\r\n
$GPGGA,095436.55,5703.3718502,N,00952.1979709,E,2,11,0.9,-1.245,M,40.592,M,3.5,0123*6B\r\n
$GPGGA,095436.60,5703.3718845,N,00952.1978899,E,2,11,0.9,-1.239,M,40.592,M,3.5,0123*6F\r\n
$GPGGA,095436.65,5703.3719201,N,00952.1978088,E,2,11,0.9,-1.234,M,40.592,M,1.1,0123*62\r\n
$GPGGA,095436.70,5703.3719554,N,00952.1977270,E,2,11,0.9,-1.232,M,40.592,M,1.1,0123*6D\r\n
$GPGGA,095436.75,5703.3719907,N,00952.1976432,E,2,11,0.9,-1.229,M,40.592,M,1.1,0123*69\r\n
$GPGGA,095436.80,5703.3720266,N,00952.1975589,E,2,11,0.9,-1.230,M,40.592,M,1.1,0123*6F\r\n
$GPGGA,095436.85,5703.3720620,N,00952.1974744,E,2,11,0.9,-1.235,M,40.592,M,1.4,0123*6E\r\n
$GPGGA,095436.90,5703.3720991,N,00952.1973908,E,2,11,0.9,-1.241,M,40.592,M,1.4,0123*6D\r\n
$GPGGA,095436.95,5703.3721367,N,00952.1973052,E,2,11,0.9,-1.245,M,40.592,M,1.4,0123*68\r\n
$GPGGA,095437.00,5703.3721740,N,00952.1972185,E,2,11,0.9,-1.248,M,40.592,M,1.4,0123*63\r\n
$GPGGA,095437.05,5703.3722100,N,00952.1971309,E,2,11,0.9,-1.252,M,40.592,M,1.6,0123*6B\r\n
$GPGGA,095437.10,5703.3722432,N,00952.1970433,E,2,11,0.9,-1.258,M,40.592,M,1.6,0123*6E\r\n
$GPGGA,095437.15,5703.3722750,N,00952.1969529,E,2,11,0.9,-1.264,M,40.592,M,1.6,0123*61\r\n
$GPGGA,095437.20,5703.3723052,N,00952.1968600,E,2,11,0.9,-1.265,M,40.592,M,1.6,0123*6B\r\n
$GPGGA,095437.25,5703.3723324,N,00952.1967648,E,2,11,0.9,-1.271,M,40.592,M,1.9,0123*65\r\n
$GPGGA,095437.30,5703.3723604,N,00952.1966691,E,2,11,0.9,-1.270,M,40.592,M,1.9,0123*62\r\n
$GPGGA,095437.35,5703.3723887,N,00952.1965741,E,2,11,0.9,-1.268,M,40.592,M,1.9,0123*64\r\n
$GPGGA,095437.40,5703.3724173,N,00952.1964794,E,2,11,0.9,-1.264,M,40.592,M,1.9,0123*66\r\n
$GPGGA,095437.45,5703.3724466,N,00952.1963852,E,2,11,0.9,-1.255,M,40.592,M,2.2,0123*6A\r\n
$GPGGA,095437.50,5703.3724757,N,00952.1962902,E,2,11,0.9,-1.248,M,40.592,M,2.2,0123*66\r\n
$GPGGA,095437.55,5703.3725045,N,00952.1961963,E,2,11,0.9,-1.243,M,40.592,M,2.2,0123*69\r\n
$GPGGA,095437.60,5703.3725330,N,00952.1960998,E,2,11,0.9,-1.243,M,40.592,M,2.2,0123*6B\r\n
$GPGGA,095437.65,5703.3725610,N,00952.1960024,E,2,11,0.9,-1.242,M,40.592,M,1.1,0123*66\r\n
$GPGGA,095437.70,5703.3725895,N,00952.1959064,E,2,11,0.9,-1.244,M,40.592,M,1.1,0123*69\r\n
$GPGGA,095437.75,5703.3726179,N,00952.1958081,E,2,11,0.9,-1.243,M,40.592,M,1.1,0123*69\r\n
$GPGGA,095437.80,5703.3726437,N,00952.1957086,E,2,11,0.9,-1.243,M,40.592,M,1.1,0123*64\r\n
$GPGGA,095437.85,5703.3726688,N,00952.1956083,E,2,11,0.9,-1.243,M,40.592,M,1.3,0123*61\r\n
$GPGGA,095437.90,5703.3726933,N,00952.1955064,E,2,11,0.9,-1.244,M,40.592,M,1.3,0123*67\r\n
$GPGGA,095437.95,5703.3727185,N,00952.1954045,E,2,11,0.9,-1.246,M,40.592,M,1.3,0123*66\r\n
$GPGGA,095438.00,5703.3727446,N,00952.1953047,E,2,11,0.9,-1.248,M,40.592,M,1.3,0123*64\r\n
$GPGGA,095438.05,5703.3727694,N,00952.1952052,E,2,11,0.9,-1.247,M,40.592,M,1.6,0123*63\r\n
$GPGGA,095438.10,5703.3727936,N,00952.1951036,E,2,11,0.9,-1.249,M,40.592,M,1.6,0123*6F\r\n
$GPGGA,095438.15,5703.3728170,N,00952.1949997,E,2,11,0.9,-1.251,M,40.592,M,1.6,0123*6D\r\n
$GPGGA,095438.20,5703.3728391,N,00952.1948948,E,2,11,0.9,-1.253,M,40.592,M,1.6,0123*67\r\n
$GPGGA,095438.25,5703.3728610,N,00952.1947896,E,2,11,0.9,-1.256,M,40.592,M,1.8,0123*68\r\n
$GPGGA,095438.30,5703.3728807,N,00952.1946841,E,2,11,0.9,-1.259,M,40.592,M,1.8,0123*60\r\n
$GPGGA,095438.35,5703.3728991,N,00952.1945777,E,2,11,0.9,-1.261,M,40.592,M,1.8,0123*69\r\n
$GPGGA,095438.40,5703.3729170,N,00952.1944713,E,2,11,0.9,-1.263,M,40.592,M,1.8,0123*6C\r\n
$GPGGA,095438.45,5703.3729348,N,00952.1943619,E,2,11,0.9,-1.263,M,40.592,M,2.0,0123*67\r\n
$GPGGA,095438.50,5703.3729529,N,00952.1942545,E,2,11,0.9,-1.264,M,40.592,M,2.0,0123*6E\r\n
$GPGGA,095438.55,5703.3729714,N,00952.1941469,E,2,11,0.9,-1.262,M,40.592,M,2.0,0123*6D\r\n
$GPGGA,095438.60,5703.3729898,N,00952.1940389,E,2,11,0.9,-1.260,M,40.592,M,2.0,0123*6A\r\n
$GPGGA,095438.65,5703.3730080,N,00952.1939309,E,2,11,0.9,-1.256,M,40.592,M,1.4,0123*62\r\n
$GPGGA,095438.70,5703.3730265,N,00952.1938228,E,2,11,0.9,-1.255,M,40.592,M,1.4,0123*6F\r\n
$GPGGA,095438.75,5703.3730441,N,00952.1937108,E,2,11,0.9,-1.254,M,40.592,M,1.4,0123*65\r\n
$GPGGA,095438.80,5703.3730610,N,00952.1936001,E,2,11,0.9,-1.252,M,40.592,M,1.4,0123*66\r\n
$GPGGA,095438.85,5703.3730781,N,00952.1934898,E,2,11,0.9,-1.256,M,40.592,M,1.7,0123*67\r\n
$GPGGA,095438.90,5703.3730929,N,00952.1933788,E,2,11,0.9,-1.260,M,40.592,M,1.7,0123*63\r\n
$GPGGA,095438.95,5703.3731086,N,00952.1932674,E,2,11,0.9,-1.259,M,40.592,M,1.7,0123*62\r\n
$GPGGA,095439.00,5703.3731237,N,00952.1931555,E,2,11,0.9,-1.260,M,40.592,M,1.7,0123*6E\r\n
$GPGGA,095439.05,5703.3731380,N,00952.1930435,E,2,11,0.9,-1.255,M,40.592,M,1.9,0123*68\r\n
$GPGGA,095439.10,5703.3731507,N,00952.1929302,E,2,11,0.9,-1.256,M,40.592,M,1.9,0123*6D\r\n
$GPGGA,095439.15,5703.3731647,N,00952.1928173,E,2,11,0.9,-1.256,M,40.592,M,1.9,0123*6A\r\n
$GPGGA,095439.20,5703.3731774,N,00952.1927039,E,2,11,0.9,-1.255,M,40.592,M,1.9,0123*6E\r\n
$GPGGA,095439.25,5703.3731904,N,00952.1925899,E,2,11,0.9,-1.250,M,40.592,M,2.2,0123*6F\r\n
$GPGGA,095439.30,5703.3732023,N,00952.1924753,E,2,11,0.9,-1.247,M,40.592,M,2.2,0123*6A\r\n
$GPGGA,095439.35,5703.3732143,N,00952.1923623,E,2,11,0.9,-1.245,M,40.592,M,2.2,0123*6B\r\n
$GPGGA,095439.40,5703.3732244,N,00952.1922475,E,2,11,0.9,-1.243,M,40.592,M,2.2,0123*6B\r\n
$GPGGA,095439.45,5703.3732338,N,00952.1921324,E,2,11,0.9,-1.246,M,40.592,M,2.4,0123*67\r\n
$GPGGA,095439.50,5703.3732433,N,00952.1920154,E,2,11,0.9,-1.246,M,40.592,M,2.4,0123*6B\r\n
$GPGGA,095439.55,5703.3732520,N,00952.1918981,E,2,11,0.9,-1.246,M,40.592,M,2.4,0123*66\r\n
$GPGGA,095439.60,5703.3732616,N,00952.1917805,E,2,11,0.9,-1.243,M,40.592,M,2.4,0123*61\r\n
$GPGGA,095439.65,5703.3732705,N,00952.1916634,E,2,11,0.9,-1.241,M,40.592,M,2.6,0123*6A\r\n
$GPGGA,095439.70,5703.3732786,N,00952.1915455,E,2,11,0.9,-1.245,M,40.592,M,2.6,0123*67\r\n
$GPGGA,095439.75,5703.3732872,N,00952.1914265,E,2,11,0.9,-1.249,M,40.592,M,2.6,0123*6E\r\n
$GPGGA,095439.80,5703.3732953,N,00952.1913078,E,2,11,0.9,-1.251,M,40.592,M,2.6,0123*66\r\n
$GPGGA,095439.85,5703.3733016,N,00952.1911891,E,2,11,0.9,-1.253,M,40.592,M,2.9,0123*6A\r\n
$GPGGA,095439.90,5703.3733077,N,00952.1910694,E,2,11,0.9,-1.255,M,40.592,M,2.9,0123*65\r\n
$GPGGA,095439.95,5703.3733130,N,00952.1909499,E,2,11,0.9,-1.258,M,40.592,M,2.9,0123*68\r\n
$GPGGA,095440.00,5703.3733188,N,00952.1908303,E,2,11,0.9,-1.257,M,40.592,M,2.9,0123*63\r\n
$GPGGA,095440.05,5703.3733219,N,00952.1907090,E,2,11,0.9,-1.260,M,40.592,M,3.1,0123*66\r\n
$GPGGA,095440.10,5703.3733249,N,00952.1905881,E,2,11,0.9,-1.262,M,40.592,M,3.1,0123*6F\r\n
$GPGGA,095440.15,5703.3733284,N,00952.1904661,E,2,11,0.9,-1.264,M,40.592,M,3.1,0123*6C\r\n
$GPGGA,095440.20,5703.3733318,N,00952.1903454,E,2,11,0.9,-1.263,M,40.592,M,3.1,0123*6A\r\n
$GPGGA,095440.25,5703.3733343,N,00952.1902222,E,2,11,0.9,-1.259,M,40.592,M,3.3,0123*6C\r\n
$GPGGA,095440.30,5703.3733357,N,00952.1900998,E,2,11,0.9,-1.256,M,40.592,M,3.3,0123*6A\r\n
$GPGGA,095440.35,5703.3733367,N,00952.1899773,E,2,11,0.9,-1.254,M,40.592,M,3.3,0123*64\r\n
$GPGGA,095440.40,5703.3733382,N,00952.1898554,E,2,11,0.9,-1.254,M,40.592,M,3.3,0123*6B\r\n
$GPGGA,095440.45,5703.3733379,N,00952.1897303,E,2,11,0.9,-1.260,M,40.592,M,3.5,0123*60\r\n
$GPGGA,095440.50,5703.3733380,N,00952.1896056,E,2,11,0.9,-1.261,M,40.592,M,3.5,0123*61\r\n
$GPGGA,095440.55,5703.3733369,N,00952.1894821,E,2,11,0.9,-1.259,M,40.592,M,3.5,0123*62\r\n
$GPGGA,095440.60,5703.3733357,N,00952.1893599,E,2,11,0.9,-1.260,M,40.592,M,3.5,0123*6A\r\n
$GPGGA,095440.65,5703.3733346,N,00952.1892361,E,2,11,0.9,-1.256,M,40.592,M,1.1,0123*6C\r\n
$GPGGA,095440.70,5703.3733330,N,00952.1891115,E,2,11,0.9,-1.253,M,40.592,M,1.1,0123*6E\r\n
$GPGGA,095440.75,5703.3733299,N,00952.1889868,E,2,11,0.9,-1.253,M,40.592,M,1.1,0123*63\r\n
$GPGGA,095440.80,5703.3733279,N,00952.1888615,E,2,11,0.9,-1.251,M,40.592,M,1.1,0123*60\r\n
$GPGGA,095440.85,5703.3733250,N,00952.1887374,E,2,11,0.9,-1.243,M,40.592,M,1.4,0123*65\r\n
$GPGGA,095440.90,5703.3733221,N,00952.1886149,E,2,11,0.9,-1.239,M,40.592,M,1.4,0123*67\r\n
$GPGGA,095440.95,5703.3733188,N,00952.1884917,E,2,11,0.9,-1.234,M,40.592,M,1.4,0123*6E\r\n
$GPGGA,095441.00,5703.3733131,N,00952.1883669,E,2,11,0.9,-1.233,M,40.592,M,1.4,0123*67\r\n
$GPGGA,095441.05,5703.3733063,N,00952.1882409,E,2,11,0.9,-1.233,M,40.592,M,1.6,0123*63\r\n
$GPGGA,095441.10,5703.3733009,N,00952.1881143,E,2,11,0.9,-1.233,M,40.592,M,1.6,0123*63\r\n
$GPGGA,095441.15,5703.3732960,N,00952.1879892,E,2,11,0.9,-1.232,M,40.592,M,1.6,0123*62\r\n
$GPGGA,095441.20,5703.3732899,N,00952.1878621,E,2,11,0.9,-1.234,M,40.592,M,1.6,0123*62\r\n
$GPGGA,095441.25,5703.3732851,N,00952.1877362,E,2,11,0.9,-1.232,M,40.592,M,1.9,0123*67\r\n
$GPGGA,095441.30,5703.3732790,N,00952.1876097,E,2,11,0.9,-1.234,M,40.592,M,1.9,0123*6F\r\n
$GPGGA,095441.35,5703.3732722,N,00952.1874816,E,2,11,0.9,-1.235,M,40.592,M,1.9,0123*61\r\n
$GPGGA,095441.40,5703.3732651,N,00952.1873553,E,2,11,0.9,-1.236,M,40.592,M,1.9,0123*6E\r\n
$GPGGA,095441.45,5703.3732580,N,00952.1872289,E,2,11,0.9,-1.242,M,40.592,M,2.2,0123*6E\r\n
$GPGGA,095441.50,5703.3732504,N,00952.1871027,E,2,11,0.9,-1.244,M,40.592,M,2.2,0123*65\r\n
$GPGGA,095441.55,5703.3732414,N,00952.1869753,E,2,11,0.9,-1.247,M,40.592,M,2.2,0123*6E\r\n
$GPGGA,095441.60,5703.3732321,N,00952.1868484,E,2,11,0.9,-1.250,M,40.592,M,2.2,0123*67\r\n
$GPGGA,095441.65,5703.3732225,N,00952.1867225,E,2,11,0.9,-1.252,M,40.592,M,1.1,0123*67\r\n
$GPGGA,095441.70,5703.3732142,N,00952.1865965,E,2,11,0.9,-1.251,M,40.592,M,1.1,0123*6F\r\n
$GPGGA,095441.75,5703.3732047,N,00952.1864698,E,2,11,0.9,-1.253,M,40.592,M,1.1,0123*60\r\n
$GPGGA,095441.80,5703.3731941,N,00952.1863424,E,2,11,0.9,-1.255,M,40.592,M,1.1,0123*62\r\n
$GPGGA,095441.85,5703.3731842,N,00952.1862155,E,2,11,0.9,-1.255,M,40.592,M,1.3,0123*65\r\n
$GPGGA,095441.90,5703.3731750,N,00952.1860879,E,2,11,0.9,-1.257,M,40.592,M,1.3,0123*6A\r\n
$GPGGA,095441.95,5703.3731654,N,00952.1859604,E,2,11,0.9,-1.256,M,40.592,M,1.3,0123*65\r\n
$GPGGA,095442.00,5703.3731546,N,00952.1858318,E,2,11,0.9,-1.254,M,40.592,M,1.3,0123*61\r\n
$GPGGA,095442.05,5703.3731434,N,00952.1857040,E,2,11,0.9,-1.259,M,40.592,M,1.6,0123*69\r\n
$GPGGA,095442.10,5703.3731321,N,00952.1855766,E,2,11,0.9,-1.260,M,40.592,M,1.6,0123*65\r\n
$GPGGA,095442.15,5703.3731211,N,00952.1854496,E,2,11,0.9,-1.261,M,40.592,M,1.6,0123*6E\r\n
$GPGGA,095442.20,5703.3731087,N,00952.1853217,E,2,11,0.9,-1.261,M,40.592,M,1.6,0123*6D\r\n
$GPGGA,095442.25,5703.3730977,N,00952.1851925,E,2,11,0.9,-1.257,M,40.592,M,1.8,0123*6C\r\n
$GPGGA,095442.30,5703.3730847,N,00952.1850638,E,2,11,0.9,-1.255,M,40.592,M,1.8,0123*6A\r\n
$GPGGA,095442.35,5703.3730729,N,00952.1849347,E,2,11,0.9,-1.254,M,40.592,M,1.8,0123*6C\r\n
$GPGGA,095442.40,5703.3730622,N,00952.1848070,E,2,11,0.9,-1.251,M,40.592,M,1.8,0123*67\r\n
$GPGGA,095442.45,5703.3730485,N,00952.1846786,E,2,11,0.9,-1.251,M,40.592,M,2.0,0123*66\r\n
$GPGGA,095442.50,5703.3730351,N,00952.1845500,E,2,11,0.9,-1.248,M,40.592,M,2.0,0123*6B\r\n
$GPGGA,095442.55,5703.3730207,N,00952.1844217,E,2,11,0.9,-1.247,M,40.592,M,2.0,0123*63\r\n
$GPGGA,095442.60,5703.3730058,N,00952.1842927,E,2,11,0.9,-1.246,M,40.592,M,2.0,0123*62\r\n
$GPGGA,095442.65,5703.3729901,N,00952.1841639,E,2,11,0.9,-1.244,M,40.592,M,1.4,0123*6C\r\n
$GPGGA,095442.70,5703.3729760,N,00952.1840347,E,2,11,0.9,-1.242,M,40.592,M,1.4,0123*6A\r\n
$GPGGA,095442.75,5703.3729628,N,00952.1839055,E,2,11,0.9,-1.239,M,40.592,M,1.4,0123*60\r\n
$GPGGA,095442.80,5703.3729476,N,00952.1837765,E,2,11,0.9,-1.236,M,40.592,M,1.4,0123*66\r\n
$GPGGA,095442.85,5703.3729330,N,00952.1836466,E,2,11,0.9,-1.231,M,40.592,M,1.7,0123*63\r\n
$GPGGA,095442.90,5703.3729166,N,00952.1835161,E,2,11,0.9,-1.229,M,40.592,M,1.7,0123*6E\r\n
$GPGGA,095442.95,5703.3729012,N,00952.1833843,E,2,11,0.9,-1.229,M,40.592,M,1.7,0123*66\r\n
$GPGGA,095443.00,5703.3728855,N,00952.1832551,E,2,11,0.9,-1.229,M,40.592,M,1.7,0123*6E\r\n
$GPGGA,095443.05,5703.3728679,N,00952.1831256,E,2,11,0.9,-1.233,M,40.592,M,1.9,0123*6D\r\n
$GPGGA,095443.10,5703.3728518,N,00952.1829942,E,2,11,0.9,-1.232,M,40.592,M,1.9,0123*6B\r\n
$GPGGA,095443.15,5703.3728364,N,00952.1828641,E,2,11,0.9,-1.232,M,40.592,M,1.9,0123*6E\r\n
$GPGGA,095443.20,5703.3728205,N,00952.1827319,E,2,11,0.9,-1.233,M,40.592,M,1.9,0123*68\r\n
$GPGGA,095443.25,5703.3728041,N,00952.1826008,E,2,11,0.9,-1.235,M,40.592,M,2.2,0123*63\r\n
$GPGGA,095443.30,5703.3727877,N,00952.1824684,E,2,11,0.9,-1.237,M,40.592,M,2.2,0123*67\r\n
$GPGGA,095443.35,5703.3727715,N,00952.1823351,E,2,11,0.9,-1.242,M,40.592,M,2.2,0123*61\r\n
$GPGGA,095443.40,5703.3727554,N,00952.1822024,E,2,11,0.9,-1.250,M,40.592,M,2.2,0123*67\r\n
$GPGGA,095443.45,5703.3727376,N,00952.1820692,E,2,11,0.9,-1.265,M,40.592,M,2.4,0123*6D\r\n
$GPGGA,095443.50,5703.3727201,N,00952.1819346,E,2,11,0.9,-1.272,M,40.592,M,2.4,0123*68\r\n
$GPGGA,095443.55,5703.3727030,N,00952.1817998,E,2,11,0.9,-1.280,M,40.592,M,2.4,0123*67\r\n
$GPGGA,095443.60,5703.3726858,N,00952.1816644,E,2,11,0.9,-1.289,M,40.592,M,2.4,0123*60\r\n
$GPGGA,095443.65,5703.3726689,N,00952.1815293,E,2,11,0.9,-1.293,M,40.592,M,2.6,0123*63\r\n
$GPGGA,095443.70,5703.3726529,N,00952.1813944,E,2,11,0.9,-1.299,M,40.592,M,2.6,0123*63\r\n
$GPGGA,095443.75,5703.3726377,N,00952.1812595,E,2,11,0.9,-1.302,M,40.592,M,2.6,0123*69\r\n
$GPGGA,095443.80,5703.3726214,N,00952.1811234,E,2,11,0.9,-1.303,M,40.592,M,2.6,0123*69\r\n
$GPGGA,095443.85,5703.3726034,N,00952.1809879,E,2,11,0.9,-1.305,M,40.592,M,2.9,0123*6F\r\n
$GPGGA,095443.90,5703.3725864,N,00952.1808516,E,2,11,0.9,-1.302,M,40.592,M,2.9,0123*67\r\n
$GPGGA,095443.95,5703.3725701,N,00952.1807153,E,2,11,0.9,-1.301,M,40.592,M,2.9,0123*67\r\n
$GPGGA,095444.00,5703.3725527,N,00952.1805783,E,2,11,0.9,-1.299,M,40.592,M,2.9,0123*63\r\n
$GPGGA,095444.05,5703.3725354,N,00952.1804420,E,2,11,0.9,-1.296,M,40.592,M,3.1,0123*69\r\n
$GPGGA,095444.10,5703.3725167,N,00952.1803037,E,2,11,0.9,-1.293,M,40.592,M,3.1,0123*6F\r\n
$GPGGA,095444.15,5703.3724979,N,00952.1801660,E,2,11,0.9,-1.287,M,40.592,M,3.1,0123*6F\r\n
$GPGGA,095444.20,5703.3724787,N,00952.1800286,E,2,11,0.9,-1.284,M,40.592,M,3.1,0123*68\r\n
$GPGGA,095444.25,5703.3724599,N,00952.1798917,E,2,11,0.9,-1.272,M,40.592,M,3.3,0123*66\r\n
$GPGGA,095444.30,5703.3724395,N,00952.1797535,E,2,11,0.9,-1.267,M,40.592,M,3.3,0123*6F\r\n
$GPGGA,095444.35,5703.3724188,N,00952.1796154,E,2,11,0.9,-1.259,M,40.592,M,3.3,0123*6B\r\n
$GPGGA,095444.40,5703.3723976,N,00952.1794770,E,2,11,0.9,-1.250,M,40.592,M,3.3,0123*6C\r\n
$GPGGA,095444.45,5703.3723753,N,00952.1793390,E,2,11,0.9,-1.245,M,40.592,M,3.5,0123*6F\r\n
$GPGGA,095444.50,5703.3723526,N,00952.1792003,E,2,11,0.9,-1.238,M,40.592,M,3.5,0123*69\r\n
$GPGGA,095444.55,5703.3723287,N,00952.1790631,E,2,11,0.9,-1.234,M,40.592,M,3.5,0123*69\r\n
$GPGGA,095444.60,5703.3723061,N,00952.1789253,E,2,11,0.9,-1.223,M,40.592,M,3.5,0123*6B\r\n
$GPGGA,095444.65,5703.3722825,N,00952.1787877,E,2,11,0.9,-1.217,M,40.592,M,1.1,0123*64\r\n
$GPGGA,095444.70,5703.3722592,N,00952.1786517,E,2,11,0.9,-1.209,M,40.592,M,1.1,0123*64\r\n
$GPGGA,095444.75,5703.3722349,N,00952.1785141,E,2,11,0.9,-1.202,M,40.592,M,1.1,0123*6E\r\n
$GPGGA,095444.80,5703.3722097,N,00952.1783770,E,2,11,0.9,-1.196,M,40.592,M,1.1,0123*68\r\n
$GPGGA,095444.85,5703.3721847,N,00952.1782403,E,2,11,0.9,-1.192,M,40.592,M,1.4,0123*6C\r\n
$GPGGA,095444.90,5703.3721591,N,00952.1781048,E,2,11,0.9,-1.186,M,40.592,M,1.4,0123*63\r\n
$GPGGA,095444.95,5703.3721331,N,00952.1779691,E,2,11,0.9,-1.178,M,40.592,M,1.4,0123*6E\r\n
$GPGGA,095445.00,5703.3721069,N,00952.1778338,E,2,11,0.9,-1.174,M,40.592,M,1.4,0123*66\r\n
$GPGGA,095445.05,5703.3720805,N,00952.1776988,E,2,11,0.9,-1.170,M,40.592,M,1.6,0123*69\r\n
$GPGGA,095445.10,5703.3720541,N,00952.1775646,E,2,11,0.9,-1.169,M,40.592,M,1.6,0123*66\r\n
$GPGGA,095445.15,5703.3720272,N,00952.1774312,E,2,11,0.9,-1.170,M,40.592,M,1.6,0123*69\r\n
$GPGGA,095445.20,5703.3720009,N,00952.1772975,E,2,11,0.9,-1.168,M,40.592,M,1.6,0123*65\r\n
$GPGGA,095445.25,5703.3719719,N,00952.1771628,E,2,11,0.9,-1.171,M,40.592,M,1.9,0123*6F\r\n
$GPGGA,095445.30,5703.3719446,N,00952.1770300,E,2,11,0.9,-1.173,M,40.592,M,1.9,0123*6E\r\n
$GPGGA,095445.35,5703.3719180,N,00952.1768975,E,2,11,0.9,-1.173,M,40.592,M,1.9,0123*65\r\n
$GPGGA,095445.40,5703.3718910,N,00952.1767656,E,2,11,0.9,-1.175,M,40.592,M,1.9,0123*60\r\n
$GPGGA,095445.45,5703.3718646,N,00952.1766338,E,2,11,0.9,-1.175,M,40.592,M,2.2,0123*6D\r\n
$GPGGA,095445.50,5703.3718375,N,00952.1765020,E,2,11,0.9,-1.179,M,40.592,M,2.2,0123*69\r\n
$GPGGA,095445.55,5703.3718113,N,00952.1763703,E,2,11,0.9,-1.183,M,40.592,M,2.2,0123*6B\r\n
$GPGGA,095445.60,5703.3717850,N,00952.1762396,E,2,11,0.9,-1.186,M,40.592,M,2.2,0123*60\r\n
$GPGGA,095445.65,5703.3717586,N,00952.1761086,E,2,11,0.9,-1.199,M,40.592,M,1.1,0123*6C\r\n
$GPGGA,095445.70,5703.3717324,N,00952.1759796,E,2,11,0.9,-1.204,M,40.592,M,1.1,0123*6C\r\n
$GPGGA,095445.75,5703.3717063,N,00952.1758504,E,2,11,0.9,-1.211,M,40.592,M,1.1,0123*65\r\n
$GPGGA,095445.80,5703.3716801,N,00952.1757201,E,2,11,0.9,-1.218,M,40.592,M,1.1,0123*66\r\n
$GPGGA,095445.85,5703.3716529,N,00952.1755908,E,2,11,0.9,-1.223,M,40.592,M,1.3,0123*6E\r\n
$GPGGA,095445.90,5703.3716261,N,00952.1754628,E,2,11,0.9,-1.228,M,40.592,M,1.3,0123*66\r\n
$GPGGA,095445.95,5703.3716004,N,00952.1753354,E,2,11,0.9,-1.234,M,40.592,M,1.3,0123*66\r\n
$GPGGA,095446.00,5703.3715738,N,00952.1752070,E,2,11,0.9,-1.239,M,40.592,M,1.3,0123*6B\r\n
$GPGGA,095446.05,5703.3715479,N,00952.1750795,E,2,11,0.9,-1.242,M,40.592,M,1.6,0123*6F\r\n
$GPGGA,095446.10,5703.3715227,N,00952.1749506,E,2,11,0.9,-1.248,M,40.592,M,1.6,0123*6C\r\n
$GPGGA,095446.15,5703.3714971,N,00952.1748232,E,2,11,0.9,-1.250,M,40.592,M,1.6,0123*68\r\n
$GPGGA,095446.20,5703.3714706,N,00952.1746969,E,2,11,0.9,-1.255,M,40.592,M,1.6,0123*6E\r\n
$GPGGA,095446.25,5703.3714440,N,00952.1745686,E,2,11,0.9,-1.260,M,40.592,M,1.8,0123*6F\r\n
$GPGGA,095446.30,5703.3714172,N,00952.1744414,E,2,11,0.9,-1.261,M,40.592,M,1.8,0123*66\r\n
$GPGGA,095446.35,5703.3713904,N,00952.1743145,E,2,11,0.9,-1.264,M,40.592,M,1.8,0123*6E\r\n
$GPGGA,095446.40,5703.3713645,N,00952.1741872,E,2,11,0.9,-1.267,M,40.592,M,1.8,0123*6A\r\n
$GPGGA,095446.45,5703.3713382,N,00952.1740599,E,2,11,0.9,-1.266,M,40.592,M,2.0,0123*62\r\n
$GPGGA,095446.50,5703.3713102,N,00952.1739317,E,2,11,0.9,-1.268,M,40.592,M,2.0,0123*6C\r\n
$GPGGA,095446.55,5703.3712824,N,00952.1738056,E,2,11,0.9,-1.269,M,40.592,M,2.0,0123*63\r\n
$GPGGA,095446.60,5703.3712564,N,00952.1736787,E,2,11,0.9,-1.269,M,40.592,M,2.0,0123*69\r\n
$GPGGA,095446.65,5703.3712285,N,00952.1735500,E,2,11,0.9,-1.272,M,40.592,M,1.4,0123*67\r\n
$GPGGA,095446.70,5703.3712005,N,00952.1734211,E,2,11,0.9,-1.272,M,40.592,M,1.4,0123*6F\r\n
$GPGGA,095446.75,5703.3711720,N,00952.1732942,E,2,11,0.9,-1.271,M,40.592,M,1.4,0123*61\r\n
$GPGGA,095446.80,5703.3711420,N,00952.1731655,E,2,11,0.9,-1.273,M,40.592,M,1.4,0123*60\r\n
$GPGGA,095446.85,5703.3711114,N,00952.1730374,E,2,11,0.9,-1.271,M,40.592,M,1.7,0123*61\r\n
$GPGGA,095446.90,5703.3710814,N,00952.1729099,E,2,11,0.9,-1.267,M,40.592,M,1.7,0123*62\r\n
$GPGGA,095446.95,5703.3710496,N,00952.1727827,E,2,11,0.9,-1.267,M,40.592,M,1.7,0123*62\r\n
$GPGGA,095447.00,5703.3710183,N,00952.1726557,E,2,11,0.9,-1.266,M,40.592,M,1.7,0123*64\r\n
$GPGGA,095447.05,5703.3709867,N,00952.1725290,E,2,11,0.9,-1.259,M,40.592,M,1.9,0123*67\r\n
$GPGGA,095447.10,5703.3709547,N,00952.1724010,E,2,11,0.9,-1.256,M,40.592,M,1.9,0123*68\r\n
$GPGGA,095447.15,5703.3709233,N,00952.1722721,E,2,11,0.9,-1.254,M,40.592,M,1.9,0123*68\r\n
$GPGGA,095447.20,5703.3708906,N,00952.1721445,E,2,11,0.9,-1.251,M,40.592,M,1.9,0123*65\r\n
$GPGGA,095447.25,5703.3708565,N,00952.1720152,E,2,11,0.9,-1.252,M,40.592,M,2.2,0123*60\r\n
$GPGGA,095447.30,5703.3708231,N,00952.1718861,E,2,11,0.9,-1.252,M,40.592,M,2.2,0123*60\r\n
$GPGGA,095447.35,5703.3707905,N,00952.1717566,E,2,11,0.9,-1.252,M,40.592,M,2.2,0123*63\r\n
$GPGGA,095447.40,5703.3707582,N,00952.1716276,E,2,11,0.9,-1.249,M,40.592,M,2.2,0123*6F\r\n
$GPGGA,095447.45,5703.3707245,N,00952.1714979,E,2,11,0.9,-1.249,M,40.592,M,2.4,0123*66\r\n
$GPGGA,095447.50,5703.3706903,N,00952.1713684,E,2,11,0.9,-1.249,M,40.592,M,2.4,0123*60\r\n
$GPGGA,095447.55,5703.3706562,N,00952.1712390,E,2,11,0.9,-1.248,M,40.592,M,2.4,0123*6E\r\n
$GPGGA,095447.60,5703.3706217,N,00952.1711103,E,2,11,0.9,-1.247,M,40.592,M,2.4,0123*69\r\n
$GPGGA,095447.65,5703.3705866,N,00952.1709815,E,2,11,0.9,-1.247,M,40.592,M,2.6,0123*66\r\n
$GPGGA,095447.70,5703.3705504,N,00952.1708528,E,2,11,0.9,-1.250,M,40.592,M,2.6,0123*6F\r\n
$GPGGA,095447.75,5703.3705146,N,00952.1707250,E,2,11,0.9,-1.249,M,40.592,M,2.6,0123*67\r\n
$GPGGA,095447.80,5703.3704785,N,00952.1705958,E,2,11,0.9,-1.246,M,40.592,M,2.6,0123*6B\r\n
$GPGGA,095447.85,5703.3704433,N,00952.1704688,E,2,11,0.9,-1.242,M,40.592,M,2.9,0123*68\r\n
$GPGGA,095447.90,5703.3704075,N,00952.1703418,E,2,11,0.9,-1.239,M,40.592,M,2.9,0123*6A\r\n
$GPGGA,095447.95,5703.3703710,N,00952.1702144,E,2,11,0.9,-1.237,M,40.592,M,2.9,0123*6F\r\n
$GPGGA,095448.00,5703.3703345,N,00952.1700888,E,2,11,0.9,-1.232,M,40.592,M,2.9,0123*66\r\n
$GPGGA,095448.05,5703.3702956,N,00952.1699635,E,2,11,0.9,-1.230,M,40.592,M,3.1,0123*68\r\n
$GPGGA,095448.10,5703.3702569,N,00952.1698374,E,2,11,0.9,-1.230,M,40.592,M,3.1,0123*6D\r\n
$GPGGA,095448.15,5703.3702173,N,00952.1697121,E,2,11,0.9,-1.228,M,40.592,M,3.1,0123*63\r\n
$GPGGA,095448.20,5703.3701789,N,00952.1695865,E,2,11,0.9,-1.227,M,40.592,M,3.1,0123*61\r\n
$GPGGA,095448.25,5703.3701406,N,00952.1694620,E,2,11,0.9,-1.227,M,40.592,M,3.3,0123*6C\r\n
$GPGGA,095448.30,5703.3701010,N,00952.1693387,E,2,11,0.9,-1.224,M,40.592,M,3.3,0123*67\r\n
$GPGGA,095448.35,5703.3700608,N,00952.1692161,E,2,11,0.9,-1.220,M,40.592,M,3.3,0123*63\r\n
$GPGGA,095448.40,5703.3700195,N,00952.1690943,E,2,11,0.9,-1.216,M,40.592,M,3.3,0123*6D\r\n
$GPGGA,095448.45,5703.3699788,N,00952.1689731,E,2,11,0.9,-1.211,M,40.592,M,3.5,0123*61\r\n
$GPGGA,095448.50,5703.3699376,N,00952.1688528,E,2,11,0.9,-1.207,M,40.592,M,3.5,0123*6C\r\n
$GPGGA,095448.55,5703.3698954,N,00952.1687338,E,2,11,0.9,-1.204,M,40.592,M,3.5,0123*69\r\n
$GPGGA,095448.60,5703.3698522,N,00952.1686166,E,2,11,0.9,-1.200,M,40.592,M,3.5,0123*6E\r\n
$GPGGA,095448.65,5703.3698094,N,00952.1685003,E,2,11,0.9,-1.189,M,40.592,M,1.1,0123*66\r\n
$GPGGA,095448.70,5703.3697665,N,00952.1683843,E,2,11,0.9,-1.185,M,40.592,M,1.1,0123*63\r\n
$GPGGA,095448.75,5703.3697236,N,00952.1682692,E,2,11,0.9,-1.182,M,40.592,M,1.1,0123*60\r\n
$GPGGA,095448.80,5703.3696805,N,00952.1681547,E,2,11,0.9,-1.180,M,40.592,M,1.1,0123*6B\r\n
$GPGGA,095448.85,5703.3696360,N,00952.1680420,E,2,11,0.9,-1.181,M,40.592,M,1.4,0123*63\r\n
$GPGGA,095448.90,5703.3695914,N,00952.1679299,E,2,11,0.9,-1.179,M,40.592,M,1.4,0123*68\r\n
$GPGGA,095448.95,5703.3695469,N,00952.1678187,E,2,11,0.9,-1.176,M,40.592,M,1.4,0123*68\r\n
$GPGGA,095449.00,5703.3695020,N,00952.1677074,E,2,11,0.9,-1.176,M,40.592,M,1.4,0123*6E\r\n
$GPGGA,095449.05,5703.3694556,N,00952.1675966,E,2,11,0.9,-1.176,M,40.592,M,1.6,0123*64\r\n
$GPGGA,095449.10,5703.3694108,N,00952.1674859,E,2,11,0.9,-1.178,M,40.592,M,1.6,0123*6D\r\n
$GPGGA,095449.15,5703.3693656,N,00952.1673773,E,2,11,0.9,-1.180,M,40.592,M,1.6,0123*64\r\n
$GPGGA,095449.20,5703.3693205,N,00952.1672708,E,2,11,0.9,-1.181,M,40.592,M,1.6,0123*6C\r\n
$GPGGA,095449.25,5703.3692754,N,00952.1671644,E,2,11,0.9,-1.183,M,40.592,M,1.9,0123*6E\r\n
$GPGGA,095449.30,5703.3692295,N,00952.1670597,E,2,11,0.9,-1.184,M,40.592,M,1.9,0123*69\r\n
$GPGGA,095449.35,5703.3691825,N,00952.1669552,E,2,11,0.9,-1.188,M,40.592,M,1.9,0123*63\r\n
$GPGGA,095449.40,5703.3691361,N,00952.1668506,E,2,11,0.9,-1.192,M,40.592,M,1.9,0123*61\r\n
$GPGGA,095449.45,5703.3690908,N,00952.1667472,E,2,11,0.9,-1.192,M,40.592,M,2.2,0123*65\r\n
$GPGGA,095449.50,5703.3690455,N,00952.1666441,E,2,11,0.9,-1.194,M,40.592,M,2.2,0123*63\r\n
$GPGGA,095449.55,5703.3689997,N,00952.1665398,E,2,11,0.9,-1.198,M,40.592,M,2.2,0123*61\r\n
$GPGGA,095449.60,5703.3689529,N,00952.1664362,E,2,11,0.9,-1.203,M,40.592,M,2.2,0123*6B\r\n
$GPGGA,095449.65,5703.3689069,N,00952.1663338,E,2,11,0.9,-1.210,M,40.592,M,1.1,0123*65\r\n
$GPGGA,095449.70,5703.3688598,N,00952.1662334,E,2,11,0.9,-1.215,M,40.592,M,1.1,0123*63\r\n
$GPGGA,095449.75,5703.3688135,N,00952.1661353,E,2,11,0.9,-1.218,M,40.592,M,1.1,0123*6A\r\n
$GPGGA,095449.80,5703.3687661,N,00952.1660352,E,2,11,0.9,-1.224,M,40.592,M,1.1,0123*66\r\n
$GPGGA,095449.85,5703.3687198,N,00952.1659360,E,2,11,0.9,-1.227,M,40.592,M,1.3,0123*68\r\n
$GPGGA,095449.90,5703.3686720,N,00952.1658367,E,2,11,0.9,-1.232,M,40.592,M,1.3,0123*6A\r\n
$GPGGA,095449.95,5703.3686246,N,00952.1657381,E,2,11,0.9,-1.237,M,40.592,M,1.3,0123*68\r\n
$GPGGA,095450.00,5703.3685765,N,00952.1656393,E,2,11,0.9,-1.242,M,40.592,M,1.3,0123*6B\r\n
$GPGGA,095450.05,5703.3685288,N,00952.1655398,E,2,11,0.9,-1.244,M,40.592,M,1.6,0123*63\r\n
$GPGGA,095450.10,5703.3684816,N,00952.1654418,E,2,11,0.9,-1.248,M,40.592,M,1.6,0123*69\r\n
$GPGGA,095450.15,5703.3684335,N,00952.1653442,E,2,11,0.9,-1.253,M,40.592,M,1.6,0123*64\r\n
$GPGGA,095450.20,5703.3683857,N,00952.1652465,E,2,11,0.9,-1.257,M,40.592,M,1.6,0123*6A\r\n
$GPGGA,095450.25,5703.3683367,N,00952.1651487,E,2,11,0.9,-1.263,M,40.592,M,1.8,0123*61\r\n
$GPGGA,095450.30,5703.3682869,N,00952.1650516,E,2,11,0.9,-1.267,M,40.592,M,1.8,0123*6D\r\n
$GPGGA,095450.35,5703.3682365,N,00952.1649558,E,2,11,0.9,-1.272,M,40.592,M,1.8,0123*69\r\n
$GPGGA,095450.40,5703.3681863,N,00952.1648602,E,2,11,0.9,-1.275,M,40.592,M,1.8,0123*6F\r\n
$GPGGA,095450.45,5703.3681363,N,00952.1647645,E,2,11,0.9,-1.279,M,40.592,M,2.0,0123*6A\r\n
$GPGGA,095450.50,5703.3680853,N,00952.1646708,E,2,11,0.9,-1.282,M,40.592,M,2.0,0123*6A\r\n
$GPGGA,095450.55,5703.3680336,N,00952.1645756,E,2,11,0.9,-1.284,M,40.592,M,2.0,0123*69\r\n
$GPGGA,095450.60,5703.3679811,N,00952.1644787,E,2,11,0.9,-1.287,M,40.592,M,2.0,0123*69\r\n
$GPGGA,095450.65,5703.3679300,N,00952.1643835,E,2,11,0.9,-1.285,M,40.592,M,1.4,0123*63\r\n
$GPGGA,095450.70,5703.3678774,N,00952.1642883,E,2,11,0.9,-1.285,M,40.592,M,1.4,0123*6D\r\n
$GPGGA,095450.75,5703.3678246,N,00952.1641935,E,2,11,0.9,-1.285,M,40.592,M,1.4,0123*63\r\n
$GPGGA,095450.80,5703.3677703,N,00952.1640984,E,2,11,0.9,-1.285,M,40.592,M,1.4,0123*69\r\n
$GPGGA,095450.85,5703.3677144,N,00952.1640036,E,2,11,0.9,-1.291,M,40.592,M,1.7,0123*6F\r\n
$GPGGA,095450.90,5703.3676588,N,00952.1639096,E,2,11,0.9,-1.294,M,40.592,M,1.7,0123*6F\r\n
$GPGGA,095450.95,5703.3676040,N,00952.1638147,E,2,11,0.9,-1.292,M,40.592,M,1.7,0123*61\r\n
$GPGGA,095451.00,5703.3675487,N,00952.1637213,E,2,11,0.9,-1.290,M,40.592,M,1.7,0123*6F\r\n
$GPGGA,095451.05,5703.3674916,N,00952.1636287,E,2,11,0.9,-1.294,M,40.592,M,1.9,0123*68\r\n
$GPGGA,095451.10,5703.3674352,N,00952.1635354,E,2,11,0.9,-1.293,M,40.592,M,1.9,0123*6D\r\n
$GPGGA,095451.15,5703.3673782,N,00952.1634426,E,2,11,0.9,-1.292,M,40.592,M,1.9,0123*64\r\n
$GPGGA,095451.20,5703.3673213,N,00952.1633508,E,2,11,0.9,-1.290,M,40.592,M,1.9,0123*67\r\n
$GPGGA,095451.25,5703.3672650,N,00952.1632592,E,2,11,0.9,-1.285,M,40.592,M,2.2,0123*6E\r\n
$GPGGA,095451.30,5703.3672075,N,00952.1631672,E,2,11,0.9,-1.284,M,40.592,M,2.2,0123*64\r\n
$GPGGA,095451.35,5703.3671500,N,00952.1630761,E,2,11,0.9,-1.279,M,40.592,M,2.2,0123*65\r\n
$GPGGA,095451.40,5703.3670928,N,00952.1629827,E,2,11,0.9,-1.274,M,40.592,M,2.2,0123*68\r\n
$GPGGA,095451.45,5703.3670349,N,00952.1628908,E,2,11,0.9,-1.270,M,40.592,M,2.4,0123*6F\r\n
$GPGGA,095451.50,5703.3669763,N,00952.1628011,E,2,11,0.9,-1.266,M,40.592,M,2.4,0123*69\r\n
$GPGGA,095451.55,5703.3669169,N,00952.1627114,E,2,11,0.9,-1.262,M,40.592,M,2.4,0123*6F\r\n
$GPGGA,095451.60,5703.3668571,N,00952.1626227,E,2,11,0.9,-1.259,M,40.592,M,2.4,0123*6F\r\n
$GPGGA,095451.65,5703.3667979,N,00952.1625344,E,2,11,0.9,-1.257,M,40.592,M,2.6,0123*6A\r\n
$GPGGA,095451.70,5703.3667378,N,00952.1624474,E,2,11,0.9,-1.253,M,40.592,M,2.6,0123*64\r\n
$GPGGA,095451.75,5703.3666763,N,00952.1623613,E,2,11,0.9,-1.252,M,40.592,M,2.6,0123*6B\r\n
$GPGGA,095451.80,5703.3666149,N,00952.1622756,E,2,11,0.9,-1.251,M,40.592,M,2.6,0123*6D\r\n
$GPGGA,095451.85,5703.3665534,N,00952.1621903,E,2,11,0.9,-1.250,M,40.592,M,2.9,0123*66\r\n
$GPGGA,095451.90,5703.3664915,N,00952.1621058,E,2,11,0.9,-1.252,M,40.592,M,2.9,0123*69\r\n
$GPGGA,095451.95,5703.3664289,N,00952.1620231,E,2,11,0.9,-1.252,M,40.592,M,2.9,0123*6E\r\n
$GPGGA,095452.00,5703.3663662,N,00952.1619409,E,2,11,0.9,-1.252,M,40.592,M,2.9,0123*60\r\n
$GPGGA,095452.05,5703.3663030,N,00952.1618593,E,2,11,0.9,-1.251,M,40.592,M,3.1,0123*6D\r\n
$GPGGA,095452.10,5703.3662397,N,00952.1617771,E,2,11,0.9,-1.252,M,40.592,M,3.1,0123*64\r\n
$GPGGA,095452.15,5703.3661775,N,00952.1616973,E,2,11,0.9,-1.251,M,40.592,M,3.1,0123*64\r\n
$GPGGA,095452.20,5703.3661148,N,00952.1616180,E,2,11,0.9,-1.251,M,40.592,M,3.1,0123*6E\r\n
$GPGGA,095452.25,5703.3660510,N,00952.1615395,E,2,11,0.9,-1.254,M,40.592,M,3.3,0123*61\r\n
$GPGGA,095452.30,5703.3659872,N,00952.1614623,E,2,11,0.9,-1.254,M,40.592,M,3.3,0123*6F\r\n
$GPGGA,095452.35,5703.3659226,N,00952.1613860,E,2,11,0.9,-1.257,M,40.592,M,3.3,0123*6C\r\n
$GPGGA,095452.40,5703.3658587,N,00952.1613105,E,2,11,0.9,-1.259,M,40.592,M,3.3,0123*67\r\n
$GPGGA,095452.45,5703.3657948,N,00952.1612341,E,2,11,0.9,-1.258,M,40.592,M,3.5,0123*66\r\n
$GPGGA,095452.50,5703.3657307,N,00952.1611587,E,2,11,0.9,-1.259,M,40.592,M,3.5,0123*6D\r\n
$GPGGA,095452.55,5703.3656665,N,00952.1610840,E,2,11,0.9,-1.259,M,40.592,M,3.5,0123*6F\r\n
$GPGGA,095452.60,5703.3656022,N,00952.1610097,E,2,11,0.9,-1.258,M,40.592,M,3.5,0123*6F\r\n
$GPGGA,095452.65,5703.3655377,N,00952.1609361,E,2,11,0.9,-1.256,M,40.592,M,1.1,0123*60\r\n
$GPGGA,095452.70,5703.3654727,N,00952.1608643,E,2,11,0.9,-1.254,M,40.592,M,1.1,0123*62\r\n
$GPGGA,095452.75,5703.3654076,N,00952.1607922,E,2,11,0.9,-1.253,M,40.592,M,1.1,0123*64\r\n
$GPGGA,095452.80,5703.3653431,N,00952.1607217,E,2,11,0.9,-1.253,M,40.592,M,1.1,0123*63\r\n
$GPGGA,095452.85,5703.3652778,N,00952.1606515,E,2,11,0.9,-1.255,M,40.592,M,1.4,0123*6E\r\n
$GPGGA,095452.90,5703.3652125,N,00952.1605827,E,2,11,0.9,-1.254,M,40.592,M,1.4,0123*6A\r\n
$GPGGA,095452.95,5703.3651471,N,00952.1605143,E,2,11,0.9,-1.253,M,40.592,M,1.4,0123*64\r\n
$GPGGA,095453.00,5703.3650810,N,00952.1604464,E,2,11,0.9,-1.253,M,40.592,M,1.4,0123*62\r\n
$GPGGA,095453.05,5703.3650139,N,00952.1603787,E,2,11,0.9,-1.254,M,40.592,M,1.6,0123*69\r\n
$GPGGA,095453.10,5703.3649478,N,00952.1603127,E,2,11,0.9,-1.253,M,40.592,M,1.6,0123*6E\r\n
$GPGGA,095453.15,5703.3648830,N,00952.1602474,E,2,11,0.9,-1.253,M,40.592,M,1.6,0123*68\r\n
$GPGGA,095453.20,5703.3648166,N,00952.1601809,E,2,11,0.9,-1.253,M,40.592,M,1.6,0123*61\r\n
$GPGGA,095453.25,5703.3647499,N,00952.1601163,E,2,11,0.9,-1.250,M,40.592,M,1.9,0123*67\r\n
$GPGGA,095453.30,5703.3646834,N,00952.1600522,E,2,11,0.9,-1.250,M,40.592,M,1.9,0123*69\r\n
$GPGGA,095453.35,5703.3646174,N,00952.1599896,E,2,11,0.9,-1.247,M,40.592,M,1.9,0123*66\r\n
$GPGGA,095453.40,5703.3645508,N,00952.1599265,E,2,11,0.9,-1.243,M,40.592,M,1.9,0123*6A\r\n
$GPGGA,095453.45,5703.3644838,N,00952.1598637,E,2,11,0.9,-1.250,M,40.592,M,2.2,0123*68\r\n
$GPGGA,095453.50,5703.3644167,N,00952.1598011,E,2,11,0.9,-1.249,M,40.592,M,2.2,0123*65\r\n
$GPGGA,095453.55,5703.3643499,N,00952.1597377,E,2,11,0.9,-1.249,M,40.592,M,2.2,0123*6F\r\n
$GPGGA,095453.60,5703.3642827,N,00952.1596751,E,2,11,0.9,-1.249,M,40.592,M,2.2,0123*60\r\n
$GPGGA,095453.65,5703.3642157,N,00952.1596148,E,2,11,0.9,-1.248,M,40.592,M,1.1,0123*64\r\n
$GPGGA,095453.70,5703.3641492,N,00952.1595548,E,2,11,0.9,-1.248,M,40.592,M,1.1,0123*68\r\n
$GPGGA,095453.75,5703.3640826,N,00952.1594952,E,2,11,0.9,-1.246,M,40.592,M,1.1,0123*67\r\n
$GPGGA,095453.80,5703.3640155,N,00952.1594360,E,2,11,0.9,-1.243,M,40.592,M,1.1,0123*6E\r\n
$GPGGA,095453.85,5703.3639483,N,00952.1593762,E,2,11,0.9,-1.243,M,40.592,M,1.3,0123*68\r\n
$GPGGA,095453.90,5703.3638819,N,00952.1593165,E,2,11,0.9,-1.242,M,40.592,M,1.3,0123*62\r\n
$GPGGA,095453.95,5703.3638147,N,00952.1592581,E,2,11,0.9,-1.242,M,40.592,M,1.3,0123*6A\r\n
$GPGGA,095454.00,5703.3637472,N,00952.1591993,E,2,11,0.9,-1.241,M,40.592,M,1.3,0123*62\r\n
$GPGGA,095454.05,5703.3636776,N,00952.1591394,E,2,11,0.9,-1.250,M,40.592,M,1.6,0123*69\r\n
$GPGGA,095454.10,5703.3636105,N,00952.1590811,E,2,11,0.9,-1.247,M,40.592,M,1.6,0123*6E\r\n
$GPGGA,095454.15,5703.3635424,N,00952.1590244,E,2,11,0.9,-1.248,M,40.592,M,1.6,0123*6B\r\n
$GPGGA,095454.20,5703.3634741,N,00952.1589672,E,2,11,0.9,-1.250,M,40.592,M,1.6,0123*6C\r\n
$GPGGA,095454.25,5703.3634069,N,00952.1589116,E,2,11,0.9,-1.247,M,40.592,M,1.8,0123*69\r\n
$GPGGA,095454.30,5703.3633403,N,00952.1588562,E,2,11,0.9,-1.244,M,40.592,M,1.8,0123*67\r\n
$GPGGA,095454.35,5703.3632729,N,00952.1588022,E,2,11,0.9,-1.244,M,40.592,M,1.8,0123*69\r\n
$GPGGA,095454.40,5703.3632050,N,00952.1587488,E,2,11,0.9,-1.244,M,40.592,M,1.8,0123*69\r\n
$GPGGA,095454.45,5703.3631367,N,00952.1586945,E,2,11,0.9,-1.245,M,40.592,M,2.0,0123*6F\r\n
$GPGGA,095454.50,5703.3630681,N,00952.1586398,E,2,11,0.9,-1.244,M,40.592,M,2.0,0123*6C\r\n
$GPGGA,095454.55,5703.3629992,N,00952.1585852,E,2,11,0.9,-1.246,M,40.592,M,2.0,0123*60\r\n
$GPGGA,095454.60,5703.3629319,N,00952.1585314,E,2,11,0.9,-1.249,M,40.592,M,2.0,0123*69\r\n
$GPGGA,095454.65,5703.3628642,N,00952.1584787,E,2,11,0.9,-1.248,M,40.592,M,1.4,0123*6F\r\n
$GPGGA,095454.70,5703.3627964,N,00952.1584260,E,2,11,0.9,-1.248,M,40.592,M,1.4,0123*63\r\n
$GPGGA,095454.75,5703.3627275,N,00952.1583725,E,2,11,0.9,-1.249,M,40.592,M,1.4,0123*6F\r\n
$GPGGA,095454.80,5703.3626594,N,00952.1583204,E,2,11,0.9,-1.250,M,40.592,M,1.4,0123*62\r\n
$GPGGA,095454.85,5703.3625905,N,00952.1582700,E,2,11,0.9,-1.246,M,40.592,M,1.7,0123*64\r\n
$GPGGA,095454.90,5703.3625217,N,00952.1582196,E,2,11,0.9,-1.247,M,40.592,M,1.7,0123*60\r\n
$GPGGA,095454.95,5703.3624537,N,00952.1581674,E,2,11,0.9,-1.248,M,40.592,M,1.7,0123*66\r\n
$GPGGA,095455.00,5703.3623857,N,00952.1581164,E,2,11,0.9,-1.248,M,40.592,M,1.7,0123*61\r\n
$GPGGA,095455.05,5703.3623176,N,00952.1580644,E,2,11,0.9,-1.248,M,40.592,M,1.9,0123*64\r\n
$GPGGA,095455.10,5703.3622491,N,00952.1580126,E,2,11,0.9,-1.247,M,40.592,M,1.9,0123*61\r\n
$GPGGA,095455.15,5703.3621810,N,00952.1579613,E,2,11,0.9,-1.246,M,40.592,M,1.9,0123*64\r\n
$GPGGA,095455.20,5703.3621120,N,00952.1579110,E,2,11,0.9,-1.246,M,40.592,M,1.9,0123*6C\r\n
$GPGGA,095455.25,5703.3620435,N,00952.1578625,E,2,11,0.9,-1.246,M,40.592,M,2.2,0123*61\r\n
$GPGGA,095455.30,5703.3619754,N,00952.1578122,E,2,11,0.9,-1.245,M,40.592,M,2.2,0123*68\r\n
$GPGGA,095455.35,5703.3619074,N,00952.1577631,E,2,11,0.9,-1.243,M,40.592,M,2.2,0123*64\r\n
$GPGGA,095455.40,5703.3618391,N,00952.1577140,E,2,11,0.9,-1.240,M,40.592,M,2.2,0123*6D\r\n
$GPGGA,095455.45,5703.3617706,N,00952.1576652,E,2,11,0.9,-1.237,M,40.592,M,2.4,0123*6E\r\n
$GPGGA,095455.50,5703.3617023,N,00952.1576171,E,2,11,0.9,-1.237,M,40.592,M,2.4,0123*6C\r\n
$GPGGA,095455.55,5703.3616339,N,00952.1575701,E,2,11,0.9,-1.237,M,40.592,M,2.4,0123*62\r\n
$GPGGA,095455.60,5703.3615651,N,00952.1575228,E,2,11,0.9,-1.236,M,40.592,M,2.4,0123*63\r\n
$GPGGA,095455.65,5703.3614973,N,00952.1574761,E,2,11,0.9,-1.238,M,40.592,M,2.6,0123*6D\r\n
$GPGGA,095455.70,5703.3614295,N,00952.1574292,E,2,11,0.9,-1.237,M,40.592,M,2.6,0123*6C\r\n
$GPGGA,095455.75,5703.3613612,N,00952.1573827,E,2,11,0.9,-1.237,M,40.592,M,2.6,0123*66\r\n
$GPGGA,095455.80,5703.3612923,N,00952.1573364,E,2,11,0.9,-1.237,M,40.592,M,2.6,0123*6C\r\n
$GPGGA,095455.85,5703.3612242,N,00952.1572908,E,2,11,0.9,-1.235,M,40.592,M,2.9,0123*69\r\n
$GPGGA,095455.90,5703.3611560,N,00952.1572470,E,2,11,0.9,-1.236,M,40.592,M,2.9,0123*68\r\n
$GPGGA,095455.95,5703.3610881,N,00952.1572019,E,2,11,0.9,-1.237,M,40.592,M,2.9,0123*64\r\n
$GPGGA,095456.00,5703.3610185,N,00952.1571596,E,2,11,0.9,-1.239,M,40.592,M,2.9,0123*69\r\n
$GPGGA,095456.05,5703.3609486,N,00952.1571161,E,2,11,0.9,-1.248,M,40.592,M,3.1,0123*61\r\n
$GPGGA,095456.10,5703.3608805,N,00952.1570734,E,2,11,0.9,-1.251,M,40.592,M,3.1,0123*6C\r\n
$GPGGA,095456.15,5703.3608112,N,00952.1570323,E,2,11,0.9,-1.254,M,40.592,M,3.1,0123*61\r\n
$GPGGA,095456.20,5703.3607422,N,00952.1569898,E,2,11,0.9,-1.254,M,40.592,M,3.1,0123*6D\r\n
$GPGGA,095456.25,5703.3606739,N,00952.1569481,E,2,11,0.9,-1.246,M,40.592,M,3.3,0123*65\r\n
$GPGGA,095456.30,5703.3606058,N,00952.1569068,E,2,11,0.9,-1.246,M,40.592,M,3.3,0123*62\r\n
$GPGGA,095456.35,5703.3605379,N,00952.1568648,E,2,11,0.9,-1.245,M,40.592,M,3.3,0123*62\r\n
$GPGGA,095456.40,5703.3604699,N,00952.1568233,E,2,11,0.9,-1.244,M,40.592,M,3.3,0123*63\r\n
$GPGGA,095456.45,5703.3604008,N,00952.1567809,E,2,11,0.9,-1.250,M,40.592,M,3.5,0123*67\r\n
$GPGGA,095456.50,5703.3603316,N,00952.1567411,E,2,11,0.9,-1.249,M,40.592,M,3.5,0123*65\r\n
$GPGGA,095456.55,5703.3602629,N,00952.1567017,E,2,11,0.9,-1.249,M,40.592,M,3.5,0123*6A\r\n
$GPGGA,095456.60,5703.3601944,N,00952.1566627,E,2,11,0.9,-1.250,M,40.592,M,3.5,0123*67\r\n
$GPGGA,095456.65,5703.3601274,N,00952.1566235,E,2,11,0.9,-1.245,M,40.592,M,1.1,0123*6F\r\n
$GPGGA,095456.70,5703.3600595,N,00952.1565834,E,2,11,0.9,-1.245,M,40.592,M,1.1,0123*6A\r\n
$GPGGA,095456.75,5703.3599915,N,00952.1565439,E,2,11,0.9,-1.244,M,40.592,M,1.1,0123*68\r\n
$GPGGA,095456.80,5703.3599237,N,00952.1565059,E,2,11,0.9,-1.242,M,40.592,M,1.1,0123*6D\r\n
$GPGGA,095456.85,5703.3598550,N,00952.1564684,E,2,11,0.9,-1.240,M,40.592,M,1.4,0123*6F\r\n
$GPGGA,095456.90,5703.3597866,N,00952.1564299,E,2,11,0.9,-1.242,M,40.592,M,1.4,0123*66\r\n
$GPGGA,095456.95,5703.3597185,N,00952.1563926,E,2,11,0.9,-1.241,M,40.592,M,1.4,0123*6C\r\n
$GPGGA,095457.00,5703.3596510,N,00952.1563567,E,2,11,0.9,-1.239,M,40.592,M,1.4,0123*6E\r\n
$GPGGA,095457.05,5703.3595809,N,00952.1563213,E,2,11,0.9,-1.245,M,40.592,M,1.6,0123*60\r\n
$GPGGA,095457.10,5703.3595115,N,00952.1562868,E,2,11,0.9,-1.247,M,40.592,M,1.6,0123*65\r\n
$GPGGA,095457.15,5703.3594420,N,00952.1562526,E,2,11,0.9,-1.251,M,40.592,M,1.6,0123*62\r\n
$GPGGA,095457.20,5703.3593736,N,00952.1562202,E,2,11,0.9,-1.253,M,40.592,M,1.6,0123*64\r\n
$GPGGA,095457.25,5703.3593045,N,00952.1561874,E,2,11,0.9,-1.254,M,40.592,M,1.9,0123*62\r\n
$GPGGA,095457.30,5703.3592362,N,00952.1561548,E,2,11,0.9,-1.254,M,40.592,M,1.9,0123*63\r\n
$GPGGA,095457.35,5703.3591675,N,00952.1561224,E,2,11,0.9,-1.255,M,40.592,M,1.9,0123*6A\r\n
$GPGGA,095457.40,5703.3590978,N,00952.1560891,E,2,11,0.9,-1.259,M,40.592,M,1.9,0123*62\r\n
$GPGGA,095457.45,5703.3590284,N,00952.1560554,E,2,11,0.9,-1.266,M,40.592,M,2.2,0123*6F\r\n
$GPGGA,095457.50,5703.3589600,N,00952.1560236,E,2,11,0.9,-1.268,M,40.592,M,2.2,0123*66\r\n
$GPGGA,095457.55,5703.3588917,N,00952.1559921,E,2,11,0.9,-1.268,M,40.592,M,2.2,0123*6C\r\n
$GPGGA,095457.60,5703.3588228,N,00952.1559604,E,2,11,0.9,-1.269,M,40.592,M,2.2,0123*64\r\n
$GPGGA,095457.65,5703.3587542,N,00952.1559293,E,2,11,0.9,-1.263,M,40.592,M,1.1,0123*65\r\n
$GPGGA,095457.70,5703.3586858,N,00952.1558992,E,2,11,0.9,-1.261,M,40.592,M,1.1,0123*6F\r\n
$GPGGA,095457.75,5703.3586176,N,00952.1558709,E,2,11,0.9,-1.261,M,40.592,M,1.1,0123*63\r\n
$GPGGA,095457.80,5703.3585485,N,00952.1558414,E,2,11,0.9,-1.262,M,40.592,M,1.1,0123*6F\r\n
$GPGGA,095457.85,5703.3584800,N,00952.1558129,E,2,11,0.9,-1.266,M,40.592,M,1.3,0123*67\r\n
$GPGGA,095457.90,5703.3584109,N,00952.1557857,E,2,11,0.9,-1.267,M,40.592,M,1.3,0123*6D\r\n
$GPGGA,095457.95,5703.3583421,N,00952.1557593,E,2,11,0.9,-1.268,M,40.592,M,1.3,0123*6A\r\n
$GPGGA,095458.00,5703.3582728,N,00952.1557349,E,2,11,0.9,-1.268,M,40.592,M,1.3,0123*63\r\n
$GPGGA,095458.05,5703.3582026,N,00952.1557093,E,2,11,0.9,-1.271,M,40.592,M,1.6,0123*66\r\n
$GPGGA,095458.10,5703.3581323,N,00952.1556844,E,2,11,0.9,-1.272,M,40.592,M,1.6,0123*67\r\n
$GPGGA,095458.15,5703.3580632,N,00952.1556624,E,2,11,0.9,-1.271,M,40.592,M,1.6,0123*6D\r\n
$GPGGA,095458.20,5703.3579950,N,00952.1556407,E,2,11,0.9,-1.270,M,40.592,M,1.6,0123*64\r\n
$GPGGA,095458.25,5703.3579256,N,00952.1556181,E,2,11,0.9,-1.276,M,40.592,M,1.8,0123*6F\r\n
$GPGGA,095458.30,5703.3578560,N,00952.1555963,E,2,11,0.9,-1.276,M,40.592,M,1.8,0123*6F\r\n
$GPGGA,095458.35,5703.3577867,N,00952.1555762,E,2,11,0.9,-1.277,M,40.592,M,1.8,0123*61\r\n
$GPGGA,095458.40,5703.3577171,N,00952.1555564,E,2,11,0.9,-1.278,M,40.592,M,1.8,0123*66\r\n
$GPGGA,095458.45,5703.3576484,N,00952.1555378,E,2,11,0.9,-1.275,M,40.592,M,2.0,0123*60\r\n
$GPGGA,095458.50,5703.3575785,N,00952.1555177,E,2,11,0.9,-1.278,M,40.592,M,2.0,0123*65\r\n
$GPGGA,095458.55,5703.3575082,N,00952.1555001,E,2,11,0.9,-1.280,M,40.592,M,2.0,0123*67\r\n
