$GPGGA,090826.70,5703.3770103,N,00952.2404779,E,2,10,0.8,-1.156,M,40.593,M,3.2,0123*6B\r\n
$GPGGA,090826.75,5703.3770002,N,00952.2404136,E,2,10,0.8,-1.152,M,40.593,M,3.2,0123*67\r\n
$GPGGA,090826.80,5703.3769894,N,00952.2403511,E,2,10,0.8,-1.148,M,40.593,M,3.2,0123*6F\r\n
$GPGGA,090826.85,5703.3769788,N,00952.2402866,E,2,10,0.8,-1.144,M,40.593,M,3.4,0123*6E\r\n
$GPGGA,090826.90,5703.3769690,N,00952.2402222,E,2,10,0.8,-1.141,M,40.593,M,3.4,0123*6D\r\n
$GPGGA,090826.95,5703.3769584,N,00952.2401565,E,2,10,0.8,-1.142,M,40.593,M,3.4,0123*6A\r\n
$GPGGA,090827.00,5703.3769475,N,00952.2400910,E,2,10,0.8,-1.143,M,40.593,M,3.4,0123*66\r\n
$GPGGA,090827.05,5703.3769373,N,00952.2400250,E,2,10,0.8,-1.145,M,40.593,M,3.6,0123*69\r\n
$GPGGA,090827.10,5703.3769273,N,00952.2399591,E,2,10,0.8,-1.145,M,40.593,M,3.6,0123*61\r\n
$GPGGA,090827.15,5703.3769155,N,00952.2398933,E,2,10,0.8,-1.145,M,40.593,M,3.6,0123*66\r\n
$GPGGA,090827.20,5703.3769041,N,00952.2398294,E,2,10,0.8,-1.146,M,40.593,M,3.6,0123*61\r\n
$GPGGA,090827.25,5703.3768925,N,00952.2397653,E,2,10,0.8,-1.151,M,40.593,M,1.7,0123*6B\r\n
$GPGGA,090827.30,5703.3768810,N,00952.2396998,E,2,10,0.8,-1.153,M,40.593,M,1.7,0123*63\r\n
$GPGGA,090827.35,5703.3768703,N,00952.2396352,E,2,10,0.8,-1.153,M,40.593,M,1.7,0123*67\r\n
$GPGGA,090827.40,5703.3768590,N,00952.2395722,E,2,10,0.8,-1.151,M,40.593,M,1.7,0123*6F\r\n
$GPGGA,090827.45,5703.3768463,N,00952.2395106,E,2,10,0.8,-1.150,M,40.593,M,2.0,0123*62\r\n
$GPGGA,090827.50,5703.3768341,N,00952.2394470,E,2,10,0.8,-1.151,M,40.593,M,2.0,0123*65\r\n
$GPGGA,090827.55,5703.3768223,N,00952.2393838,E,2,10,0.8,-1.151,M,40.593,M,2.0,0123*62\r\n
$GPGGA,090827.60,5703.3768113,N,00952.2393202,E,2,10,0.8,-1.149,M,40.593,M,2.0,0123*6E\r\n
$GPGGA,090827.65,5703.3768005,N,00952.2392566,E,2,10,0.8,-1.149,M,40.593,M,2.2,0123*6B\r\n
$GPGGA,090827.70,5703.3767894,N,00952.2391930,E,2,10,0.8,-1.147,M,40.593,M,2.2,0123*62\r\n
$GPGGA,090827.75,5703.3767791,N,00952.2391301,E,2,10,0.8,-1.144,M,40.593,M,2.2,0123*66\r\n
$GPGGA,090827.80,5703.3767685,N,00952.2390664,E,2,10,0.8,-1.143,M,40.593,M,2.2,0123*68\r\n
$GPGGA,090827.85,5703.3767601,N,00952.2390017,E,2,10,0.8,-1.142,M,40.593,M,2.4,0123*64\r\n
$GPGGA,090827.90,5703.3767502,N,00952.2389358,E,2,10,0.8,-1.143,M,40.593,M,2.4,0123*61\r\n
$GPGGA,090827.95,5703.3767392,N,00952.2388707,E,2,10,0.8,-1.143,M,40.593,M,2.4,0123*64\r\n
$GPGGA,090828.00,5703.3767286,N,00952.2388048,E,2,10,0.8,-1.144,M,40.593,M,2.4,0123*68\r\n
$GPGGA,090828.05,5703.3767202,N,00952.2387404,E,2,10,0.8,-1.146,M,40.593,M,2.7,0123*63\r\n
$GPGGA,090828.10,5703.3767106,N,00952.2386756,E,2,10,0.8,-1.147,M,40.593,M,2.7,0123*64\r\n
$GPGGA,090828.15,5703.3766994,N,00952.2386103,E,2,10,0.8,-1.150,M,40.593,M,2.7,0123*63\r\n
$GPGGA,090828.20,5703.3766888,N,00952.2385452,E,2,10,0.8,-1.151,M,40.593,M,2.7,0123*6A\r\n
$GPGGA,090828.25,5703.3766777,N,00952.2384800,E,2,10,0.8,-1.149,M,40.593,M,1.9,0123*6E\r\n
$GPGGA,090828.30,5703.3766664,N,00952.2384161,E,2,10,0.8,-1.152,M,40.593,M,1.9,0123*6D\r\n
$GPGGA,090828.35,5703.3766554,N,00952.2383507,E,2,10,0.8,-1.153,M,40.593,M,1.9,0123*6A\r\n
$GPGGA,090828.40,5703.3766445,N,00952.2382865,E,2,10,0.8,-1.155,M,40.593,M,1.9,0123*67\r\n
$GPGGA,090828.45,5703.3766342,N,00952.2382218,E,2,10,0.8,-1.159,M,40.593,M,2.1,0123*65\r\n
$GPGGA,090828.50,5703.3766230,N,00952.2381564,E,2,10,0.8,-1.160,M,40.593,M,2.1,0123*60\r\n
$GPGGA,090828.55,5703.3766127,N,00952.2380915,E,2,10,0.8,-1.160,M,40.593,M,2.1,0123*6B\r\n
$GPGGA,090828.60,5703.3766023,N,00952.2380270,E,2,10,0.8,-1.162,M,40.593,M,2.1,0123*62\r\n
$GPGGA,090828.65,5703.3765927,N,00952.2379615,E,2,10,0.8,-1.161,M,40.593,M,2.3,0123*69\r\n
$GPGGA,090828.70,5703.3765839,N,00952.2378971,E,2,10,0.8,-1.158,M,40.593,M,2.3,0123*65\r\n
$GPGGA,090828.75,5703.3765736,N,00952.2378328,E,2,10,0.8,-1.158,M,40.593,M,2.3,0123*66\r\n
$GPGGA,090828.80,5703.3765656,N,00952.2377691,E,2,10,0.8,-1.155,M,40.593,M,2.3,0123*6E\r\n
$GPGGA,090828.85,5703.3765575,N,00952.2377050,E,2,10,0.8,-1.148,M,40.593,M,2.5,0123*68\r\n
$GPGGA,090828.90,5703.3765483,N,00952.2376405,E,2,10,0.8,-1.144,M,40.593,M,2.5,0123*6D\r\n
$GPGGA,090828.95,5703.3765391,N,00952.2375758,E,2,10,0.8,-1.139,M,40.593,M,2.5,0123*6E\r\n
$GPGGA,090829.00,5703.3765299,N,00952.2375106,E,2,10,0.8,-1.137,M,40.593,M,2.5,0123*69\r\n
$GPGGA,090829.05,5703.3765217,N,00952.2374464,E,2,10,0.8,-1.138,M,40.593,M,2.7,0123*67\r\n
$GPGGA,090829.10,5703.3765117,N,00952.2373819,E,2,10,0.8,-1.136,M,40.593,M,2.7,0123*6F\r\n
$GPGGA,090829.15,5703.3765023,N,00952.2373172,E,2,10,0.8,-1.134,M,40.593,M,2.7,0123*6A\r\n
$GPGGA,090829.20,5703.3764926,N,00952.2372514,E,2,10,0.8,-1.134,M,40.593,M,2.7,0123*64\r\n
$GPGGA,090829.25,5703.3764819,N,00952.2371858,E,2,10,0.8,-1.136,M,40.593,M,2.9,0123*66\r\n
$GPGGA,090829.30,5703.3764714,N,00952.2371199,E,2,10,0.8,-1.139,M,40.593,M,2.9,0123*6B\r\n
$GPGGA,090829.35,5703.3764606,N,00952.2370560,E,2,10,0.8,-1.142,M,40.593,M,2.9,0123*63\r\n
$GPGGA,090829.40,5703.3764500,N,00952.2369922,E,2,10,0.8,-1.146,M,40.593,M,2.9,0123*62\r\n
$GPGGA,090829.45,5703.3764395,N,00952.2369277,E,2,10,0.8,-1.149,M,40.593,M,3.1,0123*60\r\n
$GPGGA,090829.50,5703.3764295,N,00952.2368627,E,2,10,0.8,-1.151,M,40.593,M,3.1,0123*6C\r\n
$GPGGA,090829.55,5703.3764194,N,00952.2367976,E,2,10,0.8,-1.154,M,40.593,M,3.1,0123*6A\r\n
$GPGGA,090829.60,5703.3764094,N,00952.2367320,E,2,10,0.8,-1.157,M,40.593,M,3.1,0123*67\r\n
$GPGGA,090829.65,5703.3763988,N,00952.2366678,E,2,10,0.8,-1.163,M,40.593,M,3.4,0123*6A\r\n
$GPGGA,090829.70,5703.3763891,N,00952.2366038,E,2,10,0.8,-1.163,M,40.593,M,3.4,0123*65\r\n
$GPGGA,090829.75,5703.3763799,N,00952.2365389,E,2,10,0.8,-1.162,M,40.593,M,3.4,0123*6C\r\n
$GPGGA,090829.80,5703.3763704,N,00952.2364739,E,2,10,0.8,-1.162,M,40.593,M,3.4,0123*6C\r\n
$GPGGA,090829.85,5703.3763617,N,00952.2364096,E,2,10,0.8,-1.164,M,40.593,M,3.6,0123*6C\r\n
$GPGGA,090829.90,5703.3763534,N,00952.2363454,E,2,10,0.8,-1.162,M,40.593,M,3.6,0123*61\r\n
$GPGGA,090829.95,5703.3763441,N,00952.2362815,E,2,10,0.8,-1.163,M,40.593,M,3.6,0123*6E\r\n
$GPGGA,090830.00,5703.3763359,N,00952.2362162,E,2,10,0.8,-1.161,M,40.593,M,3.6,0123*6F\r\n
$GPGGA,090830.05,5703.3763282,N,00952.2361499,E,2,10,0.8,-1.159,M,40.593,M,3.8,0123*6A\r\n
$GPGGA,090830.10,5703.3763203,N,00952.2360838,E,2,10,0.8,-1.157,M,40.593,M,3.8,0123*6F\r\n
$GPGGA,090830.15,5703.3763114,N,00952.2360188,E,2,10,0.8,-1.156,M,40.593,M,3.8,0123*6C\r\n
$GPGGA,090830.20,5703.3763028,N,00952.2359518,E,2,10,0.8,-1.157,M,40.593,M,3.8,0123*62\r\n
$GPGGA,090830.25,5703.3762945,N,00952.2358862,E,2,10,0.8,-1.159,M,40.593,M,2.6,0123*64\r\n
$GPGGA,090830.30,5703.3762859,N,00952.2358213,E,2,10,0.8,-1.158,M,40.593,M,2.6,0123*61\r\n
$GPGGA,090830.35,5703.3762771,N,00952.2357574,E,2,10,0.8,-1.157,M,40.593,M,2.6,0123*67\r\n
$GPGGA,090830.40,5703.3762671,N,00952.2356916,E,2,10,0.8,-1.154,M,40.593,M,2.6,0123*6E\r\n
$GPGGA,090830.45,5703.3762581,N,00952.2356253,E,2,10,0.8,-1.155,M,40.593,M,2.9,0123*63\r\n
$GPGGA,090830.50,5703.3762487,N,00952.2355597,E,2,10,0.8,-1.154,M,40.593,M,2.9,0123*6D\r\n
$GPGGA,090830.55,5703.3762387,N,00952.2354941,E,2,10,0.8,-1.153,M,40.593,M,2.9,0123*6E\r\n
$GPGGA,090830.60,5703.3762290,N,00952.2354275,E,2,10,0.8,-1.153,M,40.593,M,2.9,0123*63\r\n
$GPGGA,090830.65,5703.3762201,N,00952.2353624,E,2,10,0.8,-1.152,M,40.593,M,3.2,0123*62\r\n
$GPGGA,090830.70,5703.3762109,N,00952.2352965,E,2,10,0.8,-1.152,M,40.593,M,3.2,0123*66\r\n
$GPGGA,090830.75,5703.3762014,N,00952.2352296,E,2,10,0.8,-1.155,M,40.593,M,3.2,0123*6E\r\n
$GPGGA,090830.80,5703.3761919,N,00952.2351615,E,2,10,0.8,-1.157,M,40.593,M,3.2,0123*6D\r\n
$GPGGA,090830.85,5703.3761831,N,00952.2350947,E,2,10,0.8,-1.158,M,40.593,M,3.4,0123*63\r\n
$GPGGA,090830.90,5703.3761747,N,00952.2350267,E,2,10,0.8,-1.158,M,40.593,M,3.4,0123*60\r\n
$GPGGA,090830.95,5703.3761660,N,00952.2349614,E,2,10,0.8,-1.156,M,40.593,M,3.4,0123*67\r\n
$GPGGA,090831.00,5703.3761580,N,00952.2348966,E,2,10,0.8,-1.156,M,40.593,M,3.4,0123*6C\r\n
$GPGGA,090831.05,5703.3761497,N,00952.2348319,E,2,10,0.8,-1.159,M,40.593,M,3.6,0123*61\r\n
$GPGGA,090831.10,5703.3761408,N,00952.2347673,E,2,10,0.8,-1.158,M,40.593,M,3.6,0123*64\r\n
$GPGGA,090831.15,5703.3761330,N,00952.2347016,E,2,10,0.8,-1.154,M,40.593,M,3.6,0123*64\r\n
$GPGGA,090831.20,5703.3761247,N,00952.2346344,E,2,10,0.8,-1.151,M,40.593,M,3.6,0123*63\r\n
$GPGGA,090831.25,5703.3761155,N,00952.2345686,E,2,10,0.8,-1.148,M,40.593,M,1.7,0123*65\r\n
$GPGGA,090831.30,5703.3761065,N,00952.2345035,E,2,10,0.8,-1.146,M,40.593,M,1.7,0123*63\r\n
$GPGGA,090831.35,5703.3760985,N,00952.2344378,E,2,10,0.8,-1.144,M,40.593,M,1.7,0123*69\r\n
$GPGGA,090831.40,5703.3760900,N,00952.2343709,E,2,10,0.8,-1.143,M,40.593,M,1.7,0123*64\r\n
$GPGGA,090831.45,5703.3760819,N,00952.2343050,E,2,10,0.8,-1.148,M,40.593,M,2.0,0123*6C\r\n
$GPGGA,090831.50,5703.3760736,N,00952.2342375,E,2,10,0.8,-1.149,M,40.593,M,2.0,0123*6E\r\n
$GPGGA,090831.55,5703.3760651,N,00952.2341701,E,2,10,0.8,-1.152,M,40.593,M,2.0,0123*65\r\n
$GPGGA,090831.60,5703.3760555,N,00952.2341028,E,2,10,0.8,-1.154,M,40.593,M,2.0,0123*6E\r\n
$GPGGA,090831.65,5703.3760463,N,00952.2340362,E,2,10,0.8,-1.156,M,40.593,M,2.2,0123*63\r\n
$GPGGA,090831.70,5703.3760362,N,00952.2339683,E,2,10,0.8,-1.161,M,40.593,M,2.2,0123*61\r\n
$GPGGA,090831.75,5703.3760277,N,00952.2339009,E,2,10,0.8,-1.164,M,40.593,M,2.2,0123*60\r\n
$GPGGA,090831.80,5703.3760180,N,00952.2338325,E,2,10,0.8,-1.168,M,40.593,M,2.2,0123*61\r\n
$GPGGA,090831.85,5703.3760081,N,00952.2337662,E,2,10,0.8,-1.170,M,40.593,M,2.4,0123*62\r\n
$GPGGA,090831.90,5703.3759993,N,00952.2336999,E,2,10,0.8,-1.171,M,40.593,M,2.4,0123*6D\r\n
$GPGGA,090831.95,5703.3759910,N,00952.2336348,E,2,10,0.8,-1.169,M,40.593,M,2.4,0123*6C\r\n
$GPGGA,090832.00,5703.3759821,N,00952.2335683,E,2,10,0.8,-1.166,M,40.593,M,2.4,0123*6E\r\n
$GPGGA,090832.05,5703.3759732,N,00952.2335030,E,2,10,0.8,-1.162,M,40.593,M,2.7,0123*6F\r\n
$GPGGA,090832.10,5703.3759640,N,00952.2334374,E,2,10,0.8,-1.158,M,40.593,M,2.7,0123*64\r\n
$GPGGA,090832.15,5703.3759565,N,00952.2333717,E,2,10,0.8,-1.156,M,40.593,M,2.7,0123*6D\r\n
$GPGGA,090832.20,5703.3759484,N,00952.2333060,E,2,10,0.8,-1.153,M,40.593,M,2.7,0123*67\r\n
$GPGGA,090832.25,5703.3759411,N,00952.2332403,E,2,10,0.8,-1.146,M,40.593,M,1.9,0123*67\r\n
$GPGGA,090832.30,5703.3759338,N,00952.2331738,E,2,10,0.8,-1.144,M,40.593,M,1.9,0123*65\r\n
$GPGGA,090832.35,5703.3759254,N,00952.2331073,E,2,10,0.8,-1.144,M,40.593,M,1.9,0123*63\r\n
$GPGGA,090832.40,5703.3759176,N,00952.2330407,E,2,10,0.8,-1.141,M,40.593,M,1.9,0123*61\r\n
$GPGGA,090832.45,5703.3759101,N,00952.2329747,E,2,10,0.8,-1.144,M,40.593,M,2.1,0123*65\r\n
$GPGGA,090832.50,5703.3759023,N,00952.2329075,E,2,10,0.8,-1.146,M,40.593,M,2.1,0123*64\r\n
$GPGGA,090832.55,5703.3758943,N,00952.2328400,E,2,10,0.8,-1.147,M,40.593,M,2.1,0123*69\r\n
$GPGGA,090832.60,5703.3758868,N,00952.2327740,E,2,10,0.8,-1.150,M,40.593,M,2.1,0123*69\r\n
$GPGGA,090832.65,5703.3758791,N,00952.2327062,E,2,10,0.8,-1.152,M,40.593,M,2.3,0123*62\r\n
$GPGGA,090832.70,5703.3758706,N,00952.2326399,E,2,10,0.8,-1.155,M,40.593,M,2.3,0123*69\r\n
$GPGGA,090832.75,5703.3758630,N,00952.2325739,E,2,10,0.8,-1.157,M,40.593,M,2.3,0123*67\r\n
$GPGGA,090832.80,5703.3758545,N,00952.2325075,E,2,10,0.8,-1.158,M,40.593,M,2.3,0123*6C\r\n
$GPGGA,090832.85,5703.3758472,N,00952.2324397,E,2,10,0.8,-1.159,M,40.593,M,2.5,0123*65\r\n
$GPGGA,090832.90,5703.3758390,N,00952.2323726,E,2,10,0.8,-1.159,M,40.593,M,2.5,0123*63\r\n
$GPGGA,090832.95,5703.3758312,N,00952.2323052,E,2,10,0.8,-1.161,M,40.593,M,2.5,0123*63\r\n
$GPGGA,090833.00,5703.3758232,N,00952.2322385,E,2,10,0.8,-1.164,M,40.593,M,2.5,0123*60\r\n
$GPGGA,090833.05,5703.3758148,N,00952.2321717,E,2,10,0.8,-1.162,M,40.593,M,2.7,0123*63\r\n
$GPGGA,090833.10,5703.3758069,N,00952.2321048,E,2,10,0.8,-1.162,M,40.593,M,2.7,0123*68\r\n
$GPGGA,090833.15,5703.3757987,N,00952.2320379,E,2,10,0.8,-1.162,M,40.593,M,2.7,0123*6B\r\n
$GPGGA,090833.20,5703.3757908,N,00952.2319711,E,2,10,0.8,-1.160,M,40.593,M,2.7,0123*68\r\n
$GPGGA,090833.25,5703.3757833,N,00952.2319044,E,2,10,0.8,-1.155,M,40.593,M,2.9,0123*6B\r\n
$GPGGA,090833.30,5703.3757738,N,00952.2318368,E,2,10,0.8,-1.154,M,40.593,M,2.9,0123*66\r\n
$GPGGA,090833.35,5703.3757652,N,00952.2317706,E,2,10,0.8,-1.151,M,40.593,M,2.9,0123*68\r\n
$GPGGA,090833.40,5703.3757554,N,00952.2317036,E,2,10,0.8,-1.151,M,40.593,M,2.9,0123*6B\r\n
$GPGGA,090833.45,5703.3757462,N,00952.2316365,E,2,10,0.8,-1.155,M,40.593,M,3.1,0123*63\r\n
$GPGGA,090833.50,5703.3757386,N,00952.2315699,E,2,10,0.8,-1.156,M,40.593,M,3.1,0123*6C\r\n
$GPGGA,090833.55,5703.3757295,N,00952.2315030,E,2,10,0.8,-1.157,M,40.593,M,3.1,0123*6E\r\n
$GPGGA,090833.60,5703.3757204,N,00952.2314360,E,2,10,0.8,-1.157,M,40.593,M,3.1,0123*67\r\n
$GPGGA,090833.65,5703.3757123,N,00952.2313676,E,2,10,0.8,-1.159,M,40.593,M,3.4,0123*6A\r\n
$GPGGA,090833.70,5703.3757036,N,00952.2313006,E,2,10,0.8,-1.161,M,40.593,M,3.4,0123*61\r\n
$GPGGA,090833.75,5703.3756965,N,00952.2312346,E,2,10,0.8,-1.161,M,40.593,M,3.4,0123*6C\r\n
$GPGGA,090833.80,5703.3756897,N,00952.2311694,E,2,10,0.8,-1.160,M,40.593,M,3.4,0123*62\r\n
$GPGGA,090833.85,5703.3756824,N,00952.2311025,E,2,10,0.8,-1.158,M,40.593,M,3.6,0123*6A\r\n
$GPGGA,090833.90,5703.3756758,N,00952.2310350,E,2,10,0.8,-1.156,M,40.593,M,3.6,0123*64\r\n
$GPGGA,090833.95,5703.3756685,N,00952.2309679,E,2,10,0.8,-1.155,M,40.593,M,3.6,0123*65\r\n
$GPGGA,090834.00,5703.3756618,N,00952.2309011,E,2,10,0.8,-1.153,M,40.593,M,3.6,0123*64\r\n
$GPGGA,090834.05,5703.3756548,N,00952.2308336,E,2,10,0.8,-1.155,M,40.593,M,3.8,0123*68\r\n
$GPGGA,090834.10,5703.3756479,N,00952.2307663,E,2,10,0.8,-1.154,M,40.593,M,3.8,0123*64\r\n
$GPGGA,090834.15,5703.3756399,N,00952.2306995,E,2,10,0.8,-1.153,M,40.593,M,3.8,0123*68\r\n
$GPGGA,090834.20,5703.3756320,N,00952.2306324,E,2,10,0.8,-1.152,M,40.593,M,3.8,0123*6D\r\n
$GPGGA,090834.25,5703.3756245,N,00952.2305642,E,2,10,0.8,-1.153,M,40.593,M,2.6,0123*62\r\n
$GPGGA,090834.30,5703.3756161,N,00952.2304957,E,2,10,0.8,-1.154,M,40.593,M,2.6,0123*6E\r\n
$GPGGA,090834.35,5703.3756078,N,00952.2304268,E,2,10,0.8,-1.158,M,40.593,M,2.6,0123*69\r\n
$GPGGA,090834.40,5703.3755996,N,00952.2303598,E,2,10,0.8,-1.160,M,40.593,M,2.6,0123*65\r\n
$GPGGA,090834.45,5703.3755916,N,00952.2302914,E,2,10,0.8,-1.161,M,40.593,M,2.9,0123*6F\r\n
$GPGGA,090834.50,5703.3755840,N,00952.2302230,E,2,10,0.8,-1.162,M,40.593,M,2.9,0123*67\r\n
$GPGGA,090834.55,5703.3755763,N,00952.2301563,E,2,10,0.8,-1.162,M,40.593,M,2.9,0123*6E\r\n
$GPGGA,090834.60,5703.3755682,N,00952.2300898,E,2,10,0.8,-1.160,M,40.593,M,2.9,0123*6C\r\n
$GPGGA,090834.65,5703.3755601,N,00952.2300238,E,2,10,0.8,-1.161,M,40.593,M,3.2,0123*69\r\n
$GPGGA,090834.70,5703.3755515,N,00952.2299569,E,2,10,0.8,-1.160,M,40.593,M,3.2,0123*68\r\n
$GPGGA,090834.75,5703.3755426,N,00952.2298907,E,2,10,0.8,-1.158,M,40.593,M,3.2,0123*62\r\n
$GPGGA,090834.80,5703.3755336,N,00952.2298237,E,2,10,0.8,-1.158,M,40.593,M,3.2,0123*66\r\n
$GPGGA,090834.85,5703.3755250,N,00952.2297576,E,2,10,0.8,-1.156,M,40.593,M,3.4,0123*67\r\n
$GPGGA,090834.90,5703.3755173,N,00952.2296902,E,2,10,0.8,-1.155,M,40.593,M,3.4,0123*6C\r\n
$GPGGA,090834.95,5703.3755103,N,00952.2296241,E,2,10,0.8,-1.151,M,40.593,M,3.4,0123*66\r\n
$GPGGA,090835.00,5703.3755023,N,00952.2295574,E,2,10,0.8,-1.151,M,40.593,M,3.4,0123*6A\r\n
$GPGGA,090835.05,5703.3754944,N,00952.2294903,E,2,10,0.8,-1.152,M,40.593,M,3.6,0123*6A\r\n
$GPGGA,090835.10,5703.3754871,N,00952.2294220,E,2,10,0.8,-1.152,M,40.593,M,3.6,0123*63\r\n
$GPGGA,090835.15,5703.3754795,N,00952.2293524,E,2,10,0.8,-1.150,M,40.593,M,3.6,0123*65\r\n
$GPGGA,090835.20,5703.3754729,N,00952.2292836,E,2,10,0.8,-1.150,M,40.593,M,3.6,0123*6B\r\n
$GPGGA,090835.25,5703.3754649,N,00952.2292149,E,2,10,0.8,-1.155,M,40.593,M,1.7,0123*6E\r\n
$GPGGA,090835.30,5703.3754575,N,00952.2291485,E,2,10,0.8,-1.157,M,40.593,M,1.7,0123*62\r\n
$GPGGA,090835.35,5703.3754493,N,00952.2290796,E,2,10,0.8,-1.158,M,40.593,M,1.7,0123*61\r\n
$GPGGA,090835.40,5703.3754413,N,00952.2290106,E,2,10,0.8,-1.159,M,40.593,M,1.7,0123*65\r\n
$GPGGA,090835.45,5703.3754338,N,00952.2289420,E,2,10,0.8,-1.161,M,40.593,M,2.0,0123*68\r\n
$GPGGA,090835.50,5703.3754249,N,00952.2288733,E,2,10,0.8,-1.164,M,40.593,M,2.0,0123*6E\r\n
$GPGGA,090835.55,5703.3754166,N,00952.2288066,E,2,10,0.8,-1.166,M,40.593,M,2.0,0123*60\r\n
$GPGGA,090835.60,5703.3754098,N,00952.2287387,E,2,10,0.8,-1.166,M,40.593,M,2.0,0123*65\r\n
$GPGGA,090835.65,5703.3754025,N,00952.2286703,E,2,10,0.8,-1.168,M,40.593,M,2.2,0123*63\r\n
$GPGGA,090835.70,5703.3753943,N,00952.2286028,E,2,10,0.8,-1.170,M,40.593,M,2.2,0123*6E\r\n
$GPGGA,090835.75,5703.3753861,N,00952.2285351,E,2,10,0.8,-1.168,M,40.593,M,2.2,0123*6D\r\n
$GPGGA,090835.80,5703.3753788,N,00952.2284684,E,2,10,0.8,-1.167,M,40.593,M,2.2,0123*6C\r\n
$GPGGA,090835.85,5703.3753723,N,00952.2284033,E,2,10,0.8,-1.164,M,40.593,M,2.4,0123*67\r\n
$GPGGA,090835.90,5703.3753649,N,00952.2283369,E,2,10,0.8,-1.161,M,40.593,M,2.4,0123*60\r\n
$GPGGA,090835.95,5703.3753560,N,00952.2282689,E,2,10,0.8,-1.158,M,40.593,M,2.4,0123*6D\r\n
$GPGGA,090836.00,5703.3753480,N,00952.2282018,E,2,10,0.8,-1.156,M,40.593,M,2.4,0123*6D\r\n
$GPGGA,090836.05,5703.3753398,N,00952.2281339,E,2,10,0.8,-1.153,M,40.593,M,2.7,0123*63\r\n
$GPGGA,090836.10,5703.3753307,N,00952.2280655,E,2,10,0.8,-1.151,M,40.593,M,2.7,0123*6D\r\n
$GPGGA,090836.15,5703.3753221,N,00952.2279992,E,2,10,0.8,-1.150,M,40.593,M,2.7,0123*6E\r\n
$GPGGA,090836.20,5703.3753144,N,00952.2279312,E,2,10,0.8,-1.150,M,40.593,M,2.7,0123*6A\r\n
$GPGGA,090836.25,5703.3753058,N,00952.2278625,E,2,10,0.8,-1.150,M,40.593,M,1.9,0123*6E\r\n
$GPGGA,090836.30,5703.3752974,N,00952.2277944,E,2,10,0.8,-1.152,M,40.593,M,1.9,0123*69\r\n
$GPGGA,090836.35,5703.3752891,N,00952.2277260,E,2,10,0.8,-1.154,M,40.593,M,1.9,0123*6D\r\n
$GPGGA,090836.40,5703.3752808,N,00952.2276585,E,2,10,0.8,-1.156,M,40.593,M,1.9,0123*60\r\n
$GPGGA,090836.45,5703.3752727,N,00952.2275906,E,2,10,0.8,-1.159,M,40.593,M,2.1,0123*67\r\n
$GPGGA,090836.50,5703.3752637,N,00952.2275221,E,2,10,0.8,-1.162,M,40.593,M,2.1,0123*65\r\n
$GPGGA,090836.55,5703.3752567,N,00952.2274539,E,2,10,0.8,-1.163,M,40.593,M,2.1,0123*68\r\n
$GPGGA,090836.60,5703.3752491,N,00952.2273859,E,2,10,0.8,-1.163,M,40.593,M,2.1,0123*6A\r\n
$GPGGA,090836.65,5703.3752405,N,00952.2273183,E,2,10,0.8,-1.161,M,40.593,M,2.3,0123*6C\r\n
$GPGGA,090836.70,5703.3752324,N,00952.2272501,E,2,10,0.8,-1.161,M,40.593,M,2.3,0123*63\r\n
$GPGGA,090836.75,5703.3752246,N,00952.2271842,E,2,10,0.8,-1.161,M,40.593,M,2.3,0123*6A\r\n
$GPGGA,090836.80,5703.3752165,N,00952.2271177,E,2,10,0.8,-1.161,M,40.593,M,2.3,0123*6D\r\n
$GPGGA,090836.85,5703.3752069,N,00952.2270500,E,2,10,0.8,-1.161,M,40.593,M,2.5,0123*66\r\n
$GPGGA,090836.90,5703.3751980,N,00952.2269814,E,2,10,0.8,-1.161,M,40.593,M,2.5,0123*6F\r\n
$GPGGA,090836.95,5703.3751893,N,00952.2269140,E,2,10,0.8,-1.164,M,40.593,M,2.5,0123*64\r\n
$GPGGA,090837.00,5703.3751813,N,00952.2268473,E,2,10,0.8,-1.165,M,40.593,M,2.5,0123*64\r\n
$GPGGA,090837.05,5703.3751734,N,00952.2267778,E,2,10,0.8,-1.162,M,40.593,M,2.7,0123*69\r\n
$GPGGA,090837.10,5703.3751652,N,00952.2267097,E,2,10,0.8,-1.160,M,40.593,M,2.7,0123*68\r\n
$GPGGA,090837.15,5703.3751566,N,00952.2266427,E,2,10,0.8,-1.162,M,40.593,M,2.7,0123*65\r\n
$GPGGA,090837.20,5703.3751492,N,00952.2265749,E,2,10,0.8,-1.163,M,40.593,M,2.7,0123*60\r\n
$GPGGA,090837.25,5703.3751411,N,00952.2265067,E,2,10,0.8,-1.162,M,40.593,M,2.9,0123*6A\r\n
$GPGGA,090837.30,5703.3751334,N,00952.2264397,E,2,10,0.8,-1.161,M,40.593,M,2.9,0123*60\r\n
$GPGGA,090837.35,5703.3751261,N,00952.2263726,E,2,10,0.8,-1.158,M,40.593,M,2.9,0123*67\r\n
$GPGGA,090837.40,5703.3751172,N,00952.2263052,E,2,10,0.8,-1.157,M,40.593,M,2.9,0123*6F\r\n
$GPGGA,090837.45,5703.3751084,N,00952.2262373,E,2,10,0.8,-1.156,M,40.593,M,3.1,0123*6B\r\n
$GPGGA,090837.50,5703.3751000,N,00952.2261691,E,2,10,0.8,-1.156,M,40.593,M,3.1,0123*69\r\n
$GPGGA,090837.55,5703.3750919,N,00952.2261029,E,2,10,0.8,-1.155,M,40.593,M,3.1,0123*6A\r\n
$GPGGA,090837.60,5703.3750837,N,00952.2260354,E,2,10,0.8,-1.153,M,40.593,M,3.1,0123*6F\r\n
$GPGGA,090837.65,5703.3750755,N,00952.2259681,E,2,10,0.8,-1.153,M,40.593,M,3.4,0123*63\r\n
$GPGGA,090837.70,5703.3750666,N,00952.2259002,E,2,10,0.8,-1.154,M,40.593,M,3.4,0123*6C\r\n
$GPGGA,090837.75,5703.3750580,N,00952.2258326,E,2,10,0.8,-1.156,M,40.593,M,3.4,0123*64\r\n
$GPGGA,090837.80,5703.3750488,N,00952.2257629,E,2,10,0.8,-1.160,M,40.593,M,3.4,0123*67\r\n
$GPGGA,090837.85,5703.3750404,N,00952.2256947,E,2,10,0.8,-1.161,M,40.593,M,3.6,0123*63\r\n
$GPGGA,090837.90,5703.3750324,N,00952.2256266,E,2,10,0.8,-1.163,M,40.593,M,3.6,0123*68\r\n
$GPGGA,090837.95,5703.3750245,N,00952.2255578,E,2,10,0.8,-1.167,M,40.593,M,3.6,0123*64\r\n
$GPGGA,090838.00,5703.3750160,N,00952.2254900,E,2,10,0.8,-1.169,M,40.593,M,3.6,0123*6F\r\n
$GPGGA,090838.05,5703.3750082,N,00952.2254219,E,2,10,0.8,-1.169,M,40.593,M,3.8,0123*6A\r\n
$GPGGA,090838.10,5703.3749996,N,00952.2253555,E,2,10,0.8,-1.168,M,40.593,M,3.8,0123*63\r\n
$GPGGA,090838.15,5703.3749904,N,00952.2252892,E,2,10,0.8,-1.168,M,40.593,M,3.8,0123*6A\r\n
$GPGGA,090838.20,5703.3749816,N,00952.2252223,E,2,10,0.8,-1.166,M,40.593,M,3.8,0123*60\r\n
$GPGGA,090838.25,5703.3749726,N,00952.2251564,E,2,10,0.8,-1.162,M,40.593,M,2.6,0123*65\r\n
$GPGGA,090838.30,5703.3749641,N,00952.2250894,E,2,10,0.8,-1.159,M,40.593,M,2.6,0123*6A\r\n
$GPGGA,090838.35,5703.3749557,N,00952.2250214,E,2,10,0.8,-1.156,M,40.593,M,2.6,0123*66\r\n
$GPGGA,090838.40,5703.3749472,N,00952.2249528,E,2,10,0.8,-1.156,M,40.593,M,2.6,0123*62\r\n
$GPGGA,090838.45,5703.3749385,N,00952.2248843,E,2,10,0.8,-1.159,M,40.593,M,2.9,0123*69\r\n
$GPGGA,090838.50,5703.3749294,N,00952.2248160,E,2,10,0.8,-1.159,M,40.593,M,2.9,0123*64\r\n
$GPGGA,090838.55,5703.3749214,N,00952.2247474,E,2,10,0.8,-1.161,M,40.593,M,2.9,0123*6D\r\n
$GPGGA,090838.60,5703.3749135,N,00952.2246792,E,2,10,0.8,-1.163,M,40.593,M,2.9,0123*63\r\n
$GPGGA,090838.65,5703.3749055,N,00952.2246100,E,2,10,0.8,-1.164,M,40.593,M,3.2,0123*61\r\n
$GPGGA,090838.70,5703.3748980,N,00952.2245430,E,2,10,0.8,-1.164,M,40.593,M,3.2,0123*60\r\n
$GPGGA,090838.75,5703.3748890,N,00952.2244744,E,2,10,0.8,-1.164,M,40.593,M,3.2,0123*64\r\n
$GPGGA,090838.80,5703.3748803,N,00952.2244070,E,2,10,0.8,-1.164,M,40.593,M,3.2,0123*64\r\n
$GPGGA,090838.85,5703.3748710,N,00952.2243400,E,2,10,0.8,-1.161,M,40.593,M,3.4,0123*6B\r\n
$GPGGA,090838.90,5703.3748625,N,00952.2242729,E,2,10,0.8,-1.160,M,40.593,M,3.4,0123*60\r\n
$GPGGA,090838.95,5703.3748539,N,00952.2242060,E,2,10,0.8,-1.159,M,40.593,M,3.4,0123*6B\r\n
$GPGGA,090839.00,5703.3748444,N,00952.2241400,E,2,10,0.8,-1.157,M,40.593,M,3.4,0123*62\r\n
$GPGGA,090839.05,5703.3748353,N,00952.2240738,E,2,10,0.8,-1.152,M,40.593,M,3.6,0123*68\r\n
$GPGGA,090839.10,5703.3748260,N,00952.2240068,E,2,10,0.8,-1.151,M,40.593,M,3.6,0123*6C\r\n
$GPGGA,090839.15,5703.3748159,N,00952.2239399,E,2,10,0.8,-1.150,M,40.593,M,3.6,0123*62\r\n
$GPGGA,090839.20,5703.3748071,N,00952.2238725,E,2,10,0.8,-1.148,M,40.593,M,3.6,0123*64\r\n
$GPGGA,090839.25,5703.3747986,N,00952.2238045,E,2,10,0.8,-1.150,M,40.593,M,1.7,0123*64\r\n
$GPGGA,090839.30,5703.3747889,N,00952.2237364,E,2,10,0.8,-1.151,M,40.593,M,1.7,0123*60\r\n
$GPGGA,090839.35,5703.3747792,N,00952.2236680,E,2,10,0.8,-1.152,M,40.593,M,1.7,0123*6D\r\n
$GPGGA,090839.40,5703.3747698,N,00952.2236003,E,2,10,0.8,-1.152,M,40.593,M,1.7,0123*69\r\n
$GPGGA,090839.45,5703.3747609,N,00952.2235327,E,2,10,0.8,-1.155,M,40.593,M,2.0,0123*61\r\n
$GPGGA,090839.50,5703.3747511,N,00952.2234636,E,2,10,0.8,-1.158,M,40.593,M,2.0,0123*66\r\n
$GPGGA,090839.55,5703.3747424,N,00952.2233957,E,2,10,0.8,-1.162,M,40.593,M,2.0,0123*62\r\n
$GPGGA,090839.60,5703.3747327,N,00952.2233284,E,2,10,0.8,-1.164,M,40.593,M,2.0,0123*63\r\n
$GPGGA,090839.65,5703.3747242,N,00952.2232606,E,2,10,0.8,-1.168,M,40.593,M,2.2,0123*65\r\n
$GPGGA,090839.70,5703.3747149,N,00952.2231933,E,2,10,0.8,-1.169,M,40.593,M,2.2,0123*62\r\n
$GPGGA,090839.75,5703.3747057,N,00952.2231267,E,2,10,0.8,-1.169,M,40.593,M,2.2,0123*63\r\n
$GPGGA,090839.80,5703.3746964,N,00952.2230607,E,2,10,0.8,-1.169,M,40.593,M,2.2,0123*62\r\n
$GPGGA,090839.85,5703.3746873,N,00952.2229943,E,2,10,0.8,-1.166,M,40.593,M,2.4,0123*6E\r\n
$GPGGA,090839.90,5703.3746774,N,00952.2229277,E,2,10,0.8,-1.164,M,40.593,M,2.4,0123*6C\r\n
$GPGGA,090839.95,5703.3746689,N,00952.2228599,E,2,10,0.8,-1.162,M,40.593,M,2.4,0123*6A\r\n
$GPGGA,090840.00,5703.3746597,N,00952.2227934,E,2,10,0.8,-1.161,M,40.593,M,2.4,0123*63\r\n
$GPGGA,090840.05,5703.3746503,N,00952.2227263,E,2,10,0.8,-1.159,M,40.593,M,2.7,0123*6A\r\n
$GPGGA,090840.10,5703.3746395,N,00952.2226595,E,2,10,0.8,-1.157,M,40.593,M,2.7,0123*66\r\n
$GPGGA,090840.15,5703.3746303,N,00952.2225917,E,2,10,0.8,-1.158,M,40.593,M,2.7,0123*66\r\n
$GPGGA,090840.20,5703.3746218,N,00952.2225239,E,2,10,0.8,-1.158,M,40.593,M,2.7,0123*6C\r\n
$GPGGA,090840.25,5703.3746110,N,00952.2224556,E,2,10,0.8,-1.161,M,40.593,M,1.9,0123*6A\r\n
$GPGGA,090840.30,5703.3746010,N,00952.2223885,E,2,10,0.8,-1.161,M,40.593,M,1.9,0123*6B\r\n
$GPGGA,090840.35,5703.3745910,N,00952.2223220,E,2,10,0.8,-1.164,M,40.593,M,1.9,0123*64\r\n
$GPGGA,090840.40,5703.3745810,N,00952.2222539,E,2,10,0.8,-1.166,M,40.593,M,1.9,0123*6B\r\n
$GPGGA,090840.45,5703.3745712,N,00952.2221864,E,2,10,0.8,-1.162,M,40.593,M,2.1,0123*6A\r\n
$GPGGA,090840.50,5703.3745618,N,00952.2221200,E,2,10,0.8,-1.157,M,40.593,M,2.1,0123*6B\r\n
$GPGGA,090840.55,5703.3745510,N,00952.2220543,E,2,10,0.8,-1.154,M,40.593,M,2.1,0123*67\r\n
$GPGGA,090840.60,5703.3745407,N,00952.2219903,E,2,10,0.8,-1.154,M,40.593,M,2.1,0123*64\r\n
$GPGGA,090840.65,5703.3745300,N,00952.2219244,E,2,10,0.8,-1.154,M,40.593,M,2.3,0123*6B\r\n
$GPGGA,090840.70,5703.3745198,N,00952.2218569,E,2,10,0.8,-1.154,M,40.593,M,2.3,0123*65\r\n
$GPGGA,090840.75,5703.3745097,N,00952.2217895,E,2,10,0.8,-1.152,M,40.593,M,2.3,0123*69\r\n
$GPGGA,090840.80,5703.3745000,N,00952.2217240,E,2,10,0.8,-1.151,M,40.593,M,2.3,0123*6C\r\n
$GPGGA,090840.85,5703.3744887,N,00952.2216572,E,2,10,0.8,-1.152,M,40.593,M,2.5,0123*6D\r\n
$GPGGA,090840.90,5703.3744788,N,00952.2215899,E,2,10,0.8,-1.151,M,40.593,M,2.5,0123*61\r\n
$GPGGA,090840.95,5703.3744684,N,00952.2215217,E,2,10,0.8,-1.154,M,40.593,M,2.5,0123*60\r\n
$GPGGA,090841.00,5703.3744588,N,00952.2214546,E,2,10,0.8,-1.155,M,40.593,M,2.5,0123*61\r\n
$GPGGA,090841.05,5703.3744478,N,00952.2213873,E,2,10,0.8,-1.162,M,40.593,M,2.7,0123*60\r\n
$GPGGA,090841.10,5703.3744383,N,00952.2213209,E,2,10,0.8,-1.164,M,40.593,M,2.7,0123*66\r\n
$GPGGA,090841.15,5703.3744280,N,00952.2212529,E,2,10,0.8,-1.165,M,40.593,M,2.7,0123*64\r\n
$GPGGA,090841.20,5703.3744178,N,00952.2211856,E,2,10,0.8,-1.166,M,40.593,M,2.7,0123*63\r\n
$GPGGA,090841.25,5703.3744060,N,00952.2211195,E,2,10,0.8,-1.165,M,40.593,M,2.9,0123*65\r\n
$GPGGA,090841.30,5703.3743953,N,00952.2210527,E,2,10,0.8,-1.166,M,40.593,M,2.9,0123*60\r\n
$GPGGA,090841.35,5703.3743842,N,00952.2209862,E,2,10,0.8,-1.166,M,40.593,M,2.9,0123*60\r\n
$GPGGA,090841.40,5703.3743730,N,00952.2209202,E,2,10,0.8,-1.165,M,40.593,M,2.9,0123*67\r\n
$GPGGA,090841.45,5703.3743620,N,00952.2208557,E,2,10,0.8,-1.168,M,40.593,M,3.1,0123*60\r\n
$GPGGA,090841.50,5703.3743517,N,00952.2207908,E,2,10,0.8,-1.167,M,40.593,M,3.1,0123*65\r\n
$GPGGA,090841.55,5703.3743406,N,00952.2207243,E,2,10,0.8,-1.166,M,40.593,M,3.1,0123*64\r\n
$GPGGA,090841.60,5703.3743282,N,00952.2206580,E,2,10,0.8,-1.165,M,40.593,M,3.1,0123*62\r\n
$GPGGA,090841.65,5703.3743175,N,00952.2205920,E,2,10,0.8,-1.161,M,40.593,M,3.4,0123*68\r\n
$GPGGA,090841.70,5703.3743067,N,00952.2205254,E,2,10,0.8,-1.159,M,40.593,M,3.4,0123*6D\r\n
$GPGGA,090841.75,5703.3742960,N,00952.2204578,E,2,10,0.8,-1.160,M,40.593,M,3.4,0123*65\r\n
$GPGGA,090841.80,5703.3742848,N,00952.2203905,E,2,10,0.8,-1.161,M,40.593,M,3.4,0123*64\r\n
$GPGGA,090841.85,5703.3742751,N,00952.2203243,E,2,10,0.8,-1.163,M,40.593,M,3.6,0123*6F\r\n
$GPGGA,090841.90,5703.3742634,N,00952.2202578,E,2,10,0.8,-1.159,M,40.593,M,3.6,0123*6E\r\n
$GPGGA,090841.95,5703.3742512,N,00952.2201930,E,2,10,0.8,-1.161,M,40.593,M,3.6,0123*64\r\n
$GPGGA,090842.00,5703.3742392,N,00952.2201267,E,2,10,0.8,-1.161,M,40.593,M,3.6,0123*6C\r\n
$GPGGA,090842.05,5703.3742278,N,00952.2200602,E,2,10,0.8,-1.158,M,40.593,M,3.8,0123*6E\r\n
$GPGGA,090842.10,5703.3742163,N,00952.2199955,E,2,10,0.8,-1.157,M,40.593,M,3.8,0123*62\r\n
$GPGGA,090842.15,5703.3742039,N,00952.2199296,E,2,10,0.8,-1.155,M,40.593,M,3.8,0123*6F\r\n
$GPGGA,090842.20,5703.3741933,N,00952.2198642,E,2,10,0.8,-1.156,M,40.593,M,3.8,0123*66\r\n
$GPGGA,090842.25,5703.3741826,N,00952.2197982,E,2,10,0.8,-1.158,M,40.593,M,4.0,0123*6B\r\n
$GPGGA,090842.30,5703.3741720,N,00952.2197338,E,2,10,0.8,-1.159,M,40.593,M,4.0,0123*6C\r\n
$GPGGA,090842.35,5703.3741612,N,00952.2196670,E,2,10,0.8,-1.158,M,40.593,M,4.0,0123*60\r\n
$GPGGA,090842.40,5703.3741500,N,00952.2196000,E,2,10,0.8,-1.159,M,40.593,M,4.0,0123*62\r\n
$GPGGA,090842.45,5703.3741384,N,00952.2195328,E,2,10,0.8,-1.156,M,40.593,M,2.9,0123*67\r\n
$GPGGA,090842.50,5703.3741265,N,00952.2194666,E,2,10,0.8,-1.157,M,40.593,M,2.9,0123*62\r\n
$GPGGA,090842.55,5703.3741160,N,00952.2193991,E,2,10,0.8,-1.161,M,40.593,M,2.9,0123*64\r\n
$GPGGA,090842.60,5703.3741039,N,00952.2193318,E,2,10,0.8,-1.165,M,40.593,M,2.9,0123*60\r\n
$GPGGA,090842.65,5703.3740915,N,00952.2192654,E,2,10,0.8,-1.167,M,40.593,M,3.2,0123*67\r\n
$GPGGA,090842.70,5703.3740784,N,00952.2191981,E,2,10,0.8,-1.171,M,40.593,M,3.2,0123*66\r\n
$GPGGA,090842.75,5703.3740655,N,00952.2191328,E,2,10,0.8,-1.175,M,40.593,M,3.2,0123*63\r\n
$GPGGA,090842.80,5703.3740541,N,00952.2190671,E,2,10,0.8,-1.175,M,40.593,M,3.2,0123*67\r\n
$GPGGA,090842.85,5703.3740411,N,00952.2190019,E,2,10,0.8,-1.172,M,40.593,M,3.4,0123*6F\r\n
$GPGGA,090842.90,5703.3740298,N,00952.2189374,E,2,10,0.8,-1.168,M,40.593,M,3.4,0123*67\r\n
$GPGGA,090842.95,5703.3740164,N,00952.2188722,E,2,10,0.8,-1.168,M,40.593,M,3.4,0123*64\r\n
$GPGGA,090843.00,5703.3740037,N,00952.2188082,E,2,10,0.8,-1.167,M,40.593,M,3.4,0123*6C\r\n
$GPGGA,090843.05,5703.3739924,N,00952.2187446,E,2,10,0.8,-1.163,M,40.593,M,3.6,0123*69\r\n
$GPGGA,090843.10,5703.3739803,N,00952.2186796,E,2,10,0.8,-1.161,M,40.593,M,3.6,0123*64\r\n
$GPGGA,090843.15,5703.3739695,N,00952.2186144,E,2,10,0.8,-1.157,M,40.593,M,3.6,0123*6C\r\n
$GPGGA,090843.20,5703.3739579,N,00952.2185488,E,2,10,0.8,-1.154,M,40.593,M,3.6,0123*6E\r\n
$GPGGA,090843.25,5703.3739461,N,00952.2184834,E,2,10,0.8,-1.148,M,40.593,M,3.9,0123*6B\r\n
$GPGGA,090843.30,5703.3739333,N,00952.2184177,E,2,10,0.8,-1.145,M,40.593,M,3.9,0123*6C\r\n
$GPGGA,090843.35,5703.3739215,N,00952.2183523,E,2,10,0.8,-1.144,M,40.593,M,3.9,0123*6F\r\n
$GPGGA,090843.40,5703.3739096,N,00952.2182862,E,2,10,0.8,-1.144,M,40.593,M,3.9,0123*6D\r\n
$GPGGA,090843.45,5703.3738978,N,00952.2182201,E,2,10,0.8,-1.146,M,40.593,M,2.0,0123*65\r\n
$GPGGA,090843.50,5703.3738859,N,00952.2181535,E,2,10,0.8,-1.147,M,40.593,M,2.0,0123*61\r\n
$GPGGA,090843.55,5703.3738742,N,00952.2180874,E,2,10,0.8,-1.149,M,40.593,M,2.0,0123*66\r\n
$GPGGA,090843.60,5703.3738621,N,00952.2180218,E,2,10,0.8,-1.151,M,40.593,M,2.0,0123*6D\r\n
$GPGGA,090843.65,5703.3738507,N,00952.2179558,E,2,10,0.8,-1.157,M,40.593,M,2.2,0123*6E\r\n
$GPGGA,090843.70,5703.3738381,N,00952.2178918,E,2,10,0.8,-1.161,M,40.593,M,2.2,0123*6E\r\n
$GPGGA,090843.75,5703.3738247,N,00952.2178259,E,2,10,0.8,-1.164,M,40.593,M,2.2,0123*6B\r\n
$GPGGA,090843.80,5703.3738116,N,00952.2177597,E,2,10,0.8,-1.166,M,40.593,M,2.2,0123*6E\r\n
$GPGGA,090843.85,5703.3737975,N,00952.2176952,E,2,10,0.8,-1.167,M,40.593,M,2.4,0123*6A\r\n
$GPGGA,090843.90,5703.3737845,N,00952.2176313,E,2,10,0.8,-1.166,M,40.593,M,2.4,0123*62\r\n
$GPGGA,090843.95,5703.3737711,N,00952.2175675,E,2,10,0.8,-1.165,M,40.593,M,2.4,0123*6C\r\n
$GPGGA,090844.00,5703.3737587,N,00952.2175032,E,2,10,0.8,-1.166,M,40.593,M,2.4,0123*6C\r\n
$GPGGA,090844.05,5703.3737444,N,00952.2174377,E,2,10,0.8,-1.171,M,40.593,M,2.7,0123*61\r\n
$GPGGA,090844.10,5703.3737310,N,00952.2173739,E,2,10,0.8,-1.172,M,40.593,M,2.7,0123*69\r\n
$GPGGA,090844.15,5703.3737174,N,00952.2173105,E,2,10,0.8,-1.172,M,40.593,M,2.7,0123*65\r\n
$GPGGA,090844.20,5703.3737045,N,00952.2172454,E,2,10,0.8,-1.168,M,40.593,M,2.7,0123*6B\r\n
$GPGGA,090844.25,5703.3736906,N,00952.2171815,E,2,10,0.8,-1.166,M,40.593,M,2.9,0123*6B\r\n
$GPGGA,090844.30,5703.3736773,N,00952.2171163,E,2,10,0.8,-1.168,M,40.593,M,2.9,0123*65\r\n
$GPGGA,090844.35,5703.3736643,N,00952.2170497,E,2,10,0.8,-1.168,M,40.593,M,2.9,0123*6D\r\n
$GPGGA,090844.40,5703.3736527,N,00952.2169860,E,2,10,0.8,-1.164,M,40.593,M,2.9,0123*6E\r\n
$GPGGA,090844.45,5703.3736405,N,00952.2169206,E,2,10,0.8,-1.163,M,40.593,M,2.1,0123*6F\r\n
$GPGGA,090844.50,5703.3736287,N,00952.2168565,E,2,10,0.8,-1.161,M,40.593,M,2.1,0123*66\r\n
$GPGGA,090844.55,5703.3736161,N,00952.2167916,E,2,10,0.8,-1.160,M,40.593,M,2.1,0123*6E\r\n
$GPGGA,090844.60,5703.3736022,N,00952.2167269,E,2,10,0.8,-1.159,M,40.593,M,2.1,0123*67\r\n
$GPGGA,090844.65,5703.3735892,N,00952.2166638,E,2,10,0.8,-1.159,M,40.593,M,2.3,0123*61\r\n
$GPGGA,090844.70,5703.3735751,N,00952.2165987,E,2,10,0.8,-1.159,M,40.593,M,2.3,0123*6D\r\n
$GPGGA,090844.75,5703.3735613,N,00952.2165336,E,2,10,0.8,-1.158,M,40.593,M,2.3,0123*6E\r\n
$GPGGA,090844.80,5703.3735470,N,00952.2164689,E,2,10,0.8,-1.156,M,40.593,M,2.3,0123*6D\r\n
$GPGGA,090844.85,5703.3735339,N,00952.2164049,E,2,10,0.8,-1.154,M,40.593,M,2.5,0123*6C\r\n
$GPGGA,090844.90,5703.3735201,N,00952.2163398,E,2,10,0.8,-1.153,M,40.593,M,2.5,0123*6D\r\n
$GPGGA,090844.95,5703.3735059,N,00952.2162759,E,2,10,0.8,-1.154,M,40.593,M,2.5,0123*68\r\n
$GPGGA,090845.00,5703.3734929,N,00952.2162120,E,2,10,0.8,-1.156,M,40.593,M,2.5,0123*60\r\n
$GPGGA,090845.05,5703.3734804,N,00952.2161456,E,2,10,0.8,-1.159,M,40.593,M,2.7,0123*61\r\n
$GPGGA,090845.10,5703.3734677,N,00952.2160804,E,2,10,0.8,-1.158,M,40.593,M,2.7,0123*64\r\n
$GPGGA,090845.15,5703.3734546,N,00952.2160154,E,2,10,0.8,-1.161,M,40.593,M,2.7,0123*66\r\n
$GPGGA,090845.20,5703.3734413,N,00952.2159504,E,2,10,0.8,-1.164,M,40.593,M,2.7,0123*6F\r\n
$GPGGA,090845.25,5703.3734269,N,00952.2158873,E,2,10,0.8,-1.166,M,40.593,M,2.9,0123*61\r\n
$GPGGA,090845.30,5703.3734127,N,00952.2158229,E,2,10,0.8,-1.165,M,40.593,M,2.9,0123*6A\r\n
$GPGGA,090845.35,5703.3733995,N,00952.2157572,E,2,10,0.8,-1.164,M,40.593,M,2.9,0123*6E\r\n
$GPGGA,090845.40,5703.3733861,N,00952.2156932,E,2,10,0.8,-1.163,M,40.593,M,2.9,0123*68\r\n
$GPGGA,090845.45,5703.3733732,N,00952.2156286,E,2,10,0.8,-1.161,M,40.593,M,3.1,0123*6B\r\n
$GPGGA,090845.50,5703.3733595,N,00952.2155651,E,2,10,0.8,-1.161,M,40.593,M,3.1,0123*6D\r\n
$GPGGA,090845.55,5703.3733446,N,00952.2155017,E,2,10,0.8,-1.161,M,40.593,M,3.1,0123*63\r\n
$GPGGA,090845.60,5703.3733311,N,00952.2154376,E,2,10,0.8,-1.160,M,40.593,M,3.1,0123*64\r\n
$GPGGA,090845.65,5703.3733172,N,00952.2153727,E,2,10,0.8,-1.160,M,40.593,M,3.4,0123*64\r\n
$GPGGA,090845.70,5703.3733038,N,00952.2153078,E,2,10,0.8,-1.159,M,40.593,M,3.4,0123*68\r\n
$GPGGA,090845.75,5703.3732893,N,00952.2152428,E,2,10,0.8,-1.158,M,40.593,M,3.4,0123*64\r\n
$GPGGA,090845.80,5703.3732753,N,00952.2151781,E,2,10,0.8,-1.159,M,40.593,M,3.4,0123*6F\r\n
$GPGGA,090845.85,5703.3732605,N,00952.2151145,E,2,10,0.8,-1.161,M,40.593,M,3.6,0123*6F\r\n
$GPGGA,090845.90,5703.3732473,N,00952.2150512,E,2,10,0.8,-1.161,M,40.593,M,3.6,0123*6F\r\n
$GPGGA,090845.95,5703.3732331,N,00952.2149868,E,2,10,0.8,-1.162,M,40.593,M,3.6,0123*60\r\n
$GPGGA,090846.00,5703.3732201,N,00952.2149236,E,2,10,0.8,-1.162,M,40.593,M,3.6,0123*6C\r\n
$GPGGA,090846.05,5703.3732052,N,00952.2148588,E,2,10,0.8,-1.161,M,40.593,M,3.8,0123*63\r\n
$GPGGA,090846.10,5703.3731916,N,00952.2147956,E,2,10,0.8,-1.160,M,40.593,M,3.8,0123*6C\r\n
$GPGGA,090846.15,5703.3731780,N,00952.2147331,E,2,10,0.8,-1.156,M,40.593,M,3.8,0123*66\r\n
$GPGGA,090846.20,5703.3731642,N,00952.2146710,E,2,10,0.8,-1.155,M,40.593,M,3.8,0123*6A\r\n
$GPGGA,090846.25,5703.3731501,N,00952.2146089,E,2,10,0.8,-1.157,M,40.593,M,4.0,0123*61\r\n
$GPGGA,090846.30,5703.3731370,N,00952.2145463,E,2,10,0.8,-1.156,M,40.593,M,4.0,0123*67\r\n
$GPGGA,090846.35,5703.3731237,N,00952.2144826,E,2,10,0.8,-1.155,M,40.593,M,4.0,0123*6F\r\n
$GPGGA,090846.40,5703.3731091,N,00952.2144194,E,2,10,0.8,-1.151,M,40.593,M,4.0,0123*67\r\n
$GPGGA,090846.45,5703.3730935,N,00952.2143578,E,2,10,0.8,-1.149,M,40.593,M,0.7,0123*6F\r\n
$GPGGA,090846.50,5703.3730798,N,00952.2142957,E,2,10,0.8,-1.149,M,40.593,M,0.7,0123*62\r\n
$GPGGA,090846.55,5703.3730666,N,00952.2142315,E,2,10,0.8,-1.150,M,40.593,M,0.7,0123*63\r\n
$GPGGA,090846.60,5703.3730534,N,00952.2141673,E,2,10,0.8,-1.150,M,40.593,M,0.7,0123*67\r\n
$GPGGA,090846.65,5703.3730394,N,00952.2141034,E,2,10,0.8,-1.150,M,40.593,M,1.0,0123*6D\r\n
$GPGGA,090846.70,5703.3730237,N,00952.2140410,E,2,10,0.8,-1.153,M,40.593,M,1.0,0123*61\r\n
$GPGGA,090846.75,5703.3730086,N,00952.2139781,E,2,10,0.8,-1.158,M,40.593,M,1.0,0123*62\r\n
$GPGGA,090846.80,5703.3729931,N,00952.2139148,E,2,10,0.8,-1.162,M,40.593,M,1.0,0123*6F\r\n
$GPGGA,090846.85,5703.3729781,N,00952.2138520,E,2,10,0.8,-1.166,M,40.593,M,1.2,0123*62\r\n
$GPGGA,090846.90,5703.3729644,N,00952.2137879,E,2,10,0.8,-1.170,M,40.593,M,1.2,0123*67\r\n
$GPGGA,090846.95,5703.3729501,N,00952.2137250,E,2,10,0.8,-1.174,M,40.593,M,1.2,0123*65\r\n
$GPGGA,090847.00,5703.3729360,N,00952.2136628,E,2,10,0.8,-1.175,M,40.593,M,1.2,0123*62\r\n
$GPGGA,090847.05,5703.3729216,N,00952.2135994,E,2,10,0.8,-1.176,M,40.593,M,1.5,0123*68\r\n
$GPGGA,090847.10,5703.3729080,N,00952.2135370,E,2,10,0.8,-1.178,M,40.593,M,1.5,0123*6F\r\n
$GPGGA,090847.15,5703.3728935,N,00952.2134757,E,2,10,0.8,-1.178,M,40.593,M,1.5,0123*6C\r\n
$GPGGA,090847.20,5703.3728788,N,00952.2134127,E,2,10,0.8,-1.176,M,40.593,M,1.5,0123*6D\r\n
$GPGGA,090847.25,5703.3728640,N,00952.2133497,E,2,10,0.8,-1.177,M,40.593,M,1.7,0123*67\r\n
$GPGGA,090847.30,5703.3728490,N,00952.2132893,E,2,10,0.8,-1.176,M,40.593,M,1.7,0123*64\r\n
$GPGGA,090847.35,5703.3728341,N,00952.2132273,E,2,10,0.8,-1.172,M,40.593,M,1.7,0123*6A\r\n
$GPGGA,090847.40,5703.3728185,N,00952.2131661,E,2,10,0.8,-1.170,M,40.593,M,1.7,0123*64\r\n
$GPGGA,090847.45,5703.3728035,N,00952.2131043,E,2,10,0.8,-1.163,M,40.593,M,0.8,0123*61\r\n
$GPGGA,090847.50,5703.3727898,N,00952.2130415,E,2,10,0.8,-1.162,M,40.593,M,0.8,0123*62\r\n
$GPGGA,090847.55,5703.3727760,N,00952.2129783,E,2,10,0.8,-1.160,M,40.593,M,0.8,0123*69\r\n
$GPGGA,090847.60,5703.3727623,N,00952.2129159,E,2,10,0.8,-1.158,M,40.593,M,0.8,0123*63\r\n
$GPGGA,090847.65,5703.3727475,N,00952.2128545,E,2,10,0.8,-1.161,M,40.593,M,1.1,0123*6D\r\n
$GPGGA,090847.70,5703.3727330,N,00952.2127926,E,2,10,0.8,-1.161,M,40.593,M,1.1,0123*69\r\n
$GPGGA,090847.75,5703.3727186,N,00952.2127296,E,2,10,0.8,-1.160,M,40.593,M,1.1,0123*62\r\n
$GPGGA,090847.80,5703.3727042,N,00952.2126662,E,2,10,0.8,-1.161,M,40.593,M,1.1,0123*6E\r\n
$GPGGA,090847.85,5703.3726901,N,00952.2126047,E,2,10,0.8,-1.157,M,40.593,M,1.4,0123*65\r\n
$GPGGA,090847.90,5703.3726759,N,00952.2125425,E,2,10,0.8,-1.156,M,40.593,M,1.4,0123*60\r\n
$GPGGA,090847.95,5703.3726608,N,00952.2124800,E,2,10,0.8,-1.156,M,40.593,M,1.4,0123*6A\r\n
$GPGGA,090848.00,5703.3726457,N,00952.2124193,E,2,10,0.8,-1.155,M,40.593,M,1.4,0123*61\r\n
$GPGGA,090848.05,5703.3726318,N,00952.2123555,E,2,10,0.8,-1.154,M,40.593,M,1.6,0123*62\r\n
$GPGGA,090848.10,5703.3726168,N,00952.2122938,E,2,10,0.8,-1.154,M,40.593,M,1.6,0123*65\r\n
$GPGGA,090848.15,5703.3726014,N,00952.2122315,E,2,10,0.8,-1.156,M,40.593,M,1.6,0123*6D\r\n
$GPGGA,090848.20,5703.3725853,N,00952.2121704,E,2,10,0.8,-1.156,M,40.593,M,1.6,0123*64\r\n
$GPGGA,090848.25,5703.3725698,N,00952.2121089,E,2,10,0.8,-1.156,M,40.593,M,1.9,0123*65\r\n
$GPGGA,090848.30,5703.3725548,N,00952.2120486,E,2,10,0.8,-1.157,M,40.593,M,1.9,0123*64\r\n
$GPGGA,090848.35,5703.3725400,N,00952.2119870,E,2,10,0.8,-1.157,M,40.593,M,1.9,0123*63\r\n
$GPGGA,090848.40,5703.3725241,N,00952.2119260,E,2,10,0.8,-1.157,M,40.593,M,1.9,0123*69\r\n
$GPGGA,090848.45,5703.3725098,N,00952.2118635,E,2,10,0.8,-1.158,M,40.593,M,2.1,0123*6B\r\n
$GPGGA,090848.50,5703.3724953,N,00952.2118011,E,2,10,0.8,-1.161,M,40.593,M,2.1,0123*6A\r\n
$GPGGA,090848.55,5703.3724795,N,00952.2117376,E,2,10,0.8,-1.162,M,40.593,M,2.1,0123*65\r\n
$GPGGA,090848.60,5703.3724646,N,00952.2116752,E,2,10,0.8,-1.161,M,40.593,M,2.1,0123*6C\r\n
$GPGGA,090848.65,5703.3724500,N,00952.2116130,E,2,10,0.8,-1.163,M,40.593,M,2.3,0123*6A\r\n
$GPGGA,090848.70,5703.3724349,N,00952.2115516,E,2,10,0.8,-1.165,M,40.593,M,2.3,0123*60\r\n
$GPGGA,090848.75,5703.3724209,N,00952.2114884,E,2,10,0.8,-1.163,M,40.593,M,2.3,0123*61\r\n
$GPGGA,090848.80,5703.3724062,N,00952.2114245,E,2,10,0.8,-1.163,M,40.593,M,2.3,0123*63\r\n
$GPGGA,090848.85,5703.3723924,N,00952.2113616,E,2,10,0.8,-1.163,M,40.593,M,2.5,0123*69\r\n
$GPGGA,090848.90,5703.3723764,N,00952.2112995,E,2,10,0.8,-1.164,M,40.593,M,2.5,0123*65\r\n
$GPGGA,090848.95,5703.3723604,N,00952.2112359,E,2,10,0.8,-1.163,M,40.593,M,2.5,0123*6A\r\n
$GPGGA,090849.00,5703.3723461,N,00952.2111715,E,2,10,0.8,-1.162,M,40.593,M,2.5,0123*68\r\n
$GPGGA,090849.05,5703.3723308,N,00952.2111081,E,2,10,0.8,-1.159,M,40.593,M,2.7,0123*65\r\n
$GPGGA,090849.10,5703.3723160,N,00952.2110457,E,2,10,0.8,-1.158,M,40.593,M,2.7,0123*62\r\n
$GPGGA,090849.15,5703.3723000,N,00952.2109815,E,2,10,0.8,-1.158,M,40.593,M,2.7,0123*62\r\n
$GPGGA,090849.20,5703.3722839,N,00952.2109186,E,2,10,0.8,-1.157,M,40.593,M,2.7,0123*6B\r\n
$GPGGA,090849.25,5703.3722689,N,00952.2108562,E,2,10,0.8,-1.155,M,40.593,M,2.9,0123*68\r\n
$GPGGA,090849.30,5703.3722535,N,00952.2107927,E,2,10,0.8,-1.152,M,40.593,M,2.9,0123*6D\r\n
$GPGGA,090849.35,5703.3722382,N,00952.2107289,E,2,10,0.8,-1.148,M,40.593,M,2.9,0123*66\r\n
$GPGGA,090849.40,5703.3722224,N,00952.2106642,E,2,10,0.8,-1.147,M,40.593,M,2.9,0123*64\r\n
$GPGGA,090849.45,5703.3722065,N,00952.2106007,E,2,10,0.8,-1.142,M,40.593,M,3.1,0123*6D\r\n
$GPGGA,090849.50,5703.3721901,N,00952.2105375,E,2,10,0.8,-1.141,M,40.593,M,3.1,0123*67\r\n
$GPGGA,090849.55,5703.3721738,N,00952.2104724,E,2,10,0.8,-1.140,M,40.593,M,3.1,0123*66\r\n
$GPGGA,090849.60,5703.3721584,N,00952.2104067,E,2,10,0.8,-1.138,M,40.593,M,3.1,0123*6A\r\n
$GPGGA,090849.65,5703.3721420,N,00952.2103392,E,2,10,0.8,-1.137,M,40.593,M,3.4,0123*64\r\n
$GPGGA,090849.70,5703.3721260,N,00952.2102717,E,2,10,0.8,-1.139,M,40.593,M,3.4,0123*64\r\n
$GPGGA,090849.75,5703.3721105,N,00952.2102031,E,2,10,0.8,-1.142,M,40.593,M,3.4,0123*6E\r\n
$GPGGA,090849.80,5703.3720930,N,00952.2101357,E,2,10,0.8,-1.145,M,40.593,M,3.4,0123*6C\r\n
$GPGGA,090849.85,5703.3720748,N,00952.2100677,E,2,10,0.8,-1.148,M,40.593,M,3.6,0123*61\r\n
$GPGGA,090849.90,5703.3720580,N,00952.2099991,E,2,10,0.8,-1.153,M,40.593,M,3.6,0123*6F\r\n
$GPGGA,090849.95,5703.3720406,N,00952.2099297,E,2,10,0.8,-1.157,M,40.593,M,3.6,0123*6C\r\n
$GPGGA,090850.00,5703.3720225,N,00952.2098611,E,2,10,0.8,-1.160,M,40.593,M,3.6,0123*60\r\n
$GPGGA,090850.05,5703.3720044,N,00952.2097933,E,2,10,0.8,-1.162,M,40.593,M,3.8,0123*6C\r\n
$GPGGA,090850.10,5703.3719858,N,00952.2097273,E,2,10,0.8,-1.161,M,40.593,M,3.8,0123*6B\r\n
$GPGGA,090850.15,5703.3719674,N,00952.2096615,E,2,10,0.8,-1.160,M,40.593,M,3.8,0123*6A\r\n
$GPGGA,090850.20,5703.3719486,N,00952.2095943,E,2,10,0.8,-1.159,M,40.593,M,3.8,0123*66\r\n
$GPGGA,090850.25,5703.3719300,N,00952.2095272,E,2,10,0.8,-1.158,M,40.593,M,4.0,0123*6D\r\n
$GPGGA,090850.30,5703.3719113,N,00952.2094607,E,2,10,0.8,-1.155,M,40.593,M,4.0,0123*63\r\n
$GPGGA,090850.35,5703.3718928,N,00952.2093929,E,2,10,0.8,-1.151,M,40.593,M,4.0,0123*67\r\n
$GPGGA,090850.40,5703.3718739,N,00952.2093253,E,2,10,0.8,-1.148,M,40.593,M,4.0,0123*65\r\n
$GPGGA,090850.45,5703.3718550,N,00952.2092558,E,2,10,0.8,-1.143,M,40.593,M,2.9,0123*64\r\n
$GPGGA,090850.50,5703.3718354,N,00952.2091866,E,2,10,0.8,-1.145,M,40.593,M,2.9,0123*67\r\n
$GPGGA,090850.55,5703.3718157,N,00952.2091165,E,2,10,0.8,-1.144,M,40.593,M,2.9,0123*68\r\n
$GPGGA,090850.60,5703.3717958,N,00952.2090445,E,2,10,0.8,-1.145,M,40.593,M,2.9,0123*61\r\n
$GPGGA,090850.65,5703.3717762,N,00952.2089713,E,2,10,0.8,-1.148,M,40.593,M,3.2,0123*6C\r\n
$GPGGA,090850.70,5703.3717558,N,00952.2088989,E,2,10,0.8,-1.150,M,40.593,M,3.2,0123*66\r\n
$GPGGA,090850.75,5703.3717350,N,00952.2088269,E,2,10,0.8,-1.151,M,40.593,M,3.2,0123*69\r\n
$GPGGA,090850.80,5703.3717132,N,00952.2087561,E,2,10,0.8,-1.153,M,40.593,M,3.2,0123*67\r\n
$GPGGA,090850.85,5703.3716914,N,00952.2086868,E,2,10,0.8,-1.153,M,40.593,M,3.4,0123*6C\r\n
$GPGGA,090850.90,5703.3716690,N,00952.2086155,E,2,10,0.8,-1.153,M,40.593,M,3.4,0123*6C\r\n
$GPGGA,090850.95,5703.3716459,N,00952.2085457,E,2,10,0.8,-1.152,M,40.593,M,3.4,0123*6B\r\n
$GPGGA,090851.00,5703.3716237,N,00952.2084763,E,2,10,0.8,-1.151,M,40.593,M,3.4,0123*6E\r\n
$GPGGA,090851.05,5703.3716008,N,00952.2084053,E,2,10,0.8,-1.147,M,40.593,M,3.6,0123*64\r\n
$GPGGA,090851.10,5703.3715785,N,00952.2083316,E,2,10,0.8,-1.148,M,40.593,M,3.6,0123*6B\r\n
$GPGGA,090851.15,5703.3715555,N,00952.2082593,E,2,10,0.8,-1.149,M,40.593,M,3.6,0123*6A\r\n
$GPGGA,090851.20,5703.3715312,N,00952.2081860,E,2,10,0.8,-1.151,M,40.593,M,3.6,0123*62\r\n
$GPGGA,090851.25,5703.3715076,N,00952.2081127,E,2,10,0.8,-1.149,M,40.593,M,3.9,0123*6A\r\n
$GPGGA,090851.30,5703.3714828,N,00952.2080407,E,2,10,0.8,-1.150,M,40.593,M,3.9,0123*62\r\n
$GPGGA,090851.35,5703.3714598,N,00952.2079677,E,2,10,0.8,-1.148,M,40.593,M,3.9,0123*6B\r\n
$GPGGA,090851.40,5703.3714360,N,00952.2078939,E,2,10,0.8,-1.147,M,40.593,M,3.9,0123*63\r\n
$GPGGA,090851.45,5703.3714109,N,00952.2078203,E,2,10,0.8,-1.142,M,40.593,M,2.0,0123*64\r\n
$GPGGA,090851.50,5703.3713856,N,00952.2077460,E,2,10,0.8,-1.140,M,40.593,M,2.0,0123*6A\r\n
$GPGGA,090851.55,5703.3713603,N,00952.2076712,E,2,10,0.8,-1.139,M,40.593,M,2.0,0123*68\r\n
$GPGGA,090851.60,5703.3713340,N,00952.2075971,E,2,10,0.8,-1.137,M,40.593,M,2.0,0123*6A\r\n
$GPGGA,090851.65,5703.3713077,N,00952.2075221,E,2,10,0.8,-1.133,M,40.593,M,2.2,0123*60\r\n
$GPGGA,090851.70,5703.3712796,N,00952.2074463,E,2,10,0.8,-1.135,M,40.593,M,2.2,0123*6A\r\n
$GPGGA,090851.75,5703.3712518,N,00952.2073703,E,2,10,0.8,-1.136,M,40.593,M,2.2,0123*6A\r\n
$GPGGA,090851.80,5703.3712240,N,00952.2072932,E,2,10,0.8,-1.137,M,40.593,M,2.2,0123*66\r\n
$GPGGA,090851.85,5703.3711943,N,00952.2072169,E,2,10,0.8,-1.137,M,40.593,M,2.4,0123*68\r\n
$GPGGA,090851.90,5703.3711647,N,00952.2071418,E,2,10,0.8,-1.138,M,40.593,M,2.4,0123*68\r\n
$GPGGA,090851.95,5703.3711351,N,00952.2070676,E,2,10,0.8,-1.141,M,40.593,M,2.4,0123*6A\r\n
$GPGGA,090852.00,5703.3711053,N,00952.2069921,E,2,10,0.8,-1.142,M,40.593,M,2.4,0123*62\r\n
$GPGGA,090852.05,5703.3710757,N,00952.2069190,E,2,10,0.8,-1.138,M,40.593,M,2.7,0123*69\r\n
$GPGGA,090852.10,5703.3710441,N,00952.2068471,E,2,10,0.8,-1.135,M,40.593,M,2.7,0123*6F\r\n
$GPGGA,090852.15,5703.3710125,N,00952.2067727,E,2,10,0.8,-1.134,M,40.593,M,2.7,0123*63\r\n
$GPGGA,090852.20,5703.3709830,N,00952.2066985,E,2,10,0.8,-1.133,M,40.593,M,2.7,0123*60\r\n
$GPGGA,090852.25,5703.3709524,N,00952.2066237,E,2,10,0.8,-1.127,M,40.593,M,2.9,0123*64\r\n
$GPGGA,090852.30,5703.3709208,N,00952.2065498,E,2,10,0.8,-1.128,M,40.593,M,2.9,0123*66\r\n
$GPGGA,090852.35,5703.3708888,N,00952.2064753,E,2,10,0.8,-1.130,M,40.593,M,2.9,0123*6C\r\n
$GPGGA,090852.40,5703.3708564,N,00952.2063991,E,2,10,0.8,-1.132,M,40.593,M,2.9,0123*64\r\n
$GPGGA,090852.45,5703.3708233,N,00952.2063232,E,2,10,0.8,-1.129,M,40.593,M,2.1,0123*64\r\n
$GPGGA,090852.50,5703.3707908,N,00952.2062468,E,2,10,0.8,-1.130,M,40.593,M,2.1,0123*6C\r\n
$GPGGA,090852.55,5703.3707562,N,00952.2061702,E,2,10,0.8,-1.133,M,40.593,M,2.1,0123*66\r\n
$GPGGA,090852.60,5703.3707225,N,00952.2060970,E,2,10,0.8,-1.137,M,40.593,M,2.1,0123*6A\r\n
$GPGGA,090852.65,5703.3706874,N,00952.2060234,E,2,10,0.8,-1.140,M,40.593,M,2.3,0123*69\r\n
$GPGGA,090852.70,5703.3706519,N,00952.2059505,E,2,10,0.8,-1.141,M,40.593,M,2.3,0123*65\r\n
$GPGGA,090852.75,5703.3706168,N,00952.2058796,E,2,10,0.8,-1.141,M,40.593,M,2.3,0123*6B\r\n
$GPGGA,090852.80,5703.3705812,N,00952.2058089,E,2,10,0.8,-1.141,M,40.593,M,2.3,0123*6F\r\n
$GPGGA,090852.85,5703.3705458,N,00952.2057406,E,2,10,0.8,-1.138,M,40.593,M,2.5,0123*6C\r\n
$GPGGA,090852.90,5703.3705099,N,00952.2056723,E,2,10,0.8,-1.136,M,40.593,M,2.5,0123*6A\r\n
$GPGGA,090852.95,5703.3704747,N,00952.2056036,E,2,10,0.8,-1.135,M,40.593,M,2.5,0123*6A\r\n
$GPGGA,090853.00,5703.3704380,N,00952.2055343,E,2,10,0.8,-1.134,M,40.593,M,2.5,0123*6B\r\n
$GPGGA,090853.05,5703.3704008,N,00952.2054641,E,2,10,0.8,-1.134,M,40.593,M,2.7,0123*69\r\n
$GPGGA,090853.10,5703.3703632,N,00952.2053957,E,2,10,0.8,-1.132,M,40.593,M,2.7,0123*6C\r\n
$GPGGA,090853.15,5703.3703257,N,00952.2053248,E,2,10,0.8,-1.133,M,40.593,M,2.7,0123*6A\r\n
$GPGGA,090853.20,5703.3702874,N,00952.2052548,E,2,10,0.8,-1.134,M,40.593,M,2.7,0123*67\r\n
$GPGGA,090853.25,5703.3702492,N,00952.2051852,E,2,10,0.8,-1.135,M,40.593,M,2.9,0123*6C\r\n
$GPGGA,090853.30,5703.3702114,N,00952.2051171,E,2,10,0.8,-1.136,M,40.593,M,2.9,0123*68\r\n
$GPGGA,090853.35,5703.3701726,N,00952.2050494,E,2,10,0.8,-1.138,M,40.593,M,2.9,0123*68\r\n
$GPGGA,090853.40,5703.3701336,N,00952.2049838,E,2,10,0.8,-1.138,M,40.593,M,2.9,0123*6D\r\n
$GPGGA,090853.45,5703.3700926,N,00952.2049190,E,2,10,0.8,-1.141,M,40.593,M,3.1,0123*6E\r\n
$GPGGA,090853.50,5703.3700503,N,00952.2048544,E,2,10,0.8,-1.142,M,40.593,M,3.1,0123*6E\r\n
$GPGGA,090853.55,5703.3700097,N,00952.2047907,E,2,10,0.8,-1.144,M,40.593,M,3.1,0123*61\r\n
$GPGGA,090853.60,5703.3699706,N,00952.2047281,E,2,10,0.8,-1.144,M,40.593,M,3.1,0123*6C\r\n
$GPGGA,090853.65,5703.3699306,N,00952.2046667,E,2,10,0.8,-1.145,M,40.593,M,3.4,0123*64\r\n
$GPGGA,090853.70,5703.3698898,N,00952.2046053,E,2,10,0.8,-1.142,M,40.593,M,3.4,0123*6B\r\n
$GPGGA,090853.75,5703.3698493,N,00952.2045427,E,2,10,0.8,-1.142,M,40.593,M,3.4,0123*6D\r\n
$GPGGA,090853.80,5703.3698082,N,00952.2044812,E,2,10,0.8,-1.140,M,40.593,M,3.4,0123*6A\r\n
$GPGGA,090853.85,5703.3697664,N,00952.2044211,E,2,10,0.8,-1.138,M,40.593,M,3.6,0123*6A\r\n
$GPGGA,090853.90,5703.3697249,N,00952.2043606,E,2,10,0.8,-1.136,M,40.593,M,3.6,0123*6E\r\n
$GPGGA,090853.95,5703.3696822,N,00952.2043007,E,2,10,0.8,-1.138,M,40.593,M,3.6,0123*64\r\n
$GPGGA,090854.00,5703.3696398,N,00952.2042433,E,2,10,0.8,-1.139,M,40.593,M,3.6,0123*66\r\n
$GPGGA,090854.05,5703.3695966,N,00952.2041859,E,2,10,0.8,-1.135,M,40.593,M,3.8,0123*6A\r\n
$GPGGA,090854.10,5703.3695527,N,00952.2041287,E,2,10,0.8,-1.133,M,40.593,M,3.8,0123*68\r\n
$GPGGA,090854.15,5703.3695091,N,00952.2040735,E,2,10,0.8,-1.136,M,40.593,M,3.8,0123*6D\r\n
$GPGGA,090854.20,5703.3694647,N,00952.2040179,E,2,10,0.8,-1.138,M,40.593,M,3.8,0123*67\r\n
$GPGGA,090854.25,5703.3694205,N,00952.2039641,E,2,10,0.8,-1.139,M,40.593,M,4.0,0123*6C\r\n
$GPGGA,090854.30,5703.3693761,N,00952.2039097,E,2,10,0.8,-1.139,M,40.593,M,4.0,0123*65\r\n
$GPGGA,090854.35,5703.3693313,N,00952.2038569,E,2,10,0.8,-1.138,M,40.593,M,4.0,0123*65\r\n
$GPGGA,090854.40,5703.3692864,N,00952.2038068,E,2,10,0.8,-1.135,M,40.593,M,4.0,0123*64\r\n
$GPGGA,090854.45,5703.3692425,N,00952.2037574,E,2,10,0.8,-1.130,M,40.593,M,2.9,0123*65\r\n
$GPGGA,090854.50,5703.3691971,N,00952.2037065,E,2,10,0.8,-1.128,M,40.593,M,2.9,0123*62\r\n
$GPGGA,090854.55,5703.3691506,N,00952.2036574,E,2,10,0.8,-1.125,M,40.593,M,2.9,0123*62\r\n
$GPGGA,090854.60,5703.3691057,N,00952.2036081,E,2,10,0.8,-1.122,M,40.593,M,2.9,0123*6D\r\n
$GPGGA,090854.65,5703.3690607,N,00952.2035590,E,2,10,0.8,-1.118,M,40.593,M,3.2,0123*6F\r\n
$GPGGA,090854.70,5703.3690143,N,00952.2035111,E,2,10,0.8,-1.116,M,40.593,M,3.2,0123*6F\r\n
$GPGGA,090854.75,5703.3689660,N,00952.2034632,E,2,10,0.8,-1.116,M,40.593,M,3.2,0123*63\r\n
$GPGGA,090854.80,5703.3689194,N,00952.2034139,E,2,10,0.8,-1.114,M,40.593,M,3.2,0123*6B\r\n
$GPGGA,090854.85,5703.3688720,N,00952.2033661,E,2,10,0.8,-1.114,M,40.593,M,3.4,0123*6D\r\n
$GPGGA,090854.90,5703.3688237,N,00952.2033181,E,2,10,0.8,-1.114,M,40.593,M,3.4,0123*63\r\n
$GPGGA,090854.95,5703.3687762,N,00952.2032733,E,2,10,0.8,-1.112,M,40.593,M,3.4,0123*64\r\n
$GPGGA,090855.00,5703.3687302,N,00952.2032295,E,2,10,0.8,-1.112,M,40.593,M,3.4,0123*62\r\n
$GPGGA,090855.05,5703.3686839,N,00952.2031883,E,2,10,0.8,-1.113,M,40.593,M,3.6,0123*68\r\n
$GPGGA,090855.10,5703.3686358,N,00952.2031495,E,2,10,0.8,-1.112,M,40.593,M,3.6,0123*6A\r\n
$GPGGA,090855.15,5703.3685878,N,00952.2031133,E,2,10,0.8,-1.111,M,40.593,M,3.6,0123*6F\r\n
$GPGGA,090855.20,5703.3685388,N,00952.2030755,E,2,10,0.8,-1.110,M,40.593,M,3.6,0123*6B\r\n
$GPGGA,090855.25,5703.3684896,N,00952.2030398,E,2,10,0.8,-1.107,M,40.593,M,3.9,0123*67\r\n
$GPGGA,090855.30,5703.3684423,N,00952.2030045,E,2,10,0.8,-1.107,M,40.593,M,3.9,0123*62\r\n
$GPGGA,090855.35,5703.3683933,N,00952.2029688,E,2,10,0.8,-1.108,M,40.593,M,3.9,0123*6C\r\n
$GPGGA,090855.40,5703.3683443,N,00952.2029322,E,2,10,0.8,-1.107,M,40.593,M,3.9,0123*6E\r\n
$GPGGA,090855.45,5703.3682944,N,00952.2028943,E,2,10,0.8,-1.112,M,40.593,M,2.0,0123*60\r\n
$GPGGA,090855.50,5703.3682447,N,00952.2028592,E,2,10,0.8,-1.115,M,40.593,M,2.0,0123*6D\r\n
$GPGGA,090855.55,5703.3681949,N,00952.2028247,E,2,10,0.8,-1.118,M,40.593,M,2.0,0123*6A\r\n
$GPGGA,090855.60,5703.3681449,N,00952.2027900,E,2,10,0.8,-1.120,M,40.593,M,2.0,0123*6D\r\n
$GPGGA,090855.65,5703.3680949,N,00952.2027568,E,2,10,0.8,-1.119,M,40.593,M,2.2,0123*6E\r\n
$GPGGA,090855.70,5703.3680451,N,00952.2027267,E,2,10,0.8,-1.119,M,40.593,M,2.2,0123*66\r\n
$GPGGA,090855.75,5703.3679961,N,00952.2027009,E,2,10,0.8,-1.115,M,40.593,M,2.2,0123*6D\r\n
$GPGGA,090855.80,5703.3679472,N,00952.2026774,E,2,10,0.8,-1.114,M,40.593,M,2.2,0123*65\r\n
$GPGGA,090855.85,5703.3678979,N,00952.2026529,E,2,10,0.8,-1.113,M,40.593,M,2.4,0123*6C\r\n
$GPGGA,090855.90,5703.3678482,N,00952.2026287,E,2,10,0.8,-1.108,M,40.593,M,2.4,0123*68\r\n
$GPGGA,090855.95,5703.3677981,N,00952.2026084,E,2,10,0.8,-1.105,M,40.593,M,2.4,0123*60\r\n
$GPGGA,090856.00,5703.3677488,N,00952.2025874,E,2,10,0.8,-1.100,M,40.593,M,2.4,0123*6A\r\n
$GPGGA,090856.05,5703.3676988,N,00952.2025662,E,2,10,0.8,-1.102,M,40.593,M,2.7,0123*6B\r\n
$GPGGA,090856.10,5703.3676482,N,00952.2025438,E,2,10,0.8,-1.103,M,40.593,M,2.7,0123*64\r\n
$GPGGA,090856.15,5703.3675966,N,00952.2025204,E,2,10,0.8,-1.105,M,40.593,M,2.7,0123*6A\r\n
$GPGGA,090856.20,5703.3675449,N,00952.2024977,E,2,10,0.8,-1.110,M,40.593,M,2.7,0123*66\r\n
$GPGGA,090856.25,5703.3674915,N,00952.2024773,E,2,10,0.8,-1.114,M,40.593,M,2.9,0123*66\r\n
$GPGGA,090856.30,5703.3674401,N,00952.2024575,E,2,10,0.8,-1.117,M,40.593,M,2.9,0123*6D\r\n
$GPGGA,090856.35,5703.3673882,N,00952.2024414,E,2,10,0.8,-1.120,M,40.593,M,2.9,0123*6A\r\n
$GPGGA,090856.40,5703.3673376,N,00952.2024277,E,2,10,0.8,-1.119,M,40.593,M,2.9,0123*61\r\n
$GPGGA,090856.45,5703.3672883,N,00952.2024181,E,2,10,0.8,-1.116,M,40.593,M,2.1,0123*69\r\n
$GPGGA,090856.50,5703.3672389,N,00952.2024110,E,2,10,0.8,-1.112,M,40.593,M,2.1,0123*60\r\n
$GPGGA,090856.55,5703.3671901,N,00952.2024041,E,2,10,0.8,-1.108,M,40.593,M,2.1,0123*62\r\n
$GPGGA,090856.60,5703.3671427,N,00952.2023971,E,2,10,0.8,-1.103,M,40.593,M,2.1,0123*6B\r\n
$GPGGA,090856.65,5703.3670953,N,00952.2023900,E,2,10,0.8,-1.101,M,40.593,M,2.3,0123*67\r\n
$GPGGA,090856.70,5703.3670472,N,00952.2023828,E,2,10,0.8,-1.097,M,40.593,M,2.3,0123*68\r\n
$GPGGA,090856.75,5703.3669979,N,00952.2023768,E,2,10,0.8,-1.096,M,40.593,M,2.3,0123*69\r\n
$GPGGA,090856.80,5703.3669479,N,00952.2023700,E,2,10,0.8,-1.094,M,40.593,M,2.3,0123*62\r\n
$GPGGA,090856.85,5703.3668977,N,00952.2023634,E,2,10,0.8,-1.103,M,40.593,M,2.5,0123*6A\r\n
$GPGGA,090856.90,5703.3668468,N,00952.2023566,E,2,10,0.8,-1.106,M,40.593,M,2.5,0123*6C\r\n
$GPGGA,090856.95,5703.3667950,N,00952.2023495,E,2,10,0.8,-1.110,M,40.593,M,2.5,0123*6A\r\n
$GPGGA,090857.00,5703.3667435,N,00952.2023459,E,2,10,0.8,-1.115,M,40.593,M,2.5,0123*6C\r\n
$GPGGA,090857.05,5703.3666936,N,00952.2023448,E,2,10,0.8,-1.114,M,40.593,M,2.7,0123*65\r\n
$GPGGA,090857.10,5703.3666446,N,00952.2023453,E,2,10,0.8,-1.118,M,40.593,M,2.7,0123*6D\r\n
$GPGGA,090857.15,5703.3665951,N,00952.2023491,E,2,10,0.8,-1.122,M,40.593,M,2.7,0123*67\r\n
$GPGGA,090857.20,5703.3665477,N,00952.2023565,E,2,10,0.8,-1.120,M,40.593,M,2.7,0123*60\r\n
$GPGGA,090857.25,5703.3665017,N,00952.2023645,E,2,10,0.8,-1.126,M,40.593,M,2.9,0123*6E\r\n
$GPGGA,090857.30,5703.3664569,N,00952.2023726,E,2,10,0.8,-1.125,M,40.593,M,2.9,0123*60\r\n
$GPGGA,090857.35,5703.3664122,N,00952.2023830,E,2,10,0.8,-1.120,M,40.593,M,2.9,0123*63\r\n
$GPGGA,090857.40,5703.3663674,N,00952.2023966,E,2,10,0.8,-1.114,M,40.593,M,2.9,0123*67\r\n
$GPGGA,090857.45,5703.3663224,N,00952.2024107,E,2,10,0.8,-1.102,M,40.593,M,1.3,0123*65\r\n
$GPGGA,090857.50,5703.3662773,N,00952.2024236,E,2,10,0.8,-1.096,M,40.593,M,1.3,0123*6A\r\n
$GPGGA,090857.55,5703.3662331,N,00952.2024374,E,2,10,0.8,-1.091,M,40.593,M,1.3,0123*6D\r\n
$GPGGA,090857.60,5703.3661885,N,00952.2024529,E,2,10,0.8,-1.088,M,40.593,M,1.3,0123*6A\r\n
$GPGGA,090857.65,5703.3661422,N,00952.2024692,E,2,10,0.8,-1.087,M,40.593,M,1.7,0123*66\r\n
$GPGGA,090857.70,5703.3660958,N,00952.2024851,E,2,10,0.8,-1.084,M,40.593,M,1.7,0123*61\r\n
$GPGGA,090857.75,5703.3660497,N,00952.2025031,E,2,10,0.8,-1.080,M,40.593,M,1.7,0123*61\r\n
$GPGGA,090857.80,5703.3660031,N,00952.2025225,E,2,10,0.8,-1.082,M,40.593,M,1.7,0123*66\r\n
$GPGGA,090857.85,5703.3659569,N,00952.2025440,E,2,10,0.8,-1.087,M,40.593,M,2.0,0123*65\r\n
$GPGGA,090857.90,5703.3659116,N,00952.2025664,E,2,10,0.8,-1.090,M,40.593,M,2.0,0123*6F\r\n
$GPGGA,090857.95,5703.3658677,N,00952.2025923,E,2,10,0.8,-1.092,M,40.593,M,2.0,0123*65\r\n
$GPGGA,090858.00,5703.3658250,N,00952.2026194,E,2,10,0.8,-1.092,M,40.593,M,2.0,0123*60\r\n
$GPGGA,090858.05,5703.3657815,N,00952.2026471,E,2,10,0.8,-1.092,M,40.593,M,2.4,0123*6B\r\n
$GPGGA,090858.10,5703.3657373,N,00952.2026769,E,2,10,0.8,-1.090,M,40.593,M,2.4,0123*6C\r\n
$GPGGA,090858.15,5703.3656943,N,00952.2027058,E,2,10,0.8,-1.089,M,40.593,M,2.4,0123*6D\r\n
$GPGGA,090858.20,5703.3656515,N,00952.2027356,E,2,10,0.8,-1.087,M,40.593,M,2.4,0123*67\r\n
$GPGGA,090858.25,5703.3656088,N,00952.2027676,E,2,10,0.8,-1.084,M,40.593,M,2.6,0123*65\r\n
$GPGGA,090858.30,5703.3655671,N,00952.2028002,E,2,10,0.8,-1.084,M,40.593,M,2.6,0123*68\r\n
$GPGGA,090858.35,5703.3655248,N,00952.2028348,E,2,10,0.8,-1.083,M,40.593,M,2.6,0123*69\r\n
$GPGGA,090858.40,5703.3654828,N,00952.2028693,E,2,10,0.8,-1.081,M,40.593,M,2.6,0123*67\r\n
$GPGGA,090858.45,5703.3654409,N,00952.2029047,E,2,10,0.8,-1.082,M,40.593,M,0.7,0123*63\r\n
$GPGGA,090858.50,5703.3653987,N,00952.2029399,E,2,10,0.8,-1.082,M,40.593,M,0.7,0123*6B\r\n
$GPGGA,090858.55,5703.3653582,N,00952.2029783,E,2,10,0.8,-1.082,M,40.593,M,0.7,0123*68\r\n
$GPGGA,090858.60,5703.3653175,N,00952.2030168,E,2,10,0.8,-1.083,M,40.593,M,0.7,0123*68\r\n
$GPGGA,090858.65,5703.3652766,N,00952.2030568,E,2,10,0.8,-1.083,M,40.593,M,1.0,0123*6A\r\n
$GPGGA,090858.70,5703.3652367,N,00952.2030997,E,2,10,0.8,-1.083,M,40.593,M,1.0,0123*67\r\n
$GPGGA,090858.75,5703.3651972,N,00952.2031434,E,2,10,0.8,-1.082,M,40.593,M,1.0,0123*6B\r\n
$GPGGA,090858.80,5703.3651583,N,00952.2031870,E,2,10,0.8,-1.083,M,40.593,M,1.0,0123*6E\r\n
$GPGGA,090858.85,5703.3651199,N,00952.2032330,E,2,10,0.8,-1.083,M,40.593,M,1.2,0123*6A\r\n
$GPGGA,090858.90,5703.3650815,N,00952.2032804,E,2,10,0.8,-1.082,M,40.593,M,1.2,0123*6F\r\n
$GPGGA,090858.95,5703.3650460,N,00952.2033291,E,2,10,0.8,-1.083,M,40.593,M,1.2,0123*62\r\n
$GPGGA,090859.00,5703.3650099,N,00952.2033778,E,2,10,0.8,-1.086,M,40.593,M,1.2,0123*6A\r\n
$GPGGA,090859.05,5703.3649751,N,00952.2034272,E,2,10,0.8,-1.083,M,40.593,M,1.5,0123*6E\r\n
$GPGGA,090859.10,5703.3649418,N,00952.2034774,E,2,10,0.8,-1.080,M,40.593,M,1.5,0123*64\r\n
$GPGGA,090859.15,5703.3649085,N,00952.2035294,E,2,10,0.8,-1.076,M,40.593,M,1.5,0123*62\r\n
$GPGGA,090859.20,5703.3648744,N,00952.2035824,E,2,10,0.8,-1.071,M,40.593,M,1.5,0123*69\r\n
$GPGGA,090859.25,5703.3648385,N,00952.2036359,E,2,10,0.8,-1.073,M,40.593,M,1.7,0123*67\r\n
$GPGGA,090859.30,5703.3648061,N,00952.2036901,E,2,10,0.8,-1.070,M,40.593,M,1.7,0123*6E\r\n
$GPGGA,090859.35,5703.3647732,N,00952.2037442,E,2,10,0.8,-1.069,M,40.593,M,1.7,0123*66\r\n
$GPGGA,090859.40,5703.3647409,N,00952.2038011,E,2,10,0.8,-1.066,M,40.593,M,1.7,0123*6D\r\n
$GPGGA,090859.45,5703.3647079,N,00952.2038583,E,2,10,0.8,-1.063,M,40.593,M,2.0,0123*64\r\n
$GPGGA,090859.50,5703.3646749,N,00952.2039175,E,2,10,0.8,-1.061,M,40.593,M,2.0,0123*6B\r\n
$GPGGA,090859.55,5703.3646439,N,00952.2039763,E,2,10,0.8,-1.058,M,40.593,M,2.0,0123*61\r\n
$GPGGA,090859.60,5703.3646128,N,00952.2040349,E,2,10,0.8,-1.059,M,40.593,M,2.0,0123*61\r\n
