$GPGGA,120802.75,5700.9253723,N,00959.1690841,E,2,5,1.3,4.459,M,40.583,M,2.7,0136*75\r\n
$GPGGA,120802.80,5700.9253723,N,00959.1690832,E,2,5,1.3,4.459,M,40.583,M,2.7,0136*7B\r\n
$GPGGA,120802.85,5700.9253713,N,00959.1690877,E,2,5,1.3,4.457,M,40.583,M,2.9,0136*7C\r\n
$GPGGA,120802.90,5700.9253713,N,00959.1690870,E,2,5,1.3,4.457,M,40.583,M,2.9,0136*7F\r\n
$GPGGA,120802.95,5700.9253712,N,00959.1690860,E,2,5,1.3,4.458,M,40.583,M,2.9,0136*75\r\n
$GPGGA,120803.00,5700.9253712,N,00959.1690852,E,2,5,1.3,4.459,M,40.583,M,2.9,0136*78\r\n
$GPGGA,120803.05,5700.9253698,N,00959.1690853,E,2,5,1.3,4.457,M,40.583,M,1.7,0136*7C\r\n
$GPGGA,120803.10,5700.9253698,N,00959.1690845,E,2,5,1.3,4.457,M,40.583,M,1.7,0136*7F\r\n
$GPGGA,120803.15,5700.9253698,N,00959.1690837,E,2,5,1.3,4.458,M,40.583,M,1.7,0136*70\r\n
$GPGGA,120803.20,5700.9253698,N,00959.1690830,E,2,5,1.3,4.458,M,40.583,M,1.7,0136*71\r\n
$GPGGA,120803.25,5700.9253708,N,00959.1690858,E,2,5,1.3,4.453,M,40.583,M,2.0,0136*7D\r\n
$GPGGA,120803.30,5700.9253707,N,00959.1690852,E,2,5,1.3,4.454,M,40.583,M,2.0,0136*7B\r\n
$GPGGA,120803.35,5700.9253707,N,00959.1690845,E,2,5,1.3,4.454,M,40.583,M,2.0,0136*78\r\n
$GPGGA,120803.40,5700.9253707,N,00959.1690840,E,2,5,1.3,4.455,M,40.583,M,2.0,0136*7E\r\n
$GPGGA,120803.45,5700.9253693,N,00959.1690829,E,2,5,1.3,4.448,M,40.583,M,2.2,0136*76\r\n
$GPGGA,120803.50,5700.9253693,N,00959.1690825,E,2,5,1.3,4.448,M,40.583,M,2.2,0136*7E\r\n
$GPGGA,120803.55,5700.9253693,N,00959.1690819,E,2,5,1.3,4.449,M,40.583,M,2.2,0136*75\r\n
$GPGGA,120803.60,5700.9253693,N,00959.1690813,E,2,5,1.3,4.449,M,40.583,M,2.2,0136*79\r\n
$GPGGA,120803.65,5700.9253663,N,00959.1690793,E,2,5,1.3,4.458,M,40.583,M,2.4,0136*72\r\n
$GPGGA,120803.70,5700.9253663,N,00959.1690788,E,2,5,1.3,4.458,M,40.583,M,2.4,0136*7C\r\n
$GPGGA,120803.75,5700.9253663,N,00959.1690783,E,2,5,1.3,4.459,M,40.583,M,2.4,0136*73\r\n
$GPGGA,120803.80,5700.9253663,N,00959.1690778,E,2,5,1.3,4.459,M,40.583,M,2.4,0136*7D\r\n
$GPGGA,120803.85,5700.9253669,N,00959.1690752,E,2,5,1.3,4.462,M,40.583,M,2.7,0136*71\r\n
$GPGGA,120803.90,5700.9253669,N,00959.1690748,E,2,5,1.3,4.462,M,40.583,M,2.7,0136*7E\r\n
$GPGGA,120803.95,5700.9253669,N,00959.1690743,E,2,5,1.3,4.463,M,40.583,M,2.7,0136*71\r\n
$GPGGA,120804.00,5700.9253669,N,00959.1690739,E,2,5,1.3,4.463,M,40.583,M,2.7,0136*77\r\n
$GPGGA,120804.05,5700.9253645,N,00959.1690767,E,2,5,1.3,4.460,M,40.583,M,1.6,0136*76\r\n
$GPGGA,120804.10,5700.9253644,N,00959.1690763,E,2,5,1.3,4.461,M,40.583,M,1.6,0136*76\r\n
$GPGGA,120804.15,5700.9253644,N,00959.1690759,E,2,5,1.3,4.461,M,40.583,M,1.6,0136*7A\r\n
$GPGGA,120804.20,5700.9253644,N,00959.1690753,E,2,5,1.3,4.462,M,40.583,M,1.6,0136*75\r\n
$GPGGA,120804.25,5700.9253614,N,00959.1690672,E,2,5,1.3,4.461,M,40.583,M,1.9,0136*7B\r\n
$GPGGA,120804.30,5700.9253613,N,00959.1690669,E,2,5,1.3,4.461,M,40.583,M,1.9,0136*72\r\n
$GPGGA,120804.35,5700.9253613,N,00959.1690665,E,2,5,1.3,4.461,M,40.583,M,1.9,0136*7B\r\n
$GPGGA,120804.40,5700.9253612,N,00959.1690662,E,2,5,1.3,4.462,M,40.583,M,1.9,0136*7C\r\n
$GPGGA,120804.45,5700.9253610,N,00959.1690711,E,2,5,1.3,4.462,M,40.583,M,2.1,0136*75\r\n
$GPGGA,120804.50,5700.9253609,N,00959.1690707,E,2,5,1.3,4.463,M,40.583,M,2.1,0136*7F\r\n
$GPGGA,120804.55,5700.9253609,N,00959.1690703,E,2,5,1.3,4.463,M,40.583,M,2.1,0136*7E\r\n
$GPGGA,120804.60,5700.9253609,N,00959.1690700,E,2,5,1.3,4.463,M,40.583,M,2.1,0136*7B\r\n
$GPGGA,120804.65,5700.9253614,N,00959.1690641,E,2,5,1.3,4.463,M,40.583,M,2.3,0136*74\r\n
$GPGGA,120804.70,5700.9253613,N,00959.1690636,E,2,5,1.3,4.463,M,40.583,M,2.3,0136*77\r\n
$GPGGA,120804.75,5700.9253613,N,00959.1690634,E,2,5,1.3,4.463,M,40.583,M,2.3,0136*70\r\n
$GPGGA,120804.80,5700.9253613,N,00959.1690630,E,2,5,1.3,4.464,M,40.583,M,2.3,0136*79\r\n
$GPGGA,120804.85,5700.9253580,N,00959.1690665,E,2,5,1.3,4.465,M,40.583,M,2.6,0136*71\r\n
$GPGGA,120804.90,5700.9253579,N,00959.1690661,E,2,5,1.3,4.466,M,40.583,M,2.6,0136*74\r\n
$GPGGA,120804.95,5700.9253579,N,00959.1690657,E,2,5,1.3,4.466,M,40.583,M,2.6,0136*74\r\n
$GPGGA,120805.05,5700.9253557,N,00959.1690661,E,\x002,5,1.3,4.470,M,40.583,M,2.8,0136*7C\r\n
$GPGGA,120808.55,5700.9253446,N,00959.1690518,E,2,5,1.3,4.492,M,40.583,M,2.1,0136*7D\r\n
$GPGGA,120808.60,5700.9253447,N,00959.1690521,E,2,5,1.3,4.492,M,40.583,M,2.1,0136*70\r\n
$GPGGA,120808.65,5700.9253341,N,00959.1690510,E,2,5,1.3,4.494,M,40.583,M,2.3,0136*72\r\n
$GPGGA,120808.70,5700.9253342,N,00959.1690512,E,2,5,1.3,4.494,M,40.583,M,2.3,0136*77\r\n
$GPGGA,120808.75,5700.9253343,N,00959.1690512,E,2,5,1.3,4.494,M,40.583,M,2.3,0136*73\r\n
$GPGGA,120808.80,5700.9253345,N,00959.1690512,E,2,5,1.3,4.494,M,40.583,M,2.3,0136*7F\r\n
$GPGGA,120808.85,5700.9253339,N,00959.1690433,E,2,5,1.3,4.495,M,40.583,M,2.6,0136*77\r\n
$GPGGA,120808.90,5700.9253340,N,00959.1690433,E,2,5,1.3,4.495,M,40.583,M,2.6,0136*7D\r\n
$GPGGA,120808.95,5700.9253342,N,00959.1690434,E,2,5,1.3,4.495,M,40.583,M,2.6,0136*7D\r\n
$GPGGA,120809.00,5700.9253343,N,00959.1690433,E,2,5,1.3,4.495,M,40.583,M,2.6,0136*76\r\n
$GPGGA,120809.05,5700.9253286,N,00959.1690476,E,2,5,1.3,4.504,M,40.583,M,2.8,0136*7D\r\n
$GPGGA,120809.10,5700.9253288,N,00959.1690477,E,2,5,1.3,4.504,M,40.583,M,2.8,0136*76\r\n
$GPGGA,120809.15,5700.9253290,N,00959.1690476,E,2,5,1.3,4.504,M,40.583,M,2.8,0136*7B\r\n
$GPGGA,120809.20,5700.9253290,N,00959.1690477,E,2,5,1.3,4.504,M,40.583,M,2.8,0136*7C\r\n
$GPGGA,120809.25,5700.9253268,N,00959.1690458,E,2,5,1.3,4.497,M,40.583,M,3.0,0136*71\r\n
$GPGGA,120809.30,5700.9253269,N,00959.1690458,E,2,5,1.3,4.497,M,40.583,M,3.0,0136*74\r\n
$GPGGA,120809.35,5700.9253271,N,00959.1690458,E,2,5,1.3,4.497,M,40.583,M,3.0,0136*78\r\n
$GPGGA,120809.40,5700.9253272,N,00959.1690457,E,2,5,1.3,4.497,M,40.583,M,3.0,0136*76\r\n
$GPGGA,120809.45,5700.9253221,N,00959.1690414,E,2,5,1.3,4.506,M,40.583,M,3.2,0136*79\r\n
$GPGGA,120809.50,5700.9253222,N,00959.1690412,E,2,5,1.3,4.506,M,40.583,M,3.2,0136*78\r\n
$GPGGA,120809.55,5700.9253223,N,00959.1690411,E,2,5,1.3,4.506,M,40.583,M,3.2,0136*7F\r\n
$GPGGA,120809.60,5700.9253224,N,00959.1690410,E,2,5,1.3,4.506,M,40.583,M,3.2,0136*7F\r\n
$GPGGA,120809.65,5700.9253216,N,00959.1690445,E,2,5,1.3,4.507,M,40.583,M,3.4,0136*7C\r\n
$GPGGA,120809.70,5700.9253217,N,00959.1690443,E,2,5,1.3,4.507,M,40.583,M,3.4,0136*7F\r\n
$GPGGA,120809.75,5700.9253218,N,00959.1690442,E,2,5,1.3,4.507,M,40.583,M,3.4,0136*74\r\n
$GPGGA,120809.80,5700.9253220,N,00959.1690439,E,2,5,1.3,4.507,M,40.583,M,3.4,0136*79\r\n
$GPGGA,120809.85,5700.9253178,N,00959.1690443,E,2,5,1.3,4.516,M,40.583,M,3.6,0136*7D\r\n
$GPGGA,120809.90,5700.9253179,N,00959.1690441,E,2,5,1.3,4.516,M,40.583,M,3.6,0136*7A\r\n
$GPGGA,120809.95,5700.9253180,N,00959.1690440,E,2,5,1.3,4.516,M,40.583,M,3.6,0136*78\r\n
$GPGGA,120810.00,5700.9253182,N,00959.1690438,E,2,5,1.3,4.516,M,40.583,M,3.6,0136*71\r\n
$GPGGA,120810.05,5700.9253130,N,00959.1690399,E,2,5,1.3,4.515,M,40.583,M,1.9,0136*7F\r\n
$GPGGA,120810.10,5700.9253131,N,00959.1690396,E,2,5,1.3,4.515,M,40.583,M,1.9,0136*75\r\n
$GPGGA,120810.15,5700.9253132,N,00959.1690393,E,2,5,1.3,4.515,M,40.583,M,1.9,0136*76\r\n
$GPGGA,120810.20,5700.9253133,N,00959.1690390,E,2,5,1.3,4.515,M,40.583,M,1.9,0136*72\r\n
$GPGGA,120810.25,5700.9253082,N,00959.1690346,E,2,5,1.3,4.516,M,40.583,M,2.2,0136*7C\r\n
$GPGGA,120810.30,5700.9253082,N,00959.1690343,E,2,5,1.3,4.516,M,40.583,M,2.2,0136*7D\r\n
$GPGGA,120810.35,5700.9253083,N,00959.1690341,E,2,5,1.3,4.516,M,40.583,M,2.2,0136*7B\r\n
$GPGGA,120810.40,5700.9253083,N,00959.1690337,E,2,5,1.3,4.516,M,40.583,M,2.2,0136*78\r\n
$GPGGA,120810.45,5700.9253079,N,00959.1690398,E,2,5,1.3,4.517,M,40.583,M,2.4,0136*7A\r\n
$GPGGA,120810.50,5700.9253079,N,00959.1690396,E,2,5,1.3,4.517,M,40.583,M,2.4,0136*70\r\n
$GPGGA,120810.55,5700.9253080,N,00959.1690394,E,2,5,1.3,4.518,M,40.583,M,2.4,0136*7E\r\n
$GPGGA,120810.60,5700.9253080,N,00959.1690391,E,2,5,1.3,4.518,M,40.583,M,2.4,0136*7D\r\n
$GPGGA,120810.65,5700.9253089,N,00959.1690348,E,2,5,1.3,4.524,M,40.583,M,2.7,0136*79\r\n
$GPGGA,120810.70,5700.9253090,N,00959.1690345,E,2,5,1.3,4.524,M,40.583,M,2.7,0136*78\r\n
$GPGGA,120810.75,5700.9253091,N,00959.1690342,E,2,5,1.3,4.524,M,40.583,M,2.7,0136*7B\r\n
$GPGGA,120810.80,5700.9253092,N,00959.1690339,E,2,5,1.3,4.524,M,40.583,M,2.7,0136*7E\r\n
$GPGGA,120810.85,5700.9253022,N,00959.1690323,E,2,5,1.3,4.527,M,40.583,M,2.9,0136*76\r\n
$GPGGA,120810.90,5700.9253023,N,00959.1690320,E,2,5,1.3,4.527,M,40.583,M,2.9,0136*70\r\n
$GPGGA,120810.95,5700.9253024,N,00959.1690316,E,2,5,1.3,4.527,M,40.583,M,2.9,0136*77\r\n
$GPGGA,120811.00,5700.9253025,N,00959.1690314,E,2,5,1.3,4.527,M,40.583,M,2.9,0136*79\r\n
$GPGGA,120811.05,5700.9253017,N,00959.1690301,E,2,5,1.3,4.529,M,40.583,M,1.7,0136*7A\r\n
$GPGGA,120811.10,5700.9253017,N,00959.1690298,E,2,5,1.3,4.529,M,40.583,M,1.7,0136*7F\r\n
$GPGGA,120811.15,5700.9253018,N,00959.1690294,E,2,5,1.3,4.529,M,40.583,M,1.7,0136*79\r\n
$GPGGA,120811.25,5700.9252955,N,00959.1690277,E,\x002,5,1.3,4.535,M,40.583,M,2.0,0136*7F\r\n
$GPGGA,120814.05,5700.9252653,N,00959.1690112,E,2,5,1.3,4.638,M,40.583,M,1.9,0136*75\r\n
$GPGGA,120814.10,5700.9252653,N,00959.1690116,E,2,5,1.3,4.637,M,40.583,M,1.9,0136*7A\r\n
$GPGGA,120814.15,5700.9252654,N,00959.1690117,E,2,5,1.3,4.638,M,40.583,M,1.9,0136*76\r\n
$GPGGA,120814.20,5700.9252654,N,00959.1690119,E,2,5,1.3,4.637,M,40.583,M,1.9,0136*71\r\n
$GPGGA,120814.25,5700.9252584,N,00959.1690130,E,2,5,1.3,4.645,M,40.583,M,2.2,0136*7C\r\n
$GPGGA,120814.30,5700.9252584,N,00959.1690133,E,2,5,1.3,4.645,M,40.583,M,2.2,0136*7B\r\n
$GPGGA,120814.35,5700.9252584,N,00959.1690136,E,2,5,1.3,4.645,M,40.583,M,2.2,0136*7B\r\n
$GPGGA,120814.40,5700.9252584,N,00959.1690139,E,2,5,1.3,4.645,M,40.583,M,2.2,0136*76\r\n
$GPGGA,120814.45,5700.9252582,N,00959.1690223,E,2,5,1.3,4.653,M,40.583,M,2.4,0136*7C\r\n
$GPGGA,120814.50,5700.9252581,N,00959.1690225,E,2,5,1.3,4.653,M,40.583,M,2.4,0136*7D\r\n
$GPGGA,120814.55,5700.9252581,N,00959.1690230,E,2,5,1.3,4.653,M,40.583,M,2.4,0136*7C\r\n
$GPGGA,120814.60,5700.9252581,N,00959.1690235,E,2,5,1.3,4.653,M,40.583,M,2.4,0136*7F\r\n
$GPGGA,120814.65,5700.9252557,N,00959.1690258,E,2,5,1.3,4.660,M,40.583,M,2.7,0136*79\r\n
$GPGGA,120814.70,5700.9252557,N,00959.1690261,E,2,5,1.3,4.660,M,40.583,M,2.7,0136*77\r\n
$GPGGA,120814.75,5700.9252557,N,00959.1690267,E,2,5,1.3,4.660,M,40.583,M,2.7,0136*74\r\n
$GPGGA,120814.80,5700.9252557,N,00959.1690273,E,2,5,1.3,4.660,M,40.583,M,2.7,0136*7B\r\n
$GPGGA,120814.85,5700.9252518,N,00959.1690249,E,2,5,1.3,4.674,M,40.583,M,2.9,0136*77\r\n
$GPGGA,120814.90,5700.9252518,N,00959.1690253,E,2,5,1.3,4.674,M,40.583,M,2.9,0136*78\r\n
$GPGGA,120814.95,5700.9252518,N,00959.1690257,E,2,5,1.3,4.674,M,40.583,M,2.9,0136*79\r\n
$GPGGA,120815.00,5700.9252517,N,00959.1690262,E,2,5,1.3,4.674,M,40.583,M,2.9,0136*7D\r\n
$GPGGA,120815.05,5700.9252486,N,00959.1690219,E,2,5,1.3,4.680,M,40.583,M,1.7,0136*7B\r\n
$GPGGA,120815.10,5700.9252485,N,00959.1690224,E,2,5,1.3,4.680,M,40.583,M,1.7,0136*72\r\n
$GPGGA,120815.15,5700.9252485,N,00959.1690227,E,2,5,1.3,4.680,M,40.583,M,1.7,0136*74\r\n
$GPGGA,120815.20,5700.9252485,N,00959.1690231,E,2,5,1.3,4.680,M,40.583,M,1.7,0136*75\r\n
$GPGGA,120815.25,5700.9252480,N,00959.1690245,E,2,5,1.3,4.685,M,40.583,M,2.0,0136*77\r\n
$GPGGA,120815.30,5700.9252481,N,00959.1690249,E,2,5,1.3,4.685,M,40.583,M,2.0,0136*7E\r\n
$GPGGA,120815.35,5700.9252481,N,00959.1690253,E,2,5,1.3,4.685,M,40.583,M,2.0,0136*70\r\n
$GPGGA,120815.40,5700.9252481,N,00959.1690257,E,2,5,1.3,4.684,M,40.583,M,2.0,0136*77\r\n
$GPGGA,120815.45,5700.9252490,N,00959.1690303,E,2,5,1.3,4.702,M,40.583,M,2.2,0136*7F\r\n
$GPGGA,120815.50,5700.9252490,N,00959.1690308,E,2,5,1.3,4.702,M,40.583,M,2.2,0136*70\r\n
$GPGGA,120815.55,5700.9252491,N,00959.1690312,E,2,5,1.3,4.702,M,40.583,M,2.2,0136*7F\r\n
$GPGGA,120815.60,5700.9252493,N,00959.1690318,E,2,5,1.3,4.702,M,40.583,M,2.2,0136*71\r\n
$GPGGA,120815.65,5700.9252451,N,00959.1690289,E,2,5,1.3,4.710,M,40.583,M,2.4,0136*76\r\n
$GPGGA,120815.70,5700.9252453,N,00959.1690292,E,2,5,1.3,4.710,M,40.583,M,2.4,0136*7A\r\n
$GPGGA,120815.75,5700.9252454,N,00959.1690298,E,2,5,1.3,4.709,M,40.583,M,2.4,0136*7A\r\n
$GPGGA,120815.80,5700.9252455,N,00959.1690303,E,2,5,1.3,4.709,M,40.583,M,2.4,0136*72\r\n
$GPGGA,120815.85,5700.9252402,N,00959.1690300,E,2,5,1.3,4.723,M,40.583,M,2.7,0136*7D\r\n
$GPGGA,120815.90,5700.9252403,N,00959.1690305,E,2,5,1.3,4.723,M,40.583,M,2.7,0136*7D\r\n
$GPGGA,120815.95,5700.9252404,N,00959.1690309,E,2,5,1.3,4.723,M,40.583,M,2.7,0136*73\r\n
$GPGGA,120816.00,5700.9252405,N,00959.1690314,E,2,5,1.3,4.722,M,40.583,M,2.7,0136*70\r\n
$GPGGA,120816.05,5700.9252354,N,00959.1690279,E,2,5,1.3,4.733,M,40.583,M,1.6,0136*7E\r\n
$GPGGA,120816.10,5700.9252355,N,00959.1690283,E,2,5,1.3,4.733,M,40.583,M,1.6,0136*7E\r\n
$GPGGA,120816.15,5700.9252355,N,00959.1690289,E,2,5,1.3,4.733,M,40.583,M,1.6,0136*71\r\n
$GPGGA,120816.20,5700.9252356,N,00959.1690292,E,2,5,1.3,4.732,M,40.583,M,1.6,0136*7F\r\n
$GPGGA,120816.25,5700.9252346,N,00959.1690349,E,2,5,1.3,4.743,M,40.583,M,1.9,0136*75\r\n
$GPGGA,120816.30,5700.9252347,N,00959.1690354,E,2,5,1.3,4.742,M,40.583,M,1.9,0136*7D\r\n
$GPGGA,120816.35,5700.9252348,N,00959.1690359,E,2,5,1.3,4.742,M,40.583,M,1.9,0136*7A\r\n
$GPGGA,120816.40,5700.9252348,N,00959.1690365,E,2,5,1.3,4.742,M,40.583,M,1.9,0136*77\r\n
$GPGGA,120816.45,5700.9252329,N,00959.1690295,E,2,5,1.3,4.756,M,40.583,M,2.1,0136*75\r\n
$GPGGA,120816.50,5700.9252331,N,00959.1690300,E,2,5,1.3,4.755,M,40.583,M,2.1,0136*76\r\n
$GPGGA,120816.55,5700.9252332,N,00959.1690304,E,2,5,1.3,4.755,M,40.583,M,2.1,0136*74\r\n
$GPGGA,120816.60,5700.9252333,N,00959.1690308,E,2,5,1.3,4.755,M,40.583,M,2.1,0136*7F\r\n
$GPGGA,120816.65,5700.9252269,N,00959.1690299,E,2,5,1.3,4.766,M,40.583,M,2.3,0136*7F\r\n
$GPGGA,120816.75,5700.9252270,N,00959.1690307,E,2,5,1.3,4.765,M,40.583,M,2.3,0136*73\r\n
$GPGGA,120819.60,5700.9251694,N,00959.1690364,E,2,5,1.3,4.929,M,40.583,M,2.2,0136*77\r\n
$GPGGA,120819.65,5700.9251694,N,00959.1690332,E,2,5,1.3,4.945,M,40.583,M,2.4,0136*7D\r\n
$GPGGA,120819.70,5700.9251695,N,00959.1690332,E,2,5,1.3,4.945,M,40.583,M,2.4,0136*78\r\n
$GPGGA,120819.75,5700.9251696,N,00959.1690336,E,2,5,1.3,4.945,M,40.583,M,2.4,0136*7A\r\n
$GPGGA,120819.80,5700.9251697,N,00959.1690338,E,2,5,1.3,4.945,M,40.583,M,2.4,0136*7F\r\n
$GPGGA,120819.85,5700.9251587,N,00959.1690398,E,2,5,1.3,4.955,M,40.583,M,2.7,0136*70\r\n
$GPGGA,120819.90,5700.9251588,N,00959.1690401,E,2,5,1.3,4.955,M,40.583,M,2.7,0136*7C\r\n
$GPGGA,120819.95,5700.9251588,N,00959.1690402,E,2,5,1.3,4.955,M,40.583,M,2.7,0136*7A\r\n
$GPGGA,120820.00,5700.9251588,N,00959.1690408,E,2,5,1.3,4.955,M,40.583,M,2.7,0136*76\r\n
$GPGGA,120820.05,5700.9251542,N,00959.1690360,E,2,5,1.3,4.968,M,40.583,M,1.6,0136*70\r\n
$GPGGA,120820.10,5700.9251542,N,00959.1690361,E,2,5,1.3,4.968,M,40.583,M,1.6,0136*75\r\n
$GPGGA,120820.15,5700.9251543,N,00959.1690368,E,2,5,1.3,4.968,M,40.583,M,1.6,0136*78\r\n
$GPGGA,120820.20,5700.9251543,N,00959.1690367,E,2,5,1.3,4.968,M,40.583,M,1.6,0136*71\r\n
$GPGGA,120820.25,5700.9251504,N,00959.1690373,E,2,5,1.3,4.980,M,40.583,M,1.9,0136*7B\r\n
$GPGGA,120820.30,5700.9251504,N,00959.1690375,E,2,5,1.3,4.980,M,40.583,M,1.9,0136*79\r\n
$GPGGA,120820.35,5700.9251504,N,00959.1690378,E,2,5,1.3,4.980,M,40.583,M,1.9,0136*71\r\n
$GPGGA,120820.40,5700.9251505,N,00959.1690388,E,2,5,1.3,4.980,M,40.583,M,1.9,0136*7D\r\n
$GPGGA,120820.45,5700.9251470,N,00959.1690428,E,2,5,1.3,4.984,M,40.583,M,2.1,0136*79\r\n
$GPGGA,120820.50,5700.9251470,N,00959.1690433,E,2,5,1.3,4.984,M,40.583,M,2.1,0136*77\r\n
$GPGGA,120820.55,5700.9251471,N,00959.1690438,E,2,5,1.3,4.984,M,40.583,M,2.1,0136*78\r\n
$GPGGA,120820.60,5700.9251471,N,00959.1690440,E,2,5,1.3,4.984,M,40.583,M,2.1,0136*71\r\n
$GPGGA,120820.65,5700.9251415,N,00959.1690358,E,2,5,1.3,4.998,M,40.583,M,2.3,0136*77\r\n
$GPGGA,120820.70,5700.9251415,N,00959.1690360,E,2,5,1.3,4.997,M,40.583,M,2.3,0136*77\r\n
$GPGGA,120820.75,5700.9251415,N,00959.1690366,E,2,5,1.3,4.997,M,40.583,M,2.3,0136*74\r\n
$GPGGA,120820.80,5700.9251415,N,00959.1690361,E,2,5,1.3,4.997,M,40.583,M,2.3,0136*79\r\n
$GPGGA,120820.85,5700.9251351,N,00959.1690312,E,2,5,1.3,5.019,M,40.583,M,2.6,0136*74\r\n
$GPGGA,120820.90,5700.9251350,N,00959.1690313,E,2,5,1.3,5.019,M,40.583,M,2.6,0136*70\r\n
$GPGGA,120820.95,5700.9251350,N,00959.1690313,E,2,5,1.3,5.019,M,40.583,M,2.6,0136*75\r\n
$GPGGA,120821.00,5700.9251350,N,00959.1690312,E,2,5,1.3,5.018,M,40.583,M,2.6,0136*78\r\n
$GPGGA,120821.05,5700.9251326,N,00959.1690370,E,2,5,1.3,5.014,M,40.583,M,2.8,0136*7A\r\n
$GPGGA,120821.10,5700.9251326,N,00959.1690371,E,2,5,1.3,5.014,M,40.583,M,2.8,0136*7F\r\n
$GPGGA,120821.15,5700.9251326,N,00959.1690366,E,2,5,1.3,5.014,M,40.583,M,2.8,0136*7C\r\n
$GPGGA,120821.20,5700.9251326,N,00959.1690371,E,2,5,1.3,5.014,M,40.583,M,2.8,0136*7C\r\n
$GPGGA,120821.25,5700.9251284,N,00959.1690373,E,2,5,1.3,5.023,M,40.583,M,3.0,0136*7F\r\n
$GPGGA,120821.30,5700.9251284,N,00959.1690373,E,2,5,1.3,5.023,M,40.583,M,3.0,0136*7B\r\n
$GPGGA,120821.35,5700.9251284,N,00959.1690371,E,2,5,1.3,5.023,M,40.583,M,3.0,0136*7C\r\n
$GPGGA,120821.40,5700.9251285,N,00959.1690376,E,2,5,1.3,5.022,M,40.583,M,3.0,0136*79\r\n
$GPGGA,120821.45,5700.9251246,N,00959.1690411,E,2,5,1.3,5.029,M,40.583,M,3.2,0136*7C\r\n
$GPGGA,120821.50,5700.9251246,N,00959.1690408,E,2,5,1.3,5.029,M,40.583,M,3.2,0136*70\r\n
$GPGGA,120821.55,5700.9251246,N,00959.1690413,E,2,5,1.3,5.029,M,40.583,M,3.2,0136*7F\r\n
$GPGGA,120821.60,5700.9251247,N,00959.1690411,E,2,5,1.3,5.028,M,40.583,M,3.2,0136*7B\r\n
$GPGGA,120821.65,5700.9251168,N,00959.1690317,E,2,5,1.3,5.042,M,40.583,M,3.4,0136*7B\r\n
$GPGGA,120821.70,5700.9251168,N,00959.1690319,E,2,5,1.3,5.042,M,40.583,M,3.4,0136*71\r\n
$GPGGA,120821.75,5700.9251169,N,00959.1690314,E,2,5,1.3,5.041,M,40.583,M,3.4,0136*7B\r\n
$GPGGA,120821.80,5700.9251169,N,00959.1690312,E,2,5,1.3,5.041,M,40.583,M,3.4,0136*77\r\n
$GPGGA,120821.85,5700.9251122,N,00959.1690356,E,2,5,1.3,5.047,M,40.583,M,3.6,0136*79\r\n
$GPGGA,120821.90,5700.9251122,N,00959.1690358,E,2,5,1.3,5.046,M,40.583,M,3.6,0136*72\r\n
$GPGGA,120821.95,5700.9251121,N,00959.1690357,E,2,5,1.3,5.046,M,40.583,M,3.6,0136*7B\r\n
$GPGGA,120822.00,5700.9251122,N,00959.1690352,E,2,5,1.3,5.045,M,40.583,M,3.6,0136*71\r\n
$GPGGA,120822.05,5700.9251047,N,00959.1690325,E,2,5,1.3,5.054,M,40.583,M,1.9,0136*7B\r\n
$GPGGA,120822.10,5700.9251047,N,00959.1690324,E,2,5,1.3,5.053,M,40.583,M,1.9,0136*79\r\n
$GPGGA,120822.15,5700.9251047,N,00959.1690328,E,2,5,1.3,5.053,M,40.583,M,1.9,0136*70\r\n
$GPGGA,120822.20,5700.9251046,N,00959.1690331,E,2,5,1.3,5.052,M,40.583,M,1.9,0136*7E\r\n
$GPGGA,120822.30,5700.9251093,N,00959.1690408,E,2,5,1.3,5.056,M,40.583,M,2.2,0136*76\r\n
$GPGGA,120825.15,5700.9250685,N,00959.1690088,E,2,5,1.3,5.134,M,40.583,M,2.8,0136*75\r\n
$GPGGA,120825.20,5700.9250684,N,00959.1690092,E,2,5,1.3,5.134,M,40.583,M,2.8,0136*79\r\n
$GPGGA,120825.25,5700.9250647,N,00959.1689999,E,2,5,1.3,5.148,M,40.583,M,3.0,0136*7B\r\n
$GPGGA,120825.30,5700.9250647,N,00959.1689996,E,2,5,1.3,5.148,M,40.583,M,3.0,0136*70\r\n
$GPGGA,120825.35,5700.9250645,N,00959.1689996,E,2,5,1.3,5.147,M,40.583,M,3.0,0136*78\r\n
$GPGGA,120825.40,5700.9250644,N,00959.1689996,E,2,5,1.3,5.147,M,40.583,M,3.0,0136*7B\r\n
$GPGGA,120825.45,5700.9250669,N,00959.1689965,E,2,5,1.3,5.150,M,40.583,M,3.2,0136*79\r\n
$GPGGA,120825.50,5700.9250669,N,00959.1689962,E,2,5,1.3,5.150,M,40.583,M,3.2,0136*7A\r\n
$GPGGA,120825.55,5700.9250669,N,00959.1689961,E,2,5,1.3,5.150,M,40.583,M,3.2,0136*7C\r\n
$GPGGA,120825.60,5700.9250669,N,00959.1689953,E,2,5,1.3,5.150,M,40.583,M,3.2,0136*7B\r\n
$GPGGA,120825.65,5700.9250657,N,00959.1689920,E,2,5,1.3,5.160,M,40.583,M,3.4,0136*72\r\n
$GPGGA,120825.70,5700.9250657,N,00959.1689917,E,2,5,1.3,5.160,M,40.583,M,3.4,0136*72\r\n
$GPGGA,120825.75,5700.9250658,N,00959.1689913,E,2,5,1.3,5.160,M,40.583,M,3.4,0136*7C\r\n
$GPGGA,120825.80,5700.9250658,N,00959.1689912,E,2,5,1.3,5.160,M,40.583,M,3.4,0136*77\r\n
$GPGGA,120825.85,5700.9250589,N,00959.1690006,E,2,5,1.3,5.164,M,40.583,M,3.6,0136*7F\r\n
$GPGGA,120825.90,5700.9250590,N,00959.1690003,E,2,5,1.3,5.164,M,40.583,M,3.6,0136*76\r\n
$GPGGA,120825.95,5700.9250590,N,00959.1690002,E,2,5,1.3,5.163,M,40.583,M,3.6,0136*75\r\n
$GPGGA,120826.00,5700.9250590,N,00959.1689998,E,2,5,1.3,5.164,M,40.583,M,3.6,0136*7F\r\n
$GPGGA,120826.05,5700.9250554,N,00959.1689960,E,2,5,1.3,5.170,M,40.583,M,1.9,0136*7D\r\n
$GPGGA,120826.10,5700.9250553,N,00959.1689957,E,2,5,1.3,5.170,M,40.583,M,1.9,0136*7A\r\n
$GPGGA,120826.15,5700.9250553,N,00959.1689952,E,2,5,1.3,5.170,M,40.583,M,1.9,0136*7A\r\n
$GPGGA,120826.20,5700.9250553,N,00959.1689951,E,2,5,1.3,5.170,M,40.583,M,1.9,0136*7F\r\n
$GPGGA,120826.25,5700.9250568,N,00959.1689947,E,2,5,1.3,5.174,M,40.583,M,2.2,0136*79\r\n
$GPGGA,120826.30,5700.9250568,N,00959.1689944,E,2,5,1.3,5.174,M,40.583,M,2.2,0136*7E\r\n
$GPGGA,120826.35,5700.9250568,N,00959.1689939,E,2,5,1.3,5.174,M,40.583,M,2.2,0136*71\r\n
$GPGGA,120826.40,5700.9250568,N,00959.1689934,E,2,5,1.3,5.174,M,40.583,M,2.2,0136*7E\r\n
$GPGGA,120826.45,5700.9250525,N,00959.1689943,E,2,5,1.3,5.180,M,40.583,M,2.4,0136*7F\r\n
$GPGGA,120826.50,5700.9250525,N,00959.1689940,E,2,5,1.3,5.180,M,40.583,M,2.4,0136*78\r\n
$GPGGA,120826.55,5700.9250526,N,00959.1689937,E,2,5,1.3,5.180,M,40.583,M,2.4,0136*7E\r\n
$GPGGA,120826.60,5700.9250526,N,00959.1689934,E,2,5,1.3,5.180,M,40.583,M,2.4,0136*7B\r\n
$GPGGA,120826.65,5700.9250500,N,00959.1689958,E,2,5,1.3,5.186,M,40.583,M,2.7,0136*75\r\n
$GPGGA,120826.70,5700.9250501,N,00959.1689954,E,2,5,1.3,5.185,M,40.583,M,2.7,0136*7F\r\n
$GPGGA,120826.75,5700.9250503,N,00959.1689951,E,2,5,1.3,5.185,M,40.583,M,2.7,0136*7D\r\n
$GPGGA,120826.80,5700.9250503,N,00959.1689946,E,2,5,1.3,5.185,M,40.583,M,2.7,0136*71\r\n
$GPGGA,120826.85,5700.9250483,N,00959.1689929,E,2,5,1.3,5.189,M,40.583,M,2.9,0136*76\r\n
$GPGGA,120826.90,5700.9250484,N,00959.1689924,E,2,5,1.3,5.189,M,40.583,M,2.9,0136*78\r\n
$GPGGA,120826.95,5700.9250484,N,00959.1689922,E,2,5,1.3,5.189,M,40.583,M,2.9,0136*7B\r\n
$GPGGA,120827.00,5700.9250485,N,00959.1689919,E,2,5,1.3,5.189,M,40.583,M,2.9,0136*7F\r\n
$GPGGA,120827.05,5700.9250451,N,00959.1689974,E,2,5,1.3,5.201,M,40.583,M,1.7,0136*76\r\n
$GPGGA,120827.10,5700.9250452,N,00959.1689976,E,2,5,1.3,5.201,M,40.583,M,1.7,0136*73\r\n
$GPGGA,120827.15,5700.9250453,N,00959.1689972,E,2,5,1.3,5.201,M,40.583,M,1.7,0136*73\r\n
$GPGGA,120827.20,5700.9250454,N,00959.1689975,E,2,5,1.3,5.200,M,40.583,M,1.7,0136*74\r\n
$GPGGA,120827.25,5700.9250430,N,00959.1689901,E,2,5,1.3,5.209,M,40.583,M,2.0,0136*7D\r\n
$GPGGA,120827.30,5700.9250431,N,00959.1689903,E,2,5,1.3,5.209,M,40.583,M,2.0,0136*7A\r\n
$GPGGA,120827.35,5700.9250432,N,00959.1689903,E,2,5,1.3,5.209,M,40.583,M,2.0,0136*7C\r\n
$GPGGA,120827.40,5700.9250433,N,00959.1689904,E,2,5,1.3,5.209,M,40.583,M,2.0,0136*78\r\n
$GPGGA,120827.45,5700.9250387,N,00959.1689915,E,2,5,1.3,5.214,M,40.583,M,2.2,0136*7B\r\n
$GPGGA,120827.50,5700.9250387,N,00959.1689916,E,2,5,1.3,5.214,M,40.583,M,2.2,0136*7C\r\n
$GPGGA,120827.55,5700.9250388,N,00959.1689916,E,2,5,1.3,5.214,M,40.583,M,2.2,0136*76\r\n
$GPGGA,120827.60,5700.9250389,N,00959.1689916,E,2,5,1.3,5.214,M,40.583,M,2.2,0136*71\r\n
$GPGGA,120827.65,5700.9250345,N,00959.1689846,E,2,5,1.3,5.221,M,40.583,M,2.4,0136*70\r\n
$GPGGA,120827.70,5700.9250345,N,00959.1689842,E,2,5,1.3,5.221,M,40.583,M,2.4,0136*70\r\n
$GPGGA,120827.75,5700.9250346,N,00959.1689838,E,2,5,1.3,5.221,M,40.583,M,2.4,0136*7B\r\n
$GPGGA,120827.85,5700.9250350,N,00959.1689843,E,2,5,1.3,5.234,M,40.583,M,2.7,0136*78\r\n
$GPGGA,120830.70,5700.9249930,N,00959.1689877,E,2,5,1.3,5.286,M,40.583,M,2.7,0136*7E\r\n
$GPGGA,120830.75,5700.9249931,N,00959.1689880,E,2,5,1.3,5.286,M,40.583,M,2.7,0136*72\r\n
$GPGGA,120830.80,5700.9249931,N,00959.1689889,E,2,5,1.3,5.286,M,40.583,M,2.7,0136*71\r\n
$GPGGA,120830.85,5700.9249920,N,00959.1689934,E,2,5,1.3,5.291,M,40.583,M,2.9,0136*7B\r\n
$GPGGA,120830.90,5700.9249920,N,00959.1689937,E,2,5,1.3,5.290,M,40.583,M,2.9,0136*7D\r\n
$GPGGA,120830.95,5700.9249920,N,00959.1689939,E,2,5,1.3,5.290,M,40.583,M,2.9,0136*76\r\n
$GPGGA,120831.00,5700.9249921,N,00959.1689945,E,2,5,1.3,5.290,M,40.583,M,2.9,0136*71\r\n
$GPGGA,120831.05,5700.9249922,N,00959.1689880,E,2,5,1.3,5.294,M,40.583,M,1.7,0136*76\r\n
$GPGGA,120831.10,5700.9249923,N,00959.1689880,E,2,5,1.3,5.294,M,40.583,M,1.7,0136*73\r\n
$GPGGA,120831.15,5700.9249923,N,00959.1689882,E,2,5,1.3,5.294,M,40.583,M,1.7,0136*74\r\n
$GPGGA,120831.20,5700.9249924,N,00959.1689884,E,2,5,1.3,5.294,M,40.583,M,1.7,0136*73\r\n
$GPGGA,120831.25,5700.9249899,N,00959.1689854,E,2,5,1.3,5.297,M,40.583,M,2.0,0136*7B\r\n
$GPGGA,120831.30,5700.9249899,N,00959.1689855,E,2,5,1.3,5.297,M,40.583,M,2.0,0136*7E\r\n
$GPGGA,120831.35,5700.9249901,N,00959.1689855,E,2,5,1.3,5.296,M,40.583,M,2.0,0136*7A\r\n
$GPGGA,120831.40,5700.9249901,N,00959.1689856,E,2,5,1.3,5.296,M,40.583,M,2.0,0136*7B\r\n
$GPGGA,120831.45,5700.9249862,N,00959.1689862,E,2,5,1.3,5.295,M,40.583,M,2.2,0136*7C\r\n
$GPGGA,120831.50,5700.9249862,N,00959.1689861,E,2,5,1.3,5.295,M,40.583,M,2.2,0136*7B\r\n
$GPGGA,120831.55,5700.9249863,N,00959.1689864,E,2,5,1.3,5.295,M,40.583,M,2.2,0136*7A\r\n
$GPGGA,120831.60,5700.9249864,N,00959.1689867,E,2,5,1.3,5.295,M,40.583,M,2.2,0136*78\r\n
$GPGGA,120831.65,5700.9249832,N,00959.1689884,E,2,5,1.3,5.300,M,40.583,M,2.4,0136*78\r\n
$GPGGA,120831.70,5700.9249832,N,00959.1689883,E,2,5,1.3,5.300,M,40.583,M,2.4,0136*7B\r\n
$GPGGA,120831.75,5700.9249833,N,00959.1689883,E,2,5,1.3,5.300,M,40.583,M,2.4,0136*7F\r\n
$GPGGA,120831.80,5700.9249835,N,00959.1689885,E,2,5,1.3,5.300,M,40.583,M,2.4,0136*75\r\n
$GPGGA,120831.85,5700.9249818,N,00959.1689864,E,2,5,1.3,5.300,M,40.583,M,2.7,0136*73\r\n
$GPGGA,120831.90,5700.9249819,N,00959.1689866,E,2,5,1.3,5.299,M,40.583,M,2.7,0136*75\r\n
$GPGGA,120831.95,5700.9249819,N,00959.1689868,E,2,5,1.3,5.299,M,40.583,M,2.7,0136*7E\r\n
$GPGGA,120832.00,5700.9249820,N,00959.1689866,E,2,5,1.3,5.299,M,40.583,M,2.7,0136*75\r\n
$GPGGA,120832.05,5700.9249762,N,00959.1689887,E,2,5,1.3,5.306,M,40.583,M,1.6,0136*73\r\n
$GPGGA,120832.10,5700.9249763,N,00959.1689886,E,2,5,1.3,5.305,M,40.583,M,1.6,0136*74\r\n
$GPGGA,120832.15,5700.9249763,N,00959.1689887,E,2,5,1.3,5.305,M,40.583,M,1.6,0136*70\r\n
$GPGGA,120832.20,5700.9249764,N,00959.1689886,E,2,5,1.3,5.305,M,40.583,M,1.6,0136*70\r\n
$GPGGA,120832.25,5700.9249747,N,00959.1689865,E,2,5,1.3,5.312,M,40.583,M,1.9,0136*70\r\n
$GPGGA,120832.30,5700.9249748,N,00959.1689863,E,2,5,1.3,5.312,M,40.583,M,1.9,0136*7D\r\n
$GPGGA,120832.35,5700.9249749,N,00959.1689864,E,2,5,1.3,5.312,M,40.583,M,1.9,0136*7E\r\n
$GPGGA,120832.40,5700.9249749,N,00959.1689864,E,2,5,1.3,5.312,M,40.583,M,1.9,0136*7C\r\n
$GPGGA,120832.45,5700.9249729,N,00959.1689852,E,2,5,1.3,5.309,M,40.583,M,2.1,0136*7B\r\n
$GPGGA,120832.50,5700.9249729,N,00959.1689852,E,2,5,1.3,5.309,M,40.583,M,2.1,0136*7F\r\n
$GPGGA,120832.55,5700.9249730,N,00959.1689849,E,2,5,1.3,5.308,M,40.583,M,2.1,0136*79\r\n
$GPGGA,120832.60,5700.9249730,N,00959.1689850,E,2,5,1.3,5.308,M,40.583,M,2.1,0136*77\r\n
$GPGGA,120832.65,5700.9249726,N,00959.1689765,E,2,5,1.3,5.313,M,40.583,M,2.3,0136*74\r\n
$GPGGA,120832.70,5700.9249726,N,00959.1689763,E,2,5,1.3,5.313,M,40.583,M,2.3,0136*76\r\n
$GPGGA,120832.75,5700.9249727,N,00959.1689761,E,2,5,1.3,5.313,M,40.583,M,2.3,0136*70\r\n
$GPGGA,120832.80,5700.9249728,N,00959.1689758,E,2,5,1.3,5.312,M,40.583,M,2.3,0136*7E\r\n
$GPGGA,120832.85,5700.9249728,N,00959.1689784,E,2,5,1.3,5.311,M,40.583,M,2.6,0136*7C\r\n
$GPGGA,120832.90,5700.9249728,N,00959.1689782,E,2,5,1.3,5.311,M,40.583,M,2.6,0136*7E\r\n
$GPGGA,120832.95,5700.9249728,N,00959.1689780,E,2,5,1.3,5.311,M,40.583,M,2.6,0136*79\r\n
$GPGGA,120833.00,5700.9249729,N,00959.1689780,E,2,5,1.3,5.311,M,40.583,M,2.6,0136*75\r\n
$GPGGA,120833.05,5700.9249676,N,00959.1689740,E,2,5,1.3,5.322,M,40.583,M,2.8,0136*79\r\n
$GPGGA,120833.10,5700.9249676,N,00959.1689739,E,2,5,1.3,5.322,M,40.583,M,2.8,0136*73\r\n
$GPGGA,120833.15,5700.9249677,N,00959.1689737,E,2,5,1.3,5.322,M,40.583,M,2.8,0136*79\r\n
$GPGGA,120833.20,5700.9249677,N,00959.1689733,E,2,5,1.3,5.321,M,40.583,M,2.8,0136*78\r\n
$GPGGA,120833.25,5700.9249656,N,00959.1689766,E,2,5,1.3,5.328,M,40.583,M,3.0,0136*7E\r\n
$GPGGA,120833.30,5700.9249655,N,00959.1689766,E,2,5,1.3,5.328,M,40.583,M,3.0,0136*79\r\n
$GPGGA,120833.40,5700.9249656,N,00959.1689766,E,\x002,5,1.3,5.327,M,40.583,M,3.0,0136*72\r\n
$GPGGA,120836.20,5700.9249542,N,00959.1689463,E,2,5,1.3,5.315,M,40.583,M,1.6,0136*74\r\n
$GPGGA,120836.25,5700.9249567,N,00959.1689473,E,2,5,1.3,5.304,M,40.583,M,1.9,0136*78\r\n
$GPGGA,120836.30,5700.9249568,N,00959.1689470,E,2,5,1.3,5.305,M,40.583,M,1.9,0136*71\r\n
$GPGGA,120836.35,5700.9249569,N,00959.1689469,E,2,5,1.3,5.305,M,40.583,M,1.9,0136*7D\r\n
$GPGGA,120836.40,5700.9249571,N,00959.1689470,E,2,5,1.3,5.305,M,40.583,M,1.9,0136*7E\r\n
$GPGGA,120836.45,5700.9249601,N,00959.1689468,E,2,5,1.3,5.306,M,40.583,M,2.1,0136*7E\r\n
$GPGGA,120836.50,5700.9249602,N,00959.1689466,E,2,5,1.3,5.306,M,40.583,M,2.1,0136*77\r\n
$GPGGA,120836.55,5700.9249603,N,00959.1689466,E,2,5,1.3,5.307,M,40.583,M,2.1,0136*72\r\n
$GPGGA,120836.60,5700.9249604,N,00959.1689466,E,2,5,1.3,5.307,M,40.583,M,2.1,0136*73\r\n
$GPGGA,120836.65,5700.9249518,N,00959.1689457,E,2,5,1.3,5.307,M,40.583,M,2.3,0136*78\r\n
$GPGGA,120836.70,5700.9249518,N,00959.1689455,E,2,5,1.3,5.307,M,40.583,M,2.3,0136*7E\r\n
$GPGGA,120836.75,5700.9249518,N,00959.1689454,E,2,5,1.3,5.308,M,40.583,M,2.3,0136*75\r\n
$GPGGA,120836.80,5700.9249519,N,00959.1689454,E,2,5,1.3,5.308,M,40.583,M,2.3,0136*7E\r\n
$GPGGA,120836.85,5700.9249584,N,00959.1689419,E,2,5,1.3,5.300,M,40.583,M,2.6,0136*7B\r\n
$GPGGA,120836.90,5700.9249584,N,00959.1689416,E,2,5,1.3,5.300,M,40.583,M,2.6,0136*70\r\n
$GPGGA,120836.95,5700.9249585,N,00959.1689413,E,2,5,1.3,5.301,M,40.583,M,2.6,0136*70\r\n
$GPGGA,120837.00,5700.9249585,N,00959.1689416,E,2,5,1.3,5.301,M,40.583,M,2.6,0136*78\r\n
$GPGGA,120837.05,5700.9249601,N,00959.1689433,E,2,5,1.3,5.290,M,40.583,M,2.8,0136*72\r\n
$GPGGA,120837.10,5700.9249601,N,00959.1689432,E,2,5,1.3,5.291,M,40.583,M,2.8,0136*76\r\n
$GPGGA,120837.15,5700.9249602,N,00959.1689429,E,2,5,1.3,5.291,M,40.583,M,2.8,0136*7A\r\n
$GPGGA,120837.20,5700.9249603,N,00959.1689429,E,2,5,1.3,5.291,M,40.583,M,2.8,0136*7D\r\n
$GPGGA,120837.25,5700.9249590,N,00959.1689390,E,2,5,1.3,5.297,M,40.583,M,3.0,0136*7B\r\n
$GPGGA,120837.30,5700.9249591,N,00959.1689388,E,2,5,1.3,5.297,M,40.583,M,3.0,0136*77\r\n
$GPGGA,120837.35,5700.9249591,N,00959.1689383,E,2,5,1.3,5.298,M,40.583,M,3.0,0136*76\r\n
$GPGGA,120837.40,5700.9249592,N,00959.1689384,E,2,5,1.3,5.298,M,40.583,M,3.0,0136*70\r\n
$GPGGA,120837.45,5700.9249597,N,00959.1689421,E,2,5,1.3,5.288,M,40.583,M,3.2,0136*7B\r\n
$GPGGA,120837.50,5700.9249598,N,00959.1689419,E,2,5,1.3,5.288,M,40.583,M,3.2,0136*7B\r\n
$GPGGA,120837.55,5700.9249599,N,00959.1689422,E,2,5,1.3,5.288,M,40.583,M,3.2,0136*77\r\n
$GPGGA,120837.60,5700.9249599,N,00959.1689419,E,2,5,1.3,5.289,M,40.583,M,3.2,0136*78\r\n
$GPGGA,120837.65,5700.9249603,N,00959.1689369,E,2,5,1.3,5.284,M,40.583,M,3.4,0136*76\r\n
$GPGGA,120837.70,5700.9249603,N,00959.1689368,E,2,5,1.3,5.284,M,40.583,M,3.4,0136*73\r\n
$GPGGA,120837.75,5700.9249603,N,00959.1689368,E,2,5,1.3,5.285,M,40.583,M,3.4,0136*77\r\n
$GPGGA,120837.80,5700.9249603,N,00959.1689366,E,2,5,1.3,5.285,M,40.583,M,3.4,0136*73\r\n
$GPGGA,120837.85,5700.9249567,N,00959.1689361,E,2,5,1.3,5.286,M,40.583,M,3.6,0136*71\r\n
$GPGGA,120837.90,5700.9249568,N,00959.1689361,E,2,5,1.3,5.286,M,40.583,M,3.6,0136*7A\r\n
$GPGGA,120837.95,5700.9249568,N,00959.1689361,E,2,5,1.3,5.287,M,40.583,M,3.6,0136*7E\r\n
$GPGGA,120838.00,5700.9249568,N,00959.1689359,E,2,5,1.3,5.287,M,40.583,M,3.6,0136*76\r\n
$GPGGA,120838.05,5700.9249628,N,00959.1689381,E,2,5,1.3,5.285,M,40.583,M,1.9,0136*7E\r\n
$GPGGA,120838.10,5700.9249629,N,00959.1689381,E,2,5,1.3,5.285,M,40.583,M,1.9,0136*7B\r\n
$GPGGA,120838.15,5700.9249630,N,00959.1689382,E,2,5,1.3,5.286,M,40.583,M,1.9,0136*76\r\n
$GPGGA,120838.20,5700.9249630,N,00959.1689382,E,2,5,1.3,5.286,M,40.583,M,1.9,0136*70\r\n
$GPGGA,120838.25,5700.9249612,N,00959.1689410,E,2,5,1.3,5.282,M,40.583,M,2.2,0136*75\r\n
$GPGGA,120838.30,5700.9249611,N,00959.1689410,E,2,5,1.3,5.282,M,40.583,M,2.2,0136*72\r\n
$GPGGA,120838.35,5700.9249612,N,00959.1689413,E,2,5,1.3,5.283,M,40.583,M,2.2,0136*76\r\n
$GPGGA,120838.40,5700.9249612,N,00959.1689416,E,2,5,1.3,5.283,M,40.583,M,2.2,0136*71\r\n
$GPGGA,120838.45,5700.9249583,N,00959.1689405,E,2,5,1.3,5.275,M,40.583,M,2.4,0136*72\r\n
$GPGGA,120838.50,5700.9249583,N,00959.1689408,E,2,5,1.3,5.275,M,40.583,M,2.4,0136*7B\r\n
$GPGGA,120838.55,5700.9249583,N,00959.1689411,E,2,5,1.3,5.276,M,40.583,M,2.4,0136*75\r\n
$GPGGA,120838.60,5700.9249583,N,00959.1689416,E,2,5,1.3,5.276,M,40.583,M,2.4,0136*74\r\n
$GPGGA,120838.65,5700.9249628,N,00959.1689411,E,2,5,1.3,5.276,M,40.583,M,2.7,0136*77\r\n
$GPGGA,120838.70,5700.9249628,N,00959.1689412,E,2,5,1.3,5.276,M,40.583,M,2.7,0136*70\r\n
$GPGGA,120838.75,5700.9249628,N,00959.1689414,E,2,5,1.3,5.276,M,40.583,M,2.7,0136*73\r\n
$GPGGA,120838.80,5700.9249629,N,00959.1689418,E,2,5,1.3,5.276,M,40.583,M,2.7,0136*74\r\n
$GPGGA,120838.85,5700.9249588,N,00959.1689407,E,2,5,1.3,5.266,M,40.583,M,2.9,0136*78\r\n
$GPGGA,120838.95,5700.9249589,N,00959.1689413,E,\x002,5,1.3,5.266,M,40.583,M,2.9,0136*7D\r\n
$GPGGA,120841.80,5700.9249606,N,00959.1689462,E,2,5,1.3,5.266,M,40.583,M,3.4,0136*79\r\n
$GPGGA,120841.85,5700.9249579,N,00959.1689486,E,2,5,1.3,5.268,M,40.583,M,3.6,0136*71\r\n
$GPGGA,120841.90,5700.9249580,N,00959.1689472,E,2,5,1.3,5.268,M,40.583,M,3.6,0136*78\r\n
$GPGGA,120841.95,5700.9249581,N,00959.1689459,E,2,5,1.3,5.268,M,40.583,M,3.6,0136*75\r\n
$GPGGA,120842.00,5700.9249581,N,00959.1689446,E,2,5,1.3,5.268,M,40.583,M,3.6,0136*74\r\n
$GPGGA,120842.05,5700.9249610,N,00959.1689540,E,2,5,1.3,5.268,M,40.583,M,1.9,0136*70\r\n
$GPGGA,120842.10,5700.9249611,N,00959.1689527,E,2,5,1.3,5.268,M,40.583,M,1.9,0136*74\r\n
$GPGGA,120842.15,5700.9249612,N,00959.1689514,E,2,5,1.3,5.268,M,40.583,M,1.9,0136*72\r\n
$GPGGA,120842.20,5700.9249613,N,00959.1689499,E,2,5,1.3,5.268,M,40.583,M,1.9,0136*71\r\n
$GPGGA,120842.25,5700.9249599,N,00959.1689510,E,2,5,1.3,5.272,M,40.583,M,2.2,0136*76\r\n
$GPGGA,120842.30,5700.9249601,N,00959.1689499,E,2,5,1.3,5.272,M,40.583,M,2.2,0136*70\r\n
$GPGGA,120842.35,5700.9249601,N,00959.1689486,E,2,5,1.3,5.272,M,40.583,M,2.2,0136*7B\r\n
$GPGGA,120842.40,5700.9249602,N,00959.1689471,E,2,5,1.3,5.272,M,40.583,M,2.2,0136*72\r\n
$GPGGA,120842.45,5700.9249586,N,00959.1689577,E,2,5,1.3,5.268,M,40.583,M,2.4,0136*72\r\n
$GPGGA,120842.50,5700.9249586,N,00959.1689564,E,2,5,1.3,5.268,M,40.583,M,2.4,0136*74\r\n
$GPGGA,120842.55,5700.9249587,N,00959.1689552,E,2,5,1.3,5.268,M,40.583,M,2.4,0136*75\r\n
$GPGGA,120842.60,5700.9249588,N,00959.1689538,E,2,5,1.3,5.269,M,40.583,M,2.4,0136*71\r\n
$GPGGA,120842.65,5700.9249594,N,00959.1689540,E,2,5,1.3,5.275,M,40.583,M,2.7,0136*78\r\n
$GPGGA,120842.70,5700.9249594,N,00959.1689527,E,2,5,1.3,5.275,M,40.583,M,2.7,0136*7D\r\n
$GPGGA,120842.75,5700.9249595,N,00959.1689516,E,2,5,1.3,5.275,M,40.583,M,2.7,0136*7B\r\n
$GPGGA,120842.80,5700.9249595,N,00959.1689503,E,2,5,1.3,5.275,M,40.583,M,2.7,0136*75\r\n
$GPGGA,120842.85,5700.9249577,N,00959.1689571,E,2,5,1.3,5.268,M,40.583,M,2.9,0136*7B\r\n
$GPGGA,120842.90,5700.9249578,N,00959.1689560,E,2,5,1.3,5.268,M,40.583,M,2.9,0136*70\r\n
$GPGGA,120842.95,5700.9249578,N,00959.1689548,E,2,5,1.3,5.269,M,40.583,M,2.9,0136*7E\r\n
$GPGGA,120843.00,5700.9249579,N,00959.1689535,E,2,5,1.3,5.269,M,40.583,M,2.9,0136*78\r\n
$GPGGA,120843.05,5700.9249556,N,00959.1689554,E,2,5,1.3,5.271,M,40.583,M,1.7,0136*73\r\n
$GPGGA,120843.10,5700.9249557,N,00959.1689543,E,2,5,1.3,5.271,M,40.583,M,1.7,0136*70\r\n
$GPGGA,120843.15,5700.9249557,N,00959.1689531,E,2,5,1.3,5.271,M,40.583,M,1.7,0136*70\r\n
$GPGGA,120843.20,5700.9249558,N,00959.1689518,E,2,5,1.3,5.272,M,40.583,M,1.7,0136*71\r\n
$GPGGA,120843.25,5700.9249491,N,00959.1689519,E,2,5,1.3,5.269,M,40.583,M,2.0,0136*7F\r\n
$GPGGA,120843.30,5700.9249491,N,00959.1689509,E,2,5,1.3,5.270,M,40.583,M,2.0,0136*72\r\n
$GPGGA,120843.35,5700.9249491,N,00959.1689499,E,2,5,1.3,5.270,M,40.583,M,2.0,0136*7F\r\n
$GPGGA,120843.40,5700.9249491,N,00959.1689487,E,2,5,1.3,5.270,M,40.583,M,2.0,0136*72\r\n
$GPGGA,120843.45,5700.9249412,N,00959.1689534,E,2,5,1.3,5.259,M,40.583,M,2.2,0136*7C\r\n
$GPGGA,120843.50,5700.9249412,N,00959.1689524,E,2,5,1.3,5.259,M,40.583,M,2.2,0136*79\r\n
$GPGGA,120843.55,5700.9249412,N,00959.1689514,E,2,5,1.3,5.260,M,40.583,M,2.2,0136*75\r\n
$GPGGA,120843.60,5700.9249412,N,00959.1689503,E,2,5,1.3,5.260,M,40.583,M,2.2,0136*75\r\n
$GPGGA,120843.65,5700.9249402,N,00959.1689510,E,2,5,1.3,5.268,M,40.583,M,2.4,0136*7D\r\n
$GPGGA,120843.70,5700.9249402,N,00959.1689500,E,2,5,1.3,5.268,M,40.583,M,2.4,0136*78\r\n
$GPGGA,120843.75,5700.9249402,N,00959.1689490,E,2,5,1.3,5.269,M,40.583,M,2.4,0136*74\r\n
$GPGGA,120843.80,5700.9249401,N,00959.1689481,E,2,5,1.3,5.269,M,40.583,M,2.4,0136*7D\r\n
$GPGGA,120843.85,5700.9249361,N,00959.1689548,E,2,5,1.3,5.259,M,40.583,M,2.7,0136*7D\r\n
$GPGGA,120843.90,5700.9249361,N,00959.1689540,E,2,5,1.3,5.260,M,40.583,M,2.7,0136*7B\r\n
$GPGGA,120843.95,5700.9249361,N,00959.1689530,E,2,5,1.3,5.260,M,40.583,M,2.7,0136*79\r\n
$GPGGA,120844.00,5700.9249361,N,00959.1689520,E,2,5,1.3,5.261,M,40.583,M,2.7,0136*72\r\n
$GPGGA,120844.05,5700.9249302,N,00959.1689535,E,2,5,1.3,5.264,M,40.583,M,1.6,0136*71\r\n
$GPGGA,120844.10,5700.9249301,N,00959.1689527,E,2,5,1.3,5.265,M,40.583,M,1.6,0136*74\r\n
$GPGGA,120844.15,5700.9249301,N,00959.1689519,E,2,5,1.3,5.265,M,40.583,M,1.6,0136*7C\r\n
$GPGGA,120844.20,5700.9249300,N,00959.1689510,E,2,5,1.3,5.265,M,40.583,M,1.6,0136*72\r\n
$GPGGA,120844.25,5700.9249273,N,00959.1689533,E,2,5,1.3,5.262,M,40.583,M,1.9,0136*7B\r\n
$GPGGA,120844.30,5700.9249273,N,00959.1689526,E,2,5,1.3,5.262,M,40.583,M,1.9,0136*7B\r\n
$GPGGA,120844.35,5700.9249273,N,00959.1689519,E,2,5,1.3,5.263,M,40.583,M,1.9,0136*73\r\n
$GPGGA,120844.40,5700.9249272,N,00959.1689511,E,2,5,1.3,5.263,M,40.583,M,1.9,0136*78\r\n
$GPGGA,120844.50,5700.9249283,N,00959.1689575,E,\x002,5,1.3,5.259,M,40.583,M,2.1,0136*77\r\n
$GPGGA,120847.30,5700.9248973,N,00959.1690126,E,2,5,1.3,5.272,M,40.583,M,2.0,0136*75\r\n
$GPGGA,120847.35,5700.9248973,N,00959.1690126,E,2,5,1.3,5.272,M,40.583,M,2.0,0136*70\r\n
$GPGGA,120847.40,5700.9248973,N,00959.1690130,E,2,5,1.3,5.272,M,40.583,M,2.0,0136*75\r\n
$GPGGA,120847.45,5700.9248998,N,00959.1690178,E,2,5,1.3,5.274,M,40.583,M,2.2,0136*7D\r\n
$GPGGA,120847.50,5700.9248998,N,00959.1690179,E,2,5,1.3,5.274,M,40.583,M,2.2,0136*78\r\n
$GPGGA,120847.55,5700.9248998,N,00959.1690177,E,2,5,1.3,5.275,M,40.583,M,2.2,0136*72\r\n
$GPGGA,120847.60,5700.9248998,N,00959.1690176,E,2,5,1.3,5.275,M,40.583,M,2.2,0136*75\r\n
$GPGGA,120847.65,5700.9248932,N,00959.1690182,E,2,5,1.3,5.277,M,40.583,M,2.4,0136*7F\r\n
$GPGGA,120847.70,5700.9248933,N,00959.1690183,E,2,5,1.3,5.277,M,40.583,M,2.4,0136*7B\r\n
$GPGGA,120847.75,5700.9248933,N,00959.1690182,E,2,5,1.3,5.277,M,40.583,M,2.4,0136*7F\r\n
$GPGGA,120847.80,5700.9248932,N,00959.1690180,E,2,5,1.3,5.277,M,40.583,M,2.4,0136*76\r\n
$GPGGA,120847.85,5700.9248932,N,00959.1690278,E,2,5,1.3,5.273,M,40.583,M,2.7,0136*70\r\n
$GPGGA,120847.90,5700.9248932,N,00959.1690278,E,2,5,1.3,5.273,M,40.583,M,2.7,0136*74\r\n
$GPGGA,120847.95,5700.9248932,N,00959.1690280,E,2,5,1.3,5.273,M,40.583,M,2.7,0136*76\r\n
$GPGGA,120848.00,5700.9248932,N,00959.1690284,E,2,5,1.3,5.273,M,40.583,M,2.7,0136*71\r\n
$GPGGA,120848.05,5700.9248929,N,00959.1690319,E,2,5,1.3,5.272,M,40.583,M,2.9,0136*74\r\n
$GPGGA,120848.10,5700.9248929,N,00959.1690321,E,2,5,1.3,5.272,M,40.583,M,2.9,0136*7B\r\n
$GPGGA,120848.15,5700.9248929,N,00959.1690320,E,2,5,1.3,5.273,M,40.583,M,2.9,0136*7E\r\n
$GPGGA,120848.20,5700.9248928,N,00959.1690321,E,2,5,1.3,5.273,M,40.583,M,2.9,0136*78\r\n
$GPGGA,120848.25,5700.9248901,N,00959.1690362,E,2,5,1.3,5.274,M,40.583,M,1.9,0136*75\r\n
$GPGGA,120848.30,5700.9248902,N,00959.1690364,E,2,5,1.3,5.274,M,40.583,M,1.9,0136*74\r\n
$GPGGA,120848.35,5700.9248901,N,00959.1690365,E,2,5,1.3,5.274,M,40.583,M,1.9,0136*73\r\n
$GPGGA,120848.40,5700.9248899,N,00959.1690365,E,2,5,1.3,5.274,M,40.583,M,1.9,0136*71\r\n
$GPGGA,120848.45,5700.9248879,N,00959.1690392,E,2,5,1.3,5.279,M,40.583,M,2.1,0136*74\r\n
$GPGGA,120848.50,5700.9248878,N,00959.1690393,E,2,5,1.3,5.280,M,40.583,M,2.1,0136*76\r\n
$GPGGA,120848.55,5700.9248878,N,00959.1690394,E,2,5,1.3,5.280,M,40.583,M,2.1,0136*74\r\n
$GPGGA,120848.60,5700.9248877,N,00959.1690395,E,2,5,1.3,5.280,M,40.583,M,2.1,0136*7C\r\n
$GPGGA,120848.65,5700.9248913,N,00959.1690495,E,2,5,1.3,5.278,M,40.583,M,2.3,0136*78\r\n
$GPGGA,120848.70,5700.9248912,N,00959.1690496,E,2,5,1.3,5.278,M,40.583,M,2.3,0136*7E\r\n
$GPGGA,120848.75,5700.9248911,N,00959.1690497,E,2,5,1.3,5.278,M,40.583,M,2.3,0136*79\r\n
$GPGGA,120848.80,5700.9248911,N,00959.1690498,E,2,5,1.3,5.278,M,40.583,M,2.3,0136*7C\r\n
$GPGGA,120848.85,5700.9248889,N,00959.1690558,E,2,5,1.3,5.274,M,40.583,M,2.6,0136*7D\r\n
$GPGGA,120848.90,5700.9248889,N,00959.1690560,E,2,5,1.3,5.274,M,40.583,M,2.6,0136*72\r\n
$GPGGA,120848.95,5700.9248888,N,00959.1690563,E,2,5,1.3,5.274,M,40.583,M,2.6,0136*75\r\n
$GPGGA,120849.00,5700.9248888,N,00959.1690565,E,2,5,1.3,5.274,M,40.583,M,2.6,0136*7E\r\n
$GPGGA,120849.05,5700.9248923,N,00959.1690640,E,2,5,1.3,5.275,M,40.583,M,2.8,0136*70\r\n
$GPGGA,120849.10,5700.9248923,N,00959.1690640,E,2,5,1.3,5.275,M,40.583,M,2.8,0136*74\r\n
$GPGGA,120849.15,5700.9248923,N,00959.1690643,E,2,5,1.3,5.274,M,40.583,M,2.8,0136*73\r\n
$GPGGA,120849.20,5700.9248923,N,00959.1690644,E,2,5,1.3,5.274,M,40.583,M,2.8,0136*72\r\n
$GPGGA,120849.25,5700.9248908,N,00959.1690650,E,2,5,1.3,5.278,M,40.583,M,3.0,0136*7E\r\n
$GPGGA,120849.30,5700.9248908,N,00959.1690651,E,2,5,1.3,5.278,M,40.583,M,3.0,0136*7B\r\n
$GPGGA,120849.35,5700.9248908,N,00959.1690652,E,2,5,1.3,5.278,M,40.583,M,3.0,0136*7D\r\n
$GPGGA,120849.40,5700.9248907,N,00959.1690653,E,2,5,1.3,5.278,M,40.583,M,3.0,0136*71\r\n
$GPGGA,120849.45,5700.9248883,N,00959.1690733,E,2,5,1.3,5.277,M,40.583,M,3.2,0136*73\r\n
$GPGGA,120849.50,5700.9248883,N,00959.1690734,E,2,5,1.3,5.277,M,40.583,M,3.2,0136*70\r\n
$GPGGA,120849.55,5700.9248883,N,00959.1690734,E,2,5,1.3,5.277,M,40.583,M,3.2,0136*75\r\n
$GPGGA,120849.60,5700.9248883,N,00959.1690735,E,2,5,1.3,5.277,M,40.583,M,3.2,0136*72\r\n
$GPGGA,120849.65,5700.9248935,N,00959.1690772,E,2,5,1.3,5.279,M,40.583,M,3.4,0136*70\r\n
$GPGGA,120849.70,5700.9248935,N,00959.1690773,E,2,5,1.3,5.279,M,40.583,M,3.4,0136*75\r\n
$GPGGA,120849.75,5700.9248936,N,00959.1690769,E,2,5,1.3,5.279,M,40.583,M,3.4,0136*78\r\n
$GPGGA,120849.80,5700.9248935,N,00959.1690765,E,2,5,1.3,5.279,M,40.583,M,3.4,0136*7D\r\n
$GPGGA,120849.85,5700.9248904,N,00959.1690829,E,2,5,1.3,5.280,M,40.583,M,3.6,0136*79\r\n
$GPGGA,120849.90,5700.9248904,N,00959.1690828,E,2,5,1.3,5.280,M,40.583,M,3.6,0136*7C\r\n
$GPGGA,120850.00,5700.9248905,N,00959.1690831,E,\x002,5,1.3,5.280,M,40.583,M,3.6,0136*74\r\n
$GPGGA,120852.80,5700.9249035,N,00959.1691454,E,2,5,1.3,5.306,M,40.583,M,2.3,0136*70\r\n
$GPGGA,120852.85,5700.9249026,N,00959.1691521,E,2,5,1.3,5.313,M,40.583,M,2.6,0136*75\r\n
$GPGGA,120852.90,5700.9249026,N,00959.1691524,E,2,5,1.3,5.313,M,40.583,M,2.6,0136*74\r\n
$GPGGA,120852.95,5700.9249027,N,00959.1691527,E,2,5,1.3,5.312,M,40.583,M,2.6,0136*72\r\n
$GPGGA,120853.00,5700.9249027,N,00959.1691530,E,2,5,1.3,5.312,M,40.583,M,2.6,0136*79\r\n
$GPGGA,120853.05,5700.9249044,N,00959.1691516,E,2,5,1.3,5.306,M,40.583,M,2.8,0136*76\r\n
$GPGGA,120853.10,5700.9249044,N,00959.1691518,E,2,5,1.3,5.305,M,40.583,M,2.8,0136*7F\r\n
$GPGGA,120853.15,5700.9249044,N,00959.1691522,E,2,5,1.3,5.305,M,40.583,M,2.8,0136*73\r\n
$GPGGA,120853.20,5700.9249043,N,00959.1691528,E,2,5,1.3,5.305,M,40.583,M,2.8,0136*78\r\n
$GPGGA,120853.25,5700.9249031,N,00959.1691598,E,2,5,1.3,5.312,M,40.583,M,3.0,0136*7C\r\n
$GPGGA,120853.30,5700.9249030,N,00959.1691604,E,2,5,1.3,5.311,M,40.583,M,3.0,0136*7C\r\n
$GPGGA,120853.35,5700.9249030,N,00959.1691609,E,2,5,1.3,5.311,M,40.583,M,3.0,0136*74\r\n
$GPGGA,120853.40,5700.9249029,N,00959.1691616,E,2,5,1.3,5.311,M,40.583,M,3.0,0136*70\r\n
$GPGGA,120853.45,5700.9249059,N,00959.1691615,E,2,5,1.3,5.318,M,40.583,M,3.2,0136*7A\r\n
$GPGGA,120853.50,5700.9249058,N,00959.1691623,E,2,5,1.3,5.318,M,40.583,M,3.2,0136*7A\r\n
$GPGGA,120853.55,5700.9249058,N,00959.1691630,E,2,5,1.3,5.317,M,40.583,M,3.2,0136*72\r\n
$GPGGA,120853.60,5700.9249058,N,00959.1691638,E,2,5,1.3,5.317,M,40.583,M,3.2,0136*7C\r\n
$GPGGA,120853.65,5700.9249089,N,00959.1691628,E,2,5,1.3,5.319,M,40.583,M,3.4,0136*7C\r\n
$GPGGA,120853.70,5700.9249088,N,00959.1691635,E,2,5,1.3,5.319,M,40.583,M,3.4,0136*75\r\n
$GPGGA,120853.75,5700.9249089,N,00959.1691642,E,2,5,1.3,5.318,M,40.583,M,3.4,0136*70\r\n
$GPGGA,120853.80,5700.9249089,N,00959.1691649,E,2,5,1.3,5.318,M,40.583,M,3.4,0136*71\r\n
$GPGGA,120853.85,5700.9249076,N,00959.1691622,E,2,5,1.3,5.324,M,40.583,M,3.6,0136*74\r\n
$GPGGA,120853.90,5700.9249077,N,00959.1691630,E,2,5,1.3,5.324,M,40.583,M,3.6,0136*72\r\n
$GPGGA,120853.95,5700.9249078,N,00959.1691638,E,2,5,1.3,5.324,M,40.583,M,3.6,0136*70\r\n
$GPGGA,120854.00,5700.9249077,N,00959.1691646,E,2,5,1.3,5.323,M,40.583,M,3.6,0136*7A\r\n
$GPGGA,120854.05,5700.9249078,N,00959.1691698,E,2,5,1.3,5.327,M,40.583,M,3.8,0136*79\r\n
$GPGGA,120854.10,5700.9249079,N,00959.1691705,E,2,5,1.3,5.327,M,40.583,M,3.8,0136*79\r\n
$GPGGA,120854.15,5700.9249079,N,00959.1691715,E,2,5,1.3,5.327,M,40.583,M,3.8,0136*7D\r\n
$GPGGA,120854.20,5700.9249079,N,00959.1691725,E,2,5,1.3,5.326,M,40.583,M,3.8,0136*79\r\n
$GPGGA,120854.25,5700.9249145,N,00959.1691682,E,2,5,1.3,5.330,M,40.583,M,2.2,0136*72\r\n
$GPGGA,120854.30,5700.9249146,N,00959.1691685,E,2,5,1.3,5.330,M,40.583,M,2.2,0136*72\r\n
$GPGGA,120854.35,5700.9249147,N,00959.1691688,E,2,5,1.3,5.330,M,40.583,M,2.2,0136*7B\r\n
$GPGGA,120854.40,5700.9249148,N,00959.1691688,E,2,5,1.3,5.329,M,40.583,M,2.2,0136*7E\r\n
$GPGGA,120854.45,5700.9249107,N,00959.1691612,E,2,5,1.3,5.336,M,40.583,M,2.4,0136*7B\r\n
$GPGGA,120854.50,5700.9249108,N,00959.1691611,E,2,5,1.3,5.335,M,40.583,M,2.4,0136*70\r\n
$GPGGA,120854.55,5700.9249108,N,00959.1691613,E,2,5,1.3,5.335,M,40.583,M,2.4,0136*77\r\n
$GPGGA,120854.60,5700.9249109,N,00959.1691608,E,2,5,1.3,5.334,M,40.583,M,2.4,0136*7B\r\n
$GPGGA,120854.65,5700.9249111,N,00959.1691662,E,2,5,1.3,5.337,M,40.583,M,2.7,0136*7B\r\n
$GPGGA,120854.70,5700.9249112,N,00959.1691663,E,2,5,1.3,5.337,M,40.583,M,2.7,0136*7D\r\n
$GPGGA,120854.75,5700.9249112,N,00959.1691658,E,2,5,1.3,5.337,M,40.583,M,2.7,0136*70\r\n
$GPGGA,120854.80,5700.9249113,N,00959.1691660,E,2,5,1.3,5.336,M,40.583,M,2.7,0136*71\r\n
$GPGGA,120854.85,5700.9249169,N,00959.1691674,E,2,5,1.3,5.345,M,40.583,M,2.9,0136*76\r\n
$GPGGA,120854.90,5700.9249169,N,00959.1691671,E,2,5,1.3,5.345,M,40.583,M,2.9,0136*77\r\n
$GPGGA,120854.95,5700.9249170,N,00959.1691670,E,2,5,1.3,5.344,M,40.583,M,2.9,0136*7A\r\n
$GPGGA,120855.00,5700.9249172,N,00959.1691674,E,2,5,1.3,5.344,M,40.583,M,2.9,0136*71\r\n
$GPGGA,120855.05,5700.9249140,N,00959.1691677,E,2,5,1.3,5.348,M,40.583,M,3.2,0136*70\r\n
$GPGGA,120855.10,5700.9249141,N,00959.1691680,E,2,5,1.3,5.348,M,40.583,M,3.2,0136*7D\r\n
$GPGGA,120855.15,5700.9249142,N,00959.1691678,E,2,5,1.3,5.347,M,40.583,M,3.2,0136*73\r\n
$GPGGA,120855.20,5700.9249143,N,00959.1691679,E,2,5,1.3,5.347,M,40.583,M,3.2,0136*75\r\n
$GPGGA,120855.25,5700.9249126,N,00959.1691643,E,2,5,1.3,5.360,M,40.583,M,2.0,0136*7C\r\n
$GPGGA,120855.30,5700.9249126,N,00959.1691643,E,2,5,1.3,5.360,M,40.583,M,2.0,0136*78\r\n
$GPGGA,120855.35,5700.9249127,N,00959.1691641,E,2,5,1.3,5.359,M,40.583,M,2.0,0136*74\r\n
$GPGGA,120855.40,5700.9249128,N,00959.1691640,E,\x002,5,1.3,5.359,M,40.583,M,2.0,0136*78\r\n
$GPGGA,120855.45,5700.9249147,N,00\x00959.1691625,E,2,5,1.3,5.368,M,40.583,M,2.2,0136*77\r\n
$GPGGA,120855.50,5700.9249140,5700.9249266,N,00959.1691743,E,2,5,1.3,5.473,M,40.583,M,1.9,0136*7D\r\n
$GPGGA,120858.25,5700.9249262,N,00959.1691673,E,2,5,1.3,5.483,M,40.583,M,2.2,0136*79\r\n
$GPGGA,120858.30,5700.9249262,N,00959.1691671,E,2,5,1.3,5.483,M,40.583,M,2.2,0136*7F\r\n
$GPGGA,120858.35,5700.9249262,N,00959.1691674,E,2,5,1.3,5.483,M,40.583,M,2.2,0136*7F\r\n
$GPGGA,120858.40,5700.9249262,N,00959.1691672,E,2,5,1.3,5.483,M,40.583,M,2.2,0136*7B\r\n
$GPGGA,120858.45,5700.9249260,N,00959.1691700,E,2,5,1.3,5.494,M,40.583,M,2.4,0136*78\r\n
$GPGGA,120858.50,5700.9249260,N,00959.1691695,E,2,5,1.3,5.494,M,40.583,M,2.4,0136*71\r\n
$GPGGA,120858.55,5700.9249260,N,00959.1691692,E,2,5,1.3,5.494,M,40.583,M,2.4,0136*73\r\n
$GPGGA,120858.60,5700.9249261,N,00959.1691696,E,2,5,1.3,5.494,M,40.583,M,2.4,0136*70\r\n
$GPGGA,120858.65,5700.9249338,N,00959.1691705,E,2,5,1.3,5.504,M,40.583,M,2.7,0136*78\r\n
$GPGGA,120858.70,5700.9249339,N,00959.1691703,E,2,5,1.3,5.505,M,40.583,M,2.7,0136*7A\r\n
$GPGGA,120858.75,5700.9249339,N,00959.1691701,E,2,5,1.3,5.505,M,40.583,M,2.7,0136*7D\r\n
$GPGGA,120858.80,5700.9249339,N,00959.1691700,E,2,5,1.3,5.505,M,40.583,M,2.7,0136*76\r\n
$GPGGA,120858.85,5700.9249336,N,00959.1691729,E,2,5,1.3,5.509,M,40.583,M,2.9,0136*75\r\n
$GPGGA,120858.90,5700.9249337,N,00959.1691727,E,2,5,1.3,5.509,M,40.583,M,2.9,0136*7E\r\n
$GPGGA,120858.95,5700.9249337,N,00959.1691726,E,2,5,1.3,5.509,M,40.583,M,2.9,0136*7A\r\n
$GPGGA,120859.00,5700.9249338,N,00959.1691723,E,2,5,1.3,5.509,M,40.583,M,2.9,0136*7D\r\n
$GPGGA,120859.05,5700.9249342,N,00959.1691710,E,2,5,1.3,5.524,M,40.583,M,1.7,0136*77\r\n
$GPGGA,120859.10,5700.9249343,N,00959.1691709,E,2,5,1.3,5.523,M,40.583,M,1.7,0136*7D\r\n
$GPGGA,120859.15,5700.9249343,N,00959.1691710,E,2,5,1.3,5.523,M,40.583,M,1.7,0136*70\r\n
$GPGGA,120859.20,5700.9249344,N,00959.1691708,E,2,5,1.3,5.523,M,40.583,M,1.7,0136*78\r\n
$GPGGA,120859.25,5700.9249414,N,00959.1691743,E,2,5,1.3,5.534,M,40.583,M,2.0,0136*72\r\n
$GPGGA,120859.30,5700.9249414,N,00959.1691742,E,2,5,1.3,5.534,M,40.583,M,2.0,0136*77\r\n
$GPGGA,120859.35,5700.9249415,N,00959.1691741,E,2,5,1.3,5.534,M,40.583,M,2.0,0136*70\r\n
$GPGGA,120859.40,5700.9249416,N,00959.1691742,E,2,5,1.3,5.534,M,40.583,M,2.0,0136*72\r\n
$GPGGA,120859.45,5700.9249401,N,00959.1691766,E,2,5,1.3,5.545,M,40.583,M,2.2,0136*73\r\n
$GPGGA,120859.50,5700.9249402,N,00959.1691766,E,2,5,1.3,5.545,M,40.583,M,2.2,0136*74\r\n
$GPGGA,120859.55,5700.9249402,N,00959.1691766,E,2,5,1.3,5.545,M,40.583,M,2.2,0136*71\r\n
$GPGGA,120859.60,5700.9249403,N,00959.1691767,E,2,5,1.3,5.545,M,40.583,M,2.2,0136*77\r\n
$GPGGA,120859.65,5700.9249450,N,00959.1691724,E,2,5,1.3,5.560,M,40.583,M,2.4,0136*72\r\n
$GPGGA,120859.70,5700.9249451,N,00959.1691723,E,2,5,1.3,5.560,M,40.583,M,2.4,0136*70\r\n
$GPGGA,120859.75,5700.9249452,N,00959.1691721,E,2,5,1.3,5.560,M,40.583,M,2.4,0136*74\r\n
$GPGGA,120859.80,5700.9249453,N,00959.1691723,E,2,5,1.3,5.560,M,40.583,M,2.4,0136*7D\r\n
$GPGGA,120859.85,5700.9249481,N,00959.1691763,E,2,5,1.3,5.569,M,40.583,M,2.7,0136*79\r\n
$GPGGA,120859.90,5700.9249482,N,00959.1691763,E,2,5,1.3,5.569,M,40.583,M,2.7,0136*7E\r\n
$GPGGA,120859.95,5700.9249483,N,00959.1691760,E,2,5,1.3,5.569,M,40.583,M,2.7,0136*79\r\n
$GPGGA,120900.00,5700.9249483,N,00959.1691758,E,2,5,1.3,5.569,M,40.583,M,2.7,0136*73\r\n
$GPGGA,120900.05,5700.9249484,N,00959.1691708,E,2,5,1.3,5.583,M,40.583,M,1.6,0136*72\r\n
$GPGGA,120900.10,5700.9249484,N,00959.1691706,E,2,5,1.3,5.583,M,40.583,M,1.6,0136*78\r\n
$GPGGA,120900.15,5700.9249486,N,00959.1691708,E,2,5,1.3,5.583,M,40.583,M,1.6,0136*71\r\n
$GPGGA,120900.20,5700.9249487,N,00959.1691702,E,2,5,1.3,5.583,M,40.583,M,1.6,0136*7C\r\n
$GPGGA,120900.25,5700.9249528,N,00959.1691720,E,2,5,1.3,5.593,M,40.583,M,1.9,0136*73\r\n
$GPGGA,120900.30,5700.9249529,N,00959.1691718,E,2,5,1.3,5.594,M,40.583,M,1.9,0136*7A\r\n
$GPGGA,120900.35,5700.9249530,N,00959.1691718,E,2,5,1.3,5.594,M,40.583,M,1.9,0136*77\r\n
$GPGGA,120900.40,5700.9249531,N,00959.1691717,E,2,5,1.3,5.594,M,40.583,M,1.9,0136*7B\r\n
$GPGGA,120900.45,5700.9249545,N,00959.1691721,E,2,5,1.3,5.600,M,40.583,M,2.1,0136*7D\r\n
