$GPGGA,105135.90,5703.3634072,N,00952.2373065,E,2,11,0.8,-1.426,M,40.593,M,3.5,0123*6C\r\n
$GPGGA,105135.95,5703.3634237,N,00952.2373174,E,2,11,0.8,-1.427,M,40.593,M,3.5,0123*6A\r\n
$GPGGA,105136.00,5703.3634404,N,00952.2373296,E,2,11,0.8,-1.428,M,40.593,M,3.5,0123*63\r\n
$GPGGA,105136.05,5703.3634571,N,00952.2373416,E,2,11,0.8,-1.424,M,40.593,M,3.7,0123*65\r\n
$GPGGA,105136.10,5703.3634738,N,00952.2373539,E,2,11,0.8,-1.423,M,40.593,M,3.7,0123*65\r\n
$GPGGA,105136.15,5703.3634908,N,00952.2373653,E,2,11,0.8,-1.424,M,40.593,M,3.7,0123*65\r\n
$GPGGA,105136.20,5703.3635079,N,00952.2373763,E,2,11,0.8,-1.423,M,40.593,M,3.7,0123*68\r\n
$GPGGA,105136.25,5703.3635243,N,00952.2373883,E,2,11,0.8,-1.420,M,40.593,M,1.7,0123*66\r\n
$GPGGA,105136.30,5703.3635413,N,00952.2374001,E,2,11,0.8,-1.418,M,40.593,M,1.7,0123*6F\r\n
$GPGGA,105136.35,5703.3635577,N,00952.2374130,E,2,11,0.8,-1.416,M,40.593,M,1.7,0123*64\r\n
$GPGGA,105136.40,5703.3635744,N,00952.2374263,E,2,11,0.8,-1.417,M,40.593,M,1.7,0123*60\r\n
$GPGGA,105136.45,5703.3635910,N,00952.2374397,E,2,11,0.8,-1.417,M,40.593,M,1.9,0123*6E\r\n
$GPGGA,105136.50,5703.3636073,N,00952.2374533,E,2,11,0.8,-1.417,M,40.593,M,1.9,0123*6D\r\n
$GPGGA,105136.55,5703.3636250,N,00952.2374670,E,2,11,0.8,-1.415,M,40.593,M,1.9,0123*6D\r\n
$GPGGA,105136.60,5703.3636416,N,00952.2374803,E,2,11,0.8,-1.414,M,40.593,M,1.9,0123*64\r\n
$GPGGA,105136.65,5703.3636574,N,00952.2374939,E,2,11,0.8,-1.418,M,40.593,M,2.1,0123*6B\r\n
$GPGGA,105136.70,5703.3636743,N,00952.2375072,E,2,11,0.8,-1.418,M,40.593,M,2.1,0123*6E\r\n
$GPGGA,105136.75,5703.3636915,N,00952.2375201,E,2,11,0.8,-1.418,M,40.593,M,2.1,0123*60\r\n
$GPGGA,105136.80,5703.3637070,N,00952.2375341,E,2,11,0.8,-1.418,M,40.593,M,2.1,0123*64\r\n
$GPGGA,105136.85,5703.3637239,N,00952.2375473,E,2,11,0.8,-1.419,M,40.593,M,2.4,0123*6C\r\n
$GPGGA,105136.90,5703.3637413,N,00952.2375608,E,2,11,0.8,-1.420,M,40.593,M,2.4,0123*62\r\n
$GPGGA,105136.95,5703.3637582,N,00952.2375752,E,2,11,0.8,-1.420,M,40.593,M,2.4,0123*60\r\n
$GPGGA,105137.00,5703.3637749,N,00952.2375885,E,2,11,0.8,-1.422,M,40.593,M,2.4,0123*6F\r\n
$GPGGA,105137.05,5703.3637921,N,00952.2376005,E,2,11,0.8,-1.426,M,40.593,M,2.6,0123*6F\r\n
$GPGGA,105137.10,5703.3638094,N,00952.2376132,E,2,11,0.8,-1.428,M,40.593,M,2.6,0123*68\r\n
$GPGGA,105137.15,5703.3638263,N,00952.2376252,E,2,11,0.8,-1.428,M,40.593,M,2.6,0123*62\r\n
$GPGGA,105137.20,5703.3638431,N,00952.2376386,E,2,11,0.8,-1.430,M,40.593,M,2.6,0123*64\r\n
$GPGGA,105137.25,5703.3638603,N,00952.2376519,E,2,11,0.8,-1.431,M,40.593,M,1.9,0123*6F\r\n
$GPGGA,105137.30,5703.3638778,N,00952.2376653,E,2,11,0.8,-1.429,M,40.593,M,1.9,0123*62\r\n
$GPGGA,105137.35,5703.3638940,N,00952.2376794,E,2,11,0.8,-1.430,M,40.593,M,1.9,0123*60\r\n
$GPGGA,105137.40,5703.3639107,N,00952.2376938,E,2,11,0.8,-1.432,M,40.593,M,1.9,0123*62\r\n
$GPGGA,105137.45,5703.3639278,N,00952.2377077,E,2,11,0.8,-1.430,M,40.593,M,2.1,0123*66\r\n
$GPGGA,105137.50,5703.3639456,N,00952.2377206,E,2,11,0.8,-1.426,M,40.593,M,2.1,0123*6B\r\n
$GPGGA,105137.55,5703.3639621,N,00952.2377332,E,2,11,0.8,-1.426,M,40.593,M,2.1,0123*6A\r\n
$GPGGA,105137.60,5703.3639780,N,00952.2377463,E,2,11,0.8,-1.424,M,40.593,M,2.1,0123*67\r\n
$GPGGA,105137.65,5703.3639953,N,00952.2377584,E,2,11,0.8,-1.419,M,40.593,M,2.3,0123*66\r\n
$GPGGA,105137.70,5703.3640126,N,00952.2377716,E,2,11,0.8,-1.418,M,40.593,M,2.3,0123*6E\r\n
$GPGGA,105137.75,5703.3640291,N,00952.2377839,E,2,11,0.8,-1.417,M,40.593,M,2.3,0123*69\r\n
$GPGGA,105137.80,5703.3640459,N,00952.2377961,E,2,11,0.8,-1.413,M,40.593,M,2.3,0123*69\r\n
$GPGGA,105137.85,5703.3640635,N,00952.2378088,E,2,11,0.8,-1.409,M,40.593,M,2.5,0123*68\r\n
$GPGGA,105137.90,5703.3640806,N,00952.2378216,E,2,11,0.8,-1.408,M,40.593,M,2.5,0123*66\r\n
$GPGGA,105137.95,5703.3640972,N,00952.2378359,E,2,11,0.8,-1.407,M,40.593,M,2.5,0123*64\r\n
$GPGGA,105138.00,5703.3641134,N,00952.2378498,E,2,11,0.8,-1.408,M,40.593,M,2.5,0123*69\r\n
$GPGGA,105138.05,5703.3641303,N,00952.2378630,E,2,11,0.8,-1.411,M,40.593,M,2.7,0123*60\r\n
$GPGGA,105138.10,5703.3641477,N,00952.2378759,E,2,11,0.8,-1.411,M,40.593,M,2.7,0123*6E\r\n
$GPGGA,105138.15,5703.3641644,N,00952.2378875,E,2,11,0.8,-1.411,M,40.593,M,2.7,0123*68\r\n
$GPGGA,105138.20,5703.3641819,N,00952.2378997,E,2,11,0.8,-1.411,M,40.593,M,2.7,0123*65\r\n
$GPGGA,105138.25,5703.3641981,N,00952.2379129,E,2,11,0.8,-1.409,M,40.593,M,3.0,0123*63\r\n
$GPGGA,105138.30,5703.3642146,N,00952.2379274,E,2,11,0.8,-1.409,M,40.593,M,3.0,0123*6C\r\n
$GPGGA,105138.35,5703.3642314,N,00952.2379414,E,2,11,0.8,-1.411,M,40.593,M,3.0,0123*65\r\n
$GPGGA,105138.40,5703.3642471,N,00952.2379561,E,2,11,0.8,-1.414,M,40.593,M,3.0,0123*65\r\n
$GPGGA,105138.45,5703.3642629,N,00952.2379710,E,2,11,0.8,-1.418,M,40.593,M,3.2,0123*65\r\n
$GPGGA,105138.50,5703.3642794,N,00952.2379850,E,2,11,0.8,-1.419,M,40.593,M,3.2,0123*6C\r\n
$GPGGA,105138.55,5703.3642962,N,00952.2379980,E,2,11,0.8,-1.421,M,40.593,M,3.2,0123*69\r\n
$GPGGA,105138.60,5703.3643120,N,00952.2380106,E,2,11,0.8,-1.423,M,40.593,M,3.2,0123*62\r\n
$GPGGA,105138.65,5703.3643289,N,00952.2380241,E,2,11,0.8,-1.425,M,40.593,M,3.4,0123*67\r\n
$GPGGA,105138.70,5703.3643460,N,00952.2380374,E,2,11,0.8,-1.426,M,40.593,M,3.4,0123*66\r\n
$GPGGA,105138.75,5703.3643619,N,00952.2380515,E,2,11,0.8,-1.428,M,40.593,M,3.4,0123*60\r\n
$GPGGA,105138.80,5703.3643793,N,00952.2380640,E,2,11,0.8,-1.427,M,40.593,M,3.4,0123*65\r\n
$GPGGA,105138.85,5703.3643951,N,00952.2380796,E,2,11,0.8,-1.431,M,40.593,M,3.6,0123*6F\r\n
$GPGGA,105138.90,5703.3644114,N,00952.2380922,E,2,11,0.8,-1.435,M,40.593,M,3.6,0123*60\r\n
$GPGGA,105138.95,5703.3644277,N,00952.2381057,E,2,11,0.8,-1.436,M,40.593,M,3.6,0123*6A\r\n
$GPGGA,105139.00,5703.3644436,N,00952.2381186,E,2,11,0.8,-1.435,M,40.593,M,3.6,0123*6A\r\n
$GPGGA,105139.05,5703.3644601,N,00952.2381327,E,2,11,0.8,-1.439,M,40.593,M,3.8,0123*62\r\n
$GPGGA,105139.10,5703.3644764,N,00952.2381467,E,2,11,0.8,-1.439,M,40.593,M,3.8,0123*67\r\n
$GPGGA,105139.15,5703.3644933,N,00952.2381605,E,2,11,0.8,-1.438,M,40.593,M,3.8,0123*69\r\n
$GPGGA,105139.20,5703.3645101,N,00952.2381729,E,2,11,0.8,-1.438,M,40.593,M,3.8,0123*68\r\n
$GPGGA,105139.25,5703.3645274,N,00952.2381853,E,2,11,0.8,-1.436,M,40.593,M,2.7,0123*6E\r\n
$GPGGA,105139.30,5703.3645445,N,00952.2381996,E,2,11,0.8,-1.434,M,40.593,M,2.7,0123*64\r\n
$GPGGA,105139.35,5703.3645606,N,00952.2382145,E,2,11,0.8,-1.436,M,40.593,M,2.7,0123*63\r\n
$GPGGA,105139.40,5703.3645770,N,00952.2382279,E,2,11,0.8,-1.437,M,40.593,M,2.7,0123*6C\r\n
$GPGGA,105139.45,5703.3645942,N,00952.2382413,E,2,11,0.8,-1.432,M,40.593,M,3.0,0123*6F\r\n
$GPGGA,105139.50,5703.3646108,N,00952.2382552,E,2,11,0.8,-1.430,M,40.593,M,3.0,0123*68\r\n
$GPGGA,105139.55,5703.3646275,N,00952.2382695,E,2,11,0.8,-1.428,M,40.593,M,3.0,0123*65\r\n
$GPGGA,105139.60,5703.3646447,N,00952.2382832,E,2,11,0.8,-1.426,M,40.593,M,3.0,0123*69\r\n
$GPGGA,105139.65,5703.3646616,N,00952.2382959,E,2,11,0.8,-1.432,M,40.593,M,3.2,0123*61\r\n
$GPGGA,105139.70,5703.3646787,N,00952.2383099,E,2,11,0.8,-1.431,M,40.593,M,3.2,0123*6B\r\n
$GPGGA,105139.75,5703.3646952,N,00952.2383253,E,2,11,0.8,-1.433,M,40.593,M,3.2,0123*6E\r\n
$GPGGA,105139.80,5703.3647124,N,00952.2383397,E,2,11,0.8,-1.433,M,40.593,M,3.2,0123*65\r\n
$GPGGA,105139.85,5703.3647308,N,00952.2383524,E,2,11,0.8,-1.431,M,40.593,M,3.5,0123*67\r\n
$GPGGA,105139.90,5703.3647482,N,00952.2383658,E,2,11,0.8,-1.428,M,40.593,M,3.5,0123*66\r\n
$GPGGA,105139.95,5703.3647646,N,00952.2383813,E,2,11,0.8,-1.428,M,40.593,M,3.5,0123*68\r\n
$GPGGA,105140.00,5703.3647819,N,00952.2383963,E,2,11,0.8,-1.428,M,40.593,M,3.5,0123*68\r\n
$GPGGA,105140.05,5703.3648006,N,00952.2384116,E,2,11,0.8,-1.430,M,40.593,M,3.7,0123*62\r\n
$GPGGA,105140.10,5703.3648184,N,00952.2384254,E,2,11,0.8,-1.430,M,40.593,M,3.7,0123*68\r\n
$GPGGA,105140.15,5703.3648359,N,00952.2384394,E,2,11,0.8,-1.427,M,40.593,M,3.7,0123*64\r\n
$GPGGA,105140.20,5703.3648531,N,00952.2384531,E,2,11,0.8,-1.427,M,40.593,M,3.7,0123*63\r\n
$GPGGA,105140.25,5703.3648707,N,00952.2384664,E,2,11,0.8,-1.426,M,40.593,M,1.7,0123*61\r\n
$GPGGA,105140.30,5703.3648882,N,00952.2384804,E,2,11,0.8,-1.423,M,40.593,M,1.7,0123*6A\r\n
$GPGGA,105140.35,5703.3649054,N,00952.2384949,E,2,11,0.8,-1.423,M,40.593,M,1.7,0123*65\r\n
$GPGGA,105140.40,5703.3649220,N,00952.2385090,E,2,11,0.8,-1.422,M,40.593,M,1.7,0123*6B\r\n
$GPGGA,105140.45,5703.3649406,N,00952.2385212,E,2,11,0.8,-1.421,M,40.593,M,1.9,0123*69\r\n
$GPGGA,105140.50,5703.3649582,N,00952.2385342,E,2,11,0.8,-1.420,M,40.593,M,1.9,0123*65\r\n
$GPGGA,105140.55,5703.3649750,N,00952.2385477,E,2,11,0.8,-1.418,M,40.593,M,1.9,0123*67\r\n
$GPGGA,105140.60,5703.3649920,N,00952.2385609,E,2,11,0.8,-1.417,M,40.593,M,1.9,0123*6C\r\n
$GPGGA,105140.65,5703.3650099,N,00952.2385729,E,2,11,0.8,-1.417,M,40.593,M,2.1,0123*62\r\n
$GPGGA,105140.70,5703.3650274,N,00952.2385856,E,2,11,0.8,-1.416,M,40.593,M,2.1,0123*61\r\n
$GPGGA,105140.75,5703.3650451,N,00952.2385986,E,2,11,0.8,-1.414,M,40.593,M,2.1,0123*6B\r\n
$GPGGA,105140.80,5703.3650620,N,00952.2386120,E,2,11,0.8,-1.412,M,40.593,M,2.1,0123*64\r\n
$GPGGA,105140.85,5703.3650781,N,00952.2386274,E,2,11,0.8,-1.414,M,40.593,M,2.4,0123*6A\r\n
$GPGGA,105140.90,5703.3650944,N,00952.2386417,E,2,11,0.8,-1.413,M,40.593,M,2.4,0123*6D\r\n
$GPGGA,105140.95,5703.3651105,N,00952.2386559,E,2,11,0.8,-1.412,M,40.593,M,2.4,0123*6E\r\n
$GPGGA,105141.00,5703.3651274,N,00952.2386697,E,2,11,0.8,-1.411,M,40.593,M,2.4,0123*64\r\n
$GPGGA,105141.05,5703.3651444,N,00952.2386825,E,2,11,0.8,-1.416,M,40.593,M,2.6,0123*66\r\n
$GPGGA,105141.10,5703.3651616,N,00952.2386948,E,2,11,0.8,-1.416,M,40.593,M,2.6,0123*6D\r\n
$GPGGA,105141.15,5703.3651783,N,00952.2387086,E,2,11,0.8,-1.416,M,40.593,M,2.6,0123*6F\r\n
$GPGGA,105141.20,5703.3651952,N,00952.2387214,E,2,11,0.8,-1.418,M,40.593,M,2.6,0123*6C\r\n
$GPGGA,105141.25,5703.3652125,N,00952.2387339,E,2,11,0.8,-1.421,M,40.593,M,1.9,0123*6A\r\n
$GPGGA,105141.30,5703.3652284,N,00952.2387464,E,2,11,0.8,-1.424,M,40.593,M,1.9,0123*6C\r\n
$GPGGA,105141.35,5703.3652450,N,00952.2387598,E,2,11,0.8,-1.427,M,40.593,M,1.9,0123*67\r\n
$GPGGA,105141.40,5703.3652619,N,00952.2387738,E,2,11,0.8,-1.429,M,40.593,M,1.9,0123*6C\r\n
$GPGGA,105141.45,5703.3652784,N,00952.2387877,E,2,11,0.8,-1.431,M,40.593,M,2.1,0123*6A\r\n
$GPGGA,105141.50,5703.3652951,N,00952.2388002,E,2,11,0.8,-1.432,M,40.593,M,2.1,0123*6E\r\n
$GPGGA,105141.55,5703.3653121,N,00952.2388120,E,2,11,0.8,-1.434,M,40.593,M,2.1,0123*62\r\n
$GPGGA,105141.60,5703.3653289,N,00952.2388252,E,2,11,0.8,-1.437,M,40.593,M,2.1,0123*60\r\n
$GPGGA,105141.65,5703.3653453,N,00952.2388387,E,2,11,0.8,-1.440,M,40.593,M,2.3,0123*6F\r\n
$GPGGA,105141.70,5703.3653624,N,00952.2388523,E,2,11,0.8,-1.442,M,40.593,M,2.3,0123*63\r\n
$GPGGA,105141.75,5703.3653797,N,00952.2388663,E,2,11,0.8,-1.444,M,40.593,M,2.3,0123*6E\r\n
$GPGGA,105141.80,5703.3653978,N,00952.2388775,E,2,11,0.8,-1.444,M,40.593,M,2.3,0123*6D\r\n
$GPGGA,105141.85,5703.3654161,N,00952.2388900,E,2,11,0.8,-1.445,M,40.593,M,2.5,0123*64\r\n
$GPGGA,105141.90,5703.3654352,N,00952.2389029,E,2,11,0.8,-1.445,M,40.593,M,2.5,0123*61\r\n
$GPGGA,105141.95,5703.3654549,N,00952.2389141,E,2,11,0.8,-1.445,M,40.593,M,2.5,0123*67\r\n
$GPGGA,105142.00,5703.3654751,N,00952.2389257,E,2,11,0.8,-1.444,M,40.593,M,2.5,0123*66\r\n
$GPGGA,105142.05,5703.3654951,N,00952.2389382,E,2,11,0.8,-1.444,M,40.593,M,2.7,0123*66\r\n
$GPGGA,105142.10,5703.3655149,N,00952.2389505,E,2,11,0.8,-1.444,M,40.593,M,2.7,0123*6B\r\n
$GPGGA,105142.15,5703.3655361,N,00952.2389628,E,2,11,0.8,-1.443,M,40.593,M,2.7,0123*6D\r\n
$GPGGA,105142.20,5703.3655579,N,00952.2389747,E,2,11,0.8,-1.440,M,40.593,M,2.7,0123*6F\r\n
$GPGGA,105142.25,5703.3655804,N,00952.2389887,E,2,11,0.8,-1.434,M,40.593,M,3.0,0123*6B\r\n
$GPGGA,105142.30,5703.3656033,N,00952.2390019,E,2,11,0.8,-1.430,M,40.593,M,3.0,0123*63\r\n
$GPGGA,105142.35,5703.3656269,N,00952.2390164,E,2,11,0.8,-1.426,M,40.593,M,3.0,0123*67\r\n
$GPGGA,105142.40,5703.3656509,N,00952.2390317,E,2,11,0.8,-1.422,M,40.593,M,3.0,0123*66\r\n
$GPGGA,105142.45,5703.3656755,N,00952.2390473,E,2,11,0.8,-1.420,M,40.593,M,3.2,0123*6D\r\n
$GPGGA,105142.50,5703.3657006,N,00952.2390619,E,2,11,0.8,-1.416,M,40.593,M,3.2,0123*62\r\n
$GPGGA,105142.55,5703.3657277,N,00952.2390775,E,2,11,0.8,-1.410,M,40.593,M,3.2,0123*6E\r\n
$GPGGA,105142.60,5703.3657552,N,00952.2390928,E,2,11,0.8,-1.403,M,40.593,M,3.2,0123*6C\r\n
$GPGGA,105142.65,5703.3657830,N,00952.2391087,E,2,11,0.8,-1.396,M,40.593,M,3.4,0123*60\r\n
$GPGGA,105142.70,5703.3658109,N,00952.2391258,E,2,11,0.8,-1.393,M,40.593,M,3.4,0123*6D\r\n
$GPGGA,105142.75,5703.3658396,N,00952.2391420,E,2,11,0.8,-1.389,M,40.593,M,3.4,0123*6E\r\n
$GPGGA,105142.80,5703.3658688,N,00952.2391597,E,2,11,0.8,-1.383,M,40.593,M,3.4,0123*69\r\n
$GPGGA,105142.85,5703.3658989,N,00952.2391777,E,2,11,0.8,-1.384,M,40.593,M,3.6,0123*6B\r\n
$GPGGA,105142.90,5703.3659301,N,00952.2391973,E,2,11,0.8,-1.383,M,40.593,M,3.6,0123*69\r\n
$GPGGA,105142.95,5703.3659615,N,00952.2392160,E,2,11,0.8,-1.382,M,40.593,M,3.6,0123*64\r\n
$GPGGA,105143.00,5703.3659933,N,00952.2392356,E,2,11,0.8,-1.380,M,40.593,M,3.6,0123*67\r\n
$GPGGA,105143.05,5703.3660261,N,00952.2392560,E,2,11,0.8,-1.380,M,40.593,M,3.8,0123*69\r\n
$GPGGA,105143.10,5703.3660582,N,00952.2392756,E,2,11,0.8,-1.380,M,40.593,M,3.8,0123*60\r\n
$GPGGA,105143.15,5703.3660909,N,00952.2392949,E,2,11,0.8,-1.376,M,40.593,M,3.8,0123*63\r\n
$GPGGA,105143.20,5703.3661250,N,00952.2393144,E,2,11,0.8,-1.373,M,40.593,M,3.8,0123*62\r\n
$GPGGA,105143.25,5703.3661590,N,00952.2393358,E,2,11,0.8,-1.372,M,40.593,M,2.7,0123*6C\r\n
$GPGGA,105143.30,5703.3661940,N,00952.2393542,E,2,11,0.8,-1.371,M,40.593,M,2.7,0123*67\r\n
$GPGGA,105143.35,5703.3662297,N,00952.2393703,E,2,11,0.8,-1.368,M,40.593,M,2.7,0123*6F\r\n
$GPGGA,105143.40,5703.3662662,N,00952.2393876,E,2,11,0.8,-1.369,M,40.593,M,2.7,0123*6F\r\n
$GPGGA,105143.45,5703.3663028,N,00952.2394052,E,2,11,0.8,-1.372,M,40.593,M,3.0,0123*66\r\n
$GPGGA,105143.50,5703.3663393,N,00952.2394235,E,2,11,0.8,-1.372,M,40.593,M,3.0,0123*62\r\n
$GPGGA,105143.55,5703.3663761,N,00952.2394411,E,2,11,0.8,-1.371,M,40.593,M,3.0,0123*6D\r\n
$GPGGA,105143.60,5703.3664130,N,00952.2394595,E,2,11,0.8,-1.371,M,40.593,M,3.0,0123*63\r\n
$GPGGA,105143.65,5703.3664508,N,00952.2394786,E,2,11,0.8,-1.368,M,40.593,M,3.2,0123*63\r\n
$GPGGA,105143.70,5703.3664871,N,00952.2394973,E,2,11,0.8,-1.367,M,40.593,M,3.2,0123*6F\r\n
$GPGGA,105143.75,5703.3665240,N,00952.2395123,E,2,11,0.8,-1.366,M,40.593,M,3.2,0123*6E\r\n
$GPGGA,105143.80,5703.3665632,N,00952.2395260,E,2,11,0.8,-1.364,M,40.593,M,3.2,0123*63\r\n
$GPGGA,105143.85,5703.3666013,N,00952.2395415,E,2,11,0.8,-1.365,M,40.593,M,3.5,0123*62\r\n
$GPGGA,105143.90,5703.3666402,N,00952.2395563,E,2,11,0.8,-1.365,M,40.593,M,3.5,0123*62\r\n
$GPGGA,105143.95,5703.3666791,N,00952.2395711,E,2,11,0.8,-1.364,M,40.593,M,3.5,0123*68\r\n
$GPGGA,105144.00,5703.3667184,N,00952.2395856,E,2,11,0.8,-1.365,M,40.593,M,3.5,0123*6D\r\n
$GPGGA,105144.05,5703.3667581,N,00952.2395983,E,2,11,0.8,-1.366,M,40.593,M,3.7,0123*61\r\n
$GPGGA,105144.10,5703.3667988,N,00952.2396093,E,2,11,0.8,-1.366,M,40.593,M,3.7,0123*6B\r\n
$GPGGA,105144.15,5703.3668376,N,00952.2396214,E,2,11,0.8,-1.372,M,40.593,M,3.7,0123*62\r\n
$GPGGA,105144.20,5703.3668780,N,00952.2396330,E,2,11,0.8,-1.375,M,40.593,M,3.7,0123*69\r\n
$GPGGA,105144.25,5703.3669197,N,00952.2396421,E,2,11,0.8,-1.379,M,40.593,M,1.7,0123*64\r\n
$GPGGA,105144.30,5703.3669626,N,00952.2396504,E,2,11,0.8,-1.380,M,40.593,M,1.7,0123*6D\r\n
$GPGGA,105144.35,5703.3670053,N,00952.2396590,E,2,11,0.8,-1.383,M,40.593,M,1.7,0123*6A\r\n
$GPGGA,105144.40,5703.3670486,N,00952.2396675,E,2,11,0.8,-1.387,M,40.593,M,1.7,0123*68\r\n
$GPGGA,105144.45,5703.3670895,N,00952.2396770,E,2,11,0.8,-1.393,M,40.593,M,1.9,0123*6C\r\n
$GPGGA,105144.50,5703.3671317,N,00952.2396847,E,2,11,0.8,-1.395,M,40.593,M,1.9,0123*65\r\n
$GPGGA,105144.55,5703.3671750,N,00952.2396893,E,2,11,0.8,-1.398,M,40.593,M,1.9,0123*63\r\n
$GPGGA,105144.60,5703.3672187,N,00952.2396952,E,2,11,0.8,-1.399,M,40.593,M,1.9,0123*67\r\n
$GPGGA,105144.65,5703.3672619,N,00952.2396998,E,2,11,0.8,-1.402,M,40.593,M,2.1,0123*6A\r\n
$GPGGA,105144.70,5703.3673056,N,00952.2397049,E,2,11,0.8,-1.404,M,40.593,M,2.1,0123*60\r\n
$GPGGA,105144.75,5703.3673501,N,00952.2397092,E,2,11,0.8,-1.407,M,40.593,M,2.1,0123*67\r\n
$GPGGA,105144.80,5703.3673940,N,00952.2397124,E,2,11,0.8,-1.410,M,40.593,M,2.1,0123*6E\r\n
$GPGGA,105144.85,5703.3674396,N,00952.2397135,E,2,11,0.8,-1.413,M,40.593,M,2.4,0123*6B\r\n
$GPGGA,105144.90,5703.3674848,N,00952.2397156,E,2,11,0.8,-1.417,M,40.593,M,2.4,0123*66\r\n
$GPGGA,105144.95,5703.3675303,N,00952.2397162,E,2,11,0.8,-1.417,M,40.593,M,2.4,0123*61\r\n
$GPGGA,105145.00,5703.3675755,N,00952.2397138,E,2,11,0.8,-1.418,M,40.593,M,2.4,0123*6B\r\n
$GPGGA,105145.05,5703.3676219,N,00952.2397140,E,2,11,0.8,-1.417,M,40.593,M,2.6,0123*62\r\n
$GPGGA,105145.10,5703.3676680,N,00952.2397127,E,2,11,0.8,-1.417,M,40.593,M,2.6,0123*63\r\n
$GPGGA,105145.15,5703.3677149,N,00952.2397097,E,2,11,0.8,-1.414,M,40.593,M,2.6,0123*6C\r\n
$GPGGA,105145.20,5703.3677607,N,00952.2397059,E,2,11,0.8,-1.415,M,40.593,M,2.6,0123*64\r\n
$GPGGA,105145.25,5703.3678074,N,00952.2396993,E,2,11,0.8,-1.420,M,40.593,M,1.9,0123*68\r\n
$GPGGA,105145.30,5703.3678538,N,00952.2396923,E,2,11,0.8,-1.420,M,40.593,M,1.9,0123*6A\r\n
$GPGGA,105145.35,5703.3679021,N,00952.2396842,E,2,11,0.8,-1.418,M,40.593,M,1.9,0123*6E\r\n
$GPGGA,105145.40,5703.3679491,N,00952.2396773,E,2,11,0.8,-1.418,M,40.593,M,1.9,0123*6E\r\n
$GPGGA,105145.45,5703.3679976,N,00952.2396685,E,2,11,0.8,-1.416,M,40.593,M,2.1,0123*62\r\n
$GPGGA,105145.50,5703.3680452,N,00952.2396604,E,2,11,0.8,-1.413,M,40.593,M,2.1,0123*67\r\n
$GPGGA,105145.55,5703.3680934,N,00952.2396507,E,2,11,0.8,-1.416,M,40.593,M,2.1,0123*6A\r\n
$GPGGA,105145.60,5703.3681405,N,00952.2396394,E,2,11,0.8,-1.418,M,40.593,M,2.1,0123*60\r\n
$GPGGA,105145.65,5703.3681882,N,00952.2396267,E,2,11,0.8,-1.423,M,40.593,M,2.3,0123*61\r\n
$GPGGA,105145.70,5703.3682366,N,00952.2396118,E,2,11,0.8,-1.420,M,40.593,M,2.3,0123*6F\r\n
$GPGGA,105145.75,5703.3682857,N,00952.2395962,E,2,11,0.8,-1.420,M,40.593,M,2.3,0123*65\r\n
$GPGGA,105145.80,5703.3683338,N,00952.2395808,E,2,11,0.8,-1.420,M,40.593,M,2.3,0123*61\r\n
$GPGGA,105145.85,5703.3683820,N,00952.2395666,E,2,11,0.8,-1.418,M,40.593,M,2.5,0123*6D\r\n
$GPGGA,105145.90,5703.3684320,N,00952.2395479,E,2,11,0.8,-1.419,M,40.593,M,2.5,0123*68\r\n
$GPGGA,105145.95,5703.3684805,N,00952.2395297,E,2,11,0.8,-1.420,M,40.593,M,2.5,0123*6D\r\n
$GPGGA,105146.00,5703.3685310,N,00952.2395105,E,2,11,0.8,-1.419,M,40.593,M,2.5,0123*6E\r\n
$GPGGA,105146.05,5703.3685797,N,00952.2394903,E,2,11,0.8,-1.427,M,40.593,M,2.7,0123*60\r\n
$GPGGA,105146.10,5703.3686287,N,00952.2394694,E,2,11,0.8,-1.427,M,40.593,M,2.7,0123*62\r\n
$GPGGA,105146.15,5703.3686792,N,00952.2394471,E,2,11,0.8,-1.428,M,40.593,M,2.7,0123*60\r\n
$GPGGA,105146.20,5703.3687284,N,00952.2394243,E,2,11,0.8,-1.428,M,40.593,M,2.7,0123*62\r\n
$GPGGA,105146.25,5703.3687787,N,00952.2393994,E,2,11,0.8,-1.425,M,40.593,M,3.0,0123*6C\r\n
$GPGGA,105146.30,5703.3688290,N,00952.2393729,E,2,11,0.8,-1.423,M,40.593,M,3.0,0123*6A\r\n
$GPGGA,105146.35,5703.3688792,N,00952.2393459,E,2,11,0.8,-1.423,M,40.593,M,3.0,0123*6C\r\n
$GPGGA,105146.40,5703.3689304,N,00952.2393192,E,2,11,0.8,-1.421,M,40.593,M,3.0,0123*64\r\n
$GPGGA,105146.45,5703.3689811,N,00952.2392922,E,2,11,0.8,-1.420,M,40.593,M,3.2,0123*6F\r\n
$GPGGA,105146.50,5703.3690320,N,00952.2392651,E,2,11,0.8,-1.418,M,40.593,M,3.2,0123*6A\r\n
$GPGGA,105146.55,5703.3690818,N,00952.2392355,E,2,11,0.8,-1.417,M,40.593,M,3.2,0123*61\r\n
$GPGGA,105146.60,5703.3691313,N,00952.2392058,E,2,11,0.8,-1.416,M,40.593,M,3.2,0123*69\r\n
$GPGGA,105146.65,5703.3691822,N,00952.2391758,E,2,11,0.8,-1.419,M,40.593,M,3.4,0123*68\r\n
$GPGGA,105146.70,5703.3692341,N,00952.2391446,E,2,11,0.8,-1.415,M,40.593,M,3.4,0123*61\r\n
$GPGGA,105146.75,5703.3692855,N,00952.2391142,E,2,11,0.8,-1.411,M,40.593,M,3.4,0123*6F\r\n
$GPGGA,105146.80,5703.3693379,N,00952.2390818,E,2,11,0.8,-1.406,M,40.593,M,3.4,0123*60\r\n
$GPGGA,105146.85,5703.3693885,N,00952.2390492,E,2,11,0.8,-1.400,M,40.593,M,3.6,0123*67\r\n
$GPGGA,105146.90,5703.3694394,N,00952.2390151,E,2,11,0.8,-1.401,M,40.593,M,3.6,0123*64\r\n
$GPGGA,105146.95,5703.3694907,N,00952.2389809,E,2,11,0.8,-1.400,M,40.593,M,3.6,0123*6C\r\n
$GPGGA,105147.00,5703.3695428,N,00952.2389452,E,2,11,0.8,-1.400,M,40.593,M,3.6,0123*62\r\n
$GPGGA,105147.05,5703.3695952,N,00952.2389075,E,2,11,0.8,-1.401,M,40.593,M,3.8,0123*69\r\n
$GPGGA,105147.10,5703.3696453,N,00952.2388702,E,2,11,0.8,-1.402,M,40.593,M,3.8,0123*67\r\n
$GPGGA,105147.15,5703.3696961,N,00952.2388313,E,2,11,0.8,-1.402,M,40.593,M,3.8,0123*6A\r\n
$GPGGA,105147.20,5703.3697466,N,00952.2387943,E,2,11,0.8,-1.404,M,40.593,M,3.8,0123*61\r\n
$GPGGA,105147.25,5703.3697991,N,00952.2387530,E,2,11,0.8,-1.400,M,40.593,M,2.7,0123*63\r\n
$GPGGA,105147.30,5703.3698497,N,00952.2387119,E,2,11,0.8,-1.399,M,40.593,M,2.7,0123*6B\r\n
$GPGGA,105147.35,5703.3698993,N,00952.2386690,E,2,11,0.8,-1.400,M,40.593,M,2.7,0123*67\r\n
$GPGGA,105147.40,5703.3699505,N,00952.2386263,E,2,11,0.8,-1.400,M,40.593,M,2.7,0123*6F\r\n
$GPGGA,105147.45,5703.3700003,N,00952.2385819,E,2,11,0.8,-1.403,M,40.593,M,3.0,0123*69\r\n
$GPGGA,105147.50,5703.3700500,N,00952.2385385,E,2,11,0.8,-1.405,M,40.593,M,3.0,0123*63\r\n
$GPGGA,105147.55,5703.3701012,N,00952.2384949,E,2,11,0.8,-1.405,M,40.593,M,3.0,0123*6A\r\n
$GPGGA,105147.60,5703.3701524,N,00952.2384510,E,2,11,0.8,-1.405,M,40.593,M,3.0,0123*6C\r\n
$GPGGA,105147.65,5703.3702033,N,00952.2384072,E,2,11,0.8,-1.406,M,40.593,M,3.2,0123*69\r\n
$GPGGA,105147.70,5703.3702542,N,00952.2383611,E,2,11,0.8,-1.404,M,40.593,M,3.2,0123*68\r\n
$GPGGA,105147.75,5703.3703039,N,00952.2383141,E,2,11,0.8,-1.404,M,40.593,M,3.2,0123*67\r\n
$GPGGA,105147.80,5703.3703530,N,00952.2382665,E,2,11,0.8,-1.408,M,40.593,M,3.2,0123*6D\r\n
$GPGGA,105147.85,5703.3704033,N,00952.2382190,E,2,11,0.8,-1.410,M,40.593,M,3.5,0123*6A\r\n
$GPGGA,105147.90,5703.3704539,N,00952.2381713,E,2,11,0.8,-1.410,M,40.593,M,3.5,0123*6F\r\n
$GPGGA,105147.95,5703.3705044,N,00952.2381228,E,2,11,0.8,-1.410,M,40.593,M,3.5,0123*69\r\n
$GPGGA,105148.00,5703.3705542,N,00952.2380734,E,2,11,0.8,-1.409,M,40.593,M,3.5,0123*68\r\n
$GPGGA,105148.05,5703.3706037,N,00952.2380251,E,2,11,0.8,-1.409,M,40.593,M,3.7,0123*6D\r\n
$GPGGA,105148.10,5703.3706535,N,00952.2379751,E,2,11,0.8,-1.409,M,40.593,M,3.7,0123*6D\r\n
$GPGGA,105148.15,5703.3707035,N,00952.2379234,E,2,11,0.8,-1.408,M,40.593,M,3.7,0123*6B\r\n
$GPGGA,105148.20,5703.3707530,N,00952.2378719,E,2,11,0.8,-1.406,M,40.593,M,3.7,0123*68\r\n
$GPGGA,105148.25,5703.3708019,N,00952.2378203,E,2,11,0.8,-1.404,M,40.593,M,1.7,0123*62\r\n
$GPGGA,105148.30,5703.3708512,N,00952.2377661,E,2,11,0.8,-1.406,M,40.593,M,1.7,0123*65\r\n
$GPGGA,105148.35,5703.3709005,N,00952.2377104,E,2,11,0.8,-1.407,M,40.593,M,1.7,0123*67\r\n
$GPGGA,105148.40,5703.3709503,N,00952.2376541,E,2,11,0.8,-1.408,M,40.593,M,1.7,0123*6D\r\n
$GPGGA,105148.45,5703.3710000,N,00952.2375975,E,2,11,0.8,-1.410,M,40.593,M,1.9,0123*69\r\n
$GPGGA,105148.50,5703.3710482,N,00952.2375388,E,2,11,0.8,-1.413,M,40.593,M,1.9,0123*68\r\n
$GPGGA,105148.55,5703.3710960,N,00952.2374788,E,2,11,0.8,-1.416,M,40.593,M,1.9,0123*6C\r\n
$GPGGA,105148.60,5703.3711451,N,00952.2374179,E,2,11,0.8,-1.418,M,40.593,M,1.9,0123*62\r\n
$GPGGA,105148.65,5703.3711938,N,00952.2373571,E,2,11,0.8,-1.429,M,40.593,M,2.1,0123*67\r\n
$GPGGA,105148.70,5703.3712425,N,00952.2372963,E,2,11,0.8,-1.433,M,40.593,M,2.1,0123*64\r\n
$GPGGA,105148.75,5703.3712898,N,00952.2372341,E,2,11,0.8,-1.437,M,40.593,M,2.1,0123*65\r\n
$GPGGA,105148.80,5703.3713375,N,00952.2371727,E,2,11,0.8,-1.442,M,40.593,M,2.1,0123*63\r\n
$GPGGA,105148.85,5703.3713854,N,00952.2371092,E,2,11,0.8,-1.442,M,40.593,M,2.4,0123*62\r\n
$GPGGA,105148.90,5703.3714326,N,00952.2370457,E,2,11,0.8,-1.443,M,40.593,M,2.4,0123*62\r\n
$GPGGA,105148.95,5703.3714799,N,00952.2369823,E,2,11,0.8,-1.444,M,40.593,M,2.4,0123*67\r\n
$GPGGA,105149.00,5703.3715272,N,00952.2369176,E,2,11,0.8,-1.445,M,40.593,M,2.4,0123*63\r\n
$GPGGA,105149.05,5703.3715765,N,00952.2368518,E,2,11,0.8,-1.445,M,40.593,M,2.6,0123*6A\r\n
$GPGGA,105149.10,5703.3716255,N,00952.2367862,E,2,11,0.8,-1.450,M,40.593,M,2.6,0123*60\r\n
$GPGGA,105149.15,5703.3716731,N,00952.2367190,E,2,11,0.8,-1.452,M,40.593,M,2.6,0123*64\r\n
$GPGGA,105149.20,5703.3717203,N,00952.2366525,E,2,11,0.8,-1.454,M,40.593,M,2.6,0123*6A\r\n
$GPGGA,105149.25,5703.3717693,N,00952.2365845,E,2,11,0.8,-1.453,M,40.593,M,1.9,0123*61\r\n
$GPGGA,105149.30,5703.3718175,N,00952.2365173,E,2,11,0.8,-1.454,M,40.593,M,1.9,0123*6E\r\n
$GPGGA,105149.35,5703.3718663,N,00952.2364497,E,2,11,0.8,-1.453,M,40.593,M,1.9,0123*62\r\n
$GPGGA,105149.40,5703.3719141,N,00952.2363811,E,2,11,0.8,-1.452,M,40.593,M,1.9,0123*62\r\n
$GPGGA,105149.45,5703.3719626,N,00952.2363122,E,2,11,0.8,-1.446,M,40.593,M,2.1,0123*66\r\n
$GPGGA,105149.50,5703.3720109,N,00952.2362440,E,2,11,0.8,-1.445,M,40.593,M,2.1,0123*61\r\n
$GPGGA,105149.55,5703.3720598,N,00952.2361752,E,2,11,0.8,-1.441,M,40.593,M,2.1,0123*6F\r\n
$GPGGA,105149.60,5703.3721085,N,00952.2361064,E,2,11,0.8,-1.436,M,40.593,M,2.1,0123*63\r\n
$GPGGA,105149.65,5703.3721574,N,00952.2360382,E,2,11,0.8,-1.423,M,40.593,M,2.3,0123*61\r\n
$GPGGA,105149.70,5703.3722050,N,00952.2359701,E,2,11,0.8,-1.420,M,40.593,M,2.3,0123*63\r\n
$GPGGA,105149.75,5703.3722538,N,00952.2359016,E,2,11,0.8,-1.418,M,40.593,M,2.3,0123*67\r\n
$GPGGA,105149.80,5703.3723038,N,00952.2358343,E,2,11,0.8,-1.413,M,40.593,M,2.3,0123*60\r\n
$GPGGA,105149.85,5703.3723524,N,00952.2357673,E,2,11,0.8,-1.409,M,40.593,M,2.5,0123*69\r\n
$GPGGA,105149.90,5703.3724023,N,00952.2356982,E,2,11,0.8,-1.405,M,40.593,M,2.5,0123*64\r\n
$GPGGA,105149.95,5703.3724520,N,00952.2356294,E,2,11,0.8,-1.403,M,40.593,M,2.5,0123*6D\r\n
$GPGGA,105150.00,5703.3725016,N,00952.2355603,E,2,11,0.8,-1.398,M,40.593,M,2.5,0123*64\r\n
$GPGGA,105150.05,5703.3725500,N,00952.2354895,E,2,11,0.8,-1.396,M,40.593,M,2.7,0123*6F\r\n
$GPGGA,105150.10,5703.3725985,N,00952.2354181,E,2,11,0.8,-1.396,M,40.593,M,2.7,0123*66\r\n
$GPGGA,105150.15,5703.3726477,N,00952.2353464,E,2,11,0.8,-1.395,M,40.593,M,2.7,0123*6A\r\n
$GPGGA,105150.20,5703.3726964,N,00952.2352726,E,2,11,0.8,-1.397,M,40.593,M,2.7,0123*65\r\n
$GPGGA,105150.25,5703.3727449,N,00952.2351981,E,2,11,0.8,-1.395,M,40.593,M,3.0,0123*67\r\n
$GPGGA,105150.30,5703.3727928,N,00952.2351234,E,2,11,0.8,-1.399,M,40.593,M,3.0,0123*60\r\n
$GPGGA,105150.35,5703.3728413,N,00952.2350485,E,2,11,0.8,-1.401,M,40.593,M,3.0,0123*64\r\n
$GPGGA,105150.40,5703.3728899,N,00952.2349741,E,2,11,0.8,-1.404,M,40.593,M,3.0,0123*6E\r\n
$GPGGA,105150.45,5703.3729384,N,00952.2349004,E,2,11,0.8,-1.416,M,40.593,M,3.2,0123*6A\r\n
$GPGGA,105150.50,5703.3729874,N,00952.2348261,E,2,11,0.8,-1.422,M,40.593,M,3.2,0123*6D\r\n
$GPGGA,105150.55,5703.3730347,N,00952.2347506,E,2,11,0.8,-1.427,M,40.593,M,3.2,0123*67\r\n
$GPGGA,105150.60,5703.3730823,N,00952.2346749,E,2,11,0.8,-1.434,M,40.593,M,3.2,0123*62\r\n
$GPGGA,105150.65,5703.3731319,N,00952.2346001,E,2,11,0.8,-1.432,M,40.593,M,3.4,0123*6F\r\n
$GPGGA,105150.70,5703.3731806,N,00952.2345256,E,2,11,0.8,-1.438,M,40.593,M,3.4,0123*67\r\n
$GPGGA,105150.75,5703.3732289,N,00952.2344509,E,2,11,0.8,-1.441,M,40.593,M,3.4,0123*6E\r\n
$GPGGA,105150.80,5703.3732774,N,00952.2343770,E,2,11,0.8,-1.442,M,40.593,M,3.4,0123*6B\r\n
$GPGGA,105150.85,5703.3733272,N,00952.2343029,E,2,11,0.8,-1.443,M,40.593,M,3.6,0123*64\r\n
$GPGGA,105150.90,5703.3733771,N,00952.2342280,E,2,11,0.8,-1.444,M,40.593,M,3.6,0123*61\r\n
$GPGGA,105150.95,5703.3734253,N,00952.2341534,E,2,11,0.8,-1.446,M,40.593,M,3.6,0123*6F\r\n
$GPGGA,105151.00,5703.3734739,N,00952.2340789,E,2,11,0.8,-1.448,M,40.593,M,3.6,0123*60\r\n
$GPGGA,105151.05,5703.3735234,N,00952.2340055,E,2,11,0.8,-1.450,M,40.593,M,3.8,0123*6D\r\n
$GPGGA,105151.10,5703.3735737,N,00952.2339318,E,2,11,0.8,-1.449,M,40.593,M,3.8,0123*63\r\n
$GPGGA,105151.15,5703.3736226,N,00952.2338582,E,2,11,0.8,-1.449,M,40.593,M,3.8,0123*64\r\n
$GPGGA,105151.20,5703.3736712,N,00952.2337829,E,2,11,0.8,-1.449,M,40.593,M,3.8,0123*63\r\n
$GPGGA,105151.25,5703.3737192,N,00952.2337072,E,2,11,0.8,-1.450,M,40.593,M,4.0,0123*68\r\n
$GPGGA,105151.30,5703.3737680,N,00952.2336304,E,2,11,0.8,-1.449,M,40.593,M,4.0,0123*63\r\n
$GPGGA,105151.35,5703.3738163,N,00952.2335515,E,2,11,0.8,-1.449,M,40.593,M,4.0,0123*66\r\n
$GPGGA,105151.40,5703.3738646,N,00952.2334731,E,2,11,0.8,-1.449,M,40.593,M,4.0,0123*61\r\n
$GPGGA,105151.45,5703.3739129,N,00952.2333948,E,2,11,0.8,-1.440,M,40.593,M,3.0,0123*62\r\n
$GPGGA,105151.50,5703.3739602,N,00952.2333156,E,2,11,0.8,-1.436,M,40.593,M,3.0,0123*6E\r\n
$GPGGA,105151.55,5703.3740076,N,00952.2332357,E,2,11,0.8,-1.430,M,40.593,M,3.0,0123*64\r\n
$GPGGA,105151.60,5703.3740550,N,00952.2331560,E,2,11,0.8,-1.427,M,40.593,M,3.0,0123*64\r\n
$GPGGA,105151.65,5703.3741020,N,00952.2330788,E,2,11,0.8,-1.425,M,40.593,M,3.2,0123*67\r\n
$GPGGA,105151.70,5703.3741504,N,00952.2330004,E,2,11,0.8,-1.420,M,40.593,M,3.2,0123*66\r\n
$GPGGA,105151.75,5703.3741990,N,00952.2329200,E,2,11,0.8,-1.414,M,40.593,M,3.2,0123*6B\r\n
$GPGGA,105151.80,5703.3742470,N,00952.2328405,E,2,11,0.8,-1.410,M,40.593,M,3.2,0123*67\r\n
$GPGGA,105151.85,5703.3742950,N,00952.2327624,E,2,11,0.8,-1.406,M,40.593,M,3.5,0123*63\r\n
$GPGGA,105151.90,5703.3743431,N,00952.2326872,E,2,11,0.8,-1.403,M,40.593,M,3.5,0123*65\r\n
$GPGGA,105151.95,5703.3743922,N,00952.2326095,E,2,11,0.8,-1.401,M,40.593,M,3.5,0123*6C\r\n
$GPGGA,105152.00,5703.3744414,N,00952.2325311,E,2,11,0.8,-1.399,M,40.593,M,3.5,0123*66\r\n
$GPGGA,105152.05,5703.3744895,N,00952.2324550,E,2,11,0.8,-1.402,M,40.593,M,3.7,0123*63\r\n
$GPGGA,105152.10,5703.3745379,N,00952.2323790,E,2,11,0.8,-1.402,M,40.593,M,3.7,0123*66\r\n
$GPGGA,105152.15,5703.3745877,N,00952.2323022,E,2,11,0.8,-1.401,M,40.593,M,3.7,0123*6B\r\n
$GPGGA,105152.20,5703.3746360,N,00952.2322263,E,2,11,0.8,-1.404,M,40.593,M,3.7,0123*60\r\n
$GPGGA,105152.25,5703.3746856,N,00952.2321504,E,2,11,0.8,-1.398,M,40.593,M,4.0,0123*6C\r\n
$GPGGA,105152.30,5703.3747358,N,00952.2320738,E,2,11,0.8,-1.400,M,40.593,M,4.0,0123*66\r\n
$GPGGA,105152.35,5703.3747859,N,00952.2319985,E,2,11,0.8,-1.401,M,40.593,M,4.0,0123*6A\r\n
$GPGGA,105152.40,5703.3748362,N,00952.2319211,E,2,11,0.8,-1.403,M,40.593,M,4.0,0123*60\r\n
$GPGGA,105152.45,5703.3748862,N,00952.2318452,E,2,11,0.8,-1.405,M,40.593,M,1.9,0123*64\r\n
$GPGGA,105152.50,5703.3749348,N,00952.2317689,E,2,11,0.8,-1.410,M,40.593,M,1.9,0123*6D\r\n
$GPGGA,105152.55,5703.3749841,N,00952.2316929,E,2,11,0.8,-1.415,M,40.593,M,1.9,0123*6B\r\n
$GPGGA,105152.60,5703.3750335,N,00952.2316165,E,2,11,0.8,-1.418,M,40.593,M,1.9,0123*60\r\n
$GPGGA,105152.65,5703.3750815,N,00952.2315384,E,2,11,0.8,-1.424,M,40.593,M,2.1,0123*66\r\n
$GPGGA,105152.70,5703.3751301,N,00952.2314601,E,2,11,0.8,-1.427,M,40.593,M,2.1,0123*67\r\n
$GPGGA,105152.75,5703.3751784,N,00952.2313814,E,2,11,0.8,-1.432,M,40.593,M,2.1,0123*62\r\n
$GPGGA,105152.80,5703.3752272,N,00952.2313039,E,2,11,0.8,-1.433,M,40.593,M,2.1,0123*61\r\n
$GPGGA,105152.85,5703.3752750,N,00952.2312237,E,2,11,0.8,-1.433,M,40.593,M,2.4,0123*69\r\n
$GPGGA,105152.90,5703.3753216,N,00952.2311435,E,2,11,0.8,-1.435,M,40.593,M,2.4,0123*6A\r\n
$GPGGA,105152.95,5703.3753682,N,00952.2310625,E,2,11,0.8,-1.437,M,40.593,M,2.4,0123*66\r\n
$GPGGA,105153.00,5703.3754154,N,00952.2309801,E,2,11,0.8,-1.438,M,40.593,M,2.4,0123*6F\r\n
$GPGGA,105153.05,5703.3754631,N,00952.2308981,E,2,11,0.8,-1.439,M,40.593,M,2.6,0123*65\r\n
$GPGGA,105153.10,5703.3755100,N,00952.2308160,E,2,11,0.8,-1.439,M,40.593,M,2.6,0123*62\r\n
$GPGGA,105153.15,5703.3755567,N,00952.2307321,E,2,11,0.8,-1.439,M,40.593,M,2.6,0123*6A\r\n
$GPGGA,105153.20,5703.3756022,N,00952.2306488,E,2,11,0.8,-1.439,M,40.593,M,2.6,0123*6E\r\n
$GPGGA,105153.25,5703.3756472,N,00952.2305635,E,2,11,0.8,-1.439,M,40.593,M,2.8,0123*63\r\n
$GPGGA,105153.30,5703.3756925,N,00952.2304776,E,2,11,0.8,-1.440,M,40.593,M,2.8,0123*61\r\n
$GPGGA,105153.35,5703.3757375,N,00952.2303906,E,2,11,0.8,-1.440,M,40.593,M,2.8,0123*64\r\n
$GPGGA,105153.40,5703.3757829,N,00952.2303035,E,2,11,0.8,-1.435,M,40.593,M,2.8,0123*6F\r\n
$GPGGA,105153.45,5703.3758281,N,00952.2302167,E,2,11,0.8,-1.435,M,40.593,M,2.1,0123*63\r\n
$GPGGA,105153.50,5703.3758724,N,00952.2301299,E,2,11,0.8,-1.438,M,40.593,M,2.1,0123*61\r\n
$GPGGA,105153.55,5703.3759174,N,00952.2300423,E,2,11,0.8,-1.436,M,40.593,M,2.1,0123*6E\r\n
$GPGGA,105153.60,5703.3759629,N,00952.2299564,E,2,11,0.8,-1.435,M,40.593,M,2.1,0123*67\r\n
$GPGGA,105153.65,5703.3760075,N,00952.2298709,E,2,11,0.8,-1.438,M,40.593,M,2.3,0123*60\r\n
$GPGGA,105153.70,5703.3760536,N,00952.2297855,E,2,11,0.8,-1.439,M,40.593,M,2.3,0123*6E\r\n
$GPGGA,105153.75,5703.3760987,N,00952.2296997,E,2,11,0.8,-1.440,M,40.593,M,2.3,0123*6D\r\n
$GPGGA,105153.80,5703.3761436,N,00952.2296125,E,2,11,0.8,-1.440,M,40.593,M,2.3,0123*60\r\n
$GPGGA,105153.85,5703.3761884,N,00952.2295241,E,2,11,0.8,-1.443,M,40.593,M,2.5,0123*67\r\n
$GPGGA,105153.90,5703.3762326,N,00952.2294359,E,2,11,0.8,-1.443,M,40.593,M,2.5,0123*6A\r\n
$GPGGA,105153.95,5703.3762770,N,00952.2293493,E,2,11,0.8,-1.441,M,40.593,M,2.5,0123*6C\r\n
$GPGGA,105154.00,5703.3763213,N,00952.2292613,E,2,11,0.8,-1.442,M,40.593,M,2.5,0123*6E\r\n
$GPGGA,105154.05,5703.3763664,N,00952.2291724,E,2,11,0.8,-1.443,M,40.593,M,2.7,0123*6A\r\n
$GPGGA,105154.10,5703.3764112,N,00952.2290837,E,2,11,0.8,-1.440,M,40.593,M,2.7,0123*60\r\n
$GPGGA,105154.15,5703.3764553,N,00952.2289948,E,2,11,0.8,-1.437,M,40.593,M,2.7,0123*65\r\n
$GPGGA,105154.20,5703.3764994,N,00952.2289050,E,2,11,0.8,-1.433,M,40.593,M,2.7,0123*60\r\n
$GPGGA,105154.25,5703.3765419,N,00952.2288158,E,2,11,0.8,-1.429,M,40.593,M,3.0,0123*69\r\n
$GPGGA,105154.30,5703.3765855,N,00952.2287259,E,2,11,0.8,-1.426,M,40.593,M,3.0,0123*6B\r\n
$GPGGA,105154.35,5703.3766290,N,00952.2286359,E,2,11,0.8,-1.423,M,40.593,M,3.0,0123*6B\r\n
$GPGGA,105154.40,5703.3766727,N,00952.2285464,E,2,11,0.8,-1.418,M,40.593,M,3.0,0123*62\r\n
$GPGGA,105154.45,5703.3767158,N,00952.2284552,E,2,11,0.8,-1.415,M,40.593,M,3.2,0123*62\r\n
$GPGGA,105154.50,5703.3767576,N,00952.2283639,E,2,11,0.8,-1.412,M,40.593,M,3.2,0123*60\r\n
$GPGGA,105154.55,5703.3768000,N,00952.2282715,E,2,11,0.8,-1.408,M,40.593,M,3.2,0123*6B\r\n
$GPGGA,105154.60,5703.3768425,N,00952.2281789,E,2,11,0.8,-1.408,M,40.593,M,3.2,0123*68\r\n
$GPGGA,105154.65,5703.3768837,N,00952.2280862,E,2,11,0.8,-1.414,M,40.593,M,3.4,0123*62\r\n
$GPGGA,105154.70,5703.3769261,N,00952.2279923,E,2,11,0.8,-1.413,M,40.593,M,3.4,0123*6B\r\n
$GPGGA,105154.75,5703.3769660,N,00952.2278960,E,2,11,0.8,-1.416,M,40.593,M,3.4,0123*68\r\n
$GPGGA,105154.80,5703.3770062,N,00952.2277997,E,2,11,0.8,-1.418,M,40.593,M,3.4,0123*67\r\n
$GPGGA,105154.85,5703.3770463,N,00952.2277017,E,2,11,0.8,-1.415,M,40.593,M,3.6,0123*69\r\n
$GPGGA,105154.90,5703.3770863,N,00952.2276052,E,2,11,0.8,-1.417,M,40.593,M,3.6,0123*63\r\n
$GPGGA,105154.95,5703.3771251,N,00952.2275075,E,2,11,0.8,-1.419,M,40.593,M,3.6,0123*64\r\n
$GPGGA,105155.00,5703.3771623,N,00952.2274114,E,2,11,0.8,-1.420,M,40.593,M,3.6,0123*65\r\n
$GPGGA,105155.05,5703.3772004,N,00952.2273126,E,2,11,0.8,-1.426,M,40.593,M,3.8,0123*6E\r\n
$GPGGA,105155.10,5703.3772377,N,00952.2272140,E,2,11,0.8,-1.427,M,40.593,M,3.8,0123*6D\r\n
$GPGGA,105155.15,5703.3772743,N,00952.2271152,E,2,11,0.8,-1.429,M,40.593,M,3.8,0123*65\r\n
$GPGGA,105155.20,5703.3773111,N,00952.2270159,E,2,11,0.8,-1.430,M,40.593,M,3.8,0123*61\r\n
$GPGGA,105155.25,5703.3773485,N,00952.2269159,E,2,11,0.8,-1.427,M,40.593,M,4.0,0123*6D\r\n
$GPGGA,105155.30,5703.3773843,N,00952.2268152,E,2,11,0.8,-1.428,M,40.593,M,4.0,0123*6A\r\n
$GPGGA,105155.35,5703.3774197,N,00952.2267133,E,2,11,0.8,-1.432,M,40.593,M,4.0,0123*6B\r\n
$GPGGA,105155.40,5703.3774543,N,00952.2266104,E,2,11,0.8,-1.437,M,40.593,M,4.0,0123*64\r\n
$GPGGA,105155.45,5703.3774886,N,00952.2265082,E,2,11,0.8,-1.443,M,40.593,M,3.0,0123*6D\r\n
$GPGGA,105155.50,5703.3775236,N,00952.2264042,E,2,11,0.8,-1.447,M,40.593,M,3.0,0123*60\r\n
$GPGGA,105155.55,5703.3775591,N,00952.2262994,E,2,11,0.8,-1.451,M,40.593,M,3.0,0123*6C\r\n
$GPGGA,105155.60,5703.3775924,N,00952.2261951,E,2,11,0.8,-1.455,M,40.593,M,3.0,0123*66\r\n
$GPGGA,105155.65,5703.3776246,N,00952.2260912,E,2,11,0.8,-1.460,M,40.593,M,3.2,0123*6D\r\n
$GPGGA,105155.70,5703.3776571,N,00952.2259857,E,2,11,0.8,-1.461,M,40.593,M,3.2,0123*61\r\n
$GPGGA,105155.75,5703.3776882,N,00952.2258813,E,2,11,0.8,-1.462,M,40.593,M,3.2,0123*67\r\n
$GPGGA,105155.80,5703.3777196,N,00952.2257736,E,2,11,0.8,-1.460,M,40.593,M,3.2,0123*65\r\n
$GPGGA,105155.85,5703.3777502,N,00952.2256669,E,2,11,0.8,-1.460,M,40.593,M,3.5,0123*64\r\n
$GPGGA,105155.90,5703.3777785,N,00952.2255594,E,2,11,0.8,-1.461,M,40.593,M,3.5,0123*6E\r\n
$GPGGA,105155.95,5703.3778080,N,00952.2254519,E,2,11,0.8,-1.459,M,40.593,M,3.5,0123*69\r\n
$GPGGA,105156.00,5703.3778368,N,00952.2253431,E,2,11,0.8,-1.455,M,40.593,M,3.5,0123*63\r\n
$GPGGA,105156.05,5703.3778670,N,00952.2252354,E,2,11,0.8,-1.452,M,40.593,M,3.7,0123*6A\r\n
$GPGGA,105156.10,5703.3778957,N,00952.2251269,E,2,11,0.8,-1.448,M,40.593,M,3.7,0123*63\r\n
$GPGGA,105156.15,5703.3779238,N,00952.2250185,E,2,11,0.8,-1.443,M,40.593,M,3.7,0123*6E\r\n
$GPGGA,105156.20,5703.3779508,N,00952.2249111,E,2,11,0.8,-1.438,M,40.593,M,3.7,0123*65\r\n
$GPGGA,105156.25,5703.3779765,N,00952.2248021,E,2,11,0.8,-1.435,M,40.593,M,4.0,0123*67\r\n
$GPGGA,105156.30,5703.3780033,N,00952.2246923,E,2,11,0.8,-1.432,M,40.593,M,4.0,0123*63\r\n
$GPGGA,105156.35,5703.3780301,N,00952.2245828,E,2,11,0.8,-1.428,M,40.593,M,4.0,0123*66\r\n
$GPGGA,105156.40,5703.3780565,N,00952.2244734,E,2,11,0.8,-1.422,M,40.593,M,4.0,0123*69\r\n
$GPGGA,105156.45,5703.3780821,N,00952.2243643,E,2,11,0.8,-1.417,M,40.593,M,1.9,0123*6D\r\n
$GPGGA,105156.50,5703.3781059,N,00952.2242537,E,2,11,0.8,-1.414,M,40.593,M,1.9,0123*6D\r\n
$GPGGA,105156.55,5703.3781288,N,00952.2241425,E,2,11,0.8,-1.410,M,40.593,M,1.9,0123*63\r\n
$GPGGA,105156.60,5703.3781521,N,00952.2240291,E,2,11,0.8,-1.409,M,40.593,M,1.9,0123*61\r\n
$GPGGA,105156.65,5703.3781742,N,00952.2239153,E,2,11,0.8,-1.407,M,40.593,M,2.1,0123*65\r\n
$GPGGA,105156.70,5703.3781943,N,00952.2238001,E,2,11,0.8,-1.407,M,40.593,M,2.1,0123*69\r\n
$GPGGA,105156.75,5703.3782140,N,00952.2236854,E,2,11,0.8,-1.410,M,40.593,M,2.1,0123*64\r\n
$GPGGA,105156.80,5703.3782333,N,00952.2235698,E,2,11,0.8,-1.417,M,40.593,M,2.1,0123*62\r\n
$GPGGA,105156.85,5703.3782505,N,00952.2234528,E,2,11,0.8,-1.425,M,40.593,M,2.4,0123*69\r\n
$GPGGA,105156.90,5703.3782691,N,00952.2233348,E,2,11,0.8,-1.432,M,40.593,M,2.4,0123*62\r\n
$GPGGA,105156.95,5703.3782855,N,00952.2232173,E,2,11,0.8,-1.440,M,40.593,M,2.4,0123*6F\r\n
$GPGGA,105157.00,5703.3783009,N,00952.2230991,E,2,11,0.8,-1.448,M,40.593,M,2.4,0123*6C\r\n
$GPGGA,105157.05,5703.3783170,N,00952.2229824,E,2,11,0.8,-1.462,M,40.593,M,2.6,0123*6B\r\n
$GPGGA,105157.10,5703.3783321,N,00952.2228670,E,2,11,0.8,-1.468,M,40.593,M,2.6,0123*6D\r\n
$GPGGA,105157.15,5703.3783457,N,00952.2227493,E,2,11,0.8,-1.471,M,40.593,M,2.6,0123*66\r\n
$GPGGA,105157.20,5703.3783591,N,00952.2226319,E,2,11,0.8,-1.475,M,40.593,M,2.6,0123*6B\r\n
$GPGGA,105157.25,5703.3783722,N,00952.2225164,E,2,11,0.8,-1.482,M,40.593,M,2.8,0123*69\r\n
$GPGGA,105157.30,5703.3783846,N,00952.2223995,E,2,11,0.8,-1.485,M,40.593,M,2.8,0123*67\r\n
$GPGGA,105157.35,5703.3783969,N,00952.2222847,E,2,11,0.8,-1.485,M,40.593,M,2.8,0123*61\r\n
$GPGGA,105157.40,5703.3784084,N,00952.2221687,E,2,11,0.8,-1.481,M,40.593,M,2.8,0123*6B\r\n
$GPGGA,105157.45,5703.3784209,N,00952.2220533,E,2,11,0.8,-1.475,M,40.593,M,2.1,0123*66\r\n
$GPGGA,105157.50,5703.3784322,N,00952.2219385,E,2,11,0.8,-1.468,M,40.593,M,2.1,0123*67\r\n
$GPGGA,105157.55,5703.3784425,N,00952.2218223,E,2,11,0.8,-1.463,M,40.593,M,2.1,0123*65\r\n
$GPGGA,105157.60,5703.3784518,N,00952.2217065,E,2,11,0.8,-1.458,M,40.593,M,2.1,0123*6B\r\n
$GPGGA,105157.65,5703.3784611,N,00952.2215902,E,2,11,0.8,-1.451,M,40.593,M,2.3,0123*65\r\n
$GPGGA,105157.70,5703.3784695,N,00952.2214737,E,2,11,0.8,-1.444,M,40.593,M,2.3,0123*60\r\n
$GPGGA,105157.75,5703.3784772,N,00952.2213572,E,2,11,0.8,-1.439,M,40.593,M,2.3,0123*63\r\n
$GPGGA,105157.80,5703.3784846,N,00952.2212402,E,2,11,0.8,-1.435,M,40.593,M,2.3,0123*6A\r\n
$GPGGA,105157.85,5703.3784916,N,00952.2211236,E,2,11,0.8,-1.435,M,40.593,M,2.5,0123*6F\r\n
$GPGGA,105157.90,5703.3784978,N,00952.2210065,E,2,11,0.8,-1.430,M,40.593,M,2.5,0123*63\r\n
$GPGGA,105157.95,5703.3785026,N,00952.2208880,E,2,11,0.8,-1.427,M,40.593,M,2.5,0123*69\r\n
$GPGGA,105158.00,5703.3785066,N,00952.2207701,E,2,11,0.8,-1.425,M,40.593,M,2.5,0123*65\r\n
$GPGGA,105158.05,5703.3785104,N,00952.2206532,E,2,11,0.8,-1.422,M,40.593,M,2.7,0123*63\r\n
$GPGGA,105158.10,5703.3785108,N,00952.2205360,E,2,11,0.8,-1.424,M,40.593,M,2.7,0123*6F\r\n
$GPGGA,105158.15,5703.3785118,N,00952.2204188,E,2,11,0.8,-1.425,M,40.593,M,2.7,0123*6F\r\n
$GPGGA,105158.20,5703.3785124,N,00952.2203004,E,2,11,0.8,-1.426,M,40.593,M,2.7,0123*67\r\n
$GPGGA,105158.25,5703.3785111,N,00952.2201840,E,2,11,0.8,-1.432,M,40.593,M,3.0,0123*6D\r\n
$GPGGA,105158.30,5703.3785088,N,00952.2200677,E,2,11,0.8,-1.436,M,40.593,M,3.0,0123*67\r\n
$GPGGA,105158.35,5703.3785064,N,00952.2199493,E,2,11,0.8,-1.440,M,40.593,M,3.0,0123*6A\r\n
$GPGGA,105158.40,5703.3785035,N,00952.2198318,E,2,11,0.8,-1.446,M,40.593,M,3.0,0123*6F\r\n
$GPGGA,105158.45,5703.3784993,N,00952.2197156,E,2,11,0.8,-1.450,M,40.593,M,3.2,0123*6C\r\n
$GPGGA,105158.50,5703.3784945,N,00952.2195972,E,2,11,0.8,-1.458,M,40.593,M,3.2,0123*67\r\n
$GPGGA,105158.55,5703.3784888,N,00952.2194788,E,2,11,0.8,-1.464,M,40.593,M,3.2,0123*67\r\n
$GPGGA,105158.60,5703.3784823,N,00952.2193618,E,2,11,0.8,-1.471,M,40.593,M,3.2,0123*6B\r\n
$GPGGA,105158.65,5703.3784751,N,00952.2192446,E,2,11,0.8,-1.480,M,40.593,M,3.4,0123*64\r\n
$GPGGA,105158.70,5703.3784674,N,00952.2191274,E,2,11,0.8,-1.487,M,40.593,M,3.4,0123*65\r\n
$GPGGA,105158.75,5703.3784592,N,00952.2190112,E,2,11,0.8,-1.495,M,40.593,M,3.4,0123*6A\r\n
$GPGGA,105158.80,5703.3784512,N,00952.2188950,E,2,11,0.8,-1.499,M,40.593,M,3.4,0123*63\r\n
$GPGGA,105158.85,5703.3784423,N,00952.2187791,E,2,11,0.8,-1.495,M,40.593,M,3.6,0123*67\r\n
$GPGGA,105158.90,5703.3784338,N,00952.2186657,E,2,11,0.8,-1.491,M,40.593,M,3.6,0123*60\r\n
$GPGGA,105158.95,5703.3784260,N,00952.2185521,E,2,11,0.8,-1.485,M,40.593,M,3.6,0123*6D\r\n
$GPGGA,105159.00,5703.3784173,N,00952.2184403,E,2,11,0.8,-1.478,M,40.593,M,3.6,0123*63\r\n
$GPGGA,105159.05,5703.3784070,N,00952.2183275,E,2,11,0.8,-1.473,M,40.593,M,3.8,0123*61\r\n
$GPGGA,105159.10,5703.3783958,N,00952.2182142,E,2,11,0.8,-1.465,M,40.593,M,3.8,0123*60\r\n
$GPGGA,105159.15,5703.3783852,N,00952.2181003,E,2,11,0.8,-1.458,M,40.593,M,3.8,0123*67\r\n
$GPGGA,105159.20,5703.3783740,N,00952.2179889,E,2,11,0.8,-1.450,M,40.593,M,3.8,0123*68\r\n
$GPGGA,105159.25,5703.3783628,N,00952.2178768,E,2,11,0.8,-1.444,M,40.593,M,4.0,0123*69\r\n
$GPGGA,105159.30,5703.3783516,N,00952.2177630,E,2,11,0.8,-1.436,M,40.593,M,4.0,0123*65\r\n
$GPGGA,105159.35,5703.3783395,N,00952.2176496,E,2,11,0.8,-1.430,M,40.593,M,4.0,0123*64\r\n
$GPGGA,105159.40,5703.3783270,N,00952.2175359,E,2,11,0.8,-1.424,M,40.593,M,4.0,0123*6E\r\n
$GPGGA,105159.45,5703.3783129,N,00952.2174219,E,2,11,0.8,-1.421,M,40.593,M,3.0,0123*62\r\n
$GPGGA,105159.50,5703.3782989,N,00952.2173070,E,2,11,0.8,-1.420,M,40.593,M,3.0,0123*6E\r\n
$GPGGA,105159.55,5703.3782817,N,00952.2171935,E,2,11,0.8,-1.423,M,40.593,M,3.0,0123*64\r\n
$GPGGA,105159.60,5703.3782637,N,00952.2170819,E,2,11,0.8,-1.426,M,40.593,M,3.0,0123*65\r\n
$GPGGA,105159.65,5703.3782464,N,00952.2169693,E,2,11,0.8,-1.430,M,40.593,M,3.2,0123*65\r\n
$GPGGA,105159.70,5703.3782277,N,00952.2168558,E,2,11,0.8,-1.436,M,40.593,M,3.2,0123*66\r\n
$GPGGA,105159.75,5703.3782066,N,00952.2167449,E,2,11,0.8,-1.441,M,40.593,M,3.2,0123*6F\r\n
$GPGGA,105159.80,5703.3781853,N,00952.2166342,E,2,11,0.8,-1.449,M,40.593,M,3.2,0123*6D\r\n
$GPGGA,105159.85,5703.3781640,N,00952.2165242,E,2,11,0.8,-1.459,M,40.593,M,3.5,0123*60\r\n
$GPGGA,105159.90,5703.3781416,N,00952.2164156,E,2,11,0.8,-1.468,M,40.593,M,3.5,0123*60\r\n
$GPGGA,105159.95,5703.3781190,N,00952.2163070,E,2,11,0.8,-1.475,M,40.593,M,3.5,0123*60\r\n
$GPGGA,105200.00,5703.3780952,N,00952.2161969,E,2,11,0.8,-1.479,M,40.593,M,3.5,0123*6B\r\n
$GPGGA,105200.05,5703.3780720,N,00952.2160872,E,2,11,0.8,-1.486,M,40.593,M,3.7,0123*6D\r\n
$GPGGA,105200.10,5703.3780480,N,00952.2159802,E,2,11,0.8,-1.489,M,40.593,M,3.7,0123*62\r\n
$GPGGA,105200.15,5703.3780228,N,00952.2158752,E,2,11,0.8,-1.493,M,40.593,M,3.7,0123*63\r\n
$GPGGA,105200.20,5703.3779968,N,00952.2157720,E,2,11,0.8,-1.494,M,40.593,M,3.7,0123*61\r\n
$GPGGA,105200.25,5703.3779720,N,00952.2156682,E,2,11,0.8,-1.490,M,40.593,M,4.0,0123*6A\r\n
$GPGGA,105200.30,5703.3779466,N,00952.2155648,E,2,11,0.8,-1.484,M,40.593,M,4.0,0123*6F\r\n
$GPGGA,105200.35,5703.3779215,N,00952.2154606,E,2,11,0.8,-1.477,M,40.593,M,4.0,0123*6F\r\n
$GPGGA,105200.40,5703.3778957,N,00952.2153571,E,2,11,0.8,-1.472,M,40.593,M,4.0,0123*60\r\n
$GPGGA,105200.45,5703.3778700,N,00952.2152542,E,2,11,0.8,-1.461,M,40.593,M,1.9,0123*66\r\n
$GPGGA,105200.50,5703.3778445,N,00952.2151501,E,2,11,0.8,-1.451,M,40.593,M,1.9,0123*67\r\n
$GPGGA,105200.55,5703.3778174,N,00952.2150482,E,2,11,0.8,-1.443,M,40.593,M,1.9,0123*6D\r\n
$GPGGA,105200.60,5703.3777911,N,00952.2149445,E,2,11,0.8,-1.435,M,40.593,M,1.9,0123*6D\r\n
$GPGGA,105200.65,5703.3777650,N,00952.2148385,E,2,11,0.8,-1.425,M,40.593,M,2.1,0123*62\r\n
$GPGGA,105200.70,5703.3777385,N,00952.2147342,E,2,11,0.8,-1.420,M,40.593,M,2.1,0123*6A\r\n
$GPGGA,105200.75,5703.3777109,N,00952.2146309,E,2,11,0.8,-1.415,M,40.593,M,2.1,0123*61\r\n
$GPGGA,105200.80,5703.3776831,N,00952.2145268,E,2,11,0.8,-1.413,M,40.593,M,2.1,0123*6B\r\n
$GPGGA,105200.85,5703.3776543,N,00952.2144236,E,2,11,0.8,-1.417,M,40.593,M,2.4,0123*6D\r\n
$GPGGA,105200.90,5703.3776253,N,00952.2143212,E,2,11,0.8,-1.418,M,40.593,M,2.4,0123*61\r\n
$GPGGA,105200.95,5703.3775956,N,00952.2142179,E,2,11,0.8,-1.421,M,40.593,M,2.4,0123*6C\r\n
$GPGGA,105201.00,5703.3775632,N,00952.2141158,E,2,11,0.8,-1.426,M,40.593,M,2.4,0123*6B\r\n
$GPGGA,105201.05,5703.3775299,N,00952.2140158,E,2,11,0.8,-1.436,M,40.593,M,2.6,0123*69\r\n
$GPGGA,105201.10,5703.3774974,N,00952.2139140,E,2,11,0.8,-1.445,M,40.593,M,2.6,0123*67\r\n
$GPGGA,105201.15,5703.3774634,N,00952.2138143,E,2,11,0.8,-1.453,M,40.593,M,2.6,0123*6C\r\n
$GPGGA,105201.20,5703.3774290,N,00952.2137153,E,2,11,0.8,-1.460,M,40.593,M,2.6,0123*6E\r\n
$GPGGA,105201.25,5703.3773947,N,00952.2136169,E,2,11,0.8,-1.472,M,40.593,M,2.8,0123*68\r\n
$GPGGA,105201.30,5703.3773594,N,00952.2135228,E,2,11,0.8,-1.480,M,40.593,M,2.8,0123*66\r\n
$GPGGA,105201.35,5703.3773237,N,00952.2134294,E,2,11,0.8,-1.487,M,40.593,M,2.8,0123*6C\r\n
$GPGGA,105201.40,5703.3772885,N,00952.2133364,E,2,11,0.8,-1.491,M,40.593,M,2.8,0123*62\r\n
$GPGGA,105201.45,5703.3772529,N,00952.2132459,E,2,11,0.8,-1.489,M,40.593,M,2.1,0123*64\r\n
$GPGGA,105201.50,5703.3772164,N,00952.2131576,E,2,11,0.8,-1.486,M,40.593,M,2.1,0123*6D\r\n
$GPGGA,105201.55,5703.3771798,N,00952.2130697,E,2,11,0.8,-1.478,M,40.593,M,2.1,0123*62\r\n
$GPGGA,105201.60,5703.3771424,N,00952.2129830,E,2,11,0.8,-1.471,M,40.593,M,2.1,0123*62\r\n
$GPGGA,105201.65,5703.3771062,N,00952.2128946,E,2,11,0.8,-1.456,M,40.593,M,2.3,0123*67\r\n
$GPGGA,105201.70,5703.3770695,N,00952.2128072,E,2,11,0.8,-1.449,M,40.593,M,2.3,0123*6C\r\n
$GPGGA,105201.75,5703.3770314,N,00952.2127210,E,2,11,0.8,-1.438,M,40.593,M,2.3,0123*6A\r\n
$GPGGA,105201.80,5703.3769933,N,00952.2126360,E,2,11,0.8,-1.427,M,40.593,M,2.3,0123*6E\r\n
$GPGGA,105201.85,5703.3769558,N,00952.2125475,E,2,11,0.8,-1.417,M,40.593,M,2.5,0123*6F\r\n
$GPGGA,105201.90,5703.3769171,N,00952.2124570,E,2,11,0.8,-1.413,M,40.593,M,2.5,0123*65\r\n
$GPGGA,105201.95,5703.3768786,N,00952.2123666,E,2,11,0.8,-1.413,M,40.593,M,2.5,0123*6C\r\n
$GPGGA,105202.00,5703.3768387,N,00952.2122762,E,2,11,0.8,-1.416,M,40.593,M,2.5,0123*67\r\n
$GPGGA,105202.05,5703.3767991,N,00952.2121855,E,2,11,0.8,-1.418,M,40.593,M,2.7,0123*64\r\n
$GPGGA,105202.10,5703.3767569,N,00952.2120943,E,2,11,0.8,-1.426,M,40.593,M,2.7,0123*61\r\n
$GPGGA,105202.15,5703.3767145,N,00952.2120017,E,2,11,0.8,-1.437,M,40.593,M,2.7,0123*66\r\n
$GPGGA,105202.20,5703.3766706,N,00952.2119108,E,2,11,0.8,-1.450,M,40.593,M,2.7,0123*64\r\n
$GPGGA,105202.25,5703.3766274,N,00952.2118235,E,2,11,0.8,-1.464,M,40.593,M,3.0,0123*6C\r\n
$GPGGA,105202.30,5703.3765845,N,00952.2117383,E,2,11,0.8,-1.473,M,40.593,M,3.0,0123*66\r\n
$GPGGA,105202.35,5703.3765415,N,00952.2116513,E,2,11,0.8,-1.480,M,40.593,M,3.0,0123*68\r\n
$GPGGA,105202.40,5703.3764985,N,00952.2115681,E,2,11,0.8,-1.487,M,40.593,M,3.0,0123*63\r\n
$GPGGA,105202.45,5703.3764557,N,00952.2114862,E,2,11,0.8,-1.490,M,40.593,M,3.2,0123*63\r\n
$GPGGA,105202.50,5703.3764117,N,00952.2114089,E,2,11,0.8,-1.496,M,40.593,M,3.2,0123*6C\r\n
$GPGGA,105202.55,5703.3763679,N,00952.2113317,E,2,11,0.8,-1.494,M,40.593,M,3.2,0123*60\r\n
$GPGGA,105202.60,5703.3763219,N,00952.2112562,E,2,11,0.8,-1.488,M,40.593,M,3.2,0123*6C\r\n
$GPGGA,105202.65,5703.3762771,N,00952.2111825,E,2,11,0.8,-1.485,M,40.593,M,3.4,0123*65\r\n
$GPGGA,105202.70,5703.3762317,N,00952.2111084,E,2,11,0.8,-1.479,M,40.593,M,3.4,0123*65\r\n
$GPGGA,105202.75,5703.3761859,N,00952.2110375,E,2,11,0.8,-1.470,M,40.593,M,3.4,0123*67\r\n
$GPGGA,105202.80,5703.3761388,N,00952.2109662,E,2,11,0.8,-1.462,M,40.593,M,3.4,0123*62\r\n
$GPGGA,105202.85,5703.3760921,N,00952.2108957,E,2,11,0.8,-1.450,M,40.593,M,3.6,0123*64\r\n
$GPGGA,105202.90,5703.3760460,N,00952.2108255,E,2,11,0.8,-1.444,M,40.593,M,3.6,0123*64\r\n
$GPGGA,105202.95,5703.3760002,N,00952.2107541,E,2,11,0.8,-1.434,M,40.593,M,3.6,0123*6B\r\n
$GPGGA,105203.00,5703.3759534,N,00952.2106829,E,2,11,0.8,-1.426,M,40.593,M,3.6,0123*6D\r\n
$GPGGA,105203.05,5703.3759072,N,00952.2106098,E,2,11,0.8,-1.420,M,40.593,M,3.8,0123*65\r\n
$GPGGA,105203.10,5703.3758602,N,00952.2105372,E,2,11,0.8,-1.414,M,40.593,M,3.8,0123*62\r\n
$GPGGA,105203.15,5703.3758129,N,00952.2104636,E,2,11,0.8,-1.412,M,40.593,M,3.8,0123*6B\r\n
$GPGGA,105203.20,5703.3757643,N,00952.2103926,E,2,11,0.8,-1.412,M,40.593,M,3.8,0123*60\r\n
$GPGGA,105203.25,5703.3757150,N,00952.2103209,E,2,11,0.8,-1.414,M,40.593,M,4.0,0123*6F\r\n
$GPGGA,105203.30,5703.3756649,N,00952.2102481,E,2,11,0.8,-1.420,M,40.593,M,4.0,0123*65\r\n
$GPGGA,105203.35,5703.3756144,N,00952.2101746,E,2,11,0.8,-1.429,M,40.593,M,4.0,0123*68\r\n
$GPGGA,105203.40,5703.3755636,N,00952.2101023,E,2,11,0.8,-1.440,M,40.593,M,4.0,0123*60\r\n
$GPGGA,105203.45,5703.3755105,N,00952.2100334,E,2,11,0.8,-1.453,M,40.593,M,0.6,0123*66\r\n
$GPGGA,105203.50,5703.3754581,N,00952.2099661,E,2,11,0.8,-1.465,M,40.593,M,0.6,0123*6A\r\n
$GPGGA,105203.55,5703.3754073,N,00952.2099008,E,2,11,0.8,-1.476,M,40.593,M,0.6,0123*6C\r\n
$GPGGA,105203.60,5703.3753562,N,00952.2098360,E,2,11,0.8,-1.484,M,40.593,M,0.6,0123*69\r\n
$GPGGA,105203.65,5703.3753052,N,00952.2097719,E,2,11,0.8,-1.492,M,40.593,M,0.9,0123*67\r\n
$GPGGA,105203.70,5703.3752531,N,00952.2097110,E,2,11,0.8,-1.499,M,40.593,M,0.9,0123*66\r\n
$GPGGA,105203.75,5703.3752016,N,00952.2096530,E,2,11,0.8,-1.503,M,40.593,M,0.9,0123*66\r\n
$GPGGA,105203.80,5703.3751496,N,00952.2095976,E,2,11,0.8,-1.504,M,40.593,M,0.9,0123*69\r\n
$GPGGA,105203.85,5703.3750967,N,00952.2095438,E,2,11,0.8,-1.496,M,40.593,M,1.2,0123*69\r\n
$GPGGA,105203.90,5703.3750454,N,00952.2094934,E,2,11,0.8,-1.488,M,40.593,M,1.2,0123*6F\r\n
$GPGGA,105203.95,5703.3749927,N,00952.2094433,E,2,11,0.8,-1.478,M,40.593,M,1.2,0123*6E\r\n
$GPGGA,105204.00,5703.3749402,N,00952.2093936,E,2,11,0.8,-1.469,M,40.593,M,1.2,0123*60\r\n
$GPGGA,105204.05,5703.3748894,N,00952.2093424,E,2,11,0.8,-1.451,M,40.593,M,1.4,0123*64\r\n
$GPGGA,105204.10,5703.3748367,N,00952.2092920,E,2,11,0.8,-1.438,M,40.593,M,1.4,0123*60\r\n
$GPGGA,105204.15,5703.3747842,N,00952.2092428,E,2,11,0.8,-1.426,M,40.593,M,1.4,0123*6C\r\n
$GPGGA,105204.20,5703.3747309,N,00952.2091921,E,2,11,0.8,-1.417,M,40.593,M,1.4,0123*6B\r\n
$GPGGA,105204.25,5703.3746761,N,00952.2091399,E,2,11,0.8,-1.410,M,40.593,M,1.7,0123*68\r\n
$GPGGA,105204.30,5703.3746211,N,00952.2090899,E,2,11,0.8,-1.407,M,40.593,M,1.7,0123*62\r\n
$GPGGA,105204.35,5703.3745663,N,00952.2090380,E,2,11,0.8,-1.408,M,40.593,M,1.7,0123*69\r\n
$GPGGA,105204.40,5703.3745110,N,00952.2089860,E,2,11,0.8,-1.411,M,40.593,M,1.7,0123*6D\r\n
$GPGGA,105204.45,5703.3744543,N,00952.2089344,E,2,11,0.8,-1.423,M,40.593,M,0.9,0123*68\r\n
$GPGGA,105204.50,5703.3743978,N,00952.2088829,E,2,11,0.8,-1.429,M,40.593,M,0.9,0123*64\r\n
$GPGGA,105204.55,5703.3743407,N,00952.2088359,E,2,11,0.8,-1.439,M,40.593,M,0.9,0123*69\r\n
$GPGGA,105204.60,5703.3742823,N,00952.2087891,E,2,11,0.8,-1.453,M,40.593,M,0.9,0123*68\r\n
$GPGGA,105204.65,5703.3742246,N,00952.2087447,E,2,11,0.8,-1.463,M,40.593,M,1.2,0123*6A\r\n
$GPGGA,105204.70,5703.3741689,N,00952.2086999,E,2,11,0.8,-1.470,M,40.593,M,1.2,0123*67\r\n
$GPGGA,105204.75,5703.3741127,N,00952.2086568,E,2,11,0.8,-1.475,M,40.593,M,1.2,0123*66\r\n
$GPGGA,105204.80,5703.3740571,N,00952.2086138,E,2,11,0.8,-1.478,M,40.593,M,1.2,0123*66\r\n
$GPGGA,105204.85,5703.3740016,N,00952.2085728,E,2,11,0.8,-1.480,M,40.593,M,1.4,0123*62\r\n
$GPGGA,105204.90,5703.3739453,N,00952.2085366,E,2,11,0.8,-1.480,M,40.593,M,1.4,0123*63\r\n
$GPGGA,105204.95,5703.3738893,N,00952.2085021,E,2,11,0.8,-1.482,M,40.593,M,1.4,0123*65\r\n
$GPGGA,105205.00,5703.3738334,N,00952.2084690,E,2,11,0.8,-1.483,M,40.593,M,1.4,0123*62\r\n
$GPGGA,105205.05,5703.3737780,N,00952.2084365,E,2,11,0.8,-1.482,M,40.593,M,1.6,0123*6F\r\n
$GPGGA,105205.10,5703.3737225,N,00952.2084068,E,2,11,0.8,-1.474,M,40.593,M,1.6,0123*66\r\n
$GPGGA,105205.15,5703.3736679,N,00952.2083785,E,2,11,0.8,-1.467,M,40.593,M,1.6,0123*6E\r\n
$GPGGA,105205.20,5703.3736116,N,00952.2083525,E,2,11,0.8,-1.464,M,40.593,M,1.6,0123*6D\r\n
$GPGGA,105205.25,5703.3735557,N,00952.2083275,E,2,11,0.8,-1.454,M,40.593,M,1.9,0123*64\r\n
$GPGGA,105205.30,5703.3734993,N,00952.2083015,E,2,11,0.8,-1.446,M,40.593,M,1.9,0123*62\r\n
$GPGGA,105205.35,5703.3734419,N,00952.2082770,E,2,11,0.8,-1.440,M,40.593,M,1.9,0123*6B\r\n
$GPGGA,105205.40,5703.3733853,N,00952.2082525,E,2,11,0.8,-1.435,M,40.593,M,1.9,0123*6C\r\n
$GPGGA,105205.45,5703.3733276,N,00952.2082271,E,2,11,0.8,-1.431,M,40.593,M,2.1,0123*6D\r\n
$GPGGA,105205.50,5703.3732707,N,00952.2082021,E,2,11,0.8,-1.429,M,40.593,M,2.1,0123*65\r\n
$GPGGA,105205.55,5703.3732135,N,00952.2081779,E,2,11,0.8,-1.431,M,40.593,M,2.1,0123*67\r\n
$GPGGA,105205.60,5703.3731563,N,00952.2081533,E,2,11,0.8,-1.433,M,40.593,M,2.1,0123*6B\r\n
$GPGGA,105205.65,5703.3730986,N,00952.2081301,E,2,11,0.8,-1.436,M,40.593,M,2.3,0123*68\r\n
$GPGGA,105205.70,5703.3730398,N,00952.2081085,E,2,11,0.8,-1.443,M,40.593,M,2.3,0123*64\r\n
$GPGGA,105205.75,5703.3729814,N,00952.2080888,E,2,11,0.8,-1.450,M,40.593,M,2.3,0123*60\r\n
$GPGGA,105205.80,5703.3729233,N,00952.2080706,E,2,11,0.8,-1.458,M,40.593,M,2.3,0123*64\r\n
$GPGGA,105205.85,5703.3728651,N,00952.2080534,E,2,11,0.8,-1.462,M,40.593,M,2.5,0123*6C\r\n
$GPGGA,105205.90,5703.3728071,N,00952.2080381,E,2,11,0.8,-1.471,M,40.593,M,2.5,0123*66\r\n
$GPGGA,105205.95,5703.3727499,N,00952.2080226,E,2,11,0.8,-1.479,M,40.593,M,2.5,0123*6A\r\n
$GPGGA,105206.00,5703.3726925,N,00952.2080087,E,2,11,0.8,-1.485,M,40.593,M,2.5,0123*64\r\n
$GPGGA,105206.05,5703.3726365,N,00952.2079960,E,2,11,0.8,-1.496,M,40.593,M,2.7,0123*69\r\n
$GPGGA,105206.10,5703.3725806,N,00952.2079876,E,2,11,0.8,-1.498,M,40.593,M,2.7,0123*68\r\n
$GPGGA,105206.15,5703.3725246,N,00952.2079805,E,2,11,0.8,-1.498,M,40.593,M,2.7,0123*67\r\n
$GPGGA,105206.20,5703.3724693,N,00952.2079741,E,2,11,0.8,-1.496,M,40.593,M,2.7,0123*6D\r\n
$GPGGA,105206.25,5703.3724152,N,00952.2079693,E,2,11,0.8,-1.491,M,40.593,M,3.0,0123*6D\r\n
$GPGGA,105206.30,5703.3723621,N,00952.2079680,E,2,11,0.8,-1.484,M,40.593,M,3.0,0123*6B\r\n
$GPGGA,105206.35,5703.3723081,N,00952.2079683,E,2,11,0.8,-1.475,M,40.593,M,3.0,0123*6F\r\n
$GPGGA,105206.40,5703.3722538,N,00952.2079694,E,2,11,0.8,-1.468,M,40.593,M,3.0,0123*61\r\n
$GPGGA,105206.45,5703.3722000,N,00952.2079691,E,2,11,0.8,-1.453,M,40.593,M,1.4,0123*61\r\n
$GPGGA,105206.50,5703.3721456,N,00952.2079705,E,2,11,0.8,-1.445,M,40.593,M,1.4,0123*6A\r\n
$GPGGA,105206.55,5703.3720920,N,00952.2079740,E,2,11,0.8,-1.437,M,40.593,M,1.4,0123*66\r\n
$GPGGA,105206.60,5703.3720389,N,00952.2079784,E,2,11,0.8,-1.428,M,40.593,M,1.4,0123*6F\r\n
$GPGGA,105206.65,5703.3719861,N,00952.2079838,E,2,11,0.8,-1.424,M,40.593,M,1.8,0123*65\r\n
$GPGGA,105206.70,5703.3719327,N,00952.2079883,E,2,11,0.8,-1.421,M,40.593,M,1.8,0123*6D\r\n
$GPGGA,105206.75,5703.3718781,N,00952.2079917,E,2,11,0.8,-1.421,M,40.593,M,1.8,0123*6D\r\n
$GPGGA,105206.80,5703.3718233,N,00952.2079971,E,2,11,0.8,-1.422,M,40.593,M,1.8,0123*68\r\n
$GPGGA,105206.85,5703.3717699,N,00952.2080045,E,2,11,0.8,-1.427,M,40.593,M,2.1,0123*61\r\n
$GPGGA,105206.90,5703.3717149,N,00952.2080158,E,2,11,0.8,-1.431,M,40.593,M,2.1,0123*65\r\n
$GPGGA,105206.95,5703.3716614,N,00952.2080260,E,2,11,0.8,-1.434,M,40.593,M,2.1,0123*63\r\n
$GPGGA,105207.00,5703.3716086,N,00952.2080350,E,2,11,0.8,-1.441,M,40.593,M,2.1,0123*63\r\n
$GPGGA,105207.05,5703.3715556,N,00952.2080445,E,2,11,0.8,-1.451,M,40.593,M,2.4,0123*6A\r\n
$GPGGA,105207.10,5703.3715024,N,00952.2080574,E,2,11,0.8,-1.460,M,40.593,M,2.4,0123*6F\r\n
$GPGGA,105207.15,5703.3714511,N,00952.2080719,E,2,11,0.8,-1.467,M,40.593,M,2.4,0123*66\r\n
$GPGGA,105207.20,5703.3713999,N,00952.2080880,E,2,11,0.8,-1.474,M,40.593,M,2.4,0123*66\r\n
$GPGGA,105207.25,5703.3713495,N,00952.2081058,E,2,11,0.8,-1.484,M,40.593,M,2.7,0123*62\r\n
$GPGGA,105207.30,5703.3712993,N,00952.2081246,E,2,11,0.8,-1.491,M,40.593,M,2.7,0123*65\r\n
$GPGGA,105207.35,5703.3712499,N,00952.2081448,E,2,11,0.8,-1.494,M,40.593,M,2.7,0123*6A\r\n
$GPGGA,105207.40,5703.3712017,N,00952.2081656,E,2,11,0.8,-1.495,M,40.593,M,2.7,0123*66\r\n
$GPGGA,105207.45,5703.3711541,N,00952.2081886,E,2,11,0.8,-1.492,M,40.593,M,3.0,0123*64\r\n
$GPGGA,105207.50,5703.3711064,N,00952.2082134,E,2,11,0.8,-1.493,M,40.593,M,3.0,0123*60\r\n
$GPGGA,105207.55,5703.3710610,N,00952.2082390,E,2,11,0.8,-1.493,M,40.593,M,3.0,0123*6D\r\n
$GPGGA,105207.60,5703.3710152,N,00952.2082656,E,2,11,0.8,-1.491,M,40.593,M,3.0,0123*67\r\n
$GPGGA,105207.65,5703.3709697,N,00952.2082927,E,2,11,0.8,-1.489,M,40.593,M,3.2,0123*66\r\n
$GPGGA,105207.70,5703.3709238,N,00952.2083216,E,2,11,0.8,-1.484,M,40.593,M,3.2,0123*66\r\n
$GPGGA,105207.75,5703.3708775,N,00952.2083505,E,2,11,0.8,-1.481,M,40.593,M,3.2,0123*6E\r\n
$GPGGA,105207.80,5703.3708325,N,00952.2083769,E,2,11,0.8,-1.477,M,40.593,M,3.2,0123*64\r\n
$GPGGA,105207.85,5703.3707878,N,00952.2084054,E,2,11,0.8,-1.467,M,40.593,M,3.5,0123*65\r\n
$GPGGA,105207.90,5703.3707426,N,00952.2084363,E,2,11,0.8,-1.463,M,40.593,M,3.5,0123*65\r\n
$GPGGA,105207.95,5703.3706981,N,00952.2084686,E,2,11,0.8,-1.457,M,40.593,M,3.5,0123*68\r\n
$GPGGA,105208.00,5703.3706535,N,00952.2084993,E,2,11,0.8,-1.454,M,40.593,M,3.5,0123*60\r\n
$GPGGA,105208.05,5703.3706097,N,00952.2085297,E,2,11,0.8,-1.450,M,40.593,M,3.7,0123*60\r\n
$GPGGA,105208.10,5703.3705661,N,00952.2085633,E,2,11,0.8,-1.448,M,40.593,M,3.7,0123*6B\r\n
$GPGGA,105208.15,5703.3705229,N,00952.2085992,E,2,11,0.8,-1.444,M,40.593,M,3.7,0123*6E\r\n
$GPGGA,105208.20,5703.3704806,N,00952.2086342,E,2,11,0.8,-1.444,M,40.593,M,3.7,0123*6A\r\n
$GPGGA,105208.25,5703.3704387,N,00952.2086685,E,2,11,0.8,-1.439,M,40.593,M,1.7,0123*6B\r\n
$GPGGA,105208.30,5703.3703958,N,00952.2087059,E,2,11,0.8,-1.441,M,40.593,M,1.7,0123*69\r\n
$GPGGA,105208.35,5703.3703537,N,00952.2087453,E,2,11,0.8,-1.438,M,40.593,M,1.7,0123*69\r\n
$GPGGA,105208.40,5703.3703122,N,00952.2087863,E,2,11,0.8,-1.440,M,40.593,M,1.7,0123*6B\r\n
$GPGGA,105208.45,5703.3702708,N,00952.2088263,E,2,11,0.8,-1.442,M,40.593,M,1.9,0123*68\r\n
$GPGGA,105208.50,5703.3702294,N,00952.2088656,E,2,11,0.8,-1.446,M,40.593,M,1.9,0123*6A\r\n
$GPGGA,105208.55,5703.3701895,N,00952.2089098,E,2,11,0.8,-1.448,M,40.593,M,1.9,0123*6C\r\n
$GPGGA,105208.60,5703.3701513,N,00952.2089523,E,2,11,0.8,-1.446,M,40.593,M,1.9,0123*62\r\n
$GPGGA,105208.65,5703.3701133,N,00952.2089949,E,2,11,0.8,-1.450,M,40.593,M,2.1,0123*6D\r\n
$GPGGA,105208.70,5703.3700752,N,00952.2090402,E,2,11,0.8,-1.456,M,40.593,M,2.1,0123*65\r\n
$GPGGA,105208.75,5703.3700366,N,00952.2090869,E,2,11,0.8,-1.461,M,40.593,M,2.1,0123*66\r\n
$GPGGA,105208.80,5703.3699990,N,00952.2091341,E,2,11,0.8,-1.465,M,40.593,M,2.1,0123*6A\r\n
