$GPGGA,072257.45,5703.3766609,N,00952.1225059,E,2,11,0.8,-2.165,M,40.592,M,2.3,0123*67\r\n
$GPGGA,072257.50,5703.3766688,N,00952.1225024,E,2,11,0.8,-2.166,M,40.592,M,2.3,0123*63\r\n
$GPGGA,072257.55,5703.3766757,N,00952.1224982,E,2,11,0.8,-2.166,M,40.592,M,2.3,0123*61\r\n
$GPGGA,072257.60,5703.3766822,N,00952.1224944,E,2,11,0.8,-2.167,M,40.592,M,2.3,0123*61\r\n
$GPGGA,072257.65,5703.3766892,N,00952.1224903,E,2,11,0.8,-2.163,M,40.592,M,1.0,0123*68\r\n
$GPGGA,072257.70,5703.3766950,N,00952.1224859,E,2,11,0.8,-2.161,M,40.592,M,1.0,0123*6F\r\n
$GPGGA,072257.75,5703.3767011,N,00952.1224812,E,2,11,0.8,-2.159,M,40.592,M,1.0,0123*63\r\n
$GPGGA,072257.80,5703.3767094,N,00952.1224764,E,2,11,0.8,-2.156,M,40.592,M,1.0,0123*65\r\n
$GPGGA,072257.85,5703.3767163,N,00952.1224713,E,2,11,0.8,-2.150,M,40.592,M,1.3,0123*6C\r\n
$GPGGA,072257.90,5703.3767221,N,00952.1224665,E,2,11,0.8,-2.150,M,40.592,M,1.3,0123*6D\r\n
$GPGGA,072257.95,5703.3767290,N,00952.1224617,E,2,11,0.8,-2.150,M,40.592,M,1.3,0123*67\r\n
$GPGGA,072258.00,5703.3767354,N,00952.1224579,E,2,11,0.8,-2.151,M,40.592,M,1.3,0123*67\r\n
$GPGGA,072258.05,5703.3767413,N,00952.1224536,E,2,11,0.8,-2.152,M,40.592,M,1.5,0123*68\r\n
$GPGGA,072258.10,5703.3767468,N,00952.1224506,E,2,11,0.8,-2.151,M,40.592,M,1.5,0123*60\r\n
$GPGGA,072258.15,5703.3767541,N,00952.1224481,E,2,11,0.8,-2.156,M,40.592,M,1.5,0123*66\r\n
$GPGGA,072258.20,5703.3767608,N,00952.1224432,E,2,11,0.8,-2.161,M,40.592,M,1.5,0123*62\r\n
$GPGGA,072258.25,5703.3767691,N,00952.1224359,E,2,11,0.8,-2.157,M,40.592,M,1.8,0123*65\r\n
$GPGGA,072258.30,5703.3767763,N,00952.1224305,E,2,11,0.8,-2.158,M,40.592,M,1.8,0123*6B\r\n
$GPGGA,072258.35,5703.3767834,N,00952.1224253,E,2,11,0.8,-2.160,M,40.592,M,1.8,0123*6A\r\n
$GPGGA,072258.40,5703.3767896,N,00952.1224209,E,2,11,0.8,-2.160,M,40.592,M,1.8,0123*6F\r\n
$GPGGA,072258.45,5703.3767964,N,00952.1224184,E,2,11,0.8,-2.164,M,40.592,M,2.0,0123*6F\r\n
$GPGGA,072258.50,5703.3768023,N,00952.1224172,E,2,11,0.8,-2.168,M,40.592,M,2.0,0123*6B\r\n
$GPGGA,072258.55,5703.3768083,N,00952.1224148,E,2,11,0.8,-2.170,M,40.592,M,2.0,0123*64\r\n
$GPGGA,072258.60,5703.3768148,N,00952.1224125,E,2,11,0.8,-2.174,M,40.592,M,2.0,0123*6B\r\n
$GPGGA,072258.65,5703.3768207,N,00952.1224100,E,2,11,0.8,-2.179,M,40.592,M,2.2,0123*6E\r\n
$GPGGA,072258.70,5703.3768275,N,00952.1224065,E,2,11,0.8,-2.181,M,40.592,M,2.2,0123*6A\r\n
$GPGGA,072258.75,5703.3768348,N,00952.1224022,E,2,11,0.8,-2.180,M,40.592,M,2.2,0123*62\r\n
$GPGGA,072258.80,5703.3768415,N,00952.1224000,E,2,11,0.8,-2.179,M,40.592,M,2.2,0123*61\r\n
$GPGGA,072258.85,5703.3768479,N,00952.1223978,E,2,11,0.8,-2.182,M,40.592,M,2.4,0123*6D\r\n
$GPGGA,072258.90,5703.3768536,N,00952.1223958,E,2,11,0.8,-2.183,M,40.592,M,2.4,0123*60\r\n
$GPGGA,072258.95,5703.3768598,N,00952.1223915,E,2,11,0.8,-2.182,M,40.592,M,2.4,0123*69\r\n
$GPGGA,072259.00,5703.3768652,N,00952.1223872,E,2,11,0.8,-2.180,M,40.592,M,2.4,0123*63\r\n
$GPGGA,072259.05,5703.3768709,N,00952.1223836,E,2,11,0.8,-2.171,M,40.592,M,2.7,0123*64\r\n
$GPGGA,072259.10,5703.3768772,N,00952.1223799,E,2,11,0.8,-2.166,M,40.592,M,2.7,0123*60\r\n
$GPGGA,072259.15,5703.3768841,N,00952.1223756,E,2,11,0.8,-2.162,M,40.592,M,2.7,0123*6D\r\n
$GPGGA,072259.20,5703.3768903,N,00952.1223708,E,2,11,0.8,-2.160,M,40.592,M,2.7,0123*65\r\n
$GPGGA,072259.25,5703.3768964,N,00952.1223664,E,2,11,0.8,-2.150,M,40.592,M,2.9,0123*67\r\n
$GPGGA,072259.30,5703.3769026,N,00952.1223614,E,2,11,0.8,-2.143,M,40.592,M,2.9,0123*68\r\n
$GPGGA,072259.35,5703.3769095,N,00952.1223563,E,2,11,0.8,-2.138,M,40.592,M,2.9,0123*6A\r\n
$GPGGA,072259.40,5703.3769164,N,00952.1223525,E,2,11,0.8,-2.135,M,40.592,M,2.9,0123*68\r\n
$GPGGA,072259.45,5703.3769231,N,00952.1223490,E,2,11,0.8,-2.137,M,40.592,M,3.1,0123*6A\r\n
$GPGGA,072259.50,5703.3769294,N,00952.1223471,E,2,11,0.8,-2.139,M,40.592,M,3.1,0123*60\r\n
$GPGGA,072259.55,5703.3769366,N,00952.1223463,E,2,11,0.8,-2.142,M,40.592,M,3.1,0123*66\r\n
$GPGGA,072259.60,5703.3769445,N,00952.1223445,E,2,11,0.8,-2.146,M,40.592,M,3.1,0123*66\r\n
$GPGGA,072259.65,5703.3769511,N,00952.1223417,E,2,11,0.8,-2.153,M,40.592,M,1.4,0123*67\r\n
$GPGGA,072259.70,5703.3769571,N,00952.1223399,E,2,11,0.8,-2.159,M,40.592,M,1.4,0123*6E\r\n
$GPGGA,072259.75,5703.3769638,N,00952.1223378,E,2,11,0.8,-2.163,M,40.592,M,1.4,0123*63\r\n
$GPGGA,072259.80,5703.3769711,N,00952.1223341,E,2,11,0.8,-2.166,M,40.592,M,1.4,0123*6C\r\n
$GPGGA,072259.85,5703.3769785,N,00952.1223295,E,2,11,0.8,-2.171,M,40.592,M,1.7,0123*69\r\n
$GPGGA,072259.90,5703.3769862,N,00952.1223247,E,2,11,0.8,-2.173,M,40.592,M,1.7,0123*66\r\n
$GPGGA,072259.95,5703.3769933,N,00952.1223203,E,2,11,0.8,-2.175,M,40.592,M,1.7,0123*60\r\n
$GPGGA,072300.00,5703.3769986,N,00952.1223153,E,2,11,0.8,-2.176,M,40.592,M,1.7,0123*6A\r\n
$GPGGA,072300.05,5703.3770049,N,00952.1223107,E,2,11,0.8,-2.163,M,40.592,M,2.0,0123*6C\r\n
$GPGGA,072300.10,5703.3770111,N,00952.1223075,E,2,11,0.8,-2.160,M,40.592,M,2.0,0123*63\r\n
$GPGGA,072300.15,5703.3770174,N,00952.1223043,E,2,11,0.8,-2.159,M,40.592,M,2.0,0123*6A\r\n
$GPGGA,072300.20,5703.3770227,N,00952.1223005,E,2,11,0.8,-2.160,M,40.592,M,2.0,0123*61\r\n
$GPGGA,072300.25,5703.3770289,N,00952.1222963,E,2,11,0.8,-2.154,M,40.592,M,2.2,0123*6D\r\n
$GPGGA,072300.30,5703.3770356,N,00952.1222920,E,2,11,0.8,-2.149,M,40.592,M,2.2,0123*61\r\n
$GPGGA,072300.35,5703.3770416,N,00952.1222878,E,2,11,0.8,-2.148,M,40.592,M,2.2,0123*6A\r\n
$GPGGA,072300.40,5703.3770481,N,00952.1222840,E,2,11,0.8,-2.149,M,40.592,M,2.2,0123*6C\r\n
$GPGGA,072300.45,5703.3770540,N,00952.1222808,E,2,11,0.8,-2.150,M,40.592,M,2.5,0123*66\r\n
$GPGGA,072300.50,5703.3770618,N,00952.1222774,E,2,11,0.8,-2.150,M,40.592,M,2.5,0123*68\r\n
$GPGGA,072300.55,5703.3770687,N,00952.1222744,E,2,11,0.8,-2.153,M,40.592,M,2.5,0123*6B\r\n
$GPGGA,072300.60,5703.3770765,N,00952.1222722,E,2,11,0.8,-2.157,M,40.592,M,2.5,0123*64\r\n
$GPGGA,072300.65,5703.3770824,N,00952.1222696,E,2,11,0.8,-2.166,M,40.592,M,1.3,0123*62\r\n
$GPGGA,072300.70,5703.3770891,N,00952.1222672,E,2,11,0.8,-2.169,M,40.592,M,1.3,0123*6D\r\n
$GPGGA,072300.75,5703.3770963,N,00952.1222645,E,2,11,0.8,-2.173,M,40.592,M,1.3,0123*6B\r\n
$GPGGA,072300.80,5703.3771024,N,00952.1222603,E,2,11,0.8,-2.176,M,40.592,M,1.3,0123*6D\r\n
$GPGGA,072300.85,5703.3771089,N,00952.1222561,E,2,11,0.8,-2.179,M,40.592,M,1.5,0123*61\r\n
$GPGGA,072300.90,5703.3771160,N,00952.1222527,E,2,11,0.8,-2.182,M,40.592,M,1.5,0123*65\r\n
$GPGGA,072300.95,5703.3771229,N,00952.1222485,E,2,11,0.8,-2.181,M,40.592,M,1.5,0123*64\r\n
$GPGGA,072301.00,5703.3771295,N,00952.1222458,E,2,11,0.8,-2.177,M,40.592,M,1.5,0123*67\r\n
$GPGGA,072301.05,5703.3771362,N,00952.1222415,E,2,11,0.8,-2.170,M,40.592,M,1.8,0123*68\r\n
$GPGGA,072301.10,5703.3771412,N,00952.1222376,E,2,11,0.8,-2.169,M,40.592,M,1.8,0123*66\r\n
$GPGGA,072301.15,5703.3771459,N,00952.1222347,E,2,11,0.8,-2.165,M,40.592,M,1.8,0123*62\r\n
$GPGGA,072301.20,5703.3771521,N,00952.1222308,E,2,11,0.8,-2.161,M,40.592,M,1.8,0123*65\r\n
$GPGGA,072301.25,5703.3771584,N,00952.1222273,E,2,11,0.8,-2.156,M,40.592,M,2.1,0123*6C\r\n
$GPGGA,072301.30,5703.3771633,N,00952.1222246,E,2,11,0.8,-2.153,M,40.592,M,2.1,0123*64\r\n
$GPGGA,072301.35,5703.3771705,N,00952.1222199,E,2,11,0.8,-2.148,M,40.592,M,2.1,0123*6E\r\n
$GPGGA,072301.40,5703.3771772,N,00952.1222166,E,2,11,0.8,-2.145,M,40.592,M,2.1,0123*61\r\n
$GPGGA,072301.45,5703.3771833,N,00952.1222142,E,2,11,0.8,-2.146,M,40.592,M,2.3,0123*69\r\n
$GPGGA,072301.50,5703.3771910,N,00952.1222128,E,2,11,0.8,-2.149,M,40.592,M,2.3,0123*6E\r\n
$GPGGA,072301.55,5703.3771989,N,00952.1222089,E,2,11,0.8,-2.150,M,40.592,M,2.3,0123*69\r\n
$GPGGA,072301.60,5703.3772062,N,00952.1222036,E,2,11,0.8,-2.149,M,40.592,M,2.3,0123*6C\r\n
$GPGGA,072301.65,5703.3772134,N,00952.1221989,E,2,11,0.8,-2.155,M,40.592,M,1.0,0123*68\r\n
$GPGGA,072301.70,5703.3772210,N,00952.1221969,E,2,11,0.8,-2.159,M,40.592,M,1.0,0123*6B\r\n
$GPGGA,072301.75,5703.3772284,N,00952.1221946,E,2,11,0.8,-2.165,M,40.592,M,1.0,0123*61\r\n
$GPGGA,072301.80,5703.3772354,N,00952.1221916,E,2,11,0.8,-2.170,M,40.592,M,1.0,0123*66\r\n
$GPGGA,072301.85,5703.3772416,N,00952.1221892,E,2,11,0.8,-2.172,M,40.592,M,1.3,0123*6E\r\n
$GPGGA,072301.90,5703.3772484,N,00952.1221876,E,2,11,0.8,-2.175,M,40.592,M,1.3,0123*6C\r\n
$GPGGA,072301.95,5703.3772555,N,00952.1221861,E,2,11,0.8,-2.176,M,40.592,M,1.3,0123*61\r\n
$GPGGA,072302.00,5703.3772629,N,00952.1221829,E,2,11,0.8,-2.179,M,40.592,M,1.3,0123*65\r\n
$GPGGA,072302.05,5703.3772706,N,00952.1221779,E,2,11,0.8,-2.179,M,40.592,M,1.5,0123*60\r\n
$GPGGA,072302.10,5703.3772786,N,00952.1221743,E,2,11,0.8,-2.178,M,40.592,M,1.5,0123*64\r\n
$GPGGA,072302.15,5703.3772843,N,00952.1221707,E,2,11,0.8,-2.175,M,40.592,M,1.5,0123*6A\r\n
$GPGGA,072302.20,5703.3772909,N,00952.1221668,E,2,11,0.8,-2.171,M,40.592,M,1.5,0123*6F\r\n
$GPGGA,072302.25,5703.3772979,N,00952.1221633,E,2,11,0.8,-2.167,M,40.592,M,1.8,0123*69\r\n
$GPGGA,072302.30,5703.3773045,N,00952.1221589,E,2,11,0.8,-2.167,M,40.592,M,1.8,0123*68\r\n
$GPGGA,072302.35,5703.3773118,N,00952.1221545,E,2,11,0.8,-2.164,M,40.592,M,1.8,0123*67\r\n
$GPGGA,072302.40,5703.3773188,N,00952.1221522,E,2,11,0.8,-2.161,M,40.592,M,1.8,0123*68\r\n
$GPGGA,072302.45,5703.3773250,N,00952.1221500,E,2,11,0.8,-2.161,M,40.592,M,2.0,0123*60\r\n
$GPGGA,072302.50,5703.3773318,N,00952.1221458,E,2,11,0.8,-2.159,M,40.592,M,2.0,0123*6E\r\n
$GPGGA,072302.55,5703.3773393,N,00952.1221414,E,2,11,0.8,-2.156,M,40.592,M,2.0,0123*6F\r\n
$GPGGA,072302.60,5703.3773465,N,00952.1221379,E,2,11,0.8,-2.156,M,40.592,M,2.0,0123*6B\r\n
$GPGGA,072302.65,5703.3773532,N,00952.1221349,E,2,11,0.8,-2.155,M,40.592,M,2.2,0123*6F\r\n
$GPGGA,072302.70,5703.3773604,N,00952.1221340,E,2,11,0.8,-2.156,M,40.592,M,2.2,0123*67\r\n
$GPGGA,072302.75,5703.3773671,N,00952.1221326,E,2,11,0.8,-2.158,M,40.592,M,2.2,0123*6E\r\n
$GPGGA,072302.80,5703.3773738,N,00952.1221296,E,2,11,0.8,-2.159,M,40.592,M,2.2,0123*63\r\n
$GPGGA,072302.85,5703.3773825,N,00952.1221279,E,2,11,0.8,-2.159,M,40.592,M,2.4,0123*62\r\n
$GPGGA,072302.90,5703.3773898,N,00952.1221251,E,2,11,0.8,-2.160,M,40.592,M,2.4,0123*60\r\n
$GPGGA,072302.95,5703.3773970,N,00952.1221194,E,2,11,0.8,-2.162,M,40.592,M,2.4,0123*6A\r\n
$GPGGA,072303.00,5703.3774052,N,00952.1221135,E,2,11,0.8,-2.161,M,40.592,M,2.4,0123*61\r\n
$GPGGA,072303.05,5703.3774141,N,00952.1221096,E,2,11,0.8,-2.158,M,40.592,M,2.7,0123*66\r\n
$GPGGA,072303.10,5703.3774217,N,00952.1221062,E,2,11,0.8,-2.158,M,40.592,M,2.7,0123*69\r\n
$GPGGA,072303.15,5703.3774296,N,00952.1221012,E,2,11,0.8,-2.159,M,40.592,M,2.7,0123*63\r\n
$GPGGA,072303.20,5703.3774377,N,00952.1220966,E,2,11,0.8,-2.158,M,40.592,M,2.7,0123*61\r\n
$GPGGA,072303.25,5703.3774452,N,00952.1220938,E,2,11,0.8,-2.159,M,40.592,M,2.9,0123*60\r\n
$GPGGA,072303.30,5703.3774529,N,00952.1220927,E,2,11,0.8,-2.163,M,40.592,M,2.9,0123*6E\r\n
$GPGGA,072303.35,5703.3774608,N,00952.1220933,E,2,11,0.8,-2.168,M,40.592,M,2.9,0123*65\r\n
$GPGGA,072303.40,5703.3774680,N,00952.1220920,E,2,11,0.8,-2.171,M,40.592,M,2.9,0123*6D\r\n
$GPGGA,072303.45,5703.3774752,N,00952.1220904,E,2,11,0.8,-2.171,M,40.592,M,3.1,0123*69\r\n
$GPGGA,072303.50,5703.3774832,N,00952.1220853,E,2,11,0.8,-2.170,M,40.592,M,3.1,0123*66\r\n
$GPGGA,072303.55,5703.3774908,N,00952.1220812,E,2,11,0.8,-2.167,M,40.592,M,3.1,0123*68\r\n
$GPGGA,072303.60,5703.3774980,N,00952.1220781,E,2,11,0.8,-2.162,M,40.592,M,3.1,0123*6E\r\n
$GPGGA,072303.65,5703.3775052,N,00952.1220751,E,2,11,0.8,-2.158,M,40.592,M,1.4,0123*6F\r\n
$GPGGA,072303.70,5703.3775124,N,00952.1220708,E,2,11,0.8,-2.157,M,40.592,M,1.4,0123*68\r\n
$GPGGA,072303.75,5703.3775207,N,00952.1220665,E,2,11,0.8,-2.152,M,40.592,M,1.4,0123*60\r\n
$GPGGA,072303.80,5703.3775294,N,00952.1220633,E,2,11,0.8,-2.145,M,40.592,M,1.4,0123*65\r\n
$GPGGA,072303.85,5703.3775382,N,00952.1220595,E,2,11,0.8,-2.137,M,40.592,M,1.7,0123*6F\r\n
$GPGGA,072303.90,5703.3775476,N,00952.1220572,E,2,11,0.8,-2.133,M,40.592,M,1.7,0123*6A\r\n
$GPGGA,072303.95,5703.3775575,N,00952.1220541,E,2,11,0.8,-2.130,M,40.592,M,1.7,0123*6E\r\n
$GPGGA,072304.00,5703.3775669,N,00952.1220519,E,2,11,0.8,-2.129,M,40.592,M,1.7,0123*6E\r\n
$GPGGA,072304.05,5703.3775772,N,00952.1220500,E,2,11,0.8,-2.127,M,40.592,M,2.0,0123*62\r\n
$GPGGA,072304.10,5703.3775883,N,00952.1220492,E,2,11,0.8,-2.126,M,40.592,M,2.0,0123*6C\r\n
$GPGGA,072304.15,5703.3776004,N,00952.1220509,E,2,11,0.8,-2.125,M,40.592,M,2.0,0123*6D\r\n
$GPGGA,072304.20,5703.3776118,N,00952.1220534,E,2,11,0.8,-2.126,M,40.592,M,2.0,0123*6A\r\n
$GPGGA,072304.25,5703.3776256,N,00952.1220567,E,2,11,0.8,-2.121,M,40.592,M,2.2,0123*65\r\n
$GPGGA,072304.30,5703.3776391,N,00952.1220608,E,2,11,0.8,-2.118,M,40.592,M,2.2,0123*6B\r\n
$GPGGA,072304.35,5703.3776542,N,00952.1220649,E,2,11,0.8,-2.113,M,40.592,M,2.2,0123*68\r\n
$GPGGA,072304.40,5703.3776700,N,00952.1220713,E,2,11,0.8,-2.111,M,40.592,M,2.2,0123*62\r\n
$GPGGA,072304.45,5703.3776871,N,00952.1220798,E,2,11,0.8,-2.112,M,40.592,M,2.5,0123*69\r\n
$GPGGA,072304.50,5703.3777062,N,00952.1220863,E,2,11,0.8,-2.103,M,40.592,M,2.5,0123*6D\r\n
$GPGGA,072304.55,5703.3777260,N,00952.1220951,E,2,11,0.8,-2.090,M,40.592,M,2.5,0123*63\r\n
$GPGGA,072304.60,5703.3777452,N,00952.1221055,E,2,11,0.8,-2.080,M,40.592,M,2.5,0123*6F\r\n
$GPGGA,072304.65,5703.3777664,N,00952.1221185,E,2,11,0.8,-2.066,M,40.592,M,1.3,0123*6C\r\n
$GPGGA,072304.70,5703.3777895,N,00952.1221325,E,2,11,0.8,-2.053,M,40.592,M,1.3,0123*66\r\n
$GPGGA,072304.75,5703.3778148,N,00952.1221486,E,2,11,0.8,-2.042,M,40.592,M,1.3,0123*6B\r\n
$GPGGA,072304.80,5703.3778409,N,00952.1221670,E,2,11,0.8,-2.036,M,40.592,M,1.3,0123*69\r\n
$GPGGA,072304.85,5703.3778693,N,00952.1221859,E,2,11,0.8,-2.038,M,40.592,M,1.5,0123*60\r\n
$GPGGA,072304.90,5703.3778983,N,00952.1222079,E,2,11,0.8,-2.036,M,40.592,M,1.5,0123*6D\r\n
$GPGGA,072304.95,5703.3779291,N,00952.1222335,E,2,11,0.8,-2.035,M,40.592,M,1.5,0123*69\r\n
$GPGGA,072305.00,5703.3779605,N,00952.1222605,E,2,11,0.8,-2.033,M,40.592,M,1.5,0123*6D\r\n
$GPGGA,072305.05,5703.3779916,N,00952.1222889,E,2,11,0.8,-2.031,M,40.592,M,1.8,0123*60\r\n
$GPGGA,072305.10,5703.3780248,N,00952.1223177,E,2,11,0.8,-2.029,M,40.592,M,1.8,0123*62\r\n
$GPGGA,072305.15,5703.3780588,N,00952.1223466,E,2,11,0.8,-2.027,M,40.592,M,1.8,0123*67\r\n
$GPGGA,072305.20,5703.3780927,N,00952.1223742,E,2,11,0.8,-2.026,M,40.592,M,1.8,0123*6C\r\n
$GPGGA,072305.25,5703.3781293,N,00952.1224020,E,2,11,0.8,-2.023,M,40.592,M,2.1,0123*67\r\n
$GPGGA,072305.30,5703.3781685,N,00952.1224323,E,2,11,0.8,-2.018,M,40.592,M,2.1,0123*68\r\n
$GPGGA,072305.35,5703.3782076,N,00952.1224648,E,2,11,0.8,-2.019,M,40.592,M,2.1,0123*6D\r\n
$GPGGA,072305.40,5703.3782483,N,00952.1224992,E,2,11,0.8,-2.021,M,40.592,M,2.1,0123*62\r\n
$GPGGA,072305.45,5703.3782895,N,00952.1225325,E,2,11,0.8,-2.018,M,40.592,M,2.3,0123*63\r\n
$GPGGA,072305.50,5703.3783313,N,00952.1225649,E,2,11,0.8,-2.018,M,40.592,M,2.3,0123*6C\r\n
$GPGGA,072305.55,5703.3783738,N,00952.1225962,E,2,11,0.8,-2.014,M,40.592,M,2.3,0123*6E\r\n
$GPGGA,072305.60,5703.3784165,N,00952.1226295,E,2,11,0.8,-2.011,M,40.592,M,2.3,0123*64\r\n
$GPGGA,072305.65,5703.3784594,N,00952.1226627,E,2,11,0.8,-2.004,M,40.592,M,1.0,0123*62\r\n
$GPGGA,072305.70,5703.3785029,N,00952.1226967,E,2,11,0.8,-1.998,M,40.592,M,1.0,0123*60\r\n
$GPGGA,072305.75,5703.3785477,N,00952.1227310,E,2,11,0.8,-1.996,M,40.592,M,1.0,0123*6F\r\n
$GPGGA,072305.80,5703.3785939,N,00952.1227649,E,2,11,0.8,-1.992,M,40.592,M,1.0,0123*6F\r\n
$GPGGA,072305.85,5703.3786412,N,00952.1227996,E,2,11,0.8,-1.996,M,40.592,M,1.3,0123*67\r\n
$GPGGA,072305.90,5703.3786893,N,00952.1228363,E,2,11,0.8,-1.997,M,40.592,M,1.3,0123*68\r\n
$GPGGA,072305.95,5703.3787378,N,00952.1228711,E,2,11,0.8,-1.996,M,40.592,M,1.3,0123*62\r\n
$GPGGA,072306.00,5703.3787861,N,00952.1229057,E,2,11,0.8,-1.995,M,40.592,M,1.3,0123*69\r\n
$GPGGA,072306.05,5703.3788334,N,00952.1229385,E,2,11,0.8,-1.993,M,40.592,M,1.5,0123*64\r\n
$GPGGA,072306.10,5703.3788815,N,00952.1229730,E,2,11,0.8,-1.989,M,40.592,M,1.5,0123*69\r\n
$GPGGA,072306.15,5703.3789300,N,00952.1230067,E,2,11,0.8,-1.981,M,40.592,M,1.5,0123*67\r\n
$GPGGA,072306.20,5703.3789800,N,00952.1230408,E,2,11,0.8,-1.977,M,40.592,M,1.5,0123*6E\r\n
$GPGGA,072306.25,5703.3790305,N,00952.1230756,E,2,11,0.8,-1.969,M,40.592,M,1.8,0123*67\r\n
$GPGGA,072306.30,5703.3790817,N,00952.1231094,E,2,11,0.8,-1.968,M,40.592,M,1.8,0123*62\r\n
$GPGGA,072306.35,5703.3791339,N,00952.1231429,E,2,11,0.8,-1.967,M,40.592,M,1.8,0123*6C\r\n
$GPGGA,072306.40,5703.3791866,N,00952.1231764,E,2,11,0.8,-1.967,M,40.592,M,1.8,0123*65\r\n
$GPGGA,072306.45,5703.3792399,N,00952.1232086,E,2,11,0.8,-1.967,M,40.592,M,2.0,0123*6B\r\n
$GPGGA,072306.50,5703.3792925,N,00952.1232388,E,2,11,0.8,-1.968,M,40.592,M,2.0,0123*60\r\n
$GPGGA,072306.55,5703.3793459,N,00952.1232705,E,2,11,0.8,-1.968,M,40.592,M,2.0,0123*63\r\n
$GPGGA,072306.60,5703.3793998,N,00952.1233025,E,2,11,0.8,-1.970,M,40.592,M,2.0,0123*68\r\n
$GPGGA,072306.65,5703.3794535,N,00952.1233360,E,2,11,0.8,-1.968,M,40.592,M,2.2,0123*68\r\n
$GPGGA,072306.70,5703.3795070,N,00952.1233668,E,2,11,0.8,-1.964,M,40.592,M,2.2,0123*68\r\n
$GPGGA,072306.75,5703.3795597,N,00952.1233944,E,2,11,0.8,-1.954,M,40.592,M,2.2,0123*63\r\n
$GPGGA,072306.80,5703.3796150,N,00952.1234208,E,2,11,0.8,-1.948,M,40.592,M,2.2,0123*6C\r\n
$GPGGA,072306.85,5703.3796709,N,00952.1234504,E,2,11,0.8,-1.949,M,40.592,M,2.4,0123*6F\r\n
$GPGGA,072306.90,5703.3797271,N,00952.1234797,E,2,11,0.8,-1.951,M,40.592,M,2.4,0123*61\r\n
$GPGGA,072306.95,5703.3797844,N,00952.1235078,E,2,11,0.8,-1.954,M,40.592,M,2.4,0123*6A\r\n
$GPGGA,072307.00,5703.3798412,N,00952.1235324,E,2,11,0.8,-1.955,M,40.592,M,2.4,0123*6C\r\n
$GPGGA,072307.05,5703.3798975,N,00952.1235552,E,2,11,0.8,-1.957,M,40.592,M,2.7,0123*63\r\n
$GPGGA,072307.10,5703.3799532,N,00952.1235787,E,2,11,0.8,-1.959,M,40.592,M,2.7,0123*6D\r\n
$GPGGA,072307.15,5703.3800106,N,00952.1236038,E,2,11,0.8,-1.961,M,40.592,M,2.7,0123*6F\r\n
$GPGGA,072307.20,5703.3800685,N,00952.1236295,E,2,11,0.8,-1.962,M,40.592,M,2.7,0123*63\r\n
$GPGGA,072307.25,5703.3801263,N,00952.1236527,E,2,11,0.8,-1.960,M,40.592,M,2.9,0123*69\r\n
$GPGGA,072307.30,5703.3801849,N,00952.1236748,E,2,11,0.8,-1.961,M,40.592,M,2.9,0123*65\r\n
$GPGGA,072307.35,5703.3802438,N,00952.1236951,E,2,11,0.8,-1.957,M,40.592,M,2.9,0123*6A\r\n
$GPGGA,072307.40,5703.3803010,N,00952.1237164,E,2,11,0.8,-1.957,M,40.592,M,2.9,0123*68\r\n
$GPGGA,072307.45,5703.3803591,N,00952.1237373,E,2,11,0.8,-1.961,M,40.592,M,3.1,0123*69\r\n
$GPGGA,072307.50,5703.3804185,N,00952.1237556,E,2,11,0.8,-1.958,M,40.592,M,3.1,0123*60\r\n
$GPGGA,072307.55,5703.3804770,N,00952.1237704,E,2,11,0.8,-1.955,M,40.592,M,3.1,0123*61\r\n
$GPGGA,072307.60,5703.3805353,N,00952.1237813,E,2,11,0.8,-1.951,M,40.592,M,3.1,0123*6E\r\n
$GPGGA,072307.65,5703.3805953,N,00952.1237942,E,2,11,0.8,-1.947,M,40.592,M,1.4,0123*64\r\n
$GPGGA,072307.70,5703.3806561,N,00952.1238097,E,2,11,0.8,-1.946,M,40.592,M,1.4,0123*61\r\n
$GPGGA,072307.75,5703.3807175,N,00952.1238255,E,2,11,0.8,-1.948,M,40.592,M,1.4,0123*66\r\n
$GPGGA,072307.80,5703.3807773,N,00952.1238380,E,2,11,0.8,-1.952,M,40.592,M,1.4,0123*6E\r\n
$GPGGA,072307.85,5703.3808396,N,00952.1238481,E,2,11,0.8,-1.952,M,40.592,M,1.7,0123*6E\r\n
$GPGGA,072307.90,5703.3809015,N,00952.1238561,E,2,11,0.8,-1.951,M,40.592,M,1.7,0123*6F\r\n
$GPGGA,072307.95,5703.3809644,N,00952.1238637,E,2,11,0.8,-1.950,M,40.592,M,1.7,0123*69\r\n
$GPGGA,072308.00,5703.3810268,N,00952.1238711,E,2,11,0.8,-1.950,M,40.592,M,1.7,0123*6D\r\n
$GPGGA,072308.05,5703.3810891,N,00952.1238754,E,2,11,0.8,-1.951,M,40.592,M,2.0,0123*60\r\n
$GPGGA,072308.10,5703.3811502,N,00952.1238793,E,2,11,0.8,-1.949,M,40.592,M,2.0,0123*60\r\n
$GPGGA,072308.15,5703.3812108,N,00952.1238813,E,2,11,0.8,-1.945,M,40.592,M,2.0,0123*63\r\n
$GPGGA,072308.20,5703.3812704,N,00952.1238811,E,2,11,0.8,-1.938,M,40.592,M,2.0,0123*67\r\n
$GPGGA,072308.25,5703.3813326,N,00952.1238836,E,2,11,0.8,-1.927,M,40.592,M,2.2,0123*6E\r\n
$GPGGA,072308.30,5703.3813950,N,00952.1238864,E,2,11,0.8,-1.921,M,40.592,M,2.2,0123*60\r\n
$GPGGA,072308.35,5703.3814572,N,00952.1238892,E,2,11,0.8,-1.922,M,40.592,M,2.2,0123*64\r\n
$GPGGA,072308.40,5703.3815209,N,00952.1238915,E,2,11,0.8,-1.926,M,40.592,M,2.2,0123*66\r\n
$GPGGA,072308.45,5703.3815854,N,00952.1238931,E,2,11,0.8,-1.929,M,40.592,M,2.5,0123*6F\r\n
$GPGGA,072308.50,5703.3816510,N,00952.1238911,E,2,11,0.8,-1.937,M,40.592,M,2.5,0123*68\r\n
$GPGGA,072308.55,5703.3817169,N,00952.1238892,E,2,11,0.8,-1.943,M,40.592,M,2.5,0123*6F\r\n
$GPGGA,072308.60,5703.3817808,N,00952.1238854,E,2,11,0.8,-1.946,M,40.592,M,2.5,0123*68\r\n
$GPGGA,072308.65,5703.3818419,N,00952.1238805,E,2,11,0.8,-1.953,M,40.592,M,1.3,0123*6B\r\n
$GPGGA,072308.70,5703.3819040,N,00952.1238737,E,2,11,0.8,-1.952,M,40.592,M,1.3,0123*69\r\n
$GPGGA,072308.75,5703.3819664,N,00952.1238661,E,2,11,0.8,-1.946,M,40.592,M,1.3,0123*6B\r\n
$GPGGA,072308.80,5703.3820296,N,00952.1238567,E,2,11,0.8,-1.940,M,40.592,M,1.3,0123*61\r\n
$GPGGA,072308.85,5703.3820934,N,00952.1238476,E,2,11,0.8,-1.932,M,40.592,M,1.5,0123*65\r\n
$GPGGA,072308.90,5703.3821566,N,00952.1238388,E,2,11,0.8,-1.929,M,40.592,M,1.5,0123*67\r\n
$GPGGA,072308.95,5703.3822201,N,00952.1238289,E,2,11,0.8,-1.928,M,40.592,M,1.5,0123*66\r\n
$GPGGA,072309.00,5703.3822843,N,00952.1238178,E,2,11,0.8,-1.925,M,40.592,M,1.5,0123*67\r\n
$GPGGA,072309.05,5703.3823484,N,00952.1238048,E,2,11,0.8,-1.924,M,40.592,M,1.8,0123*6A\r\n
$GPGGA,072309.10,5703.3824131,N,00952.1237923,E,2,11,0.8,-1.928,M,40.592,M,1.8,0123*65\r\n
$GPGGA,072309.15,5703.3824796,N,00952.1237800,E,2,11,0.8,-1.933,M,40.592,M,1.8,0123*61\r\n
$GPGGA,072309.20,5703.3825454,N,00952.1237665,E,2,11,0.8,-1.939,M,40.592,M,1.8,0123*6C\r\n
$GPGGA,072309.25,5703.3826096,N,00952.1237538,E,2,11,0.8,-1.938,M,40.592,M,2.1,0123*60\r\n
$GPGGA,072309.30,5703.3826752,N,00952.1237398,E,2,11,0.8,-1.939,M,40.592,M,2.1,0123*66\r\n
$GPGGA,072309.35,5703.3827403,N,00952.1237231,E,2,11,0.8,-1.942,M,40.592,M,2.1,0123*6B\r\n
$GPGGA,072309.40,5703.3828039,N,00952.1237014,E,2,11,0.8,-1.940,M,40.592,M,2.1,0123*6C\r\n
$GPGGA,072309.45,5703.3828662,N,00952.1236754,E,2,11,0.8,-1.932,M,40.592,M,2.3,0123*64\r\n
$GPGGA,072309.50,5703.3829303,N,00952.1236483,E,2,11,0.8,-1.929,M,40.592,M,2.3,0123*60\r\n
$GPGGA,072309.55,5703.3829935,N,00952.1236223,E,2,11,0.8,-1.926,M,40.592,M,2.3,0123*69\r\n
$GPGGA,072309.60,5703.3830560,N,00952.1235957,E,2,11,0.8,-1.922,M,40.592,M,2.3,0123*64\r\n
$GPGGA,072309.65,5703.3831200,N,00952.1235680,E,2,11,0.8,-1.923,M,40.592,M,1.0,0123*65\r\n
$GPGGA,072309.70,5703.3831836,N,00952.1235414,E,2,11,0.8,-1.923,M,40.592,M,1.0,0123*61\r\n
$GPGGA,072309.75,5703.3832483,N,00952.1235128,E,2,11,0.8,-1.926,M,40.592,M,1.0,0123*6A\r\n
$GPGGA,072309.80,5703.3833129,N,00952.1234819,E,2,11,0.8,-1.928,M,40.592,M,1.0,0123*60\r\n
$GPGGA,072309.85,5703.3833783,N,00952.1234502,E,2,11,0.8,-1.926,M,40.592,M,1.3,0123*69\r\n
$GPGGA,072309.90,5703.3834424,N,00952.1234171,E,2,11,0.8,-1.927,M,40.592,M,1.3,0123*65\r\n
$GPGGA,072309.95,5703.3835064,N,00952.1233843,E,2,11,0.8,-1.928,M,40.592,M,1.3,0123*61\r\n
$GPGGA,072310.00,5703.3835706,N,00952.1233487,E,2,11,0.8,-1.929,M,40.592,M,1.3,0123*63\r\n
$GPGGA,072310.05,5703.3836346,N,00952.1233126,E,2,11,0.8,-1.933,M,40.592,M,1.5,0123*66\r\n
$GPGGA,072310.10,5703.3836987,N,00952.1232715,E,2,11,0.8,-1.938,M,40.592,M,1.5,0123*69\r\n
$GPGGA,072310.15,5703.3837611,N,00952.1232288,E,2,11,0.8,-1.935,M,40.592,M,1.5,0123*61\r\n
$GPGGA,072310.20,5703.3838236,N,00952.1231842,E,2,11,0.8,-1.932,M,40.592,M,1.5,0123*61\r\n
$GPGGA,072310.25,5703.3838855,N,00952.1231390,E,2,11,0.8,-1.932,M,40.592,M,1.8,0123*62\r\n
$GPGGA,072310.30,5703.3839471,N,00952.1230914,E,2,11,0.8,-1.931,M,40.592,M,1.8,0123*69\r\n
$GPGGA,072310.35,5703.3840083,N,00952.1230405,E,2,11,0.8,-1.931,M,40.592,M,1.8,0123*66\r\n
$GPGGA,072310.40,5703.3840696,N,00952.1229883,E,2,11,0.8,-1.927,M,40.592,M,1.8,0123*6B\r\n
$GPGGA,072310.45,5703.3841306,N,00952.1229345,E,2,11,0.8,-1.923,M,40.592,M,2.0,0123*6D\r\n
$GPGGA,072310.50,5703.3841906,N,00952.1228809,E,2,11,0.8,-1.918,M,40.592,M,2.0,0123*69\r\n
$GPGGA,072310.55,5703.3842495,N,00952.1228248,E,2,11,0.8,-1.916,M,40.592,M,2.0,0123*69\r\n
$GPGGA,072310.60,5703.3843096,N,00952.1227680,E,2,11,0.8,-1.915,M,40.592,M,2.0,0123*65\r\n
$GPGGA,072310.65,5703.3843701,N,00952.1227102,E,2,11,0.8,-1.917,M,40.592,M,2.2,0123*64\r\n
$GPGGA,072310.70,5703.3844318,N,00952.1226515,E,2,11,0.8,-1.919,M,40.592,M,2.2,0123*66\r\n
$GPGGA,072310.75,5703.3844936,N,00952.1225934,E,2,11,0.8,-1.921,M,40.592,M,2.2,0123*62\r\n
$GPGGA,072310.80,5703.3845543,N,00952.1225330,E,2,11,0.8,-1.925,M,40.592,M,2.2,0123*6D\r\n
$GPGGA,072310.85,5703.3846142,N,00952.1224672,E,2,11,0.8,-1.929,M,40.592,M,2.4,0123*66\r\n
$GPGGA,072310.90,5703.3846732,N,00952.1223979,E,2,11,0.8,-1.930,M,40.592,M,2.4,0123*68\r\n
$GPGGA,072310.95,5703.3847306,N,00952.1223265,E,2,11,0.8,-1.929,M,40.592,M,2.4,0123*61\r\n
$GPGGA,072311.00,5703.3847879,N,00952.1222545,E,2,11,0.8,-1.929,M,40.592,M,2.4,0123*6B\r\n
$GPGGA,072311.05,5703.3848447,N,00952.1221821,E,2,11,0.8,-1.933,M,40.592,M,2.7,0123*64\r\n
$GPGGA,072311.10,5703.3849006,N,00952.1221085,E,2,11,0.8,-1.933,M,40.592,M,2.7,0123*66\r\n
$GPGGA,072311.15,5703.3849568,N,00952.1220331,E,2,11,0.8,-1.931,M,40.592,M,2.7,0123*61\r\n
$GPGGA,072311.20,5703.3850132,N,00952.1219556,E,2,11,0.8,-1.930,M,40.592,M,2.7,0123*68\r\n
$GPGGA,072311.25,5703.3850689,N,00952.1218749,E,2,11,0.8,-1.927,M,40.592,M,2.9,0123*6F\r\n
$GPGGA,072311.30,5703.3851237,N,00952.1217924,E,2,11,0.8,-1.928,M,40.592,M,2.9,0123*6E\r\n
$GPGGA,072311.35,5703.3851771,N,00952.1217095,E,2,11,0.8,-1.931,M,40.592,M,2.9,0123*67\r\n
$GPGGA,072311.40,5703.3852308,N,00952.1216255,E,2,11,0.8,-1.934,M,40.592,M,2.9,0123*66\r\n
$GPGGA,072311.45,5703.3852845,N,00952.1215412,E,2,11,0.8,-1.933,M,40.592,M,3.1,0123*69\r\n
$GPGGA,072311.50,5703.3853376,N,00952.1214535,E,2,11,0.8,-1.934,M,40.592,M,3.1,0123*65\r\n
$GPGGA,072311.55,5703.3853899,N,00952.1213634,E,2,11,0.8,-1.934,M,40.592,M,3.1,0123*6F\r\n
$GPGGA,072311.60,5703.3854425,N,00952.1212724,E,2,11,0.8,-1.931,M,40.592,M,3.1,0123*61\r\n
$GPGGA,072311.65,5703.3854933,N,00952.1211796,E,2,11,0.8,-1.936,M,40.592,M,1.4,0123*64\r\n
$GPGGA,072311.70,5703.3855440,N,00952.1210850,E,2,11,0.8,-1.939,M,40.592,M,1.4,0123*63\r\n
$GPGGA,072311.75,5703.3855942,N,00952.1209897,E,2,11,0.8,-1.940,M,40.592,M,1.4,0123*64\r\n
$GPGGA,072311.80,5703.3856438,N,00952.1208915,E,2,11,0.8,-1.943,M,40.592,M,1.4,0123*64\r\n
$GPGGA,072311.85,5703.3856917,N,00952.1207915,E,2,11,0.8,-1.936,M,40.592,M,1.7,0123*6F\r\n
$GPGGA,072311.90,5703.3857380,N,00952.1206918,E,2,11,0.8,-1.936,M,40.592,M,1.7,0123*62\r\n
$GPGGA,072311.95,5703.3857839,N,00952.1205880,E,2,11,0.8,-1.937,M,40.592,M,1.7,0123*6C\r\n
$GPGGA,072312.00,5703.3858294,N,00952.1204834,E,2,11,0.8,-1.940,M,40.592,M,1.7,0123*6F\r\n
$GPGGA,072312.05,5703.3858748,N,00952.1203775,E,2,11,0.8,-1.943,M,40.592,M,2.0,0123*64\r\n
$GPGGA,072312.10,5703.3859193,N,00952.1202686,E,2,11,0.8,-1.944,M,40.592,M,2.0,0123*6A\r\n
$GPGGA,072312.15,5703.3859619,N,00952.1201577,E,2,11,0.8,-1.946,M,40.592,M,2.0,0123*66\r\n
$GPGGA,072312.20,5703.3860039,N,00952.1200449,E,2,11,0.8,-1.947,M,40.592,M,2.0,0123*62\r\n
$GPGGA,072312.25,5703.3860443,N,00952.1199298,E,2,11,0.8,-1.952,M,40.592,M,2.2,0123*61\r\n
$GPGGA,072312.30,5703.3860847,N,00952.1198148,E,2,11,0.8,-1.955,M,40.592,M,2.2,0123*65\r\n
$GPGGA,072312.35,5703.3861253,N,00952.1196980,E,2,11,0.8,-1.958,M,40.592,M,2.2,0123*61\r\n
$GPGGA,072312.40,5703.3861642,N,00952.1195790,E,2,11,0.8,-1.958,M,40.592,M,2.2,0123*6B\r\n
$GPGGA,072312.45,5703.3862022,N,00952.1194575,E,2,11,0.8,-1.959,M,40.592,M,2.5,0123*63\r\n
$GPGGA,072312.50,5703.3862370,N,00952.1193341,E,2,11,0.8,-1.962,M,40.592,M,2.5,0123*6D\r\n
$GPGGA,072312.55,5703.3862704,N,00952.1192091,E,2,11,0.8,-1.963,M,40.592,M,2.5,0123*61\r\n
$GPGGA,072312.60,5703.3863023,N,00952.1190825,E,2,11,0.8,-1.963,M,40.592,M,2.5,0123*61\r\n
$GPGGA,072312.65,5703.3863329,N,00952.1189537,E,2,11,0.8,-1.961,M,40.592,M,1.3,0123*6C\r\n
$GPGGA,072312.70,5703.3863627,N,00952.1188247,E,2,11,0.8,-1.963,M,40.592,M,1.3,0123*60\r\n
$GPGGA,072312.75,5703.3863918,N,00952.1186939,E,2,11,0.8,-1.966,M,40.592,M,1.3,0123*6F\r\n
$GPGGA,072312.80,5703.3864206,N,00952.1185621,E,2,11,0.8,-1.966,M,40.592,M,1.3,0123*63\r\n
$GPGGA,072312.85,5703.3864474,N,00952.1184287,E,2,11,0.8,-1.964,M,40.592,M,1.5,0123*68\r\n
$GPGGA,072312.90,5703.3864744,N,00952.1182963,E,2,11,0.8,-1.965,M,40.592,M,1.5,0123*6A\r\n
$GPGGA,072312.95,5703.3864983,N,00952.1181603,E,2,11,0.8,-1.968,M,40.592,M,1.5,0123*6D\r\n
$GPGGA,072313.00,5703.3865206,N,00952.1180223,E,2,11,0.8,-1.970,M,40.592,M,1.5,0123*69\r\n
$GPGGA,072313.05,5703.3865425,N,00952.1178841,E,2,11,0.8,-1.969,M,40.592,M,1.8,0123*67\r\n
$GPGGA,072313.10,5703.3865630,N,00952.1177435,E,2,11,0.8,-1.971,M,40.592,M,1.8,0123*6C\r\n
$GPGGA,072313.15,5703.3865826,N,00952.1176027,E,2,11,0.8,-1.972,M,40.592,M,1.8,0123*65\r\n
$GPGGA,072313.20,5703.3866000,N,00952.1174616,E,2,11,0.8,-1.974,M,40.592,M,1.8,0123*6C\r\n
$GPGGA,072313.25,5703.3866147,N,00952.1173190,E,2,11,0.8,-1.980,M,40.592,M,2.1,0123*64\r\n
$GPGGA,072313.30,5703.3866285,N,00952.1171747,E,2,11,0.8,-1.984,M,40.592,M,2.1,0123*67\r\n
$GPGGA,072313.35,5703.3866415,N,00952.1170298,E,2,11,0.8,-1.989,M,40.592,M,2.1,0123*66\r\n
$GPGGA,072313.40,5703.3866539,N,00952.1168869,E,2,11,0.8,-1.990,M,40.592,M,2.1,0123*6E\r\n
$GPGGA,072313.45,5703.3866626,N,00952.1167415,E,2,11,0.8,-1.995,M,40.592,M,2.3,0123*69\r\n
$GPGGA,072313.50,5703.3866714,N,00952.1165955,E,2,11,0.8,-2.001,M,40.592,M,2.3,0123*61\r\n
$GPGGA,072313.55,5703.3866798,N,00952.1164507,E,2,11,0.8,-2.001,M,40.592,M,2.3,0123*6A\r\n
$GPGGA,072313.60,5703.3866857,N,00952.1163032,E,2,11,0.8,-2.003,M,40.592,M,2.3,0123*66\r\n
$GPGGA,072313.65,5703.3866888,N,00952.1161548,E,2,11,0.8,-2.003,M,40.592,M,1.0,0123*6B\r\n
$GPGGA,072313.70,5703.3866917,N,00952.1160069,E,2,11,0.8,-2.005,M,40.592,M,1.0,0123*69\r\n
$GPGGA,072313.75,5703.3866928,N,00952.1158592,E,2,11,0.8,-2.008,M,40.592,M,1.0,0123*67\r\n
$GPGGA,072313.80,5703.3866935,N,00952.1157121,E,2,11,0.8,-2.007,M,40.592,M,1.0,0123*6D\r\n
$GPGGA,072313.85,5703.3866922,N,00952.1155644,E,2,11,0.8,-2.006,M,40.592,M,1.3,0123*6A\r\n
$GPGGA,072313.90,5703.3866892,N,00952.1154167,E,2,11,0.8,-2.004,M,40.592,M,1.3,0123*61\r\n
$GPGGA,072313.95,5703.3866833,N,00952.1152686,E,2,11,0.8,-1.999,M,40.592,M,1.3,0123*6F\r\n
$GPGGA,072314.00,5703.3866771,N,00952.1151227,E,2,11,0.8,-1.997,M,40.592,M,1.3,0123*6F\r\n
$GPGGA,072314.05,5703.3866696,N,00952.1149755,E,2,11,0.8,-1.984,M,40.592,M,1.5,0123*6F\r\n
$GPGGA,072314.10,5703.3866611,N,00952.1148283,E,2,11,0.8,-1.978,M,40.592,M,1.5,0123*68\r\n
$GPGGA,072314.15,5703.3866492,N,00952.1146816,E,2,11,0.8,-1.975,M,40.592,M,1.5,0123*61\r\n
$GPGGA,072314.20,5703.3866362,N,00952.1145345,E,2,11,0.8,-1.969,M,40.592,M,1.5,0123*6C\r\n
$GPGGA,072314.25,5703.3866213,N,00952.1143885,E,2,11,0.8,-1.965,M,40.592,M,1.8,0123*6E\r\n
$GPGGA,072314.30,5703.3866061,N,00952.1142416,E,2,11,0.8,-1.960,M,40.592,M,1.8,0123*6F\r\n
$GPGGA,072314.35,5703.3865898,N,00952.1140963,E,2,11,0.8,-1.957,M,40.592,M,1.8,0123*6E\r\n
$GPGGA,072314.40,5703.3865729,N,00952.1139507,E,2,11,0.8,-1.957,M,40.592,M,1.8,0123*69\r\n
$GPGGA,072314.45,5703.3865537,N,00952.1138054,E,2,11,0.8,-1.955,M,40.592,M,2.0,0123*6A\r\n
$GPGGA,072314.50,5703.3865318,N,00952.1136612,E,2,11,0.8,-1.954,M,40.592,M,2.0,0123*6E\r\n
$GPGGA,072314.55,5703.3865077,N,00952.1135175,E,2,11,0.8,-1.956,M,40.592,M,2.0,0123*66\r\n
$GPGGA,072314.60,5703.3864829,N,00952.1133731,E,2,11,0.8,-1.962,M,40.592,M,2.0,0123*65\r\n
$GPGGA,072314.65,5703.3864574,N,00952.1132298,E,2,11,0.8,-1.965,M,40.592,M,2.2,0123*67\r\n
$GPGGA,072314.70,5703.3864297,N,00952.1130886,E,2,11,0.8,-1.966,M,40.592,M,2.2,0123*6D\r\n
$GPGGA,072314.75,5703.3864004,N,00952.1129484,E,2,11,0.8,-1.969,M,40.592,M,2.2,0123*69\r\n
$GPGGA,072314.80,5703.3863694,N,00952.1128081,E,2,11,0.8,-1.973,M,40.592,M,2.2,0123*60\r\n
$GPGGA,072314.85,5703.3863371,N,00952.1126701,E,2,11,0.8,-1.978,M,40.592,M,2.4,0123*67\r\n
$GPGGA,072314.90,5703.3863043,N,00952.1125334,E,2,11,0.8,-1.984,M,40.592,M,2.4,0123*63\r\n
$GPGGA,072314.95,5703.3862682,N,00952.1123973,E,2,11,0.8,-1.991,M,40.592,M,2.4,0123*67\r\n
$GPGGA,072315.00,5703.3862312,N,00952.1122632,E,2,11,0.8,-1.995,M,40.592,M,2.4,0123*69\r\n
$GPGGA,072315.05,5703.3861930,N,00952.1121306,E,2,11,0.8,-1.997,M,40.592,M,2.7,0123*65\r\n
$GPGGA,072315.10,5703.3861550,N,00952.1120001,E,2,11,0.8,-1.998,M,40.592,M,2.7,0123*61\r\n
$GPGGA,072315.15,5703.3861166,N,00952.1118711,E,2,11,0.8,-1.999,M,40.592,M,2.7,0123*69\r\n
$GPGGA,072315.20,5703.3860758,N,00952.1117437,E,2,11,0.8,-2.002,M,40.592,M,2.7,0123*65\r\n
$GPGGA,072315.25,5703.3860338,N,00952.1116172,E,2,11,0.8,-2.004,M,40.592,M,2.9,0123*6F\r\n
$GPGGA,072315.30,5703.3859910,N,00952.1114913,E,2,11,0.8,-2.001,M,40.592,M,2.9,0123*69\r\n
$GPGGA,072315.35,5703.3859460,N,00952.1113679,E,2,11,0.8,-1.999,M,40.592,M,2.9,0123*69\r\n
$GPGGA,072315.40,5703.3858997,N,00952.1112469,E,2,11,0.8,-1.998,M,40.592,M,2.9,0123*6C\r\n
$GPGGA,072315.45,5703.3858542,N,00952.1111271,E,2,11,0.8,-1.993,M,40.592,M,3.1,0123*63\r\n
$GPGGA,072315.50,5703.3858071,N,00952.1110081,E,2,11,0.8,-1.989,M,40.592,M,3.1,0123*65\r\n
$GPGGA,072315.55,5703.3857586,N,00952.1108908,E,2,11,0.8,-1.984,M,40.592,M,3.1,0123*6E\r\n
$GPGGA,072315.60,5703.3857087,N,00952.1107765,E,2,11,0.8,-1.981,M,40.592,M,3.1,0123*63\r\n
$GPGGA,072315.65,5703.3856568,N,00952.1106635,E,2,11,0.8,-1.981,M,40.592,M,1.4,0123*61\r\n
$GPGGA,072315.70,5703.3856035,N,00952.1105520,E,2,11,0.8,-1.981,M,40.592,M,1.4,0123*6C\r\n
$GPGGA,072315.75,5703.3855495,N,00952.1104410,E,2,11,0.8,-1.985,M,40.592,M,1.4,0123*63\r\n
$GPGGA,072315.80,5703.3854947,N,00952.1103332,E,2,11,0.8,-1.986,M,40.592,M,1.4,0123*69\r\n
$GPGGA,072315.85,5703.3854378,N,00952.1102269,E,2,11,0.8,-1.983,M,40.592,M,1.7,0123*62\r\n
$GPGGA,072315.90,5703.3853798,N,00952.1101221,E,2,11,0.8,-1.985,M,40.592,M,1.7,0123*62\r\n
$GPGGA,072315.95,5703.3853211,N,00952.1100171,E,2,11,0.8,-1.989,M,40.592,M,1.7,0123*68\r\n
$GPGGA,072316.00,5703.3852619,N,00952.1099149,E,2,11,0.8,-1.993,M,40.592,M,1.7,0123*6B\r\n
$GPGGA,072316.05,5703.3852010,N,00952.1098138,E,2,11,0.8,-1.996,M,40.592,M,2.0,0123*67\r\n
$GPGGA,072316.10,5703.3851406,N,00952.1097152,E,2,11,0.8,-1.999,M,40.592,M,2.0,0123*6F\r\n
$GPGGA,072316.15,5703.3850781,N,00952.1096192,E,2,11,0.8,-2.000,M,40.592,M,2.0,0123*60\r\n
$GPGGA,072316.20,5703.3850162,N,00952.1095245,E,2,11,0.8,-1.998,M,40.592,M,2.0,0123*6C\r\n
$GPGGA,072316.25,5703.3849538,N,00952.1094319,E,2,11,0.8,-2.002,M,40.592,M,2.2,0123*68\r\n
$GPGGA,072316.30,5703.3848905,N,00952.1093425,E,2,11,0.8,-2.000,M,40.592,M,2.2,0123*62\r\n
$GPGGA,072316.35,5703.3848268,N,00952.1092540,E,2,11,0.8,-1.997,M,40.592,M,2.2,0123*60\r\n
$GPGGA,072316.40,5703.3847620,N,00952.1091677,E,2,11,0.8,-1.992,M,40.592,M,2.2,0123*64\r\n
$GPGGA,072316.45,5703.3846974,N,00952.1090817,E,2,11,0.8,-1.986,M,40.592,M,2.5,0123*65\r\n
$GPGGA,072316.50,5703.3846320,N,00952.1089984,E,2,11,0.8,-1.983,M,40.592,M,2.5,0123*6C\r\n
$GPGGA,072316.55,5703.3845654,N,00952.1089186,E,2,11,0.8,-1.978,M,40.592,M,2.5,0123*62\r\n
$GPGGA,072316.60,5703.3844971,N,00952.1088415,E,2,11,0.8,-1.974,M,40.592,M,2.5,0123*6F\r\n
$GPGGA,072316.65,5703.3844297,N,00952.1087637,E,2,11,0.8,-1.971,M,40.592,M,1.3,0123*64\r\n
$GPGGA,072316.70,5703.3843614,N,00952.1086888,E,2,11,0.8,-1.971,M,40.592,M,1.3,0123*63\r\n
$GPGGA,072316.75,5703.3842930,N,00952.1086170,E,2,11,0.8,-1.969,M,40.592,M,1.3,0123*69\r\n
$GPGGA,072316.80,5703.3842227,N,00952.1085494,E,2,11,0.8,-1.970,M,40.592,M,1.3,0123*6A\r\n
$GPGGA,072316.85,5703.3841519,N,00952.1084853,E,2,11,0.8,-1.969,M,40.592,M,1.5,0123*6E\r\n
$GPGGA,072316.90,5703.3840818,N,00952.1084231,E,2,11,0.8,-1.970,M,40.592,M,1.5,0123*61\r\n
$GPGGA,072316.95,5703.3840114,N,00952.1083612,E,2,11,0.8,-1.967,M,40.592,M,1.5,0123*65\r\n
$GPGGA,072317.00,5703.3839388,N,00952.1083064,E,2,11,0.8,-1.968,M,40.592,M,1.5,0123*69\r\n
$GPGGA,072317.05,5703.3838665,N,00952.1082533,E,2,11,0.8,-1.971,M,40.592,M,1.8,0123*68\r\n
$GPGGA,072317.10,5703.3837939,N,00952.1082024,E,2,11,0.8,-1.975,M,40.592,M,1.8,0123*62\r\n
$GPGGA,072317.15,5703.3837228,N,00952.1081551,E,2,11,0.8,-1.975,M,40.592,M,1.8,0123*68\r\n
$GPGGA,072317.20,5703.3836514,N,00952.1081099,E,2,11,0.8,-1.976,M,40.592,M,1.8,0123*65\r\n
$GPGGA,072317.25,5703.3835793,N,00952.1080697,E,2,11,0.8,-1.978,M,40.592,M,2.1,0123*63\r\n
$GPGGA,072317.30,5703.3835070,N,00952.1080316,E,2,11,0.8,-1.978,M,40.592,M,2.1,0123*61\r\n
$GPGGA,072317.35,5703.3834346,N,00952.1079966,E,2,11,0.8,-1.981,M,40.592,M,2.1,0123*6E\r\n
$GPGGA,072317.40,5703.3833624,N,00952.1079655,E,2,11,0.8,-1.984,M,40.592,M,2.1,0123*60\r\n
$GPGGA,072317.45,5703.3832894,N,00952.1079388,E,2,11,0.8,-1.982,M,40.592,M,2.3,0123*60\r\n
$GPGGA,072317.50,5703.3832177,N,00952.1079156,E,2,11,0.8,-1.984,M,40.592,M,2.3,0123*67\r\n
$GPGGA,072317.55,5703.3831468,N,00952.1078942,E,2,11,0.8,-1.985,M,40.592,M,2.3,0123*67\r\n
$GPGGA,072317.60,5703.3830751,N,00952.1078766,E,2,11,0.8,-1.985,M,40.592,M,2.3,0123*61\r\n
$GPGGA,072317.65,5703.3830033,N,00952.1078646,E,2,11,0.8,-1.991,M,40.592,M,1.0,0123*61\r\n
$GPGGA,072317.70,5703.3829319,N,00952.1078540,E,2,11,0.8,-1.993,M,40.592,M,1.0,0123*61\r\n
$GPGGA,072317.75,5703.3828609,N,00952.1078468,E,2,11,0.8,-1.998,M,40.592,M,1.0,0123*61\r\n
$GPGGA,072317.80,5703.3827897,N,00952.1078430,E,2,11,0.8,-2.003,M,40.592,M,1.0,0123*68\r\n
$GPGGA,072317.85,5703.3827201,N,00952.1078403,E,2,11,0.8,-2.012,M,40.592,M,1.3,0123*6B\r\n
$GPGGA,072317.90,5703.3826523,N,00952.1078412,E,2,11,0.8,-2.016,M,40.592,M,1.3,0123*6D\r\n
$GPGGA,072317.95,5703.3825841,N,00952.1078465,E,2,11,0.8,-2.015,M,40.592,M,1.3,0123*61\r\n
$GPGGA,072318.00,5703.3825170,N,00952.1078548,E,2,11,0.8,-2.018,M,40.592,M,1.3,0123*6A\r\n
$GPGGA,072318.05,5703.3824490,N,00952.1078643,E,2,11,0.8,-2.012,M,40.592,M,1.5,0123*61\r\n
$GPGGA,072318.10,5703.3823814,N,00952.1078762,E,2,11,0.8,-2.013,M,40.592,M,1.5,0123*61\r\n
$GPGGA,072318.15,5703.3823148,N,00952.1078909,E,2,11,0.8,-2.017,M,40.592,M,1.5,0123*63\r\n
$GPGGA,072318.20,5703.3822493,N,00952.1079066,E,2,11,0.8,-2.017,M,40.592,M,1.5,0123*66\r\n
$GPGGA,072318.25,5703.3821833,N,00952.1079256,E,2,11,0.8,-2.023,M,40.592,M,1.8,0123*6D\r\n
$GPGGA,072318.30,5703.3821177,N,00952.1079456,E,2,11,0.8,-2.018,M,40.592,M,1.8,0123*6E\r\n
$GPGGA,072318.35,5703.3820523,N,00952.1079663,E,2,11,0.8,-2.017,M,40.592,M,1.8,0123*64\r\n
$GPGGA,072318.40,5703.3819870,N,00952.1079883,E,2,11,0.8,-2.017,M,40.592,M,1.8,0123*67\r\n
$GPGGA,072318.45,5703.3819222,N,00952.1080129,E,2,11,0.8,-2.011,M,40.592,M,2.0,0123*6D\r\n
$GPGGA,072318.50,5703.3818578,N,00952.1080387,E,2,11,0.8,-2.008,M,40.592,M,2.0,0123*6E\r\n
$GPGGA,072318.55,5703.3817931,N,00952.1080674,E,2,11,0.8,-2.007,M,40.592,M,2.0,0123*63\r\n
$GPGGA,072318.60,5703.3817297,N,00952.1080964,E,2,11,0.8,-2.004,M,40.592,M,2.0,0123*6F\r\n
$GPGGA,072318.65,5703.3816668,N,00952.1081268,E,2,11,0.8,-2.000,M,40.592,M,2.2,0123*6F\r\n
$GPGGA,072318.70,5703.3816041,N,00952.1081588,E,2,11,0.8,-1.996,M,40.592,M,2.2,0123*6A\r\n
$GPGGA,072318.75,5703.3815420,N,00952.1081937,E,2,11,0.8,-1.989,M,40.592,M,2.2,0123*69\r\n
$GPGGA,072318.80,5703.3814809,N,00952.1082303,E,2,11,0.8,-1.984,M,40.592,M,2.2,0123*66\r\n
$GPGGA,072318.85,5703.3814211,N,00952.1082684,E,2,11,0.8,-1.981,M,40.592,M,2.4,0123*69\r\n
$GPGGA,072318.90,5703.3813625,N,00952.1083100,E,2,11,0.8,-1.979,M,40.592,M,2.4,0123*64\r\n
$GPGGA,072318.95,5703.3813044,N,00952.1083515,E,2,11,0.8,-1.974,M,40.592,M,2.4,0123*6D\r\n
$GPGGA,072319.00,5703.3812456,N,00952.1083947,E,2,11,0.8,-1.970,M,40.592,M,2.4,0123*69\r\n
$GPGGA,072319.05,5703.3811878,N,00952.1084405,E,2,11,0.8,-1.974,M,40.592,M,2.7,0123*64\r\n
$GPGGA,072319.10,5703.3811308,N,00952.1084871,E,2,11,0.8,-1.972,M,40.592,M,2.7,0123*65\r\n
$GPGGA,072319.15,5703.3810745,N,00952.1085344,E,2,11,0.8,-1.968,M,40.592,M,2.7,0123*6B\r\n
$GPGGA,072319.20,5703.3810179,N,00952.1085848,E,2,11,0.8,-1.965,M,40.592,M,2.7,0123*6E\r\n
$GPGGA,072319.25,5703.3809639,N,00952.1086390,E,2,11,0.8,-1.965,M,40.592,M,2.9,0123*63\r\n
$GPGGA,072319.30,5703.3809119,N,00952.1086954,E,2,11,0.8,-1.965,M,40.592,M,2.9,0123*60\r\n
$GPGGA,072319.35,5703.3808606,N,00952.1087534,E,2,11,0.8,-1.970,M,40.592,M,2.9,0123*62\r\n
$GPGGA,072319.40,5703.3808096,N,00952.1088132,E,2,11,0.8,-1.974,M,40.592,M,2.9,0123*66\r\n
$GPGGA,072319.45,5703.3807587,N,00952.1088733,E,2,11,0.8,-1.978,M,40.592,M,3.1,0123*6B\r\n
$GPGGA,072319.50,5703.3807081,N,00952.1089344,E,2,11,0.8,-1.981,M,40.592,M,3.1,0123*6F\r\n
$GPGGA,072319.55,5703.3806594,N,00952.1089974,E,2,11,0.8,-1.984,M,40.592,M,3.1,0123*66\r\n
$GPGGA,072319.60,5703.3806118,N,00952.1090621,E,2,11,0.8,-1.990,M,40.592,M,3.1,0123*62\r\n
$GPGGA,072319.65,5703.3805650,N,00952.1091287,E,2,11,0.8,-1.994,M,40.592,M,1.4,0123*65\r\n
$GPGGA,072319.70,5703.3805189,N,00952.1091962,E,2,11,0.8,-1.997,M,40.592,M,1.4,0123*61\r\n
$GPGGA,072319.75,5703.3804754,N,00952.1092653,E,2,11,0.8,-1.997,M,40.592,M,1.4,0123*6D\r\n
$GPGGA,072319.80,5703.3804327,N,00952.1093336,E,2,11,0.8,-1.997,M,40.592,M,1.4,0123*60\r\n
$GPGGA,072319.85,5703.3803905,N,00952.1094024,E,2,11,0.8,-1.996,M,40.592,M,1.7,0123*6D\r\n
$GPGGA,072319.90,5703.3803490,N,00952.1094745,E,2,11,0.8,-1.997,M,40.592,M,1.7,0123*69\r\n
$GPGGA,072319.95,5703.3803085,N,00952.1095480,E,2,11,0.8,-1.998,M,40.592,M,1.7,0123*68\r\n
$GPGGA,072320.00,5703.3802698,N,00952.1096215,E,2,11,0.8,-1.995,M,40.592,M,1.7,0123*61\r\n
$GPGGA,072320.05,5703.3802312,N,00952.1096934,E,2,11,0.8,-1.996,M,40.592,M,2.0,0123*6C\r\n
$GPGGA,072320.10,5703.3801953,N,00952.1097692,E,2,11,0.8,-1.993,M,40.592,M,2.0,0123*63\r\n
$GPGGA,072320.15,5703.3801595,N,00952.1098491,E,2,11,0.8,-1.992,M,40.592,M,2.0,0123*6F\r\n
$GPGGA,072320.20,5703.3801254,N,00952.1099281,E,2,11,0.8,-1.995,M,40.592,M,2.0,0123*62\r\n
$GPGGA,072320.25,5703.3800932,N,00952.1100079,E,2,11,0.8,-1.995,M,40.592,M,2.2,0123*6B\r\n
$GPGGA,072320.30,5703.3800624,N,00952.1100884,E,2,11,0.8,-1.992,M,40.592,M,2.2,0123*6A\r\n
$GPGGA,072320.35,5703.3800322,N,00952.1101702,E,2,11,0.8,-1.990,M,40.592,M,2.2,0123*6E\r\n
$GPGGA,072320.40,5703.3800018,N,00952.1102542,E,2,11,0.8,-1.991,M,40.592,M,2.2,0123*62\r\n
$GPGGA,072320.45,5703.3799733,N,00952.1103391,E,2,11,0.8,-1.993,M,40.592,M,2.5,0123*6A\r\n
$GPGGA,072320.50,5703.3799478,N,00952.1104249,E,2,11,0.8,-1.996,M,40.592,M,2.5,0123*64\r\n
$GPGGA,072320.55,5703.3799245,N,00952.1105100,E,2,11,0.8,-1.998,M,40.592,M,2.5,0123*68\r\n
$GPGGA,072320.60,5703.3799006,N,00952.1105953,E,2,11,0.8,-1.999,M,40.592,M,2.5,0123*64\r\n
$GPGGA,072320.65,5703.3798769,N,00952.1106816,E,2,11,0.8,-2.003,M,40.592,M,1.3,0123*61\r\n
$GPGGA,072320.70,5703.3798545,N,00952.1107699,E,2,11,0.8,-2.001,M,40.592,M,1.3,0123*63\r\n
$GPGGA,072320.75,5703.3798344,N,00952.1108576,E,2,11,0.8,-2.001,M,40.592,M,1.3,0123*6C\r\n
$GPGGA,072320.80,5703.3798169,N,00952.1109444,E,2,11,0.8,-2.001,M,40.592,M,1.3,0123*6A\r\n
$GPGGA,072320.85,5703.3798001,N,00952.1110326,E,2,11,0.8,-1.998,M,40.592,M,1.5,0123*67\r\n
$GPGGA,072320.90,5703.3797849,N,00952.1111214,E,2,11,0.8,-1.996,M,40.592,M,1.5,0123*67\r\n
$GPGGA,072320.95,5703.3797707,N,00952.1112125,E,2,11,0.8,-1.994,M,40.592,M,1.5,0123*67\r\n
$GPGGA,072321.00,5703.3797558,N,00952.1113050,E,2,11,0.8,-1.994,M,40.592,M,1.5,0123*60\r\n
$GPGGA,072321.05,5703.3797428,N,00952.1113953,E,2,11,0.8,-1.989,M,40.592,M,1.8,0123*68\r\n
$GPGGA,072321.10,5703.3797297,N,00952.1114856,E,2,11,0.8,-1.990,M,40.592,M,1.8,0123*65\r\n
$GPGGA,072321.15,5703.3797197,N,00952.1115771,E,2,11,0.8,-1.989,M,40.592,M,1.8,0123*60\r\n
$GPGGA,072321.20,5703.3797116,N,00952.1116701,E,2,11,0.8,-1.987,M,40.592,M,1.8,0123*65\r\n
$GPGGA,072321.25,5703.3797017,N,00952.1117632,E,2,11,0.8,-1.988,M,40.592,M,2.1,0123*65\r\n
$GPGGA,072321.30,5703.3796946,N,00952.1118579,E,2,11,0.8,-1.990,M,40.592,M,2.1,0123*67\r\n
$GPGGA,072321.35,5703.3796881,N,00952.1119506,E,2,11,0.8,-1.990,M,40.592,M,2.1,0123*61\r\n
$GPGGA,072321.40,5703.3796824,N,00952.1120431,E,2,11,0.8,-1.990,M,40.592,M,2.1,0123*63\r\n
$GPGGA,072321.45,5703.3796783,N,00952.1121347,E,2,11,0.8,-1.988,M,40.592,M,2.3,0123*68\r\n
$GPGGA,072321.50,5703.3796751,N,00952.1122284,E,2,11,0.8,-1.985,M,40.592,M,2.3,0123*63\r\n
$GPGGA,072321.55,5703.3796716,N,00952.1123208,E,2,11,0.8,-1.987,M,40.592,M,2.3,0123*62\r\n
$GPGGA,072321.60,5703.3796693,N,00952.1124142,E,2,11,0.8,-1.987,M,40.592,M,2.3,0123*62\r\n
$GPGGA,072321.65,5703.3796700,N,00952.1125076,E,2,11,0.8,-1.984,M,40.592,M,1.0,0123*68\r\n
$GPGGA,072321.70,5703.3796723,N,00952.1126023,E,2,11,0.8,-1.983,M,40.592,M,1.0,0123*69\r\n
$GPGGA,072321.75,5703.3796753,N,00952.1126959,E,2,11,0.8,-1.981,M,40.592,M,1.0,0123*6D\r\n
$GPGGA,072321.80,5703.3796788,N,00952.1127888,E,2,11,0.8,-1.980,M,40.592,M,1.0,0123*6C\r\n
$GPGGA,072321.85,5703.3796840,N,00952.1128812,E,2,11,0.8,-1.978,M,40.592,M,1.3,0123*6A\r\n
$GPGGA,072321.90,5703.3796891,N,00952.1129729,E,2,11,0.8,-1.978,M,40.592,M,1.3,0123*64\r\n
$GPGGA,072321.95,5703.3796954,N,00952.1130650,E,2,11,0.8,-1.975,M,40.592,M,1.3,0123*63\r\n
$GPGGA,072322.00,5703.3797027,N,00952.1131560,E,2,11,0.8,-1.974,M,40.592,M,1.3,0123*60\r\n
$GPGGA,072322.05,5703.3797121,N,00952.1132481,E,2,11,0.8,-1.973,M,40.592,M,1.5,0123*6E\r\n
$GPGGA,072322.10,5703.3797232,N,00952.1133389,E,2,11,0.8,-1.970,M,40.592,M,1.5,0123*66\r\n
$GPGGA,072322.15,5703.3797337,N,00952.1134296,E,2,11,0.8,-1.972,M,40.592,M,1.5,0123*6D\r\n
$GPGGA,072322.20,5703.3797447,N,00952.1135189,E,2,11,0.8,-1.971,M,40.592,M,1.5,0123*64\r\n
$GPGGA,072322.25,5703.3797591,N,00952.1136091,E,2,11,0.8,-1.974,M,40.592,M,1.8,0123*68\r\n
$GPGGA,072322.30,5703.3797735,N,00952.1137003,E,2,11,0.8,-1.976,M,40.592,M,1.8,0123*68\r\n
$GPGGA,072322.35,5703.3797877,N,00952.1137911,E,2,11,0.8,-1.977,M,40.592,M,1.8,0123*6F\r\n
$GPGGA,072322.40,5703.3798029,N,00952.1138811,E,2,11,0.8,-1.979,M,40.592,M,1.8,0123*61\r\n
$GPGGA,072322.45,5703.3798189,N,00952.1139691,E,2,11,0.8,-1.979,M,40.592,M,2.0,0123*63\r\n
$GPGGA,072322.50,5703.3798355,N,00952.1140549,E,2,11,0.8,-1.977,M,40.592,M,2.0,0123*62\r\n
$GPGGA,072322.55,5703.3798545,N,00952.1141406,E,2,11,0.8,-1.973,M,40.592,M,2.0,0123*6F\r\n
$GPGGA,072322.60,5703.3798737,N,00952.1142264,E,2,11,0.8,-1.971,M,40.592,M,2.0,0123*6D\r\n
$GPGGA,072322.65,5703.3798947,N,00952.1143132,E,2,11,0.8,-1.966,M,40.592,M,2.2,0123*64\r\n
$GPGGA,072322.70,5703.3799165,N,00952.1143981,E,2,11,0.8,-1.967,M,40.592,M,2.2,0123*68\r\n
$GPGGA,072322.75,5703.3799392,N,00952.1144814,E,2,11,0.8,-1.965,M,40.592,M,2.2,0123*6F\r\n
$GPGGA,072322.80,5703.3799641,N,00952.1145650,E,2,11,0.8,-1.964,M,40.592,M,2.2,0123*60\r\n
$GPGGA,072322.85,5703.3799904,N,00952.1146492,E,2,11,0.8,-1.964,M,40.592,M,2.4,0123*62\r\n
$GPGGA,072322.90,5703.3800152,N,00952.1147316,E,2,11,0.8,-1.966,M,40.592,M,2.4,0123*6A\r\n
$GPGGA,072322.95,5703.3800426,N,00952.1148126,E,2,11,0.8,-1.967,M,40.592,M,2.4,0123*66\r\n
$GPGGA,072323.00,5703.3800716,N,00952.1148915,E,2,11,0.8,-1.965,M,40.592,M,2.4,0123*61\r\n
$GPGGA,072323.05,5703.3801017,N,00952.1149677,E,2,11,0.8,-1.964,M,40.592,M,2.7,0123*6B\r\n
$GPGGA,072323.10,5703.3801318,N,00952.1150429,E,2,11,0.8,-1.960,M,40.592,M,2.7,0123*66\r\n
$GPGGA,072323.15,5703.3801625,N,00952.1151191,E,2,11,0.8,-1.956,M,40.592,M,2.7,0123*6A\r\n
$GPGGA,072323.20,5703.3801945,N,00952.1151937,E,2,11,0.8,-1.955,M,40.592,M,2.7,0123*62\r\n
$GPGGA,072323.25,5703.3802268,N,00952.1152686,E,2,11,0.8,-1.957,M,40.592,M,2.9,0123*6A\r\n
$GPGGA,072323.30,5703.3802604,N,00952.1153432,E,2,11,0.8,-1.959,M,40.592,M,2.9,0123*62\r\n
$GPGGA,072323.35,5703.3802954,N,00952.1154146,E,2,11,0.8,-1.962,M,40.592,M,2.9,0123*64\r\n
$GPGGA,072323.40,5703.3803319,N,00952.1154848,E,2,11,0.8,-1.961,M,40.592,M,2.9,0123*60\r\n
$GPGGA,072323.45,5703.3803695,N,00952.1155529,E,2,11,0.8,-1.961,M,40.592,M,3.1,0123*66\r\n
$GPGGA,072323.50,5703.3804058,N,00952.1156224,E,2,11,0.8,-1.960,M,40.592,M,3.1,0123*6A\r\n
$GPGGA,072323.55,5703.3804428,N,00952.1156916,E,2,11,0.8,-1.960,M,40.592,M,3.1,0123*66\r\n
$GPGGA,072323.60,5703.3804809,N,00952.1157583,E,2,11,0.8,-1.959,M,40.592,M,3.1,0123*64\r\n
$GPGGA,072323.65,5703.3805198,N,00952.1158244,E,2,11,0.8,-1.957,M,40.592,M,1.4,0123*6B\r\n
$GPGGA,072323.70,5703.3805599,N,00952.1158900,E,2,11,0.8,-1.954,M,40.592,M,1.4,0123*62\r\n
$GPGGA,072323.75,5703.3805998,N,00952.1159524,E,2,11,0.8,-1.954,M,40.592,M,1.4,0123*61\r\n
$GPGGA,072323.80,5703.3806409,N,00952.1160123,E,2,11,0.8,-1.951,M,40.592,M,1.4,0123*61\r\n
$GPGGA,072323.85,5703.3806841,N,00952.1160724,E,2,11,0.8,-1.948,M,40.592,M,1.7,0123*6E\r\n
$GPGGA,072323.90,5703.3807277,N,00952.1161322,E,2,11,0.8,-1.949,M,40.592,M,1.7,0123*66\r\n
$GPGGA,072323.95,5703.3807710,N,00952.1161911,E,2,11,0.8,-1.950,M,40.592,M,1.7,0123*65\r\n
$GPGGA,072324.00,5703.3808153,N,00952.1162478,E,2,11,0.8,-1.950,M,40.592,M,1.7,0123*61\r\n
$GPGGA,072324.05,5703.3808602,N,00952.1163035,E,2,11,0.8,-1.948,M,40.592,M,2.0,0123*66\r\n
$GPGGA,072324.10,5703.3809043,N,00952.1163585,E,2,11,0.8,-1.949,M,40.592,M,2.0,0123*6F\r\n
$GPGGA,072324.15,5703.3809494,N,00952.1164114,E,2,11,0.8,-1.944,M,40.592,M,2.0,0123*62\r\n
$GPGGA,072324.20,5703.3809947,N,00952.1164622,E,2,11,0.8,-1.944,M,40.592,M,2.0,0123*65\r\n
$GPGGA,072324.25,5703.3810414,N,00952.1165115,E,2,11,0.8,-1.940,M,40.592,M,2.2,0123*67\r\n
$GPGGA,072324.30,5703.3810893,N,00952.1165603,E,2,11,0.8,-1.938,M,40.592,M,2.2,0123*6F\r\n
$GPGGA,072324.35,5703.3811376,N,00952.1166105,E,2,11,0.8,-1.940,M,40.592,M,2.2,0123*66\r\n
$GPGGA,072324.40,5703.3811868,N,00952.1166600,E,2,11,0.8,-1.943,M,40.592,M,2.2,0123*61\r\n
$GPGGA,072324.45,5703.3812377,N,00952.1167064,E,2,11,0.8,-1.943,M,40.592,M,2.5,0123*60\r\n
$GPGGA,072324.50,5703.3812884,N,00952.1167492,E,2,11,0.8,-1.946,M,40.592,M,2.5,0123*6B\r\n
$GPGGA,072324.55,5703.3813384,N,00952.1167917,E,2,11,0.8,-1.947,M,40.592,M,2.5,0123*65\r\n
$GPGGA,072324.60,5703.3813884,N,00952.1168316,E,2,11,0.8,-1.941,M,40.592,M,2.5,0123*6A\r\n
$GPGGA,072324.65,5703.3814379,N,00952.1168713,E,2,11,0.8,-1.938,M,40.592,M,1.3,0123*6B\r\n
$GPGGA,072324.70,5703.3814892,N,00952.1169090,E,2,11,0.8,-1.938,M,40.592,M,1.3,0123*6C\r\n
$GPGGA,072324.75,5703.3815405,N,00952.1169428,E,2,11,0.8,-1.937,M,40.592,M,1.3,0123*62\r\n
$GPGGA,072324.80,5703.3815929,N,00952.1169791,E,2,11,0.8,-1.932,M,40.592,M,1.3,0123*6F\r\n
$GPGGA,072324.85,5703.3816457,N,00952.1170161,E,2,11,0.8,-1.930,M,40.592,M,1.5,0123*68\r\n
$GPGGA,072324.90,5703.3816986,N,00952.1170526,E,2,11,0.8,-1.931,M,40.592,M,1.5,0123*6B\r\n
$GPGGA,072324.95,5703.3817531,N,00952.1170876,E,2,11,0.8,-1.938,M,40.592,M,1.5,0123*6E\r\n
$GPGGA,072325.00,5703.3818091,N,00952.1171212,E,2,11,0.8,-1.943,M,40.592,M,1.5,0123*66\r\n
$GPGGA,072325.05,5703.3818649,N,00952.1171519,E,2,11,0.8,-1.946,M,40.592,M,1.8,0123*64\r\n
$GPGGA,072325.10,5703.3819218,N,00952.1171806,E,2,11,0.8,-1.952,M,40.592,M,1.8,0123*67\r\n
$GPGGA,072325.15,5703.3819795,N,00952.1172114,E,2,11,0.8,-1.957,M,40.592,M,1.8,0123*6E\r\n
$GPGGA,072325.20,5703.3820370,N,00952.1172387,E,2,11,0.8,-1.959,M,40.592,M,1.8,0123*6B\r\n
$GPGGA,072325.25,5703.3820916,N,00952.1172586,E,2,11,0.8,-1.958,M,40.592,M,2.1,0123*68\r\n
$GPGGA,072325.30,5703.3821452,N,00952.1172773,E,2,11,0.8,-1.951,M,40.592,M,2.1,0123*61\r\n
$GPGGA,072325.35,5703.3822007,N,00952.1172966,E,2,11,0.8,-1.940,M,40.592,M,2.1,0123*69\r\n
$GPGGA,072325.40,5703.3822583,N,00952.1173185,E,2,11,0.8,-1.935,M,40.592,M,2.1,0123*64\r\n
$GPGGA,072325.45,5703.3823161,N,00952.1173356,E,2,11,0.8,-1.937,M,40.592,M,2.3,0123*64\r\n
$GPGGA,072325.50,5703.3823748,N,00952.1173519,E,2,11,0.8,-1.937,M,40.592,M,2.3,0123*60\r\n
$GPGGA,072325.55,5703.3824354,N,00952.1173664,E,2,11,0.8,-1.939,M,40.592,M,2.3,0123*6C\r\n
$GPGGA,072325.60,5703.3824959,N,00952.1173800,E,2,11,0.8,-1.941,M,40.592,M,2.3,0123*6E\r\n
$GPGGA,072325.65,5703.3825564,N,00952.1173927,E,2,11,0.8,-1.943,M,40.592,M,1.0,0123*6E\r\n
$GPGGA,072325.70,5703.3826168,N,00952.1174053,E,2,11,0.8,-1.949,M,40.592,M,1.0,0123*66\r\n
$GPGGA,072325.75,5703.3826779,N,00952.1174152,E,2,11,0.8,-1.952,M,40.592,M,1.0,0123*6F\r\n
$GPGGA,072325.80,5703.3827403,N,00952.1174228,E,2,11,0.8,-1.954,M,40.592,M,1.0,0123*62\r\n
$GPGGA,072325.85,5703.3828016,N,00952.1174281,E,2,11,0.8,-1.958,M,40.592,M,1.3,0123*64\r\n
$GPGGA,072325.90,5703.3828623,N,00952.1174307,E,2,11,0.8,-1.960,M,40.592,M,1.3,0123*64\r\n
$GPGGA,072325.95,5703.3829234,N,00952.1174301,E,2,11,0.8,-1.956,M,40.592,M,1.3,0123*61\r\n
$GPGGA,072326.00,5703.3829832,N,00952.1174285,E,2,11,0.8,-1.949,M,40.592,M,1.3,0123*61\r\n
$GPGGA,072326.05,5703.3830440,N,00952.1174265,E,2,11,0.8,-1.931,M,40.592,M,1.5,0123*62\r\n
$GPGGA,072326.10,5703.3831045,N,00952.1174246,E,2,11,0.8,-1.926,M,40.592,M,1.5,0123*61\r\n
$GPGGA,072326.15,5703.3831652,N,00952.1174203,E,2,11,0.8,-1.919,M,40.592,M,1.5,0123*69\r\n
$GPGGA,072326.20,5703.3832272,N,00952.1174143,E,2,11,0.8,-1.913,M,40.592,M,1.5,0123*67\r\n
$GPGGA,072326.25,5703.3832906,N,00952.1174096,E,2,11,0.8,-1.914,M,40.592,M,1.8,0123*69\r\n
$GPGGA,072326.30,5703.3833548,N,00952.1174052,E,2,11,0.8,-1.912,M,40.592,M,1.8,0123*64\r\n
$GPGGA,072326.35,5703.3834189,N,00952.1174010,E,2,11,0.8,-1.916,M,40.592,M,1.8,0123*6D\r\n
$GPGGA,072326.40,5703.3834841,N,00952.1173942,E,2,11,0.8,-1.926,M,40.592,M,1.8,0123*68\r\n
$GPGGA,072326.45,5703.3835501,N,00952.1173860,E,2,11,0.8,-1.938,M,40.592,M,2.0,0123*60\r\n
$GPGGA,072326.50,5703.3836153,N,00952.1173734,E,2,11,0.8,-1.942,M,40.592,M,2.0,0123*67\r\n
$GPGGA,072326.55,5703.3836797,N,00952.1173568,E,2,11,0.8,-1.942,M,40.592,M,2.0,0123*67\r\n
$GPGGA,072326.60,5703.3837424,N,00952.1173383,E,2,11,0.8,-1.939,M,40.592,M,2.0,0123*64\r\n
$GPGGA,072326.65,5703.3838041,N,00952.1173188,E,2,11,0.8,-1.933,M,40.592,M,2.2,0123*68\r\n
$GPGGA,072326.70,5703.3838653,N,00952.1173003,E,2,11,0.8,-1.927,M,40.592,M,2.2,0123*6E\r\n
$GPGGA,072326.75,5703.3839277,N,00952.1172765,E,2,11,0.8,-1.922,M,40.592,M,2.2,0123*6B\r\n
$GPGGA,072326.80,5703.3839906,N,00952.1172504,E,2,11,0.8,-1.917,M,40.592,M,2.2,0123*6F\r\n
$GPGGA,072326.85,5703.3840536,N,00952.1172245,E,2,11,0.8,-1.915,M,40.592,M,2.4,0123*6D\r\n
$GPGGA,072326.90,5703.3841165,N,00952.1171977,E,2,11,0.8,-1.912,M,40.592,M,2.4,0123*64\r\n
$GPGGA,072326.95,5703.3841815,N,00952.1171702,E,2,11,0.8,-1.913,M,40.592,M,2.4,0123*62\r\n
$GPGGA,072327.00,5703.3842476,N,00952.1171424,E,2,11,0.8,-1.917,M,40.592,M,2.4,0123*66\r\n
$GPGGA,072327.05,5703.3843138,N,00952.1171126,E,2,11,0.8,-1.921,M,40.592,M,2.7,0123*6C\r\n
$GPGGA,072327.10,5703.3843796,N,00952.1170806,E,2,11,0.8,-1.925,M,40.592,M,2.7,0123*64\r\n
$GPGGA,072327.15,5703.3844440,N,00952.1170462,E,2,11,0.8,-1.929,M,40.592,M,2.7,0123*6C\r\n
$GPGGA,072327.20,5703.3845084,N,00952.1170110,E,2,11,0.8,-1.926,M,40.592,M,2.7,0123*68\r\n
$GPGGA,072327.25,5703.3845721,N,00952.1169737,E,2,11,0.8,-1.932,M,40.592,M,2.9,0123*65\r\n
$GPGGA,072327.30,5703.3846358,N,00952.1169320,E,2,11,0.8,-1.934,M,40.592,M,2.9,0123*6C\r\n
$GPGGA,072327.35,5703.3846986,N,00952.1168860,E,2,11,0.8,-1.932,M,40.592,M,2.9,0123*68\r\n
$GPGGA,072327.40,5703.3847593,N,00952.1168373,E,2,11,0.8,-1.926,M,40.592,M,2.9,0123*6F\r\n
$GPGGA,072327.45,5703.3848211,N,00952.1167895,E,2,11,0.8,-1.921,M,40.592,M,3.1,0123*6A\r\n
$GPGGA,072327.50,5703.3848835,N,00952.1167383,E,2,11,0.8,-1.919,M,40.592,M,3.1,0123*65\r\n
$GPGGA,072327.55,5703.3849441,N,00952.1166855,E,2,11,0.8,-1.918,M,40.592,M,3.1,0123*6E\r\n
$GPGGA,072327.60,5703.3850053,N,00952.1166312,E,2,11,0.8,-1.915,M,40.592,M,3.1,0123*62\r\n
$GPGGA,072327.65,5703.3850678,N,00952.1165772,E,2,11,0.8,-1.916,M,40.592,M,1.4,0123*6D\r\n
$GPGGA,072327.70,5703.3851314,N,00952.1165230,E,2,11,0.8,-1.917,M,40.592,M,1.4,0123*65\r\n
$GPGGA,072327.75,5703.3851937,N,00952.1164662,E,2,11,0.8,-1.920,M,40.592,M,1.4,0123*6D\r\n
$GPGGA,072327.80,5703.3852561,N,00952.1164061,E,2,11,0.8,-1.928,M,40.592,M,1.4,0123*66\r\n
$GPGGA,072327.85,5703.3853178,N,00952.1163452,E,2,11,0.8,-1.932,M,40.592,M,1.7,0123*65\r\n
$GPGGA,072327.90,5703.3853788,N,00952.1162817,E,2,11,0.8,-1.935,M,40.592,M,1.7,0123*63\r\n
$GPGGA,072327.95,5703.3854390,N,00952.1162175,E,2,11,0.8,-1.934,M,40.592,M,1.7,0123*60\r\n
$GPGGA,072328.00,5703.3854987,N,00952.1161515,E,2,11,0.8,-1.933,M,40.592,M,1.7,0123*69\r\n
$GPGGA,072328.05,5703.3855582,N,00952.1160800,E,2,11,0.8,-1.927,M,40.592,M,2.0,0123*6D\r\n
$GPGGA,072328.10,5703.3856161,N,00952.1160065,E,2,11,0.8,-1.928,M,40.592,M,2.0,0123*67\r\n
$GPGGA,072328.15,5703.3856735,N,00952.1159296,E,2,11,0.8,-1.928,M,40.592,M,2.0,0123*61\r\n
$GPGGA,072328.20,5703.3857315,N,00952.1158517,E,2,11,0.8,-1.926,M,40.592,M,2.0,0123*61\r\n
$GPGGA,072328.25,5703.3857878,N,00952.1157720,E,2,11,0.8,-1.932,M,40.592,M,2.2,0123*6A\r\n
$GPGGA,072328.30,5703.3858439,N,00952.1156890,E,2,11,0.8,-1.934,M,40.592,M,2.2,0123*6B\r\n
$GPGGA,072328.35,5703.3858994,N,00952.1156055,E,2,11,0.8,-1.933,M,40.592,M,2.2,0123*62\r\n
$GPGGA,072328.40,5703.3859535,N,00952.1155197,E,2,11,0.8,-1.934,M,40.592,M,2.2,0123*6D\r\n
$GPGGA,072328.45,5703.3860088,N,00952.1154330,E,2,11,0.8,-1.932,M,40.592,M,2.5,0123*6E\r\n
$GPGGA,072328.50,5703.3860634,N,00952.1153449,E,2,11,0.8,-1.930,M,40.592,M,2.5,0123*67\r\n
$GPGGA,072328.55,5703.3861151,N,00952.1152513,E,2,11,0.8,-1.930,M,40.592,M,2.5,0123*68\r\n
$GPGGA,072328.60,5703.3861670,N,00952.1151562,E,2,11,0.8,-1.930,M,40.592,M,2.5,0123*6F\r\n
$GPGGA,072328.65,5703.3862205,N,00952.1150611,E,2,11,0.8,-1.931,M,40.592,M,1.3,0123*6D\r\n
$GPGGA,072328.70,5703.3862730,N,00952.1149647,E,2,11,0.8,-1.930,M,40.592,M,1.3,0123*60\r\n
$GPGGA,072328.75,5703.3863244,N,00952.1148663,E,2,11,0.8,-1.932,M,40.592,M,1.3,0123*67\r\n
$GPGGA,072328.80,5703.3863751,N,00952.1147657,E,2,11,0.8,-1.932,M,40.592,M,1.3,0123*64\r\n
$GPGGA,072328.85,5703.3864239,N,00952.1146618,E,2,11,0.8,-1.930,M,40.592,M,1.5,0123*63\r\n
$GPGGA,072328.90,5703.3864716,N,00952.1145546,E,2,11,0.8,-1.930,M,40.592,M,1.5,0123*64\r\n
$GPGGA,072328.95,5703.3865183,N,00952.1144469,E,2,11,0.8,-1.929,M,40.592,M,1.5,0123*6F\r\n
$GPGGA,072329.00,5703.3865634,N,00952.1143375,E,2,11,0.8,-1.930,M,40.592,M,1.5,0123*6C\r\n
$GPGGA,072329.05,5703.3866072,N,00952.1142267,E,2,11,0.8,-1.929,M,40.592,M,1.8,0123*68\r\n
$GPGGA,072329.10,5703.3866519,N,00952.1141137,E,2,11,0.8,-1.928,M,40.592,M,1.8,0123*60\r\n
$GPGGA,072329.15,5703.3866934,N,00952.1139975,E,2,11,0.8,-1.926,M,40.592,M,1.8,0123*69\r\n
$GPGGA,072329.20,5703.3867335,N,00952.1138796,E,2,11,0.8,-1.924,M,40.592,M,1.8,0123*65\r\n
$GPGGA,072329.25,5703.3867744,N,00952.1137615,E,2,11,0.8,-1.923,M,40.592,M,2.1,0123*6A\r\n
$GPGGA,072329.30,5703.3868143,N,00952.1136416,E,2,11,0.8,-1.923,M,40.592,M,2.1,0123*60\r\n
$GPGGA,072329.35,5703.3868539,N,00952.1135198,E,2,11,0.8,-1.925,M,40.592,M,2.1,0123*6A\r\n
$GPGGA,072329.40,5703.3868909,N,00952.1133976,E,2,11,0.8,-1.925,M,40.592,M,2.1,0123*69\r\n
$GPGGA,072329.45,5703.3869285,N,00952.1132740,E,2,11,0.8,-1.924,M,40.592,M,2.3,0123*6B\r\n
$GPGGA,072329.50,5703.3869648,N,00952.1131489,E,2,11,0.8,-1.924,M,40.592,M,2.3,0123*6F\r\n
$GPGGA,072329.55,5703.3869977,N,00952.1130215,E,2,11,0.8,-1.925,M,40.592,M,2.3,0123*6A\r\n
$GPGGA,072329.60,5703.3870293,N,00952.1128910,E,2,11,0.8,-1.927,M,40.592,M,2.3,0123*60\r\n
$GPGGA,072329.65,5703.3870610,N,00952.1127601,E,2,11,0.8,-1.929,M,40.592,M,1.0,0123*64\r\n
$GPGGA,072329.70,5703.3870902,N,00952.1126281,E,2,11,0.8,-1.928,M,40.592,M,1.0,0123*60\r\n
$GPGGA,072329.75,5703.3871186,N,00952.1124949,E,2,11,0.8,-1.930,M,40.592,M,1.0,0123*64\r\n
$GPGGA,072329.80,5703.3871452,N,00952.1123614,E,2,11,0.8,-1.932,M,40.592,M,1.0,0123*60\r\n
$GPGGA,072329.85,5703.3871713,N,00952.1122257,E,2,11,0.8,-1.929,M,40.592,M,1.3,0123*68\r\n
$GPGGA,072329.90,5703.3871934,N,00952.1120892,E,2,11,0.8,-1.930,M,40.592,M,1.3,0123*6E\r\n
$GPGGA,072329.95,5703.3872142,N,00952.1119505,E,2,11,0.8,-1.932,M,40.592,M,1.3,0123*6A\r\n
$GPGGA,072330.00,5703.3872357,N,00952.1118129,E,2,11,0.8,-1.931,M,40.592,M,1.3,0123*60\r\n
$GPGGA,072330.05,5703.3872545,N,00952.1116739,E,2,11,0.8,-1.933,M,40.592,M,1.5,0123*6D\r\n
$GPGGA,072330.10,5703.3872719,N,00952.1115341,E,2,11,0.8,-1.932,M,40.592,M,1.5,0123*6B\r\n
$GPGGA,072330.15,5703.3872887,N,00952.1113924,E,2,11,0.8,-1.931,M,40.592,M,1.5,0123*6A\r\n
$GPGGA,072330.20,5703.3873048,N,00952.1112508,E,2,11,0.8,-1.932,M,40.592,M,1.5,0123*66\r\n
$GPGGA,072330.25,5703.3873189,N,00952.1111080,E,2,11,0.8,-1.933,M,40.592,M,1.8,0123*65\r\n
$GPGGA,072330.30,5703.3873321,N,00952.1109646,E,2,11,0.8,-1.937,M,40.592,M,1.8,0123*60\r\n
$GPGGA,072330.35,5703.3873428,N,00952.1108211,E,2,11,0.8,-1.940,M,40.592,M,1.8,0123*6C\r\n
