$GPGGA,120255.75,5700.9263321,N,00959.1684157,E,2,5,1.2,7.839,M,40.583,M,2.8,0136*74\r\n
$GPGGA,120255.80,5700.9263321,N,00959.1684162,E,2,5,1.2,7.839,M,40.583,M,2.8,0136*78\r\n
$GPGGA,120255.85,5700.9263233,N,00959.1684150,E,2,5,1.2,7.840,M,40.583,M,3.0,0136*79\r\n
$GPGGA,120255.90,5700.9263231,N,00959.1684156,E,2,5,1.2,7.840,M,40.583,M,3.0,0136*79\r\n
$GPGGA,120255.95,5700.9263228,N,00959.1684158,E,2,5,1.2,7.841,M,40.583,M,3.0,0136*7B\r\n
$GPGGA,120256.00,5700.9263226,N,00959.1684167,E,2,5,1.2,7.841,M,40.583,M,3.0,0136*76\r\n
$GPGGA,120256.05,5700.9263083,N,00959.1684192,E,2,5,1.2,7.789,M,40.583,M,1.9,0136*74\r\n
$GPGGA,120256.10,5700.9263079,N,00959.1684198,E,2,5,1.2,7.789,M,40.583,M,1.9,0136*7F\r\n
$GPGGA,120256.15,5700.9263075,N,00959.1684204,E,2,5,1.2,7.789,M,40.583,M,1.9,0136*70\r\n
$GPGGA,120256.20,5700.9263071,N,00959.1684208,E,2,5,1.2,7.790,M,40.583,M,1.9,0136*76\r\n
$GPGGA,120256.25,5700.9263140,N,00959.1684186,E,2,5,1.2,7.787,M,40.583,M,2.1,0136*78\r\n
$GPGGA,120256.30,5700.9263138,N,00959.1684188,E,2,5,1.2,7.788,M,40.583,M,2.1,0136*72\r\n
$GPGGA,120256.35,5700.9263136,N,00959.1684189,E,2,5,1.2,7.788,M,40.583,M,2.1,0136*78\r\n
$GPGGA,120256.40,5700.9263134,N,00959.1684191,E,2,5,1.2,7.788,M,40.583,M,2.1,0136*71\r\n
$GPGGA,120256.45,5700.9263095,N,00959.1684185,E,2,5,1.2,7.787,M,40.583,M,2.4,0136*71\r\n
$GPGGA,120256.50,5700.9263093,N,00959.1684183,E,2,5,1.2,7.787,M,40.583,M,2.4,0136*75\r\n
$GPGGA,120256.55,5700.9263091,N,00959.1684182,E,2,5,1.2,7.787,M,40.583,M,2.4,0136*73\r\n
$GPGGA,120256.60,5700.9263089,N,00959.1684185,E,2,5,1.2,7.788,M,40.583,M,2.4,0136*74\r\n
$GPGGA,120256.65,5700.9263173,N,00959.1684217,E,2,5,1.2,7.784,M,40.583,M,2.6,0136*73\r\n
$GPGGA,120256.70,5700.9263174,N,00959.1684218,E,2,5,1.2,7.785,M,40.583,M,2.6,0136*7E\r\n
$GPGGA,120256.75,5700.9263175,N,00959.1684217,E,2,5,1.2,7.785,M,40.583,M,2.6,0136*75\r\n
$GPGGA,120256.80,5700.9263176,N,00959.1684219,E,2,5,1.2,7.785,M,40.583,M,2.6,0136*72\r\n
$GPGGA,120256.85,5700.9263175,N,00959.1684134,E,2,5,1.2,7.784,M,40.583,M,2.9,0136*76\r\n
$GPGGA,120256.90,5700.9263177,N,00959.1684129,E,2,5,1.2,7.784,M,40.583,M,2.9,0136*7C\r\n
$GPGGA,120256.95,5700.9263180,N,00959.1684122,E,2,5,1.2,7.784,M,40.583,M,2.9,0136*7A\r\n
$GPGGA,120257.00,5700.9263184,N,00959.1684112,E,2,5,1.2,7.784,M,40.583,M,2.9,0136*70\r\n
$GPGGA,120257.05,5700.9263014,N,00959.1684188,E,2,5,1.2,7.726,M,40.583,M,1.5,0136*79\r\n
$GPGGA,120257.10,5700.9263017,N,00959.1684183,E,2,5,1.2,7.726,M,40.583,M,1.5,0136*75\r\n
$GPGGA,120257.15,5700.9263020,N,00959.1684179,E,2,5,1.2,7.725,M,40.583,M,1.5,0136*72\r\n
$GPGGA,120257.20,5700.9263023,N,00959.1684174,E,2,5,1.2,7.724,M,40.583,M,1.5,0136*7B\r\n
$GPGGA,120257.25,5700.9263009,N,00959.1684145,E,2,5,1.2,7.722,M,40.583,M,1.7,0136*70\r\n
$GPGGA,120257.30,5700.9263011,N,00959.1684140,E,2,5,1.2,7.721,M,40.583,M,1.7,0136*7B\r\n
$GPGGA,120257.35,5700.9263014,N,00959.1684133,E,2,5,1.2,7.720,M,40.583,M,1.7,0136*7E\r\n
$GPGGA,120257.40,5700.9263017,N,00959.1684128,E,2,5,1.2,7.719,M,40.583,M,1.7,0136*7F\r\n
$GPGGA,120257.45,5700.9263037,N,00959.1684217,E,2,5,1.2,7.721,M,40.583,M,2.0,0136*78\r\n
$GPGGA,120257.50,5700.9263040,N,00959.1684221,E,2,5,1.2,7.720,M,40.583,M,2.0,0136*78\r\n
$GPGGA,120257.55,5700.9263044,N,00959.1684223,E,2,5,1.2,7.719,M,40.583,M,2.0,0136*71\r\n
$GPGGA,120257.60,5700.9263047,N,00959.1684232,E,2,5,1.2,7.718,M,40.583,M,2.0,0136*75\r\n
$GPGGA,120257.70,5700.9263063,N,00959.1684222,E,2,5,1.2,7.721,M,40.583,M,2.2,0136*7B\r\n
$GPGGA,120301.60,5700.9262508,N,00959.1684569,E,2,5,1.3,7.487,M,40.583,M,2.1,0136*74\r\n
$GPGGA,120301.65,5700.9262460,N,00959.1684545,E,2,5,1.3,7.477,M,40.583,M,2.3,0136*7D\r\n
$GPGGA,120301.70,5700.9262458,N,00959.1684544,E,2,5,1.3,7.478,M,40.583,M,2.3,0136*7C\r\n
$GPGGA,120301.75,5700.9262457,N,00959.1684540,E,2,5,1.3,7.479,M,40.583,M,2.3,0136*73\r\n
$GPGGA,120301.80,5700.9262456,N,00959.1684535,E,2,5,1.3,7.480,M,40.583,M,2.3,0136*7C\r\n
$GPGGA,120301.85,5700.9262442,N,00959.1684616,E,2,5,1.3,7.470,M,40.583,M,2.6,0136*74\r\n
$GPGGA,120301.90,5700.9262442,N,00959.1684611,E,2,5,1.3,7.471,M,40.583,M,2.6,0136*76\r\n
$GPGGA,120301.95,5700.9262441,N,00959.1684611,E,2,5,1.3,7.473,M,40.583,M,2.6,0136*72\r\n
$GPGGA,120302.00,5700.9262440,N,00959.1684610,E,2,5,1.3,7.474,M,40.583,M,2.6,0136*7A\r\n
$GPGGA,120302.05,5700.9262448,N,00959.1684705,E,2,5,1.3,7.469,M,40.583,M,2.8,0136*70\r\n
$GPGGA,120302.10,5700.9262447,N,00959.1684702,E,2,5,1.3,7.470,M,40.583,M,2.8,0136*74\r\n
$GPGGA,120302.15,5700.9262446,N,00959.1684701,E,2,5,1.3,7.472,M,40.583,M,2.8,0136*71\r\n
$GPGGA,120302.20,5700.9262445,N,00959.1684701,E,2,5,1.3,7.473,M,40.583,M,2.8,0136*75\r\n
$GPGGA,120302.25,5700.9262373,N,00959.1684749,E,2,5,1.3,7.470,M,40.583,M,3.0,0136*74\r\n
$GPGGA,120302.30,5700.9262372,N,00959.1684748,E,2,5,1.3,7.471,M,40.583,M,3.0,0136*71\r\n
$GPGGA,120302.35,5700.9262371,N,00959.1684751,E,2,5,1.3,7.472,M,40.583,M,3.0,0136*7C\r\n
$GPGGA,120302.40,5700.9262370,N,00959.1684750,E,2,5,1.3,7.473,M,40.583,M,3.0,0136*7F\r\n
$GPGGA,120302.45,5700.9262350,N,00959.1684771,E,2,5,1.3,7.470,M,40.583,M,3.2,0136*7A\r\n
$GPGGA,120302.50,5700.9262350,N,00959.1684771,E,2,5,1.3,7.471,M,40.583,M,3.2,0136*7F\r\n
$GPGGA,120302.55,5700.9262349,N,00959.1684770,E,2,5,1.3,7.472,M,40.583,M,3.2,0136*70\r\n
$GPGGA,120302.60,5700.9262348,N,00959.1684774,E,2,5,1.3,7.473,M,40.583,M,3.2,0136*72\r\n
$GPGGA,120302.65,5700.9262333,N,00959.1684803,E,2,5,1.3,7.472,M,40.583,M,3.4,0136*73\r\n
$GPGGA,120302.70,5700.9262333,N,00959.1684799,E,2,5,1.3,7.473,M,40.583,M,3.4,0136*7A\r\n
$GPGGA,120302.75,5700.9262332,N,00959.1684798,E,2,5,1.3,7.474,M,40.583,M,3.4,0136*78\r\n
$GPGGA,120302.80,5700.9262332,N,00959.1684800,E,2,5,1.3,7.475,M,40.583,M,3.4,0136*7D\r\n
$GPGGA,120302.85,5700.9262280,N,00959.1684830,E,2,5,1.3,7.480,M,40.583,M,3.6,0136*7B\r\n
$GPGGA,120302.90,5700.9262279,N,00959.1684832,E,2,5,1.3,7.481,M,40.583,M,3.6,0136*7A\r\n
$GPGGA,120302.95,5700.9262279,N,00959.1684826,E,2,5,1.3,7.482,M,40.583,M,3.6,0136*79\r\n
$GPGGA,120303.00,5700.9262279,N,00959.1684829,E,2,5,1.3,7.483,M,40.583,M,3.6,0136*7A\r\n
$GPGGA,120303.05,5700.9262217,N,00959.1684913,E,2,5,1.3,7.484,M,40.583,M,1.9,0136*75\r\n
$GPGGA,120303.10,5700.9262216,N,00959.1684910,E,2,5,1.3,7.485,M,40.583,M,1.9,0136*72\r\n
$GPGGA,120303.15,5700.9262216,N,00959.1684911,E,2,5,1.3,7.486,M,40.583,M,1.9,0136*75\r\n
$GPGGA,120303.20,5700.9262215,N,00959.1684909,E,2,5,1.3,7.487,M,40.583,M,1.9,0136*78\r\n
$GPGGA,120303.25,5700.9262131,N,00959.1684890,E,2,5,1.3,7.499,M,40.583,M,2.2,0136*7E\r\n
$GPGGA,120303.30,5700.9262131,N,00959.1684888,E,2,5,1.3,7.500,M,40.583,M,2.2,0136*72\r\n
$GPGGA,120303.35,5700.9262130,N,00959.1684886,E,2,5,1.3,7.501,M,40.583,M,2.2,0136*79\r\n
$GPGGA,120303.40,5700.9262128,N,00959.1684882,E,2,5,1.3,7.501,M,40.583,M,2.2,0136*76\r\n
$GPGGA,120303.45,5700.9262093,N,00959.1684932,E,2,5,1.3,7.513,M,40.583,M,2.4,0136*7D\r\n
$GPGGA,120303.50,5700.9262092,N,00959.1684928,E,2,5,1.3,7.514,M,40.583,M,2.4,0136*74\r\n
$GPGGA,120303.55,5700.9262092,N,00959.1684928,E,2,5,1.3,7.515,M,40.583,M,2.4,0136*70\r\n
$GPGGA,120303.60,5700.9262091,N,00959.1684922,E,2,5,1.3,7.516,M,40.583,M,2.4,0136*7C\r\n
$GPGGA,120303.65,5700.9262040,N,00959.1684950,E,2,5,1.3,7.524,M,40.583,M,2.7,0136*72\r\n
$GPGGA,120303.70,5700.9262039,N,00959.1684947,E,2,5,1.3,7.525,M,40.583,M,2.7,0136*7F\r\n
$GPGGA,120303.75,5700.9262038,N,00959.1684944,E,2,5,1.3,7.526,M,40.583,M,2.7,0136*7B\r\n
$GPGGA,120303.80,5700.9262037,N,00959.1684941,E,2,5,1.3,7.527,M,40.583,M,2.7,0136*7A\r\n
$GPGGA,120303.85,5700.9261926,N,00959.1685069,E,2,5,1.3,7.529,M,40.583,M,2.9,0136*77\r\n
$GPGGA,120303.90,5700.9261924,N,00959.1685069,E,2,5,1.3,7.530,M,40.583,M,2.9,0136*79\r\n
$GPGGA,120303.95,5700.9261923,N,00959.1685069,E,2,5,1.3,7.531,M,40.583,M,2.9,0136*7A\r\n
$GPGGA,120304.00,5700.9261922,N,00959.1685065,E,2,5,1.3,7.531,M,40.583,M,2.9,0136*7C\r\n
$GPGGA,120304.05,5700.9261885,N,00959.1685074,E,2,5,1.3,7.537,M,40.583,M,1.7,0136*7E\r\n
$GPGGA,120304.10,5700.9261885,N,00959.1685075,E,2,5,1.3,7.538,M,40.583,M,1.7,0136*74\r\n
$GPGGA,120304.15,5700.9261884,N,00959.1685074,E,2,5,1.3,7.539,M,40.583,M,1.7,0136*70\r\n
$GPGGA,120304.20,5700.9261884,N,00959.1685074,E,2,5,1.3,7.540,M,40.583,M,1.7,0136*78\r\n
$GPGGA,120304.30,5700.9261852,N,00959.1685116,E,2,5,1.3,7.552,M,40.583,M,2.0,0136*70\r\n
$GPGGA,120307.15,5700.9260758,N,00959.1685752,E,2,6,1.3,7.827,M,40.583,M,1.9,0136*70\r\n
$GPGGA,120307.20,5700.9260757,N,00959.1685753,E,2,6,1.3,7.827,M,40.583,M,1.9,0136*78\r\n
$GPGGA,120307.25,5700.9260696,N,00959.1685728,E,2,6,1.3,7.850,M,40.583,M,2.2,0136*75\r\n
$GPGGA,120307.30,5700.9260694,N,00959.1685726,E,2,6,1.3,7.850,M,40.583,M,2.2,0136*7D\r\n
$GPGGA,120307.35,5700.9260694,N,00959.1685727,E,2,6,1.3,7.850,M,40.583,M,2.2,0136*79\r\n
$GPGGA,120307.40,5700.9260693,N,00959.1685727,E,2,6,1.3,7.850,M,40.583,M,2.2,0136*7C\r\n
$GPGGA,120307.45,5700.9260647,N,00959.1685769,E,2,6,1.3,7.877,M,40.583,M,2.4,0136*79\r\n
$GPGGA,120307.50,5700.9260645,N,00959.1685768,E,2,6,1.3,7.877,M,40.583,M,2.4,0136*7E\r\n
$GPGGA,120307.55,5700.9260646,N,00959.1685764,E,2,6,1.3,7.877,M,40.583,M,2.4,0136*74\r\n
$GPGGA,120307.60,5700.9260646,N,00959.1685762,E,2,6,1.3,7.877,M,40.583,M,2.4,0136*74\r\n
$GPGGA,120307.65,5700.9260616,N,00959.1685755,E,2,6,1.3,7.907,M,40.583,M,2.7,0136*75\r\n
$GPGGA,120307.70,5700.9260616,N,00959.1685750,E,2,6,1.3,7.907,M,40.583,M,2.7,0136*74\r\n
$GPGGA,120307.75,5700.9260617,N,00959.1685748,E,2,6,1.3,7.907,M,40.583,M,2.7,0136*79\r\n
$GPGGA,120307.80,5700.9260616,N,00959.1685746,E,2,6,1.3,7.906,M,40.583,M,2.7,0136*7D\r\n
$GPGGA,120307.85,5700.9260514,N,00959.1685878,E,2,6,1.3,7.928,M,40.583,M,2.9,0136*79\r\n
$GPGGA,120307.90,5700.9260514,N,00959.1685876,E,2,6,1.3,7.928,M,40.583,M,2.9,0136*73\r\n
$GPGGA,120307.95,5700.9260512,N,00959.1685875,E,2,6,1.3,7.928,M,40.583,M,2.9,0136*73\r\n
$GPGGA,120308.00,5700.9260510,N,00959.1685868,E,2,6,1.3,7.928,M,40.583,M,2.9,0136*7E\r\n
$GPGGA,120308.05,5700.9260440,N,00959.1685830,E,2,6,1.3,7.951,M,40.583,M,1.7,0136*71\r\n
$GPGGA,120308.10,5700.9260438,N,00959.1685829,E,2,6,1.3,7.951,M,40.583,M,1.7,0136*72\r\n
$GPGGA,120308.15,5700.9260437,N,00959.1685827,E,2,6,1.3,7.951,M,40.583,M,1.7,0136*76\r\n
$GPGGA,120308.20,5700.9260435,N,00959.1685820,E,2,6,1.3,7.951,M,40.583,M,1.7,0136*75\r\n
$GPGGA,120308.25,5700.9260398,N,00959.1685929,E,2,6,1.3,7.970,M,40.583,M,2.0,0136*7F\r\n
$GPGGA,120308.30,5700.9260396,N,00959.1685928,E,2,6,1.3,7.970,M,40.583,M,2.0,0136*74\r\n
$GPGGA,120308.35,5700.9260396,N,00959.1685929,E,2,6,1.3,7.970,M,40.583,M,2.0,0136*70\r\n
$GPGGA,120308.40,5700.9260398,N,00959.1685929,E,2,6,1.3,7.970,M,40.583,M,2.0,0136*7C\r\n
$GPGGA,120308.45,5700.9260395,N,00959.1685954,E,2,6,1.3,8.009,M,40.583,M,2.2,0136*74\r\n
$GPGGA,120308.50,5700.9260394,N,00959.1685955,E,2,6,1.3,8.009,M,40.583,M,2.2,0136*70\r\n
$GPGGA,120308.55,5700.9260394,N,00959.1685959,E,2,6,1.3,8.009,M,40.583,M,2.2,0136*79\r\n
$GPGGA,120308.60,5700.9260394,N,00959.1685955,E,2,6,1.3,8.009,M,40.583,M,2.2,0136*73\r\n
$GPGGA,120308.65,5700.9260299,N,00959.1686019,E,2,6,1.3,8.033,M,40.583,M,2.4,0136*77\r\n
$GPGGA,120308.70,5700.9260298,N,00959.1686017,E,2,6,1.3,8.033,M,40.583,M,2.4,0136*7C\r\n
$GPGGA,120308.75,5700.9260298,N,00959.1686016,E,2,6,1.3,8.033,M,40.583,M,2.4,0136*78\r\n
$GPGGA,120308.80,5700.9260295,N,00959.1686018,E,2,6,1.3,8.033,M,40.583,M,2.4,0136*71\r\n
$GPGGA,120308.85,5700.9260241,N,00959.1686012,E,2,6,1.3,8.061,M,40.583,M,2.7,0136*73\r\n
$GPGGA,120308.90,5700.9260242,N,00959.1686010,E,2,6,1.3,8.061,M,40.583,M,2.7,0136*76\r\n
$GPGGA,120308.95,5700.9260240,N,00959.1686012,E,2,5,1.3,8.061,M,40.583,M,2.7,0136*70\r\n
$GPGGA,120309.00,5700.9260238,N,00959.1686012,E,2,5,1.3,8.061,M,40.583,M,2.7,0136*72\r\n
$GPGGA,120309.05,5700.9260160,N,00959.1685997,E,2,5,1.3,8.123,M,40.583,M,1.6,0136*7B\r\n
$GPGGA,120309.10,5700.9260159,N,00959.1685995,E,2,5,1.3,8.123,M,40.583,M,1.6,0136*77\r\n
$GPGGA,120309.15,5700.9260157,N,00959.1685994,E,2,5,1.3,8.123,M,40.583,M,1.6,0136*7D\r\n
$GPGGA,120309.20,5700.9260156,N,00959.1685997,E,2,5,1.3,8.123,M,40.583,M,1.6,0136*79\r\n
$GPGGA,120309.25,5700.9260066,N,00959.1685986,E,2,5,1.3,8.182,M,40.583,M,1.9,0136*7A\r\n
$GPGGA,120309.30,5700.9260064,N,00959.1685985,E,2,5,1.3,8.182,M,40.583,M,1.9,0136*7F\r\n
$GPGGA,120309.35,5700.9260067,N,00959.1685984,E,2,5,1.3,8.182,M,40.583,M,1.9,0136*78\r\n
$GPGGA,120309.40,5700.9260067,N,00959.1685983,E,2,5,1.3,8.182,M,40.583,M,1.9,0136*7D\r\n
$GPGGA,120309.45,5700.9260046,N,00959.1685890,E,2,5,1.3,8.245,M,40.583,M,2.1,0136*7B\r\n
$GPGGA,120309.50,5700.9260046,N,00959.1685887,E,2,5,1.3,8.245,M,40.583,M,2.1,0136*79\r\n
$GPGGA,120309.55,5700.9260046,N,00959.1685882,E,2,5,1.3,8.245,M,40.583,M,2.1,0136*79\r\n
$GPGGA,120309.60,5700.9260045,N,00959.1685876,E,2,5,1.3,8.245,M,40.583,M,2.1,0136*77\r\n
$GPGGA,120309.65,5700.9259902,N,00959.1685897,E,2,6,1.3,8.302,M,40.583,M,2.3,0136*7E\r\n
$GPGGA,120309.70,5700.9259903,N,00959.1685894,E,2,6,1.3,8.303,M,40.583,M,2.3,0136*79\r\n
$GPGGA,120309.75,5700.9259903,N,00959.1685885,E,2,6,1.3,8.303,M,40.583,M,2.3,0136*7C\r\n
$GPGGA,120309.80,5700.9259904,N,00959.1685886,E,2,6,1.3\x00,8.303,M,40.583,M,2.3,0136*72\r\n
$GPGGA,120309.85,5700.9259866,N,00959.168\x005887,E,2,6,1.3,8.362,M,40.583,M,2.6,0136*71\r\n
$GPGGA,120309.90,5700.92598\x0068,N,009\n
$GPGGA,120312.65,5700.9259025,N,00959.1685586,E,2,6,1.3,9.049,M,40.583,M,2.4,0136*7F\r\n
$GPGGA,120312.70,5700.9259025,N,00959.1685588,E,2,6,1.3,9.049,M,40.583,M,2.4,0136*75\r\n
$GPGGA,120312.75,5700.9259026,N,00959.1685589,E,2,6,1.3,9.049,M,40.583,M,2.4,0136*72\r\n
$GPGGA,120312.80,5700.9259026,N,00959.1685591,E,2,6,1.3,9.049,M,40.583,M,2.4,0136*71\r\n
$GPGGA,120312.85,5700.9258976,N,00959.1685539,E,2,6,1.3,9.111,M,40.583,M,2.7,0136*74\r\n
$GPGGA,120312.90,5700.9258976,N,00959.1685535,E,2,6,1.3,9.111,M,40.583,M,2.7,0136*7C\r\n
$GPGGA,120312.95,5700.9258977,N,00959.1685536,E,2,6,1.3,9.112,M,40.583,M,2.7,0136*78\r\n
$GPGGA,120313.00,5700.9258978,N,00959.1685542,E,2,6,1.3,9.112,M,40.583,M,2.7,0136*79\r\n
$GPGGA,120313.05,5700.9258894,N,00959.1685508,E,2,6,1.3,9.171,M,40.583,M,2.9,0136*7A\r\n
$GPGGA,120313.10,5700.9258895,N,00959.1685510,E,2,6,1.3,9.171,M,40.583,M,2.9,0136*76\r\n
$GPGGA,120313.15,5700.9258895,N,00959.1685514,E,2,6,1.3,9.171,M,40.583,M,2.9,0136*77\r\n
$GPGGA,120313.20,5700.9258896,N,00959.1685512,E,2,6,1.3,9.171,M,40.583,M,2.9,0136*74\r\n
$GPGGA,120313.25,5700.9258848,N,00959.1685411,E,2,6,1.3,9.227,M,40.583,M,1.9,0136*73\r\n
$GPGGA,120313.30,5700.9258849,N,00959.1685413,E,2,6,1.3,9.227,M,40.583,M,1.9,0136*74\r\n
$GPGGA,120313.35,5700.9258850,N,00959.1685412,E,2,6,1.3,9.227,M,40.583,M,1.9,0136*78\r\n
$GPGGA,120313.40,5700.9258851,N,00959.1685411,E,2,5,1.3,9.227,M,40.583,M,1.9,0136*7B\r\n
$GPGGA,120313.45,5700.9258788,N,00959.1685382,E,2,5,1.3,9.267,M,40.583,M,2.1,0136*77\r\n
$GPGGA,120313.50,5700.9258789,N,00959.1685381,E,2,5,1.3,9.268,M,40.583,M,2.1,0136*7E\r\n
$GPGGA,120313.55,5700.9258790,N,00959.1685379,E,2,5,1.3,9.268,M,40.583,M,2.1,0136*74\r\n
$GPGGA,120313.60,5700.9258790,N,00959.1685379,E,2,5,1.3,9.268,M,40.583,M,2.1,0136*72\r\n
$GPGGA,120313.65,5700.9258739,N,00959.1685322,E,2,5,1.3,9.310,M,40.583,M,2.3,0136*76\r\n
$GPGGA,120313.70,5700.9258740,N,00959.1685318,E,2,5,1.3,9.311,M,40.583,M,2.3,0136*74\r\n
$GPGGA,120313.75,5700.9258739,N,00959.1685319,E,2,5,1.3,9.311,M,40.583,M,2.3,0136*7E\r\n
$GPGGA,120313.80,5700.9258739,N,00959.1685312,E,2,5,1.3,9.311,M,40.583,M,2.3,0136*7F\r\n
$GPGGA,120313.85,5700.9258707,N,00959.1685200,E,2,5,1.3,9.363,M,40.583,M,2.6,0136*75\r\n
$GPGGA,120313.90,5700.9258707,N,00959.1685197,E,2,5,1.3,9.363,M,40.583,M,2.6,0136*7C\r\n
$GPGGA,120313.95,5700.9258706,N,00959.1685195,E,2,5,1.3,9.363,M,40.583,M,2.6,0136*7A\r\n
$GPGGA,120314.00,5700.9258708,N,00959.1685187,E,2,5,1.3,9.363,M,40.583,M,2.6,0136*7C\r\n
$GPGGA,120314.05,5700.9258681,N,00959.1685182,E,2,5,1.3,9.407,M,40.583,M,2.8,0136*77\r\n
$GPGGA,120314.10,5700.9258680,N,00959.1685179,E,2,5,1.3,9.407,M,40.583,M,2.8,0136*76\r\n
$GPGGA,120314.15,5700.9258680,N,00959.1685172,E,2,5,1.3,9.407,M,40.583,M,2.8,0136*78\r\n
$GPGGA,120314.20,5700.9258681,N,00959.1685170,E,2,5,1.3,9.408,M,40.583,M,2.8,0136*72\r\n
$GPGGA,120314.25,5700.9258579,N,00959.1685163,E,2,5,1.3,9.458,M,40.583,M,3.0,0136*7D\r\n
$GPGGA,120314.30,5700.9258580,N,00959.1685162,E,2,5,1.3,9.458,M,40.583,M,3.0,0136*7E\r\n
$GPGGA,120314.35,5700.9258581,N,00959.1685156,E,2,5,1.3,9.458,M,40.583,M,3.0,0136*7D\r\n
$GPGGA,120314.40,5700.9258581,N,00959.1685160,E,2,5,1.3,9.458,M,40.583,M,3.0,0136*7A\r\n
$GPGGA,120314.45,5700.9258576,N,00959.1685180,E,2,5,1.3,9.492,M,40.583,M,3.2,0136*7D\r\n
$GPGGA,120314.50,5700.9258576,N,00959.1685176,E,2,5,1.3,9.492,M,40.583,M,3.2,0136*70\r\n
$GPGGA,120314.55,5700.9258574,N,00959.1685177,E,2,5,1.3,9.492,M,40.583,M,3.2,0136*76\r\n
$GPGGA,120314.60,5700.9258574,N,00959.1685181,E,2,5,1.3,9.492,M,40.583,M,3.2,0136*79\r\n
$GPGGA,120314.65,5700.9258514,N,00959.1685097,E,2,5,1.3,9.528,M,40.583,M,3.4,0136*7A\r\n
$GPGGA,120314.70,5700.9258514,N,00959.1685099,E,2,5,1.3,9.528,M,40.583,M,3.4,0136*70\r\n
$GPGGA,120314.75,5700.9258512,N,00959.1685097,E,2,5,1.3,9.528,M,40.583,M,3.4,0136*7D\r\n
$GPGGA,120314.80,5700.9258512,N,00959.1685095,E,2,5,1.3,9.528,M,40.583,M,3.4,0136*75\r\n
$GPGGA,120314.85,5700.9258499,N,00959.1685037,E,2,5,1.3,9.564,M,40.583,M,3.6,0136*70\r\n
$GPGGA,120314.90,5700.9258499,N,00959.1685037,E,2,5,1.3,9.564,M,40.583,M,3.6,0136*74\r\n
$GPGGA,120314.95,5700.9258497,N,00959.1685034,E,2,5,1.3,9.564,M,40.583,M,3.6,0136*7C\r\n
$GPGGA,120315.00,5700.9258496,N,00959.1685031,E,2,5,1.3,9.564,M,40.583,M,3.6,0136*75\r\n
$GPGGA,120315.05,5700.9258475,N,00959.1684970,E,2,5,1.3,9.599,M,40.583,M,3.8,0136*7C\r\n
$GPGGA,120315.10,5700.9258474,N,00959.1684966,E,2,5,1.3,9.599,M,40.583,M,3.8,0136*7E\r\n
$GPGGA,120315.15,5700.9258474,N,00959.1684961,E,2,5,1.3,9.599,M,40.583,M,3.8,0136*7C\r\n
$GPGGA,120315.20,5700.9258474,N,00959.1684956,E\x00,2,5,1.3,9.599,M,40.583,M,3.8,0136*7E\r\n
$GPGGA,120315.25,5700.9258471,N,0\x000959.1684932,E,2,5,1.3,9.640,M,40.583,M,2.2,0136*70\r\n
$GPGGA,120315.30,57\x0000.92584\n
$GPGGA,120318.00,5700.9257956,N,00959.1684287,E,2,5,1.3,10.268,M,40.583,M,2.6,0136*4A\r\n
$GPGGA,120318.05,5700.9257965,N,00959.1684129,E,2,5,1.3,10.331,M,40.583,M,2.8,0136*4B\r\n
$GPGGA,120318.10,5700.9257965,N,00959.1684124,E,2,5,1.3,10.331,M,40.583,M,2.8,0136*42\r\n
$GPGGA,120318.15,5700.9257964,N,00959.1684124,E,2,5,1.3,10.331,M,40.583,M,2.8,0136*46\r\n
$GPGGA,120318.20,5700.9257965,N,00959.1684118,E,2,5,1.3,10.331,M,40.583,M,2.8,0136*4E\r\n
$GPGGA,120318.25,5700.9257875,N,00959.1684080,E,2,5,1.3,10.389,M,40.583,M,3.0,0136*41\r\n
$GPGGA,120318.30,5700.9257876,N,00959.1684077,E,2,5,1.3,10.389,M,40.583,M,3.0,0136*4E\r\n
$GPGGA,120318.35,5700.9257876,N,00959.1684074,E,2,5,1.3,10.388,M,40.583,M,3.0,0136*49\r\n
$GPGGA,120318.40,5700.9257875,N,00959.1684064,E,2,5,1.3,10.388,M,40.583,M,3.0,0136*49\r\n
$GPGGA,120318.45,5700.9257833,N,00959.1683980,E,2,5,1.3,10.450,M,40.583,M,3.2,0136*4A\r\n
$GPGGA,120318.50,5700.9257833,N,00959.1683980,E,2,5,1.3,10.450,M,40.583,M,3.2,0136*4E\r\n
$GPGGA,120318.55,5700.9257833,N,00959.1683972,E,2,5,1.3,10.450,M,40.583,M,3.2,0136*46\r\n
$GPGGA,120318.60,5700.9257834,N,00959.1683967,E,2,5,1.3,10.450,M,40.583,M,3.2,0136*43\r\n
$GPGGA,120318.65,5700.9257802,N,00959.1683943,E,2,5,1.3,10.505,M,40.583,M,3.4,0136*42\r\n
$GPGGA,120318.70,5700.9257801,N,00959.1683945,E,2,5,1.3,10.505,M,40.583,M,3.4,0136*43\r\n
$GPGGA,120318.75,5700.9257801,N,00959.1683940,E,2,5,1.3,10.505,M,40.583,M,3.4,0136*43\r\n
$GPGGA,120318.80,5700.9257802,N,00959.1683939,E,2,5,1.3,10.505,M,40.583,M,3.4,0136*44\r\n
$GPGGA,120318.85,5700.9257727,N,00959.1683922,E,2,5,1.3,10.570,M,40.583,M,3.6,0136*43\r\n
$GPGGA,120318.90,5700.9257728,N,00959.1683919,E,2,5,1.3,10.570,M,40.583,M,3.6,0136*40\r\n
$GPGGA,120318.95,5700.9257728,N,00959.1683918,E,2,5,1.3,10.570,M,40.583,M,3.6,0136*44\r\n
$GPGGA,120319.00,5700.9257729,N,00959.1683919,E,2,5,1.3,10.570,M,40.583,M,3.6,0136*49\r\n
$GPGGA,120319.05,5700.9257719,N,00959.1683779,E,2,5,1.3,10.633,M,40.583,M,3.8,0136*4D\r\n
$GPGGA,120319.10,5700.9257719,N,00959.1683776,E,2,5,1.3,10.633,M,40.583,M,3.8,0136*46\r\n
$GPGGA,120319.15,5700.9257720,N,00959.1683780,E,2,5,1.3,10.633,M,40.583,M,3.8,0136*40\r\n
$GPGGA,120319.20,5700.9257720,N,00959.1683777,E,2,5,1.3,10.633,M,40.583,M,3.8,0136*4E\r\n
$GPGGA,120319.25,5700.9257667,N,00959.1683776,E,2,6,1.3,10.682,M,40.583,M,2.2,0136*4A\r\n
$GPGGA,120319.30,5700.9257668,N,00959.1683777,E,2,5,1.3,10.682,M,40.583,M,2.2,0136*43\r\n
$GPGGA,120319.35,5700.9257669,N,00959.1683778,E,2,5,1.3,10.682,M,40.583,M,2.2,0136*48\r\n
$GPGGA,120319.40,5700.9257670,N,00959.1683780,E,2,5,1.3,10.682,M,40.583,M,2.2,0136*45\r\n
$GPGGA,120319.45,5700.9257639,N,00959.1683659,E,2,5,1.3,10.740,M,40.583,M,2.4,0136*41\r\n
$GPGGA,120319.50,5700.9257640,N,00959.1683655,E,2,5,1.3,10.740,M,40.583,M,2.4,0136*47\r\n
$GPGGA,120319.55,5700.9257641,N,00959.1683654,E,2,5,1.3,10.740,M,40.583,M,2.4,0136*42\r\n
$GPGGA,120319.60,5700.9257641,N,00959.1683655,E,2,5,1.3,10.740,M,40.583,M,2.4,0136*45\r\n
$GPGGA,120319.65,5700.9257630,N,00959.1683590,E,2,6,1.3,10.784,M,40.583,M,2.7,0136*44\r\n
$GPGGA,120319.70,5700.9257631,N,00959.1683589,E,2,6,1.3,10.784,M,40.583,M,2.7,0136*49\r\n
$GPGGA,120319.75,5700.9257632,N,00959.1683585,E,2,6,1.3,10.784,M,40.583,M,2.7,0136*43\r\n
$GPGGA,120319.80,5700.9257633,N,00959.1683581,E,2,6,1.3,10.785,M,40.583,M,2.7,0136*4D\r\n
$GPGGA,120319.85,5700.9257629,N,00959.1683496,E,2,6,1.3,10.828,M,40.583,M,2.9,0136*42\r\n
$GPGGA,120319.90,5700.9257630,N,00959.1683498,E,2,6,1.3,10.828,M,40.583,M,2.9,0136*40\r\n
$GPGGA,120319.95,5700.9257631,N,00959.1683492,E,2,6,1.3,10.828,M,40.583,M,2.9,0136*4E\r\n
$GPGGA,120320.00,5700.9257632,N,00959.1683489,E,2,6,1.3,10.828,M,40.583,M,2.9,0136*41\r\n
$GPGGA,120320.05,5700.9257604,N,00959.1683515,E,2,6,1.3,10.870,M,40.583,M,3.2,0136*42\r\n
$GPGGA,120320.10,5700.9257604,N,00959.1683515,E,2,6,1.3,10.870,M,40.583,M,3.2,0136*46\r\n
$GPGGA,120320.15,5700.9257605,N,00959.1683519,E,2,6,1.3,10.870,M,40.583,M,3.2,0136*4E\r\n
$GPGGA,120320.20,5700.9257605,N,00959.1683517,E,2,6,1.3,10.870,M,40.583,M,3.2,0136*46\r\n
$GPGGA,120320.25,5700.9257655,N,00959.1683401,E,2,6,1.3,10.902,M,40.583,M,2.0,0136*47\r\n
$GPGGA,120320.30,5700.9257656,N,00959.1683400,E,2,6,1.3,10.902,M,40.583,M,2.0,0136*41\r\n
$GPGGA,120320.35,5700.9257657,N,00959.1683399,E,2,6,1.3,10.902,M,40.583,M,2.0,0136*42\r\n
$GPGGA,120320.40,5700.9257658,N,00959.1683398,E,2,6,1.3,10.902,M,40.583,M,2.0,0136*4E\r\n
$GPGGA,120320.45,5700.9257668,N,00959.1683376,E,2,6,1.3,10.934,M,40.583,M,2.2,0136*4F\r\n
$GPGGA,120320.50,5700.9257668,N,00959.1683373,E,2,6,1.3,10.934,M,40.583,M,2.2,0136*4E\r\n
$GPGGA,120320.55,5700.9257667,N,00959.1683371,E,2,5,1.3,10.934,M,40.583,M,2.2,0136*45\r\n
$GPGGA,120320.65,5700.9257650,N,00959.1683262,E\x00,2,5,1.3,10.986,M,40.583,M,2.4,0136*4E\r\n
$GPGGA,120323.45,5700.9257733,N,00959.1682896,E,2,5,1.3,11.399,M,40.583,M,2.4,0136*4E\r\n
$GPGGA,120323.50,5700.9257733,N,00959.1682895,E,2,5,1.3,11.399,M,40.583,M,2.4,0136*49\r\n
$GPGGA,120323.55,5700.9257734,N,00959.1682895,E,2,5,1.3,11.400,M,40.583,M,2.4,0136*4C\r\n
$GPGGA,120323.60,5700.9257734,N,00959.1682892,E,2,5,1.3,11.401,M,40.583,M,2.4,0136*4C\r\n
$GPGGA,120323.65,5700.9257781,N,00959.1682921,E,2,5,1.3,11.410,M,40.583,M,2.7,0136*4D\r\n
$GPGGA,120323.70,5700.9257781,N,00959.1682920,E,2,5,1.3,11.410,M,40.583,M,2.7,0136*48\r\n
$GPGGA,120323.75,5700.9257781,N,00959.1682918,E,2,5,1.3,11.411,M,40.583,M,2.7,0136*47\r\n
$GPGGA,120323.80,5700.9257781,N,00959.1682920,E,2,5,1.3,11.411,M,40.583,M,2.7,0136*46\r\n
$GPGGA,120323.85,5700.9257786,N,00959.1682943,E,2,5,1.3,11.419,M,40.583,M,2.9,0136*47\r\n
$GPGGA,120323.90,5700.9257786,N,00959.1682943,E,2,5,1.3,11.420,M,40.583,M,2.9,0136*49\r\n
$GPGGA,120323.95,5700.9257785,N,00959.1682943,E,2,5,1.3,11.420,M,40.583,M,2.9,0136*4F\r\n
$GPGGA,120324.00,5700.9257785,N,00959.1682941,E,2,5,1.3,11.421,M,40.583,M,2.9,0136*47\r\n
$GPGGA,120324.05,5700.9257863,N,00959.1682935,E,2,5,1.3,11.424,M,40.583,M,1.7,0136*4E\r\n
$GPGGA,120324.10,5700.9257863,N,00959.1682934,E,2,5,1.3,11.425,M,40.583,M,1.7,0136*4A\r\n
$GPGGA,120324.15,5700.9257863,N,00959.1682938,E,2,5,1.3,11.425,M,40.583,M,1.7,0136*43\r\n
$GPGGA,120324.20,5700.9257863,N,00959.1682932,E,2,5,1.3,11.426,M,40.583,M,1.7,0136*4C\r\n
$GPGGA,120324.25,5700.9257903,N,00959.1682987,E,2,5,1.3,11.421,M,40.583,M,2.0,0136*43\r\n
$GPGGA,120324.30,5700.9257904,N,00959.1682988,E,2,5,1.3,11.421,M,40.583,M,2.0,0136*4F\r\n
$GPGGA,120324.35,5700.9257904,N,00959.1682990,E,2,5,1.3,11.422,M,40.583,M,2.0,0136*40\r\n
$GPGGA,120324.40,5700.9257903,N,00959.1682989,E,2,5,1.3,11.422,M,40.583,M,2.0,0136*4D\r\n
$GPGGA,120324.45,5700.9257954,N,00959.1683021,E,2,5,1.3,11.415,M,40.583,M,2.2,0136*46\r\n
$GPGGA,120324.50,5700.9257954,N,00959.1683019,E,2,5,1.3,11.415,M,40.583,M,2.2,0136*49\r\n
$GPGGA,120324.55,5700.9257953,N,00959.1683018,E,2,5,1.3,11.416,M,40.583,M,2.2,0136*49\r\n
$GPGGA,120324.60,5700.9257953,N,00959.1683020,E,2,5,1.3,11.416,M,40.583,M,2.2,0136*44\r\n
$GPGGA,120324.65,5700.9257981,N,00959.1683040,E,2,5,1.3,11.416,M,40.583,M,2.4,0136*4E\r\n
$GPGGA,120324.70,5700.9257980,N,00959.1683045,E,2,5,1.3,11.416,M,40.583,M,2.4,0136*4E\r\n
$GPGGA,120324.75,5700.9257979,N,00959.1683042,E,2,5,1.3,11.416,M,40.583,M,2.4,0136*4A\r\n
$GPGGA,120324.80,5700.9257979,N,00959.1683041,E,2,5,1.3,11.417,M,40.583,M,2.4,0136*42\r\n
$GPGGA,120324.85,5700.9258037,N,00959.1683107,E,2,5,1.3,11.414,M,40.583,M,2.7,0136*48\r\n
$GPGGA,120324.90,5700.9258037,N,00959.1683107,E,2,5,1.3,11.414,M,40.583,M,2.7,0136*4C\r\n
$GPGGA,120324.95,5700.9258036,N,00959.1683110,E,2,5,1.3,11.414,M,40.583,M,2.7,0136*4E\r\n
$GPGGA,120325.00,5700.9258035,N,00959.1683114,E,2,5,1.3,11.415,M,40.583,M,2.7,0136*45\r\n
$GPGGA,120325.05,5700.9258073,N,00959.1683176,E,2,5,1.3,11.410,M,40.583,M,1.6,0136*41\r\n
$GPGGA,120325.10,5700.9258072,N,00959.1683179,E,2,5,1.3,11.411,M,40.583,M,1.6,0136*4A\r\n
$GPGGA,120325.15,5700.9258071,N,00959.1683185,E,2,5,1.3,11.411,M,40.583,M,1.6,0136*4F\r\n
$GPGGA,120325.20,5700.9258070,N,00959.1683181,E,2,5,1.3,11.412,M,40.583,M,1.6,0136*4F\r\n
$GPGGA,120325.25,5700.9258097,N,00959.1683153,E,2,5,1.3,11.406,M,40.583,M,1.9,0136*46\r\n
$GPGGA,120325.30,5700.9258096,N,00959.1683154,E,2,5,1.3,11.406,M,40.583,M,1.9,0136*44\r\n
$GPGGA,120325.35,5700.9258095,N,00959.1683157,E,2,5,1.3,11.407,M,40.583,M,1.9,0136*40\r\n
$GPGGA,120325.40,5700.9258093,N,00959.1683156,E,2,5,1.3,11.407,M,40.583,M,1.9,0136*45\r\n
$GPGGA,120325.45,5700.9258161,N,00959.1683182,E,2,5,1.3,11.398,M,40.583,M,2.1,0136*4F\r\n
$GPGGA,120325.50,5700.9258160,N,00959.1683182,E,2,5,1.3,11.399,M,40.583,M,2.1,0136*4B\r\n
$GPGGA,120325.55,5700.9258159,N,00959.1683181,E,2,5,1.3,11.399,M,40.583,M,2.1,0136*47\r\n
$GPGGA,120325.60,5700.9258158,N,00959.1683179,E,2,5,1.3,11.400,M,40.583,M,2.1,0136*40\r\n
$GPGGA,120325.65,5700.9258255,N,00959.1683199,E,2,5,1.3,11.394,M,40.583,M,2.3,0136*4D\r\n
$GPGGA,120325.70,5700.9258254,N,00959.1683201,E,2,5,1.3,11.395,M,40.583,M,2.3,0136*4B\r\n
$GPGGA,120325.75,5700.9258253,N,00959.1683201,E,2,5,1.3,11.395,M,40.583,M,2.3,0136*49\r\n
$GPGGA,120325.80,5700.9258252,N,00959.1683199,E,2,5,1.3,11.396,M,40.583,M,2.3,0136*43\r\n
$GPGGA,120325.85,5700.9258224,N,00959.1683335,E,2,5,1.3,11.392,M,40.583,M,2.6,0136*42\r\n
$GPGGA,120325.90,5700.9258223,N,00959.1683333,E,2,5,1.3,11.393,M,40.583,M,2.6,0136*46\r\n
$GPGGA,120325.95,5700.9258222,N,00959.1683334,E,2,5,1.3,11.393,M,40.583,M,2.6,0136*45\r\n
$GPGGA,120326.00,5700.9258221,N,00959.1683335,E,2,5,1.3,11.394,M,40.583,M,2.6,0136*4F\r\n
$GPGGA,120326.05,5700.9258278,N,00959.1683335,E,2,5,1.3,11.397,M,40.583,M,2.8,0136*4B\r\n
$GPGGA,120326.15,5700.9258275,N,00959.1683334,E\x00,2,5,1.3,11.398,M,40.583,M,2.8,0136*49\r\n
$GPGGA,120328.95,5700.9258214,N,00959.1683707,E,2,5,1.3,11.590,M,40.583,M,2.7,0136*4D\r\n
$GPGGA,120329.00,5700.9258213,N,00959.1683708,E,2,5,1.3,11.591,M,40.583,M,2.7,0136*49\r\n
$GPGGA,120329.05,5700.9258190,N,00959.1683748,E,2,5,1.3,11.602,M,40.583,M,1.6,0136*4B\r\n
$GPGGA,120329.10,5700.9258189,N,00959.1683751,E,2,5,1.3,11.602,M,40.583,M,1.6,0136*4F\r\n
$GPGGA,120329.15,5700.9258189,N,00959.1683751,E,2,5,1.3,11.603,M,40.583,M,1.6,0136*4B\r\n
$GPGGA,120329.20,5700.9258188,N,00959.1683753,E,2,5,1.3,11.603,M,40.583,M,1.6,0136*4E\r\n
$GPGGA,120329.25,5700.9258163,N,00959.1683739,E,2,5,1.3,11.624,M,40.583,M,1.9,0136*48\r\n
$GPGGA,120329.30,5700.9258163,N,00959.1683736,E,2,5,1.3,11.625,M,40.583,M,1.9,0136*42\r\n
$GPGGA,120329.35,5700.9258163,N,00959.1683737,E,2,5,1.3,11.625,M,40.583,M,1.9,0136*46\r\n
$GPGGA,120329.40,5700.9258162,N,00959.1683735,E,2,5,1.3,11.626,M,40.583,M,1.9,0136*44\r\n
$GPGGA,120329.45,5700.9258092,N,00959.1683745,E,2,5,1.3,11.646,M,40.583,M,2.1,0136*45\r\n
$GPGGA,120329.50,5700.9258090,N,00959.1683745,E,2,5,1.3,11.647,M,40.583,M,2.1,0136*42\r\n
$GPGGA,120329.55,5700.9258090,N,00959.1683743,E,2,5,1.3,11.647,M,40.583,M,2.1,0136*41\r\n
$GPGGA,120329.60,5700.9258090,N,00959.1683742,E,2,5,1.3,11.648,M,40.583,M,2.1,0136*49\r\n
$GPGGA,120329.65,5700.9258128,N,00959.1683804,E,2,5,1.3,11.670,M,40.583,M,2.3,0136*4A\r\n
$GPGGA,120329.70,5700.9258127,N,00959.1683806,E,2,5,1.3,11.671,M,40.583,M,2.3,0136*42\r\n
$GPGGA,120329.75,5700.9258127,N,00959.1683806,E,2,5,1.3,11.671,M,40.583,M,2.3,0136*47\r\n
$GPGGA,120329.80,5700.9258126,N,00959.1683809,E,2,5,1.3,11.672,M,40.583,M,2.3,0136*40\r\n
$GPGGA,120329.85,5700.9258016,N,00959.1683862,E,2,5,1.3,11.684,M,40.583,M,2.6,0136*46\r\n
$GPGGA,120329.90,5700.9258014,N,00959.1683863,E,2,5,1.3,11.684,M,40.583,M,2.6,0136*41\r\n
$GPGGA,120329.95,5700.9258012,N,00959.1683864,E,2,5,1.3,11.685,M,40.583,M,2.6,0136*44\r\n
$GPGGA,120330.00,5700.9258010,N,00959.1683872,E,2,5,1.3,11.685,M,40.583,M,2.6,0136*45\r\n
$GPGGA,120330.05,5700.9257972,N,00959.1683882,E,2,5,1.3,11.707,M,40.583,M,2.8,0136*48\r\n
$GPGGA,120330.10,5700.9257969,N,00959.1683882,E,2,5,1.3,11.707,M,40.583,M,2.8,0136*46\r\n
$GPGGA,120330.15,5700.9257965,N,00959.1683881,E,2,5,1.3,11.708,M,40.583,M,2.8,0136*43\r\n
$GPGGA,120330.20,5700.9257959,N,00959.1683883,E,2,5,1.3,11.709,M,40.583,M,2.8,0136*49\r\n
$GPGGA,120330.25,5700.9257972,N,00959.1683805,E,2,5,1.3,11.722,M,40.583,M,3.0,0136*4B\r\n
$GPGGA,120330.30,5700.9257969,N,00959.1683802,E,2,5,1.3,11.723,M,40.583,M,3.0,0136*43\r\n
$GPGGA,120330.35,5700.9257967,N,00959.1683799,E,2,5,1.3,11.723,M,40.583,M,3.0,0136*45\r\n
$GPGGA,120330.40,5700.9257964,N,00959.1683795,E,2,5,1.3,11.724,M,40.583,M,3.0,0136*4F\r\n
$GPGGA,120330.45,5700.9257974,N,00959.1683903,E,2,5,1.3,11.743,M,40.583,M,3.2,0136*49\r\n
$GPGGA,120330.50,5700.9257971,N,00959.1683902,E,2,5,1.3,11.744,M,40.583,M,3.2,0136*4E\r\n
$GPGGA,120330.55,5700.9257967,N,00959.1683902,E,2,5,1.3,11.744,M,40.583,M,3.2,0136*4C\r\n
$GPGGA,120330.60,5700.9257966,N,00959.1683905,E,2,5,1.3,11.745,M,40.583,M,3.2,0136*4D\r\n
$GPGGA,120330.65,5700.9257926,N,00959.1683959,E,2,5,1.3,11.762,M,40.583,M,3.4,0136*46\r\n
$GPGGA,120330.70,5700.9257923,N,00959.1683960,E,2,5,1.3,11.762,M,40.583,M,3.4,0136*4D\r\n
$GPGGA,120330.75,5700.9257921,N,00959.1683959,E,2,5,1.3,11.763,M,40.583,M,3.4,0136*41\r\n
$GPGGA,120330.80,5700.9257919,N,00959.1683956,E,2,5,1.3,11.763,M,40.583,M,3.4,0136*4F\r\n
$GPGGA,120330.85,5700.9257900,N,00959.1683840,E,2,5,1.3,11.782,M,40.583,M,3.6,0136*49\r\n
$GPGGA,120330.90,5700.9257898,N,00959.1683837,E,2,5,1.3,11.783,M,40.583,M,3.6,0136*4C\r\n
$GPGGA,120330.95,5700.9257896,N,00959.1683829,E,2,5,1.3,11.783,M,40.583,M,3.6,0136*48\r\n
$GPGGA,120331.00,5700.9257894,N,00959.1683821,E,2,5,1.3,11.783,M,40.583,M,3.6,0136*4F\r\n
$GPGGA,120331.05,5700.9257831,N,00959.1683938,E,2,5,1.3,11.803,M,40.583,M,1.9,0136*46\r\n
$GPGGA,120331.10,5700.9257828,N,00959.1683934,E,2,5,1.3,11.803,M,40.583,M,1.9,0136*46\r\n
$GPGGA,120331.15,5700.9257826,N,00959.1683934,E,2,5,1.3,11.804,M,40.583,M,1.9,0136*4A\r\n
$GPGGA,120331.20,5700.9257824,N,00959.1683932,E,2,5,1.3,11.804,M,40.583,M,1.9,0136*48\r\n
$GPGGA,120331.25,5700.9257832,N,00959.1684013,E,2,5,1.3,11.819,M,40.583,M,2.2,0136*43\r\n
$GPGGA,120331.30,5700.9257831,N,00959.1684012,E,2,5,1.3,11.820,M,40.583,M,2.2,0136*4F\r\n
$GPGGA,120331.35,5700.9257828,N,00959.1684020,E,2,5,1.3,11.820,M,40.583,M,2.2,0136*43\r\n
$GPGGA,120331.40,5700.9257829,N,00959.1684014,E,2,5,1.3,11.820,M,40.583,M,2.2,0136*47\r\n
$GPGGA,120331.45,5700.9257780,N,00959.1683985,E,2,5,1.3,11.836,M,40.583,M,2.4,0136*49\r\n
$GPGGA,120331.50,5700.9257777,N,00959.1683980,E,2,5,1.3,11.837,M,40.583,M,2.4,0136*41\r\n
$GPGGA,120331.55,5700.9257772,N,00959.1683979,E,2,5,1.3,11.837,M,40.583,M,2.4,0136*47\r\n
$GPGGA,120331.65,5700.9257688,N,00959.1684015,E\x00,2,5,1.3,11.855,M,40.583,M,2.7,0136*43\r\n
$GPGGA,120334.45,5700.9256996,N,00959.1684222,E,2,5,1.3,12.202,M,40.583,M,3.2,0136*4C\r\n
$GPGGA,120334.50,5700.9256996,N,00959.1684220,E,2,5,1.3,12.202,M,40.583,M,3.2,0136*4A\r\n
$GPGGA,120334.55,5700.9256997,N,00959.1684217,E,2,5,1.3,12.202,M,40.583,M,3.2,0136*4A\r\n
$GPGGA,120334.60,5700.9256997,N,00959.1684215,E,2,5,1.3,12.202,M,40.583,M,3.2,0136*4E\r\n
$GPGGA,120334.65,5700.9256973,N,00959.1684160,E,2,5,1.3,12.217,M,40.583,M,3.4,0136*42\r\n
$GPGGA,120334.70,5700.9256974,N,00959.1684157,E,2,5,1.3,12.217,M,40.583,M,3.4,0136*45\r\n
$GPGGA,120334.75,5700.9256975,N,00959.1684153,E,2,5,1.3,12.216,M,40.583,M,3.4,0136*44\r\n
$GPGGA,120334.80,5700.9256976,N,00959.1684149,E,2,5,1.3,12.216,M,40.583,M,3.4,0136*46\r\n
$GPGGA,120334.85,5700.9256968,N,00959.1684249,E,2,5,1.3,12.244,M,40.583,M,3.6,0136*4A\r\n
$GPGGA,120334.90,5700.9256969,N,00959.1684246,E,2,5,1.3,12.244,M,40.583,M,3.6,0136*40\r\n
$GPGGA,120334.95,5700.9256970,N,00959.1684242,E,2,5,1.3,12.244,M,40.583,M,3.6,0136*49\r\n
$GPGGA,120335.00,5700.9256971,N,00959.1684240,E,2,5,1.3,12.244,M,40.583,M,3.6,0136*47\r\n
$GPGGA,120335.05,5700.9256948,N,00959.1684218,E,2,5,1.3,12.257,M,40.583,M,1.9,0136*4A\r\n
$GPGGA,120335.10,5700.9256949,N,00959.1684218,E,2,5,1.3,12.257,M,40.583,M,1.9,0136*4F\r\n
$GPGGA,120335.15,5700.9256951,N,00959.1684218,E,2,5,1.3,12.257,M,40.583,M,1.9,0136*43\r\n
$GPGGA,120335.20,5700.9256952,N,00959.1684215,E,2,5,1.3,12.256,M,40.583,M,1.9,0136*4A\r\n
$GPGGA,120335.25,5700.9256916,N,00959.1684284,E,2,5,1.3,12.277,M,40.583,M,2.2,0136*4C\r\n
$GPGGA,120335.30,5700.9256917,N,00959.1684284,E,2,5,1.3,12.277,M,40.583,M,2.2,0136*49\r\n
$GPGGA,120335.35,5700.9256919,N,00959.1684284,E,2,5,1.3,12.276,M,40.583,M,2.2,0136*43\r\n
$GPGGA,120335.40,5700.9256921,N,00959.1684289,E,2,5,1.3,12.276,M,40.583,M,2.2,0136*47\r\n
$GPGGA,120335.45,5700.9256855,N,00959.1684349,E,2,5,1.3,12.300,M,40.583,M,2.4,0136*4B\r\n
$GPGGA,120335.50,5700.9256858,N,00959.1684352,E,2,5,1.3,12.299,M,40.583,M,2.4,0136*49\r\n
$GPGGA,120335.55,5700.9256858,N,00959.1684355,E,2,5,1.3,12.299,M,40.583,M,2.4,0136*4B\r\n
$GPGGA,120335.60,5700.9256860,N,00959.1684356,E,2,5,1.3,12.299,M,40.583,M,2.4,0136*45\r\n
$GPGGA,120335.65,5700.9256807,N,00959.1684303,E,2,5,1.3,12.319,M,40.583,M,2.7,0136*4B\r\n
$GPGGA,120335.70,5700.9256809,N,00959.1684307,E,2,5,1.3,12.319,M,40.583,M,2.7,0136*45\r\n
$GPGGA,120335.75,5700.9256810,N,00959.1684308,E,2,5,1.3,12.319,M,40.583,M,2.7,0136*47\r\n
$GPGGA,120335.80,5700.9256811,N,00959.1684315,E,2,5,1.3,12.318,M,40.583,M,2.7,0136*41\r\n
$GPGGA,120335.85,5700.9256815,N,00959.1684375,E,2,5,1.3,12.338,M,40.583,M,2.9,0136*4A\r\n
$GPGGA,120335.90,5700.9256816,N,00959.1684379,E,2,5,1.3,12.337,M,40.583,M,2.9,0136*4E\r\n
$GPGGA,120335.95,5700.9256818,N,00959.1684387,E,2,5,1.3,12.337,M,40.583,M,2.9,0136*44\r\n
$GPGGA,120336.00,5700.9256818,N,00959.1684390,E,2,5,1.3,12.337,M,40.583,M,2.9,0136*4D\r\n
$GPGGA,120336.05,5700.9256790,N,00959.1684420,E,2,5,1.3,12.359,M,40.583,M,1.7,0136*4E\r\n
$GPGGA,120336.10,5700.9256792,N,00959.1684426,E,2,5,1.3,12.358,M,40.583,M,1.7,0136*4F\r\n
$GPGGA,120336.15,5700.9256793,N,00959.1684428,E,2,5,1.3,12.358,M,40.583,M,1.7,0136*45\r\n
