$GPGGA,103111.15,5703.4233059,N,00952.3254235,E,2,11,0.9,-1.645,M,40.592,M,2.7,0123*6A\r\n
$GPGGA,103111.20,5703.4232989,N,00952.3253596,E,2,11,0.9,-1.645,M,40.592,M,2.7,0123*60\r\n
$GPGGA,103111.25,5703.4232912,N,00952.3252936,E,2,11,0.9,-1.647,M,40.592,M,2.9,0123*6C\r\n
$GPGGA,103111.30,5703.4232840,N,00952.3252272,E,2,11,0.9,-1.646,M,40.592,M,2.9,0123*64\r\n
$GPGGA,103111.35,5703.4232761,N,00952.3251630,E,2,11,0.9,-1.646,M,40.592,M,2.9,0123*6C\r\n
$GPGGA,103111.40,5703.4232685,N,00952.3250978,E,2,11,0.9,-1.646,M,40.592,M,2.9,0123*67\r\n
$GPGGA,103111.45,5703.4232609,N,00952.3250323,E,2,11,0.9,-1.648,M,40.592,M,3.1,0123*65\r\n
$GPGGA,103111.50,5703.4232539,N,00952.3249664,E,2,11,0.9,-1.648,M,40.592,M,3.1,0123*6F\r\n
$GPGGA,103111.55,5703.4232460,N,00952.3249024,E,2,11,0.9,-1.648,M,40.592,M,3.1,0123*65\r\n
$GPGGA,103111.60,5703.4232384,N,00952.3248376,E,2,11,0.9,-1.648,M,40.592,M,3.1,0123*6B\r\n
$GPGGA,103111.65,5703.4232319,N,00952.3247722,E,2,11,0.9,-1.652,M,40.592,M,3.4,0123*6E\r\n
$GPGGA,103111.70,5703.4232251,N,00952.3247062,E,2,11,0.9,-1.652,M,40.592,M,3.4,0123*64\r\n
$GPGGA,103111.75,5703.4232176,N,00952.3246396,E,2,11,0.9,-1.652,M,40.592,M,3.4,0123*6E\r\n
$GPGGA,103111.80,5703.4232109,N,00952.3245740,E,2,11,0.9,-1.650,M,40.592,M,3.4,0123*62\r\n
$GPGGA,103111.85,5703.4232038,N,00952.3245104,E,2,11,0.9,-1.645,M,40.592,M,2.0,0123*63\r\n
$GPGGA,103111.90,5703.4231974,N,00952.3244446,E,2,11,0.9,-1.645,M,40.592,M,2.0,0123*67\r\n
$GPGGA,103111.95,5703.4231899,N,00952.3243795,E,2,11,0.9,-1.645,M,40.592,M,2.0,0123*6A\r\n
$GPGGA,103112.00,5703.4231834,N,00952.3243137,E,2,11,0.9,-1.645,M,40.592,M,2.0,0123*6C\r\n
$GPGGA,103112.05,5703.4231771,N,00952.3242500,E,2,11,0.9,-1.646,M,40.592,M,2.4,0123*61\r\n
$GPGGA,103112.10,5703.4231698,N,00952.3241836,E,2,11,0.9,-1.645,M,40.592,M,2.4,0123*6B\r\n
$GPGGA,103112.15,5703.4231617,N,00952.3241187,E,2,11,0.9,-1.644,M,40.592,M,2.4,0123*6B\r\n
$GPGGA,103112.20,5703.4231540,N,00952.3240529,E,2,11,0.9,-1.643,M,40.592,M,2.4,0123*6A\r\n
$GPGGA,103112.25,5703.4231479,N,00952.3239871,E,2,11,0.9,-1.644,M,40.592,M,2.6,0123*6F\r\n
$GPGGA,103112.30,5703.4231408,N,00952.3239205,E,2,11,0.9,-1.645,M,40.592,M,2.6,0123*65\r\n
$GPGGA,103112.35,5703.4231338,N,00952.3238550,E,2,11,0.9,-1.644,M,40.592,M,2.6,0123*63\r\n
$GPGGA,103112.40,5703.4231270,N,00952.3237898,E,2,11,0.9,-1.644,M,40.592,M,2.6,0123*6A\r\n
$GPGGA,103112.45,5703.4231193,N,00952.3237236,E,2,11,0.9,-1.644,M,40.592,M,2.9,0123*60\r\n
$GPGGA,103112.50,5703.4231113,N,00952.3236570,E,2,11,0.9,-1.646,M,40.592,M,2.9,0123*6A\r\n
$GPGGA,103112.55,5703.4231042,N,00952.3235914,E,2,11,0.9,-1.646,M,40.592,M,2.9,0123*67\r\n
$GPGGA,103112.60,5703.4230977,N,00952.3235261,E,2,11,0.9,-1.645,M,40.592,M,2.9,0123*65\r\n
$GPGGA,103112.65,5703.4230905,N,00952.3234605,E,2,11,0.9,-1.643,M,40.592,M,3.2,0123*6E\r\n
$GPGGA,103112.70,5703.4230830,N,00952.3233950,E,2,11,0.9,-1.643,M,40.592,M,3.2,0123*65\r\n
$GPGGA,103112.75,5703.4230754,N,00952.3233297,E,2,11,0.9,-1.643,M,40.592,M,3.2,0123*6D\r\n
$GPGGA,103112.80,5703.4230690,N,00952.3232641,E,2,11,0.9,-1.641,M,40.592,M,3.2,0123*62\r\n
$GPGGA,103112.85,5703.4230619,N,00952.3231990,E,2,11,0.9,-1.644,M,40.592,M,1.2,0123*61\r\n
$GPGGA,103112.90,5703.4230546,N,00952.3231342,E,2,11,0.9,-1.645,M,40.592,M,1.2,0123*68\r\n
$GPGGA,103112.95,5703.4230481,N,00952.3230696,E,2,11,0.9,-1.645,M,40.592,M,1.2,0123*6A\r\n
$GPGGA,103113.00,5703.4230421,N,00952.3230046,E,2,11,0.9,-1.645,M,40.592,M,1.2,0123*66\r\n
$GPGGA,103113.05,5703.4230364,N,00952.3229409,E,2,11,0.9,-1.637,M,40.592,M,1.5,0123*60\r\n
$GPGGA,103113.10,5703.4230297,N,00952.3228751,E,2,11,0.9,-1.635,M,40.592,M,1.5,0123*64\r\n
$GPGGA,103113.15,5703.4230239,N,00952.3228101,E,2,11,0.9,-1.634,M,40.592,M,1.5,0123*67\r\n
$GPGGA,103113.20,5703.4230168,N,00952.3227449,E,2,11,0.9,-1.633,M,40.592,M,1.5,0123*67\r\n
$GPGGA,103113.25,5703.4230097,N,00952.3226801,E,2,11,0.9,-1.633,M,40.592,M,1.7,0123*60\r\n
$GPGGA,103113.30,5703.4230038,N,00952.3226148,E,2,11,0.9,-1.632,M,40.592,M,1.7,0123*64\r\n
$GPGGA,103113.35,5703.4229985,N,00952.3225478,E,2,11,0.9,-1.630,M,40.592,M,1.7,0123*61\r\n
$GPGGA,103113.40,5703.4229917,N,00952.3224826,E,2,11,0.9,-1.629,M,40.592,M,1.7,0123*66\r\n
$GPGGA,103113.45,5703.4229841,N,00952.3224177,E,2,11,0.9,-1.632,M,40.592,M,2.0,0123*62\r\n
$GPGGA,103113.50,5703.4229774,N,00952.3223533,E,2,11,0.9,-1.633,M,40.592,M,2.0,0123*6D\r\n
$GPGGA,103113.55,5703.4229709,N,00952.3222886,E,2,11,0.9,-1.634,M,40.592,M,2.0,0123*67\r\n
$GPGGA,103113.60,5703.4229646,N,00952.3222233,E,2,11,0.9,-1.634,M,40.592,M,2.0,0123*6F\r\n
$GPGGA,103113.65,5703.4229571,N,00952.3221582,E,2,11,0.9,-1.635,M,40.592,M,2.2,0123*60\r\n
$GPGGA,103113.70,5703.4229496,N,00952.3220928,E,2,11,0.9,-1.637,M,40.592,M,2.2,0123*63\r\n
$GPGGA,103113.75,5703.4229429,N,00952.3220276,E,2,11,0.9,-1.638,M,40.592,M,2.2,0123*6D\r\n
$GPGGA,103113.80,5703.4229358,N,00952.3219633,E,2,11,0.9,-1.639,M,40.592,M,2.2,0123*68\r\n
$GPGGA,103113.85,5703.4229291,N,00952.3218995,E,2,11,0.9,-1.640,M,40.592,M,1.4,0123*60\r\n
$GPGGA,103113.90,5703.4229226,N,00952.3218337,E,2,11,0.9,-1.640,M,40.592,M,1.4,0123*6A\r\n
$GPGGA,103113.95,5703.4229161,N,00952.3217678,E,2,11,0.9,-1.641,M,40.592,M,1.4,0123*6F\r\n
$GPGGA,103114.00,5703.4229093,N,00952.3217035,E,2,11,0.9,-1.643,M,40.592,M,1.4,0123*65\r\n
$GPGGA,103114.05,5703.4229032,N,00952.3216397,E,2,11,0.9,-1.639,M,40.592,M,1.6,0123*6E\r\n
$GPGGA,103114.10,5703.4228970,N,00952.3215740,E,2,11,0.9,-1.639,M,40.592,M,1.6,0123*69\r\n
$GPGGA,103114.15,5703.4228911,N,00952.3215096,E,2,11,0.9,-1.637,M,40.592,M,1.6,0123*69\r\n
$GPGGA,103114.20,5703.4228844,N,00952.3214446,E,2,11,0.9,-1.637,M,40.592,M,1.6,0123*66\r\n
$GPGGA,103114.25,5703.4228778,N,00952.3213798,E,2,11,0.9,-1.636,M,40.592,M,1.9,0123*6A\r\n
$GPGGA,103114.30,5703.4228717,N,00952.3213143,E,2,11,0.9,-1.636,M,40.592,M,1.9,0123*67\r\n
$GPGGA,103114.35,5703.4228651,N,00952.3212490,E,2,11,0.9,-1.635,M,40.592,M,1.9,0123*68\r\n
$GPGGA,103114.40,5703.4228579,N,00952.3211838,E,2,11,0.9,-1.636,M,40.592,M,1.9,0123*6D\r\n
$GPGGA,103114.45,5703.4228509,N,00952.3211197,E,2,11,0.9,-1.638,M,40.592,M,2.1,0123*66\r\n
$GPGGA,103114.50,5703.4228447,N,00952.3210538,E,2,11,0.9,-1.638,M,40.592,M,2.1,0123*69\r\n
$GPGGA,103114.55,5703.4228379,N,00952.3209874,E,2,11,0.9,-1.640,M,40.592,M,2.1,0123*64\r\n
$GPGGA,103114.60,5703.4228300,N,00952.3209224,E,2,11,0.9,-1.643,M,40.592,M,2.1,0123*60\r\n
$GPGGA,103114.65,5703.4228239,N,00952.3208574,E,2,11,0.9,-1.641,M,40.592,M,2.3,0123*6D\r\n
$GPGGA,103114.70,5703.4228182,N,00952.3207903,E,2,11,0.9,-1.639,M,40.592,M,2.3,0123*66\r\n
$GPGGA,103114.75,5703.4228113,N,00952.3207243,E,2,11,0.9,-1.639,M,40.592,M,2.3,0123*64\r\n
$GPGGA,103114.80,5703.4228049,N,00952.3206587,E,2,11,0.9,-1.639,M,40.592,M,2.3,0123*6E\r\n
$GPGGA,103114.85,5703.4227990,N,00952.3205932,E,2,11,0.9,-1.638,M,40.592,M,2.5,0123*6F\r\n
$GPGGA,103114.90,5703.4227926,N,00952.3205283,E,2,11,0.9,-1.639,M,40.592,M,2.5,0123*66\r\n
$GPGGA,103114.95,5703.4227873,N,00952.3204614,E,2,11,0.9,-1.636,M,40.592,M,2.5,0123*66\r\n
$GPGGA,103115.00,5703.4227815,N,00952.3203946,E,2,11,0.9,-1.636,M,40.592,M,2.5,0123*64\r\n
$GPGGA,103115.05,5703.4227756,N,00952.3203286,E,2,11,0.9,-1.636,M,40.592,M,2.7,0123*6C\r\n
$GPGGA,103115.10,5703.4227684,N,00952.3202626,E,2,11,0.9,-1.634,M,40.592,M,2.7,0123*6B\r\n
$GPGGA,103115.15,5703.4227628,N,00952.3201965,E,2,11,0.9,-1.634,M,40.592,M,2.7,0123*63\r\n
$GPGGA,103115.20,5703.4227572,N,00952.3201305,E,2,11,0.9,-1.631,M,40.592,M,2.7,0123*60\r\n
$GPGGA,103115.25,5703.4227507,N,00952.3200651,E,2,11,0.9,-1.627,M,40.592,M,2.9,0123*6B\r\n
$GPGGA,103115.30,5703.4227438,N,00952.3200001,E,2,11,0.9,-1.625,M,40.592,M,2.9,0123*63\r\n
$GPGGA,103115.35,5703.4227377,N,00952.3199342,E,2,11,0.9,-1.624,M,40.592,M,2.9,0123*6C\r\n
$GPGGA,103115.40,5703.4227317,N,00952.3198685,E,2,11,0.9,-1.622,M,40.592,M,2.9,0123*61\r\n
$GPGGA,103115.45,5703.4227255,N,00952.3198035,E,2,11,0.9,-1.619,M,40.592,M,3.1,0123*6F\r\n
$GPGGA,103115.50,5703.4227190,N,00952.3197381,E,2,11,0.9,-1.617,M,40.592,M,3.1,0123*6C\r\n
$GPGGA,103115.55,5703.4227118,N,00952.3196726,E,2,11,0.9,-1.615,M,40.592,M,3.1,0123*63\r\n
$GPGGA,103115.60,5703.4227049,N,00952.3196089,E,2,11,0.9,-1.613,M,40.592,M,3.1,0123*64\r\n
$GPGGA,103115.65,5703.4226987,N,00952.3195437,E,2,11,0.9,-1.613,M,40.592,M,3.4,0123*6C\r\n
$GPGGA,103115.70,5703.4226915,N,00952.3194787,E,2,11,0.9,-1.613,M,40.592,M,3.4,0123*6A\r\n
$GPGGA,103115.75,5703.4226836,N,00952.3194141,E,2,11,0.9,-1.613,M,40.592,M,3.4,0123*63\r\n
$GPGGA,103115.80,5703.4226760,N,00952.3193498,E,2,11,0.9,-1.615,M,40.592,M,3.4,0123*65\r\n
$GPGGA,103115.85,5703.4226697,N,00952.3192851,E,2,11,0.9,-1.615,M,40.592,M,2.0,0123*64\r\n
$GPGGA,103115.90,5703.4226623,N,00952.3192211,E,2,11,0.9,-1.615,M,40.592,M,2.0,0123*61\r\n
$GPGGA,103115.95,5703.4226557,N,00952.3191568,E,2,11,0.9,-1.616,M,40.592,M,2.0,0123*6D\r\n
$GPGGA,103116.00,5703.4226487,N,00952.3190922,E,2,11,0.9,-1.617,M,40.592,M,2.0,0123*6C\r\n
$GPGGA,103116.05,5703.4226422,N,00952.3190281,E,2,11,0.9,-1.620,M,40.592,M,2.4,0123*64\r\n
$GPGGA,103116.10,5703.4226357,N,00952.3189626,E,2,11,0.9,-1.621,M,40.592,M,2.4,0123*65\r\n
$GPGGA,103116.15,5703.4226282,N,00952.3188966,E,2,11,0.9,-1.624,M,40.592,M,2.4,0123*66\r\n
$GPGGA,103116.20,5703.4226209,N,00952.3188310,E,2,11,0.9,-1.626,M,40.592,M,2.4,0123*6A\r\n
$GPGGA,103116.25,5703.4226137,N,00952.3187646,E,2,11,0.9,-1.625,M,40.592,M,2.6,0123*69\r\n
$GPGGA,103116.30,5703.4226068,N,00952.3186984,E,2,11,0.9,-1.626,M,40.592,M,2.6,0123*65\r\n
$GPGGA,103116.35,5703.4225998,N,00952.3186312,E,2,11,0.9,-1.626,M,40.592,M,2.6,0123*60\r\n
$GPGGA,103116.40,5703.4225930,N,00952.3185624,E,2,11,0.9,-1.623,M,40.592,M,2.6,0123*66\r\n
$GPGGA,103116.45,5703.4225850,N,00952.3184927,E,2,11,0.9,-1.623,M,40.592,M,2.9,0123*66\r\n
$GPGGA,103116.50,5703.4225780,N,00952.3184228,E,2,11,0.9,-1.620,M,40.592,M,2.9,0123*67\r\n
$GPGGA,103116.55,5703.4225708,N,00952.3183518,E,2,11,0.9,-1.621,M,40.592,M,2.9,0123*60\r\n
$GPGGA,103116.60,5703.4225643,N,00952.3182786,E,2,11,0.9,-1.619,M,40.592,M,2.9,0123*67\r\n
$GPGGA,103116.65,5703.4225573,N,00952.3182047,E,2,11,0.9,-1.616,M,40.592,M,3.2,0123*6D\r\n
$GPGGA,103116.70,5703.4225504,N,00952.3181298,E,2,11,0.9,-1.615,M,40.592,M,3.2,0123*69\r\n
$GPGGA,103116.75,5703.4225434,N,00952.3180522,E,2,11,0.9,-1.608,M,40.592,M,3.2,0123*65\r\n
$GPGGA,103116.80,5703.4225358,N,00952.3179751,E,2,11,0.9,-1.604,M,40.592,M,3.2,0123*6E\r\n
$GPGGA,103116.85,5703.4225290,N,00952.3178944,E,2,11,0.9,-1.598,M,40.592,M,1.2,0123*61\r\n
$GPGGA,103116.90,5703.4225222,N,00952.3178124,E,2,11,0.9,-1.592,M,40.592,M,1.2,0123*68\r\n
$GPGGA,103116.95,5703.4225146,N,00952.3177293,E,2,11,0.9,-1.589,M,40.592,M,1.2,0123*66\r\n
$GPGGA,103117.00,5703.4225066,N,00952.3176436,E,2,11,0.9,-1.584,M,40.592,M,1.2,0123*6D\r\n
$GPGGA,103117.05,5703.4224989,N,00952.3175563,E,2,11,0.9,-1.573,M,40.592,M,1.5,0123*6C\r\n
$GPGGA,103117.10,5703.4224907,N,00952.3174678,E,2,11,0.9,-1.568,M,40.592,M,1.5,0123*6C\r\n
$GPGGA,103117.15,5703.4224823,N,00952.3173767,E,2,11,0.9,-1.565,M,40.592,M,1.5,0123*6B\r\n
$GPGGA,103117.20,5703.4224740,N,00952.3172849,E,2,11,0.9,-1.560,M,40.592,M,1.5,0123*60\r\n
$GPGGA,103117.25,5703.4224661,N,00952.3171906,E,2,11,0.9,-1.558,M,40.592,M,1.7,0123*67\r\n
$GPGGA,103117.30,5703.4224574,N,00952.3170955,E,2,11,0.9,-1.553,M,40.592,M,1.7,0123*68\r\n
$GPGGA,103117.35,5703.4224488,N,00952.3169971,E,2,11,0.9,-1.547,M,40.592,M,1.7,0123*64\r\n
$GPGGA,103117.40,5703.4224394,N,00952.3168969,E,2,11,0.9,-1.545,M,40.592,M,1.7,0123*66\r\n
$GPGGA,103117.45,5703.4224294,N,00952.3167968,E,2,11,0.9,-1.546,M,40.592,M,2.0,0123*6B\r\n
$GPGGA,103117.50,5703.4224203,N,00952.3166950,E,2,11,0.9,-1.542,M,40.592,M,2.0,0123*6F\r\n
$GPGGA,103117.55,5703.4224112,N,00952.3165911,E,2,11,0.9,-1.541,M,40.592,M,2.0,0123*6C\r\n
$GPGGA,103117.60,5703.4224012,N,00952.3164847,E,2,11,0.9,-1.540,M,40.592,M,2.0,0123*69\r\n
$GPGGA,103117.65,5703.4223925,N,00952.3163781,E,2,11,0.9,-1.534,M,40.592,M,2.2,0123*65\r\n
$GPGGA,103117.70,5703.4223825,N,00952.3162711,E,2,11,0.9,-1.531,M,40.592,M,2.2,0123*6D\r\n
$GPGGA,103117.75,5703.4223714,N,00952.3161625,E,2,11,0.9,-1.530,M,40.592,M,2.2,0123*61\r\n
$GPGGA,103117.80,5703.4223606,N,00952.3160527,E,2,11,0.9,-1.529,M,40.592,M,2.2,0123*61\r\n
$GPGGA,103117.85,5703.4223505,N,00952.3159403,E,2,11,0.9,-1.529,M,40.592,M,1.4,0123*6C\r\n
$GPGGA,103117.90,5703.4223403,N,00952.3158273,E,2,11,0.9,-1.527,M,40.592,M,1.4,0123*61\r\n
$GPGGA,103117.95,5703.4223292,N,00952.3157144,E,2,11,0.9,-1.528,M,40.592,M,1.4,0123*6D\r\n
$GPGGA,103118.00,5703.4223171,N,00952.3155998,E,2,11,0.9,-1.527,M,40.592,M,1.4,0123*64\r\n
$GPGGA,103118.05,5703.4223061,N,00952.3154847,E,2,11,0.9,-1.532,M,40.592,M,1.6,0123*65\r\n
$GPGGA,103118.10,5703.4222959,N,00952.3153675,E,2,11,0.9,-1.534,M,40.592,M,1.6,0123*6C\r\n
$GPGGA,103118.15,5703.4222843,N,00952.3152505,E,2,11,0.9,-1.536,M,40.592,M,1.6,0123*64\r\n
$GPGGA,103118.20,5703.4222727,N,00952.3151326,E,2,11,0.9,-1.536,M,40.592,M,1.6,0123*6B\r\n
$GPGGA,103118.25,5703.4222613,N,00952.3150133,E,2,11,0.9,-1.534,M,40.592,M,1.9,0123*62\r\n
$GPGGA,103118.30,5703.4222499,N,00952.3148937,E,2,11,0.9,-1.534,M,40.592,M,1.9,0123*63\r\n
$GPGGA,103118.35,5703.4222389,N,00952.3147742,E,2,11,0.9,-1.535,M,40.592,M,1.9,0123*62\r\n
$GPGGA,103118.40,5703.4222272,N,00952.3146541,E,2,11,0.9,-1.536,M,40.592,M,1.9,0123*66\r\n
$GPGGA,103118.45,5703.4222161,N,00952.3145331,E,2,11,0.9,-1.537,M,40.592,M,2.1,0123*6A\r\n
$GPGGA,103118.50,5703.4222038,N,00952.3144110,E,2,11,0.9,-1.537,M,40.592,M,2.1,0123*63\r\n
$GPGGA,103118.55,5703.4221909,N,00952.3142883,E,2,11,0.9,-1.537,M,40.592,M,2.1,0123*6B\r\n
$GPGGA,103118.60,5703.4221784,N,00952.3141664,E,2,11,0.9,-1.535,M,40.592,M,2.1,0123*60\r\n
$GPGGA,103118.65,5703.4221665,N,00952.3140451,E,2,11,0.9,-1.535,M,40.592,M,2.3,0123*6C\r\n
$GPGGA,103118.70,5703.4221548,N,00952.3139212,E,2,11,0.9,-1.535,M,40.592,M,2.3,0123*6B\r\n
$GPGGA,103118.75,5703.4221420,N,00952.3137973,E,2,11,0.9,-1.535,M,40.592,M,2.3,0123*63\r\n
$GPGGA,103118.80,5703.4221296,N,00952.3136730,E,2,11,0.9,-1.533,M,40.592,M,2.3,0123*6C\r\n
$GPGGA,103118.85,5703.4221180,N,00952.3135477,E,2,11,0.9,-1.535,M,40.592,M,2.5,0123*6E\r\n
$GPGGA,103118.90,5703.4221060,N,00952.3134224,E,2,11,0.9,-1.533,M,40.592,M,2.5,0123*62\r\n
$GPGGA,103118.95,5703.4220936,N,00952.3132960,E,2,11,0.9,-1.535,M,40.592,M,2.5,0123*67\r\n
$GPGGA,103119.00,5703.4220804,N,00952.3131697,E,2,11,0.9,-1.536,M,40.592,M,2.5,0123*6D\r\n
$GPGGA,103119.05,5703.4220674,N,00952.3130435,E,2,11,0.9,-1.534,M,40.592,M,2.7,0123*6A\r\n
$GPGGA,103119.10,5703.4220546,N,00952.3129142,E,2,11,0.9,-1.538,M,40.592,M,2.7,0123*6D\r\n
$GPGGA,103119.15,5703.4220419,N,00952.3127863,E,2,11,0.9,-1.540,M,40.592,M,2.7,0123*68\r\n
$GPGGA,103119.20,5703.4220288,N,00952.3126573,E,2,11,0.9,-1.541,M,40.592,M,2.7,0123*6C\r\n
$GPGGA,103119.25,5703.4220141,N,00952.3125291,E,2,11,0.9,-1.547,M,40.592,M,2.9,0123*6F\r\n
$GPGGA,103119.30,5703.4220005,N,00952.3124003,E,2,11,0.9,-1.548,M,40.592,M,2.9,0123*6D\r\n
$GPGGA,103119.35,5703.4219860,N,00952.3122696,E,2,11,0.9,-1.552,M,40.592,M,2.9,0123*6E\r\n
$GPGGA,103119.40,5703.4219730,N,00952.3121397,E,2,11,0.9,-1.555,M,40.592,M,2.9,0123*66\r\n
$GPGGA,103119.45,5703.4219599,N,00952.3120089,E,2,11,0.9,-1.554,M,40.592,M,3.1,0123*67\r\n
$GPGGA,103119.50,5703.4219456,N,00952.3118784,E,2,11,0.9,-1.554,M,40.592,M,3.1,0123*60\r\n
$GPGGA,103119.55,5703.4219303,N,00952.3117483,E,2,11,0.9,-1.555,M,40.592,M,3.1,0123*68\r\n
$GPGGA,103119.60,5703.4219149,N,00952.3116187,E,2,11,0.9,-1.555,M,40.592,M,3.1,0123*62\r\n
$GPGGA,103119.65,5703.4219004,N,00952.3114881,E,2,11,0.9,-1.550,M,40.592,M,3.4,0123*62\r\n
$GPGGA,103119.70,5703.4218861,N,00952.3113569,E,2,11,0.9,-1.549,M,40.592,M,3.4,0123*68\r\n
$GPGGA,103119.75,5703.4218732,N,00952.3112252,E,2,11,0.9,-1.550,M,40.592,M,3.4,0123*62\r\n
$GPGGA,103119.80,5703.4218598,N,00952.3110934,E,2,11,0.9,-1.549,M,40.592,M,3.4,0123*6B\r\n
$GPGGA,103119.85,5703.4218458,N,00952.3109609,E,2,11,0.9,-1.546,M,40.592,M,2.0,0123*60\r\n
$GPGGA,103119.90,5703.4218314,N,00952.3108277,E,2,11,0.9,-1.544,M,40.592,M,2.0,0123*65\r\n
$GPGGA,103119.95,5703.4218169,N,00952.3106957,E,2,11,0.9,-1.545,M,40.592,M,2.0,0123*6E\r\n
$GPGGA,103120.00,5703.4218018,N,00952.3105631,E,2,11,0.9,-1.544,M,40.592,M,2.0,0123*62\r\n
$GPGGA,103120.05,5703.4217865,N,00952.3104303,E,2,11,0.9,-1.540,M,40.592,M,2.4,0123*6F\r\n
$GPGGA,103120.10,5703.4217717,N,00952.3102962,E,2,11,0.9,-1.541,M,40.592,M,2.4,0123*6B\r\n
$GPGGA,103120.15,5703.4217564,N,00952.3101619,E,2,11,0.9,-1.541,M,40.592,M,2.4,0123*68\r\n
$GPGGA,103120.20,5703.4217412,N,00952.3100270,E,2,11,0.9,-1.542,M,40.592,M,2.4,0123*67\r\n
$GPGGA,103120.25,5703.4217245,N,00952.3098925,E,2,11,0.9,-1.549,M,40.592,M,2.6,0123*64\r\n
$GPGGA,103120.30,5703.4217073,N,00952.3097584,E,2,11,0.9,-1.552,M,40.592,M,2.6,0123*65\r\n
$GPGGA,103120.35,5703.4216923,N,00952.3096233,E,2,11,0.9,-1.556,M,40.592,M,2.6,0123*63\r\n
$GPGGA,103120.40,5703.4216771,N,00952.3094870,E,2,11,0.9,-1.557,M,40.592,M,2.6,0123*66\r\n
$GPGGA,103120.45,5703.4216625,N,00952.3093516,E,2,11,0.9,-1.557,M,40.592,M,2.9,0123*66\r\n
$GPGGA,103120.50,5703.4216474,N,00952.3092143,E,2,11,0.9,-1.557,M,40.592,M,2.9,0123*61\r\n
$GPGGA,103120.55,5703.4216304,N,00952.3090794,E,2,11,0.9,-1.561,M,40.592,M,2.9,0123*6F\r\n
$GPGGA,103120.60,5703.4216139,N,00952.3089442,E,2,11,0.9,-1.561,M,40.592,M,2.9,0123*65\r\n
$GPGGA,103120.65,5703.4215974,N,00952.3088082,E,2,11,0.9,-1.565,M,40.592,M,3.2,0123*65\r\n
$GPGGA,103120.70,5703.4215821,N,00952.3086716,E,2,11,0.9,-1.564,M,40.592,M,3.2,0123*65\r\n
$GPGGA,103120.75,5703.4215667,N,00952.3085352,E,2,11,0.9,-1.564,M,40.592,M,3.2,0123*6B\r\n
$GPGGA,103120.80,5703.4215507,N,00952.3083985,E,2,11,0.9,-1.563,M,40.592,M,3.2,0123*65\r\n
$GPGGA,103120.85,5703.4215352,N,00952.3082618,E,2,11,0.9,-1.562,M,40.592,M,1.2,0123*6F\r\n
$GPGGA,103120.90,5703.4215183,N,00952.3081251,E,2,11,0.9,-1.561,M,40.592,M,1.2,0123*6C\r\n
$GPGGA,103120.95,5703.4215023,N,00952.3079878,E,2,11,0.9,-1.559,M,40.592,M,1.2,0123*6F\r\n
$GPGGA,103121.00,5703.4214856,N,00952.3078498,E,2,11,0.9,-1.557,M,40.592,M,1.2,0123*64\r\n
$GPGGA,103121.05,5703.4214685,N,00952.3077123,E,2,11,0.9,-1.555,M,40.592,M,1.5,0123*6E\r\n
$GPGGA,103121.10,5703.4214502,N,00952.3075749,E,2,11,0.9,-1.552,M,40.592,M,1.5,0123*69\r\n
$GPGGA,103121.15,5703.4214337,N,00952.3074371,E,2,11,0.9,-1.552,M,40.592,M,1.5,0123*62\r\n
$GPGGA,103121.20,5703.4214176,N,00952.3072979,E,2,11,0.9,-1.550,M,40.592,M,1.5,0123*65\r\n
$GPGGA,103121.25,5703.4214014,N,00952.3071591,E,2,11,0.9,-1.547,M,40.592,M,1.7,0123*68\r\n
$GPGGA,103121.30,5703.4213836,N,00952.3070219,E,2,11,0.9,-1.544,M,40.592,M,1.7,0123*66\r\n
$GPGGA,103121.35,5703.4213656,N,00952.3068829,E,2,11,0.9,-1.540,M,40.592,M,1.7,0123*6F\r\n
$GPGGA,103121.40,5703.4213476,N,00952.3067447,E,2,11,0.9,-1.537,M,40.592,M,1.7,0123*66\r\n
$GPGGA,103121.45,5703.4213290,N,00952.3066035,E,2,11,0.9,-1.536,M,40.592,M,2.0,0123*68\r\n
$GPGGA,103121.50,5703.4213119,N,00952.3064620,E,2,11,0.9,-1.535,M,40.592,M,2.0,0123*6D\r\n
$GPGGA,103121.55,5703.4212934,N,00952.3063214,E,2,11,0.9,-1.534,M,40.592,M,2.0,0123*6B\r\n
$GPGGA,103121.60,5703.4212746,N,00952.3061808,E,2,11,0.9,-1.534,M,40.592,M,2.0,0123*63\r\n
$GPGGA,103121.65,5703.4212553,N,00952.3060405,E,2,11,0.9,-1.535,M,40.592,M,2.2,0123*63\r\n
$GPGGA,103121.70,5703.4212369,N,00952.3058985,E,2,11,0.9,-1.536,M,40.592,M,2.2,0123*65\r\n
$GPGGA,103121.75,5703.4212183,N,00952.3057559,E,2,11,0.9,-1.537,M,40.592,M,2.2,0123*65\r\n
$GPGGA,103121.80,5703.4211987,N,00952.3056131,E,2,11,0.9,-1.541,M,40.592,M,2.2,0123*6A\r\n
$GPGGA,103121.85,5703.4211786,N,00952.3054700,E,2,11,0.9,-1.546,M,40.592,M,1.4,0123*64\r\n
$GPGGA,103121.90,5703.4211583,N,00952.3053280,E,2,11,0.9,-1.546,M,40.592,M,1.4,0123*6D\r\n
$GPGGA,103121.95,5703.4211380,N,00952.3051858,E,2,11,0.9,-1.547,M,40.592,M,1.4,0123*61\r\n
$GPGGA,103122.00,5703.4211171,N,00952.3050433,E,2,11,0.9,-1.548,M,40.592,M,1.4,0123*6D\r\n
$GPGGA,103122.05,5703.4210959,N,00952.3049037,E,2,11,0.9,-1.551,M,40.592,M,1.6,0123*69\r\n
$GPGGA,103122.10,5703.4210764,N,00952.3047640,E,2,11,0.9,-1.552,M,40.592,M,1.6,0123*66\r\n
$GPGGA,103122.15,5703.4210557,N,00952.3046228,E,2,11,0.9,-1.551,M,40.592,M,1.6,0123*69\r\n
$GPGGA,103122.20,5703.4210348,N,00952.3044822,E,2,11,0.9,-1.548,M,40.592,M,1.6,0123*6D\r\n
$GPGGA,103122.25,5703.4210147,N,00952.3043428,E,2,11,0.9,-1.535,M,40.592,M,1.9,0123*61\r\n
$GPGGA,103122.30,5703.4209938,N,00952.3042030,E,2,11,0.9,-1.530,M,40.592,M,1.9,0123*64\r\n
$GPGGA,103122.35,5703.4209730,N,00952.3040638,E,2,11,0.9,-1.525,M,40.592,M,1.9,0123*6F\r\n
$GPGGA,103122.40,5703.4209521,N,00952.3039246,E,2,11,0.9,-1.518,M,40.592,M,1.9,0123*62\r\n
$GPGGA,103122.45,5703.4209301,N,00952.3037869,E,2,11,0.9,-1.509,M,40.592,M,2.1,0123*61\r\n
$GPGGA,103122.50,5703.4209078,N,00952.3036474,E,2,11,0.9,-1.504,M,40.592,M,2.1,0123*64\r\n
$GPGGA,103122.55,5703.4208852,N,00952.3035085,E,2,11,0.9,-1.500,M,40.592,M,2.1,0123*6D\r\n
$GPGGA,103122.60,5703.4208638,N,00952.3033689,E,2,11,0.9,-1.496,M,40.592,M,2.1,0123*6B\r\n
$GPGGA,103122.65,5703.4208416,N,00952.3032288,E,2,11,0.9,-1.497,M,40.592,M,2.3,0123*67\r\n
$GPGGA,103122.70,5703.4208191,N,00952.3030896,E,2,11,0.9,-1.497,M,40.592,M,2.3,0123*6E\r\n
$GPGGA,103122.75,5703.4207966,N,00952.3029504,E,2,11,0.9,-1.497,M,40.592,M,2.3,0123*6A\r\n
$GPGGA,103122.80,5703.4207741,N,00952.3028098,E,2,11,0.9,-1.500,M,40.592,M,2.3,0123*65\r\n
$GPGGA,103122.85,5703.4207516,N,00952.3026701,E,2,11,0.9,-1.505,M,40.592,M,2.5,0123*6A\r\n
$GPGGA,103122.90,5703.4207297,N,00952.3025301,E,2,11,0.9,-1.507,M,40.592,M,2.5,0123*65\r\n
$GPGGA,103122.95,5703.4207077,N,00952.3023886,E,2,11,0.9,-1.509,M,40.592,M,2.5,0123*60\r\n
$GPGGA,103123.00,5703.4206863,N,00952.3022477,E,2,11,0.9,-1.514,M,40.592,M,2.5,0123*6E\r\n
$GPGGA,103123.05,5703.4206632,N,00952.3021071,E,2,11,0.9,-1.526,M,40.592,M,2.7,0123*63\r\n
$GPGGA,103123.10,5703.4206406,N,00952.3019682,E,2,11,0.9,-1.531,M,40.592,M,2.7,0123*65\r\n
$GPGGA,103123.15,5703.4206170,N,00952.3018297,E,2,11,0.9,-1.533,M,40.592,M,2.7,0123*67\r\n
$GPGGA,103123.20,5703.4205940,N,00952.3016924,E,2,11,0.9,-1.536,M,40.592,M,2.7,0123*61\r\n
$GPGGA,103123.25,5703.4205708,N,00952.3015539,E,2,11,0.9,-1.536,M,40.592,M,2.9,0123*6B\r\n
$GPGGA,103123.30,5703.4205481,N,00952.3014161,E,2,11,0.9,-1.535,M,40.592,M,2.9,0123*66\r\n
$GPGGA,103123.35,5703.4205249,N,00952.3012799,E,2,11,0.9,-1.535,M,40.592,M,2.9,0123*66\r\n
$GPGGA,103123.40,5703.4205013,N,00952.3011438,E,2,11,0.9,-1.532,M,40.592,M,2.9,0123*65\r\n
$GPGGA,103123.45,5703.4204790,N,00952.3010076,E,2,11,0.9,-1.524,M,40.592,M,3.1,0123*6C\r\n
$GPGGA,103123.50,5703.4204557,N,00952.3008704,E,2,11,0.9,-1.522,M,40.592,M,3.1,0123*6C\r\n
$GPGGA,103123.55,5703.4204320,N,00952.3007331,E,2,11,0.9,-1.518,M,40.592,M,3.1,0123*6B\r\n
$GPGGA,103123.60,5703.4204079,N,00952.3005968,E,2,11,0.9,-1.513,M,40.592,M,3.1,0123*6D\r\n
$GPGGA,103123.65,5703.4203837,N,00952.3004606,E,2,11,0.9,-1.512,M,40.592,M,3.4,0123*6F\r\n
$GPGGA,103123.70,5703.4203599,N,00952.3003236,E,2,11,0.9,-1.510,M,40.592,M,3.4,0123*60\r\n
$GPGGA,103123.75,5703.4203366,N,00952.3001876,E,2,11,0.9,-1.507,M,40.592,M,3.4,0123*69\r\n
$GPGGA,103123.80,5703.4203120,N,00952.3000502,E,2,11,0.9,-1.508,M,40.592,M,3.4,0123*63\r\n
$GPGGA,103123.85,5703.4202880,N,00952.2999117,E,2,11,0.9,-1.505,M,40.592,M,2.0,0123*64\r\n
$GPGGA,103123.90,5703.4202637,N,00952.2997741,E,2,11,0.9,-1.505,M,40.592,M,2.0,0123*69\r\n
$GPGGA,103123.95,5703.4202392,N,00952.2996362,E,2,11,0.9,-1.507,M,40.592,M,2.0,0123*60\r\n
$GPGGA,103124.00,5703.4202141,N,00952.2994983,E,2,11,0.9,-1.510,M,40.592,M,2.0,0123*66\r\n
$GPGGA,103124.05,5703.4201889,N,00952.2993619,E,2,11,0.9,-1.516,M,40.592,M,2.4,0123*64\r\n
$GPGGA,103124.10,5703.4201647,N,00952.2992252,E,2,11,0.9,-1.517,M,40.592,M,2.4,0123*67\r\n
$GPGGA,103124.15,5703.4201405,N,00952.2990885,E,2,11,0.9,-1.516,M,40.592,M,2.4,0123*65\r\n
$GPGGA,103124.20,5703.4201157,N,00952.2989522,E,2,11,0.9,-1.518,M,40.592,M,2.4,0123*67\r\n
$GPGGA,103124.25,5703.4200905,N,00952.2988164,E,2,11,0.9,-1.527,M,40.592,M,2.6,0123*65\r\n
$GPGGA,103124.30,5703.4200656,N,00952.2986802,E,2,11,0.9,-1.529,M,40.592,M,2.6,0123*61\r\n
$GPGGA,103124.35,5703.4200413,N,00952.2985438,E,2,11,0.9,-1.530,M,40.592,M,2.6,0123*69\r\n
$GPGGA,103124.40,5703.4200155,N,00952.2984087,E,2,11,0.9,-1.534,M,40.592,M,2.6,0123*69\r\n
$GPGGA,103124.45,5703.4199895,N,00952.2982745,E,2,11,0.9,-1.534,M,40.592,M,2.9,0123*6A\r\n
$GPGGA,103124.50,5703.4199638,N,00952.2981387,E,2,11,0.9,-1.532,M,40.592,M,2.9,0123*68\r\n
$GPGGA,103124.55,5703.4199376,N,00952.2980047,E,2,11,0.9,-1.532,M,40.592,M,2.9,0123*6C\r\n
$GPGGA,103124.60,5703.4199106,N,00952.2978707,E,2,11,0.9,-1.534,M,40.592,M,2.9,0123*6D\r\n
$GPGGA,103124.65,5703.4198836,N,00952.2977347,E,2,11,0.9,-1.532,M,40.592,M,3.2,0123*60\r\n
$GPGGA,103124.70,5703.4198562,N,00952.2975997,E,2,11,0.9,-1.531,M,40.592,M,3.2,0123*6E\r\n
$GPGGA,103124.75,5703.4198284,N,00952.2974660,E,2,11,0.9,-1.531,M,40.592,M,3.2,0123*62\r\n
$GPGGA,103124.80,5703.4198005,N,00952.2973317,E,2,11,0.9,-1.532,M,40.592,M,3.2,0123*62\r\n
$GPGGA,103124.85,5703.4197715,N,00952.2971988,E,2,11,0.9,-1.528,M,40.592,M,1.2,0123*69\r\n
$GPGGA,103124.90,5703.4197446,N,00952.2970650,E,2,11,0.9,-1.525,M,40.592,M,1.2,0123*6E\r\n
$GPGGA,103124.95,5703.4197181,N,00952.2969288,E,2,11,0.9,-1.524,M,40.592,M,1.2,0123*6D\r\n
$GPGGA,103125.00,5703.4196903,N,00952.2967943,E,2,11,0.9,-1.524,M,40.592,M,1.2,0123*61\r\n
$GPGGA,103125.05,5703.4196617,N,00952.2966597,E,2,11,0.9,-1.525,M,40.592,M,1.5,0123*6C\r\n
$GPGGA,103125.10,5703.4196336,N,00952.2965239,E,2,11,0.9,-1.526,M,40.592,M,1.5,0123*6D\r\n
$GPGGA,103125.15,5703.4196057,N,00952.2963880,E,2,11,0.9,-1.527,M,40.592,M,1.5,0123*63\r\n
$GPGGA,103125.20,5703.4195783,N,00952.2962509,E,2,11,0.9,-1.528,M,40.592,M,1.5,0123*6A\r\n
$GPGGA,103125.25,5703.4195514,N,00952.2961149,E,2,11,0.9,-1.523,M,40.592,M,1.7,0123*69\r\n
$GPGGA,103125.30,5703.4195225,N,00952.2959780,E,2,11,0.9,-1.522,M,40.592,M,1.7,0123*61\r\n
$GPGGA,103125.35,5703.4194939,N,00952.2958420,E,2,11,0.9,-1.521,M,40.592,M,1.7,0123*68\r\n
$GPGGA,103125.40,5703.4194650,N,00952.2957051,E,2,11,0.9,-1.521,M,40.592,M,1.7,0123*67\r\n
$GPGGA,103125.45,5703.4194353,N,00952.2955683,E,2,11,0.9,-1.527,M,40.592,M,2.0,0123*6D\r\n
$GPGGA,103125.50,5703.4194067,N,00952.2954306,E,2,11,0.9,-1.531,M,40.592,M,2.0,0123*63\r\n
$GPGGA,103125.55,5703.4193769,N,00952.2952948,E,2,11,0.9,-1.532,M,40.592,M,2.0,0123*6D\r\n
$GPGGA,103125.60,5703.4193468,N,00952.2951583,E,2,11,0.9,-1.531,M,40.592,M,2.0,0123*62\r\n
$GPGGA,103125.65,5703.4193172,N,00952.2950220,E,2,11,0.9,-1.532,M,40.592,M,2.2,0123*67\r\n
$GPGGA,103125.70,5703.4192869,N,00952.2948868,E,2,11,0.9,-1.534,M,40.592,M,2.2,0123*68\r\n
$GPGGA,103125.75,5703.4192570,N,00952.2947526,E,2,11,0.9,-1.533,M,40.592,M,2.2,0123*67\r\n
$GPGGA,103125.80,5703.4192275,N,00952.2946185,E,2,11,0.9,-1.530,M,40.592,M,2.2,0123*60\r\n
$GPGGA,103125.85,5703.4191968,N,00952.2944841,E,2,11,0.9,-1.529,M,40.592,M,1.4,0123*6F\r\n
$GPGGA,103125.90,5703.4191665,N,00952.2943498,E,2,11,0.9,-1.526,M,40.592,M,1.4,0123*69\r\n
$GPGGA,103125.95,5703.4191376,N,00952.2942152,E,2,11,0.9,-1.522,M,40.592,M,1.4,0123*6D\r\n
$GPGGA,103126.00,5703.4191071,N,00952.2940815,E,2,11,0.9,-1.519,M,40.592,M,1.4,0123*66\r\n
$GPGGA,103126.05,5703.4190759,N,00952.2939468,E,2,11,0.9,-1.517,M,40.592,M,1.6,0123*6B\r\n
$GPGGA,103126.10,5703.4190450,N,00952.2938105,E,2,11,0.9,-1.515,M,40.592,M,1.6,0123*68\r\n
$GPGGA,103126.15,5703.4190150,N,00952.2936765,E,2,11,0.9,-1.512,M,40.592,M,1.6,0123*61\r\n
$GPGGA,103126.20,5703.4189845,N,00952.2935421,E,2,11,0.9,-1.509,M,40.592,M,1.6,0123*68\r\n
$GPGGA,103126.25,5703.4189538,N,00952.2934064,E,2,11,0.9,-1.512,M,40.592,M,1.9,0123*6B\r\n
$GPGGA,103126.30,5703.4189223,N,00952.2932707,E,2,11,0.9,-1.514,M,40.592,M,1.9,0123*60\r\n
$GPGGA,103126.35,5703.4188898,N,00952.2931358,E,2,11,0.9,-1.517,M,40.592,M,1.9,0123*60\r\n
$GPGGA,103126.40,5703.4188583,N,00952.2930002,E,2,11,0.9,-1.517,M,40.592,M,1.9,0123*68\r\n
$GPGGA,103126.45,5703.4188264,N,00952.2928637,E,2,11,0.9,-1.517,M,40.592,M,2.1,0123*61\r\n
$GPGGA,103126.50,5703.4187944,N,00952.2927280,E,2,11,0.9,-1.521,M,40.592,M,2.1,0123*61\r\n
$GPGGA,103126.55,5703.4187627,N,00952.2925923,E,2,11,0.9,-1.523,M,40.592,M,2.1,0123*6C\r\n
$GPGGA,103126.60,5703.4187306,N,00952.2924580,E,2,11,0.9,-1.525,M,40.592,M,2.1,0123*6E\r\n
$GPGGA,103126.65,5703.4186989,N,00952.2923222,E,2,11,0.9,-1.525,M,40.592,M,2.3,0123*6D\r\n
$GPGGA,103126.70,5703.4186674,N,00952.2921868,E,2,11,0.9,-1.528,M,40.592,M,2.3,0123*6F\r\n
$GPGGA,103126.75,5703.4186363,N,00952.2920516,E,2,11,0.9,-1.529,M,40.592,M,2.3,0123*6D\r\n
$GPGGA,103126.80,5703.4186041,N,00952.2919164,E,2,11,0.9,-1.530,M,40.592,M,2.3,0123*67\r\n
$GPGGA,103126.85,5703.4185722,N,00952.2917823,E,2,11,0.9,-1.528,M,40.592,M,2.5,0123*68\r\n
$GPGGA,103126.90,5703.4185402,N,00952.2916469,E,2,11,0.9,-1.528,M,40.592,M,2.5,0123*6E\r\n
$GPGGA,103126.95,5703.4185092,N,00952.2915113,E,2,11,0.9,-1.525,M,40.592,M,2.5,0123*60\r\n
$GPGGA,103127.00,5703.4184776,N,00952.2913774,E,2,11,0.9,-1.523,M,40.592,M,2.5,0123*66\r\n
$GPGGA,103127.05,5703.4184449,N,00952.2912428,E,2,11,0.9,-1.522,M,40.592,M,2.7,0123*64\r\n
$GPGGA,103127.10,5703.4184120,N,00952.2911075,E,2,11,0.9,-1.522,M,40.592,M,2.7,0123*65\r\n
$GPGGA,103127.15,5703.4183776,N,00952.2909736,E,2,11,0.9,-1.522,M,40.592,M,2.7,0123*6B\r\n
$GPGGA,103127.20,5703.4183439,N,00952.2908389,E,2,11,0.9,-1.523,M,40.592,M,2.7,0123*65\r\n
$GPGGA,103127.25,5703.4183106,N,00952.2907044,E,2,11,0.9,-1.521,M,40.592,M,2.9,0123*68\r\n
$GPGGA,103127.30,5703.4182772,N,00952.2905698,E,2,11,0.9,-1.520,M,40.592,M,2.9,0123*6C\r\n
$GPGGA,103127.35,5703.4182438,N,00952.2904355,E,2,11,0.9,-1.519,M,40.592,M,2.9,0123*6B\r\n
$GPGGA,103127.40,5703.4182097,N,00952.2903031,E,2,11,0.9,-1.520,M,40.592,M,2.9,0123*64\r\n
$GPGGA,103127.45,5703.4181758,N,00952.2901698,E,2,11,0.9,-1.520,M,40.592,M,3.1,0123*68\r\n
$GPGGA,103127.50,5703.4181425,N,00952.2900375,E,2,11,0.9,-1.519,M,40.592,M,3.1,0123*68\r\n
$GPGGA,103127.55,5703.4181097,N,00952.2899039,E,2,11,0.9,-1.519,M,40.592,M,3.1,0123*6A\r\n
$GPGGA,103127.60,5703.4180763,N,00952.2897705,E,2,11,0.9,-1.517,M,40.592,M,3.1,0123*69\r\n
$GPGGA,103127.65,5703.4180426,N,00952.2896383,E,2,11,0.9,-1.517,M,40.592,M,3.4,0123*60\r\n
$GPGGA,103127.70,5703.4180091,N,00952.2895062,E,2,11,0.9,-1.515,M,40.592,M,3.4,0123*61\r\n
$GPGGA,103127.75,5703.4179759,N,00952.2893732,E,2,11,0.9,-1.515,M,40.592,M,3.4,0123*65\r\n
$GPGGA,103127.80,5703.4179422,N,00952.2892417,E,2,11,0.9,-1.515,M,40.592,M,3.4,0123*65\r\n
$GPGGA,103127.85,5703.4179076,N,00952.2891093,E,2,11,0.9,-1.517,M,40.592,M,2.0,0123*69\r\n
$GPGGA,103127.90,5703.4178739,N,00952.2889771,E,2,11,0.9,-1.514,M,40.592,M,2.0,0123*61\r\n
$GPGGA,103127.95,5703.4178397,N,00952.2888462,E,2,11,0.9,-1.512,M,40.592,M,2.0,0123*62\r\n
$GPGGA,103128.00,5703.4178047,N,00952.2887143,E,2,11,0.9,-1.513,M,40.592,M,2.0,0123*67\r\n
$GPGGA,103128.05,5703.4177707,N,00952.2885826,E,2,11,0.9,-1.512,M,40.592,M,2.4,0123*63\r\n
$GPGGA,103128.10,5703.4177362,N,00952.2884516,E,2,11,0.9,-1.513,M,40.592,M,2.4,0123*6E\r\n
$GPGGA,103128.15,5703.4177017,N,00952.2883198,E,2,11,0.9,-1.514,M,40.592,M,2.4,0123*68\r\n
$GPGGA,103128.20,5703.4176673,N,00952.2881880,E,2,11,0.9,-1.515,M,40.592,M,2.4,0123*68\r\n
$GPGGA,103128.25,5703.4176319,N,00952.2880560,E,2,11,0.9,-1.519,M,40.592,M,2.6,0123*68\r\n
$GPGGA,103128.30,5703.4175952,N,00952.2879266,E,2,11,0.9,-1.520,M,40.592,M,2.6,0123*67\r\n
$GPGGA,103128.35,5703.4175595,N,00952.2877980,E,2,11,0.9,-1.520,M,40.592,M,2.6,0123*68\r\n
$GPGGA,103128.40,5703.4175236,N,00952.2876682,E,2,11,0.9,-1.520,M,40.592,M,2.6,0123*68\r\n
$GPGGA,103128.45,5703.4174876,N,00952.2875380,E,2,11,0.9,-1.524,M,40.592,M,2.9,0123*6D\r\n
$GPGGA,103128.50,5703.4174522,N,00952.2874085,E,2,11,0.9,-1.524,M,40.592,M,2.9,0123*62\r\n
$GPGGA,103128.55,5703.4174171,N,00952.2872798,E,2,11,0.9,-1.522,M,40.592,M,2.9,0123*6E\r\n
$GPGGA,103128.60,5703.4173822,N,00952.2871516,E,2,11,0.9,-1.521,M,40.592,M,2.9,0123*64\r\n
$GPGGA,103128.65,5703.4173468,N,00952.2870235,E,2,11,0.9,-1.520,M,40.592,M,1.0,0123*6F\r\n
$GPGGA,103128.70,5703.4173105,N,00952.2868956,E,2,11,0.9,-1.520,M,40.592,M,1.0,0123*62\r\n
$GPGGA,103128.75,5703.4172745,N,00952.2867671,E,2,11,0.9,-1.520,M,40.592,M,1.0,0123*61\r\n
$GPGGA,103128.80,5703.4172379,N,00952.2866392,E,2,11,0.9,-1.520,M,40.592,M,1.0,0123*69\r\n
$GPGGA,103128.85,5703.4172011,N,00952.2865106,E,2,11,0.9,-1.520,M,40.592,M,1.2,0123*6F\r\n
$GPGGA,103128.90,5703.4171646,N,00952.2863827,E,2,11,0.9,-1.523,M,40.592,M,1.2,0123*63\r\n
$GPGGA,103128.95,5703.4171284,N,00952.2862548,E,2,11,0.9,-1.526,M,40.592,M,1.2,0123*6C\r\n
$GPGGA,103129.00,5703.4170918,N,00952.2861263,E,2,11,0.9,-1.528,M,40.592,M,1.2,0123*6D\r\n
$GPGGA,103129.05,5703.4170551,N,00952.2859977,E,2,11,0.9,-1.527,M,40.592,M,1.5,0123*64\r\n
$GPGGA,103129.10,5703.4170187,N,00952.2858694,E,2,11,0.9,-1.528,M,40.592,M,1.5,0123*63\r\n
$GPGGA,103129.15,5703.4169822,N,00952.2857424,E,2,11,0.9,-1.529,M,40.592,M,1.5,0123*6F\r\n
$GPGGA,103129.20,5703.4169459,N,00952.2856158,E,2,11,0.9,-1.529,M,40.592,M,1.5,0123*66\r\n
$GPGGA,103129.25,5703.4169093,N,00952.2854878,E,2,11,0.9,-1.531,M,40.592,M,1.7,0123*63\r\n
$GPGGA,103129.30,5703.4168718,N,00952.2853615,E,2,11,0.9,-1.531,M,40.592,M,1.7,0123*60\r\n
$GPGGA,103129.35,5703.4168341,N,00952.2852357,E,2,11,0.9,-1.532,M,40.592,M,1.7,0123*6C\r\n
$GPGGA,103129.40,5703.4167976,N,00952.2851099,E,2,11,0.9,-1.530,M,40.592,M,1.7,0123*6F\r\n
$GPGGA,103129.45,5703.4167608,N,00952.2849840,E,2,11,0.9,-1.529,M,40.592,M,2.0,0123*65\r\n
$GPGGA,103129.50,5703.4167244,N,00952.2848568,E,2,11,0.9,-1.527,M,40.592,M,2.0,0123*65\r\n
$GPGGA,103129.55,5703.4166874,N,00952.2847301,E,2,11,0.9,-1.528,M,40.592,M,2.0,0123*61\r\n
$GPGGA,103129.60,5703.4166492,N,00952.2846042,E,2,11,0.9,-1.529,M,40.592,M,2.0,0123*67\r\n
$GPGGA,103129.65,5703.4166103,N,00952.2844789,E,2,11,0.9,-1.530,M,40.592,M,1.1,0123*67\r\n
$GPGGA,103129.70,5703.4165714,N,00952.2843557,E,2,11,0.9,-1.529,M,40.592,M,1.1,0123*6E\r\n
$GPGGA,103129.75,5703.4165328,N,00952.2842302,E,2,11,0.9,-1.530,M,40.592,M,1.1,0123*6F\r\n
$GPGGA,103129.80,5703.4164940,N,00952.2841041,E,2,11,0.9,-1.533,M,40.592,M,1.1,0123*64\r\n
$GPGGA,103129.85,5703.4164568,N,00952.2839776,E,2,11,0.9,-1.532,M,40.592,M,1.4,0123*6F\r\n
$GPGGA,103129.90,5703.4164194,N,00952.2838510,E,2,11,0.9,-1.531,M,40.592,M,1.4,0123*6C\r\n
$GPGGA,103129.95,5703.4163815,N,00952.2837241,E,2,11,0.9,-1.533,M,40.592,M,1.4,0123*60\r\n
$GPGGA,103130.00,5703.4163427,N,00952.2835987,E,2,11,0.9,-1.537,M,40.592,M,1.4,0123*6E\r\n
$GPGGA,103130.05,5703.4163054,N,00952.2834721,E,2,11,0.9,-1.539,M,40.592,M,1.6,0123*64\r\n
$GPGGA,103130.10,5703.4162685,N,00952.2833447,E,2,11,0.9,-1.540,M,40.592,M,1.6,0123*61\r\n
$GPGGA,103130.15,5703.4162307,N,00952.2832171,E,2,11,0.9,-1.545,M,40.592,M,1.6,0123*6F\r\n
$GPGGA,103130.20,5703.4161923,N,00952.2830901,E,2,11,0.9,-1.548,M,40.592,M,1.6,0123*66\r\n
$GPGGA,103130.25,5703.4161543,N,00952.2829605,E,2,11,0.9,-1.549,M,40.592,M,1.9,0123*64\r\n
$GPGGA,103130.30,5703.4161163,N,00952.2828322,E,2,11,0.9,-1.550,M,40.592,M,1.9,0123*6F\r\n
$GPGGA,103130.35,5703.4160782,N,00952.2827065,E,2,11,0.9,-1.550,M,40.592,M,1.9,0123*6D\r\n
$GPGGA,103130.40,5703.4160395,N,00952.2825802,E,2,11,0.9,-1.550,M,40.592,M,1.9,0123*66\r\n
$GPGGA,103130.45,5703.4160014,N,00952.2824551,E,2,11,0.9,-1.552,M,40.592,M,2.1,0123*6A\r\n
$GPGGA,103130.50,5703.4159632,N,00952.2823282,E,2,11,0.9,-1.550,M,40.592,M,2.1,0123*6A\r\n
$GPGGA,103130.55,5703.4159255,N,00952.2822010,E,2,11,0.9,-1.548,M,40.592,M,2.1,0123*6B\r\n
$GPGGA,103130.60,5703.4158872,N,00952.2820746,E,2,11,0.9,-1.546,M,40.592,M,2.1,0123*6B\r\n
$GPGGA,103130.65,5703.4158487,N,00952.2819487,E,2,11,0.9,-1.543,M,40.592,M,2.3,0123*6B\r\n
$GPGGA,103130.70,5703.4158097,N,00952.2818223,E,2,11,0.9,-1.542,M,40.592,M,2.3,0123*62\r\n
$GPGGA,103130.75,5703.4157718,N,00952.2816953,E,2,11,0.9,-1.538,M,40.592,M,2.3,0123*67\r\n
$GPGGA,103130.80,5703.4157337,N,00952.2815671,E,2,11,0.9,-1.536,M,40.592,M,2.3,0123*66\r\n
$GPGGA,103130.85,5703.4156952,N,00952.2814390,E,2,11,0.9,-1.537,M,40.592,M,2.5,0123*67\r\n
$GPGGA,103130.90,5703.4156563,N,00952.2813102,E,2,11,0.9,-1.538,M,40.592,M,2.5,0123*6C\r\n
$GPGGA,103130.95,5703.4156184,N,00952.2811828,E,2,11,0.9,-1.536,M,40.592,M,2.5,0123*69\r\n
$GPGGA,103131.00,5703.4155804,N,00952.2810562,E,2,11,0.9,-1.534,M,40.592,M,2.5,0123*66\r\n
$GPGGA,103131.05,5703.4155419,N,00952.2809292,E,2,11,0.9,-1.535,M,40.592,M,2.7,0123*60\r\n
$GPGGA,103131.10,5703.4155035,N,00952.2808025,E,2,11,0.9,-1.535,M,40.592,M,2.7,0123*61\r\n
$GPGGA,103131.15,5703.4154646,N,00952.2806755,E,2,11,0.9,-1.533,M,40.592,M,2.7,0123*6F\r\n
$GPGGA,103131.20,5703.4154260,N,00952.2805479,E,2,11,0.9,-1.534,M,40.592,M,2.7,0123*60\r\n
$GPGGA,103131.25,5703.4153868,N,00952.2804203,E,2,11,0.9,-1.538,M,40.592,M,2.9,0123*68\r\n
$GPGGA,103131.30,5703.4153460,N,00952.2802937,E,2,11,0.9,-1.540,M,40.592,M,2.9,0123*6D\r\n
$GPGGA,103131.35,5703.4153052,N,00952.2801668,E,2,11,0.9,-1.543,M,40.592,M,2.9,0123*68\r\n
$GPGGA,103131.40,5703.4152663,N,00952.2800389,E,2,11,0.9,-1.545,M,40.592,M,2.9,0123*62\r\n
$GPGGA,103131.45,5703.4152260,N,00952.2799113,E,2,11,0.9,-1.551,M,40.592,M,3.1,0123*62\r\n
$GPGGA,103131.50,5703.4151861,N,00952.2797844,E,2,11,0.9,-1.554,M,40.592,M,3.1,0123*6E\r\n
$GPGGA,103131.55,5703.4151447,N,00952.2796567,E,2,11,0.9,-1.557,M,40.592,M,3.1,0123*6D\r\n
$GPGGA,103131.60,5703.4151039,N,00952.2795285,E,2,11,0.9,-1.559,M,40.592,M,3.1,0123*60\r\n
$GPGGA,103131.65,5703.4150650,N,00952.2794015,E,2,11,0.9,-1.556,M,40.592,M,1.7,0123*6C\r\n
$GPGGA,103131.70,5703.4150263,N,00952.2792752,E,2,11,0.9,-1.555,M,40.592,M,1.7,0123*6D\r\n
$GPGGA,103131.75,5703.4149878,N,00952.2791491,E,2,11,0.9,-1.552,M,40.592,M,1.7,0123*68\r\n
$GPGGA,103131.80,5703.4149477,N,00952.2790233,E,2,11,0.9,-1.549,M,40.592,M,1.7,0123*64\r\n
$GPGGA,103131.85,5703.4149076,N,00952.2788986,E,2,11,0.8,-1.542,M,40.592,M,2.0,0123*66\r\n
$GPGGA,103131.90,5703.4148684,N,00952.2787733,E,2,11,0.8,-1.536,M,40.592,M,2.0,0123*64\r\n
$GPGGA,103131.95,5703.4148300,N,00952.2786476,E,2,11,0.8,-1.530,M,40.592,M,2.0,0123*6D\r\n
$GPGGA,103132.00,5703.4147906,N,00952.2785212,E,2,11,0.8,-1.525,M,40.592,M,2.0,0123*62\r\n
$GPGGA,103132.05,5703.4147498,N,00952.2783970,E,2,11,0.8,-1.528,M,40.592,M,2.4,0123*6D\r\n
$GPGGA,103132.10,5703.4147087,N,00952.2782717,E,2,11,0.8,-1.526,M,40.592,M,2.4,0123*63\r\n
$GPGGA,103132.15,5703.4146690,N,00952.2781451,E,2,11,0.8,-1.527,M,40.592,M,2.4,0123*64\r\n
$GPGGA,103132.20,5703.4146293,N,00952.2780191,E,2,11,0.8,-1.525,M,40.592,M,2.4,0123*6F\r\n
$GPGGA,103132.25,5703.4145896,N,00952.2778924,E,2,11,0.8,-1.519,M,40.592,M,2.6,0123*6A\r\n
$GPGGA,103132.30,5703.4145496,N,00952.2777654,E,2,11,0.8,-1.519,M,40.592,M,2.6,0123*65\r\n
$GPGGA,103132.35,5703.4145095,N,00952.2776393,E,2,11,0.8,-1.522,M,40.592,M,2.6,0123*60\r\n
$GPGGA,103132.40,5703.4144690,N,00952.2775110,E,2,11,0.8,-1.527,M,40.592,M,2.6,0123*6F\r\n
$GPGGA,103132.45,5703.4144290,N,00952.2773835,E,2,11,0.8,-1.534,M,40.592,M,2.9,0123*6B\r\n
$GPGGA,103132.50,5703.4143879,N,00952.2772550,E,2,11,0.8,-1.539,M,40.592,M,2.9,0123*67\r\n
$GPGGA,103132.55,5703.4143473,N,00952.2771276,E,2,11,0.8,-1.545,M,40.592,M,2.9,0123*6F\r\n
$GPGGA,103132.60,5703.4143086,N,00952.2769986,E,2,11,0.8,-1.550,M,40.592,M,2.9,0123*6E\r\n
$GPGGA,103132.65,5703.4142689,N,00952.2768691,E,2,11,0.8,-1.555,M,40.592,M,1.0,0123*64\r\n
$GPGGA,103132.70,5703.4142290,N,00952.2767401,E,2,11,0.8,-1.560,M,40.592,M,1.0,0123*6E\r\n
$GPGGA,103132.75,5703.4141893,N,00952.2766126,E,2,11,0.8,-1.563,M,40.592,M,1.0,0123*63\r\n
$GPGGA,103132.80,5703.4141504,N,00952.2764850,E,2,11,0.8,-1.561,M,40.592,M,1.0,0123*62\r\n
$GPGGA,103132.85,5703.4141122,N,00952.2763575,E,2,11,0.8,-1.560,M,40.592,M,1.2,0123*69\r\n
$GPGGA,103132.90,5703.4140740,N,00952.2762299,E,2,11,0.8,-1.557,M,40.592,M,1.2,0123*6E\r\n
$GPGGA,103132.95,5703.4140346,N,00952.2761047,E,2,11,0.8,-1.555,M,40.592,M,1.2,0123*69\r\n
$GPGGA,103133.00,5703.4139956,N,00952.2759788,E,2,11,0.8,-1.549,M,40.592,M,1.2,0123*63\r\n
$GPGGA,103133.05,5703.4139573,N,00952.2758521,E,2,11,0.8,-1.548,M,40.592,M,1.5,0123*6B\r\n
$GPGGA,103133.10,5703.4139181,N,00952.2757267,E,2,11,0.8,-1.544,M,40.592,M,1.5,0123*60\r\n
$GPGGA,103133.15,5703.4138784,N,00952.2756032,E,2,11,0.8,-1.542,M,40.592,M,1.5,0123*62\r\n
$GPGGA,103133.20,5703.4138389,N,00952.2754785,E,2,11,0.8,-1.537,M,40.592,M,1.5,0123*66\r\n
$GPGGA,103133.25,5703.4137997,N,00952.2753528,E,2,11,0.8,-1.527,M,40.592,M,1.7,0123*68\r\n
$GPGGA,103133.30,5703.4137605,N,00952.2752254,E,2,11,0.8,-1.524,M,40.592,M,1.7,0123*66\r\n
$GPGGA,103133.35,5703.4137207,N,00952.2750990,E,2,11,0.8,-1.523,M,40.592,M,1.7,0123*63\r\n
$GPGGA,103133.40,5703.4136816,N,00952.2749722,E,2,11,0.8,-1.522,M,40.592,M,1.7,0123*64\r\n
$GPGGA,103133.45,5703.4136403,N,00952.2748443,E,2,11,0.8,-1.527,M,40.592,M,2.0,0123*6D\r\n
$GPGGA,103133.50,5703.4136016,N,00952.2747167,E,2,11,0.8,-1.529,M,40.592,M,2.0,0123*6B\r\n
$GPGGA,103133.55,5703.4135635,N,00952.2745886,E,2,11,0.8,-1.530,M,40.592,M,2.0,0123*66\r\n
$GPGGA,103133.60,5703.4135241,N,00952.2744606,E,2,11,0.8,-1.532,M,40.592,M,2.0,0123*62\r\n
$GPGGA,103133.65,5703.4134843,N,00952.2743328,E,2,11,0.8,-1.532,M,40.592,M,1.1,0123*62\r\n
$GPGGA,103133.70,5703.4134449,N,00952.2742030,E,2,11,0.8,-1.536,M,40.592,M,1.1,0123*6F\r\n
$GPGGA,103133.75,5703.4134054,N,00952.2740739,E,2,11,0.8,-1.542,M,40.592,M,1.1,0123*6D\r\n
$GPGGA,103133.80,5703.4133653,N,00952.2739456,E,2,11,0.8,-1.543,M,40.592,M,1.1,0123*64\r\n
$GPGGA,103133.85,5703.4133248,N,00952.2738181,E,2,11,0.8,-1.549,M,40.592,M,1.4,0123*6E\r\n
$GPGGA,103133.90,5703.4132854,N,00952.2736902,E,2,11,0.8,-1.554,M,40.592,M,1.4,0123*6D\r\n
$GPGGA,103133.95,5703.4132460,N,00952.2735607,E,2,11,0.8,-1.556,M,40.592,M,1.4,0123*68\r\n
$GPGGA,103134.00,5703.4132053,N,00952.2734329,E,2,11,0.8,-1.558,M,40.592,M,1.4,0123*61\r\n
$GPGGA,103134.05,5703.4131640,N,00952.2733042,E,2,11,0.8,-1.566,M,40.592,M,1.6,0123*65\r\n
$GPGGA,103134.10,5703.4131239,N,00952.2731768,E,2,11,0.8,-1.569,M,40.592,M,1.6,0123*69\r\n
$GPGGA,103134.15,5703.4130837,N,00952.2730490,E,2,11,0.8,-1.569,M,40.592,M,1.6,0123*6C\r\n
$GPGGA,103134.20,5703.4130442,N,00952.2729227,E,2,11,0.8,-1.570,M,40.592,M,1.6,0123*6E\r\n
$GPGGA,103134.25,5703.4130047,N,00952.2727965,E,2,11,0.8,-1.562,M,40.592,M,1.9,0123*65\r\n
$GPGGA,103134.30,5703.4129631,N,00952.2726691,E,2,11,0.8,-1.559,M,40.592,M,1.9,0123*63\r\n
$GPGGA,103134.35,5703.4129235,N,00952.2725418,E,2,11,0.8,-1.554,M,40.592,M,1.9,0123*6B\r\n
$GPGGA,103134.40,5703.4128839,N,00952.2724143,E,2,11,0.8,-1.551,M,40.592,M,1.9,0123*61\r\n
$GPGGA,103134.45,5703.4128433,N,00952.2722875,E,2,11,0.8,-1.548,M,40.592,M,2.1,0123*6B\r\n
$GPGGA,103134.50,5703.4128027,N,00952.2721598,E,2,11,0.8,-1.543,M,40.592,M,2.1,0123*68\r\n
$GPGGA,103134.55,5703.4127624,N,00952.2720318,E,2,11,0.8,-1.538,M,40.592,M,2.1,0123*64\r\n
$GPGGA,103134.60,5703.4127199,N,00952.2719044,E,2,11,0.8,-1.538,M,40.592,M,2.1,0123*63\r\n
$GPGGA,103134.65,5703.4126786,N,00952.2717763,E,2,11,0.8,-1.538,M,40.592,M,2.3,0123*61\r\n
$GPGGA,103134.70,5703.4126376,N,00952.2716469,E,2,11,0.8,-1.537,M,40.592,M,2.3,0123*69\r\n
$GPGGA,103134.75,5703.4125968,N,00952.2715182,E,2,11,0.8,-1.535,M,40.592,M,2.3,0123*6B\r\n
$GPGGA,103134.80,5703.4125568,N,00952.2713880,E,2,11,0.8,-1.534,M,40.592,M,2.3,0123*61\r\n
$GPGGA,103134.85,5703.4125161,N,00952.2712595,E,2,11,0.8,-1.532,M,40.592,M,2.5,0123*61\r\n
$GPGGA,103134.90,5703.4124748,N,00952.2711301,E,2,11,0.8,-1.533,M,40.592,M,2.5,0123*60\r\n
$GPGGA,103134.95,5703.4124329,N,00952.2709989,E,2,11,0.8,-1.537,M,40.592,M,2.5,0123*61\r\n
$GPGGA,103135.00,5703.4123921,N,00952.2708692,E,2,11,0.8,-1.540,M,40.592,M,2.5,0123*6D\r\n
$GPGGA,103135.05,5703.4123516,N,00952.2707404,E,2,11,0.8,-1.542,M,40.592,M,2.7,0123*62\r\n
$GPGGA,103135.10,5703.4123110,N,00952.2706113,E,2,11,0.8,-1.542,M,40.592,M,2.7,0123*66\r\n
$GPGGA,103135.15,5703.4122702,N,00952.2704817,E,2,11,0.8,-1.545,M,40.592,M,2.7,0123*6F\r\n
$GPGGA,103135.20,5703.4122304,N,00952.2703515,E,2,11,0.8,-1.546,M,40.592,M,2.7,0123*60\r\n
$GPGGA,103135.25,5703.4121894,N,00952.2702203,E,2,11,0.8,-1.551,M,40.592,M,2.9,0123*6D\r\n
$GPGGA,103135.30,5703.4121480,N,00952.2700911,E,2,11,0.8,-1.551,M,40.592,M,2.9,0123*6A\r\n
$GPGGA,103135.35,5703.4121075,N,00952.2699625,E,2,11,0.8,-1.550,M,40.592,M,2.9,0123*69\r\n
$GPGGA,103135.40,5703.4120667,N,00952.2698326,E,2,11,0.8,-1.548,M,40.592,M,2.9,0123*61\r\n
$GPGGA,103135.45,5703.4120268,N,00952.2697043,E,2,11,0.8,-1.545,M,40.592,M,3.1,0123*64\r\n
$GPGGA,103135.50,5703.4119858,N,00952.2695761,E,2,11,0.8,-1.545,M,40.592,M,3.1,0123*66\r\n
$GPGGA,103135.55,5703.4119460,N,00952.2694472,E,2,11,0.8,-1.542,M,40.592,M,3.1,0123*63\r\n
$GPGGA,103135.60,5703.4119052,N,00952.2693180,E,2,11,0.8,-1.538,M,40.592,M,3.1,0123*62\r\n
$GPGGA,103135.65,5703.4118648,N,00952.2691894,E,2,11,0.8,-1.540,M,40.592,M,1.7,0123*6E\r\n
$GPGGA,103135.70,5703.4118252,N,00952.2690623,E,2,11,0.8,-1.537,M,40.592,M,1.7,0123*66\r\n
$GPGGA,103135.75,5703.4117857,N,00952.2689336,E,2,11,0.8,-1.535,M,40.592,M,1.7,0123*68\r\n
$GPGGA,103135.80,5703.4117457,N,00952.2688040,E,2,11,0.8,-1.530,M,40.592,M,1.7,0123*68\r\n
$GPGGA,103135.85,5703.4117055,N,00952.2686746,E,2,11,0.8,-1.523,M,40.592,M,2.0,0123*62\r\n
$GPGGA,103135.90,5703.4116650,N,00952.2685449,E,2,11,0.8,-1.524,M,40.592,M,2.0,0123*6C\r\n
$GPGGA,103135.95,5703.4116249,N,00952.2684159,E,2,11,0.8,-1.524,M,40.592,M,2.0,0123*60\r\n
$GPGGA,103136.00,5703.4115839,N,00952.2682851,E,2,11,0.8,-1.523,M,40.592,M,2.0,0123*61\r\n
$GPGGA,103136.05,5703.4115436,N,00952.2681547,E,2,11,0.8,-1.526,M,40.592,M,2.4,0123*6F\r\n
$GPGGA,103136.10,5703.4115039,N,00952.2680237,E,2,11,0.8,-1.529,M,40.592,M,2.4,0123*6E\r\n
$GPGGA,103136.15,5703.4114635,N,00952.2678926,E,2,11,0.8,-1.534,M,40.592,M,2.4,0123*60\r\n
$GPGGA,103136.20,5703.4114230,N,00952.2677603,E,2,11,0.8,-1.538,M,40.592,M,2.4,0123*6C\r\n
$GPGGA,103136.25,5703.4113820,N,00952.2676301,E,2,11,0.8,-1.544,M,40.592,M,2.6,0123*6A\r\n
$GPGGA,103136.30,5703.4113424,N,00952.2674991,E,2,11,0.8,-1.548,M,40.592,M,2.6,0123*6B\r\n
$GPGGA,103136.35,5703.4113016,N,00952.2673693,E,2,11,0.8,-1.549,M,40.592,M,2.6,0123*60\r\n
$GPGGA,103136.40,5703.4112604,N,00952.2672403,E,2,11,0.8,-1.552,M,40.592,M,2.6,0123*66\r\n
$GPGGA,103136.45,5703.4112209,N,00952.2671102,E,2,11,0.8,-1.555,M,40.592,M,2.9,0123*65\r\n
$GPGGA,103136.50,5703.4111810,N,00952.2669813,E,2,11,0.8,-1.557,M,40.592,M,2.9,0123*62\r\n
$GPGGA,103136.55,5703.4111420,N,00952.2668521,E,2,11,0.8,-1.556,M,40.592,M,2.9,0123*64\r\n
$GPGGA,103136.60,5703.4111026,N,00952.2667225,E,2,11,0.8,-1.553,M,40.592,M,2.9,0123*69\r\n
$GPGGA,103136.65,5703.4110609,N,00952.2665950,E,2,11,0.8,-1.552,M,40.592,M,1.0,0123*66\r\n
$GPGGA,103136.70,5703.4110202,N,00952.2664681,E,2,11,0.8,-1.550,M,40.592,M,1.0,0123*6D\r\n
$GPGGA,103136.75,5703.4109803,N,00952.2663402,E,2,11,0.8,-1.548,M,40.592,M,1.0,0123*6C\r\n
$GPGGA,103136.80,5703.4109411,N,00952.2662119,E,2,11,0.8,-1.542,M,40.592,M,1.0,0123*6D\r\n
$GPGGA,103136.85,5703.4109008,N,00952.2660837,E,2,11,0.8,-1.537,M,40.592,M,1.2,0123*63\r\n
$GPGGA,103136.90,5703.4108604,N,00952.2659553,E,2,11,0.8,-1.536,M,40.592,M,1.2,0123*68\r\n
$GPGGA,103136.95,5703.4108197,N,00952.2658284,E,2,11,0.8,-1.534,M,40.592,M,1.2,0123*6E\r\n
$GPGGA,103137.00,5703.4107800,N,00952.2657005,E,2,11,0.8,-1.531,M,40.592,M,1.2,0123*6A\r\n
$GPGGA,103137.05,5703.4107409,N,00952.2655732,E,2,11,0.8,-1.524,M,40.592,M,1.5,0123*68\r\n
$GPGGA,103137.10,5703.4107010,N,00952.2654437,E,2,11,0.8,-1.521,M,40.592,M,1.5,0123*62\r\n
$GPGGA,103137.15,5703.4106602,N,00952.2653144,E,2,11,0.8,-1.521,M,40.592,M,1.5,0123*65\r\n
$GPGGA,103137.20,5703.4106193,N,00952.2651853,E,2,11,0.8,-1.519,M,40.592,M,1.5,0123*6A\r\n
$GPGGA,103137.25,5703.4105796,N,00952.2650546,E,2,11,0.8,-1.524,M,40.592,M,1.7,0123*6B\r\n
$GPGGA,103137.30,5703.4105405,N,00952.2649254,E,2,11,0.8,-1.523,M,40.592,M,1.7,0123*6D\r\n
$GPGGA,103137.35,5703.4105001,N,00952.2647950,E,2,11,0.8,-1.526,M,40.592,M,1.7,0123*6C\r\n
$GPGGA,103137.40,5703.4104593,N,00952.2646648,E,2,11,0.8,-1.532,M,40.592,M,1.7,0123*63\r\n
$GPGGA,103137.45,5703.4104193,N,00952.2645355,E,2,11,0.8,-1.529,M,40.592,M,2.0,0123*66\r\n
$GPGGA,103137.50,5703.4103788,N,00952.2644069,E,2,11,0.8,-1.531,M,40.592,M,2.0,0123*6D\r\n
$GPGGA,103137.55,5703.4103395,N,00952.2642757,E,2,11,0.8,-1.534,M,40.592,M,2.0,0123*69\r\n
$GPGGA,103137.60,5703.4102990,N,00952.2641457,E,2,11,0.8,-1.538,M,40.592,M,2.0,0123*6D\r\n
$GPGGA,103137.65,5703.4102592,N,00952.2640163,E,2,11,0.8,-1.544,M,40.592,M,1.1,0123*6C\r\n
$GPGGA,103137.70,5703.4102199,N,00952.2638861,E,2,11,0.8,-1.545,M,40.592,M,1.1,0123*62\r\n
$GPGGA,103137.75,5703.4101808,N,00952.2637571,E,2,11,0.8,-1.545,M,40.592,M,1.1,0123*66\r\n
$GPGGA,103137.80,5703.4101422,N,00952.2636281,E,2,11,0.8,-1.545,M,40.592,M,1.1,0123*61\r\n
$GPGGA,103137.85,5703.4101031,N,00952.2634992,E,2,11,0.8,-1.545,M,40.592,M,1.4,0123*6C\r\n
$GPGGA,103137.90,5703.4100638,N,00952.2633715,E,2,11,0.8,-1.543,M,40.592,M,1.4,0123*66\r\n
$GPGGA,103137.95,5703.4100238,N,00952.2632443,E,2,11,0.8,-1.541,M,40.592,M,1.4,0123*64\r\n
$GPGGA,103138.00,5703.4099851,N,00952.2631174,E,2,11,0.8,-1.536,M,40.592,M,1.4,0123*61\r\n
$GPGGA,103138.05,5703.4099462,N,00952.2629898,E,2,11,0.8,-1.535,M,40.592,M,1.6,0123*6B\r\n
$GPGGA,103138.10,5703.4099059,N,00952.2628624,E,2,11,0.8,-1.534,M,40.592,M,1.6,0123*6A\r\n
$GPGGA,103138.15,5703.4098658,N,00952.2627342,E,2,11,0.8,-1.535,M,40.592,M,1.6,0123*62\r\n
$GPGGA,103138.20,5703.4098264,N,00952.2626054,E,2,11,0.8,-1.533,M,40.592,M,1.6,0123*6C\r\n
$GPGGA,103138.25,5703.4097862,N,00952.2624780,E,2,11,0.8,-1.526,M,40.592,M,1.9,0123*6D\r\n
$GPGGA,103138.30,5703.4097459,N,00952.2623498,E,2,11,0.8,-1.528,M,40.592,M,1.9,0123*6E\r\n
$GPGGA,103138.35,5703.4097065,N,00952.2622210,E,2,11,0.8,-1.529,M,40.592,M,1.9,0123*66\r\n
$GPGGA,103138.40,5703.4096664,N,00952.2620919,E,2,11,0.8,-1.533,M,40.592,M,1.9,0123*69\r\n
$GPGGA,103138.45,5703.4096272,N,00952.2619624,E,2,11,0.8,-1.532,M,40.592,M,2.1,0123*6E\r\n
$GPGGA,103138.50,5703.4095868,N,00952.2618339,E,2,11,0.8,-1.533,M,40.592,M,2.1,0123*61\r\n
$GPGGA,103138.55,5703.4095474,N,00952.2617039,E,2,11,0.8,-1.537,M,40.592,M,2.1,0123*6D\r\n
$GPGGA,103138.60,5703.4095081,N,00952.2615741,E,2,11,0.8,-1.540,M,40.592,M,2.1,0123*6F\r\n
$GPGGA,103138.65,5703.4094696,N,00952.2614436,E,2,11,0.8,-1.544,M,40.592,M,2.3,0123*6F\r\n
$GPGGA,103138.70,5703.4094312,N,00952.2613137,E,2,11,0.8,-1.546,M,40.592,M,2.3,0123*63\r\n
$GPGGA,103138.75,5703.4093922,N,00952.2611849,E,2,11,0.8,-1.548,M,40.592,M,2.3,0123*64\r\n
$GPGGA,103138.80,5703.4093532,N,00952.2610558,E,2,11,0.8,-1.550,M,40.592,M,2.3,0123*66\r\n
$GPGGA,103138.85,5703.4093146,N,00952.2609265,E,2,11,0.8,-1.551,M,40.592,M,2.5,0123*62\r\n
$GPGGA,103138.90,5703.4092761,N,00952.2607962,E,2,11,0.8,-1.551,M,40.592,M,2.5,0123*66\r\n
$GPGGA,103138.95,5703.4092377,N,00952.2606669,E,2,11,0.8,-1.551,M,40.592,M,2.5,0123*65\r\n
$GPGGA,103139.00,5703.4091990,N,00952.2605385,E,2,11,0.8,-1.551,M,40.592,M,2.5,0123*6C\r\n
$GPGGA,103139.05,5703.4091611,N,00952.2604109,E,2,11,0.8,-1.548,M,40.592,M,2.7,0123*62\r\n
$GPGGA,103139.10,5703.4091227,N,00952.2602839,E,2,11,0.8,-1.545,M,40.592,M,2.7,0123*66\r\n
$GPGGA,103139.15,5703.4090843,N,00952.2601545,E,2,11,0.8,-1.542,M,40.592,M,2.7,0123*68\r\n
$GPGGA,103139.20,5703.4090460,N,00952.2600255,E,2,11,0.8,-1.540,M,40.592,M,2.7,0123*66\r\n
$GPGGA,103139.25,5703.4090088,N,00952.2598962,E,2,11,0.8,-1.538,M,40.592,M,2.9,0123*6D\r\n
$GPGGA,103139.30,5703.4089708,N,00952.2597671,E,2,11,0.8,-1.533,M,40.592,M,2.9,0123*67\r\n
$GPGGA,103139.35,5703.4089317,N,00952.2596386,E,2,11,0.8,-1.532,M,40.592,M,2.9,0123*65\r\n
$GPGGA,103139.40,5703.4088921,N,00952.2595094,E,2,11,0.8,-1.531,M,40.592,M,2.9,0123*69\r\n
$GPGGA,103139.45,5703.4088534,N,00952.2593784,E,2,11,0.8,-1.526,M,40.592,M,3.1,0123*6B\r\n
$GPGGA,103139.50,5703.4088142,N,00952.2592483,E,2,11,0.8,-1.527,M,40.592,M,3.1,0123*6E\r\n
$GPGGA,103139.55,5703.4087756,N,00952.2591183,E,2,11,0.8,-1.528,M,40.592,M,3.1,0123*6E\r\n
$GPGGA,103139.60,5703.4087374,N,00952.2589877,E,2,11,0.8,-1.529,M,40.592,M,3.1,0123*66\r\n
$GPGGA,103139.65,5703.4086980,N,00952.2588560,E,2,11,0.8,-1.538,M,40.592,M,1.7,0123*6D\r\n
$GPGGA,103139.70,5703.4086587,N,00952.2587249,E,2,11,0.8,-1.541,M,40.592,M,1.7,0123*6F\r\n
$GPGGA,103139.75,5703.4086187,N,00952.2585953,E,2,11,0.8,-1.546,M,40.592,M,1.7,0123*6B\r\n
$GPGGA,103139.80,5703.4085810,N,00952.2584641,E,2,11,0.8,-1.548,M,40.592,M,1.7,0123*66\r\n
$GPGGA,103139.85,5703.4085436,N,00952.2583320,E,2,11,0.8,-1.549,M,40.592,M,2.0,0123*6B\r\n
$GPGGA,103139.90,5703.4085054,N,00952.2581991,E,2,11,0.8,-1.553,M,40.592,M,2.0,0123*66\r\n
$GPGGA,103139.95,5703.4084670,N,00952.2580686,E,2,11,0.8,-1.560,M,40.592,M,2.0,0123*6A\r\n
$GPGGA,103140.00,5703.4084280,N,00952.2579386,E,2,11,0.8,-1.559,M,40.592,M,2.0,0123*6A\r\n
$GPGGA,103140.05,5703.4083905,N,00952.2578076,E,2,11,0.8,-1.557,M,40.592,M,2.4,0123*69\r\n
$GPGGA,103140.10,5703.4083522,N,00952.2576757,E,2,11,0.8,-1.559,M,40.592,M,2.4,0123*60\r\n
$GPGGA,103140.15,5703.4083156,N,00952.2575445,E,2,11,0.8,-1.558,M,40.592,M,2.4,0123*60\r\n
$GPGGA,103140.20,5703.4082776,N,00952.2574158,E,2,11,0.8,-1.558,M,40.592,M,2.4,0123*6B\r\n
$GPGGA,103140.25,5703.4082386,N,00952.2572872,E,2,11,0.8,-1.558,M,40.592,M,2.6,0123*60\r\n
$GPGGA,103140.30,5703.4082000,N,00952.2571571,E,2,11,0.8,-1.556,M,40.592,M,2.6,0123*6A\r\n
$GPGGA,103140.35,5703.4081616,N,00952.2570278,E,2,11,0.8,-1.552,M,40.592,M,2.6,0123*66\r\n
$GPGGA,103140.40,5703.4081230,N,00952.2568975,E,2,11,0.8,-1.550,M,40.592,M,2.6,0123*69\r\n
$GPGGA,103140.45,5703.4080838,N,00952.2567669,E,2,11,0.8,-1.551,M,40.592,M,2.9,0123*6C\r\n
$GPGGA,103140.50,5703.4080445,N,00952.2566369,E,2,11,0.8,-1.548,M,40.592,M,2.9,0123*62\r\n
$GPGGA,103140.55,5703.4080056,N,00952.2565084,E,2,11,0.8,-1.544,M,40.592,M,2.9,0123*6E\r\n
$GPGGA,103140.60,5703.4079655,N,00952.2563783,E,2,11,0.8,-1.546,M,40.592,M,2.9,0123*6F\r\n
$GPGGA,103140.65,5703.4079254,N,00952.2562482,E,2,11,0.8,-1.549,M,40.592,M,1.0,0123*69\r\n
$GPGGA,103140.70,5703.4078858,N,00952.2561175,E,2,11,0.8,-1.547,M,40.592,M,1.0,0123*6A\r\n
$GPGGA,103140.75,5703.4078465,N,00952.2559866,E,2,11,0.8,-1.547,M,40.592,M,1.0,0123*6D\r\n
$GPGGA,103140.80,5703.4078067,N,00952.2558561,E,2,11,0.8,-1.545,M,40.592,M,1.0,0123*68\r\n
$GPGGA,103140.85,5703.4077678,N,00952.2557250,E,2,11,0.8,-1.539,M,40.592,M,1.2,0123*69\r\n
$GPGGA,103140.90,5703.4077287,N,00952.2555938,E,2,11,0.8,-1.539,M,40.592,M,1.2,0123*6E\r\n
$GPGGA,103140.95,5703.4076883,N,00952.2554645,E,2,11,0.8,-1.542,M,40.592,M,1.2,0123*6C\r\n
$GPGGA,103141.00,5703.4076480,N,00952.2553334,E,2,11,0.8,-1.540,M,40.592,M,1.2,0123*68\r\n
$GPGGA,103141.05,5703.4076071,N,00952.2552037,E,2,11,0.8,-1.543,M,40.592,M,1.5,0123*62\r\n
$GPGGA,103141.10,5703.4075670,N,00952.2550723,E,2,11,0.8,-1.543,M,40.592,M,1.5,0123*62\r\n
$GPGGA,103141.15,5703.4075287,N,00952.2549390,E,2,11,0.8,-1.542,M,40.592,M,1.5,0123*6E\r\n
$GPGGA,103141.20,5703.4074891,N,00952.2548064,E,2,11,0.8,-1.544,M,40.592,M,1.5,0123*6B\r\n
$GPGGA,103141.25,5703.4074482,N,00952.2546749,E,2,11,0.8,-1.547,M,40.592,M,1.7,0123*67\r\n
$GPGGA,103141.30,5703.4074078,N,00952.2545442,E,2,11,0.8,-1.550,M,40.592,M,1.7,0123*6F\r\n
$GPGGA,103141.35,5703.4073679,N,00952.2544144,E,2,11,0.8,-1.548,M,40.592,M,1.7,0123*61\r\n
$GPGGA,103141.40,5703.4073283,N,00952.2542821,E,2,11,0.8,-1.550,M,40.592,M,1.7,0123*67\r\n
$GPGGA,103141.45,5703.4072874,N,00952.2541499,E,2,11,0.8,-1.558,M,40.592,M,2.0,0123*61\r\n
$GPGGA,103141.50,5703.4072470,N,00952.2540184,E,2,11,0.8,-1.559,M,40.592,M,2.0,0123*64\r\n
$GPGGA,103141.55,5703.4072066,N,00952.2538858,E,2,11,0.8,-1.560,M,40.592,M,2.0,0123*6F\r\n
$GPGGA,103141.60,5703.4071668,N,00952.2537548,E,2,11,0.8,-1.562,M,40.592,M,2.0,0123*63\r\n
$GPGGA,103141.65,5703.4071271,N,00952.2536253,E,2,11,0.8,-1.554,M,40.592,M,1.1,0123*61\r\n
$GPGGA,103141.70,5703.4070870,N,00952.2534945,E,2,11,0.8,-1.552,M,40.592,M,1.1,0123*67\r\n
$GPGGA,103141.75,5703.4070471,N,00952.2533632,E,2,11,0.8,-1.551,M,40.592,M,1.1,0123*64\r\n
$GPGGA,103141.80,5703.4070063,N,00952.2532340,E,2,11,0.8,-1.547,M,40.592,M,1.1,0123*6F\r\n
$GPGGA,103141.85,5703.4069660,N,00952.2531052,E,2,11,0.8,-1.541,M,40.592,M,1.4,0123*67\r\n
$GPGGA,103141.90,5703.4069264,N,00952.2529752,E,2,11,0.8,-1.538,M,40.592,M,1.4,0123*63\r\n
$GPGGA,103141.95,5703.4068874,N,00952.2528447,E,2,11,0.8,-1.535,M,40.592,M,1.4,0123*67\r\n
$GPGGA,103142.00,5703.4068470,N,00952.2527158,E,2,11,0.8,-1.533,M,40.592,M,1.4,0123*62\r\n
$GPGGA,103142.05,5703.4068055,N,00952.2525853,E,2,11,0.8,-1.538,M,40.592,M,1.6,0123*6D\r\n
$GPGGA,103142.10,5703.4067651,N,00952.2524548,E,2,11,0.8,-1.537,M,40.592,M,1.6,0123*6D\r\n
$GPGGA,103142.15,5703.4067253,N,00952.2523263,E,2,11,0.8,-1.536,M,40.592,M,1.6,0123*66\r\n
$GPGGA,103142.20,5703.4066852,N,00952.2521952,E,2,11,0.8,-1.535,M,40.592,M,1.6,0123*62\r\n
$GPGGA,103142.25,5703.4066449,N,00952.2520645,E,2,11,0.8,-1.536,M,40.592,M,1.9,0123*65\r\n
$GPGGA,103142.30,5703.4066033,N,00952.2519330,E,2,11,0.8,-1.537,M,40.592,M,1.9,0123*64\r\n
$GPGGA,103142.35,5703.4065623,N,00952.2518013,E,2,11,0.8,-1.541,M,40.592,M,1.9,0123*67\r\n
$GPGGA,103142.40,5703.4065221,N,00952.2516693,E,2,11,0.8,-1.544,M,40.592,M,1.9,0123*66\r\n
$GPGGA,103142.45,5703.4064823,N,00952.2515374,E,2,11,0.8,-1.546,M,40.592,M,2.1,0123*6C\r\n
$GPGGA,103142.50,5703.4064420,N,00952.2514060,E,2,11,0.8,-1.551,M,40.592,M,2.1,0123*66\r\n
$GPGGA,103142.55,5703.4064000,N,00952.2512768,E,2,11,0.8,-1.556,M,40.592,M,2.1,0123*6B\r\n
$GPGGA,103142.60,5703.4063593,N,00952.2511453,E,2,11,0.8,-1.560,M,40.592,M,2.1,0123*68\r\n
$GPGGA,103142.65,5703.4063183,N,00952.2510136,E,2,11,0.8,-1.567,M,40.592,M,2.3,0123*6A\r\n
$GPGGA,103142.70,5703.4062789,N,00952.2508841,E,2,11,0.8,-1.569,M,40.592,M,2.3,0123*6D\r\n
$GPGGA,103142.75,5703.4062383,N,00952.2507548,E,2,11,0.8,-1.571,M,40.592,M,2.3,0123*64\r\n
$GPGGA,103142.80,5703.4061969,N,00952.2506259,E,2,11,0.8,-1.569,M,40.592,M,2.3,0123*6C\r\n
$GPGGA,103142.85,5703.4061572,N,00952.2504982,E,2,11,0.8,-1.561,M,40.592,M,2.5,0123*6E\r\n
$GPGGA,103142.90,5703.4061182,N,00952.2503705,E,2,11,0.8,-1.555,M,40.592,M,2.5,0123*60\r\n
$GPGGA,103142.95,5703.4060774,N,00952.2502448,E,2,11,0.8,-1.551,M,40.592,M,2.5,0123*64\r\n
$GPGGA,103143.00,5703.4060368,N,00952.2501170,E,2,11,0.8,-1.548,M,40.592,M,2.5,0123*65\r\n
$GPGGA,103143.05,5703.4059963,N,00952.2499911,E,2,11,0.8,-1.544,M,40.592,M,2.7,0123*6A\r\n
$GPGGA,103143.10,5703.4059554,N,00952.2498640,E,2,11,0.8,-1.540,M,40.592,M,2.7,0123*68\r\n
$GPGGA,103143.15,5703.4059143,N,00952.2497382,E,2,11,0.8,-1.535,M,40.592,M,2.7,0123*69\r\n
$GPGGA,103143.20,5703.4058737,N,00952.2496109,E,2,11,0.8,-1.529,M,40.592,M,2.7,0123*66\r\n
$GPGGA,103143.25,5703.4058332,N,00952.2494853,E,2,11,0.8,-1.525,M,40.592,M,2.9,0123*64\r\n
$GPGGA,103143.30,5703.4057910,N,00952.2493582,E,2,11,0.8,-1.527,M,40.592,M,2.9,0123*61\r\n
$GPGGA,103143.35,5703.4057478,N,00952.2492320,E,2,11,0.8,-1.529,M,40.592,M,2.9,0123*66\r\n
$GPGGA,103143.40,5703.4057066,N,00952.2491030,E,2,11,0.8,-1.533,M,40.592,M,2.9,0123*65\r\n
$GPGGA,103143.45,5703.4056664,N,00952.2489741,E,2,11,0.8,-1.535,M,40.592,M,3.1,0123*62\r\n
$GPGGA,103143.50,5703.4056249,N,00952.2488459,E,2,11,0.8,-1.540,M,40.592,M,3.1,0123*64\r\n
$GPGGA,103143.55,5703.4055817,N,00952.2487188,E,2,11,0.8,-1.546,M,40.592,M,3.1,0123*63\r\n
$GPGGA,103143.60,5703.4055386,N,00952.2485910,E,2,11,0.8,-1.552,M,40.592,M,3.1,0123*68\r\n
$GPGGA,103143.65,5703.4054964,N,00952.2484631,E,2,11,0.8,-1.560,M,40.592,M,1.7,0123*62\r\n
$GPGGA,103143.70,5703.4054572,N,00952.2483353,E,2,11,0.8,-1.562,M,40.592,M,1.7,0123*69\r\n
$GPGGA,103143.75,5703.4054165,N,00952.2482089,E,2,11,0.8,-1.564,M,40.592,M,1.7,0123*6D\r\n
$GPGGA,103143.80,5703.4053747,N,00952.2480826,E,2,11,0.8,-1.564,M,40.592,M,1.7,0123*69\r\n
$GPGGA,103143.85,5703.4053328,N,00952.2479580,E,2,11,0.8,-1.562,M,40.592,M,2.0,0123*64\r\n
$GPGGA,103143.90,5703.4052915,N,00952.2478319,E,2,11,0.8,-1.563,M,40.592,M,2.0,0123*63\r\n
$GPGGA,103143.95,5703.4052506,N,00952.2477067,E,2,11,0.8,-1.561,M,40.592,M,2.0,0123*6F\r\n
$GPGGA,103144.00,5703.4052100,N,00952.2475817,E,2,11,0.8,-1.557,M,40.592,M,2.0,0123*6E\r\n
$GPGGA,103144.05,5703.4051688,N,00952.2474573,E,2,11,0.8,-1.556,M,40.592,M,2.4,0123*64\r\n
