$GPGGA,091733.10,5703.3529894,N,00952.2424263,E,2,11,0.8,-1.109,M,40.593,M,2.7,0123*6D\r\n
$GPGGA,091733.15,5703.3530044,N,00952.2423930,E,2,11,0.8,-1.109,M,40.593,M,2.7,0123*6F\r\n
$GPGGA,091733.20,5703.3530207,N,00952.2423594,E,2,11,0.8,-1.106,M,40.593,M,2.7,0123*61\r\n
$GPGGA,091733.25,5703.3530363,N,00952.2423267,E,2,11,0.8,-1.105,M,40.593,M,2.9,0123*61\r\n
$GPGGA,091733.30,5703.3530522,N,00952.2422942,E,2,11,0.8,-1.105,M,40.593,M,2.9,0123*6B\r\n
$GPGGA,091733.35,5703.3530684,N,00952.2422614,E,2,11,0.8,-1.104,M,40.593,M,2.9,0123*6C\r\n
$GPGGA,091733.40,5703.3530841,N,00952.2422286,E,2,11,0.8,-1.103,M,40.593,M,2.9,0123*61\r\n
$GPGGA,091733.45,5703.3531006,N,00952.2421966,E,2,11,0.8,-1.102,M,40.593,M,3.1,0123*60\r\n
$GPGGA,091733.50,5703.3531157,N,00952.2421644,E,2,11,0.8,-1.102,M,40.593,M,3.1,0123*6E\r\n
$GPGGA,091733.55,5703.3531311,N,00952.2421328,E,2,11,0.8,-1.103,M,40.593,M,3.1,0123*65\r\n
$GPGGA,091733.60,5703.3531469,N,00952.2421005,E,2,11,0.8,-1.104,M,40.593,M,3.1,0123*60\r\n
$GPGGA,091733.65,5703.3531632,N,00952.2420680,E,2,11,0.8,-1.102,M,40.593,M,3.4,0123*60\r\n
$GPGGA,091733.70,5703.3531785,N,00952.2420354,E,2,11,0.8,-1.102,M,40.593,M,3.4,0123*65\r\n
$GPGGA,091733.75,5703.3531952,N,00952.2420027,E,2,11,0.8,-1.101,M,40.593,M,3.4,0123*60\r\n
$GPGGA,091733.80,5703.3532109,N,00952.2419685,E,2,11,0.8,-1.102,M,40.593,M,3.4,0123*68\r\n
$GPGGA,091733.85,5703.3532266,N,00952.2419335,E,2,11,0.8,-1.107,M,40.593,M,3.6,0123*6E\r\n
$GPGGA,091733.90,5703.3532418,N,00952.2418993,E,2,11,0.8,-1.111,M,40.593,M,3.6,0123*65\r\n
$GPGGA,091733.95,5703.3532571,N,00952.2418655,E,2,11,0.8,-1.112,M,40.593,M,3.6,0123*68\r\n
$GPGGA,091734.00,5703.3532722,N,00952.2418325,E,2,11,0.8,-1.112,M,40.593,M,3.6,0123*65\r\n
$GPGGA,091734.05,5703.3532877,N,00952.2417984,E,2,11,0.8,-1.111,M,40.593,M,3.8,0123*6C\r\n
$GPGGA,091734.10,5703.3533032,N,00952.2417643,E,2,11,0.8,-1.112,M,40.593,M,3.8,0123*67\r\n
$GPGGA,091734.15,5703.3533190,N,00952.2417296,E,2,11,0.8,-1.113,M,40.593,M,3.8,0123*66\r\n
$GPGGA,091734.20,5703.3533348,N,00952.2416962,E,2,11,0.8,-1.113,M,40.593,M,3.8,0123*66\r\n
$GPGGA,091734.25,5703.3533502,N,00952.2416620,E,2,11,0.8,-1.116,M,40.593,M,4.0,0123*68\r\n
$GPGGA,091734.30,5703.3533650,N,00952.2416280,E,2,11,0.8,-1.116,M,40.593,M,4.0,0123*66\r\n
$GPGGA,091734.35,5703.3533812,N,00952.2415952,E,2,11,0.8,-1.115,M,40.593,M,4.0,0123*6F\r\n
$GPGGA,091734.40,5703.3533970,N,00952.2415615,E,2,11,0.8,-1.114,M,40.593,M,4.0,0123*65\r\n
$GPGGA,091734.45,5703.3534126,N,00952.2415297,E,2,11,0.8,-1.110,M,40.593,M,2.9,0123*69\r\n
$GPGGA,091734.50,5703.3534281,N,00952.2414967,E,2,11,0.8,-1.110,M,40.593,M,2.9,0123*66\r\n
$GPGGA,091734.55,5703.3534447,N,00952.2414624,E,2,11,0.8,-1.109,M,40.593,M,2.9,0123*6F\r\n
$GPGGA,091734.60,5703.3534610,N,00952.2414276,E,2,11,0.8,-1.108,M,40.593,M,2.9,0123*6B\r\n
$GPGGA,091734.65,5703.3534764,N,00952.2413935,E,2,11,0.8,-1.110,M,40.593,M,3.2,0123*64\r\n
$GPGGA,091734.70,5703.3534920,N,00952.2413587,E,2,11,0.8,-1.110,M,40.593,M,3.2,0123*6B\r\n
$GPGGA,091734.75,5703.3535087,N,00952.2413238,E,2,11,0.8,-1.111,M,40.593,M,3.2,0123*69\r\n
$GPGGA,091734.80,5703.3535247,N,00952.2412889,E,2,11,0.8,-1.112,M,40.593,M,3.2,0123*6F\r\n
$GPGGA,091734.85,5703.3535409,N,00952.2412537,E,2,11,0.8,-1.110,M,40.593,M,3.4,0123*6A\r\n
$GPGGA,091734.90,5703.3535570,N,00952.2412182,E,2,11,0.8,-1.108,M,40.593,M,3.4,0123*62\r\n
$GPGGA,091734.95,5703.3535733,N,00952.2411817,E,2,11,0.8,-1.108,M,40.593,M,3.4,0123*64\r\n
$GPGGA,091735.00,5703.3535897,N,00952.2411453,E,2,11,0.8,-1.110,M,40.593,M,3.4,0123*6D\r\n
$GPGGA,091735.05,5703.3536053,N,00952.2411107,E,2,11,0.8,-1.112,M,40.593,M,3.6,0123*6F\r\n
$GPGGA,091735.10,5703.3536208,N,00952.2410751,E,2,11,0.8,-1.112,M,40.593,M,3.6,0123*63\r\n
$GPGGA,091735.15,5703.3536365,N,00952.2410406,E,2,11,0.8,-1.111,M,40.593,M,3.6,0123*6E\r\n
$GPGGA,091735.20,5703.3536526,N,00952.2410069,E,2,11,0.8,-1.110,M,40.593,M,3.6,0123*65\r\n
$GPGGA,091735.25,5703.3536691,N,00952.2409724,E,2,11,0.8,-1.109,M,40.593,M,3.9,0123*6E\r\n
$GPGGA,091735.30,5703.3536851,N,00952.2409371,E,2,11,0.8,-1.109,M,40.593,M,3.9,0123*6C\r\n
$GPGGA,091735.35,5703.3537020,N,00952.2409025,E,2,11,0.8,-1.109,M,40.593,M,3.9,0123*64\r\n
$GPGGA,091735.40,5703.3537182,N,00952.2408697,E,2,11,0.8,-1.108,M,40.593,M,3.9,0123*60\r\n
$GPGGA,091735.45,5703.3537345,N,00952.2408370,E,2,11,0.8,-1.112,M,40.593,M,2.0,0123*63\r\n
$GPGGA,091735.50,5703.3537515,N,00952.2408037,E,2,11,0.8,-1.109,M,40.593,M,2.0,0123*6E\r\n
$GPGGA,091735.55,5703.3537686,N,00952.2407697,E,2,11,0.8,-1.109,M,40.593,M,2.0,0123*61\r\n
$GPGGA,091735.60,5703.3537852,N,00952.2407364,E,2,11,0.8,-1.110,M,40.593,M,2.0,0123*61\r\n
$GPGGA,091735.65,5703.3538024,N,00952.2407039,E,2,11,0.8,-1.107,M,40.593,M,2.2,0123*6D\r\n
$GPGGA,091735.70,5703.3538189,N,00952.2406715,E,2,11,0.8,-1.108,M,40.593,M,2.2,0123*68\r\n
$GPGGA,091735.75,5703.3538355,N,00952.2406377,E,2,11,0.8,-1.108,M,40.593,M,2.2,0123*6E\r\n
$GPGGA,091735.80,5703.3538519,N,00952.2406032,E,2,11,0.8,-1.107,M,40.593,M,2.2,0123*67\r\n
$GPGGA,091735.85,5703.3538695,N,00952.2405681,E,2,11,0.8,-1.109,M,40.593,M,2.4,0123*60\r\n
$GPGGA,091735.90,5703.3538866,N,00952.2405327,E,2,11,0.8,-1.110,M,40.593,M,2.4,0123*67\r\n
$GPGGA,091735.95,5703.3539035,N,00952.2404955,E,2,11,0.8,-1.111,M,40.593,M,2.4,0123*62\r\n
$GPGGA,091736.00,5703.3539205,N,00952.2404587,E,2,11,0.8,-1.111,M,40.593,M,2.4,0123*6F\r\n
$GPGGA,091736.05,5703.3539372,N,00952.2404209,E,2,11,0.8,-1.113,M,40.593,M,2.7,0123*6B\r\n
$GPGGA,091736.10,5703.3539535,N,00952.2403836,E,2,11,0.8,-1.113,M,40.593,M,2.7,0123*6B\r\n
$GPGGA,091736.15,5703.3539698,N,00952.2403457,E,2,11,0.8,-1.113,M,40.593,M,2.7,0123*61\r\n
$GPGGA,091736.20,5703.3539867,N,00952.2403087,E,2,11,0.8,-1.113,M,40.593,M,2.7,0123*60\r\n
$GPGGA,091736.25,5703.3540037,N,00952.2402720,E,2,11,0.8,-1.111,M,40.593,M,2.9,0123*61\r\n
$GPGGA,091736.30,5703.3540193,N,00952.2402339,E,2,11,0.8,-1.109,M,40.593,M,2.9,0123*6F\r\n
$GPGGA,091736.35,5703.3540358,N,00952.2401965,E,2,11,0.8,-1.107,M,40.593,M,2.9,0123*61\r\n
$GPGGA,091736.40,5703.3540525,N,00952.2401596,E,2,11,0.8,-1.106,M,40.593,M,2.9,0123*6E\r\n
$GPGGA,091736.45,5703.3540679,N,00952.2401219,E,2,11,0.8,-1.108,M,40.593,M,2.1,0123*67\r\n
$GPGGA,091736.50,5703.3540841,N,00952.2400864,E,2,11,0.8,-1.107,M,40.593,M,2.1,0123*68\r\n
$GPGGA,091736.55,5703.3541019,N,00952.2400512,E,2,11,0.8,-1.105,M,40.593,M,2.1,0123*67\r\n
$GPGGA,091736.60,5703.3541188,N,00952.2400165,E,2,11,0.8,-1.103,M,40.593,M,2.1,0123*6A\r\n
$GPGGA,091736.65,5703.3541349,N,00952.2399820,E,2,11,0.8,-1.101,M,40.593,M,2.3,0123*6F\r\n
$GPGGA,091736.70,5703.3541511,N,00952.2399482,E,2,11,0.8,-1.100,M,40.593,M,2.3,0123*65\r\n
$GPGGA,091736.75,5703.3541676,N,00952.2399141,E,2,11,0.8,-1.100,M,40.593,M,2.3,0123*68\r\n
$GPGGA,091736.80,5703.3541850,N,00952.2398808,E,2,11,0.8,-1.101,M,40.593,M,2.3,0123*6C\r\n
$GPGGA,091736.85,5703.3542031,N,00952.2398478,E,2,11,0.8,-1.097,M,40.593,M,2.5,0123*66\r\n
$GPGGA,091736.90,5703.3542198,N,00952.2398147,E,2,11,0.8,-1.096,M,40.593,M,2.5,0123*68\r\n
$GPGGA,091736.95,5703.3542364,N,00952.2397816,E,2,11,0.8,-1.095,M,40.593,M,2.5,0123*6D\r\n
$GPGGA,091737.00,5703.3542532,N,00952.2397479,E,2,11,0.8,-1.096,M,40.593,M,2.5,0123*63\r\n
$GPGGA,091737.05,5703.3542693,N,00952.2397140,E,2,11,0.8,-1.095,M,40.593,M,2.7,0123*60\r\n
$GPGGA,091737.10,5703.3542854,N,00952.2396796,E,2,11,0.8,-1.098,M,40.593,M,2.7,0123*60\r\n
$GPGGA,091737.15,5703.3543022,N,00952.2396444,E,2,11,0.8,-1.100,M,40.593,M,2.7,0123*61\r\n
$GPGGA,091737.20,5703.3543203,N,00952.2396096,E,2,11,0.8,-1.102,M,40.593,M,2.7,0123*6F\r\n
$GPGGA,091737.25,5703.3543378,N,00952.2395738,E,2,11,0.8,-1.102,M,40.593,M,2.9,0123*69\r\n
$GPGGA,091737.30,5703.3543550,N,00952.2395375,E,2,11,0.8,-1.105,M,40.593,M,2.9,0123*6B\r\n
$GPGGA,091737.35,5703.3543721,N,00952.2395012,E,2,11,0.8,-1.108,M,40.593,M,2.9,0123*65\r\n
$GPGGA,091737.40,5703.3543881,N,00952.2394659,E,2,11,0.8,-1.111,M,40.593,M,2.9,0123*62\r\n
$GPGGA,091737.45,5703.3544052,N,00952.2394300,E,2,11,0.8,-1.112,M,40.593,M,3.1,0123*65\r\n
$GPGGA,091737.50,5703.3544223,N,00952.2393938,E,2,11,0.8,-1.114,M,40.593,M,3.1,0123*65\r\n
$GPGGA,091737.55,5703.3544389,N,00952.2393592,E,2,11,0.8,-1.115,M,40.593,M,3.1,0123*6C\r\n
$GPGGA,091737.60,5703.3544555,N,00952.2393267,E,2,11,0.8,-1.117,M,40.593,M,3.1,0123*62\r\n
$GPGGA,091737.65,5703.3544716,N,00952.2392942,E,2,11,0.8,-1.116,M,40.593,M,3.4,0123*6B\r\n
$GPGGA,091737.70,5703.3544885,N,00952.2392613,E,2,11,0.8,-1.116,M,40.593,M,3.4,0123*61\r\n
$GPGGA,091737.75,5703.3545053,N,00952.2392278,E,2,11,0.8,-1.115,M,40.593,M,3.4,0123*6C\r\n
$GPGGA,091737.80,5703.3545219,N,00952.2391933,E,2,11,0.8,-1.114,M,40.593,M,3.4,0123*6C\r\n
$GPGGA,091737.85,5703.3545389,N,00952.2391593,E,2,11,0.8,-1.110,M,40.593,M,3.6,0123*61\r\n
$GPGGA,091737.90,5703.3545567,N,00952.2391256,E,2,11,0.8,-1.109,M,40.593,M,3.6,0123*65\r\n
$GPGGA,091737.95,5703.3545755,N,00952.2390905,E,2,11,0.8,-1.106,M,40.593,M,3.6,0123*60\r\n
$GPGGA,091738.00,5703.3545923,N,00952.2390554,E,2,11,0.8,-1.105,M,40.593,M,3.6,0123*67\r\n
$GPGGA,091738.05,5703.3546084,N,00952.2390181,E,2,11,0.8,-1.104,M,40.593,M,3.8,0123*66\r\n
$GPGGA,091738.10,5703.3546258,N,00952.2389819,E,2,11,0.8,-1.103,M,40.593,M,3.8,0123*66\r\n
$GPGGA,091738.15,5703.3546419,N,00952.2389457,E,2,11,0.8,-1.104,M,40.593,M,3.8,0123*61\r\n
$GPGGA,091738.20,5703.3546591,N,00952.2389098,E,2,11,0.8,-1.104,M,40.593,M,3.8,0123*61\r\n
$GPGGA,091738.25,5703.3546769,N,00952.2388738,E,2,11,0.8,-1.101,M,40.593,M,4.0,0123*67\r\n
$GPGGA,091738.30,5703.3546943,N,00952.2388379,E,2,11,0.8,-1.102,M,40.593,M,4.0,0123*67\r\n
$GPGGA,091738.35,5703.3547125,N,00952.2388019,E,2,11,0.8,-1.101,M,40.593,M,4.0,0123*6D\r\n
$GPGGA,091738.40,5703.3547317,N,00952.2387651,E,2,11,0.8,-1.101,M,40.593,M,4.0,0123*69\r\n
$GPGGA,091738.45,5703.3547511,N,00952.2387274,E,2,11,0.8,-1.101,M,40.593,M,2.9,0123*60\r\n
$GPGGA,091738.50,5703.3547708,N,00952.2386902,E,2,11,0.8,-1.100,M,40.593,M,2.9,0123*64\r\n
$GPGGA,091738.55,5703.3547909,N,00952.2386538,E,2,11,0.8,-1.097,M,40.593,M,2.9,0123*64\r\n
$GPGGA,091738.60,5703.3548118,N,00952.2386184,E,2,11,0.8,-1.096,M,40.593,M,2.9,0123*67\r\n
$GPGGA,091738.65,5703.3548336,N,00952.2385857,E,2,11,0.8,-1.092,M,40.593,M,3.2,0123*66\r\n
$GPGGA,091738.70,5703.3548560,N,00952.2385532,E,2,11,0.8,-1.088,M,40.593,M,3.2,0123*62\r\n
$GPGGA,091738.75,5703.3548787,N,00952.2385197,E,2,11,0.8,-1.082,M,40.593,M,3.2,0123*6D\r\n
$GPGGA,091738.80,5703.3549024,N,00952.2384856,E,2,11,0.8,-1.077,M,40.593,M,3.2,0123*67\r\n
$GPGGA,091738.85,5703.3549265,N,00952.2384536,E,2,11,0.8,-1.072,M,40.593,M,3.4,0123*6D\r\n
$GPGGA,091738.90,5703.3549514,N,00952.2384200,E,2,11,0.8,-1.067,M,40.593,M,3.4,0123*6E\r\n
$GPGGA,091738.95,5703.3549764,N,00952.2383842,E,2,11,0.8,-1.061,M,40.593,M,3.4,0123*63\r\n
$GPGGA,091739.00,5703.3550014,N,00952.2383500,E,2,11,0.8,-1.058,M,40.593,M,3.4,0123*67\r\n
$GPGGA,091739.05,5703.3550272,N,00952.2383141,E,2,11,0.8,-1.059,M,40.593,M,3.6,0123*62\r\n
$GPGGA,091739.10,5703.3550533,N,00952.2382769,E,2,11,0.8,-1.057,M,40.593,M,3.6,0123*67\r\n
$GPGGA,091739.15,5703.3550792,N,00952.2382389,E,2,11,0.8,-1.055,M,40.593,M,3.6,0123*63\r\n
$GPGGA,091739.20,5703.3551063,N,00952.2382010,E,2,11,0.8,-1.054,M,40.593,M,3.6,0123*6F\r\n
$GPGGA,091739.25,5703.3551350,N,00952.2381626,E,2,11,0.8,-1.054,M,40.593,M,3.9,0123*66\r\n
$GPGGA,091739.30,5703.3551633,N,00952.2381241,E,2,11,0.8,-1.057,M,40.593,M,3.9,0123*64\r\n
$GPGGA,091739.35,5703.3551926,N,00952.2380856,E,2,11,0.8,-1.059,M,40.593,M,3.9,0123*69\r\n
$GPGGA,091739.40,5703.3552231,N,00952.2380475,E,2,11,0.8,-1.061,M,40.593,M,3.9,0123*63\r\n
$GPGGA,091739.45,5703.3552538,N,00952.2380091,E,2,11,0.8,-1.063,M,40.593,M,0.8,0123*66\r\n
$GPGGA,091739.50,5703.3552848,N,00952.2379715,E,2,11,0.8,-1.064,M,40.593,M,0.8,0123*62\r\n
$GPGGA,091739.55,5703.3553162,N,00952.2379331,E,2,11,0.8,-1.064,M,40.593,M,0.8,0123*65\r\n
$GPGGA,091739.60,5703.3553474,N,00952.2378939,E,2,11,0.8,-1.063,M,40.593,M,0.8,0123*65\r\n
$GPGGA,091739.65,5703.3553792,N,00952.2378528,E,2,11,0.8,-1.060,M,40.593,M,1.1,0123*6C\r\n
$GPGGA,091739.70,5703.3554109,N,00952.2378125,E,2,11,0.8,-1.059,M,40.593,M,1.1,0123*68\r\n
$GPGGA,091739.75,5703.3554428,N,00952.2377726,E,2,11,0.8,-1.055,M,40.593,M,1.1,0123*6D\r\n
$GPGGA,091739.80,5703.3554764,N,00952.2377323,E,2,11,0.8,-1.049,M,40.593,M,1.1,0123*60\r\n
$GPGGA,091739.85,5703.3555109,N,00952.2376912,E,2,11,0.8,-1.046,M,40.593,M,1.4,0123*6A\r\n
$GPGGA,091739.90,5703.3555463,N,00952.2376495,E,2,11,0.8,-1.046,M,40.593,M,1.4,0123*65\r\n
$GPGGA,091739.95,5703.3555821,N,00952.2376091,E,2,11,0.8,-1.048,M,40.593,M,1.4,0123*64\r\n
$GPGGA,091740.00,5703.3556188,N,00952.2375716,E,2,11,0.8,-1.052,M,40.593,M,1.4,0123*6F\r\n
$GPGGA,091740.05,5703.3556568,N,00952.2375339,E,2,11,0.8,-1.045,M,40.593,M,1.6,0123*6D\r\n
$GPGGA,091740.10,5703.3556933,N,00952.2374967,E,2,11,0.8,-1.044,M,40.593,M,1.6,0123*6A\r\n
$GPGGA,091740.15,5703.3557303,N,00952.2374563,E,2,11,0.8,-1.043,M,40.593,M,1.6,0123*68\r\n
$GPGGA,091740.20,5703.3557687,N,00952.2374139,E,2,11,0.8,-1.043,M,40.593,M,1.6,0123*6C\r\n
$GPGGA,091740.25,5703.3558077,N,00952.2373759,E,2,11,0.8,-1.047,M,40.593,M,1.9,0123*63\r\n
$GPGGA,091740.30,5703.3558479,N,00952.2373399,E,2,11,0.8,-1.046,M,40.593,M,1.9,0123*64\r\n
$GPGGA,091740.35,5703.3558891,N,00952.2373043,E,2,11,0.8,-1.042,M,40.593,M,1.9,0123*6B\r\n
$GPGGA,091740.40,5703.3559301,N,00952.2372669,E,2,11,0.8,-1.041,M,40.593,M,1.9,0123*66\r\n
$GPGGA,091740.45,5703.3559720,N,00952.2372306,E,2,11,0.8,-1.042,M,40.593,M,2.1,0123*60\r\n
$GPGGA,091740.50,5703.3560132,N,00952.2371935,E,2,11,0.8,-1.044,M,40.593,M,2.1,0123*64\r\n
$GPGGA,091740.55,5703.3560540,N,00952.2371517,E,2,11,0.8,-1.047,M,40.593,M,2.1,0123*6F\r\n
$GPGGA,091740.60,5703.3560966,N,00952.2371089,E,2,11,0.8,-1.050,M,40.593,M,2.1,0123*65\r\n
$GPGGA,091740.65,5703.3561403,N,00952.2370674,E,2,11,0.8,-1.052,M,40.593,M,2.3,0123*6A\r\n
$GPGGA,091740.70,5703.3561840,N,00952.2370276,E,2,11,0.8,-1.055,M,40.593,M,2.3,0123*64\r\n
$GPGGA,091740.75,5703.3562271,N,00952.2369895,E,2,11,0.8,-1.057,M,40.593,M,2.3,0123*67\r\n
$GPGGA,091740.80,5703.3562710,N,00952.2369483,E,2,11,0.8,-1.059,M,40.593,M,2.3,0123*6A\r\n
$GPGGA,091740.85,5703.3563151,N,00952.2369046,E,2,11,0.8,-1.060,M,40.593,M,2.5,0123*6C\r\n
$GPGGA,091740.90,5703.3563608,N,00952.2368610,E,2,11,0.8,-1.060,M,40.593,M,2.5,0123*67\r\n
$GPGGA,091740.95,5703.3564054,N,00952.2368196,E,2,11,0.8,-1.060,M,40.593,M,2.5,0123*63\r\n
$GPGGA,091741.00,5703.3564494,N,00952.2367808,E,2,11,0.8,-1.063,M,40.593,M,2.5,0123*64\r\n
$GPGGA,091741.05,5703.3564938,N,00952.2367392,E,2,11,0.8,-1.065,M,40.593,M,2.7,0123*66\r\n
$GPGGA,091741.10,5703.3565390,N,00952.2366983,E,2,11,0.8,-1.069,M,40.593,M,2.7,0123*6C\r\n
$GPGGA,091741.15,5703.3565857,N,00952.2366579,E,2,11,0.8,-1.068,M,40.593,M,2.7,0123*61\r\n
$GPGGA,091741.20,5703.3566322,N,00952.2366181,E,2,11,0.8,-1.064,M,40.593,M,2.7,0123*62\r\n
$GPGGA,091741.25,5703.3566785,N,00952.2365787,E,2,11,0.8,-1.062,M,40.593,M,2.9,0123*65\r\n
$GPGGA,091741.30,5703.3567255,N,00952.2365382,E,2,11,0.8,-1.061,M,40.593,M,2.9,0123*6A\r\n
$GPGGA,091741.35,5703.3567726,N,00952.2364985,E,2,11,0.8,-1.059,M,40.593,M,2.9,0123*69\r\n
$GPGGA,091741.40,5703.3568204,N,00952.2364567,E,2,11,0.8,-1.059,M,40.593,M,2.9,0123*61\r\n
$GPGGA,091741.45,5703.3568690,N,00952.2364153,E,2,11,0.8,-1.059,M,40.593,M,1.3,0123*67\r\n
$GPGGA,091741.50,5703.3569166,N,00952.2363733,E,2,11,0.8,-1.061,M,40.593,M,1.3,0123*60\r\n
$GPGGA,091741.55,5703.3569642,N,00952.2363306,E,2,11,0.8,-1.064,M,40.593,M,1.3,0123*63\r\n
$GPGGA,091741.60,5703.3570130,N,00952.2362867,E,2,11,0.8,-1.066,M,40.593,M,1.3,0123*60\r\n
$GPGGA,091741.65,5703.3570621,N,00952.2362431,E,2,11,0.8,-1.070,M,40.593,M,1.7,0123*6E\r\n
$GPGGA,091741.70,5703.3571116,N,00952.2361993,E,2,11,0.8,-1.073,M,40.593,M,1.7,0123*6D\r\n
$GPGGA,091741.75,5703.3571613,N,00952.2361546,E,2,11,0.8,-1.076,M,40.593,M,1.7,0123*6B\r\n
$GPGGA,091741.80,5703.3572105,N,00952.2361118,E,2,11,0.8,-1.079,M,40.593,M,1.7,0123*62\r\n
$GPGGA,091741.85,5703.3572611,N,00952.2360667,E,2,11,0.8,-1.083,M,40.593,M,2.0,0123*6A\r\n
$GPGGA,091741.90,5703.3573114,N,00952.2360237,E,2,11,0.8,-1.083,M,40.593,M,2.0,0123*6C\r\n
$GPGGA,091741.95,5703.3573616,N,00952.2359819,E,2,11,0.8,-1.082,M,40.593,M,2.0,0123*61\r\n
$GPGGA,091742.00,5703.3574126,N,00952.2359410,E,2,11,0.8,-1.084,M,40.593,M,2.0,0123*6E\r\n
$GPGGA,091742.05,5703.3574631,N,00952.2358998,E,2,11,0.8,-1.077,M,40.593,M,2.4,0123*6E\r\n
$GPGGA,091742.10,5703.3575142,N,00952.2358578,E,2,11,0.8,-1.077,M,40.593,M,2.4,0123*6A\r\n
$GPGGA,091742.15,5703.3575660,N,00952.2358146,E,2,11,0.8,-1.076,M,40.593,M,2.4,0123*60\r\n
$GPGGA,091742.20,5703.3576195,N,00952.2357705,E,2,11,0.8,-1.074,M,40.593,M,2.4,0123*64\r\n
$GPGGA,091742.25,5703.3576727,N,00952.2357272,E,2,11,0.8,-1.075,M,40.593,M,2.6,0123*68\r\n
$GPGGA,091742.30,5703.3577248,N,00952.2356833,E,2,11,0.8,-1.075,M,40.593,M,2.6,0123*6F\r\n
$GPGGA,091742.35,5703.3577764,N,00952.2356385,E,2,11,0.8,-1.077,M,40.593,M,2.6,0123*65\r\n
$GPGGA,091742.40,5703.3578296,N,00952.2355927,E,2,11,0.8,-1.079,M,40.593,M,2.6,0123*6F\r\n
$GPGGA,091742.45,5703.3578840,N,00952.2355486,E,2,11,0.8,-1.077,M,40.593,M,0.7,0123*60\r\n
$GPGGA,091742.50,5703.3579378,N,00952.2355039,E,2,11,0.8,-1.077,M,40.593,M,0.7,0123*65\r\n
$GPGGA,091742.55,5703.3579910,N,00952.2354598,E,2,11,0.8,-1.075,M,40.593,M,0.7,0123*69\r\n
$GPGGA,091742.60,5703.3580434,N,00952.2354158,E,2,11,0.8,-1.073,M,40.593,M,0.7,0123*6C\r\n
$GPGGA,091742.65,5703.3580956,N,00952.2353712,E,2,11,0.8,-1.074,M,40.593,M,1.0,0123*6E\r\n
$GPGGA,091742.70,5703.3581486,N,00952.2353258,E,2,11,0.8,-1.075,M,40.593,M,1.0,0123*61\r\n
$GPGGA,091742.75,5703.3582023,N,00952.2352826,E,2,11,0.8,-1.072,M,40.593,M,1.0,0123*69\r\n
$GPGGA,091742.80,5703.3582552,N,00952.2352387,E,2,11,0.8,-1.071,M,40.593,M,1.0,0123*63\r\n
$GPGGA,091742.85,5703.3583094,N,00952.2351948,E,2,11,0.8,-1.067,M,40.593,M,1.2,0123*67\r\n
$GPGGA,091742.90,5703.3583643,N,00952.2351502,E,2,11,0.8,-1.066,M,40.593,M,1.2,0123*6C\r\n
$GPGGA,091742.95,5703.3584184,N,00952.2351038,E,2,11,0.8,-1.068,M,40.593,M,1.2,0123*60\r\n
$GPGGA,091743.00,5703.3584717,N,00952.2350584,E,2,11,0.8,-1.067,M,40.593,M,1.2,0123*6D\r\n
$GPGGA,091743.05,5703.3585255,N,00952.2350124,E,2,11,0.8,-1.061,M,40.593,M,1.5,0123*65\r\n
$GPGGA,091743.10,5703.3585797,N,00952.2349653,E,2,11,0.8,-1.061,M,40.593,M,1.5,0123*65\r\n
$GPGGA,091743.15,5703.3586337,N,00952.2349196,E,2,11,0.8,-1.061,M,40.593,M,1.5,0123*63\r\n
$GPGGA,091743.20,5703.3586891,N,00952.2348758,E,2,11,0.8,-1.060,M,40.593,M,1.5,0123*66\r\n
$GPGGA,091743.25,5703.3587428,N,00952.2348303,E,2,11,0.8,-1.063,M,40.593,M,1.7,0123*67\r\n
$GPGGA,091743.30,5703.3587961,N,00952.2347841,E,2,11,0.8,-1.063,M,40.593,M,1.7,0123*61\r\n
$GPGGA,091743.35,5703.3588501,N,00952.2347372,E,2,11,0.8,-1.062,M,40.593,M,1.7,0123*6B\r\n
$GPGGA,091743.40,5703.3589048,N,00952.2346918,E,2,11,0.8,-1.061,M,40.593,M,1.7,0123*64\r\n
$GPGGA,091743.45,5703.3589594,N,00952.2346468,E,2,11,0.8,-1.056,M,40.593,M,2.0,0123*6F\r\n
$GPGGA,091743.50,5703.3590134,N,00952.2346017,E,2,11,0.8,-1.056,M,40.593,M,2.0,0123*61\r\n
$GPGGA,091743.55,5703.3590661,N,00952.2345546,E,2,11,0.8,-1.056,M,40.593,M,2.0,0123*61\r\n
$GPGGA,091743.60,5703.3591195,N,00952.2345081,E,2,11,0.8,-1.054,M,40.593,M,2.0,0123*66\r\n
$GPGGA,091743.65,5703.3591730,N,00952.2344628,E,2,11,0.8,-1.053,M,40.593,M,2.2,0123*6B\r\n
$GPGGA,091743.70,5703.3592266,N,00952.2344142,E,2,11,0.8,-1.051,M,40.593,M,2.2,0123*63\r\n
$GPGGA,091743.75,5703.3592799,N,00952.2343657,E,2,11,0.8,-1.050,M,40.593,M,2.2,0123*66\r\n
$GPGGA,091743.80,5703.3593340,N,00952.2343165,E,2,11,0.8,-1.050,M,40.593,M,2.2,0123*6B\r\n
$GPGGA,091743.85,5703.3593885,N,00952.2342659,E,2,11,0.8,-1.051,M,40.593,M,2.4,0123*62\r\n
$GPGGA,091743.90,5703.3594426,N,00952.2342144,E,2,11,0.8,-1.052,M,40.593,M,2.4,0123*6C\r\n
$GPGGA,091743.95,5703.3594966,N,00952.2341628,E,2,11,0.8,-1.054,M,40.593,M,2.4,0123*68\r\n
$GPGGA,091744.00,5703.3595505,N,00952.2341111,E,2,11,0.8,-1.059,M,40.593,M,2.4,0123*6B\r\n
$GPGGA,091744.05,5703.3596032,N,00952.2340570,E,2,11,0.8,-1.064,M,40.593,M,2.7,0123*63\r\n
$GPGGA,091744.10,5703.3596556,N,00952.2340049,E,2,11,0.8,-1.065,M,40.593,M,2.7,0123*6E\r\n
$GPGGA,091744.15,5703.3597098,N,00952.2339534,E,2,11,0.8,-1.065,M,40.593,M,2.7,0123*6C\r\n
$GPGGA,091744.20,5703.3597630,N,00952.2339009,E,2,11,0.8,-1.062,M,40.593,M,2.7,0123*62\r\n
$GPGGA,091744.25,5703.3598157,N,00952.2338479,E,2,11,0.8,-1.061,M,40.593,M,1.9,0123*62\r\n
$GPGGA,091744.30,5703.3598679,N,00952.2337938,E,2,11,0.8,-1.060,M,40.593,M,1.9,0123*6B\r\n
$GPGGA,091744.35,5703.3599204,N,00952.2337392,E,2,11,0.8,-1.058,M,40.593,M,1.9,0123*60\r\n
$GPGGA,091744.40,5703.3599719,N,00952.2336822,E,2,11,0.8,-1.057,M,40.593,M,1.9,0123*65\r\n
$GPGGA,091744.45,5703.3600234,N,00952.2336265,E,2,11,0.8,-1.060,M,40.593,M,2.1,0123*6F\r\n
$GPGGA,091744.50,5703.3600757,N,00952.2335727,E,2,11,0.8,-1.060,M,40.593,M,2.1,0123*6B\r\n
$GPGGA,091744.55,5703.3601281,N,00952.2335167,E,2,11,0.8,-1.059,M,40.593,M,2.1,0123*69\r\n
$GPGGA,091744.60,5703.3601802,N,00952.2334590,E,2,11,0.8,-1.061,M,40.593,M,2.1,0123*68\r\n
$GPGGA,091744.65,5703.3602325,N,00952.2333992,E,2,11,0.8,-1.062,M,40.593,M,2.3,0123*68\r\n
$GPGGA,091744.70,5703.3602850,N,00952.2333374,E,2,11,0.8,-1.066,M,40.593,M,2.3,0123*63\r\n
$GPGGA,091744.75,5703.3603374,N,00952.2332763,E,2,11,0.8,-1.068,M,40.593,M,2.3,0123*67\r\n
$GPGGA,091744.80,5703.3603904,N,00952.2332149,E,2,11,0.8,-1.072,M,40.593,M,2.3,0123*65\r\n
$GPGGA,091744.85,5703.3604414,N,00952.2331513,E,2,11,0.8,-1.078,M,40.593,M,2.5,0123*6F\r\n
$GPGGA,091744.90,5703.3604923,N,00952.2330848,E,2,11,0.8,-1.078,M,40.593,M,2.5,0123*60\r\n
$GPGGA,091744.95,5703.3605436,N,00952.2330209,E,2,11,0.8,-1.080,M,40.593,M,2.5,0123*65\r\n
$GPGGA,091745.00,5703.3605939,N,00952.2329568,E,2,11,0.8,-1.083,M,40.593,M,2.5,0123*61\r\n
$GPGGA,091745.05,5703.3606446,N,00952.2328920,E,2,11,0.8,-1.076,M,40.593,M,2.7,0123*6B\r\n
$GPGGA,091745.10,5703.3606938,N,00952.2328278,E,2,11,0.8,-1.074,M,40.593,M,2.7,0123*6F\r\n
$GPGGA,091745.15,5703.3607432,N,00952.2327624,E,2,11,0.8,-1.071,M,40.593,M,2.7,0123*6B\r\n
$GPGGA,091745.20,5703.3607945,N,00952.2326967,E,2,11,0.8,-1.066,M,40.593,M,2.7,0123*6F\r\n
$GPGGA,091745.25,5703.3608444,N,00952.2326308,E,2,11,0.8,-1.064,M,40.593,M,2.9,0123*66\r\n
$GPGGA,091745.30,5703.3608936,N,00952.2325642,E,2,11,0.8,-1.062,M,40.593,M,2.9,0123*64\r\n
$GPGGA,091745.35,5703.3609426,N,00952.2324955,E,2,11,0.8,-1.061,M,40.593,M,2.9,0123*67\r\n
$GPGGA,091745.40,5703.3609925,N,00952.2324257,E,2,11,0.8,-1.059,M,40.593,M,2.9,0123*69\r\n
$GPGGA,091745.45,5703.3610426,N,00952.2323527,E,2,11,0.8,-1.061,M,40.593,M,3.1,0123*6F\r\n
$GPGGA,091745.50,5703.3610912,N,00952.2322776,E,2,11,0.8,-1.063,M,40.593,M,3.1,0123*64\r\n
$GPGGA,091745.55,5703.3611391,N,00952.2322035,E,2,11,0.8,-1.064,M,40.593,M,3.1,0123*66\r\n
$GPGGA,091745.60,5703.3611868,N,00952.2321298,E,2,11,0.8,-1.065,M,40.593,M,3.1,0123*6A\r\n
$GPGGA,091745.65,5703.3612341,N,00952.2320543,E,2,11,0.8,-1.066,M,40.593,M,3.4,0123*6A\r\n
$GPGGA,091745.70,5703.3612812,N,00952.2319786,E,2,11,0.8,-1.066,M,40.593,M,3.4,0123*62\r\n
$GPGGA,091745.75,5703.3613285,N,00952.2319034,E,2,11,0.8,-1.066,M,40.593,M,3.4,0123*6C\r\n
$GPGGA,091745.80,5703.3613762,N,00952.2318279,E,2,11,0.8,-1.065,M,40.593,M,3.4,0123*63\r\n
$GPGGA,091745.85,5703.3614240,N,00952.2317508,E,2,11,0.8,-1.068,M,40.593,M,3.6,0123*65\r\n
$GPGGA,091745.90,5703.3614714,N,00952.2316719,E,2,11,0.8,-1.071,M,40.593,M,3.6,0123*6E\r\n
$GPGGA,091745.95,5703.3615173,N,00952.2315929,E,2,11,0.8,-1.076,M,40.593,M,3.6,0123*64\r\n
$GPGGA,091746.00,5703.3615641,N,00952.2315135,E,2,11,0.8,-1.078,M,40.593,M,3.6,0123*66\r\n
$GPGGA,091746.05,5703.3616101,N,00952.2314326,E,2,11,0.8,-1.078,M,40.593,M,3.8,0123*6C\r\n
$GPGGA,091746.10,5703.3616558,N,00952.2313513,E,2,11,0.8,-1.081,M,40.593,M,3.8,0123*61\r\n
$GPGGA,091746.15,5703.3617010,N,00952.2312699,E,2,11,0.8,-1.086,M,40.593,M,3.8,0123*6B\r\n
$GPGGA,091746.20,5703.3617467,N,00952.2311870,E,2,11,0.8,-1.089,M,40.593,M,3.8,0123*6C\r\n
$GPGGA,091746.25,5703.3617921,N,00952.2311035,E,2,11,0.8,-1.087,M,40.593,M,2.6,0123*6E\r\n
$GPGGA,091746.30,5703.3618381,N,00952.2310180,E,2,11,0.8,-1.087,M,40.593,M,2.6,0123*6B\r\n
$GPGGA,091746.35,5703.3618827,N,00952.2309331,E,2,11,0.8,-1.090,M,40.593,M,2.6,0123*6F\r\n
$GPGGA,091746.40,5703.3619267,N,00952.2308480,E,2,11,0.8,-1.092,M,40.593,M,2.6,0123*6C\r\n
$GPGGA,091746.45,5703.3619701,N,00952.2307619,E,2,11,0.8,-1.094,M,40.593,M,2.9,0123*68\r\n
$GPGGA,091746.50,5703.3620148,N,00952.2306765,E,2,11,0.8,-1.092,M,40.593,M,2.9,0123*60\r\n
$GPGGA,091746.55,5703.3620599,N,00952.2305909,E,2,11,0.8,-1.091,M,40.593,M,2.9,0123*69\r\n
$GPGGA,091746.60,5703.3621045,N,00952.2305065,E,2,11,0.8,-1.091,M,40.593,M,2.9,0123*69\r\n
$GPGGA,091746.65,5703.3621496,N,00952.2304232,E,2,11,0.8,-1.088,M,40.593,M,3.2,0123*65\r\n
$GPGGA,091746.70,5703.3621928,N,00952.2303400,E,2,11,0.8,-1.083,M,40.593,M,3.2,0123*62\r\n
$GPGGA,091746.75,5703.3622368,N,00952.2302544,E,2,11,0.8,-1.079,M,40.593,M,3.2,0123*6F\r\n
$GPGGA,091746.80,5703.3622805,N,00952.2301698,E,2,11,0.8,-1.074,M,40.593,M,3.2,0123*69\r\n
$GPGGA,091746.85,5703.3623240,N,00952.2300846,E,2,11,0.8,-1.067,M,40.593,M,3.4,0123*6E\r\n
$GPGGA,091746.90,5703.3623661,N,00952.2299970,E,2,11,0.8,-1.065,M,40.593,M,3.4,0123*6A\r\n
$GPGGA,091746.95,5703.3624084,N,00952.2299074,E,2,11,0.8,-1.061,M,40.593,M,3.4,0123*6C\r\n
$GPGGA,091747.00,5703.3624504,N,00952.2298170,E,2,11,0.8,-1.058,M,40.593,M,3.4,0123*62\r\n
$GPGGA,091747.05,5703.3624933,N,00952.2297276,E,2,11,0.8,-1.057,M,40.593,M,3.6,0123*68\r\n
$GPGGA,091747.10,5703.3625358,N,00952.2296380,E,2,11,0.8,-1.055,M,40.593,M,3.6,0123*61\r\n
$GPGGA,091747.15,5703.3625776,N,00952.2295456,E,2,11,0.8,-1.056,M,40.593,M,3.6,0123*60\r\n
$GPGGA,091747.20,5703.3626183,N,00952.2294534,E,2,11,0.8,-1.061,M,40.593,M,3.6,0123*69\r\n
$GPGGA,091747.25,5703.3626594,N,00952.2293600,E,2,11,0.8,-1.066,M,40.593,M,1.7,0123*69\r\n
$GPGGA,091747.30,5703.3627002,N,00952.2292663,E,2,11,0.8,-1.071,M,40.593,M,1.7,0123*64\r\n
$GPGGA,091747.35,5703.3627405,N,00952.2291738,E,2,11,0.8,-1.074,M,40.593,M,1.7,0123*6B\r\n
$GPGGA,091747.40,5703.3627805,N,00952.2290815,E,2,11,0.8,-1.074,M,40.593,M,1.7,0123*64\r\n
$GPGGA,091747.45,5703.3628203,N,00952.2289885,E,2,11,0.8,-1.078,M,40.593,M,2.0,0123*6B\r\n
$GPGGA,091747.50,5703.3628608,N,00952.2288956,E,2,11,0.8,-1.080,M,40.593,M,2.0,0123*69\r\n
$GPGGA,091747.55,5703.3629014,N,00952.2288039,E,2,11,0.8,-1.082,M,40.593,M,2.0,0123*64\r\n
$GPGGA,091747.60,5703.3629414,N,00952.2287111,E,2,11,0.8,-1.084,M,40.593,M,2.0,0123*64\r\n
$GPGGA,091747.65,5703.3629817,N,00952.2286173,E,2,11,0.8,-1.089,M,40.593,M,2.2,0123*64\r\n
$GPGGA,091747.70,5703.3630216,N,00952.2285243,E,2,11,0.8,-1.093,M,40.593,M,2.2,0123*6B\r\n
$GPGGA,091747.75,5703.3630617,N,00952.2284324,E,2,11,0.8,-1.093,M,40.593,M,2.2,0123*6A\r\n
$GPGGA,091747.80,5703.3631012,N,00952.2283378,E,2,11,0.8,-1.093,M,40.593,M,2.2,0123*6C\r\n
$GPGGA,091747.85,5703.3631408,N,00952.2282439,E,2,11,0.8,-1.090,M,40.593,M,2.4,0123*60\r\n
$GPGGA,091747.90,5703.3631811,N,00952.2281494,E,2,11,0.8,-1.093,M,40.593,M,2.4,0123*67\r\n
$GPGGA,091747.95,5703.3632214,N,00952.2280544,E,2,11,0.8,-1.094,M,40.593,M,2.4,0123*64\r\n
$GPGGA,091748.00,5703.3632609,N,00952.2279594,E,2,11,0.8,-1.094,M,40.593,M,2.4,0123*64\r\n
$GPGGA,091748.05,5703.3632995,N,00952.2278621,E,2,11,0.8,-1.092,M,40.593,M,2.7,0123*62\r\n
$GPGGA,091748.10,5703.3633391,N,00952.2277659,E,2,11,0.8,-1.093,M,40.593,M,2.7,0123*68\r\n
$GPGGA,091748.15,5703.3633775,N,00952.2276712,E,2,11,0.8,-1.093,M,40.593,M,2.7,0123*6C\r\n
$GPGGA,091748.20,5703.3634157,N,00952.2275766,E,2,11,0.8,-1.091,M,40.593,M,2.7,0123*69\r\n
$GPGGA,091748.25,5703.3634549,N,00952.2274811,E,2,11,0.8,-1.088,M,40.593,M,1.9,0123*6C\r\n
$GPGGA,091748.30,5703.3634943,N,00952.2273852,E,2,11,0.8,-1.086,M,40.593,M,1.9,0123*60\r\n
$GPGGA,091748.35,5703.3635343,N,00952.2272896,E,2,11,0.8,-1.087,M,40.593,M,1.9,0123*66\r\n
$GPGGA,091748.40,5703.3635739,N,00952.2271928,E,2,11,0.8,-1.087,M,40.593,M,1.9,0123*6A\r\n
$GPGGA,091748.45,5703.3636131,N,00952.2270966,E,2,11,0.8,-1.083,M,40.593,M,2.1,0123*66\r\n
$GPGGA,091748.50,5703.3636530,N,00952.2270010,E,2,11,0.8,-1.083,M,40.593,M,2.1,0123*6F\r\n
$GPGGA,091748.55,5703.3636917,N,00952.2269044,E,2,11,0.8,-1.085,M,40.593,M,2.1,0123*6C\r\n
$GPGGA,091748.60,5703.3637303,N,00952.2268083,E,2,11,0.8,-1.086,M,40.593,M,2.1,0123*6D\r\n
$GPGGA,091748.65,5703.3637694,N,00952.2267118,E,2,11,0.8,-1.084,M,40.593,M,2.3,0123*6F\r\n
$GPGGA,091748.70,5703.3638082,N,00952.2266143,E,2,11,0.8,-1.084,M,40.593,M,2.3,0123*6A\r\n
$GPGGA,091748.75,5703.3638472,N,00952.2265180,E,2,11,0.8,-1.084,M,40.593,M,2.3,0123*68\r\n
$GPGGA,091748.80,5703.3638852,N,00952.2264202,E,2,11,0.8,-1.082,M,40.593,M,2.3,0123*62\r\n
$GPGGA,091748.85,5703.3639241,N,00952.2263221,E,2,11,0.8,-1.077,M,40.593,M,2.5,0123*64\r\n
$GPGGA,091748.90,5703.3639628,N,00952.2262240,E,2,11,0.8,-1.078,M,40.593,M,2.5,0123*62\r\n
$GPGGA,091748.95,5703.3640002,N,00952.2261256,E,2,11,0.8,-1.080,M,40.593,M,2.5,0123*64\r\n
$GPGGA,091749.00,5703.3640380,N,00952.2260260,E,2,11,0.8,-1.085,M,40.593,M,2.5,0123*61\r\n
$GPGGA,091749.05,5703.3640754,N,00952.2259267,E,2,11,0.8,-1.093,M,40.593,M,2.7,0123*61\r\n
$GPGGA,091749.10,5703.3641129,N,00952.2258260,E,2,11,0.8,-1.097,M,40.593,M,2.7,0123*6A\r\n
$GPGGA,091749.15,5703.3641507,N,00952.2257271,E,2,11,0.8,-1.102,M,40.593,M,2.7,0123*65\r\n
$GPGGA,091749.20,5703.3641885,N,00952.2256282,E,2,11,0.8,-1.106,M,40.593,M,2.7,0123*6D\r\n
$GPGGA,091749.25,5703.3642266,N,00952.2255309,E,2,11,0.8,-1.114,M,40.593,M,2.9,0123*60\r\n
$GPGGA,091749.30,5703.3642648,N,00952.2254329,E,2,11,0.8,-1.119,M,40.593,M,2.9,0123*62\r\n
$GPGGA,091749.35,5703.3643017,N,00952.2253359,E,2,11,0.8,-1.123,M,40.593,M,2.9,0123*63\r\n
$GPGGA,091749.40,5703.3643392,N,00952.2252396,E,2,11,0.8,-1.126,M,40.593,M,2.9,0123*68\r\n
$GPGGA,091749.45,5703.3643775,N,00952.2251446,E,2,11,0.8,-1.123,M,40.593,M,3.1,0123*65\r\n
$GPGGA,091749.50,5703.3644161,N,00952.2250512,E,2,11,0.8,-1.124,M,40.593,M,3.1,0123*63\r\n
$GPGGA,091749.55,5703.3644544,N,00952.2249558,E,2,11,0.8,-1.122,M,40.593,M,3.1,0123*65\r\n
$GPGGA,091749.60,5703.3644920,N,00952.2248616,E,2,11,0.8,-1.123,M,40.593,M,3.1,0123*64\r\n
$GPGGA,091749.65,5703.3645298,N,00952.2247674,E,2,11,0.8,-1.122,M,40.593,M,3.4,0123*67\r\n
$GPGGA,091749.70,5703.3645673,N,00952.2246716,E,2,11,0.8,-1.120,M,40.593,M,3.4,0123*64\r\n
$GPGGA,091749.75,5703.3646039,N,00952.2245764,E,2,11,0.8,-1.117,M,40.593,M,3.4,0123*68\r\n
$GPGGA,091749.80,5703.3646409,N,00952.2244822,E,2,11,0.8,-1.115,M,40.593,M,3.4,0123*6B\r\n
$GPGGA,091749.85,5703.3646792,N,00952.2243890,E,2,11,0.8,-1.110,M,40.593,M,3.6,0123*66\r\n
$GPGGA,091749.90,5703.3647171,N,00952.2242954,E,2,11,0.8,-1.105,M,40.593,M,3.6,0123*64\r\n
$GPGGA,091749.95,5703.3647539,N,00952.2242017,E,2,11,0.8,-1.098,M,40.593,M,3.6,0123*62\r\n
$GPGGA,091750.00,5703.3647921,N,00952.2241092,E,2,11,0.8,-1.095,M,40.593,M,3.6,0123*60\r\n
$GPGGA,091750.05,5703.3648285,N,00952.2240162,E,2,11,0.8,-1.094,M,40.593,M,3.8,0123*6F\r\n
$GPGGA,091750.10,5703.3648657,N,00952.2239214,E,2,11,0.8,-1.095,M,40.593,M,3.8,0123*6D\r\n
$GPGGA,091750.15,5703.3649037,N,00952.2238282,E,2,11,0.8,-1.098,M,40.593,M,3.8,0123*6A\r\n
$GPGGA,091750.20,5703.3649409,N,00952.2237349,E,2,11,0.8,-1.101,M,40.593,M,3.8,0123*6D\r\n
$GPGGA,091750.25,5703.3649791,N,00952.2236417,E,2,11,0.8,-1.100,M,40.593,M,2.6,0123*69\r\n
$GPGGA,091750.30,5703.3650160,N,00952.2235481,E,2,11,0.8,-1.103,M,40.593,M,2.6,0123*62\r\n
$GPGGA,091750.35,5703.3650529,N,00952.2234535,E,2,11,0.8,-1.106,M,40.593,M,2.6,0123*64\r\n
$GPGGA,091750.40,5703.3650897,N,00952.2233602,E,2,11,0.8,-1.110,M,40.593,M,2.6,0123*69\r\n
$GPGGA,091750.45,5703.3651265,N,00952.2232681,E,2,11,0.8,-1.113,M,40.593,M,2.9,0123*6C\r\n
$GPGGA,091750.50,5703.3651636,N,00952.2231749,E,2,11,0.8,-1.117,M,40.593,M,2.9,0123*68\r\n
$GPGGA,091750.55,5703.3652011,N,00952.2230816,E,2,11,0.8,-1.118,M,40.593,M,2.9,0123*66\r\n
$GPGGA,091750.60,5703.3652388,N,00952.2229883,E,2,11,0.8,-1.122,M,40.593,M,2.9,0123*6E\r\n
$GPGGA,091750.65,5703.3652770,N,00952.2228988,E,2,11,0.8,-1.127,M,40.593,M,3.2,0123*6C\r\n
$GPGGA,091750.70,5703.3653160,N,00952.2228108,E,2,11,0.8,-1.129,M,40.593,M,3.2,0123*60\r\n
$GPGGA,091750.75,5703.3653536,N,00952.2227228,E,2,11,0.8,-1.130,M,40.593,M,3.2,0123*64\r\n
$GPGGA,091750.80,5703.3653927,N,00952.2226364,E,2,11,0.8,-1.128,M,40.593,M,3.2,0123*63\r\n
$GPGGA,091750.85,5703.3654311,N,00952.2225519,E,2,11,0.8,-1.123,M,40.593,M,3.4,0123*6C\r\n
$GPGGA,091750.90,5703.3654711,N,00952.2224691,E,2,11,0.8,-1.117,M,40.593,M,3.4,0123*69\r\n
$GPGGA,091750.95,5703.3655119,N,00952.2223880,E,2,11,0.8,-1.112,M,40.593,M,3.4,0123*6F\r\n
$GPGGA,091751.00,5703.3655513,N,00952.2223067,E,2,11,0.8,-1.108,M,40.593,M,3.4,0123*66\r\n
$GPGGA,091751.05,5703.3655899,N,00952.2222252,E,2,11,0.8,-1.099,M,40.593,M,3.6,0123*62\r\n
$GPGGA,091751.10,5703.3656282,N,00952.2221428,E,2,11,0.8,-1.094,M,40.593,M,3.6,0123*60\r\n
$GPGGA,091751.15,5703.3656675,N,00952.2220600,E,2,11,0.8,-1.092,M,40.593,M,3.6,0123*66\r\n
$GPGGA,091751.20,5703.3657065,N,00952.2219760,E,2,11,0.8,-1.089,M,40.593,M,3.6,0123*61\r\n
$GPGGA,091751.25,5703.3657442,N,00952.2218899,E,2,11,0.8,-1.089,M,40.593,M,1.7,0123*6E\r\n
$GPGGA,091751.30,5703.3657836,N,00952.2218035,E,2,11,0.8,-1.091,M,40.593,M,1.7,0123*62\r\n
$GPGGA,091751.35,5703.3658221,N,00952.2217165,E,2,11,0.8,-1.096,M,40.593,M,1.7,0123*68\r\n
$GPGGA,091751.40,5703.3658590,N,00952.2216283,E,2,11,0.8,-1.100,M,40.593,M,1.7,0123*63\r\n
$GPGGA,091751.45,5703.3658972,N,00952.2215404,E,2,11,0.8,-1.108,M,40.593,M,2.0,0123*60\r\n
$GPGGA,091751.50,5703.3659357,N,00952.2214534,E,2,11,0.8,-1.111,M,40.593,M,2.0,0123*63\r\n
$GPGGA,091751.55,5703.3659746,N,00952.2213676,E,2,11,0.8,-1.115,M,40.593,M,2.0,0123*64\r\n
$GPGGA,091751.60,5703.3660125,N,00952.2212827,E,2,11,0.8,-1.118,M,40.593,M,2.0,0123*6D\r\n
$GPGGA,091751.65,5703.3660515,N,00952.2212001,E,2,11,0.8,-1.122,M,40.593,M,2.2,0123*68\r\n
$GPGGA,091751.70,5703.3660910,N,00952.2211189,E,2,11,0.8,-1.125,M,40.593,M,2.2,0123*60\r\n
$GPGGA,091751.75,5703.3661302,N,00952.2210369,E,2,11,0.8,-1.126,M,40.593,M,2.2,0123*63\r\n
$GPGGA,091751.80,5703.3661700,N,00952.2209576,E,2,11,0.8,-1.125,M,40.593,M,2.2,0123*6C\r\n
$GPGGA,091751.85,5703.3662088,N,00952.2208799,E,2,11,0.8,-1.129,M,40.593,M,2.4,0123*65\r\n
$GPGGA,091751.90,5703.3662496,N,00952.2208039,E,2,11,0.8,-1.128,M,40.593,M,2.4,0123*66\r\n
$GPGGA,091751.95,5703.3662905,N,00952.2207267,E,2,11,0.8,-1.126,M,40.593,M,2.4,0123*6C\r\n
$GPGGA,091752.00,5703.3663313,N,00952.2206509,E,2,11,0.8,-1.123,M,40.593,M,2.4,0123*64\r\n
$GPGGA,091752.05,5703.3663703,N,00952.2205756,E,2,11,0.8,-1.121,M,40.593,M,2.7,0123*6E\r\n
$GPGGA,091752.10,5703.3664103,N,00952.2205019,E,2,11,0.8,-1.117,M,40.593,M,2.7,0123*62\r\n
$GPGGA,091752.15,5703.3664505,N,00952.2204288,E,2,11,0.8,-1.114,M,40.593,M,2.7,0123*6D\r\n
$GPGGA,091752.20,5703.3664921,N,00952.2203561,E,2,11,0.8,-1.112,M,40.593,M,2.7,0123*60\r\n
$GPGGA,091752.25,5703.3665343,N,00952.2202844,E,2,11,0.8,-1.108,M,40.593,M,1.9,0123*67\r\n
$GPGGA,091752.30,5703.3665767,N,00952.2202134,E,2,11,0.8,-1.106,M,40.593,M,1.9,0123*61\r\n
$GPGGA,091752.35,5703.3666181,N,00952.2201400,E,2,11,0.8,-1.105,M,40.593,M,1.9,0123*6B\r\n
$GPGGA,091752.40,5703.3666591,N,00952.2200653,E,2,11,0.8,-1.102,M,40.593,M,1.9,0123*6E\r\n
$GPGGA,091752.45,5703.3666991,N,00952.2199925,E,2,11,0.8,-1.100,M,40.593,M,2.1,0123*63\r\n
$GPGGA,091752.50,5703.3667395,N,00952.2199204,E,2,11,0.8,-1.100,M,40.593,M,2.1,0123*60\r\n
$GPGGA,091752.55,5703.3667814,N,00952.2198484,E,2,11,0.8,-1.100,M,40.593,M,2.1,0123*68\r\n
$GPGGA,091752.60,5703.3668226,N,00952.2197779,E,2,11,0.8,-1.099,M,40.593,M,2.1,0123*65\r\n
$GPGGA,091752.65,5703.3668637,N,00952.2197059,E,2,11,0.8,-1.101,M,40.593,M,2.3,0123*63\r\n
$GPGGA,091752.70,5703.3669062,N,00952.2196349,E,2,11,0.8,-1.103,M,40.593,M,2.3,0123*61\r\n
$GPGGA,091752.75,5703.3669475,N,00952.2195650,E,2,11,0.8,-1.104,M,40.593,M,2.3,0123*6F\r\n
$GPGGA,091752.80,5703.3669880,N,00952.2194969,E,2,11,0.8,-1.106,M,40.593,M,2.3,0123*65\r\n
$GPGGA,091752.85,5703.3670289,N,00952.2194277,E,2,11,0.8,-1.105,M,40.593,M,2.5,0123*6A\r\n
$GPGGA,091752.90,5703.3670708,N,00952.2193586,E,2,11,0.8,-1.106,M,40.593,M,2.5,0123*6F\r\n
$GPGGA,091752.95,5703.3671119,N,00952.2192896,E,2,11,0.8,-1.109,M,40.593,M,2.5,0123*6F\r\n
$GPGGA,091753.00,5703.3671531,N,00952.2192222,E,2,11,0.8,-1.112,M,40.593,M,2.5,0123*63\r\n
$GPGGA,091753.05,5703.3671950,N,00952.2191547,E,2,11,0.8,-1.115,M,40.593,M,2.7,0123*6F\r\n
$GPGGA,091753.10,5703.3672365,N,00952.2190886,E,2,11,0.8,-1.115,M,40.593,M,2.7,0123*65\r\n
$GPGGA,091753.15,5703.3672781,N,00952.2190232,E,2,11,0.8,-1.116,M,40.593,M,2.7,0123*68\r\n
$GPGGA,091753.20,5703.3673194,N,00952.2189573,E,2,11,0.8,-1.117,M,40.593,M,2.7,0123*66\r\n
$GPGGA,091753.25,5703.3673618,N,00952.2188926,E,2,11,0.8,-1.115,M,40.593,M,2.9,0123*61\r\n
$GPGGA,091753.30,5703.3674044,N,00952.2188289,E,2,11,0.8,-1.115,M,40.593,M,2.9,0123*63\r\n
$GPGGA,091753.35,5703.3674461,N,00952.2187674,E,2,11,0.8,-1.114,M,40.593,M,2.9,0123*6D\r\n
$GPGGA,091753.40,5703.3674893,N,00952.2187063,E,2,11,0.8,-1.112,M,40.593,M,2.9,0123*68\r\n
$GPGGA,091753.45,5703.3675319,N,00952.2186442,E,2,11,0.8,-1.112,M,40.593,M,3.1,0123*6A\r\n
$GPGGA,091753.50,5703.3675746,N,00952.2185837,E,2,11,0.8,-1.114,M,40.593,M,3.1,0123*6B\r\n
$GPGGA,091753.55,5703.3676177,N,00952.2185250,E,2,11,0.8,-1.113,M,40.593,M,3.1,0123*65\r\n
$GPGGA,091753.60,5703.3676604,N,00952.2184660,E,2,11,0.8,-1.112,M,40.593,M,3.1,0123*67\r\n
$GPGGA,091753.65,5703.3677025,N,00952.2184050,E,2,11,0.8,-1.114,M,40.593,M,3.4,0123*60\r\n
$GPGGA,091753.70,5703.3677448,N,00952.2183441,E,2,11,0.8,-1.115,M,40.593,M,3.4,0123*69\r\n
$GPGGA,091753.75,5703.3677876,N,00952.2182849,E,2,11,0.8,-1.116,M,40.593,M,3.4,0123*6B\r\n
$GPGGA,091753.80,5703.3678312,N,00952.2182260,E,2,11,0.8,-1.114,M,40.593,M,3.4,0123*64\r\n
$GPGGA,091753.85,5703.3678736,N,00952.2181667,E,2,11,0.8,-1.114,M,40.593,M,3.6,0123*61\r\n
$GPGGA,091753.90,5703.3679160,N,00952.2181077,E,2,11,0.8,-1.114,M,40.593,M,3.6,0123*66\r\n
$GPGGA,091753.95,5703.3679594,N,00952.2180497,E,2,11,0.8,-1.113,M,40.593,M,3.6,0123*60\r\n
$GPGGA,091754.00,5703.3680016,N,00952.2179912,E,2,11,0.8,-1.114,M,40.593,M,3.6,0123*63\r\n
$GPGGA,091754.05,5703.3680443,N,00952.2179327,E,2,11,0.8,-1.117,M,40.593,M,3.8,0123*63\r\n
$GPGGA,091754.10,5703.3680878,N,00952.2178782,E,2,11,0.8,-1.116,M,40.593,M,3.8,0123*68\r\n
$GPGGA,091754.15,5703.3681303,N,00952.2178230,E,2,11,0.8,-1.113,M,40.593,M,3.8,0123*62\r\n
$GPGGA,091754.20,5703.3681739,N,00952.2177688,E,2,11,0.8,-1.110,M,40.593,M,3.8,0123*62\r\n
$GPGGA,091754.25,5703.3682164,N,00952.2177151,E,2,11,0.8,-1.110,M,40.593,M,2.6,0123*66\r\n
$GPGGA,091754.30,5703.3682596,N,00952.2176618,E,2,11,0.8,-1.108,M,40.593,M,2.6,0123*69\r\n
$GPGGA,091754.35,5703.3683020,N,00952.2176102,E,2,11,0.8,-1.106,M,40.593,M,2.6,0123*67\r\n
$GPGGA,091754.40,5703.3683445,N,00952.2175593,E,2,11,0.8,-1.104,M,40.593,M,2.6,0123*6F\r\n
$GPGGA,091754.45,5703.3683878,N,00952.2175094,E,2,11,0.8,-1.098,M,40.593,M,2.9,0123*61\r\n
$GPGGA,091754.50,5703.3684315,N,00952.2174587,E,2,11,0.8,-1.095,M,40.593,M,2.9,0123*69\r\n
$GPGGA,091754.55,5703.3684748,N,00952.2174052,E,2,11,0.8,-1.095,M,40.593,M,2.9,0123*6D\r\n
$GPGGA,091754.60,5703.3685171,N,00952.2173513,E,2,11,0.8,-1.096,M,40.593,M,2.9,0123*62\r\n
$GPGGA,091754.65,5703.3685605,N,00952.2172982,E,2,11,0.8,-1.101,M,40.593,M,3.2,0123*63\r\n
$GPGGA,091754.70,5703.3686038,N,00952.2172454,E,2,11,0.8,-1.103,M,40.593,M,3.2,0123*68\r\n
$GPGGA,091754.75,5703.3686470,N,00952.2171940,E,2,11,0.8,-1.104,M,40.593,M,3.2,0123*69\r\n
$GPGGA,091754.80,5703.3686898,N,00952.2171415,E,2,11,0.8,-1.106,M,40.593,M,3.2,0123*66\r\n
$GPGGA,091754.85,5703.3687333,N,00952.2170902,E,2,11,0.8,-1.109,M,40.593,M,3.4,0123*6B\r\n
$GPGGA,091754.90,5703.3687756,N,00952.2170390,E,2,11,0.8,-1.112,M,40.593,M,3.4,0123*63\r\n
$GPGGA,091754.95,5703.3688206,N,00952.2169881,E,2,11,0.8,-1.115,M,40.593,M,3.4,0123*6D\r\n
$GPGGA,091755.00,5703.3688640,N,00952.2169389,E,2,11,0.8,-1.116,M,40.593,M,3.4,0123*66\r\n
$GPGGA,091755.05,5703.3689063,N,00952.2168887,E,2,11,0.8,-1.124,M,40.593,M,3.6,0123*62\r\n
$GPGGA,091755.10,5703.3689496,N,00952.2168385,E,2,11,0.8,-1.127,M,40.593,M,3.6,0123*62\r\n
$GPGGA,091755.15,5703.3689924,N,00952.2167900,E,2,11,0.8,-1.129,M,40.593,M,3.6,0123*65\r\n
$GPGGA,091755.20,5703.3690357,N,00952.2167422,E,2,11,0.8,-1.132,M,40.593,M,3.6,0123*62\r\n
$GPGGA,091755.25,5703.3690801,N,00952.2166945,E,2,11,0.8,-1.129,M,40.593,M,1.7,0123*6B\r\n
$GPGGA,091755.30,5703.3691242,N,00952.2166454,E,2,11,0.8,-1.128,M,40.593,M,1.7,0123*6F\r\n
$GPGGA,091755.35,5703.3691682,N,00952.2165957,E,2,11,0.8,-1.126,M,40.593,M,1.7,0123*61\r\n
$GPGGA,091755.40,5703.3692119,N,00952.2165489,E,2,11,0.8,-1.127,M,40.593,M,1.7,0123*6A\r\n
$GPGGA,091755.45,5703.3692562,N,00952.2164998,E,2,11,0.8,-1.131,M,40.593,M,2.0,0123*68\r\n
$GPGGA,091755.50,5703.3693007,N,00952.2164509,E,2,11,0.8,-1.130,M,40.593,M,2.0,0123*6E\r\n
$GPGGA,091755.55,5703.3693455,N,00952.2164012,E,2,11,0.8,-1.127,M,40.593,M,2.0,0123*61\r\n
$GPGGA,091755.60,5703.3693899,N,00952.2163517,E,2,11,0.8,-1.125,M,40.593,M,2.0,0123*6E\r\n
$GPGGA,091755.65,5703.3694342,N,00952.2163033,E,2,11,0.8,-1.123,M,40.593,M,2.2,0123*66\r\n
$GPGGA,091755.70,5703.3694795,N,00952.2162527,E,2,11,0.8,-1.122,M,40.593,M,2.2,0123*6C\r\n
$GPGGA,091755.75,5703.3695235,N,00952.2162037,E,2,11,0.8,-1.121,M,40.593,M,2.2,0123*60\r\n
$GPGGA,091755.80,5703.3695680,N,00952.2161557,E,2,11,0.8,-1.119,M,40.593,M,2.2,0123*6B\r\n
$GPGGA,091755.85,5703.3696110,N,00952.2161085,E,2,11,0.8,-1.123,M,40.593,M,2.4,0123*66\r\n
$GPGGA,091755.90,5703.3696550,N,00952.2160614,E,2,11,0.8,-1.118,M,40.593,M,2.4,0123*65\r\n
$GPGGA,091755.95,5703.3696995,N,00952.2160148,E,2,11,0.8,-1.116,M,40.593,M,2.4,0123*65\r\n
$GPGGA,091756.00,5703.3697449,N,00952.2159687,E,2,11,0.8,-1.113,M,40.593,M,2.4,0123*6C\r\n
$GPGGA,091756.05,5703.3697895,N,00952.2159236,E,2,11,0.8,-1.106,M,40.593,M,2.7,0123*6D\r\n
$GPGGA,091756.10,5703.3698336,N,00952.2158777,E,2,11,0.8,-1.102,M,40.593,M,2.7,0123*61\r\n
$GPGGA,091756.15,5703.3698783,N,00952.2158324,E,2,11,0.8,-1.100,M,40.593,M,2.7,0123*6E\r\n
$GPGGA,091756.20,5703.3699228,N,00952.2157877,E,2,11,0.8,-1.096,M,40.593,M,2.7,0123*61\r\n
$GPGGA,091756.25,5703.3699677,N,00952.2157430,E,2,11,0.8,-1.092,M,40.593,M,1.9,0123*6C\r\n
$GPGGA,091756.30,5703.3700131,N,00952.2156979,E,2,11,0.8,-1.090,M,40.593,M,1.9,0123*6F\r\n
$GPGGA,091756.35,5703.3700589,N,00952.2156537,E,2,11,0.8,-1.088,M,40.593,M,1.9,0123*62\r\n
$GPGGA,091756.40,5703.3701051,N,00952.2156106,E,2,11,0.8,-1.086,M,40.593,M,1.9,0123*69\r\n
$GPGGA,091756.45,5703.3701491,N,00952.2155667,E,2,11,0.8,-1.087,M,40.593,M,2.1,0123*6D\r\n
$GPGGA,091756.50,5703.3701936,N,00952.2155218,E,2,11,0.8,-1.086,M,40.593,M,2.1,0123*64\r\n
$GPGGA,091756.55,5703.3702392,N,00952.2154763,E,2,11,0.8,-1.089,M,40.593,M,2.1,0123*61\r\n
$GPGGA,091756.60,5703.3702842,N,00952.2154320,E,2,11,0.8,-1.089,M,40.593,M,2.1,0123*62\r\n
$GPGGA,091756.65,5703.3703286,N,00952.2153884,E,2,11,0.8,-1.095,M,40.593,M,2.3,0123*69\r\n
$GPGGA,091756.70,5703.3703727,N,00952.2153434,E,2,11,0.8,-1.098,M,40.593,M,2.3,0123*69\r\n
$GPGGA,091756.75,5703.3704179,N,00952.2152966,E,2,11,0.8,-1.100,M,40.593,M,2.3,0123*6D\r\n
$GPGGA,091756.80,5703.3704619,N,00952.2152497,E,2,11,0.8,-1.101,M,40.593,M,2.3,0123*64\r\n
$GPGGA,091756.85,5703.3705060,N,00952.2152058,E,2,11,0.8,-1.099,M,40.593,M,2.5,0123*69\r\n
$GPGGA,091756.90,5703.3705506,N,00952.2151610,E,2,11,0.8,-1.101,M,40.593,M,2.5,0123*61\r\n
$GPGGA,091756.95,5703.3705947,N,00952.2151156,E,2,11,0.8,-1.106,M,40.593,M,2.5,0123*6F\r\n
$GPGGA,091757.00,5703.3706396,N,00952.2150693,E,2,11,0.8,-1.107,M,40.593,M,2.5,0123*69\r\n
$GPGGA,091757.05,5703.3706826,N,00952.2150209,E,2,11,0.8,-1.112,M,40.593,M,2.7,0123*6D\r\n
$GPGGA,091757.10,5703.3707273,N,00952.2149728,E,2,11,0.8,-1.113,M,40.593,M,2.7,0123*6D\r\n
$GPGGA,091757.15,5703.3707708,N,00952.2149244,E,2,11,0.8,-1.118,M,40.593,M,2.7,0123*65\r\n
$GPGGA,091757.20,5703.3708151,N,00952.2148761,E,2,11,0.8,-1.121,M,40.593,M,2.7,0123*6F\r\n
$GPGGA,091757.25,5703.3708596,N,00952.2148265,E,2,11,0.8,-1.124,M,40.593,M,2.9,0123*6F\r\n
$GPGGA,091757.30,5703.3709033,N,00952.2147762,E,2,11,0.8,-1.127,M,40.593,M,2.9,0123*6E\r\n
$GPGGA,091757.35,5703.3709470,N,00952.2147244,E,2,11,0.8,-1.130,M,40.593,M,2.9,0123*6F\r\n
$GPGGA,091757.40,5703.3709895,N,00952.2146721,E,2,11,0.8,-1.133,M,40.593,M,2.9,0123*6E\r\n
$GPGGA,091757.45,5703.3710341,N,00952.2146188,E,2,11,0.8,-1.133,M,40.593,M,3.1,0123*6D\r\n
$GPGGA,091757.50,5703.3710779,N,00952.2145663,E,2,11,0.8,-1.134,M,40.593,M,3.1,0123*60\r\n
$GPGGA,091757.55,5703.3711231,N,00952.2145136,E,2,11,0.8,-1.135,M,40.593,M,3.1,0123*6B\r\n
$GPGGA,091757.60,5703.3711668,N,00952.2144622,E,2,11,0.8,-1.137,M,40.593,M,3.1,0123*64\r\n
$GPGGA,091757.65,5703.3712102,N,00952.2144106,E,2,11,0.8,-1.137,M,40.593,M,3.4,0123*6D\r\n
$GPGGA,091757.70,5703.3712541,N,00952.2143582,E,2,11,0.8,-1.135,M,40.593,M,3.4,0123*67\r\n
$GPGGA,091757.75,5703.3712989,N,00952.2143058,E,2,11,0.8,-1.134,M,40.593,M,3.4,0123*69\r\n
$GPGGA,091757.80,5703.3713434,N,00952.2142516,E,2,11,0.8,-1.133,M,40.593,M,3.4,0123*60\r\n
$GPGGA,091757.85,5703.3713866,N,00952.2141990,E,2,11,0.8,-1.134,M,40.593,M,3.6,0123*6A\r\n
$GPGGA,091757.90,5703.3714298,N,00952.2141472,E,2,11,0.8,-1.130,M,40.593,M,3.6,0123*67\r\n
$GPGGA,091757.95,5703.3714733,N,00952.2140931,E,2,11,0.8,-1.127,M,40.593,M,3.6,0123*6B\r\n
$GPGGA,091758.00,5703.3715164,N,00952.2140388,E,2,11,0.8,-1.124,M,40.593,M,3.6,0123*66\r\n
$GPGGA,091758.05,5703.3715597,N,00952.2139840,E,2,11,0.8,-1.117,M,40.593,M,3.8,0123*64\r\n
$GPGGA,091758.10,5703.3716031,N,00952.2139282,E,2,11,0.8,-1.114,M,40.593,M,3.8,0123*6D\r\n
$GPGGA,091758.15,5703.3716471,N,00952.2138735,E,2,11,0.8,-1.111,M,40.593,M,3.8,0123*65\r\n
$GPGGA,091758.20,5703.3716914,N,00952.2138183,E,2,11,0.8,-1.108,M,40.593,M,3.8,0123*6E\r\n
$GPGGA,091758.25,5703.3717354,N,00952.2137624,E,2,11,0.8,-1.108,M,40.593,M,2.6,0123*6E\r\n
$GPGGA,091758.30,5703.3717791,N,00952.2137055,E,2,11,0.8,-1.106,M,40.593,M,2.6,0123*69\r\n
$GPGGA,091758.35,5703.3718228,N,00952.2136473,E,2,11,0.8,-1.106,M,40.593,M,2.6,0123*65\r\n
$GPGGA,091758.40,5703.3718672,N,00952.2135911,E,2,11,0.8,-1.108,M,40.593,M,2.6,0123*68\r\n
$GPGGA,091758.45,5703.3719108,N,00952.2135348,E,2,11,0.8,-1.110,M,40.593,M,2.9,0123*66\r\n
$GPGGA,091758.50,5703.3719536,N,00952.2134801,E,2,11,0.8,-1.109,M,40.593,M,2.9,0123*64\r\n
$GPGGA,091758.55,5703.3719963,N,00952.2134258,E,2,11,0.8,-1.108,M,40.593,M,2.9,0123*6A\r\n
$GPGGA,091758.60,5703.3720396,N,00952.2133713,E,2,11,0.8,-1.105,M,40.593,M,2.9,0123*66\r\n
$GPGGA,091758.65,5703.3720823,N,00952.2133156,E,2,11,0.8,-1.101,M,40.593,M,3.2,0123*6F\r\n
$GPGGA,091758.70,5703.3721245,N,00952.2132605,E,2,11,0.8,-1.098,M,40.593,M,3.2,0123*61\r\n
$GPGGA,091758.75,5703.3721664,N,00952.2132053,E,2,11,0.8,-1.096,M,40.593,M,3.2,0123*68\r\n
$GPGGA,091758.80,5703.3722089,N,00952.2131498,E,2,11,0.8,-1.093,M,40.593,M,3.2,0123*61\r\n
$GPGGA,091758.85,5703.3722503,N,00952.2130938,E,2,11,0.8,-1.090,M,40.593,M,3.4,0123*60\r\n
$GPGGA,091758.90,5703.3722924,N,00952.2130372,E,2,11,0.8,-1.089,M,40.593,M,3.4,0123*61\r\n
$GPGGA,091758.95,5703.3723346,N,00952.2129806,E,2,11,0.8,-1.090,M,40.593,M,3.4,0123*63\r\n
$GPGGA,091759.00,5703.3723771,N,00952.2129227,E,2,11,0.8,-1.092,M,40.593,M,3.4,0123*65\r\n
$GPGGA,091759.05,5703.3724185,N,00952.2128629,E,2,11,0.8,-1.093,M,40.593,M,3.6,0123*62\r\n
$GPGGA,091759.10,5703.3724598,N,00952.2128032,E,2,11,0.8,-1.097,M,40.593,M,3.6,0123*66\r\n
$GPGGA,091759.15,5703.3725022,N,00952.2127418,E,2,11,0.8,-1.102,M,40.593,M,3.6,0123*68\r\n
$GPGGA,091759.20,5703.3725427,N,00952.2126781,E,2,11,0.8,-1.106,M,40.593,M,3.6,0123*69\r\n
$GPGGA,091759.25,5703.3725828,N,00952.2126130,E,2,11,0.8,-1.114,M,40.593,M,1.7,0123*63\r\n
$GPGGA,091759.30,5703.3726228,N,00952.2125499,E,2,11,0.8,-1.119,M,40.593,M,1.7,0123*66\r\n
$GPGGA,091759.35,5703.3726625,N,00952.2124870,E,2,11,0.8,-1.121,M,40.593,M,1.7,0123*6B\r\n
$GPGGA,091759.40,5703.3727024,N,00952.2124234,E,2,11,0.8,-1.125,M,40.593,M,1.7,0123*61\r\n
$GPGGA,091759.45,5703.3727423,N,00952.2123601,E,2,11,0.8,-1.125,M,40.593,M,2.0,0123*66\r\n
$GPGGA,091759.50,5703.3727818,N,00952.2122947,E,2,11,0.8,-1.128,M,40.593,M,2.0,0123*67\r\n
$GPGGA,091759.55,5703.3728212,N,00952.2122289,E,2,11,0.8,-1.131,M,40.593,M,2.0,0123*6C\r\n
$GPGGA,091759.60,5703.3728602,N,00952.2121646,E,2,11,0.8,-1.130,M,40.593,M,2.0,0123*6A\r\n
$GPGGA,091759.65,5703.3728997,N,00952.2121010,E,2,11,0.8,-1.134,M,40.593,M,2.2,0123*6F\r\n
$GPGGA,091759.70,5703.3729392,N,00952.2120354,E,2,11,0.8,-1.135,M,40.593,M,2.2,0123*66\r\n
$GPGGA,091759.75,5703.3729785,N,00952.2119688,E,2,11,0.8,-1.137,M,40.593,M,2.2,0123*6D\r\n
$GPGGA,091759.80,5703.3730162,N,00952.2119021,E,2,11,0.8,-1.139,M,40.593,M,2.2,0123*6B\r\n
$GPGGA,091759.85,5703.3730545,N,00952.2118354,E,2,11,0.8,-1.135,M,40.593,M,2.4,0123*65\r\n
$GPGGA,091759.90,5703.3730936,N,00952.2117668,E,2,11,0.8,-1.134,M,40.593,M,2.4,0123*6D\r\n
$GPGGA,091759.95,5703.3731330,N,00952.2116973,E,2,11,0.8,-1.130,M,40.593,M,2.4,0123*65\r\n
$GPGGA,091800.00,5703.3731714,N,00952.2116280,E,2,11,0.8,-1.130,M,40.593,M,2.4,0123*6F\r\n
$GPGGA,091800.05,5703.3732091,N,00952.2115584,E,2,11,0.8,-1.130,M,40.593,M,2.7,0123*60\r\n
$GPGGA,091800.10,5703.3732465,N,00952.2114888,E,2,11,0.8,-1.127,M,40.593,M,2.7,0123*6D\r\n
$GPGGA,091800.15,5703.3732845,N,00952.2114181,E,2,11,0.8,-1.126,M,40.593,M,2.7,0123*67\r\n
$GPGGA,091800.20,5703.3733225,N,00952.2113477,E,2,11,0.8,-1.122,M,40.593,M,2.7,0123*63\r\n
$GPGGA,091800.25,5703.3733600,N,00952.2112778,E,2,11,0.8,-1.118,M,40.593,M,1.9,0123*6C\r\n
$GPGGA,091800.30,5703.3733969,N,00952.2112062,E,2,11,0.8,-1.118,M,40.593,M,1.9,0123*64\r\n
$GPGGA,091800.35,5703.3734344,N,00952.2111337,E,2,11,0.8,-1.117,M,40.593,M,1.9,0123*6C\r\n
$GPGGA,091800.40,5703.3734713,N,00952.2110596,E,2,11,0.8,-1.118,M,40.593,M,1.9,0123*6B\r\n
$GPGGA,091800.45,5703.3735084,N,00952.2109854,E,2,11,0.8,-1.115,M,40.593,M,2.1,0123*6B\r\n
$GPGGA,091800.50,5703.3735447,N,00952.2109107,E,2,11,0.8,-1.114,M,40.593,M,2.1,0123*6A\r\n
$GPGGA,091800.55,5703.3735813,N,00952.2108358,E,2,11,0.8,-1.114,M,40.593,M,2.1,0123*6B\r\n
$GPGGA,091800.60,5703.3736185,N,00952.2107597,E,2,11,0.8,-1.115,M,40.593,M,2.1,0123*63\r\n
$GPGGA,091800.65,5703.3736545,N,00952.2106830,E,2,11,0.8,-1.118,M,40.593,M,2.3,0123*60\r\n
$GPGGA,091800.70,5703.3736904,N,00952.2106054,E,2,11,0.8,-1.119,M,40.593,M,2.3,0123*66\r\n
$GPGGA,091800.75,5703.3737258,N,00952.2105281,E,2,11,0.8,-1.121,M,40.593,M,2.3,0123*62\r\n
$GPGGA,091800.80,5703.3737606,N,00952.2104483,E,2,11,0.8,-1.122,M,40.593,M,2.3,0123*61\r\n
$GPGGA,091800.85,5703.3737962,N,00952.2103691,E,2,11,0.8,-1.126,M,40.593,M,2.5,0123*6D\r\n
$GPGGA,091800.90,5703.3738319,N,00952.2102913,E,2,11,0.8,-1.128,M,40.593,M,2.5,0123*6A\r\n
$GPGGA,091800.95,5703.3738682,N,00952.2102130,E,2,11,0.8,-1.127,M,40.593,M,2.5,0123*6E\r\n
$GPGGA,091801.00,5703.3739041,N,00952.2101350,E,2,11,0.8,-1.126,M,40.593,M,2.5,0123*6D\r\n
$GPGGA,091801.05,5703.3739394,N,00952.2100573,E,2,11,0.8,-1.124,M,40.593,M,2.7,0123*65\r\n
$GPGGA,091801.10,5703.3739747,N,00952.2099799,E,2,11,0.8,-1.123,M,40.593,M,2.7,0123*6B\r\n
$GPGGA,091801.15,5703.3740108,N,00952.2099031,E,2,11,0.8,-1.124,M,40.593,M,2.7,0123*6F\r\n
$GPGGA,091801.20,5703.3740457,N,00952.2098255,E,2,11,0.8,-1.123,M,40.593,M,2.7,0123*60\r\n
$GPGGA,091801.25,5703.3740812,N,00952.2097473,E,2,11,0.8,-1.120,M,40.593,M,2.9,0123*68\r\n
$GPGGA,091801.30,5703.3741165,N,00952.2096684,E,2,11,0.8,-1.117,M,40.593,M,2.9,0123*6B\r\n
$GPGGA,091801.35,5703.3741523,N,00952.2095903,E,2,11,0.8,-1.117,M,40.593,M,2.9,0123*6B\r\n
$GPGGA,091801.40,5703.3741873,N,00952.2095120,E,2,11,0.8,-1.116,M,40.593,M,2.9,0123*69\r\n
$GPGGA,091801.45,5703.3742216,N,00952.2094317,E,2,11,0.8,-1.115,M,40.593,M,3.1,0123*6B\r\n
$GPGGA,091801.50,5703.3742542,N,00952.2093496,E,2,11,0.8,-1.116,M,40.593,M,3.1,0123*63\r\n
$GPGGA,091801.55,5703.3742871,N,00952.2092669,E,2,11,0.8,-1.117,M,40.593,M,3.1,0123*69\r\n
$GPGGA,091801.60,5703.3743201,N,00952.2091841,E,2,11,0.8,-1.117,M,40.593,M,3.1,0123*64\r\n
$GPGGA,091801.65,5703.3743523,N,00952.2091020,E,2,11,0.8,-1.117,M,40.593,M,3.4,0123*6C\r\n
$GPGGA,091801.70,5703.3743832,N,00952.2090200,E,2,11,0.8,-1.116,M,40.593,M,3.4,0123*65\r\n
$GPGGA,091801.75,5703.3744141,N,00952.2089365,E,2,11,0.8,-1.114,M,40.593,M,3.4,0123*62\r\n
$GPGGA,091801.80,5703.3744448,N,00952.2088537,E,2,11,0.8,-1.112,M,40.593,M,3.4,0123*62\r\n
$GPGGA,091801.85,5703.3744759,N,00952.2087710,E,2,11,0.8,-1.107,M,40.593,M,3.6,0123*6A\r\n
$GPGGA,091801.90,5703.3745057,N,00952.2086868,E,2,11,0.8,-1.104,M,40.593,M,3.6,0123*64\r\n
$GPGGA,091801.95,5703.3745357,N,00952.2086004,E,2,11,0.8,-1.101,M,40.593,M,3.6,0123*65\r\n
$GPGGA,091802.00,5703.3745658,N,00952.2085137,E,2,11,0.8,-1.100,M,40.593,M,3.6,0123*63\r\n
$GPGGA,091802.05,5703.3745948,N,00952.2084250,E,2,11,0.8,-1.104,M,40.593,M,3.8,0123*61\r\n
$GPGGA,091802.10,5703.3746237,N,00952.2083389,E,2,11,0.8,-1.107,M,40.593,M,3.8,0123*64\r\n
$GPGGA,091802.15,5703.3746530,N,00952.2082506,E,2,11,0.8,-1.110,M,40.593,M,3.8,0123*67\r\n
$GPGGA,091802.20,5703.3746825,N,00952.2081607,E,2,11,0.8,-1.114,M,40.593,M,3.8,0123*6D\r\n
$GPGGA,091802.25,5703.3747111,N,00952.2080686,E,2,11,0.8,-1.119,M,40.593,M,2.6,0123*6D\r\n
$GPGGA,091802.30,5703.3747392,N,00952.2079757,E,2,11,0.8,-1.123,M,40.593,M,2.6,0123*62\r\n
$GPGGA,091802.35,5703.3747670,N,00952.2078834,E,2,11,0.8,-1.128,M,40.593,M,2.6,0123*6E\r\n
$GPGGA,091802.40,5703.3747935,N,00952.2077915,E,2,11,0.8,-1.131,M,40.593,M,2.6,0123*67\r\n
$GPGGA,091802.45,5703.3748188,N,00952.2076979,E,2,11,0.8,-1.135,M,40.593,M,2.9,0123*63\r\n
$GPGGA,091802.50,5703.3748451,N,00952.2076048,E,2,11,0.8,-1.138,M,40.593,M,2.9,0123*60\r\n
$GPGGA,091802.55,5703.3748710,N,00952.2075105,E,2,11,0.8,-1.140,M,40.593,M,2.9,0123*67\r\n
$GPGGA,091802.60,5703.3748957,N,00952.2074162,E,2,11,0.8,-1.141,M,40.593,M,2.9,0123*6D\r\n
$GPGGA,091802.65,5703.3749216,N,00952.2073221,E,2,11,0.8,-1.143,M,40.593,M,3.2,0123*6C\r\n
$GPGGA,091802.70,5703.3749465,N,00952.2072284,E,2,11,0.8,-1.145,M,40.593,M,3.2,0123*62\r\n
$GPGGA,091802.75,5703.3749715,N,00952.2071355,E,2,11,0.8,-1.141,M,40.593,M,3.2,0123*69\r\n
$GPGGA,091802.80,5703.3749960,N,00952.2070436,E,2,11,0.8,-1.135,M,40.593,M,3.2,0123*6F\r\n
$GPGGA,091802.85,5703.3750224,N,00952.2069513,E,2,11,0.8,-1.127,M,40.593,M,3.4,0123*62\r\n
$GPGGA,091802.90,5703.3750481,N,00952.2068596,E,2,11,0.8,-1.123,M,40.593,M,3.4,0123*67\r\n
$GPGGA,091802.95,5703.3750727,N,00952.2067682,E,2,11,0.8,-1.119,M,40.593,M,3.4,0123*6D\r\n
$GPGGA,091803.00,5703.3750971,N,00952.2066760,E,2,11,0.8,-1.113,M,40.593,M,3.4,0123*6B\r\n
$GPGGA,091803.05,5703.3751211,N,00952.2065815,E,2,11,0.8,-1.109,M,40.593,M,3.6,0123*65\r\n
$GPGGA,091803.10,5703.3751431,N,00952.2064859,E,2,11,0.8,-1.106,M,40.593,M,3.6,0123*63\r\n
$GPGGA,091803.15,5703.3751652,N,00952.2063892,E,2,11,0.8,-1.104,M,40.593,M,3.6,0123*63\r\n
$GPGGA,091803.20,5703.3751865,N,00952.2062909,E,2,11,0.8,-1.104,M,40.593,M,3.6,0123*6D\r\n
$GPGGA,091803.25,5703.3752067,N,00952.2061925,E,2,11,0.8,-1.100,M,40.593,M,1.7,0123*6B\r\n
$GPGGA,091803.30,5703.3752273,N,00952.2060945,E,2,11,0.8,-1.103,M,40.593,M,1.7,0123*6C\r\n
$GPGGA,091803.35,5703.3752477,N,00952.2059952,E,2,11,0.8,-1.106,M,40.593,M,1.7,0123*62\r\n
$GPGGA,091803.40,5703.3752674,N,00952.2058945,E,2,11,0.8,-1.110,M,40.593,M,1.7,0123*61\r\n
$GPGGA,091803.45,5703.3752859,N,00952.2057929,E,2,11,0.8,-1.118,M,40.593,M,2.0,0123*6C\r\n
$GPGGA,091803.50,5703.3753042,N,00952.2056918,E,2,11,0.8,-1.123,M,40.593,M,2.0,0123*60\r\n
$GPGGA,091803.55,5703.3753221,N,00952.2055934,E,2,11,0.8,-1.126,M,40.593,M,2.0,0123*6A\r\n
$GPGGA,091803.60,5703.3753394,N,00952.2054937,E,2,11,0.8,-1.127,M,40.593,M,2.0,0123*60\r\n
$GPGGA,091803.65,5703.3753565,N,00952.2053939,E,2,11,0.8,-1.126,M,40.593,M,2.2,0123*67\r\n
$GPGGA,091803.70,5703.3753730,N,00952.2052933,E,2,11,0.8,-1.128,M,40.593,M,2.2,0123*64\r\n
$GPGGA,091803.75,5703.3753891,N,00952.2051920,E,2,11,0.8,-1.129,M,40.593,M,2.2,0123*65\r\n
$GPGGA,091803.80,5703.3754039,N,00952.2050912,E,2,11,0.8,-1.128,M,40.593,M,2.2,0123*63\r\n
$GPGGA,091803.85,5703.3754191,N,00952.2049891,E,2,11,0.8,-1.130,M,40.593,M,2.4,0123*68\r\n
$GPGGA,091803.90,5703.3754331,N,00952.2048871,E,2,11,0.8,-1.131,M,40.593,M,2.4,0123*6A\r\n
$GPGGA,091803.95,5703.3754484,N,00952.2047859,E,2,11,0.8,-1.131,M,40.593,M,2.4,0123*63\r\n
$GPGGA,091804.00,5703.3754619,N,00952.2046841,E,2,11,0.8,-1.131,M,40.593,M,2.4,0123*66\r\n
$GPGGA,091804.05,5703.3754743,N,00952.2045814,E,2,11,0.8,-1.134,M,40.593,M,2.7,0123*68\r\n
$GPGGA,091804.10,5703.3754866,N,00952.2044787,E,2,11,0.8,-1.136,M,40.593,M,2.7,0123*62\r\n
$GPGGA,091804.15,5703.3754985,N,00952.2043762,E,2,11,0.8,-1.137,M,40.593,M,2.7,0123*66\r\n
$GPGGA,091804.20,5703.3755108,N,00952.2042737,E,2,11,0.8,-1.137,M,40.593,M,2.7,0123*6D\r\n
$GPGGA,091804.25,5703.3755216,N,00952.2041708,E,2,11,0.8,-1.134,M,40.593,M,1.9,0123*65\r\n
$GPGGA,091804.30,5703.3755311,N,00952.2040687,E,2,11,0.8,-1.133,M,40.593,M,1.9,0123*67\r\n
$GPGGA,091804.35,5703.3755412,N,00952.2039663,E,2,11,0.8,-1.131,M,40.593,M,1.9,0123*60\r\n
$GPGGA,091804.40,5703.3755519,N,00952.2038649,E,2,11,0.8,-1.127,M,40.593,M,1.9,0123*66\r\n
$GPGGA,091804.45,5703.3755615,N,00952.2037628,E,2,11,0.8,-1.122,M,40.593,M,2.1,0123*6A\r\n
$GPGGA,091804.50,5703.3755703,N,00952.2036602,E,2,11,0.8,-1.119,M,40.593,M,2.1,0123*69\r\n
$GPGGA,091804.55,5703.3755774,N,00952.2035580,E,2,11,0.8,-1.115,M,40.593,M,2.1,0123*6A\r\n
$GPGGA,091804.60,5703.3755838,N,00952.2034558,E,2,11,0.8,-1.112,M,40.593,M,2.1,0123*68\r\n
$GPGGA,091804.65,5703.3755916,N,00952.2033532,E,2,11,0.8,-1.107,M,40.593,M,2.3,0123*6D\r\n
$GPGGA,091804.70,5703.3755984,N,00952.2032491,E,2,11,0.8,-1.106,M,40.593,M,2.3,0123*6A\r\n
$GPGGA,091804.75,5703.3756052,N,00952.2031451,E,2,11,0.8,-1.103,M,40.593,M,2.3,0123*64\r\n
$GPGGA,091804.80,5703.3756120,N,00952.2030401,E,2,11,0.8,-1.102,M,40.593,M,2.3,0123*6F\r\n
$GPGGA,091804.85,5703.3756179,N,00952.2029344,E,2,11,0.8,-1.107,M,40.593,M,2.5,0123*6B\r\n
$GPGGA,091804.90,5703.3756224,N,00952.2028290,E,2,11,0.8,-1.114,M,40.593,M,2.5,0123*6F\r\n
$GPGGA,091804.95,5703.3756269,N,00952.2027242,E,2,11,0.8,-1.121,M,40.593,M,2.5,0123*65\r\n
$GPGGA,091805.00,5703.3756323,N,00952.2026180,E,2,11,0.8,-1.124,M,40.593,M,2.5,0123*6E\r\n
$GPGGA,091805.05,5703.3756361,N,00952.2025109,E,2,11,0.8,-1.131,M,40.593,M,2.7,0123*69\r\n
$GPGGA,091805.10,5703.3756378,N,00952.2024057,E,2,11,0.8,-1.137,M,40.593,M,2.7,0123*68\r\n
$GPGGA,091805.15,5703.3756387,N,00952.2023018,E,2,11,0.8,-1.142,M,40.593,M,2.7,0123*63\r\n
$GPGGA,091805.20,5703.3756406,N,00952.2021985,E,2,11,0.8,-1.144,M,40.593,M,2.7,0123*62\r\n
$GPGGA,091805.25,5703.3756430,N,00952.2020948,E,2,11,0.8,-1.143,M,40.593,M,2.9,0123*6B\r\n
$GPGGA,091805.30,5703.3756447,N,00952.2019914,E,2,11,0.8,-1.141,M,40.593,M,2.9,0123*6E\r\n
$GPGGA,091805.35,5703.3756451,N,00952.2018899,E,2,11,0.8,-1.140,M,40.593,M,2.9,0123*68\r\n
$GPGGA,091805.40,5703.3756446,N,00952.2017886,E,2,11,0.8,-1.138,M,40.593,M,2.9,0123*62\r\n
$GPGGA,091805.45,5703.3756452,N,00952.2016876,E,2,11,0.8,-1.131,M,40.593,M,3.1,0123*6C\r\n
$GPGGA,091805.50,5703.3756451,N,00952.2015857,E,2,11,0.8,-1.125,M,40.593,M,3.1,0123*6E\r\n
$GPGGA,091805.55,5703.3756436,N,00952.2014847,E,2,11,0.8,-1.119,M,40.593,M,3.1,0123*65\r\n
$GPGGA,091805.60,5703.3756417,N,00952.2013831,E,2,11,0.8,-1.113,M,40.593,M,3.1,0123*6C\r\n
$GPGGA,091805.65,5703.3756390,N,00952.2012819,E,2,11,0.8,-1.107,M,40.593,M,3.4,0123*6A\r\n
$GPGGA,091805.70,5703.3756348,N,00952.2011804,E,2,11,0.8,-1.100,M,40.593,M,3.4,0123*63\r\n
$GPGGA,091805.75,5703.3756316,N,00952.2010792,E,2,11,0.8,-1.096,M,40.593,M,3.4,0123*62\r\n
$GPGGA,091805.80,5703.3756283,N,00952.2009759,E,2,11,0.8,-1.096,M,40.593,M,3.4,0123*6A\r\n
$GPGGA,091805.85,5703.3756234,N,00952.2008712,E,2,11,0.8,-1.100,M,40.593,M,3.6,0123*61\r\n
$GPGGA,091805.90,5703.3756186,N,00952.2007665,E,2,11,0.8,-1.107,M,40.593,M,3.6,0123*66\r\n
$GPGGA,091805.95,5703.3756127,N,00952.2006626,E,2,11,0.8,-1.115,M,40.593,M,3.6,0123*6D\r\n
$GPGGA,091806.00,5703.3756045,N,00952.2005587,E,2,11,0.8,-1.123,M,40.593,M,3.6,0123*69\r\n
