$GPGGA,101126.65,5700.9105566,N,00959.1402428,E,2,11,0.9,10.098,M,40.582,M,3.6,0136*72\r\n
$GPGGA,101126.70,5700.9105565,N,00959.1402427,E,2,11,0.9,10.098,M,40.582,M,3.6,0136*7A\r\n
$GPGGA,101126.75,5700.9105565,N,00959.1402430,E,2,11,0.9,10.098,M,40.582,M,3.6,0136*79\r\n
$GPGGA,101126.80,5700.9105567,N,00959.1402429,E,2,11,0.9,10.099,M,40.582,M,3.6,0136*78\r\n
$GPGGA,101126.85,5700.9105570,N,00959.1402447,E,2,11,0.9,10.099,M,40.582,M,3.8,0136*7D\r\n
$GPGGA,101126.90,5700.9105570,N,00959.1402447,E,2,11,0.9,10.100,M,40.582,M,3.8,0136*78\r\n
$GPGGA,101126.95,5700.9105571,N,00959.1402448,E,2,11,0.9,10.100,M,40.582,M,3.8,0136*73\r\n
$GPGGA,101127.00,5700.9105573,N,00959.1402449,E,2,11,0.9,10.100,M,40.582,M,3.8,0136*7D\r\n
$GPGGA,101127.05,5700.9105567,N,00959.1402447,E,2,11,0.9,10.103,M,40.582,M,1.9,0136*73\r\n
$GPGGA,101127.10,5700.9105568,N,00959.1402454,E,2,11,0.9,10.104,M,40.582,M,1.9,0136*7D\r\n
$GPGGA,101127.15,5700.9105568,N,00959.1402455,E,2,11,0.9,10.104,M,40.582,M,1.9,0136*79\r\n
$GPGGA,101127.20,5700.9105570,N,00959.1402456,E,2,11,0.9,10.104,M,40.582,M,1.9,0136*75\r\n
$GPGGA,101127.25,5700.9105554,N,00959.1402469,E,2,11,0.9,10.095,M,40.582,M,2.1,0136*78\r\n
$GPGGA,101127.30,5700.9105555,N,00959.1402474,E,2,11,0.9,10.094,M,40.582,M,2.1,0136*70\r\n
$GPGGA,101127.35,5700.9105555,N,00959.1402472,E,2,11,0.9,10.094,M,40.582,M,2.1,0136*73\r\n
$GPGGA,101127.40,5700.9105555,N,00959.1402475,E,2,11,0.9,10.093,M,40.582,M,2.1,0136*71\r\n
$GPGGA,101127.45,5700.9105564,N,00959.1402457,E,2,11,0.9,10.100,M,40.582,M,2.4,0136*78\r\n
$GPGGA,101127.50,5700.9105564,N,00959.1402456,E,2,11,0.9,10.100,M,40.582,M,2.4,0136*7D\r\n
$GPGGA,101127.55,5700.9105563,N,00959.1402456,E,2,11,0.9,10.099,M,40.582,M,2.4,0136*7E\r\n
$GPGGA,101127.60,5700.9105562,N,00959.1402456,E,2,11,0.9,10.098,M,40.582,M,2.4,0136*78\r\n
$GPGGA,101127.65,5700.9105567,N,00959.1402449,E,2,11,0.9,10.098,M,40.582,M,2.7,0136*75\r\n
$GPGGA,101127.70,5700.9105566,N,00959.1402452,E,2,11,0.9,10.097,M,40.582,M,2.7,0136*75\r\n
$GPGGA,101127.75,5700.9105563,N,00959.1402447,E,2,11,0.9,10.097,M,40.582,M,2.7,0136*71\r\n
$GPGGA,101127.80,5700.9105562,N,00959.1402438,E,2,11,0.9,10.096,M,40.582,M,2.7,0136*73\r\n
$GPGGA,101127.85,5700.9105565,N,00959.1402438,E,2,11,0.9,10.102,M,40.582,M,2.9,0136*73\r\n
$GPGGA,101127.90,5700.9105564,N,00959.1402435,E,2,11,0.9,10.101,M,40.582,M,2.9,0136*78\r\n
$GPGGA,101127.95,5700.9105563,N,00959.1402433,E,2,11,0.9,10.101,M,40.582,M,2.9,0136*7C\r\n
$GPGGA,101128.00,5700.9105561,N,00959.1402432,E,2,11,0.9,10.101,M,40.582,M,2.9,0136*7C\r\n
$GPGGA,101128.05,5700.9105549,N,00959.1402443,E,2,11,0.9,10.095,M,40.582,M,1.5,0136*76\r\n
$GPGGA,101128.10,5700.9105548,N,00959.1402442,E,2,11,0.9,10.095,M,40.582,M,1.5,0136*72\r\n
$GPGGA,101128.15,5700.9105548,N,00959.1402442,E,2,11,0.9,10.094,M,40.582,M,1.5,0136*76\r\n
$GPGGA,101128.20,5700.9105542,N,00959.1402445,E,2,11,0.9,10.094,M,40.582,M,1.5,0136*7D\r\n
$GPGGA,101128.25,5700.9105534,N,00959.1402462,E,2,11,0.9,10.098,M,40.582,M,1.7,0136*72\r\n
$GPGGA,101128.30,5700.9105533,N,00959.1402461,E,2,11,0.9,10.098,M,40.582,M,1.7,0136*72\r\n
$GPGGA,101128.35,5700.9105532,N,00959.1402463,E,2,11,0.9,10.098,M,40.582,M,1.7,0136*74\r\n
$GPGGA,101128.40,5700.9105532,N,00959.1402466,E,2,11,0.9,10.098,M,40.582,M,1.7,0136*73\r\n
$GPGGA,101128.45,5700.9105558,N,00959.1402467,E,2,11,0.9,10.106,M,40.582,M,1.9,0136*73\r\n
$GPGGA,101128.50,5700.9105557,N,00959.1402469,E,2,11,0.9,10.107,M,40.582,M,1.9,0136*77\r\n
$GPGGA,101128.55,5700.9105560,N,00959.1402466,E,2,11,0.9,10.108,M,40.582,M,1.9,0136*76\r\n
$GPGGA,101128.60,5700.9105562,N,00959.1402467,E,2,11,0.9,10.109,M,40.582,M,1.9,0136*72\r\n
$GPGGA,101128.65,5700.9105550,N,00959.1402444,E,2,11,0.9,10.093,M,40.582,M,2.2,0136*7D\r\n
$GPGGA,101128.70,5700.9105552,N,00959.1402446,E,2,11,0.9,10.093,M,40.582,M,2.2,0136*79\r\n
$GPGGA,101128.75,5700.9105550,N,00959.1402443,E,2,11,0.9,10.093,M,40.582,M,2.2,0136*7B\r\n
$GPGGA,101128.80,5700.9105550,N,00959.1402442,E,2,11,0.9,10.093,M,40.582,M,2.2,0136*70\r\n
$GPGGA,101128.85,5700.9105538,N,00959.1402461,E,2,11,0.9,10.097,M,40.582,M,2.4,0136*78\r\n
$GPGGA,101128.90,5700.9105538,N,00959.1402457,E,2,11,0.9,10.097,M,40.582,M,2.4,0136*79\r\n
$GPGGA,101128.95,5700.9105538,N,00959.1402458,E,2,11,0.9,10.097,M,40.582,M,2.4,0136*73\r\n
$GPGGA,101129.00,5700.9105539,N,00959.1402459,E,2,11,0.9,10.097,M,40.582,M,2.4,0136*7E\r\n
$GPGGA,101129.05,5700.9105550,N,00959.1402446,E,2,11,0.9,10.101,M,40.582,M,1.9,0136*7A\r\n
$GPGGA,101129.10,5700.9105551,N,00959.1402445,E,2,11,0.9,10.101,M,40.582,M,1.9,0136*7C\r\n
$GPGGA,101129.15,5700.9105552,N,00959.1402441,E,2,11,0.9,10.101,M,40.582,M,1.9,0136*7E\r\n
$GPGGA,101129.20,5700.9105554,N,00959.1402440,E,2,11,0.9,10.101,M,40.582,M,1.9,0136*7F\r\n
$GPGGA,101129.25,5700.9105547,N,00959.1402438,E,2,11,0.9,10.096,M,40.582,M,2.1,0136*73\r\n
$GPGGA,101129.30,5700.9105549,N,00959.1402438,E,2,11,0.9,10.096,M,40.582,M,2.1,0136*79\r\n
$GPGGA,101129.35,5700.9105551,N,00959.1402432,E,2,11,0.9,10.096,M,40.582,M,2.1,0136*7F\r\n
$GPGGA,101129.40,5700.9105552,N,00959.1402431,E,2,11,0.9,10.096,M,40.582,M,2.1,0136*7D\r\n
$GPGGA,101129.45,5700.9105549,N,00959.1402431,E,2,11,0.9,10.097,M,40.582,M,2.3,0136*71\r\n
$GPGGA,101129.50,5700.9105548,N,00959.1402429,E,2,11,0.9,10.096,M,40.582,M,2.3,0136*7C\r\n
$GPGGA,101129.55,5700.9105549,N,00959.1402432,E,2,11,0.9,10.096,M,40.582,M,2.3,0136*72\r\n
$GPGGA,101129.60,5700.9105549,N,00959.1402436,E,2,11,0.9,10.096,M,40.582,M,2.3,0136*70\r\n
$GPGGA,101129.65,5700.9105538,N,00959.1402467,E,2,11,0.9,10.090,M,40.582,M,2.6,0136*74\r\n
$GPGGA,101129.70,5700.9105538,N,00959.1402472,E,2,11,0.9,10.090,M,40.582,M,2.6,0136*74\r\n
$GPGGA,101129.75,5700.9105537,N,00959.1402477,E,2,11,0.9,10.089,M,40.582,M,2.6,0136*73\r\n
$GPGGA,101129.80,5700.9105536,N,00959.1402480,E,2,11,0.9,10.088,M,40.582,M,2.6,0136*71\r\n
$GPGGA,101129.85,5700.9105548,N,00959.1402483,E,2,11,0.9,10.095,M,40.582,M,2.8,0136*7C\r\n
$GPGGA,101129.90,5700.9105547,N,00959.1402487,E,2,11,0.9,10.095,M,40.582,M,2.8,0136*73\r\n
$GPGGA,101129.95,5700.9105545,N,00959.1402483,E,2,11,0.9,10.095,M,40.582,M,2.8,0136*70\r\n
$GPGGA,101130.00,5700.9105542,N,00959.1402480,E,2,11,0.9,10.094,M,40.582,M,2.8,0136*71\r\n
$GPGGA,101130.05,5700.9105526,N,00959.1402440,E,2,11,0.9,10.097,M,40.582,M,3.0,0136*70\r\n
$GPGGA,101130.10,5700.9105525,N,00959.1402436,E,2,11,0.9,10.097,M,40.582,M,3.0,0136*76\r\n
$GPGGA,101130.15,5700.9105526,N,00959.1402436,E,2,11,0.9,10.097,M,40.582,M,3.0,0136*70\r\n
$GPGGA,101130.20,5700.9105527,N,00959.1402440,E,2,11,0.9,10.097,M,40.582,M,3.0,0136*76\r\n
$GPGGA,101130.25,5700.9105541,N,00959.1402463,E,2,11,0.9,10.093,M,40.582,M,3.2,0136*74\r\n
$GPGGA,101130.30,5700.9105541,N,00959.1402466,E,2,11,0.9,10.093,M,40.582,M,3.2,0136*75\r\n
$GPGGA,101130.35,5700.9105542,N,00959.1402468,E,2,11,0.9,10.092,M,40.582,M,3.2,0136*7C\r\n
$GPGGA,101130.40,5700.9105543,N,00959.1402467,E,2,11,0.9,10.092,M,40.582,M,3.2,0136*70\r\n
$GPGGA,101130.45,5700.9105545,N,00959.1402479,E,2,11,0.9,10.094,M,40.582,M,3.4,0136*7C\r\n
$GPGGA,101130.50,5700.9105546,N,00959.1402478,E,2,11,0.9,10.094,M,40.582,M,3.4,0136*7A\r\n
$GPGGA,101130.55,5700.9105545,N,00959.1402479,E,2,11,0.9,10.094,M,40.582,M,3.4,0136*7D\r\n
$GPGGA,101130.60,5700.9105544,N,00959.1402482,E,2,11,0.9,10.094,M,40.582,M,3.4,0136*7E\r\n
$GPGGA,101130.65,5700.9105529,N,00959.1402468,E,2,11,0.9,10.094,M,40.582,M,3.6,0136*76\r\n
$GPGGA,101130.70,5700.9105530,N,00959.1402470,E,2,11,0.9,10.094,M,40.582,M,3.6,0136*73\r\n
$GPGGA,101130.75,5700.9105530,N,00959.1402465,E,2,11,0.9,10.094,M,40.582,M,3.6,0136*72\r\n
$GPGGA,101130.80,5700.9105528,N,00959.1402462,E,2,11,0.9,10.094,M,40.582,M,3.6,0136*76\r\n
$GPGGA,101130.85,5700.9105528,N,00959.1402462,E,2,11,0.9,10.088,M,40.582,M,3.8,0136*70\r\n
$GPGGA,101130.90,5700.9105526,N,00959.1402461,E,2,11,0.9,10.087,M,40.582,M,3.8,0136*76\r\n
$GPGGA,101130.95,5700.9105525,N,00959.1402457,E,2,11,0.9,10.087,M,40.582,M,3.8,0136*75\r\n
$GPGGA,101131.00,5700.9105524,N,00959.1402452,E,2,11,0.9,10.086,M,40.582,M,3.8,0136*7D\r\n
$GPGGA,101131.05,5700.9105521,N,00959.1402443,E,2,11,0.9,10.096,M,40.582,M,1.9,0136*7F\r\n
$GPGGA,101131.10,5700.9105520,N,00959.1402440,E,2,11,0.9,10.096,M,40.582,M,1.9,0136*79\r\n
$GPGGA,101131.15,5700.9105518,N,00959.1402447,E,2,11,0.9,10.095,M,40.582,M,1.9,0136*73\r\n
$GPGGA,101131.20,5700.9105520,N,00959.1402450,E,2,11,0.9,10.095,M,40.582,M,1.9,0136*78\r\n
$GPGGA,101131.25,5700.9105530,N,00959.1402483,E,2,11,0.9,10.094,M,40.582,M,2.1,0136*78\r\n
$GPGGA,101131.30,5700.9105531,N,00959.1402476,E,2,11,0.9,10.094,M,40.582,M,2.1,0136*77\r\n
$GPGGA,101131.35,5700.9105528,N,00959.1402479,E,2,11,0.9,10.093,M,40.582,M,2.1,0136*72\r\n
$GPGGA,101131.40,5700.9105527,N,00959.1402481,E,2,11,0.9,10.093,M,40.582,M,2.1,0136*78\r\n
$GPGGA,101131.45,5700.9105519,N,00959.1402465,E,2,11,0.9,10.090,M,40.582,M,2.4,0136*7C\r\n
$GPGGA,101131.50,5700.9105518,N,00959.1402462,E,2,11,0.9,10.089,M,40.582,M,2.4,0136*76\r\n
$GPGGA,101131.55,5700.9105520,N,00959.1402458,E,2,11,0.9,10.089,M,40.582,M,2.4,0136*71\r\n
$GPGGA,101131.60,5700.9105522,N,00959.1402455,E,2,11,0.9,10.088,M,40.582,M,2.4,0136*79\r\n
$GPGGA,101131.65,5700.9105534,N,00959.1402439,E,2,11,0.9,10.092,M,40.582,M,2.7,0136*79\r\n
$GPGGA,101131.70,5700.9105535,N,00959.1402439,E,2,11,0.9,10.091,M,40.582,M,2.7,0136*7F\r\n
$GPGGA,101131.75,5700.9105534,N,00959.1402435,E,2,11,0.9,10.091,M,40.582,M,2.7,0136*77\r\n
$GPGGA,101131.80,5700.9105531,N,00959.1402435,E,2,11,0.9,10.091,M,40.582,M,2.7,0136*78\r\n
$GPGGA,101131.85,5700.9105524,N,00959.1402453,E,2,11,0.9,10.095,M,40.582,M,2.9,0136*73\r\n
$GPGGA,101131.90,5700.9105526,N,00959.1402450,E,2,11,0.9,10.095,M,40.582,M,2.9,0136*76\r\n
$GPGGA,101131.95,5700.9105527,N,00959.1402449,E,2,11,0.9,10.095,M,40.582,M,2.9,0136*7A\r\n
$GPGGA,101132.00,5700.9105527,N,00959.1402451,E,2,11,0.9,10.096,M,40.582,M,2.9,0136*7F\r\n
$GPGGA,101132.05,5700.9105532,N,00959.1402445,E,2,11,0.9,10.099,M,40.582,M,1.5,0136*7B\r\n
$GPGGA,101132.10,5700.9105532,N,00959.1402446,E,2,11,0.9,10.099,M,40.582,M,1.5,0136*7C\r\n
$GPGGA,101132.15,5700.9105533,N,00959.1402447,E,2,11,0.9,10.100,M,40.582,M,1.5,0136*78\r\n
$GPGGA,101132.20,5700.9105535,N,00959.1402446,E,2,11,0.9,10.100,M,40.582,M,1.5,0136*79\r\n
$GPGGA,101132.25,5700.9105530,N,00959.1402456,E,2,11,0.9,10.098,M,40.582,M,1.7,0136*7A\r\n
$GPGGA,101132.30,5700.9105531,N,00959.1402456,E,2,11,0.9,10.098,M,40.582,M,1.7,0136*7F\r\n
$GPGGA,101132.35,5700.9105530,N,00959.1402459,E,2,11,0.9,10.099,M,40.582,M,1.7,0136*75\r\n
$GPGGA,101132.40,5700.9105531,N,00959.1402462,E,2,11,0.9,10.099,M,40.582,M,1.7,0136*7E\r\n
$GPGGA,101132.45,5700.9105526,N,00959.1402457,E,2,11,0.9,10.094,M,40.582,M,1.9,0136*78\r\n
$GPGGA,101132.50,5700.9105526,N,00959.1402458,E,2,11,0.9,10.094,M,40.582,M,1.9,0136*73\r\n
$GPGGA,101132.55,5700.9105527,N,00959.1402454,E,2,11,0.9,10.094,M,40.582,M,1.9,0136*7B\r\n
$GPGGA,101132.60,5700.9105527,N,00959.1402454,E,2,11,0.9,10.094,M,40.582,M,1.9,0136*7D\r\n
$GPGGA,101132.65,5700.9105524,N,00959.1402436,E,2,11,0.9,10.096,M,40.582,M,2.2,0136*75\r\n
$GPGGA,101132.70,5700.9105523,N,00959.1402435,E,2,11,0.9,10.096,M,40.582,M,2.2,0136*75\r\n
$GPGGA,101132.75,5700.9105520,N,00959.1402439,E,2,11,0.9,10.096,M,40.582,M,2.2,0136*7F\r\n
$GPGGA,101132.80,5700.9105521,N,00959.1402440,E,2,11,0.9,10.096,M,40.582,M,2.2,0136*7A\r\n
$GPGGA,101132.85,5700.9105507,N,00959.1402455,E,2,11,0.9,10.092,M,40.582,M,2.4,0136*7D\r\n
$GPGGA,101132.90,5700.9105506,N,00959.1402456,E,2,11,0.9,10.092,M,40.582,M,2.4,0136*7B\r\n
$GPGGA,101132.95,5700.9105506,N,00959.1402460,E,2,11,0.9,10.091,M,40.582,M,2.4,0136*78\r\n
$GPGGA,101133.00,5700.9105504,N,00959.1402461,E,2,11,0.9,10.091,M,40.582,M,2.4,0136*76\r\n
$GPGGA,101133.05,5700.9105509,N,00959.1402469,E,2,11,0.9,10.096,M,40.582,M,1.9,0136*7F\r\n
$GPGGA,101133.10,5700.9105511,N,00959.1402468,E,2,11,0.9,10.096,M,40.582,M,1.9,0136*73\r\n
$GPGGA,101133.15,5700.9105513,N,00959.1402466,E,2,11,0.9,10.095,M,40.582,M,1.9,0136*79\r\n
$GPGGA,101133.20,5700.9105511,N,00959.1402469,E,2,11,0.9,10.095,M,40.582,M,1.9,0136*72\r\n
$GPGGA,101133.25,5700.9105517,N,00959.1402450,E,2,11,0.9,10.092,M,40.582,M,2.1,0136*77\r\n
$GPGGA,101133.30,5700.9105514,N,00959.1402444,E,2,11,0.9,10.092,M,40.582,M,2.1,0136*75\r\n
$GPGGA,101133.35,5700.9105512,N,00959.1402435,E,2,11,0.9,10.092,M,40.582,M,2.1,0136*70\r\n
$GPGGA,101133.40,5700.9105513,N,00959.1402425,E,2,11,0.9,10.092,M,40.582,M,2.1,0136*72\r\n
$GPGGA,101133.45,5700.9105536,N,00959.1402402,E,2,11,0.9,10.113,M,40.582,M,2.3,0136*7F\r\n
$GPGGA,101133.50,5700.9105556,N,00959.1402391,E,2,11,0.9,10.121,M,40.582,M,2.3,0136*71\r\n
$GPGGA,101133.55,5700.9105579,N,00959.1402380,E,2,11,0.9,10.131,M,40.582,M,2.3,0136*78\r\n
$GPGGA,101133.60,5700.9105614,N,00959.1402364,E,2,11,0.9,10.144,M,40.582,M,2.3,0136*7E\r\n
$GPGGA,101133.65,5700.9105670,N,00959.1402326,E,2,11,0.9,10.164,M,40.582,M,2.6,0136*78\r\n
$GPGGA,101133.70,5700.9105722,N,00959.1402259,E,2,11,0.9,10.177,M,40.582,M,2.6,0136*71\r\n
$GPGGA,101133.75,5700.9105774,N,00959.1402219,E,2,11,0.9,10.196,M,40.582,M,2.6,0136*7C\r\n
$GPGGA,101133.80,5700.9105839,N,00959.1402165,E,2,11,0.9,10.222,M,40.582,M,2.6,0136*74\r\n
$GPGGA,101133.85,5700.9105915,N,00959.1402119,E,2,11,0.9,10.247,M,40.582,M,2.8,0136*78\r\n
$GPGGA,101133.90,5700.9106008,N,00959.1402112,E,2,11,0.9,10.276,M,40.582,M,2.8,0136*73\r\n
$GPGGA,101133.95,5700.9106106,N,00959.1402085,E,2,11,0.9,10.298,M,40.582,M,2.8,0136*76\r\n
$GPGGA,101134.00,5700.9106187,N,00959.1402043,E,2,11,0.9,10.314,M,40.582,M,2.8,0136*7B\r\n
$GPGGA,101134.05,5700.9106285,N,00959.1402035,E,2,11,0.9,10.349,M,40.582,M,3.0,0136*7F\r\n
$GPGGA,101134.10,5700.9106364,N,00959.1402012,E,2,11,0.9,10.373,M,40.582,M,3.0,0136*79\r\n
$GPGGA,101134.15,5700.9106430,N,00959.1401961,E,2,11,0.9,10.384,M,40.582,M,3.0,0136*7C\r\n
$GPGGA,101134.20,5700.9106483,N,00959.1401895,E,2,11,0.9,10.390,M,40.582,M,3.0,0136*7D\r\n
$GPGGA,101134.25,5700.9106524,N,00959.1401833,E,2,11,0.9,10.384,M,40.582,M,3.2,0136*7F\r\n
$GPGGA,101134.30,5700.9106581,N,00959.1401794,E,2,11,0.9,10.393,M,40.582,M,3.2,0136*70\r\n
$GPGGA,101134.35,5700.9106635,N,00959.1401778,E,2,11,0.9,10.403,M,40.582,M,3.2,0136*75\r\n
$GPGGA,101134.40,5700.9106687,N,00959.1401764,E,2,11,0.9,10.411,M,40.582,M,3.2,0136*70\r\n
$GPGGA,101134.45,5700.9106743,N,00959.1401742,E,2,11,0.9,10.419,M,40.582,M,3.4,0136*76\r\n
$GPGGA,101134.50,5700.9106801,N,00959.1401711,E,2,11,0.9,10.431,M,40.582,M,3.4,0136*77\r\n
$GPGGA,101134.55,5700.9106861,N,00959.1401670,E,2,11,0.9,10.439,M,40.582,M,3.4,0136*7A\r\n
$GPGGA,101134.60,5700.9106918,N,00959.1401628,E,2,11,0.9,10.447,M,40.582,M,3.4,0136*77\r\n
$GPGGA,101134.65,5700.9106968,N,00959.1401594,E,2,11,0.9,10.458,M,40.582,M,3.6,0136*7D\r\n
$GPGGA,101134.70,5700.9107031,N,00959.1401557,E,2,11,0.9,10.464,M,40.582,M,3.6,0136*7D\r\n
$GPGGA,101134.75,5700.9107083,N,00959.1401521,E,2,11,0.9,10.469,M,40.582,M,3.6,0136*7D\r\n
$GPGGA,101134.80,5700.9107124,N,00959.1401512,E,2,11,0.9,10.472,M,40.582,M,3.6,0136*71\r\n
$GPGGA,101134.85,5700.9107139,N,00959.1401496,E,2,11,0.9,10.461,M,40.582,M,3.8,0136*79\r\n
$GPGGA,101134.90,5700.9107164,N,00959.1401494,E,2,11,0.9,10.463,M,40.582,M,3.8,0136*75\r\n
$GPGGA,101134.95,5700.9107191,N,00959.1401503,E,2,11,0.9,10.466,M,40.582,M,3.8,0136*70\r\n
$GPGGA,101135.00,5700.9107217,N,00959.1401543,E,2,11,0.9,10.467,M,40.582,M,3.8,0136*75\r\n
$GPGGA,101135.05,5700.9107229,N,00959.1401579,E,2,11,0.9,10.475,M,40.582,M,1.9,0136*74\r\n
$GPGGA,101135.10,5700.9107245,N,00959.1401614,E,2,11,0.9,10.476,M,40.582,M,1.9,0136*71\r\n
$GPGGA,101135.15,5700.9107257,N,00959.1401646,E,2,11,0.9,10.478,M,40.582,M,1.9,0136*7E\r\n
$GPGGA,101135.20,5700.9107264,N,00959.1401672,E,2,11,0.9,10.479,M,40.582,M,1.9,0136*7E\r\n
$GPGGA,101135.25,5700.9107266,N,00959.1401642,E,2,11,0.9,10.471,M,40.582,M,2.1,0136*79\r\n
$GPGGA,101135.30,5700.9107268,N,00959.1401660,E,2,11,0.9,10.470,M,40.582,M,2.1,0136*72\r\n
$GPGGA,101135.35,5700.9107266,N,00959.1401671,E,2,11,0.9,10.470,M,40.582,M,2.1,0136*79\r\n
$GPGGA,101135.40,5700.9107261,N,00959.1401677,E,2,11,0.9,10.468,M,40.582,M,2.1,0136*73\r\n
$GPGGA,101135.45,5700.9107247,N,00959.1401616,E,2,11,0.9,10.470,M,40.582,M,2.4,0136*79\r\n
$GPGGA,101135.50,5700.9107231,N,00959.1401613,E,2,11,0.9,10.468,M,40.582,M,2.4,0136*70\r\n
$GPGGA,101135.55,5700.9107213,N,00959.1401608,E,2,11,0.9,10.466,M,40.582,M,2.4,0136*71\r\n
$GPGGA,101135.60,5700.9107194,N,00959.1401604,E,2,11,0.9,10.464,M,40.582,M,2.4,0136*75\r\n
$GPGGA,101135.65,5700.9107158,N,00959.1401649,E,2,11,0.9,10.464,M,40.582,M,2.7,0136*7A\r\n
$GPGGA,101135.70,5700.9107135,N,00959.1401645,E,2,11,0.9,10.463,M,40.582,M,2.7,0136*7E\r\n
$GPGGA,101135.75,5700.9107119,N,00959.1401624,E,2,11,0.9,10.465,M,40.582,M,2.7,0136*74\r\n
$GPGGA,101135.80,5700.9107105,N,00959.1401610,E,2,11,0.9,10.465,M,40.582,M,2.7,0136*74\r\n
$GPGGA,101135.85,5700.9107090,N,00959.1401601,E,2,11,0.9,10.467,M,40.582,M,2.9,0136*70\r\n
$GPGGA,101135.90,5700.9107066,N,00959.1401599,E,2,11,0.9,10.465,M,40.582,M,2.9,0136*7D\r\n
$GPGGA,101135.95,5700.9107040,N,00959.1401608,E,2,11,0.9,10.464,M,40.582,M,2.9,0136*76\r\n
$GPGGA,101136.00,5700.9107013,N,00959.1401629,E,2,11,0.9,10.462,M,40.582,M,2.9,0136*7A\r\n
$GPGGA,101136.05,5700.9106944,N,00959.1401763,E,2,11,0.9,10.463,M,40.582,M,1.5,0136*74\r\n
$GPGGA,101136.10,5700.9106916,N,00959.1401794,E,2,11,0.9,10.460,M,40.582,M,1.5,0136*7C\r\n
$GPGGA,101136.15,5700.9106898,N,00959.1401822,E,2,11,0.9,10.457,M,40.582,M,1.5,0136*78\r\n
$GPGGA,101136.20,5700.9106873,N,00959.1401817,E,2,11,0.9,10.456,M,40.582,M,1.5,0136*7C\r\n
$GPGGA,101136.25,5700.9106853,N,00959.1401819,E,2,11,0.9,10.451,M,40.582,M,1.7,0136*70\r\n
$GPGGA,101136.30,5700.9106839,N,00959.1401807,E,2,11,0.9,10.454,M,40.582,M,1.7,0136*72\r\n
$GPGGA,101136.35,5700.9106817,N,00959.1401790,E,2,11,0.9,10.457,M,40.582,M,1.7,0136*79\r\n
$GPGGA,101136.40,5700.9106802,N,00959.1401787,E,2,11,0.9,10.458,M,40.582,M,1.7,0136*76\r\n
$GPGGA,101136.45,5700.9106796,N,00959.1401793,E,2,11,0.9,10.458,M,40.582,M,1.9,0136*7A\r\n
$GPGGA,101136.50,5700.9106777,N,00959.1401805,E,2,11,0.9,10.454,M,40.582,M,1.9,0136*7D\r\n
$GPGGA,101136.55,5700.9106752,N,00959.1401825,E,2,11,0.9,10.452,M,40.582,M,1.9,0136*7B\r\n
$GPGGA,101136.60,5700.9106731,N,00959.1401843,E,2,11,0.9,10.450,M,40.582,M,1.9,0136*7A\r\n
$GPGGA,101136.65,5700.9106715,N,00959.1401863,E,2,11,0.9,10.451,M,40.582,M,2.2,0136*72\r\n
$GPGGA,101136.70,5700.9106697,N,00959.1401872,E,2,11,0.9,10.448,M,40.582,M,2.2,0136*75\r\n
$GPGGA,101136.75,5700.9106682,N,00959.1401879,E,2,11,0.9,10.446,M,40.582,M,2.2,0136*71\r\n
$GPGGA,101136.80,5700.9106663,N,00959.1401881,E,2,11,0.9,10.444,M,40.582,M,2.2,0136*71\r\n
$GPGGA,101136.85,5700.9106659,N,00959.1401800,E,2,11,0.9,10.449,M,40.582,M,2.4,0136*7F\r\n
$GPGGA,101136.90,5700.9106643,N,00959.1401786,E,2,11,0.9,10.447,M,40.582,M,2.4,0136*7F\r\n
$GPGGA,101136.95,5700.9106630,N,00959.1401776,E,2,11,0.9,10.446,M,40.582,M,2.4,0136*70\r\n
$GPGGA,101137.00,5700.9106621,N,00959.1401763,E,2,11,0.9,10.444,M,40.582,M,2.4,0136*7B\r\n
$GPGGA,101137.05,5700.9106628,N,00959.1401771,E,2,11,0.9,10.453,M,40.582,M,1.9,0136*7C\r\n
$GPGGA,101137.10,5700.9106624,N,00959.1401762,E,2,11,0.9,10.452,M,40.582,M,1.9,0136*77\r\n
$GPGGA,101137.15,5700.9106625,N,00959.1401764,E,2,11,0.9,10.451,M,40.582,M,1.9,0136*76\r\n
$GPGGA,101137.20,5700.9106623,N,00959.1401765,E,2,11,0.9,10.450,M,40.582,M,1.9,0136*76\r\n
$GPGGA,101137.25,5700.9106642,N,00959.1401818,E,2,11,0.9,10.455,M,40.582,M,2.1,0136*7F\r\n
$GPGGA,101137.30,5700.9106645,N,00959.1401831,E,2,11,0.9,10.455,M,40.582,M,2.1,0136*77\r\n
$GPGGA,101137.35,5700.9106646,N,00959.1401844,E,2,11,0.9,10.455,M,40.582,M,2.1,0136*73\r\n
$GPGGA,101137.40,5700.9106648,N,00959.1401855,E,2,11,0.9,10.455,M,40.582,M,2.1,0136*7F\r\n
$GPGGA,101137.45,5700.9106603,N,00959.1401876,E,2,11,0.9,10.441,M,40.582,M,2.3,0136*73\r\n
$GPGGA,101137.50,5700.9106603,N,00959.1401914,E,2,11,0.9,10.440,M,40.582,M,2.3,0136*73\r\n
$GPGGA,101137.55,5700.9106603,N,00959.1401958,E,2,11,0.9,10.436,M,40.582,M,2.3,0136*7F\r\n
$GPGGA,101137.60,5700.9106612,N,00959.1402005,E,2,11,0.9,10.432,M,40.582,M,2.3,0136*7F\r\n
$GPGGA,101137.65,5700.9106625,N,00959.1402042,E,2,11,0.9,10.437,M,40.582,M,2.6,0136*7D\r\n
$GPGGA,101137.70,5700.9106626,N,00959.1402073,E,2,11,0.9,10.438,M,40.582,M,2.6,0136*77\r\n
$GPGGA,101137.75,5700.9106633,N,00959.1402069,E,2,11,0.9,10.441,M,40.582,M,2.6,0136*73\r\n
$GPGGA,101137.80,5700.9106650,N,00959.1402057,E,2,11,0.9,10.444,M,40.582,M,2.6,0136*74\r\n
$GPGGA,101137.85,5700.9106661,N,00959.1402046,E,2,11,0.9,10.451,M,40.582,M,2.8,0136*79\r\n
$GPGGA,101137.90,5700.9106661,N,00959.1402022,E,2,11,0.9,10.454,M,40.582,M,2.8,0136*7A\r\n
$GPGGA,101137.95,5700.9106661,N,00959.1401996,E,2,11,0.9,10.456,M,40.582,M,2.8,0136*78\r\n
$GPGGA,101138.00,5700.9106670,N,00959.1401979,E,2,11,0.9,10.459,M,40.582,M,2.8,0136*75\r\n
$GPGGA,101138.05,5700.9106665,N,00959.1401957,E,2,11,0.9,10.461,M,40.582,M,3.0,0136*7A\r\n
$GPGGA,101138.10,5700.9106670,N,00959.1401928,E,2,11,0.9,10.463,M,40.582,M,3.0,0136*70\r\n
$GPGGA,101138.15,5700.9106673,N,00959.1401894,E,2,11,0.9,10.466,M,40.582,M,3.0,0136*75\r\n
$GPGGA,101138.20,5700.9106673,N,00959.1401855,E,2,11,0.9,10.468,M,40.582,M,3.0,0136*70\r\n
$GPGGA,101138.25,5700.9106671,N,00959.1401825,E,2,11,0.9,10.468,M,40.582,M,3.2,0136*72\r\n
$GPGGA,101138.30,5700.9106664,N,00959.1401761,E,2,11,0.9,10.470,M,40.582,M,3.2,0136*74\r\n
$GPGGA,101138.35,5700.9106651,N,00959.1401683,E,2,11,0.9,10.473,M,40.582,M,3.2,0136*79\r\n
$GPGGA,101138.40,5700.9106635,N,00959.1401592,E,2,11,0.9,10.475,M,40.582,M,3.2,0136*7C\r\n
$GPGGA,101138.45,5700.9106545,N,00959.1401344,E,2,11,0.9,10.466,M,40.582,M,3.4,0136*74\r\n
$GPGGA,101138.50,5700.9106514,N,00959.1401210,E,2,11,0.9,10.466,M,40.582,M,3.4,0136*74\r\n
$GPGGA,101138.55,5700.9106472,N,00959.1401064,E,2,11,0.9,10.462,M,40.582,M,3.4,0136*75\r\n
$GPGGA,101138.60,5700.9106428,N,00959.1400933,E,2,11,0.9,10.456,M,40.582,M,3.4,0136*71\r\n
$GPGGA,101138.65,5700.9106381,N,00959.1400868,E,2,11,0.9,10.458,M,40.582,M,3.6,0136*73\r\n
$GPGGA,101138.70,5700.9106344,N,00959.1400761,E,2,11,0.9,10.456,M,40.582,M,3.6,0136*76\r\n
$GPGGA,101138.75,5700.9106301,N,00959.1400651,E,2,11,0.9,10.458,M,40.582,M,3.6,0136*7E\r\n
$GPGGA,101138.80,5700.9106251,N,00959.1400565,E,2,11,0.9,10.461,M,40.582,M,3.6,0136*7E\r\n
$GPGGA,101138.85,5700.9106219,N,00959.1400473,E,2,11,0.9,10.472,M,40.582,M,3.8,0136*7D\r\n
$GPGGA,101138.90,5700.9106165,N,00959.1400345,E,2,11,0.9,10.472,M,40.582,M,3.8,0136*73\r\n
$GPGGA,101138.95,5700.9106108,N,00959.1400251,E,2,11,0.9,10.473,M,40.582,M,3.8,0136*78\r\n
$GPGGA,101139.00,5700.9106055,N,00959.1400188,E,2,11,0.9,10.469,M,40.582,M,3.8,0136*70\r\n
$GPGGA,101139.05,5700.9105983,N,00959.1400083,E,2,11,0.9,10.456,M,40.582,M,1.9,0136*71\r\n
$GPGGA,101139.10,5700.9105921,N,00959.1399987,E,2,11,0.9,10.454,M,40.582,M,1.9,0136*75\r\n
$GPGGA,101139.15,5700.9105852,N,00959.1399864,E,2,11,0.9,10.451,M,40.582,M,1.9,0136*7C\r\n
$GPGGA,101139.20,5700.9105774,N,00959.1399730,E,2,11,0.9,10.449,M,40.582,M,1.9,0136*76\r\n
$GPGGA,101139.25,5700.9105712,N,00959.1399601,E,2,11,0.9,10.453,M,40.582,M,2.1,0136*70\r\n
$GPGGA,101139.30,5700.9105659,N,00959.1399480,E,2,11,0.9,10.453,M,40.582,M,2.1,0136*71\r\n
$GPGGA,101139.35,5700.9105595,N,00959.1399367,E,2,11,0.9,10.449,M,40.582,M,2.1,0136*72\r\n
$GPGGA,101139.40,5700.9105514,N,00959.1399246,E,2,10,0.9,10.446,M,40.582,M,2.1,0136*75\r\n
$GPGGA,101139.45,5700.9105420,N,00959.1399130,E,2,10,0.9,10.445,M,40.582,M,2.4,0136*72\r\n
$GPGGA,101139.50,5700.9105331,N,00959.1399003,E,2,10,0.9,10.442,M,40.582,M,2.4,0136*77\r\n
$GPGGA,101139.55,5700.9105267,N,00959.1398897,E,2,10,0.9,10.443,M,40.582,M,2.4,0136*75\r\n
$GPGGA,101139.60,5700.9105214,N,00959.1398809,E,2,10,0.9,10.447,M,40.582,M,2.4,0136*74\r\n
$GPGGA,101139.65,5700.9105153,N,00959.1398719,E,2,10,0.9,10.446,M,40.582,M,2.7,0136*7D\r\n
$GPGGA,101139.70,5700.9105084,N,00959.1398652,E,2,10,0.9,10.450,M,40.582,M,2.7,0136*7B\r\n
$GPGGA,101139.75,5700.9104998,N,00959.1398581,E,2,10,0.9,10.453,M,40.582,M,2.7,0136*75\r\n
$GPGGA,101139.80,5700.9104908,N,00959.1398501,E,2,10,0.9,10.457,M,40.582,M,2.7,0136*7A\r\n
$GPGGA,101139.85,5700.9104832,N,00959.1398451,E,2,10,0.9,10.470,M,40.582,M,2.9,0136*78\r\n
$GPGGA,101139.90,5700.9104749,N,00959.1398371,E,2,10,0.9,10.470,M,40.582,M,2.9,0136*7A\r\n
$GPGGA,101139.95,5700.9104664,N,00959.1398285,E,2,10,0.9,10.471,M,40.582,M,2.9,0136*7A\r\n
$GPGGA,101140.00,5700.9104571,N,00959.1398199,E,2,10,0.9,10.472,M,40.582,M,2.9,0136*72\r\n
$GPGGA,101140.05,5700.9104461,N,00959.1398104,E,2,10,0.9,10.466,M,40.582,M,1.5,0136*79\r\n
$GPGGA,101140.10,5700.9104358,N,00959.1398026,E,2,10,0.9,10.466,M,40.582,M,1.5,0136*71\r\n
$GPGGA,101140.15,5700.9104255,N,00959.1397975,E,2,10,0.9,10.466,M,40.582,M,1.5,0136*78\r\n
$GPGGA,101140.20,5700.9104157,N,00959.1397940,E,2,10,0.9,10.466,M,40.582,M,1.5,0136*79\r\n
$GPGGA,101140.25,5700.9104075,N,00959.1397902,E,2,11,0.9,10.470,M,40.582,M,1.7,0136*7F\r\n
$GPGGA,101140.30,5700.9103982,N,00959.1397862,E,2,11,0.9,10.468,M,40.582,M,1.7,0136*73\r\n
$GPGGA,101140.35,5700.9103869,N,00959.1397819,E,2,11,0.9,10.466,M,40.582,M,1.7,0136*70\r\n
$GPGGA,101140.40,5700.9103749,N,00959.1397782,E,2,11,0.9,10.463,M,40.582,M,1.7,0136*77\r\n
$GPGGA,101140.45,5700.9103618,N,00959.1397808,E,2,11,0.9,10.459,M,40.582,M,1.9,0136*7D\r\n
$GPGGA,101140.50,5700.9103515,N,00959.1397836,E,2,11,0.9,10.456,M,40.582,M,1.9,0136*75\r\n
$GPGGA,101140.55,5700.9103418,N,00959.1397819,E,2,11,0.9,10.452,M,40.582,M,1.9,0136*75\r\n
$GPGGA,101140.60,5700.9103320,N,00959.1397785,E,2,11,0.9,10.449,M,40.582,M,1.9,0136*7F\r\n
$GPGGA,101140.65,5700.9103229,N,00959.1397774,E,2,11,0.9,10.454,M,40.582,M,2.2,0136*78\r\n
$GPGGA,101140.70,5700.9103130,N,00959.1397765,E,2,11,0.9,10.455,M,40.582,M,2.2,0136*76\r\n
$GPGGA,101140.75,5700.9103027,N,00959.1397786,E,2,11,0.9,10.457,M,40.582,M,2.2,0136*7B\r\n
$GPGGA,101140.80,5700.9102929,N,00959.1397843,E,2,11,0.9,10.459,M,40.582,M,2.2,0136*7F\r\n
$GPGGA,101140.85,5700.9102816,N,00959.1397895,E,2,11,0.9,10.457,M,40.582,M,2.4,0136*74\r\n
$GPGGA,101140.90,5700.9102712,N,00959.1397926,E,2,11,0.9,10.456,M,40.582,M,2.4,0136*73\r\n
$GPGGA,101140.95,5700.9102613,N,00959.1397943,E,2,11,0.9,10.454,M,40.582,M,2.4,0136*77\r\n
$GPGGA,101141.00,5700.9102510,N,00959.1397967,E,2,11,0.9,10.456,M,40.582,M,2.4,0136*7E\r\n
$GPGGA,101141.05,5700.9102421,N,00959.1397981,E,2,11,0.9,10.465,M,40.582,M,1.9,0136*7E\r\n
$GPGGA,101141.10,5700.9102317,N,00959.1398022,E,2,11,0.9,10.468,M,40.582,M,1.9,0136*7A\r\n
$GPGGA,101141.15,5700.9102196,N,00959.1398085,E,2,11,0.9,10.475,M,40.582,M,1.9,0136*75\r\n
$GPGGA,101141.20,5700.9102090,N,00959.1398133,E,2,11,0.9,10.482,M,40.582,M,1.9,0136*70\r\n
$GPGGA,101141.25,5700.9102007,N,00959.1398167,E,2,11,0.9,10.490,M,40.582,M,2.1,0136*72\r\n
$GPGGA,101141.30,5700.9101921,N,00959.1398190,E,2,11,0.9,10.493,M,40.582,M,2.1,0136*73\r\n
$GPGGA,101141.35,5700.9101808,N,00959.1398242,E,2,11,0.9,10.493,M,40.582,M,2.1,0136*70\r\n
$GPGGA,101141.40,5700.9101667,N,00959.1398311,E,2,11,0.9,10.494,M,40.582,M,2.1,0136*75\r\n
$GPGGA,101141.45,5700.9101486,N,00959.1398363,E,2,11,0.9,10.478,M,40.582,M,2.3,0136*78\r\n
$GPGGA,101141.50,5700.9101350,N,00959.1398407,E,2,11,0.9,10.479,M,40.582,M,2.3,0136*74\r\n
$GPGGA,101141.55,5700.9101230,N,00959.1398389,E,2,11,0.9,10.471,M,40.582,M,2.3,0136*7F\r\n
$GPGGA,101141.60,5700.9101109,N,00959.1398349,E,2,11,0.9,10.462,M,40.582,M,2.3,0136*7E\r\n
$GPGGA,101141.65,5700.9100966,N,00959.1398336,E,2,11,0.9,10.467,M,40.582,M,2.6,0136*73\r\n
$GPGGA,101141.70,5700.9100805,N,00959.1398330,E,2,10,0.9,10.468,M,40.582,M,2.6,0136*7B\r\n
$GPGGA,101141.75,5700.9100633,N,00959.1398319,E,2,10,0.9,10.472,M,40.582,M,2.6,0136*75\r\n
$GPGGA,101141.80,5700.9100466,N,00959.1398324,E,2,10,0.9,10.473,M,40.582,M,2.6,0136*72\r\n
$GPGGA,101141.85,5700.9100299,N,00959.1398361,E,2,11,0.9,10.483,M,40.582,M,2.8,0136*70\r\n
$GPGGA,101141.90,5700.9100142,N,00959.1398328,E,2,11,0.9,10.481,M,40.582,M,2.8,0136*7E\r\n
$GPGGA,101141.95,5700.9099978,N,00959.1398291,E,2,11,0.9,10.477,M,40.582,M,2.8,0136*71\r\n
$GPGGA,101142.00,5700.9099811,N,00959.1398248,E,2,11,0.9,10.472,M,40.582,M,2.8,0136*71\r\n
$GPGGA,101142.05,5700.9099625,N,00959.1398189,E,2,11,0.9,10.459,M,40.582,M,3.0,0136*73\r\n
$GPGGA,101142.10,5700.9099432,N,00959.1398218,E,2,11,0.9,10.466,M,40.582,M,3.0,0136*74\r\n
$GPGGA,101142.15,5700.9099253,N,00959.1398178,E,2,11,0.9,10.465,M,40.582,M,3.0,0136*76\r\n
$GPGGA,101142.20,5700.9099079,N,00959.1398093,E,2,11,0.9,10.458,M,40.582,M,3.0,0136*70\r\n
$GPGGA,101142.25,5700.9098912,N,00959.1398032,E,2,11,0.9,10.467,M,40.582,M,3.2,0136*75\r\n
$GPGGA,101142.30,5700.9098730,N,00959.1397967,E,2,11,0.9,10.465,M,40.582,M,3.2,0136*7B\r\n
$GPGGA,101142.35,5700.9098565,N,00959.1397882,E,2,11,0.9,10.468,M,40.582,M,3.2,0136*7B\r\n
$GPGGA,101142.40,5700.9098413,N,00959.1397806,E,2,11,0.9,10.474,M,40.582,M,3.2,0136*78\r\n
$GPGGA,101142.45,5700.9098227,N,00959.1397767,E,2,11,0.9,10.474,M,40.582,M,3.4,0136*72\r\n
$GPGGA,101142.50,5700.9098047,N,00959.1397724,E,2,11,0.9,10.473,M,40.582,M,3.4,0136*72\r\n
$GPGGA,101142.55,5700.9097887,N,00959.1397652,E,2,11,0.9,10.467,M,40.582,M,3.4,0136*79\r\n
$GPGGA,101142.60,5700.9097724,N,00959.1397549,E,2,11,0.9,10.462,M,40.582,M,3.4,0136*75\r\n
$GPGGA,101142.65,5700.9097541,N,00959.1397435,E,2,11,0.9,10.457,M,40.582,M,3.6,0136*7F\r\n
$GPGGA,101142.70,5700.9097372,N,00959.1397318,E,2,11,0.9,10.460,M,40.582,M,3.6,0136*71\r\n
$GPGGA,101142.75,5700.9097206,N,00959.1397182,E,2,11,0.9,10.461,M,40.582,M,3.6,0136*76\r\n
$GPGGA,101142.80,5700.9097035,N,00959.1397037,E,2,11,0.9,10.459,M,40.582,M,3.6,0136*7A\r\n
$GPGGA,101142.85,5700.9096883,N,00959.1396907,E,2,11,0.9,10.474,M,40.582,M,1.6,0136*7D\r\n
$GPGGA,101142.90,5700.9096728,N,00959.1396766,E,2,11,0.9,10.478,M,40.582,M,1.6,0136*72\r\n
$GPGGA,101142.95,5700.9096569,N,00959.1396594,E,2,11,0.9,10.478,M,40.582,M,1.6,0136*7F\r\n
$GPGGA,101143.00,5700.9096432,N,00959.1396431,E,2,11,0.9,10.475,M,40.582,M,1.6,0136*7E\r\n
$GPGGA,101143.05,5700.9096277,N,00959.1396312,E,2,11,0.9,10.470,M,40.582,M,1.9,0136*70\r\n
$GPGGA,101143.10,5700.9096118,N,00959.1396228,E,2,11,0.9,10.474,M,40.582,M,1.9,0136*72\r\n
$GPGGA,101143.15,5700.9095964,N,00959.1396110,E,2,11,0.9,10.476,M,40.582,M,1.9,0136*7D\r\n
$GPGGA,101143.20,5700.9095804,N,00959.1395952,E,2,11,0.9,10.474,M,40.582,M,1.9,0136*73\r\n
$GPGGA,101143.25,5700.9095657,N,00959.1395832,E,2,11,0.9,10.485,M,40.582,M,2.1,0136*7C\r\n
$GPGGA,101143.30,5700.9095505,N,00959.1395705,E,2,11,0.9,10.486,M,40.582,M,2.1,0136*74\r\n
$GPGGA,101143.35,5700.9095355,N,00959.1395587,E,2,11,0.9,10.490,M,40.582,M,2.1,0136*7D\r\n
$GPGGA,101143.40,5700.9095209,N,00959.1395438,E,2,11,0.9,10.492,M,40.582,M,2.1,0136*70\r\n
$GPGGA,101143.45,5700.9095051,N,00959.1395308,E,2,11,0.9,10.484,M,40.582,M,2.4,0136*7C\r\n
$GPGGA,101143.50,5700.9094903,N,00959.1395159,E,2,11,0.9,10.489,M,40.582,M,2.4,0136*7C\r\n
$GPGGA,101143.55,5700.9094744,N,00959.1395013,E,2,11,0.9,10.496,M,40.582,M,2.4,0136*75\r\n
$GPGGA,101143.60,5700.9094585,N,00959.1394865,E,2,11,0.9,10.498,M,40.582,M,2.4,0136*7A\r\n
$GPGGA,101143.65,5700.9094428,N,00959.1394704,E,2,11,0.9,10.500,M,40.582,M,2.7,0136*72\r\n
$GPGGA,101143.70,5700.9094280,N,00959.1394528,E,2,11,0.9,10.498,M,40.582,M,2.7,0136*7E\r\n
$GPGGA,101143.75,5700.9094130,N,00959.1394323,E,2,11,0.9,10.496,M,40.582,M,2.7,0136*70\r\n
$GPGGA,101143.80,5700.9093992,N,00959.1394071,E,2,11,0.9,10.494,M,40.582,M,2.7,0136*7B\r\n
$GPGGA,101143.85,5700.9093866,N,00959.1393751,E,2,11,0.9,10.494,M,40.582,M,1.2,0136*70\r\n
$GPGGA,101143.90,5700.9093749,N,00959.1393404,E,2,11,0.9,10.497,M,40.582,M,1.2,0136*76\r\n
$GPGGA,101143.95,5700.9093631,N,00959.1393105,E,2,11,0.9,10.497,M,40.582,M,1.2,0136*79\r\n
$GPGGA,101144.00,5700.9093522,N,00959.1392807,E,2,11,0.9,10.500,M,40.582,M,1.2,0136*76\r\n
$GPGGA,101144.05,5700.9093431,N,00959.1392486,E,2,11,0.9,10.514,M,40.582,M,1.5,0136*77\r\n
$GPGGA,101144.10,5700.9093330,N,00959.1392144,E,2,11,0.9,10.513,M,40.582,M,1.5,0136*79\r\n
$GPGGA,101144.15,5700.9093206,N,00959.1391847,E,2,11,0.9,10.506,M,40.582,M,1.5,0136*75\r\n
$GPGGA,101144.20,5700.9093084,N,00959.1391558,E,2,11,0.9,10.503,M,40.582,M,1.5,0136*7D\r\n
$GPGGA,101144.25,5700.9092976,N,00959.1391242,E,2,11,0.9,10.499,M,40.582,M,1.7,0136*71\r\n
$GPGGA,101144.30,5700.9092891,N,00959.1390884,E,2,11,0.9,10.502,M,40.582,M,1.7,0136*7F\r\n
$GPGGA,101144.35,5700.9092810,N,00959.1390510,E,2,11,0.9,10.505,M,40.582,M,1.7,0136*74\r\n
$GPGGA,101144.40,5700.9092724,N,00959.1390139,E,2,11,0.9,10.503,M,40.582,M,1.7,0136*77\r\n
$GPGGA,101144.45,5700.9092660,N,00959.1389756,E,2,11,0.9,10.508,M,40.582,M,1.9,0136*71\r\n
$GPGGA,101144.50,5700.9092605,N,00959.1389409,E,2,11,0.9,10.508,M,40.582,M,1.9,0136*7F\r\n
$GPGGA,101144.55,5700.9092561,N,00959.1389097,E,2,11,0.9,10.511,M,40.582,M,1.9,0136*70\r\n
$GPGGA,101144.60,5700.9092496,N,00959.1388788,E,2,11,0.9,10.513,M,40.582,M,1.9,0136*75\r\n
$GPGGA,101144.65,5700.9092421,N,00959.1388515,E,2,11,0.9,10.509,M,40.582,M,2.2,0136*79\r\n
$GPGGA,101144.70,5700.9092372,N,00959.1388252,E,2,11,0.9,10.512,M,40.582,M,2.2,0136*72\r\n
$GPGGA,101144.75,5700.9092342,N,00959.1387930,E,2,11,0.9,10.514,M,40.582,M,2.2,0136*72\r\n
$GPGGA,101144.80,5700.9092319,N,00959.1387555,E,2,11,0.9,10.518,M,40.582,M,2.2,0136*75\r\n
$GPGGA,101144.85,5700.9092299,N,00959.1387222,E,2,11,0.9,10.523,M,40.582,M,1.6,0136*71\r\n
$GPGGA,101144.90,5700.9092286,N,00959.1386904,E,2,11,0.9,10.524,M,40.582,M,1.6,0136*72\r\n
$GPGGA,101144.95,5700.9092263,N,00959.1386526,E,2,11,0.9,10.521,M,40.582,M,1.6,0136*75\r\n
$GPGGA,101145.00,5700.9092245,N,00959.1386148,E,2,11,0.9,10.520,M,40.582,M,1.6,0136*71\r\n
$GPGGA,101145.05,5700.9092240,N,00959.1385809,E,2,11,0.9,10.528,M,40.582,M,1.9,0136*79\r\n
$GPGGA,101145.10,5700.9092248,N,00959.1385445,E,2,11,0.9,10.522,M,40.582,M,1.9,0136*7B\r\n
$GPGGA,101145.15,5700.9092245,N,00959.1385107,E,2,11,0.9,10.521,M,40.582,M,1.9,0136*73\r\n
$GPGGA,101145.20,5700.9092238,N,00959.1384801,E,2,11,0.9,10.525,M,40.582,M,1.9,0136*75\r\n
$GPGGA,101145.25,5700.9092236,N,00959.1384490,E,2,11,0.9,10.524,M,40.582,M,2.1,0136*70\r\n
$GPGGA,101145.30,5700.9092263,N,00959.1384157,E,2,11,0.9,10.523,M,40.582,M,2.1,0136*7D\r\n
$GPGGA,101145.35,5700.9092280,N,00959.1383858,E,2,11,0.9,10.527,M,40.582,M,2.1,0136*70\r\n
$GPGGA,101145.40,5700.9092286,N,00959.1383572,E,2,11,0.9,10.531,M,40.582,M,2.1,0136*76\r\n
$GPGGA,101145.45,5700.9092293,N,00959.1383283,E,2,11,0.9,10.527,M,40.582,M,2.3,0136*7B\r\n
$GPGGA,101145.50,5700.9092330,N,00959.1382945,E,2,11,0.9,10.522,M,40.582,M,2.3,0136*72\r\n
$GPGGA,101145.55,5700.9092359,N,00959.1382592,E,2,11,0.9,10.521,M,40.582,M,2.3,0136*7D\r\n
$GPGGA,101145.60,5700.9092381,N,00959.1382227,E,2,11,0.9,10.516,M,40.582,M,2.3,0136*73\r\n
$GPGGA,101145.65,5700.9092402,N,00959.1381916,E,2,11,0.9,10.513,M,40.582,M,2.6,0136*70\r\n
$GPGGA,101145.70,5700.9092435,N,00959.1381635,E,2,11,0.9,10.513,M,40.582,M,2.6,0136*7E\r\n
$GPGGA,101145.75,5700.9092479,N,00959.1381333,E,2,11,0.9,10.513,M,40.582,M,2.6,0136*70\r\n
$GPGGA,101145.80,5700.9092531,N,00959.1381028,E,2,11,0.9,10.515,M,40.582,M,2.6,0136*78\r\n
$GPGGA,101145.85,5700.9092597,N,00959.1380764,E,2,11,0.9,10.514,M,40.582,M,2.8,0136*70\r\n
$GPGGA,101145.90,5700.9092669,N,00959.1380489,E,2,11,0.9,10.513,M,40.582,M,2.8,0136*71\r\n
$GPGGA,101145.95,5700.9092753,N,00959.1380198,E,2,11,0.9,10.512,M,40.582,M,2.8,0136*78\r\n
$GPGGA,101146.00,5700.9092853,N,00959.1379886,E,2,11,0.9,10.510,M,40.582,M,2.8,0136*7A\r\n
$GPGGA,101146.05,5700.9092938,N,00959.1379577,E,2,11,0.9,10.513,M,40.582,M,3.0,0136*7A\r\n
$GPGGA,101146.10,5700.9093023,N,00959.1379287,E,2,11,0.9,10.515,M,40.582,M,3.0,0136*72\r\n
$GPGGA,101146.15,5700.9093105,N,00959.1378952,E,2,11,0.9,10.505,M,40.582,M,3.0,0136*71\r\n
$GPGGA,101146.20,5700.9093196,N,00959.1378614,E,2,11,0.9,10.493,M,40.582,M,3.0,0136*7E\r\n
$GPGGA,101146.25,5700.9093289,N,00959.1378296,E,2,11,0.9,10.496,M,40.582,M,3.2,0136*7F\r\n
$GPGGA,101146.30,5700.9093372,N,00959.1378039,E,2,11,0.9,10.499,M,40.582,M,3.2,0136*76\r\n
$GPGGA,101146.35,5700.9093485,N,00959.1377827,E,2,11,0.9,10.504,M,40.582,M,3.2,0136*71\r\n
$GPGGA,101146.40,5700.9093620,N,00959.1377616,E,2,11,0.9,10.505,M,40.582,M,3.2,0136*73\r\n
$GPGGA,101146.45,5700.9093731,N,00959.1377384,E,2,11,0.9,10.515,M,40.582,M,3.4,0136*7E\r\n
$GPGGA,101146.50,5700.9093825,N,00959.1377121,E,2,11,0.9,10.519,M,40.582,M,3.4,0136*71\r\n
$GPGGA,101146.55,5700.9093927,N,00959.1376866,E,2,11,0.9,10.524,M,40.582,M,3.4,0136*72\r\n
$GPGGA,101146.60,5700.9094055,N,00959.1376569,E,2,11,0.9,10.520,M,40.582,M,3.4,0136*79\r\n
$GPGGA,101146.65,5700.9094169,N,00959.1376289,E,2,11,0.9,10.513,M,40.582,M,3.6,0136*79\r\n
$GPGGA,101146.70,5700.9094265,N,00959.1376029,E,2,11,0.9,10.510,M,40.582,M,3.6,0136*79\r\n
$GPGGA,101146.75,5700.9094346,N,00959.1375806,E,2,11,0.9,10.508,M,40.582,M,3.6,0136*73\r\n
$GPGGA,101146.80,5700.9094434,N,00959.1375599,E,2,11,0.9,10.509,M,40.582,M,3.6,0136*71\r\n
$GPGGA,101146.85,5700.9094531,N,00959.1375434,E,2,11,0.9,10.515,M,40.582,M,1.6,0136*79\r\n
$GPGGA,101146.90,5700.9094641,N,00959.1375251,E,2,11,0.9,10.522,M,40.582,M,1.6,0136*78\r\n
$GPGGA,101146.95,5700.9094763,N,00959.1375020,E,2,11,0.9,10.519,M,40.582,M,1.6,0136*70\r\n
$GPGGA,101147.00,5700.9094876,N,00959.1374815,E,2,11,0.9,10.518,M,40.582,M,1.6,0136*78\r\n
$GPGGA,101147.05,5700.9094971,N,00959.1374628,E,2,11,0.9,10.518,M,40.582,M,1.9,0136*74\r\n
$GPGGA,101147.10,5700.9095079,N,00959.1374416,E,2,11,0.9,10.521,M,40.582,M,1.9,0136*75\r\n
$GPGGA,101147.15,5700.9095187,N,00959.1374179,E,2,11,0.9,10.517,M,40.582,M,1.9,0136*79\r\n
$GPGGA,101147.20,5700.9095295,N,00959.1373948,E,2,11,0.9,10.512,M,40.582,M,1.9,0136*77\r\n
$GPGGA,101147.25,5700.9095415,N,00959.1373717,E,2,11,0.9,10.519,M,40.582,M,2.1,0136*78\r\n
$GPGGA,101147.30,5700.9095530,N,00959.1373486,E,2,11,0.9,10.512,M,40.582,M,2.1,0136*7A\r\n
$GPGGA,101147.35,5700.9095628,N,00959.1373317,E,2,11,0.9,10.515,M,40.582,M,2.1,0136*7D\r\n
$GPGGA,101147.40,5700.9095718,N,00959.1373176,E,2,11,0.9,10.524,M,40.582,M,2.1,0136*7A\r\n
$GPGGA,101147.45,5700.9095808,N,00959.1373010,E,2,11,0.9,10.526,M,40.582,M,2.4,0136*77\r\n
$GPGGA,101147.50,5700.9095896,N,00959.1372814,E,2,11,0.9,10.527,M,40.582,M,2.4,0136*78\r\n
$GPGGA,101147.55,5700.9095981,N,00959.1372644,E,2,11,0.9,10.526,M,40.582,M,2.4,0136*70\r\n
$GPGGA,101147.60,5700.9096067,N,00959.1372500,E,2,11,0.9,10.530,M,40.582,M,2.4,0136*70\r\n
$GPGGA,101147.65,5700.9096203,N,00959.1372318,E,2,11,0.9,10.522,M,40.582,M,2.7,0136*7A\r\n
$GPGGA,101147.70,5700.9096296,N,00959.1372121,E,2,11,0.9,10.520,M,40.582,M,2.7,0136*78\r\n
$GPGGA,101147.75,5700.9096403,N,00959.1371906,E,2,11,0.9,10.516,M,40.582,M,2.7,0136*7C\r\n
$GPGGA,101147.80,5700.9096516,N,00959.1371712,E,2,11,0.9,10.511,M,40.582,M,2.7,0136*7F\r\n
$GPGGA,101147.85,5700.9096631,N,00959.1371549,E,2,11,0.9,10.505,M,40.582,M,1.2,0136*73\r\n
$GPGGA,101147.90,5700.9096727,N,00959.1371420,E,2,11,0.9,10.508,M,40.582,M,1.2,0136*72\r\n
$GPGGA,101147.95,5700.9096812,N,00959.1371299,E,2,11,0.9,10.514,M,40.582,M,1.2,0136*77\r\n
$GPGGA,101148.00,5700.9096897,N,00959.1371180,E,2,11,0.9,10.520,M,40.582,M,1.2,0136*75\r\n
$GPGGA,101148.05,5700.9097017,N,00959.1371015,E,2,11,0.9,10.525,M,40.582,M,1.5,0136*7E\r\n
$GPGGA,101148.10,5700.9097128,N,00959.1370856,E,2,11,0.9,10.526,M,40.582,M,1.5,0136*7A\r\n
$GPGGA,101148.15,5700.9097220,N,00959.1370722,E,2,11,0.9,10.531,M,40.582,M,1.5,0136*7E\r\n
$GPGGA,101148.20,5700.9097327,N,00959.1370578,E,2,11,0.9,10.534,M,40.582,M,1.5,0136*76\r\n
$GPGGA,101148.25,5700.9097458,N,00959.1370408,E,2,11,0.9,10.530,M,40.582,M,1.7,0136*7C\r\n
$GPGGA,101148.30,5700.9097582,N,00959.1370218,E,2,11,0.9,10.523,M,40.582,M,1.7,0136*7B\r\n
$GPGGA,101148.35,5700.9097694,N,00959.1370047,E,2,11,0.9,10.519,M,40.582,M,1.7,0136*7B\r\n
$GPGGA,101148.40,5700.9097805,N,00959.1369875,E,2,11,0.9,10.516,M,40.582,M,1.7,0136*71\r\n
$GPGGA,101148.45,5700.9097897,N,00959.1369708,E,2,11,0.9,10.514,M,40.582,M,1.9,0136*76\r\n
$GPGGA,101148.50,5700.9097974,N,00959.1369588,E,2,11,0.9,10.514,M,40.582,M,1.9,0136*74\r\n
$GPGGA,101148.55,5700.9098043,N,00959.1369492,E,2,11,0.9,10.512,M,40.582,M,1.9,0136*7F\r\n
$GPGGA,101148.60,5700.9098123,N,00959.1369388,E,2,11,0.9,10.513,M,40.582,M,1.9,0136*73\r\n
$GPGGA,101148.65,5700.9098210,N,00959.1369260,E,2,11,0.9,10.520,M,40.582,M,2.2,0136*7A\r\n
$GPGGA,101148.70,5700.9098304,N,00959.1369103,E,2,11,0.9,10.523,M,40.582,M,2.2,0136*7F\r\n
$GPGGA,101148.75,5700.9098386,N,00959.1368946,E,2,11,0.9,10.525,M,40.582,M,2.2,0136*7E\r\n
$GPGGA,101148.80,5700.9098468,N,00959.1368791,E,2,11,0.9,10.522,M,40.582,M,2.2,0136*70\r\n
$GPGGA,101148.85,5700.9098572,N,00959.1368642,E,2,11,0.9,10.520,M,40.582,M,1.6,0136*75\r\n
$GPGGA,101148.90,5700.9098674,N,00959.1368495,E,2,11,0.9,10.519,M,40.582,M,1.6,0136*76\r\n
$GPGGA,101148.95,5700.9098763,N,00959.1368349,E,2,11,0.9,10.517,M,40.582,M,1.6,0136*7C\r\n
$GPGGA,101149.00,5700.9098828,N,00959.1368198,E,2,11,0.9,10.515,M,40.582,M,1.6,0136*7D\r\n
$GPGGA,101149.05,5700.9098864,N,00959.1368037,E,2,11,0.9,10.514,M,40.582,M,1.9,0136*7A\r\n
$GPGGA,101149.10,5700.9098891,N,00959.1367913,E,2,11,0.9,10.513,M,40.582,M,1.9,0136*73\r\n
$GPGGA,101149.15,5700.9098933,N,00959.1367790,E,2,11,0.9,10.512,M,40.582,M,1.9,0136*7B\r\n
$GPGGA,101149.20,5700.9098973,N,00959.1367664,E,2,11,0.9,10.513,M,40.582,M,1.9,0136*72\r\n
$GPGGA,101149.25,5700.9099019,N,00959.1367548,E,2,11,0.9,10.518,M,40.582,M,2.1,0136*7E\r\n
$GPGGA,101149.30,5700.9099061,N,00959.1367434,E,2,11,0.9,10.520,M,40.582,M,2.1,0136*74\r\n
$GPGGA,101149.35,5700.9099100,N,00959.1367301,E,2,11,0.9,10.519,M,40.582,M,2.1,0136*7C\r\n
$GPGGA,101149.40,5700.9099126,N,00959.1367174,E,2,11,0.9,10.517,M,40.582,M,2.1,0136*74\r\n
$GPGGA,101149.45,5700.9099146,N,00959.1367052,E,2,11,0.9,10.516,M,40.582,M,2.3,0136*71\r\n
$GPGGA,101149.50,5700.9099161,N,00959.1366926,E,2,11,0.9,10.516,M,40.582,M,2.3,0136*7B\r\n
$GPGGA,101149.55,5700.9099180,N,00959.1366804,E,2,11,0.9,10.513,M,40.582,M,2.3,0136*75\r\n
$GPGGA,101149.60,5700.9099169,N,00959.1366682,E,2,11,0.9,10.511,M,40.582,M,2.3,0136*76\r\n
$GPGGA,101149.65,5700.9099175,N,00959.1366578,E,2,11,0.9,10.512,M,40.582,M,2.6,0136*7E\r\n
$GPGGA,101149.70,5700.9099190,N,00959.1366479,E,2,11,0.9,10.511,M,40.582,M,2.6,0136*72\r\n
$GPGGA,101149.75,5700.9099191,N,00959.1366382,E,2,11,0.9,10.510,M,40.582,M,2.6,0136*74\r\n
$GPGGA,101149.80,5700.9099187,N,00959.1366294,E,2,11,0.9,10.511,M,40.582,M,2.6,0136*7E\r\n
$GPGGA,101149.85,5700.9099177,N,00959.1366198,E,2,11,0.9,10.508,M,40.582,M,2.8,0136*7D\r\n
$GPGGA,101149.90,5700.9099175,N,00959.1366108,E,2,11,0.9,10.508,M,40.582,M,2.8,0136*72\r\n
$GPGGA,101149.95,5700.9099167,N,00959.1366012,E,2,11,0.9,10.509,M,40.582,M,2.8,0136*7F\r\n
$GPGGA,101150.00,5700.9099152,N,00959.1365912,E,2,11,0.9,10.508,M,40.582,M,2.8,0136*76\r\n
$GPGGA,101150.05,5700.9099148,N,00959.1365835,E,2,11,0.9,10.517,M,40.582,M,3.0,0136*7B\r\n
$GPGGA,101150.10,5700.9099139,N,00959.1365747,E,2,11,0.9,10.518,M,40.582,M,3.0,0136*7C\r\n
$GPGGA,101150.15,5700.9099116,N,00959.1365672,E,2,11,0.9,10.517,M,40.582,M,3.0,0136*7C\r\n
$GPGGA,101150.20,5700.9099087,N,00959.1365607,E,2,11,0.9,10.518,M,40.582,M,3.0,0136*7E\r\n
$GPGGA,101150.25,5700.9099057,N,00959.1365546,E,2,11,0.9,10.514,M,40.582,M,3.2,0136*7E\r\n
$GPGGA,101150.30,5700.9099029,N,00959.1365484,E,2,11,0.9,10.513,M,40.582,M,3.2,0136*7B\r\n
$GPGGA,101150.35,5700.9099001,N,00959.1365437,E,2,11,0.9,10.515,M,40.582,M,3.2,0136*7A\r\n
$GPGGA,101150.40,5700.9098957,N,00959.1365393,E,2,11,0.9,10.516,M,40.582,M,3.2,0136*79\r\n
$GPGGA,101150.45,5700.9098913,N,00959.1365341,E,2,11,0.9,10.518,M,40.582,M,3.4,0136*7B\r\n
$GPGGA,101150.50,5700.9098871,N,00959.1365275,E,2,11,0.9,10.517,M,40.582,M,3.4,0136*73\r\n
$GPGGA,101150.55,5700.9098816,N,00959.1365224,E,2,11,0.9,10.517,M,40.582,M,3.4,0136*73\r\n
$GPGGA,101150.60,5700.9098754,N,00959.1365172,E,2,11,0.9,10.516,M,40.582,M,3.4,0136*7D\r\n
$GPGGA,101150.65,5700.9098688,N,00959.1365135,E,2,11,0.9,10.511,M,40.582,M,3.6,0136*7E\r\n
$GPGGA,101150.70,5700.9098626,N,00959.1365101,E,2,11,0.9,10.511,M,40.582,M,3.6,0136*79\r\n
$GPGGA,101150.75,5700.9098581,N,00959.1365059,E,2,11,0.9,10.512,M,40.582,M,3.6,0136*7D\r\n
$GPGGA,101150.80,5700.9098535,N,00959.1365035,E,2,11,0.9,10.512,M,40.582,M,3.6,0136*72\r\n
$GPGGA,101150.85,5700.9098481,N,00959.1365012,E,2,11,0.9,10.511,M,40.582,M,1.6,0136*7D\r\n
$GPGGA,101150.90,5700.9098434,N,00959.1364977,E,2,11,0.9,10.513,M,40.582,M,1.6,0136*7E\r\n
$GPGGA,101150.95,5700.9098416,N,00959.1364940,E,2,11,0.9,10.514,M,40.582,M,1.6,0136*78\r\n
$GPGGA,101151.00,5700.9098397,N,00959.1364897,E,2,11,0.9,10.515,M,40.582,M,1.6,0136*71\r\n
$GPGGA,101151.05,5700.9098375,N,00959.1364846,E,2,11,0.9,10.517,M,40.582,M,1.9,0136*79\r\n
$GPGGA,101151.10,5700.9098362,N,00959.1364798,E,2,11,0.9,10.514,M,40.582,M,1.9,0136*74\r\n
$GPGGA,101151.15,5700.9098343,N,00959.1364733,E,2,11,0.9,10.511,M,40.582,M,1.9,0136*76\r\n
$GPGGA,101151.20,5700.9098319,N,00959.1364677,E,2,11,0.9,10.506,M,40.582,M,1.9,0136*78\r\n
$GPGGA,101151.25,5700.9098298,N,00959.1364613,E,2,11,0.9,10.501,M,40.582,M,2.1,0136*7B\r\n
$GPGGA,101151.30,5700.9098280,N,00959.1364550,E,2,11,0.9,10.500,M,40.582,M,2.1,0136*73\r\n
$GPGGA,101151.35,5700.9098266,N,00959.1364481,E,2,11,0.9,10.501,M,40.582,M,2.1,0136*72\r\n
$GPGGA,101151.40,5700.9098259,N,00959.1364410,E,2,11,0.9,10.501,M,40.582,M,2.1,0136*74\r\n
$GPGGA,101151.45,5700.9098260,N,00959.1364342,E,2,11,0.9,10.501,M,40.582,M,2.4,0136*7E\r\n
$GPGGA,101151.50,5700.9098256,N,00959.1364275,E,2,11,0.9,10.499,M,40.582,M,2.4,0136*7A\r\n
$GPGGA,101151.55,5700.9098256,N,00959.1364203,E,2,11,0.9,10.498,M,40.582,M,2.4,0136*7F\r\n
$GPGGA,101151.60,5700.9098255,N,00959.1364121,E,2,11,0.9,10.496,M,40.582,M,2.4,0136*77\r\n
$GPGGA,101151.65,5700.9098253,N,00959.1364037,E,2,11,0.9,10.494,M,40.582,M,2.7,0136*73\r\n
$GPGGA,101151.70,5700.9098263,N,00959.1363946,E,2,11,0.9,10.491,M,40.582,M,2.7,0136*79\r\n
$GPGGA,101151.75,5700.9098274,N,00959.1363859,E,2,11,0.9,10.489,M,40.582,M,2.7,0136*7C\r\n
$GPGGA,101151.80,5700.9098296,N,00959.1363782,E,2,11,0.9,10.486,M,40.582,M,2.7,0136*7C\r\n
$GPGGA,101151.85,5700.9098342,N,00959.1363711,E,2,11,0.9,10.485,M,40.582,M,2.9,0136*76\r\n
$GPGGA,101151.90,5700.9098398,N,00959.1363643,E,2,11,0.9,10.483,M,40.582,M,2.9,0136*75\r\n
$GPGGA,101151.95,5700.9098444,N,00959.1363567,E,2,11,0.9,10.481,M,40.582,M,2.9,0136*71\r\n
$GPGGA,101152.00,5700.9098500,N,00959.1363502,E,2,11,0.9,10.481,M,40.582,M,2.9,0136*7C\r\n
$GPGGA,101152.05,5700.9098574,N,00959.1363438,E,2,11,0.9,10.488,M,40.582,M,1.5,0136*74\r\n
$GPGGA,101152.10,5700.9098652,N,00959.1363360,E,2,11,0.9,10.486,M,40.582,M,1.5,0136*73\r\n
$GPGGA,101152.15,5700.9098734,N,00959.1363301,E,2,11,0.9,10.485,M,40.582,M,1.5,0136*73\r\n
$GPGGA,101152.20,5700.9098837,N,00959.1363245,E,2,11,0.9,10.485,M,40.582,M,1.5,0136*78\r\n
$GPGGA,101152.25,5700.9098940,N,00959.1363186,E,2,11,0.9,10.482,M,40.582,M,1.7,0136*75\r\n
$GPGGA,101152.30,5700.9099043,N,00959.1363123,E,2,11,0.9,10.481,M,40.582,M,1.7,0136*76\r\n
$GPGGA,101152.35,5700.9099167,N,00959.1363062,E,2,11,0.9,10.483,M,40.582,M,1.7,0136*72\r\n
$GPGGA,101152.40,5700.9099316,N,00959.1362982,E,2,11,0.9,10.478,M,40.582,M,1.7,0136*76\r\n
$GPGGA,101152.45,5700.9099448,N,00959.1362919,E,2,11,0.9,10.473,M,40.582,M,1.9,0136*78\r\n
$GPGGA,101152.50,5700.9099551,N,00959.1362913,E,2,11,0.9,10.478,M,40.582,M,1.9,0136*74\r\n
$GPGGA,101152.55,5700.9099671,N,00959.1362921,E,2,11,0.9,10.486,M,40.582,M,1.9,0136*70\r\n
$GPGGA,101152.60,5700.9099811,N,00959.1362914,E,2,11,0.9,10.495,M,40.582,M,1.9,0136*7A\r\n
$GPGGA,101152.65,5700.9099971,N,00959.1362884,E,2,11,0.9,10.510,M,40.582,M,2.2,0136*74\r\n
$GPGGA,101152.70,5700.9100124,N,00959.1362816,E,2,11,0.9,10.509,M,40.582,M,2.2,0136*7A\r\n
$GPGGA,101152.75,5700.9100274,N,00959.1362784,E,2,11,0.9,10.509,M,40.582,M,2.2,0136*7D\r\n
$GPGGA,101152.80,5700.9100412,N,00959.1362767,E,2,11,0.9,10.510,M,40.582,M,2.2,0136*74\r\n
$GPGGA,101152.85,5700.9100515,N,00959.1362743,E,2,11,0.9,10.495,M,40.582,M,2.4,0136*7B\r\n
$GPGGA,101152.90,5700.9100656,N,00959.1362698,E,2,11,0.9,10.492,M,40.582,M,2.4,0136*7B\r\n
$GPGGA,101152.95,5700.9100810,N,00959.1362629,E,2,11,0.9,10.489,M,40.582,M,2.4,0136*72\r\n
$GPGGA,101153.00,5700.9100961,N,00959.1362592,E,2,11,0.9,10.489,M,40.582,M,2.4,0136*7B\r\n
$GPGGA,101153.05,5700.9101131,N,00959.1362611,E,2,11,0.9,10.507,M,40.582,M,1.9,0136*73\r\n
$GPGGA,101153.10,5700.9101283,N,00959.1362634,E,2,11,0.9,10.510,M,40.582,M,1.9,0136*7C\r\n
$GPGGA,101153.15,5700.9101418,N,00959.1362637,E,2,11,0.9,10.511,M,40.582,M,1.9,0136*7F\r\n
$GPGGA,101153.20,5700.9101548,N,00959.1362628,E,2,11,0.9,10.514,M,40.582,M,1.9,0136*76\r\n
$GPGGA,101153.25,5700.9101673,N,00959.1362633,E,2,11,0.9,10.511,M,40.582,M,2.1,0136*7C\r\n
$GPGGA,101153.30,5700.9101830,N,00959.1362668,E,2,11,0.9,10.512,M,40.582,M,2.1,0136*7C\r\n
$GPGGA,101153.35,5700.9101985,N,00959.1362687,E,2,11,0.9,10.512,M,40.582,M,2.1,0136*77\r\n
$GPGGA,101153.40,5700.9102126,N,00959.1362678,E,2,11,0.9,10.512,M,40.582,M,2.1,0136*77\r\n
$GPGGA,101153.45,5700.9102265,N,00959.1362650,E,2,11,0.9,10.512,M,40.582,M,2.3,0136*7E\r\n
$GPGGA,101153.50,5700.9102422,N,00959.1362615,E,2,11,0.9,10.510,M,40.582,M,2.3,0136*7C\r\n
$GPGGA,101153.55,5700.9102606,N,00959.1362622,E,2,11,0.9,10.509,M,40.582,M,2.3,0136*71\r\n
$GPGGA,101153.60,5700.9102789,N,00959.1362670,E,2,11,0.9,10.508,M,40.582,M,2.3,0136*77\r\n
$GPGGA,101153.65,5700.9102937,N,00959.1362702,E,2,11,0.9,10.506,M,40.582,M,2.6,0136*76\r\n
$GPGGA,101153.70,5700.9103080,N,00959.1362729,E,2,11,0.9,10.508,M,40.582,M,2.6,0136*71\r\n
$GPGGA,101153.75,5700.9103216,N,00959.1362771,E,2,11,0.9,10.514,M,40.582,M,2.6,0136*79\r\n
$GPGGA,101153.80,5700.9103351,N,00959.1362840,E,2,11,0.9,10.523,M,40.582,M,2.6,0136*78\r\n
$GPGGA,101153.85,5700.9103483,N,00959.1362923,E,2,11,0.9,10.527,M,40.582,M,2.8,0136*7B\r\n
$GPGGA,101153.90,5700.9103627,N,00959.1362979,E,2,11,0.9,10.525,M,40.582,M,2.8,0136*7E\r\n
$GPGGA,101153.95,5700.9103794,N,00959.1363024,E,2,11,0.9,10.529,M,40.582,M,2.8,0136*7E\r\n
$GPGGA,101154.00,5700.9103960,N,00959.1363063,E,2,11,0.9,10.529,M,40.582,M,2.8,0136*73\r\n
$GPGGA,101154.05,5700.9104113,N,00959.1363099,E,2,11,0.9,10.530,M,40.582,M,3.0,0136*79\r\n
$GPGGA,101154.10,5700.9104271,N,00959.1363133,E,2,11,0.9,10.527,M,40.582,M,3.0,0136*7D\r\n
$GPGGA,101154.15,5700.9104448,N,00959.1363173,E,2,11,0.9,10.524,M,40.582,M,3.0,0136*73\r\n
$GPGGA,101154.20,5700.9104614,N,00959.1363201,E,2,11,0.9,10.521,M,40.582,M,3.0,0136*7D\r\n
$GPGGA,101154.25,5700.9104750,N,00959.1363216,E,2,11,0.9,10.514,M,40.582,M,3.2,0136*7B\r\n
$GPGGA,101154.30,5700.9104878,N,00959.1363246,E,2,11,0.9,10.516,M,40.582,M,3.2,0136*7D\r\n
$GPGGA,101154.35,5700.9105010,N,00959.1363281,E,2,11,0.9,10.518,M,40.582,M,3.2,0136*7A\r\n
$GPGGA,101154.40,5700.9105148,N,00959.1363342,E,2,11,0.9,10.519,M,40.582,M,3.2,0136*7B\r\n
$GPGGA,101154.45,5700.9105301,N,00959.1363420,E,2,11,0.9,10.526,M,40.582,M,3.4,0136*78\r\n
$GPGGA,101154.50,5700.9105439,N,00959.1363485,E,2,11,0.9,10.530,M,40.582,M,3.4,0136*78\r\n
$GPGGA,101154.55,5700.9105584,N,00959.1363563,E,2,11,0.9,10.530,M,40.582,M,3.4,0136*73\r\n
$GPGGA,101154.60,5700.9105751,N,00959.1363635,E,2,11,0.9,10.528,M,40.582,M,3.4,0136*76\r\n
$GPGGA,101154.65,5700.9105940,N,00959.1363686,E,2,11,0.9,10.524,M,40.582,M,3.6,0136*7B\r\n
$GPGGA,101154.70,5700.9106098,N,00959.1363724,E,2,11,0.9,10.517,M,40.582,M,3.6,0136*79\r\n
$GPGGA,101154.75,5700.9106252,N,00959.1363769,E,2,11,0.9,10.513,M,40.582,M,3.6,0136*75\r\n
$GPGGA,101154.80,5700.9106412,N,00959.1363826,E,2,11,0.9,10.513,M,40.582,M,3.6,0136*79\r\n
$GPGGA,101154.85,5700.9106552,N,00959.1363882,E,2,11,0.9,10.512,M,40.582,M,3.8,0136*78\r\n
$GPGGA,101154.90,5700.9106693,N,00959.1363923,E,2,11,0.9,10.508,M,40.582,M,3.8,0136*73\r\n
$GPGGA,101154.95,5700.9106834,N,00959.1363975,E,2,11,0.9,10.506,M,40.582,M,3.8,0136*78\r\n
$GPGGA,101155.00,5700.9106971,N,00959.1364067,E,2,11,0.9,10.514,M,40.582,M,3.8,0136*7B\r\n
$GPGGA,101155.05,5700.9107115,N,00959.1364190,E,2,11,0.9,10.528,M,40.582,M,1.9,0136*70\r\n
$GPGGA,101155.10,5700.9107264,N,00959.1364295,E,2,11,0.9,10.533,M,40.582,M,1.9,0136*7D\r\n
$GPGGA,101155.15,5700.9107427,N,00959.1364386,E,2,10,0.9,10.529,M,40.582,M,1.9,0136*70\r\n
$GPGGA,101155.20,5700.9107596,N,00959.1364458,E,2,10,0.9,10.526,M,40.582,M,1.9,0136*76\r\n
$GPGGA,101155.25,5700.9107797,N,00959.1364490,E,2,10,0.9,10.527,M,40.582,M,2.1,0136*7E\r\n
$GPGGA,101155.30,5700.9107974,N,00959.1364552,E,2,10,0.9,10.525,M,40.582,M,2.1,0136*74\r\n
$GPGGA,101155.35,5700.9108170,N,00959.1364641,E,2,10,0.9,10.525,M,40.582,M,2.1,0136*73\r\n
$GPGGA,101155.40,5700.9108341,N,00959.1364721,E,2,10,0.9,10.522,M,40.582,M,2.1,0136*71\r\n
$GPGGA,101155.45,5700.9108487,N,00959.1364784,E,2,11,0.9,10.517,M,40.582,M,2.4,0136*74\r\n
$GPGGA,101155.50,5700.9108620,N,00959.1364855,E,2,11,0.9,10.515,M,40.582,M,2.4,0136*7E\r\n
$GPGGA,101155.55,5700.9108767,N,00959.1364934,E,2,11,0.9,10.514,M,40.582,M,2.4,0136*7E\r\n
$GPGGA,101155.60,5700.9108941,N,00959.1365016,E,2,11,0.9,10.516,M,40.582,M,2.4,0136*78\r\n
$GPGGA,101155.65,5700.9109106,N,00959.1365113,E,2,11,0.9,10.521,M,40.582,M,2.7,0136*74\r\n
$GPGGA,101155.70,5700.9109254,N,00959.1365202,E,2,11,0.9,10.526,M,40.582,M,2.7,0136*70\r\n
$GPGGA,101155.75,5700.9109397,N,00959.1365296,E,2,11,0.9,10.529,M,40.582,M,2.7,0136*79\r\n
$GPGGA,101155.80,5700.9109546,N,00959.1365408,E,2,11,0.9,10.521,M,40.582,M,2.7,0136*70\r\n
$GPGGA,101155.85,5700.9109707,N,00959.1365511,E,2,11,0.9,10.520,M,40.582,M,2.9,0136*74\r\n
$GPGGA,101155.90,5700.9109911,N,00959.1365586,E,2,11,0.9,10.520,M,40.582,M,2.9,0136*77\r\n
$GPGGA,101155.95,5700.9110090,N,00959.1365639,E,2,11,0.9,10.521,M,40.582,M,2.9,0136*7C\r\n
$GPGGA,101156.00,5700.9110254,N,00959.1365710,E,2,11,0.9,10.526,M,40.582,M,2.9,0136*74\r\n
$GPGGA,101156.05,5700.9110423,N,00959.1365845,E,2,11,0.9,10.529,M,40.582,M,1.5,0136*78\r\n
$GPGGA,101156.10,5700.9110598,N,00959.1365959,E,2,11,0.9,10.530,M,40.582,M,1.5,0136*79\r\n
$GPGGA,101156.15,5700.9110756,N,00959.1366043,E,2,11,0.9,10.528,M,40.582,M,1.5,0136*74\r\n
$GPGGA,101156.20,5700.9110894,N,00959.1366126,E,2,11,0.9,10.529,M,40.582,M,1.5,0136*70\r\n
$GPGGA,101156.25,5700.9111044,N,00959.1366244,E,2,11,0.9,10.536,M,40.582,M,1.7,0136*7A\r\n
$GPGGA,101156.30,5700.9111233,N,00959.1366396,E,2,11,0.9,10.536,M,40.582,M,1.7,0136*72\r\n
$GPGGA,101156.35,5700.9111439,N,00959.1366540,E,2,11,0.9,10.538,M,40.582,M,1.7,0136*78\r\n
$GPGGA,101156.40,5700.9111634,N,00959.1366629,E,2,11,0.9,10.533,M,40.582,M,1.7,0136*72\r\n
$GPGGA,101156.45,5700.9111844,N,00959.1366710,E,2,11,0.9,10.530,M,40.582,M,1.9,0136*78\r\n
$GPGGA,101156.50,5700.9112055,N,00959.1366836,E,2,11,0.9,10.525,M,40.582,M,1.9,0136*78\r\n
$GPGGA,101156.55,5700.9112239,N,00959.1366984,E,2,11,0.9,10.530,M,40.582,M,1.9,0136*79\r\n
$GPGGA,101156.60,5700.9112400,N,00959.1367130,E,2,11,0.9,10.533,M,40.582,M,1.9,0136*76\r\n
$GPGGA,101156.65,5700.9112551,N,00959.1367241,E,2,11,0.9,10.522,M,40.582,M,2.2,0136*7B\r\n
$GPGGA,101156.70,5700.9112721,N,00959.1367277,E,2,11,0.9,10.522,M,40.582,M,2.2,0136*7F\r\n
$GPGGA,101156.75,5700.9112899,N,00959.1367346,E,2,11,0.9,10.526,M,40.582,M,2.2,0136*71\r\n
$GPGGA,101156.80,5700.9113070,N,00959.1367479,E,2,11,0.9,10.528,M,40.582,M,2.2,0136*70\r\n
$GPGGA,101156.85,5700.9113220,N,00959.1367648,E,2,11,0.9,10.539,M,40.582,M,2.4,0136*74\r\n
$GPGGA,101156.90,5700.9113410,N,00959.1367806,E,2,11,0.9,10.538,M,40.582,M,2.4,0136*70\r\n
$GPGGA,101156.95,5700.9113633,N,00959.1367993,E,2,11,0.9,10.534,M,40.582,M,2.4,0136*77\r\n
$GPGGA,101157.00,5700.9113823,N,00959.1368133,E,2,11,0.9,10.537,M,40.582,M,2.4,0136*7B\r\n
$GPGGA,101157.05,5700.9113983,N,00959.1368267,E,2,11,0.9,10.539,M,40.582,M,1.9,0136*77\r\n
$GPGGA,101157.10,5700.9114169,N,00959.1368386,E,2,11,0.9,10.531,M,40.582,M,1.9,0136*7E\r\n
$GPGGA,101157.15,5700.9114369,N,00959.1368528,E,2,11,0.9,10.524,M,40.582,M,1.9,0136*7F\r\n
$GPGGA,101157.20,5700.9114547,N,00959.1368654,E,2,11,0.9,10.527,M,40.582,M,1.9,0136*78\r\n
$GPGGA,101157.25,5700.9114718,N,00959.1368761,E,2,11,0.9,10.531,M,40.582,M,2.1,0136*7E\r\n
$GPGGA,101157.30,5700.9114901,N,00959.1368860,E,2,11,0.9,10.530,M,40.582,M,2.1,0136*73\r\n
$GPGGA,101157.35,5700.9115052,N,00959.1368994,E,2,11,0.9,10.534,M,40.582,M,2.1,0136*76\r\n
$GPGGA,101157.40,5700.9115195,N,00959.1369160,E,2,11,0.9,10.542,M,40.582,M,2.1,0136*7D\r\n
$GPGGA,101157.45,5700.9115373,N,00959.1369306,E,2,11,0.9,10.555,M,40.582,M,2.3,0136*74\r\n
$GPGGA,101157.50,5700.9115589,N,00959.1369396,E,2,11,0.9,10.548,M,40.582,M,2.3,0136*76\r\n
$GPGGA,101157.55,5700.9115784,N,00959.1369559,E,2,11,0.9,10.551,M,40.582,M,2.3,0136*71\r\n
$GPGGA,101157.60,5700.9115968,N,00959.1369719,E,2,11,0.9,10.550,M,40.582,M,2.3,0136*7C\r\n
$GPGGA,101157.65,5700.9116138,N,00959.1369857,E,2,11,0.9,10.536,M,40.582,M,2.6,0136*77\r\n
$GPGGA,101157.70,5700.9116348,N,00959.1369960,E,2,11,0.9,10.528,M,40.582,M,2.6,0136*7C\r\n
$GPGGA,101157.75,5700.9116553,N,00959.1370113,E,2,11,0.9,10.529,M,40.582,M,2.6,0136*70\r\n
$GPGGA,101157.80,5700.9116748,N,00959.1370241,E,2,11,0.9,10.528,M,40.582,M,2.6,0136*77\r\n
$GPGGA,101157.85,5700.9116990,N,00959.1370336,E,2,11,0.9,10.525,M,40.582,M,2.8,0136*7B\r\n
$GPGGA,101157.90,5700.9117172,N,00959.1370439,E,2,10,0.9,10.522,M,40.582,M,2.8,0136*74\r\n
$GPGGA,101157.95,5700.9117362,N,00959.1370518,E,2,10,0.9,10.520,M,40.582,M,2.8,0136*72\r\n
$GPGGA,101158.00,5700.9117567,N,00959.1370591,E,2,10,0.9,10.525,M,40.582,M,2.8,0136*76\r\n
$GPGGA,101158.05,5700.9117746,N,00959.1370712,E,2,10,0.9,10.536,M,40.582,M,3.0,0136*70\r\n
$GPGGA,101158.10,5700.9117953,N,00959.1370790,E,2,10,0.9,10.535,M,40.582,M,3.0,0136*77\r\n
$GPGGA,101158.15,5700.9118149,N,00959.1370866,E,2,10,0.9,10.528,M,40.582,M,3.0,0136*74\r\n
$GPGGA,101158.20,5700.9118354,N,00959.1370908,E,2,10,0.9,10.519,M,40.582,M,3.0,0136*77\r\n
$GPGGA,101158.25,5700.9118592,N,00959.1370896,E,2,11,0.9,10.520,M,40.582,M,3.2,0136*71\r\n
$GPGGA,101158.30,5700.9118821,N,00959.1370885,E,2,11,0.9,10.522,M,40.582,M,3.2,0136*70\r\n
$GPGGA,101158.35,5700.9119016,N,00959.1370851,E,2,11,0.9,10.523,M,40.582,M,3.2,0136*70\r\n
$GPGGA,101158.40,5700.9119216,N,00959.1370813,E,2,11,0.9,10.517,M,40.582,M,3.2,0136*71\r\n
$GPGGA,101158.45,5700.9119422,N,00959.1370783,E,2,11,0.9,10.515,M,40.582,M,3.4,0136*77\r\n
$GPGGA,101158.50,5700.9119645,N,00959.1370771,E,2,11,0.9,10.517,M,40.582,M,3.4,0136*7F\r\n
$GPGGA,101158.55,5700.9119847,N,00959.1370785,E,2,11,0.9,10.520,M,40.582,M,3.4,0136*79\r\n
$GPGGA,101158.60,5700.9120054,N,00959.1370809,E,2,11,0.9,10.521,M,40.582,M,3.4,0136*75\r\n
$GPGGA,101158.65,5700.9120298,N,00959.1370791,E,2,11,0.9,10.531,M,40.582,M,3.6,0136*7F\r\n
$GPGGA,101158.70,5700.9120501,N,00959.1370742,E,2,11,0.9,10.523,M,40.582,M,3.6,0136*71\r\n
$GPGGA,101158.75,5700.9120735,N,00959.1370687,E,2,11,0.9,10.522,M,40.582,M,3.6,0136*78\r\n
$GPGGA,101158.80,5700.9120983,N,00959.1370649,E,2,11,0.9,10.528,M,40.582,M,3.6,0136*79\r\n
$GPGGA,101158.85,5700.9121167,N,00959.1370629,E,2,11,0.9,10.521,M,40.582,M,3.8,0136*7E\r\n
$GPGGA,101158.90,5700.9121346,N,00959.1370595,E,2,11,0.9,10.522,M,40.582,M,3.8,0136*7C\r\n
$GPGGA,101158.95,5700.9121556,N,00959.1370504,E,2,11,0.9,10.510,M,40.582,M,3.8,0136*77\r\n
$GPGGA,101159.00,5700.9121769,N,00959.1370485,E,2,10,0.9,10.513,M,40.582,M,3.8,0136*7E\r\n
$GPGGA,101159.05,5700.9122002,N,00959.1370555,E,2,10,0.9,10.536,M,40.582,M,1.9,0136*7A\r\n
$GPGGA,101159.10,5700.9122249,N,00959.1370571,E,2,10,0.9,10.535,M,40.582,M,1.9,0136*76\r\n
$GPGGA,101159.15,5700.9122476,N,00959.1370570,E,2,10,0.9,10.532,M,40.582,M,1.9,0136*7F\r\n
$GPGGA,101159.20,5700.9122674,N,00959.1370565,E,2,10,0.9,10.529,M,40.582,M,1.9,0136*77\r\n
$GPGGA,101159.25,5700.9122889,N,00959.1370574,E,2,10,0.9,10.517,M,40.582,M,2.1,0136*78\r\n
$GPGGA,101159.30,5700.9123110,N,00959.1370582,E,2,10,0.9,10.514,M,40.582,M,2.1,0136*7E\r\n
$GPGGA,101159.35,5700.9123329,N,00959.1370580,E,2,10,0.9,10.517,M,40.582,M,2.1,0136*72\r\n
$GPGGA,101159.40,5700.9123576,N,00959.1370575,E,2,10,0.9,10.517,M,40.582,M,2.1,0136*76\r\n
$GPGGA,101159.45,5700.9123804,N,00959.1370573,E,2,10,0.9,10.522,M,40.582,M,2.4,0136*7E\r\n
$GPGGA,101159.50,5700.9123994,N,00959.1370571,E,2,10,0.9,10.525,M,40.582,M,2.4,0136*77\r\n
$GPGGA,101159.55,5700.9124211,N,00959.1370569,E,2,10,0.9,10.529,M,40.582,M,2.4,0136*76\r\n
