$GPVTG,327.20,T,-312.70,M,000.072,N,000.134,K,D*0B
$GPGGA,114817.85,5703.2888965,N,00952.3638821,E,2,4,1.7,-2.247,M,40.592,M,2.5,0123*5D
$GPVTG,324.55,T,-315.35,M,000.062,N,000.115,K,D*0E
$GPGGA,114817.90,5703.2888962,N,00952.3638804,E,2,4,1.7,-2.242,M,40.592,M,2.5,0123*5C
$GPVTG,322.50,T,-317.40,M,000.060,N,000.110,K,D*0A
$GPGGA,114817.95,5703.2888972,N,00952.3638816,E,2,4,1.7,-2.238,M,40.592,M,2.5,0123*56
$GPVTG,323.42,T,-316.48,M,000.058,N,000.107,K,D*0C
$GPGGA,114818.00,5703.2888987,N,00952.3638833,E,2,4,1.7,-2.237,M,40.592,M,2.5,0123*57
$GPVTG,325.13,T,-314.77,M,000.056,N,000.104,K,D*0D
$GPGGA,114818.05,5703.2889204,N,00952.3638608,E,2,4,1.7,-2.244,M,40.592,M,2.7,0123*53
$GPVTG,343.70,T,-296.20,M,000.044,N,000.082,K,D*0D
$GPGGA,114818.10,5703.2889209,N,00952.3638604,E,2,4,1.7,-2.242,M,40.592,M,2.7,0123*50
$GPVTG,343.61,T,-296.29,M,000.042,N,000.077,K,D*08
$GPGGA,114818.15,5703.2889215,N,00952.3638601,E,2,4,1.7,-2.239,M,40.592,M,2.7,0123*51
$GPVTG,345.10,T,-294.80,M,000.040,N,000.074,K,D*08
$GPGGA,114818.20,5703.2889219,N,00952.3638597,E,2,4,1.7,-2.237,M,40.592,M,2.7,0123*59
$GPVTG,000.00,T,-639.90,M,000.037,N,000.069,K,D*05
$GPGGA,114818.25,5703.2889175,N,00952.3638682,E,2,4,1.7,-2.242,M,40.592,M,2.9,0123*5E
$GPVTG,000.00,T,-639.90,M,000.021,N,000.040,K,D*09
$GPGGA,114818.30,5703.2889177,N,00952.3638682,E,2,4,1.7,-2.240,M,40.592,M,2.9,0123*5A
$GPVTG,000.00,T,-639.90,M,000.019,N,000.035,K,D*00
$GPGGA,114818.35,5703.2889180,N,00952.3638686,E,2,4,1.7,-2.237,M,40.592,M,2.9,0123*53
$GPVTG,000.00,T,-639.90,M,000.020,N,000.038,K,D*07
$GPGGA,114818.40,5703.2889182,N,00952.3638688,E,2,4,1.7,-2.235,M,40.592,M,2.9,0123*5F
$GPVTG,000.00,T,-639.90,M,000.019,N,000.036,K,D*03
$GPGGA,114818.45,5703.2889165,N,00952.3638608,E,2,4,1.7,-2.242,M,40.592,M,3.1,0123*52
$GPVTG,000.00,T,-639.90,M,000.006,N,000.011,K,D*08
$GPGGA,114818.50,5703.2889167,N,00952.3638610,E,2,4,1.7,-2.239,M,40.592,M,3.1,0123*51
$GPVTG,000.00,T,-639.90,M,000.006,N,000.011,K,D*08
$GPGGA,114818.55,5703.2889165,N,00952.3638608,E,2,4,1.7,-2.237,M,40.592,M,3.1,0123*51
$GPVTG,000.00,T,-639.90,M,000.004,N,000.008,K,D*02
$GPGGA,114818.60,5703.2889163,N,00952.3638606,E,2,4,1.7,-2.235,M,40.592,M,3.1,0123*5D
$GPVTG,000.00,T,-639.90,M,000.007,N,000.013,K,D*0B
$GPGGA,114818.65,5703.2889056,N,00952.3638776,E,2,4,1.7,-2.242,M,40.592,M,3.3,0123*5B
$GPVTG,000.00,T,-639.90,M,000.015,N,000.028,K,D*00
$GPGGA,114818.70,5703.2889055,N,00952.3638783,E,2,4,1.7,-2.239,M,40.592,M,3.3,0123*5A
$GPVTG,000.00,T,-639.90,M,000.019,N,000.035,K,D*00
$GPGGA,114818.75,5703.2889050,N,00952.3638792,E,2,4,1.7,-2.237,M,40.592,M,3.3,0123*54
$GPVTG,000.00,T,-639.90,M,000.023,N,000.042,K,D*09
$GPGGA,114818.80,5703.2889038,N,00952.3638818,E,2,4,1.7,-2.234,M,40.592,M,3.3,0123*5E
$GPVTG,000.00,T,-639.90,M,000.028,N,000.052,K,D*03
$GPGGA,114818.85,5703.2889092,N,00952.3638828,E,2,4,1.7,-2.238,M,40.592,M,3.5,0123*52
$GPVTG,087.85,T,-552.05,M,000.047,N,000.087,K,D*02
$GPGGA,114818.90,5703.2889092,N,00952.3638838,E,2,4,1.7,-2.236,M,40.592,M,3.5,0123*59
$GPVTG,089.54,T,-550.36,M,000.049,N,000.091,K,D*0B
$GPGGA,114818.95,5703.2889093,N,00952.3638850,E,2,4,1.7,-2.234,M,40.592,M,3.5,0123*51
$GPVTG,089.72,T,-550.18,M,000.052,N,000.097,K,D*0F
$GPGGA,114819.00,5703.2889093,N,00952.3638863,E,2,4,1.7,-2.232,M,40.592,M,3.5,0123*5A
$GPVTG,090.44,T,-549.46,M,000.055,N,000.102,K,D*0B
$GPGGA,114819.05,5703.2889405,N,00952.3638292,E,2,4,1.7,-2.224,M,40.592,M,3.7,0123*55
$GPVTG,085.46,T,-554.44,M,000.051,N,000.095,K,D*08
$GPGGA,114819.10,5703.2889388,N,00952.3638281,E,2,4,1.7,-2.224,M,40.592,M,3.7,0123*51
$GPVTG,089.84,T,-550.06,M,000.052,N,000.097,K,D*09
$GPGGA,114819.15,5703.2889394,N,00952.3638274,E,2,4,1.7,-2.223,M,40.592,M,3.7,0123*54
$GPVTG,090.13,T,-549.77,M,000.054,N,000.100,K,D*08
$GPGGA,114819.20,5703.2889387,N,00952.3638298,E,2,4,1.7,-2.219,M,40.592,M,3.7,0123*5B
$GPVTG,092.12,T,-547.78,M,000.057,N,000.106,K,D*0F
$GPGGA,114819.25,5703.2889258,N,00952.3638543,E,2,4,1.7,-2.234,M,40.592,M,3.9,0123*5D
$GPVTG,098.62,T,-541.28,M,000.071,N,000.131,K,D*01
$GPGGA,114819.30,5703.2889265,N,00952.3638566,E,2,4,1.7,-2.235,M,40.592,M,3.9,0123*51
$GPVTG,097.68,T,-542.22,M,000.075,N,000.138,K,D*00
$GPGGA,114819.35,5703.2889267,N,00952.3638585,E,2,4,1.7,-2.235,M,40.592,M,3.9,0123*5B
$GPVTG,097.83,T,-542.07,M,000.078,N,000.145,K,D*05
$GPGGA,114819.40,5703.2889249,N,00952.3638587,E,2,4,1.7,-2.233,M,40.592,M,3.9,0123*51
$GPVTG,100.96,T,-538.94,M,000.081,N,000.149,K,D*03
$GPGGA,114819.45,5703.2889240,N,00952.3638614,E,2,4,1.7,-2.223,M,40.592,M,2.7,0123*5A
$GPVTG,105.37,T,-534.53,M,000.108,N,000.200,K,D*04
$GPGGA,114819.50,5703.2889236,N,00952.3638640,E,2,4,1.7,-2.221,M,40.592,M,2.7,0123*5C
$GPVTG,105.69,T,-534.21,M,000.113,N,000.209,K,D*09
$GPGGA,114819.55,5703.2889231,N,00952.3638665,E,2,4,1.7,-2.220,M,40.592,M,2.7,0123*58
$GPVTG,107.57,T,-532.33,M,000.116,N,000.214,K,D*0A
$GPGGA,114819.60,5703.2889226,N,00952.3638692,E,2,4,1.7,-2.218,M,40.592,M,2.7,0123*5B
$GPVTG,108.25,T,-531.65,M,000.119,N,000.220,K,D*08
$GPGGA,114819.65,5703.2889250,N,00952.3638550,E,2,4,1.7,-2.218,M,40.592,M,2.9,0123*5C
$GPVTG,107.32,T,-532.58,M,000.090,N,000.166,K,D*0D
$GPGGA,114819.70,5703.2889246,N,00952.3638571,E,2,4,1.7,-2.217,M,40.592,M,2.9,0123*53
$GPVTG,108.86,T,-531.04,M,000.092,N,000.170,K,D*02
$GPGGA,114819.75,5703.2889241,N,00952.3638594,E,2,4,1.7,-2.215,M,40.592,M,2.9,0123*58
$GPVTG,109.49,T,-530.41,M,000.095,N,000.175,K,D*02
$GPGGA,114819.80,5703.2889237,N,00952.3638617,E,2,4,1.7,-2.214,M,40.592,M,2.9,0123*5A
$GPVTG,109.81,T,-530.09,M,000.098,N,000.181,K,D*0C
$GPGGA,114819.85,5703.2889081,N,00952.3638844,E,2,4,1.7,-2.228,M,40.592,M,3.2,0123*5D
$GPVTG,115.87,T,-524.03,M,000.106,N,000.197,K,D*09
$GPGGA,114819.90,5703.2889081,N,00952.3638839,E,2,4,1.7,-2.230,M,40.592,M,3.2,0123*5A
$GPVTG,116.56,T,-523.34,M,000.107,N,000.198,K,D*0B
$GPGGA,114819.95,5703.2889090,N,00952.3638878,E,2,4,1.7,-2.228,M,40.592,M,3.2,0123*53
$GPVTG,115.89,T,-524.01,M,000.110,N,000.204,K,D*0B
$GPGGA,114820.00,5703.2889061,N,00952.3638885,E,2,4,1.7,-2.228,M,40.592,M,3.2,0123*59
$GPVTG,117.96,T,-521.94,M,000.113,N,000.210,K,D*08
$GPGGA,114820.05,5703.2889379,N,00952.3638402,E,2,4,1.7,-2.229,M,40.592,M,3.4,0123*52
$GPVTG,126.25,T,-513.65,M,000.053,N,000.098,K,D*0A
$GPGGA,114820.10,5703.2889377,N,00952.3638414,E,2,4,1.7,-2.228,M,40.592,M,3.4,0123*5E
$GPVTG,125.12,T,-514.78,M,000.051,N,000.095,K,D*09
$GPGGA,114820.15,5703.2889371,N,00952.3638422,E,2,4,1.7,-2.228,M,40.592,M,3.4,0123*58
$GPVTG,129.54,T,-510.36,M,000.050,N,000.093,K,D*0E
$GPGGA,114820.20,5703.2889365,N,00952.3638430,E,2,4,1.7,-2.227,M,40.592,M,3.4,0123*57
$GPVTG,134.38,T,-505.52,M,000.049,N,000.091,K,D*04
$GPGGA,114820.25,5703.2889321,N,00952.3638385,E,2,4,1.7,-2.233,M,40.592,M,3.6,0123*5C
$GPVTG,162.55,T,-477.35,M,000.044,N,000.082,K,D*06
$GPGGA,114820.30,5703.2889316,N,00952.3638389,E,2,4,1.7,-2.233,M,40.592,M,3.6,0123*50
$GPVTG,165.98,T,-473.92,M,000.044,N,000.081,K,D*0A
$GPGGA,114820.35,5703.2889311,N,00952.3638393,E,2,4,1.7,-2.234,M,40.592,M,3.6,0123*5E
$GPVTG,168.97,T,-470.93,M,000.044,N,000.081,K,D*0A
$GPGGA,114820.40,5703.2889305,N,00952.3638395,E,2,4,1.7,-2.234,M,40.592,M,3.6,0123*5F
$GPVTG,173.32,T,-466.58,M,000.044,N,000.081,K,D*0F
$GPGGA,114820.45,5703.2889427,N,00952.3638358,E,2,5,1.7,-2.229,M,40.592,M,2.2,0123*54
$GPVTG,000.00,T,-639.90,M,000.010,N,000.019,K,D*07
$GPGGA,114820.50,5703.2889426,N,00952.3638357,E,2,5,1.7,-2.230,M,40.592,M,2.2,0123*56
$GPVTG,000.00,T,-639.90,M,000.012,N,000.022,K,D*0D
$GPGGA,114820.55,5703.2889425,N,00952.3638354,E,2,4,1.7,-2.230,M,40.592,M,2.2,0123*52
$GPVTG,000.00,T,-639.90,M,000.014,N,000.027,K,D*0E
$GPGGA,114820.60,5703.2889424,N,00952.3638351,E,2,4,1.7,-2.230,M,40.592,M,2.2,0123*50
$GPVTG,000.00,T,-639.90,M,000.017,N,000.032,K,D*09
$GPGGA,114820.65,5703.2889323,N,00952.3638415,E,2,4,1.7,-2.232,M,40.592,M,2.4,0123*56
$GPVTG,000.00,T,-639.90,M,000.028,N,000.053,K,D*02
$GPGGA,114820.70,5703.2889321,N,00952.3638415,E,2,4,1.7,-2.233,M,40.592,M,2.4,0123*51
$GPVTG,000.00,T,-639.90,M,000.028,N,000.052,K,D*03
$GPGGA,114820.75,5703.2889317,N,00952.3638412,E,2,4,1.7,-2.233,M,40.592,M,2.4,0123*56
$GPVTG,000.00,T,-639.90,M,000.029,N,000.054,K,D*04
$GPGGA,114820.80,5703.2889315,N,00952.3638411,E,2,4,1.7,-2.234,M,40.592,M,2.4,0123*5A
$GPVTG,000.00,T,-639.90,M,000.029,N,000.054,K,D*04
$GPGGA,114820.85,5703.2889413,N,00952.3638383,E,2,4,1.7,-2.230,M,40.592,M,2.7,0123*55
$GPVTG,000.00,T,-639.90,M,000.017,N,000.032,K,D*09
$GPGGA,114820.90,5703.2889413,N,00952.3638378,E,2,4,1.7,-2.231,M,40.592,M,2.7,0123*54
$GPVTG,000.00,T,-639.90,M,000.020,N,000.037,K,D*08
$GPGGA,114820.95,5703.2889412,N,00952.3638374,E,2,4,1.7,-2.231,M,40.592,M,2.7,0123*5C
$GPVTG,000.00,T,-639.90,M,000.022,N,000.041,K,D*0B
$GPGGA,114821.00,5703.2889413,N,00952.3638370,E,2,4,1.7,-2.232,M,40.592,M,2.7,0123*57
$GPVTG,000.00,T,-639.90,M,000.023,N,000.043,K,D*08
$GPGGA,114821.05,5703.2889659,N,00952.3638038,E,2,4,1.7,-2.251,M,40.592,M,2.9,0123*5A
$GPVTG,000.00,T,-639.90,M,000.027,N,000.049,K,D*06
$GPGGA,114821.10,5703.2889657,N,00952.3638032,E,2,4,1.7,-2.252,M,40.592,M,2.9,0123*59
$GPVTG,000.00,T,-639.90,M,000.028,N,000.052,K,D*03
$GPGGA,114821.15,5703.2889654,N,00952.3638026,E,2,4,1.7,-2.253,M,40.592,M,2.9,0123*5B
$GPVTG,000.00,T,-639.90,M,000.030,N,000.056,K,D*0E
$GPGGA,114821.20,5703.2889650,N,00952.3638018,E,2,4,1.7,-2.254,M,40.592,M,2.9,0123*53
$GPVTG,000.00,T,-639.90,M,000.034,N,000.062,K,D*0D
$GPGGA,114821.25,5703.2889590,N,00952.3638134,E,2,4,1.7,-2.260,M,40.592,M,3.1,0123*58
$GPVTG,000.00,T,-639.90,M,000.033,N,000.061,K,D*09
$GPGGA,114821.30,5703.2889586,N,00952.3638133,E,2,4,1.7,-2.259,M,40.592,M,3.1,0123*56
$GPVTG,000.00,T,-639.90,M,000.034,N,000.064,K,D*0B
$GPGGA,114821.35,5703.2889587,N,00952.3638147,E,2,4,1.7,-2.257,M,40.592,M,3.1,0123*5F
$GPVTG,000.00,T,-639.90,M,000.035,N,000.064,K,D*0A
$GPGGA,114821.40,5703.2889592,N,00952.3638164,E,2,4,1.7,-2.256,M,40.592,M,3.1,0123*59
$GPVTG,000.00,T,-639.90,M,000.034,N,000.063,K,D*0C
$GPGGA,114821.45,5703.2889696,N,00952.3638057,E,2,4,1.7,-2.251,M,40.592,M,2.0,0123*5D
$GPVTG,000.00,T,-639.90,M,000.033,N,000.060,K,D*08
$GPGGA,114821.50,5703.2889690,N,00952.3638051,E,2,4,1.7,-2.252,M,40.592,M,2.0,0123*5A
$GPVTG,000.00,T,-639.90,M,000.034,N,000.063,K,D*0C
$GPGGA,114821.55,5703.2889685,N,00952.3638024,E,2,4,1.7,-2.253,M,40.592,M,2.0,0123*58
$GPVTG,000.00,T,-639.90,M,000.038,N,000.070,K,D*02
$GPGGA,114821.60,5703.2889687,N,00952.3638028,E,2,4,1.7,-2.253,M,40.592,M,2.0,0123*50
$GPVTG,000.00,T,-639.90,M,000.038,N,000.070,K,D*02
$GPGGA,114821.65,5703.2889601,N,00952.3638136,E,2,4,1.7,-2.250,M,40.592,M,2.2,0123*54
$GPVTG,182.20,T,-457.70,M,000.047,N,000.087,K,D*0F
$GPGGA,114821.70,5703.2889593,N,00952.3638133,E,2,4,1.7,-2.250,M,40.592,M,2.2,0123*5D
$GPVTG,183.98,T,-455.92,M,000.051,N,000.094,K,D*06
$GPGGA,114821.75,5703.2889586,N,00952.3638132,E,2,4,1.7,-2.250,M,40.592,M,2.2,0123*5D
$GPVTG,184.06,T,-455.84,M,000.053,N,000.098,K,D*0F
$GPGGA,114821.80,5703.2889579,N,00952.3638132,E,2,4,1.7,-2.250,M,40.592,M,2.2,0123*57
$GPVTG,182.42,T,-457.48,M,000.054,N,000.100,K,D*0C
$GPGGA,114821.85,5703.2889584,N,00952.3638085,E,2,4,1.7,-2.254,M,40.592,M,2.5,0123*5E
$GPVTG,189.39,T,-450.51,M,000.057,N,000.106,K,D*01
$GPGGA,114821.90,5703.2889577,N,00952.3638084,E,2,4,1.7,-2.254,M,40.592,M,2.5,0123*57
$GPVTG,188.31,T,-451.59,M,000.058,N,000.107,K,D*0F
$GPGGA,114821.95,5703.2889569,N,00952.3638082,E,2,4,1.7,-2.255,M,40.592,M,2.5,0123*5A
$GPVTG,187.94,T,-451.96,M,000.060,N,000.111,K,D*00
$GPGGA,114822.00,5703.2889561,N,00952.3638079,E,2,4,1.7,-2.255,M,40.592,M,2.5,0123*59
$GPVTG,188.16,T,-451.74,M,000.061,N,000.113,K,D*0A
$GPGGA,114822.05,5703.2890130,N,00952.3637467,E,2,4,1.7,-2.270,M,40.592,M,2.7,0123*55
$GPVTG,197.57,T,-442.33,M,000.055,N,000.101,K,D*04
$GPGGA,114822.10,5703.2890117,N,00952.3637465,E,2,4,1.7,-2.274,M,40.592,M,2.7,0123*52
$GPVTG,197.36,T,-442.54,M,000.057,N,000.105,K,D*04
$GPGGA,114822.15,5703.2890118,N,00952.3637470,E,2,4,1.7,-2.275,M,40.592,M,2.7,0123*5D
$GPVTG,197.20,T,-442.70,M,000.057,N,000.105,K,D*05
$GPGGA,114822.20,5703.2890121,N,00952.3637448,E,2,4,1.7,-2.276,M,40.592,M,2.7,0123*59
$GPVTG,198.83,T,-441.07,M,000.057,N,000.106,K,D*03
$GPGGA,114822.25,5703.2890116,N,00952.3637508,E,2,4,1.7,-2.282,M,40.592,M,2.9,0123*58
$GPVTG,197.80,T,-442.10,M,000.046,N,000.085,K,D*00
$GPGGA,114822.30,5703.2890130,N,00952.3637527,E,2,4,1.7,-2.283,M,40.592,M,2.9,0123*54
$GPVTG,196.52,T,-443.38,M,000.041,N,000.076,K,D*0E
$GPGGA,114822.35,5703.2890090,N,00952.3637489,E,2,4,1.7,-2.288,M,40.592,M,2.9,0123*54
$GPVTG,198.36,T,-441.54,M,000.049,N,000.091,K,D*0B
$GPGGA,114822.40,5703.2890077,N,00952.3637481,E,2,4,1.7,-2.293,M,40.592,M,2.9,0123*5D
$GPVTG,198.45,T,-441.45,M,000.051,N,000.094,K,D*03
$GPGGA,114822.45,5703.2890043,N,00952.3637519,E,2,4,1.7,-2.289,M,40.592,M,3.1,0123*5D
$GPVTG,172.28,T,-467.62,M,000.067,N,000.123,K,D*05
$GPGGA,114822.50,5703.2890035,N,00952.3637521,E,2,4,1.7,-2.291,M,40.592,M,3.1,0123*5A
$GPVTG,171.27,T,-468.63,M,000.067,N,000.123,K,D*07
$GPGGA,114822.55,5703.2890026,N,00952.3637524,E,2,4,1.7,-2.293,M,40.592,M,3.1,0123*5A
$GPVTG,170.29,T,-469.61,M,000.067,N,000.125,K,D*0D
$GPGGA,114822.60,5703.2890019,N,00952.3637528,E,2,4,1.7,-2.295,M,40.592,M,3.1,0123*5A
$GPVTG,168.24,T,-471.66,M,000.067,N,000.124,K,D*06
$GPGGA,114822.65,5703.2890228,N,00952.3637310,E,2,4,1.7,-2.276,M,40.592,M,3.3,0123*5D
$GPVTG,175.16,T,-464.74,M,000.057,N,000.105,K,D*0C
$GPGGA,114822.70,5703.2890216,N,00952.3637303,E,2,4,1.7,-2.278,M,40.592,M,3.3,0123*58
$GPVTG,175.32,T,-464.58,M,000.058,N,000.108,K,D*06
$GPGGA,114822.75,5703.2890245,N,00952.3637341,E,2,4,1.7,-2.284,M,40.592,M,3.3,0123*5E
$GPVTG,170.84,T,-469.06,M,000.053,N,000.098,K,D*0B
$GPGGA,114822.80,5703.2890229,N,00952.3637336,E,2,4,1.7,-2.285,M,40.592,M,3.3,0123*5F
$GPVTG,170.80,T,-469.10,M,000.055,N,000.101,K,D*0F
$GPGGA,114822.85,5703.2890101,N,00952.3637537,E,2,4,1.7,-2.284,M,40.592,M,3.5,0123*53
$GPVTG,161.42,T,-478.48,M,000.064,N,000.119,K,D*07
$GPGGA,114822.90,5703.2890089,N,00952.3637561,E,2,4,1.7,-2.283,M,40.592,M,3.5,0123*52
$GPVTG,158.52,T,-481.38,M,000.067,N,000.125,K,D*01
$GPGGA,114822.95,5703.2890070,N,00952.3637551,E,2,4,1.7,-2.284,M,40.592,M,3.5,0123*55
$GPVTG,159.73,T,-480.17,M,000.070,N,000.130,K,D*0D
$GPGGA,114823.00,5703.2890052,N,00952.3637545,E,2,4,1.7,-2.285,M,40.592,M,3.5,0123*5C
$GPVTG,160.46,T,-479.44,M,000.073,N,000.136,K,D*04
$GPGGA,114823.05,5703.2890425,N,00952.3637147,E,2,4,1.7,-2.310,M,40.592,M,3.7,0123*54
$GPVTG,155.39,T,-484.51,M,000.095,N,000.176,K,D*00
$GPGGA,114823.10,5703.2890414,N,00952.3637157,E,2,4,1.7,-2.311,M,40.592,M,3.7,0123*52
$GPVTG,154.45,T,-485.45,M,000.098,N,000.181,K,D*0B
$GPGGA,114823.15,5703.2890402,N,00952.3637169,E,2,4,1.7,-2.312,M,40.592,M,3.7,0123*5E
$GPVTG,153.17,T,-486.73,M,000.100,N,000.185,K,D*09
$GPGGA,114823.20,5703.2890388,N,00952.3637178,E,2,4,1.7,-2.314,M,40.592,M,3.7,0123*5B
$GPVTG,153.88,T,-486.02,M,000.104,N,000.192,K,D*0B
$GPGGA,114823.25,5703.2890324,N,00952.3637245,E,2,4,1.7,-2.305,M,40.592,M,3.9,0123*5B
$GPVTG,154.35,T,-485.55,M,000.112,N,000.207,K,D*03
$GPGGA,114823.30,5703.2890294,N,00952.3637259,E,2,4,1.7,-2.301,M,40.592,M,3.9,0123*5C
$GPVTG,154.53,T,-485.37,M,000.119,N,000.219,K,D*03
$GPGGA,114823.35,5703.2890299,N,00952.3637322,E,2,4,1.7,-2.298,M,40.592,M,3.9,0123*58
$GPVTG,151.31,T,-488.59,M,000.121,N,000.224,K,D*02
$GPGGA,114823.40,5703.2890272,N,00952.3637318,E,2,4,1.7,-2.299,M,40.592,M,3.9,0123*57
$GPVTG,151.93,T,-487.97,M,000.125,N,000.232,K,D*04
$GPGGA,114823.45,5703.2890269,N,00952.3637380,E,2,4,1.7,-2.302,M,40.592,M,2.7,0123*55
$GPVTG,147.47,T,-492.43,M,000.126,N,000.234,K,D*02
$GPGGA,114823.50,5703.2890239,N,00952.3637372,E,2,4,1.7,-2.302,M,40.592,M,2.7,0123*59
$GPVTG,149.54,T,-490.36,M,000.132,N,000.244,K,D*0C
$GPGGA,114823.55,5703.2890214,N,00952.3637381,E,2,4,1.7,-2.301,M,40.592,M,2.7,0123*5C
$GPVTG,150.04,T,-489.86,M,000.137,N,000.253,K,D*01
$GPGGA,114823.60,5703.2890183,N,00952.3637390,E,2,4,1.7,-2.299,M,40.592,M,2.7,0123*57
$GPVTG,150.69,T,-489.21,M,000.142,N,000.264,K,D*01
$GPGGA,114823.65,5703.2890158,N,00952.3637400,E,2,5,1.7,-2.300,M,40.592,M,2.9,0123*54
$GPVTG,155.52,T,-484.38,M,000.150,N,000.278,K,D*07
$GPGGA,114823.70,5703.2890140,N,00952.3637416,E,2,5,1.7,-2.300,M,40.592,M,2.9,0123*5E
$GPVTG,154.93,T,-484.97,M,000.151,N,000.280,K,D*08
$GPGGA,114823.75,5703.2890120,N,00952.3637432,E,2,5,1.7,-2.300,M,40.592,M,2.9,0123*5B
$GPVTG,155.08,T,-484.82,M,000.156,N,000.289,K,D*01
$GPGGA,114823.80,5703.2890102,N,00952.3637450,E,2,5,1.7,-2.299,M,40.592,M,2.9,0123*54
$GPVTG,154.13,T,-485.77,M,000.158,N,000.293,K,D*04
$GPGGA,114823.85,5703.2890352,N,00952.3637281,E,2,5,1.7,-2.289,M,40.592,M,3.2,0123*57
$GPVTG,155.05,T,-484.85,M,000.138,N,000.256,K,D*01
$GPGGA,114823.90,5703.2890306,N,00952.3637254,E,2,5,1.7,-2.292,M,40.592,M,3.2,0123*50
$GPVTG,157.74,T,-482.16,M,000.145,N,000.268,K,D*0E
$GPGGA,114823.95,5703.2890288,N,00952.3637303,E,2,5,1.7,-2.289,M,40.592,M,3.2,0123*5B
$GPVTG,156.50,T,-483.40,M,000.149,N,000.275,K,D*0B
$GPGGA,114824.00,5703.2890272,N,00952.3637327,E,2,5,1.7,-2.290,M,40.592,M,3.2,0123*5B
$GPVTG,156.05,T,-483.85,M,000.151,N,000.280,K,D*01
$GPGGA,114824.05,5703.2890531,N,00952.3637081,E,2,5,1.7,-2.330,M,40.592,M,3.4,0123*5C
$GPVTG,153.73,T,-486.17,M,000.171,N,000.316,K,D*07
$GPGGA,114824.10,5703.2890531,N,00952.3637118,E,2,5,1.7,-2.331,M,40.592,M,3.4,0123*58
$GPVTG,151.67,T,-488.23,M,000.170,N,000.314,K,D*0A
$GPGGA,114824.15,5703.2890553,N,00952.3637167,E,2,5,1.7,-2.328,M,40.592,M,3.4,0123*59
$GPVTG,148.36,T,-491.54,M,000.165,N,000.306,K,D*09
$GPGGA,114824.20,5703.2890513,N,00952.3637171,E,2,5,1.7,-2.332,M,40.592,M,3.4,0123*57
$GPVTG,149.56,T,-490.34,M,000.171,N,000.317,K,D*0C
$GPGGA,114824.25,5703.2890612,N,00952.3636978,E,2,5,1.7,-2.322,M,40.592,M,3.6,0123*53
$GPVTG,154.03,T,-485.87,M,000.154,N,000.285,K,D*01
$GPGGA,114824.30,5703.2890591,N,00952.3637004,E,2,5,1.7,-2.322,M,40.592,M,3.6,0123*5C
$GPVTG,153.43,T,-486.47,M,000.157,N,000.291,K,D*0B
$GPGGA,114824.35,5703.2890606,N,00952.3637063,E,2,5,1.7,-2.318,M,40.592,M,3.6,0123*5C
$GPVTG,148.88,T,-491.02,M,000.153,N,000.283,K,D*06
$GPGGA,114824.40,5703.2890588,N,00952.3637088,E,2,5,1.7,-2.316,M,40.592,M,3.6,0123*50
$GPVTG,148.38,T,-491.52,M,000.155,N,000.287,K,D*0A
$GPGGA,114824.45,5703.2890591,N,00952.3637119,E,2,5,1.7,-2.326,M,40.592,M,2.2,0123*52
$GPVTG,138.11,T,-501.79,M,000.119,N,000.221,K,D*03
$GPGGA,114824.50,5703.2890579,N,00952.3637140,E,2,5,1.7,-2.327,M,40.592,M,2.2,0123*5D
$GPVTG,136.88,T,-503.02,M,000.118,N,000.219,K,D*09
$GPGGA,114824.55,5703.2890568,N,00952.3637161,E,2,5,1.7,-2.327,M,40.592,M,2.2,0123*5B
$GPVTG,135.49,T,-504.41,M,000.118,N,000.218,K,D*06
$GPGGA,114824.60,5703.2890557,N,00952.3637182,E,2,5,1.7,-2.327,M,40.592,M,2.2,0123*5C
$GPVTG,134.24,T,-505.66,M,000.117,N,000.217,K,D*08
$GPGGA,114824.65,5703.2890616,N,00952.3637046,E,2,5,1.7,-2.320,M,40.592,M,2.4,0123*57
$GPVTG,137.35,T,-502.55,M,000.073,N,000.135,K,D*0C
$GPGGA,114824.70,5703.2890609,N,00952.3637058,E,2,5,1.7,-2.320,M,40.592,M,2.4,0123*52
$GPVTG,136.63,T,-503.27,M,000.070,N,000.131,K,D*0D
$GPGGA,114824.75,5703.2890601,N,00952.3637069,E,2,5,1.7,-2.320,M,40.592,M,2.4,0123*5D
$GPVTG,136.51,T,-503.39,M,000.068,N,000.126,K,D*0C
$GPGGA,114824.80,5703.2890593,N,00952.3637080,E,2,5,1.7,-2.320,M,40.592,M,2.4,0123*58
$GPVTG,136.37,T,-503.53,M,000.066,N,000.122,K,D*0A
$GPGGA,114824.85,5703.2890476,N,00952.3637156,E,2,5,1.7,-2.333,M,40.592,M,2.7,0123*5C
$GPVTG,136.13,T,-503.77,M,000.068,N,000.126,K,D*00
$GPGGA,114824.90,5703.2890490,N,00952.3637183,E,2,5,1.7,-2.335,M,40.592,M,2.7,0123*5E
$GPVTG,132.61,T,-507.29,M,000.064,N,000.119,K,D*0E
$GPGGA,114824.95,5703.2890485,N,00952.3637196,E,2,5,1.7,-2.338,M,40.592,M,2.7,0123*56
$GPVTG,131.13,T,-508.77,M,000.062,N,000.115,K,D*06
$GPGGA,114825.00,5703.2890501,N,00952.3637202,E,2,5,1.7,-2.341,M,40.592,M,2.7,0123*56
$GPVTG,127.97,T,-511.93,M,000.058,N,000.108,K,D*0A
$GPGGA,114825.05,5703.2890677,N,00952.3637046,E,2,5,1.7,-2.299,M,40.592,M,2.9,0123*59
$GPVTG,118.01,T,-521.89,M,000.049,N,000.090,K,D*01
$GPGGA,114825.10,5703.2890672,N,00952.3637064,E,2,5,1.7,-2.299,M,40.592,M,2.9,0123*58
$GPVTG,114.69,T,-525.21,M,000.047,N,000.087,K,D*0D
$GPGGA,114825.15,5703.2890665,N,00952.3637062,E,2,5,1.7,-2.298,M,40.592,M,2.9,0123*5C
$GPVTG,112.59,T,-527.31,M,000.044,N,000.082,K,D*0D
$GPGGA,114825.20,5703.2890662,N,00952.3637078,E,2,5,1.7,-2.297,M,40.592,M,2.9,0123*59
$GPVTG,108.79,T,-531.11,M,000.043,N,000.079,K,D*02
$GPGGA,114825.25,5703.2890536,N,00952.3637215,E,2,5,1.7,-2.297,M,40.592,M,3.1,0123*5E
$GPVTG,129.42,T,-510.48,M,000.049,N,000.091,K,D*0A
$GPGGA,114825.30,5703.2890527,N,00952.3637198,E,2,5,1.7,-2.298,M,40.592,M,3.1,0123*53
$GPVTG,133.72,T,-506.18,M,000.045,N,000.083,K,D*0F
$GPGGA,114825.35,5703.2890534,N,00952.3637216,E,2,5,1.7,-2.296,M,40.592,M,3.1,0123*5F
$GPVTG,128.26,T,-511.64,M,000.042,N,000.077,K,D*05
$GPGGA,114825.40,5703.2890545,N,00952.3637253,E,2,5,1.7,-2.293,M,40.592,M,3.1,0123*5F
$GPVTG,119.25,T,-520.65,M,000.041,N,000.076,K,D*05
$GPGGA,114825.45,5703.2890601,N,00952.3637144,E,2,5,1.7,-2.289,M,40.592,M,2.0,0123*57
$GPVTG,000.00,T,-639.90,M,000.014,N,000.027,K,D*0E
$GPGGA,114825.50,5703.2890601,N,00952.3637141,E,2,5,1.7,-2.288,M,40.592,M,2.0,0123*57
$GPVTG,000.00,T,-639.90,M,000.018,N,000.034,K,D*00
$GPGGA,114825.55,5703.2890604,N,00952.3637138,E,2,5,1.7,-2.286,M,40.592,M,2.0,0123*57
$GPVTG,000.00,T,-639.90,M,000.023,N,000.042,K,D*09
$GPGGA,114825.60,5703.2890604,N,00952.3637132,E,2,5,1.7,-2.285,M,40.592,M,2.0,0123*58
$GPVTG,000.00,T,-639.90,M,000.027,N,000.050,K,D*0E
$GPGGA,114825.65,5703.2890492,N,00952.3637331,E,2,5,1.7,-2.302,M,40.592,M,2.2,0123*5D
$GPVTG,000.00,T,-639.90,M,000.023,N,000.042,K,D*09
$GPGGA,114825.70,5703.2890487,N,00952.3637315,E,2,5,1.7,-2.301,M,40.592,M,2.2,0123*58
$GPVTG,000.00,T,-639.90,M,000.028,N,000.051,K,D*00
$GPGGA,114825.75,5703.2890493,N,00952.3637305,E,2,5,1.7,-2.302,M,40.592,M,2.2,0123*5A
$GPVTG,000.00,T,-639.90,M,000.033,N,000.060,K,D*08
$GPGGA,114825.80,5703.2890503,N,00952.3637301,E,2,5,1.7,-2.303,M,40.592,M,2.2,0123*5D
$GPVTG,000.00,T,-639.90,M,000.038,N,000.069,K,D*0A
$GPGGA,114825.85,5703.2890457,N,00952.3637361,E,2,5,1.7,-2.301,M,40.592,M,2.5,0123*5B
$GPVTG,000.00,T,-639.90,M,000.007,N,000.012,K,D*0A
$GPGGA,114825.90,5703.2890456,N,00952.3637360,E,2,5,1.7,-2.301,M,40.592,M,2.5,0123*5F
$GPVTG,000.00,T,-639.90,M,000.007,N,000.013,K,D*0B
$GPGGA,114825.95,5703.2890456,N,00952.3637358,E,2,5,1.7,-2.300,M,40.592,M,2.5,0123*50
$GPVTG,000.00,T,-639.90,M,000.007,N,000.013,K,D*0B
$GPGGA,114826.00,5703.2890456,N,00952.3637357,E,2,5,1.7,-2.299,M,40.592,M,2.5,0123*51
$GPVTG,000.00,T,-639.90,M,000.007,N,000.013,K,D*0B
$GPGGA,114826.05,5703.2890491,N,00952.3637493,E,2,5,1.7,-2.258,M,40.592,M,2.7,0123*5F
$GPVTG,000.00,T,-639.90,M,000.013,N,000.024,K,D*0A
$GPGGA,114826.10,5703.2890492,N,00952.3637494,E,2,5,1.7,-2.257,M,40.592,M,2.7,0123*50
$GPVTG,000.00,T,-639.90,M,000.013,N,000.025,K,D*0B
$GPGGA,114826.15,5703.2890495,N,00952.3637497,E,2,5,1.7,-2.256,M,40.592,M,2.7,0123*50
$GPVTG,000.00,T,-639.90,M,000.016,N,000.030,K,D*0A
$GPGGA,114826.20,5703.2890496,N,00952.3637498,E,2,5,1.7,-2.255,M,40.592,M,2.7,0123*59
$GPVTG,000.00,T,-639.90,M,000.017,N,000.031,K,D*0A
$GPGGA,114826.25,5703.2890440,N,00952.3637567,E,2,5,1.7,-2.267,M,40.592,M,2.9,0123*59
$GPVTG,000.00,T,-639.90,M,000.019,N,000.034,K,D*01
$GPGGA,114826.30,5703.2890442,N,00952.3637573,E,2,5,1.7,-2.266,M,40.592,M,2.9,0123*5B
$GPVTG,000.00,T,-639.90,M,000.021,N,000.039,K,D*07
$GPGGA,114826.35,5703.2890443,N,00952.3637578,E,2,5,1.7,-2.266,M,40.592,M,2.9,0123*54
$GPVTG,000.00,T,-639.90,M,000.022,N,000.040,K,D*0A
$GPGGA,114826.40,5703.2890443,N,00952.3637581,E,2,5,1.7,-2.266,M,40.592,M,2.9,0123*50
$GPVTG,000.00,T,-639.90,M,000.021,N,000.038,K,D*06
$GPGGA,114826.45,5703.2890509,N,00952.3637500,E,2,5,1.7,-2.271,M,40.592,M,1.1,0123*5E
$GPVTG,000.00,T,-639.90,M,000.025,N,000.046,K,D*0B
$GPGGA,114826.50,5703.2890512,N,00952.3637501,E,2,5,1.7,-2.271,M,40.592,M,1.1,0123*51
$GPVTG,000.00,T,-639.90,M,000.026,N,000.049,K,D*07
$GPGGA,114826.55,5703.2890516,N,00952.3637502,E,2,5,1.7,-2.272,M,40.592,M,1.1,0123*50
$GPVTG,000.00,T,-639.90,M,000.029,N,000.053,K,D*03
$GPGGA,114826.60,5703.2890519,N,00952.3637502,E,2,5,1.7,-2.272,M,40.592,M,1.1,0123*59
$GPVTG,000.00,T,-639.90,M,000.030,N,000.056,K,D*0E
$GPGGA,114826.65,5703.2890474,N,00952.3637476,E,2,5,1.7,-2.264,M,40.592,M,1.5,0123*57
$GPVTG,000.00,T,-639.90,M,000.021,N,000.038,K,D*06
$GPGGA,114826.70,5703.2890476,N,00952.3637473,E,2,5,1.7,-2.264,M,40.592,M,1.5,0123*54
$GPVTG,000.00,T,-639.90,M,000.022,N,000.041,K,D*0B
$GPGGA,114826.75,5703.2890479,N,00952.3637472,E,2,5,1.7,-2.264,M,40.592,M,1.5,0123*5F
$GPVTG,000.00,T,-639.90,M,000.024,N,000.044,K,D*08
$GPGGA,114826.80,5703.2890482,N,00952.3637469,E,2,5,1.7,-2.264,M,40.592,M,1.5,0123*5B
$GPVTG,000.00,T,-639.90,M,000.025,N,000.047,K,D*0A
$GPGGA,114826.85,5703.2890448,N,00952.3637445,E,2,5,1.7,-2.265,M,40.592,M,1.8,0123*5A
$GPVTG,000.00,T,-639.90,M,000.020,N,000.037,K,D*08
$GPGGA,114826.90,5703.2890450,N,00952.3637440,E,2,5,1.7,-2.265,M,40.592,M,1.8,0123*52
$GPVTG,000.00,T,-639.90,M,000.021,N,000.040,K,D*09
$GPGGA,114826.95,5703.2890452,N,00952.3637435,E,2,5,1.7,-2.265,M,40.592,M,1.8,0123*57
$GPVTG,000.00,T,-639.90,M,000.023,N,000.043,K,D*08
$GPGGA,114827.00,5703.2890453,N,00952.3637429,E,2,5,1.7,-2.265,M,40.592,M,1.8,0123*56
$GPVTG,000.00,T,-639.90,M,000.025,N,000.047,K,D*0A
$GPGGA,114827.05,5703.2890503,N,00952.3637359,E,2,5,1.7,-2.219,M,40.592,M,2.1,0123*56
$GPVTG,000.00,T,-639.90,M,000.033,N,000.061,K,D*09
$GPGGA,114827.10,5703.2890524,N,00952.3637377,E,2,5,1.7,-2.222,M,40.592,M,2.1,0123*53
$GPVTG,000.00,T,-639.90,M,000.034,N,000.064,K,D*0B
$GPGGA,114827.15,5703.2890537,N,00952.3637372,E,2,5,1.7,-2.226,M,40.592,M,2.1,0123*55
$GPVTG,000.00,T,-639.90,M,000.037,N,000.068,K,D*04
$GPGGA,114827.20,5703.2890557,N,00952.3637355,E,2,5,1.7,-2.228,M,40.592,M,2.1,0123*5E
$GPVTG,294.05,T,-345.85,M,000.040,N,000.075,K,D*08
$GPGGA,114827.25,5703.2890473,N,00952.3637441,E,2,5,1.7,-2.219,M,40.592,M,2.4,0123*59
$GPVTG,000.00,T,-639.90,M,000.021,N,000.040,K,D*09
$GPGGA,114827.30,5703.2890473,N,00952.3637435,E,2,5,1.7,-2.220,M,40.592,M,2.4,0123*54
$GPVTG,000.00,T,-639.90,M,000.023,N,000.043,K,D*08
$GPGGA,114827.35,5703.2890472,N,00952.3637431,E,2,5,1.7,-2.221,M,40.592,M,2.4,0123*55
$GPVTG,000.00,T,-639.90,M,000.023,N,000.042,K,D*09
$GPGGA,114827.40,5703.2890471,N,00952.3637425,E,2,5,1.7,-2.221,M,40.592,M,2.4,0123*51
$GPVTG,000.00,T,-639.90,M,000.024,N,000.044,K,D*08
$GPGGA,114827.45,5703.2890455,N,00952.3637467,E,2,5,1.7,-2.224,M,40.592,M,0.8,0123*5F
$GPVTG,000.00,T,-639.90,M,000.021,N,000.038,K,D*06
$GPGGA,114827.50,5703.2890452,N,00952.3637466,E,2,5,1.7,-2.225,M,40.592,M,0.8,0123*5C
$GPVTG,000.00,T,-639.90,M,000.022,N,000.041,K,D*0B
$GPGGA,114827.55,5703.2890448,N,00952.3637463,E,2,5,1.7,-2.226,M,40.592,M,0.8,0123*54
$GPVTG,000.00,T,-639.90,M,000.025,N,000.046,K,D*0B
$GPGGA,114827.60,5703.2890446,N,00952.3637463,E,2,5,1.7,-2.227,M,40.592,M,0.8,0123*5D
$GPVTG,000.00,T,-639.90,M,000.025,N,000.045,K,D*08
$GPGGA,114827.65,5703.2890549,N,00952.3637362,E,2,5,1.7,-2.222,M,40.592,M,1.1,0123*5D
$GPVTG,000.00,T,-639.90,M,000.023,N,000.043,K,D*08
$GPGGA,114827.70,5703.2890549,N,00952.3637356,E,2,5,1.7,-2.223,M,40.592,M,1.1,0123*5F
$GPVTG,000.00,T,-639.90,M,000.024,N,000.045,K,D*09
$GPGGA,114827.75,5703.2890551,N,00952.3637351,E,2,5,1.7,-2.224,M,40.592,M,1.1,0123*53
$GPVTG,000.00,T,-639.90,M,000.025,N,000.046,K,D*0B
$GPGGA,114827.80,5703.2890553,N,00952.3637346,E,2,5,1.7,-2.225,M,40.592,M,1.1,0123*5C
$GPVTG,000.00,T,-639.90,M,000.026,N,000.048,K,D*06
$GPGGA,114827.85,5703.2890561,N,00952.3637321,E,2,5,1.7,-2.225,M,40.592,M,1.4,0123*5C
$GPVTG,000.00,T,-639.90,M,000.034,N,000.062,K,D*0D
$GPGGA,114827.90,5703.2890563,N,00952.3637314,E,2,5,1.7,-2.226,M,40.592,M,1.4,0123*5F
$GPVTG,000.00,T,-639.90,M,000.035,N,000.064,K,D*0A
$GPGGA,114827.95,5703.2890565,N,00952.3637305,E,2,5,1.7,-2.227,M,40.592,M,1.4,0123*5D
$GPVTG,000.00,T,-639.90,M,000.037,N,000.068,K,D*04
$GPGGA,114828.00,5703.2890569,N,00952.3637298,E,2,5,1.7,-2.228,M,40.592,M,1.4,0123*58
$GPVTG,000.00,T,-639.90,M,000.038,N,000.071,K,D*03
$GPGGA,114828.05,5703.2890618,N,00952.3637348,E,2,5,1.7,-2.190,M,40.592,M,1.7,0123*57
$GPVTG,309.75,T,-330.15,M,000.051,N,000.094,K,D*0E
$GPGGA,114828.10,5703.2890623,N,00952.3637339,E,2,5,1.7,-2.191,M,40.592,M,1.7,0123*5C
$GPVTG,311.23,T,-328.67,M,000.053,N,000.098,K,D*06
$GPGGA,114828.15,5703.2890629,N,00952.3637331,E,2,5,1.7,-2.192,M,40.592,M,1.7,0123*58
$GPVTG,313.32,T,-326.58,M,000.056,N,000.103,K,D*00
$GPGGA,114828.20,5703.2890634,N,00952.3637319,E,2,5,1.7,-2.193,M,40.592,M,1.7,0123*59
$GPVTG,312.95,T,-326.95,M,000.058,N,000.108,K,D*08
$GPGGA,114828.25,5703.2890673,N,00952.3637301,E,2,5,1.7,-2.188,M,40.592,M,1.9,0123*52
$GPVTG,319.76,T,-320.14,M,000.069,N,000.129,K,D*00
$GPGGA,114828.30,5703.2890680,N,00952.3637290,E,2,5,1.7,-2.189,M,40.592,M,1.9,0123*52
$GPVTG,319.82,T,-320.08,M,000.072,N,000.133,K,D*07
$GPGGA,114828.35,5703.2890688,N,00952.3637278,E,2,5,1.7,-2.190,M,40.592,M,1.9,0123*51
$GPVTG,320.66,T,-319.24,M,000.075,N,000.139,K,D*0E
$GPGGA,114828.40,5703.2890696,N,00952.3637268,E,2,5,1.7,-2.191,M,40.592,M,1.9,0123*5C
$GPVTG,321.88,T,-318.02,M,000.078,N,000.144,K,D*0D
$GPGGA,114828.45,5703.2890646,N,00952.3637361,E,2,5,1.7,-2.191,M,40.592,M,0.8,0123*5C
$GPVTG,327.40,T,-312.50,M,000.054,N,000.101,K,D*0D
$GPGGA,114828.50,5703.2890652,N,00952.3637353,E,2,5,1.7,-2.191,M,40.592,M,0.8,0123*5C
$GPVTG,327.68,T,-312.22,M,000.055,N,000.102,K,D*00
$GPGGA,114828.55,5703.2890659,N,00952.3637347,E,2,5,1.7,-2.192,M,40.592,M,0.8,0123*54
$GPVTG,329.96,T,-309.94,M,000.056,N,000.105,K,D*0C
$GPGGA,114828.60,5703.2890665,N,00952.3637340,E,2,5,1.7,-2.193,M,40.592,M,0.8,0123*5B
$GPVTG,330.82,T,-309.08,M,000.056,N,000.105,K,D*04
$GPGGA,114828.65,5703.2890656,N,00952.3637408,E,2,5,1.7,-2.201,M,40.592,M,1.0,0123*54
$GPVTG,333.39,T,-306.51,M,000.056,N,000.104,K,D*05
$GPGGA,114828.70,5703.2890663,N,00952.3637381,E,2,5,1.7,-2.207,M,40.592,M,1.0,0123*56
$GPVTG,333.15,T,-306.75,M,000.058,N,000.107,K,D*00
$GPGGA,114828.75,5703.2890677,N,00952.3637374,E,2,5,1.7,-2.208,M,40.592,M,1.0,0123*53
$GPVTG,334.37,T,-305.53,M,000.060,N,000.111,K,D*0C
$GPGGA,114828.80,5703.2890683,N,00952.3637384,E,2,5,1.7,-2.209,M,40.592,M,1.0,0123*5C
$GPVTG,336.18,T,-303.72,M,000.060,N,000.112,K,D*05
$GPGGA,114828.85,5703.2890654,N,00952.3637392,E,2,5,1.7,-2.192,M,40.592,M,1.3,0123*56
$GPVTG,333.84,T,-306.06,M,000.045,N,000.083,K,D*0D
$GPGGA,114828.90,5703.2890660,N,00952.3637386,E,2,5,1.7,-2.192,M,40.592,M,1.3,0123*50
$GPVTG,334.75,T,-305.15,M,000.046,N,000.084,K,D*01
$GPGGA,114828.95,5703.2890666,N,00952.3637382,E,2,5,1.7,-2.192,M,40.592,M,1.3,0123*57
$GPVTG,337.00,T,-302.90,M,000.046,N,000.085,K,D*0B
$GPGGA,114829.00,5703.2890671,N,00952.3637378,E,2,5,1.7,-2.191,M,40.592,M,1.3,0123*5A
$GPVTG,337.61,T,-302.29,M,000.045,N,000.084,K,D*0C
$GPGGA,114829.05,5703.2890602,N,00952.3637509,E,2,5,1.7,-2.164,M,40.592,M,1.5,0123*57
$GPVTG,336.87,T,-303.03,M,000.041,N,000.076,K,D*05
$GPGGA,114829.10,5703.2890621,N,00952.3637519,E,2,5,1.7,-2.161,M,40.592,M,1.5,0123*56
$GPVTG,340.18,T,-299.72,M,000.042,N,000.078,K,D*0B
$GPGGA,114829.15,5703.2890622,N,00952.3637524,E,2,5,1.7,-2.162,M,40.592,M,1.5,0123*5D
$GPVTG,341.92,T,-297.98,M,000.041,N,000.076,K,D*0F
$GPGGA,114829.20,5703.2890635,N,00952.3637507,E,2,5,1.7,-2.165,M,40.592,M,1.5,0123*5B
$GPVTG,342.27,T,-297.63,M,000.042,N,000.078,K,D*0B
$GPGGA,114829.25,5703.2890626,N,00952.3637517,E,2,5,1.7,-2.159,M,40.592,M,1.8,0123*5F
$GPVTG,000.00,T,-639.90,M,000.037,N,000.068,K,D*04
$GPGGA,114829.30,5703.2890630,N,00952.3637515,E,2,5,1.7,-2.158,M,40.592,M,1.8,0123*5F
$GPVTG,000.00,T,-639.90,M,000.035,N,000.066,K,D*08
$GPGGA,114829.35,5703.2890635,N,00952.3637512,E,2,5,1.7,-2.157,M,40.592,M,1.8,0123*57
$GPVTG,000.00,T,-639.90,M,000.035,N,000.064,K,D*0A
$GPGGA,114829.40,5703.2890637,N,00952.3637507,E,2,5,1.7,-2.156,M,40.592,M,1.8,0123*52
$GPVTG,000.00,T,-639.90,M,000.031,N,000.057,K,D*0E
$GPGGA,114829.45,5703.2890513,N,00952.3637576,E,2,5,1.7,-2.170,M,40.592,M,2.0,0123*5B
$GPVTG,000.00,T,-639.90,M,000.007,N,000.013,K,D*0B
$GPGGA,114829.50,5703.2890513,N,00952.3637577,E,2,5,1.7,-2.169,M,40.592,M,2.0,0123*56
$GPVTG,000.00,T,-639.90,M,000.009,N,000.016,K,D*00
$GPGGA,114829.55,5703.2890512,N,00952.3637578,E,2,5,1.7,-2.169,M,40.592,M,2.0,0123*5D
$GPVTG,000.00,T,-639.90,M,000.012,N,000.021,K,D*0E
$GPGGA,114829.60,5703.2890511,N,00952.3637581,E,2,5,1.7,-2.168,M,40.592,M,2.0,0123*5F
$GPVTG,000.00,T,-639.90,M,000.015,N,000.029,K,D*01
$GPGGA,114829.65,5703.2890682,N,00952.3637350,E,2,5,1.7,-2.140,M,40.592,M,2.2,0123*51
$GPVTG,000.00,T,-639.90,M,000.015,N,000.028,K,D*00
$GPGGA,114829.70,5703.2890689,N,00952.3637311,E,2,5,1.7,-2.135,M,40.592,M,2.2,0123*59
$GPVTG,000.00,T,-639.90,M,000.015,N,000.028,K,D*00
$GPGGA,114829.75,5703.2890677,N,00952.3637309,E,2,5,1.7,-2.131,M,40.592,M,2.2,0123*50
$GPVTG,000.00,T,-639.90,M,000.019,N,000.035,K,D*00
$GPGGA,114829.80,5703.2890677,N,00952.3637344,E,2,5,1.7,-2.128,M,40.592,M,2.2,0123*5B
$GPVTG,000.00,T,-639.90,M,000.023,N,000.042,K,D*09
$GPGGA,114829.85,5703.2890696,N,00952.3637288,E,2,5,1.7,-2.139,M,40.592,M,2.5,0123*57
$GPVTG,000.00,T,-639.90,M,000.020,N,000.037,K,D*08
$GPGGA,114829.90,5703.2890695,N,00952.3637286,E,2,5,1.7,-2.138,M,40.592,M,2.5,0123*5F
$GPVTG,000.00,T,-639.90,M,000.020,N,000.037,K,D*08
$GPGGA,114829.95,5703.2890692,N,00952.3637283,E,2,5,1.7,-2.137,M,40.592,M,2.5,0123*57
$GPVTG,000.00,T,-639.90,M,000.022,N,000.041,K,D*0B
$GPGGA,114830.00,5703.2890689,N,00952.3637281,E,2,5,1.7,-2.136,M,40.592,M,2.5,0123*5A
$GPVTG,000.00,T,-639.90,M,000.024,N,000.045,K,D*09
$GPGGA,114830.05,5703.2890721,N,00952.3637358,E,2,5,1.7,-2.101,M,40.592,M,2.7,0123*5F
$GPVTG,000.00,T,-639.90,M,000.019,N,000.035,K,D*00
$GPGGA,114830.10,5703.2890718,N,00952.3637357,E,2,5,1.7,-2.100,M,40.592,M,2.7,0123*5F
$GPVTG,000.00,T,-639.90,M,000.021,N,000.040,K,D*09
$GPGGA,114830.15,5703.2890714,N,00952.3637356,E,2,5,1.7,-2.100,M,40.592,M,2.7,0123*57
$GPVTG,000.00,T,-639.90,M,000.025,N,000.045,K,D*08
$GPGGA,114830.20,5703.2890712,N,00952.3637359,E,2,5,1.7,-2.099,M,40.592,M,2.7,0123*59
$GPVTG,000.00,T,-639.90,M,000.024,N,000.044,K,D*08
$GPGGA,114830.25,5703.2890760,N,00952.3637313,E,2,5,1.7,-2.103,M,40.592,M,2.9,0123*5B
$GPVTG,000.00,T,-639.90,M,000.011,N,000.020,K,D*0C
$GPGGA,114830.30,5703.2890758,N,00952.3637312,E,2,5,1.7,-2.103,M,40.592,M,2.9,0123*55
$GPVTG,000.00,T,-639.90,M,000.012,N,000.023,K,D*0C
$GPGGA,114830.35,5703.2890757,N,00952.3637313,E,2,5,1.7,-2.102,M,40.592,M,2.9,0123*5F
$GPVTG,000.00,T,-639.90,M,000.012,N,000.022,K,D*0D
$GPGGA,114830.40,5703.2890755,N,00952.3637315,E,2,5,1.7,-2.102,M,40.592,M,2.9,0123*59
$GPVTG,000.00,T,-639.90,M,000.013,N,000.024,K,D*0A
$GPGGA,114830.45,5703.2890678,N,00952.3637507,E,2,5,1.7,-2.109,M,40.592,M,3.1,0123*55
$GPVTG,000.00,T,-639.90,M,000.015,N,000.028,K,D*00
$GPGGA,114830.50,5703.2890678,N,00952.3637496,E,2,5,1.7,-2.111,M,40.592,M,3.1,0123*51
$GPVTG,000.00,T,-639.90,M,000.015,N,000.029,K,D*01
$GPGGA,114830.55,5703.2890659,N,00952.3637470,E,2,5,1.7,-2.112,M,40.592,M,3.1,0123*5C
$GPVTG,000.00,T,-639.90,M,000.017,N,000.032,K,D*09
$GPGGA,114830.60,5703.2890659,N,00952.3637474,E,2,5,1.7,-2.111,M,40.592,M,3.1,0123*5D
$GPVTG,000.00,T,-639.90,M,000.018,N,000.033,K,D*07
$GPGGA,114830.65,5703.2890719,N,00952.3637370,E,2,5,1.7,-2.101,M,40.592,M,3.3,0123*5D
$GPVTG,000.00,T,-639.90,M,000.018,N,000.032,K,D*06
$GPGGA,114830.70,5703.2890719,N,00952.3637366,E,2,5,1.7,-2.101,M,40.592,M,3.3,0123*5E
$GPVTG,000.00,T,-639.90,M,000.019,N,000.034,K,D*01
$GPGGA,114830.75,5703.2890720,N,00952.3637363,E,2,5,1.7,-2.100,M,40.592,M,3.3,0123*55
$GPVTG,000.00,T,-639.90,M,000.019,N,000.035,K,D*00
$GPGGA,114830.80,5703.2890722,N,00952.3637358,E,2,5,1.7,-2.100,M,40.592,M,3.3,0123*55
$GPVTG,000.00,T,-639.90,M,000.021,N,000.039,K,D*07
$GPGGA,114830.85,5703.2890753,N,00952.3637350,E,2,5,1.7,-2.107,M,40.592,M,3.5,0123*5F
$GPVTG,000.00,T,-639.90,M,000.037,N,000.069,K,D*05
$GPGGA,114830.90,5703.2890756,N,00952.3637343,E,2,5,1.7,-2.107,M,40.592,M,3.5,0123*5C
$GPVTG,000.00,T,-639.90,M,000.039,N,000.072,K,D*01
$GPGGA,114830.95,5703.2890760,N,00952.3637336,E,2,5,1.7,-2.107,M,40.592,M,3.5,0123*5E
$GPVTG,318.45,T,-321.45,M,000.041,N,000.077,K,D*04
$GPGGA,114831.00,5703.2890763,N,00952.3637328,E,2,5,1.7,-2.107,M,40.592,M,3.5,0123*5F
$GPVTG,316.47,T,-323.43,M,000.043,N,000.080,K,D*06
$GPGGA,114831.05,5703.2890728,N,00952.3637286,E,2,5,1.7,-2.082,M,40.592,M,3.7,0123*5E
$GPVTG,000.00,T,-639.90,M,000.029,N,000.053,K,D*03
$GPGGA,114831.10,5703.2890729,N,00952.3637280,E,2,5,1.7,-2.082,M,40.592,M,3.7,0123*5D
$GPVTG,000.00,T,-639.90,M,000.029,N,000.054,K,D*04
$GPGGA,114831.15,5703.2890730,N,00952.3637273,E,2,5,1.7,-2.083,M,40.592,M,3.7,0123*5D
$GPVTG,000.00,T,-639.90,M,000.030,N,000.055,K,D*0D
$GPGGA,114831.20,5703.2890730,N,00952.3637264,E,2,5,1.7,-2.083,M,40.592,M,3.7,0123*5D
$GPVTG,000.00,T,-639.90,M,000.032,N,000.059,K,D*03
$GPGGA,114831.25,5703.2890973,N,00952.3637051,E,2,5,1.7,-2.069,M,40.592,M,3.9,0123*5F
$GPVTG,287.26,T,-352.64,M,000.040,N,000.074,K,D*03
$GPGGA,114831.30,5703.2890981,N,00952.3637039,E,2,5,1.7,-2.074,M,40.592,M,3.9,0123*54
$GPVTG,288.12,T,-351.78,M,000.042,N,000.078,K,D*0B
$GPGGA,114831.35,5703.2890989,N,00952.3637029,E,2,5,1.7,-2.074,M,40.592,M,3.9,0123*58
$GPVTG,289.06,T,-350.84,M,000.044,N,000.082,K,D*0E
$GPGGA,114831.40,5703.2890995,N,00952.3637028,E,2,5,1.7,-2.075,M,40.592,M,3.9,0123*57
$GPVTG,289.84,T,-350.06,M,000.045,N,000.084,K,D*09
$GPGGA,114831.45,5703.2890873,N,00952.3637139,E,2,5,1.7,-2.077,M,40.592,M,2.7,0123*57
$GPVTG,277.70,T,-362.20,M,000.045,N,000.083,K,D*01
$GPGGA,114831.50,5703.2890862,N,00952.3637125,E,2,5,1.7,-2.076,M,40.592,M,2.7,0123*5F
$GPVTG,274.28,T,-365.62,M,000.047,N,000.087,K,D*08
$GPGGA,114831.55,5703.2890870,N,00952.3637133,E,2,5,1.7,-2.073,M,40.592,M,2.7,0123*5B
$GPVTG,275.67,T,-364.23,M,000.046,N,000.086,K,D*06
$GPGGA,114831.60,5703.2890883,N,00952.3637154,E,2,5,1.7,-2.073,M,40.592,M,2.7,0123*50
$GPVTG,278.66,T,-361.24,M,000.045,N,000.083,K,D*0E
$GPGGA,114831.65,5703.2890901,N,00952.3637127,E,2,5,1.7,-2.074,M,40.592,M,2.9,0123*53
$GPVTG,000.00,T,-639.90,M,000.031,N,000.057,K,D*0E
$GPGGA,114831.70,5703.2890901,N,00952.3637119,E,2,5,1.7,-2.074,M,40.592,M,2.9,0123*5A
$GPVTG,000.00,T,-639.90,M,000.031,N,000.058,K,D*01
$GPGGA,114831.75,5703.2890901,N,00952.3637112,E,2,5,1.7,-2.074,M,40.592,M,2.9,0123*54
$GPVTG,000.00,T,-639.90,M,000.031,N,000.057,K,D*0E
$GPGGA,114831.80,5703.2890900,N,00952.3637104,E,2,5,1.7,-2.074,M,40.592,M,2.9,0123*58
$GPVTG,000.00,T,-639.90,M,000.031,N,000.058,K,D*01
$GPGGA,114831.85,5703.2890966,N,00952.3637064,E,2,5,1.7,-2.072,M,40.592,M,3.2,0123*56
$GPVTG,296.73,T,-343.17,M,000.044,N,000.081,K,D*09
$GPGGA,114831.90,5703.2890970,N,00952.3637055,E,2,5,1.7,-2.072,M,40.592,M,3.2,0123*57
$GPVTG,298.35,T,-341.55,M,000.045,N,000.083,K,D*02
$GPGGA,114831.95,5703.2890973,N,00952.3637046,E,2,5,1.7,-2.072,M,40.592,M,3.2,0123*53
$GPVTG,301.10,T,-338.80,M,000.046,N,000.084,K,D*06
$GPGGA,114832.00,5703.2890976,N,00952.3637036,E,2,5,1.7,-2.072,M,40.592,M,3.2,0123*5E
$GPVTG,300.49,T,-339.41,M,000.046,N,000.086,K,D*05
$GPGGA,114832.05,5703.2890916,N,00952.3637168,E,2,5,1.7,-2.054,M,40.592,M,3.4,0123*55
$GPVTG,299.82,T,-340.08,M,000.042,N,000.077,K,D*0A
$GPGGA,114832.10,5703.2890915,N,00952.3637157,E,2,5,1.7,-2.052,M,40.592,M,3.4,0123*58
$GPVTG,299.85,T,-340.05,M,000.042,N,000.078,K,D*0F
$GPGGA,114832.15,5703.2890909,N,00952.3637158,E,2,5,1.7,-2.051,M,40.592,M,3.4,0123*5C
$GPVTG,299.90,T,-340.00,M,000.042,N,000.077,K,D*01
$GPGGA,114832.20,5703.2890932,N,00952.3637159,E,2,5,1.7,-2.052,M,40.592,M,3.4,0123*50
$GPVTG,303.45,T,-336.45,M,000.043,N,000.080,K,D*02
$GPGGA,114832.25,5703.2890987,N,00952.3637118,E,2,5,1.7,-2.053,M,40.592,M,3.6,0123*5D
$GPVTG,331.51,T,-308.39,M,000.057,N,000.105,K,D*09
$GPGGA,114832.30,5703.2890993,N,00952.3637110,E,2,5,1.7,-2.053,M,40.592,M,3.6,0123*54
$GPVTG,331.47,T,-308.43,M,000.058,N,000.108,K,D*01
$GPGGA,114832.35,5703.2891001,N,00952.3637103,E,2,5,1.7,-2.053,M,40.592,M,3.6,0123*50
$GPVTG,333.63,T,-306.27,M,000.061,N,000.113,K,D*09
$GPGGA,114832.40,5703.2891008,N,00952.3637097,E,2,5,1.7,-2.053,M,40.592,M,3.6,0123*57
$GPVTG,334.83,T,-305.07,M,000.062,N,000.115,K,D*04
$GPGGA,114832.45,5703.2890962,N,00952.3637172,E,2,5,1.7,-2.061,M,40.592,M,2.2,0123*58
$GPVTG,347.02,T,-292.88,M,000.043,N,000.080,K,D*0F
$GPGGA,114832.50,5703.2890968,N,00952.3637171,E,2,5,1.7,-2.061,M,40.592,M,2.2,0123*55
$GPVTG,350.30,T,-289.60,M,000.045,N,000.084,K,D*06
$GPGGA,114832.55,5703.2890975,N,00952.3637169,E,2,5,1.7,-2.062,M,40.592,M,2.2,0123*56
$GPVTG,353.00,T,-286.90,M,000.047,N,000.087,K,D*07
$GPGGA,114832.60,5703.2890980,N,00952.3637166,E,2,5,1.7,-2.062,M,40.592,M,2.2,0123*55
$GPVTG,354.17,T,-285.73,M,000.047,N,000.087,K,D*08
$GPGGA,114832.65,5703.2890995,N,00952.3637108,E,2,6,1.7,-2.056,M,40.592,M,2.4,0123*5E
$GPVTG,341.65,T,-298.25,M,000.051,N,000.095,K,D*02
$GPGGA,114832.70,5703.2891002,N,00952.3637104,E,2,6,1.7,-2.056,M,40.592,M,2.4,0123*50
$GPVTG,343.23,T,-296.67,M,000.052,N,000.097,K,D*0B
$GPGGA,114832.75,5703.2891008,N,00952.3637099,E,2,6,1.7,-2.057,M,40.592,M,2.4,0123*5B
$GPVTG,343.13,T,-296.77,M,000.053,N,000.098,K,D*07
$GPGGA,114832.80,5703.2891016,N,00952.3637097,E,2,6,1.7,-2.057,M,40.592,M,2.4,0123*50
$GPVTG,345.39,T,-294.51,M,000.055,N,000.101,K,D*08
$GPGGA,114832.85,5703.2890935,N,00952.3637164,E,2,6,1.7,-2.048,M,40.592,M,2.7,0123*5C
$GPVTG,000.00,T,-639.90,M,000.007,N,000.014,K,D*0C
$GPGGA,114832.90,5703.2890935,N,00952.3637165,E,2,6,1.7,-2.048,M,40.592,M,2.7,0123*59
$GPVTG,000.00,T,-639.90,M,000.009,N,000.016,K,D*00
$GPGGA,114832.95,5703.2890934,N,00952.3637165,E,2,6,1.7,-2.048,M,40.592,M,2.7,0123*5D
$GPVTG,000.00,T,-639.90,M,000.009,N,000.016,K,D*00
$GPGGA,114833.00,5703.2890932,N,00952.3637165,E,2,6,1.7,-2.047,M,40.592,M,2.7,0123*59
$GPVTG,000.00,T,-639.90,M,000.012,N,000.021,K,D*0E
$GPGGA,114833.05,5703.2891200,N,00952.3636714,E,2,6,1.7,-2.059,M,40.592,M,2.9,0123*57
$GPVTG,000.00,T,-639.90,M,000.019,N,000.035,K,D*00
$GPGGA,114833.10,5703.2891208,N,00952.3636711,E,2,6,1.7,-2.057,M,40.592,M,2.9,0123*50
$GPVTG,000.00,T,-639.90,M,000.022,N,000.041,K,D*0B
$GPGGA,114833.15,5703.2891232,N,00952.3636754,E,2,6,1.7,-2.055,M,40.592,M,2.9,0123*5F
$GPVTG,000.00,T,-639.90,M,000.026,N,000.048,K,D*06
$GPGGA,114833.20,5703.2891214,N,00952.3636721,E,2,6,1.7,-2.059,M,40.592,M,2.9,0123*53
$GPVTG,000.00,T,-639.90,M,000.029,N,000.054,K,D*04
$GPGGA,114833.25,5703.2891297,N,00952.3636559,E,2,6,1.7,-2.042,M,40.592,M,3.1,0123*53
$GPVTG,000.00,T,-639.90,M,000.026,N,000.049,K,D*07
$GPGGA,114833.30,5703.2891287,N,00952.3636586,E,2,6,1.7,-2.040,M,40.592,M,3.1,0123*56
$GPVTG,000.00,T,-639.90,M,000.032,N,000.059,K,D*03
$GPGGA,114833.35,5703.2891300,N,00952.3636575,E,2,6,1.7,-2.038,M,40.592,M,3.1,0123*5E
$GPVTG,000.00,T,-639.90,M,000.032,N,000.060,K,D*09
$GPGGA,114833.40,5703.2891341,N,00952.3636622,E,2,6,1.7,-2.033,M,40.592,M,3.1,0123*53
$GPVTG,000.00,T,-639.90,M,000.033,N,000.061,K,D*09
$GPGGA,114833.45,5703.2891361,N,00952.3636646,E,2,6,1.7,-2.042,M,40.592,M,2.0,0123*50
$GPVTG,036.49,T,-603.41,M,000.049,N,000.090,K,D*07
$GPGGA,114833.50,5703.2891366,N,00952.3636653,E,2,6,1.7,-2.041,M,40.592,M,2.0,0123*54
$GPVTG,036.64,T,-603.26,M,000.049,N,000.091,K,D*08
$GPGGA,114833.55,5703.2891372,N,00952.3636660,E,2,6,1.7,-2.040,M,40.592,M,2.0,0123*55
$GPVTG,035.92,T,-603.98,M,000.052,N,000.097,K,D*0B
$GPGGA,114833.60,5703.2891377,N,00952.3636667,E,2,6,1.7,-2.039,M,40.592,M,2.0,0123*5F
$GPVTG,035.93,T,-603.97,M,000.054,N,000.099,K,D*0D
$GPGGA,114833.65,5703.2891261,N,00952.3636606,E,2,6,1.7,-2.045,M,40.592,M,2.2,0123*52
$GPVTG,000.00,T,-639.90,M,000.018,N,000.034,K,D*00
$GPGGA,114833.70,5703.2891259,N,00952.3636611,E,2,6,1.7,-2.044,M,40.592,M,2.2,0123*5A
$GPVTG,000.00,T,-639.90,M,000.020,N,000.037,K,D*08
$GPGGA,114833.75,5703.2891258,N,00952.3636616,E,2,6,1.7,-2.044,M,40.592,M,2.2,0123*59
$GPVTG,000.00,T,-639.90,M,000.022,N,000.041,K,D*0B
$GPGGA,114833.80,5703.2891256,N,00952.3636620,E,2,6,1.7,-2.043,M,40.592,M,2.2,0123*5F
$GPVTG,000.00,T,-639.90,M,000.023,N,000.042,K,D*09
$GPGGA,114833.85,5703.2891276,N,00952.3636593,E,2,6,1.7,-2.038,M,40.592,M,2.5,0123*58
$GPVTG,000.00,T,-639.90,M,000.018,N,000.033,K,D*07
$GPGGA,114833.90,5703.2891274,N,00952.3636595,E,2,5,1.7,-2.037,M,40.592,M,2.5,0123*54
$GPVTG,000.00,T,-639.90,M,000.019,N,000.036,K,D*03
$GPGGA,114833.95,5703.2891270,N,00952.3636597,E,2,5,1.7,-2.036,M,40.592,M,2.5,0123*56
$GPVTG,000.00,T,-639.90,M,000.022,N,000.040,K,D*0A
$GPGGA,114834.00,5703.2891268,N,00952.3636599,E,2,5,1.7,-2.035,M,40.592,M,2.5,0123*59
$GPVTG,000.00,T,-639.90,M,000.023,N,000.042,K,D*09
$GPGGA,114834.05,5703.2891207,N,00952.3636792,E,2,5,1.7,-2.007,M,40.592,M,2.7,0123*5F
$GPVTG,000.00,T,-639.90,M,000.025,N,000.047,K,D*0A
$GPGGA,114834.10,5703.2891204,N,00952.3636786,E,2,5,1.7,-2.009,M,40.592,M,2.7,0123*53
$GPVTG,000.00,T,-639.90,M,000.027,N,000.049,K,D*06
$GPGGA,114834.15,5703.2891174,N,00952.3636774,E,2,5,1.7,-2.012,M,40.592,M,2.7,0123*55
$GPVTG,000.00,T,-639.90,M,000.030,N,000.055,K,D*0D
$GPGGA,114834.20,5703.2891175,N,00952.3636743,E,2,5,1.7,-2.013,M,40.592,M,2.7,0123*57
$GPVTG,000.00,T,-639.90,M,000.031,N,000.057,K,D*0E
$GPGGA,114834.25,5703.2891224,N,00952.3636662,E,2,5,1.7,-2.006,M,40.592,M,2.9,0123*5D
$GPVTG,000.00,T,-639.90,M,000.009,N,000.017,K,D*01
$GPGGA,114834.30,5703.2891224,N,00952.3636663,E,2,5,1.7,-2.005,M,40.592,M,2.9,0123*5B
$GPVTG,000.00,T,-639.90,M,000.008,N,000.015,K,D*02
$GPGGA,114834.35,5703.2891223,N,00952.3636662,E,2,5,1.7,-2.004,M,40.592,M,2.9,0123*59
$GPVTG,000.00,T,-639.90,M,000.009,N,000.016,K,D*00
$GPGGA,114834.40,5703.2891221,N,00952.3636660,E,2,5,1.7,-2.004,M,40.592,M,2.9,0123*5B
$GPVTG,000.00,T,-639.90,M,000.011,N,000.020,K,D*0C
$GPGGA,114834.45,5703.2891145,N,00952.3636741,E,2,5,1.7,-2.002,M,40.592,M,3.1,0123*52
$GPVTG,000.00,T,-639.90,M,000.029,N,000.054,K,D*04
$GPGGA,114834.50,5703.2891141,N,00952.3636742,E,2,5,1.7,-2.002,M,40.592,M,3.1,0123*51
$GPVTG,000.00,T,-639.90,M,000.031,N,000.057,K,D*0E
$GPGGA,114834.55,5703.2891137,N,00952.3636744,E,2,5,1.7,-2.001,M,40.592,M,3.1,0123*50
$GPVTG,000.00,T,-639.90,M,000.032,N,000.060,K,D*09
$GPGGA,114834.60,5703.2891132,N,00952.3636746,E,2,5,1.7,-2.000,M,40.592,M,3.1,0123*50
$GPVTG,000.00,T,-639.90,M,000.034,N,000.063,K,D*0C
$GPGGA,114834.65,5703.2891127,N,00952.3636811,E,2,5,1.7,-2.008,M,40.592,M,3.3,0123*56
$GPVTG,150.18,T,-489.72,M,000.042,N,000.077,K,D*00
$GPGGA,114834.70,5703.2891121,N,00952.3636815,E,2,5,1.7,-2.008,M,40.592,M,3.3,0123*50
$GPVTG,151.77,T,-488.13,M,000.044,N,000.081,K,D*01
$GPGGA,114834.75,5703.2891113,N,00952.3636819,E,2,5,1.7,-2.008,M,40.592,M,3.3,0123*58
$GPVTG,154.27,T,-485.63,M,000.048,N,000.088,K,D*0E
$GPGGA,114834.80,5703.2891108,N,00952.3636825,E,2,5,1.7,-2.008,M,40.592,M,3.3,0123*57
$GPVTG,153.86,T,-486.04,M,000.049,N,000.091,K,D*09
$GPGGA,114834.85,5703.2891057,N,00952.3636862,E,2,5,1.7,-2.009,M,40.592,M,3.5,0123*5D
$GPVTG,152.98,T,-486.92,M,000.065,N,000.121,K,D*0C
$GPGGA,114834.90,5703.2891048,N,00952.3636868,E,2,5,1.7,-2.009,M,40.592,M,3.5,0123*5D
$GPVTG,153.90,T,-486.00,M,000.068,N,000.127,K,D*05
$GPGGA,114834.95,5703.2891041,N,00952.3636877,E,2,5,1.7,-2.009,M,40.592,M,3.5,0123*5F
$GPVTG,152.77,T,-487.13,M,000.071,N,000.131,K,D*01
$GPGGA,114835.00,5703.2891031,N,00952.3636883,E,2,5,1.7,-2.009,M,40.592,M,3.5,0123*5E
$GPVTG,154.47,T,-485.43,M,000.074,N,000.138,K,D*0F
$GPGGA,114835.05,5703.2890756,N,00952.3637329,E,2,6,1.7,-1.937,M,40.592,M,3.7,0123*50
$GPVTG,153.58,T,-486.32,M,000.058,N,000.108,K,D*0E
$GPGGA,114835.10,5703.2890749,N,00952.3637335,E,2,6,1.7,-1.938,M,40.592,M,3.7,0123*58
$GPVTG,153.72,T,-486.18,M,000.060,N,000.111,K,D*0D
$GPGGA,114835.15,5703.2890743,N,00952.3637343,E,2,6,1.7,-1.938,M,40.592,M,3.7,0123*56
$GPVTG,152.83,T,-487.07,M,000.060,N,000.111,K,D*0D
$GPGGA,114835.20,5703.2890736,N,00952.3637351,E,2,6,1.7,-1.938,M,40.592,M,3.7,0123*51
$GPVTG,151.77,T,-488.13,M,000.061,N,000.113,K,D*0C
$GPGGA,114835.25,5703.2890830,N,00952.3637344,E,2,6,1.7,-1.929,M,40.592,M,3.9,0123*57
$GPVTG,000.00,T,-639.90,M,000.025,N,000.047,K,D*0A
$GPGGA,114835.30,5703.2890829,N,00952.3637350,E,2,6,1.7,-1.929,M,40.592,M,3.9,0123*5E
$GPVTG,000.00,T,-639.90,M,000.025,N,000.045,K,D*08
$GPGGA,114835.35,5703.2890829,N,00952.3637355,E,2,6,1.7,-1.929,M,40.592,M,3.9,0123*5E
$GPVTG,000.00,T,-639.90,M,000.024,N,000.044,K,D*08
$GPGGA,114835.40,5703.2890826,N,00952.3637358,E,2,6,1.7,-1.929,M,40.592,M,3.9,0123*5E
$GPVTG,000.00,T,-639.90,M,000.022,N,000.041,K,D*0B
$GPGGA,114835.45,5703.2890753,N,00952.3637357,E,2,6,1.7,-1.940,M,40.592,M,2.7,0123*59
$GPVTG,000.00,T,-639.90,M,000.033,N,000.061,K,D*09
$GPGGA,114835.50,5703.2890750,N,00952.3637363,E,2,6,1.7,-1.940,M,40.592,M,2.7,0123*59
$GPVTG,000.00,T,-639.90,M,000.033,N,000.061,K,D*09
$GPGGA,114835.55,5703.2890746,N,00952.3637369,E,2,6,1.7,-1.941,M,40.592,M,2.7,0123*50
$GPVTG,000.00,T,-639.90,M,000.032,N,000.060,K,D*09
$GPGGA,114835.60,5703.2890743,N,00952.3637373,E,2,6,1.7,-1.941,M,40.592,M,2.7,0123*58
$GPVTG,000.00,T,-639.90,M,000.032,N,000.060,K,D*09
$GPGGA,114835.65,5703.2890744,N,00952.3637433,E,2,6,1.7,-1.941,M,40.592,M,2.9,0123*57
$GPVTG,130.10,T,-509.80,M,000.043,N,000.080,K,D*03
$GPGGA,114835.70,5703.2890742,N,00952.3637442,E,2,6,1.7,-1.942,M,40.592,M,2.9,0123*50
$GPVTG,126.04,T,-513.86,M,000.043,N,000.080,K,D*0C
$GPGGA,114835.75,5703.2890738,N,00952.3637450,E,2,6,1.7,-1.943,M,40.592,M,2.9,0123*5A
$GPVTG,127.00,T,-512.90,M,000.044,N,000.081,K,D*09
$GPGGA,114835.80,5703.2890734,N,00952.3637460,E,2,6,1.7,-1.944,M,40.592,M,2.9,0123*58
$GPVTG,126.15,T,-513.75,M,000.045,N,000.083,K,D*05
$GPGGA,114835.85,5703.2890838,N,00952.3637407,E,2,6,1.7,-1.933,M,40.592,M,3.2,0123*55
$GPVTG,000.00,T,-639.90,M,000.028,N,000.052,K,D*03
$GPGGA,114835.90,5703.2890838,N,00952.3637412,E,2,6,1.7,-1.933,M,40.592,M,3.2,0123*55
$GPVTG,000.00,T,-639.90,M,000.028,N,000.051,K,D*00
$GPGGA,114835.95,5703.2890840,N,00952.3637417,E,2,6,1.7,-1.934,M,40.592,M,3.2,0123*5D
$GPVTG,000.00,T,-639.90,M,000.028,N,000.053,K,D*02
$GPGGA,114836.00,5703.2890843,N,00952.3637424,E,2,6,1.7,-1.934,M,40.592,M,3.2,0123*51
$GPVTG,000.00,T,-639.90,M,000.031,N,000.058,K,D*01
$GPGGA,114836.05,5703.2889069,N,00952.3639746,E,2,6,1.7,-1.779,M,40.592,M,3.4,0123*54
$GPVTG,000.00,T,-639.90,M,000.010,N,000.018,K,D*06
$GPGGA,114836.10,5703.2889069,N,00952.3639749,E,2,6,1.7,-1.779,M,40.592,M,3.4,0123*5F
$GPVTG,000.00,T,-639.90,M,000.009,N,000.016,K,D*00
$GPGGA,114836.15,5703.2889070,N,00952.3639751,E,2,6,1.7,-1.780,M,40.592,M,3.4,0123*5D
$GPVTG,000.00,T,-639.90,M,000.008,N,000.014,K,D*03
$GPGGA,114836.20,5703.2889068,N,00952.3639751,E,2,6,1.7,-1.781,M,40.592,M,3.4,0123*53
$GPVTG,000.00,T,-639.90,M,000.005,N,000.009,K,D*02
$GPGGA,114836.25,5703.2889132,N,00952.3639714,E,2,6,1.7,-1.769,M,40.592,M,3.6,0123*5D
$GPVTG,000.00,T,-639.90,M,000.003,N,000.006,K,D*0B
$GPGGA,114836.30,5703.2889135,N,00952.3639711,E,2,6,1.7,-1.769,M,40.592,M,3.6,0123*5B
$GPVTG,000.00,T,-639.90,M,000.004,N,000.007,K,D*0D
$GPGGA,114836.35,5703.2889105,N,00952.3639691,E,2,6,1.7,-1.769,M,40.592,M,3.6,0123*54
$GPVTG,000.00,T,-639.90,M,000.003,N,000.006,K,D*0B
$GPGGA,114836.40,5703.2889102,N,00952.3639708,E,2,6,1.7,-1.767,M,40.592,M,3.6,0123*5E
$GPVTG,000.00,T,-639.90,M,000.004,N,000.008,K,D*02
$GPGGA,114836.45,5703.2889030,N,00952.3639822,E,2,6,1.7,-1.774,M,40.592,M,2.2,0123*5B
$GPVTG,000.00,T,-639.90,M,000.001,N,000.003,K,D*0C
$GPGGA,114836.50,5703.2889033,N,00952.3639833,E,2,6,1.7,-1.771,M,40.592,M,2.2,0123*59
$GPVTG,000.00,T,-639.90,M,000.000,N,000.001,K,D*0F
$GPGGA,114836.55,5703.2889023,N,00952.3639805,E,2,6,1.7,-1.773,M,40.592,M,2.2,0123*5A
$GPVTG,000.00,T,-639.90,M,000.004,N,000.008,K,D*02
$GPGGA,114836.60,5703.2889014,N,00952.3639797,E,2,6,1.7,-1.771,M,40.592,M,2.2,0123*5E
$GPVTG,000.00,T,-639.90,M,000.007,N,000.012,K,D*0A
$GPGGA,114836.65,5703.2889081,N,00952.3639705,E,2,6,1.7,-1.775,M,40.592,M,2.4,0123*5E
$GPVTG,309.52,T,-330.38,M,000.064,N,000.118,K,D*07
$GPGGA,114836.70,5703.2889087,N,00952.3639692,E,2,6,1.7,-1.775,M,40.592,M,2.4,0123*53
$GPVTG,309.11,T,-330.79,M,000.068,N,000.126,K,D*04
$GPGGA,114836.75,5703.2889092,N,00952.3639678,E,2,6,1.7,-1.776,M,40.592,M,2.4,0123*55
$GPVTG,307.11,T,-332.79,M,000.073,N,000.135,K,D*00
$GPGGA,114836.80,5703.2889097,N,00952.3639663,E,2,6,1.7,-1.776,M,40.592,M,2.4,0123*50
$GPVTG,306.19,T,-333.71,M,000.077,N,000.142,K,D*04
$GPGGA,114836.85,5703.2888986,N,00952.3639749,E,2,6,1.7,-1.773,M,40.592,M,2.7,0123*52
$GPVTG,270.93,T,-368.97,M,000.042,N,000.077,K,D*01
$GPGGA,114836.90,5703.2888986,N,00952.3639739,E,2,6,1.7,-1.774,M,40.592,M,2.7,0123*56
$GPVTG,270.39,T,-369.51,M,000.043,N,000.080,K,D*03
$GPGGA,114836.95,5703.2888985,N,00952.3639726,E,2,6,1.7,-1.774,M,40.592,M,2.7,0123*5E
$GPVTG,266.85,T,-373.05,M,000.047,N,000.088,K,D*05
$GPGGA,114837.00,5703.2888984,N,00952.3639714,E,2,6,1.7,-1.774,M,40.592,M,2.7,0123*53
$GPVTG,266.08,T,-373.82,M,000.050,N,000.092,K,D*02
$GPGGA,114837.05,5703.2886533,N,00952.3643128,E,2,6,1.7,-1.561,M,40.592,M,2.9,0123*54
$GPVTG,254.71,T,-385.19,M,000.041,N,000.077,K,D*0D
$GPGGA,114837.10,5703.2886532,N,00952.3643119,E,2,6,1.7,-1.562,M,40.592,M,2.9,0123*50
$GPVTG,254.13,T,-385.77,M,000.042,N,000.078,K,D*0D
$GPGGA,114837.15,5703.2886531,N,00952.3643110,E,2,6,1.7,-1.562,M,40.592,M,2.9,0123*5F
$GPVTG,253.98,T,-385.92,M,000.042,N,000.078,K,D*02
$GPGGA,114837.20,5703.2886528,N,00952.3643099,E,2,6,1.7,-1.563,M,40.592,M,2.9,0123*50
$GPVTG,251.64,T,-388.26,M,000.045,N,000.083,K,D*02
$GPGGA,114837.25,5703.2886638,N,00952.3643100,E,2,6,1.7,-1.555,M,40.592,M,3.1,0123*5A
$GPVTG,255.60,T,-384.30,M,000.047,N,000.086,K,D*0E
$GPGGA,114837.30,5703.2886636,N,00952.3643083,E,2,6,1.7,-1.556,M,40.592,M,3.1,0123*59
$GPVTG,254.93,T,-384.97,M,000.048,N,000.090,K,D*06
$GPGGA,114837.35,5703.2886621,N,00952.3643052,E,2,6,1.7,-1.558,M,40.592,M,3.1,0123*58
$GPVTG,253.32,T,-386.58,M,000.051,N,000.095,K,D*06
$GPGGA,114837.40,5703.2886642,N,00952.3643063,E,2,6,1.7,-1.558,M,40.592,M,3.1,0123*5D
$GPVTG,254.71,T,-385.19,M,000.051,N,000.095,K,D*00
$GPGGA,114837.45,5703.2886626,N,00952.3643052,E,2,6,1.7,-1.556,M,40.592,M,2.0,0123*56
$GPVTG,261.05,T,-378.85,M,000.059,N,000.109,K,D*0E
$GPGGA,114837.50,5703.2886625,N,00952.3643038,E,2,6,1.7,-1.557,M,40.592,M,2.0,0123*5C
$GPVTG,260.66,T,-379.24,M,000.060,N,000.111,K,D*03
$GPGGA,114837.55,5703.2886624,N,00952.3643024,E,2,6,1.7,-1.558,M,40.592,M,2.0,0123*5A
$GPVTG,261.92,T,-377.98,M,000.061,N,000.112,K,D*02
$GPGGA,114837.60,5703.2886624,N,00952.3643010,E,2,6,1.7,-1.558,M,40.592,M,2.0,0123*5B
$GPVTG,262.70,T,-377.20,M,000.061,N,000.114,K,D*08
$GPGGA,114837.65,5703.2886641,N,00952.3643106,E,2,6,1.7,-1.551,M,40.592,M,2.2,0123*50
$GPVTG,000.00,T,-639.90,M,000.035,N,000.066,K,D*08
$GPGGA,114837.70,5703.2886640,N,00952.3643097,E,2,6,1.7,-1.551,M,40.592,M,2.2,0123*5C
$GPVTG,000.00,T,-639.90,M,000.035,N,000.064,K,D*0A
$GPGGA,114837.75,5703.2886639,N,00952.3643088,E,2,6,1.7,-1.551,M,40.592,M,2.2,0123*59
$GPVTG,000.00,T,-639.90,M,000.035,N,000.065,K,D*0B
$GPGGA,114837.80,5703.2886638,N,00952.3643080,E,2,6,1.7,-1.552,M,40.592,M,2.2,0123*59
$GPVTG,000.00,T,-639.90,M,000.034,N,000.063,K,D*0C
$GPGGA,114837.85,5703.2886585,N,00952.3643087,E,2,6,1.7,-1.555,M,40.592,M,2.5,0123*5E
$GPVTG,000.00,T,-639.90,M,000.038,N,000.070,K,D*02
$GPGGA,114837.90,5703.2886582,N,00952.3643080,E,2,6,1.7,-1.555,M,40.592,M,2.5,0123*5A
$GPVTG,000.00,T,-639.90,M,000.038,N,000.070,K,D*02
$GPGGA,114837.95,5703.2886578,N,00952.3643073,E,2,6,1.7,-1.556,M,40.592,M,2.5,0123*55
$GPVTG,000.00,T,-639.90,M,000.039,N,000.072,K,D*01
$GPGGA,114838.00,5703.2886575,N,00952.3643068,E,2,6,1.7,-1.556,M,40.592,M,2.5,0123*51
$GPVTG,000.00,T,-639.90,M,000.037,N,000.069,K,D*05
$GPGGA,114838.05,5703.2884633,N,00952.3645956,E,2,6,1.7,-1.357,M,40.592,M,2.7,0123*50
$GPVTG,000.00,T,-639.90,M,000.025,N,000.047,K,D*0A
$GPGGA,114838.10,5703.2884630,N,00952.3645955,E,2,6,1.7,-1.357,M,40.592,M,2.7,0123*54
$GPVTG,000.00,T,-639.90,M,000.025,N,000.047,K,D*0A
$GPGGA,114838.15,5703.2884627,N,00952.3645954,E,2,6,1.7,-1.358,M,40.592,M,2.7,0123*59
$GPVTG,000.00,T,-639.90,M,000.025,N,000.046,K,D*0B
$GPGGA,114838.20,5703.2884623,N,00952.3645953,E,2,6,1.7,-1.358,M,40.592,M,2.7,0123*5C
$GPVTG,000.00,T,-639.90,M,000.027,N,000.050,K,D*0E
$GPGGA,114838.25,5703.2884569,N,00952.3646021,E,2,6,1.7,-1.365,M,40.592,M,2.9,0123*5B
$GPVTG,157.62,T,-482.28,M,000.048,N,000.089,K,D*05
$GPGGA,114838.30,5703.2884562,N,00952.3646025,E,2,6,1.7,-1.366,M,40.592,M,2.9,0123*53
$GPVTG,155.10,T,-484.80,M,000.051,N,000.095,K,D*03
$GPGGA,114838.35,5703.2884557,N,00952.3646032,E,2,6,1.7,-1.367,M,40.592,M,2.9,0123*57
$GPVTG,151.35,T,-488.55,M,000.054,N,000.100,K,D*0C
$GPGGA,114838.40,5703.2884551,N,00952.3646039,E,2,6,1.7,-1.368,M,40.592,M,2.9,0123*57
$GPVTG,147.95,T,-491.96,M,000.057,N,000.106,K,D*03
$GPGGA,114838.45,5703.2884711,N,00952.3645960,E,2,6,1.7,-1.361,M,40.592,M,1.1,0123*50
$GPVTG,000.00,T,-639.90,M,000.022,N,000.041,K,D*0B
$GPGGA,114838.50,5703.2884710,N,00952.3645965,E,2,6,1.7,-1.362,M,40.592,M,1.1,0123*53
$GPVTG,000.00,T,-639.90,M,000.024,N,000.045,K,D*09
$GPGGA,114838.55,5703.2884708,N,00952.3645970,E,2,6,1.7,-1.363,M,40.592,M,1.1,0123*5A
$GPVTG,000.00,T,-639.90,M,000.026,N,000.048,K,D*06
$GPGGA,114838.60,5703.2884706,N,00952.3645974,E,2,6,1.7,-1.363,M,40.592,M,1.1,0123*56
$GPVTG,000.00,T,-639.90,M,000.027,N,000.049,K,D*06
$GPGGA,114838.65,5703.2884607,N,00952.3645922,E,2,6,1.7,-1.366,M,40.592,M,1.5,0123*51
$GPVTG,000.00,T,-639.90,M,000.019,N,000.036,K,D*03
$GPGGA,114838.70,5703.2884606,N,00952.3645927,E,2,6,1.7,-1.366,M,40.592,M,1.5,0123*51
$GPVTG,000.00,T,-639.90,M,000.019,N,000.036,K,D*03
$GPGGA,114838.75,5703.2884605,N,00952.3645931,E,2,6,1.7,-1.367,M,40.592,M,1.5,0123*51
$GPVTG,000.00,T,-639.90,M,000.020,N,000.037,K,D*08
$GPGGA,114838.80,5703.2884602,N,00952.3645933,E,2,6,1.7,-1.367,M,40.592,M,1.5,0123*5E
$GPVTG,000.00,T,-639.90,M,000.020,N,000.037,K,D*08
$GPGGA,114838.85,5703.2884740,N,00952.3645868,E,2,6,1.7,-1.360,M,40.592,M,1.8,0123*59
$GPVTG,000.00,T,-639.90,M,000.024,N,000.044,K,D*08
$GPGGA,114838.90,5703.2884743,N,00952.3645867,E,2,6,1.7,-1.361,M,40.592,M,1.8,0123*50
$GPVTG,000.00,T,-639.90,M,000.026,N,000.049,K,D*07
$GPGGA,114838.95,5703.2884746,N,00952.3645864,E,2,6,1.7,-1.361,M,40.592,M,1.8,0123*53
$GPVTG,000.00,T,-639.90,M,000.029,N,000.054,K,D*04
$GPGGA,114839.00,5703.2884751,N,00952.3645866,E,2,6,1.7,-1.361,M,40.592,M,1.8,0123*5A
$GPVTG,000.00,T,-639.90,M,000.034,N,000.062,K,D*0D
$GPGGA,114839.05,5703.2883921,N,00952.3647057,E,2,6,1.7,-1.217,M,40.592,M,2.1,0123*53
$GPVTG,000.00,T,-639.90,M,000.031,N,000.057,K,D*0E
$GPGGA,114839.10,5703.2883925,N,00952.3647055,E,2,6,1.7,-1.217,M,40.592,M,2.1,0123*51
$GPVTG,000.00,T,-639.90,M,000.034,N,000.063,K,D*0C
$GPGGA,114839.15,5703.2883929,N,00952.3647053,E,2,6,1.7,-1.217,M,40.592,M,2.1,0123*5E
$GPVTG,000.00,T,-639.90,M,000.036,N,000.067,K,D*0A
$GPGGA,114839.20,5703.2883934,N,00952.3647050,E,2,6,1.7,-1.217,M,40.592,M,2.1,0123*57
$GPVTG,343.87,T,-296.03,M,000.039,N,000.073,K,D*00
$GPGGA,114839.25,5703.2883942,N,00952.3647028,E,2,6,1.7,-1.216,M,40.592,M,2.4,0123*58
$GPVTG,338.15,T,-301.75,M,000.039,N,000.072,K,D*08
$GPGGA,114839.30,5703.2883947,N,00952.3647023,E,2,6,1.7,-1.216,M,40.592,M,2.4,0123*52
$GPVTG,337.22,T,-302.68,M,000.042,N,000.078,K,D*0A
$GPGGA,114839.35,5703.2883952,N,00952.3647019,E,2,6,1.7,-1.216,M,40.592,M,2.4,0123*5A
$GPVTG,336.76,T,-303.14,M,000.044,N,000.082,K,D*03
