$GPVTG,208.70,T,-431.20,M,004.359,N,008.072,K,D*04
$GPGGA,121332.45,5703.2882975,N,00952.0179056,E,2,6,1.8,-3.160,M,40.592,M,0.8,0123*5C
$GPVTG,209.27,T,-430.63,M,004.333,N,008.025,K,D*0F
$GPGGA,121332.50,5703.2882455,N,00952.0178510,E,2,6,1.8,-3.159,M,40.592,M,0.8,0123*5B
$GPVTG,209.32,T,-430.58,M,004.342,N,008.042,K,D*04
$GPGGA,121332.55,5703.2881919,N,00952.0177949,E,2,6,1.8,-3.157,M,40.592,M,0.8,0123*59
$GPVTG,209.44,T,-430.46,M,004.382,N,008.116,K,D*06
$GPGGA,121332.60,5703.2881426,N,00952.0177456,E,2,6,1.8,-3.155,M,40.592,M,0.8,0123*5F
$GPVTG,208.95,T,-430.95,M,004.309,N,007.980,K,D*0E
$GPGGA,121332.65,5703.2880816,N,00952.0176961,E,2,6,1.8,-3.152,M,40.592,M,1.2,0123*50
$GPVTG,207.92,T,-431.98,M,004.409,N,008.165,K,D*01
$GPGGA,121332.70,5703.2880316,N,00952.0176388,E,2,6,1.8,-3.148,M,40.592,M,1.2,0123*59
$GPVTG,208.38,T,-431.52,M,004.396,N,008.141,K,D*0F
$GPGGA,121332.75,5703.2879822,N,00952.0175873,E,2,6,1.8,-3.147,M,40.592,M,1.2,0123*55
$GPVTG,208.44,T,-431.46,M,004.353,N,008.061,K,D*0B
$GPGGA,121332.80,5703.2879297,N,00952.0175293,E,2,6,1.8,-3.147,M,40.592,M,1.2,0123*5F
$GPVTG,208.92,T,-430.98,M,004.374,N,008.100,K,D*01
$GPGGA,121332.85,5703.2878778,N,00952.0174772,E,2,6,1.8,-3.139,M,40.592,M,1.4,0123*5B
$GPVTG,208.56,T,-431.34,M,004.396,N,008.142,K,D*04
$GPGGA,121332.90,5703.2878218,N,00952.0174232,E,2,6,1.8,-3.140,M,40.592,M,1.4,0123*53
$GPVTG,208.28,T,-431.62,M,004.454,N,008.249,K,D*0F
$GPGGA,121332.95,5703.2877633,N,00952.0173684,E,2,6,1.8,-3.139,M,40.592,M,1.4,0123*54
$GPVTG,207.92,T,-431.98,M,004.545,N,008.416,K,D*09
$GPGGA,121333.00,5703.2877101,N,00952.0173148,E,2,6,1.8,-3.137,M,40.592,M,1.4,0123*56
$GPVTG,208.00,T,-431.90,M,004.523,N,008.377,K,D*05
$GPGGA,121333.05,5703.2876634,N,00952.0172563,E,2,6,1.8,-3.119,M,40.592,M,1.7,0123*50
$GPVTG,208.16,T,-431.74,M,004.521,N,008.372,K,D*0F
$GPGGA,121333.10,5703.2876118,N,00952.0171980,E,2,6,1.8,-3.120,M,40.592,M,1.7,0123*55
$GPVTG,208.70,T,-431.20,M,004.509,N,008.350,K,D*04
$GPGGA,121333.15,5703.2875563,N,00952.0171401,E,2,6,1.8,-3.119,M,40.592,M,1.7,0123*55
$GPVTG,208.92,T,-430.98,M,004.540,N,008.408,K,D*0D
$GPGGA,121333.20,5703.2875016,N,00952.0170824,E,2,6,1.8,-3.116,M,40.592,M,1.7,0123*51
$GPVTG,209.17,T,-430.73,M,004.558,N,008.442,K,D*03
$GPGGA,121333.25,5703.2874493,N,00952.0170272,E,2,6,1.8,-3.098,M,40.592,M,1.9,0123*5C
$GPVTG,208.83,T,-431.07,M,004.574,N,008.471,K,D*03
$GPGGA,121333.30,5703.2873962,N,00952.0169687,E,2,6,1.8,-3.096,M,40.592,M,1.9,0123*54
$GPVTG,209.56,T,-430.34,M,004.564,N,008.453,K,D*0A
$GPGGA,121333.35,5703.2873392,N,00952.0169185,E,2,6,1.8,-3.092,M,40.592,M,1.9,0123*55
$GPVTG,208.28,T,-431.62,M,004.558,N,008.441,K,D*0C
$GPGGA,121333.40,5703.2872855,N,00952.0168604,E,2,6,1.8,-3.088,M,40.592,M,1.9,0123*52
$GPVTG,208.90,T,-431.00,M,004.557,N,008.440,K,D*05
$GPGGA,121333.45,5703.2872338,N,00952.0168050,E,2,6,1.8,-3.071,M,40.592,M,2.2,0123*5E
$GPVTG,208.95,T,-430.95,M,004.561,N,008.448,K,D*00
$GPGGA,121333.50,5703.2871771,N,00952.0167480,E,2,6,1.8,-3.068,M,40.592,M,2.2,0123*5E
$GPVTG,208.92,T,-430.98,M,004.597,N,008.513,K,D*0C
$GPGGA,121333.55,5703.2871242,N,00952.0166893,E,2,6,1.8,-3.063,M,40.592,M,2.2,0123*5A
$GPVTG,209.55,T,-430.35,M,004.578,N,008.479,K,D*0D
$GPGGA,121333.60,5703.2870708,N,00952.0166346,E,2,6,1.8,-3.059,M,40.592,M,2.2,0123*5C
$GPVTG,209.43,T,-430.47,M,004.541,N,008.409,K,D*02
$GPGGA,121333.65,5703.2870173,N,00952.0165770,E,2,6,1.8,-3.056,M,40.592,M,2.4,0123*58
$GPVTG,209.75,T,-430.15,M,004.540,N,008.408,K,D*00
$GPGGA,121333.70,5703.2869619,N,00952.0165202,E,2,6,1.8,-3.051,M,40.592,M,2.4,0123*58
$GPVTG,209.66,T,-430.24,M,004.550,N,008.426,K,D*0D
$GPGGA,121333.75,5703.2869103,N,00952.0164671,E,2,6,1.8,-3.047,M,40.592,M,2.4,0123*57
$GPVTG,209.45,T,-430.45,M,004.477,N,008.291,K,D*05
$GPGGA,121333.80,5703.2868528,N,00952.0164097,E,2,6,1.8,-3.043,M,40.592,M,2.4,0123*5B
$GPVTG,209.31,T,-430.59,M,004.532,N,008.393,K,D*08
$GPGGA,121333.85,5703.2867987,N,00952.0163497,E,2,6,1.8,-3.044,M,40.592,M,2.6,0123*5E
$GPVTG,209.93,T,-429.97,M,004.555,N,008.435,K,D*00
$GPGGA,121333.90,5703.2867470,N,00952.0162911,E,2,6,1.8,-3.037,M,40.592,M,2.6,0123*59
$GPVTG,210.47,T,-429.43,M,004.518,N,008.367,K,D*01
$GPGGA,121333.95,5703.2866964,N,00952.0162338,E,2,6,1.8,-3.031,M,40.592,M,2.6,0123*52
$GPVTG,210.84,T,-429.06,M,004.460,N,008.260,K,D*07
$GPGGA,121334.00,5703.2866427,N,00952.0161763,E,2,6,1.8,-3.028,M,40.592,M,2.6,0123*52
$GPVTG,210.82,T,-429.08,M,004.458,N,008.256,K,D*01
$GPGGA,121334.05,5703.2865898,N,00952.0161188,E,2,6,1.8,-3.023,M,40.592,M,2.8,0123*5A
$GPVTG,210.76,T,-429.14,M,004.473,N,008.285,K,D*00
$GPGGA,121334.10,5703.2865352,N,00952.0160595,E,2,6,1.8,-3.022,M,40.592,M,2.8,0123*5B
$GPVTG,210.88,T,-429.02,M,004.497,N,008.329,K,D*0B
$GPGGA,121334.15,5703.2864803,N,00952.0159987,E,2,6,1.8,-3.022,M,40.592,M,2.8,0123*55
$GPVTG,211.13,T,-428.77,M,004.533,N,008.395,K,D*03
$GPGGA,121334.20,5703.2864319,N,00952.0159395,E,2,6,1.8,-3.021,M,40.592,M,2.8,0123*59
$GPVTG,211.81,T,-428.09,M,004.455,N,008.251,K,D*09
$GPGGA,121334.25,5703.2863835,N,00952.0158823,E,2,6,1.8,-2.997,M,40.592,M,3.1,0123*54
$GPVTG,211.67,T,-428.23,M,004.450,N,008.241,K,D*0D
$GPGGA,121334.30,5703.2863246,N,00952.0158202,E,2,6,1.8,-2.997,M,40.592,M,3.1,0123*57
$GPVTG,211.44,T,-428.46,M,004.560,N,008.446,K,D*0C
$GPGGA,121334.35,5703.2862741,N,00952.0157613,E,2,6,1.8,-2.998,M,40.592,M,3.1,0123*55
$GPVTG,211.69,T,-428.21,M,004.506,N,008.345,K,D*06
$GPGGA,121334.40,5703.2862230,N,00952.0157015,E,2,6,1.8,-2.997,M,40.592,M,3.1,0123*5B
$GPVTG,211.98,T,-427.92,M,004.474,N,008.286,K,D*05
$GPGGA,121334.45,5703.2861785,N,00952.0156456,E,2,6,1.8,-2.970,M,40.592,M,3.3,0123*5F
$GPVTG,212.01,T,-427.89,M,004.397,N,008.144,K,D*0B
$GPGGA,121334.50,5703.2861262,N,00952.0155867,E,2,6,1.8,-2.964,M,40.592,M,3.3,0123*5F
$GPVTG,211.98,T,-427.92,M,004.392,N,008.134,K,D*00
$GPGGA,121334.55,5703.2860739,N,00952.0155318,E,2,6,1.8,-2.962,M,40.592,M,3.3,0123*55
$GPVTG,211.35,T,-428.55,M,004.362,N,008.078,K,D*05
$GPGGA,121334.60,5703.2860250,N,00952.0154716,E,2,6,1.8,-2.960,M,40.592,M,3.3,0123*50
$GPVTG,212.03,T,-427.87,M,004.325,N,008.010,K,D*0E
$GPGGA,121334.65,5703.2859764,N,00952.0154047,E,2,6,1.8,-2.956,M,40.592,M,3.5,0123*5D
$GPVTG,213.61,T,-426.29,M,004.347,N,008.050,K,D*0E
$GPGGA,121334.70,5703.2859302,N,00952.0153497,E,2,6,1.8,-2.951,M,40.592,M,3.5,0123*54
$GPVTG,213.49,T,-426.41,M,004.237,N,007.846,K,D*0C
$GPGGA,121334.75,5703.2858797,N,00952.0152933,E,2,6,1.8,-2.947,M,40.592,M,3.5,0123*5D
$GPVTG,213.06,T,-426.84,M,004.214,N,007.804,K,D*09
$GPGGA,121334.80,5703.2858309,N,00952.0152323,E,2,6,1.8,-2.944,M,40.592,M,3.5,0123*5C
$GPVTG,213.58,T,-426.32,M,004.208,N,007.794,K,D*04
$GPGGA,121334.85,5703.2857837,N,00952.0151718,E,2,6,1.8,-2.951,M,40.592,M,3.7,0123*59
$GPVTG,214.31,T,-425.59,M,004.157,N,007.699,K,D*07
$GPGGA,121334.90,5703.2857324,N,00952.0151125,E,2,6,1.8,-2.949,M,40.592,M,3.7,0123*55
$GPVTG,214.00,T,-425.90,M,004.187,N,007.754,K,D*0D
$GPGGA,121334.95,5703.2856860,N,00952.0150565,E,2,6,1.8,-2.947,M,40.592,M,3.7,0123*55
$GPVTG,213.86,T,-426.04,M,004.120,N,007.631,K,D*05
$GPGGA,121335.00,5703.2856396,N,00952.0150013,E,2,6,1.8,-2.949,M,40.592,M,3.7,0123*50
$GPVTG,213.65,T,-426.25,M,004.060,N,007.519,K,D*07
$GPGGA,121335.05,5703.2855930,N,00952.0149478,E,2,6,1.8,-2.935,M,40.592,M,3.9,0123*54
$GPVTG,213.40,T,-426.50,M,004.049,N,007.499,K,D*00
$GPGGA,121335.10,5703.2855514,N,00952.0148874,E,2,6,1.8,-2.933,M,40.592,M,3.9,0123*5D
$GPVTG,214.27,T,-425.63,M,003.983,N,007.376,K,D*0B
$GPGGA,121335.15,5703.2855013,N,00952.0148317,E,2,6,1.8,-2.932,M,40.592,M,3.9,0123*55
$GPVTG,213.81,T,-426.09,M,003.996,N,007.401,K,D*0C
$GPGGA,121335.20,5703.2854579,N,00952.0147732,E,2,6,1.8,-2.932,M,40.592,M,3.9,0123*57
$GPVTG,214.37,T,-425.53,M,003.952,N,007.319,K,D*0C
$GPGGA,121335.25,5703.2854184,N,00952.0147140,E,2,6,1.8,-2.912,M,40.592,M,4.1,0123*5A
$GPVTG,215.78,T,-424.12,M,003.929,N,007.276,K,D*06
$GPGGA,121335.30,5703.2853681,N,00952.0146595,E,2,6,1.8,-2.911,M,40.592,M,4.1,0123*55
$GPVTG,214.27,T,-425.63,M,003.971,N,007.355,K,D*07
$GPGGA,121335.35,5703.2853259,N,00952.0146048,E,2,6,1.8,-2.908,M,40.592,M,4.1,0123*5C
$GPVTG,214.47,T,-425.43,M,003.885,N,007.195,K,D*07
$GPGGA,121335.40,5703.2852819,N,00952.0145494,E,2,6,1.8,-2.905,M,40.592,M,4.1,0123*5A
$GPVTG,214.51,T,-425.39,M,003.851,N,007.133,K,D*08
$GPGGA,121335.45,5703.2852419,N,00952.0144905,E,2,6,1.8,-2.901,M,40.592,M,2.1,0123*55
$GPVTG,215.72,T,-424.18,M,003.808,N,007.053,K,D*01
$GPGGA,121335.50,5703.2851968,N,00952.0144343,E,2,6,1.8,-2.903,M,40.592,M,2.1,0123*53
$GPVTG,215.49,T,-424.41,M,003.816,N,007.067,K,D*0D
$GPGGA,121335.55,5703.2851533,N,00952.0143768,E,2,6,1.8,-2.905,M,40.592,M,2.1,0123*58
$GPVTG,215.78,T,-424.12,M,003.810,N,007.056,K,D*0D
$GPGGA,121335.60,5703.2851105,N,00952.0143192,E,2,6,1.8,-2.906,M,40.592,M,2.1,0123*5F
$GPVTG,216.13,T,-423.77,M,003.797,N,007.033,K,D*04
$GPGGA,121335.65,5703.2850736,N,00952.0142662,E,2,6,1.8,-2.897,M,40.592,M,2.4,0123*58
$GPVTG,215.69,T,-424.21,M,003.748,N,006.942,K,D*02
$GPGGA,121335.70,5703.2850333,N,00952.0142132,E,2,6,1.8,-2.898,M,40.592,M,2.4,0123*50
$GPVTG,215.79,T,-424.11,M,003.690,N,006.834,K,D*04
$GPGGA,121335.75,5703.2849922,N,00952.0141601,E,2,6,1.8,-2.900,M,40.592,M,2.4,0123*53
$GPVTG,215.73,T,-424.17,M,003.650,N,006.759,K,D*00
$GPGGA,121335.80,5703.2849498,N,00952.0141032,E,2,6,1.8,-2.906,M,40.592,M,2.4,0123*55
$GPVTG,215.97,T,-423.93,M,003.652,N,006.764,K,D*0D
$GPGGA,121335.85,5703.2849059,N,00952.0140538,E,2,6,1.8,-2.905,M,40.592,M,2.6,0123*56
$GPVTG,215.27,T,-424.63,M,003.668,N,006.793,K,D*0F
$GPGGA,121335.90,5703.2848639,N,00952.0139985,E,2,6,1.8,-2.909,M,40.592,M,2.6,0123*5B
$GPVTG,215.48,T,-424.42,M,003.671,N,006.799,K,D*07
$GPGGA,121335.95,5703.2848230,N,00952.0139466,E,2,6,1.8,-2.909,M,40.592,M,2.6,0123*53
$GPVTG,215.19,T,-424.71,M,003.628,N,006.719,K,D*07
$GPGGA,121336.00,5703.2847812,N,00952.0138947,E,2,6,1.8,-2.911,M,40.592,M,2.6,0123*5F
$GPVTG,214.83,T,-425.07,M,003.609,N,006.683,K,D*04
$GPGGA,121336.05,5703.2847484,N,00952.0138431,E,2,6,1.8,-2.890,M,40.592,M,2.9,0123*52
$GPVTG,215.54,T,-424.36,M,003.523,N,006.525,K,D*08
$GPGGA,121336.10,5703.2847085,N,00952.0137926,E,2,6,1.8,-2.890,M,40.592,M,2.9,0123*57
$GPVTG,215.26,T,-424.64,M,003.488,N,006.459,K,D*00
$GPGGA,121336.15,5703.2846705,N,00952.0137418,E,2,6,1.8,-2.891,M,40.592,M,2.9,0123*5D
$GPVTG,215.45,T,-424.45,M,003.436,N,006.363,K,D*0D
$GPGGA,121336.20,5703.2846319,N,00952.0136860,E,2,6,1.8,-2.891,M,40.592,M,2.9,0123*50
$GPVTG,216.42,T,-423.48,M,003.446,N,006.381,K,D*08
$GPGGA,121336.25,5703.2845901,N,00952.0136284,E,2,6,1.8,-2.902,M,40.592,M,3.1,0123*57
$GPVTG,216.02,T,-423.88,M,003.504,N,006.489,K,D*08
$GPGGA,121336.30,5703.2845496,N,00952.0135739,E,2,6,1.8,-2.906,M,40.592,M,3.1,0123*54
$GPVTG,216.20,T,-423.70,M,003.514,N,006.508,K,D*06
$GPGGA,121336.35,5703.2845138,N,00952.0135181,E,2,6,1.8,-2.911,M,40.592,M,3.1,0123*53
$GPVTG,217.18,T,-422.72,M,003.480,N,006.444,K,D*0A
$GPGGA,121336.40,5703.2844775,N,00952.0134707,E,2,6,1.8,-2.915,M,40.592,M,3.1,0123*52
$GPVTG,216.94,T,-422.96,M,003.406,N,006.307,K,D*0B
$GPGGA,121336.45,5703.2844381,N,00952.0134238,E,2,6,1.8,-2.909,M,40.592,M,2.4,0123*58
$GPVTG,216.34,T,-423.56,M,003.399,N,006.296,K,D*04
$GPGGA,121336.50,5703.2843939,N,00952.0133733,E,2,6,1.8,-2.911,M,40.592,M,2.4,0123*52
$GPVTG,215.01,T,-424.89,M,003.479,N,006.443,K,D*03
$GPGGA,121336.55,5703.2843533,N,00952.0133206,E,2,6,1.8,-2.913,M,40.592,M,2.4,0123*50
$GPVTG,215.09,T,-424.81,M,003.507,N,006.495,K,D*00
$GPGGA,121336.60,5703.2843154,N,00952.0132681,E,2,6,1.8,-2.917,M,40.592,M,2.4,0123*5D
$GPVTG,215.60,T,-424.30,M,003.486,N,006.457,K,D*03
$GPGGA,121336.65,5703.2842726,N,00952.0132177,E,2,6,1.8,-2.927,M,40.592,M,2.6,0123*55
$GPVTG,215.39,T,-424.51,M,003.473,N,006.433,K,D*00
$GPGGA,121336.70,5703.2842316,N,00952.0131682,E,2,6,1.8,-2.934,M,40.592,M,2.6,0123*5A
$GPVTG,214.93,T,-424.97,M,003.474,N,006.434,K,D*0B
$GPGGA,121336.75,5703.2841894,N,00952.0131135,E,2,6,1.8,-2.941,M,40.592,M,2.6,0123*54
$GPVTG,215.17,T,-424.73,M,003.521,N,006.522,K,D*0B
$GPGGA,121336.80,5703.2841509,N,00952.0130616,E,2,6,1.8,-2.951,M,40.592,M,2.6,0123*51
$GPVTG,215.37,T,-424.53,M,003.511,N,006.502,K,D*0A
$GPGGA,121336.85,5703.2841091,N,00952.0130052,E,2,6,1.8,-2.961,M,40.592,M,2.8,0123*5B
$GPVTG,215.79,T,-424.11,M,003.573,N,006.617,K,D*05
$GPGGA,121336.90,5703.2840711,N,00952.0129573,E,2,6,1.8,-2.968,M,40.592,M,2.8,0123*56
$GPVTG,215.32,T,-424.58,M,003.521,N,006.521,K,D*06
$GPGGA,121336.95,5703.2840280,N,00952.0129106,E,2,6,1.8,-2.976,M,40.592,M,2.8,0123*57
$GPVTG,214.11,T,-425.79,M,003.523,N,006.525,K,D*02
$GPGGA,121337.00,5703.2839910,N,00952.0128615,E,2,6,1.8,-2.982,M,40.592,M,2.8,0123*59
$GPVTG,214.19,T,-425.71,M,003.477,N,006.439,K,D*0E
$GPGGA,121337.05,5703.2839486,N,00952.0128057,E,2,6,1.8,-2.968,M,40.592,M,3.1,0123*52
$GPVTG,214.36,T,-425.54,M,003.551,N,006.577,K,D*0A
$GPGGA,121337.10,5703.2839060,N,00952.0127504,E,2,6,1.8,-2.975,M,40.592,M,3.1,0123*5A
$GPVTG,214.58,T,-425.32,M,003.596,N,006.660,K,D*0C
$GPGGA,121337.15,5703.2838643,N,00952.0127001,E,2,6,1.8,-2.980,M,40.592,M,3.1,0123*53
$GPVTG,214.28,T,-425.62,M,003.603,N,006.672,K,D*02
$GPGGA,121337.20,5703.2838211,N,00952.0126474,E,2,6,1.8,-2.985,M,40.592,M,3.1,0123*54
$GPVTG,214.15,T,-425.75,M,003.636,N,006.734,K,D*0F
$GPGGA,121337.25,5703.2837774,N,00952.0125984,E,2,6,1.8,-2.983,M,40.592,M,3.3,0123*5D
$GPVTG,214.23,T,-425.67,M,003.689,N,006.832,K,D*04
$GPGGA,121337.30,5703.2837349,N,00952.0125493,E,2,6,1.8,-2.989,M,40.592,M,3.3,0123*52
$GPVTG,213.37,T,-426.53,M,003.674,N,006.804,K,D*05
$GPGGA,121337.35,5703.2836883,N,00952.0124939,E,2,6,1.8,-2.994,M,40.592,M,3.3,0123*5B
$GPVTG,213.30,T,-426.60,M,003.788,N,007.015,K,D*09
$GPGGA,121337.40,5703.2836473,N,00952.0124400,E,2,6,1.8,-2.997,M,40.592,M,3.3,0123*5E
$GPVTG,213.83,T,-426.07,M,003.771,N,006.984,K,D*06
$GPGGA,121337.45,5703.2836087,N,00952.0123875,E,2,6,1.8,-3.002,M,40.592,M,2.2,0123*59
$GPVTG,213.81,T,-426.09,M,003.806,N,007.048,K,D*0D
$GPGGA,121337.50,5703.2835598,N,00952.0123323,E,2,6,1.8,-3.010,M,40.592,M,2.2,0123*5E
$GPVTG,213.55,T,-426.35,M,003.869,N,007.165,K,D*0C
$GPGGA,121337.55,5703.2835143,N,00952.0122830,E,2,6,1.8,-3.016,M,40.592,M,2.2,0123*57
$GPVTG,212.91,T,-426.99,M,003.877,N,007.180,K,D*07
$GPGGA,121337.60,5703.2834716,N,00952.0122319,E,2,6,1.8,-3.021,M,40.592,M,2.2,0123*52
$GPVTG,212.69,T,-427.21,M,003.866,N,007.160,K,D*0C
$GPGGA,121337.65,5703.2834208,N,00952.0121817,E,2,6,1.8,-3.018,M,40.592,M,2.4,0123*57
$GPVTG,212.17,T,-427.73,M,003.883,N,007.192,K,D*04
$GPGGA,121337.70,5703.2833709,N,00952.0121285,E,2,6,1.8,-3.024,M,40.592,M,2.4,0123*5E
$GPVTG,211.72,T,-428.18,M,003.944,N,007.304,K,D*01
$GPGGA,121337.75,5703.2833191,N,00952.0120764,E,2,6,1.8,-3.028,M,40.592,M,2.4,0123*5B
$GPVTG,210.98,T,-428.92,M,004.013,N,007.433,K,D*09
$GPGGA,121337.80,5703.2832724,N,00952.0120285,E,2,6,1.8,-3.029,M,40.592,M,2.4,0123*53
$GPVTG,210.14,T,-429.76,M,004.003,N,007.413,K,D*05
$GPGGA,121337.85,5703.2832261,N,00952.0119750,E,2,6,1.8,-3.045,M,40.592,M,2.6,0123*5D
$GPVTG,210.08,T,-429.82,M,004.052,N,007.504,K,D*00
$GPGGA,121337.90,5703.2831781,N,00952.0119198,E,2,6,1.8,-3.053,M,40.592,M,2.6,0123*54
$GPVTG,210.35,T,-429.55,M,004.090,N,007.575,K,D*0C
$GPGGA,121337.95,5703.2831252,N,00952.0118627,E,2,6,1.8,-3.062,M,40.592,M,2.6,0123*5A
$GPVTG,210.41,T,-429.49,M,004.188,N,007.757,K,D*08
$GPGGA,121338.00,5703.2830783,N,00952.0118093,E,2,6,1.8,-3.069,M,40.592,M,2.6,0123*53
$GPVTG,210.48,T,-429.42,M,004.182,N,007.745,K,D*03
$GPGGA,121338.05,5703.2830283,N,00952.0117534,E,2,6,1.8,-3.063,M,40.592,M,2.8,0123*50
$GPVTG,210.03,T,-429.87,M,004.257,N,007.884,K,D*0C
$GPGGA,121338.10,5703.2829755,N,00952.0117043,E,2,6,1.8,-3.071,M,40.592,M,2.8,0123*54
$GPVTG,209.04,T,-430.86,M,004.281,N,007.929,K,D*07
$GPGGA,121338.15,5703.2829256,N,00952.0116495,E,2,6,1.8,-3.077,M,40.592,M,2.8,0123*5F
$GPVTG,209.23,T,-430.67,M,004.300,N,007.964,K,D*0C
$GPGGA,121338.20,5703.2828743,N,00952.0115902,E,2,6,1.8,-3.081,M,40.592,M,2.8,0123*50
$GPVTG,209.86,T,-430.04,M,004.356,N,008.067,K,D*00
$GPGGA,121338.25,5703.2828238,N,00952.0115343,E,2,6,1.8,-3.071,M,40.592,M,3.1,0123*54
$GPVTG,209.44,T,-430.46,M,004.423,N,008.192,K,D*06
$GPGGA,121338.30,5703.2827724,N,00952.0114805,E,2,6,1.8,-3.075,M,40.592,M,3.1,0123*5B
$GPVTG,209.30,T,-430.60,M,004.425,N,008.195,K,D*00
$GPGGA,121338.35,5703.2827182,N,00952.0114276,E,2,6,1.8,-3.081,M,40.592,M,3.1,0123*51
$GPVTG,208.82,T,-431.08,M,004.453,N,008.246,K,D*0B
$GPGGA,121338.40,5703.2826669,N,00952.0113712,E,2,6,1.8,-3.083,M,40.592,M,3.1,0123*52
$GPVTG,209.14,T,-430.76,M,004.460,N,008.260,K,D*09
$GPGGA,121338.45,5703.2826220,N,00952.0113168,E,2,6,1.8,-3.056,M,40.592,M,3.3,0123*5F
$GPVTG,208.95,T,-430.95,M,004.421,N,008.188,K,D*0C
$GPGGA,121338.50,5703.2825693,N,00952.0112601,E,2,6,1.8,-3.057,M,40.592,M,3.3,0123*5C
$GPVTG,209.35,T,-430.55,M,004.438,N,008.219,K,D*08
$GPGGA,121338.55,5703.2825165,N,00952.0111992,E,2,6,1.8,-3.059,M,40.592,M,3.3,0123*5F
$GPVTG,210.25,T,-429.65,M,004.485,N,008.306,K,D*03
$GPGGA,121338.60,5703.2824580,N,00952.0111441,E,2,6,1.8,-3.062,M,40.592,M,3.3,0123*5C
$GPVTG,209.38,T,-430.52,M,004.572,N,008.467,K,D*02
$GPGGA,121338.65,5703.2824073,N,00952.0110892,E,2,6,1.8,-3.055,M,40.592,M,3.5,0123*51
$GPVTG,208.94,T,-430.96,M,004.540,N,008.409,K,D*04
$GPGGA,121338.70,5703.2823499,N,00952.0110354,E,2,6,1.8,-3.058,M,40.592,M,3.5,0123*5E
$GPVTG,208.26,T,-431.64,M,004.586,N,008.494,K,D*0F
$GPGGA,121338.75,5703.2822892,N,00952.0109795,E,2,6,1.8,-3.063,M,40.592,M,3.5,0123*54
$GPVTG,207.70,T,-432.20,M,004.688,N,008.682,K,D*08
$GPGGA,121338.80,5703.2822380,N,00952.0109207,E,2,6,1.8,-3.067,M,40.592,M,3.5,0123*5C
$GPVTG,208.62,T,-431.28,M,004.645,N,008.603,K,D*07
$GPGGA,121338.85,5703.2821874,N,00952.0108659,E,2,6,1.8,-3.047,M,40.592,M,3.7,0123*54
$GPVTG,208.11,T,-431.79,M,004.637,N,008.587,K,D*0D
$GPGGA,121338.90,5703.2821331,N,00952.0108030,E,2,6,1.8,-3.045,M,40.592,M,3.7,0123*51
$GPVTG,209.30,T,-430.60,M,004.666,N,008.642,K,D*08
$GPGGA,121338.95,5703.2820775,N,00952.0107446,E,2,6,1.8,-3.043,M,40.592,M,3.7,0123*5D
$GPVTG,209.46,T,-430.44,M,004.679,N,008.665,K,D*04
$GPGGA,121339.00,5703.2820210,N,00952.0106865,E,2,6,1.8,-3.045,M,40.592,M,3.7,0123*5C
$GPVTG,209.45,T,-430.45,M,004.697,N,008.699,K,D*05
$GPGGA,121339.05,5703.2819663,N,00952.0106285,E,2,6,1.8,-3.041,M,40.592,M,3.9,0123*5D
$GPVTG,209.03,T,-430.87,M,004.704,N,008.711,K,D*03
$GPGGA,121339.10,5703.2819072,N,00952.0105736,E,2,6,1.8,-3.040,M,40.592,M,3.9,0123*50
$GPVTG,208.35,T,-431.55,M,004.734,N,008.767,K,D*0B
$GPGGA,121339.15,5703.2818470,N,00952.0105196,E,2,6,1.8,-3.038,M,40.592,M,3.9,0123*51
$GPVTG,207.56,T,-432.34,M,004.770,N,008.834,K,D*0C
$GPGGA,121339.20,5703.2817876,N,00952.0104584,E,2,6,1.8,-3.036,M,40.592,M,3.9,0123*5A
$GPVTG,208.01,T,-431.89,M,004.833,N,008.950,K,D*0F
$GPGGA,121339.25,5703.2817422,N,00952.0103972,E,2,6,1.8,-3.013,M,40.592,M,4.1,0123*58
$GPVTG,209.12,T,-430.78,M,004.713,N,008.729,K,D*0E
$GPGGA,121339.30,5703.2816881,N,00952.0103389,E,2,6,1.8,-3.009,M,40.592,M,4.1,0123*5D
$GPVTG,209.47,T,-430.43,M,004.677,N,008.661,K,D*08
$GPGGA,121339.35,5703.2816274,N,00952.0102841,E,2,6,1.8,-3.007,M,40.592,M,4.1,0123*58
$GPVTG,208.59,T,-431.31,M,004.721,N,008.743,K,D*01
$GPGGA,121339.40,5703.2815710,N,00952.0102239,E,2,6,1.8,-3.003,M,40.592,M,4.1,0123*5F
$GPVTG,209.03,T,-430.87,M,004.730,N,008.760,K,D*02
$GPGGA,121339.45,5703.2815151,N,00952.0101695,E,2,6,1.8,-3.000,M,40.592,M,2.1,0123*5D
$GPVTG,208.25,T,-431.65,M,004.674,N,008.657,K,D*0E
$GPGGA,121339.50,5703.2814551,N,00952.0101173,E,2,6,1.8,-2.999,M,40.592,M,2.1,0123*5B
$GPVTG,207.28,T,-432.62,M,004.695,N,008.695,K,D*09
$GPGGA,121339.55,5703.2813947,N,00952.0100554,E,2,6,1.8,-3.001,M,40.592,M,2.1,0123*5B
$GPVTG,207.84,T,-432.06,M,004.780,N,008.853,K,D*0C
$GPGGA,121339.60,5703.2813439,N,00952.0099935,E,2,6,1.8,-3.003,M,40.592,M,2.1,0123*51
$GPVTG,209.23,T,-430.67,M,004.708,N,008.720,K,D*01
$GPGGA,121339.65,5703.2812871,N,00952.0099340,E,2,6,1.8,-2.985,M,40.592,M,2.4,0123*5E
$GPVTG,208.76,T,-431.14,M,004.771,N,008.835,K,D*00
$GPGGA,121339.70,5703.2812329,N,00952.0098755,E,2,6,1.8,-2.983,M,40.592,M,2.4,0123*5B
$GPVTG,209.20,T,-430.70,M,004.722,N,008.746,K,D*0C
$GPGGA,121339.75,5703.2811749,N,00952.0098169,E,2,6,1.8,-2.981,M,40.592,M,2.4,0123*54
$GPVTG,209.19,T,-430.71,M,004.738,N,008.776,K,D*0F
$GPGGA,121339.80,5703.2811157,N,00952.0097669,E,2,6,1.8,-2.976,M,40.592,M,2.4,0123*57
$GPVTG,207.82,T,-432.08,M,004.716,N,008.735,K,D*04
$GPGGA,121339.85,5703.2810622,N,00952.0097090,E,2,6,1.8,-2.963,M,40.592,M,2.6,0123*50
$GPVTG,207.87,T,-432.03,M,004.687,N,008.681,K,D*0D
$GPGGA,121339.90,5703.2810073,N,00952.0096504,E,2,6,1.8,-2.962,M,40.592,M,2.6,0123*5E
$GPVTG,208.42,T,-431.48,M,004.663,N,008.635,K,D*02
$GPGGA,121339.95,5703.2809475,N,00952.0095935,E,2,6,1.8,-2.959,M,40.592,M,2.6,0123*54
$GPVTG,208.17,T,-431.73,M,004.706,N,008.715,K,D*0B
$GPGGA,121340.00,5703.2808891,N,00952.0095352,E,2,6,1.8,-2.959,M,40.592,M,2.6,0123*5A
$GPVTG,208.29,T,-431.61,M,004.731,N,008.762,K,D*01
$GPGGA,121340.05,5703.2808375,N,00952.0094749,E,2,6,1.8,-2.954,M,40.592,M,2.9,0123*53
$GPVTG,209.01,T,-430.89,M,004.655,N,008.621,K,D*08
$GPGGA,121340.10,5703.2807777,N,00952.0094148,E,2,6,1.8,-2.954,M,40.592,M,2.9,0123*59
$GPVTG,209.09,T,-430.81,M,004.719,N,008.740,K,D*07
$GPGGA,121340.15,5703.2807224,N,00952.0093614,E,2,6,1.8,-2.952,M,40.592,M,2.9,0123*50
$GPVTG,208.66,T,-431.24,M,004.664,N,008.637,K,D*0B
$GPGGA,121340.20,5703.2806650,N,00952.0093065,E,2,6,1.8,-2.949,M,40.592,M,2.9,0123*5A
$GPVTG,208.31,T,-431.59,M,004.657,N,008.624,K,D*01
$GPGGA,121340.25,5703.2806096,N,00952.0092449,E,2,6,1.8,-2.946,M,40.592,M,3.1,0123*5E
$GPVTG,208.84,T,-431.06,M,004.658,N,008.626,K,D*08
$GPGGA,121340.30,5703.2805526,N,00952.0091844,E,2,6,1.8,-2.948,M,40.592,M,3.1,0123*5B
$GPVTG,209.30,T,-430.60,M,004.683,N,008.672,K,D*00
$GPGGA,121340.35,5703.2804933,N,00952.0091301,E,2,6,1.8,-2.950,M,40.592,M,3.1,0123*54