$GPGGA,100012.70,5703.4539319,N,00952.4696868,E,2,11,0.8,-1.716,M,40.593,M,2.4,0123*69\r\n
$GPGGA,100012.75,5703.4539565,N,00952.4696650,E,2,11,0.8,-1.719,M,40.593,M,2.4,0123*6B\r\n
$GPGGA,100012.80,5703.4539808,N,00952.4696434,E,2,11,0.8,-1.721,M,40.593,M,2.4,0123*6C\r\n
$GPGGA,100012.85,5703.4540058,N,00952.4696222,E,2,11,0.8,-1.716,M,40.593,M,2.6,0123*6D\r\n
$GPGGA,100012.90,5703.4540305,N,00952.4696021,E,2,11,0.8,-1.715,M,40.593,M,2.6,0123*60\r\n
$GPGGA,100012.95,5703.4540544,N,00952.4695811,E,2,11,0.8,-1.714,M,40.593,M,2.6,0123*6F\r\n
$GPGGA,100013.00,5703.4540786,N,00952.4695596,E,2,11,0.8,-1.717,M,40.593,M,2.6,0123*6F\r\n
$GPGGA,100013.05,5703.4541015,N,00952.4695374,E,2,11,0.8,-1.720,M,40.593,M,2.8,0123*66\r\n
$GPGGA,100013.10,5703.4541254,N,00952.4695167,E,2,11,0.8,-1.720,M,40.593,M,2.8,0123*65\r\n
$GPGGA,100013.15,5703.4541492,N,00952.4694959,E,2,11,0.8,-1.719,M,40.593,M,2.8,0123*62\r\n
$GPGGA,100013.20,5703.4541742,N,00952.4694736,E,2,11,0.8,-1.718,M,40.593,M,2.8,0123*6C\r\n
$GPGGA,100013.25,5703.4541995,N,00952.4694528,E,2,11,0.8,-1.719,M,40.593,M,3.0,0123*68\r\n
$GPGGA,100013.30,5703.4542237,N,00952.4694333,E,2,11,0.8,-1.719,M,40.593,M,3.0,0123*60\r\n
$GPGGA,100013.35,5703.4542480,N,00952.4694131,E,2,11,0.8,-1.721,M,40.593,M,3.0,0123*64\r\n
$GPGGA,100013.40,5703.4542722,N,00952.4693931,E,2,11,0.8,-1.721,M,40.593,M,3.0,0123*62\r\n
$GPGGA,100013.45,5703.4542975,N,00952.4693711,E,2,11,0.8,-1.720,M,40.593,M,2.4,0123*63\r\n
$GPGGA,100013.50,5703.4543228,N,00952.4693492,E,2,11,0.8,-1.719,M,40.593,M,2.4,0123*67\r\n
$GPGGA,100013.55,5703.4543482,N,00952.4693292,E,2,11,0.8,-1.719,M,40.593,M,2.4,0123*62\r\n
$GPGGA,100013.60,5703.4543735,N,00952.4693091,E,2,11,0.8,-1.720,M,40.593,M,2.4,0123*60\r\n
$GPGGA,100013.65,5703.4543990,N,00952.4692883,E,2,11,0.8,-1.720,M,40.593,M,2.6,0123*6C\r\n
$GPGGA,100013.70,5703.4544246,N,00952.4692686,E,2,11,0.8,-1.722,M,40.593,M,2.6,0123*66\r\n
$GPGGA,100013.75,5703.4544508,N,00952.4692477,E,2,11,0.8,-1.724,M,40.593,M,2.6,0123*64\r\n
$GPGGA,100013.80,5703.4544760,N,00952.4692262,E,2,11,0.8,-1.725,M,40.593,M,2.6,0123*61\r\n
$GPGGA,100013.85,5703.4545006,N,00952.4692050,E,2,11,0.8,-1.727,M,40.593,M,2.9,0123*6C\r\n
$GPGGA,100013.90,5703.4545251,N,00952.4691831,E,2,11,0.8,-1.728,M,40.593,M,2.9,0123*6B\r\n
$GPGGA,100013.95,5703.4545499,N,00952.4691612,E,2,11,0.8,-1.729,M,40.593,M,2.9,0123*62\r\n
$GPGGA,100014.00,5703.4545748,N,00952.4691389,E,2,11,0.8,-1.729,M,40.593,M,2.9,0123*61\r\n
$GPGGA,100014.05,5703.4545989,N,00952.4691153,E,2,11,0.8,-1.728,M,40.593,M,3.1,0123*6A\r\n
$GPGGA,100014.10,5703.4546244,N,00952.4690931,E,2,11,0.8,-1.727,M,40.593,M,3.1,0123*65\r\n
$GPGGA,100014.15,5703.4546493,N,00952.4690722,E,2,11,0.8,-1.727,M,40.593,M,3.1,0123*60\r\n
$GPGGA,100014.20,5703.4546747,N,00952.4690507,E,2,11,0.8,-1.726,M,40.593,M,3.1,0123*68\r\n
$GPGGA,100014.25,5703.4547000,N,00952.4690292,E,2,11,0.8,-1.726,M,40.593,M,3.3,0123*61\r\n
$GPGGA,100014.30,5703.4547259,N,00952.4690078,E,2,11,0.8,-1.724,M,40.593,M,3.3,0123*6F\r\n
$GPGGA,100014.35,5703.4547520,N,00952.4689866,E,2,11,0.8,-1.721,M,40.593,M,3.3,0123*69\r\n
$GPGGA,100014.40,5703.4547767,N,00952.4689655,E,2,11,0.8,-1.718,M,40.593,M,3.3,0123*6E\r\n
$GPGGA,100014.45,5703.4548014,N,00952.4689446,E,2,11,0.8,-1.715,M,40.593,M,3.5,0123*6C\r\n
$GPGGA,100014.50,5703.4548258,N,00952.4689252,E,2,11,0.8,-1.713,M,40.593,M,3.5,0123*67\r\n
$GPGGA,100014.55,5703.4548517,N,00952.4689051,E,2,11,0.8,-1.711,M,40.593,M,3.5,0123*6D\r\n
$GPGGA,100014.60,5703.4548780,N,00952.4688850,E,2,11,0.8,-1.708,M,40.593,M,3.5,0123*67\r\n
$GPGGA,100014.65,5703.4549031,N,00952.4688647,E,2,11,0.8,-1.711,M,40.593,M,3.7,0123*6C\r\n
$GPGGA,100014.70,5703.4549291,N,00952.4688441,E,2,11,0.8,-1.709,M,40.593,M,3.7,0123*6D\r\n
$GPGGA,100014.75,5703.4549547,N,00952.4688257,E,2,11,0.8,-1.706,M,40.593,M,3.7,0123*6A\r\n
$GPGGA,100014.80,5703.4549810,N,00952.4688063,E,2,11,0.8,-1.703,M,40.593,M,3.7,0123*6F\r\n
$GPGGA,100014.85,5703.4550073,N,00952.4687854,E,2,11,0.8,-1.701,M,40.593,M,3.9,0123*60\r\n
$GPGGA,100014.90,5703.4550327,N,00952.4687652,E,2,11,0.8,-1.700,M,40.593,M,3.9,0123*6F\r\n
$GPGGA,100014.95,5703.4550587,N,00952.4687447,E,2,11,0.8,-1.700,M,40.593,M,3.9,0123*60\r\n
$GPGGA,100015.00,5703.4550856,N,00952.4687253,E,2,11,0.8,-1.701,M,40.593,M,3.9,0123*6E\r\n
$GPGGA,100015.05,5703.4551108,N,00952.4687048,E,2,11,0.8,-1.700,M,40.593,M,4.1,0123*6E\r\n
$GPGGA,100015.10,5703.4551370,N,00952.4686872,E,2,11,0.8,-1.700,M,40.593,M,4.1,0123*67\r\n
$GPGGA,100015.15,5703.4551632,N,00952.4686683,E,2,11,0.8,-1.699,M,40.593,M,4.1,0123*60\r\n
$GPGGA,100015.20,5703.4551890,N,00952.4686481,E,2,11,0.8,-1.699,M,40.593,M,4.1,0123*60\r\n
$GPGGA,100015.25,5703.4552143,N,00952.4686279,E,2,11,0.8,-1.703,M,40.593,M,4.3,0123*60\r\n
$GPGGA,100015.30,5703.4552392,N,00952.4686085,E,2,11,0.8,-1.706,M,40.593,M,4.3,0123*6E\r\n
$GPGGA,100015.35,5703.4552649,N,00952.4685885,E,2,11,0.8,-1.709,M,40.593,M,4.3,0123*6C\r\n
$GPGGA,100015.40,5703.4552894,N,00952.4685696,E,2,11,0.8,-1.712,M,40.593,M,4.3,0123*66\r\n
$GPGGA,100015.45,5703.4553143,N,00952.4685495,E,2,11,0.8,-1.715,M,40.593,M,0.9,0123*69\r\n
$GPGGA,100015.50,5703.4553397,N,00952.4685283,E,2,11,0.8,-1.716,M,40.593,M,0.9,0123*64\r\n
$GPGGA,100015.55,5703.4553652,N,00952.4685072,E,2,11,0.8,-1.719,M,40.593,M,0.9,0123*6E\r\n
$GPGGA,100015.60,5703.4553903,N,00952.4684855,E,2,11,0.8,-1.723,M,40.593,M,0.9,0123*66\r\n
$GPGGA,100015.65,5703.4554157,N,00952.4684654,E,2,11,0.8,-1.725,M,40.593,M,1.2,0123*6E\r\n
$GPGGA,100015.70,5703.4554412,N,00952.4684449,E,2,11,0.8,-1.727,M,40.593,M,1.2,0123*62\r\n
$GPGGA,100015.75,5703.4554665,N,00952.4684240,E,2,11,0.8,-1.730,M,40.593,M,1.2,0123*6C\r\n
$GPGGA,100015.80,5703.4554915,N,00952.4684034,E,2,11,0.8,-1.732,M,40.593,M,1.2,0123*6D\r\n
$GPGGA,100015.85,5703.4555179,N,00952.4683846,E,2,11,0.8,-1.731,M,40.593,M,1.4,0123*64\r\n
$GPGGA,100015.90,5703.4555434,N,00952.4683650,E,2,11,0.8,-1.729,M,40.593,M,1.4,0123*6C\r\n
$GPGGA,100015.95,5703.4555691,N,00952.4683466,E,2,11,0.8,-1.730,M,40.593,M,1.4,0123*6B\r\n
$GPGGA,100016.00,5703.4555953,N,00952.4683275,E,2,11,0.8,-1.730,M,40.593,M,1.4,0123*61\r\n
$GPGGA,100016.05,5703.4556215,N,00952.4683075,E,2,11,0.8,-1.728,M,40.593,M,1.7,0123*66\r\n
$GPGGA,100016.10,5703.4556475,N,00952.4682887,E,2,11,0.8,-1.726,M,40.593,M,1.7,0123*68\r\n
$GPGGA,100016.15,5703.4556737,N,00952.4682703,E,2,11,0.8,-1.725,M,40.593,M,1.7,0123*68\r\n
$GPGGA,100016.20,5703.4557012,N,00952.4682508,E,2,11,0.8,-1.720,M,40.593,M,1.7,0123*63\r\n
$GPGGA,100016.25,5703.4557287,N,00952.4682323,E,2,11,0.8,-1.717,M,40.593,M,1.9,0123*6D\r\n
$GPGGA,100016.30,5703.4557556,N,00952.4682136,E,2,11,0.8,-1.716,M,40.593,M,1.9,0123*65\r\n
$GPGGA,100016.35,5703.4557820,N,00952.4681944,E,2,11,0.8,-1.715,M,40.593,M,1.9,0123*61\r\n
$GPGGA,100016.40,5703.4558085,N,00952.4681755,E,2,11,0.8,-1.714,M,40.593,M,1.9,0123*64\r\n
$GPGGA,100016.45,5703.4558345,N,00952.4681563,E,2,11,0.8,-1.710,M,40.593,M,1.1,0123*65\r\n
$GPGGA,100016.50,5703.4558612,N,00952.4681364,E,2,11,0.8,-1.710,M,40.593,M,1.1,0123*67\r\n
$GPGGA,100016.55,5703.4558883,N,00952.4681173,E,2,11,0.8,-1.707,M,40.593,M,1.1,0123*66\r\n
$GPGGA,100016.60,5703.4559143,N,00952.4680988,E,2,11,0.8,-1.706,M,40.593,M,1.1,0123*68\r\n
$GPGGA,100016.65,5703.4559410,N,00952.4680808,E,2,11,0.8,-1.705,M,40.593,M,1.4,0123*61\r\n
$GPGGA,100016.70,5703.4559675,N,00952.4680607,E,2,11,0.8,-1.703,M,40.593,M,1.4,0123*63\r\n
$GPGGA,100016.75,5703.4559945,N,00952.4680423,E,2,11,0.8,-1.704,M,40.593,M,1.4,0123*69\r\n
$GPGGA,100016.80,5703.4560207,N,00952.4680231,E,2,11,0.8,-1.705,M,40.593,M,1.4,0123*60\r\n
$GPGGA,100016.85,5703.4560474,N,00952.4680041,E,2,11,0.8,-1.705,M,40.593,M,1.7,0123*61\r\n
$GPGGA,100016.90,5703.4560744,N,00952.4679840,E,2,11,0.8,-1.706,M,40.593,M,1.7,0123*69\r\n
$GPGGA,100016.95,5703.4561008,N,00952.4679634,E,2,11,0.8,-1.705,M,40.593,M,1.7,0123*6C\r\n
$GPGGA,100017.00,5703.4561263,N,00952.4679439,E,2,11,0.8,-1.706,M,40.593,M,1.7,0123*62\r\n
$GPGGA,100017.05,5703.4561525,N,00952.4679227,E,2,11,0.8,-1.710,M,40.593,M,1.9,0123*62\r\n
$GPGGA,100017.10,5703.4561789,N,00952.4679043,E,2,11,0.8,-1.713,M,40.593,M,1.9,0123*61\r\n
$GPGGA,100017.15,5703.4562051,N,00952.4678851,E,2,11,0.8,-1.714,M,40.593,M,1.9,0123*68\r\n
$GPGGA,100017.20,5703.4562309,N,00952.4678661,E,2,11,0.8,-1.716,M,40.593,M,1.9,0123*6F\r\n
$GPGGA,100017.25,5703.4562576,N,00952.4678448,E,2,11,0.8,-1.715,M,40.593,M,2.2,0123*66\r\n
$GPGGA,100017.30,5703.4562840,N,00952.4678257,E,2,11,0.8,-1.717,M,40.593,M,2.2,0123*60\r\n
$GPGGA,100017.35,5703.4563108,N,00952.4678073,E,2,11,0.8,-1.716,M,40.593,M,2.2,0123*64\r\n
$GPGGA,100017.40,5703.4563376,N,00952.4677882,E,2,11,0.8,-1.716,M,40.593,M,2.2,0123*64\r\n
$GPGGA,100017.45,5703.4563632,N,00952.4677689,E,2,11,0.8,-1.718,M,40.593,M,2.4,0123*69\r\n
$GPGGA,100017.50,5703.4563895,N,00952.4677497,E,2,11,0.8,-1.718,M,40.593,M,2.4,0123*63\r\n
$GPGGA,100017.55,5703.4564167,N,00952.4677306,E,2,11,0.8,-1.718,M,40.593,M,2.4,0123*6A\r\n
$GPGGA,100017.60,5703.4564438,N,00952.4677114,E,2,11,0.8,-1.716,M,40.593,M,2.4,0123*6C\r\n
$GPGGA,100017.65,5703.4564700,N,00952.4676928,E,2,11,0.8,-1.717,M,40.593,M,2.6,0123*64\r\n
$GPGGA,100017.70,5703.4564972,N,00952.4676754,E,2,11,0.8,-1.718,M,40.593,M,2.6,0123*61\r\n
$GPGGA,100017.75,5703.4565245,N,00952.4676570,E,2,11,0.8,-1.718,M,40.593,M,2.6,0123*6E\r\n
$GPGGA,100017.80,5703.4565513,N,00952.4676390,E,2,11,0.8,-1.719,M,40.593,M,2.6,0123*69\r\n
$GPGGA,100017.85,5703.4565783,N,00952.4676200,E,2,11,0.8,-1.717,M,40.593,M,2.9,0123*6E\r\n
$GPGGA,100017.90,5703.4566053,N,00952.4676014,E,2,11,0.8,-1.717,M,40.593,M,2.9,0123*64\r\n
$GPGGA,100017.95,5703.4566323,N,00952.4675826,E,2,11,0.8,-1.716,M,40.593,M,2.9,0123*6E\r\n
$GPGGA,100018.00,5703.4566593,N,00952.4675639,E,2,11,0.8,-1.717,M,40.593,M,2.9,0123*61\r\n
$GPGGA,100018.05,5703.4566856,N,00952.4675456,E,2,11,0.8,-1.715,M,40.593,M,3.1,0123*60\r\n
$GPGGA,100018.10,5703.4567129,N,00952.4675274,E,2,11,0.8,-1.717,M,40.593,M,3.1,0123*60\r\n
$GPGGA,100018.15,5703.4567396,N,00952.4675071,E,2,11,0.8,-1.717,M,40.593,M,3.1,0123*64\r\n
$GPGGA,100018.20,5703.4567676,N,00952.4674875,E,2,11,0.8,-1.717,M,40.593,M,3.1,0123*64\r\n
$GPGGA,100018.25,5703.4567956,N,00952.4674693,E,2,11,0.8,-1.717,M,40.593,M,3.3,0123*68\r\n
$GPGGA,100018.30,5703.4568231,N,00952.4674515,E,2,11,0.8,-1.717,M,40.593,M,3.3,0123*64\r\n
$GPGGA,100018.35,5703.4568504,N,00952.4674339,E,2,11,0.8,-1.714,M,40.593,M,3.3,0123*6B\r\n
$GPGGA,100018.40,5703.4568773,N,00952.4674150,E,2,11,0.8,-1.711,M,40.593,M,3.3,0123*63\r\n
$GPGGA,100018.45,5703.4569041,N,00952.4673954,E,2,11,0.8,-1.712,M,40.593,M,0.7,0123*6E\r\n
$GPGGA,100018.50,5703.4569307,N,00952.4673760,E,2,11,0.8,-1.709,M,40.593,M,0.7,0123*68\r\n
$GPGGA,100018.55,5703.4569575,N,00952.4673564,E,2,11,0.8,-1.708,M,40.593,M,0.7,0123*69\r\n
$GPGGA,100018.60,5703.4569840,N,00952.4673370,E,2,11,0.8,-1.708,M,40.593,M,0.7,0123*67\r\n
$GPGGA,100018.65,5703.4570111,N,00952.4673183,E,2,11,0.8,-1.707,M,40.593,M,1.0,0123*60\r\n
$GPGGA,100018.70,5703.4570374,N,00952.4673001,E,2,11,0.8,-1.704,M,40.593,M,1.0,0123*6D\r\n
$GPGGA,100018.75,5703.4570632,N,00952.4672807,E,2,11,0.8,-1.701,M,40.593,M,1.0,0123*65\r\n
$GPGGA,100018.80,5703.4570896,N,00952.4672616,E,2,11,0.8,-1.700,M,40.593,M,1.0,0123*60\r\n
$GPGGA,100018.85,5703.4571162,N,00952.4672420,E,2,11,0.8,-1.698,M,40.593,M,1.3,0123*62\r\n
$GPGGA,100018.90,5703.4571424,N,00952.4672223,E,2,11,0.8,-1.695,M,40.593,M,1.3,0123*69\r\n
$GPGGA,100018.95,5703.4571689,N,00952.4672031,E,2,11,0.8,-1.695,M,40.593,M,1.3,0123*68\r\n
$GPGGA,100019.00,5703.4571957,N,00952.4671850,E,2,11,0.8,-1.694,M,40.593,M,1.3,0123*64\r\n
$GPGGA,100019.05,5703.4572209,N,00952.4671651,E,2,11,0.8,-1.696,M,40.593,M,1.6,0123*6A\r\n
$GPGGA,100019.10,5703.4572470,N,00952.4671452,E,2,11,0.8,-1.697,M,40.593,M,1.6,0123*66\r\n
$GPGGA,100019.15,5703.4572728,N,00952.4671250,E,2,11,0.8,-1.699,M,40.593,M,1.6,0123*67\r\n
$GPGGA,100019.20,5703.4572988,N,00952.4671053,E,2,11,0.8,-1.700,M,40.593,M,1.6,0123*65\r\n
$GPGGA,100019.25,5703.4573254,N,00952.4670869,E,2,11,0.8,-1.701,M,40.593,M,1.8,0123*64\r\n
$GPGGA,100019.30,5703.4573525,N,00952.4670675,E,2,11,0.8,-1.701,M,40.593,M,1.8,0123*62\r\n
$GPGGA,100019.35,5703.4573793,N,00952.4670485,E,2,11,0.8,-1.703,M,40.593,M,1.8,0123*67\r\n
$GPGGA,100019.40,5703.4574052,N,00952.4670289,E,2,11,0.8,-1.704,M,40.593,M,1.8,0123*65\r\n
$GPGGA,100019.45,5703.4574315,N,00952.4670089,E,2,11,0.8,-1.704,M,40.593,M,0.9,0123*62\r\n
$GPGGA,100019.50,5703.4574580,N,00952.4669890,E,2,11,0.8,-1.707,M,40.593,M,0.9,0123*67\r\n
$GPGGA,100019.55,5703.4574842,N,00952.4669695,E,2,11,0.8,-1.708,M,40.593,M,0.9,0123*65\r\n
$GPGGA,100019.60,5703.4575100,N,00952.4669510,E,2,11,0.8,-1.710,M,40.593,M,0.9,0123*6A\r\n
$GPGGA,100019.65,5703.4575362,N,00952.4669323,E,2,11,0.8,-1.713,M,40.593,M,1.2,0123*66\r\n
$GPGGA,100019.70,5703.4575624,N,00952.4669129,E,2,11,0.8,-1.713,M,40.593,M,1.2,0123*6D\r\n
$GPGGA,100019.75,5703.4575885,N,00952.4668938,E,2,11,0.8,-1.715,M,40.593,M,1.2,0123*62\r\n
$GPGGA,100019.80,5703.4576145,N,00952.4668739,E,2,11,0.8,-1.716,M,40.593,M,1.2,0123*62\r\n
$GPGGA,100019.85,5703.4576410,N,00952.4668547,E,2,11,0.8,-1.715,M,40.593,M,1.4,0123*6C\r\n
$GPGGA,100019.90,5703.4576674,N,00952.4668355,E,2,11,0.8,-1.716,M,40.593,M,1.4,0123*6E\r\n
$GPGGA,100019.95,5703.4576935,N,00952.4668173,E,2,11,0.8,-1.714,M,40.593,M,1.4,0123*65\r\n
$GPGGA,100020.00,5703.4577194,N,00952.4667989,E,2,11,0.8,-1.712,M,40.593,M,1.4,0123*65\r\n
$GPGGA,100020.05,5703.4577443,N,00952.4667795,E,2,11,0.8,-1.712,M,40.593,M,1.7,0123*6F\r\n
$GPGGA,100020.10,5703.4577713,N,00952.4667597,E,2,11,0.8,-1.711,M,40.593,M,1.7,0123*6E\r\n
$GPGGA,100020.15,5703.4577970,N,00952.4667402,E,2,11,0.8,-1.711,M,40.593,M,1.7,0123*6D\r\n
$GPGGA,100020.20,5703.4578229,N,00952.4667209,E,2,11,0.8,-1.709,M,40.593,M,1.7,0123*67\r\n
$GPGGA,100020.25,5703.4578489,N,00952.4667014,E,2,11,0.8,-1.708,M,40.593,M,1.9,0123*6F\r\n
$GPGGA,100020.30,5703.4578750,N,00952.4666829,E,2,11,0.8,-1.708,M,40.593,M,1.9,0123*6B\r\n
$GPGGA,100020.35,5703.4579011,N,00952.4666622,E,2,11,0.8,-1.709,M,40.593,M,1.9,0123*69\r\n
$GPGGA,100020.40,5703.4579264,N,00952.4666426,E,2,11,0.8,-1.708,M,40.593,M,1.9,0123*6C\r\n
$GPGGA,100020.45,5703.4579513,N,00952.4666238,E,2,11,0.8,-1.706,M,40.593,M,1.1,0123*61\r\n
$GPGGA,100020.50,5703.4579763,N,00952.4666027,E,2,11,0.8,-1.706,M,40.593,M,1.1,0123*6C\r\n
$GPGGA,100020.55,5703.4580021,N,00952.4665842,E,2,11,0.8,-1.705,M,40.593,M,1.1,0123*65\r\n
$GPGGA,100020.60,5703.4580271,N,00952.4665654,E,2,11,0.8,-1.704,M,40.593,M,1.1,0123*6C\r\n
$GPGGA,100020.65,5703.4580519,N,00952.4665454,E,2,11,0.8,-1.700,M,40.593,M,1.4,0123*63\r\n
$GPGGA,100020.70,5703.4580772,N,00952.4665246,E,2,11,0.8,-1.702,M,40.593,M,1.4,0123*6F\r\n
$GPGGA,100020.75,5703.4581024,N,00952.4665033,E,2,11,0.8,-1.701,M,40.593,M,1.4,0123*6C\r\n
$GPGGA,100020.80,5703.4581267,N,00952.4664823,E,2,11,0.8,-1.699,M,40.593,M,1.4,0123*6B\r\n
$GPGGA,100020.85,5703.4581507,N,00952.4664609,E,2,11,0.8,-1.697,M,40.593,M,1.7,0123*64\r\n
$GPGGA,100020.90,5703.4581753,N,00952.4664414,E,2,11,0.8,-1.696,M,40.593,M,1.7,0123*6C\r\n
$GPGGA,100020.95,5703.4582002,N,00952.4664229,E,2,11,0.8,-1.696,M,40.593,M,1.7,0123*61\r\n
$GPGGA,100021.00,5703.4582248,N,00952.4664026,E,2,11,0.8,-1.695,M,40.593,M,1.7,0123*6E\r\n
$GPGGA,100021.05,5703.4582494,N,00952.4663819,E,2,11,0.8,-1.694,M,40.593,M,1.9,0123*60\r\n
$GPGGA,100021.10,5703.4582741,N,00952.4663619,E,2,11,0.8,-1.694,M,40.593,M,1.9,0123*61\r\n
$GPGGA,100021.15,5703.4582986,N,00952.4663417,E,2,11,0.8,-1.693,M,40.593,M,1.9,0123*6A\r\n
$GPGGA,100021.20,5703.4583232,N,00952.4663214,E,2,11,0.8,-1.693,M,40.593,M,1.9,0123*6C\r\n
$GPGGA,100021.25,5703.4583479,N,00952.4663017,E,2,11,0.8,-1.697,M,40.593,M,2.2,0123*6D\r\n
$GPGGA,100021.30,5703.4583716,N,00952.4662807,E,2,11,0.8,-1.703,M,40.593,M,2.2,0123*67\r\n
$GPGGA,100021.35,5703.4583966,N,00952.4662605,E,2,11,0.8,-1.705,M,40.593,M,2.2,0123*61\r\n
$GPGGA,100021.40,5703.4584218,N,00952.4662401,E,2,11,0.8,-1.706,M,40.593,M,2.2,0123*63\r\n
$GPGGA,100021.45,5703.4584465,N,00952.4662201,E,2,11,0.8,-1.706,M,40.593,M,2.4,0123*6A\r\n
$GPGGA,100021.50,5703.4584712,N,00952.4662016,E,2,11,0.8,-1.706,M,40.593,M,2.4,0123*69\r\n
$GPGGA,100021.55,5703.4584950,N,00952.4661818,E,2,11,0.8,-1.706,M,40.593,M,2.4,0123*61\r\n
$GPGGA,100021.60,5703.4585189,N,00952.4661609,E,2,11,0.8,-1.707,M,40.593,M,2.4,0123*65\r\n
$GPGGA,100021.65,5703.4585429,N,00952.4661410,E,2,11,0.8,-1.710,M,40.593,M,2.6,0123*61\r\n
$GPGGA,100021.70,5703.4585680,N,00952.4661217,E,2,11,0.8,-1.712,M,40.593,M,2.6,0123*67\r\n
$GPGGA,100021.75,5703.4585929,N,00952.4661012,E,2,11,0.8,-1.712,M,40.593,M,2.6,0123*69\r\n
$GPGGA,100021.80,5703.4586174,N,00952.4660803,E,2,11,0.8,-1.714,M,40.593,M,2.6,0123*6F\r\n
$GPGGA,100021.85,5703.4586412,N,00952.4660604,E,2,11,0.8,-1.717,M,40.593,M,2.9,0123*6A\r\n
$GPGGA,100021.90,5703.4586646,N,00952.4660390,E,2,11,0.8,-1.718,M,40.593,M,2.9,0123*6A\r\n
$GPGGA,100021.95,5703.4586882,N,00952.4660191,E,2,11,0.8,-1.718,M,40.593,M,2.9,0123*6A\r\n
$GPGGA,100022.00,5703.4587123,N,00952.4660000,E,2,11,0.8,-1.715,M,40.593,M,2.9,0123*62\r\n
$GPGGA,100022.05,5703.4587352,N,00952.4659798,E,2,11,0.8,-1.714,M,40.593,M,3.1,0123*67\r\n
$GPGGA,100022.10,5703.4587593,N,00952.4659595,E,2,11,0.8,-1.713,M,40.593,M,3.1,0123*60\r\n
$GPGGA,100022.15,5703.4587832,N,00952.4659393,E,2,11,0.8,-1.711,M,40.593,M,3.1,0123*61\r\n
$GPGGA,100022.20,5703.4588068,N,00952.4659198,E,2,11,0.8,-1.709,M,40.593,M,3.1,0123*6F\r\n
$GPGGA,100022.25,5703.4588306,N,00952.4659006,E,2,11,0.8,-1.707,M,40.593,M,3.3,0123*6B\r\n
$GPGGA,100022.30,5703.4588544,N,00952.4658814,E,2,11,0.8,-1.705,M,40.593,M,3.3,0123*67\r\n
$GPGGA,100022.35,5703.4588782,N,00952.4658615,E,2,11,0.8,-1.705,M,40.593,M,3.3,0123*65\r\n
$GPGGA,100022.40,5703.4589010,N,00952.4658413,E,2,11,0.8,-1.704,M,40.593,M,3.3,0123*6F\r\n
$GPGGA,100022.45,5703.4589252,N,00952.4658207,E,2,11,0.8,-1.700,M,40.593,M,3.5,0123*6F\r\n
$GPGGA,100022.50,5703.4589480,N,00952.4657999,E,2,11,0.8,-1.699,M,40.593,M,3.5,0123*60\r\n
$GPGGA,100022.55,5703.4589715,N,00952.4657799,E,2,11,0.8,-1.699,M,40.593,M,3.5,0123*64\r\n
$GPGGA,100022.60,5703.4589954,N,00952.4657588,E,2,11,0.8,-1.696,M,40.593,M,3.5,0123*64\r\n
$GPGGA,100022.65,5703.4590184,N,00952.4657375,E,2,11,0.8,-1.697,M,40.593,M,3.7,0123*6B\r\n
$GPGGA,100022.70,5703.4590415,N,00952.4657169,E,2,11,0.8,-1.697,M,40.593,M,3.7,0123*6D\r\n
$GPGGA,100022.75,5703.4590648,N,00952.4656963,E,2,11,0.8,-1.698,M,40.593,M,3.7,0123*6E\r\n
$GPGGA,100022.80,5703.4590881,N,00952.4656759,E,2,11,0.8,-1.701,M,40.593,M,3.7,0123*69\r\n
$GPGGA,100022.85,5703.4591113,N,00952.4656555,E,2,11,0.8,-1.699,M,40.593,M,3.9,0123*6F\r\n
$GPGGA,100022.90,5703.4591347,N,00952.4656353,E,2,11,0.8,-1.700,M,40.593,M,3.9,0123*69\r\n
$GPGGA,100022.95,5703.4591567,N,00952.4656141,E,2,11,0.8,-1.705,M,40.593,M,3.9,0123*6C\r\n
$GPGGA,100023.00,5703.4591806,N,00952.4655936,E,2,11,0.8,-1.708,M,40.593,M,3.9,0123*6D\r\n
$GPGGA,100023.05,5703.4592027,N,00952.4655729,E,2,11,0.8,-1.708,M,40.593,M,4.1,0123*6F\r\n
$GPGGA,100023.10,5703.4592259,N,00952.4655520,E,2,11,0.8,-1.707,M,40.593,M,4.1,0123*64\r\n
$GPGGA,100023.15,5703.4592490,N,00952.4655315,E,2,11,0.8,-1.708,M,40.593,M,4.1,0123*6D\r\n
$GPGGA,100023.20,5703.4592716,N,00952.4655113,E,2,11,0.8,-1.710,M,40.593,M,4.1,0123*6B\r\n
$GPGGA,100023.25,5703.4592940,N,00952.4654928,E,2,11,0.8,-1.711,M,40.593,M,4.3,0123*61\r\n
$GPGGA,100023.30,5703.4593157,N,00952.4654719,E,2,11,0.8,-1.712,M,40.593,M,4.3,0123*65\r\n
$GPGGA,100023.35,5703.4593373,N,00952.4654514,E,2,11,0.8,-1.714,M,40.593,M,4.3,0123*6D\r\n
$GPGGA,100023.40,5703.4593589,N,00952.4654316,E,2,11,0.8,-1.715,M,40.593,M,4.3,0123*69\r\n
$GPGGA,100023.45,5703.4593803,N,00952.4654109,E,2,11,0.8,-1.717,M,40.593,M,2.1,0123*69\r\n
$GPGGA,100023.50,5703.4594019,N,00952.4653907,E,2,11,0.8,-1.717,M,40.593,M,2.1,0123*68\r\n
$GPGGA,100023.55,5703.4594246,N,00952.4653710,E,2,11,0.8,-1.713,M,40.593,M,2.1,0123*69\r\n
$GPGGA,100023.60,5703.4594467,N,00952.4653501,E,2,11,0.8,-1.712,M,40.593,M,2.1,0123*69\r\n
$GPGGA,100023.65,5703.4594688,N,00952.4653285,E,2,11,0.8,-1.708,M,40.593,M,2.3,0123*6D\r\n
$GPGGA,100023.70,5703.4594901,N,00952.4653082,E,2,11,0.8,-1.709,M,40.593,M,2.3,0123*63\r\n
$GPGGA,100023.75,5703.4595115,N,00952.4652875,E,2,11,0.8,-1.707,M,40.593,M,2.3,0123*65\r\n
$GPGGA,100023.80,5703.4595324,N,00952.4652664,E,2,11,0.8,-1.705,M,40.593,M,2.3,0123*63\r\n
$GPGGA,100023.85,5703.4595535,N,00952.4652460,E,2,11,0.8,-1.709,M,40.593,M,2.5,0123*6C\r\n
$GPGGA,100023.90,5703.4595760,N,00952.4652249,E,2,11,0.8,-1.710,M,40.593,M,2.5,0123*6F\r\n
$GPGGA,100023.95,5703.4595983,N,00952.4652053,E,2,11,0.8,-1.711,M,40.593,M,2.5,0123*61\r\n
$GPGGA,100024.00,5703.4596196,N,00952.4651854,E,2,11,0.8,-1.711,M,40.593,M,2.5,0123*69\r\n
$GPGGA,100024.05,5703.4596400,N,00952.4651640,E,2,11,0.8,-1.710,M,40.593,M,2.8,0123*61\r\n
$GPGGA,100024.10,5703.4596626,N,00952.4651431,E,2,11,0.8,-1.706,M,40.593,M,2.8,0123*60\r\n
$GPGGA,100024.15,5703.4596846,N,00952.4651231,E,2,11,0.8,-1.705,M,40.593,M,2.8,0123*68\r\n
$GPGGA,100024.20,5703.4597050,N,00952.4651037,E,2,11,0.8,-1.707,M,40.593,M,2.8,0123*66\r\n
$GPGGA,100024.25,5703.4597258,N,00952.4650829,E,2,11,0.8,-1.709,M,40.593,M,3.0,0123*68\r\n
$GPGGA,100024.30,5703.4597466,N,00952.4650606,E,2,11,0.8,-1.708,M,40.593,M,3.0,0123*65\r\n
$GPGGA,100024.35,5703.4597672,N,00952.4650394,E,2,11,0.8,-1.708,M,40.593,M,3.0,0123*69\r\n
$GPGGA,100024.40,5703.4597887,N,00952.4650186,E,2,11,0.8,-1.706,M,40.593,M,3.0,0123*60\r\n
$GPGGA,100024.45,5703.4598102,N,00952.4649981,E,2,11,0.8,-1.705,M,40.593,M,2.1,0123*6A\r\n
$GPGGA,100024.50,5703.4598307,N,00952.4649772,E,2,11,0.8,-1.705,M,40.593,M,2.1,0123*6B\r\n
$GPGGA,100024.55,5703.4598506,N,00952.4649564,E,2,11,0.8,-1.704,M,40.593,M,2.1,0123*6D\r\n
$GPGGA,100024.60,5703.4598711,N,00952.4649352,E,2,11,0.8,-1.703,M,40.593,M,2.1,0123*6B\r\n
$GPGGA,100024.65,5703.4598918,N,00952.4649154,E,2,11,0.8,-1.702,M,40.593,M,2.4,0123*69\r\n
$GPGGA,100024.70,5703.4599112,N,00952.4648952,E,2,11,0.8,-1.703,M,40.593,M,2.4,0123*60\r\n
$GPGGA,100024.75,5703.4599311,N,00952.4648739,E,2,11,0.8,-1.703,M,40.593,M,2.4,0123*67\r\n
$GPGGA,100024.80,5703.4599519,N,00952.4648537,E,2,11,0.8,-1.702,M,40.593,M,2.4,0123*6E\r\n
$GPGGA,100024.85,5703.4599722,N,00952.4648312,E,2,11,0.8,-1.699,M,40.593,M,2.6,0123*61\r\n
$GPGGA,100024.90,5703.4599917,N,00952.4648106,E,2,11,0.8,-1.698,M,40.593,M,2.6,0123*6B\r\n
$GPGGA,100024.95,5703.4600113,N,00952.4647898,E,2,11,0.8,-1.698,M,40.593,M,2.6,0123*60\r\n
$GPGGA,100025.00,5703.4600316,N,00952.4647700,E,2,11,0.8,-1.697,M,40.593,M,2.6,0123*6B\r\n
$GPGGA,100025.05,5703.4600507,N,00952.4647504,E,2,11,0.8,-1.697,M,40.593,M,2.8,0123*60\r\n
$GPGGA,100025.10,5703.4600705,N,00952.4647286,E,2,11,0.8,-1.700,M,40.593,M,2.8,0123*66\r\n
$GPGGA,100025.15,5703.4600891,N,00952.4647079,E,2,11,0.8,-1.702,M,40.593,M,2.8,0123*61\r\n
$GPGGA,100025.20,5703.4601091,N,00952.4646879,E,2,11,0.8,-1.705,M,40.593,M,2.8,0123*60\r\n
$GPGGA,100025.25,5703.4601287,N,00952.4646682,E,2,11,0.8,-1.706,M,40.593,M,3.0,0123*60\r\n
$GPGGA,100025.30,5703.4601485,N,00952.4646477,E,2,11,0.8,-1.706,M,40.593,M,3.0,0123*68\r\n
$GPGGA,100025.35,5703.4601687,N,00952.4646275,E,2,11,0.8,-1.706,M,40.593,M,3.0,0123*69\r\n
$GPGGA,100025.40,5703.4601879,N,00952.4646068,E,2,11,0.8,-1.707,M,40.593,M,3.0,0123*6B\r\n
$GPGGA,100025.45,5703.4602071,N,00952.4645866,E,2,11,0.8,-1.706,M,40.593,M,2.4,0123*6C\r\n
$GPGGA,100025.50,5703.4602260,N,00952.4645648,E,2,11,0.8,-1.709,M,40.593,M,2.4,0123*67\r\n
$GPGGA,100025.55,5703.4602458,N,00952.4645434,E,2,11,0.8,-1.709,M,40.593,M,2.4,0123*66\r\n
$GPGGA,100025.60,5703.4602653,N,00952.4645240,E,2,11,0.8,-1.710,M,40.593,M,2.4,0123*64\r\n
$GPGGA,100025.65,5703.4602843,N,00952.4645047,E,2,11,0.8,-1.712,M,40.593,M,2.6,0123*6B\r\n
$GPGGA,100025.70,5703.4603034,N,00952.4644843,E,2,11,0.8,-1.714,M,40.593,M,2.6,0123*6D\r\n
$GPGGA,100025.75,5703.4603225,N,00952.4644643,E,2,11,0.8,-1.717,M,40.593,M,2.6,0123*67\r\n
$GPGGA,100025.80,5703.4603428,N,00952.4644436,E,2,11,0.8,-1.715,M,40.593,M,2.6,0123*64\r\n
$GPGGA,100025.85,5703.4603631,N,00952.4644234,E,2,11,0.8,-1.714,M,40.593,M,2.9,0123*61\r\n
$GPGGA,100025.90,5703.4603827,N,00952.4644028,E,2,11,0.8,-1.714,M,40.593,M,2.9,0123*63\r\n
$GPGGA,100025.95,5703.4604019,N,00952.4643823,E,2,11,0.8,-1.714,M,40.593,M,2.9,0123*60\r\n
$GPGGA,100026.00,5703.4604211,N,00952.4643628,E,2,11,0.8,-1.714,M,40.593,M,2.9,0123*60\r\n
$GPGGA,100026.05,5703.4604391,N,00952.4643431,E,2,11,0.8,-1.714,M,40.593,M,3.1,0123*6F\r\n
$GPGGA,100026.10,5703.4604588,N,00952.4643222,E,2,11,0.8,-1.713,M,40.593,M,3.1,0123*66\r\n
$GPGGA,100026.15,5703.4604776,N,00952.4643010,E,2,11,0.8,-1.715,M,40.593,M,3.1,0123*65\r\n
$GPGGA,100026.20,5703.4604966,N,00952.4642825,E,2,11,0.8,-1.716,M,40.593,M,3.1,0123*60\r\n
$GPGGA,100026.25,5703.4605156,N,00952.4642626,E,2,11,0.8,-1.712,M,40.593,M,3.3,0123*64\r\n
$GPGGA,100026.30,5703.4605354,N,00952.4642418,E,2,11,0.8,-1.710,M,40.593,M,3.3,0123*6D\r\n
$GPGGA,100026.35,5703.4605539,N,00952.4642227,E,2,11,0.8,-1.710,M,40.593,M,3.3,0123*6F\r\n
$GPGGA,100026.40,5703.4605738,N,00952.4642032,E,2,11,0.8,-1.705,M,40.593,M,3.3,0123*6C\r\n
$GPGGA,100026.45,5703.4605917,N,00952.4641838,E,2,11,0.8,-1.703,M,40.593,M,0.7,0123*6A\r\n
$GPGGA,100026.50,5703.4606102,N,00952.4641625,E,2,11,0.8,-1.703,M,40.593,M,0.7,0123*63\r\n
$GPGGA,100026.55,5703.4606295,N,00952.4641421,E,2,11,0.8,-1.701,M,40.593,M,0.7,0123*6F\r\n
$GPGGA,100026.60,5703.4606477,N,00952.4641225,E,2,11,0.8,-1.700,M,40.593,M,0.7,0123*60\r\n
$GPGGA,100026.65,5703.4606664,N,00952.4641031,E,2,11,0.8,-1.703,M,40.593,M,1.0,0123*67\r\n
$GPGGA,100026.70,5703.4606845,N,00952.4640834,E,2,11,0.8,-1.702,M,40.593,M,1.0,0123*63\r\n
$GPGGA,100026.75,5703.4607035,N,00952.4640643,E,2,11,0.8,-1.701,M,40.593,M,1.0,0123*65\r\n
$GPGGA,100026.80,5703.4607218,N,00952.4640448,E,2,11,0.8,-1.702,M,40.593,M,1.0,0123*68\r\n
$GPGGA,100026.85,5703.4607400,N,00952.4640259,E,2,11,0.8,-1.699,M,40.593,M,1.3,0123*64\r\n
$GPGGA,100026.90,5703.4607584,N,00952.4640063,E,2,11,0.8,-1.698,M,40.593,M,1.3,0123*67\r\n
$GPGGA,100026.95,5703.4607765,N,00952.4639858,E,2,11,0.8,-1.697,M,40.593,M,1.3,0123*6E\r\n
$GPGGA,100027.00,5703.4607946,N,00952.4639652,E,2,11,0.8,-1.698,M,40.593,M,1.3,0123*67\r\n
$GPGGA,100027.05,5703.4608129,N,00952.4639455,E,2,11,0.8,-1.702,M,40.593,M,1.6,0123*6E\r\n
$GPGGA,100027.10,5703.4608315,N,00952.4639254,E,2,11,0.8,-1.703,M,40.593,M,1.6,0123*61\r\n
$GPGGA,100027.15,5703.4608502,N,00952.4639062,E,2,11,0.8,-1.705,M,40.593,M,1.6,0123*65\r\n
$GPGGA,100027.20,5703.4608679,N,00952.4638860,E,2,11,0.8,-1.705,M,40.593,M,1.6,0123*67\r\n
$GPGGA,100027.25,5703.4608858,N,00952.4638674,E,2,11,0.8,-1.704,M,40.593,M,1.8,0123*6B\r\n
$GPGGA,100027.30,5703.4609051,N,00952.4638473,E,2,11,0.8,-1.704,M,40.593,M,1.8,0123*6A\r\n
$GPGGA,100027.35,5703.4609242,N,00952.4638271,E,2,11,0.8,-1.708,M,40.593,M,1.8,0123*67\r\n
$GPGGA,100027.40,5703.4609431,N,00952.4638084,E,2,11,0.8,-1.709,M,40.593,M,1.8,0123*6E\r\n
$GPGGA,100027.45,5703.4609614,N,00952.4637889,E,2,11,0.8,-1.709,M,40.593,M,0.9,0123*64\r\n
$GPGGA,100027.50,5703.4609793,N,00952.4637694,E,2,11,0.8,-1.709,M,40.593,M,0.9,0123*6C\r\n
$GPGGA,100027.55,5703.4609973,N,00952.4637499,E,2,11,0.8,-1.710,M,40.593,M,0.9,0123*6E\r\n
$GPGGA,100027.60,5703.4610150,N,00952.4637305,E,2,11,0.8,-1.712,M,40.593,M,0.9,0123*69\r\n
$GPGGA,100027.65,5703.4610333,N,00952.4637107,E,2,11,0.8,-1.713,M,40.593,M,1.2,0123*60\r\n
$GPGGA,100027.70,5703.4610518,N,00952.4636905,E,2,11,0.8,-1.712,M,40.593,M,1.2,0123*61\r\n
$GPGGA,100027.75,5703.4610708,N,00952.4636716,E,2,11,0.8,-1.710,M,40.593,M,1.2,0123*69\r\n
$GPGGA,100027.80,5703.4610891,N,00952.4636530,E,2,11,0.8,-1.710,M,40.593,M,1.2,0123*6A\r\n
$GPGGA,100027.85,5703.4611066,N,00952.4636338,E,2,11,0.8,-1.707,M,40.593,M,1.4,0123*60\r\n
$GPGGA,100027.90,5703.4611245,N,00952.4636130,E,2,11,0.8,-1.708,M,40.593,M,1.4,0123*62\r\n
$GPGGA,100027.95,5703.4611436,N,00952.4635943,E,2,11,0.8,-1.706,M,40.593,M,1.4,0123*64\r\n
$GPGGA,100028.00,5703.4611622,N,00952.4635753,E,2,11,0.8,-1.708,M,40.593,M,1.4,0123*61\r\n
$GPGGA,100028.05,5703.4611778,N,00952.4635543,E,2,11,0.8,-1.712,M,40.593,M,1.7,0123*61\r\n
$GPGGA,100028.10,5703.4611950,N,00952.4635344,E,2,11,0.8,-1.711,M,40.593,M,1.7,0123*63\r\n
$GPGGA,100028.15,5703.4612125,N,00952.4635145,E,2,11,0.8,-1.712,M,40.593,M,1.7,0123*6F\r\n
$GPGGA,100028.20,5703.4612304,N,00952.4634956,E,2,11,0.8,-1.713,M,40.593,M,1.7,0123*62\r\n
$GPGGA,100028.25,5703.4612481,N,00952.4634768,E,2,11,0.8,-1.710,M,40.593,M,1.9,0123*63\r\n
$GPGGA,100028.30,5703.4612659,N,00952.4634563,E,2,11,0.8,-1.710,M,40.593,M,1.9,0123*69\r\n
$GPGGA,100028.35,5703.4612844,N,00952.4634365,E,2,11,0.8,-1.709,M,40.593,M,1.9,0123*66\r\n
$GPGGA,100028.40,5703.4613021,N,00952.4634174,E,2,11,0.8,-1.709,M,40.593,M,1.9,0123*6C\r\n
$GPGGA,100028.45,5703.4613192,N,00952.4633973,E,2,11,0.8,-1.709,M,40.593,M,1.1,0123*60\r\n
$GPGGA,100028.50,5703.4613369,N,00952.4633766,E,2,11,0.8,-1.706,M,40.593,M,1.1,0123*67\r\n
$GPGGA,100028.55,5703.4613539,N,00952.4633573,E,2,11,0.8,-1.707,M,40.593,M,1.1,0123*66\r\n
$GPGGA,100028.60,5703.4613707,N,00952.4633373,E,2,11,0.8,-1.708,M,40.593,M,1.1,0123*66\r\n
$GPGGA,100028.65,5703.4613872,N,00952.4633164,E,2,11,0.8,-1.711,M,40.593,M,1.4,0123*67\r\n
$GPGGA,100028.70,5703.4614041,N,00952.4632968,E,2,11,0.8,-1.710,M,40.593,M,1.4,0123*68\r\n
$GPGGA,100028.75,5703.4614213,N,00952.4632776,E,2,11,0.8,-1.708,M,40.593,M,1.4,0123*60\r\n
$GPGGA,100028.80,5703.4614383,N,00952.4632588,E,2,11,0.8,-1.707,M,40.593,M,1.4,0123*6E\r\n
$GPGGA,100028.85,5703.4614549,N,00952.4632393,E,2,11,0.8,-1.704,M,40.593,M,1.7,0123*67\r\n
$GPGGA,100028.90,5703.4614712,N,00952.4632194,E,2,11,0.8,-1.702,M,40.593,M,1.7,0123*6C\r\n
$GPGGA,100028.95,5703.4614871,N,00952.4631996,E,2,11,0.8,-1.704,M,40.593,M,1.7,0123*6C\r\n
$GPGGA,100029.00,5703.4615027,N,00952.4631776,E,2,11,0.8,-1.707,M,40.593,M,1.7,0123*68\r\n
$GPGGA,100029.05,5703.4615178,N,00952.4631580,E,2,11,0.8,-1.705,M,40.593,M,1.9,0123*61\r\n
$GPGGA,100029.10,5703.4615334,N,00952.4631388,E,2,11,0.8,-1.704,M,40.593,M,1.9,0123*60\r\n
$GPGGA,100029.15,5703.4615501,N,00952.4631188,E,2,11,0.8,-1.703,M,40.593,M,1.9,0123*60\r\n
$GPGGA,100029.20,5703.4615660,N,00952.4631000,E,2,11,0.8,-1.704,M,40.593,M,1.9,0123*64\r\n
$GPGGA,100029.25,5703.4615819,N,00952.4630804,E,2,11,0.8,-1.705,M,40.593,M,2.2,0123*65\r\n
$GPGGA,100029.30,5703.4615971,N,00952.4630606,E,2,11,0.8,-1.702,M,40.593,M,2.2,0123*65\r\n
$GPGGA,100029.35,5703.4616134,N,00952.4630404,E,2,11,0.8,-1.702,M,40.593,M,2.2,0123*6A\r\n
$GPGGA,100029.40,5703.4616295,N,00952.4630207,E,2,11,0.8,-1.703,M,40.593,M,2.2,0123*64\r\n
$GPGGA,100029.45,5703.4616450,N,00952.4630014,E,2,11,0.8,-1.704,M,40.593,M,2.4,0123*6F\r\n
$GPGGA,100029.50,5703.4616609,N,00952.4629812,E,2,11,0.8,-1.705,M,40.593,M,2.4,0123*62\r\n
$GPGGA,100029.55,5703.4616771,N,00952.4629606,E,2,11,0.8,-1.706,M,40.593,M,2.4,0123*61\r\n
$GPGGA,100029.60,5703.4616926,N,00952.4629399,E,2,11,0.8,-1.705,M,40.593,M,2.4,0123*6B\r\n
$GPGGA,100029.65,5703.4617079,N,00952.4629191,E,2,11,0.8,-1.709,M,40.593,M,2.6,0123*68\r\n
$GPGGA,100029.70,5703.4617235,N,00952.4628989,E,2,11,0.8,-1.710,M,40.593,M,2.6,0123*6E\r\n
$GPGGA,100029.75,5703.4617398,N,00952.4628788,E,2,11,0.8,-1.710,M,40.593,M,2.6,0123*62\r\n
$GPGGA,100029.80,5703.4617549,N,00952.4628588,E,2,11,0.8,-1.709,M,40.593,M,2.6,0123*68\r\n
$GPGGA,100029.85,5703.4617704,N,00952.4628400,E,2,11,0.8,-1.708,M,40.593,M,2.9,0123*69\r\n
$GPGGA,100029.90,5703.4617865,N,00952.4628220,E,2,11,0.8,-1.706,M,40.593,M,2.9,0123*6F\r\n
$GPGGA,100029.95,5703.4618019,N,00952.4628032,E,2,11,0.8,-1.704,M,40.593,M,2.9,0123*65\r\n
$GPGGA,100030.00,5703.4618164,N,00952.4627835,E,2,11,0.8,-1.705,M,40.593,M,2.9,0123*6B\r\n
$GPGGA,100030.05,5703.4618298,N,00952.4627627,E,2,11,0.8,-1.708,M,40.593,M,3.1,0123*67\r\n
$GPGGA,100030.10,5703.4618451,N,00952.4627427,E,2,11,0.8,-1.709,M,40.593,M,3.1,0123*63\r\n
$GPGGA,100030.15,5703.4618602,N,00952.4627233,E,2,11,0.8,-1.709,M,40.593,M,3.1,0123*61\r\n
$GPGGA,100030.20,5703.4618754,N,00952.4627045,E,2,11,0.8,-1.707,M,40.593,M,3.1,0123*68\r\n
$GPGGA,100030.25,5703.4618904,N,00952.4626859,E,2,11,0.8,-1.704,M,40.593,M,3.3,0123*63\r\n
$GPGGA,100030.30,5703.4619050,N,00952.4626661,E,2,11,0.8,-1.704,M,40.593,M,3.3,0123*6B\r\n
$GPGGA,100030.35,5703.4619195,N,00952.4626474,E,2,11,0.8,-1.703,M,40.593,M,3.3,0123*67\r\n
$GPGGA,100030.40,5703.4619346,N,00952.4626282,E,2,11,0.8,-1.702,M,40.593,M,3.3,0123*67\r\n
$GPGGA,100030.45,5703.4619487,N,00952.4626095,E,2,11,0.8,-1.706,M,40.593,M,0.7,0123*6F\r\n
$GPGGA,100030.50,5703.4619632,N,00952.4625881,E,2,11,0.8,-1.706,M,40.593,M,0.7,0123*69\r\n
$GPGGA,100030.55,5703.4619780,N,00952.4625677,E,2,11,0.8,-1.707,M,40.593,M,0.7,0123*62\r\n
$GPGGA,100030.60,5703.4619924,N,00952.4625481,E,2,11,0.8,-1.708,M,40.593,M,0.7,0123*60\r\n
$GPGGA,100030.65,5703.4620071,N,00952.4625296,E,2,11,0.8,-1.708,M,40.593,M,1.0,0123*60\r\n
$GPGGA,100030.70,5703.4620212,N,00952.4625089,E,2,11,0.8,-1.710,M,40.593,M,1.0,0123*66\r\n
$GPGGA,100030.75,5703.4620353,N,00952.4624885,E,2,11,0.8,-1.710,M,40.593,M,1.0,0123*62\r\n
$GPGGA,100030.80,5703.4620493,N,00952.4624698,E,2,11,0.8,-1.709,M,40.593,M,1.0,0123*69\r\n
$GPGGA,100030.85,5703.4620637,N,00952.4624503,E,2,11,0.8,-1.711,M,40.593,M,1.3,0123*6B\r\n
$GPGGA,100030.90,5703.4620784,N,00952.4624295,E,2,11,0.8,-1.709,M,40.593,M,1.3,0123*67\r\n
$GPGGA,100030.95,5703.4620920,N,00952.4624085,E,2,11,0.8,-1.713,M,40.593,M,1.3,0123*6A\r\n
$GPGGA,100031.00,5703.4621062,N,00952.4623888,E,2,11,0.8,-1.717,M,40.593,M,1.3,0123*6F\r\n
$GPGGA,100031.05,5703.4621194,N,00952.4623684,E,2,11,0.8,-1.715,M,40.593,M,1.6,0123*67\r\n
$GPGGA,100031.10,5703.4621334,N,00952.4623484,E,2,11,0.8,-1.714,M,40.593,M,1.6,0123*68\r\n
$GPGGA,100031.15,5703.4621476,N,00952.4623279,E,2,11,0.8,-1.714,M,40.593,M,1.6,0123*68\r\n
$GPGGA,100031.20,5703.4621618,N,00952.4623085,E,2,11,0.8,-1.714,M,40.593,M,1.6,0123*65\r\n
$GPGGA,100031.25,5703.4621749,N,00952.4622893,E,2,11,0.8,-1.711,M,40.593,M,1.8,0123*60\r\n
$GPGGA,100031.30,5703.4621879,N,00952.4622687,E,2,11,0.8,-1.711,M,40.593,M,1.8,0123*63\r\n
$GPGGA,100031.35,5703.4622022,N,00952.4622488,E,2,11,0.8,-1.711,M,40.593,M,1.8,0123*6E\r\n
$GPGGA,100031.40,5703.4622152,N,00952.4622284,E,2,11,0.8,-1.710,M,40.593,M,1.8,0123*61\r\n
$GPGGA,100031.45,5703.4622290,N,00952.4622096,E,2,11,0.8,-1.708,M,40.593,M,0.9,0123*61\r\n
$GPGGA,100031.50,5703.4622429,N,00952.4621903,E,2,11,0.8,-1.707,M,40.593,M,0.9,0123*68\r\n
$GPGGA,100031.55,5703.4622559,N,00952.4621699,E,2,11,0.8,-1.708,M,40.593,M,0.9,0123*68\r\n
$GPGGA,100031.60,5703.4622687,N,00952.4621488,E,2,11,0.8,-1.707,M,40.593,M,0.9,0123*63\r\n
$GPGGA,100031.65,5703.4622826,N,00952.4621290,E,2,11,0.8,-1.706,M,40.593,M,1.2,0123*67\r\n
$GPGGA,100031.70,5703.4622958,N,00952.4621093,E,2,11,0.8,-1.706,M,40.593,M,1.2,0123*6A\r\n
$GPGGA,100031.75,5703.4623101,N,00952.4620909,E,2,11,0.8,-1.706,M,40.593,M,1.2,0123*61\r\n
$GPGGA,100031.80,5703.4623227,N,00952.4620700,E,2,11,0.8,-1.708,M,40.593,M,1.2,0123*65\r\n
$GPGGA,100031.85,5703.4623356,N,00952.4620482,E,2,11,0.8,-1.711,M,40.593,M,1.4,0123*60\r\n
$GPGGA,100031.90,5703.4623491,N,00952.4620275,E,2,11,0.8,-1.711,M,40.593,M,1.4,0123*66\r\n
$GPGGA,100031.95,5703.4623620,N,00952.4620083,E,2,11,0.8,-1.711,M,40.593,M,1.4,0123*60\r\n
$GPGGA,100032.00,5703.4623754,N,00952.4619893,E,2,11,0.8,-1.709,M,40.593,M,1.4,0123*67\r\n
$GPGGA,100032.05,5703.4623881,N,00952.4619695,E,2,11,0.8,-1.706,M,40.593,M,1.7,0123*61\r\n
$GPGGA,100032.10,5703.4624008,N,00952.4619494,E,2,11,0.8,-1.708,M,40.593,M,1.7,0123*66\r\n
$GPGGA,100032.15,5703.4624133,N,00952.4619292,E,2,11,0.8,-1.710,M,40.593,M,1.7,0123*63\r\n
$GPGGA,100032.20,5703.4624265,N,00952.4619090,E,2,11,0.8,-1.710,M,40.593,M,1.7,0123*65\r\n
$GPGGA,100032.25,5703.4624379,N,00952.4618887,E,2,11,0.8,-1.713,M,40.593,M,1.9,0123*6E\r\n
$GPGGA,100032.30,5703.4624507,N,00952.4618682,E,2,11,0.8,-1.712,M,40.593,M,1.9,0123*6F\r\n
$GPGGA,100032.35,5703.4624644,N,00952.4618477,E,2,11,0.8,-1.713,M,40.593,M,1.9,0123*67\r\n
$GPGGA,100032.40,5703.4624780,N,00952.4618283,E,2,11,0.8,-1.713,M,40.593,M,1.9,0123*61\r\n
$GPGGA,100032.45,5703.4624905,N,00952.4618077,E,2,11,0.8,-1.711,M,40.593,M,1.1,0123*64\r\n
$GPGGA,100032.50,5703.4625036,N,00952.4617870,E,2,11,0.8,-1.711,M,40.593,M,1.1,0123*68\r\n
$GPGGA,100032.55,5703.4625157,N,00952.4617665,E,2,11,0.8,-1.711,M,40.593,M,1.1,0123*61\r\n
$GPGGA,100032.60,5703.4625277,N,00952.4617464,E,2,11,0.8,-1.711,M,40.593,M,1.1,0123*65\r\n
$GPGGA,100032.65,5703.4625399,N,00952.4617267,E,2,11,0.8,-1.712,M,40.593,M,1.4,0123*62\r\n
$GPGGA,100032.70,5703.4625526,N,00952.4617070,E,2,11,0.8,-1.712,M,40.593,M,1.4,0123*60\r\n
$GPGGA,100032.75,5703.4625648,N,00952.4616867,E,2,11,0.8,-1.712,M,40.593,M,1.4,0123*61\r\n
$GPGGA,100032.80,5703.4625773,N,00952.4616662,E,2,11,0.8,-1.711,M,40.593,M,1.4,0123*6A\r\n
$GPGGA,100032.85,5703.4625898,N,00952.4616468,E,2,11,0.8,-1.710,M,40.593,M,1.7,0123*6F\r\n
$GPGGA,100032.90,5703.4626031,N,00952.4616282,E,2,11,0.8,-1.707,M,40.593,M,1.7,0123*67\r\n
$GPGGA,100032.95,5703.4626159,N,00952.4616073,E,2,11,0.8,-1.709,M,40.593,M,1.7,0123*6F\r\n
$GPGGA,100033.00,5703.4626283,N,00952.4615864,E,2,11,0.8,-1.710,M,40.593,M,1.7,0123*63\r\n
$GPGGA,100033.05,5703.4626390,N,00952.4615651,E,2,11,0.8,-1.712,M,40.593,M,1.9,0123*61\r\n
$GPGGA,100033.10,5703.4626502,N,00952.4615447,E,2,11,0.8,-1.710,M,40.593,M,1.9,0123*6F\r\n
$GPGGA,100033.15,5703.4626628,N,00952.4615254,E,2,11,0.8,-1.707,M,40.593,M,1.9,0123*63\r\n
$GPGGA,100033.20,5703.4626743,N,00952.4615054,E,2,11,0.8,-1.705,M,40.593,M,1.9,0123*69\r\n
$GPGGA,100033.25,5703.4626855,N,00952.4614851,E,2,11,0.8,-1.707,M,40.593,M,2.2,0123*62\r\n
$GPGGA,100033.30,5703.4626970,N,00952.4614650,E,2,11,0.8,-1.708,M,40.593,M,2.2,0123*60\r\n
$GPGGA,100033.35,5703.4627094,N,00952.4614454,E,2,11,0.8,-1.706,M,40.593,M,2.2,0123*6F\r\n
$GPGGA,100033.40,5703.4627210,N,00952.4614243,E,2,11,0.8,-1.706,M,40.593,M,2.2,0123*63\r\n
$GPGGA,100033.45,5703.4627315,N,00952.4614038,E,2,11,0.8,-1.710,M,40.593,M,2.4,0123*6D\r\n
$GPGGA,100033.50,5703.4627429,N,00952.4613843,E,2,11,0.8,-1.709,M,40.593,M,2.4,0123*6A\r\n
$GPGGA,100033.55,5703.4627541,N,00952.4613640,E,2,11,0.8,-1.708,M,40.593,M,2.4,0123*6C\r\n
$GPGGA,100033.60,5703.4627656,N,00952.4613437,E,2,11,0.8,-1.709,M,40.593,M,2.4,0123*6C\r\n
$GPGGA,100033.65,5703.4627774,N,00952.4613249,E,2,11,0.8,-1.711,M,40.593,M,2.6,0123*6C\r\n
$GPGGA,100033.70,5703.4627880,N,00952.4613046,E,2,11,0.8,-1.713,M,40.593,M,2.6,0123*63\r\n
$GPGGA,100033.75,5703.4627985,N,00952.4612833,E,2,11,0.8,-1.714,M,40.593,M,2.6,0123*6E\r\n
$GPGGA,100033.80,5703.4628085,N,00952.4612629,E,2,11,0.8,-1.715,M,40.593,M,2.6,0123*66\r\n
$GPGGA,100033.85,5703.4628201,N,00952.4612415,E,2,11,0.8,-1.711,M,40.593,M,2.9,0123*6B\r\n
$GPGGA,100033.90,5703.4628319,N,00952.4612214,E,2,11,0.8,-1.712,M,40.593,M,2.9,0123*63\r\n
$GPGGA,100033.95,5703.4628436,N,00952.4612013,E,2,11,0.8,-1.712,M,40.593,M,2.9,0123*69\r\n
$GPGGA,100034.00,5703.4628536,N,00952.4611805,E,2,11,0.8,-1.715,M,40.593,M,2.9,0123*68\r\n
$GPGGA,100034.05,5703.4628628,N,00952.4611582,E,2,11,0.8,-1.718,M,40.593,M,3.1,0123*67\r\n
$GPGGA,100034.10,5703.4628739,N,00952.4611389,E,2,11,0.8,-1.717,M,40.593,M,3.1,0123*60\r\n
$GPGGA,100034.15,5703.4628853,N,00952.4611178,E,2,11,0.8,-1.718,M,40.593,M,3.1,0123*65\r\n
$GPGGA,100034.20,5703.4628958,N,00952.4610962,E,2,11,0.8,-1.719,M,40.593,M,3.1,0123*6A\r\n
$GPGGA,100034.25,5703.4629061,N,00952.4610758,E,2,11,0.8,-1.719,M,40.593,M,3.3,0123*68\r\n
$GPGGA,100034.30,5703.4629162,N,00952.4610545,E,2,11,0.8,-1.721,M,40.593,M,3.3,0123*6B\r\n
$GPGGA,100034.35,5703.4629268,N,00952.4610341,E,2,11,0.8,-1.720,M,40.593,M,3.3,0123*64\r\n
$GPGGA,100034.40,5703.4629366,N,00952.4610132,E,2,11,0.8,-1.722,M,40.593,M,3.3,0123*6D\r\n
$GPGGA,100034.45,5703.4629471,N,00952.4609941,E,2,11,0.8,-1.719,M,40.593,M,3.5,0123*63\r\n
$GPGGA,100034.50,5703.4629569,N,00952.4609732,E,2,11,0.8,-1.718,M,40.593,M,3.5,0123*64\r\n
$GPGGA,100034.55,5703.4629669,N,00952.4609520,E,2,11,0.8,-1.719,M,40.593,M,3.5,0123*62\r\n
$GPGGA,100034.60,5703.4629770,N,00952.4609306,E,2,11,0.8,-1.718,M,40.593,M,3.5,0123*6E\r\n
$GPGGA,100034.65,5703.4629863,N,00952.4609090,E,2,11,0.8,-1.717,M,40.593,M,3.7,0123*67\r\n
$GPGGA,100034.70,5703.4629964,N,00952.4608875,E,2,11,0.8,-1.716,M,40.593,M,3.7,0123*66\r\n
$GPGGA,100034.75,5703.4630064,N,00952.4608667,E,2,11,0.8,-1.715,M,40.593,M,3.7,0123*6C\r\n
$GPGGA,100034.80,5703.4630162,N,00952.4608462,E,2,11,0.8,-1.715,M,40.593,M,3.7,0123*66\r\n
$GPGGA,100034.85,5703.4630264,N,00952.4608254,E,2,11,0.8,-1.715,M,40.593,M,3.9,0123*6B\r\n
$GPGGA,100034.90,5703.4630356,N,00952.4608048,E,2,11,0.8,-1.713,M,40.593,M,3.9,0123*66\r\n
$GPGGA,100034.95,5703.4630449,N,00952.4607841,E,2,11,0.8,-1.710,M,40.593,M,3.9,0123*67\r\n
$GPGGA,100035.00,5703.4630538,N,00952.4607631,E,2,11,0.8,-1.711,M,40.593,M,3.9,0123*65\r\n
$GPGGA,100035.05,5703.4630637,N,00952.4607407,E,2,11,0.8,-1.711,M,40.593,M,4.1,0123*64\r\n
$GPGGA,100035.10,5703.4630739,N,00952.4607196,E,2,11,0.8,-1.709,M,40.593,M,4.1,0123*6B\r\n
$GPGGA,100035.15,5703.4630825,N,00952.4606988,E,2,11,0.8,-1.707,M,40.593,M,4.1,0123*64\r\n
$GPGGA,100035.20,5703.4630921,N,00952.4606794,E,2,11,0.8,-1.706,M,40.593,M,4.1,0123*65\r\n
$GPGGA,100035.25,5703.4631020,N,00952.4606587,E,2,11,0.8,-1.708,M,40.593,M,1.8,0123*6B\r\n
$GPGGA,100035.30,5703.4631120,N,00952.4606376,E,2,11,0.8,-1.708,M,40.593,M,1.8,0123*66\r\n
$GPGGA,100035.35,5703.4631213,N,00952.4606159,E,2,11,0.8,-1.706,M,40.593,M,1.8,0123*61\r\n
$GPGGA,100035.40,5703.4631295,N,00952.4605943,E,2,11,0.8,-1.707,M,40.593,M,1.8,0123*6C\r\n
$GPGGA,100035.45,5703.4631382,N,00952.4605725,E,2,11,0.8,-1.707,M,40.593,M,2.1,0123*6A\r\n
$GPGGA,100035.50,5703.4631464,N,00952.4605518,E,2,11,0.8,-1.709,M,40.593,M,2.1,0123*63\r\n
$GPGGA,100035.55,5703.4631552,N,00952.4605332,E,2,11,0.8,-1.710,M,40.593,M,2.1,0123*64\r\n
$GPGGA,100035.60,5703.4631640,N,00952.4605129,E,2,11,0.8,-1.710,M,40.593,M,2.1,0123*6A\r\n
$GPGGA,100035.65,5703.4631731,N,00952.4604905,E,2,11,0.8,-1.714,M,40.593,M,2.3,0123*69\r\n
$GPGGA,100035.70,5703.4631814,N,00952.4604682,E,2,11,0.8,-1.716,M,40.593,M,2.3,0123*67\r\n
$GPGGA,100035.75,5703.4631902,N,00952.4604472,E,2,11,0.8,-1.716,M,40.593,M,2.3,0123*69\r\n
$GPGGA,100035.80,5703.4631982,N,00952.4604276,E,2,11,0.8,-1.715,M,40.593,M,2.3,0123*6A\r\n
$GPGGA,100035.85,5703.4632066,N,00952.4604075,E,2,11,0.8,-1.712,M,40.593,M,2.5,0123*6F\r\n
$GPGGA,100035.90,5703.4632154,N,00952.4603863,E,2,11,0.8,-1.714,M,40.593,M,2.5,0123*65\r\n
$GPGGA,100035.95,5703.4632240,N,00952.4603642,E,2,11,0.8,-1.715,M,40.593,M,2.5,0123*6A\r\n
$GPGGA,100036.00,5703.4632320,N,00952.4603432,E,2,11,0.8,-1.716,M,40.593,M,2.5,0123*64\r\n
$GPGGA,100036.05,5703.4632386,N,00952.4603224,E,2,11,0.8,-1.718,M,40.593,M,2.8,0123*6F\r\n
$GPGGA,100036.10,5703.4632477,N,00952.4603027,E,2,11,0.8,-1.716,M,40.593,M,2.8,0123*6D\r\n
$GPGGA,100036.15,5703.4632562,N,00952.4602829,E,2,11,0.8,-1.716,M,40.593,M,2.8,0123*6A\r\n
$GPGGA,100036.20,5703.4632647,N,00952.4602623,E,2,11,0.8,-1.712,M,40.593,M,2.8,0123*68\r\n
$GPGGA,100036.25,5703.4632719,N,00952.4602411,E,2,11,0.8,-1.713,M,40.593,M,1.9,0123*67\r\n
$GPGGA,100036.30,5703.4632796,N,00952.4602204,E,2,11,0.8,-1.715,M,40.593,M,1.9,0123*60\r\n
$GPGGA,100036.35,5703.4632868,N,00952.4602000,E,2,11,0.8,-1.715,M,40.593,M,1.9,0123*6D\r\n
$GPGGA,100036.40,5703.4632939,N,00952.4601802,E,2,11,0.8,-1.715,M,40.593,M,1.9,0123*63\r\n
$GPGGA,100036.45,5703.4633017,N,00952.4601590,E,2,11,0.8,-1.714,M,40.593,M,2.1,0123*6E\r\n
$GPGGA,100036.50,5703.4633096,N,00952.4601381,E,2,11,0.8,-1.714,M,40.593,M,2.1,0123*65\r\n
$GPGGA,100036.55,5703.4633173,N,00952.4601171,E,2,11,0.8,-1.718,M,40.593,M,2.1,0123*6B\r\n
$GPGGA,100036.60,5703.4633249,N,00952.4600966,E,2,11,0.8,-1.719,M,40.593,M,2.1,0123*69\r\n
$GPGGA,100036.65,5703.4633340,N,00952.4600767,E,2,11,0.8,-1.716,M,40.593,M,2.4,0123*61\r\n
$GPGGA,100036.70,5703.4633414,N,00952.4600568,E,2,11,0.8,-1.715,M,40.593,M,2.4,0123*6D\r\n
$GPGGA,100036.75,5703.4633483,N,00952.4600357,E,2,11,0.8,-1.715,M,40.593,M,2.4,0123*6C\r\n
$GPGGA,100036.80,5703.4633556,N,00952.4600143,E,2,11,0.8,-1.714,M,40.593,M,2.4,0123*69\r\n
$GPGGA,100036.85,5703.4633639,N,00952.4599934,E,2,11,0.8,-1.714,M,40.593,M,2.6,0123*6F\r\n
$GPGGA,100036.90,5703.4633714,N,00952.4599738,E,2,11,0.8,-1.714,M,40.593,M,2.6,0123*67\r\n
$GPGGA,100036.95,5703.4633792,N,00952.4599544,E,2,11,0.8,-1.714,M,40.593,M,2.6,0123*65\r\n
$GPGGA,100037.00,5703.4633876,N,00952.4599338,E,2,11,0.8,-1.717,M,40.593,M,2.6,0123*63\r\n
$GPGGA,100037.05,5703.4633939,N,00952.4599107,E,2,11,0.8,-1.725,M,40.593,M,2.8,0123*6D\r\n
$GPGGA,100037.10,5703.4634010,N,00952.4598894,E,2,11,0.8,-1.724,M,40.593,M,2.8,0123*6F\r\n
$GPGGA,100037.15,5703.4634084,N,00952.4598682,E,2,11,0.8,-1.725,M,40.593,M,2.8,0123*6F\r\n
$GPGGA,100037.20,5703.4634165,N,00952.4598485,E,2,11,0.8,-1.727,M,40.593,M,2.8,0123*60\r\n
$GPGGA,100037.25,5703.4634242,N,00952.4598280,E,2,11,0.8,-1.725,M,40.593,M,2.2,0123*68\r\n
$GPGGA,100037.30,5703.4634310,N,00952.4598074,E,2,11,0.8,-1.724,M,40.593,M,2.2,0123*62\r\n
$GPGGA,100037.35,5703.4634384,N,00952.4597870,E,2,11,0.8,-1.724,M,40.593,M,2.2,0123*69\r\n
$GPGGA,100037.40,5703.4634466,N,00952.4597664,E,2,11,0.8,-1.724,M,40.593,M,2.2,0123*6B\r\n
$GPGGA,100037.45,5703.4634549,N,00952.4597446,E,2,11,0.8,-1.723,M,40.593,M,2.4,0123*61\r\n
$GPGGA,100037.50,5703.4634625,N,00952.4597243,E,2,11,0.8,-1.725,M,40.593,M,2.4,0123*69\r\n
$GPGGA,100037.55,5703.4634696,N,00952.4597034,E,2,11,0.8,-1.726,M,40.593,M,2.4,0123*65\r\n
$GPGGA,100037.60,5703.4634768,N,00952.4596819,E,2,11,0.8,-1.727,M,40.593,M,2.4,0123*64\r\n
$GPGGA,100037.65,5703.4634843,N,00952.4596609,E,2,11,0.8,-1.726,M,40.593,M,2.6,0123*6B\r\n
$GPGGA,100037.70,5703.4634916,N,00952.4596411,E,2,11,0.8,-1.726,M,40.593,M,2.6,0123*65\r\n
$GPGGA,100037.75,5703.4634990,N,00952.4596188,E,2,11,0.8,-1.727,M,40.593,M,2.6,0123*6A\r\n
$GPGGA,100037.80,5703.4635054,N,00952.4595966,E,2,11,0.8,-1.728,M,40.593,M,2.6,0123*64\r\n
$GPGGA,100037.85,5703.4635125,N,00952.4595762,E,2,11,0.8,-1.724,M,40.593,M,2.9,0123*6F\r\n
$GPGGA,100037.90,5703.4635191,N,00952.4595570,E,2,11,0.8,-1.721,M,40.593,M,2.9,0123*60\r\n
$GPGGA,100037.95,5703.4635265,N,00952.4595366,E,2,11,0.8,-1.718,M,40.593,M,2.9,0123*66\r\n
$GPGGA,100038.00,5703.4635333,N,00952.4595157,E,2,11,0.8,-1.716,M,40.593,M,2.9,0123*69\r\n
$GPGGA,100038.05,5703.4635394,N,00952.4594927,E,2,11,0.8,-1.718,M,40.593,M,3.1,0123*68\r\n
$GPGGA,100038.10,5703.4635454,N,00952.4594710,E,2,11,0.8,-1.720,M,40.593,M,3.1,0123*66\r\n
$GPGGA,100038.15,5703.4635528,N,00952.4594498,E,2,11,0.8,-1.718,M,40.593,M,3.1,0123*61\r\n
$GPGGA,100038.20,5703.4635595,N,00952.4594294,E,2,11,0.8,-1.715,M,40.593,M,3.1,0123*66\r\n
$GPGGA,100038.25,5703.4635661,N,00952.4594093,E,2,11,0.8,-1.715,M,40.593,M,3.3,0123*6C\r\n
$GPGGA,100038.30,5703.4635725,N,00952.4593880,E,2,11,0.8,-1.715,M,40.593,M,3.3,0123*64\r\n
$GPGGA,100038.35,5703.4635794,N,00952.4593680,E,2,11,0.8,-1.714,M,40.593,M,3.3,0123*64\r\n
$GPGGA,100038.40,5703.4635866,N,00952.4593465,E,2,11,0.8,-1.714,M,40.593,M,3.3,0123*6D\r\n
$GPGGA,100038.45,5703.4635927,N,00952.4593251,E,2,11,0.8,-1.717,M,40.593,M,3.5,0123*68\r\n
$GPGGA,100038.50,5703.4635986,N,00952.4593044,E,2,11,0.8,-1.718,M,40.593,M,3.5,0123*6E\r\n
$GPGGA,100038.55,5703.4636040,N,00952.4592846,E,2,11,0.8,-1.719,M,40.593,M,3.5,0123*61\r\n
$GPGGA,100038.60,5703.4636095,N,00952.4592648,E,2,11,0.8,-1.719,M,40.593,M,3.5,0123*6F\r\n
$GPGGA,100038.65,5703.4636170,N,00952.4592434,E,2,11,0.8,-1.720,M,40.593,M,3.7,0123*61\r\n
$GPGGA,100038.70,5703.4636233,N,00952.4592214,E,2,11,0.8,-1.722,M,40.593,M,3.7,0123*67\r\n
$GPGGA,100038.75,5703.4636297,N,00952.4592000,E,2,11,0.8,-1.723,M,40.593,M,3.7,0123*6A\r\n
$GPGGA,100038.80,5703.4636354,N,00952.4591805,E,2,11,0.8,-1.725,M,40.593,M,3.7,0123*66\r\n
$GPGGA,100038.85,5703.4636403,N,00952.4591589,E,2,11,0.8,-1.727,M,40.593,M,3.9,0123*63\r\n
$GPGGA,100038.90,5703.4636467,N,00952.4591400,E,2,11,0.8,-1.727,M,40.593,M,3.9,0123*65\r\n
$GPGGA,100038.95,5703.4636528,N,00952.4591198,E,2,11,0.8,-1.730,M,40.593,M,3.9,0123*68\r\n
$GPGGA,100039.00,5703.4636587,N,00952.4590980,E,2,11,0.8,-1.731,M,40.593,M,3.9,0123*61\r\n
$GPGGA,100039.05,5703.4636639,N,00952.4590750,E,2,11,0.8,-1.729,M,40.593,M,4.1,0123*67\r\n
$GPGGA,100039.10,5703.4636702,N,00952.4590547,E,2,11,0.8,-1.729,M,40.593,M,4.1,0123*6E\r\n
$GPGGA,100039.15,5703.4636751,N,00952.4590356,E,2,11,0.8,-1.730,M,40.593,M,4.1,0123*63\r\n
$GPGGA,100039.20,5703.4636799,N,00952.4590153,E,2,11,0.8,-1.729,M,40.593,M,4.1,0123*6E\r\n
$GPGGA,100039.25,5703.4636855,N,00952.4589949,E,2,11,0.8,-1.729,M,40.593,M,4.3,0123*6D\r\n
$GPGGA,100039.30,5703.4636918,N,00952.4589739,E,2,11,0.8,-1.729,M,40.593,M,4.3,0123*68\r\n
$GPGGA,100039.35,5703.4636976,N,00952.4589534,E,2,11,0.8,-1.731,M,40.593,M,4.3,0123*63\r\n
$GPGGA,100039.40,5703.4637042,N,00952.4589329,E,2,11,0.8,-1.733,M,40.593,M,4.3,0123*66\r\n
$GPGGA,100039.45,5703.4637097,N,00952.4589123,E,2,11,0.8,-1.735,M,40.593,M,2.1,0123*61\r\n
$GPGGA,100039.50,5703.4637150,N,00952.4588922,E,2,11,0.8,-1.733,M,40.593,M,2.1,0123*61\r\n
$GPGGA,100039.55,5703.4637195,N,00952.4588728,E,2,11,0.8,-1.730,M,40.593,M,2.1,0123*6A\r\n
$GPGGA,100039.60,5703.4637248,N,00952.4588528,E,2,11,0.8,-1.730,M,40.593,M,2.1,0123*6D\r\n
$GPGGA,100039.65,5703.4637311,N,00952.4588312,E,2,11,0.8,-1.727,M,40.593,M,2.3,0123*6E\r\n
$GPGGA,100039.70,5703.4637368,N,00952.4588098,E,2,11,0.8,-1.729,M,40.593,M,2.3,0123*6B\r\n
$GPGGA,100039.75,5703.4637419,N,00952.4587883,E,2,11,0.8,-1.728,M,40.593,M,2.3,0123*63\r\n
$GPGGA,100039.80,5703.4637469,N,00952.4587682,E,2,11,0.8,-1.727,M,40.593,M,2.3,0123*6E\r\n
$GPGGA,100039.85,5703.4637521,N,00952.4587479,E,2,11,0.8,-1.728,M,40.593,M,2.5,0123*69\r\n
$GPGGA,100039.90,5703.4637576,N,00952.4587282,E,2,11,0.8,-1.725,M,40.593,M,2.5,0123*60\r\n
$GPGGA,100039.95,5703.4637627,N,00952.4587072,E,2,11,0.8,-1.724,M,40.593,M,2.5,0123*6E\r\n
$GPGGA,100040.00,5703.4637676,N,00952.4586863,E,2,11,0.8,-1.725,M,40.593,M,2.5,0123*60\r\n
$GPGGA,100040.05,5703.4637716,N,00952.4586631,E,2,11,0.8,-1.725,M,40.593,M,2.8,0123*66\r\n
$GPGGA,100040.10,5703.4637761,N,00952.4586428,E,2,11,0.8,-1.723,M,40.593,M,2.8,0123*6E\r\n
$GPGGA,100040.15,5703.4637811,N,00952.4586228,E,2,11,0.8,-1.723,M,40.593,M,2.8,0123*65\r\n
$GPGGA,100040.20,5703.4637870,N,00952.4586037,E,2,11,0.8,-1.722,M,40.593,M,2.8,0123*69\r\n
$GPGGA,100040.25,5703.4637921,N,00952.4585838,E,2,11,0.8,-1.720,M,40.593,M,3.0,0123*66\r\n
$GPGGA,100040.30,5703.4637972,N,00952.4585622,E,2,11,0.8,-1.719,M,40.593,M,3.0,0123*6B\r\n
$GPGGA,100040.35,5703.4638028,N,00952.4585394,E,2,11,0.8,-1.718,M,40.593,M,3.0,0123*6E\r\n
$GPGGA,100040.40,5703.4638078,N,00952.4585176,E,2,11,0.8,-1.716,M,40.593,M,3.0,0123*69\r\n
$GPGGA,100040.45,5703.4638122,N,00952.4584967,E,2,11,0.8,-1.716,M,40.593,M,2.1,0123*6B\r\n
$GPGGA,100040.50,5703.4638170,N,00952.4584772,E,2,11,0.8,-1.718,M,40.593,M,2.1,0123*6C\r\n
$GPGGA,100040.55,5703.4638213,N,00952.4584567,E,2,11,0.8,-1.719,M,40.593,M,2.1,0123*68\r\n
$GPGGA,100040.60,5703.4638249,N,00952.4584351,E,2,11,0.8,-1.720,M,40.593,M,2.1,0123*68\r\n
$GPGGA,100040.65,5703.4638288,N,00952.4584124,E,2,11,0.8,-1.723,M,40.593,M,2.4,0123*66\r\n
$GPGGA,100040.70,5703.4638324,N,00952.4583910,E,2,11,0.8,-1.724,M,40.593,M,2.4,0123*6A\r\n
$GPGGA,100040.75,5703.4638368,N,00952.4583715,E,2,11,0.8,-1.725,M,40.593,M,2.4,0123*6D\r\n
$GPGGA,100040.80,5703.4638407,N,00952.4583526,E,2,11,0.8,-1.726,M,40.593,M,2.4,0123*68\r\n
$GPGGA,100040.85,5703.4638445,N,00952.4583327,E,2,11,0.8,-1.726,M,40.593,M,2.6,0123*6E\r\n
$GPGGA,100040.90,5703.4638477,N,00952.4583121,E,2,11,0.8,-1.725,M,40.593,M,2.6,0123*6C\r\n
$GPGGA,100040.95,5703.4638521,N,00952.4582917,E,2,11,0.8,-1.726,M,40.593,M,2.6,0123*64\r\n
$GPGGA,100041.00,5703.4638562,N,00952.4582704,E,2,11,0.8,-1.727,M,40.593,M,2.6,0123*63\r\n
$GPGGA,100041.05,5703.4638593,N,00952.4582467,E,2,11,0.8,-1.723,M,40.593,M,2.8,0123*64\r\n
$GPGGA,100041.10,5703.4638635,N,00952.4582261,E,2,11,0.8,-1.723,M,40.593,M,2.8,0123*6F\r\n
$GPGGA,100041.15,5703.4638674,N,00952.4582061,E,2,11,0.8,-1.721,M,40.593,M,2.8,0123*6F\r\n
$GPGGA,100041.20,5703.4638705,N,00952.4581860,E,2,11,0.8,-1.719,M,40.593,M,2.8,0123*6F\r\n
$GPGGA,100041.25,5703.4638730,N,00952.4581661,E,2,11,0.8,-1.718,M,40.593,M,3.0,0123*6B\r\n
$GPGGA,100041.30,5703.4638756,N,00952.4581474,E,2,11,0.8,-1.717,M,40.593,M,3.0,0123*66\r\n
$GPGGA,100041.35,5703.4638788,N,00952.4581273,E,2,11,0.8,-1.716,M,40.593,M,3.0,0123*60\r\n
$GPGGA,100041.40,5703.4638818,N,00952.4581071,E,2,11,0.8,-1.713,M,40.593,M,3.0,0123*61\r\n
$GPGGA,100041.45,5703.4638852,N,00952.4580880,E,2,11,0.8,-1.712,M,40.593,M,2.4,0123*69\r\n
$GPGGA,100041.50,5703.4638882,N,00952.4580684,E,2,11,0.8,-1.711,M,40.593,M,2.4,0123*69\r\n
$GPGGA,100041.55,5703.4638912,N,00952.4580486,E,2,11,0.8,-1.709,M,40.593,M,2.4,0123*6D\r\n
$GPGGA,100041.60,5703.4638947,N,00952.4580279,E,2,11,0.8,-1.708,M,40.593,M,2.4,0123*6C\r\n
$GPGGA,100041.65,5703.4638982,N,00952.4580081,E,2,11,0.8,-1.711,M,40.593,M,2.6,0123*6F\r\n
$GPGGA,100041.70,5703.4639010,N,00952.4579887,E,2,11,0.8,-1.711,M,40.593,M,2.6,0123*60\r\n
$GPGGA,100041.75,5703.4639037,N,00952.4579695,E,2,11,0.8,-1.708,M,40.593,M,2.6,0123*65\r\n
$GPGGA,100041.80,5703.4639064,N,00952.4579503,E,2,11,0.8,-1.708,M,40.593,M,2.6,0123*65\r\n
$GPGGA,100041.85,5703.4639092,N,00952.4579319,E,2,11,0.8,-1.709,M,40.593,M,2.9,0123*6A\r\n
$GPGGA,100041.90,5703.4639113,N,00952.4579121,E,2,11,0.8,-1.709,M,40.593,M,2.9,0123*6F\r\n
$GPGGA,100041.95,5703.4639132,N,00952.4578929,E,2,11,0.8,-1.708,M,40.593,M,2.9,0123*69\r\n
$GPGGA,100042.00,5703.4639151,N,00952.4578737,E,2,11,0.8,-1.708,M,40.593,M,2.9,0123*62\r\n
$GPGGA,100042.05,5703.4639161,N,00952.4578547,E,2,11,0.8,-1.713,M,40.593,M,3.1,0123*62\r\n
$GPGGA,100042.10,5703.4639185,N,00952.4578368,E,2,11,0.8,-1.712,M,40.593,M,3.1,0123*66\r\n
$GPGGA,100042.15,5703.4639212,N,00952.4578159,E,2,11,0.8,-1.712,M,40.593,M,3.1,0123*6E\r\n
$GPGGA,100042.20,5703.4639239,N,00952.4577979,E,2,11,0.8,-1.712,M,40.593,M,3.1,0123*64\r\n
$GPGGA,100042.25,5703.4639256,N,00952.4577796,E,2,11,0.8,-1.713,M,40.593,M,3.3,0123*64\r\n
$GPGGA,100042.30,5703.4639270,N,00952.4577598,E,2,11,0.8,-1.715,M,40.593,M,3.3,0123*6E\r\n
$GPGGA,100042.35,5703.4639296,N,00952.4577405,E,2,11,0.8,-1.715,M,40.593,M,3.3,0123*66\r\n
$GPGGA,100042.40,5703.4639331,N,00952.4577229,E,2,11,0.8,-1.713,M,40.593,M,3.3,0123*66\r\n
$GPGGA,100042.45,5703.4639358,N,00952.4577031,E,2,11,0.8,-1.711,M,40.593,M,3.5,0123*63\r\n
$GPGGA,100042.50,5703.4639382,N,00952.4576838,E,2,11,0.8,-1.713,M,40.593,M,3.5,0123*62\r\n
$GPGGA,100042.55,5703.4639393,N,00952.4576646,E,2,11,0.8,-1.716,M,40.593,M,3.5,0123*65\r\n
$GPGGA,100042.60,5703.4639422,N,00952.4576468,E,2,11,0.8,-1.717,M,40.593,M,3.5,0123*61\r\n
$GPGGA,100042.65,5703.4639448,N,00952.4576273,E,2,11,0.8,-1.717,M,40.593,M,3.7,0123*66\r\n
$GPGGA,100042.70,5703.4639482,N,00952.4576085,E,2,11,0.8,-1.715,M,40.593,M,3.7,0123*6D\r\n
$GPGGA,100042.75,5703.4639514,N,00952.4575889,E,2,11,0.8,-1.713,M,40.593,M,3.7,0123*67\r\n
$GPGGA,100042.80,5703.4639541,N,00952.4575686,E,2,11,0.8,-1.713,M,40.593,M,3.7,0123*6C\r\n
$GPGGA,100042.85,5703.4639562,N,00952.4575493,E,2,11,0.8,-1.714,M,40.593,M,3.9,0123*67\r\n
$GPGGA,100042.90,5703.4639580,N,00952.4575303,E,2,11,0.8,-1.716,M,40.593,M,3.9,0123*63\r\n
$GPGGA,100042.95,5703.4639595,N,00952.4575107,E,2,11,0.8,-1.717,M,40.593,M,3.9,0123*65\r\n
$GPGGA,100043.00,5703.4639616,N,00952.4574924,E,2,11,0.8,-1.715,M,40.593,M,3.9,0123*6A\r\n
$GPGGA,100043.05,5703.4639631,N,00952.4574730,E,2,11,0.8,-1.712,M,40.593,M,4.1,0123*69\r\n
$GPGGA,100043.10,5703.4639644,N,00952.4574536,E,2,11,0.8,-1.712,M,40.593,M,4.1,0123*6B\r\n
$GPGGA,100043.15,5703.4639657,N,00952.4574353,E,2,11,0.8,-1.712,M,40.593,M,4.1,0123*69\r\n
$GPGGA,100043.20,5703.4639670,N,00952.4574164,E,2,11,0.8,-1.711,M,40.593,M,4.1,0123*6F\r\n
$GPGGA,100043.25,5703.4639690,N,00952.4573983,E,2,11,0.8,-1.712,M,40.593,M,4.3,0123*63\r\n
$GPGGA,100043.30,5703.4639705,N,00952.4573796,E,2,11,0.8,-1.712,M,40.593,M,4.3,0123*60\r\n
$GPGGA,100043.35,5703.4639720,N,00952.4573620,E,2,11,0.8,-1.713,M,40.593,M,4.3,0123*6F\r\n
$GPGGA,100043.40,5703.4639721,N,00952.4573421,E,2,11,0.8,-1.714,M,40.593,M,4.3,0123*68\r\n
$GPGGA,100043.45,5703.4639729,N,00952.4573251,E,2,11,0.8,-1.711,M,40.593,M,2.1,0123*65\r\n
$GPGGA,100043.50,5703.4639748,N,00952.4573062,E,2,11,0.8,-1.711,M,40.593,M,2.1,0123*64\r\n
$GPGGA,100043.55,5703.4639757,N,00952.4572874,E,2,11,0.8,-1.713,M,40.593,M,2.1,0123*63\r\n
$GPGGA,100043.60,5703.4639773,N,00952.4572706,E,2,11,0.8,-1.712,M,40.593,M,2.1,0123*68\r\n
$GPGGA,100043.65,5703.4639781,N,00952.4572527,E,2,11,0.8,-1.709,M,40.593,M,2.3,0123*69\r\n
$GPGGA,100043.70,5703.4639793,N,00952.4572347,E,2,11,0.8,-1.706,M,40.593,M,2.3,0123*61\r\n
$GPGGA,100043.75,5703.4639804,N,00952.4572161,E,2,11,0.8,-1.706,M,40.593,M,2.3,0123*63\r\n
$GPGGA,100043.80,5703.4639828,N,00952.4571963,E,2,11,0.8,-1.707,M,40.593,M,2.3,0123*6F\r\n
$GPGGA,100043.85,5703.4639851,N,00952.4571770,E,2,11,0.8,-1.708,M,40.593,M,2.5,0123*61\r\n
$GPGGA,100043.90,5703.4639869,N,00952.4571578,E,2,11,0.8,-1.709,M,40.593,M,2.5,0123*65\r\n
$GPGGA,100043.95,5703.4639884,N,00952.4571390,E,2,11,0.8,-1.710,M,40.593,M,2.5,0123*6B\r\n
$GPGGA,100044.00,5703.4639903,N,00952.4571200,E,2,11,0.8,-1.711,M,40.593,M,2.5,0123*67\r\n
$GPGGA,100044.05,5703.4639908,N,00952.4570996,E,2,11,0.8,-1.710,M,40.593,M,2.8,0123*60\r\n
$GPGGA,100044.10,5703.4639923,N,00952.4570785,E,2,11,0.8,-1.711,M,40.593,M,2.8,0123*60\r\n
$GPGGA,100044.15,5703.4639930,N,00952.4570603,E,2,11,0.8,-1.712,M,40.593,M,2.8,0123*6B\r\n
