$GPGGA,091649.40,5703.2927543,N,00952.3690701,E,2,10,0.8,-1.542,M,40.592,M,1.9,0123*6B\r\n
$GPGGA,091649.45,5703.2927638,N,00952.3690354,E,2,10,0.8,-1.539,M,40.592,M,2.1,0123*62\r\n
$GPGGA,091649.50,5703.2927725,N,00952.3689991,E,2,10,0.8,-1.537,M,40.592,M,2.1,0123*6E\r\n
$GPGGA,091649.55,5703.2927806,N,00952.3689634,E,2,10,0.8,-1.540,M,40.592,M,2.1,0123*65\r\n
$GPGGA,091649.60,5703.2927883,N,00952.3689304,E,2,10,0.8,-1.542,M,40.592,M,2.1,0123*6A\r\n
$GPGGA,091649.65,5703.2927956,N,00952.3688950,E,2,10,0.8,-1.544,M,40.592,M,2.4,0123*6F\r\n
$GPGGA,091649.70,5703.2928028,N,00952.3688570,E,2,10,0.8,-1.544,M,40.592,M,2.4,0123*6A\r\n
$GPGGA,091649.75,5703.2928106,N,00952.3688199,E,2,10,0.8,-1.546,M,40.592,M,2.4,0123*63\r\n
$GPGGA,091649.80,5703.2928192,N,00952.3687831,E,2,10,0.8,-1.546,M,40.592,M,2.4,0123*60\r\n
$GPGGA,091649.85,5703.2928287,N,00952.3687461,E,2,10,0.8,-1.539,M,40.592,M,1.7,0123*63\r\n
$GPGGA,091649.90,5703.2928370,N,00952.3687101,E,2,10,0.8,-1.538,M,40.592,M,1.7,0123*6C\r\n
$GPGGA,091649.95,5703.2928467,N,00952.3686736,E,2,10,0.8,-1.539,M,40.592,M,1.7,0123*6A\r\n
$GPGGA,091650.00,5703.2928544,N,00952.3686375,E,2,10,0.8,-1.537,M,40.592,M,1.7,0123*63\r\n
$GPGGA,091650.05,5703.2928593,N,00952.3686019,E,2,10,0.8,-1.538,M,40.592,M,1.9,0123*64\r\n
$GPGGA,091650.10,5703.2928662,N,00952.3685652,E,2,10,0.8,-1.539,M,40.592,M,1.9,0123*66\r\n
$GPGGA,091650.15,5703.2928742,N,00952.3685276,E,2,10,0.8,-1.541,M,40.592,M,1.9,0123*6D\r\n
$GPGGA,091650.20,5703.2928823,N,00952.3684903,E,2,10,0.8,-1.541,M,40.592,M,1.9,0123*6B\r\n
$GPGGA,091650.25,5703.2928913,N,00952.3684530,E,2,10,0.8,-1.544,M,40.592,M,2.2,0123*6D\r\n
$GPGGA,091650.30,5703.2929015,N,00952.3684172,E,2,10,0.8,-1.542,M,40.592,M,2.2,0123*63\r\n
$GPGGA,091650.35,5703.2929110,N,00952.3683802,E,2,10,0.8,-1.540,M,40.592,M,2.2,0123*69\r\n
$GPGGA,091650.40,5703.2929185,N,00952.3683438,E,2,10,0.8,-1.539,M,40.592,M,2.2,0123*6C\r\n
$GPGGA,091650.45,5703.2929267,N,00952.3683074,E,2,10,0.8,-1.540,M,40.592,M,2.4,0123*62\r\n
$GPGGA,091650.50,5703.2929355,N,00952.3682701,E,2,10,0.8,-1.540,M,40.592,M,2.4,0123*62\r\n
$GPGGA,091650.55,5703.2929445,N,00952.3682317,E,2,10,0.8,-1.539,M,40.592,M,2.4,0123*6C\r\n
$GPGGA,091650.60,5703.2929521,N,00952.3681947,E,2,10,0.8,-1.543,M,40.592,M,2.4,0123*68\r\n
$GPGGA,091650.65,5703.2929598,N,00952.3681569,E,2,10,0.8,-1.549,M,40.592,M,2.6,0123*67\r\n
$GPGGA,091650.70,5703.2929685,N,00952.3681212,E,2,10,0.8,-1.551,M,40.592,M,2.6,0123*6E\r\n
$GPGGA,091650.75,5703.2929785,N,00952.3680831,E,2,10,0.8,-1.548,M,40.592,M,2.6,0123*68\r\n
$GPGGA,091650.80,5703.2929893,N,00952.3680454,E,2,10,0.8,-1.545,M,40.592,M,2.6,0123*68\r\n
$GPGGA,091650.85,5703.2929993,N,00952.3680106,E,2,10,0.8,-1.538,M,40.592,M,2.9,0123*6B\r\n
$GPGGA,091650.90,5703.2930068,N,00952.3679735,E,2,10,0.8,-1.541,M,40.592,M,2.9,0123*64\r\n
$GPGGA,091650.95,5703.2930135,N,00952.3679335,E,2,10,0.8,-1.544,M,40.592,M,2.9,0123*69\r\n
$GPGGA,091651.00,5703.2930234,N,00952.3678953,E,2,10,0.8,-1.541,M,40.592,M,2.9,0123*68\r\n
$GPGGA,091651.05,5703.2930319,N,00952.3678570,E,2,10,0.8,-1.539,M,40.592,M,3.1,0123*68\r\n
$GPGGA,091651.10,5703.2930390,N,00952.3678191,E,2,10,0.8,-1.540,M,40.592,M,3.1,0123*68\r\n
$GPGGA,091651.15,5703.2930480,N,00952.3677823,E,2,10,0.8,-1.541,M,40.592,M,3.1,0123*65\r\n
$GPGGA,091651.20,5703.2930586,N,00952.3677445,E,2,10,0.8,-1.538,M,40.592,M,3.1,0123*66\r\n
$GPGGA,091651.25,5703.2930673,N,00952.3677073,E,2,10,0.8,-1.541,M,40.592,M,3.3,0123*67\r\n
$GPGGA,091651.30,5703.2930752,N,00952.3676697,E,2,10,0.8,-1.542,M,40.592,M,3.3,0123*6F\r\n
$GPGGA,091651.35,5703.2930847,N,00952.3676290,E,2,10,0.8,-1.541,M,40.592,M,3.3,0123*61\r\n
$GPGGA,091651.40,5703.2930923,N,00952.3675889,E,2,10,0.8,-1.544,M,40.592,M,3.3,0123*64\r\n
$GPGGA,091651.45,5703.2931017,N,00952.3675511,E,2,10,0.8,-1.542,M,40.592,M,3.5,0123*62\r\n
$GPGGA,091651.50,5703.2931143,N,00952.3675111,E,2,10,0.8,-1.537,M,40.592,M,3.5,0123*60\r\n
$GPGGA,091651.55,5703.2931243,N,00952.3674740,E,2,10,0.8,-1.538,M,40.592,M,3.5,0123*6A\r\n
$GPGGA,091651.60,5703.2931316,N,00952.3674340,E,2,10,0.8,-1.540,M,40.592,M,3.5,0123*66\r\n
$GPGGA,091651.65,5703.2931401,N,00952.3673946,E,2,10,0.8,-1.545,M,40.592,M,3.7,0123*6E\r\n
$GPGGA,091651.70,5703.2931498,N,00952.3673558,E,2,10,0.8,-1.548,M,40.592,M,3.7,0123*64\r\n
$GPGGA,091651.75,5703.2931582,N,00952.3673166,E,2,10,0.8,-1.550,M,40.592,M,3.7,0123*6B\r\n
$GPGGA,091651.80,5703.2931663,N,00952.3672790,E,2,10,0.8,-1.556,M,40.592,M,3.7,0123*65\r\n
$GPGGA,091651.85,5703.2931782,N,00952.3672412,E,2,10,0.8,-1.548,M,40.592,M,1.3,0123*6E\r\n
$GPGGA,091651.90,5703.2931886,N,00952.3672038,E,2,10,0.8,-1.547,M,40.592,M,1.3,0123*62\r\n
$GPGGA,091651.95,5703.2931980,N,00952.3671659,E,2,10,0.8,-1.547,M,40.592,M,1.3,0123*62\r\n
$GPGGA,091652.00,5703.2932074,N,00952.3671250,E,2,10,0.8,-1.545,M,40.592,M,1.3,0123*63\r\n
$GPGGA,091652.05,5703.2932155,N,00952.3670852,E,2,10,0.8,-1.548,M,40.592,M,1.6,0123*65\r\n
$GPGGA,091652.10,5703.2932251,N,00952.3670458,E,2,10,0.8,-1.545,M,40.592,M,1.6,0123*6D\r\n
$GPGGA,091652.15,5703.2932350,N,00952.3670088,E,2,10,0.8,-1.547,M,40.592,M,1.6,0123*63\r\n
$GPGGA,091652.20,5703.2932464,N,00952.3669711,E,2,10,0.8,-1.545,M,40.592,M,1.6,0123*68\r\n
$GPGGA,091652.25,5703.2932574,N,00952.3669331,E,2,10,0.8,-1.545,M,40.592,M,1.8,0123*65\r\n
$GPGGA,091652.30,5703.2932664,N,00952.3668954,E,2,10,0.8,-1.546,M,40.592,M,1.8,0123*68\r\n
$GPGGA,091652.35,5703.2932752,N,00952.3668540,E,2,10,0.8,-1.544,M,40.592,M,1.8,0123*62\r\n
$GPGGA,091652.40,5703.2932830,N,00952.3668128,E,2,10,0.8,-1.544,M,40.592,M,1.8,0123*61\r\n
$GPGGA,091652.45,5703.2932914,N,00952.3667736,E,2,10,0.8,-1.550,M,40.592,M,2.1,0123*6A\r\n
$GPGGA,091652.50,5703.2933025,N,00952.3667355,E,2,10,0.8,-1.549,M,40.592,M,2.1,0123*6D\r\n
$GPGGA,091652.55,5703.2933138,N,00952.3666968,E,2,10,0.8,-1.547,M,40.592,M,2.1,0123*6E\r\n
$GPGGA,091652.60,5703.2933224,N,00952.3666589,E,2,10,0.8,-1.548,M,40.592,M,2.1,0123*6A\r\n
$GPGGA,091652.65,5703.2933335,N,00952.3666182,E,2,10,0.8,-1.541,M,40.592,M,2.3,0123*6A\r\n
$GPGGA,091652.70,5703.2933438,N,00952.3665761,E,2,10,0.8,-1.541,M,40.592,M,2.3,0123*6C\r\n
$GPGGA,091652.75,5703.2933525,N,00952.3665375,E,2,10,0.8,-1.541,M,40.592,M,2.3,0123*65\r\n
$GPGGA,091652.80,5703.2933638,N,00952.3664994,E,2,10,0.8,-1.539,M,40.592,M,2.3,0123*6B\r\n
$GPGGA,091652.85,5703.2933738,N,00952.3664609,E,2,10,0.8,-1.536,M,40.592,M,1.4,0123*6F\r\n
$GPGGA,091652.90,5703.2933824,N,00952.3664211,E,2,10,0.8,-1.536,M,40.592,M,1.4,0123*64\r\n
$GPGGA,091652.95,5703.2933931,N,00952.3663813,E,2,10,0.8,-1.538,M,40.592,M,1.4,0123*65\r\n
$GPGGA,091653.00,5703.2934047,N,00952.3663403,E,2,10,0.8,-1.539,M,40.592,M,1.4,0123*6B\r\n
$GPGGA,091653.05,5703.2934125,N,00952.3662970,E,2,10,0.8,-1.545,M,40.592,M,1.7,0123*6B\r\n
$GPGGA,091653.10,5703.2934226,N,00952.3662561,E,2,10,0.8,-1.545,M,40.592,M,1.7,0123*63\r\n
$GPGGA,091653.15,5703.2934331,N,00952.3662152,E,2,10,0.8,-1.547,M,40.592,M,1.7,0123*67\r\n
$GPGGA,091653.20,5703.2934438,N,00952.3661757,E,2,10,0.8,-1.550,M,40.592,M,1.7,0123*69\r\n
$GPGGA,091653.25,5703.2934567,N,00952.3661379,E,2,10,0.8,-1.543,M,40.592,M,1.9,0123*63\r\n
$GPGGA,091653.30,5703.2934683,N,00952.3660987,E,2,10,0.8,-1.544,M,40.592,M,1.9,0123*63\r\n
$GPGGA,091653.35,5703.2934768,N,00952.3660594,E,2,10,0.8,-1.547,M,40.592,M,1.9,0123*6F\r\n
$GPGGA,091653.40,5703.2934875,N,00952.3660202,E,2,10,0.8,-1.545,M,40.592,M,1.9,0123*64\r\n
$GPGGA,091653.45,5703.2934978,N,00952.3659781,E,2,10,0.8,-1.548,M,40.592,M,2.1,0123*6F\r\n
$GPGGA,091653.50,5703.2935056,N,00952.3659364,E,2,10,0.8,-1.550,M,40.592,M,2.1,0123*69\r\n
$GPGGA,091653.55,5703.2935160,N,00952.3658965,E,2,10,0.8,-1.549,M,40.592,M,2.1,0123*6A\r\n
$GPGGA,091653.60,5703.2935282,N,00952.3658574,E,2,10,0.8,-1.547,M,40.592,M,2.1,0123*61\r\n
$GPGGA,091653.65,5703.2935395,N,00952.3658191,E,2,10,0.8,-1.546,M,40.592,M,2.4,0123*68\r\n
$GPGGA,091653.70,5703.2935504,N,00952.3657795,E,2,10,0.8,-1.545,M,40.592,M,2.4,0123*6C\r\n
$GPGGA,091653.75,5703.2935605,N,00952.3657378,E,2,10,0.8,-1.542,M,40.592,M,2.4,0123*6B\r\n
$GPGGA,091653.80,5703.2935703,N,00952.3656984,E,2,10,0.8,-1.542,M,40.592,M,2.4,0123*6E\r\n
$GPGGA,091653.85,5703.2935809,N,00952.3656577,E,2,10,0.8,-1.540,M,40.592,M,1.7,0123*6C\r\n
