$GPGGA,094946.95,5703.4013081,N,00952.1580195,E,2,11,0.8,-1.488,M,40.592,M,1.7,0123*66\r\n
$GPGGA,094947.00,5703.4012823,N,00952.1579567,E,2,11,0.8,-1.487,M,40.592,M,1.7,0123*6A\r\n
$GPGGA,094947.05,5703.4012573,N,00952.1578938,E,2,11,0.8,-1.488,M,40.592,M,1.9,0123*61\r\n
$GPGGA,094947.10,5703.4012321,N,00952.1578313,E,2,11,0.8,-1.488,M,40.592,M,1.9,0123*67\r\n
$GPGGA,094947.15,5703.4012068,N,00952.1577685,E,2,11,0.8,-1.488,M,40.592,M,1.9,0123*69\r\n
$GPGGA,094947.20,5703.4011807,N,00952.1577064,E,2,11,0.8,-1.487,M,40.592,M,1.9,0123*6B\r\n
$GPGGA,094947.25,5703.4011547,N,00952.1576440,E,2,11,0.8,-1.489,M,40.592,M,2.2,0123*62\r\n
$GPGGA,094947.30,5703.4011292,N,00952.1575816,E,2,11,0.8,-1.486,M,40.592,M,2.2,0123*6A\r\n
$GPGGA,094947.35,5703.4011040,N,00952.1575190,E,2,11,0.8,-1.485,M,40.592,M,2.2,0123*66\r\n
$GPGGA,094947.40,5703.4010783,N,00952.1574578,E,2,11,0.8,-1.485,M,40.592,M,2.2,0123*6E\r\n
$GPGGA,094947.45,5703.4010527,N,00952.1573961,E,2,11,0.8,-1.483,M,40.592,M,2.4,0123*64\r\n
$GPGGA,094947.50,5703.4010272,N,00952.1573346,E,2,11,0.8,-1.481,M,40.592,M,2.4,0123*6A\r\n
$GPGGA,094947.55,5703.4010014,N,00952.1572727,E,2,11,0.8,-1.480,M,40.592,M,2.4,0123*6E\r\n
$GPGGA,094947.60,5703.4009756,N,00952.1572107,E,2,11,0.8,-1.481,M,40.592,M,2.4,0123*64\r\n
$GPGGA,094947.65,5703.4009499,N,00952.1571491,E,2,11,0.8,-1.481,M,40.592,M,2.6,0123*6A\r\n
$GPGGA,094947.70,5703.4009240,N,00952.1570877,E,2,11,0.8,-1.480,M,40.592,M,2.6,0123*68\r\n
$GPGGA,094947.75,5703.4008980,N,00952.1570270,E,2,11,0.8,-1.478,M,40.592,M,2.6,0123*61\r\n
$GPGGA,094947.80,5703.4008725,N,00952.1569653,E,2,11,0.8,-1.478,M,40.592,M,2.6,0123*67\r\n
$GPGGA,094947.85,5703.4008473,N,00952.1569023,E,2,11,0.8,-1.481,M,40.592,M,2.8,0123*6B\r\n
$GPGGA,094947.90,5703.4008209,N,00952.1568395,E,2,11,0.8,-1.483,M,40.592,M,2.8,0123*69\r\n
$GPGGA,094947.95,5703.4007957,N,00952.1567766,E,2,11,0.8,-1.484,M,40.592,M,2.8,0123*63\r\n
$GPGGA,094948.00,5703.4007701,N,00952.1567139,E,2,11,0.8,-1.486,M,40.592,M,2.8,0123*63\r\n
$GPGGA,094948.05,5703.4007450,N,00952.1566514,E,2,11,0.8,-1.487,M,40.592,M,3.1,0123*62\r\n
$GPGGA,094948.10,5703.4007201,N,00952.1565877,E,2,11,0.8,-1.486,M,40.592,M,3.1,0123*6E\r\n
$GPGGA,094948.15,5703.4006947,N,00952.1565253,E,2,11,0.8,-1.486,M,40.592,M,3.1,0123*6F\r\n
$GPGGA,094948.20,5703.4006690,N,00952.1564629,E,2,11,0.8,-1.487,M,40.592,M,3.1,0123*65\r\n
$GPGGA,094948.25,5703.4006435,N,00952.1564016,E,2,11,0.8,-1.490,M,40.592,M,3.3,0123*63\r\n
$GPGGA,094948.30,5703.4006175,N,00952.1563389,E,2,11,0.8,-1.495,M,40.592,M,3.3,0123*61\r\n
$GPGGA,094948.35,5703.4005918,N,00952.1562756,E,2,11,0.8,-1.495,M,40.592,M,3.3,0123*63\r\n
$GPGGA,094948.40,5703.4005661,N,00952.1562139,E,2,11,0.8,-1.496,M,40.592,M,3.3,0123*6C\r\n
$GPGGA,094948.45,5703.4005413,N,00952.1561522,E,2,11,0.8,-1.497,M,40.592,M,3.5,0123*64\r\n
$GPGGA,094948.50,5703.4005159,N,00952.1560895,E,2,11,0.8,-1.495,M,40.592,M,3.5,0123*69\r\n
$GPGGA,094948.55,5703.4004910,N,00952.1560271,E,2,11,0.8,-1.494,M,40.592,M,3.5,0123*69\r\n
$GPGGA,094948.60,5703.4004661,N,00952.1559640,E,2,11,0.8,-1.495,M,40.592,M,3.5,0123*6B\r\n
$GPGGA,094948.65,5703.4004414,N,00952.1559009,E,2,11,0.8,-1.496,M,40.592,M,1.1,0123*60\r\n
$GPGGA,094948.70,5703.4004167,N,00952.1558377,E,2,11,0.8,-1.494,M,40.592,M,1.1,0123*6C\r\n
$GPGGA,094948.75,5703.4003914,N,00952.1557749,E,2,11,0.8,-1.495,M,40.592,M,1.1,0123*65\r\n
$GPGGA,094948.80,5703.4003656,N,00952.1557117,E,2,11,0.8,-1.497,M,40.592,M,1.1,0123*69\r\n
$GPGGA,094948.85,5703.4003411,N,00952.1556490,E,2,11,0.8,-1.498,M,40.592,M,1.4,0123*6C\r\n
$GPGGA,094948.90,5703.4003160,N,00952.1555845,E,2,11,0.8,-1.499,M,40.592,M,1.4,0123*6D\r\n
$GPGGA,094948.95,5703.4002921,N,00952.1555210,E,2,11,0.8,-1.496,M,40.592,M,1.4,0123*61\r\n
$GPGGA,094949.00,5703.4002675,N,00952.1554570,E,2,11,0.8,-1.495,M,40.592,M,1.4,0123*61\r\n
$GPGGA,094949.05,5703.4002419,N,00952.1553936,E,2,11,0.8,-1.491,M,40.592,M,1.7,0123*62\r\n
$GPGGA,094949.10,5703.4002162,N,00952.1553301,E,2,11,0.8,-1.492,M,40.592,M,1.7,0123*62\r\n
$GPGGA,094949.15,5703.4001913,N,00952.1552654,E,2,11,0.8,-1.494,M,40.592,M,1.7,0123*68\r\n
$GPGGA,094949.20,5703.4001668,N,00952.1552020,E,2,11,0.8,-1.493,M,40.592,M,1.7,0123*6F\r\n
$GPGGA,094949.25,5703.4001414,N,00952.1551389,E,2,11,0.8,-1.496,M,40.592,M,2.0,0123*61\r\n
$GPGGA,094949.30,5703.4001161,N,00952.1550761,E,2,11,0.8,-1.497,M,40.592,M,2.0,0123*60\r\n
$GPGGA,094949.35,5703.4000913,N,00952.1550126,E,2,11,0.8,-1.495,M,40.592,M,2.0,0123*6E\r\n
$GPGGA,094949.40,5703.4000663,N,00952.1549490,E,2,11,0.8,-1.495,M,40.592,M,2.0,0123*64\r\n
$GPGGA,094949.45,5703.4000409,N,00952.1548859,E,2,11,0.8,-1.496,M,40.592,M,2.3,0123*67\r\n
$GPGGA,094949.50,5703.4000154,N,00952.1548239,E,2,11,0.8,-1.495,M,40.592,M,2.3,0123*61\r\n
$GPGGA,094949.55,5703.3999902,N,00952.1547608,E,2,11,0.8,-1.494,M,40.592,M,2.3,0123*69\r\n
$GPGGA,094949.60,5703.3999656,N,00952.1546963,E,2,11,0.8,-1.494,M,40.592,M,2.3,0123*62\r\n
$GPGGA,094949.65,5703.3999409,N,00952.1546335,E,2,11,0.8,-1.493,M,40.592,M,1.0,0123*61\r\n
$GPGGA,094949.70,5703.3999169,N,00952.1545702,E,2,11,0.8,-1.489,M,40.592,M,1.0,0123*6E\r\n
$GPGGA,094949.75,5703.3998922,N,00952.1545064,E,2,11,0.8,-1.485,M,40.592,M,1.0,0123*66\r\n
$GPGGA,094949.80,5703.3998677,N,00952.1544418,E,2,11,0.8,-1.486,M,40.592,M,1.0,0123*6E\r\n
$GPGGA,094949.85,5703.3998438,N,00952.1543781,E,2,11,0.8,-1.487,M,40.592,M,1.3,0123*64\r\n
$GPGGA,094949.90,5703.3998181,N,00952.1543147,E,2,11,0.8,-1.488,M,40.592,M,1.3,0123*64\r\n
$GPGGA,094949.95,5703.3997934,N,00952.1542512,E,2,11,0.8,-1.488,M,40.592,M,1.3,0123*6D\r\n
$GPGGA,094950.00,5703.3997690,N,00952.1541885,E,2,11,0.8,-1.488,M,40.592,M,1.3,0123*68\r\n
$GPGGA,094950.05,5703.3997443,N,00952.1541234,E,2,11,0.8,-1.489,M,40.592,M,1.5,0123*66\r\n
$GPGGA,094950.10,5703.3997192,N,00952.1540601,E,2,11,0.8,-1.490,M,40.592,M,1.5,0123*60\r\n
$GPGGA,094950.15,5703.3996941,N,00952.1539980,E,2,11,0.8,-1.493,M,40.592,M,1.5,0123*69\r\n
$GPGGA,094950.20,5703.3996690,N,00952.1539344,E,2,11,0.8,-1.494,M,40.592,M,1.5,0123*69\r\n
$GPGGA,094950.25,5703.3996446,N,00952.1538719,E,2,11,0.8,-1.491,M,40.592,M,1.7,0123*6F\r\n
$GPGGA,094950.30,5703.3996201,N,00952.1538110,E,2,11,0.8,-1.488,M,40.592,M,1.7,0123*69\r\n
$GPGGA,094950.35,5703.3995949,N,00952.1537474,E,2,11,0.8,-1.490,M,40.592,M,1.7,0123*69\r\n
$GPGGA,094950.40,5703.3995701,N,00952.1536843,E,2,11,0.8,-1.492,M,40.592,M,1.7,0123*62\r\n
$GPGGA,094950.45,5703.3995454,N,00952.1536220,E,2,11,0.8,-1.493,M,40.592,M,2.0,0123*6E\r\n
$GPGGA,094950.50,5703.3995204,N,00952.1535585,E,2,11,0.8,-1.494,M,40.592,M,2.0,0123*65\r\n
$GPGGA,094950.55,5703.3994960,N,00952.1534949,E,2,11,0.8,-1.496,M,40.592,M,2.0,0123*67\r\n
$GPGGA,094950.60,5703.3994715,N,00952.1534306,E,2,11,0.8,-1.496,M,40.592,M,2.0,0123*6C\r\n
$GPGGA,094950.65,5703.3994479,N,00952.1533677,E,2,11,0.8,-1.491,M,40.592,M,1.4,0123*64\r\n
$GPGGA,094950.70,5703.3994238,N,00952.1533045,E,2,11,0.8,-1.492,M,40.592,M,1.4,0123*67\r\n
$GPGGA,094950.75,5703.3993995,N,00952.1532403,E,2,11,0.8,-1.491,M,40.592,M,1.4,0123*6D\r\n
$GPGGA,094950.80,5703.3993750,N,00952.1531773,E,2,11,0.8,-1.491,M,40.592,M,1.4,0123*67\r\n
$GPGGA,094950.85,5703.3993507,N,00952.1531124,E,2,11,0.8,-1.499,M,40.592,M,1.7,0123*6D\r\n
$GPGGA,094950.90,5703.3993260,N,00952.1530484,E,2,11,0.8,-1.502,M,40.592,M,1.7,0123*62\r\n
$GPGGA,094950.95,5703.3993012,N,00952.1529844,E,2,11,0.8,-1.502,M,40.592,M,1.7,0123*68\r\n
$GPGGA,094951.00,5703.3992769,N,00952.1529209,E,2,11,0.8,-1.501,M,40.592,M,1.7,0123*6F\r\n
$GPGGA,094951.05,5703.3992530,N,00952.1528575,E,2,11,0.8,-1.498,M,40.592,M,1.9,0123*66\r\n
$GPGGA,094951.10,5703.3992299,N,00952.1527935,E,2,11,0.8,-1.498,M,40.592,M,1.9,0123*61\r\n
$GPGGA,094951.15,5703.3992055,N,00952.1527296,E,2,11,0.8,-1.499,M,40.592,M,1.9,0123*65\r\n
$GPGGA,094951.20,5703.3991813,N,00952.1526656,E,2,11,0.8,-1.501,M,40.592,M,1.9,0123*63\r\n
$GPGGA,094951.25,5703.3991566,N,00952.1526023,E,2,11,0.8,-1.504,M,40.592,M,2.2,0123*60\r\n
$GPGGA,094951.30,5703.3991312,N,00952.1525391,E,2,11,0.8,-1.506,M,40.592,M,2.2,0123*6A\r\n
$GPGGA,094951.35,5703.3991065,N,00952.1524750,E,2,11,0.8,-1.508,M,40.592,M,2.2,0123*6A\r\n
$GPGGA,094951.40,5703.3990816,N,00952.1524108,E,2,11,0.8,-1.510,M,40.592,M,2.2,0123*67\r\n
$GPGGA,094951.45,5703.3990575,N,00952.1523463,E,2,11,0.8,-1.506,M,40.592,M,2.4,0123*64\r\n
$GPGGA,094951.50,5703.3990336,N,00952.1522818,E,2,11,0.8,-1.508,M,40.592,M,2.4,0123*6E\r\n
$GPGGA,094951.55,5703.3990094,N,00952.1522179,E,2,11,0.8,-1.508,M,40.592,M,2.4,0123*6E\r\n
$GPGGA,094951.60,5703.3989850,N,00952.1521540,E,2,11,0.8,-1.506,M,40.592,M,2.4,0123*63\r\n
$GPGGA,094951.65,5703.3989613,N,00952.1520887,E,2,11,0.8,-1.505,M,40.592,M,2.6,0123*69\r\n
$GPGGA,094951.70,5703.3989378,N,00952.1520241,E,2,11,0.8,-1.503,M,40.592,M,2.6,0123*63\r\n
$GPGGA,094951.75,5703.3989145,N,00952.1519596,E,2,11,0.8,-1.502,M,40.592,M,2.6,0123*6C\r\n
$GPGGA,094951.80,5703.3988911,N,00952.1518949,E,2,11,0.8,-1.502,M,40.592,M,2.6,0123*61\r\n
$GPGGA,094951.85,5703.3988678,N,00952.1518305,E,2,11,0.8,-1.503,M,40.592,M,2.8,0123*69\r\n
$GPGGA,094951.90,5703.3988437,N,00952.1517643,E,2,11,0.8,-1.502,M,40.592,M,2.8,0123*6D\r\n
$GPGGA,094951.95,5703.3988192,N,00952.1516997,E,2,11,0.8,-1.501,M,40.592,M,2.8,0123*66\r\n
$GPGGA,094952.00,5703.3987954,N,00952.1516352,E,2,11,0.8,-1.498,M,40.592,M,2.8,0123*66\r\n
$GPGGA,094952.05,5703.3987720,N,00952.1515697,E,2,11,0.8,-1.498,M,40.592,M,3.1,0123*69\r\n
$GPGGA,094952.10,5703.3987482,N,00952.1515046,E,2,11,0.8,-1.497,M,40.592,M,3.1,0123*63\r\n
$GPGGA,094952.15,5703.3987238,N,00952.1514396,E,2,11,0.8,-1.499,M,40.592,M,3.1,0123*60\r\n
$GPGGA,094952.20,5703.3986999,N,00952.1513760,E,2,11,0.8,-1.498,M,40.592,M,3.1,0123*6C\r\n
$GPGGA,094952.25,5703.3986763,N,00952.1513113,E,2,11,0.8,-1.497,M,40.592,M,3.3,0123*6D\r\n
$GPGGA,094952.30,5703.3986513,N,00952.1512474,E,2,11,0.8,-1.495,M,40.592,M,3.3,0123*6B\r\n
$GPGGA,094952.35,5703.3986270,N,00952.1511833,E,2,11,0.8,-1.494,M,40.592,M,3.3,0123*61\r\n
$GPGGA,094952.40,5703.3986026,N,00952.1511189,E,2,11,0.8,-1.495,M,40.592,M,3.3,0123*6B\r\n
$GPGGA,094952.45,5703.3985778,N,00952.1510551,E,2,11,0.8,-1.492,M,40.592,M,3.5,0123*60\r\n
$GPGGA,094952.50,5703.3985539,N,00952.1509906,E,2,11,0.8,-1.492,M,40.592,M,3.5,0123*65\r\n
$GPGGA,094952.55,5703.3985294,N,00952.1509265,E,2,11,0.8,-1.493,M,40.592,M,3.5,0123*6F\r\n
$GPGGA,094952.60,5703.3985062,N,00952.1508619,E,2,11,0.8,-1.493,M,40.592,M,3.5,0123*6C\r\n
$GPGGA,094952.65,5703.3984820,N,00952.1507976,E,2,11,0.8,-1.494,M,40.592,M,1.1,0123*6E\r\n
$GPGGA,094952.70,5703.3984580,N,00952.1507323,E,2,11,0.8,-1.495,M,40.592,M,1.1,0123*66\r\n
$GPGGA,094952.75,5703.3984352,N,00952.1506673,E,2,11,0.8,-1.494,M,40.592,M,1.1,0123*6A\r\n
$GPGGA,094952.80,5703.3984110,N,00952.1506029,E,2,11,0.8,-1.494,M,40.592,M,1.1,0123*6D\r\n
$GPGGA,094952.85,5703.3983876,N,00952.1505387,E,2,11,0.8,-1.495,M,40.592,M,1.4,0123*66\r\n
$GPGGA,094952.90,5703.3983638,N,00952.1504753,E,2,11,0.8,-1.493,M,40.592,M,1.4,0123*6C\r\n
$GPGGA,094952.95,5703.3983406,N,00952.1504112,E,2,11,0.8,-1.492,M,40.592,M,1.4,0123*64\r\n
$GPGGA,094953.00,5703.3983169,N,00952.1503471,E,2,11,0.8,-1.493,M,40.592,M,1.4,0123*63\r\n
$GPGGA,094953.05,5703.3982930,N,00952.1502812,E,2,11,0.8,-1.496,M,40.592,M,1.7,0123*6D\r\n
$GPGGA,094953.10,5703.3982691,N,00952.1502168,E,2,11,0.8,-1.498,M,40.592,M,1.7,0123*67\r\n
$GPGGA,094953.15,5703.3982452,N,00952.1501518,E,2,11,0.8,-1.499,M,40.592,M,1.7,0123*6E\r\n
$GPGGA,094953.20,5703.3982210,N,00952.1500878,E,2,11,0.8,-1.502,M,40.592,M,1.7,0123*61\r\n
$GPGGA,094953.25,5703.3981974,N,00952.1500252,E,2,11,0.9,-1.501,M,40.592,M,2.0,0123*6A\r\n
$GPGGA,094953.30,5703.3981737,N,00952.1499615,E,2,11,0.9,-1.502,M,40.592,M,2.0,0123*62\r\n
$GPGGA,094953.35,5703.3981508,N,00952.1498964,E,2,11,0.9,-1.502,M,40.592,M,2.0,0123*61\r\n
$GPGGA,094953.40,5703.3981271,N,00952.1498323,E,2,11,0.9,-1.504,M,40.592,M,2.0,0123*65\r\n
$GPGGA,094953.45,5703.3981031,N,00952.1497670,E,2,11,0.9,-1.507,M,40.592,M,2.3,0123*6A\r\n
$GPGGA,094953.50,5703.3980797,N,00952.1497018,E,2,11,0.9,-1.509,M,40.592,M,2.3,0123*62\r\n
$GPGGA,094953.55,5703.3980563,N,00952.1496364,E,2,11,0.9,-1.512,M,40.592,M,2.3,0123*6D\r\n
$GPGGA,094953.60,5703.3980334,N,00952.1495711,E,2,11,0.9,-1.512,M,40.592,M,2.3,0123*6A\r\n
$GPGGA,094953.65,5703.3980107,N,00952.1495061,E,2,11,0.9,-1.510,M,40.592,M,1.0,0123*6F\r\n
$GPGGA,094953.70,5703.3979877,N,00952.1494412,E,2,11,0.9,-1.511,M,40.592,M,1.0,0123*63\r\n
$GPGGA,094953.75,5703.3979639,N,00952.1493757,E,2,11,0.9,-1.509,M,40.592,M,1.0,0123*6E\r\n
$GPGGA,094953.80,5703.3979415,N,00952.1493099,E,2,11,0.9,-1.509,M,40.592,M,1.0,0123*6D\r\n
$GPGGA,094953.85,5703.3979183,N,00952.1492446,E,2,11,0.9,-1.509,M,40.592,M,1.3,0123*66\r\n
$GPGGA,094953.90,5703.3978949,N,00952.1491795,E,2,11,0.9,-1.510,M,40.592,M,1.3,0123*6B\r\n
$GPGGA,094953.95,5703.3978709,N,00952.1491150,E,2,11,0.9,-1.510,M,40.592,M,1.3,0123*6B\r\n
$GPGGA,094954.00,5703.3978470,N,00952.1490500,E,2,11,0.9,-1.510,M,40.592,M,1.3,0123*6D\r\n
$GPGGA,094954.05,5703.3978233,N,00952.1489835,E,2,11,0.9,-1.512,M,40.592,M,1.5,0123*6E\r\n
$GPGGA,094954.10,5703.3978004,N,00952.1489176,E,2,11,0.9,-1.511,M,40.592,M,1.5,0123*61\r\n
$GPGGA,094954.15,5703.3977763,N,00952.1488528,E,2,11,0.9,-1.512,M,40.592,M,1.5,0123*60\r\n
$GPGGA,094954.20,5703.3977535,N,00952.1487881,E,2,11,0.9,-1.514,M,40.592,M,1.5,0123*60\r\n
$GPGGA,094954.25,5703.3977304,N,00952.1487232,E,2,11,0.9,-1.509,M,40.592,M,1.7,0123*6D\r\n
$GPGGA,094954.30,5703.3977067,N,00952.1486580,E,2,11,0.9,-1.507,M,40.592,M,1.7,0123*6E\r\n
$GPGGA,094954.35,5703.3976838,N,00952.1485920,E,2,11,0.9,-1.507,M,40.592,M,1.7,0123*6D\r\n
$GPGGA,094954.40,5703.3976606,N,00952.1485254,E,2,11,0.9,-1.507,M,40.592,M,1.7,0123*64\r\n
$GPGGA,094954.45,5703.3976372,N,00952.1484587,E,2,11,0.9,-1.508,M,40.592,M,2.0,0123*64\r\n
$GPGGA,094954.50,5703.3976144,N,00952.1483928,E,2,11,0.9,-1.507,M,40.592,M,2.0,0123*66\r\n
$GPGGA,094954.55,5703.3975923,N,00952.1483255,E,2,11,0.9,-1.506,M,40.592,M,2.0,0123*69\r\n
$GPGGA,094954.60,5703.3975703,N,00952.1482577,E,2,11,0.9,-1.507,M,40.592,M,2.0,0123*64\r\n
$GPGGA,094954.65,5703.3975491,N,00952.1481910,E,2,11,0.9,-1.501,M,40.592,M,1.4,0123*66\r\n
$GPGGA,094954.70,5703.3975268,N,00952.1481250,E,2,11,0.9,-1.498,M,40.592,M,1.4,0123*6C\r\n
$GPGGA,094954.75,5703.3975038,N,00952.1480588,E,2,11,0.9,-1.498,M,40.592,M,1.4,0123*6D\r\n
$GPGGA,094954.80,5703.3974805,N,00952.1479941,E,2,11,0.9,-1.497,M,40.592,M,1.4,0123*60\r\n
$GPGGA,094954.85,5703.3974573,N,00952.1479296,E,2,11,0.9,-1.496,M,40.592,M,1.7,0123*6A\r\n
$GPGGA,094954.90,5703.3974332,N,00952.1478652,E,2,11,0.9,-1.494,M,40.592,M,1.7,0123*62\r\n
$GPGGA,094954.95,5703.3974094,N,00952.1478003,E,2,11,0.9,-1.493,M,40.592,M,1.7,0123*6D\r\n
$GPGGA,094955.00,5703.3973858,N,00952.1477360,E,2,11,0.9,-1.492,M,40.592,M,1.7,0123*67\r\n
$GPGGA,094955.05,5703.3973626,N,00952.1476705,E,2,11,0.9,-1.489,M,40.592,M,1.9,0123*67\r\n
$GPGGA,094955.10,5703.3973384,N,00952.1476063,E,2,11,0.9,-1.487,M,40.592,M,1.9,0123*67\r\n
$GPGGA,094955.15,5703.3973143,N,00952.1475417,E,2,11,0.9,-1.488,M,40.592,M,1.9,0123*60\r\n
$GPGGA,094955.20,5703.3972905,N,00952.1474764,E,2,11,0.9,-1.490,M,40.592,M,1.9,0123*62\r\n
$GPGGA,094955.25,5703.3972664,N,00952.1474107,E,2,11,0.9,-1.493,M,40.592,M,2.2,0123*67\r\n
$GPGGA,094955.30,5703.3972422,N,00952.1473458,E,2,11,0.9,-1.495,M,40.592,M,2.2,0123*6D\r\n
$GPGGA,094955.35,5703.3972187,N,00952.1472813,E,2,11,0.9,-1.496,M,40.592,M,2.2,0123*63\r\n
$GPGGA,094955.40,5703.3971963,N,00952.1472155,E,2,11,0.9,-1.497,M,40.592,M,2.2,0123*6A\r\n
$GPGGA,094955.45,5703.3971735,N,00952.1471506,E,2,11,0.9,-1.494,M,40.592,M,2.4,0123*66\r\n
$GPGGA,094955.50,5703.3971506,N,00952.1470852,E,2,11,0.9,-1.495,M,40.592,M,2.4,0123*6C\r\n
$GPGGA,094955.55,5703.3971274,N,00952.1470193,E,2,11,0.9,-1.495,M,40.592,M,2.4,0123*6F\r\n
$GPGGA,094955.60,5703.3971035,N,00952.1469522,E,2,11,0.9,-1.496,M,40.592,M,2.4,0123*6B\r\n
$GPGGA,094955.65,5703.3970794,N,00952.1468862,E,2,11,0.9,-1.499,M,40.592,M,2.6,0123*66\r\n
$GPGGA,094955.70,5703.3970564,N,00952.1468212,E,2,11,0.9,-1.500,M,40.592,M,2.6,0123*63\r\n
$GPGGA,094955.75,5703.3970322,N,00952.1467547,E,2,11,0.9,-1.500,M,40.592,M,2.6,0123*6A\r\n
$GPGGA,094955.80,5703.3970085,N,00952.1466880,E,2,11,0.9,-1.498,M,40.592,M,2.6,0123*69\r\n
$GPGGA,094955.85,5703.3969848,N,00952.1466225,E,2,11,0.9,-1.493,M,40.592,M,2.8,0123*6D\r\n
$GPGGA,094955.90,5703.3969599,N,00952.1465574,E,2,11,0.9,-1.492,M,40.592,M,2.8,0123*69\r\n
$GPGGA,094955.95,5703.3969353,N,00952.1464936,E,2,11,0.9,-1.489,M,40.592,M,2.8,0123*6D\r\n
$GPGGA,094956.00,5703.3969112,N,00952.1464293,E,2,11,0.9,-1.486,M,40.592,M,2.8,0123*6E\r\n
$GPGGA,094956.05,5703.3968857,N,00952.1463618,E,2,11,0.9,-1.491,M,40.592,M,3.1,0123*6C\r\n
$GPGGA,094956.10,5703.3968597,N,00952.1462958,E,2,11,0.9,-1.489,M,40.592,M,3.1,0123*6A\r\n
$GPGGA,094956.15,5703.3968333,N,00952.1462299,E,2,11,0.9,-1.488,M,40.592,M,3.1,0123*60\r\n
$GPGGA,094956.20,5703.3968076,N,00952.1461642,E,2,11,0.9,-1.485,M,40.592,M,3.1,0123*68\r\n
$GPGGA,094956.25,5703.3967814,N,00952.1460979,E,2,11,0.9,-1.484,M,40.592,M,3.3,0123*6B\r\n
$GPGGA,094956.30,5703.3967552,N,00952.1460291,E,2,11,0.9,-1.483,M,40.592,M,3.3,0123*6A\r\n
$GPGGA,094956.35,5703.3967279,N,00952.1459598,E,2,11,0.9,-1.482,M,40.592,M,3.3,0123*64\r\n
$GPGGA,094956.40,5703.3967010,N,00952.1458898,E,2,11,0.9,-1.482,M,40.592,M,3.3,0123*67\r\n
$GPGGA,094956.45,5703.3966740,N,00952.1458176,E,2,11,0.9,-1.480,M,40.592,M,3.5,0123*6C\r\n
$GPGGA,094956.50,5703.3966465,N,00952.1457435,E,2,11,0.9,-1.480,M,40.592,M,3.5,0123*61\r\n
$GPGGA,094956.55,5703.3966194,N,00952.1456686,E,2,11,0.9,-1.478,M,40.592,M,3.5,0123*63\r\n
$GPGGA,094956.60,5703.3965917,N,00952.1455943,E,2,11,0.9,-1.476,M,40.592,M,3.5,0123*6E\r\n
$GPGGA,094956.65,5703.3965645,N,00952.1455212,E,2,11,0.9,-1.474,M,40.592,M,1.1,0123*68\r\n
$GPGGA,094956.70,5703.3965365,N,00952.1454459,E,2,11,0.9,-1.470,M,40.592,M,1.1,0123*67\r\n
$GPGGA,094956.75,5703.3965078,N,00952.1453707,E,2,11,0.9,-1.465,M,40.592,M,1.1,0123*66\r\n
$GPGGA,094956.80,5703.3964778,N,00952.1452933,E,2,11,0.9,-1.460,M,40.592,M,1.1,0123*67\r\n
$GPGGA,094956.85,5703.3964459,N,00952.1452164,E,2,11,0.9,-1.460,M,40.592,M,1.4,0123*6D\r\n
$GPGGA,094956.90,5703.3964138,N,00952.1451407,E,2,11,0.9,-1.459,M,40.592,M,1.4,0123*62\r\n
$GPGGA,094956.95,5703.3963817,N,00952.1450646,E,2,11,0.9,-1.458,M,40.592,M,1.4,0123*63\r\n
$GPGGA,094957.00,5703.3963495,N,00952.1449865,E,2,11,0.9,-1.457,M,40.592,M,1.4,0123*60\r\n
$GPGGA,094957.05,5703.3963164,N,00952.1449050,E,2,11,0.9,-1.455,M,40.592,M,1.7,0123*61\r\n
$GPGGA,094957.10,5703.3962828,N,00952.1448251,E,2,11,0.9,-1.452,M,40.592,M,1.7,0123*60\r\n
$GPGGA,094957.15,5703.3962491,N,00952.1447453,E,2,11,0.9,-1.450,M,40.592,M,1.7,0123*62\r\n
$GPGGA,094957.20,5703.3962149,N,00952.1446656,E,2,11,0.9,-1.448,M,40.592,M,1.7,0123*6B\r\n
$GPGGA,094957.25,5703.3961799,N,00952.1445829,E,2,11,0.9,-1.448,M,40.592,M,2.0,0123*67\r\n
$GPGGA,094957.30,5703.3961446,N,00952.1445012,E,2,11,0.9,-1.446,M,40.592,M,2.0,0123*6C\r\n
$GPGGA,094957.35,5703.3961089,N,00952.1444177,E,2,11,0.9,-1.447,M,40.592,M,2.0,0123*6C\r\n
$GPGGA,094957.40,5703.3960713,N,00952.1443341,E,2,11,0.9,-1.448,M,40.592,M,2.0,0123*64\r\n
$GPGGA,094957.45,5703.3960342,N,00952.1442507,E,2,11,0.9,-1.449,M,40.592,M,2.3,0123*66\r\n
$GPGGA,094957.50,5703.3959976,N,00952.1441662,E,2,11,0.9,-1.447,M,40.592,M,2.3,0123*68\r\n
$GPGGA,094957.55,5703.3959596,N,00952.1440807,E,2,11,0.9,-1.447,M,40.592,M,2.3,0123*63\r\n
$GPGGA,094957.60,5703.3959212,N,00952.1439943,E,2,11,0.9,-1.446,M,40.592,M,2.3,0123*60\r\n
$GPGGA,094957.65,5703.3958826,N,00952.1439082,E,2,11,0.9,-1.446,M,40.592,M,1.0,0123*6D\r\n
$GPGGA,094957.70,5703.3958438,N,00952.1438228,E,2,11,0.9,-1.448,M,40.592,M,1.0,0123*67\r\n
$GPGGA,094957.75,5703.3958035,N,00952.1437385,E,2,11,0.9,-1.450,M,40.592,M,1.0,0123*6B\r\n
$GPGGA,094957.80,5703.3957633,N,00952.1436536,E,2,11,0.9,-1.449,M,40.592,M,1.0,0123*69\r\n
$GPGGA,094957.85,5703.3957231,N,00952.1435686,E,2,11,0.9,-1.448,M,40.592,M,1.3,0123*63\r\n
$GPGGA,094957.90,5703.3956816,N,00952.1434831,E,2,11,0.9,-1.449,M,40.592,M,1.3,0123*6B\r\n
$GPGGA,094957.95,5703.3956396,N,00952.1433974,E,2,11,0.9,-1.450,M,40.592,M,1.3,0123*62\r\n
$GPGGA,094958.00,5703.3955975,N,00952.1433123,E,2,11,0.9,-1.453,M,40.592,M,1.3,0123*6C\r\n
$GPGGA,094958.05,5703.3955547,N,00952.1432245,E,2,11,0.9,-1.456,M,40.592,M,1.5,0123*65\r\n
$GPGGA,094958.10,5703.3955119,N,00952.1431384,E,2,11,0.9,-1.459,M,40.592,M,1.5,0123*6E\r\n
$GPGGA,094958.15,5703.3954684,N,00952.1430532,E,2,11,0.9,-1.460,M,40.592,M,1.5,0123*69\r\n
$GPGGA,094958.20,5703.3954246,N,00952.1429682,E,2,11,0.9,-1.460,M,40.592,M,1.5,0123*65\r\n
$GPGGA,094958.25,5703.3953801,N,00952.1428834,E,2,11,0.9,-1.461,M,40.592,M,1.7,0123*6F\r\n
$GPGGA,094958.30,5703.3953353,N,00952.1428004,E,2,11,0.9,-1.461,M,40.592,M,1.7,0123*6C\r\n
$GPGGA,094958.35,5703.3952894,N,00952.1427120,E,2,11,0.9,-1.463,M,40.592,M,1.7,0123*62\r\n
$GPGGA,094958.40,5703.3952431,N,00952.1426226,E,2,11,0.9,-1.464,M,40.592,M,1.7,0123*60\r\n
$GPGGA,094958.45,5703.3951963,N,00952.1425313,E,2,11,0.9,-1.466,M,40.592,M,2.0,0123*6E\r\n
$GPGGA,094958.50,5703.3951499,N,00952.1424421,E,2,11,0.9,-1.463,M,40.592,M,2.0,0123*60\r\n
$GPGGA,094958.55,5703.3951040,N,00952.1423558,E,2,11,0.9,-1.461,M,40.592,M,2.0,0123*6F\r\n
$GPGGA,094958.60,5703.3950585,N,00952.1422724,E,2,11,0.9,-1.458,M,40.592,M,2.0,0123*66\r\n
$GPGGA,094958.65,5703.3950115,N,00952.1421881,E,2,11,0.9,-1.460,M,40.592,M,1.4,0123*61\r\n
$GPGGA,094958.70,5703.3949627,N,00952.1421004,E,2,11,0.9,-1.462,M,40.592,M,1.4,0123*6C\r\n
$GPGGA,094958.75,5703.3949137,N,00952.1420154,E,2,11,0.9,-1.460,M,40.592,M,1.4,0123*68\r\n
$GPGGA,094958.80,5703.3948642,N,00952.1419311,E,2,11,0.9,-1.460,M,40.592,M,1.4,0123*6F\r\n
$GPGGA,094958.85,5703.3948150,N,00952.1418478,E,2,11,0.9,-1.461,M,40.592,M,1.7,0123*65\r\n
$GPGGA,094958.90,5703.3947666,N,00952.1417670,E,2,11,0.9,-1.460,M,40.592,M,1.7,0123*68\r\n
$GPGGA,094958.95,5703.3947176,N,00952.1416851,E,2,11,0.9,-1.461,M,40.592,M,1.7,0123*66\r\n
$GPGGA,094959.00,5703.3946680,N,00952.1416025,E,2,11,0.9,-1.460,M,40.592,M,1.7,0123*6E\r\n
$GPGGA,094959.05,5703.3946170,N,00952.1415192,E,2,11,0.9,-1.460,M,40.592,M,1.9,0123*63\r\n
$GPGGA,094959.10,5703.3945663,N,00952.1414374,E,2,11,0.9,-1.458,M,40.592,M,1.9,0123*61\r\n
$GPGGA,094959.15,5703.3945155,N,00952.1413567,E,2,11,0.9,-1.457,M,40.592,M,1.9,0123*6A\r\n
$GPGGA,094959.20,5703.3944639,N,00952.1412774,E,2,11,0.9,-1.456,M,40.592,M,1.9,0123*60\r\n
$GPGGA,094959.25,5703.3944123,N,00952.1411986,E,2,11,0.9,-1.453,M,40.592,M,2.2,0123*64\r\n
$GPGGA,094959.30,5703.3943597,N,00952.1411197,E,2,11,0.9,-1.455,M,40.592,M,2.2,0123*62\r\n
$GPGGA,094959.35,5703.3943060,N,00952.1410400,E,2,11,0.9,-1.457,M,40.592,M,2.2,0123*62\r\n
$GPGGA,094959.40,5703.3942527,N,00952.1409618,E,2,11,0.9,-1.459,M,40.592,M,2.2,0123*6A\r\n
$GPGGA,094959.45,5703.3941988,N,00952.1408855,E,2,11,0.9,-1.461,M,40.592,M,2.4,0123*6E\r\n
$GPGGA,094959.50,5703.3941456,N,00952.1408088,E,2,11,0.9,-1.460,M,40.592,M,2.4,0123*6D\r\n
$GPGGA,094959.55,5703.3940918,N,00952.1407313,E,2,11,0.9,-1.460,M,40.592,M,2.4,0123*60\r\n
$GPGGA,094959.60,5703.3940374,N,00952.1406534,E,2,11,0.9,-1.462,M,40.592,M,2.4,0123*66\r\n
$GPGGA,094959.65,5703.3939827,N,00952.1405772,E,2,11,0.9,-1.464,M,40.592,M,2.6,0123*67\r\n
$GPGGA,094959.70,5703.3939281,N,00952.1405025,E,2,11,0.9,-1.465,M,40.592,M,2.6,0123*61\r\n
$GPGGA,094959.75,5703.3938731,N,00952.1404277,E,2,11,0.9,-1.466,M,40.592,M,2.6,0123*6C\r\n
$GPGGA,094959.80,5703.3938173,N,00952.1403538,E,2,11,0.9,-1.466,M,40.592,M,2.6,0123*6D\r\n
$GPGGA,094959.85,5703.3937622,N,00952.1402813,E,2,11,0.9,-1.462,M,40.592,M,2.8,0123*6B\r\n
$GPGGA,094959.90,5703.3937057,N,00952.1402095,E,2,11,0.9,-1.463,M,40.592,M,2.8,0123*6C\r\n
$GPGGA,094959.95,5703.3936498,N,00952.1401392,E,2,11,0.9,-1.463,M,40.592,M,2.8,0123*68\r\n
$GPGGA,095000.00,5703.3935924,N,00952.1400692,E,2,11,0.9,-1.466,M,40.592,M,2.8,0123*68\r\n
$GPGGA,095000.05,5703.3935350,N,00952.1399988,E,2,11,0.9,-1.470,M,40.592,M,3.1,0123*68\r\n
$GPGGA,095000.10,5703.3934783,N,00952.1399315,E,2,11,0.9,-1.471,M,40.592,M,3.1,0123*68\r\n
$GPGGA,095000.15,5703.3934203,N,00952.1398654,E,2,11,0.9,-1.469,M,40.592,M,3.1,0123*68\r\n
$GPGGA,095000.20,5703.3933620,N,00952.1397988,E,2,11,0.9,-1.468,M,40.592,M,3.1,0123*6C\r\n
$GPGGA,095000.25,5703.3933041,N,00952.1397338,E,2,11,0.9,-1.467,M,40.592,M,3.3,0123*64\r\n
$GPGGA,095000.30,5703.3932459,N,00952.1396687,E,2,11,0.9,-1.466,M,40.592,M,3.3,0123*6D\r\n
$GPGGA,095000.35,5703.3931877,N,00952.1396026,E,2,11,0.9,-1.464,M,40.592,M,3.3,0123*64\r\n
$GPGGA,095000.40,5703.3931304,N,00952.1395368,E,2,11,0.9,-1.462,M,40.592,M,3.3,0123*65\r\n
$GPGGA,095000.45,5703.3930721,N,00952.1394720,E,2,11,0.9,-1.463,M,40.592,M,3.5,0123*6C\r\n
$GPGGA,095000.50,5703.3930127,N,00952.1394084,E,2,11,0.9,-1.462,M,40.592,M,3.5,0123*60\r\n
$GPGGA,095000.55,5703.3929525,N,00952.1393454,E,2,11,0.9,-1.464,M,40.592,M,3.5,0123*63\r\n
$GPGGA,095000.60,5703.3928933,N,00952.1392832,E,2,11,0.9,-1.463,M,40.592,M,3.5,0123*65\r\n
$GPGGA,095000.65,5703.3928334,N,00952.1392226,E,2,11,0.9,-1.459,M,40.592,M,1.1,0123*6D\r\n
$GPGGA,095000.70,5703.3927738,N,00952.1391620,E,2,11,0.9,-1.457,M,40.592,M,1.1,0123*61\r\n
$GPGGA,095000.75,5703.3927140,N,00952.1391031,E,2,11,0.9,-1.458,M,40.592,M,1.1,0123*64\r\n
$GPGGA,095000.80,5703.3926528,N,00952.1390443,E,2,11,0.9,-1.460,M,40.592,M,1.1,0123*6E\r\n
$GPGGA,095000.85,5703.3925909,N,00952.1389878,E,2,11,0.9,-1.465,M,40.592,M,1.4,0123*6B\r\n
$GPGGA,095000.90,5703.3925292,N,00952.1389313,E,2,11,0.9,-1.467,M,40.592,M,1.4,0123*62\r\n
$GPGGA,095000.95,5703.3924677,N,00952.1388777,E,2,11,0.9,-1.467,M,40.592,M,1.4,0123*6E\r\n
$GPGGA,095001.00,5703.3924062,N,00952.1388254,E,2,11,0.9,-1.470,M,40.592,M,1.4,0123*63\r\n
$GPGGA,095001.05,5703.3923453,N,00952.1387727,E,2,11,0.9,-1.472,M,40.592,M,1.7,0123*68\r\n
$GPGGA,095001.10,5703.3922843,N,00952.1387202,E,2,11,0.9,-1.472,M,40.592,M,1.7,0123*62\r\n
$GPGGA,095001.15,5703.3922227,N,00952.1386699,E,2,11,0.9,-1.473,M,40.592,M,1.7,0123*69\r\n
$GPGGA,095001.20,5703.3921604,N,00952.1386200,E,2,11,0.9,-1.474,M,40.592,M,1.7,0123*6A\r\n
$GPGGA,095001.25,5703.3920977,N,00952.1385676,E,2,11,0.9,-1.477,M,40.592,M,2.0,0123*64\r\n
$GPGGA,095001.30,5703.3920350,N,00952.1385169,E,2,11,0.9,-1.478,M,40.592,M,2.0,0123*69\r\n
$GPGGA,095001.35,5703.3919728,N,00952.1384684,E,2,11,0.9,-1.478,M,40.592,M,2.0,0123*68\r\n
$GPGGA,095001.40,5703.3919102,N,00952.1384209,E,2,11,0.9,-1.476,M,40.592,M,2.0,0123*6B\r\n
$GPGGA,095001.45,5703.3918476,N,00952.1383751,E,2,11,0.9,-1.472,M,40.592,M,2.3,0123*61\r\n
$GPGGA,095001.50,5703.3917846,N,00952.1383303,E,2,11,0.9,-1.473,M,40.592,M,2.3,0123*67\r\n
$GPGGA,095001.55,5703.3917221,N,00952.1382861,E,2,11,0.9,-1.472,M,40.592,M,2.3,0123*66\r\n
$GPGGA,095001.60,5703.3916583,N,00952.1382429,E,2,11,0.9,-1.471,M,40.592,M,2.3,0123*6D\r\n
$GPGGA,095001.65,5703.3915954,N,00952.1381977,E,2,11,0.9,-1.475,M,40.592,M,1.0,0123*6C\r\n
$GPGGA,095001.70,5703.3915321,N,00952.1381539,E,2,11,0.9,-1.472,M,40.592,M,1.0,0123*61\r\n
$GPGGA,095001.75,5703.3914686,N,00952.1381120,E,2,11,0.9,-1.471,M,40.592,M,1.0,0123*62\r\n
$GPGGA,095001.80,5703.3914056,N,00952.1380700,E,2,11,0.9,-1.471,M,40.592,M,1.0,0123*66\r\n
$GPGGA,095001.85,5703.3913416,N,00952.1380274,E,2,11,0.9,-1.474,M,40.592,M,1.3,0123*64\r\n
$GPGGA,095001.90,5703.3912770,N,00952.1379851,E,2,11,0.9,-1.475,M,40.592,M,1.3,0123*68\r\n
$GPGGA,095001.95,5703.3912129,N,00952.1379449,E,2,11,0.9,-1.477,M,40.592,M,1.3,0123*60\r\n
$GPGGA,095002.00,5703.3911495,N,00952.1379069,E,2,11,0.9,-1.474,M,40.592,M,1.3,0123*6B\r\n
$GPGGA,095002.05,5703.3910858,N,00952.1378684,E,2,11,0.9,-1.469,M,40.592,M,1.5,0123*6C\r\n
$GPGGA,095002.10,5703.3910223,N,00952.1378295,E,2,11,0.9,-1.468,M,40.592,M,1.5,0123*6B\r\n
$GPGGA,095002.15,5703.3909582,N,00952.1377921,E,2,11,0.9,-1.469,M,40.592,M,1.5,0123*60\r\n
$GPGGA,095002.20,5703.3908940,N,00952.1377575,E,2,11,0.9,-1.468,M,40.592,M,1.5,0123*69\r\n
$GPGGA,095002.25,5703.3908295,N,00952.1377229,E,2,11,0.9,-1.468,M,40.592,M,1.7,0123*63\r\n
$GPGGA,095002.30,5703.3907647,N,00952.1376873,E,2,11,0.9,-1.468,M,40.592,M,1.7,0123*67\r\n
$GPGGA,095002.35,5703.3906997,N,00952.1376536,E,2,11,0.9,-1.468,M,40.592,M,1.7,0123*6D\r\n
$GPGGA,095002.40,5703.3906345,N,00952.1376215,E,2,11,0.9,-1.468,M,40.592,M,1.7,0123*6C\r\n
$GPGGA,095002.45,5703.3905694,N,00952.1375897,E,2,11,0.9,-1.465,M,40.592,M,2.0,0123*69\r\n
$GPGGA,095002.50,5703.3905046,N,00952.1375571,E,2,11,0.9,-1.465,M,40.592,M,2.0,0123*61\r\n
$GPGGA,095002.55,5703.3904393,N,00952.1375271,E,2,11,0.9,-1.464,M,40.592,M,2.0,0123*68\r\n
$GPGGA,095002.60,5703.3903749,N,00952.1374970,E,2,11,0.9,-1.462,M,40.592,M,2.0,0123*67\r\n
$GPGGA,095002.65,5703.3903089,N,00952.1374662,E,2,11,0.9,-1.466,M,40.592,M,1.4,0123*66\r\n
$GPGGA,095002.70,5703.3902433,N,00952.1374386,E,2,11,0.9,-1.468,M,40.592,M,1.4,0123*67\r\n
$GPGGA,095002.75,5703.3901778,N,00952.1374104,E,2,11,0.9,-1.469,M,40.592,M,1.4,0123*64\r\n
$GPGGA,095002.80,5703.3901116,N,00952.1373825,E,2,11,0.9,-1.472,M,40.592,M,1.4,0123*67\r\n
$GPGGA,095002.85,5703.3900450,N,00952.1373534,E,2,11,0.9,-1.472,M,40.592,M,1.7,0123*6A\r\n
$GPGGA,095002.90,5703.3899778,N,00952.1373250,E,2,11,0.9,-1.471,M,40.592,M,1.7,0123*60\r\n
$GPGGA,095002.95,5703.3899115,N,00952.1372973,E,2,11,0.9,-1.474,M,40.592,M,1.7,0123*66\r\n
$GPGGA,095003.00,5703.3898447,N,00952.1372689,E,2,11,0.9,-1.475,M,40.592,M,1.7,0123*63\r\n
$GPGGA,095003.05,5703.3897781,N,00952.1372402,E,2,11,0.9,-1.476,M,40.592,M,1.9,0123*6C\r\n
$GPGGA,095003.10,5703.3897111,N,00952.1372118,E,2,11,0.9,-1.479,M,40.592,M,1.9,0123*66\r\n
$GPGGA,095003.15,5703.3896448,N,00952.1371851,E,2,11,0.9,-1.480,M,40.592,M,1.9,0123*6A\r\n
$GPGGA,095003.20,5703.3895778,N,00952.1371580,E,2,11,0.9,-1.479,M,40.592,M,1.9,0123*68\r\n
$GPGGA,095003.25,5703.3895116,N,00952.1371321,E,2,11,0.9,-1.474,M,40.592,M,2.2,0123*6B\r\n
$GPGGA,095003.30,5703.3894450,N,00952.1371076,E,2,11,0.9,-1.472,M,40.592,M,2.2,0123*6E\r\n
$GPGGA,095003.35,5703.3893779,N,00952.1370822,E,2,11,0.9,-1.470,M,40.592,M,2.2,0123*6E\r\n
$GPGGA,095003.40,5703.3893110,N,00952.1370567,E,2,11,0.9,-1.467,M,40.592,M,2.2,0123*6F\r\n
$GPGGA,095003.45,5703.3892436,N,00952.1370298,E,2,11,0.9,-1.466,M,40.592,M,2.4,0123*6A\r\n
$GPGGA,095003.50,5703.3891778,N,00952.1370048,E,2,11,0.9,-1.464,M,40.592,M,2.4,0123*69\r\n
$GPGGA,095003.55,5703.3891101,N,00952.1369796,E,2,11,0.9,-1.462,M,40.592,M,2.4,0123*6E\r\n
$GPGGA,095003.60,5703.3890419,N,00952.1369554,E,2,11,0.9,-1.460,M,40.592,M,2.4,0123*6B\r\n
$GPGGA,095003.65,5703.3889744,N,00952.1369318,E,2,11,0.9,-1.457,M,40.592,M,2.6,0123*65\r\n
$GPGGA,095003.70,5703.3889075,N,00952.1369092,E,2,11,0.9,-1.456,M,40.592,M,2.6,0123*64\r\n
$GPGGA,095003.75,5703.3888406,N,00952.1368868,E,2,11,0.9,-1.454,M,40.592,M,2.6,0123*6E\r\n
$GPGGA,095003.80,5703.3887730,N,00952.1368636,E,2,11,0.9,-1.455,M,40.592,M,2.6,0123*69\r\n
$GPGGA,095003.85,5703.3887057,N,00952.1368426,E,2,11,0.9,-1.458,M,40.592,M,2.8,0123*6A\r\n
$GPGGA,095003.90,5703.3886377,N,00952.1368219,E,2,11,0.9,-1.460,M,40.592,M,2.8,0123*6F\r\n
$GPGGA,095003.95,5703.3885696,N,00952.1368005,E,2,11,0.9,-1.459,M,40.592,M,2.8,0123*66\r\n
$GPGGA,095004.00,5703.3885019,N,00952.1367791,E,2,11,0.9,-1.461,M,40.592,M,2.8,0123*62\r\n
$GPGGA,095004.05,5703.3884336,N,00952.1367554,E,2,11,0.9,-1.460,M,40.592,M,3.1,0123*6A\r\n
$GPGGA,095004.10,5703.3883659,N,00952.1367365,E,2,11,0.9,-1.460,M,40.592,M,3.1,0123*61\r\n
$GPGGA,095004.15,5703.3882988,N,00952.1367171,E,2,11,0.9,-1.459,M,40.592,M,3.1,0123*6B\r\n
$GPGGA,095004.20,5703.3882299,N,00952.1366950,E,2,11,0.9,-1.462,M,40.592,M,3.1,0123*64\r\n
$GPGGA,095004.25,5703.3881612,N,00952.1366753,E,2,11,0.9,-1.467,M,40.592,M,3.3,0123*6F\r\n
$GPGGA,095004.30,5703.3880939,N,00952.1366556,E,2,11,0.9,-1.466,M,40.592,M,3.3,0123*6A\r\n
$GPGGA,095004.35,5703.3880267,N,00952.1366371,E,2,11,0.9,-1.466,M,40.592,M,3.3,0123*6C\r\n
$GPGGA,095004.40,5703.3879590,N,00952.1366193,E,2,11,0.9,-1.468,M,40.592,M,3.3,0123*67\r\n
$GPGGA,095004.45,5703.3878912,N,00952.1366006,E,2,11,0.9,-1.467,M,40.592,M,3.5,0123*61\r\n
$GPGGA,095004.50,5703.3878234,N,00952.1365819,E,2,11,0.9,-1.464,M,40.592,M,3.5,0123*6C\r\n
$GPGGA,095004.55,5703.3877558,N,00952.1365642,E,2,11,0.9,-1.466,M,40.592,M,3.5,0123*69\r\n
$GPGGA,095004.60,5703.3876881,N,00952.1365471,E,2,11,0.9,-1.465,M,40.592,M,3.5,0123*66\r\n
$GPGGA,095004.65,5703.3876204,N,00952.1365304,E,2,11,0.9,-1.463,M,40.592,M,1.1,0123*61\r\n
$GPGGA,095004.70,5703.3875526,N,00952.1365146,E,2,11,0.9,-1.463,M,40.592,M,1.1,0123*65\r\n
$GPGGA,095004.75,5703.3874837,N,00952.1365000,E,2,11,0.9,-1.463,M,40.592,M,1.1,0123*6F\r\n
$GPGGA,095004.80,5703.3874160,N,00952.1364844,E,2,11,0.9,-1.462,M,40.592,M,1.1,0123*66\r\n
$GPGGA,095004.85,5703.3873486,N,00952.1364681,E,2,11,0.9,-1.461,M,40.592,M,1.4,0123*68\r\n
$GPGGA,095004.90,5703.3872805,N,00952.1364526,E,2,11,0.9,-1.464,M,40.592,M,1.4,0123*61\r\n
$GPGGA,095004.95,5703.3872122,N,00952.1364369,E,2,11,0.9,-1.463,M,40.592,M,1.4,0123*62\r\n
$GPGGA,095005.00,5703.3871433,N,00952.1364220,E,2,11,0.9,-1.465,M,40.592,M,1.4,0123*63\r\n
$GPGGA,095005.05,5703.3870762,N,00952.1364064,E,2,11,0.9,-1.464,M,40.592,M,1.7,0123*60\r\n
$GPGGA,095005.10,5703.3870085,N,00952.1363932,E,2,11,0.9,-1.462,M,40.592,M,1.7,0123*61\r\n
$GPGGA,095005.15,5703.3869400,N,00952.1363802,E,2,11,0.9,-1.461,M,40.592,M,1.7,0123*64\r\n
$GPGGA,095005.20,5703.3868720,N,00952.1363669,E,2,11,0.9,-1.461,M,40.592,M,1.7,0123*61\r\n
$GPGGA,095005.25,5703.3868033,N,00952.1363567,E,2,11,0.9,-1.459,M,40.592,M,2.0,0123*63\r\n
$GPGGA,095005.30,5703.3867355,N,00952.1363435,E,2,11,0.9,-1.462,M,40.592,M,2.0,0123*65\r\n
$GPGGA,095005.35,5703.3866680,N,00952.1363326,E,2,11,0.9,-1.459,M,40.592,M,2.0,0123*61\r\n
$GPGGA,095005.40,5703.3865993,N,00952.1363206,E,2,11,0.9,-1.460,M,40.592,M,2.0,0123*64\r\n
$GPGGA,095005.45,5703.3865296,N,00952.1363080,E,2,11,0.9,-1.466,M,40.592,M,2.3,0123*66\r\n
$GPGGA,095005.50,5703.3864608,N,00952.1362977,E,2,11,0.9,-1.466,M,40.592,M,2.3,0123*60\r\n
$GPGGA,095005.55,5703.3863919,N,00952.1362884,E,2,11,0.9,-1.468,M,40.592,M,2.3,0123*6E\r\n
$GPGGA,095005.60,5703.3863232,N,00952.1362775,E,2,11,0.9,-1.469,M,40.592,M,2.3,0123*6A\r\n
$GPGGA,095005.65,5703.3862549,N,00952.1362671,E,2,11,0.9,-1.468,M,40.592,M,1.0,0123*61\r\n
$GPGGA,095005.70,5703.3861855,N,00952.1362558,E,2,11,0.9,-1.469,M,40.592,M,1.0,0123*6F\r\n
$GPGGA,095005.75,5703.3861176,N,00952.1362449,E,2,11,0.9,-1.468,M,40.592,M,1.0,0123*62\r\n
$GPGGA,095005.80,5703.3860499,N,00952.1362353,E,2,11,0.9,-1.465,M,40.592,M,1.0,0123*6C\r\n
$GPGGA,095005.85,5703.3859804,N,00952.1362240,E,2,11,0.9,-1.465,M,40.592,M,1.3,0123*6B\r\n
$GPGGA,095005.90,5703.3859113,N,00952.1362129,E,2,11,0.9,-1.464,M,40.592,M,1.3,0123*6D\r\n
$GPGGA,095005.95,5703.3858424,N,00952.1362035,E,2,11,0.9,-1.465,M,40.592,M,1.3,0123*65\r\n
$GPGGA,095006.00,5703.3857730,N,00952.1361949,E,2,11,0.9,-1.465,M,40.592,M,1.3,0123*62\r\n
$GPGGA,095006.05,5703.3857040,N,00952.1361846,E,2,11,0.9,-1.465,M,40.592,M,1.5,0123*6F\r\n
$GPGGA,095006.10,5703.3856340,N,00952.1361744,E,2,11,0.9,-1.466,M,40.592,M,1.5,0123*67\r\n
$GPGGA,095006.15,5703.3855653,N,00952.1361654,E,2,11,0.9,-1.468,M,40.592,M,1.5,0123*68\r\n
$GPGGA,095006.20,5703.3854959,N,00952.1361562,E,2,11,0.9,-1.468,M,40.592,M,1.5,0123*6C\r\n
$GPGGA,095006.25,5703.3854260,N,00952.1361490,E,2,11,0.9,-1.469,M,40.592,M,1.7,0123*67\r\n
$GPGGA,095006.30,5703.3853557,N,00952.1361417,E,2,11,0.9,-1.472,M,40.592,M,1.7,0123*62\r\n
$GPGGA,095006.35,5703.3852866,N,00952.1361348,E,2,11,0.9,-1.472,M,40.592,M,1.7,0123*64\r\n
$GPGGA,095006.40,5703.3852171,N,00952.1361287,E,2,11,0.9,-1.475,M,40.592,M,1.7,0123*6C\r\n
$GPGGA,095006.45,5703.3851475,N,00952.1361234,E,2,11,0.9,-1.478,M,40.592,M,2.0,0123*6A\r\n
$GPGGA,095006.50,5703.3850780,N,00952.1361187,E,2,11,0.9,-1.480,M,40.592,M,2.0,0123*6A\r\n
$GPGGA,095006.55,5703.3850073,N,00952.1361133,E,2,11,0.9,-1.481,M,40.592,M,2.0,0123*6A\r\n
$GPGGA,095006.60,5703.3849370,N,00952.1361088,E,2,11,0.9,-1.484,M,40.592,M,2.0,0123*60\r\n
$GPGGA,095006.65,5703.3848679,N,00952.1361044,E,2,11,0.9,-1.482,M,40.592,M,1.4,0123*69\r\n
$GPGGA,095006.70,5703.3847977,N,00952.1360980,E,2,11,0.9,-1.483,M,40.592,M,1.4,0123*62\r\n
$GPGGA,095006.75,5703.3847279,N,00952.1360926,E,2,11,0.9,-1.482,M,40.592,M,1.4,0123*6F\r\n
$GPGGA,095006.80,5703.3846585,N,00952.1360870,E,2,11,0.9,-1.481,M,40.592,M,1.4,0123*61\r\n
$GPGGA,095006.85,5703.3845886,N,00952.1360826,E,2,11,0.9,-1.479,M,40.592,M,1.7,0123*6E\r\n
$GPGGA,095006.90,5703.3845183,N,00952.1360771,E,2,11,0.9,-1.477,M,40.592,M,1.7,0123*65\r\n
$GPGGA,095006.95,5703.3844484,N,00952.1360729,E,2,11,0.9,-1.476,M,40.592,M,1.7,0123*6F\r\n
$GPGGA,095007.00,5703.3843777,N,00952.1360690,E,2,11,0.9,-1.478,M,40.592,M,1.7,0123*67\r\n
$GPGGA,095007.05,5703.3843077,N,00952.1360653,E,2,11,0.9,-1.477,M,40.592,M,1.9,0123*6B\r\n
$GPGGA,095007.10,5703.3842369,N,00952.1360627,E,2,11,0.9,-1.479,M,40.592,M,1.9,0123*6F\r\n
$GPGGA,095007.15,5703.3841667,N,00952.1360604,E,2,11,0.9,-1.478,M,40.592,M,1.9,0123*62\r\n
$GPGGA,095007.20,5703.3840962,N,00952.1360587,E,2,11,0.9,-1.477,M,40.592,M,1.9,0123*68\r\n
$GPGGA,095007.25,5703.3840250,N,00952.1360579,E,2,11,0.9,-1.476,M,40.592,M,2.2,0123*6F\r\n
$GPGGA,095007.30,5703.3839544,N,00952.1360569,E,2,11,0.9,-1.477,M,40.592,M,2.2,0123*67\r\n
$GPGGA,095007.35,5703.3838843,N,00952.1360558,E,2,11,0.9,-1.478,M,40.592,M,2.2,0123*64\r\n
$GPGGA,095007.40,5703.3838131,N,00952.1360549,E,2,11,0.9,-1.479,M,40.592,M,2.2,0123*6B\r\n
$GPGGA,095007.45,5703.3837430,N,00952.1360536,E,2,11,0.9,-1.479,M,40.592,M,2.4,0123*6B\r\n
$GPGGA,095007.50,5703.3836718,N,00952.1360532,E,2,11,0.9,-1.478,M,40.592,M,2.4,0123*62\r\n
$GPGGA,095007.55,5703.3836012,N,00952.1360539,E,2,11,0.9,-1.479,M,40.592,M,2.4,0123*60\r\n
$GPGGA,095007.60,5703.3835310,N,00952.1360529,E,2,11,0.9,-1.480,M,40.592,M,2.4,0123*63\r\n
$GPGGA,095007.65,5703.3834613,N,00952.1360520,E,2,11,0.9,-1.475,M,40.592,M,2.6,0123*60\r\n
$GPGGA,095007.70,5703.3833914,N,00952.1360521,E,2,11,0.9,-1.473,M,40.592,M,2.6,0123*6C\r\n
$GPGGA,095007.75,5703.3833208,N,00952.1360539,E,2,11,0.9,-1.473,M,40.592,M,2.6,0123*66\r\n
$GPGGA,095007.80,5703.3832505,N,00952.1360556,E,2,11,0.9,-1.473,M,40.592,M,2.6,0123*6E\r\n
$GPGGA,095007.85,5703.3831801,N,00952.1360564,E,2,11,0.9,-1.473,M,40.592,M,2.8,0123*6E\r\n
$GPGGA,095007.90,5703.3831089,N,00952.1360589,E,2,11,0.9,-1.477,M,40.592,M,2.8,0123*65\r\n
$GPGGA,095007.95,5703.3830387,N,00952.1360624,E,2,11,0.9,-1.477,M,40.592,M,2.8,0123*68\r\n
$GPGGA,095008.00,5703.3829687,N,00952.1360634,E,2,11,0.9,-1.476,M,40.592,M,2.8,0123*66\r\n
$GPGGA,095008.05,5703.3828986,N,00952.1360640,E,2,11,0.9,-1.472,M,40.592,M,3.1,0123*63\r\n
$GPGGA,095008.10,5703.3828278,N,00952.1360649,E,2,11,0.9,-1.471,M,40.592,M,3.1,0123*67\r\n
$GPGGA,095008.15,5703.3827578,N,00952.1360675,E,2,11,0.9,-1.471,M,40.592,M,3.1,0123*65\r\n
$GPGGA,095008.20,5703.3826883,N,00952.1360691,E,2,11,0.9,-1.470,M,40.592,M,3.1,0123*60\r\n
$GPGGA,095008.25,5703.3826185,N,00952.1360725,E,2,11,0.9,-1.468,M,40.592,M,3.3,0123*6F\r\n
$GPGGA,095008.30,5703.3825481,N,00952.1360754,E,2,11,0.9,-1.467,M,40.592,M,3.3,0123*60\r\n
$GPGGA,095008.35,5703.3824775,N,00952.1360781,E,2,11,0.9,-1.466,M,40.592,M,3.3,0123*65\r\n
$GPGGA,095008.40,5703.3824080,N,00952.1360821,E,2,11,0.9,-1.466,M,40.592,M,3.3,0123*6F\r\n
$GPGGA,095008.45,5703.3823382,N,00952.1360850,E,2,11,0.9,-1.464,M,40.592,M,3.5,0123*6E\r\n
$GPGGA,095008.50,5703.3822680,N,00952.1360890,E,2,11,0.9,-1.465,M,40.592,M,3.5,0123*61\r\n
$GPGGA,095008.55,5703.3821973,N,00952.1360935,E,2,11,0.9,-1.465,M,40.592,M,3.5,0123*6A\r\n
$GPGGA,095008.60,5703.3821274,N,00952.1360990,E,2,11,0.9,-1.464,M,40.592,M,3.5,0123*6E\r\n
$GPGGA,095008.65,5703.3820575,N,00952.1361050,E,2,11,0.9,-1.465,M,40.592,M,1.1,0123*6F\r\n
$GPGGA,095008.70,5703.3819881,N,00952.1361109,E,2,11,0.9,-1.467,M,40.592,M,1.1,0123*68\r\n
$GPGGA,095008.75,5703.3819187,N,00952.1361170,E,2,11,0.9,-1.466,M,40.592,M,1.1,0123*6D\r\n
$GPGGA,095008.80,5703.3818500,N,00952.1361241,E,2,11,0.9,-1.466,M,40.592,M,1.1,0123*6C\r\n
$GPGGA,095008.85,5703.3817803,N,00952.1361317,E,2,11,0.9,-1.464,M,40.592,M,1.4,0123*6D\r\n
$GPGGA,095008.90,5703.3817099,N,00952.1361376,E,2,11,0.9,-1.466,M,40.592,M,1.4,0123*67\r\n
$GPGGA,095008.95,5703.3816413,N,00952.1361431,E,2,11,0.9,-1.465,M,40.592,M,1.4,0123*62\r\n
$GPGGA,095009.00,5703.3815724,N,00952.1361506,E,2,11,0.9,-1.466,M,40.592,M,1.4,0123*6D\r\n
$GPGGA,095009.05,5703.3815025,N,00952.1361564,E,2,11,0.9,-1.466,M,40.592,M,1.7,0123*69\r\n
$GPGGA,095009.10,5703.3814325,N,00952.1361633,E,2,11,0.9,-1.469,M,40.592,M,1.7,0123*61\r\n
$GPGGA,095009.15,5703.3813627,N,00952.1361698,E,2,11,0.9,-1.471,M,40.592,M,1.7,0123*6C\r\n
$GPGGA,095009.20,5703.3812937,N,00952.1361774,E,2,11,0.9,-1.471,M,40.592,M,1.7,0123*66\r\n
$GPGGA,095009.25,5703.3812242,N,00952.1361842,E,2,11,0.9,-1.468,M,40.592,M,2.0,0123*6C\r\n
$GPGGA,095009.30,5703.3811552,N,00952.1361924,E,2,11,0.9,-1.470,M,40.592,M,2.0,0123*65\r\n
$GPGGA,095009.35,5703.3810852,N,00952.1362013,E,2,11,0.9,-1.471,M,40.592,M,2.0,0123*63\r\n
$GPGGA,095009.40,5703.3810160,N,00952.1362096,E,2,11,0.9,-1.471,M,40.592,M,2.0,0123*64\r\n
$GPGGA,095009.45,5703.3809469,N,00952.1362175,E,2,11,0.9,-1.472,M,40.592,M,2.3,0123*69\r\n
$GPGGA,095009.50,5703.3808775,N,00952.1362271,E,2,11,0.9,-1.471,M,40.592,M,2.3,0123*66\r\n
$GPGGA,095009.55,5703.3808089,N,00952.1362378,E,2,11,0.9,-1.469,M,40.592,M,2.3,0123*66\r\n
$GPGGA,095009.60,5703.3807403,N,00952.1362482,E,2,11,0.9,-1.470,M,40.592,M,2.3,0123*63\r\n
$GPGGA,095009.65,5703.3806718,N,00952.1362608,E,2,11,0.9,-1.468,M,40.592,M,1.0,0123*67\r\n
$GPGGA,095009.70,5703.3806023,N,00952.1362723,E,2,11,0.9,-1.470,M,40.592,M,1.0,0123*6D\r\n
$GPGGA,095009.75,5703.3805320,N,00952.1362849,E,2,11,0.9,-1.472,M,40.592,M,1.0,0123*6A\r\n
$GPGGA,095009.80,5703.3804639,N,00952.1362975,E,2,11,0.9,-1.470,M,40.592,M,1.0,0123*60\r\n
$GPGGA,095009.85,5703.3803960,N,00952.1363103,E,2,11,0.9,-1.471,M,40.592,M,1.3,0123*6B\r\n
$GPGGA,095009.90,5703.3803277,N,00952.1363240,E,2,11,0.9,-1.471,M,40.592,M,1.3,0123*66\r\n
$GPGGA,095009.95,5703.3802592,N,00952.1363371,E,2,11,0.9,-1.470,M,40.592,M,1.3,0123*6C\r\n
$GPGGA,095010.00,5703.3801907,N,00952.1363501,E,2,11,0.9,-1.469,M,40.592,M,1.3,0123*62\r\n
$GPGGA,095010.05,5703.3801225,N,00952.1363616,E,2,11,0.9,-1.467,M,40.592,M,1.5,0123*61\r\n
$GPGGA,095010.10,5703.3800537,N,00952.1363754,E,2,11,0.9,-1.466,M,40.592,M,1.5,0123*66\r\n
$GPGGA,095010.15,5703.3799851,N,00952.1363899,E,2,11,0.9,-1.469,M,40.592,M,1.5,0123*60\r\n
$GPGGA,095010.20,5703.3799163,N,00952.1364045,E,2,11,0.9,-1.474,M,40.592,M,1.5,0123*6C\r\n
$GPGGA,095010.25,5703.3798483,N,00952.1364223,E,2,11,0.9,-1.472,M,40.592,M,1.7,0123*65\r\n
$GPGGA,095010.30,5703.3797801,N,00952.1364408,E,2,11,0.9,-1.472,M,40.592,M,1.7,0123*67\r\n
$GPGGA,095010.35,5703.3797116,N,00952.1364588,E,2,11,0.9,-1.472,M,40.592,M,1.7,0123*64\r\n
$GPGGA,095010.40,5703.3796437,N,00952.1364763,E,2,11,0.9,-1.473,M,40.592,M,1.7,0123*67\r\n
$GPGGA,095010.45,5703.3795764,N,00952.1364940,E,2,11,0.9,-1.475,M,40.592,M,2.0,0123*69\r\n
$GPGGA,095010.50,5703.3795077,N,00952.1365127,E,2,11,0.9,-1.476,M,40.592,M,2.0,0123*63\r\n
$GPGGA,095010.55,5703.3794392,N,00952.1365289,E,2,11,0.9,-1.477,M,40.592,M,2.0,0123*69\r\n
$GPGGA,095010.60,5703.3793716,N,00952.1365481,E,2,11,0.9,-1.476,M,40.592,M,2.0,0123*6F\r\n
$GPGGA,095010.65,5703.3793035,N,00952.1365674,E,2,11,0.9,-1.476,M,40.592,M,1.4,0123*63\r\n
$GPGGA,095010.70,5703.3792361,N,00952.1365870,E,2,11,0.9,-1.476,M,40.592,M,1.4,0123*6E\r\n
$GPGGA,095010.75,5703.3791674,N,00952.1366061,E,2,11,0.9,-1.479,M,40.592,M,1.4,0123*6D\r\n
$GPGGA,095010.80,5703.3790988,N,00952.1366272,E,2,11,0.9,-1.478,M,40.592,M,1.4,0123*6B\r\n
$GPGGA,095010.85,5703.3790303,N,00952.1366477,E,2,11,0.9,-1.479,M,40.592,M,1.7,0123*66\r\n
$GPGGA,095010.90,5703.3789615,N,00952.1366686,E,2,11,0.9,-1.479,M,40.592,M,1.7,0123*64\r\n
$GPGGA,095010.95,5703.3788936,N,00952.1366910,E,2,11,0.9,-1.481,M,40.592,M,1.7,0123*69\r\n
$GPGGA,095011.00,5703.3788254,N,00952.1367130,E,2,11,0.9,-1.481,M,40.592,M,1.7,0123*60\r\n
$GPGGA,095011.05,5703.3787585,N,00952.1367319,E,2,11,0.9,-1.477,M,40.592,M,1.9,0123*6F\r\n
$GPGGA,095011.10,5703.3786906,N,00952.1367554,E,2,11,0.9,-1.475,M,40.592,M,1.9,0123*60\r\n
$GPGGA,095011.15,5703.3786222,N,00952.1367774,E,2,11,0.9,-1.473,M,40.592,M,1.9,0123*6E\r\n
$GPGGA,095011.20,5703.3785540,N,00952.1368003,E,2,11,0.9,-1.472,M,40.592,M,1.9,0123*61\r\n
$GPGGA,095011.25,5703.3784863,N,00952.1368228,E,2,11,0.9,-1.468,M,40.592,M,2.2,0123*61\r\n
$GPGGA,095011.30,5703.3784182,N,00952.1368449,E,2,11,0.9,-1.466,M,40.592,M,2.2,0123*6C\r\n
$GPGGA,095011.35,5703.3783498,N,00952.1368668,E,2,11,0.9,-1.464,M,40.592,M,2.2,0123*63\r\n
$GPGGA,095011.40,5703.3782821,N,00952.1368895,E,2,11,0.9,-1.461,M,40.592,M,2.2,0123*67\r\n
$GPGGA,095011.45,5703.3782135,N,00952.1369110,E,2,11,0.9,-1.465,M,40.592,M,2.4,0123*69\r\n
$GPGGA,095011.50,5703.3781457,N,00952.1369319,E,2,11,0.9,-1.462,M,40.592,M,2.4,0123*63\r\n
$GPGGA,095011.55,5703.3780788,N,00952.1369557,E,2,11,0.9,-1.456,M,40.592,M,2.4,0123*6D\r\n
$GPGGA,095011.60,5703.3780112,N,00952.1369798,E,2,11,0.9,-1.453,M,40.592,M,2.4,0123*6A\r\n
$GPGGA,095011.65,5703.3779429,N,00952.1370030,E,2,11,0.9,-1.455,M,40.592,M,2.6,0123*6D\r\n
$GPGGA,095011.70,5703.3778754,N,00952.1370277,E,2,11,0.9,-1.455,M,40.592,M,2.6,0123*60\r\n
$GPGGA,095011.75,5703.3778086,N,00952.1370499,E,2,11,0.9,-1.454,M,40.592,M,2.6,0123*6A\r\n
$GPGGA,095011.80,5703.3777404,N,00952.1370737,E,2,11,0.9,-1.455,M,40.592,M,2.6,0123*67\r\n
$GPGGA,095011.85,5703.3776732,N,00952.1370979,E,2,11,0.9,-1.456,M,40.592,M,2.8,0123*6C\r\n
$GPGGA,095011.90,5703.3776073,N,00952.1371234,E,2,11,0.9,-1.459,M,40.592,M,2.8,0123*66\r\n
$GPGGA,095011.95,5703.3775405,N,00952.1371490,E,2,11,0.9,-1.462,M,40.592,M,2.8,0123*65\r\n
$GPGGA,095012.00,5703.3774742,N,00952.1371745,E,2,11,0.9,-1.462,M,40.592,M,2.8,0123*60\r\n
$GPGGA,095012.05,5703.3774081,N,00952.1372013,E,2,11,0.9,-1.460,M,40.592,M,3.1,0123*60\r\n
$GPGGA,095012.10,5703.3773408,N,00952.1372286,E,2,11,0.9,-1.463,M,40.592,M,3.1,0123*6B\r\n
$GPGGA,095012.15,5703.3772748,N,00952.1372553,E,2,11,0.9,-1.463,M,40.592,M,3.1,0123*67\r\n
$GPGGA,095012.20,5703.3772094,N,00952.1372812,E,2,11,0.9,-1.464,M,40.592,M,3.1,0123*68\r\n
$GPGGA,095012.25,5703.3771430,N,00952.1373084,E,2,11,0.9,-1.475,M,40.592,M,3.3,0123*60\r\n
$GPGGA,095012.30,5703.3770776,N,00952.1373378,E,2,11,0.9,-1.476,M,40.592,M,3.3,0123*67\r\n
$GPGGA,095012.35,5703.3770113,N,00952.1373682,E,2,11,0.9,-1.480,M,40.592,M,3.3,0123*6E\r\n
$GPGGA,095012.40,5703.3769462,N,00952.1373995,E,2,11,0.9,-1.482,M,40.592,M,3.3,0123*6C\r\n
$GPGGA,095012.45,5703.3768813,N,00952.1374311,E,2,11,0.9,-1.483,M,40.592,M,3.5,0123*64\r\n
$GPGGA,095012.50,5703.3768162,N,00952.1374631,E,2,11,0.9,-1.484,M,40.592,M,3.5,0123*6F\r\n
$GPGGA,095012.55,5703.3767503,N,00952.1374941,E,2,11,0.9,-1.487,M,40.592,M,3.5,0123*6D\r\n
$GPGGA,095012.60,5703.3766847,N,00952.1375258,E,2,11,0.9,-1.487,M,40.592,M,3.5,0123*65\r\n
$GPGGA,095012.65,5703.3766188,N,00952.1375577,E,2,11,0.9,-1.495,M,40.592,M,1.1,0123*65\r\n
$GPGGA,095012.70,5703.3765532,N,00952.1375896,E,2,11,0.9,-1.497,M,40.592,M,1.1,0123*67\r\n
$GPGGA,095012.75,5703.3764884,N,00952.1376215,E,2,11,0.9,-1.496,M,40.592,M,1.1,0123*60\r\n
$GPGGA,095012.80,5703.3764230,N,00952.1376562,E,2,11,0.9,-1.494,M,40.592,M,1.1,0123*6A\r\n
$GPGGA,095012.85,5703.3763582,N,00952.1376909,E,2,11,0.9,-1.491,M,40.592,M,1.4,0123*67\r\n
$GPGGA,095012.90,5703.3762942,N,00952.1377277,E,2,11,0.9,-1.491,M,40.592,M,1.4,0123*61\r\n
$GPGGA,095012.95,5703.3762288,N,00952.1377653,E,2,11,0.9,-1.491,M,40.592,M,1.4,0123*6B\r\n
$GPGGA,095013.00,5703.3761646,N,00952.1378026,E,2,11,0.9,-1.490,M,40.592,M,1.4,0123*69\r\n
$GPGGA,095013.05,5703.3760992,N,00952.1378372,E,2,11,0.9,-1.491,M,40.592,M,1.7,0123*6B\r\n
$GPGGA,095013.10,5703.3760322,N,00952.1378732,E,2,11,0.9,-1.490,M,40.592,M,1.7,0123*6F\r\n
$GPGGA,095013.15,5703.3759664,N,00952.1379096,E,2,11,0.9,-1.489,M,40.592,M,1.7,0123*67\r\n
$GPGGA,095013.20,5703.3759023,N,00952.1379460,E,2,11,0.9,-1.486,M,40.592,M,1.7,0123*66\r\n
$GPGGA,095013.25,5703.3758374,N,00952.1379811,E,2,11,0.9,-1.487,M,40.592,M,2.0,0123*6C\r\n
$GPGGA,095013.30,5703.3757713,N,00952.1380165,E,2,11,0.9,-1.484,M,40.592,M,2.0,0123*6D\r\n
$GPGGA,095013.35,5703.3757049,N,00952.1380521,E,2,11,0.9,-1.480,M,40.592,M,2.0,0123*60\r\n
$GPGGA,095013.40,5703.3756395,N,00952.1380868,E,2,11,0.9,-1.477,M,40.592,M,2.0,0123*69\r\n
$GPGGA,095013.45,5703.3755745,N,00952.1381224,E,2,11,0.9,-1.475,M,40.592,M,2.3,0123*64\r\n
$GPGGA,095013.50,5703.3755080,N,00952.1381613,E,2,11,0.9,-1.472,M,40.592,M,2.3,0123*69\r\n
$GPGGA,095013.55,5703.3754421,N,00952.1381986,E,2,11,0.9,-1.468,M,40.592,M,2.3,0123*6A\r\n
$GPGGA,095013.60,5703.3753767,N,00952.1382352,E,2,11,0.9,-1.467,M,40.592,M,2.3,0123*65\r\n
$GPGGA,095013.65,5703.3753101,N,00952.1382724,E,2,11,0.9,-1.471,M,40.592,M,1.0,0123*64\r\n
$GPGGA,095013.70,5703.3752441,N,00952.1383092,E,2,11,0.9,-1.470,M,40.592,M,1.0,0123*6A\r\n
$GPGGA,095013.75,5703.3751793,N,00952.1383448,E,2,11,0.9,-1.467,M,40.592,M,1.0,0123*65\r\n
$GPGGA,095013.80,5703.3751141,N,00952.1383818,E,2,11,0.9,-1.464,M,40.592,M,1.0,0123*6C\r\n
$GPGGA,095013.85,5703.3750486,N,00952.1384197,E,2,11,0.9,-1.462,M,40.592,M,1.3,0123*6A\r\n
$GPGGA,095013.90,5703.3749835,N,00952.1384552,E,2,11,0.9,-1.460,M,40.592,M,1.3,0123*6D\r\n
$GPGGA,095013.95,5703.3749181,N,00952.1384915,E,2,11,0.9,-1.459,M,40.592,M,1.3,0123*6B\r\n
$GPGGA,095014.00,5703.3748527,N,00952.1385287,E,2,11,0.9,-1.457,M,40.592,M,1.3,0123*66\r\n
$GPGGA,095014.05,5703.3747884,N,00952.1385639,E,2,11,0.9,-1.454,M,40.592,M,1.5,0123*6C\r\n
$GPGGA,095014.10,5703.3747237,N,00952.1386012,E,2,11,0.9,-1.452,M,40.592,M,1.5,0123*60\r\n
$GPGGA,095014.15,5703.3746592,N,00952.1386381,E,2,11,0.9,-1.450,M,40.592,M,1.5,0123*67\r\n
$GPGGA,095014.20,5703.3745950,N,00952.1386750,E,2,11,0.9,-1.449,M,40.592,M,1.5,0123*60\r\n
$GPGGA,095014.25,5703.3745307,N,00952.1387120,E,2,11,0.9,-1.450,M,40.592,M,1.7,0123*67\r\n
$GPGGA,095014.30,5703.3744666,N,00952.1387499,E,2,11,0.9,-1.449,M,40.592,M,1.7,0123*6F\r\n
$GPGGA,095014.35,5703.3744031,N,00952.1387872,E,2,11,0.9,-1.448,M,40.592,M,1.7,0123*66\r\n
$GPGGA,095014.40,5703.3743401,N,00952.1388240,E,2,11,0.9,-1.446,M,40.592,M,1.7,0123*6E\r\n
$GPGGA,095014.45,5703.3742766,N,00952.1388585,E,2,11,0.9,-1.446,M,40.592,M,2.0,0123*62\r\n
$GPGGA,095014.50,5703.3742131,N,00952.1388948,E,2,11,0.9,-1.446,M,40.592,M,2.0,0123*6F\r\n
$GPGGA,095014.55,5703.3741505,N,00952.1389324,E,2,11,0.9,-1.448,M,40.592,M,2.0,0123*65\r\n
$GPGGA,095014.60,5703.3740877,N,00952.1389694,E,2,11,0.9,-1.448,M,40.592,M,2.0,0123*64\r\n
$GPGGA,095014.65,5703.3740251,N,00952.1390071,E,2,11,0.9,-1.451,M,40.592,M,1.4,0123*65\r\n
$GPGGA,095014.70,5703.3739632,N,00952.1390443,E,2,11,0.9,-1.452,M,40.592,M,1.4,0123*68\r\n
$GPGGA,095014.75,5703.3739012,N,00952.1390838,E,2,11,0.9,-1.452,M,40.592,M,1.4,0123*69\r\n
$GPGGA,095014.80,5703.3738392,N,00952.1391215,E,2,11,0.9,-1.452,M,40.592,M,1.4,0123*6D\r\n
$GPGGA,095014.85,5703.3737771,N,00952.1391592,E,2,11,0.9,-1.454,M,40.592,M,1.7,0123*63\r\n
$GPGGA,095014.90,5703.3737154,N,00952.1391980,E,2,11,0.9,-1.458,M,40.592,M,1.7,0123*65\r\n
$GPGGA,095014.95,5703.3736534,N,00952.1392382,E,2,11,0.9,-1.461,M,40.592,M,1.7,0123*62\r\n
$GPGGA,095015.00,5703.3735911,N,00952.1392770,E,2,11,0.9,-1.463,M,40.592,M,1.7,0123*6C\r\n
$GPGGA,095015.05,5703.3735292,N,00952.1393146,E,2,11,0.9,-1.469,M,40.592,M,1.9,0123*6F\r\n
$GPGGA,095015.10,5703.3734680,N,00952.1393527,E,2,11,0.9,-1.473,M,40.592,M,1.9,0123*65\r\n
$GPGGA,095015.15,5703.3734064,N,00952.1393916,E,2,11,0.9,-1.477,M,40.592,M,1.9,0123*66\r\n
$GPGGA,095015.20,5703.3733443,N,00952.1394319,E,2,11,0.9,-1.480,M,40.592,M,1.9,0123*6C\r\n
$GPGGA,095015.25,5703.3732838,N,00952.1394722,E,2,11,0.9,-1.483,M,40.592,M,2.2,0123*6F\r\n
$GPGGA,095015.30,5703.3732224,N,00952.1395140,E,2,11,0.9,-1.486,M,40.592,M,2.2,0123*6A\r\n
$GPGGA,095015.35,5703.3731616,N,00952.1395532,E,2,11,0.9,-1.490,M,40.592,M,2.2,0123*6F\r\n
$GPGGA,095015.40,5703.3731009,N,00952.1395933,E,2,11,0.9,-1.492,M,40.592,M,2.2,0123*6A\r\n
$GPGGA,095015.45,5703.3730400,N,00952.1396351,E,2,11,0.9,-1.488,M,40.592,M,2.4,0123*63\r\n
$GPGGA,095015.50,5703.3729789,N,00952.1396754,E,2,11,0.9,-1.489,M,40.592,M,2.4,0123*6D\r\n
$GPGGA,095015.55,5703.3729169,N,00952.1397164,E,2,11,0.9,-1.491,M,40.592,M,2.4,0123*6D\r\n
$GPGGA,095015.60,5703.3728553,N,00952.1397568,E,2,11,0.9,-1.493,M,40.592,M,2.4,0123*6D\r\n
$GPGGA,095015.65,5703.3727936,N,00952.1397975,E,2,11,0.9,-1.496,M,40.592,M,2.6,0123*6F\r\n
$GPGGA,095015.70,5703.3727325,N,00952.1398383,E,2,11,0.9,-1.495,M,40.592,M,2.6,0123*6C\r\n
$GPGGA,095015.75,5703.3726715,N,00952.1398781,E,2,11,0.9,-1.496,M,40.592,M,2.6,0123*6A\r\n
$GPGGA,095015.80,5703.3726109,N,00952.1399182,E,2,11,0.9,-1.492,M,40.592,M,2.6,0123*6B\r\n
$GPGGA,095015.85,5703.3725491,N,00952.1399592,E,2,11,0.9,-1.487,M,40.592,M,2.8,0123*66\r\n
$GPGGA,095015.90,5703.3724869,N,00952.1400006,E,2,11,0.9,-1.485,M,40.592,M,2.8,0123*65\r\n
$GPGGA,095015.95,5703.3724248,N,00952.1400405,E,2,11,0.9,-1.484,M,40.592,M,2.8,0123*6F\r\n
$GPGGA,095016.00,5703.3723628,N,00952.1400818,E,2,11,0.9,-1.479,M,40.592,M,2.8,0123*67\r\n
$GPGGA,095016.05,5703.3723016,N,00952.1401212,E,2,11,0.9,-1.480,M,40.592,M,3.1,0123*66\r\n
$GPGGA,095016.10,5703.3722402,N,00952.1401640,E,2,11,0.9,-1.475,M,40.592,M,3.1,0123*6B\r\n
$GPGGA,095016.15,5703.3721778,N,00952.1402046,E,2,11,0.9,-1.473,M,40.592,M,3.1,0123*66\r\n
$GPGGA,095016.20,5703.3721153,N,00952.1402469,E,2,11,0.9,-1.472,M,40.592,M,3.1,0123*67\r\n
$GPGGA,095016.25,5703.3720540,N,00952.1402888,E,2,11,0.9,-1.469,M,40.592,M,3.3,0123*6E\r\n
$GPGGA,095016.30,5703.3719940,N,00952.1403329,E,2,11,0.9,-1.465,M,40.592,M,3.3,0123*61\r\n
$GPGGA,095016.35,5703.3719329,N,00952.1403779,E,2,11,0.9,-1.463,M,40.592,M,3.3,0123*66\r\n
$GPGGA,095016.40,5703.3718709,N,00952.1404225,E,2,11,0.9,-1.462,M,40.592,M,3.3,0123*69\r\n
$GPGGA,095016.45,5703.3718088,N,00952.1404653,E,2,11,0.9,-1.462,M,40.592,M,3.5,0123*61\r\n
$GPGGA,095016.50,5703.3717476,N,00952.1405088,E,2,11,0.9,-1.465,M,40.592,M,3.5,0123*69\r\n
$GPGGA,095016.55,5703.3716857,N,00952.1405536,E,2,11,0.9,-1.466,M,40.592,M,3.5,0123*61\r\n
$GPGGA,095016.60,5703.3716235,N,00952.1405978,E,2,11,0.9,-1.466,M,40.592,M,3.5,0123*6F\r\n
$GPGGA,095016.65,5703.3715621,N,00952.1406425,E,2,11,0.9,-1.472,M,40.592,M,3.7,0123*69\r\n
$GPGGA,095016.70,5703.3715003,N,00952.1406877,E,2,11,0.9,-1.473,M,40.592,M,3.7,0123*61\r\n
$GPGGA,095016.75,5703.3714380,N,00952.1407328,E,2,11,0.9,-1.475,M,40.592,M,3.7,0123*6B\r\n
$GPGGA,095016.80,5703.3713757,N,00952.1407772,E,2,11,0.9,-1.474,M,40.592,M,3.7,0123*62\r\n
$GPGGA,095016.85,5703.3713144,N,00952.1408228,E,2,11,0.9,-1.475,M,40.592,M,1.4,0123*66\r\n
$GPGGA,095016.90,5703.3712534,N,00952.1408676,E,2,11,0.9,-1.474,M,40.592,M,1.4,0123*6E\r\n
$GPGGA,095016.95,5703.3711920,N,00952.1409130,E,2,11,0.9,-1.474,M,40.592,M,1.4,0123*65\r\n
$GPGGA,095017.00,5703.3711304,N,00952.1409587,E,2,11,0.9,-1.474,M,40.592,M,1.4,0123*6C\r\n
$GPGGA,095017.05,5703.3710689,N,00952.1410025,E,2,11,0.9,-1.475,M,40.592,M,1.7,0123*6F\r\n
$GPGGA,095017.10,5703.3710081,N,00952.1410478,E,2,11,0.9,-1.474,M,40.592,M,1.7,0123*68\r\n
$GPGGA,095017.15,5703.3709470,N,00952.1410955,E,2,11,0.9,-1.474,M,40.592,M,1.7,0123*6D\r\n
$GPGGA,095017.20,5703.3708864,N,00952.1411436,E,2,11,0.9,-1.474,M,40.592,M,1.7,0123*6A\r\n
$GPGGA,095017.25,5703.3708257,N,00952.1411908,E,2,11,0.9,-1.477,M,40.592,M,2.0,0123*62\r\n
$GPGGA,095017.30,5703.3707654,N,00952.1412391,E,2,11,0.9,-1.478,M,40.592,M,2.0,0123*68\r\n
$GPGGA,095017.35,5703.3707058,N,00952.1412886,E,2,11,0.9,-1.477,M,40.592,M,2.0,0123*65\r\n
$GPGGA,095017.40,5703.3706454,N,00952.1413388,E,2,11,0.9,-1.477,M,40.592,M,2.0,0123*6A\r\n
$GPGGA,095017.45,5703.3705860,N,00952.1413873,E,2,11,0.9,-1.476,M,40.592,M,2.3,0123*6A\r\n
$GPGGA,095017.50,5703.3705270,N,00952.1414359,E,2,11,0.9,-1.474,M,40.592,M,2.3,0123*63\r\n
$GPGGA,095017.55,5703.3704676,N,00952.1414858,E,2,11,0.9,-1.470,M,40.592,M,2.3,0123*6B\r\n
$GPGGA,095017.60,5703.3704081,N,00952.1415348,E,2,11,0.9,-1.470,M,40.592,M,2.3,0123*68\r\n
$GPGGA,095017.65,5703.3703476,N,00952.1415844,E,2,11,0.9,-1.474,M,40.592,M,2.5,0123*63\r\n
$GPGGA,095017.70,5703.3702883,N,00952.1416339,E,2,11,0.9,-1.473,M,40.592,M,2.5,0123*65\r\n
$GPGGA,095017.75,5703.3702298,N,00952.1416839,E,2,11,0.9,-1.473,M,40.592,M,2.5,0123*6B\r\n
$GPGGA,095017.80,5703.3701707,N,00952.1417337,E,2,11,0.9,-1.473,M,40.592,M,2.5,0123*65\r\n
$GPGGA,095017.85,5703.3701109,N,00952.1417842,E,2,11,0.9,-1.476,M,40.592,M,1.3,0123*61\r\n
$GPGGA,095017.90,5703.3700512,N,00952.1418331,E,2,11,0.9,-1.477,M,40.592,M,1.3,0123*6B\r\n
$GPGGA,095017.95,5703.3699918,N,00952.1418836,E,2,11,0.9,-1.477,M,40.592,M,1.3,0123*65\r\n
$GPGGA,095018.00,5703.3699329,N,00952.1419325,E,2,11,0.9,-1.475,M,40.592,M,1.3,0123*64\r\n
$GPGGA,095018.05,5703.3698741,N,00952.1419812,E,2,11,0.9,-1.475,M,40.592,M,1.5,0123*63\r\n
$GPGGA,095018.10,5703.3698148,N,00952.1420309,E,2,11,0.9,-1.474,M,40.592,M,1.5,0123*62\r\n
$GPGGA,095018.15,5703.3697551,N,00952.1420805,E,2,11,0.9,-1.475,M,40.592,M,1.5,0123*62\r\n
$GPGGA,095018.20,5703.3696965,N,00952.1421296,E,2,11,0.9,-1.474,M,40.592,M,1.5,0123*6E\r\n
$GPGGA,095018.25,5703.3696378,N,00952.1421792,E,2,11,0.9,-1.470,M,40.592,M,1.7,0123*6A\r\n
$GPGGA,095018.30,5703.3695791,N,00952.1422297,E,2,11,0.9,-1.470,M,40.592,M,1.7,0123*6D\r\n
$GPGGA,095018.35,5703.3695211,N,00952.1422798,E,2,11,0.9,-1.468,M,40.592,M,1.7,0123*66\r\n
$GPGGA,095018.40,5703.3694619,N,00952.1423283,E,2,11,0.9,-1.467,M,40.592,M,1.7,0123*68\r\n
$GPGGA,095018.45,5703.3694028,N,00952.1423774,E,2,11,0.9,-1.467,M,40.592,M,2.0,0123*60\r\n
$GPGGA,095018.50,5703.3693439,N,00952.1424289,E,2,11,0.9,-1.464,M,40.592,M,2.0,0123*64\r\n
$GPGGA,095018.55,5703.3692856,N,00952.1424802,E,2,11,0.9,-1.464,M,40.592,M,2.0,0123*6C\r\n
$GPGGA,095018.60,5703.3692278,N,00952.1425319,E,2,11,0.9,-1.465,M,40.592,M,2.0,0123*6D\r\n
$GPGGA,095018.65,5703.3691701,N,00952.1425822,E,2,11,0.9,-1.466,M,40.592,M,2.2,0123*62\r\n
$GPGGA,095018.70,5703.3691118,N,00952.1426317,E,2,11,0.9,-1.466,M,40.592,M,2.2,0123*66\r\n
$GPGGA,095018.75,5703.3690545,N,00952.1426839,E,2,11,0.9,-1.466,M,40.592,M,2.2,0123*69\r\n
$GPGGA,095018.80,5703.3689967,N,00952.1427389,E,2,11,0.9,-1.468,M,40.592,M,2.2,0123*68\r\n
$GPGGA,095018.85,5703.3689394,N,00952.1427911,E,2,11,0.9,-1.470,M,40.592,M,1.7,0123*6F\r\n
$GPGGA,095018.90,5703.3688819,N,00952.1428446,E,2,11,0.9,-1.472,M,40.592,M,1.7,0123*66\r\n
$GPGGA,095018.95,5703.3688257,N,00952.1428992,E,2,11,0.9,-1.472,M,40.592,M,1.7,0123*67\r\n
$GPGGA,095019.00,5703.3687685,N,00952.1429540,E,2,11,0.9,-1.472,M,40.592,M,1.7,0123*6C\r\n
$GPGGA,095019.05,5703.3687117,N,00952.1430054,E,2,11,0.9,-1.475,M,40.592,M,1.9,0123*64\r\n
$GPGGA,095019.10,5703.3686545,N,00952.1430571,E,2,11,0.9,-1.477,M,40.592,M,1.9,0123*62\r\n
$GPGGA,095019.15,5703.3685974,N,00952.1431095,E,2,11,0.9,-1.476,M,40.592,M,1.9,0123*65\r\n
$GPGGA,095019.20,5703.3685412,N,00952.1431634,E,2,11,0.9,-1.475,M,40.592,M,1.9,0123*60\r\n
$GPGGA,095019.25,5703.3684842,N,00952.1432175,E,2,11,0.9,-1.476,M,40.592,M,2.2,0123*67\r\n
$GPGGA,095019.30,5703.3684278,N,00952.1432708,E,2,11,0.9,-1.475,M,40.592,M,2.2,0123*6F\r\n
$GPGGA,095019.35,5703.3683714,N,00952.1433239,E,2,11,0.9,-1.474,M,40.592,M,2.2,0123*65\r\n
$GPGGA,095019.40,5703.3683157,N,00952.1433775,E,2,11,0.9,-1.474,M,40.592,M,2.2,0123*6B\r\n
$GPGGA,095019.45,5703.3682593,N,00952.1434300,E,2,11,0.9,-1.474,M,40.592,M,2.4,0123*64\r\n
$GPGGA,095019.50,5703.3682038,N,00952.1434826,E,2,11,0.9,-1.472,M,40.592,M,2.4,0123*6D\r\n
$GPGGA,095019.55,5703.3681494,N,00952.1435387,E,2,11,0.9,-1.471,M,40.592,M,2.4,0123*6B\r\n
$GPGGA,095019.60,5703.3680944,N,00952.1435962,E,2,11,0.9,-1.472,M,40.592,M,2.4,0123*6E\r\n
$GPGGA,095019.65,5703.3680383,N,00952.1436525,E,2,11,0.9,-1.477,M,40.592,M,2.6,0123*61\r\n
$GPGGA,095019.70,5703.3679829,N,00952.1437087,E,2,11,0.9,-1.479,M,40.592,M,2.6,0123*6A\r\n
$GPGGA,095019.75,5703.3679275,N,00952.1437659,E,2,11,0.9,-1.480,M,40.592,M,2.6,0123*6F\r\n
$GPGGA,095019.80,5703.3678719,N,00952.1438220,E,2,11,0.9,-1.480,M,40.592,M,2.6,0123*6E\r\n
$GPGGA,095019.85,5703.3678160,N,00952.1438786,E,2,11,0.9,-1.481,M,40.592,M,2.8,0123*65\r\n
