$GPGGA,082342.75,5703.4325839,N,00952.1031077,E,2,9,1.2,-1.955,M,40.593,M,3.4,0123*51\r\n
$GPGGA,082342.80,5703.4325865,N,00952.1031211,E,2,9,1.2,-1.953,M,40.593,M,3.4,0123*56\r\n
$GPGGA,082342.85,5703.4325887,N,00952.1031362,E,2,9,1.2,-1.951,M,40.593,M,3.6,0123*5A\r\n
$GPGGA,082342.90,5703.4325905,N,00952.1031512,E,2,9,1.2,-1.953,M,40.593,M,3.6,0123*56\r\n
$GPGGA,082342.95,5703.4325931,N,00952.1031663,E,2,9,1.2,-1.955,M,40.593,M,3.6,0123*57\r\n
$GPGGA,082343.00,5703.4325956,N,00952.1031817,E,2,9,1.2,-1.953,M,40.593,M,3.6,0123*50\r\n
$GPGGA,082343.05,5703.4325961,N,00952.1031981,E,2,9,1.2,-1.948,M,40.593,M,3.8,0123*5B\r\n
$GPGGA,082343.10,5703.4325973,N,00952.1032147,E,2,9,1.2,-1.949,M,40.593,M,3.8,0123*5C\r\n
$GPGGA,082343.15,5703.4325985,N,00952.1032299,E,2,9,1.2,-1.951,M,40.593,M,3.8,0123*59\r\n
$GPGGA,082343.20,5703.4325993,N,00952.1032453,E,2,9,1.2,-1.951,M,40.593,M,3.8,0123*58\r\n
$GPGGA,082343.25,5703.4326012,N,00952.1032598,E,2,9,1.2,-1.949,M,40.593,M,2.2,0123*5A\r\n
$GPGGA,082343.30,5703.4326026,N,00952.1032746,E,2,9,1.2,-1.946,M,40.593,M,2.2,0123*57\r\n
$GPGGA,082343.35,5703.4326043,N,00952.1032883,E,2,9,1.2,-1.944,M,40.593,M,2.2,0123*55\r\n
$GPGGA,082343.40,5703.4326063,N,00952.1033035,E,2,9,1.2,-1.942,M,40.593,M,2.2,0123*57\r\n
$GPGGA,082343.45,5703.4326084,N,00952.1033187,E,2,9,1.2,-1.944,M,40.593,M,2.4,0123*53\r\n
$GPGGA,082343.50,5703.4326104,N,00952.1033345,E,2,9,1.2,-1.946,M,40.593,M,2.4,0123*50\r\n
$GPGGA,082343.55,5703.4326139,N,00952.1033489,E,2,9,1.2,-1.946,M,40.593,M,2.4,0123*5C\r\n
$GPGGA,082343.60,5703.4326160,N,00952.1033634,E,2,9,1.2,-1.946,M,40.593,M,2.4,0123*52\r\n
$GPGGA,082343.65,5703.4326177,N,00952.1033787,E,2,9,1.2,-1.949,M,40.593,M,2.7,0123*54\r\n
$GPGGA,082343.70,5703.4326203,N,00952.1033947,E,2,9,1.2,-1.951,M,40.593,M,2.7,0123*5B\r\n
$GPGGA,082343.75,5703.4326219,N,00952.1034119,E,2,9,1.2,-1.958,M,40.593,M,2.7,0123*58\r\n
$GPGGA,082343.80,5703.4326241,N,00952.1034293,E,2,9,1.2,-1.963,M,40.593,M,2.7,0123*56\r\n
$GPGGA,082343.85,5703.4326256,N,00952.1034450,E,2,9,1.2,-1.965,M,40.593,M,2.9,0123*54\r\n
$GPGGA,082343.90,5703.4326272,N,00952.1034594,E,2,9,1.2,-1.965,M,40.593,M,2.9,0123*5F\r\n
$GPGGA,082343.95,5703.4326299,N,00952.1034724,E,2,9,1.2,-1.964,M,40.593,M,2.9,0123*57\r\n
$GPGGA,082344.00,5703.4326321,N,00952.1034854,E,2,9,1.2,-1.963,M,40.593,M,2.9,0123*51\r\n
$GPGGA,082344.05,5703.4326347,N,00952.1034967,E,2,9,1.2,-1.950,M,40.593,M,3.2,0123*5F\r\n
$GPGGA,082344.10,5703.4326383,N,00952.1035098,E,2,9,1.2,-1.946,M,40.593,M,3.2,0123*5C\r\n
$GPGGA,082344.15,5703.4326407,N,00952.1035247,E,2,9,1.2,-1.944,M,40.593,M,3.2,0123*50\r\n
$GPGGA,082344.20,5703.4326427,N,00952.1035395,E,2,9,1.2,-1.941,M,40.593,M,3.2,0123*5F\r\n
$GPGGA,082344.25,5703.4326432,N,00952.1035550,E,2,9,1.2,-1.945,M,40.593,M,2.0,0123*56\r\n
$GPGGA,082344.30,5703.4326450,N,00952.1035705,E,2,9,1.2,-1.945,M,40.593,M,2.0,0123*54\r\n
$GPGGA,082344.35,5703.4326479,N,00952.1035857,E,2,9,1.2,-1.946,M,40.593,M,2.0,0123*51\r\n
$GPGGA,082344.40,5703.4326502,N,00952.1036020,E,2,9,1.2,-1.950,M,40.593,M,2.0,0123*52\r\n
$GPGGA,082344.45,5703.4326529,N,00952.1036177,E,2,9,1.2,-1.948,M,40.593,M,2.2,0123*56\r\n
$GPGGA,082344.50,5703.4326555,N,00952.1036329,E,2,9,1.2,-1.948,M,40.593,M,2.2,0123*50\r\n
$GPGGA,082344.55,5703.4326584,N,00952.1036487,E,2,9,1.2,-1.949,M,40.593,M,2.2,0123*5B\r\n
$GPGGA,082344.60,5703.4326618,N,00952.1036634,E,2,9,1.2,-1.951,M,40.593,M,2.2,0123*58\r\n
$GPGGA,082344.65,5703.4326655,N,00952.1036781,E,2,9,1.2,-1.953,M,40.593,M,2.4,0123*5F\r\n
$GPGGA,082344.70,5703.4326698,N,00952.1036921,E,2,9,1.2,-1.953,M,40.593,M,2.4,0123*5E\r\n
$GPGGA,082344.75,5703.4326744,N,00952.1037047,E,2,9,1.2,-1.954,M,40.593,M,2.4,0123*54\r\n
$GPGGA,082344.80,5703.4326778,N,00952.1037192,E,2,9,1.2,-1.955,M,40.593,M,2.4,0123*59\r\n
$GPGGA,082344.85,5703.4326820,N,00952.1037330,E,2,9,1.2,-1.955,M,40.593,M,2.7,0123*57\r\n
$GPGGA,082344.90,5703.4326848,N,00952.1037466,E,2,9,1.2,-1.956,M,40.593,M,2.7,0123*5A\r\n
$GPGGA,082344.95,5703.4326880,N,00952.1037606,E,2,9,1.2,-1.956,M,40.593,M,2.7,0123*5F\r\n
$GPGGA,082345.00,5703.4326916,N,00952.1037746,E,2,9,1.2,-1.955,M,40.593,M,2.7,0123*5A\r\n
$GPGGA,082345.05,5703.4326941,N,00952.1037871,E,2,9,1.2,-1.946,M,40.593,M,2.9,0123*5A\r\n
$GPGGA,082345.10,5703.4326972,N,00952.1038015,E,2,9,1.2,-1.944,M,40.593,M,2.9,0123*59\r\n
$GPGGA,082345.15,5703.4326995,N,00952.1038164,E,2,9,1.2,-1.943,M,40.593,M,2.9,0123*55\r\n
$GPGGA,082345.20,5703.4327022,N,00952.1038318,E,2,9,1.2,-1.942,M,40.593,M,2.9,0123*5F\r\n
$GPGGA,082345.25,5703.4327032,N,00952.1038474,E,2,9,1.2,-1.945,M,40.593,M,1.9,0123*52\r\n
$GPGGA,082345.30,5703.4327068,N,00952.1038623,E,2,9,1.2,-1.944,M,40.593,M,1.9,0123*58\r\n
$GPGGA,082345.35,5703.4327101,N,00952.1038757,E,2,9,1.2,-1.943,M,40.593,M,1.9,0123*56\r\n
$GPGGA,082345.40,5703.4327147,N,00952.1038891,E,2,9,1.2,-1.943,M,40.593,M,1.9,0123*53\r\n
$GPGGA,082345.45,5703.4327192,N,00952.1039026,E,2,9,1.2,-1.942,M,40.593,M,2.1,0123*51\r\n
$GPGGA,082345.50,5703.4327224,N,00952.1039175,E,2,9,1.2,-1.942,M,40.593,M,2.1,0123*5C\r\n
$GPGGA,082345.55,5703.4327252,N,00952.1039330,E,2,9,1.2,-1.947,M,40.593,M,2.1,0123*5E\r\n
$GPGGA,082345.60,5703.4327296,N,00952.1039478,E,2,9,1.2,-1.947,M,40.593,M,2.1,0123*5B\r\n
$GPGGA,082345.65,5703.4327337,N,00952.1039610,E,2,9,1.2,-1.949,M,40.593,M,2.3,0123*54\r\n
$GPGGA,082345.70,5703.4327369,N,00952.1039755,E,2,9,1.2,-1.948,M,40.593,M,2.3,0123*5A\r\n
$GPGGA,082345.75,5703.4327401,N,00952.1039890,E,2,9,1.2,-1.948,M,40.593,M,2.3,0123*50\r\n
$GPGGA,082345.80,5703.4327449,N,00952.1040042,E,2,9,1.2,-1.949,M,40.593,M,2.3,0123*5E\r\n
$GPGGA,082345.85,5703.4327484,N,00952.1040198,E,2,9,1.2,-1.952,M,40.593,M,2.6,0123*53\r\n
$GPGGA,082345.90,5703.4327519,N,00952.1040355,E,2,9,1.2,-1.952,M,40.593,M,2.6,0123*51\r\n
$GPGGA,082345.95,5703.4327554,N,00952.1040502,E,2,9,1.2,-1.953,M,40.593,M,2.6,0123*58\r\n
$GPGGA,082346.00,5703.4327592,N,00952.1040639,E,2,9,1.2,-1.952,M,40.593,M,2.6,0123*57\r\n
$GPGGA,082346.05,5703.4327622,N,00952.1040777,E,2,9,1.2,-1.946,M,40.593,M,2.8,0123*5A\r\n
$GPGGA,082346.10,5703.4327668,N,00952.1040911,E,2,9,1.2,-1.944,M,40.593,M,2.8,0123*5C\r\n
$GPGGA,082346.15,5703.4327714,N,00952.1041043,E,2,9,1.2,-1.942,M,40.593,M,2.8,0123*5A\r\n
$GPGGA,082346.20,5703.4327772,N,00952.1041183,E,2,9,1.2,-1.938,M,40.593,M,2.8,0123*5C\r\n
$GPGGA,082346.25,5703.4327804,N,00952.1041340,E,2,9,1.2,-1.944,M,40.593,M,3.0,0123*58\r\n
$GPGGA,082346.30,5703.4327837,N,00952.1041498,E,2,9,1.2,-1.943,M,40.593,M,3.0,0123*59\r\n
$GPGGA,082346.35,5703.4327858,N,00952.1041644,E,2,9,1.2,-1.943,M,40.593,M,3.0,0123*56\r\n
$GPGGA,082346.40,5703.4327895,N,00952.1041787,E,2,9,1.2,-1.942,M,40.593,M,3.0,0123*5A\r\n
$GPGGA,082346.45,5703.4327933,N,00952.1041944,E,2,9,1.2,-1.942,M,40.593,M,3.2,0123*51\r\n
$GPGGA,082346.50,5703.4327965,N,00952.1042101,E,2,9,1.2,-1.942,M,40.593,M,3.2,0123*5C\r\n
$GPGGA,082346.55,5703.4327992,N,00952.1042268,E,2,9,1.2,-1.940,M,40.593,M,3.2,0123*5F\r\n
$GPGGA,082346.60,5703.4328034,N,00952.1042402,E,2,9,1.2,-1.938,M,40.593,M,3.2,0123*56\r\n
$GPGGA,082346.65,5703.4328089,N,00952.1042526,E,2,9,1.2,-1.935,M,40.593,M,3.4,0123*59\r\n
$GPGGA,082346.70,5703.4328152,N,00952.1042650,E,2,9,1.2,-1.934,M,40.593,M,3.4,0123*59\r\n
$GPGGA,082346.75,5703.4328204,N,00952.1042778,E,2,9,1.2,-1.931,M,40.593,M,3.4,0123*52\r\n
$GPGGA,082346.80,5703.4328251,N,00952.1042923,E,2,9,1.2,-1.929,M,40.593,M,3.4,0123*51\r\n
$GPGGA,082346.85,5703.4328298,N,00952.1043067,E,2,9,1.2,-1.934,M,40.593,M,3.6,0123*57\r\n
$GPGGA,082346.90,5703.4328346,N,00952.1043204,E,2,9,1.2,-1.937,M,40.593,M,3.6,0123*55\r\n
$GPGGA,082346.95,5703.4328401,N,00952.1043342,E,2,9,1.2,-1.937,M,40.593,M,3.6,0123*57\r\n
$GPGGA,082347.00,5703.4328435,N,00952.1043487,E,2,9,1.2,-1.939,M,40.593,M,3.6,0123*5D\r\n
$GPGGA,082347.05,5703.4328451,N,00952.1043654,E,2,9,1.2,-1.943,M,40.593,M,3.8,0123*55\r\n
$GPGGA,082347.10,5703.4328496,N,00952.1043795,E,2,9,1.2,-1.945,M,40.593,M,3.8,0123*50\r\n
$GPGGA,082347.15,5703.4328535,N,00952.1043938,E,2,9,1.2,-1.945,M,40.593,M,3.8,0123*54\r\n
$GPGGA,082347.20,5703.4328571,N,00952.1044082,E,2,9,1.2,-1.945,M,40.593,M,3.8,0123*5D\r\n
$GPGGA,082347.25,5703.4328618,N,00952.1044220,E,2,9,1.2,-1.943,M,40.593,M,2.2,0123*53\r\n
$GPGGA,082347.30,5703.4328672,N,00952.1044356,E,2,9,1.2,-1.940,M,40.593,M,2.2,0123*58\r\n
$GPGGA,082347.35,5703.4328713,N,00952.1044504,E,2,9,1.2,-1.938,M,40.593,M,2.2,0123*55\r\n
$GPGGA,082347.40,5703.4328768,N,00952.1044655,E,2,9,1.2,-1.936,M,40.593,M,2.2,0123*52\r\n
$GPGGA,082347.45,5703.4328810,N,00952.1044815,E,2,9,1.2,-1.937,M,40.593,M,2.4,0123*5A\r\n
$GPGGA,082347.50,5703.4328861,N,00952.1044970,E,2,9,1.2,-1.934,M,40.593,M,2.4,0123*59\r\n
$GPGGA,082347.55,5703.4328927,N,00952.1045129,E,2,9,1.2,-1.930,M,40.593,M,2.4,0123*5E\r\n
$GPGGA,082347.60,5703.4328975,N,00952.1045307,E,2,9,1.2,-1.929,M,40.593,M,2.4,0123*59\r\n
$GPGGA,082347.65,5703.4329024,N,00952.1045492,E,2,9,1.2,-1.928,M,40.593,M,2.7,0123*59\r\n
$GPGGA,082347.70,5703.4329083,N,00952.1045683,E,2,9,1.2,-1.926,M,40.593,M,2.7,0123*5C\r\n
$GPGGA,082347.75,5703.4329127,N,00952.1045870,E,2,9,1.2,-1.921,M,40.593,M,2.7,0123*53\r\n
$GPGGA,082347.80,5703.4329181,N,00952.1046077,E,2,9,1.2,-1.915,M,40.593,M,2.7,0123*5E\r\n
$GPGGA,082347.85,5703.4329244,N,00952.1046292,E,2,9,1.2,-1.908,M,40.593,M,2.9,0123*5A\r\n
$GPGGA,082347.90,5703.4329309,N,00952.1046533,E,2,9,1.2,-1.906,M,40.593,M,2.9,0123*54\r\n
$GPGGA,082347.95,5703.4329376,N,00952.1046776,E,2,9,1.2,-1.903,M,40.593,M,2.9,0123*5F\r\n
$GPGGA,082348.00,5703.4329428,N,00952.1047052,E,2,9,1.2,-1.899,M,40.593,M,2.9,0123*52\r\n
$GPGGA,082348.05,5703.4329478,N,00952.1047347,E,2,9,1.2,-1.898,M,40.593,M,3.2,0123*5E\r\n
$GPGGA,082348.10,5703.4329554,N,00952.1047629,E,2,9,1.2,-1.895,M,40.593,M,3.2,0123*55\r\n
$GPGGA,082348.15,5703.4329628,N,00952.1047935,E,2,9,1.2,-1.893,M,40.593,M,3.2,0123*5C\r\n
$GPGGA,082348.20,5703.4329702,N,00952.1048262,E,2,9,1.2,-1.894,M,40.593,M,3.2,0123*52\r\n
$GPGGA,082348.25,5703.4329801,N,00952.1048600,E,2,9,1.2,-1.889,M,40.593,M,2.0,0123*54\r\n
$GPGGA,082348.30,5703.4329894,N,00952.1048968,E,2,9,1.2,-1.886,M,40.593,M,2.0,0123*52\r\n
$GPGGA,082348.35,5703.4329977,N,00952.1049356,E,2,9,1.2,-1.884,M,40.593,M,2.0,0123*5F\r\n
$GPGGA,082348.40,5703.4330056,N,00952.1049751,E,2,9,1.2,-1.883,M,40.593,M,2.0,0123*5B\r\n
$GPGGA,082348.45,5703.4330132,N,00952.1050167,E,2,9,1.2,-1.885,M,40.593,M,2.2,0123*52\r\n
$GPGGA,082348.50,5703.4330232,N,00952.1050600,E,2,9,1.2,-1.881,M,40.593,M,2.2,0123*57\r\n
$GPGGA,082348.55,5703.4330325,N,00952.1051062,E,2,9,1.2,-1.877,M,40.593,M,2.2,0123*5F\r\n
$GPGGA,082348.60,5703.4330418,N,00952.1051534,E,2,9,1.2,-1.871,M,40.593,M,2.2,0123*50\r\n
$GPGGA,082348.65,5703.4330510,N,00952.1052025,E,2,9,1.2,-1.862,M,40.593,M,2.4,0123*5E\r\n
$GPGGA,082348.70,5703.4330599,N,00952.1052539,E,2,9,1.2,-1.861,M,40.593,M,2.4,0123*50\r\n
$GPGGA,082348.75,5703.4330705,N,00952.1053052,E,2,9,1.2,-1.859,M,40.593,M,2.4,0123*50\r\n
$GPGGA,082348.80,5703.4330819,N,00952.1053583,E,2,9,1.2,-1.854,M,40.593,M,2.4,0123*5C\r\n
$GPGGA,082348.85,5703.4330912,N,00952.1054128,E,2,9,1.2,-1.855,M,40.593,M,2.7,0123*53\r\n
$GPGGA,082348.90,5703.4331017,N,00952.1054682,E,2,9,1.2,-1.851,M,40.593,M,2.7,0123*59\r\n
$GPGGA,082348.95,5703.4331137,N,00952.1055240,E,2,9,1.2,-1.847,M,40.593,M,2.7,0123*53\r\n
$GPGGA,082349.00,5703.4331253,N,00952.1055818,E,2,9,1.2,-1.845,M,40.593,M,2.7,0123*5A\r\n
$GPGGA,082349.05,5703.4331353,N,00952.1056406,E,2,9,1.2,-1.831,M,40.593,M,2.9,0123*53\r\n
$GPGGA,082349.10,5703.4331449,N,00952.1057038,E,2,9,1.2,-1.828,M,40.593,M,2.9,0123*5B\r\n
$GPGGA,082349.15,5703.4331549,N,00952.1057696,E,2,9,1.2,-1.829,M,40.593,M,2.9,0123*5C\r\n
$GPGGA,082349.20,5703.4331646,N,00952.1058382,E,2,9,1.2,-1.830,M,40.593,M,2.9,0123*51\r\n
$GPGGA,082349.25,5703.4331744,N,00952.1059066,E,2,9,1.2,-1.839,M,40.593,M,1.9,0123*55\r\n
$GPGGA,082349.30,5703.4331855,N,00952.1059732,E,2,9,1.2,-1.839,M,40.593,M,1.9,0123*58\r\n
$GPGGA,082349.35,5703.4331951,N,00952.1060416,E,2,9,1.2,-1.841,M,40.593,M,1.9,0123*58\r\n
$GPGGA,082349.40,5703.4332027,N,00952.1061119,E,2,9,1.2,-1.845,M,40.593,M,1.9,0123*5E\r\n
$GPGGA,082349.45,5703.4332112,N,00952.1061826,E,2,9,1.2,-1.844,M,40.593,M,2.1,0123*53\r\n
$GPGGA,082349.50,5703.4332208,N,00952.1062543,E,2,9,1.2,-1.842,M,40.593,M,2.1,0123*54\r\n
$GPGGA,082349.55,5703.4332297,N,00952.1063261,E,2,9,1.2,-1.840,M,40.593,M,2.1,0123*53\r\n
$GPGGA,082349.60,5703.4332383,N,00952.1063975,E,2,9,1.2,-1.839,M,40.593,M,2.1,0123*51\r\n
$GPGGA,082349.65,5703.4332457,N,00952.1064715,E,2,9,1.2,-1.842,M,40.593,M,2.3,0123*5B\r\n
$GPGGA,082349.70,5703.4332536,N,00952.1065450,E,2,9,1.2,-1.837,M,40.593,M,2.3,0123*58\r\n
$GPGGA,082349.75,5703.4332627,N,00952.1066193,E,2,9,1.2,-1.832,M,40.593,M,2.3,0123*52\r\n
$GPGGA,082349.80,5703.4332698,N,00952.1066956,E,2,9,1.2,-1.829,M,40.593,M,2.3,0123*57\r\n
$GPGGA,082349.85,5703.4332757,N,00952.1067733,E,2,9,1.2,-1.828,M,40.593,M,2.6,0123*58\r\n
$GPGGA,082349.90,5703.4332810,N,00952.1068535,E,2,9,1.2,-1.828,M,40.593,M,2.6,0123*5B\r\n
$GPGGA,082349.95,5703.4332869,N,00952.1069350,E,2,9,1.2,-1.830,M,40.593,M,2.6,0123*5D\r\n
$GPGGA,082350.00,5703.4332923,N,00952.1070158,E,2,9,1.2,-1.835,M,40.593,M,2.6,0123*51\r\n
$GPGGA,082350.05,5703.4332952,N,00952.1070968,E,2,9,1.2,-1.836,M,40.593,M,2.8,0123*54\r\n
$GPGGA,082350.10,5703.4333005,N,00952.1071763,E,2,9,1.2,-1.836,M,40.593,M,2.8,0123*5E\r\n
$GPGGA,082350.15,5703.4333028,N,00952.1072562,E,2,9,1.2,-1.835,M,40.593,M,2.8,0123*57\r\n
$GPGGA,082350.20,5703.4333049,N,00952.1073363,E,2,9,1.2,-1.835,M,40.593,M,2.8,0123*50\r\n
$GPGGA,082350.25,5703.4333070,N,00952.1074187,E,2,9,1.2,-1.832,M,40.593,M,3.0,0123*5E\r\n
$GPGGA,082350.30,5703.4333079,N,00952.1075006,E,2,9,1.2,-1.828,M,40.593,M,3.0,0123*51\r\n
$GPGGA,082350.35,5703.4333090,N,00952.1075848,E,2,9,1.2,-1.825,M,40.593,M,3.0,0123*5C\r\n
$GPGGA,082350.40,5703.4333060,N,00952.1076700,E,2,9,1.2,-1.823,M,40.593,M,3.0,0123*57\r\n
$GPGGA,082350.45,5703.4333031,N,00952.1077560,E,2,9,1.2,-1.825,M,40.593,M,3.2,0123*57\r\n
$GPGGA,082350.50,5703.4333036,N,00952.1078409,E,2,9,1.2,-1.825,M,40.593,M,3.2,0123*55\r\n
$GPGGA,082350.55,5703.4333026,N,00952.1079244,E,2,9,1.2,-1.826,M,40.593,M,3.2,0123*5C\r\n
$GPGGA,082350.60,5703.4333019,N,00952.1080106,E,2,9,1.2,-1.828,M,40.593,M,3.2,0123*5B\r\n
$GPGGA,082350.65,5703.4333002,N,00952.1080985,E,2,9,1.2,-1.829,M,40.593,M,3.4,0123*50\r\n
$GPGGA,082350.70,5703.4332953,N,00952.1081869,E,2,9,1.2,-1.832,M,40.593,M,3.4,0123*50\r\n
$GPGGA,082350.75,5703.4332906,N,00952.1082731,E,2,9,1.2,-1.832,M,40.593,M,3.4,0123*54\r\n
$GPGGA,082350.80,5703.4332869,N,00952.1083581,E,2,9,1.2,-1.834,M,40.593,M,3.4,0123*58\r\n
$GPGGA,082350.85,5703.4332817,N,00952.1084439,E,2,9,1.2,-1.838,M,40.593,M,3.6,0123*5F\r\n
$GPGGA,082350.90,5703.4332736,N,00952.1085312,E,2,9,1.2,-1.838,M,40.593,M,3.6,0123*58\r\n
$GPGGA,082350.95,5703.4332644,N,00952.1086192,E,2,9,1.2,-1.840,M,40.593,M,3.6,0123*5F\r\n
$GPGGA,082351.00,5703.4332540,N,00952.1087039,E,2,9,1.2,-1.839,M,40.593,M,3.6,0123*5A\r\n
$GPGGA,082351.05,5703.4332431,N,00952.1087886,E,2,9,1.2,-1.833,M,40.593,M,3.8,0123*50\r\n
$GPGGA,082351.10,5703.4332317,N,00952.1088753,E,2,9,1.2,-1.829,M,40.593,M,3.8,0123*54\r\n
$GPGGA,082351.15,5703.4332216,N,00952.1089618,E,2,9,1.2,-1.828,M,40.593,M,3.8,0123*5F\r\n
$GPGGA,082351.20,5703.4332118,N,00952.1090486,E,2,9,1.2,-1.827,M,40.593,M,3.8,0123*56\r\n
$GPGGA,082351.25,5703.4331974,N,00952.1091362,E,2,9,1.2,-1.830,M,40.593,M,2.2,0123*53\r\n
$GPGGA,082351.30,5703.4331830,N,00952.1092243,E,2,9,1.2,-1.834,M,40.593,M,2.2,0123*53\r\n
$GPGGA,082351.35,5703.4331682,N,00952.1093116,E,2,9,1.2,-1.838,M,40.593,M,2.2,0123*5F\r\n
$GPGGA,082351.40,5703.4331547,N,00952.1093974,E,2,9,1.2,-1.839,M,40.593,M,2.2,0123*5A\r\n
$GPGGA,082351.45,5703.4331391,N,00952.1094823,E,2,9,1.2,-1.839,M,40.593,M,2.4,0123*50\r\n
$GPGGA,082351.50,5703.4331236,N,00952.1095662,E,2,9,1.2,-1.838,M,40.593,M,2.4,0123*53\r\n
$GPGGA,082351.55,5703.4331054,N,00952.1096483,E,2,9,1.2,-1.834,M,40.593,M,2.4,0123*52\r\n
$GPGGA,082351.60,5703.4330862,N,00952.1097314,E,2,9,1.2,-1.832,M,40.593,M,2.4,0123*56\r\n
$GPGGA,082351.65,5703.4330666,N,00952.1098129,E,2,9,1.2,-1.822,M,40.593,M,2.7,0123*58\r\n
$GPGGA,082351.70,5703.4330444,N,00952.1098957,E,2,9,1.2,-1.821,M,40.593,M,2.7,0123*5C\r\n
$GPGGA,082351.75,5703.4330222,N,00952.1099789,E,2,9,1.2,-1.824,M,40.593,M,2.7,0123*56\r\n
$GPGGA,082351.80,5703.4329996,N,00952.1100628,E,2,9,1.2,-1.827,M,40.593,M,2.7,0123*58\r\n
$GPGGA,082351.85,5703.4329754,N,00952.1101470,E,2,9,1.2,-1.829,M,40.593,M,2.9,0123*53\r\n
$GPGGA,082351.90,5703.4329501,N,00952.1102293,E,2,9,1.2,-1.831,M,40.593,M,2.9,0123*54\r\n
$GPGGA,082351.95,5703.4329254,N,00952.1103107,E,2,9,1.2,-1.833,M,40.593,M,2.9,0123*5B\r\n
$GPGGA,082352.00,5703.4329004,N,00952.1103915,E,2,9,1.2,-1.836,M,40.593,M,2.9,0123*5D\r\n
$GPGGA,082352.05,5703.4328712,N,00952.1104703,E,2,9,1.2,-1.832,M,40.593,M,3.2,0123*59\r\n
$GPGGA,082352.10,5703.4328420,N,00952.1105470,E,2,9,1.2,-1.831,M,40.593,M,3.2,0123*5A\r\n
$GPGGA,082352.15,5703.4328124,N,00952.1106238,E,2,9,1.2,-1.829,M,40.593,M,3.2,0123*5E\r\n
$GPGGA,082352.20,5703.4327825,N,00952.1107006,E,2,9,1.2,-1.827,M,40.593,M,3.2,0123*5F\r\n
$GPGGA,082352.25,5703.4327499,N,00952.1107760,E,2,9,1.2,-1.823,M,40.593,M,2.0,0123*51\r\n
$GPGGA,082352.30,5703.4327148,N,00952.1108502,E,2,9,1.2,-1.823,M,40.593,M,2.0,0123*55\r\n
$GPGGA,082352.35,5703.4326790,N,00952.1109229,E,2,9,1.2,-1.822,M,40.593,M,2.0,0123*5C\r\n
$GPGGA,082352.40,5703.4326454,N,00952.1109959,E,2,9,1.2,-1.819,M,40.593,M,2.0,0123*51\r\n
$GPGGA,082352.45,5703.4326092,N,00952.1110679,E,2,9,1.2,-1.817,M,40.593,M,2.2,0123*53\r\n
$GPGGA,082352.50,5703.4325716,N,00952.1111425,E,2,9,1.2,-1.820,M,40.593,M,2.2,0123*51\r\n
$GPGGA,082352.55,5703.4325345,N,00952.1112176,E,2,9,1.2,-1.827,M,40.593,M,2.2,0123*51\r\n
$GPGGA,082352.60,5703.4324968,N,00952.1112918,E,2,9,1.2,-1.833,M,40.593,M,2.2,0123*56\r\n
$GPGGA,082352.65,5703.4324577,N,00952.1113633,E,2,9,1.2,-1.832,M,40.593,M,2.4,0123*51\r\n
$GPGGA,082352.70,5703.4324165,N,00952.1114319,E,2,9,1.2,-1.832,M,40.593,M,2.4,0123*58\r\n
$GPGGA,082352.75,5703.4323749,N,00952.1114960,E,2,9,1.2,-1.829,M,40.593,M,2.4,0123*5C\r\n
$GPGGA,082352.80,5703.4323324,N,00952.1115586,E,2,9,1.2,-1.830,M,40.593,M,2.4,0123*54\r\n
$GPGGA,082352.85,5703.4322902,N,00952.1116209,E,2,9,1.2,-1.825,M,40.593,M,2.7,0123*5A\r\n
$GPGGA,082352.90,5703.4322437,N,00952.1116837,E,2,9,1.2,-1.826,M,40.593,M,2.7,0123*51\r\n
$GPGGA,082352.95,5703.4321955,N,00952.1117424,E,2,9,1.2,-1.823,M,40.593,M,2.7,0123*54\r\n
$GPGGA,082353.00,5703.4321494,N,00952.1118022,E,2,9,1.2,-1.821,M,40.593,M,2.7,0123*56\r\n
$GPGGA,082353.05,5703.4321031,N,00952.1118602,E,2,9,1.2,-1.811,M,40.593,M,2.9,0123*51\r\n
$GPGGA,082353.10,5703.4320576,N,00952.1119153,E,2,9,1.2,-1.809,M,40.593,M,2.9,0123*59\r\n
$GPGGA,082353.15,5703.4320089,N,00952.1119707,E,2,9,1.2,-1.810,M,40.593,M,2.9,0123*56\r\n
$GPGGA,082353.20,5703.4319585,N,00952.1120272,E,2,9,1.2,-1.811,M,40.593,M,2.9,0123*5F\r\n
$GPGGA,082353.25,5703.4319095,N,00952.1120848,E,2,9,1.2,-1.807,M,40.593,M,1.9,0123*59\r\n
$GPGGA,082353.30,5703.4318600,N,00952.1121401,E,2,9,1.2,-1.807,M,40.593,M,1.9,0123*56\r\n
$GPGGA,082353.35,5703.4318097,N,00952.1121923,E,2,9,1.2,-1.812,M,40.593,M,1.9,0123*52\r\n
$GPGGA,082353.40,5703.4317590,N,00952.1122429,E,2,9,1.2,-1.819,M,40.593,M,1.9,0123*52\r\n
$GPGGA,082353.45,5703.4317043,N,00952.1122889,E,2,9,1.2,-1.817,M,40.593,M,2.1,0123*5F\r\n
$GPGGA,082353.50,5703.4316504,N,00952.1123320,E,2,9,1.2,-1.812,M,40.593,M,2.1,0123*50\r\n
$GPGGA,082353.55,5703.4315962,N,00952.1123722,E,2,9,1.2,-1.809,M,40.593,M,2.1,0123*56\r\n
$GPGGA,082353.60,5703.4315424,N,00952.1124114,E,2,9,1.2,-1.807,M,40.593,M,2.1,0123*55\r\n
$GPGGA,082353.65,5703.4314895,N,00952.1124464,E,2,9,1.2,-1.799,M,40.593,M,2.3,0123*5F\r\n
$GPGGA,082353.70,5703.4314318,N,00952.1124839,E,2,9,1.2,-1.798,M,40.593,M,2.3,0123*50\r\n
$GPGGA,082353.75,5703.4313731,N,00952.1125197,E,2,9,1.2,-1.794,M,40.593,M,2.3,0123*5D\r\n
$GPGGA,082353.80,5703.4313175,N,00952.1125517,E,2,9,1.2,-1.791,M,40.593,M,2.3,0123*58\r\n
$GPGGA,082353.85,5703.4312622,N,00952.1125830,E,2,9,1.2,-1.791,M,40.593,M,2.6,0123*54\r\n
$GPGGA,082353.90,5703.4312062,N,00952.1126149,E,2,9,1.2,-1.790,M,40.593,M,2.6,0123*57\r\n
$GPGGA,082353.95,5703.4311478,N,00952.1126455,E,2,9,1.2,-1.792,M,40.593,M,2.6,0123*54\r\n
$GPGGA,082354.00,5703.4310884,N,00952.1126740,E,2,9,1.2,-1.795,M,40.593,M,2.6,0123*51\r\n
$GPGGA,082354.05,5703.4310245,N,00952.1127021,E,2,9,1.2,-1.796,M,40.593,M,2.8,0123*5F\r\n
$GPGGA,082354.10,5703.4309639,N,00952.1127281,E,2,9,1.2,-1.799,M,40.593,M,2.8,0123*5B\r\n
$GPGGA,082354.15,5703.4309043,N,00952.1127508,E,2,9,1.2,-1.803,M,40.593,M,2.8,0123*5F\r\n
$GPGGA,082354.20,5703.4308449,N,00952.1127713,E,2,9,1.2,-1.810,M,40.593,M,2.8,0123*5C\r\n
$GPGGA,082354.25,5703.4307845,N,00952.1127874,E,2,9,1.2,-1.807,M,40.593,M,3.0,0123*57\r\n
$GPGGA,082354.30,5703.4307209,N,00952.1128025,E,2,9,1.2,-1.806,M,40.593,M,3.0,0123*53\r\n
$GPGGA,082354.35,5703.4306577,N,00952.1128147,E,2,9,1.2,-1.806,M,40.593,M,3.0,0123*5C\r\n
$GPGGA,082354.40,5703.4305955,N,00952.1128269,E,2,9,1.2,-1.809,M,40.593,M,3.0,0123*51\r\n
$GPGGA,082354.45,5703.4305320,N,00952.1128384,E,2,9,1.2,-1.812,M,40.593,M,3.2,0123*56\r\n
$GPGGA,082354.50,5703.4304695,N,00952.1128467,E,2,9,1.2,-1.813,M,40.593,M,3.2,0123*53\r\n
$GPGGA,082354.55,5703.4304071,N,00952.1128526,E,2,9,1.2,-1.812,M,40.593,M,3.2,0123*5F\r\n
$GPGGA,082354.60,5703.4303427,N,00952.1128563,E,2,9,1.2,-1.809,M,40.593,M,3.2,0123*52\r\n
$GPGGA,082354.65,5703.4302783,N,00952.1128600,E,2,9,1.2,-1.809,M,40.593,M,3.4,0123*5B\r\n
$GPGGA,082354.70,5703.4302119,N,00952.1128639,E,2,9,1.2,-1.811,M,40.593,M,3.4,0123*59\r\n
$GPGGA,082354.75,5703.4301450,N,00952.1128675,E,2,9,1.2,-1.811,M,40.593,M,3.4,0123*5F\r\n
$GPGGA,082354.80,5703.4300772,N,00952.1128679,E,2,9,1.2,-1.815,M,40.593,M,3.4,0123*5F\r\n
$GPGGA,082354.85,5703.4300094,N,00952.1128641,E,2,9,1.2,-1.829,M,40.593,M,3.6,0123*53\r\n
$GPGGA,082354.90,5703.4299440,N,00952.1128549,E,2,9,1.2,-1.828,M,40.593,M,3.6,0123*51\r\n
$GPGGA,082354.95,5703.4298790,N,00952.1128442,E,2,9,1.2,-1.825,M,40.593,M,3.6,0123*5C\r\n
$GPGGA,082355.00,5703.4298129,N,00952.1128317,E,2,9,1.2,-1.823,M,40.593,M,3.6,0123*54\r\n
$GPGGA,082355.05,5703.4297433,N,00952.1128206,E,2,9,1.2,-1.809,M,40.593,M,3.8,0123*57\r\n
$GPGGA,082355.10,5703.4296742,N,00952.1128079,E,2,9,1.2,-1.811,M,40.593,M,3.8,0123*54\r\n
$GPGGA,082355.15,5703.4296076,N,00952.1127889,E,2,9,1.2,-1.810,M,40.593,M,3.8,0123*58\r\n
$GPGGA,082355.20,5703.4295424,N,00952.1127686,E,2,9,1.2,-1.806,M,40.593,M,3.8,0123*58\r\n
$GPGGA,082355.25,5703.4294738,N,00952.1127509,E,2,9,1.2,-1.819,M,40.593,M,2.2,0123*53\r\n
$GPGGA,082355.30,5703.4294059,N,00952.1127291,E,2,9,1.2,-1.818,M,40.593,M,2.2,0123*50\r\n
$GPGGA,082355.35,5703.4293369,N,00952.1127043,E,2,9,1.2,-1.816,M,40.593,M,2.2,0123*51\r\n
$GPGGA,082355.40,5703.4292693,N,00952.1126757,E,2,9,1.2,-1.813,M,40.593,M,2.2,0123*54\r\n
$GPGGA,082355.45,5703.4292036,N,00952.1126469,E,2,9,1.2,-1.812,M,40.593,M,2.4,0123*51\r\n
$GPGGA,082355.50,5703.4291372,N,00952.1126145,E,2,9,1.2,-1.813,M,40.593,M,2.4,0123*5F\r\n
$GPGGA,082355.55,5703.4290699,N,00952.1125824,E,2,9,1.2,-1.814,M,40.593,M,2.4,0123*51\r\n
$GPGGA,082355.60,5703.4290024,N,00952.1125478,E,2,9,1.2,-1.808,M,40.593,M,2.4,0123*5F\r\n
$GPGGA,082355.65,5703.4289329,N,00952.1125133,E,2,9,1.2,-1.809,M,40.593,M,2.7,0123*54\r\n
$GPGGA,082355.70,5703.4288652,N,00952.1124761,E,2,9,1.2,-1.805,M,40.593,M,2.7,0123*54\r\n
$GPGGA,082355.75,5703.4287988,N,00952.1124383,E,2,9,1.2,-1.803,M,40.593,M,2.7,0123*58\r\n
$GPGGA,082355.80,5703.4287322,N,00952.1123988,E,2,9,1.2,-1.803,M,40.593,M,2.7,0123*5E\r\n
$GPGGA,082355.85,5703.4286674,N,00952.1123553,E,2,9,1.2,-1.798,M,40.593,M,2.9,0123*55\r\n
$GPGGA,082355.90,5703.4285996,N,00952.1123081,E,2,9,1.2,-1.795,M,40.593,M,2.9,0123*56\r\n
$GPGGA,082355.95,5703.4285315,N,00952.1122599,E,2,9,1.2,-1.794,M,40.593,M,2.9,0123*5E\r\n
$GPGGA,082356.00,5703.4284655,N,00952.1122099,E,2,9,1.2,-1.795,M,40.593,M,2.9,0123*55\r\n
$GPGGA,082356.05,5703.4283960,N,00952.1121623,E,2,9,1.2,-1.804,M,40.593,M,3.2,0123*57\r\n
$GPGGA,082356.10,5703.4283309,N,00952.1121099,E,2,9,1.2,-1.804,M,40.593,M,3.2,0123*51\r\n
$GPGGA,082356.15,5703.4282640,N,00952.1120551,E,2,9,1.2,-1.807,M,40.593,M,3.2,0123*5E\r\n
$GPGGA,082356.20,5703.4281970,N,00952.1119963,E,2,9,1.2,-1.805,M,40.593,M,3.2,0123*52\r\n
$GPGGA,082356.25,5703.4281311,N,00952.1119362,E,2,9,1.2,-1.807,M,40.593,M,2.0,0123*50\r\n
$GPGGA,082356.30,5703.4280692,N,00952.1118759,E,2,9,1.2,-1.806,M,40.593,M,2.0,0123*57\r\n
$GPGGA,082356.35,5703.4280062,N,00952.1118150,E,2,9,1.2,-1.801,M,40.593,M,2.0,0123*53\r\n
$GPGGA,082356.40,5703.4279412,N,00952.1117521,E,2,9,1.2,-1.797,M,40.593,M,2.0,0123*59\r\n
$GPGGA,082356.45,5703.4278749,N,00952.1116870,E,2,9,1.2,-1.807,M,40.593,M,2.2,0123*5C\r\n
$GPGGA,082356.50,5703.4278112,N,00952.1116190,E,2,9,1.2,-1.808,M,40.593,M,2.2,0123*58\r\n
$GPGGA,082356.55,5703.4277487,N,00952.1115487,E,2,9,1.2,-1.809,M,40.593,M,2.2,0123*5A\r\n
$GPGGA,082356.60,5703.4276866,N,00952.1114751,E,2,9,1.2,-1.807,M,40.593,M,2.2,0123*59\r\n
$GPGGA,082356.65,5703.4276242,N,00952.1114022,E,2,9,1.2,-1.811,M,40.593,M,2.4,0123*52\r\n
$GPGGA,082356.70,5703.4275616,N,00952.1113272,E,2,9,1.2,-1.810,M,40.593,M,2.4,0123*51\r\n
$GPGGA,082356.75,5703.4275011,N,00952.1112495,E,2,9,1.2,-1.808,M,40.593,M,2.4,0123*52\r\n
$GPGGA,082356.80,5703.4274410,N,00952.1111704,E,2,9,1.2,-1.806,M,40.593,M,2.4,0123*5A\r\n
$GPGGA,082356.85,5703.4273813,N,00952.1110876,E,2,9,1.2,-1.807,M,40.593,M,2.7,0123*5E\r\n
$GPGGA,082356.90,5703.4273206,N,00952.1110038,E,2,9,1.2,-1.808,M,40.593,M,2.7,0123*59\r\n
$GPGGA,082356.95,5703.4272626,N,00952.1109166,E,2,9,1.2,-1.806,M,40.593,M,2.7,0123*57\r\n
$GPGGA,082357.00,5703.4272043,N,00952.1108271,E,2,9,1.2,-1.804,M,40.593,M,2.7,0123*59\r\n
$GPGGA,082357.05,5703.4271449,N,00952.1107365,E,2,9,1.2,-1.804,M,40.593,M,2.9,0123*54\r\n
$GPGGA,082357.10,5703.4270869,N,00952.1106469,E,2,9,1.2,-1.806,M,40.593,M,2.9,0123*57\r\n
$GPGGA,082357.15,5703.4270289,N,00952.1105574,E,2,9,1.2,-1.807,M,40.593,M,2.9,0123*59\r\n
$GPGGA,082357.20,5703.4269723,N,00952.1104649,E,2,9,1.2,-1.808,M,40.593,M,2.9,0123*51\r\n
$GPGGA,082357.25,5703.4269186,N,00952.1103689,E,2,9,1.2,-1.814,M,40.593,M,1.9,0123*58\r\n
$GPGGA,082357.30,5703.4268634,N,00952.1102707,E,2,9,1.2,-1.817,M,40.593,M,1.9,0123*56\r\n
$GPGGA,082357.35,5703.4268093,N,00952.1101707,E,2,9,1.2,-1.819,M,40.593,M,1.9,0123*55\r\n
$GPGGA,082357.40,5703.4267572,N,00952.1100716,E,2,9,1.2,-1.817,M,40.593,M,1.9,0123*5D\r\n
$GPGGA,082357.45,5703.4267046,N,00952.1099720,E,2,9,1.2,-1.816,M,40.593,M,2.1,0123*54\r\n
$GPGGA,082357.50,5703.4266542,N,00952.1098695,E,2,9,1.2,-1.816,M,40.593,M,2.1,0123*5E\r\n
$GPGGA,082357.55,5703.4266044,N,00952.1097649,E,2,9,1.2,-1.815,M,40.593,M,2.1,0123*55\r\n
$GPGGA,082357.60,5703.4265547,N,00952.1096590,E,2,9,1.2,-1.814,M,40.593,M,2.1,0123*51\r\n
$GPGGA,082357.65,5703.4265066,N,00952.1095518,E,2,9,1.2,-1.814,M,40.593,M,2.3,0123*53\r\n
$GPGGA,082357.70,5703.4264578,N,00952.1094445,E,2,9,1.2,-1.813,M,40.593,M,2.3,0123*53\r\n
$GPGGA,082357.75,5703.4264085,N,00952.1093373,E,2,9,1.2,-1.813,M,40.593,M,2.3,0123*54\r\n
$GPGGA,082357.80,5703.4263600,N,00952.1092289,E,2,9,1.2,-1.810,M,40.593,M,2.3,0123*54\r\n
$GPGGA,082357.85,5703.4263129,N,00952.1091183,E,2,9,1.2,-1.805,M,40.593,M,2.6,0123*56\r\n
$GPGGA,082357.90,5703.4262658,N,00952.1090075,E,2,9,1.2,-1.805,M,40.593,M,2.6,0123*5B\r\n
$GPGGA,082357.95,5703.4262203,N,00952.1088941,E,2,9,1.2,-1.805,M,40.593,M,2.6,0123*53\r\n
$GPGGA,082358.00,5703.4261764,N,00952.1087781,E,2,9,1.2,-1.804,M,40.593,M,2.6,0123*5B\r\n
$GPGGA,082358.05,5703.4261315,N,00952.1086648,E,2,9,1.2,-1.804,M,40.593,M,2.8,0123*57\r\n
$GPGGA,082358.10,5703.4260894,N,00952.1085469,E,2,9,1.2,-1.802,M,40.593,M,2.8,0123*54\r\n
$GPGGA,082358.15,5703.4260463,N,00952.1084275,E,2,9,1.2,-1.803,M,40.593,M,2.8,0123*5E\r\n
$GPGGA,082358.20,5703.4260035,N,00952.1083090,E,2,9,1.2,-1.803,M,40.593,M,2.8,0123*51\r\n
$GPGGA,082358.25,5703.4259601,N,00952.1081911,E,2,9,1.2,-1.806,M,40.593,M,3.0,0123*51\r\n
$GPGGA,082358.30,5703.4259200,N,00952.1080719,E,2,9,1.2,-1.804,M,40.593,M,3.0,0123*55\r\n
$GPGGA,082358.35,5703.4258813,N,00952.1079505,E,2,9,1.2,-1.803,M,40.593,M,3.0,0123*57\r\n
$GPGGA,082358.40,5703.4258423,N,00952.1078261,E,2,9,1.2,-1.801,M,40.593,M,3.0,0123*5C\r\n
$GPGGA,082358.45,5703.4258018,N,00952.1077021,E,2,9,1.2,-1.807,M,40.593,M,3.2,0123*58\r\n
$GPGGA,082358.50,5703.4257626,N,00952.1075774,E,2,9,1.2,-1.809,M,40.593,M,3.2,0123*53\r\n
$GPGGA,082358.55,5703.4257257,N,00952.1074514,E,2,9,1.2,-1.809,M,40.593,M,3.2,0123*51\r\n
$GPGGA,082358.60,5703.4256916,N,00952.1073228,E,2,9,1.2,-1.806,M,40.593,M,3.2,0123*58\r\n
$GPGGA,082358.65,5703.4256577,N,00952.1071962,E,2,9,1.2,-1.806,M,40.593,M,3.4,0123*57\r\n
$GPGGA,082358.70,5703.4256218,N,00952.1070688,E,2,9,1.2,-1.809,M,40.593,M,3.4,0123*58\r\n
$GPGGA,082358.75,5703.4255873,N,00952.1069402,E,2,9,1.2,-1.812,M,40.593,M,3.4,0123*5B\r\n
$GPGGA,082358.80,5703.4255538,N,00952.1068101,E,2,9,1.2,-1.812,M,40.593,M,3.4,0123*54\r\n
$GPGGA,082358.85,5703.4255210,N,00952.1066799,E,2,9,1.2,-1.816,M,40.593,M,3.6,0123*53\r\n
$GPGGA,082358.90,5703.4254901,N,00952.1065490,E,2,9,1.2,-1.816,M,40.593,M,3.6,0123*54\r\n
$GPGGA,082358.95,5703.4254600,N,00952.1064183,E,2,9,1.2,-1.816,M,40.593,M,3.6,0123*59\r\n
$GPGGA,082359.00,5703.4254300,N,00952.1062870,E,2,9,1.2,-1.818,M,40.593,M,3.6,0123*5C\r\n
$GPGGA,082359.05,5703.4254000,N,00952.1061552,E,2,9,1.2,-1.815,M,40.593,M,3.8,0123*57\r\n
$GPGGA,082359.10,5703.4253719,N,00952.1060219,E,2,9,1.2,-1.814,M,40.593,M,3.8,0123*53\r\n
$GPGGA,082359.15,5703.4253453,N,00952.1058868,E,2,9,1.2,-1.813,M,40.593,M,3.8,0123*5B\r\n
$GPGGA,082359.20,5703.4253197,N,00952.1057516,E,2,9,1.2,-1.813,M,40.593,M,3.8,0123*5B\r\n
$GPGGA,082359.25,5703.4252931,N,00952.1056163,E,2,9,1.2,-1.810,M,40.593,M,2.2,0123*54\r\n
$GPGGA,082359.30,5703.4252681,N,00952.1054809,E,2,9,1.2,-1.809,M,40.593,M,2.2,0123*5B\r\n
$GPGGA,082359.35,5703.4252449,N,00952.1053451,E,2,9,1.2,-1.808,M,40.593,M,2.2,0123*5F\r\n
$GPGGA,082359.40,5703.4252219,N,00952.1052074,E,2,9,1.2,-1.809,M,40.593,M,2.2,0123*5D\r\n
$GPGGA,082359.45,5703.4252007,N,00952.1050690,E,2,9,1.2,-1.812,M,40.593,M,2.4,0123*57\r\n
$GPGGA,082359.50,5703.4251789,N,00952.1049297,E,2,9,1.2,-1.814,M,40.593,M,2.4,0123*5C\r\n
$GPGGA,082359.55,5703.4251599,N,00952.1047894,E,2,9,1.2,-1.814,M,40.593,M,2.4,0123*5D\r\n
$GPGGA,082359.60,5703.4251416,N,00952.1046499,E,2,9,1.2,-1.813,M,40.593,M,2.4,0123*5A\r\n
$GPGGA,082359.65,5703.4251229,N,00952.1045115,E,2,9,1.2,-1.812,M,40.593,M,2.7,0123*55\r\n
$GPGGA,082359.70,5703.4251055,N,00952.1043725,E,2,9,1.2,-1.811,M,40.593,M,2.7,0123*58\r\n
$GPGGA,082359.75,5703.4250893,N,00952.1042314,E,2,9,1.2,-1.808,M,40.593,M,2.7,0123*51\r\n
$GPGGA,082359.80,5703.4250762,N,00952.1040900,E,2,9,1.2,-1.805,M,40.593,M,2.7,0123*5A\r\n
$GPGGA,082359.85,5703.4250634,N,00952.1039491,E,2,9,1.2,-1.803,M,40.593,M,2.9,0123*5E\r\n
$GPGGA,082359.90,5703.4250504,N,00952.1038088,E,2,9,1.2,-1.803,M,40.593,M,2.9,0123*57\r\n
$GPGGA,082359.95,5703.4250379,N,00952.1036688,E,2,9,1.2,-1.805,M,40.593,M,2.9,0123*50\r\n
$GPGGA,082400.00,5703.4250259,N,00952.1035279,E,2,9,1.2,-1.804,M,40.593,M,2.9,0123*5C\r\n
$GPGGA,082400.05,5703.4250128,N,00952.1033873,E,2,9,1.2,-1.800,M,40.593,M,3.2,0123*54\r\n
$GPGGA,082400.10,5703.4250034,N,00952.1032471,E,2,9,1.2,-1.800,M,40.593,M,3.2,0123*53\r\n
$GPGGA,082400.15,5703.4249957,N,00952.1031061,E,2,9,1.2,-1.801,M,40.593,M,3.2,0123*55\r\n
$GPGGA,082400.20,5703.4249859,N,00952.1029647,E,2,9,1.2,-1.802,M,40.593,M,3.2,0123*54\r\n
$GPGGA,082400.25,5703.4249777,N,00952.1028227,E,2,9,1.2,-1.795,M,40.593,M,2.0,0123*53\r\n
$GPGGA,082400.30,5703.4249713,N,00952.1026822,E,2,9,1.2,-1.792,M,40.593,M,2.0,0123*53\r\n
$GPGGA,082400.35,5703.4249648,N,00952.1025411,E,2,9,1.2,-1.791,M,40.593,M,2.0,0123*55\r\n
$GPGGA,082400.40,5703.4249600,N,00952.1023999,E,2,9,1.2,-1.789,M,40.593,M,2.0,0123*59\r\n
$GPGGA,082400.45,5703.4249561,N,00952.1022593,E,2,9,1.2,-1.793,M,40.593,M,2.2,0123*56\r\n
$GPGGA,082400.50,5703.4249535,N,00952.1021186,E,2,9,1.2,-1.793,M,40.593,M,2.2,0123*50\r\n
$GPGGA,082400.55,5703.4249489,N,00952.1019786,E,2,9,1.2,-1.794,M,40.593,M,2.2,0123*59\r\n
$GPGGA,082400.60,5703.4249464,N,00952.1018387,E,2,9,1.2,-1.792,M,40.593,M,2.2,0123*5E\r\n
$GPGGA,082400.65,5703.4249436,N,00952.1016982,E,2,9,1.2,-1.789,M,40.593,M,2.4,0123*51\r\n
$GPGGA,082400.70,5703.4249430,N,00952.1015570,E,2,9,1.2,-1.787,M,40.593,M,2.4,0123*5F\r\n
$GPGGA,082400.75,5703.4249451,N,00952.1014161,E,2,9,1.2,-1.785,M,40.593,M,2.4,0123*5A\r\n
$GPGGA,082400.80,5703.4249469,N,00952.1012760,E,2,9,1.2,-1.787,M,40.593,M,2.4,0123*58\r\n
$GPGGA,082400.85,5703.4249496,N,00952.1011375,E,2,9,1.2,-1.790,M,40.593,M,2.7,0123*5B\r\n
$GPGGA,082400.90,5703.4249525,N,00952.1009960,E,2,9,1.2,-1.786,M,40.593,M,2.7,0123*56\r\n
$GPGGA,082400.95,5703.4249577,N,00952.1008555,E,2,9,1.2,-1.785,M,40.593,M,2.7,0123*5C\r\n
$GPGGA,082401.00,5703.4249627,N,00952.1007157,E,2,9,1.2,-1.786,M,40.593,M,2.7,0123*5D\r\n
$GPGGA,082401.05,5703.4249674,N,00952.1005775,E,2,9,1.2,-1.790,M,40.593,M,2.9,0123*53\r\n
$GPGGA,082401.10,5703.4249724,N,00952.1004371,E,2,9,1.2,-1.790,M,40.593,M,2.9,0123*52\r\n
$GPGGA,082401.15,5703.4249805,N,00952.1002982,E,2,9,1.2,-1.790,M,40.593,M,2.9,0123*5B\r\n
$GPGGA,082401.20,5703.4249905,N,00952.1001603,E,2,9,1.2,-1.790,M,40.593,M,2.9,0123*59\r\n
$GPGGA,082401.25,5703.4250028,N,00952.1000236,E,2,9,1.2,-1.794,M,40.593,M,1.9,0123*56\r\n
$GPGGA,082401.30,5703.4250154,N,00952.0998875,E,2,9,1.2,-1.795,M,40.593,M,1.9,0123*5D\r\n
$GPGGA,082401.35,5703.4250269,N,00952.0997519,E,2,9,1.2,-1.795,M,40.593,M,1.9,0123*5D\r\n
$GPGGA,082401.40,5703.4250376,N,00952.0996162,E,2,9,1.2,-1.791,M,40.593,M,1.9,0123*5D\r\n
$GPGGA,082401.45,5703.4250484,N,00952.0994790,E,2,9,1.2,-1.785,M,40.593,M,2.1,0123*55\r\n
$GPGGA,082401.50,5703.4250613,N,00952.0993450,E,2,9,1.2,-1.786,M,40.593,M,2.1,0123*56\r\n
$GPGGA,082401.55,5703.4250749,N,00952.0992095,E,2,9,1.2,-1.787,M,40.593,M,2.1,0123*50\r\n
$GPGGA,082401.60,5703.4250896,N,00952.0990729,E,2,9,1.2,-1.784,M,40.593,M,2.1,0123*5A\r\n
$GPGGA,082401.65,5703.4251053,N,00952.0989381,E,2,9,1.2,-1.789,M,40.593,M,2.3,0123*5E\r\n
$GPGGA,082401.70,5703.4251215,N,00952.0988047,E,2,9,1.2,-1.789,M,40.593,M,2.3,0123*52\r\n
$GPGGA,082401.75,5703.4251390,N,00952.0986721,E,2,9,1.2,-1.790,M,40.593,M,2.3,0123*5A\r\n
$GPGGA,082401.80,5703.4251553,N,00952.0985387,E,2,9,1.2,-1.789,M,40.593,M,2.3,0123*5A\r\n
$GPGGA,082401.85,5703.4251724,N,00952.0984042,E,2,9,1.2,-1.790,M,40.593,M,2.6,0123*5B\r\n
$GPGGA,082401.90,5703.4251907,N,00952.0982694,E,2,9,1.2,-1.791,M,40.593,M,2.6,0123*5A\r\n
$GPGGA,082401.95,5703.4252098,N,00952.0981355,E,2,9,1.2,-1.790,M,40.593,M,2.6,0123*59\r\n
$GPGGA,082402.00,5703.4252305,N,00952.0980024,E,2,9,1.2,-1.789,M,40.593,M,2.6,0123*5D\r\n
$GPGGA,082402.05,5703.4252492,N,00952.0978692,E,2,9,1.2,-1.787,M,40.593,M,2.8,0123*5D\r\n
$GPGGA,082402.10,5703.4252701,N,00952.0977369,E,2,9,1.2,-1.786,M,40.593,M,2.8,0123*5F\r\n
$GPGGA,082402.15,5703.4252920,N,00952.0976073,E,2,9,1.2,-1.786,M,40.593,M,2.8,0123*5E\r\n
$GPGGA,082402.20,5703.4253144,N,00952.0974777,E,2,9,1.2,-1.787,M,40.593,M,2.8,0123*53\r\n
$GPGGA,082402.25,5703.4253370,N,00952.0973488,E,2,9,1.2,-1.788,M,40.593,M,3.0,0123*51\r\n
$GPGGA,082402.30,5703.4253617,N,00952.0972203,E,2,9,1.2,-1.788,M,40.593,M,3.0,0123*55\r\n
$GPGGA,082402.35,5703.4253860,N,00952.0970911,E,2,9,1.2,-1.787,M,40.593,M,3.0,0123*5B\r\n
$GPGGA,082402.40,5703.4254104,N,00952.0969624,E,2,9,1.2,-1.785,M,40.593,M,3.0,0123*56\r\n
$GPGGA,082402.45,5703.4254354,N,00952.0968343,E,2,9,1.2,-1.783,M,40.593,M,3.2,0123*55\r\n
$GPGGA,082402.50,5703.4254639,N,00952.0967067,E,2,9,1.2,-1.785,M,40.593,M,3.2,0123*53\r\n
$GPGGA,082402.55,5703.4254918,N,00952.0965803,E,2,9,1.2,-1.785,M,40.593,M,3.2,0123*52\r\n
$GPGGA,082402.60,5703.4255179,N,00952.0964527,E,2,9,1.2,-1.783,M,40.593,M,3.2,0123*56\r\n
$GPGGA,082402.65,5703.4255437,N,00952.0963285,E,2,9,1.2,-1.788,M,40.593,M,3.4,0123*59\r\n
$GPGGA,082402.70,5703.4255707,N,00952.0962034,E,2,9,1.2,-1.788,M,40.593,M,3.4,0123*54\r\n
$GPGGA,082402.75,5703.4255982,N,00952.0960779,E,2,9,1.2,-1.788,M,40.593,M,3.4,0123*5E\r\n
$GPGGA,082402.80,5703.4256275,N,00952.0959522,E,2,9,1.2,-1.790,M,40.593,M,3.4,0123*5B\r\n
$GPGGA,082402.85,5703.4256584,N,00952.0958295,E,2,9,1.2,-1.790,M,40.593,M,3.6,0123*5F\r\n
$GPGGA,082402.90,5703.4256888,N,00952.0957072,E,2,9,1.2,-1.790,M,40.593,M,3.6,0123*5E\r\n
$GPGGA,082402.95,5703.4257191,N,00952.0955850,E,2,9,1.2,-1.786,M,40.593,M,3.6,0123*56\r\n
$GPGGA,082403.00,5703.4257518,N,00952.0954634,E,2,9,1.2,-1.782,M,40.593,M,3.6,0123*57\r\n
$GPGGA,082403.05,5703.4257829,N,00952.0953410,E,2,9,1.2,-1.778,M,40.593,M,3.8,0123*55\r\n
$GPGGA,082403.10,5703.4258138,N,00952.0952211,E,2,9,1.2,-1.778,M,40.593,M,3.8,0123*51\r\n
$GPGGA,082403.15,5703.4258453,N,00952.0951024,E,2,9,1.2,-1.776,M,40.593,M,3.8,0123*55\r\n
$GPGGA,082403.20,5703.4258793,N,00952.0949826,E,2,9,1.2,-1.776,M,40.593,M,3.8,0123*5F\r\n
$GPGGA,082403.25,5703.4259131,N,00952.0948636,E,2,9,1.2,-1.781,M,40.593,M,2.2,0123*58\r\n
$GPGGA,082403.30,5703.4259476,N,00952.0947458,E,2,9,1.2,-1.779,M,40.593,M,2.2,0123*58\r\n
$GPGGA,082403.35,5703.4259824,N,00952.0946277,E,2,9,1.2,-1.780,M,40.593,M,2.2,0123*5A\r\n
$GPGGA,082403.40,5703.4260175,N,00952.0945112,E,2,9,1.2,-1.779,M,40.593,M,2.2,0123*5A\r\n
$GPGGA,082403.45,5703.4260517,N,00952.0943948,E,2,9,1.2,-1.782,M,40.593,M,2.4,0123*5C\r\n
$GPGGA,082403.50,5703.4260858,N,00952.0942784,E,2,9,1.2,-1.780,M,40.593,M,2.4,0123*53\r\n
$GPGGA,082403.55,5703.4261203,N,00952.0941638,E,2,9,1.2,-1.776,M,40.593,M,2.4,0123*5F\r\n
$GPGGA,082403.60,5703.4261549,N,00952.0940487,E,2,9,1.2,-1.774,M,40.593,M,2.4,0123*55\r\n
$GPGGA,082403.65,5703.4261910,N,00952.0939356,E,2,9,1.2,-1.766,M,40.593,M,2.7,0123*55\r\n
$GPGGA,082403.70,5703.4262265,N,00952.0938232,E,2,9,1.2,-1.764,M,40.593,M,2.7,0123*5B\r\n
$GPGGA,082403.75,5703.4262630,N,00952.0937111,E,2,9,1.2,-1.760,M,40.593,M,2.7,0123*53\r\n
$GPGGA,082403.80,5703.4263008,N,00952.0935972,E,2,9,1.2,-1.757,M,40.593,M,2.7,0123*5E\r\n
$GPGGA,082403.85,5703.4263369,N,00952.0934841,E,2,9,1.2,-1.760,M,40.593,M,2.9,0123*55\r\n
$GPGGA,082403.90,5703.4263741,N,00952.0933718,E,2,9,1.2,-1.759,M,40.593,M,2.9,0123*51\r\n
$GPGGA,082403.95,5703.4264110,N,00952.0932598,E,2,9,1.2,-1.757,M,40.593,M,2.9,0123*54\r\n
$GPGGA,082404.00,5703.4264472,N,00952.0931475,E,2,9,1.2,-1.754,M,40.593,M,2.9,0123*5C\r\n
$GPGGA,082404.05,5703.4264833,N,00952.0930352,E,2,9,1.2,-1.749,M,40.593,M,3.2,0123*55\r\n
$GPGGA,082404.10,5703.4265220,N,00952.0929261,E,2,9,1.2,-1.748,M,40.593,M,3.2,0123*50\r\n
$GPGGA,082404.15,5703.4265599,N,00952.0928185,E,2,9,1.2,-1.749,M,40.593,M,3.2,0123*59\r\n
$GPGGA,082404.20,5703.4265983,N,00952.0927110,E,2,9,1.2,-1.748,M,40.593,M,3.2,0123*5A\r\n
$GPGGA,082404.25,5703.4266367,N,00952.0926049,E,2,9,1.2,-1.753,M,40.593,M,2.0,0123*59\r\n
$GPGGA,082404.30,5703.4266769,N,00952.0924995,E,2,9,1.2,-1.755,M,40.593,M,2.0,0123*5B\r\n
$GPGGA,082404.35,5703.4267191,N,00952.0923952,E,2,9,1.2,-1.755,M,40.593,M,2.0,0123*52\r\n
$GPGGA,082404.40,5703.4267601,N,00952.0922929,E,2,9,1.2,-1.755,M,40.593,M,2.0,0123*53\r\n
$GPGGA,082404.45,5703.4268007,N,00952.0921893,E,2,9,1.2,-1.755,M,40.593,M,2.2,0123*58\r\n
$GPGGA,082404.50,5703.4268430,N,00952.0920882,E,2,9,1.2,-1.756,M,40.593,M,2.2,0123*5E\r\n
$GPGGA,082404.55,5703.4268857,N,00952.0919871,E,2,9,1.2,-1.758,M,40.593,M,2.2,0123*5E\r\n
$GPGGA,082404.60,5703.4269292,N,00952.0918860,E,2,9,1.2,-1.762,M,40.593,M,2.2,0123*52\r\n
$GPGGA,082404.65,5703.4269726,N,00952.0917857,E,2,9,1.2,-1.771,M,40.593,M,2.4,0123*52\r\n
$GPGGA,082404.70,5703.4270144,N,00952.0916871,E,2,9,1.2,-1.775,M,40.593,M,2.4,0123*5D\r\n
$GPGGA,082404.75,5703.4270583,N,00952.0915893,E,2,9,1.2,-1.777,M,40.593,M,2.4,0123*5A\r\n
$GPGGA,082404.80,5703.4271021,N,00952.0914925,E,2,9,1.2,-1.783,M,40.593,M,2.4,0123*5A\r\n
$GPGGA,082404.85,5703.4271470,N,00952.0913952,E,2,9,1.2,-1.786,M,40.593,M,2.7,0123*5E\r\n
$GPGGA,082404.90,5703.4271916,N,00952.0912981,E,2,9,1.2,-1.786,M,40.593,M,2.7,0123*58\r\n
$GPGGA,082404.95,5703.4272341,N,00952.0912023,E,2,9,1.2,-1.788,M,40.593,M,2.7,0123*59\r\n
$GPGGA,082405.00,5703.4272790,N,00952.0911051,E,2,9,1.2,-1.791,M,40.593,M,2.7,0123*52\r\n
$GPGGA,082405.05,5703.4273219,N,00952.0910062,E,2,9,1.2,-1.788,M,40.593,M,2.9,0123*55\r\n
$GPGGA,082405.10,5703.4273670,N,00952.0909111,E,2,9,1.2,-1.788,M,40.593,M,2.9,0123*57\r\n
$GPGGA,082405.15,5703.4274125,N,00952.0908178,E,2,9,1.2,-1.788,M,40.593,M,2.9,0123*5C\r\n
$GPGGA,082405.20,5703.4274574,N,00952.0907254,E,2,9,1.2,-1.788,M,40.593,M,2.9,0123*58\r\n
$GPGGA,082405.25,5703.4275025,N,00952.0906339,E,2,9,1.2,-1.787,M,40.593,M,1.9,0123*5A\r\n
$GPGGA,082405.30,5703.4275484,N,00952.0905438,E,2,9,1.2,-1.785,M,40.593,M,1.9,0123*56\r\n
$GPGGA,082405.35,5703.4275938,N,00952.0904558,E,2,9,1.2,-1.783,M,40.593,M,1.9,0123*59\r\n
$GPGGA,082405.40,5703.4276395,N,00952.0903687,E,2,9,1.2,-1.783,M,40.593,M,1.9,0123*53\r\n
$GPGGA,082405.45,5703.4276865,N,00952.0902810,E,2,9,1.2,-1.781,M,40.593,M,2.1,0123*5A\r\n
$GPGGA,082405.50,5703.4277337,N,00952.0901949,E,2,9,1.2,-1.779,M,40.593,M,2.1,0123*5A\r\n
$GPGGA,082405.55,5703.4277814,N,00952.0901106,E,2,9,1.2,-1.776,M,40.593,M,2.1,0123*59\r\n
$GPGGA,082405.60,5703.4278290,N,00952.0900264,E,2,9,1.2,-1.773,M,40.593,M,2.1,0123*55\r\n
$GPGGA,082405.65,5703.4278775,N,00952.0899439,E,2,9,1.2,-1.765,M,40.593,M,2.3,0123*54\r\n
$GPGGA,082405.70,5703.4279268,N,00952.0898630,E,2,9,1.2,-1.764,M,40.593,M,2.3,0123*53\r\n
$GPGGA,082405.75,5703.4279772,N,00952.0897850,E,2,9,1.2,-1.763,M,40.593,M,2.3,0123*58\r\n
$GPGGA,082405.80,5703.4280273,N,00952.0897101,E,2,9,1.2,-1.762,M,40.593,M,2.3,0123*5C\r\n
$GPGGA,082405.85,5703.4280777,N,00952.0896373,E,2,9,1.2,-1.769,M,40.593,M,2.6,0123*50\r\n
$GPGGA,082405.90,5703.4281279,N,00952.0895650,E,2,9,1.2,-1.770,M,40.593,M,2.6,0123*51\r\n
$GPGGA,082405.95,5703.4281762,N,00952.0894917,E,2,9,1.2,-1.773,M,40.593,M,2.6,0123*55\r\n
$GPGGA,082406.00,5703.4282262,N,00952.0894197,E,2,9,1.2,-1.774,M,40.593,M,2.6,0123*5B\r\n
$GPGGA,082406.05,5703.4282757,N,00952.0893477,E,2,9,1.2,-1.768,M,40.593,M,2.8,0123*52\r\n
$GPGGA,082406.10,5703.4283256,N,00952.0892782,E,2,9,1.2,-1.766,M,40.593,M,2.8,0123*55\r\n
$GPGGA,082406.15,5703.4283772,N,00952.0892097,E,2,9,1.2,-1.765,M,40.593,M,2.8,0123*53\r\n
$GPGGA,082406.20,5703.4284285,N,00952.0891433,E,2,9,1.2,-1.763,M,40.593,M,2.8,0123*50\r\n
$GPGGA,082406.25,5703.4284785,N,00952.0890800,E,2,9,1.2,-1.765,M,40.593,M,3.0,0123*52\r\n
$GPGGA,082406.30,5703.4285303,N,00952.0890183,E,2,9,1.2,-1.762,M,40.593,M,3.0,0123*58\r\n
$GPGGA,082406.35,5703.4285808,N,00952.0889597,E,2,9,1.2,-1.762,M,40.593,M,3.0,0123*54\r\n
$GPGGA,082406.40,5703.4286316,N,00952.0889034,E,2,9,1.2,-1.761,M,40.593,M,3.0,0123*5E\r\n
$GPGGA,082406.45,5703.4286831,N,00952.0888478,E,2,9,1.2,-1.758,M,40.593,M,3.2,0123*50\r\n
$GPGGA,082406.50,5703.4287345,N,00952.0887924,E,2,9,1.2,-1.758,M,40.593,M,3.2,0123*56\r\n
$GPGGA,082406.55,5703.4287872,N,00952.0887411,E,2,9,1.2,-1.757,M,40.593,M,3.2,0123*58\r\n
$GPGGA,082406.60,5703.4288402,N,00952.0886922,E,2,9,1.2,-1.758,M,40.593,M,3.2,0123*59\r\n
$GPGGA,082406.65,5703.4288932,N,00952.0886473,E,2,9,1.2,-1.765,M,40.593,M,3.4,0123*53\r\n
$GPGGA,082406.70,5703.4289458,N,00952.0886055,E,2,9,1.2,-1.770,M,40.593,M,3.4,0123*53\r\n
$GPGGA,082406.75,5703.4289984,N,00952.0885647,E,2,9,1.2,-1.772,M,40.593,M,3.4,0123*5E\r\n
$GPGGA,082406.80,5703.4290511,N,00952.0885250,E,2,9,1.2,-1.774,M,40.593,M,3.4,0123*58\r\n
$GPGGA,082406.85,5703.4291037,N,00952.0884879,E,2,9,1.2,-1.781,M,40.593,M,3.6,0123*55\r\n
$GPGGA,082406.90,5703.4291553,N,00952.0884550,E,2,9,1.2,-1.785,M,40.593,M,3.6,0123*54\r\n
$GPGGA,082406.95,5703.4292050,N,00952.0884220,E,2,9,1.2,-1.791,M,40.593,M,3.6,0123*51\r\n
$GPGGA,082407.00,5703.4292565,N,00952.0883900,E,2,9,1.2,-1.792,M,40.593,M,3.6,0123*52\r\n
$GPGGA,082407.05,5703.4293057,N,00952.0883582,E,2,9,1.2,-1.788,M,40.593,M,3.8,0123*51\r\n
$GPGGA,082407.10,5703.4293566,N,00952.0883288,E,2,9,1.2,-1.785,M,40.593,M,3.8,0123*52\r\n
$GPGGA,082407.15,5703.4294081,N,00952.0883017,E,2,9,1.2,-1.783,M,40.593,M,3.8,0123*5E\r\n
$GPGGA,082407.20,5703.4294581,N,00952.0882755,E,2,9,1.2,-1.780,M,40.593,M,3.8,0123*5E\r\n
$GPGGA,082407.25,5703.4295100,N,00952.0882513,E,2,9,1.2,-1.771,M,40.593,M,2.2,0123*52\r\n
$GPGGA,082407.30,5703.4295625,N,00952.0882273,E,2,9,1.2,-1.768,M,40.593,M,2.2,0123*5F\r\n
$GPGGA,082407.35,5703.4296134,N,00952.0882043,E,2,9,1.2,-1.765,M,40.593,M,2.2,0123*52\r\n
$GPGGA,082407.40,5703.4296631,N,00952.0881853,E,2,9,1.2,-1.763,M,40.593,M,2.2,0123*5E\r\n
$GPGGA,082407.45,5703.4297138,N,00952.0881698,E,2,9,1.2,-1.764,M,40.593,M,2.4,0123*5C\r\n
$GPGGA,082407.50,5703.4297643,N,00952.0881564,E,2,9,1.2,-1.764,M,40.593,M,2.4,0123*53\r\n
$GPGGA,082407.55,5703.4298163,N,00952.0881448,E,2,9,1.2,-1.766,M,40.593,M,2.4,0123*51\r\n
$GPGGA,082407.60,5703.4298667,N,00952.0881355,E,2,9,1.2,-1.767,M,40.593,M,2.4,0123*5E\r\n
$GPGGA,082407.65,5703.4299175,N,00952.0881281,E,2,9,1.2,-1.768,M,40.593,M,2.7,0123*5A\r\n
$GPGGA,082407.70,5703.4299683,N,00952.0881230,E,2,9,1.2,-1.769,M,40.593,M,2.7,0123*5B\r\n
$GPGGA,082407.75,5703.4300193,N,00952.0881201,E,2,9,1.2,-1.772,M,40.593,M,2.7,0123*51\r\n
$GPGGA,082407.80,5703.4300695,N,00952.0881190,E,2,9,1.2,-1.776,M,40.593,M,2.7,0123*55\r\n
$GPGGA,082407.85,5703.4301191,N,00952.0881213,E,2,9,1.2,-1.784,M,40.593,M,2.9,0123*59\r\n
$GPGGA,082407.90,5703.4301690,N,00952.0881248,E,2,9,1.2,-1.790,M,40.593,M,2.9,0123*50\r\n
$GPGGA,082407.95,5703.4302177,N,00952.0881311,E,2,9,1.2,-1.794,M,40.593,M,2.9,0123*51\r\n
$GPGGA,082408.00,5703.4302659,N,00952.0881382,E,2,9,1.2,-1.796,M,40.593,M,2.9,0123*51\r\n
$GPGGA,082408.05,5703.4303122,N,00952.0881484,E,2,9,1.2,-1.801,M,40.593,M,3.2,0123*54\r\n
$GPGGA,082408.10,5703.4303598,N,00952.0881600,E,2,9,1.2,-1.805,M,40.593,M,3.2,0123*5F\r\n
$GPGGA,082408.15,5703.4304077,N,00952.0881739,E,2,9,1.2,-1.804,M,40.593,M,3.2,0123*53\r\n
$GPGGA,082408.20,5703.4304532,N,00952.0881890,E,2,9,1.2,-1.805,M,40.593,M,3.2,0123*5C\r\n
$GPGGA,082408.25,5703.4304974,N,00952.0882068,E,2,9,1.2,-1.801,M,40.593,M,2.0,0123*5C\r\n
$GPGGA,082408.30,5703.4305439,N,00952.0882253,E,2,9,1.2,-1.799,M,40.593,M,2.0,0123*59\r\n
$GPGGA,082408.35,5703.4305889,N,00952.0882446,E,2,9,1.2,-1.799,M,40.593,M,2.0,0123*59\r\n
$GPGGA,082408.40,5703.4306318,N,00952.0882660,E,2,9,1.2,-1.798,M,40.593,M,2.0,0123*5C\r\n
$GPGGA,082408.45,5703.4306745,N,00952.0882888,E,2,9,1.2,-1.795,M,40.593,M,2.2,0123*52\r\n
$GPGGA,082408.50,5703.4307177,N,00952.0883142,E,2,9,1.2,-1.795,M,40.593,M,2.2,0123*5E\r\n
$GPGGA,082408.55,5703.4307598,N,00952.0883408,E,2,9,1.2,-1.792,M,40.593,M,2.2,0123*52\r\n
$GPGGA,082408.60,5703.4308020,N,00952.0883690,E,2,9,1.2,-1.788,M,40.593,M,2.2,0123*55\r\n
$GPGGA,082408.65,5703.4308425,N,00952.0883996,E,2,9,1.2,-1.790,M,40.593,M,2.4,0123*57\r\n
$GPGGA,082408.70,5703.4308829,N,00952.0884306,E,2,9,1.2,-1.788,M,40.593,M,2.4,0123*5E\r\n
$GPGGA,082408.75,5703.4309228,N,00952.0884624,E,2,9,1.2,-1.784,M,40.593,M,2.4,0123*58\r\n
$GPGGA,082408.80,5703.4309624,N,00952.0884966,E,2,9,1.2,-1.781,M,40.593,M,2.4,0123*56\r\n
$GPGGA,082408.85,5703.4310027,N,00952.0885307,E,2,9,1.2,-1.773,M,40.593,M,2.7,0123*5C\r\n
$GPGGA,082408.90,5703.4310412,N,00952.0885648,E,2,9,1.2,-1.773,M,40.593,M,2.7,0123*54\r\n
$GPGGA,082408.95,5703.4310777,N,00952.0886006,E,2,9,1.2,-1.769,M,40.593,M,2.7,0123*55\r\n
$GPGGA,082409.00,5703.4311138,N,00952.0886390,E,2,9,1.2,-1.767,M,40.593,M,2.7,0123*56\r\n
$GPGGA,082409.05,5703.4311484,N,00952.0886794,E,2,9,1.2,-1.769,M,40.593,M,2.9,0123*51\r\n
$GPGGA,082409.10,5703.4311856,N,00952.0887202,E,2,9,1.2,-1.766,M,40.593,M,2.9,0123*52\r\n
$GPGGA,082409.15,5703.4312214,N,00952.0887626,E,2,9,1.2,-1.764,M,40.593,M,2.9,0123*58\r\n
$GPGGA,082409.20,5703.4312561,N,00952.0888084,E,2,9,1.2,-1.765,M,40.593,M,2.9,0123*5B\r\n
$GPGGA,082409.25,5703.4312890,N,00952.0888561,E,2,9,1.2,-1.765,M,40.593,M,1.9,0123*50\r\n
$GPGGA,082409.30,5703.4313205,N,00952.0889051,E,2,9,1.2,-1.765,M,40.593,M,1.9,0123*54\r\n
$GPGGA,082409.35,5703.4313512,N,00952.0889564,E,2,9,1.2,-1.766,M,40.593,M,1.9,0123*50\r\n
$GPGGA,082409.40,5703.4313807,N,00952.0890098,E,2,9,1.2,-1.768,M,40.593,M,1.9,0123*5B\r\n
$GPGGA,082409.45,5703.4314089,N,00952.0890648,E,2,9,1.2,-1.772,M,40.593,M,2.1,0123*5C\r\n
$GPGGA,082409.50,5703.4314372,N,00952.0891207,E,2,9,1.2,-1.777,M,40.593,M,2.1,0123*54\r\n
$GPGGA,082409.55,5703.4314649,N,00952.0891785,E,2,9,1.2,-1.778,M,40.593,M,2.1,0123*5C\r\n
$GPGGA,082409.60,5703.4314911,N,00952.0892373,E,2,9,1.2,-1.783,M,40.593,M,2.1,0123*52\r\n
$GPGGA,082409.65,5703.4315158,N,00952.0892986,E,2,9,1.2,-1.789,M,40.593,M,2.3,0123*5B\r\n
$GPGGA,082409.70,5703.4315402,N,00952.0893606,E,2,9,1.2,-1.794,M,40.593,M,2.3,0123*5F\r\n
$GPGGA,082409.75,5703.4315629,N,00952.0894214,E,2,9,1.2,-1.798,M,40.593,M,2.3,0123*5D\r\n
$GPGGA,082409.80,5703.4315860,N,00952.0894834,E,2,9,1.2,-1.797,M,40.593,M,2.3,0123*53\r\n
$GPGGA,082409.85,5703.4316075,N,00952.0895476,E,2,9,1.2,-1.801,M,40.593,M,2.6,0123*57\r\n
$GPGGA,082409.90,5703.4316271,N,00952.0896125,E,2,9,1.2,-1.802,M,40.593,M,2.6,0123*56\r\n
$GPGGA,082409.95,5703.4316454,N,00952.0896781,E,2,9,1.2,-1.800,M,40.593,M,2.6,0123*58\r\n
$GPGGA,082410.00,5703.4316627,N,00952.0897437,E,2,9,1.2,-1.799,M,40.593,M,2.6,0123*5A\r\n
$GPGGA,082410.05,5703.4316792,N,00952.0898092,E,2,9,1.2,-1.790,M,40.593,M,2.8,0123*53\r\n
$GPGGA,082410.10,5703.4316942,N,00952.0898763,E,2,9,1.2,-1.787,M,40.593,M,2.8,0123*5B\r\n
$GPGGA,082410.15,5703.4317074,N,00952.0899474,E,2,9,1.2,-1.786,M,40.593,M,2.8,0123*56\r\n
$GPGGA,082410.20,5703.4317208,N,00952.0900180,E,2,9,1.2,-1.785,M,40.593,M,2.8,0123*55\r\n
$GPGGA,082410.25,5703.4317330,N,00952.0900893,E,2,9,1.2,-1.784,M,40.593,M,3.0,0123*59\r\n
$GPGGA,082410.30,5703.4317441,N,00952.0901619,E,2,9,1.2,-1.784,M,40.593,M,3.0,0123*51\r\n
$GPGGA,082410.35,5703.4317542,N,00952.0902346,E,2,9,1.2,-1.785,M,40.593,M,3.0,0123*5B\r\n
$GPGGA,082410.40,5703.4317643,N,00952.0903078,E,2,9,1.2,-1.784,M,40.593,M,3.0,0123*55\r\n
$GPGGA,082410.45,5703.4317731,N,00952.0903827,E,2,9,1.2,-1.779,M,40.593,M,3.2,0123*56\r\n
$GPGGA,082410.50,5703.4317809,N,00952.0904575,E,2,9,1.2,-1.779,M,40.593,M,3.2,0123*5B\r\n
$GPGGA,082410.55,5703.4317868,N,00952.0905314,E,2,9,1.2,-1.779,M,40.593,M,3.2,0123*59\r\n
$GPGGA,082410.60,5703.4317905,N,00952.0906054,E,2,9,1.2,-1.775,M,40.593,M,3.2,0123*5D\r\n
$GPGGA,082410.65,5703.4317923,N,00952.0906794,E,2,9,1.2,-1.770,M,40.593,M,3.4,0123*54\r\n
$GPGGA,082410.70,5703.4317945,N,00952.0907544,E,2,9,1.2,-1.767,M,40.593,M,3.4,0123*58\r\n
$GPGGA,082410.75,5703.4317956,N,00952.0908299,E,2,9,1.2,-1.763,M,40.593,M,3.4,0123*53\r\n
$GPGGA,082410.80,5703.4317957,N,00952.0909055,E,2,9,1.2,-1.758,M,40.593,M,3.4,0123*53\r\n
$GPGGA,082410.85,5703.4317945,N,00952.0909809,E,2,9,1.2,-1.753,M,40.593,M,3.6,0123*5D\r\n
$GPGGA,082410.90,5703.4317923,N,00952.0910571,E,2,9,1.2,-1.750,M,40.593,M,3.6,0123*50\r\n
$GPGGA,082410.95,5703.4317875,N,00952.0911343,E,2,9,1.2,-1.748,M,40.593,M,3.6,0123*58\r\n
$GPGGA,082411.00,5703.4317830,N,00952.0912117,E,2,9,1.2,-1.746,M,40.593,M,3.6,0123*5A\r\n
$GPGGA,082411.05,5703.4317777,N,00952.0912888,E,2,9,1.2,-1.750,M,40.593,M,3.8,0123*55\r\n
$GPGGA,082411.10,5703.4317708,N,00952.0913652,E,2,9,1.2,-1.749,M,40.593,M,3.8,0123*59\r\n
$GPGGA,082411.15,5703.4317613,N,00952.0914420,E,2,9,1.2,-1.747,M,40.593,M,3.8,0123*59\r\n
$GPGGA,082411.20,5703.4317528,N,00952.0915203,E,2,9,1.2,-1.751,M,40.593,M,3.8,0123*55\r\n
$GPGGA,082411.25,5703.4317438,N,00952.0915980,E,2,9,1.2,-1.746,M,40.593,M,2.2,0123*5D\r\n
$GPGGA,082411.30,5703.4317332,N,00952.0916768,E,2,9,1.2,-1.748,M,40.593,M,2.2,0123*51\r\n
$GPGGA,082411.35,5703.4317208,N,00952.0917573,E,2,9,1.2,-1.751,M,40.593,M,2.2,0123*5D\r\n
$GPGGA,082411.40,5703.4317067,N,00952.0918361,E,2,9,1.2,-1.753,M,40.593,M,2.2,0123*5C\r\n
$GPGGA,082411.45,5703.4316922,N,00952.0919139,E,2,9,1.2,-1.757,M,40.593,M,2.4,0123*5C\r\n
$GPGGA,082411.50,5703.4316764,N,00952.0919911,E,2,9,1.2,-1.760,M,40.593,M,2.4,0123*52\r\n
$GPGGA,082411.55,5703.4316579,N,00952.0920672,E,2,9,1.2,-1.764,M,40.593,M,2.4,0123*5D\r\n
$GPGGA,082411.60,5703.4316392,N,00952.0921428,E,2,9,1.2,-1.763,M,40.593,M,2.4,0123*53\r\n
$GPGGA,082411.65,5703.4316205,N,00952.0922177,E,2,9,1.2,-1.757,M,40.593,M,2.7,0123*51\r\n
$GPGGA,082411.70,5703.4316021,N,00952.0922919,E,2,9,1.2,-1.754,M,40.593,M,2.7,0123*52\r\n
$GPGGA,082411.75,5703.4315796,N,00952.0923659,E,2,9,1.2,-1.749,M,40.593,M,2.7,0123*59\r\n
$GPGGA,082411.80,5703.4315569,N,00952.0924395,E,2,9,1.2,-1.746,M,40.593,M,2.7,0123*5C\r\n
$GPGGA,082411.85,5703.4315311,N,00952.0925137,E,2,9,1.2,-1.753,M,40.593,M,2.9,0123*51\r\n
$GPGGA,082411.90,5703.4315057,N,00952.0925885,E,2,9,1.2,-1.755,M,40.593,M,2.9,0123*52\r\n
$GPGGA,082411.95,5703.4314797,N,00952.0926613,E,2,9,1.2,-1.754,M,40.593,M,2.9,0123*5E\r\n
$GPGGA,082412.00,5703.4314520,N,00952.0927329,E,2,9,1.2,-1.755,M,40.593,M,2.9,0123*53\r\n
$GPGGA,082412.05,5703.4314226,N,00952.0928040,E,2,9,1.2,-1.750,M,40.593,M,3.2,0123*5B\r\n
$GPGGA,082412.10,5703.4313940,N,00952.0928749,E,2,9,1.2,-1.751,M,40.593,M,3.2,0123*5C\r\n
$GPGGA,082412.15,5703.4313633,N,00952.0929449,E,2,9,1.2,-1.750,M,40.593,M,3.2,0123*51\r\n
$GPGGA,082412.20,5703.4313314,N,00952.0930145,E,2,9,1.2,-1.750,M,40.593,M,3.2,0123*56\r\n
$GPGGA,082412.25,5703.4312988,N,00952.0930828,E,2,9,1.2,-1.744,M,40.593,M,2.0,0123*59\r\n
$GPGGA,082412.30,5703.4312642,N,00952.0931514,E,2,9,1.2,-1.746,M,40.593,M,2.0,0123*55\r\n
$GPGGA,082412.35,5703.4312284,N,00952.0932176,E,2,9,1.2,-1.748,M,40.593,M,2.0,0123*53\r\n
$GPGGA,082412.40,5703.4311907,N,00952.0932820,E,2,9,1.2,-1.747,M,40.593,M,2.0,0123*57\r\n
$GPGGA,082412.45,5703.4311524,N,00952.0933459,E,2,9,1.2,-1.746,M,40.593,M,2.2,0123*5F\r\n
$GPGGA,082412.50,5703.4311140,N,00952.0934098,E,2,9,1.2,-1.747,M,40.593,M,2.2,0123*52\r\n
$GPGGA,082412.55,5703.4310733,N,00952.0934726,E,2,9,1.2,-1.751,M,40.593,M,2.2,0123*51\r\n
$GPGGA,082412.60,5703.4310302,N,00952.0935346,E,2,9,1.2,-1.755,M,40.593,M,2.2,0123*56\r\n
$GPGGA,082412.65,5703.4309889,N,00952.0935949,E,2,9,1.2,-1.752,M,40.593,M,2.4,0123*57\r\n
$GPGGA,082412.70,5703.4309466,N,00952.0936542,E,2,9,1.2,-1.749,M,40.593,M,2.4,0123*50\r\n
$GPGGA,082412.75,5703.4309050,N,00952.0937122,E,2,9,1.2,-1.748,M,40.593,M,2.4,0123*56\r\n
$GPGGA,082412.80,5703.4308636,N,00952.0937690,E,2,9,1.2,-1.751,M,40.593,M,2.4,0123*5D\r\n
$GPGGA,082412.85,5703.4308196,N,00952.0938226,E,2,9,1.2,-1.748,M,40.593,M,2.7,0123*58\r\n
$GPGGA,082412.90,5703.4307712,N,00952.0938762,E,2,9,1.2,-1.749,M,40.593,M,2.7,0123*5D\r\n
$GPGGA,082412.95,5703.4307230,N,00952.0939286,E,2,9,1.2,-1.748,M,40.593,M,2.7,0123*52\r\n
$GPGGA,082413.00,5703.4306764,N,00952.0939792,E,2,9,1.2,-1.746,M,40.593,M,2.7,0123*54\r\n
$GPGGA,082413.05,5703.4306292,N,00952.0940265,E,2,9,1.2,-1.741,M,40.593,M,2.9,0123*57\r\n
$GPGGA,082413.10,5703.4305791,N,00952.0940750,E,2,9,1.2,-1.743,M,40.593,M,2.9,0123*57\r\n
$GPGGA,082413.15,5703.4305288,N,00952.0941216,E,2,9,1.2,-1.744,M,40.593,M,2.9,0123*5E\r\n
$GPGGA,082413.20,5703.4304781,N,00952.0941645,E,2,9,1.2,-1.742,M,40.593,M,2.9,0123*51\r\n
$GPGGA,082413.25,5703.4304260,N,00952.0942060,E,2,9,1.2,-1.739,M,40.593,M,1.9,0123*53\r\n
$GPGGA,082413.30,5703.4303732,N,00952.0942459,E,2,9,1.2,-1.739,M,40.593,M,1.9,0123*5C\r\n
$GPGGA,082413.35,5703.4303188,N,00952.0942842,E,2,9,1.2,-1.742,M,40.593,M,1.9,0123*54\r\n
$GPGGA,082413.40,5703.4302639,N,00952.0943202,E,2,9,1.2,-1.745,M,40.593,M,1.9,0123*52\r\n
$GPGGA,082413.45,5703.4302092,N,00952.0943532,E,2,9,1.2,-1.741,M,40.593,M,2.1,0123*5B\r\n
$GPGGA,082413.50,5703.4301538,N,00952.0943858,E,2,9,1.2,-1.742,M,40.593,M,2.1,0123*5B\r\n
$GPGGA,082413.55,5703.4300977,N,00952.0944164,E,2,9,1.2,-1.743,M,40.593,M,2.1,0123*58\r\n
$GPGGA,082413.60,5703.4300410,N,00952.0944461,E,2,9,1.2,-1.746,M,40.593,M,2.1,0123*57\r\n
$GPGGA,082413.65,5703.4299851,N,00952.0944743,E,2,9,1.2,-1.746,M,40.593,M,2.3,0123*5B\r\n
$GPGGA,082413.70,5703.4299268,N,00952.0945018,E,2,9,1.2,-1.748,M,40.593,M,2.3,0123*59\r\n
$GPGGA,082413.75,5703.4298671,N,00952.0945276,E,2,9,1.2,-1.750,M,40.593,M,2.3,0123*52\r\n
$GPGGA,082413.80,5703.4298084,N,00952.0945523,E,2,9,1.2,-1.755,M,40.593,M,2.3,0123*56\r\n
$GPGGA,082413.85,5703.4297492,N,00952.0945728,E,2,9,1.2,-1.752,M,40.593,M,2.6,0123*54\r\n
$GPGGA,082413.90,5703.4296879,N,00952.0945908,E,2,9,1.2,-1.754,M,40.593,M,2.6,0123*52\r\n
$GPGGA,082413.95,5703.4296269,N,00952.0946071,E,2,9,1.2,-1.757,M,40.593,M,2.6,0123*5B\r\n
$GPGGA,082414.00,5703.4295661,N,00952.0946205,E,2,9,1.2,-1.760,M,40.593,M,2.6,0123*5A\r\n
$GPGGA,082414.05,5703.4295035,N,00952.0946312,E,2,9,1.2,-1.754,M,40.593,M,2.8,0123*56\r\n
$GPGGA,082414.10,5703.4294424,N,00952.0946412,E,2,9,1.2,-1.752,M,40.593,M,2.8,0123*56\r\n
$GPGGA,082414.15,5703.4293802,N,00952.0946487,E,2,9,1.2,-1.749,M,40.593,M,2.8,0123*5A\r\n
$GPGGA,082414.20,5703.4293156,N,00952.0946547,E,2,9,1.2,-1.753,M,40.593,M,2.8,0123*52\r\n
$GPGGA,082414.25,5703.4292487,N,00952.0946584,E,2,9,1.2,-1.756,M,40.593,M,3.0,0123*5C\r\n
$GPGGA,082414.30,5703.4291848,N,00952.0946590,E,2,9,1.2,-1.758,M,40.593,M,3.0,0123*5F\r\n
$GPGGA,082414.35,5703.4291211,N,00952.0946560,E,2,9,1.2,-1.758,M,40.593,M,3.0,0123*53\r\n
$GPGGA,082414.40,5703.4290565,N,00952.0946529,E,2,9,1.2,-1.760,M,40.593,M,3.0,0123*52\r\n
$GPGGA,082414.45,5703.4289916,N,00952.0946478,E,2,9,1.2,-1.753,M,40.593,M,3.2,0123*50\r\n
$GPGGA,082414.50,5703.4289263,N,00952.0946433,E,2,9,1.2,-1.752,M,40.593,M,3.2,0123*53\r\n
$GPGGA,082414.55,5703.4288601,N,00952.0946355,E,2,9,1.2,-1.753,M,40.593,M,3.2,0123*51\r\n
$GPGGA,082414.60,5703.4287928,N,00952.0946258,E,2,9,1.2,-1.753,M,40.593,M,3.2,0123*50\r\n
$GPGGA,082414.65,5703.4287261,N,00952.0946145,E,2,9,1.2,-1.751,M,40.593,M,3.4,0123*58\r\n
$GPGGA,082414.70,5703.4286605,N,00952.0946011,E,2,9,1.2,-1.746,M,40.593,M,3.4,0123*5D\r\n
$GPGGA,082414.75,5703.4285940,N,00952.0945853,E,2,9,1.2,-1.740,M,40.593,M,3.4,0123*5E\r\n
$GPGGA,082414.80,5703.4285255,N,00952.0945673,E,2,9,1.2,-1.741,M,40.593,M,3.4,0123*56\r\n
$GPGGA,082414.85,5703.4284586,N,00952.0945486,E,2,9,1.2,-1.739,M,40.593,M,3.6,0123*5E\r\n
$GPGGA,082414.90,5703.4283912,N,00952.0945293,E,2,9,1.2,-1.740,M,40.593,M,3.6,0123*50\r\n
$GPGGA,082414.95,5703.4283241,N,00952.0945080,E,2,9,1.2,-1.740,M,40.593,M,3.6,0123*58\r\n
$GPGGA,082415.00,5703.4282571,N,00952.0944845,E,2,9,1.2,-1.740,M,40.593,M,3.6,0123*50\r\n
$GPGGA,082415.05,5703.4281891,N,00952.0944546,E,2,9,1.2,-1.736,M,40.593,M,3.8,0123*54\r\n
$GPGGA,082415.10,5703.4281211,N,00952.0944235,E,2,9,1.2,-1.737,M,40.593,M,3.8,0123*50\r\n
$GPGGA,082415.15,5703.4280525,N,00952.0943900,E,2,9,1.2,-1.740,M,40.593,M,3.8,0123*5E\r\n
$GPGGA,082415.20,5703.4279842,N,00952.0943542,E,2,9,1.2,-1.743,M,40.593,M,3.8,0123*5B\r\n
$GPGGA,082415.25,5703.4279143,N,00952.0943187,E,2,9,1.2,-1.751,M,40.593,M,2.2,0123*53\r\n
$GPGGA,082415.30,5703.4278465,N,00952.0942797,E,2,9,1.2,-1.756,M,40.593,M,2.2,0123*56\r\n
$GPGGA,082415.35,5703.4277782,N,00952.0942381,E,2,9,1.2,-1.757,M,40.593,M,2.2,0123*54\r\n
$GPGGA,082415.40,5703.4277095,N,00952.0941956,E,2,9,1.2,-1.756,M,40.593,M,2.2,0123*55\r\n
$GPGGA,082415.45,5703.4276419,N,00952.0941516,E,2,9,1.2,-1.751,M,40.593,M,2.4,0123*58\r\n
$GPGGA,082415.50,5703.4275748,N,00952.0941045,E,2,9,1.2,-1.750,M,40.593,M,2.4,0123*5A\r\n
$GPGGA,082415.55,5703.4275083,N,00952.0940529,E,2,9,1.2,-1.747,M,40.593,M,2.4,0123*57\r\n
$GPGGA,082415.60,5703.4274422,N,00952.0940013,E,2,9,1.2,-1.744,M,40.593,M,2.4,0123*50\r\n
$GPGGA,082415.65,5703.4273736,N,00952.0939519,E,2,9,1.2,-1.749,M,40.593,M,2.7,0123*5B\r\n
$GPGGA,082415.70,5703.4273062,N,00952.0939006,E,2,9,1.2,-1.750,M,40.593,M,2.7,0123*5A\r\n
$GPGGA,082415.75,5703.4272387,N,00952.0938478,E,2,9,1.2,-1.752,M,40.593,M,2.7,0123*58\r\n
$GPGGA,082415.80,5703.4271742,N,00952.0937951,E,2,9,1.2,-1.752,M,40.593,M,2.7,0123*55\r\n
$GPGGA,082415.85,5703.4271101,N,00952.0937426,E,2,9,1.2,-1.760,M,40.593,M,2.9,0123*53\r\n
$GPGGA,082415.90,5703.4270464,N,00952.0936883,E,2,9,1.2,-1.764,M,40.593,M,2.9,0123*56\r\n
$GPGGA,082415.95,5703.4269838,N,00952.0936333,E,2,9,1.2,-1.771,M,40.593,M,2.9,0123*5A\r\n
$GPGGA,082416.00,5703.4269200,N,00952.0935805,E,2,9,1.2,-1.785,M,40.593,M,2.9,0123*52\r\n
