$GPGGA,110534.90,5703.3455610,N,00952.2091084,E,2,10,0.8,-1.060,M,40.593,M,3.1,0123*69\r\n
$GPGGA,110534.95,5703.3455778,N,00952.2091001,E,2,10,0.8,-1.061,M,40.593,M,3.1,0123*6F\r\n
$GPGGA,110535.00,5703.3455935,N,00952.2090923,E,2,10,0.8,-1.062,M,40.593,M,3.1,0123*6E\r\n
$GPGGA,110535.05,5703.3456093,N,00952.2090879,E,2,10,0.8,-1.060,M,40.593,M,3.3,0123*63\r\n
$GPGGA,110535.10,5703.3456247,N,00952.2090822,E,2,10,0.8,-1.060,M,40.593,M,3.3,0123*62\r\n
$GPGGA,110535.15,5703.3456412,N,00952.2090752,E,2,10,0.8,-1.058,M,40.593,M,3.3,0123*62\r\n
$GPGGA,110535.20,5703.3456578,N,00952.2090679,E,2,10,0.8,-1.057,M,40.593,M,3.3,0123*6E\r\n
$GPGGA,110535.25,5703.3456734,N,00952.2090608,E,2,10,0.8,-1.055,M,40.593,M,2.6,0123*61\r\n
$GPGGA,110535.30,5703.3456895,N,00952.2090552,E,2,10,0.8,-1.055,M,40.593,M,2.6,0123*6D\r\n
$GPGGA,110535.35,5703.3457062,N,00952.2090492,E,2,10,0.8,-1.054,M,40.593,M,2.6,0123*65\r\n
$GPGGA,110535.40,5703.3457221,N,00952.2090424,E,2,10,0.8,-1.053,M,40.593,M,2.6,0123*68\r\n
$GPGGA,110535.45,5703.3457382,N,00952.2090376,E,2,10,0.8,-1.053,M,40.593,M,2.8,0123*6B\r\n
$GPGGA,110535.50,5703.3457538,N,00952.2090319,E,2,10,0.8,-1.052,M,40.593,M,2.8,0123*60\r\n
$GPGGA,110535.55,5703.3457703,N,00952.2090266,E,2,10,0.8,-1.053,M,40.593,M,2.8,0123*67\r\n
$GPGGA,110535.60,5703.3457867,N,00952.2090209,E,2,10,0.8,-1.051,M,40.593,M,2.8,0123*67\r\n
$GPGGA,110535.65,5703.3458043,N,00952.2090155,E,2,10,0.8,-1.042,M,40.593,M,3.1,0123*63\r\n
$GPGGA,110535.70,5703.3458211,N,00952.2090100,E,2,10,0.8,-1.038,M,40.593,M,3.1,0123*6F\r\n
$GPGGA,110535.75,5703.3458381,N,00952.2090052,E,2,10,0.8,-1.034,M,40.593,M,3.1,0123*68\r\n
$GPGGA,110535.80,5703.3458543,N,00952.2090015,E,2,10,0.8,-1.031,M,40.593,M,3.1,0123*6C\r\n
$GPGGA,110535.85,5703.3458708,N,00952.2089972,E,2,10,0.8,-1.032,M,40.593,M,3.3,0123*65\r\n
$GPGGA,110535.90,5703.3458872,N,00952.2089924,E,2,10,0.8,-1.030,M,40.593,M,3.3,0123*62\r\n
$GPGGA,110535.95,5703.3459045,N,00952.2089882,E,2,10,0.8,-1.026,M,40.593,M,3.3,0123*60\r\n
$GPGGA,110536.00,5703.3459210,N,00952.2089841,E,2,10,0.8,-1.023,M,40.593,M,3.3,0123*67\r\n
$GPGGA,110536.05,5703.3459383,N,00952.2089814,E,2,10,0.8,-1.021,M,40.593,M,3.5,0123*6D\r\n
$GPGGA,110536.10,5703.3459555,N,00952.2089770,E,2,10,0.8,-1.020,M,40.593,M,3.5,0123*68\r\n
$GPGGA,110536.15,5703.3459716,N,00952.2089736,E,2,10,0.8,-1.019,M,40.593,M,3.5,0123*60\r\n
$GPGGA,110536.20,5703.3459878,N,00952.2089695,E,2,10,0.8,-1.018,M,40.593,M,3.5,0123*68\r\n
$GPGGA,110536.25,5703.3460046,N,00952.2089641,E,2,10,0.8,-1.019,M,40.593,M,1.6,0123*6B\r\n
$GPGGA,110536.30,5703.3460222,N,00952.2089599,E,2,10,0.8,-1.020,M,40.593,M,1.6,0123*63\r\n
$GPGGA,110536.35,5703.3460387,N,00952.2089559,E,2,10,0.8,-1.021,M,40.593,M,1.6,0123*65\r\n
$GPGGA,110536.40,5703.3460554,N,00952.2089525,E,2,10,0.8,-1.022,M,40.593,M,1.6,0123*67\r\n
$GPGGA,110536.45,5703.3460712,N,00952.2089486,E,2,10,0.8,-1.025,M,40.593,M,1.8,0123*63\r\n
$GPGGA,110536.50,5703.3460883,N,00952.2089428,E,2,10,0.8,-1.026,M,40.593,M,1.8,0123*67\r\n
$GPGGA,110536.55,5703.3461055,N,00952.2089376,E,2,10,0.8,-1.029,M,40.593,M,1.8,0123*63\r\n
$GPGGA,110536.60,5703.3461223,N,00952.2089328,E,2,10,0.8,-1.031,M,40.593,M,1.8,0123*64\r\n
$GPGGA,110536.65,5703.3461386,N,00952.2089291,E,2,10,0.8,-1.032,M,40.593,M,2.0,0123*64\r\n
$GPGGA,110536.70,5703.3461550,N,00952.2089248,E,2,10,0.8,-1.034,M,40.593,M,2.0,0123*6F\r\n
$GPGGA,110536.75,5703.3461716,N,00952.2089206,E,2,10,0.8,-1.035,M,40.593,M,2.0,0123*61\r\n
$GPGGA,110536.80,5703.3461889,N,00952.2089163,E,2,10,0.8,-1.034,M,40.593,M,2.0,0123*63\r\n
$GPGGA,110536.85,5703.3462056,N,00952.2089110,E,2,10,0.8,-1.038,M,40.593,M,2.2,0123*65\r\n
$GPGGA,110536.90,5703.3462218,N,00952.2089055,E,2,10,0.8,-1.040,M,40.593,M,2.2,0123*66\r\n
$GPGGA,110536.95,5703.3462388,N,00952.2089000,E,2,10,0.8,-1.043,M,40.593,M,2.2,0123*68\r\n
$GPGGA,110537.00,5703.3462556,N,00952.2088959,E,2,10,0.8,-1.046,M,40.593,M,2.2,0123*61\r\n
$GPGGA,110537.05,5703.3462725,N,00952.2088932,E,2,10,0.8,-1.050,M,40.593,M,2.4,0123*6E\r\n
$GPGGA,110537.10,5703.3462881,N,00952.2088885,E,2,10,0.8,-1.053,M,40.593,M,2.4,0123*65\r\n
$GPGGA,110537.15,5703.3463048,N,00952.2088833,E,2,10,0.8,-1.054,M,40.593,M,2.4,0123*66\r\n
$GPGGA,110537.20,5703.3463214,N,00952.2088762,E,2,10,0.8,-1.056,M,40.593,M,2.4,0123*62\r\n
$GPGGA,110537.25,5703.3463380,N,00952.2088694,E,2,10,0.8,-1.059,M,40.593,M,2.7,0123*6F\r\n
$GPGGA,110537.30,5703.3463553,N,00952.2088639,E,2,10,0.8,-1.061,M,40.593,M,2.7,0123*6F\r\n
$GPGGA,110537.35,5703.3463727,N,00952.2088577,E,2,10,0.8,-1.064,M,40.593,M,2.7,0123*67\r\n
$GPGGA,110537.40,5703.3463899,N,00952.2088518,E,2,10,0.8,-1.066,M,40.593,M,2.7,0123*64\r\n
$GPGGA,110537.45,5703.3464083,N,00952.2088465,E,2,10,0.8,-1.070,M,40.593,M,2.9,0123*67\r\n
$GPGGA,110537.50,5703.3464253,N,00952.2088404,E,2,10,0.8,-1.072,M,40.593,M,2.9,0123*69\r\n
$GPGGA,110537.55,5703.3464422,N,00952.2088342,E,2,10,0.8,-1.073,M,40.593,M,2.9,0123*68\r\n
$GPGGA,110537.60,5703.3464589,N,00952.2088278,E,2,10,0.8,-1.074,M,40.593,M,2.9,0123*61\r\n
$GPGGA,110537.65,5703.3464773,N,00952.2088222,E,2,10,0.8,-1.067,M,40.593,M,3.1,0123*67\r\n
$GPGGA,110537.70,5703.3464945,N,00952.2088175,E,2,10,0.8,-1.067,M,40.593,M,3.1,0123*69\r\n
$GPGGA,110537.75,5703.3465127,N,00952.2088115,E,2,10,0.8,-1.066,M,40.593,M,3.1,0123*66\r\n
$GPGGA,110537.80,5703.3465308,N,00952.2088049,E,2,10,0.8,-1.065,M,40.593,M,3.1,0123*68\r\n
$GPGGA,110537.85,5703.3465487,N,00952.2088006,E,2,10,0.8,-1.061,M,40.593,M,3.3,0123*60\r\n
$GPGGA,110537.90,5703.3465667,N,00952.2087947,E,2,10,0.8,-1.056,M,40.593,M,3.3,0123*6F\r\n
$GPGGA,110537.95,5703.3465842,N,00952.2087893,E,2,10,0.8,-1.053,M,40.593,M,3.3,0123*6E\r\n
$GPGGA,110538.00,5703.3466025,N,00952.2087827,E,2,10,0.8,-1.050,M,40.593,M,3.3,0123*6B\r\n
$GPGGA,110538.05,5703.3466188,N,00952.2087790,E,2,10,0.8,-1.052,M,40.593,M,3.5,0123*6F\r\n
$GPGGA,110538.10,5703.3466362,N,00952.2087744,E,2,10,0.8,-1.049,M,40.593,M,3.5,0123*6E\r\n
$GPGGA,110538.15,5703.3466550,N,00952.2087698,E,2,10,0.8,-1.045,M,40.593,M,3.5,0123*60\r\n
$GPGGA,110538.20,5703.3466726,N,00952.2087648,E,2,10,0.8,-1.041,M,40.593,M,3.5,0123*6C\r\n
$GPGGA,110538.25,5703.3466903,N,00952.2087596,E,2,10,0.8,-1.037,M,40.593,M,2.3,0123*66\r\n
$GPGGA,110538.30,5703.3467081,N,00952.2087549,E,2,10,0.8,-1.037,M,40.593,M,2.3,0123*62\r\n
$GPGGA,110538.35,5703.3467266,N,00952.2087506,E,2,10,0.8,-1.033,M,40.593,M,2.3,0123*63\r\n
$GPGGA,110538.40,5703.3467452,N,00952.2087462,E,2,10,0.8,-1.030,M,40.593,M,2.3,0123*60\r\n
$GPGGA,110538.45,5703.3467627,N,00952.2087415,E,2,10,0.8,-1.029,M,40.593,M,2.6,0123*68\r\n
$GPGGA,110538.50,5703.3467803,N,00952.2087377,E,2,10,0.8,-1.028,M,40.593,M,2.6,0123*66\r\n
$GPGGA,110538.55,5703.3467977,N,00952.2087340,E,2,10,0.8,-1.027,M,40.593,M,2.6,0123*6A\r\n
$GPGGA,110538.60,5703.3468153,N,00952.2087313,E,2,10,0.8,-1.027,M,40.593,M,2.6,0123*6B\r\n
$GPGGA,110538.65,5703.3468338,N,00952.2087272,E,2,10,0.8,-1.028,M,40.593,M,2.8,0123*66\r\n
$GPGGA,110538.70,5703.3468521,N,00952.2087238,E,2,10,0.8,-1.029,M,40.593,M,2.8,0123*63\r\n
$GPGGA,110538.75,5703.3468704,N,00952.2087204,E,2,10,0.8,-1.030,M,40.593,M,2.8,0123*64\r\n
$GPGGA,110538.80,5703.3468879,N,00952.2087179,E,2,10,0.8,-1.031,M,40.593,M,2.8,0123*63\r\n
$GPGGA,110538.85,5703.3469050,N,00952.2087164,E,2,10,0.8,-1.034,M,40.593,M,3.1,0123*65\r\n
$GPGGA,110538.90,5703.3469226,N,00952.2087147,E,2,10,0.8,-1.035,M,40.593,M,3.1,0123*62\r\n
$GPGGA,110538.95,5703.3469400,N,00952.2087119,E,2,10,0.8,-1.038,M,40.593,M,3.1,0123*63\r\n
$GPGGA,110539.00,5703.3469575,N,00952.2087090,E,2,10,0.8,-1.043,M,40.593,M,3.1,0123*61\r\n
$GPGGA,110539.05,5703.3469757,N,00952.2087074,E,2,10,0.8,-1.045,M,40.593,M,3.3,0123*68\r\n
$GPGGA,110539.10,5703.3469938,N,00952.2087039,E,2,10,0.8,-1.046,M,40.593,M,3.3,0123*61\r\n
$GPGGA,110539.15,5703.3470109,N,00952.2087005,E,2,10,0.8,-1.049,M,40.593,M,3.3,0123*66\r\n
$GPGGA,110539.20,5703.3470296,N,00952.2086962,E,2,10,0.8,-1.053,M,40.593,M,3.3,0123*67\r\n
$GPGGA,110539.25,5703.3470480,N,00952.2086929,E,2,10,0.8,-1.056,M,40.593,M,2.6,0123*6D\r\n
$GPGGA,110539.30,5703.3470655,N,00952.2086898,E,2,10,0.8,-1.058,M,40.593,M,2.6,0123*66\r\n
$GPGGA,110539.35,5703.3470829,N,00952.2086861,E,2,10,0.8,-1.062,M,40.593,M,2.6,0123*69\r\n
$GPGGA,110539.40,5703.3471013,N,00952.2086807,E,2,10,0.8,-1.066,M,40.593,M,2.6,0123*6F\r\n
$GPGGA,110539.45,5703.3471203,N,00952.2086749,E,2,10,0.8,-1.063,M,40.593,M,2.8,0123*67\r\n
$GPGGA,110539.50,5703.3471387,N,00952.2086699,E,2,10,0.8,-1.066,M,40.593,M,2.8,0123*67\r\n
$GPGGA,110539.55,5703.3471563,N,00952.2086660,E,2,10,0.8,-1.070,M,40.593,M,2.8,0123*6F\r\n
$GPGGA,110539.60,5703.3471742,N,00952.2086619,E,2,10,0.8,-1.070,M,40.593,M,2.8,0123*66\r\n
$GPGGA,110539.65,5703.3471924,N,00952.2086571,E,2,10,0.8,-1.068,M,40.593,M,3.1,0123*61\r\n
$GPGGA,110539.70,5703.3472110,N,00952.2086523,E,2,10,0.8,-1.067,M,40.593,M,3.1,0123*61\r\n
$GPGGA,110539.75,5703.3472289,N,00952.2086480,E,2,10,0.8,-1.068,M,40.593,M,3.1,0123*60\r\n
$GPGGA,110539.80,5703.3472472,N,00952.2086443,E,2,10,0.8,-1.069,M,40.593,M,3.1,0123*66\r\n
$GPGGA,110539.85,5703.3472642,N,00952.2086419,E,2,10,0.8,-1.072,M,40.593,M,3.3,0123*65\r\n
$GPGGA,110539.90,5703.3472812,N,00952.2086376,E,2,10,0.8,-1.075,M,40.593,M,3.3,0123*63\r\n
$GPGGA,110539.95,5703.3472999,N,00952.2086330,E,2,10,0.8,-1.076,M,40.593,M,3.3,0123*65\r\n
$GPGGA,110540.00,5703.3473181,N,00952.2086289,E,2,10,0.8,-1.076,M,40.593,M,3.3,0123*64\r\n
$GPGGA,110540.05,5703.3473371,N,00952.2086241,E,2,10,0.8,-1.072,M,40.593,M,3.5,0123*6A\r\n
$GPGGA,110540.10,5703.3473561,N,00952.2086193,E,2,10,0.8,-1.072,M,40.593,M,3.5,0123*65\r\n
$GPGGA,110540.15,5703.3473750,N,00952.2086140,E,2,10,0.8,-1.071,M,40.593,M,3.5,0123*6D\r\n
$GPGGA,110540.20,5703.3473930,N,00952.2086084,E,2,10,0.8,-1.073,M,40.593,M,3.5,0123*68\r\n
$GPGGA,110540.25,5703.3474116,N,00952.2086044,E,2,10,0.8,-1.071,M,40.593,M,1.6,0123*69\r\n
$GPGGA,110540.30,5703.3474296,N,00952.2086007,E,2,10,0.8,-1.071,M,40.593,M,1.6,0123*61\r\n
$GPGGA,110540.35,5703.3474489,N,00952.2085959,E,2,10,0.8,-1.069,M,40.593,M,1.6,0123*64\r\n
$GPGGA,110540.40,5703.3474682,N,00952.2085912,E,2,10,0.8,-1.067,M,40.593,M,1.6,0123*6E\r\n
$GPGGA,110540.45,5703.3474873,N,00952.2085873,E,2,10,0.8,-1.065,M,40.593,M,1.8,0123*61\r\n
$GPGGA,110540.50,5703.3475058,N,00952.2085836,E,2,10,0.8,-1.062,M,40.593,M,1.8,0123*63\r\n
$GPGGA,110540.55,5703.3475252,N,00952.2085788,E,2,10,0.8,-1.060,M,40.593,M,1.8,0123*66\r\n
$GPGGA,110540.60,5703.3475444,N,00952.2085756,E,2,10,0.8,-1.061,M,40.593,M,1.8,0123*63\r\n
$GPGGA,110540.65,5703.3475639,N,00952.2085724,E,2,10,0.8,-1.058,M,40.593,M,2.0,0123*6A\r\n
$GPGGA,110540.70,5703.3475834,N,00952.2085683,E,2,10,0.8,-1.054,M,40.593,M,2.0,0123*6D\r\n
$GPGGA,110540.75,5703.3476021,N,00952.2085652,E,2,10,0.8,-1.053,M,40.593,M,2.0,0123*6C\r\n
$GPGGA,110540.80,5703.3476214,N,00952.2085621,E,2,10,0.8,-1.051,M,40.593,M,2.0,0123*64\r\n
$GPGGA,110540.85,5703.3476404,N,00952.2085597,E,2,10,0.8,-1.051,M,40.593,M,2.2,0123*6A\r\n
$GPGGA,110540.90,5703.3476600,N,00952.2085565,E,2,10,0.8,-1.051,M,40.593,M,2.2,0123*65\r\n
$GPGGA,110540.95,5703.3476792,N,00952.2085542,E,2,10,0.8,-1.050,M,40.593,M,2.2,0123*6E\r\n
$GPGGA,110541.00,5703.3476987,N,00952.2085511,E,2,10,0.8,-1.048,M,40.593,M,2.2,0123*66\r\n
$GPGGA,110541.05,5703.3477196,N,00952.2085471,E,2,10,0.8,-1.043,M,40.593,M,2.4,0123*60\r\n
$GPGGA,110541.10,5703.3477389,N,00952.2085454,E,2,10,0.8,-1.043,M,40.593,M,2.4,0123*6F\r\n
$GPGGA,110541.15,5703.3477581,N,00952.2085431,E,2,10,0.8,-1.042,M,40.593,M,2.4,0123*66\r\n
$GPGGA,110541.20,5703.3477783,N,00952.2085385,E,2,10,0.8,-1.041,M,40.593,M,2.4,0123*6B\r\n
$GPGGA,110541.25,5703.3477976,N,00952.2085362,E,2,10,0.8,-1.043,M,40.593,M,2.7,0123*62\r\n
$GPGGA,110541.30,5703.3478172,N,00952.2085355,E,2,10,0.8,-1.042,M,40.593,M,2.7,0123*60\r\n
$GPGGA,110541.35,5703.3478376,N,00952.2085347,E,2,10,0.8,-1.041,M,40.593,M,2.7,0123*63\r\n
$GPGGA,110541.40,5703.3478570,N,00952.2085329,E,2,10,0.8,-1.042,M,40.593,M,2.7,0123*6A\r\n
$GPGGA,110541.45,5703.3478750,N,00952.2085301,E,2,10,0.8,-1.045,M,40.593,M,2.9,0123*6C\r\n
$GPGGA,110541.50,5703.3478951,N,00952.2085286,E,2,10,0.8,-1.045,M,40.593,M,2.9,0123*69\r\n
$GPGGA,110541.55,5703.3479144,N,00952.2085269,E,2,10,0.8,-1.046,M,40.593,M,2.9,0123*63\r\n
$GPGGA,110541.60,5703.3479339,N,00952.2085245,E,2,10,0.8,-1.045,M,40.593,M,2.9,0123*60\r\n
$GPGGA,110541.65,5703.3479524,N,00952.2085223,E,2,10,0.8,-1.043,M,40.593,M,3.1,0123*60\r\n
$GPGGA,110541.70,5703.3479715,N,00952.2085194,E,2,10,0.8,-1.043,M,40.593,M,3.1,0123*6B\r\n
$GPGGA,110541.75,5703.3479902,N,00952.2085171,E,2,10,0.8,-1.043,M,40.593,M,3.1,0123*6D\r\n
$GPGGA,110541.80,5703.3480096,N,00952.2085156,E,2,10,0.8,-1.043,M,40.593,M,3.1,0123*60\r\n
$GPGGA,110541.85,5703.3480292,N,00952.2085118,E,2,10,0.8,-1.038,M,40.593,M,3.3,0123*67\r\n
$GPGGA,110541.90,5703.3480478,N,00952.2085088,E,2,10,0.8,-1.040,M,40.593,M,3.3,0123*66\r\n
$GPGGA,110541.95,5703.3480670,N,00952.2085062,E,2,10,0.8,-1.040,M,40.593,M,3.3,0123*6D\r\n
$GPGGA,110542.00,5703.3480856,N,00952.2085045,E,2,10,0.8,-1.041,M,40.593,M,3.3,0123*6C\r\n
$GPGGA,110542.05,5703.3481044,N,00952.2085016,E,2,10,0.8,-1.049,M,40.593,M,3.5,0123*6B\r\n
$GPGGA,110542.10,5703.3481234,N,00952.2084972,E,2,10,0.8,-1.051,M,40.593,M,3.5,0123*69\r\n
$GPGGA,110542.15,5703.3481422,N,00952.2084932,E,2,10,0.8,-1.054,M,40.593,M,3.5,0123*6C\r\n
$GPGGA,110542.20,5703.3481611,N,00952.2084894,E,2,10,0.8,-1.057,M,40.593,M,3.5,0123*66\r\n
$GPGGA,110542.25,5703.3481807,N,00952.2084849,E,2,10,0.8,-1.051,M,40.593,M,3.7,0123*6E\r\n
$GPGGA,110542.30,5703.3482003,N,00952.2084808,E,2,10,0.8,-1.051,M,40.593,M,3.7,0123*60\r\n
$GPGGA,110542.35,5703.3482192,N,00952.2084771,E,2,10,0.8,-1.052,M,40.593,M,3.7,0123*6E\r\n
$GPGGA,110542.40,5703.3482389,N,00952.2084730,E,2,10,0.8,-1.053,M,40.593,M,3.7,0123*60\r\n
$GPGGA,110542.45,5703.3482582,N,00952.2084675,E,2,10,0.8,-1.058,M,40.593,M,2.6,0123*63\r\n
$GPGGA,110542.50,5703.3482777,N,00952.2084615,E,2,10,0.8,-1.060,M,40.593,M,2.6,0123*62\r\n
$GPGGA,110542.55,5703.3482971,N,00952.2084577,E,2,10,0.8,-1.061,M,40.593,M,2.6,0123*69\r\n
$GPGGA,110542.60,5703.3483178,N,00952.2084532,E,2,10,0.8,-1.060,M,40.593,M,2.6,0123*6F\r\n
$GPGGA,110542.65,5703.3483399,N,00952.2084482,E,2,10,0.8,-1.056,M,40.593,M,2.8,0123*66\r\n
$GPGGA,110542.70,5703.3483613,N,00952.2084423,E,2,10,0.8,-1.054,M,40.593,M,2.8,0123*6C\r\n
$GPGGA,110542.75,5703.3483829,N,00952.2084363,E,2,10,0.8,-1.052,M,40.593,M,2.8,0123*6B\r\n
$GPGGA,110542.80,5703.3484051,N,00952.2084302,E,2,10,0.8,-1.048,M,40.593,M,2.8,0123*6D\r\n
$GPGGA,110542.85,5703.3484282,N,00952.2084258,E,2,10,0.8,-1.045,M,40.593,M,3.1,0123*6F\r\n
$GPGGA,110542.90,5703.3484524,N,00952.2084225,E,2,10,0.8,-1.040,M,40.593,M,3.1,0123*6F\r\n
$GPGGA,110542.95,5703.3484762,N,00952.2084189,E,2,10,0.8,-1.036,M,40.593,M,3.1,0123*6E\r\n
$GPGGA,110543.00,5703.3485024,N,00952.2084135,E,2,10,0.8,-1.031,M,40.593,M,3.1,0123*67\r\n
$GPGGA,110543.05,5703.3485311,N,00952.2084078,E,2,10,0.8,-1.023,M,40.593,M,3.3,0123*6E\r\n
$GPGGA,110543.10,5703.3485582,N,00952.2084042,E,2,10,0.8,-1.018,M,40.593,M,3.3,0123*67\r\n
$GPGGA,110543.15,5703.3485862,N,00952.2084012,E,2,10,0.8,-1.011,M,40.593,M,3.3,0123*6D\r\n
$GPGGA,110543.20,5703.3486151,N,00952.2083973,E,2,10,0.8,-1.004,M,40.593,M,3.3,0123*6C\r\n
$GPGGA,110543.25,5703.3486455,N,00952.2083942,E,2,10,0.8,-0.999,M,40.593,M,3.5,0123*60\r\n
$GPGGA,110543.30,5703.3486778,N,00952.2083906,E,2,10,0.8,-0.990,M,40.593,M,3.5,0123*61\r\n
$GPGGA,110543.35,5703.3487106,N,00952.2083869,E,2,10,0.8,-0.984,M,40.593,M,3.5,0123*67\r\n
$GPGGA,110543.40,5703.3487446,N,00952.2083832,E,2,10,0.8,-0.977,M,40.593,M,3.5,0123*66\r\n
$GPGGA,110543.45,5703.3487795,N,00952.2083792,E,2,10,0.8,-0.971,M,40.593,M,2.8,0123*61\r\n
$GPGGA,110543.50,5703.3488161,N,00952.2083752,E,2,10,0.8,-0.966,M,40.593,M,2.8,0123*6D\r\n
$GPGGA,110543.55,5703.3488543,N,00952.2083724,E,2,10,0.8,-0.961,M,40.593,M,2.8,0123*6A\r\n
$GPGGA,110543.60,5703.3488927,N,00952.2083702,E,2,10,0.8,-0.956,M,40.593,M,2.8,0123*62\r\n
$GPGGA,110543.65,5703.3489314,N,00952.2083673,E,2,10,0.8,-0.949,M,40.593,M,3.1,0123*6D\r\n
$GPGGA,110543.70,5703.3489724,N,00952.2083655,E,2,10,0.8,-0.944,M,40.593,M,3.1,0123*67\r\n
$GPGGA,110543.75,5703.3490142,N,00952.2083641,E,2,10,0.8,-0.938,M,40.593,M,3.1,0123*62\r\n
$GPGGA,110543.80,5703.3490570,N,00952.2083605,E,2,10,0.8,-0.934,M,40.593,M,3.1,0123*61\r\n
$GPGGA,110543.85,5703.3490992,N,00952.2083581,E,2,10,0.8,-0.938,M,40.593,M,3.3,0123*65\r\n
$GPGGA,110543.90,5703.3491425,N,00952.2083561,E,2,10,0.8,-0.937,M,40.593,M,3.3,0123*60\r\n
$GPGGA,110543.95,5703.3491863,N,00952.2083555,E,2,10,0.8,-0.934,M,40.593,M,3.3,0123*6F\r\n
$GPGGA,110544.00,5703.3492323,N,00952.2083523,E,2,10,0.8,-0.930,M,40.593,M,3.3,0123*6D\r\n
$GPGGA,110544.05,5703.3492799,N,00952.2083482,E,2,10,0.8,-0.929,M,40.593,M,3.5,0123*69\r\n
$GPGGA,110544.10,5703.3493274,N,00952.2083438,E,2,10,0.8,-0.929,M,40.593,M,3.5,0123*6B\r\n
$GPGGA,110544.15,5703.3493750,N,00952.2083401,E,2,10,0.8,-0.930,M,40.593,M,3.5,0123*6F\r\n
$GPGGA,110544.20,5703.3494229,N,00952.2083372,E,2,10,0.8,-0.929,M,40.593,M,3.5,0123*6E\r\n
$GPGGA,110544.25,5703.3494718,N,00952.2083317,E,2,10,0.8,-0.932,M,40.593,M,3.8,0123*68\r\n
$GPGGA,110544.30,5703.3495216,N,00952.2083244,E,2,10,0.8,-0.931,M,40.593,M,3.8,0123*62\r\n
$GPGGA,110544.35,5703.3495719,N,00952.2083184,E,2,10,0.8,-0.929,M,40.593,M,3.8,0123*6B\r\n
$GPGGA,110544.40,5703.3496218,N,00952.2083124,E,2,10,0.8,-0.930,M,40.593,M,3.8,0123*6C\r\n
$GPGGA,110544.45,5703.3496722,N,00952.2083051,E,2,10,0.8,-0.929,M,40.593,M,1.8,0123*6C\r\n
$GPGGA,110544.50,5703.3497228,N,00952.2082977,E,2,10,0.8,-0.931,M,40.593,M,1.8,0123*63\r\n
$GPGGA,110544.55,5703.3497754,N,00952.2082887,E,2,10,0.8,-0.928,M,40.593,M,1.8,0123*6E\r\n
$GPGGA,110544.60,5703.3498281,N,00952.2082776,E,2,10,0.8,-0.927,M,40.593,M,1.8,0123*64\r\n
$GPGGA,110544.65,5703.3498795,N,00952.2082660,E,2,10,0.8,-0.929,M,40.593,M,2.0,0123*62\r\n
$GPGGA,110544.70,5703.3499313,N,00952.2082540,E,2,10,0.8,-0.928,M,40.593,M,2.0,0123*6D\r\n
$GPGGA,110544.75,5703.3499834,N,00952.2082431,E,2,10,0.8,-0.928,M,40.593,M,2.0,0123*61\r\n
$GPGGA,110544.80,5703.3500359,N,00952.2082317,E,2,10,0.8,-0.927,M,40.593,M,2.0,0123*66\r\n
$GPGGA,110544.85,5703.3500883,N,00952.2082184,E,2,10,0.8,-0.933,M,40.593,M,2.2,0123*60\r\n
$GPGGA,110544.90,5703.3501407,N,00952.2082038,E,2,10,0.8,-0.933,M,40.593,M,2.2,0123*63\r\n
$GPGGA,110544.95,5703.3501937,N,00952.2081874,E,2,10,0.8,-0.933,M,40.593,M,2.2,0123*6B\r\n
$GPGGA,110545.00,5703.3502475,N,00952.2081699,E,2,10,0.8,-0.935,M,40.593,M,2.2,0123*65\r\n
$GPGGA,110545.05,5703.3503025,N,00952.2081518,E,2,10,0.8,-0.932,M,40.593,M,2.4,0123*6B\r\n
$GPGGA,110545.10,5703.3503561,N,00952.2081332,E,2,10,0.8,-0.934,M,40.593,M,2.4,0123*62\r\n
$GPGGA,110545.15,5703.3504097,N,00952.2081137,E,2,10,0.8,-0.937,M,40.593,M,2.4,0123*68\r\n
$GPGGA,110545.20,5703.3504639,N,00952.2080918,E,2,10,0.8,-0.939,M,40.593,M,2.4,0123*66\r\n
$GPGGA,110545.25,5703.3505178,N,00952.2080706,E,2,10,0.8,-0.945,M,40.593,M,2.7,0123*69\r\n
$GPGGA,110545.30,5703.3505714,N,00952.2080474,E,2,10,0.8,-0.949,M,40.593,M,2.7,0123*6B\r\n
$GPGGA,110545.35,5703.3506256,N,00952.2080230,E,2,10,0.8,-0.951,M,40.593,M,2.7,0123*61\r\n
$GPGGA,110545.40,5703.3506799,N,00952.2079974,E,2,10,0.8,-0.952,M,40.593,M,2.7,0123*6B\r\n
$GPGGA,110545.45,5703.3507336,N,00952.2079702,E,2,10,0.8,-0.953,M,40.593,M,1.1,0123*65\r\n
$GPGGA,110545.50,5703.3507883,N,00952.2079420,E,2,10,0.8,-0.953,M,40.593,M,1.1,0123*67\r\n
$GPGGA,110545.55,5703.3508425,N,00952.2079155,E,2,10,0.8,-0.954,M,40.593,M,1.1,0123*6D\r\n
$GPGGA,110545.60,5703.3508968,N,00952.2078866,E,2,10,0.8,-0.955,M,40.593,M,1.1,0123*66\r\n
$GPGGA,110545.65,5703.3509516,N,00952.2078539,E,2,10,0.8,-0.954,M,40.593,M,1.5,0123*65\r\n
$GPGGA,110545.70,5703.3510059,N,00952.2078216,E,2,10,0.8,-0.955,M,40.593,M,1.5,0123*6C\r\n
$GPGGA,110545.75,5703.3510604,N,00952.2077868,E,2,10,0.8,-0.956,M,40.593,M,1.5,0123*68\r\n
$GPGGA,110545.80,5703.3511142,N,00952.2077498,E,2,10,0.8,-0.958,M,40.593,M,1.5,0123*6B\r\n
$GPGGA,110545.85,5703.3511687,N,00952.2077116,E,2,10,0.8,-0.958,M,40.593,M,1.8,0123*6E\r\n
$GPGGA,110545.90,5703.3512242,N,00952.2076716,E,2,10,0.8,-0.957,M,40.593,M,1.8,0123*6C\r\n
$GPGGA,110545.95,5703.3512787,N,00952.2076302,E,2,10,0.8,-0.960,M,40.593,M,1.8,0123*60\r\n
$GPGGA,110546.00,5703.3513332,N,00952.2075875,E,2,10,0.8,-0.962,M,40.593,M,1.8,0123*6E\r\n
$GPGGA,110546.05,5703.3513876,N,00952.2075442,E,2,10,0.8,-0.964,M,40.593,M,2.1,0123*64\r\n
$GPGGA,110546.10,5703.3514420,N,00952.2074996,E,2,10,0.8,-0.968,M,40.593,M,2.1,0123*61\r\n
$GPGGA,110546.15,5703.3514952,N,00952.2074520,E,2,10,0.8,-0.970,M,40.593,M,2.1,0123*64\r\n
$GPGGA,110546.20,5703.3515474,N,00952.2074013,E,2,10,0.8,-0.974,M,40.593,M,2.1,0123*6B\r\n
$GPGGA,110546.25,5703.3516020,N,00952.2073499,E,2,10,0.8,-0.972,M,40.593,M,2.3,0123*6D\r\n
$GPGGA,110546.30,5703.3516563,N,00952.2073003,E,2,10,0.8,-0.971,M,40.593,M,2.3,0123*6F\r\n
$GPGGA,110546.35,5703.3517090,N,00952.2072499,E,2,10,0.8,-0.970,M,40.593,M,2.3,0123*65\r\n
$GPGGA,110546.40,5703.3517604,N,00952.2071969,E,2,10,0.8,-0.969,M,40.593,M,2.3,0123*65\r\n
$GPGGA,110546.45,5703.3518130,N,00952.2071406,E,2,10,0.8,-0.963,M,40.593,M,2.6,0123*64\r\n
$GPGGA,110546.50,5703.3518653,N,00952.2070845,E,2,10,0.8,-0.962,M,40.593,M,2.6,0123*69\r\n
$GPGGA,110546.55,5703.3519166,N,00952.2070284,E,2,10,0.8,-0.962,M,40.593,M,2.6,0123*6B\r\n
$GPGGA,110546.60,5703.3519685,N,00952.2069690,E,2,10,0.8,-0.960,M,40.593,M,2.6,0123*6C\r\n
$GPGGA,110546.65,5703.3520198,N,00952.2069066,E,2,10,0.8,-0.960,M,40.593,M,2.8,0123*69\r\n
$GPGGA,110546.70,5703.3520704,N,00952.2068426,E,2,10,0.8,-0.961,M,40.593,M,2.8,0123*6E\r\n
$GPGGA,110546.75,5703.3521212,N,00952.2067791,E,2,10,0.8,-0.959,M,40.593,M,2.8,0123*63\r\n
$GPGGA,110546.80,5703.3521721,N,00952.2067144,E,2,10,0.8,-0.957,M,40.593,M,2.8,0123*6C\r\n
$GPGGA,110546.85,5703.3522228,N,00952.2066481,E,2,10,0.8,-0.950,M,40.593,M,3.1,0123*64\r\n
$GPGGA,110546.90,5703.3522727,N,00952.2065813,E,2,10,0.8,-0.947,M,40.593,M,3.1,0123*68\r\n
$GPGGA,110546.95,5703.3523226,N,00952.2065133,E,2,10,0.8,-0.946,M,40.593,M,3.1,0123*62\r\n
$GPGGA,110547.00,5703.3523718,N,00952.2064412,E,2,10,0.8,-0.942,M,40.593,M,3.1,0123*64\r\n
$GPGGA,110547.05,5703.3524197,N,00952.2063701,E,2,10,0.8,-0.941,M,40.593,M,3.3,0123*60\r\n
$GPGGA,110547.10,5703.3524672,N,00952.2062977,E,2,10,0.8,-0.937,M,40.593,M,3.3,0123*67\r\n
$GPGGA,110547.15,5703.3525147,N,00952.2062256,E,2,10,0.8,-0.930,M,40.593,M,3.3,0123*6D\r\n
$GPGGA,110547.20,5703.3525610,N,00952.2061513,E,2,10,0.8,-0.929,M,40.593,M,3.3,0123*63\r\n
$GPGGA,110547.25,5703.3526062,N,00952.2060749,E,2,10,0.8,-0.927,M,40.593,M,3.5,0123*62\r\n
$GPGGA,110547.30,5703.3526526,N,00952.2059966,E,2,10,0.8,-0.923,M,40.593,M,3.5,0123*6E\r\n
$GPGGA,110547.35,5703.3526987,N,00952.2059197,E,2,10,0.8,-0.916,M,40.593,M,3.5,0123*6C\r\n
$GPGGA,110547.40,5703.3527437,N,00952.2058408,E,2,10,0.8,-0.911,M,40.593,M,3.5,0123*6C\r\n
$GPGGA,110547.45,5703.3527878,N,00952.2057614,E,2,10,0.8,-0.909,M,40.593,M,2.8,0123*6B\r\n
$GPGGA,110547.50,5703.3528309,N,00952.2056799,E,2,10,0.8,-0.906,M,40.593,M,2.8,0123*67\r\n
$GPGGA,110547.55,5703.3528735,N,00952.2055962,E,2,10,0.8,-0.901,M,40.593,M,2.8,0123*67\r\n
$GPGGA,110547.60,5703.3529157,N,00952.2055100,E,2,10,0.8,-0.901,M,40.593,M,2.8,0123*6E\r\n
$GPGGA,110547.65,5703.3529583,N,00952.2054256,E,2,10,0.8,-0.904,M,40.593,M,3.1,0123*6A\r\n
$GPGGA,110547.70,5703.3529983,N,00952.2053402,E,2,10,0.8,-0.904,M,40.593,M,3.1,0123*62\r\n
$GPGGA,110547.75,5703.3530381,N,00952.2052528,E,2,10,0.8,-0.901,M,40.593,M,3.1,0123*6A\r\n
$GPGGA,110547.80,5703.3530766,N,00952.2051635,E,2,10,0.8,-0.900,M,40.593,M,3.1,0123*60\r\n
$GPGGA,110547.85,5703.3531155,N,00952.2050703,E,2,10,0.8,-0.903,M,40.593,M,3.3,0123*66\r\n
$GPGGA,110547.90,5703.3531535,N,00952.2049758,E,2,10,0.8,-0.907,M,40.593,M,3.3,0123*62\r\n
$GPGGA,110547.95,5703.3531901,N,00952.2048789,E,2,10,0.8,-0.909,M,40.593,M,3.3,0123*6F\r\n
$GPGGA,110548.00,5703.3532248,N,00952.2047817,E,2,10,0.8,-0.914,M,40.593,M,3.3,0123*62\r\n
$GPGGA,110548.05,5703.3532581,N,00952.2046849,E,2,10,0.8,-0.921,M,40.593,M,3.5,0123*6F\r\n
$GPGGA,110548.10,5703.3532903,N,00952.2045881,E,2,10,0.8,-0.927,M,40.593,M,3.5,0123*6C\r\n
$GPGGA,110548.15,5703.3533216,N,00952.2044887,E,2,10,0.8,-0.932,M,40.593,M,3.5,0123*64\r\n
$GPGGA,110548.20,5703.3533513,N,00952.2043865,E,2,10,0.8,-0.940,M,40.593,M,3.5,0123*6E\r\n
$GPGGA,110548.25,5703.3533812,N,00952.2042832,E,2,10,0.8,-0.948,M,40.593,M,3.8,0123*61\r\n
$GPGGA,110548.30,5703.3534106,N,00952.2041777,E,2,10,0.8,-0.953,M,40.593,M,3.8,0123*69\r\n
$GPGGA,110548.35,5703.3534366,N,00952.2040710,E,2,10,0.8,-0.959,M,40.593,M,3.8,0123*62\r\n
$GPGGA,110548.40,5703.3534621,N,00952.2039662,E,2,10,0.8,-0.966,M,40.593,M,3.8,0123*60\r\n
$GPGGA,110548.45,5703.3534865,N,00952.2038600,E,2,10,0.8,-0.970,M,40.593,M,1.8,0123*6B\r\n
$GPGGA,110548.50,5703.3535110,N,00952.2037512,E,2,10,0.8,-0.969,M,40.593,M,1.8,0123*62\r\n
$GPGGA,110548.55,5703.3535340,N,00952.2036397,E,2,10,0.8,-0.969,M,40.593,M,1.8,0123*6A\r\n
$GPGGA,110548.60,5703.3535555,N,00952.2035274,E,2,10,0.8,-0.967,M,40.593,M,1.8,0123*6F\r\n
$GPGGA,110548.65,5703.3535766,N,00952.2034151,E,2,10,0.8,-0.966,M,40.593,M,2.0,0123*67\r\n
$GPGGA,110548.70,5703.3535966,N,00952.2033047,E,2,10,0.8,-0.962,M,40.593,M,2.0,0123*68\r\n
$GPGGA,110548.75,5703.3536164,N,00952.2031957,E,2,10,0.8,-0.956,M,40.593,M,2.0,0123*69\r\n
$GPGGA,110548.80,5703.3536351,N,00952.2030868,E,2,10,0.8,-0.950,M,40.593,M,2.0,0123*6D\r\n
$GPGGA,110548.85,5703.3536524,N,00952.2029766,E,2,10,0.8,-0.943,M,40.593,M,2.2,0123*65\r\n
$GPGGA,110548.90,5703.3536678,N,00952.2028664,E,2,10,0.8,-0.940,M,40.593,M,2.2,0123*6A\r\n
$GPGGA,110548.95,5703.3536830,N,00952.2027550,E,2,10,0.8,-0.934,M,40.593,M,2.2,0123*65\r\n
$GPGGA,110549.00,5703.3536972,N,00952.2026410,E,2,10,0.8,-0.927,M,40.593,M,2.2,0123*69\r\n
$GPGGA,110549.05,5703.3537115,N,00952.2025279,E,2,10,0.8,-0.921,M,40.593,M,2.4,0123*6E\r\n
$GPGGA,110549.10,5703.3537233,N,00952.2024137,E,2,10,0.8,-0.920,M,40.593,M,2.4,0123*64\r\n
$GPGGA,110549.15,5703.3537347,N,00952.2022999,E,2,10,0.8,-0.917,M,40.593,M,2.4,0123*6D\r\n
$GPGGA,110549.20,5703.3537457,N,00952.2021844,E,2,10,0.8,-0.912,M,40.593,M,2.4,0123*6A\r\n
$GPGGA,110549.25,5703.3537559,N,00952.2020687,E,2,10,0.8,-0.911,M,40.593,M,2.7,0123*60\r\n
$GPGGA,110549.30,5703.3537634,N,00952.2019529,E,2,10,0.8,-0.909,M,40.593,M,2.7,0123*68\r\n
$GPGGA,110549.35,5703.3537686,N,00952.2018376,E,2,10,0.8,-0.908,M,40.593,M,2.7,0123*68\r\n
$GPGGA,110549.40,5703.3537727,N,00952.2017219,E,2,10,0.8,-0.907,M,40.593,M,2.7,0123*68\r\n
$GPGGA,110549.45,5703.3537748,N,00952.2016053,E,2,10,0.8,-0.907,M,40.593,M,2.9,0123*67\r\n
$GPGGA,110549.50,5703.3537774,N,00952.2014875,E,2,10,0.8,-0.907,M,40.593,M,2.9,0123*62\r\n
$GPGGA,110549.55,5703.3537801,N,00952.2013701,E,2,10,0.8,-0.908,M,40.593,M,2.9,0123*6E\r\n
$GPGGA,110549.60,5703.3537792,N,00952.2012528,E,2,10,0.8,-0.911,M,40.593,M,2.9,0123*6D\r\n
$GPGGA,110549.65,5703.3537768,N,00952.2011360,E,2,10,0.8,-0.917,M,40.593,M,3.1,0123*6B\r\n
$GPGGA,110549.70,5703.3537737,N,00952.2010189,E,2,10,0.8,-0.921,M,40.593,M,3.1,0123*64\r\n
$GPGGA,110549.75,5703.3537703,N,00952.2009008,E,2,10,0.8,-0.926,M,40.593,M,3.1,0123*61\r\n
$GPGGA,110549.80,5703.3537664,N,00952.2007834,E,2,10,0.8,-0.930,M,40.593,M,3.1,0123*65\r\n
$GPGGA,110549.85,5703.3537587,N,00952.2006656,E,2,10,0.8,-0.942,M,40.593,M,3.3,0123*62\r\n
$GPGGA,110549.90,5703.3537504,N,00952.2005497,E,2,10,0.8,-0.948,M,40.593,M,3.3,0123*6B\r\n
$GPGGA,110549.95,5703.3537410,N,00952.2004333,E,2,10,0.8,-0.958,M,40.593,M,3.3,0123*63\r\n
$GPGGA,110550.00,5703.3537316,N,00952.2003173,E,2,10,0.8,-0.965,M,40.593,M,3.3,0123*69\r\n
$GPGGA,110550.05,5703.3537225,N,00952.2002015,E,2,10,0.8,-0.969,M,40.593,M,3.5,0123*67\r\n
$GPGGA,110550.10,5703.3537116,N,00952.2000861,E,2,10,0.8,-0.971,M,40.593,M,3.5,0123*60\r\n
$GPGGA,110550.15,5703.3536989,N,00952.1999702,E,2,10,0.8,-0.974,M,40.593,M,3.5,0123*6F\r\n
$GPGGA,110550.20,5703.3536855,N,00952.1998548,E,2,10,0.8,-0.976,M,40.593,M,3.5,0123*66\r\n
$GPGGA,110550.25,5703.3536698,N,00952.1997383,E,2,10,0.8,-0.976,M,40.593,M,3.7,0123*60\r\n
$GPGGA,110550.30,5703.3536538,N,00952.1996242,E,2,10,0.8,-0.974,M,40.593,M,3.7,0123*62\r\n
$GPGGA,110550.35,5703.3536381,N,00952.1995101,E,2,10,0.8,-0.972,M,40.593,M,3.7,0123*62\r\n
$GPGGA,110550.40,5703.3536208,N,00952.1993962,E,2,10,0.8,-0.969,M,40.593,M,3.7,0123*61\r\n
$GPGGA,110550.45,5703.3536021,N,00952.1992836,E,2,10,0.8,-0.970,M,40.593,M,2.6,0123*64\r\n
$GPGGA,110550.50,5703.3535819,N,00952.1991717,E,2,10,0.8,-0.964,M,40.593,M,2.6,0123*6A\r\n
$GPGGA,110550.55,5703.3535599,N,00952.1990627,E,2,10,0.8,-0.958,M,40.593,M,2.6,0123*66\r\n
$GPGGA,110550.60,5703.3535390,N,00952.1989536,E,2,10,0.8,-0.951,M,40.593,M,2.6,0123*6D\r\n
$GPGGA,110550.65,5703.3535185,N,00952.1988439,E,2,10,0.8,-0.939,M,40.593,M,2.8,0123*61\r\n
$GPGGA,110550.70,5703.3534956,N,00952.1987371,E,2,10,0.8,-0.931,M,40.593,M,2.8,0123*6E\r\n
$GPGGA,110550.75,5703.3534708,N,00952.1986293,E,2,10,0.8,-0.923,M,40.593,M,2.8,0123*61\r\n
$GPGGA,110550.80,5703.3534462,N,00952.1985203,E,2,10,0.8,-0.918,M,40.593,M,2.8,0123*66\r\n
$GPGGA,110550.85,5703.3534207,N,00952.1984121,E,2,10,0.8,-0.913,M,40.593,M,3.1,0123*67\r\n
$GPGGA,110550.90,5703.3533957,N,00952.1983056,E,2,10,0.8,-0.908,M,40.593,M,3.1,0123*66\r\n
$GPGGA,110550.95,5703.3533692,N,00952.1981991,E,2,10,0.8,-0.904,M,40.593,M,3.1,0123*69\r\n
$GPGGA,110551.00,5703.3533402,N,00952.1980942,E,2,10,0.8,-0.903,M,40.593,M,3.1,0123*67\r\n
$GPGGA,110551.05,5703.3533091,N,00952.1979908,E,2,10,0.8,-0.906,M,40.593,M,3.3,0123*63\r\n
$GPGGA,110551.10,5703.3532773,N,00952.1978881,E,2,10,0.8,-0.908,M,40.593,M,3.3,0123*62\r\n
$GPGGA,110551.15,5703.3532448,N,00952.1977850,E,2,10,0.8,-0.914,M,40.593,M,3.3,0123*62\r\n
$GPGGA,110551.20,5703.3532126,N,00952.1976830,E,2,10,0.8,-0.920,M,40.593,M,3.3,0123*69\r\n
$GPGGA,110551.25,5703.3531782,N,00952.1975822,E,2,10,0.8,-0.928,M,40.593,M,3.5,0123*69\r\n
$GPGGA,110551.30,5703.3531424,N,00952.1974809,E,2,10,0.8,-0.935,M,40.593,M,3.5,0123*66\r\n
$GPGGA,110551.35,5703.3531051,N,00952.1973820,E,2,10,0.8,-0.946,M,40.593,M,3.5,0123*6D\r\n
$GPGGA,110551.40,5703.3530689,N,00952.1972843,E,2,10,0.8,-0.955,M,40.593,M,3.5,0123*6B\r\n
$GPGGA,110551.45,5703.3530314,N,00952.1971881,E,2,10,0.8,-0.964,M,40.593,M,2.8,0123*6C\r\n
$GPGGA,110551.50,5703.3529936,N,00952.1970930,E,2,10,0.8,-0.972,M,40.593,M,2.8,0123*67\r\n
$GPGGA,110551.55,5703.3529531,N,00952.1970004,E,2,10,0.8,-0.975,M,40.593,M,2.8,0123*60\r\n
$GPGGA,110551.60,5703.3529113,N,00952.1969105,E,2,10,0.8,-0.978,M,40.593,M,2.8,0123*67\r\n
$GPGGA,110551.65,5703.3528702,N,00952.1968230,E,2,10,0.8,-0.977,M,40.593,M,3.1,0123*66\r\n
$GPGGA,110551.70,5703.3528281,N,00952.1967375,E,2,10,0.8,-0.975,M,40.593,M,3.1,0123*61\r\n
$GPGGA,110551.75,5703.3527864,N,00952.1966549,E,2,10,0.8,-0.973,M,40.593,M,3.1,0123*64\r\n
$GPGGA,110551.80,5703.3527436,N,00952.1965741,E,2,10,0.8,-0.969,M,40.593,M,3.1,0123*67\r\n
$GPGGA,110551.85,5703.3526997,N,00952.1964957,E,2,10,0.8,-0.963,M,40.593,M,3.3,0123*65\r\n
$GPGGA,110551.90,5703.3526551,N,00952.1964192,E,2,10,0.8,-0.954,M,40.593,M,3.3,0123*62\r\n
$GPGGA,110551.95,5703.3526107,N,00952.1963417,E,2,10,0.8,-0.948,M,40.593,M,3.3,0123*62\r\n
$GPGGA,110552.00,5703.3525649,N,00952.1962648,E,2,10,0.8,-0.945,M,40.593,M,3.3,0123*67\r\n
$GPGGA,110552.05,5703.3525197,N,00952.1961906,E,2,10,0.8,-0.935,M,40.593,M,3.5,0123*61\r\n
$GPGGA,110552.10,5703.3524731,N,00952.1961179,E,2,10,0.8,-0.929,M,40.593,M,3.5,0123*63\r\n
$GPGGA,110552.15,5703.3524251,N,00952.1960458,E,2,10,0.8,-0.924,M,40.593,M,3.5,0123*6F\r\n
$GPGGA,110552.20,5703.3523767,N,00952.1959718,E,2,10,0.8,-0.919,M,40.593,M,3.5,0123*6D\r\n
$GPGGA,110552.25,5703.3523282,N,00952.1959010,E,2,10,0.8,-0.922,M,40.593,M,3.8,0123*6C\r\n
$GPGGA,110552.30,5703.3522785,N,00952.1958312,E,2,10,0.8,-0.921,M,40.593,M,3.8,0123*68\r\n
$GPGGA,110552.35,5703.3522268,N,00952.1957611,E,2,10,0.8,-0.926,M,40.593,M,3.8,0123*65\r\n
$GPGGA,110552.40,5703.3521746,N,00952.1956933,E,2,10,0.8,-0.931,M,40.593,M,3.8,0123*65\r\n
$GPGGA,110552.45,5703.3521226,N,00952.1956267,E,2,10,0.8,-0.938,M,40.593,M,1.8,0123*62\r\n
$GPGGA,110552.50,5703.3520698,N,00952.1955624,E,2,10,0.8,-0.946,M,40.593,M,1.8,0123*6F\r\n
$GPGGA,110552.55,5703.3520160,N,00952.1955011,E,2,10,0.8,-0.953,M,40.593,M,1.8,0123*6E\r\n
$GPGGA,110552.60,5703.3519619,N,00952.1954418,E,2,10,0.8,-0.959,M,40.593,M,1.8,0123*6D\r\n
$GPGGA,110552.65,5703.3519071,N,00952.1953845,E,2,10,0.8,-0.966,M,40.593,M,2.0,0123*64\r\n
$GPGGA,110552.70,5703.3518512,N,00952.1953300,E,2,10,0.8,-0.972,M,40.593,M,2.0,0123*6E\r\n
$GPGGA,110552.75,5703.3517960,N,00952.1952777,E,2,10,0.8,-0.977,M,40.593,M,2.0,0123*6D\r\n
$GPGGA,110552.80,5703.3517420,N,00952.1952274,E,2,10,0.8,-0.981,M,40.593,M,2.0,0123*61\r\n
$GPGGA,110552.85,5703.3516875,N,00952.1951779,E,2,10,0.8,-0.983,M,40.593,M,2.2,0123*62\r\n
$GPGGA,110552.90,5703.3516314,N,00952.1951333,E,2,10,0.8,-0.983,M,40.593,M,2.2,0123*60\r\n
$GPGGA,110552.95,5703.3515745,N,00952.1950904,E,2,10,0.8,-0.980,M,40.593,M,2.2,0123*6A\r\n
$GPGGA,110553.00,5703.3515192,N,00952.1950487,E,2,10,0.8,-0.979,M,40.593,M,2.2,0123*6B\r\n
$GPGGA,110553.05,5703.3514639,N,00952.1950088,E,2,10,0.8,-0.972,M,40.593,M,2.4,0123*6F\r\n
$GPGGA,110553.10,5703.3514069,N,00952.1949730,E,2,10,0.8,-0.966,M,40.593,M,2.4,0123*61\r\n
$GPGGA,110553.15,5703.3513498,N,00952.1949406,E,2,10,0.8,-0.961,M,40.593,M,2.4,0123*68\r\n
$GPGGA,110553.20,5703.3512934,N,00952.1949089,E,2,10,0.8,-0.954,M,40.593,M,2.4,0123*61\r\n
$GPGGA,110553.25,5703.3512369,N,00952.1948783,E,2,10,0.8,-0.945,M,40.593,M,2.7,0123*69\r\n
$GPGGA,110553.30,5703.3511808,N,00952.1948488,E,2,10,0.8,-0.938,M,40.593,M,2.7,0123*60\r\n
$GPGGA,110553.35,5703.3511234,N,00952.1948183,E,2,10,0.8,-0.933,M,40.593,M,2.7,0123*65\r\n
$GPGGA,110553.40,5703.3510654,N,00952.1947910,E,2,10,0.8,-0.929,M,40.593,M,2.7,0123*62\r\n
$GPGGA,110553.45,5703.3510071,N,00952.1947674,E,2,10,0.8,-0.920,M,40.593,M,2.9,0123*6C\r\n
$GPGGA,110553.50,5703.3509488,N,00952.1947451,E,2,10,0.8,-0.917,M,40.593,M,2.9,0123*63\r\n
$GPGGA,110553.55,5703.3508903,N,00952.1947244,E,2,10,0.8,-0.918,M,40.593,M,2.9,0123*64\r\n
$GPGGA,110553.60,5703.3508312,N,00952.1947049,E,2,10,0.8,-0.919,M,40.593,M,2.9,0123*66\r\n
$GPGGA,110553.65,5703.3507712,N,00952.1946872,E,2,10,0.8,-0.923,M,40.593,M,3.1,0123*69\r\n
$GPGGA,110553.70,5703.3507111,N,00952.1946678,E,2,10,0.8,-0.927,M,40.593,M,3.1,0123*68\r\n
$GPGGA,110553.75,5703.3506507,N,00952.1946507,E,2,10,0.8,-0.932,M,40.593,M,3.1,0123*60\r\n
$GPGGA,110553.80,5703.3505903,N,00952.1946376,E,2,10,0.8,-0.940,M,40.593,M,3.1,0123*64\r\n
$GPGGA,110553.85,5703.3505296,N,00952.1946272,E,2,10,0.8,-0.952,M,40.593,M,3.3,0123*62\r\n
$GPGGA,110553.90,5703.3504701,N,00952.1946211,E,2,10,0.8,-0.959,M,40.593,M,3.3,0123*62\r\n
$GPGGA,110553.95,5703.3504114,N,00952.1946198,E,2,10,0.8,-0.965,M,40.593,M,3.3,0123*68\r\n
$GPGGA,110554.00,5703.3503536,N,00952.1946204,E,2,10,0.8,-0.969,M,40.593,M,3.3,0123*6A\r\n
$GPGGA,110554.05,5703.3502958,N,00952.1946226,E,2,10,0.8,-0.972,M,40.593,M,3.5,0123*66\r\n
$GPGGA,110554.10,5703.3502391,N,00952.1946263,E,2,10,0.8,-0.972,M,40.593,M,3.5,0123*6C\r\n
$GPGGA,110554.15,5703.3501833,N,00952.1946321,E,2,10,0.8,-0.970,M,40.593,M,3.5,0123*6C\r\n
$GPGGA,110554.20,5703.3501273,N,00952.1946404,E,2,10,0.8,-0.968,M,40.593,M,3.5,0123*6D\r\n
$GPGGA,110554.25,5703.3500710,N,00952.1946489,E,2,10,0.8,-0.964,M,40.593,M,3.7,0123*62\r\n
$GPGGA,110554.30,5703.3500154,N,00952.1946591,E,2,10,0.8,-0.961,M,40.593,M,3.7,0123*6D\r\n
$GPGGA,110554.35,5703.3499595,N,00952.1946682,E,2,10,0.8,-0.958,M,40.593,M,3.7,0123*6B\r\n
$GPGGA,110554.40,5703.3499025,N,00952.1946807,E,2,10,0.8,-0.955,M,40.593,M,3.7,0123*69\r\n
$GPGGA,110554.45,5703.3498465,N,00952.1946950,E,2,10,0.8,-0.949,M,40.593,M,2.6,0123*63\r\n
$GPGGA,110554.50,5703.3497910,N,00952.1947103,E,2,10,0.8,-0.945,M,40.593,M,2.6,0123*64\r\n
$GPGGA,110554.55,5703.3497355,N,00952.1947293,E,2,10,0.8,-0.939,M,40.593,M,2.6,0123*6B\r\n
$GPGGA,110554.60,5703.3496806,N,00952.1947490,E,2,10,0.8,-0.936,M,40.593,M,2.6,0123*6B\r\n
$GPGGA,110554.65,5703.3496258,N,00952.1947697,E,2,10,0.8,-0.932,M,40.593,M,2.8,0123*60\r\n
$GPGGA,110554.70,5703.3495700,N,00952.1947932,E,2,10,0.8,-0.930,M,40.593,M,2.8,0123*6D\r\n
$GPGGA,110554.75,5703.3495151,N,00952.1948184,E,2,10,0.8,-0.926,M,40.593,M,2.8,0123*67\r\n
$GPGGA,110554.80,5703.3494618,N,00952.1948451,E,2,10,0.8,-0.923,M,40.593,M,2.8,0123*6E\r\n
$GPGGA,110554.85,5703.3494089,N,00952.1948733,E,2,10,0.8,-0.922,M,40.593,M,3.1,0123*6B\r\n
$GPGGA,110554.90,5703.3493554,N,00952.1949029,E,2,10,0.8,-0.922,M,40.593,M,3.1,0123*60\r\n
$GPGGA,110554.95,5703.3493024,N,00952.1949352,E,2,10,0.8,-0.924,M,40.593,M,3.1,0123*6E\r\n
$GPGGA,110555.00,5703.3492502,N,00952.1949705,E,2,10,0.8,-0.926,M,40.593,M,3.1,0123*67\r\n
$GPGGA,110555.05,5703.3491979,N,00952.1950082,E,2,10,0.8,-0.927,M,40.593,M,3.3,0123*62\r\n
$GPGGA,110555.10,5703.3491471,N,00952.1950473,E,2,10,0.8,-0.929,M,40.593,M,3.3,0123*67\r\n
$GPGGA,110555.15,5703.3490962,N,00952.1950893,E,2,10,0.8,-0.935,M,40.593,M,3.3,0123*63\r\n
$GPGGA,110555.20,5703.3490458,N,00952.1951315,E,2,10,0.8,-0.940,M,40.593,M,3.3,0123*67\r\n
$GPGGA,110555.25,5703.3489956,N,00952.1951753,E,2,10,0.8,-0.946,M,40.593,M,3.5,0123*6F\r\n
$GPGGA,110555.30,5703.3489470,N,00952.1952215,E,2,10,0.8,-0.950,M,40.593,M,3.5,0123*61\r\n
$GPGGA,110555.35,5703.3489007,N,00952.1952689,E,2,10,0.8,-0.952,M,40.593,M,3.5,0123*63\r\n
$GPGGA,110555.40,5703.3488549,N,00952.1953177,E,2,10,0.8,-0.953,M,40.593,M,3.5,0123*69\r\n
$GPGGA,110555.45,5703.3488086,N,00952.1953686,E,2,10,0.8,-0.955,M,40.593,M,0.6,0123*65\r\n
$GPGGA,110555.50,5703.3487620,N,00952.1954193,E,2,10,0.8,-0.957,M,40.593,M,0.6,0123*62\r\n
$GPGGA,110555.55,5703.3487160,N,00952.1954711,E,2,10,0.8,-0.956,M,40.593,M,0.6,0123*69\r\n
$GPGGA,110555.60,5703.3486715,N,00952.1955231,E,2,10,0.8,-0.955,M,40.593,M,0.6,0123*6F\r\n
$GPGGA,110555.65,5703.3486265,N,00952.1955771,E,2,10,0.8,-0.955,M,40.593,M,0.9,0123*66\r\n
$GPGGA,110555.70,5703.3485829,N,00952.1956324,E,2,10,0.8,-0.954,M,40.593,M,0.9,0123*65\r\n
$GPGGA,110555.75,5703.3485399,N,00952.1956901,E,2,10,0.8,-0.952,M,40.593,M,0.9,0123*6B\r\n
$GPGGA,110555.80,5703.3484953,N,00952.1957486,E,2,10,0.8,-0.953,M,40.593,M,0.9,0123*6E\r\n
$GPGGA,110555.85,5703.3484529,N,00952.1958076,E,2,10,0.8,-0.951,M,40.593,M,1.1,0123*65\r\n
$GPGGA,110555.90,5703.3484113,N,00952.1958694,E,2,10,0.8,-0.950,M,40.593,M,1.1,0123*67\r\n
$GPGGA,110555.95,5703.3483705,N,00952.1959323,E,2,10,0.8,-0.950,M,40.593,M,1.1,0123*6C\r\n
$GPGGA,110556.00,5703.3483290,N,00952.1959986,E,2,10,0.8,-0.953,M,40.593,M,1.1,0123*6C\r\n
$GPGGA,110556.05,5703.3482889,N,00952.1960638,E,2,10,0.8,-0.957,M,40.593,M,1.3,0123*6C\r\n
$GPGGA,110556.10,5703.3482502,N,00952.1961310,E,2,10,0.8,-0.955,M,40.593,M,1.3,0123*6A\r\n
$GPGGA,110556.15,5703.3482129,N,00952.1961994,E,2,10,0.8,-0.955,M,40.593,M,1.3,0123*64\r\n
$GPGGA,110556.20,5703.3481746,N,00952.1962682,E,2,10,0.8,-0.957,M,40.593,M,1.3,0123*67\r\n
$GPGGA,110556.25,5703.3481374,N,00952.1963391,E,2,10,0.8,-0.953,M,40.593,M,1.6,0123*60\r\n
$GPGGA,110556.30,5703.3481017,N,00952.1964118,E,2,10,0.8,-0.951,M,40.593,M,1.6,0123*64\r\n
$GPGGA,110556.35,5703.3480670,N,00952.1964849,E,2,10,0.8,-0.952,M,40.593,M,1.6,0123*69\r\n
$GPGGA,110556.40,5703.3480327,N,00952.1965584,E,2,10,0.8,-0.952,M,40.593,M,1.6,0123*61\r\n
$GPGGA,110556.45,5703.3479999,N,00952.1966342,E,2,10,0.8,-0.956,M,40.593,M,1.8,0123*68\r\n
$GPGGA,110556.50,5703.3479690,N,00952.1967105,E,2,10,0.8,-0.951,M,40.593,M,1.8,0123*6D\r\n
$GPGGA,110556.55,5703.3479379,N,00952.1967875,E,2,10,0.8,-0.950,M,40.593,M,1.8,0123*65\r\n
$GPGGA,110556.60,5703.3479082,N,00952.1968670,E,2,10,0.8,-0.949,M,40.593,M,1.8,0123*68\r\n
$GPGGA,110556.65,5703.3478817,N,00952.1969486,E,2,10,0.8,-0.941,M,40.593,M,2.0,0123*61\r\n
$GPGGA,110556.70,5703.3478559,N,00952.1970299,E,2,10,0.8,-0.940,M,40.593,M,2.0,0123*63\r\n
$GPGGA,110556.75,5703.3478308,N,00952.1971122,E,2,10,0.8,-0.939,M,40.593,M,2.0,0123*68\r\n
$GPGGA,110556.80,5703.3478055,N,00952.1971959,E,2,10,0.8,-0.938,M,40.593,M,2.0,0123*6C\r\n
$GPGGA,110556.85,5703.3477830,N,00952.1972795,E,2,10,0.8,-0.936,M,40.593,M,2.2,0123*6C\r\n
$GPGGA,110556.90,5703.3477609,N,00952.1973649,E,2,10,0.8,-0.933,M,40.593,M,2.2,0123*68\r\n
$GPGGA,110556.95,5703.3477401,N,00952.1974506,E,2,10,0.8,-0.932,M,40.593,M,2.2,0123*69\r\n
$GPGGA,110557.00,5703.3477194,N,00952.1975369,E,2,10,0.8,-0.930,M,40.593,M,2.2,0123*61\r\n
$GPGGA,110557.05,5703.3476999,N,00952.1976238,E,2,10,0.8,-0.926,M,40.593,M,2.4,0123*67\r\n
$GPGGA,110557.10,5703.3476835,N,00952.1977112,E,2,10,0.8,-0.924,M,40.593,M,2.4,0123*6C\r\n
$GPGGA,110557.15,5703.3476674,N,00952.1977997,E,2,10,0.8,-0.923,M,40.593,M,2.4,0123*60\r\n
$GPGGA,110557.20,5703.3476502,N,00952.1978869,E,2,10,0.8,-0.922,M,40.593,M,2.4,0123*6A\r\n
$GPGGA,110557.25,5703.3476351,N,00952.1979757,E,2,10,0.8,-0.917,M,40.593,M,2.7,0123*69\r\n
$GPGGA,110557.30,5703.3476219,N,00952.1980646,E,2,10,0.8,-0.916,M,40.593,M,2.7,0123*66\r\n
$GPGGA,110557.35,5703.3476083,N,00952.1981538,E,2,10,0.8,-0.914,M,40.593,M,2.7,0123*6B\r\n
$GPGGA,110557.40,5703.3475950,N,00952.1982440,E,2,10,0.8,-0.913,M,40.593,M,2.7,0123*67\r\n
$GPGGA,110557.45,5703.3475834,N,00952.1983335,E,2,10,0.8,-0.911,M,40.593,M,1.1,0123*62\r\n
$GPGGA,110557.50,5703.3475727,N,00952.1984241,E,2,10,0.8,-0.910,M,40.593,M,1.1,0123*6F\r\n
$GPGGA,110557.55,5703.3475637,N,00952.1985136,E,2,10,0.8,-0.909,M,40.593,M,1.1,0123*60\r\n
$GPGGA,110557.60,5703.3475546,N,00952.1986044,E,2,10,0.8,-0.910,M,40.593,M,1.1,0123*6C\r\n
$GPGGA,110557.65,5703.3475467,N,00952.1986959,E,2,10,0.8,-0.906,M,40.593,M,1.5,0123*6D\r\n
$GPGGA,110557.70,5703.3475381,N,00952.1987880,E,2,10,0.8,-0.908,M,40.593,M,1.5,0123*6C\r\n
$GPGGA,110557.75,5703.3475315,N,00952.1988812,E,2,10,0.8,-0.911,M,40.593,M,1.5,0123*68\r\n
$GPGGA,110557.80,5703.3475265,N,00952.1989731,E,2,10,0.8,-0.915,M,40.593,M,1.5,0123*6F\r\n
$GPGGA,110557.85,5703.3475230,N,00952.1990654,E,2,10,0.8,-0.916,M,40.593,M,1.8,0123*6E\r\n
$GPGGA,110557.90,5703.3475199,N,00952.1991585,E,2,10,0.8,-0.920,M,40.593,M,1.8,0123*61\r\n
$GPGGA,110557.95,5703.3475158,N,00952.1992504,E,2,10,0.8,-0.923,M,40.593,M,1.8,0123*60\r\n
$GPGGA,110558.00,5703.3475139,N,00952.1993446,E,2,10,0.8,-0.929,M,40.593,M,1.8,0123*68\r\n
$GPGGA,110558.05,5703.3475144,N,00952.1994393,E,2,10,0.8,-0.931,M,40.593,M,2.1,0123*6C\r\n
$GPGGA,110558.10,5703.3475163,N,00952.1995328,E,2,10,0.8,-0.934,M,40.593,M,2.1,0123*69\r\n
$GPGGA,110558.15,5703.3475187,N,00952.1996249,E,2,10,0.8,-0.939,M,40.593,M,2.1,0123*6E\r\n
$GPGGA,110558.20,5703.3475201,N,00952.1997175,E,2,10,0.8,-0.942,M,40.593,M,2.1,0123*64\r\n
$GPGGA,110558.25,5703.3475225,N,00952.1998100,E,2,10,0.8,-0.945,M,40.593,M,2.3,0123*6F\r\n
$GPGGA,110558.30,5703.3475258,N,00952.1999030,E,2,10,0.8,-0.948,M,40.593,M,2.3,0123*6F\r\n
$GPGGA,110558.35,5703.3475310,N,00952.1999953,E,2,10,0.8,-0.951,M,40.593,M,2.3,0123*63\r\n
$GPGGA,110558.40,5703.3475367,N,00952.2000881,E,2,10,0.8,-0.952,M,40.593,M,2.3,0123*66\r\n
$GPGGA,110558.45,5703.3475434,N,00952.2001798,E,2,10,0.8,-0.952,M,40.593,M,1.3,0123*67\r\n
$GPGGA,110558.50,5703.3475510,N,00952.2002720,E,2,10,0.8,-0.953,M,40.593,M,1.3,0123*65\r\n
$GPGGA,110558.55,5703.3475589,N,00952.2003653,E,2,10,0.8,-0.955,M,40.593,M,1.3,0123*62\r\n
$GPGGA,110558.60,5703.3475674,N,00952.2004577,E,2,10,0.8,-0.957,M,40.593,M,1.3,0123*65\r\n
$GPGGA,110558.65,5703.3475770,N,00952.2005514,E,2,10,0.8,-0.954,M,40.593,M,1.7,0123*66\r\n
$GPGGA,110558.70,5703.3475897,N,00952.2006447,E,2,10,0.8,-0.952,M,40.593,M,1.7,0123*66\r\n
$GPGGA,110558.75,5703.3476026,N,00952.2007384,E,2,10,0.8,-0.952,M,40.593,M,1.7,0123*6B\r\n
$GPGGA,110558.80,5703.3476155,N,00952.2008328,E,2,10,0.8,-0.952,M,40.593,M,1.7,0123*6D\r\n
$GPGGA,110558.85,5703.3476285,N,00952.2009277,E,2,10,0.8,-0.950,M,40.593,M,2.0,0123*6A\r\n
$GPGGA,110558.90,5703.3476427,N,00952.2010228,E,2,10,0.8,-0.951,M,40.593,M,2.0,0123*63\r\n
$GPGGA,110558.95,5703.3476581,N,00952.2011181,E,2,10,0.8,-0.952,M,40.593,M,2.0,0123*69\r\n
$GPGGA,110559.00,5703.3476759,N,00952.2012117,E,2,10,0.8,-0.951,M,40.593,M,2.0,0123*6C\r\n
$GPGGA,110559.05,5703.3476940,N,00952.2013064,E,2,10,0.8,-0.955,M,40.593,M,2.3,0123*6C\r\n
$GPGGA,110559.10,5703.3477128,N,00952.2014016,E,2,10,0.8,-0.957,M,40.593,M,2.3,0123*6F\r\n
$GPGGA,110559.15,5703.3477319,N,00952.2014960,E,2,10,0.8,-0.961,M,40.593,M,2.3,0123*67\r\n
$GPGGA,110559.20,5703.3477526,N,00952.2015903,E,2,10,0.8,-0.964,M,40.593,M,2.3,0123*6A\r\n
$GPGGA,110559.25,5703.3477753,N,00952.2016832,E,2,10,0.8,-0.961,M,40.593,M,2.6,0123*6F\r\n
$GPGGA,110559.30,5703.3477991,N,00952.2017756,E,2,10,0.8,-0.961,M,40.593,M,2.6,0123*67\r\n
$GPGGA,110559.35,5703.3478231,N,00952.2018692,E,2,10,0.8,-0.959,M,40.593,M,2.6,0123*61\r\n
$GPGGA,110559.40,5703.3478481,N,00952.2019620,E,2,10,0.8,-0.958,M,40.593,M,2.6,0123*67\r\n
$GPGGA,110559.45,5703.3478727,N,00952.2020557,E,2,10,0.8,-0.954,M,40.593,M,2.8,0123*66\r\n
$GPGGA,110559.50,5703.3478987,N,00952.2021505,E,2,10,0.8,-0.951,M,40.593,M,2.8,0123*65\r\n
$GPGGA,110559.55,5703.3479244,N,00952.2022446,E,2,10,0.8,-0.950,M,40.593,M,2.8,0123*61\r\n
$GPGGA,110559.60,5703.3479515,N,00952.2023390,E,2,10,0.8,-0.948,M,40.593,M,2.8,0123*60\r\n
$GPGGA,110559.65,5703.3479803,N,00952.2024315,E,2,10,0.8,-0.944,M,40.593,M,3.1,0123*61\r\n
$GPGGA,110559.70,5703.3480102,N,00952.2025234,E,2,10,0.8,-0.941,M,40.593,M,3.1,0123*6D\r\n
$GPGGA,110559.75,5703.3480404,N,00952.2026163,E,2,10,0.8,-0.939,M,40.593,M,3.1,0123*66\r\n
$GPGGA,110559.80,5703.3480720,N,00952.2027071,E,2,10,0.8,-0.937,M,40.593,M,3.1,0123*64\r\n
$GPGGA,110559.85,5703.3481040,N,00952.2027994,E,2,10,0.8,-0.931,M,40.593,M,3.3,0123*67\r\n
$GPGGA,110559.90,5703.3481364,N,00952.2028914,E,2,10,0.8,-0.927,M,40.593,M,3.3,0123*66\r\n
$GPGGA,110559.95,5703.3481695,N,00952.2029841,E,2,10,0.8,-0.925,M,40.593,M,3.3,0123*6A\r\n
$GPGGA,110600.00,5703.3482036,N,00952.2030766,E,2,10,0.8,-0.922,M,40.593,M,3.3,0123*60\r\n
$GPGGA,110600.05,5703.3482390,N,00952.2031675,E,2,10,0.8,-0.916,M,40.593,M,3.5,0123*69\r\n
$GPGGA,110600.10,5703.3482745,N,00952.2032577,E,2,10,0.8,-0.913,M,40.593,M,3.5,0123*66\r\n
$GPGGA,110600.15,5703.3483115,N,00952.2033462,E,2,10,0.8,-0.909,M,40.593,M,3.5,0123*6E\r\n
$GPGGA,110600.20,5703.3483480,N,00952.2034360,E,2,10,0.8,-0.905,M,40.593,M,3.5,0123*6F\r\n
$GPGGA,110600.25,5703.3483857,N,00952.2035257,E,2,10,0.8,-0.901,M,40.593,M,1.6,0123*6D\r\n
$GPGGA,110600.30,5703.3484227,N,00952.2036141,E,2,10,0.8,-0.900,M,40.593,M,1.6,0123*65\r\n
$GPGGA,110600.35,5703.3484617,N,00952.2037019,E,2,10,0.8,-0.897,M,40.593,M,1.6,0123*65\r\n
$GPGGA,110600.40,5703.3485024,N,00952.2037882,E,2,10,0.8,-0.895,M,40.593,M,1.6,0123*68\r\n
$GPGGA,110600.45,5703.3485438,N,00952.2038752,E,2,10,0.8,-0.890,M,40.593,M,1.8,0123*62\r\n
$GPGGA,110600.50,5703.3485851,N,00952.2039617,E,2,10,0.8,-0.888,M,40.593,M,1.8,0123*6D\r\n
$GPGGA,110600.55,5703.3486273,N,00952.2040465,E,2,10,0.8,-0.886,M,40.593,M,1.8,0123*66\r\n
$GPGGA,110600.60,5703.3486691,N,00952.2041306,E,2,10,0.8,-0.886,M,40.593,M,1.8,0123*6B\r\n
$GPGGA,110600.65,5703.3487123,N,00952.2042157,E,2,10,0.8,-0.886,M,40.593,M,2.0,0123*6F\r\n
$GPGGA,110600.70,5703.3487562,N,00952.2042991,E,2,10,0.8,-0.884,M,40.593,M,2.0,0123*6A\r\n
$GPGGA,110600.75,5703.3488019,N,00952.2043811,E,2,10,0.8,-0.882,M,40.593,M,2.0,0123*67\r\n
$GPGGA,110600.80,5703.3488459,N,00952.2044636,E,2,10,0.8,-0.883,M,40.593,M,2.0,0123*60\r\n
$GPGGA,110600.85,5703.3488909,N,00952.2045448,E,2,10,0.8,-0.880,M,40.593,M,2.2,0123*66\r\n
$GPGGA,110600.90,5703.3489358,N,00952.2046273,E,2,10,0.8,-0.878,M,40.593,M,2.2,0123*67\r\n
$GPGGA,110600.95,5703.3489817,N,00952.2047082,E,2,10,0.8,-0.876,M,40.593,M,2.2,0123*61\r\n
$GPGGA,110601.00,5703.3490290,N,00952.2047876,E,2,10,0.8,-0.876,M,40.593,M,2.2,0123*62\r\n
$GPGGA,110601.05,5703.3490760,N,00952.2048680,E,2,10,0.8,-0.875,M,40.593,M,2.4,0123*60\r\n
$GPGGA,110601.10,5703.3491231,N,00952.2049480,E,2,10,0.8,-0.872,M,40.593,M,2.4,0123*60\r\n
$GPGGA,110601.15,5703.3491708,N,00952.2050269,E,2,10,0.8,-0.870,M,40.593,M,2.4,0123*61\r\n
$GPGGA,110601.20,5703.3492184,N,00952.2051046,E,2,10,0.8,-0.869,M,40.593,M,2.4,0123*60\r\n
$GPGGA,110601.25,5703.3492663,N,00952.2051822,E,2,10,0.8,-0.866,M,40.593,M,2.7,0123*6D\r\n
$GPGGA,110601.30,5703.3493134,N,00952.2052627,E,2,10,0.8,-0.864,M,40.593,M,2.7,0123*67\r\n
$GPGGA,110601.35,5703.3493619,N,00952.2053413,E,2,10,0.8,-0.860,M,40.593,M,2.7,0123*6A\r\n
$GPGGA,110601.40,5703.3494105,N,00952.2054188,E,2,10,0.8,-0.857,M,40.593,M,2.7,0123*61\r\n
$GPGGA,110601.45,5703.3494583,N,00952.2054965,E,2,10,0.8,-0.863,M,40.593,M,2.9,0123*6C\r\n
$GPGGA,110601.50,5703.3495075,N,00952.2055747,E,2,10,0.8,-0.864,M,40.593,M,2.9,0123*6D\r\n
$GPGGA,110601.55,5703.3495566,N,00952.2056526,E,2,10,0.8,-0.865,M,40.593,M,2.9,0123*68\r\n
$GPGGA,110601.60,5703.3496042,N,00952.2057312,E,2,10,0.8,-0.865,M,40.593,M,2.9,0123*6E\r\n
$GPGGA,110601.65,5703.3496535,N,00952.2058093,E,2,10,0.8,-0.868,M,40.593,M,3.1,0123*6F\r\n
$GPGGA,110601.70,5703.3497033,N,00952.2058860,E,2,10,0.8,-0.867,M,40.593,M,3.1,0123*62\r\n
$GPGGA,110601.75,5703.3497516,N,00952.2059623,E,2,10,0.8,-0.864,M,40.593,M,3.1,0123*6E\r\n
$GPGGA,110601.80,5703.3498018,N,00952.2060380,E,2,10,0.8,-0.865,M,40.593,M,3.1,0123*67\r\n
$GPGGA,110601.85,5703.3498521,N,00952.2061131,E,2,10,0.8,-0.866,M,40.593,M,3.3,0123*65\r\n
$GPGGA,110601.90,5703.3499025,N,00952.2061868,E,2,10,0.8,-0.868,M,40.593,M,3.3,0123*6A\r\n
$GPGGA,110601.95,5703.3499520,N,00952.2062608,E,2,10,0.8,-0.868,M,40.593,M,3.3,0123*64\r\n
$GPGGA,110602.00,5703.3500035,N,00952.2063328,E,2,10,0.8,-0.864,M,40.593,M,3.3,0123*61\r\n
$GPGGA,110602.05,5703.3500547,N,00952.2064036,E,2,10,0.8,-0.866,M,40.593,M,3.5,0123*6B\r\n
$GPGGA,110602.10,5703.3501064,N,00952.2064746,E,2,10,0.8,-0.865,M,40.593,M,3.5,0123*69\r\n
$GPGGA,110602.15,5703.3501586,N,00952.2065445,E,2,10,0.8,-0.864,M,40.593,M,3.5,0123*65\r\n
$GPGGA,110602.20,5703.3502101,N,00952.2066144,E,2,10,0.8,-0.863,M,40.593,M,3.5,0123*6B\r\n
$GPGGA,110602.25,5703.3502616,N,00952.2066848,E,2,10,0.8,-0.862,M,40.593,M,2.3,0123*6C\r\n
$GPGGA,110602.30,5703.3503131,N,00952.2067551,E,2,10,0.8,-0.864,M,40.593,M,2.3,0123*69\r\n
$GPGGA,110602.35,5703.3503654,N,00952.2068248,E,2,10,0.8,-0.865,M,40.593,M,2.3,0123*69\r\n
$GPGGA,110602.40,5703.3504185,N,00952.2068952,E,2,10,0.8,-0.865,M,40.593,M,2.3,0123*67\r\n
$GPGGA,110602.45,5703.3504718,N,00952.2069646,E,2,10,0.8,-0.867,M,40.593,M,2.6,0123*6C\r\n
$GPGGA,110602.50,5703.3505246,N,00952.2070352,E,2,10,0.8,-0.866,M,40.593,M,2.6,0123*6E\r\n
$GPGGA,110602.55,5703.3505783,N,00952.2071041,E,2,10,0.8,-0.867,M,40.593,M,2.6,0123*66\r\n
$GPGGA,110602.60,5703.3506320,N,00952.2071748,E,2,10,0.8,-0.868,M,40.593,M,2.6,0123*6F\r\n
$GPGGA,110602.65,5703.3506852,N,00952.2072445,E,2,10,0.8,-0.871,M,40.593,M,2.8,0123*6F\r\n
$GPGGA,110602.70,5703.3507385,N,00952.2073144,E,2,10,0.8,-0.873,M,40.593,M,2.8,0123*6C\r\n
$GPGGA,110602.75,5703.3507915,N,00952.2073832,E,2,10,0.8,-0.875,M,40.593,M,2.8,0123*64\r\n
$GPGGA,110602.80,5703.3508450,N,00952.2074511,E,2,10,0.8,-0.874,M,40.593,M,2.8,0123*67\r\n
$GPGGA,110602.85,5703.3508987,N,00952.2075186,E,2,10,0.8,-0.871,M,40.593,M,3.1,0123*63\r\n
$GPGGA,110602.90,5703.3509537,N,00952.2075841,E,2,10,0.8,-0.870,M,40.593,M,3.1,0123*62\r\n
$GPGGA,110602.95,5703.3510086,N,00952.2076504,E,2,10,0.8,-0.869,M,40.593,M,3.1,0123*67\r\n
$GPGGA,110603.00,5703.3510642,N,00952.2077175,E,2,10,0.8,-0.867,M,40.593,M,3.1,0123*69\r\n
$GPGGA,110603.05,5703.3511179,N,00952.2077840,E,2,10,0.8,-0.872,M,40.593,M,3.3,0123*6B\r\n
$GPGGA,110603.10,5703.3511733,N,00952.2078495,E,2,10,0.8,-0.872,M,40.593,M,3.3,0123*6C\r\n
$GPGGA,110603.15,5703.3512295,N,00952.2079136,E,2,10,0.8,-0.871,M,40.593,M,3.3,0123*6D\r\n
$GPGGA,110603.20,5703.3512840,N,00952.2079782,E,2,10,0.8,-0.870,M,40.593,M,3.3,0123*61\r\n
$GPGGA,110603.25,5703.3513395,N,00952.2080426,E,2,10,0.8,-0.864,M,40.593,M,2.6,0123*6C\r\n
$GPGGA,110603.30,5703.3513951,N,00952.2081073,E,2,10,0.8,-0.860,M,40.593,M,2.6,0123*6B\r\n
$GPGGA,110603.35,5703.3514505,N,00952.2081698,E,2,10,0.8,-0.859,M,40.593,M,2.6,0123*6D\r\n
$GPGGA,110603.40,5703.3515054,N,00952.2082341,E,2,10,0.8,-0.857,M,40.593,M,2.6,0123*63\r\n
$GPGGA,110603.45,5703.3515604,N,00952.2082990,E,2,10,0.8,-0.859,M,40.593,M,2.8,0123*63\r\n
$GPGGA,110603.50,5703.3516151,N,00952.2083623,E,2,10,0.8,-0.859,M,40.593,M,2.8,0123*65\r\n
$GPGGA,110603.55,5703.3516698,N,00952.2084241,E,2,10,0.8,-0.858,M,40.593,M,2.8,0123*64\r\n
$GPGGA,110603.60,5703.3517246,N,00952.2084870,E,2,10,0.8,-0.855,M,40.593,M,2.8,0123*61\r\n
$GPGGA,110603.65,5703.3517799,N,00952.2085503,E,2,10,0.8,-0.849,M,40.593,M,3.1,0123*6E\r\n
$GPGGA,110603.70,5703.3518343,N,00952.2086133,E,2,10,0.8,-0.846,M,40.593,M,3.1,0123*6D\r\n
$GPGGA,110603.75,5703.3518900,N,00952.2086756,E,2,10,0.8,-0.844,M,40.593,M,3.1,0123*62\r\n
$GPGGA,110603.80,5703.3519454,N,00952.2087378,E,2,10,0.8,-0.844,M,40.593,M,3.1,0123*6C\r\n
$GPGGA,110603.85,5703.3520003,N,00952.2087995,E,2,10,0.8,-0.846,M,40.593,M,3.3,0123*6C\r\n
$GPGGA,110603.90,5703.3520564,N,00952.2088625,E,2,10,0.8,-0.849,M,40.593,M,3.3,0123*68\r\n
$GPGGA,110603.95,5703.3521123,N,00952.2089249,E,2,10,0.8,-0.851,M,40.593,M,3.3,0123*6D\r\n
$GPGGA,110604.00,5703.3521684,N,00952.2089868,E,2,10,0.8,-0.853,M,40.593,M,3.3,0123*67\r\n
$GPGGA,110604.05,5703.3522233,N,00952.2090503,E,2,10,0.8,-0.856,M,40.593,M,3.5,0123*62\r\n
$GPGGA,110604.10,5703.3522788,N,00952.2091112,E,2,10,0.8,-0.858,M,40.593,M,3.5,0123*68\r\n
$GPGGA,110604.15,5703.3523346,N,00952.2091721,E,2,10,0.8,-0.861,M,40.593,M,3.5,0123*66\r\n
$GPGGA,110604.20,5703.3523911,N,00952.2092341,E,2,10,0.8,-0.864,M,40.593,M,3.5,0123*6C\r\n
$GPGGA,110604.25,5703.3524475,N,00952.2092949,E,2,10,0.8,-0.866,M,40.593,M,1.6,0123*60\r\n
$GPGGA,110604.30,5703.3525031,N,00952.2093545,E,2,10,0.8,-0.866,M,40.593,M,1.6,0123*60\r\n
$GPGGA,110604.35,5703.3525592,N,00952.2094135,E,2,10,0.8,-0.867,M,40.593,M,1.6,0123*6C\r\n
$GPGGA,110604.40,5703.3526147,N,00952.2094737,E,2,10,0.8,-0.866,M,40.593,M,1.6,0123*64\r\n
$GPGGA,110604.45,5703.3526710,N,00952.2095327,E,2,10,0.8,-0.868,M,40.593,M,1.8,0123*61\r\n
$GPGGA,110604.50,5703.3527277,N,00952.2095901,E,2,10,0.8,-0.870,M,40.593,M,1.8,0123*67\r\n
$GPGGA,110604.55,5703.3527841,N,00952.2096476,E,2,10,0.8,-0.871,M,40.593,M,1.8,0123*62\r\n
$GPGGA,110604.60,5703.3528415,N,00952.2097060,E,2,10,0.8,-0.872,M,40.593,M,1.8,0123*67\r\n
$GPGGA,110604.65,5703.3528985,N,00952.2097634,E,2,10,0.8,-0.868,M,40.593,M,2.0,0123*61\r\n
$GPGGA,110604.70,5703.3529550,N,00952.2098215,E,2,10,0.8,-0.871,M,40.593,M,2.0,0123*60\r\n
$GPGGA,110604.75,5703.3530120,N,00952.2098794,E,2,10,0.8,-0.873,M,40.593,M,2.0,0123*60\r\n
$GPGGA,110604.80,5703.3530679,N,00952.2099374,E,2,10,0.8,-0.875,M,40.593,M,2.0,0123*6C\r\n
$GPGGA,110604.85,5703.3531252,N,00952.2099945,E,2,10,0.8,-0.876,M,40.593,M,2.2,0123*6C\r\n
$GPGGA,110604.90,5703.3531829,N,00952.2100492,E,2,10,0.8,-0.876,M,40.593,M,2.2,0123*68\r\n
$GPGGA,110604.95,5703.3532393,N,00952.2101046,E,2,10,0.8,-0.874,M,40.593,M,2.2,0123*6A\r\n
$GPGGA,110605.00,5703.3532968,N,00952.2101586,E,2,10,0.8,-0.874,M,40.593,M,2.2,0123*60\r\n
$GPGGA,110605.05,5703.3533534,N,00952.2102135,E,2,10,0.8,-0.874,M,40.593,M,2.4,0123*68\r\n
$GPGGA,110605.10,5703.3534110,N,00952.2102681,E,2,10,0.8,-0.874,M,40.593,M,2.4,0123*61\r\n
$GPGGA,110605.15,5703.3534681,N,00952.2103228,E,2,10,0.8,-0.872,M,40.593,M,2.4,0123*6B\r\n
$GPGGA,110605.20,5703.3535265,N,00952.2103757,E,2,10,0.8,-0.870,M,40.593,M,2.4,0123*6D\r\n
$GPGGA,110605.25,5703.3535833,N,00952.2104299,E,2,10,0.8,-0.872,M,40.593,M,2.7,0123*60\r\n
$GPGGA,110605.30,5703.3536405,N,00952.2104832,E,2,10,0.8,-0.872,M,40.593,M,2.7,0123*65\r\n
$GPGGA,110605.35,5703.3536985,N,00952.2105369,E,2,10,0.8,-0.870,M,40.593,M,2.7,0123*63\r\n
$GPGGA,110605.40,5703.3537563,N,00952.2105889,E,2,10,0.8,-0.870,M,40.593,M,2.7,0123*61\r\n
$GPGGA,110605.45,5703.3538142,N,00952.2106406,E,2,10,0.8,-0.873,M,40.593,M,2.9,0123*69\r\n
$GPGGA,110605.50,5703.3538721,N,00952.2106924,E,2,10,0.8,-0.875,M,40.593,M,2.9,0123*65\r\n
$GPGGA,110605.55,5703.3539301,N,00952.2107423,E,2,10,0.8,-0.874,M,40.593,M,2.9,0123*6D\r\n
$GPGGA,110605.60,5703.3539888,N,00952.2107905,E,2,10,0.8,-0.873,M,40.593,M,2.9,0123*6F\r\n
$GPGGA,110605.65,5703.3540489,N,00952.2108375,E,2,10,0.8,-0.869,M,40.593,M,3.1,0123*69\r\n
$GPGGA,110605.70,5703.3541078,N,00952.2108850,E,2,10,0.8,-0.869,M,40.593,M,3.1,0123*6A\r\n
$GPGGA,110605.75,5703.3541670,N,00952.2109308,E,2,10,0.8,-0.869,M,40.593,M,3.1,0123*66\r\n
$GPGGA,110605.80,5703.3542271,N,00952.2109760,E,2,10,0.8,-0.870,M,40.593,M,3.1,0123*68\r\n
$GPGGA,110605.85,5703.3542862,N,00952.2110229,E,2,10,0.8,-0.871,M,40.593,M,3.3,0123*66\r\n
$GPGGA,110605.90,5703.3543464,N,00952.2110683,E,2,10,0.8,-0.873,M,40.593,M,3.3,0123*6F\r\n
$GPGGA,110605.95,5703.3544058,N,00952.2111120,E,2,10,0.8,-0.872,M,40.593,M,3.3,0123*68\r\n
$GPGGA,110606.00,5703.3544658,N,00952.2111569,E,2,10,0.8,-0.873,M,40.593,M,3.3,0123*69\r\n
$GPGGA,110606.05,5703.3545258,N,00952.2112023,E,2,10,0.8,-0.876,M,40.593,M,3.5,0123*62\r\n
$GPGGA,110606.10,5703.3545861,N,00952.2112457,E,2,10,0.8,-0.877,M,40.593,M,3.5,0123*60\r\n
$GPGGA,110606.15,5703.3546455,N,00952.2112892,E,2,10,0.8,-0.876,M,40.593,M,3.5,0123*69\r\n
$GPGGA,110606.20,5703.3547066,N,00952.2113306,E,2,10,0.8,-0.877,M,40.593,M,3.5,0123*6C\r\n
$GPGGA,110606.25,5703.3547673,N,00952.2113723,E,2,10,0.8,-0.876,M,40.593,M,2.3,0123*6E\r\n
$GPGGA,110606.30,5703.3548285,N,00952.2114142,E,2,10,0.8,-0.877,M,40.593,M,2.3,0123*6F\r\n
$GPGGA,110606.35,5703.3548889,N,00952.2114548,E,2,10,0.8,-0.877,M,40.593,M,2.3,0123*62\r\n
$GPGGA,110606.40,5703.3549501,N,00952.2114942,E,2,10,0.8,-0.876,M,40.593,M,2.3,0123*6B\r\n
$GPGGA,110606.45,5703.3550112,N,00952.2115333,E,2,10,0.8,-0.884,M,40.593,M,2.6,0123*65\r\n
$GPGGA,110606.50,5703.3550729,N,00952.2115722,E,2,10,0.8,-0.885,M,40.593,M,2.6,0123*6A\r\n
$GPGGA,110606.55,5703.3551350,N,00952.2116098,E,2,10,0.8,-0.884,M,40.593,M,2.6,0123*60\r\n
$GPGGA,110606.60,5703.3551965,N,00952.2116466,E,2,10,0.8,-0.887,M,40.593,M,2.6,0123*6C\r\n
$GPGGA,110606.65,5703.3552588,N,00952.2116816,E,2,10,0.8,-0.886,M,40.593,M,2.8,0123*61\r\n
$GPGGA,110606.70,5703.3553212,N,00952.2117165,E,2,10,0.8,-0.886,M,40.593,M,2.8,0123*6C\r\n
$GPGGA,110606.75,5703.3553842,N,00952.2117497,E,2,10,0.8,-0.884,M,40.593,M,2.8,0123*6C\r\n
$GPGGA,110606.80,5703.3554470,N,00952.2117793,E,2,10,0.8,-0.881,M,40.593,M,2.8,0123*6E\r\n
$GPGGA,110606.85,5703.3555096,N,00952.2118103,E,2,10,0.8,-0.879,M,40.593,M,3.1,0123*69\r\n
$GPGGA,110606.90,5703.3555732,N,00952.2118408,E,2,10,0.8,-0.879,M,40.593,M,3.1,0123*6A\r\n
$GPGGA,110606.95,5703.3556367,N,00952.2118711,E,2,10,0.8,-0.881,M,40.593,M,3.1,0123*64\r\n
$GPGGA,110607.00,5703.3557003,N,00952.2119016,E,2,10,0.8,-0.882,M,40.593,M,3.1,0123*6B\r\n
$GPGGA,110607.05,5703.3557634,N,00952.2119315,E,2,10,0.8,-0.884,M,40.593,M,3.3,0123*68\r\n
$GPGGA,110607.10,5703.3558280,N,00952.2119609,E,2,10,0.8,-0.886,M,40.593,M,3.3,0123*62\r\n
$GPGGA,110607.15,5703.3558926,N,00952.2119889,E,2,10,0.8,-0.887,M,40.593,M,3.3,0123*67\r\n
$GPGGA,110607.20,5703.3559574,N,00952.2120160,E,2,10,0.8,-0.890,M,40.593,M,3.3,0123*69\r\n
$GPGGA,110607.25,5703.3560224,N,00952.2120419,E,2,10,0.8,-0.891,M,40.593,M,2.6,0123*6A\r\n
$GPGGA,110607.30,5703.3560867,N,00952.2120683,E,2,10,0.8,-0.894,M,40.593,M,2.6,0123*67\r\n
$GPGGA,110607.35,5703.3561514,N,00952.2120922,E,2,10,0.8,-0.895,M,40.593,M,2.6,0123*6F\r\n
$GPGGA,110607.40,5703.3562164,N,00952.2121135,E,2,10,0.8,-0.896,M,40.593,M,2.6,0123*61\r\n
$GPGGA,110607.45,5703.3562817,N,00952.2121357,E,2,10,0.8,-0.902,M,40.593,M,2.8,0123*6D\r\n
$GPGGA,110607.50,5703.3563472,N,00952.2121570,E,2,10,0.8,-0.904,M,40.593,M,2.8,0123*62\r\n
$GPGGA,110607.55,5703.3564125,N,00952.2121752,E,2,10,0.8,-0.906,M,40.593,M,2.8,0123*67\r\n
$GPGGA,110607.60,5703.3564780,N,00952.2121932,E,2,10,0.8,-0.908,M,40.593,M,2.8,0123*6E\r\n
$GPGGA,110607.65,5703.3565447,N,00952.2122112,E,2,10,0.8,-0.903,M,40.593,M,3.1,0123*68\r\n
$GPGGA,110607.70,5703.3566111,N,00952.2122272,E,2,10,0.8,-0.903,M,40.593,M,3.1,0123*6C\r\n
$GPGGA,110607.75,5703.3566778,N,00952.2122424,E,2,10,0.8,-0.900,M,40.593,M,3.1,0123*66\r\n
$GPGGA,110607.80,5703.3567446,N,00952.2122575,E,2,10,0.8,-0.900,M,40.593,M,3.1,0123*66\r\n
