$GPGGA,101456.15,5703.4866424,N,00952.3959865,E,2,10,0.8,-1.901,M,40.593,M,1.5,0123*6C
$GPVTG,029.01,T,-610.89,M,005.260,N,009.742,K,D*0E
$GPGGA,101456.20,5703.4867037,N,00952.3960531,E,2,10,0.8,-1.902,M,40.593,M,1.5,0123*68
$GPVTG,030.30,T,-609.60,M,005.205,N,009.640,K,D*0B
$GPGGA,101456.25,5703.4867646,N,00952.3961216,E,2,10,0.8,-1.898,M,40.593,M,1.8,0123*61
$GPVTG,031.57,T,-608.33,M,005.172,N,009.578,K,D*07
$GPGGA,101456.30,5703.4868246,N,00952.3961891,E,2,10,0.8,-1.895,M,40.593,M,1.8,0123*66
$GPVTG,032.23,T,-607.67,M,005.113,N,009.470,K,D*07
$GPGGA,101456.35,5703.4868851,N,00952.3962549,E,2,10,0.8,-1.883,M,40.593,M,1.8,0123*63
$GPVTG,032.08,T,-607.82,M,005.068,N,009.386,K,D*06
$GPGGA,101456.40,5703.4869440,N,00952.3963226,E,2,10,0.8,-1.874,M,40.593,M,1.8,0123*6B
$GPVTG,032.53,T,-607.37,M,005.016,N,009.290,K,D*09
$GPGGA,101456.45,5703.4870023,N,00952.3963932,E,2,10,0.8,-1.866,M,40.593,M,2.0,0123*61
$GPVTG,033.36,T,-606.54,M,005.002,N,009.264,K,D*01
$GPGGA,101456.50,5703.4870593,N,00952.3964640,E,2,10,0.8,-1.856,M,40.593,M,2.0,0123*65
$GPVTG,034.22,T,-605.68,M,004.964,N,009.193,K,D*0C
$GPGGA,101456.55,5703.4871172,N,00952.3965352,E,2,10,0.8,-1.846,M,40.593,M,2.0,0123*6C
$GPVTG,034.59,T,-605.31,M,004.968,N,009.200,K,D*09
$GPGGA,101456.60,5703.4871774,N,00952.3966075,E,2,10,0.8,-1.837,M,40.593,M,2.0,0123*69
$GPVTG,034.47,T,-605.43,M,005.047,N,009.347,K,D*04
$GPGGA,101456.65,5703.4872378,N,00952.3966823,E,2,10,0.8,-1.828,M,40.593,M,2.2,0123*60
$GPVTG,034.70,T,-605.20,M,005.142,N,009.523,K,D*05
$GPGGA,101456.70,5703.4872977,N,00952.3967563,E,2,10,0.8,-1.820,M,40.593,M,2.2,0123*61
$GPVTG,034.65,T,-605.25,M,005.187,N,009.607,K,D*08
$GPGGA,101456.75,5703.4873569,N,00952.3968332,E,2,10,0.8,-1.818,M,40.593,M,2.2,0123*60
$GPVTG,035.23,T,-604.67,M,005.231,N,009.688,K,D*05
$GPGGA,101456.80,5703.4874172,N,00952.3969116,E,2,10,0.8,-1.820,M,40.593,M,2.2,0123*6D
$GPVTG,035.58,T,-604.32,M,005.302,N,009.819,K,D*0E
$GPGGA,101456.85,5703.4874772,N,00952.3969927,E,2,10,0.8,-1.819,M,40.593,M,2.4,0123*68
$GPVTG,036.36,T,-603.54,M,005.370,N,009.945,K,D*0F
$GPGGA,101456.90,5703.4875370,N,00952.3970762,E,2,10,0.8,-1.823,M,40.593,M,2.4,0123*65
$GPVTG,037.19,T,-602.71,M,005.434,N,010.064,K,D*00
$GPGGA,101456.95,5703.4875966,N,00952.3971629,E,2,10,0.8,-1.832,M,40.593,M,2.4,0123*62
$GPVTG,038.20,T,-601.70,M,005.502,N,010.190,K,D*09
$GPGGA,101457.00,5703.4876557,N,00952.3972521,E,2,10,0.8,-1.843,M,40.593,M,2.4,0123*6C
$GPVTG,039.28,T,-600.62,M,005.562,N,010.301,K,D*0E
$GPGGA,101457.05,5703.4877116,N,00952.3973418,E,2,10,0.8,-1.858,M,40.593,M,2.7,0123*6A
$GPVTG,040.78,T,-599.12,M,005.531,N,010.243,K,D*00
$GPGGA,101457.10,5703.4877651,N,00952.3974332,E,2,10,0.8,-1.865,M,40.593,M,2.7,0123*6C
$GPVTG,042.38,T,-597.52,M,005.446,N,010.086,K,D*06
$GPGGA,101457.15,5703.4878193,N,00952.3975250,E,2,10,0.8,-1.874,M,40.593,M,2.7,0123*6B
$GPVTG,043.25,T,-596.65,M,005.397,N,009.996,K,D*05
$GPGGA,101457.20,5703.4878718,N,00952.3976165,E,2,10,0.8,-1.879,M,40.593,M,2.7,0123*63
$GPVTG,044.06,T,-595.84,M,005.314,N,009.841,K,D*0F
$GPGGA,101457.25,5703.4879236,N,00952.3977110,E,2,10,0.8,-1.886,M,40.593,M,2.9,0123*63
$GPVTG,045.08,T,-594.82,M,005.282,N,009.782,K,D*09
$GPGGA,101457.30,5703.4879757,N,00952.3978051,E,2,10,0.8,-1.889,M,40.593,M,2.9,0123*61
$GPVTG,045.55,T,-594.35,M,005.260,N,009.741,K,D*0E
$GPGGA,101457.35,5703.4880282,N,00952.3978980,E,2,10,0.8,-1.891,M,40.593,M,2.9,0123*63
$GPVTG,045.43,T,-594.47,M,005.235,N,009.695,K,D*04
$GPGGA,101457.40,5703.4880804,N,00952.3979929,E,2,10,0.8,-1.891,M,40.593,M,2.9,0123*67
$GPVTG,045.58,T,-594.32,M,005.246,N,009.716,K,D*02
$GPGGA,101457.45,5703.4881305,N,00952.3980898,E,2,10,0.8,-1.889,M,40.593,M,3.1,0123*64
$GPVTG,046.43,T,-593.47,M,005.237,N,009.699,K,D*0E
$GPGGA,101457.50,5703.4881798,N,00952.3981878,E,2,10,0.8,-1.886,M,40.593,M,3.1,0123*60
$GPVTG,047.31,T,-592.59,M,005.234,N,009.694,K,D*0A
$GPGGA,101457.55,5703.4882289,N,00952.3982875,E,2,10,0.8,-1.883,M,40.593,M,3.1,0123*68
$GPVTG,048.10,T,-591.80,M,005.253,N,009.728,K,D*06
$GPGGA,101457.60,5703.4882767,N,00952.3983872,E,2,10,0.8,-1.881,M,40.593,M,3.1,0123*6F
$GPVTG,048.90,T,-591.00,M,005.236,N,009.697,K,D*00
$GPGGA,101457.65,5703.4883237,N,00952.3984881,E,2,10,0.8,-1.876,M,40.593,M,3.3,0123*6A
$GPVTG,049.72,T,-590.18,M,005.224,N,009.675,K,D*0A
$GPGGA,101457.70,5703.4883710,N,00952.3985896,E,2,10,0.8,-1.872,M,40.593,M,3.3,0123*6D
$GPVTG,050.17,T,-589.73,M,005.234,N,009.694,K,D*0A
$GPGGA,101457.75,5703.4884180,N,00952.3986925,E,2,10,0.8,-1.867,M,40.593,M,3.3,0123*6E
$GPVTG,050.64,T,-589.26,M,005.252,N,009.727,K,D*07
$GPGGA,101457.80,5703.4884644,N,00952.3987976,E,2,10,0.8,-1.863,M,40.593,M,3.3,0123*68
$GPVTG,051.32,T,-588.58,M,005.288,N,009.794,K,D*02
$GPGGA,101457.85,5703.4885122,N,00952.3989030,E,2,10,0.8,-1.852,M,40.593,M,3.5,0123*6A
$GPVTG,051.41,T,-588.49,M,005.344,N,009.897,K,D*0B
$GPGGA,101457.90,5703.4885589,N,00952.3990098,E,2,10,0.8,-1.851,M,40.593,M,3.5,0123*62
$GPVTG,051.72,T,-588.18,M,005.380,N,009.963,K,D*0D
$GPGGA,101457.95,5703.4886048,N,00952.3991155,E,2,10,0.8,-1.853,M,40.593,M,3.5,0123*6F
$GPVTG,051.92,T,-587.98,M,005.365,N,009.935,K,D*0C
$GPGGA,101458.00,5703.4886514,N,00952.3992229,E,2,10,0.8,-1.859,M,40.593,M,3.5,0123*61
$GPVTG,052.03,T,-587.87,M,005.387,N,009.977,K,D*03
$GPGGA,101458.05,5703.4886972,N,00952.3993301,E,2,10,0.8,-1.858,M,40.593,M,2.0,0123*67
$GPVTG,052.46,T,-587.44,M,005.396,N,009.993,K,D*07
$GPGGA,101458.10,5703.4887420,N,00952.3994410,E,2,10,0.8,-1.856,M,40.593,M,2.0,0123*66
$GPVTG,053.20,T,-586.70,M,005.427,N,010.052,K,D*01
$GPGGA,101458.15,5703.4887863,N,00952.3995512,E,2,10,0.8,-1.854,M,40.593,M,2.0,0123*68
$GPVTG,053.68,T,-586.22,M,005.421,N,010.040,K,D*0F
$GPGGA,101458.20,5703.4888280,N,00952.3996638,E,2,10,0.8,-1.851,M,40.593,M,2.0,0123*6B
$GPVTG,055.00,T,-584.90,M,005.405,N,010.010,K,D*0F
$GPGGA,101458.25,5703.4888671,N,00952.3997774,E,2,10,0.8,-1.853,M,40.593,M,2.2,0123*6C
$GPVTG,056.63,T,-583.27,M,005.356,N,009.919,K,D*0B
$GPGGA,101458.30,5703.4889038,N,00952.3998914,E,2,10,0.8,-1.850,M,40.593,M,2.2,0123*66
$GPVTG,058.53,T,-581.37,M,005.285,N,009.788,K,D*0C
$GPGGA,101458.35,5703.4889396,N,00952.4000051,E,2,10,0.8,-1.843,M,40.593,M,2.2,0123*61
$GPVTG,060.00,T,-579.90,M,005.217,N,009.662,K,D*05
$GPGGA,101458.40,5703.4889754,N,00952.4001198,E,2,10,0.8,-1.838,M,40.593,M,2.2,0123*60
$GPVTG,061.03,T,-578.87,M,005.188,N,009.608,K,D*09
$GPGGA,101458.45,5703.4890119,N,00952.4002359,E,2,10,0.8,-1.833,M,40.593,M,2.5,0123*62
$GPVTG,061.49,T,-578.41,M,005.205,N,009.640,K,D*07
$GPGGA,101458.50,5703.4890473,N,00952.4003555,E,2,10,0.8,-1.833,M,40.593,M,2.5,0123*64
$GPVTG,062.32,T,-577.58,M,005.269,N,009.758,K,D*0D
$GPGGA,101458.55,5703.4890826,N,00952.4004768,E,2,10,0.8,-1.839,M,40.593,M,2.5,0123*6C
$GPVTG,062.89,T,-577.01,M,005.342,N,009.894,K,D*06
$GPGGA,101458.60,5703.4891177,N,00952.4005993,E,2,10,0.8,-1.848,M,40.593,M,2.5,0123*6B
$GPVTG,063.31,T,-576.59,M,005.407,N,010.013,K,D*01
$GPGGA,101458.65,5703.4891530,N,00952.4007233,E,2,10,0.8,-1.865,M,40.593,M,2.7,0123*67
$GPVTG,063.47,T,-576.43,M,005.472,N,010.133,K,D*0A
$GPGGA,101458.70,5703.4891886,N,00952.4008476,E,2,10,0.8,-1.878,M,40.593,M,2.7,0123*67
$GPVTG,063.39,T,-576.51,M,005.523,N,010.229,K,D*0D
$GPGGA,101458.75,5703.4892235,N,00952.4009717,E,2,10,0.8,-1.889,M,40.593,M,2.7,0123*68
$GPVTG,063.43,T,-576.47,M,005.534,N,010.248,K,D*06
$GPGGA,101458.80,5703.4892584,N,00952.4010964,E,2,10,0.8,-1.899,M,40.593,M,2.7,0123*6C
$GPVTG,063.40,T,-576.50,M,005.545,N,010.269,K,D*06
$GPGGA,101458.85,5703.4892894,N,00952.4012191,E,2,10,0.8,-1.899,M,40.593,M,3.0,0123*63
$GPVTG,064.34,T,-575.56,M,005.455,N,010.102,K,D*09
$GPGGA,101458.90,5703.4893188,N,00952.4013370,E,2,10,0.8,-1.891,M,40.593,M,3.0,0123*66
$GPVTG,065.00,T,-574.90,M,005.273,N,009.765,K,D*09
$GPGGA,101458.95,5703.4893464,N,00952.4014550,E,2,10,0.8,-1.881,M,40.593,M,3.0,0123*66
$GPVTG,066.07,T,-573.83,M,005.127,N,009.494,K,D*07
$GPGGA,101459.00,5703.4893720,N,00952.4015740,E,2,10,0.8,-1.869,M,40.593,M,3.0,0123*6C
$GPVTG,067.60,T,-572.30,M,005.031,N,009.318,K,D*0B
$GPGGA,101459.05,5703.4893974,N,00952.4016923,E,2,10,0.8,-1.850,M,40.593,M,1.8,0123*6E
$GPVTG,068.88,T,-571.02,M,004.978,N,009.218,K,D*04
$GPGGA,101459.10,5703.4894224,N,00952.4018146,E,2,10,0.8,-1.839,M,40.593,M,1.8,0123*69
$GPVTG,069.94,T,-569.97,M,005.011,N,009.280,K,D*0B
$GPGGA,101459.15,5703.4894465,N,00952.4019374,E,2,10,0.8,-1.832,M,40.593,M,1.8,0123*66
$GPVTG,070.87,T,-569.03,M,005.044,N,009.341,K,D*00
$GPGGA,101459.20,5703.4894703,N,00952.4020630,E,2,10,0.8,-1.827,M,40.593,M,1.8,0123*68
$GPVTG,071.65,T,-568.25,M,005.125,N,009.492,K,D*07
$GPGGA,101459.25,5703.4894940,N,00952.4021885,E,2,10,0.8,-1.821,M,40.593,M,2.1,0123*69
$GPVTG,072.09,T,-567.81,M,005.177,N,009.588,K,D*02
$GPGGA,101459.30,5703.4895182,N,00952.4023156,E,2,10,0.8,-1.821,M,40.593,M,2.1,0123*6F
$GPVTG,072.13,T,-567.77,M,005.248,N,009.719,K,D*05
$GPGGA,101459.35,5703.4895426,N,00952.4024447,E,2,10,0.8,-1.825,M,40.593,M,2.1,0123*67
$GPVTG,072.09,T,-567.81,M,005.330,N,009.871,K,D*08
$GPGGA,101459.40,5703.4895688,N,00952.4025755,E,2,10,0.8,-1.831,M,40.593,M,2.1,0123*67
$GPVTG,071.47,T,-568.43,M,005.432,N,010.060,K,D*05
$GPGGA,101459.45,5703.4895946,N,00952.4027073,E,2,10,0.8,-1.834,M,40.593,M,2.3,0123*69
$GPVTG,071.18,T,-568.72,M,005.513,N,010.211,K,D*0B
$GPGGA,101459.50,5703.4896199,N,00952.4028382,E,2,10,0.8,-1.846,M,40.593,M,2.3,0123*63
$GPVTG,070.94,T,-568.96,M,005.530,N,010.242,K,D*03
$GPGGA,101459.55,5703.4896397,N,00952.4029708,E,2,10,0.8,-1.857,M,40.593,M,2.3,0123*6D
$GPVTG,072.57,T,-567.33,M,005.507,N,010.200,K,D*0C
$GPGGA,101459.60,5703.4896552,N,00952.4031033,E,2,10,0.8,-1.862,M,40.593,M,2.3,0123*64
$GPVTG,075.17,T,-564.73,M,005.443,N,010.081,K,D*02
$GPGGA,101459.65,5703.4896680,N,00952.4032330,E,2,10,0.8,-1.876,M,40.593,M,2.6,0123*6E
$GPVTG,077.64,T,-562.26,M,005.311,N,009.836,K,D*0E
$GPGGA,101459.70,5703.4896809,N,00952.4033612,E,2,10,0.8,-1.874,M,40.593,M,2.6,0123*63
$GPVTG,079.42,T,-560.48,M,005.204,N,009.637,K,D*04
$GPGGA,101459.75,5703.4896935,N,00952.4034869,E,2,10,0.8,-1.868,M,40.593,M,2.6,0123*60
$GPVTG,080.55,T,-559.35,M,005.081,N,009.411,K,D*0D
$GPGGA,101459.80,5703.4897056,N,00952.4036083,E,2,10,0.8,-1.858,M,40.593,M,2.6,0123*6A
$GPVTG,081.20,T,-558.70,M,004.916,N,009.104,K,D*09
$GPGGA,101459.85,5703.4897166,N,00952.4037289,E,2,10,0.8,-1.840,M,40.593,M,2.8,0123*63
$GPVTG,081.91,T,-557.99,M,004.797,N,008.884,K,D*0C
$GPGGA,101459.90,5703.4897247,N,00952.4038521,E,2,10,0.8,-1.829,M,40.593,M,2.8,0123*62
$GPVTG,083.37,T,-556.53,M,004.773,N,008.840,K,D*07
$GPGGA,101459.95,5703.4897343,N,00952.4039758,E,2,10,0.8,-1.822,M,40.593,M,2.8,0123*64
$GPVTG,083.69,T,-556.21,M,004.792,N,008.875,K,D*00
$GPGGA,101500.00,5703.4897444,N,00952.4041041,E,2,10,0.8,-1.819,M,40.593,M,2.8,0123*6D
$GPVTG,083.64,T,-556.26,M,004.913,N,009.099,K,D*06
$GPGGA,101500.05,5703.4897548,N,00952.4042340,E,2,10,0.8,-1.815,M,40.593,M,1.5,0123*66
$GPVTG,083.53,T,-556.37,M,005.059,N,009.369,K,D*08
$GPGGA,101500.10,5703.4897640,N,00952.4043655,E,2,10,0.8,-1.816,M,40.593,M,1.5,0123*6A
$GPVTG,083.64,T,-556.26,M,005.163,N,009.562,K,D*09
$GPGGA,101500.15,5703.4897736,N,00952.4044963,E,2,10,0.8,-1.818,M,40.593,M,1.5,0123*6C
$GPVTG,083.43,T,-556.47,M,005.213,N,009.654,K,D*09
$GPGGA,101500.20,5703.4897820,N,00952.4046272,E,2,10,0.8,-1.826,M,40.593,M,1.5,0123*66
$GPVTG,083.60,T,-556.30,M,005.233,N,009.691,K,D*03
$GPGGA,101500.25,5703.4897885,N,00952.4047614,E,2,10,0.8,-1.834,M,40.593,M,1.8,0123*67
$GPVTG,084.46,T,-555.44,M,005.304,N,009.824,K,D*05
$GPGGA,101500.30,5703.4897962,N,00952.4048982,E,2,10,0.8,-1.848,M,40.593,M,1.8,0123*6F
$GPVTG,084.60,T,-555.30,M,005.395,N,009.991,K,D*05
$GPGGA,101500.35,5703.4898030,N,00952.4050331,E,2,10,0.8,-1.862,M,40.593,M,1.8,0123*68
$GPVTG,084.91,T,-554.99,M,005.404,N,010.008,K,D*07
$GPGGA,101500.40,5703.4898074,N,00952.4051668,E,2,10,0.8,-1.875,M,40.593,M,1.8,0123*64
$GPVTG,085.85,T,-554.05,M,005.367,N,009.940,K,D*09
$GPGGA,101500.45,5703.4898073,N,00952.4052972,E,2,10,0.8,-1.897,M,40.593,M,2.0,0123*66
$GPVTG,087.94,T,-551.96,M,005.247,N,009.717,K,D*0B
$GPGGA,101500.50,5703.4898072,N,00952.4054262,E,2,10,0.8,-1.905,M,40.593,M,2.0,0123*65
$GPVTG,089.51,T,-550.39,M,005.148,N,009.535,K,D*06
$GPGGA,101500.55,5703.4898083,N,00952.4055540,E,2,10,0.8,-1.907,M,40.593,M,2.0,0123*6A
$GPVTG,090.16,T,-549.74,M,005.062,N,009.375,K,D*07
$GPGGA,101500.60,5703.4898079,N,00952.4056797,E,2,10,0.8,-1.906,M,40.593,M,2.0,0123*63
$GPVTG,090.98,T,-548.92,M,004.966,N,009.197,K,D*0A
$GPGGA,101500.65,5703.4898041,N,00952.4058033,E,2,10,0.8,-1.897,M,40.593,M,2.2,0123*61
$GPVTG,092.43,T,-547.47,M,004.888,N,009.053,K,D*01
$GPGGA,101500.70,5703.4897999,N,00952.4059256,E,2,10,0.8,-1.892,M,40.593,M,2.2,0123*63
$GPVTG,093.78,T,-546.12,M,004.807,N,008.902,K,D*02
$GPGGA,101500.75,5703.4897957,N,00952.4060442,E,2,10,0.8,-1.881,M,40.593,M,2.2,0123*6F
$GPVTG,094.73,T,-545.17,M,004.693,N,008.691,K,D*0E
$GPGGA,101500.80,5703.4897889,N,00952.4061587,E,2,10,0.8,-1.864,M,40.593,M,2.2,0123*65
$GPVTG,096.28,T,-543.62,M,004.553,N,008.432,K,D*02
$GPGGA,101500.85,5703.4897798,N,00952.4062724,E,2,10,0.8,-1.843,M,40.593,M,2.4,0123*64
$GPVTG,097.99,T,-541.91,M,004.480,N,008.296,K,D*00
$GPGGA,101500.90,5703.4897718,N,00952.4063886,E,2,10,0.8,-1.823,M,40.593,M,2.4,0123*68
$GPVTG,098.69,T,-541.21,M,004.488,N,008.311,K,D*0D
$GPGGA,101500.95,5703.4897640,N,00952.4065051,E,2,10,0.8,-1.806,M,40.593,M,2.4,0123*62
$GPVTG,098.89,T,-541.01,M,004.513,N,008.358,K,D*0F
$GPGGA,101501.00,5703.4897562,N,00952.4066247,E,2,10,0.8,-1.796,M,40.593,M,2.4,0123*6C
$GPVTG,098.68,T,-541.22,M,004.607,N,008.532,K,D*0D
$GPGGA,101501.05,5703.4897505,N,00952.4067461,E,2,10,0.8,-1.782,M,40.593,M,2.7,0123*6D
$GPVTG,097.68,T,-542.22,M,004.730,N,008.760,K,D*01
$GPGGA,101501.10,5703.4897433,N,00952.4068701,E,2,10,0.8,-1.782,M,40.593,M,2.7,0123*67
$GPVTG,097.22,T,-542.68,M,004.845,N,008.972,K,D*01
$GPGGA,101501.15,5703.4897351,N,00952.4069974,E,2,10,0.8,-1.786,M,40.593,M,2.7,0123*68
$GPVTG,097.09,T,-542.81,M,004.986,N,009.234,K,D*09
$GPGGA,101501.20,5703.4897271,N,00952.4071269,E,2,10,0.8,-1.790,M,40.593,M,2.7,0123*64
$GPVTG,096.86,T,-543.04,M,005.115,N,009.474,K,D*02
$GPGGA,101501.25,5703.4897179,N,00952.4072562,E,2,10,0.8,-1.810,M,40.593,M,2.9,0123*6C
$GPVTG,097.08,T,-542.82,M,005.179,N,009.592,K,D*09
$GPGGA,101501.30,5703.4897073,N,00952.4073856,E,2,10,0.8,-1.829,M,40.593,M,2.9,0123*62
$GPVTG,097.78,T,-542.12,M,005.221,N,009.669,K,D*0E
$GPGGA,101501.35,5703.4896970,N,00952.4075163,E,2,10,0.8,-1.846,M,40.593,M,2.9,0123*6C
$GPVTG,098.15,T,-541.75,M,005.257,N,009.737,K,D*03
$GPGGA,101501.40,5703.4896846,N,00952.4076466,E,2,10,0.8,-1.866,M,40.593,M,2.9,0123*6B
$GPVTG,099.10,T,-540.80,M,005.272,N,009.764,K,D*0D
$GPGGA,101501.45,5703.4896704,N,00952.4077715,E,2,10,0.8,-1.884,M,40.593,M,3.1,0123*64
$GPVTG,100.58,T,-539.32,M,005.172,N,009.579,K,D*0A
$GPGGA,101501.50,5703.4896551,N,00952.4078924,E,2,10,0.8,-1.900,M,40.593,M,3.1,0123*6C
$GPVTG,102.24,T,-537.66,M,005.025,N,009.307,K,D*00
$GPGGA,101501.55,5703.4896379,N,00952.4080110,E,2,10,0.8,-1.911,M,40.593,M,3.1,0123*6D
$GPVTG,104.15,T,-535.75,M,004.896,N,009.067,K,D*00
$GPGGA,101501.60,5703.4896184,N,00952.4081262,E,2,10,0.8,-1.915,M,40.593,M,3.1,0123*68
$GPVTG,106.51,T,-533.39,M,004.773,N,008.839,K,D*0A
$GPGGA,101501.65,5703.4895976,N,00952.4082366,E,2,10,0.8,-1.917,M,40.593,M,3.3,0123*6D
$GPVTG,108.90,T,-531.00,M,004.625,N,008.566,K,D*04
$GPGGA,101501.70,5703.4895761,N,00952.4083425,E,2,10,0.8,-1.914,M,40.593,M,3.3,0123*63
$GPVTG,111.09,T,-528.81,M,004.470,N,008.279,K,D*06
$GPGGA,101501.75,5703.4895545,N,00952.4084449,E,2,10,0.8,-1.901,M,40.593,M,3.3,0123*6B
$GPVTG,112.74,T,-527.16,M,004.323,N,008.007,K,D*04
$GPGGA,101501.80,5703.4895320,N,00952.4085447,E,2,10,0.8,-1.886,M,40.593,M,3.3,0123*65
$GPVTG,114.23,T,-525.67,M,004.209,N,007.795,K,D*0E
$GPGGA,101501.85,5703.4895086,N,00952.4086447,E,2,10,0.8,-1.873,M,40.593,M,3.5,0123*60
$GPVTG,115.27,T,-524.63,M,004.166,N,007.715,K,D*0C
$GPGGA,101501.90,5703.4894834,N,00952.4087407,E,2,10,0.8,-1.858,M,40.593,M,3.5,0123*68
$GPVTG,116.87,T,-523.03,M,004.117,N,007.624,K,D*01
$GPGGA,101501.95,5703.4894566,N,00952.4088358,E,2,10,0.8,-1.840,M,40.593,M,3.5,0123*6C
$GPVTG,118.40,T,-521.50,M,004.113,N,007.617,K,D*04
$GPGGA,101502.00,5703.4894286,N,00952.4089305,E,2,10,0.8,-1.825,M,40.593,M,3.5,0123*60
$GPVTG,119.69,T,-520.21,M,004.140,N,007.667,K,D*08
$GPGGA,101502.05,5703.4894032,N,00952.4090272,E,2,10,0.8,-1.798,M,40.593,M,2.0,0123*6C
$GPVTG,119.01,T,-520.89,M,004.196,N,007.771,K,D*09
$GPGGA,101502.10,5703.4893775,N,00952.4091255,E,2,10,0.8,-1.785,M,40.593,M,2.0,0123*63
$GPVTG,118.18,T,-521.72,M,004.246,N,007.864,K,D*00
$GPGGA,101502.15,5703.4893523,N,00952.4092277,E,2,10,0.8,-1.781,M,40.593,M,2.0,0123*60
$GPVTG,116.78,T,-523.12,M,004.343,N,008.043,K,D*0A
$GPGGA,101502.20,5703.4893244,N,00952.4093330,E,2,10,0.8,-1.783,M,40.593,M,2.0,0123*61
$GPVTG,116.39,T,-523.51,M,004.504,N,008.342,K,D*0F
$GPGGA,101502.25,5703.4892968,N,00952.4094377,E,2,10,0.8,-1.780,M,40.593,M,2.2,0123*65
$GPVTG,116.10,T,-523.80,M,004.597,N,008.514,K,D*07
$GPGGA,101502.30,5703.4892695,N,00952.4095456,E,2,10,0.8,-1.784,M,40.593,M,2.2,0123*6D
$GPVTG,115.46,T,-524.44,M,004.694,N,008.693,K,D*04
$GPGGA,101502.35,5703.4892395,N,00952.4096533,E,2,10,0.8,-1.797,M,40.593,M,2.2,0123*6E
$GPVTG,116.05,T,-523.85,M,004.779,N,008.851,K,D*08
$GPGGA,101502.40,5703.4892094,N,00952.4097601,E,2,10,0.8,-1.815,M,40.593,M,2.2,0123*68
$GPVTG,116.68,T,-523.22,M,004.810,N,008.907,K,D*0C
$GPGGA,101502.45,5703.4891779,N,00952.4098648,E,2,10,0.8,-1.838,M,40.593,M,2.5,0123*60
$GPVTG,117.80,T,-522.10,M,004.796,N,008.882,K,D*06
$GPGGA,101502.50,5703.4891456,N,00952.4099668,E,2,10,0.8,-1.856,M,40.593,M,2.5,0123*61
$GPVTG,119.24,T,-520.66,M,004.742,N,008.783,K,D*02
$GPGGA,101502.55,5703.4891129,N,00952.4100619,E,2,10,0.8,-1.870,M,40.593,M,2.5,0123*6A
$GPVTG,121.23,T,-518.67,M,004.588,N,008.496,K,D*07
$GPGGA,101502.60,5703.4890788,N,00952.4101490,E,2,10,0.8,-1.879,M,40.593,M,2.5,0123*6B
$GPVTG,124.23,T,-515.67,M,004.370,N,008.093,K,D*0F
$GPGGA,101502.65,5703.4890440,N,00952.4102311,E,2,10,0.8,-1.891,M,40.593,M,2.7,0123*60
$GPVTG,127.32,T,-512.58,M,004.161,N,007.706,K,D*01
$GPGGA,101502.70,5703.4890099,N,00952.4103127,E,2,10,0.8,-1.887,M,40.593,M,2.7,0123*65
$GPVTG,129.09,T,-510.81,M,004.032,N,007.468,K,D*0D
$GPGGA,101502.75,5703.4889764,N,00952.4103930,E,2,10,0.8,-1.881,M,40.593,M,2.7,0123*65
$GPVTG,129.98,T,-509.92,M,003.937,N,007.291,K,D*04
$GPGGA,101502.80,5703.4889419,N,00952.4104690,E,2,10,0.8,-1.874,M,40.593,M,2.7,0123*6E
$GPVTG,131.41,T,-508.49,M,003.845,N,007.121,K,D*02
$GPGGA,101502.85,5703.4889082,N,00952.4105454,E,2,10,0.8,-1.858,M,40.593,M,3.0,0123*6E
$GPVTG,131.59,T,-508.31,M,003.802,N,007.042,K,D*03
$GPGGA,101502.90,5703.4888729,N,00952.4106231,E,2,10,0.8,-1.850,M,40.593,M,3.0,0123*63
$GPVTG,131.68,T,-508.22,M,003.836,N,007.105,K,D*06
$GPGGA,101502.95,5703.4888376,N,00952.4106993,E,2,10,0.8,-1.841,M,40.593,M,3.0,0123*6B
$GPVTG,131.81,T,-508.09,M,003.851,N,007.132,K,D*0D
$GPGGA,101503.00,5703.4888030,N,00952.4107755,E,2,10,0.8,-1.833,M,40.593,M,3.0,0123*67
$GPVTG,131.42,T,-508.48,M,003.856,N,007.142,K,D*07
$GPGGA,101503.05,5703.4887666,N,00952.4108513,E,2,10,0.8,-1.827,M,40.593,M,1.8,0123*68
$GPVTG,131.71,T,-508.19,M,003.911,N,007.243,K,D*03
$GPGGA,101503.10,5703.4887282,N,00952.4109311,E,2,10,0.8,-1.824,M,40.593,M,1.8,0123*64
$GPVTG,131.76,T,-508.14,M,004.044,N,007.489,K,D*07
$GPGGA,101503.15,5703.4886896,N,00952.4110135,E,2,10,0.8,-1.826,M,40.593,M,1.8,0123*61
$GPVTG,131.34,T,-508.56,M,004.184,N,007.748,K,D*04
$GPGGA,101503.20,5703.4886511,N,00952.4110976,E,2,10,0.8,-1.833,M,40.593,M,1.8,0123*6E
$GPVTG,130.73,T,-509.17,M,004.299,N,007.962,K,D*0B
$GPGGA,101503.25,5703.4886123,N,00952.4111812,E,2,10,0.8,-1.836,M,40.593,M,2.1,0123*63
$GPVTG,130.50,T,-509.40,M,004.364,N,008.083,K,D*02
$GPGGA,101503.30,5703.4885720,N,00952.4112658,E,2,10,0.8,-1.842,M,40.593,M,2.1,0123*61
$GPVTG,130.76,T,-509.14,M,004.443,N,008.228,K,D*06
$GPGGA,101503.35,5703.4885307,N,00952.4113491,E,2,10,0.8,-1.849,M,40.593,M,2.1,0123*68
$GPVTG,131.50,T,-508.40,M,004.483,N,008.303,K,D*07
$GPGGA,101503.40,5703.4884884,N,00952.4114255,E,2,10,0.8,-1.862,M,40.593,M,2.1,0123*6B
$GPVTG,133.58,T,-506.32,M,004.419,N,008.185,K,D*09
$GPGGA,101503.45,5703.4884442,N,00952.4114977,E,2,10,0.8,-1.879,M,40.593,M,2.3,0123*6B
$GPVTG,136.41,T,-503.49,M,004.353,N,008.063,K,D*0D
$GPGGA,101503.50,5703.4883984,N,00952.4115669,E,2,10,0.8,-1.893,M,40.593,M,2.3,0123*6A
$GPVTG,139.35,T,-500.55,M,004.314,N,007.989,K,D*0E
$GPGGA,101503.55,5703.4883550,N,00952.4116350,E,2,10,0.8,-1.905,M,40.593,M,2.3,0123*68
$GPVTG,140.79,T,-499.11,M,004.224,N,007.823,K,D*0A
$GPGGA,101503.60,5703.4883102,N,00952.4117019,E,2,10,0.8,-1.911,M,40.593,M,2.3,0123*67
$GPVTG,142.11,T,-497.79,M,004.185,N,007.751,K,D*04
$GPGGA,101503.65,5703.4882652,N,00952.4117674,E,2,10,0.8,-1.918,M,40.593,M,2.6,0123*60
$GPVTG,143.08,T,-496.82,M,004.152,N,007.690,K,D*0E
$GPGGA,101503.70,5703.4882205,N,00952.4118288,E,2,10,0.8,-1.918,M,40.593,M,2.6,0123*6A
$GPVTG,144.29,T,-495.61,M,004.081,N,007.557,K,D*03
$GPGGA,101503.75,5703.4881752,N,00952.4118857,E,2,10,0.8,-1.915,M,40.593,M,2.6,0123*6E
$GPVTG,146.14,T,-493.76,M,004.001,N,007.410,K,D*05
$GPGGA,101503.80,5703.4881285,N,00952.4119396,E,2,10,0.8,-1.910,M,40.593,M,2.6,0123*69
$GPVTG,148.17,T,-491.73,M,003.960,N,007.335,K,D*06
$GPGGA,101503.85,5703.4880818,N,00952.4119901,E,2,10,0.8,-1.898,M,40.593,M,2.8,0123*68
$GPVTG,150.11,T,-489.79,M,003.907,N,007.235,K,D*0A
$GPGGA,101503.90,5703.4880359,N,00952.4120424,E,2,10,0.8,-1.889,M,40.593,M,2.8,0123*62
$GPVTG,150.53,T,-489.37,M,003.884,N,007.193,K,D*03
$GPGGA,101503.95,5703.4879896,N,00952.4120947,E,2,10,0.8,-1.883,M,40.593,M,2.8,0123*6B
$GPVTG,150.50,T,-489.40,M,003.884,N,007.193,K,D*00
$GPGGA,101504.00,5703.4879419,N,00952.4121458,E,2,10,0.8,-1.872,M,40.593,M,2.8,0123*67
$GPVTG,150.86,T,-489.04,M,003.915,N,007.251,K,D*0F
$GPGGA,101504.05,5703.4878944,N,00952.4121922,E,2,10,0.8,-1.849,M,40.593,M,1.5,0123*60
$GPVTG,151.87,T,-488.03,M,003.911,N,007.244,K,D*09
$GPGGA,101504.10,5703.4878468,N,00952.4122373,E,2,10,0.8,-1.835,M,40.593,M,1.5,0123*61
$GPVTG,153.01,T,-486.89,M,003.884,N,007.192,K,D*0C
$GPGGA,101504.15,5703.4877988,N,00952.4122811,E,2,10,0.8,-1.825,M,40.593,M,1.5,0123*66
$GPVTG,154.04,T,-485.86,M,003.870,N,007.167,K,D*03
$GPGGA,101504.20,5703.4877505,N,00952.4123266,E,2,10,0.8,-1.820,M,40.593,M,1.5,0123*67
$GPVTG,154.15,T,-485.75,M,003.886,N,007.198,K,D*06
$GPGGA,101504.25,5703.4877018,N,00952.4123719,E,2,10,0.8,-1.814,M,40.593,M,1.8,0123*6C
$GPVTG,154.20,T,-485.70,M,003.914,N,007.248,K,D*01
$GPGGA,101504.30,5703.4876525,N,00952.4124165,E,2,10,0.8,-1.810,M,40.593,M,1.8,0123*6C
$GPVTG,154.37,T,-485.53,M,003.942,N,007.301,K,D*09
$GPGGA,101504.35,5703.4876022,N,00952.4124600,E,2,10,0.8,-1.807,M,40.593,M,1.8,0123*69
$GPVTG,154.86,T,-485.04,M,003.980,N,007.372,K,D*0B
$GPGGA,101504.40,5703.4875500,N,00952.4125024,E,2,10,0.8,-1.808,M,40.593,M,1.8,0123*63
$GPVTG,155.83,T,-484.07,M,004.055,N,007.510,K,D*09
$GPGGA,101504.45,5703.4874975,N,00952.4125447,E,2,10,0.8,-1.814,M,40.593,M,2.0,0123*6E
$GPVTG,156.46,T,-483.44,M,004.113,N,007.617,K,D*04
$GPGGA,101504.50,5703.4874460,N,00952.4125825,E,2,10,0.8,-1.822,M,40.593,M,2.0,0123*6E
$GPVTG,157.82,T,-482.08,M,004.088,N,007.571,K,D*04
$GPGGA,101504.55,5703.4873945,N,00952.4126154,E,2,10,0.8,-1.826,M,40.593,M,2.0,0123*6E
$GPVTG,159.98,T,-479.92,M,004.030,N,007.464,K,D*00
$GPGGA,101504.60,5703.4873442,N,00952.4126440,E,2,10,0.8,-1.830,M,40.593,M,2.0,0123*65
$GPVTG,162.34,T,-477.56,M,003.928,N,007.274,K,D*08
$GPGGA,101504.65,5703.4872938,N,00952.4126703,E,2,10,0.8,-1.841,M,40.593,M,2.2,0123*61
$GPVTG,164.50,T,-475.40,M,003.844,N,007.119,K,D*0A
$GPGGA,101504.70,5703.4872433,N,00952.4126960,E,2,10,0.8,-1.844,M,40.593,M,2.2,0123*6D
$GPVTG,165.83,T,-474.07,M,003.797,N,007.031,K,D*0D
$GPGGA,101504.75,5703.4871925,N,00952.4127205,E,2,10,0.8,-1.844,M,40.593,M,2.2,0123*68
$GPVTG,166.77,T,-473.13,M,003.774,N,006.989,K,D*01
$GPGGA,101504.80,5703.4871426,N,00952.4127418,E,2,10,0.8,-1.843,M,40.593,M,2.2,0123*61
$GPVTG,167.96,T,-471.94,M,003.722,N,006.893,K,D*0B
$GPGGA,101504.85,5703.4870939,N,00952.4127612,E,2,10,0.8,-1.838,M,40.593,M,2.4,0123*64
$GPVTG,168.90,T,-471.00,M,003.646,N,006.752,K,D*0E
$GPGGA,101504.90,5703.4870444,N,00952.4127797,E,2,10,0.8,-1.837,M,40.593,M,2.4,0123*64
$GPVTG,169.68,T,-470.22,M,003.615,N,006.695,K,D*05
$GPGGA,101504.95,5703.4869945,N,00952.4127988,E,2,10,0.8,-1.833,M,40.593,M,2.4,0123*61
$GPVTG,169.78,T,-470.12,M,003.617,N,006.699,K,D*09
$GPGGA,101505.00,5703.4869448,N,00952.4128174,E,2,10,0.8,-1.828,M,40.593,M,2.4,0123*62
$GPVTG,169.76,T,-470.14,M,003.618,N,006.700,K,D*0F
$GPGGA,101505.05,5703.4868955,N,00952.4128331,E,2,10,0.8,-1.827,M,40.593,M,2.7,0123*68
$GPVTG,170.28,T,-469.62,M,003.609,N,006.683,K,D*0F
$GPGGA,101505.10,5703.4868464,N,00952.4128451,E,2,10,0.8,-1.823,M,40.593,M,2.7,0123*66
$GPVTG,171.92,T,-467.98,M,003.578,N,006.627,K,D*0F
$GPGGA,101505.15,5703.4867982,N,00952.4128571,E,2,10,0.8,-1.819,M,40.593,M,2.7,0123*63
$GPVTG,172.78,T,-467.12,M,003.533,N,006.543,K,D*04
$GPGGA,101505.20,5703.4867499,N,00952.4128676,E,2,10,0.8,-1.816,M,40.593,M,2.7,0123*69
$GPVTG,173.69,T,-466.21,M,003.503,N,006.487,K,D*0E
$GPGGA,101505.25,5703.4867017,N,00952.4128752,E,2,10,0.8,-1.815,M,40.593,M,2.9,0123*64
$GPVTG,175.21,T,-464.69,M,003.488,N,006.461,K,D*00
$GPGGA,101505.30,5703.4866533,N,00952.4128790,E,2,10,0.8,-1.812,M,40.593,M,2.9,0123*6B
$GPVTG,177.21,T,-462.69,M,003.473,N,006.432,K,D*06
$GPGGA,101505.35,5703.4866049,N,00952.4128814,E,2,10,0.8,-1.807,M,40.593,M,2.9,0123*61
$GPVTG,178.86,T,-461.04,M,003.470,N,006.426,K,D*0A
$GPGGA,101505.40,5703.4865578,N,00952.4128807,E,2,10,0.8,-1.802,M,40.593,M,2.9,0123*60
$GPVTG,180.74,T,-459.16,M,003.430,N,006.352,K,D*08
$GPGGA,101505.45,5703.4865107,N,00952.4128799,E,2,10,0.8,-1.800,M,40.593,M,3.1,0123*6A
$GPVTG,181.80,T,-458.10,M,003.414,N,006.322,K,D*04
$GPGGA,101505.50,5703.4864632,N,00952.4128775,E,2,10,0.8,-1.802,M,40.593,M,3.1,0123*6E
$GPVTG,182.71,T,-457.19,M,003.412,N,006.318,K,D*00
$GPGGA,101505.55,5703.4864150,N,00952.4128722,E,2,10,0.8,-1.805,M,40.593,M,3.1,0123*6D
$GPVTG,184.07,T,-455.83,M,003.434,N,006.360,K,D*0D
$GPGGA,101505.60,5703.4863673,N,00952.4128659,E,2,10,0.8,-1.808,M,40.593,M,3.1,0123*6A
$GPVTG,185.06,T,-454.84,M,003.443,N,006.377,K,D*0D
$GPGGA,101505.65,5703.4863188,N,00952.4128598,E,2,10,0.8,-1.814,M,40.593,M,3.3,0123*6D
$GPVTG,185.41,T,-454.49,M,003.470,N,006.427,K,D*0D
$GPGGA,101505.70,5703.4862725,N,00952.4128530,E,2,10,0.8,-1.820,M,40.593,M,3.3,0123*6C
$GPVTG,185.73,T,-454.17,M,003.420,N,006.333,K,D*00
$GPGGA,101505.75,5703.4862272,N,00952.4128431,E,2,10,0.8,-1.824,M,40.593,M,3.3,0123*6A
$GPVTG,186.86,T,-453.04,M,003.361,N,006.225,K,D*08
$GPGGA,101505.80,5703.4861823,N,00952.4128303,E,2,10,0.8,-1.827,M,40.593,M,3.3,0123*68
$GPVTG,188.56,T,-451.34,M,003.313,N,006.136,K,D*0E
$GPGGA,101505.85,5703.4861373,N,00952.4128160,E,2,10,0.8,-1.834,M,40.593,M,3.5,0123*60
$GPVTG,190.11,T,-449.79,M,003.290,N,006.094,K,D*07
$GPGGA,101505.90,5703.4860927,N,00952.4127995,E,2,10,0.8,-1.839,M,40.593,M,3.5,0123*6E
$GPVTG,191.69,T,-448.21,M,003.275,N,006.065,K,D*00
$GPGGA,101505.95,5703.4860490,N,00952.4127823,E,2,10,0.8,-1.843,M,40.593,M,3.5,0123*6B
$GPVTG,192.91,T,-446.99,M,003.239,N,005.998,K,D*09
$GPGGA,101506.00,5703.4860055,N,00952.4127632,E,2,10,0.8,-1.845,M,40.593,M,3.5,0123*61
$GPVTG,194.18,T,-445.72,M,003.219,N,005.961,K,D*0C
$GPGGA,101506.05,5703.4859622,N,00952.4127430,E,2,10,0.8,-1.848,M,40.593,M,2.0,0123*61
$GPVTG,194.83,T,-445.07,M,003.204,N,005.933,K,D*07
$GPGGA,101506.10,5703.4859192,N,00952.4127226,E,2,10,0.8,-1.849,M,40.593,M,2.0,0123*69
$GPVTG,195.52,T,-444.38,M,003.191,N,005.910,K,D*09
$GPGGA,101506.15,5703.4858770,N,00952.4127020,E,2,10,0.8,-1.851,M,40.593,M,2.0,0123*6A
$GPVTG,195.97,T,-443.93,M,003.158,N,005.849,K,D*0E
$GPGGA,101506.20,5703.4858340,N,00952.4126817,E,2,10,0.8,-1.853,M,40.593,M,2.0,0123*64
$GPVTG,195.82,T,-444.08,M,003.160,N,005.852,K,D*0E
$GPGGA,101506.25,5703.4857916,N,00952.4126595,E,2,10,0.8,-1.854,M,40.593,M,2.2,0123*65
$GPVTG,196.37,T,-443.53,M,003.160,N,005.852,K,D*0A
$GPGGA,101506.30,5703.4857491,N,00952.4126362,E,2,10,0.8,-1.857,M,40.593,M,2.2,0123*6E
$GPVTG,196.96,T,-442.94,M,003.168,N,005.867,K,D*05
$GPGGA,101506.35,5703.4857063,N,00952.4126098,E,2,10,0.8,-1.859,M,40.593,M,2.2,0123*6A
$GPVTG,198.32,T,-441.58,M,003.205,N,005.936,K,D*0B
$GPGGA,101506.40,5703.4856645,N,00952.4125807,E,2,10,0.8,-1.860,M,40.593,M,2.2,0123*6C
$GPVTG,200.23,T,-439.67,M,003.222,N,005.966,K,D*0A
$GPGGA,101506.45,5703.4856225,N,00952.4125491,E,2,10,0.8,-1.862,M,40.593,M,2.5,0123*6D
$GPVTG,202.11,T,-437.79,M,003.254,N,006.026,K,D*07
$GPGGA,101506.50,5703.4855814,N,00952.4125149,E,2,10,0.8,-1.868,M,40.593,M,2.5,0123*68
$GPVTG,204.23,T,-435.67,M,003.272,N,006.060,K,D*0B
$GPGGA,101506.55,5703.4855391,N,00952.4124830,E,2,10,0.8,-1.875,M,40.593,M,2.5,0123*61
$GPVTG,204.33,T,-435.57,M,003.297,N,006.106,K,D*03
$GPGGA,101506.60,5703.4854968,N,00952.4124510,E,2,10,0.8,-1.878,M,40.593,M,2.5,0123*68
$GPVTG,204.16,T,-435.74,M,003.308,N,006.126,K,D*00
$GPGGA,101506.65,5703.4854546,N,00952.4124157,E,2,10,0.8,-1.885,M,40.593,M,2.7,0123*6A
$GPVTG,204.94,T,-434.96,M,003.338,N,006.182,K,D*0A
$GPGGA,101506.70,5703.4854146,N,00952.4123782,E,2,10,0.8,-1.887,M,40.593,M,2.7,0123*61
$GPVTG,206.56,T,-433.34,M,003.313,N,006.135,K,D*0C
$GPGGA,101506.75,5703.4853759,N,00952.4123383,E,2,10,0.8,-1.886,M,40.593,M,2.7,0123*6F
$GPVTG,208.60,T,-431.30,M,003.275,N,006.066,K,D*07
$GPGGA,101506.80,5703.4853377,N,00952.4122967,E,2,10,0.8,-1.886,M,40.593,M,2.7,0123*6C
$GPVTG,210.53,T,-429.37,M,003.250,N,006.018,K,D*0E
$GPGGA,101506.85,5703.4852998,N,00952.4122534,E,2,10,0.8,-1.885,M,40.593,M,3.0,0123*6C
$GPVTG,212.17,T,-427.73,M,003.243,N,006.005,K,D*0C
$GPGGA,101506.90,5703.4852611,N,00952.4122090,E,2,10,0.8,-1.883,M,40.593,M,3.0,0123*6B
$GPVTG,213.23,T,-426.67,M,003.266,N,006.048,K,D*00
$GPGGA,101506.95,5703.4852240,N,00952.4121639,E,2,10,0.8,-1.881,M,40.593,M,3.0,0123*6A
$GPVTG,214.32,T,-425.58,M,003.245,N,006.010,K,D*04
$GPGGA,101507.00,5703.4851877,N,00952.4121159,E,2,10,0.8,-1.879,M,40.593,M,3.0,0123*6C
$GPVTG,216.01,T,-423.89,M,003.243,N,006.005,K,D*0E
$GPGGA,101507.05,5703.4851512,N,00952.4120649,E,2,10,0.8,-1.874,M,40.593,M,1.8,0123*67
$GPVTG,217.39,T,-422.51,M,003.268,N,006.052,K,D*0B
$GPGGA,101507.10,5703.4851148,N,00952.4120154,E,2,10,0.8,-1.870,M,40.593,M,1.8,0123*67
$GPVTG,217.98,T,-421.92,M,003.274,N,006.063,K,D*03
$GPGGA,101507.15,5703.4850787,N,00952.4119625,E,2,10,0.8,-1.865,M,40.593,M,1.8,0123*69
$GPVTG,219.22,T,-420.68,M,003.308,N,006.127,K,D*03
$GPGGA,101507.20,5703.4850447,N,00952.4119090,E,2,10,0.8,-1.861,M,40.593,M,1.8,0123*6C
$GPVTG,220.77,T,-419.13,M,003.286,N,006.086,K,D*02
$GPGGA,101507.25,5703.4850122,N,00952.4118544,E,2,10,0.8,-1.857,M,40.593,M,2.1,0123*6D
$GPVTG,222.45,T,-417.45,M,003.245,N,006.010,K,D*0C
$GPGGA,101507.30,5703.4849787,N,00952.4117980,E,2,10,0.8,-1.853,M,40.593,M,2.1,0123*67
$GPVTG,223.55,T,-416.35,M,003.261,N,006.039,K,D*07
$GPGGA,101507.35,5703.4849465,N,00952.4117391,E,2,10,0.8,-1.851,M,40.593,M,2.1,0123*65
$GPVTG,225.16,T,-414.74,M,003.278,N,006.071,K,D*05
$GPGGA,101507.40,5703.4849141,N,00952.4116768,E,2,10,0.8,-1.848,M,40.593,M,2.1,0123*6F
$GPVTG,226.87,T,-413.03,M,003.340,N,006.185,K,D*09
$GPGGA,101507.45,5703.4848821,N,00952.4116127,E,2,10,0.8,-1.845,M,40.593,M,2.3,0123*66
$GPVTG,228.23,T,-411.67,M,003.398,N,006.293,K,D*08
$GPGGA,101507.50,5703.4848517,N,00952.4115462,E,2,10,0.8,-1.840,M,40.593,M,2.3,0123*68
$GPVTG,230.12,T,-409.78,M,003.434,N,006.360,K,D*08
$GPGGA,101507.55,5703.4848221,N,00952.4114794,E,2,10,0.8,-1.837,M,40.593,M,2.3,0123*64
$GPVTG,231.58,T,-408.32,M,003.440,N,006.370,K,D*0A
$GPGGA,101507.60,5703.4847937,N,00952.4114143,E,2,10,0.8,-1.836,M,40.593,M,2.3,0123*6C
$GPVTG,232.43,T,-407.47,M,003.381,N,006.262,K,D*06
$GPGGA,101507.65,5703.4847639,N,00952.4113471,E,2,10,0.8,-1.832,M,40.593,M,2.6,0123*6A
$GPVTG,232.70,T,-407.20,M,003.396,N,006.289,K,D*04
$GPGGA,101507.70,5703.4847351,N,00952.4112780,E,2,10,0.8,-1.828,M,40.593,M,2.6,0123*62
$GPVTG,233.44,T,-406.46,M,003.417,N,006.328,K,D*07
$GPGGA,101507.75,5703.4847074,N,00952.4112082,E,2,10,0.8,-1.825,M,40.593,M,2.6,0123*6B
$GPVTG,234.40,T,-405.50,M,003.416,N,006.326,K,D*0F
$GPGGA,101507.80,5703.4846819,N,00952.4111368,E,2,10,0.8,-1.820,M,40.593,M,2.6,0123*62
$GPVTG,236.19,T,-403.71,M,003.398,N,006.293,K,D*0A
$GPGGA,101507.85,5703.4846585,N,00952.4110634,E,2,10,0.8,-1.810,M,40.593,M,2.8,0123*6F
$GPVTG,238.57,T,-401.33,M,003.381,N,006.262,K,D*0C
$GPGGA,101507.90,5703.4846347,N,00952.4109885,E,2,10,0.8,-1.805,M,40.593,M,2.8,0123*6B
$GPVTG,240.25,T,-399.65,M,003.400,N,006.297,K,D*07
$GPGGA,101507.95,5703.4846113,N,00952.4109123,E,2,10,0.8,-1.800,M,40.593,M,2.8,0123*6D
$GPVTG,241.55,T,-398.35,M,003.428,N,006.350,K,D*05
$GPGGA,101508.00,5703.4845889,N,00952.4108348,E,2,10,0.8,-1.796,M,40.593,M,2.8,0123*69
$GPVTG,242.88,T,-397.02,M,003.452,N,006.393,K,D*0F
$GPGGA,101508.05,5703.4845666,N,00952.4107567,E,2,10,0.8,-1.796,M,40.593,M,1.5,0123*69
$GPVTG,243.50,T,-396.40,M,003.457,N,006.402,K,D*06
$GPGGA,101508.10,5703.4845458,N,00952.4106796,E,2,10,0.8,-1.793,M,40.593,M,1.5,0123*6A
$GPVTG,244.46,T,-395.44,M,003.430,N,006.352,K,D*02
$GPGGA,101508.15,5703.4845262,N,00952.4106012,E,2,10,0.8,-1.791,M,40.593,M,1.5,0123*69
$GPVTG,245.72,T,-394.18,M,003.416,N,006.326,K,D*0B
$GPGGA,101508.20,5703.4845073,N,00952.4105217,E,2,10,0.8,-1.791,M,40.593,M,1.5,0123*69
$GPVTG,246.95,T,-392.95,M,003.417,N,006.328,K,D*0D
$GPGGA,101508.25,5703.4844892,N,00952.4104410,E,2,10,0.8,-1.794,M,40.593,M,1.8,0123*62
$GPVTG,248.23,T,-391.67,M,003.429,N,006.351,K,D*03
$GPGGA,101508.30,5703.4844725,N,00952.4103592,E,2,10,0.8,-1.794,M,40.593,M,1.8,0123*69
$GPVTG,249.71,T,-390.19,M,003.439,N,006.369,K,D*07
$GPGGA,101508.35,5703.4844561,N,00952.4102774,E,2,10,0.8,-1.796,M,40.593,M,1.8,0123*67
$GPVTG,250.73,T,-389.17,M,003.439,N,006.369,K,D*0B
$GPGGA,101508.40,5703.4844403,N,00952.4101972,E,2,10,0.8,-1.793,M,40.593,M,1.8,0123*6E
$GPVTG,251.36,T,-388.54,M,003.399,N,006.294,K,D*03
$GPGGA,101508.45,5703.4844246,N,00952.4101145,E,2,10,0.8,-1.786,M,40.593,M,2.0,0123*6F
$GPVTG,251.88,T,-388.02,M,003.415,N,006.325,K,D*0D
$GPGGA,101508.50,5703.4844098,N,00952.4100306,E,2,10,0.8,-1.784,M,40.593,M,2.0,0123*6C
$GPVTG,252.68,T,-387.22,M,003.443,N,006.376,K,D*08
$GPGGA,101508.55,5703.4843968,N,00952.4099463,E,2,10,0.8,-1.783,M,40.593,M,2.0,0123*6A
$GPVTG,254.09,T,-385.81,M,003.452,N,006.393,K,D*09
$GPGGA,101508.60,5703.4843841,N,00952.4098636,E,2,10,0.8,-1.782,M,40.593,M,2.0,0123*64
$GPVTG,254.90,T,-385.00,M,003.421,N,006.336,K,D*0B
$GPGGA,101508.65,5703.4843727,N,00952.4097805,E,2,10,0.8,-1.789,M,40.593,M,2.2,0123*66
$GPVTG,256.12,T,-383.78,M,003.402,N,006.301,K,D*0F
$GPGGA,101508.70,5703.4843632,N,00952.4096957,E,2,10,0.8,-1.788,M,40.593,M,2.2,0123*61
$GPVTG,257.89,T,-382.01,M,003.404,N,006.305,K,D*01
$GPGGA,101508.75,5703.4843551,N,00952.4096114,E,2,10,0.8,-1.788,M,40.593,M,2.2,0123*6D
$GPVTG,259.70,T,-380.20,M,003.386,N,006.270,K,D*06
$GPGGA,101508.80,5703.4843477,N,00952.4095267,E,2,10,0.8,-1.786,M,40.593,M,2.2,0123*68
$GPVTG,261.24,T,-378.66,M,003.379,N,006.257,K,D*0C
$GPGGA,101508.85,5703.4843411,N,00952.4094394,E,2,10,0.8,-1.783,M,40.593,M,2.4,0123*62
$GPVTG,262.86,T,-377.04,M,003.414,N,006.323,K,D*02
$GPGGA,101508.90,5703.4843359,N,00952.4093528,E,2,10,0.8,-1.786,M,40.593,M,2.4,0123*6E
$GPVTG,264.36,T,-375.54,M,003.428,N,006.349,K,D*0B
$GPGGA,101508.95,5703.4843311,N,00952.4092667,E,2,10,0.8,-1.787,M,40.593,M,2.4,0123*6F
$GPVTG,265.35,T,-374.55,M,003.423,N,006.339,K,D*05
$GPGGA,101509.00,5703.4843278,N,00952.4091784,E,2,10,0.8,-1.789,M,40.593,M,2.4,0123*6D
$GPVTG,266.72,T,-373.18,M,003.461,N,006.410,K,D*01
$GPGGA,101509.05,5703.4843270,N,00952.4090894,E,2,10,0.8,-1.796,M,40.593,M,2.7,0123*62
$GPVTG,268.73,T,-371.17,M,003.479,N,006.443,K,D*0C
$GPGGA,101509.10,5703.4843273,N,00952.4090031,E,2,10,0.8,-1.799,M,40.593,M,2.7,0123*6D
$GPVTG,270.59,T,-369.31,M,003.449,N,006.388,K,D*03
$GPGGA,101509.15,5703.4843288,N,00952.4089164,E,2,10,0.8,-1.801,M,40.593,M,2.7,0123*6B
$GPVTG,272.31,T,-367.59,M,003.437,N,006.364,K,D*04
$GPGGA,101509.20,5703.4843306,N,00952.4088288,E,2,10,0.8,-1.804,M,40.593,M,2.7,0123*6F
$GPVTG,273.50,T,-366.40,M,003.449,N,006.387,K,D*0F
$GPGGA,101509.25,5703.4843341,N,00952.4087393,E,2,10,0.8,-1.805,M,40.593,M,2.9,0123*62
$GPVTG,274.82,T,-365.08,M,003.497,N,006.476,K,D*02
$GPGGA,101509.30,5703.4843384,N,00952.4086513,E,2,10,0.8,-1.809,M,40.593,M,2.9,0123*6C
$GPVTG,276.12,T,-363.79,M,003.501,N,006.484,K,D*0A
$GPGGA,101509.35,5703.4843436,N,00952.4085642,E,2,10,0.8,-1.812,M,40.593,M,2.9,0123*69
$GPVTG,277.24,T,-362.66,M,003.485,N,006.454,K,D*01
$GPGGA,101509.40,5703.4843494,N,00952.4084759,E,2,10,0.8,-1.812,M,40.593,M,2.9,0123*69
$GPVTG,278.16,T,-361.74,M,003.502,N,006.485,K,D*0D
$GPGGA,101509.45,5703.4843564,N,00952.4083880,E,2,10,0.8,-1.814,M,40.593,M,3.1,0123*61
$GPVTG,279.17,T,-360.73,M,003.509,N,006.499,K,D*0D
$GPGGA,101509.50,5703.4843650,N,00952.4083001,E,2,10,0.8,-1.814,M,40.593,M,3.1,0123*60
$GPVTG,280.55,T,-359.35,M,003.521,N,006.520,K,D*0C
$GPGGA,101509.55,5703.4843735,N,00952.4082125,E,2,10,0.8,-1.815,M,40.593,M,3.1,0123*60
$GPVTG,281.28,T,-358.62,M,003.520,N,006.520,K,D*05
$GPGGA,101509.60,5703.4843823,N,00952.4081257,E,2,10,0.8,-1.818,M,40.593,M,3.1,0123*66
$GPVTG,281.87,T,-358.03,M,003.505,N,006.492,K,D*08
$GPGGA,101509.65,5703.4843919,N,00952.4080394,E,2,10,0.8,-1.817,M,40.593,M,3.3,0123*69
$GPVTG,282.50,T,-357.40,M,003.489,N,006.462,K,D*03
$GPGGA,101509.70,5703.4844032,N,00952.4079507,E,2,10,0.8,-1.816,M,40.593,M,3.3,0123*61
$GPVTG,283.46,T,-356.44,M,003.538,N,006.552,K,D*09
$GPGGA,101509.75,5703.4844151,N,00952.4078630,E,2,10,0.8,-1.816,M,40.593,M,3.3,0123*66
$GPVTG,284.42,T,-355.48,M,003.555,N,006.585,K,D*04
$GPGGA,101509.80,5703.4844277,N,00952.4077751,E,2,10,0.8,-1.819,M,40.593,M,3.3,0123*6D
$GPVTG,285.24,T,-354.66,M,003.578,N,006.627,K,D*0C
$GPGGA,101509.85,5703.4844410,N,00952.4076859,E,2,10,0.8,-1.814,M,40.593,M,3.5,0123*62
$GPVTG,285.96,T,-353.94,M,003.616,N,006.697,K,D*0F
$GPGGA,101509.90,5703.4844560,N,00952.4075986,E,2,10,0.8,-1.816,M,40.593,M,3.5,0123*62
$GPVTG,287.25,T,-352.65,M,003.624,N,006.712,K,D*07
$GPGGA,101509.95,5703.4844716,N,00952.4075097,E,2,10,0.8,-1.816,M,40.593,M,3.5,0123*6D
$GPVTG,288.22,T,-351.68,M,003.663,N,006.785,K,D*0C
$GPGGA,101510.00,5703.4844873,N,00952.4074215,E,2,10,0.8,-1.816,M,40.593,M,3.5,0123*6C
$GPVTG,288.93,T,-350.97,M,003.677,N,006.810,K,D*01
$GPGGA,101510.05,5703.4845047,N,00952.4073330,E,2,10,0.8,-1.815,M,40.593,M,2.0,0123*61
$GPVTG,290.01,T,-349.89,M,003.690,N,006.833,K,D*0C
$GPGGA,101510.10,5703.4845233,N,00952.4072451,E,2,10,0.8,-1.816,M,40.593,M,2.0,0123*66
$GPVTG,291.13,T,-348.77,M,003.715,N,006.881,K,D*0B
$GPGGA,101510.15,5703.4845419,N,00952.4071565,E,2,10,0.8,-1.817,M,40.593,M,2.0,0123*69
$GPVTG,291.89,T,-348.01,M,003.742,N,006.930,K,D*00
$GPGGA,101510.20,5703.4845616,N,00952.4070676,E,2,10,0.8,-1.817,M,40.593,M,2.0,0123*62
$GPVTG,292.69,T,-347.21,M,003.773,N,006.988,K,D*01
$GPGGA,101510.25,5703.4845816,N,00952.4069798,E,2,10,0.8,-1.819,M,40.593,M,2.2,0123*6C
$GPVTG,293.42,T,-346.48,M,003.788,N,007.015,K,D*0F
$GPGGA,101510.30,5703.4846029,N,00952.4068928,E,2,10,0.8,-1.821,M,40.593,M,2.2,0123*60
$GPVTG,294.36,T,-345.54,M,003.800,N,007.038,K,D*05
$GPGGA,101510.35,5703.4846271,N,00952.4068064,E,2,10,0.8,-1.823,M,40.593,M,2.2,0123*69
$GPVTG,295.82,T,-344.08,M,003.825,N,007.085,K,D*02
$GPGGA,101510.40,5703.4846501,N,00952.4067217,E,2,10,0.8,-1.822,M,40.593,M,2.2,0123*63
$GPVTG,296.80,T,-343.10,M,003.820,N,007.075,K,D*07
$GPGGA,101510.45,5703.4846735,N,00952.4066368,E,2,10,0.8,-1.828,M,40.593,M,2.5,0123*66
$GPVTG,297.60,T,-342.30,M,003.825,N,007.084,K,D*00
$GPGGA,101510.50,5703.4846976,N,00952.4065513,E,2,10,0.8,-1.830,M,40.593,M,2.5,0123*6B
$GPVTG,298.32,T,-341.58,M,003.835,N,007.102,K,D*0B
$GPGGA,101510.55,5703.4847230,N,00952.4064663,E,2,10,0.8,-1.834,M,40.593,M,2.5,0123*67
$GPVTG,299.21,T,-340.69,M,003.849,N,007.128,K,D*08
$GPGGA,101510.60,5703.4847509,N,00952.4063792,E,2,10,0.8,-1.836,M,40.593,M,2.5,0123*66
$GPVTG,300.21,T,-339.69,M,003.897,N,007.217,K,D*0B
$GPGGA,101510.65,5703.4847792,N,00952.4062942,E,2,10,0.8,-1.838,M,40.593,M,2.7,0123*6D
$GPVTG,301.24,T,-338.66,M,003.924,N,007.267,K,D*0F
$GPGGA,101510.70,5703.4848085,N,00952.4062097,E,2,10,0.8,-1.842,M,40.593,M,2.7,0123*6B
$GPVTG,302.30,T,-337.60,M,003.950,N,007.316,K,D*04
$GPGGA,101510.75,5703.4848382,N,00952.4061250,E,2,10,0.8,-1.842,M,40.593,M,2.7,0123*60
$GPVTG,303.17,T,-336.73,M,003.976,N,007.364,K,D*02
$GPGGA,101510.80,5703.4848698,N,00952.4060425,E,2,10,0.8,-1.844,M,40.593,M,2.7,0123*67
$GPVTG,304.37,T,-335.53,M,003.997,N,007.402,K,D*0E
$GPGGA,101510.85,5703.4849028,N,00952.4059613,E,2,10,0.8,-1.842,M,40.593,M,3.0,0123*63
$GPVTG,305.68,T,-334.22,M,004.012,N,007.431,K,D*01
$GPGGA,101510.90,5703.4849364,N,00952.4058793,E,2,10,0.8,-1.843,M,40.593,M,3.0,0123*65
$GPVTG,306.79,T,-333.11,M,004.041,N,007.484,K,D*0D
$GPGGA,101510.95,5703.4849709,N,00952.4057977,E,2,10,0.8,-1.844,M,40.593,M,3.0,0123*63
$GPVTG,307.89,T,-332.01,M,004.070,N,007.537,K,D*08
$GPGGA,101511.00,5703.4850050,N,00952.4057156,E,2,10,0.8,-1.844,M,40.593,M,3.0,0123*66
$GPVTG,308.49,T,-331.41,M,004.094,N,007.583,K,D*09
$GPGGA,101511.05,5703.4850411,N,00952.4056343,E,2,10,0.8,-1.847,M,40.593,M,1.8,0123*6C
$GPVTG,309.61,T,-330.29,M,004.120,N,007.631,K,D*09
$GPGGA,101511.10,5703.4850790,N,00952.4055560,E,2,10,0.8,-1.852,M,40.593,M,1.8,0123*62
$GPVTG,311.19,T,-328.71,M,004.136,N,007.659,K,D*02
$GPGGA,101511.15,5703.4851176,N,00952.4054791,E,2,10,0.8,-1.854,M,40.593,M,1.8,0123*63
$GPVTG,312.70,T,-327.20,M,004.142,N,007.672,K,D*0F
$GPGGA,101511.20,5703.4851566,N,00952.4054021,E,2,10,0.8,-1.857,M,40.593,M,1.8,0123*6F
$GPVTG,313.71,T,-326.19,M,004.157,N,007.700,K,D*04
$GPGGA,101511.25,5703.4851954,N,00952.4053236,E,2,10,0.8,-1.853,M,40.593,M,2.1,0123*6A
$GPVTG,314.47,T,-325.43,M,004.189,N,007.758,K,D*04
$GPGGA,101511.30,5703.4852362,N,00952.4052472,E,2,10,0.8,-1.856,M,40.593,M,2.1,0123*60
$GPVTG,315.23,T,-324.67,M,004.220,N,007.815,K,D*06
$GPGGA,101511.35,5703.4852779,N,00952.4051718,E,2,10,0.8,-1.857,M,40.593,M,2.1,0123*66
$GPVTG,316.05,T,-323.85,M,004.245,N,007.861,K,D*0A
$GPGGA,101511.40,5703.4853196,N,00952.4050972,E,2,10,0.8,-1.856,M,40.593,M,2.1,0123*60
$GPVTG,316.61,T,-323.29,M,004.247,N,007.865,K,D*08
$GPGGA,101511.45,5703.4853624,N,00952.4050245,E,2,10,0.8,-1.862,M,40.593,M,2.3,0123*61
$GPVTG,317.54,T,-322.36,M,004.257,N,007.884,K,D*0E
$GPGGA,101511.50,5703.4854069,N,00952.4049528,E,2,10,0.8,-1.861,M,40.593,M,2.3,0123*6A
$GPVTG,318.76,T,-321.14,M,004.278,N,007.923,K,D*03
$GPGGA,101511.55,5703.4854525,N,00952.4048829,E,2,10,0.8,-1.860,M,40.593,M,2.3,0123*6E
$GPVTG,320.14,T,-319.76,M,004.298,N,007.959,K,D*00
$GPGGA,101511.60,5703.4854975,N,00952.4048153,E,2,10,0.8,-1.858,M,40.593,M,2.3,0123*6E
$GPVTG,321.26,T,-318.64,M,004.266,N,007.900,K,D*0F
$GPGGA,101511.65,5703.4855435,N,00952.4047465,E,2,10,0.8,-1.857,M,40.593,M,2.6,0123*66
$GPVTG,321.83,T,-318.07,M,004.284,N,007.933,K,D*09
$GPGGA,101511.70,5703.4855894,N,00952.4046757,E,2,10,0.8,-1.857,M,40.593,M,2.6,0123*66
$GPVTG,321.59,T,-318.31,M,004.322,N,008.005,K,D*05
$GPGGA,101511.75,5703.4856352,N,00952.4046062,E,2,10,0.8,-1.851,M,40.593,M,2.6,0123*66
$GPVTG,321.50,T,-318.40,M,004.326,N,008.011,K,D*0B
$GPGGA,101511.80,5703.4856805,N,00952.4045375,E,2,10,0.8,-1.846,M,40.593,M,2.6,0123*65
$GPVTG,321.41,T,-318.49,M,004.302,N,007.967,K,D*03
$GPGGA,101511.85,5703.4857268,N,00952.4044684,E,2,10,0.8,-1.843,M,40.593,M,2.8,0123*61
$GPVTG,321.40,T,-318.50,M,004.317,N,007.994,K,D*02
$GPGGA,101511.90,5703.4857733,N,00952.4044011,E,2,10,0.8,-1.838,M,40.593,M,2.8,0123*68
$GPVTG,321.78,T,-318.12,M,004.303,N,007.969,K,D*08
$GPGGA,101511.95,5703.4858203,N,00952.4043344,E,2,10,0.8,-1.830,M,40.593,M,2.8,0123*68
$GPVTG,322.27,T,-317.63,M,004.298,N,007.960,K,D*02
$GPGGA,101512.00,5703.4858667,N,00952.4042690,E,2,10,0.8,-1.821,M,40.593,M,2.8,0123*6C
$GPVTG,322.70,T,-317.20,M,004.265,N,007.899,K,D*02
$GPGGA,101512.05,5703.4859136,N,00952.4042026,E,2,10,0.8,-1.807,M,40.593,M,1.5,0123*6A
$GPVTG,322.93,T,-316.97,M,004.257,N,007.884,K,D*0F
$GPGGA,101512.10,5703.4859624,N,00952.4041382,E,2,10,0.8,-1.798,M,40.593,M,1.5,0123*6D
$GPVTG,323.80,T,-316.10,M,004.286,N,007.937,K,D*06
$GPGGA,101512.15,5703.4860125,N,00952.4040744,E,2,10,0.8,-1.793,M,40.593,M,1.5,0123*60
$GPVTG,324.83,T,-315.07,M,004.338,N,008.035,K,D*07
$GPGGA,101512.20,5703.4860631,N,00952.4040120,E,2,10,0.8,-1.788,M,40.593,M,1.5,0123*6A
$GPVTG,325.88,T,-314.02,M,004.373,N,008.098,K,D*01
$GPGGA,101512.25,5703.4861138,N,00952.4039491,E,2,10,0.8,-1.791,M,40.593,M,1.8,0123*64
$GPVTG,326.37,T,-313.53,M,004.416,N,008.179,K,D*0F
$GPGGA,101512.30,5703.4861646,N,00952.4038853,E,2,10,0.8,-1.789,M,40.593,M,1.8,0123*64
$GPVTG,326.45,T,-313.45,M,004.450,N,008.241,K,D*07
$GPGGA,101512.35,5703.4862167,N,00952.4038245,E,2,10,0.8,-1.789,M,40.593,M,1.8,0123*6B
$GPVTG,327.36,T,-312.54,M,004.470,N,008.279,K,D*0A
$GPGGA,101512.40,5703.4862698,N,00952.4037675,E,2,10,0.8,-1.791,M,40.593,M,1.8,0123*6F
$GPVTG,328.96,T,-310.94,M,004.469,N,008.276,K,D*06
$GPGGA,101512.45,5703.4863248,N,00952.4037115,E,2,10,0.8,-1.789,M,40.593,M,2.0,0123*61
$GPVTG,330.64,T,-309.26,M,004.509,N,008.351,K,D*00
$GPGGA,101512.50,5703.4863805,N,00952.4036572,E,2,10,0.8,-1.792,M,40.593,M,2.0,0123*68
$GPVTG,332.09,T,-307.81,M,004.544,N,008.416,K,D*07
$GPGGA,101512.55,5703.4864372,N,00952.4036055,E,2,10,0.8,-1.795,M,40.593,M,2.0,0123*66
$GPVTG,333.66,T,-306.24,M,004.575,N,008.473,K,D*00
$GPGGA,101512.60,5703.4864943,N,00952.4035553,E,2,10,0.8,-1.799,M,40.593,M,2.0,0123*64
$GPVTG,334.96,T,-304.94,M,004.598,N,008.516,K,D*00
$GPGGA,101512.65,5703.4865521,N,00952.4035067,E,2,10,0.8,-1.806,M,40.593,M,2.2,0123*61
$GPVTG,336.08,T,-303.82,M,004.620,N,008.557,K,D*00
$GPGGA,101512.70,5703.4866100,N,00952.4034568,E,2,10,0.8,-1.808,M,40.593,M,2.2,0123*64
$GPVTG,336.35,T,-303.55,M,004.647,N,008.606,K,D*02
$GPGGA,101512.75,5703.4866679,N,00952.4034077,E,2,10,0.8,-1.812,M,40.593,M,2.2,0123*68
$GPVTG,336.48,T,-303.42,M,004.656,N,008.623,K,D*09
$GPGGA,101512.80,5703.4867253,N,00952.4033615,E,2,10,0.8,-1.812,M,40.593,M,2.2,0123*6A
$GPVTG,337.02,T,-302.88,M,004.616,N,008.548,K,D*0B
$GPGGA,101512.85,5703.4867834,N,00952.4033163,E,2,10,0.8,-1.816,M,40.593,M,2.4,0123*60
$GPVTG,337.54,T,-302.36,M,004.606,N,008.530,K,D*03
$GPGGA,101512.90,5703.4868429,N,00952.4032726,E,2,10,0.8,-1.817,M,40.593,M,2.4,0123*6C
$GPVTG,338.38,T,-301.52,M,004.619,N,008.555,K,D*0A
$GPGGA,101512.95,5703.4869025,N,00952.4032324,E,2,10,0.8,-1.819,M,40.593,M,2.4,0123*68
$GPVTG,339.66,T,-300.24,M,004.607,N,008.532,K,D*0E
$GPGGA,101513.00,5703.4869627,N,00952.4031921,E,2,10,0.8,-1.821,M,40.593,M,2.4,0123*66
$GPVTG,340.44,T,-299.46,M,004.622,N,008.560,K,D*05
$GPGGA,101513.05,5703.4870228,N,00952.4031516,E,2,10,0.8,-1.821,M,40.593,M,2.7,0123*6B
$GPVTG,340.81,T,-299.09,M,004.633,N,008.580,K,D*09
$GPGGA,101513.10,5703.4870842,N,00952.4031138,E,2,10,0.8,-1.822,M,40.593,M,2.7,0123*62
$GPVTG,341.65,T,-298.25,M,004.656,N,008.623,K,D*04
$GPGGA,101513.15,5703.4871450,N,00952.4030780,E,2,10,0.8,-1.823,M,40.593,M,2.7,0123*6C
$GPVTG,342.52,T,-297.38,M,004.646,N,008.604,K,D*04
$GPGGA,101513.20,5703.4872073,N,00952.4030433,E,2,10,0.8,-1.823,M,40.593,M,2.7,0123*67
$GPVTG,343.37,T,-296.53,M,004.675,N,008.658,K,D*03
$GPGGA,101513.25,5703.4872701,N,00952.4030107,E,2,10,0.8,-1.828,M,40.593,M,2.9,0123*67
$GPVTG,344.36,T,-295.54,M,004.704,N,008.711,K,D*0A
$GPGGA,101513.30,5703.4873340,N,00952.4029791,E,2,10,0.8,-1.830,M,40.593,M,2.9,0123*6B
$GPVTG,345.24,T,-294.66,M,004.748,N,008.794,K,D*0D
$GPGGA,101513.35,5703.4873993,N,00952.4029510,E,2,10,0.8,-1.835,M,40.593,M,2.9,0123*64
$GPVTG,346.65,T,-293.25,M,004.807,N,008.903,K,D*0F
$GPGGA,101513.40,5703.4874651,N,00952.4029239,E,2,10,0.8,-1.840,M,40.593,M,2.9,0123*6E
$GPVTG,347.72,T,-292.18,M,004.862,N,009.004,K,D*0B
$GPGGA,101513.45,5703.4875306,N,00952.4028985,E,2,10,0.8,-1.845,M,40.593,M,3.1,0123*6C
$GPVTG,348.64,T,-291.26,M,004.879,N,009.036,K,D*06
$GPGGA,101513.50,5703.4875967,N,00952.4028751,E,2,10,0.8,-1.852,M,40.593,M,3.1,0123*64
$GPVTG,349.57,T,-290.33,M,004.896,N,009.068,K,D*08
$GPGGA,101513.55,5703.4876639,N,00952.4028526,E,2,10,0.8,-1.859,M,40.593,M,3.1,0123*6F
$GPVTG,350.30,T,-289.60,M,004.937,N,009.144,K,D*0A
$GPGGA,101513.60,5703.4877314,N,00952.4028320,E,2,10,0.8,-1.862,M,40.593,M,3.1,0123*6A
$GPVTG,351.08,T,-288.82,M,004.967,N,009.200,K,D*0B
$GPGGA,101513.65,5703.4877986,N,00952.4028143,E,2,10,0.8,-1.868,M,40.593,M,3.3,0123*61
$GPVTG,352.13,T,-287.77,M,004.965,N,009.194,K,D*0B
$GPGGA,101513.70,5703.4878659,N,00952.4027979,E,2,10,0.8,-1.871,M,40.593,M,3.3,0123*61
$GPVTG,352.95,T,-286.95,M,004.959,N,009.184,K,D*06
$GPGGA,101513.75,5703.4879320,N,00952.4027825,E,2,10,0.8,-1.872,M,40.593,M,3.3,0123*65
$GPVTG,353.52,T,-286.38,M,004.910,N,009.094,K,D*06
$GPGGA,101513.80,5703.4879984,N,00952.4027672,E,2,10,0.8,-1.868,M,40.593,M,3.3,0123*6C
$GPVTG,353.79,T,-286.11,M,004.880,N,009.039,K,D*0B
$GPGGA,101513.85,5703.4880644,N,00952.4027550,E,2,10,0.8,-1.860,M,40.593,M,3.5,0123*61
$GPVTG,354.53,T,-285.37,M,004.840,N,008.963,K,D*08
$GPGGA,101513.90,5703.4881292,N,00952.4027430,E,2,10,0.8,-1.849,M,40.593,M,3.5,0123*67
$GPVTG,354.91,T,-284.99,M,004.772,N,008.837,K,D*0D
$GPGGA,101513.95,5703.4881941,N,00952.4027339,E,2,10,0.8,-1.836,M,40.593,M,3.5,0123*61
$GPVTG,355.74,T,-284.16,M,004.720,N,008.742,K,D*0A
$GPGGA,101514.00,5703.4882597,N,00952.4027289,E,2,10,0.8,-1.820,M,40.593,M,3.5,0123*63
$GPVTG,357.26,T,-282.64,M,004.708,N,008.719,K,D*08
$GPGGA,101514.05,5703.4883250,N,00952.4027242,E,2,10,0.8,-1.807,M,40.593,M,2.0,0123*6D
$GPVTG,358.24,T,-281.66,M,004.694,N,008.694,K,D*04
$GPGGA,101514.10,5703.4883914,N,00952.4027199,E,2,10,0.8,-1.799,M,40.593,M,2.0,0123*6F
$GPVTG,358.80,T,-281.10,M,004.725,N,008.750,K,D*09
$GPGGA,101514.15,5703.4884589,N,00952.4027159,E,2,10,0.8,-1.789,M,40.593,M,2.0,0123*68
$GPVTG,359.03,T,-280.87,M,004.783,N,008.859,K,D*06
$GPGGA,101514.20,5703.4885276,N,00952.4027130,E,2,10,0.8,-1.784,M,40.593,M,2.0,0123*6A
$GPVTG,359.35,T,-280.55,M,004.867,N,009.014,K,D*09
$GPGGA,101514.25,5703.4885963,N,00952.4027092,E,2,10,0.8,-1.774,M,40.593,M,2.2,0123*64
$GPVTG,359.25,T,-280.65,M,004.921,N,009.114,K,D*09
$GPGGA,101514.30,5703.4886661,N,00952.4027098,E,2,10,0.8,-1.773,M,40.593,M,2.2,0123*63
$GPVTG,000.09,T,-639.81,M,004.996,N,009.252,K,D*09
$GPGGA,101514.35,5703.4887370,N,00952.4027121,E,2,10,0.8,-1.776,M,40.593,M,2.2,0123*64
$GPVTG,000.92,T,-638.98,M,005.082,N,009.411,K,D*0E
$GPGGA,101514.40,5703.4888085,N,00952.4027154,E,2,10,0.8,-1.784,M,40.593,M,2.2,0123*6F
$GPVTG,001.63,T,-638.27,M,005.159,N,009.554,K,D*02
$GPGGA,101514.45,5703.4888808,N,00952.4027195,E,2,10,0.8,-1.800,M,40.593,M,2.5,0123*6E
$GPVTG,002.09,T,-637.81,M,005.232,N,009.691,K,D*0A
$GPGGA,101514.50,5703.4889531,N,00952.4027252,E,2,10,0.8,-1.817,M,40.593,M,2.5,0123*62
$GPVTG,002.68,T,-637.22,M,005.277,N,009.774,K,D*0F
$GPGGA,101514.55,5703.4890261,N,00952.4027367,E,2,10,0.8,-1.832,M,40.593,M,2.5,0123*6D
$GPVTG,004.26,T,-635.64,M,005.325,N,009.862,K,D*0D
$GPGGA,101514.60,5703.4890983,N,00952.4027512,E,2,10,0.8,-1.842,M,40.593,M,2.5,0123*6F
$GPVTG,005.84,T,-634.06,M,005.336,N,009.882,K,D*0D
$GPGGA,101514.65,5703.4891697,N,00952.4027692,E,2,10,0.8,-1.860,M,40.593,M,2.7,0123*68
$GPVTG,007.51,T,-632.39,M,005.322,N,009.856,K,D*01
$GPGGA,101514.70,5703.4892414,N,00952.4027893,E,2,10,0.8,-1.872,M,40.593,M,2.7,0123*6A
$GPVTG,008.95,T,-630.95,M,005.314,N,009.841,K,D*01
$GPGGA,101514.75,5703.4893133,N,00952.4028066,E,2,10,0.8,-1.884,M,40.593,M,2.7,0123*6A
$GPVTG,009.05,T,-630.85,M,005.299,N,009.813,K,D*0B
$GPGGA,101514.80,5703.4893850,N,00952.4028258,E,2,10,0.8,-1.896,M,40.593,M,2.7,0123*60
$GPVTG,009.34,T,-630.56,M,005.280,N,009.779,K,D*0C
$GPGGA,101514.85,5703.4894568,N,00952.4028499,E,2,10,0.8,-1.901,M,40.593,M,3.0,0123*66
$GPVTG,010.44,T,-629.46,M,005.286,N,009.789,K,D*03
$GPGGA,101514.90,5703.4895265,N,00952.4028758,E,2,10,0.8,-1.901,M,40.593,M,3.0,0123*67
$GPVTG,011.56,T,-628.34,M,005.227,N,009.680,K,D*06
$GPGGA,101514.95,5703.4895946,N,00952.4029025,E,2,10,0.8,-1.894,M,40.593,M,3.0,0123*69
$GPVTG,012.47,T,-627.43,M,005.135,N,009.510,K,D*00
$GPGGA,101515.00,5703.4896606,N,00952.4029290,E,2,10,0.8,-1.885,M,40.593,M,3.0,0123*60
$GPVTG,013.05,T,-626.85,M,005.002,N,009.264,K,D*0D
$GPGGA,101515.05,5703.4897275,N,00952.4029569,E,2,10,0.8,-1.872,M,40.593,M,1.8,0123*67
$GPVTG,013.56,T,-626.34,M,004.949,N,009.165,K,D*04
$GPGGA,101515.10,5703.4897935,N,00952.4029848,E,2,10,0.8,-1.857,M,40.593,M,1.8,0123*65
$GPVTG,013.80,T,-626.10,M,004.882,N,009.041,K,D*08
$GPGGA,101515.15,5703.4898589,N,00952.4030097,E,2,10,0.8,-1.837,M,40.593,M,1.8,0123*60
$GPVTG,013.18,T,-626.72,M,004.809,N,008.907,K,D*04
$GPGGA,101515.20,5703.4899232,N,00952.4030344,E,2,10,0.8,-1.814,M,40.593,M,1.8,0123*6C
$GPVTG,012.70,T,-627.20,M,004.729,N,008.758,K,D*04
$GPGGA,101515.25,5703.4899883,N,00952.4030639,E,2,10,0.8,-1.784,M,40.593,M,2.1,0123*6A
$GPVTG,013.53,T,-626.37,M,004.728,N,008.756,K,D*0C
$GPGGA,101515.30,5703.4900543,N,00952.4030965,E,2,10,0.8,-1.766,M,40.593,M,2.1,0123*64
$GPVTG,014.64,T,-625.26,M,004.784,N,008.861,K,D*01
$GPGGA,101515.35,5703.4901235,N,00952.4031292,E,2,10,0.8,-1.750,M,40.593,M,2.1,0123*61
$GPVTG,015.02,T,-624.88,M,004.931,N,009.132,K,D*0B
$GPGGA,101515.40,5703.4901928,N,00952.4031614,E,2,10,0.8,-1.738,M,40.593,M,2.1,0123*60
$GPVTG,014.99,T,-624.91,M,005.044,N,009.341,K,D*0C
$GPGGA,101515.45,5703.4902624,N,00952.4031937,E,2,10,0.8,-1.734,M,40.593,M,2.3,0123*65
$GPVTG,014.87,T,-625.03,M,005.129,N,009.499,K,D*01
$GPGGA,101515.50,5703.4903331,N,00952.4032306,E,2,10,0.8,-1.736,M,40.593,M,2.3,0123*68
$GPVTG,015.61,T,-624.29,M,005.247,N,009.717,K,D*0F
$GPGGA,101515.55,5703.4904052,N,00952.4032729,E,2,10,0.8,-1.745,M,40.593,M,2.3,0123*61
$GPVTG,017.05,T,-622.85,M,005.394,N,009.990,K,D*01
$GPGGA,101515.60,5703.4904775,N,00952.4033166,E,2,10,0.8,-1.758,M,40.593,M,2.3,0123*65
$GPVTG,018.13,T,-621.77,M,005.506,N,010.197,K,D*0D
$GPGGA,101515.65,5703.4905516,N,00952.4033632,E,2,10,0.8,-1.784,M,40.593,M,2.6,0123*64
$GPVTG,019.06,T,-620.84,M,005.650,N,010.464,K,D*0C
$GPGGA,101515.70,5703.4906267,N,00952.4034124,E,2,10,0.8,-1.812,M,40.593,M,2.6,0123*65
$GPVTG,019.93,T,-619.97,M,005.777,N,010.698,K,D*0D
$GPGGA,101515.75,5703.4907017,N,00952.4034576,E,2,10,0.8,-1.846,M,40.593,M,2.6,0123*66
$GPVTG,019.55,T,-620.35,M,005.819,N,010.777,K,D*02
$GPGGA,101515.80,5703.4907756,N,00952.4035050,E,2,10,0.8,-1.874,M,40.593,M,2.6,0123*6F
$GPVTG,019.69,T,-620.21,M,005.815,N,010.769,K,D*0B
$GPGGA,101515.85,5703.4908440,N,00952.4035586,E,2,10,0.8,-1.897,M,40.593,M,2.8,0123*6C
$GPVTG,021.49,T,-618.41,M,005.677,N,010.514,K,D*0D
$GPGGA,101515.90,5703.4909091,N,00952.4036137,E,2,10,0.8,-1.902,M,40.593,M,2.8,0123*61
$GPVTG,023.45,T,-616.45,M,005.475,N,010.140,K,D*0C
$GPGGA,101515.95,5703.4909694,N,00952.4036708,E,2,10,0.8,-1.898,M,40.593,M,2.8,0123*6F
$GPVTG,025.91,T,-613.99,M,005.202,N,009.634,K,D*0D
$GPGGA,101516.00,5703.4910300,N,00952.4037303,E,2,10,0.8,-1.891,M,40.593,M,2.8,0123*67
$GPVTG,028.04,T,-611.86,M,005.041,N,009.336,K,D*02
$GPGGA,101516.05,5703.4910898,N,00952.4037916,E,2,10,0.8,-1.884,M,40.593,M,1.5,0123*6C
$GPVTG,029.77,T,-610.13,M,004.939,N,009.148,K,D*06
$GPGGA,101516.10,5703.4911494,N,00952.4038507,E,2,10,0.8,-1.867,M,40.593,M,1.5,0123*67
$GPVTG,030.37,T,-609.53,M,004.840,N,008.963,K,D*09
$GPGGA,101516.15,5703.4912073,N,00952.4039126,E,2,10,0.8,-1.846,M,40.593,M,1.5,0123*69
$GPVTG,031.42,T,-608.48,M,004.768,N,008.830,K,D*03
$GPGGA,101516.20,5703.4912634,N,00952.4039765,E,2,10,0.8,-1.828,M,40.593,M,1.5,0123*63
$GPVTG,032.70,T,-607.20,M,004.704,N,008.711,K,D*06
$GPGGA,101516.25,5703.4913194,N,00952.4040402,E,2,10,0.8,-1.799,M,40.593,M,1.8,0123*6E
$GPVTG,033.41,T,-606.49,M,004.660,N,008.630,K,D*0A
$GPGGA,101516.30,5703.4913762,N,00952.4041023,E,2,10,0.8,-1.776,M,40.593,M,1.8,0123*62
$GPVTG,033.08,T,-606.82,M,004.645,N,008.602,K,D*06
$GPGGA,101516.35,5703.4914344,N,00952.4041647,E,2,10,0.8,-1.757,M,40.593,M,1.8,0123*67
$GPVTG,032.39,T,-607.51,M,004.688,N,008.683,K,D*02
$GPGGA,101516.40,5703.4914952,N,00952.4042303,E,2,10,0.8,-1.739,M,40.593,M,1.8,0123*66
$GPVTG,031.92,T,-607.98,M,004.837,N,008.959,K,D*07
$GPGGA,101516.45,5703.4915583,N,00952.4042965,E,2,10,0.8,-1.724,M,40.593,M,2.0,0123*6F
$GPVTG,031.21,T,-608.69,M,005.021,N,009.298,K,D*07
$GPGGA,101516.50,5703.4916226,N,00952.4043622,E,2,10,0.8,-1.721,M,40.593,M,2.0,0123*68
$GPVTG,030.32,T,-609.58,M,005.179,N,009.591,K,D*05
$GPGGA,101516.55,5703.4916869,N,00952.4044305,E,2,10,0.8,-1.726,M,40.593,M,2.0,0123*6C
$GPVTG,030.13,T,-609.77,M,005.316,N,009.846,K,D*07
$GPGGA,101516.60,5703.4917509,N,00952.4045004,E,2,10,0.8,-1.738,M,40.593,M,2.0,0123*6C
$GPVTG,030.38,T,-609.52,M,005.410,N,010.019,K,D*02
$GPGGA,101516.65,5703.4918161,N,00952.4045767,E,2,10,0.8,-1.762,M,40.593,M,2.2,0123*63
$GPVTG,031.49,T,-608.41,M,005.565,N,010.307,K,D*09
$GPGGA,101516.70,5703.4918832,N,00952.4046560,E,2,10,0.8,-1.791,M,40.593,M,2.2,0123*62
$GPVTG,032.38,T,-607.52,M,005.740,N,010.631,K,D*04
$GPGGA,101516.75,5703.4919525,N,00952.4047402,E,2,10,0.8,-1.826,M,40.593,M,2.2,0123*6A
$GPVTG,033.31,T,-606.59,M,005.957,N,011.033,K,D*0B
$GPGGA,101516.80,5703.4920188,N,00952.4048234,E,2,10,0.8,-1.858,M,40.593,M,2.2,0123*6C
$GPVTG,034.12,T,-605.78,M,005.996,N,011.104,K,D*05
$GPGGA,101516.85,5703.4920790,N,00952.4049066,E,2,10,0.8,-1.891,M,40.593,M,2.4,0123*61
$GPVTG,035.56,T,-604.34,M,005.839,N,010.814,K,D*00
$GPGGA,101516.90,5703.4921353,N,00952.4049919,E,2,10,0.8,-1.903,M,40.593,M,2.4,0123*64
$GPVTG,037.71,T,-602.19,M,005.628,N,010.424,K,D*0F
$GPGGA,101516.95,5703.4921898,N,00952.4050761,E,2,10,0.8,-1.903,M,40.593,M,2.4,0123*64
$GPVTG,039.42,T,-600.48,M,005.405,N,010.010,K,D*09
$GPGGA,101517.00,5703.4922421,N,00952.4051575,E,2,10,0.8,-1.898,M,40.593,M,2.4,0123*61
$GPVTG,040.55,T,-599.35,M,005.152,N,009.541,K,D*06
$GPGGA,101517.05,5703.4922954,N,00952.4052408,E,2,10,0.8,-1.886,M,40.593,M,2.7,0123*6F
$GPVTG,041.45,T,-598.45,M,005.021,N,009.299,K,D*07
$GPGGA,101517.10,5703.4923476,N,00952.4053279,E,2,10,0.8,-1.873,M,40.593,M,2.7,0123*6C
$GPVTG,042.78,T,-597.12,M,004.976,N,009.215,K,D*09
$GPGGA,101517.15,5703.4923977,N,00952.4054146,E,2,10,0.8,-1.860,M,40.593,M,2.7,0123*6F
$GPVTG,044.03,T,-595.87,M,004.907,N,009.088,K,D*0D
$GPGGA,101517.20,5703.4924458,N,00952.4055014,E,2,10,0.8,-1.843,M,40.593,M,2.7,0123*68
$GPVTG,045.27,T,-594.63,M,004.828,N,008.941,K,D*00
$GPGGA,101517.25,5703.4924952,N,00952.4055924,E,2,10,0.8,-1.827,M,40.593,M,2.9,0123*6C
$GPVTG,046.38,T,-593.52,M,004.836,N,008.956,K,D*01
$GPGGA,101517.30,5703.4925449,N,00952.4056827,E,2,10,0.8,-1.808,M,40.593,M,2.9,0123*62
$GPVTG,046.62,T,-593.28,M,004.888,N,009.053,K,D*0B
$GPGGA,101517.35,5703.4925956,N,00952.4057716,E,2,10,0.8,-1.790,M,40.593,M,2.9,0123*66
$GPVTG,046.05,T,-593.85,M,004.933,N,009.137,K,D*0F
$GPGGA,101517.40,5703.4926467,N,00952.4058635,E,2,10,0.8,-1.776,M,40.593,M,2.9,0123*6F
$GPVTG,045.84,T,-594.06,M,005.024,N,009.304,K,D*05
$GPGGA,101517.45,5703.4926971,N,00952.4059574,E,2,10,0.8,-1.761,M,40.593,M,3.1,0123*68
$GPVTG,046.15,T,-593.75,M,005.103,N,009.451,K,D*0E
$GPGGA,101517.50,5703.4927485,N,00952.4060497,E,2,10,0.8,-1.753,M,40.593,M,3.1,0123*6C
$GPVTG,045.69,T,-594.21,M,005.154,N,009.545,K,D*06
