$GPGGA,100847.35,5703.5199636,N,00952.4339194,E,2,10,0.8,-2.101,M,40.593,M,2.1,0123*6A
$GPVTG,131.88,T,-508.02,M,002.822,N,005.226,K,D*0E
$GPGGA,100847.40,5703.5199390,N,00952.4339775,E,2,10,0.8,-2.104,M,40.593,M,2.1,0123*6D
$GPVTG,130.10,T,-509.80,M,002.875,N,005.324,K,D*04
$GPGGA,100847.45,5703.5199156,N,00952.4340377,E,2,10,0.8,-2.103,M,40.593,M,2.3,0123*6D
$GPVTG,128.17,T,-511.73,M,002.924,N,005.416,K,D*0C
$GPGGA,100847.50,5703.5198928,N,00952.4340992,E,2,10,0.8,-2.106,M,40.593,M,2.3,0123*6D
$GPVTG,126.37,T,-513.53,M,002.967,N,005.496,K,D*0F
$GPGGA,100847.55,5703.5198706,N,00952.4341611,E,2,10,0.8,-2.107,M,40.593,M,2.3,0123*6E
$GPVTG,124.75,T,-515.15,M,002.997,N,005.550,K,D*0B
$GPGGA,100847.60,5703.5198494,N,00952.4342235,E,2,10,0.8,-2.113,M,40.593,M,2.3,0123*64
$GPVTG,123.20,T,-516.70,M,003.014,N,005.582,K,D*00
$GPGGA,100847.65,5703.5198300,N,00952.4342891,E,2,10,0.8,-2.121,M,40.593,M,2.6,0123*6B
$GPVTG,121.26,T,-518.64,M,003.037,N,005.624,K,D*01
$GPGGA,100847.70,5703.5198116,N,00952.4343562,E,2,10,0.8,-2.124,M,40.593,M,2.6,0123*6F
$GPVTG,119.23,T,-520.67,M,003.058,N,005.663,K,D*0D
$GPGGA,100847.75,5703.5197925,N,00952.4344235,E,2,10,0.8,-2.127,M,40.593,M,2.6,0123*6C
$GPVTG,117.80,T,-522.10,M,003.080,N,005.703,K,D*0A
$GPGGA,100847.80,5703.5197744,N,00952.4344918,E,2,10,0.8,-2.129,M,40.593,M,2.6,0123*65
$GPVTG,116.35,T,-523.55,M,003.095,N,005.733,K,D*02
$GPGGA,100847.85,5703.5197563,N,00952.4345626,E,2,10,0.8,-2.134,M,40.593,M,2.8,0123*66
$GPVTG,115.06,T,-524.84,M,003.128,N,005.793,K,D*07
$GPGGA,100847.90,5703.5197399,N,00952.4346339,E,2,10,0.8,-2.137,M,40.593,M,2.8,0123*6A
$GPVTG,113.55,T,-526.35,M,003.144,N,005.823,K,D*01
$GPGGA,100847.95,5703.5197236,N,00952.4347062,E,2,10,0.8,-2.142,M,40.593,M,2.8,0123*65
$GPVTG,112.26,T,-527.64,M,003.163,N,005.858,K,D*08
$GPGGA,100848.00,5703.5197070,N,00952.4347807,E,2,10,0.8,-2.148,M,40.593,M,2.8,0123*67
$GPVTG,111.23,T,-528.67,M,003.198,N,005.922,K,D*0A
$GPGGA,100848.05,5703.5196921,N,00952.4348566,E,2,10,0.8,-2.146,M,40.593,M,1.5,0123*6B
$GPVTG,109.91,T,-529.99,M,003.231,N,005.984,K,D*06
$GPGGA,100848.10,5703.5196784,N,00952.4349347,E,2,10,0.8,-2.151,M,40.593,M,1.5,0123*6C
$GPVTG,108.46,T,-531.44,M,003.267,N,006.050,K,D*04
$GPGGA,100848.15,5703.5196651,N,00952.4350139,E,2,10,0.8,-2.154,M,40.593,M,1.5,0123*66
$GPVTG,107.16,T,-532.74,M,003.302,N,006.115,K,D*0C
$GPGGA,100848.20,5703.5196528,N,00952.4350946,E,2,10,0.8,-2.159,M,40.593,M,1.5,0123*60
$GPVTG,105.83,T,-534.07,M,003.337,N,006.181,K,D*0B
$GPGGA,100848.25,5703.5196404,N,00952.4351757,E,2,10,0.8,-2.164,M,40.593,M,1.8,0123*66
$GPVTG,104.84,T,-535.06,M,003.368,N,006.238,K,D*06
$GPGGA,100848.30,5703.5196284,N,00952.4352560,E,2,10,0.8,-2.164,M,40.593,M,1.8,0123*69
$GPVTG,103.99,T,-535.91,M,003.380,N,006.259,K,D*02
$GPGGA,100848.35,5703.5196174,N,00952.4353375,E,2,10,0.8,-2.163,M,40.593,M,1.8,0123*64
$GPVTG,103.07,T,-536.83,M,003.394,N,006.286,K,D*02
$GPGGA,100848.40,5703.5196077,N,00952.4354190,E,2,10,0.8,-2.161,M,40.593,M,1.8,0123*68
$GPVTG,102.02,T,-537.88,M,003.397,N,006.292,K,D*0A
$GPGGA,100848.45,5703.5195992,N,00952.4354998,E,2,10,0.8,-2.155,M,40.593,M,2.0,0123*60
$GPVTG,100.93,T,-538.97,M,003.387,N,006.274,K,D*08
$GPGGA,100848.50,5703.5195911,N,00952.4355833,E,2,10,0.8,-2.151,M,40.593,M,2.0,0123*6A
$GPVTG,099.85,T,-540.05,M,003.399,N,006.295,K,D*0A
$GPGGA,100848.55,5703.5195835,N,00952.4356684,E,2,10,0.8,-2.148,M,40.593,M,2.0,0123*61
$GPVTG,098.84,T,-541.06,M,003.422,N,006.337,K,D*06
$GPGGA,100848.60,5703.5195774,N,00952.4357529,E,2,10,0.8,-2.144,M,40.593,M,2.0,0123*64
$GPVTG,097.72,T,-542.18,M,003.430,N,006.352,K,D*0C
$GPGGA,100848.65,5703.5195718,N,00952.4358384,E,2,10,0.8,-2.138,M,40.593,M,2.2,0123*6C
$GPVTG,096.69,T,-543.21,M,003.443,N,006.377,K,D*0F
$GPGGA,100848.70,5703.5195661,N,00952.4359245,E,2,10,0.8,-2.129,M,40.593,M,2.2,0123*6A
$GPVTG,095.84,T,-544.06,M,003.458,N,006.404,K,D*04
$GPGGA,100848.75,5703.5195611,N,00952.4360107,E,2,10,0.8,-2.120,M,40.593,M,2.2,0123*6E
$GPVTG,095.04,T,-544.86,M,003.467,N,006.421,K,D*0F
$GPGGA,100848.80,5703.5195567,N,00952.4360979,E,2,10,0.8,-2.113,M,40.593,M,2.2,0123*67
$GPVTG,094.28,T,-545.62,M,003.482,N,006.449,K,D*0E
$GPGGA,100848.85,5703.5195543,N,00952.4361853,E,2,10,0.8,-2.108,M,40.593,M,2.4,0123*60
$GPVTG,093.17,T,-546.73,M,003.493,N,006.468,K,D*05
$GPGGA,100848.90,5703.5195514,N,00952.4362747,E,2,10,0.8,-2.103,M,40.593,M,2.4,0123*64
$GPVTG,092.41,T,-547.49,M,003.520,N,006.518,K,D*00
$GPGGA,100848.95,5703.5195498,N,00952.4363636,E,2,10,0.8,-2.099,M,40.593,M,2.4,0123*60
$GPVTG,091.52,T,-548.38,M,003.535,N,006.548,K,D*09
$GPGGA,100849.00,5703.5195487,N,00952.4364536,E,2,10,0.8,-2.094,M,40.593,M,2.4,0123*6A
$GPVTG,090.69,T,-549.21,M,003.558,N,006.589,K,D*0F
$GPGGA,100849.05,5703.5195486,N,00952.4365441,E,2,10,0.8,-2.088,M,40.593,M,2.7,0123*60
$GPVTG,089.82,T,-550.08,M,003.583,N,006.635,K,D*03
$GPGGA,100849.10,5703.5195487,N,00952.4366352,E,2,10,0.8,-2.081,M,40.593,M,2.7,0123*6A
$GPVTG,089.08,T,-550.82,M,003.605,N,006.676,K,D*09
$GPGGA,100849.15,5703.5195491,N,00952.4367248,E,2,10,0.8,-2.076,M,40.593,M,2.7,0123*6B
$GPVTG,088.43,T,-551.47,M,003.605,N,006.677,K,D*0E
$GPGGA,100849.20,5703.5195493,N,00952.4368159,E,2,10,0.8,-2.074,M,40.593,M,2.7,0123*61
$GPVTG,087.99,T,-551.91,M,003.619,N,006.703,K,D*02
$GPGGA,100849.25,5703.5195507,N,00952.4369072,E,2,10,0.8,-2.074,M,40.593,M,2.9,0123*6F
$GPVTG,087.39,T,-552.51,M,003.632,N,006.726,K,D*09
$GPGGA,100849.30,5703.5195537,N,00952.4369998,E,2,10,0.8,-2.073,M,40.593,M,2.9,0123*62
$GPVTG,086.56,T,-553.34,M,003.655,N,006.769,K,D*09
$GPGGA,100849.35,5703.5195569,N,00952.4370940,E,2,10,0.8,-2.077,M,40.593,M,2.9,0123*65
$GPVTG,085.87,T,-554.03,M,003.689,N,006.832,K,D*05
$GPGGA,100849.40,5703.5195626,N,00952.4371896,E,2,10,0.8,-2.083,M,40.593,M,2.9,0123*6F
$GPVTG,084.77,T,-555.13,M,003.733,N,006.914,K,D*0E
$GPGGA,100849.45,5703.5195703,N,00952.4372852,E,2,10,0.8,-2.090,M,40.593,M,3.1,0123*6C
$GPVTG,083.44,T,-556.46,M,003.772,N,006.987,K,D*05
$GPGGA,100849.50,5703.5195788,N,00952.4373790,E,2,10,0.8,-2.097,M,40.593,M,3.1,0123*6C
$GPVTG,082.10,T,-557.80,M,003.789,N,007.017,K,D*0B
$GPGGA,100849.55,5703.5195877,N,00952.4374735,E,2,10,0.8,-2.106,M,40.593,M,3.1,0123*67
$GPVTG,080.95,T,-558.95,M,003.810,N,007.056,K,D*05
$GPGGA,100849.60,5703.5195981,N,00952.4375657,E,2,10,0.8,-2.113,M,40.593,M,3.1,0123*69
$GPVTG,079.63,T,-560.27,M,003.807,N,007.051,K,D*09
$GPGGA,100849.65,5703.5196101,N,00952.4376585,E,2,10,0.8,-2.124,M,40.593,M,3.3,0123*66
$GPVTG,078.20,T,-561.70,M,003.812,N,007.060,K,D*0A
$GPGGA,100849.70,5703.5196251,N,00952.4377510,E,2,10,0.8,-2.130,M,40.593,M,3.3,0123*6C
$GPVTG,076.31,T,-563.59,M,003.827,N,007.088,K,D*0D
$GPGGA,100849.75,5703.5196413,N,00952.4378427,E,2,10,0.8,-2.136,M,40.593,M,3.3,0123*65
$GPVTG,074.46,T,-565.44,M,003.836,N,007.105,K,D*01
$GPGGA,100849.80,5703.5196596,N,00952.4379328,E,2,10,0.8,-2.141,M,40.593,M,3.3,0123*6A
$GPVTG,072.41,T,-567.49,M,003.841,N,007.113,K,D*08
$GPGGA,100849.85,5703.5196813,N,00952.4380211,E,2,10,0.8,-2.142,M,40.593,M,3.5,0123*67
$GPVTG,069.98,T,-569.92,M,003.847,N,007.125,K,D*0D
$GPGGA,100849.90,5703.5197027,N,00952.4381100,E,2,10,0.8,-2.145,M,40.593,M,3.5,0123*68
$GPVTG,067.96,T,-571.94,M,003.860,N,007.149,K,D*0D
$GPGGA,100849.95,5703.5197241,N,00952.4382001,E,2,10,0.8,-2.151,M,40.593,M,3.5,0123*69
$GPVTG,066.41,T,-573.49,M,003.885,N,007.195,K,D*0E
$GPGGA,100850.00,5703.5197451,N,00952.4382902,E,2,10,0.8,-2.154,M,40.593,M,3.5,0123*65
$GPVTG,065.25,T,-574.65,M,003.904,N,007.230,K,D*02
$GPGGA,100850.05,5703.5197668,N,00952.4383793,E,2,10,0.8,-2.156,M,40.593,M,2.0,0123*69
$GPVTG,064.23,T,-575.67,M,003.917,N,007.254,K,D*06
$GPGGA,100850.10,5703.5197886,N,00952.4384679,E,2,10,0.8,-2.162,M,40.593,M,2.0,0123*66
$GPVTG,063.40,T,-576.50,M,003.920,N,007.259,K,D*0A
$GPGGA,100850.15,5703.5198112,N,00952.4385570,E,2,10,0.8,-2.167,M,40.593,M,2.0,0123*66
$GPVTG,062.78,T,-577.12,M,003.927,N,007.274,K,D*0F
$GPGGA,100850.20,5703.5198347,N,00952.4386475,E,2,10,0.8,-2.173,M,40.593,M,2.0,0123*60
$GPVTG,062.48,T,-577.42,M,003.958,N,007.329,K,D*08
$GPGGA,100850.25,5703.5198580,N,00952.4387371,E,2,10,0.8,-2.167,M,40.593,M,2.2,0123*6D
$GPVTG,062.54,T,-577.36,M,003.961,N,007.336,K,D*02
$GPGGA,100850.30,5703.5198833,N,00952.4388251,E,2,10,0.8,-2.162,M,40.593,M,2.2,0123*65
$GPVTG,061.85,T,-578.05,M,003.953,N,007.321,K,D*05
$GPGGA,100850.35,5703.5199087,N,00952.4389110,E,2,10,0.8,-2.157,M,40.593,M,2.2,0123*67
$GPVTG,061.07,T,-578.83,M,003.908,N,007.238,K,D*06
$GPGGA,100850.40,5703.5199350,N,00952.4389953,E,2,10,0.8,-2.148,M,40.593,M,2.2,0123*6D
$GPVTG,060.08,T,-579.82,M,003.863,N,007.154,K,D*0D
$GPGGA,100850.45,5703.5199618,N,00952.4390787,E,2,10,0.8,-2.136,M,40.593,M,2.5,0123*60
$GPVTG,059.14,T,-580.76,M,003.825,N,007.085,K,D*08
$GPGGA,100850.50,5703.5199883,N,00952.4391622,E,2,10,0.8,-2.125,M,40.593,M,2.5,0123*65
$GPVTG,058.78,T,-581.12,M,003.803,N,007.043,K,D*0E
$GPGGA,100850.55,5703.5200153,N,00952.4392439,E,2,10,0.8,-2.113,M,40.593,M,2.5,0123*69
$GPVTG,058.18,T,-581.72,M,003.766,N,006.974,K,D*0E
$GPGGA,100850.60,5703.5200432,N,00952.4393234,E,2,10,0.8,-2.100,M,40.593,M,2.5,0123*65
$GPVTG,057.15,T,-582.75,M,003.725,N,006.899,K,D*0D
$GPGGA,100850.65,5703.5200723,N,00952.4394027,E,2,10,0.8,-2.083,M,40.593,M,2.7,0123*6C
$GPVTG,056.11,T,-583.79,M,003.723,N,006.896,K,D*0C
$GPGGA,100850.70,5703.5201025,N,00952.4394817,E,2,10,0.8,-2.070,M,40.593,M,2.7,0123*6F
$GPVTG,054.90,T,-585.00,M,003.743,N,006.932,K,D*06
$GPGGA,100850.75,5703.5201338,N,00952.4395597,E,2,10,0.8,-2.061,M,40.593,M,2.7,0123*61
$GPVTG,053.63,T,-586.27,M,003.769,N,006.981,K,D*0B
$GPGGA,100850.80,5703.5201655,N,00952.4396361,E,2,10,0.8,-2.053,M,40.593,M,2.7,0123*68
$GPVTG,052.43,T,-587.47,M,003.771,N,006.984,K,D*03
$GPGGA,100850.85,5703.5201991,N,00952.4397131,E,2,10,0.8,-2.051,M,40.593,M,3.0,0123*68
$GPVTG,051.13,T,-588.77,M,003.822,N,007.078,K,D*0B
$GPGGA,100850.90,5703.5202333,N,00952.4397896,E,2,10,0.8,-2.051,M,40.593,M,3.0,0123*69
$GPVTG,050.12,T,-589.78,M,003.869,N,007.165,K,D*07
$GPGGA,100850.95,5703.5202688,N,00952.4398644,E,2,10,0.8,-2.052,M,40.593,M,3.0,0123*64
$GPVTG,048.79,T,-591.11,M,003.902,N,007.226,K,D*0D
$GPGGA,100851.00,5703.5203054,N,00952.4399417,E,2,10,0.8,-2.057,M,40.593,M,3.0,0123*6F
$GPVTG,048.17,T,-591.73,M,003.985,N,007.381,K,D*02
$GPGGA,100851.05,5703.5203437,N,00952.4400189,E,2,10,0.8,-2.066,M,40.593,M,1.8,0123*66
$GPVTG,047.39,T,-592.51,M,004.080,N,007.557,K,D*04
$GPGGA,100851.10,5703.5203833,N,00952.4400949,E,2,10,0.8,-2.082,M,40.593,M,1.8,0123*64
$GPVTG,046.25,T,-593.65,M,004.148,N,007.682,K,D*00
$GPGGA,100851.15,5703.5204255,N,00952.4401688,E,2,10,0.8,-2.099,M,40.593,M,1.8,0123*65
$GPVTG,044.32,T,-595.58,M,004.217,N,007.809,K,D*08
$GPGGA,100851.20,5703.5204687,N,00952.4402413,E,2,10,0.8,-2.120,M,40.593,M,1.8,0123*68
$GPVTG,042.58,T,-597.32,M,004.264,N,007.897,K,D*0F
$GPGGA,100851.25,5703.5205103,N,00952.4403172,E,2,10,0.8,-2.145,M,40.593,M,2.1,0123*6D
$GPVTG,042.68,T,-597.22,M,004.305,N,007.973,K,D*00
$GPGGA,100851.30,5703.5205507,N,00952.4403922,E,2,10,0.8,-2.171,M,40.593,M,2.1,0123*63
$GPVTG,043.16,T,-596.74,M,004.278,N,007.923,K,D*04
$GPGGA,100851.35,5703.5205919,N,00952.4404627,E,2,10,0.8,-2.192,M,40.593,M,2.1,0123*65
$GPVTG,042.48,T,-597.42,M,004.207,N,007.791,K,D*05
$GPGGA,100851.40,5703.5206335,N,00952.4405261,E,2,10,0.8,-2.203,M,40.593,M,2.1,0123*6C
$GPVTG,040.45,T,-599.45,M,004.062,N,007.523,K,D*09
$GPGGA,100851.45,5703.5206749,N,00952.4405815,E,2,10,0.8,-2.212,M,40.593,M,2.3,0123*6D
$GPVTG,037.37,T,-602.53,M,003.895,N,007.214,K,D*0E
$GPGGA,100851.50,5703.5207168,N,00952.4406327,E,2,10,0.8,-2.206,M,40.593,M,2.3,0123*61
$GPVTG,034.18,T,-605.72,M,003.729,N,006.906,K,D*05
$GPGGA,100851.55,5703.5207582,N,00952.4406821,E,2,10,0.8,-2.192,M,40.593,M,2.3,0123*67
$GPVTG,031.78,T,-608.12,M,003.600,N,006.666,K,D*0E
$GPGGA,100851.60,5703.5207980,N,00952.4407285,E,2,10,0.8,-2.174,M,40.593,M,2.3,0123*62
$GPVTG,030.13,T,-609.77,M,003.452,N,006.393,K,D*0A
$GPGGA,100851.65,5703.5208393,N,00952.4407712,E,2,10,0.8,-2.146,M,40.593,M,2.6,0123*6F
$GPVTG,028.07,T,-611.83,M,003.399,N,006.295,K,D*03
$GPGGA,100851.70,5703.5208822,N,00952.4408112,E,2,10,0.8,-2.122,M,40.593,M,2.6,0123*61
$GPVTG,025.78,T,-614.12,M,003.376,N,006.253,K,D*00
$GPGGA,100851.75,5703.5209235,N,00952.4408470,E,2,10,0.8,-2.101,M,40.593,M,2.6,0123*69
$GPVTG,023.69,T,-616.21,M,003.294,N,006.101,K,D*0D
$GPGGA,100851.80,5703.5209636,N,00952.4408843,E,2,10,0.8,-2.078,M,40.593,M,2.6,0123*67
$GPVTG,023.52,T,-616.38,M,003.228,N,005.979,K,D*0E
$GPGGA,100851.85,5703.5210043,N,00952.4409222,E,2,10,0.8,-2.059,M,40.593,M,2.8,0123*6F
$GPVTG,023.81,T,-616.09,M,003.217,N,005.958,K,D*0D
$GPGGA,100851.90,5703.5210463,N,00952.4409631,E,2,10,0.8,-2.045,M,40.593,M,2.8,0123*66
$GPVTG,025.24,T,-614.66,M,003.287,N,006.087,K,D*0E
$GPGGA,100851.95,5703.5210890,N,00952.4410060,E,2,10,0.8,-2.032,M,40.593,M,2.8,0123*69
$GPVTG,026.81,T,-613.09,M,003.381,N,006.261,K,D*01
$GPGGA,100852.00,5703.5211336,N,00952.4410500,E,2,10,0.8,-2.022,M,40.593,M,2.8,0123*62
$GPVTG,027.77,T,-612.13,M,003.517,N,006.514,K,D*0F
$GPGGA,100852.05,5703.5211808,N,00952.4410959,E,2,10,0.8,-2.007,M,40.593,M,1.5,0123*68
$GPVTG,028.52,T,-611.38,M,003.708,N,006.867,K,D*08
$GPGGA,100852.10,5703.5212298,N,00952.4411442,E,2,10,0.8,-2.016,M,40.593,M,1.5,0123*6A
$GPVTG,028.78,T,-611.12,M,003.908,N,007.238,K,D*07
$GPGGA,100852.15,5703.5212808,N,00952.4411947,E,2,10,0.8,-2.033,M,40.593,M,1.5,0123*63
$GPVTG,028.94,T,-610.96,M,004.114,N,007.619,K,D*0D
$GPGGA,100852.20,5703.5213341,N,00952.4412495,E,2,10,0.8,-2.059,M,40.593,M,1.5,0123*6F
$GPVTG,029.46,T,-610.44,M,004.351,N,008.058,K,D*03
$GPGGA,100852.25,5703.5213878,N,00952.4413052,E,2,10,0.8,-2.094,M,40.593,M,1.8,0123*69
$GPVTG,029.74,T,-610.16,M,004.508,N,008.349,K,D*0C
$GPGGA,100852.30,5703.5214417,N,00952.4413558,E,2,10,0.8,-2.126,M,40.593,M,1.8,0123*68
$GPVTG,028.61,T,-611.29,M,004.550,N,008.426,K,D*07
$GPGGA,100852.35,5703.5214947,N,00952.4413930,E,2,10,0.8,-2.148,M,40.593,M,1.8,0123*6F
$GPVTG,024.67,T,-615.23,M,004.408,N,008.163,K,D*0B
$GPGGA,100852.40,5703.5215453,N,00952.4414199,E,2,10,0.8,-2.162,M,40.593,M,1.8,0123*60
$GPVTG,019.52,T,-620.38,M,004.154,N,007.693,K,D*04
$GPGGA,100852.45,5703.5215941,N,00952.4414456,E,2,10,0.8,-2.177,M,40.593,M,2.0,0123*62
$GPVTG,015.81,T,-624.09,M,003.931,N,007.280,K,D*0A
$GPGGA,100852.50,5703.5216412,N,00952.4414668,E,2,10,0.8,-2.180,M,40.593,M,2.0,0123*69
$GPVTG,012.51,T,-627.39,M,003.704,N,006.860,K,D*0D
$GPGGA,100852.55,5703.5216879,N,00952.4414844,E,2,10,0.8,-2.177,M,40.593,M,2.0,0123*65
$GPVTG,009.55,T,-630.35,M,003.529,N,006.535,K,D*09
$GPGGA,100852.60,5703.5217343,N,00952.4414968,E,2,10,0.8,-2.171,M,40.593,M,2.0,0123*69
$GPVTG,006.34,T,-633.56,M,003.402,N,006.300,K,D*0F
$GPGGA,100852.65,5703.5217806,N,00952.4415062,E,2,10,0.8,-2.167,M,40.593,M,2.2,0123*61
$GPVTG,003.57,T,-636.33,M,003.324,N,006.156,K,D*0B
$GPGGA,100852.70,5703.5218268,N,00952.4415155,E,2,10,0.8,-2.159,M,40.593,M,2.2,0123*60
$GPVTG,002.53,T,-637.37,M,003.279,N,006.072,K,D*05
$GPGGA,100852.75,5703.5218713,N,00952.4415241,E,2,10,0.8,-2.151,M,40.593,M,2.2,0123*62
$GPVTG,002.27,T,-637.63,M,003.205,N,005.936,K,D*06
$GPGGA,100852.80,5703.5219168,N,00952.4415335,E,2,10,0.8,-2.141,M,40.593,M,2.2,0123*60
$GPVTG,002.92,T,-636.98,M,003.193,N,005.914,K,D*01
$GPGGA,100852.85,5703.5219638,N,00952.4415417,E,2,10,0.8,-2.126,M,40.593,M,2.4,0123*67
$GPVTG,003.34,T,-636.56,M,003.243,N,006.006,K,D*09
$GPGGA,100852.90,5703.5220127,N,00952.4415508,E,2,10,0.8,-2.120,M,40.593,M,2.4,0123*69
$GPVTG,004.08,T,-635.82,M,003.354,N,006.211,K,D*08
$GPGGA,100852.95,5703.5220616,N,00952.4415603,E,2,10,0.8,-2.119,M,40.593,M,2.4,0123*6B
$GPVTG,004.83,T,-635.07,M,003.442,N,006.375,K,D*05
$GPGGA,100853.00,5703.5221111,N,00952.4415689,E,2,10,0.8,-2.116,M,40.593,M,2.4,0123*6A
$GPVTG,005.05,T,-634.85,M,003.525,N,006.528,K,D*0F
$GPGGA,100853.05,5703.5221638,N,00952.4415775,E,2,10,0.8,-2.105,M,40.593,M,2.7,0123*60
$GPVTG,005.29,T,-634.61,M,003.671,N,006.799,K,D*01
$GPGGA,100853.10,5703.5222167,N,00952.4415896,E,2,10,0.8,-2.114,M,40.593,M,2.7,0123*68
$GPVTG,006.32,T,-633.58,M,003.798,N,007.034,K,D*02
$GPGGA,100853.15,5703.5222699,N,00952.4415998,E,2,10,0.8,-2.127,M,40.593,M,2.7,0123*64
$GPVTG,006.34,T,-633.56,M,003.882,N,007.189,K,D*09
$GPGGA,100853.20,5703.5223238,N,00952.4416060,E,2,10,0.8,-2.140,M,40.593,M,2.7,0123*60
$GPVTG,005.02,T,-634.88,M,003.944,N,007.305,K,D*06
$GPGGA,100853.25,5703.5223732,N,00952.4416039,E,2,10,0.8,-2.143,M,40.593,M,2.9,0123*6B
$GPVTG,001.74,T,-638.16,M,003.825,N,007.083,K,D*03
$GPGGA,100853.30,5703.5224124,N,00952.4415926,E,2,10,0.8,-2.132,M,40.593,M,2.9,0123*6B
$GPVTG,356.13,T,-283.77,M,003.410,N,006.314,K,D*06
$GPGGA,100853.35,5703.5224506,N,00952.4415847,E,2,10,0.8,-2.110,M,40.593,M,2.9,0123*6C
$GPVTG,353.03,T,-286.87,M,003.083,N,005.710,K,D*05
$GPGGA,100853.40,5703.5224901,N,00952.4415723,E,2,10,0.8,-2.093,M,40.593,M,2.9,0123*62
$GPVTG,349.40,T,-290.50,M,002.918,N,005.403,K,D*0F
$GPGGA,100853.45,5703.5225262,N,00952.4415567,E,2,10,0.8,-2.077,M,40.593,M,3.1,0123*69
$GPVTG,345.39,T,-294.51,M,002.727,N,005.050,K,D*08
$GPGGA,100853.50,5703.5225633,N,00952.4415368,E,2,10,0.8,-2.065,M,40.593,M,3.1,0123*67
$GPVTG,341.48,T,-298.42,M,002.669,N,004.943,K,D*05
$GPGGA,100853.55,5703.5226016,N,00952.4415134,E,2,10,0.8,-2.057,M,40.593,M,3.1,0123*6A
$GPVTG,338.44,T,-301.46,M,002.709,N,005.017,K,D*0C
$GPGGA,100853.60,5703.5226428,N,00952.4414911,E,2,10,0.8,-2.054,M,40.593,M,3.1,0123*68
$GPVTG,338.40,T,-301.50,M,002.832,N,005.244,K,D*0C
$GPGGA,100853.65,5703.5226837,N,00952.4414721,E,2,10,0.8,-2.057,M,40.593,M,3.3,0123*63
$GPVTG,340.16,T,-299.74,M,002.890,N,005.352,K,D*08
$GPGGA,100853.70,5703.5227261,N,00952.4414564,E,2,10,0.8,-2.064,M,40.593,M,3.3,0123*6C
$GPVTG,343.54,T,-296.36,M,002.969,N,005.499,K,D*03
$GPGGA,100853.75,5703.5227709,N,00952.4414430,E,2,10,0.8,-2.074,M,40.593,M,3.3,0123*63
$GPVTG,347.22,T,-292.68,M,003.100,N,005.742,K,D*0A
$GPGGA,100853.80,5703.5228178,N,00952.4414321,E,2,10,0.8,-2.088,M,40.593,M,3.3,0123*62
$GPVTG,350.67,T,-289.23,M,003.260,N,006.038,K,D*04
$GPGGA,100853.85,5703.5228685,N,00952.4414190,E,2,10,0.8,-2.089,M,40.593,M,3.5,0123*6D
$GPVTG,352.36,T,-287.54,M,003.482,N,006.449,K,D*04
$GPGGA,100853.90,5703.5229195,N,00952.4414028,E,2,10,0.8,-2.113,M,40.593,M,3.5,0123*6E
$GPVTG,352.02,T,-287.88,M,003.675,N,006.806,K,D*0F
$GPGGA,100853.95,5703.5229709,N,00952.4413853,E,2,10,0.8,-2.145,M,40.593,M,3.5,0123*68
$GPVTG,351.24,T,-288.66,M,003.815,N,007.065,K,D*03
$GPGGA,100854.00,5703.5230214,N,00952.4413659,E,2,10,0.8,-2.177,M,40.593,M,3.5,0123*67
$GPVTG,349.98,T,-289.92,M,003.871,N,007.169,K,D*08
$GPGGA,100854.05,5703.5230687,N,00952.4413422,E,2,10,0.8,-2.205,M,40.593,M,2.0,0123*60
$GPVTG,347.58,T,-292.32,M,003.810,N,007.056,K,D*00
$GPGGA,100854.10,5703.5231098,N,00952.4413111,E,2,10,0.8,-2.215,M,40.593,M,2.0,0123*69
$GPVTG,342.66,T,-297.24,M,003.598,N,006.663,K,D*06
$GPGGA,100854.15,5703.5231459,N,00952.4412750,E,2,10,0.8,-2.220,M,40.593,M,2.0,0123*61
$GPVTG,336.38,T,-303.52,M,003.331,N,006.168,K,D*0A
$GPGGA,100854.20,5703.5231797,N,00952.4412374,E,2,10,0.8,-2.227,M,40.593,M,2.0,0123*63
$GPVTG,330.66,T,-309.24,M,003.101,N,005.744,K,D*06
$GPGGA,100854.25,5703.5232121,N,00952.4412016,E,2,10,0.8,-2.236,M,40.593,M,2.2,0123*6B
$GPVTG,326.87,T,-313.03,M,002.896,N,005.364,K,D*00
$GPGGA,100854.30,5703.5232432,N,00952.4411630,E,2,10,0.8,-2.235,M,40.593,M,2.2,0123*6A
$GPVTG,323.27,T,-316.63,M,002.751,N,005.096,K,D*06
$GPGGA,100854.35,5703.5232735,N,00952.4411218,E,2,10,0.8,-2.229,M,40.593,M,2.2,0123*68
$GPVTG,320.10,T,-319.80,M,002.674,N,004.952,K,D*05
$GPGGA,100854.40,5703.5233028,N,00952.4410788,E,2,10,0.8,-2.222,M,40.593,M,2.2,0123*66
$GPVTG,317.49,T,-322.41,M,002.631,N,004.872,K,D*0A
$GPGGA,100854.45,5703.5233301,N,00952.4410363,E,2,10,0.8,-2.210,M,40.593,M,2.5,0123*6C
$GPVTG,315.60,T,-324.30,M,002.556,N,004.734,K,D*0C
$GPGGA,100854.50,5703.5233561,N,00952.4409956,E,2,10,0.8,-2.198,M,40.593,M,2.5,0123*6F
$GPVTG,314.77,T,-325.13,M,002.453,N,004.542,K,D*0C
$GPGGA,100854.55,5703.5233832,N,00952.4409531,E,2,10,0.8,-2.188,M,40.593,M,2.5,0123*6D
$GPVTG,314.85,T,-325.05,M,002.443,N,004.525,K,D*06
$GPGGA,100854.60,5703.5234114,N,00952.4409117,E,2,10,0.8,-2.177,M,40.593,M,2.5,0123*61
$GPVTG,316.31,T,-323.59,M,002.456,N,004.549,K,D*0A
$GPGGA,100854.65,5703.5234393,N,00952.4408695,E,2,10,0.8,-2.159,M,40.593,M,2.7,0123*6B
$GPVTG,317.15,T,-322.75,M,002.477,N,004.587,K,D*03
$GPGGA,100854.70,5703.5234653,N,00952.4408257,E,2,10,0.8,-2.150,M,40.593,M,2.7,0123*65
$GPVTG,316.55,T,-323.35,M,002.485,N,004.601,K,D*03
$GPGGA,100854.75,5703.5234899,N,00952.4407813,E,2,10,0.8,-2.142,M,40.593,M,2.7,0123*6E
$GPVTG,315.38,T,-324.52,M,002.472,N,004.579,K,D*09
$GPGGA,100854.80,5703.5235137,N,00952.4407354,E,2,10,0.8,-2.133,M,40.593,M,2.7,0123*66
$GPVTG,313.76,T,-326.14,M,002.469,N,004.573,K,D*05
$GPGGA,100854.85,5703.5235386,N,00952.4406891,E,2,10,0.8,-2.118,M,40.593,M,3.0,0123*67
$GPVTG,313.23,T,-326.67,M,002.492,N,004.614,K,D*07
$GPGGA,100854.90,5703.5235631,N,00952.4406410,E,2,10,0.8,-2.109,M,40.593,M,3.0,0123*6F
$GPVTG,312.38,T,-327.52,M,002.535,N,004.696,K,D*0D
$GPGGA,100854.95,5703.5235862,N,00952.4405928,E,2,10,0.8,-2.102,M,40.593,M,3.0,0123*6C
$GPVTG,311.13,T,-328.77,M,002.536,N,004.696,K,D*0C
$GPGGA,100855.00,5703.5236081,N,00952.4405443,E,2,10,0.8,-2.094,M,40.593,M,3.0,0123*69
$GPVTG,309.71,T,-330.19,M,002.514,N,004.656,K,D*0C
$GPGGA,100855.05,5703.5236290,N,00952.4404941,E,2,10,0.8,-2.085,M,40.593,M,1.8,0123*6A
$GPVTG,307.93,T,-331.97,M,002.479,N,004.592,K,D*08
$GPGGA,100855.10,5703.5236476,N,00952.4404443,E,2,10,0.8,-2.083,M,40.593,M,1.8,0123*69
$GPVTG,305.41,T,-334.49,M,002.427,N,004.494,K,D*0F
$GPGGA,100855.15,5703.5236639,N,00952.4403959,E,2,10,0.8,-2.082,M,40.593,M,1.8,0123*65
$GPVTG,302.64,T,-337.26,M,002.325,N,004.305,K,D*0F
$GPGGA,100855.20,5703.5236793,N,00952.4403468,E,2,10,0.8,-2.080,M,40.593,M,1.8,0123*6F
$GPVTG,299.94,T,-339.96,M,002.257,N,004.180,K,D*0D
$GPGGA,100855.25,5703.5236941,N,00952.4402965,E,2,10,0.8,-2.078,M,40.593,M,2.1,0123*67
$GPVTG,297.76,T,-342.14,M,002.232,N,004.134,K,D*05
$GPGGA,100855.30,5703.5237081,N,00952.4402471,E,2,10,0.8,-2.077,M,40.593,M,2.1,0123*60
$GPVTG,295.88,T,-344.02,M,002.185,N,004.047,K,D*0D
$GPGGA,100855.35,5703.5237213,N,00952.4401966,E,2,10,0.8,-2.080,M,40.593,M,2.1,0123*6C
$GPVTG,294.06,T,-345.84,M,002.171,N,004.020,K,D*0F
$GPGGA,100855.40,5703.5237333,N,00952.4401473,E,2,10,0.8,-2.083,M,40.593,M,2.1,0123*67
$GPVTG,292.34,T,-347.56,M,002.126,N,003.938,K,D*00
$GPGGA,100855.45,5703.5237455,N,00952.4400972,E,2,10,0.8,-2.095,M,40.593,M,2.3,0123*6D
$GPVTG,291.55,T,-348.35,M,002.125,N,003.936,K,D*03
$GPGGA,100855.50,5703.5237578,N,00952.4400476,E,2,10,0.8,-2.102,M,40.593,M,2.3,0123*61
$GPVTG,291.44,T,-348.46,M,002.114,N,003.916,K,D*07
$GPGGA,100855.55,5703.5237690,N,00952.4399995,E,2,10,0.8,-2.108,M,40.593,M,2.3,0123*6C
$GPVTG,291.13,T,-348.77,M,002.066,N,003.826,K,D*01
$GPGGA,100855.60,5703.5237797,N,00952.4399505,E,2,10,0.8,-2.112,M,40.593,M,2.3,0123*62
$GPVTG,290.50,T,-349.41,M,002.051,N,003.798,K,D*0D
$GPGGA,100855.65,5703.5237885,N,00952.4399021,E,2,10,0.8,-2.118,M,40.593,M,2.6,0123*67
$GPVTG,288.66,T,-351.24,M,002.011,N,003.724,K,D*08
$GPGGA,100855.70,5703.5237959,N,00952.4398528,E,2,10,0.8,-2.119,M,40.593,M,2.6,0123*6F
$GPVTG,286.15,T,-353.75,M,001.993,N,003.691,K,D*0B
$GPGGA,100855.75,5703.5238032,N,00952.4398030,E,2,10,0.8,-2.120,M,40.593,M,2.6,0123*67
$GPVTG,284.37,T,-355.53,M,001.997,N,003.698,K,D*06
$GPGGA,100855.80,5703.5238102,N,00952.4397541,E,2,10,0.8,-2.122,M,40.593,M,2.6,0123*61
$GPVTG,283.21,T,-356.69,M,001.981,N,003.669,K,D*05
$GPGGA,100855.85,5703.5238165,N,00952.4397053,E,2,10,0.8,-2.126,M,40.593,M,2.8,0123*69
$GPVTG,282.15,T,-357.75,M,001.970,N,003.648,K,D*02
$GPGGA,100855.90,5703.5238223,N,00952.4396576,E,2,10,0.8,-2.126,M,40.593,M,2.8,0123*6F
$GPVTG,281.19,T,-358.71,M,001.935,N,003.584,K,D*04
$GPGGA,100855.95,5703.5238270,N,00952.4396096,E,2,10,0.8,-2.126,M,40.593,M,2.8,0123*67
$GPVTG,279.63,T,-360.27,M,001.913,N,003.543,K,D*09
$GPGGA,100856.00,5703.5238301,N,00952.4395618,E,2,10,0.8,-2.127,M,40.593,M,2.8,0123*6D
$GPVTG,277.24,T,-362.66,M,001.891,N,003.502,K,D*0D
$GPGGA,100856.05,5703.5238337,N,00952.4395128,E,2,10,0.8,-2.127,M,40.593,M,1.5,0123*67
$GPVTG,275.97,T,-363.93,M,001.884,N,003.489,K,D*0A
$GPGGA,100856.10,5703.5238378,N,00952.4394654,E,2,10,0.8,-2.128,M,40.593,M,1.5,0123*6A
$GPVTG,276.11,T,-363.79,M,001.874,N,003.471,K,D*0B
$GPGGA,100856.15,5703.5238400,N,00952.4394175,E,2,10,0.8,-2.131,M,40.593,M,1.5,0123*6B
$GPVTG,274.56,T,-365.34,M,001.875,N,003.472,K,D*07
$GPGGA,100856.20,5703.5238401,N,00952.4393700,E,2,10,0.8,-2.133,M,40.593,M,1.5,0123*6D
$GPVTG,271.55,T,-368.35,M,001.864,N,003.453,K,D*0E
$GPGGA,100856.25,5703.5238393,N,00952.4393230,E,2,10,0.8,-2.134,M,40.593,M,1.8,0123*68
$GPVTG,268.77,T,-371.13,M,001.853,N,003.431,K,D*0A
$GPGGA,100856.30,5703.5238379,N,00952.4392760,E,2,10,0.8,-2.136,M,40.593,M,1.8,0123*6B
$GPVTG,266.36,T,-373.54,M,001.847,N,003.421,K,D*04
$GPGGA,100856.35,5703.5238361,N,00952.4392312,E,2,10,0.8,-2.136,M,40.593,M,1.8,0123*66
$GPVTG,264.48,T,-375.42,M,001.804,N,003.340,K,D*09
$GPGGA,100856.40,5703.5238340,N,00952.4391856,E,2,10,0.8,-2.137,M,40.593,M,1.8,0123*6E
$GPVTG,263.14,T,-376.76,M,001.793,N,003.321,K,D*05
$GPGGA,100856.45,5703.5238307,N,00952.4391406,E,2,10,0.8,-2.135,M,40.593,M,2.0,0123*68
$GPVTG,261.22,T,-378.68,M,001.781,N,003.298,K,D*03
$GPGGA,100856.50,5703.5238246,N,00952.4390968,E,2,10,0.8,-2.138,M,40.593,M,2.0,0123*61
$GPVTG,257.24,T,-382.66,M,001.769,N,003.277,K,D*0C
$GPGGA,100856.55,5703.5238177,N,00952.4390548,E,2,10,0.8,-2.138,M,40.593,M,2.0,0123*6B
$GPVTG,253.47,T,-386.43,M,001.742,N,003.227,K,D*02
$GPGGA,100856.60,5703.5238090,N,00952.4390150,E,2,10,0.8,-2.139,M,40.593,M,2.0,0123*69
$GPVTG,248.74,T,-391.16,M,001.707,N,003.162,K,D*0D
$GPGGA,100856.65,5703.5238002,N,00952.4389768,E,2,10,0.8,-2.141,M,40.593,M,2.2,0123*6F
$GPVTG,245.50,T,-394.40,M,001.665,N,003.083,K,D*0B
$GPGGA,100856.70,5703.5237907,N,00952.4389378,E,2,10,0.8,-2.142,M,40.593,M,2.2,0123*6E
$GPVTG,243.14,T,-396.76,M,001.666,N,003.085,K,D*0F
$GPGGA,100856.75,5703.5237803,N,00952.4388995,E,2,10,0.8,-2.142,M,40.593,M,2.2,0123*66
$GPVTG,240.85,T,-399.05,M,001.675,N,003.103,K,D*02
$GPGGA,100856.80,5703.5237687,N,00952.4388638,E,2,10,0.8,-2.144,M,40.593,M,2.2,0123*60
$GPVTG,237.78,T,-402.12,M,001.657,N,003.069,K,D*0E
$GPGGA,100856.85,5703.5237555,N,00952.4388275,E,2,10,0.8,-2.154,M,40.593,M,2.4,0123*63
$GPVTG,235.06,T,-404.84,M,001.696,N,003.142,K,D*09
$GPGGA,100856.90,5703.5237428,N,00952.4387915,E,2,10,0.8,-2.157,M,40.593,M,2.4,0123*6D
$GPVTG,233.83,T,-406.07,M,001.705,N,003.157,K,D*04
$GPGGA,100856.95,5703.5237282,N,00952.4387558,E,2,10,0.8,-2.163,M,40.593,M,2.4,0123*6C
$GPVTG,231.79,T,-408.11,M,001.743,N,003.229,K,D*02
$GPGGA,100857.00,5703.5237133,N,00952.4387222,E,2,10,0.8,-2.170,M,40.593,M,2.4,0123*60
$GPVTG,229.48,T,-410.42,M,001.742,N,003.226,K,D*08
$GPGGA,100857.05,5703.5236983,N,00952.4386874,E,2,10,0.8,-2.171,M,40.593,M,2.7,0123*6D
$GPVTG,228.01,T,-411.89,M,001.747,N,003.236,K,D*06
$GPGGA,100857.10,5703.5236820,N,00952.4386529,E,2,10,0.8,-2.174,M,40.593,M,2.7,0123*61
$GPVTG,227.07,T,-412.83,M,001.787,N,003.310,K,D*0F
$GPGGA,100857.15,5703.5236661,N,00952.4386183,E,2,10,0.8,-2.176,M,40.593,M,2.7,0123*69
$GPVTG,227.05,T,-412.85,M,001.808,N,003.348,K,D*0E
$GPGGA,100857.20,5703.5236489,N,00952.4385849,E,2,10,0.8,-2.180,M,40.593,M,2.7,0123*6E
$GPVTG,225.86,T,-414.04,M,001.827,N,003.383,K,D*02
$GPGGA,100857.25,5703.5236298,N,00952.4385524,E,2,10,0.8,-2.187,M,40.593,M,2.9,0123*62
$GPVTG,223.54,T,-416.36,M,001.872,N,003.467,K,D*05
$GPGGA,100857.30,5703.5236109,N,00952.4385195,E,2,10,0.8,-2.192,M,40.593,M,2.9,0123*67
$GPVTG,222.43,T,-417.47,M,001.897,N,003.514,K,D*0B
$GPGGA,100857.35,5703.5235910,N,00952.4384878,E,2,10,0.8,-2.195,M,40.593,M,2.9,0123*6D
$GPVTG,220.68,T,-419.22,M,001.923,N,003.562,K,D*02
$GPGGA,100857.40,5703.5235702,N,00952.4384562,E,2,10,0.8,-2.198,M,40.593,M,2.9,0123*69
$GPVTG,219.18,T,-420.72,M,001.956,N,003.623,K,D*04
$GPGGA,100857.45,5703.5235487,N,00952.4384260,E,2,10,0.8,-2.202,M,40.593,M,3.1,0123*6E
$GPVTG,217.35,T,-422.55,M,001.979,N,003.665,K,D*0D
$GPGGA,100857.50,5703.5235256,N,00952.4383964,E,2,10,0.8,-2.206,M,40.593,M,3.1,0123*6C
$GPVTG,215.08,T,-424.82,M,002.028,N,003.756,K,D*02
$GPGGA,100857.55,5703.5235022,N,00952.4383682,E,2,10,0.8,-2.209,M,40.593,M,3.1,0123*60
$GPVTG,212.98,T,-426.92,M,002.052,N,003.799,K,D*01
$GPGGA,100857.60,5703.5234781,N,00952.4383422,E,2,10,0.8,-2.208,M,40.593,M,3.1,0123*60
$GPVTG,210.42,T,-429.48,M,002.060,N,003.815,K,D*06
$GPGGA,100857.65,5703.5234531,N,00952.4383160,E,2,10,0.8,-2.205,M,40.593,M,3.3,0123*60
$GPVTG,208.70,T,-431.20,M,002.092,N,003.874,K,D*03
$GPGGA,100857.70,5703.5234273,N,00952.4382920,E,2,10,0.8,-2.202,M,40.593,M,3.3,0123*6F
$GPVTG,206.48,T,-433.42,M,002.114,N,003.915,K,D*09
$GPGGA,100857.75,5703.5234002,N,00952.4382691,E,2,10,0.8,-2.197,M,40.593,M,3.3,0123*64
$GPVTG,204.28,T,-435.62,M,002.157,N,003.994,K,D*07
$GPGGA,100857.80,5703.5233731,N,00952.4382477,E,2,10,0.8,-2.192,M,40.593,M,3.3,0123*61
$GPVTG,202.36,T,-437.54,M,002.173,N,004.025,K,D*0B
$GPGGA,100857.85,5703.5233454,N,00952.4382293,E,2,10,0.8,-2.185,M,40.593,M,3.5,0123*68
$GPVTG,199.69,T,-440.21,M,002.179,N,004.035,K,D*09
$GPGGA,100857.90,5703.5233176,N,00952.4382124,E,2,10,0.8,-2.178,M,40.593,M,3.5,0123*64
$GPVTG,197.47,T,-442.43,M,002.174,N,004.026,K,D*02
$GPGGA,100857.95,5703.5232894,N,00952.4381970,E,2,10,0.8,-2.171,M,40.593,M,3.5,0123*66
$GPVTG,195.44,T,-444.46,M,002.170,N,004.019,K,D*08
$GPGGA,100858.00,5703.5232602,N,00952.4381841,E,2,10,0.8,-2.166,M,40.593,M,3.5,0123*61
$GPVTG,192.92,T,-446.98,M,002.187,N,004.051,K,D*01
$GPGGA,100858.05,5703.5232312,N,00952.4381713,E,2,10,0.8,-2.162,M,40.593,M,2.0,0123*68
$GPVTG,191.16,T,-448.74,M,002.195,N,004.066,K,D*05
$GPGGA,100858.10,5703.5232009,N,00952.4381602,E,2,10,0.8,-2.159,M,40.593,M,2.0,0123*6C
$GPVTG,189.82,T,-450.08,M,002.230,N,004.130,K,D*0D
$GPGGA,100858.15,5703.5231695,N,00952.4381501,E,2,10,0.8,-2.156,M,40.593,M,2.0,0123*66
$GPVTG,188.59,T,-451.31,M,002.283,N,004.229,K,D*02
$GPGGA,100858.20,5703.5231378,N,00952.4381409,E,2,10,0.8,-2.150,M,40.593,M,2.0,0123*69
$GPVTG,187.63,T,-452.27,M,002.326,N,004.308,K,D*0C
$GPGGA,100858.25,5703.5231051,N,00952.4381348,E,2,10,0.8,-2.147,M,40.593,M,2.2,0123*62
$GPVTG,185.68,T,-454.22,M,002.372,N,004.392,K,D*04
$GPGGA,100858.30,5703.5230725,N,00952.4381317,E,2,10,0.8,-2.144,M,40.593,M,2.2,0123*6A
$GPVTG,183.15,T,-456.75,M,002.399,N,004.442,K,D*07
$GPGGA,100858.35,5703.5230405,N,00952.4381283,E,2,10,0.8,-2.142,M,40.593,M,2.2,0123*64
$GPVTG,182.01,T,-457.89,M,002.392,N,004.429,K,D*07
$GPGGA,100858.40,5703.5230082,N,00952.4381264,E,2,10,0.8,-2.140,M,40.593,M,2.2,0123*66
$GPVTG,180.74,T,-459.16,M,002.389,N,004.424,K,D*08
$GPGGA,100858.45,5703.5229747,N,00952.4381267,E,2,10,0.8,-2.136,M,40.593,M,2.5,0123*60
$GPVTG,179.13,T,-460.77,M,002.423,N,004.488,K,D*03
$GPGGA,100858.50,5703.5229412,N,00952.4381296,E,2,10,0.8,-2.133,M,40.593,M,2.5,0123*6C
$GPVTG,177.08,T,-462.82,M,002.445,N,004.528,K,D*04
$GPGGA,100858.55,5703.5229077,N,00952.4381329,E,2,10,0.8,-2.129,M,40.593,M,2.5,0123*60
$GPVTG,175.85,T,-464.05,M,002.456,N,004.549,K,D*0F
$GPGGA,100858.60,5703.5228739,N,00952.4381386,E,2,10,0.8,-2.123,M,40.593,M,2.5,0123*65
$GPVTG,174.23,T,-465.67,M,002.475,N,004.583,K,D*00
$GPGGA,100858.65,5703.5228408,N,00952.4381450,E,2,10,0.8,-2.123,M,40.593,M,2.7,0123*6F
$GPVTG,173.08,T,-466.82,M,002.462,N,004.560,K,D*0D
$GPGGA,100858.70,5703.5228079,N,00952.4381512,E,2,10,0.8,-2.122,M,40.593,M,2.7,0123*6F
$GPVTG,172.63,T,-467.27,M,002.440,N,004.518,K,D*00
$GPGGA,100858.75,5703.5227744,N,00952.4381588,E,2,10,0.8,-2.120,M,40.593,M,2.7,0123*6D
$GPVTG,171.96,T,-467.94,M,002.448,N,004.533,K,D*00
$GPGGA,100858.80,5703.5227402,N,00952.4381697,E,2,10,0.8,-2.117,M,40.593,M,2.7,0123*6F
$GPVTG,170.22,T,-469.68,M,002.481,N,004.594,K,D*0B
$GPGGA,100858.85,5703.5227059,N,00952.4381813,E,2,10,0.8,-2.113,M,40.593,M,3.0,0123*60
$GPVTG,168.97,T,-470.93,M,002.513,N,004.654,K,D*05
$GPGGA,100858.90,5703.5226715,N,00952.4381947,E,2,10,0.8,-2.112,M,40.593,M,3.0,0123*6B
$GPVTG,167.58,T,-472.32,M,002.541,N,004.705,K,D*02
$GPGGA,100858.95,5703.5226363,N,00952.4382084,E,2,10,0.8,-2.115,M,40.593,M,3.0,0123*69
$GPVTG,166.91,T,-472.99,M,002.583,N,004.784,K,D*00
$GPGGA,100859.00,5703.5226011,N,00952.4382248,E,2,10,0.8,-2.117,M,40.593,M,3.0,0123*62
$GPVTG,165.53,T,-474.37,M,002.624,N,004.860,K,D*04
$GPGGA,100859.05,5703.5225666,N,00952.4382458,E,2,10,0.8,-2.121,M,40.593,M,1.8,0123*6A
$GPVTG,162.67,T,-477.23,M,002.653,N,004.913,K,D*07
$GPGGA,100859.10,5703.5225322,N,00952.4382724,E,2,10,0.8,-2.122,M,40.593,M,1.8,0123*60
$GPVTG,158.69,T,-481.21,M,002.704,N,005.007,K,D*05
$GPGGA,100859.15,5703.5224978,N,00952.4382994,E,2,10,0.8,-2.124,M,40.593,M,1.8,0123*62
$GPVTG,156.23,T,-483.67,M,002.739,N,005.072,K,D*09
$GPGGA,100859.20,5703.5224651,N,00952.4383281,E,2,10,0.8,-2.127,M,40.593,M,1.8,0123*6D
$GPVTG,153.87,T,-486.03,M,002.720,N,005.038,K,D*03
$GPGGA,100859.25,5703.5224316,N,00952.4383609,E,2,10,0.8,-2.134,M,40.593,M,2.1,0123*62
$GPVTG,151.44,T,-488.46,M,002.761,N,005.114,K,D*0B
$GPGGA,100859.30,5703.5223987,N,00952.4383979,E,2,10,0.8,-2.139,M,40.593,M,2.1,0123*66
$GPVTG,148.46,T,-491.44,M,002.807,N,005.199,K,D*01
$GPGGA,100859.35,5703.5223654,N,00952.4384373,E,2,10,0.8,-2.144,M,40.593,M,2.1,0123*6F
$GPVTG,146.16,T,-493.74,M,002.869,N,005.314,K,D*04
$GPGGA,100859.40,5703.5223330,N,00952.4384785,E,2,10,0.8,-2.149,M,40.593,M,2.1,0123*6A
$GPVTG,144.13,T,-495.77,M,002.903,N,005.377,K,D*0E
$GPGGA,100859.45,5703.5223013,N,00952.4385227,E,2,10,0.8,-2.153,M,40.593,M,2.3,0123*68
$GPVTG,141.99,T,-497.91,M,002.940,N,005.444,K,D*03
$GPGGA,100859.50,5703.5222696,N,00952.4385680,E,2,10,0.8,-2.158,M,40.593,M,2.3,0123*64
$GPVTG,140.38,T,-499.52,M,002.974,N,005.507,K,D*09
$GPGGA,100859.55,5703.5222389,N,00952.4386163,E,2,10,0.8,-2.164,M,40.593,M,2.3,0123*6C
$GPVTG,138.50,T,-501.40,M,003.003,N,005.561,K,D*03
$GPGGA,100859.60,5703.5222084,N,00952.4386680,E,2,10,0.8,-2.170,M,40.593,M,2.3,0123*6B
$GPVTG,136.59,T,-503.31,M,003.048,N,005.646,K,D*09
$GPGGA,100859.65,5703.5221784,N,00952.4387229,E,2,10,0.8,-2.179,M,40.593,M,2.6,0123*60
$GPVTG,134.66,T,-505.24,M,003.099,N,005.739,K,D*00
$GPGGA,100859.70,5703.5221493,N,00952.4387775,E,2,10,0.8,-2.182,M,40.593,M,2.6,0123*69
$GPVTG,133.13,T,-506.77,M,003.123,N,005.785,K,D*07
$GPGGA,100859.75,5703.5221212,N,00952.4388342,E,2,10,0.8,-2.182,M,40.593,M,2.6,0123*6C
$GPVTG,131.47,T,-508.43,M,003.143,N,005.822,K,D*09
$GPGGA,100859.80,5703.5220952,N,00952.4388927,E,2,10,0.8,-2.179,M,40.593,M,2.6,0123*65
$GPVTG,129.54,T,-510.36,M,003.147,N,005.828,K,D*07
$GPGGA,100859.85,5703.5220701,N,00952.4389541,E,2,10,0.8,-2.180,M,40.593,M,2.8,0123*6D
$GPVTG,127.58,T,-512.32,M,003.163,N,005.859,K,D*03
$GPGGA,100859.90,5703.5220445,N,00952.4390159,E,2,10,0.8,-2.178,M,40.593,M,2.8,0123*68
$GPVTG,126.10,T,-513.80,M,003.180,N,005.889,K,D*06
$GPGGA,100859.95,5703.5220205,N,00952.4390801,E,2,10,0.8,-2.175,M,40.593,M,2.8,0123*66
$GPVTG,124.39,T,-515.51,M,003.195,N,005.917,K,D*07
$GPGGA,100900.00,5703.5219972,N,00952.4391446,E,2,10,0.8,-2.173,M,40.593,M,2.8,0123*6E
$GPVTG,122.88,T,-517.02,M,003.199,N,005.925,K,D*02
$GPGGA,100900.05,5703.5219747,N,00952.4392094,E,2,10,0.8,-2.165,M,40.593,M,1.5,0123*62
$GPVTG,121.51,T,-518.39,M,003.200,N,005.926,K,D*02
$GPGGA,100900.10,5703.5219516,N,00952.4392770,E,2,10,0.8,-2.162,M,40.593,M,1.5,0123*6A
$GPVTG,120.38,T,-519.52,M,003.220,N,005.963,K,D*03
$GPGGA,100900.15,5703.5219297,N,00952.4393465,E,2,10,0.8,-2.155,M,40.593,M,1.5,0123*63
$GPVTG,119.07,T,-520.83,M,003.240,N,006.000,K,D*0A
$GPGGA,100900.20,5703.5219090,N,00952.4394158,E,2,10,0.8,-2.151,M,40.593,M,1.5,0123*68
$GPVTG,117.83,T,-522.07,M,003.241,N,006.002,K,D*05
$GPGGA,100900.25,5703.5218882,N,00952.4394864,E,2,10,0.8,-2.146,M,40.593,M,1.8,0123*6A
$GPVTG,116.82,T,-523.08,M,003.251,N,006.022,K,D*08
$GPGGA,100900.30,5703.5218695,N,00952.4395574,E,2,10,0.8,-2.141,M,40.593,M,1.8,0123*6C
$GPVTG,115.49,T,-524.41,M,003.245,N,006.010,K,D*02
$GPGGA,100900.35,5703.5218509,N,00952.4396306,E,2,10,0.8,-2.140,M,40.593,M,1.8,0123*6E
$GPVTG,114.27,T,-525.63,M,003.254,N,006.027,K,D*0E
$GPGGA,100900.40,5703.5218334,N,00952.4397036,E,2,10,0.8,-2.141,M,40.593,M,1.8,0123*64
$GPVTG,113.08,T,-526.82,M,003.251,N,006.021,K,D*0B
$GPGGA,100900.45,5703.5218169,N,00952.4397779,E,2,10,0.8,-2.138,M,40.593,M,2.0,0123*62
$GPVTG,111.83,T,-528.07,M,003.253,N,006.025,K,D*0F
$GPGGA,100900.50,5703.5218001,N,00952.4398526,E,2,10,0.8,-2.137,M,40.593,M,2.0,0123*61
$GPVTG,110.89,T,-529.01,M,003.255,N,006.028,K,D*08
$GPGGA,100900.55,5703.5217835,N,00952.4399284,E,2,10,0.8,-2.136,M,40.593,M,2.0,0123*6B
$GPVTG,110.08,T,-529.82,M,003.262,N,006.042,K,D*02
$GPGGA,100900.60,5703.5217694,N,00952.4400064,E,2,10,0.8,-2.131,M,40.593,M,2.0,0123*64
$GPVTG,108.71,T,-531.19,M,003.275,N,006.066,K,D*0E
$GPGGA,100900.65,5703.5217567,N,00952.4400835,E,2,10,0.8,-2.127,M,40.593,M,2.2,0123*67
$GPVTG,107.20,T,-532.70,M,003.276,N,006.068,K,D*04
$GPGGA,100900.70,5703.5217462,N,00952.4401597,E,2,10,0.8,-2.122,M,40.593,M,2.2,0123*66
$GPVTG,105.67,T,-534.23,M,003.255,N,006.028,K,D*00
$GPGGA,100900.75,5703.5217361,N,00952.4402387,E,2,10,0.8,-2.116,M,40.593,M,2.2,0123*64
$GPVTG,104.13,T,-535.77,M,003.257,N,006.033,K,D*0A
$GPGGA,100900.80,5703.5217269,N,00952.4403205,E,2,10,0.8,-2.113,M,40.593,M,2.2,0123*68
$GPVTG,102.55,T,-537.35,M,003.281,N,006.076,K,D*00
$GPGGA,100900.85,5703.5217187,N,00952.4404053,E,2,10,0.8,-2.116,M,40.593,M,2.4,0123*6B
$GPVTG,100.89,T,-539.01,M,003.329,N,006.165,K,D*0A
$GPGGA,100900.90,5703.5217107,N,00952.4404903,E,2,10,0.8,-2.119,M,40.593,M,2.4,0123*64
$GPVTG,099.52,T,-540.38,M,003.369,N,006.239,K,D*07
$GPGGA,100900.95,5703.5217033,N,00952.4405755,E,2,10,0.8,-2.122,M,40.593,M,2.4,0123*63
$GPVTG,098.29,T,-541.61,M,003.401,N,006.298,K,D*05
$GPGGA,100901.00,5703.5216969,N,00952.4406619,E,2,10,0.8,-2.128,M,40.593,M,2.4,0123*69
$GPVTG,097.09,T,-542.81,M,003.436,N,006.363,K,D*04
$GPGGA,100901.05,5703.5216900,N,00952.4407501,E,2,10,0.8,-2.136,M,40.593,M,2.7,0123*64
$GPVTG,096.28,T,-543.62,M,003.484,N,006.453,K,D*07
$GPGGA,100901.10,5703.5216815,N,00952.4408382,E,2,10,0.8,-2.144,M,40.593,M,2.7,0123*62
$GPVTG,096.09,T,-543.81,M,003.521,N,006.522,K,D*00
$GPGGA,100901.15,5703.5216739,N,00952.4409269,E,2,10,0.8,-2.154,M,40.593,M,2.7,0123*62
$GPVTG,095.80,T,-544.10,M,003.553,N,006.580,K,D*00
$GPGGA,100901.20,5703.5216674,N,00952.4410156,E,2,10,0.8,-2.162,M,40.593,M,2.7,0123*6E
$GPVTG,095.37,T,-544.53,M,003.574,N,006.619,K,D*0D
$GPGGA,100901.25,5703.5216628,N,00952.4411007,E,2,10,0.8,-2.157,M,40.593,M,2.9,0123*6E
$GPVTG,094.64,T,-545.26,M,003.552,N,006.578,K,D*09
$GPGGA,100901.30,5703.5216606,N,00952.4411812,E,2,10,0.8,-2.147,M,40.593,M,2.9,0123*6B
$GPVTG,093.51,T,-546.39,M,003.478,N,006.441,K,D*07
$GPGGA,100901.35,5703.5216609,N,00952.4412634,E,2,10,0.8,-2.133,M,40.593,M,2.9,0123*6B
$GPVTG,091.93,T,-547.97,M,003.428,N,006.349,K,D*04
$GPGGA,100901.40,5703.5216624,N,00952.4413465,E,2,10,0.8,-2.118,M,40.593,M,2.9,0123*68
$GPVTG,090.26,T,-549.64,M,003.395,N,006.287,K,D*0B
$GPGGA,100901.45,5703.5216645,N,00952.4414275,E,2,10,0.8,-2.107,M,40.593,M,3.1,0123*6D
$GPVTG,088.75,T,-551.15,M,003.347,N,006.198,K,D*09
$GPGGA,100901.50,5703.5216671,N,00952.4415095,E,2,10,0.8,-2.093,M,40.593,M,3.1,0123*6F
$GPVTG,087.32,T,-552.58,M,003.317,N,006.143,K,D*0C
$GPGGA,100901.55,5703.5216702,N,00952.4415942,E,2,10,0.8,-2.079,M,40.593,M,3.1,0123*68
$GPVTG,086.02,T,-553.88,M,003.320,N,006.150,K,D*04
$GPGGA,100901.60,5703.5216728,N,00952.4416802,E,2,10,0.8,-2.068,M,40.593,M,3.1,0123*60
$GPVTG,085.15,T,-554.75,M,003.338,N,006.181,K,D*01
$GPGGA,100901.65,5703.5216784,N,00952.4417642,E,2,10,0.8,-2.055,M,40.593,M,3.3,0123*64
$GPVTG,083.72,T,-556.18,M,003.339,N,006.185,K,D*0A
$GPGGA,100901.70,5703.5216855,N,00952.4418498,E,2,10,0.8,-2.049,M,40.593,M,3.3,0123*64
$GPVTG,082.19,T,-557.71,M,003.360,N,006.223,K,D*0B
$GPGGA,100901.75,5703.5216929,N,00952.4419378,E,2,10,0.8,-2.043,M,40.593,M,3.3,0123*69
$GPVTG,080.94,T,-558.96,M,003.404,N,006.304,K,D*0B
$GPGGA,100901.80,5703.5217026,N,00952.4420293,E,2,10,0.8,-2.049,M,40.593,M,3.3,0123*60
$GPVTG,079.48,T,-560.42,M,003.483,N,006.451,K,D*06
$GPGGA,100901.85,5703.5217132,N,00952.4421229,E,2,10,0.8,-2.059,M,40.593,M,3.5,0123*66
$GPVTG,078.26,T,-561.64,M,003.575,N,006.621,K,D*07
$GPGGA,100901.90,5703.5217241,N,00952.4422184,E,2,10,0.8,-2.084,M,40.593,M,3.5,0123*62
$GPVTG,077.27,T,-562.63,M,003.672,N,006.801,K,D*05
$GPGGA,100901.95,5703.5217361,N,00952.4423167,E,2,10,0.8,-2.115,M,40.593,M,3.5,0123*61
$GPVTG,076.41,T,-563.49,M,003.785,N,007.010,K,D*0D
$GPGGA,100902.00,5703.5217481,N,00952.4424182,E,2,10,0.8,-2.147,M,40.593,M,3.5,0123*6C
$GPVTG,075.87,T,-564.03,M,003.909,N,007.239,K,D*0E
$GPGGA,100902.05,5703.5217610,N,00952.4425190,E,2,10,0.8,-2.189,M,40.593,M,2.0,0123*67
$GPVTG,075.29,T,-564.61,M,004.006,N,007.420,K,D*01
$GPGGA,100902.10,5703.5217746,N,00952.4426179,E,2,10,0.8,-2.217,M,40.593,M,2.0,0123*61
$GPVTG,074.65,T,-565.25,M,004.067,N,007.532,K,D*0C
$GPGGA,100902.15,5703.5217897,N,00952.4427122,E,2,10,0.8,-2.238,M,40.593,M,2.0,0123*65
$GPVTG,073.63,T,-566.27,M,004.051,N,007.503,K,D*0B
$GPGGA,100902.20,5703.5218059,N,00952.4427985,E,2,10,0.8,-2.250,M,40.593,M,2.0,0123*6D
$GPVTG,071.87,T,-568.03,M,003.888,N,007.200,K,D*04
$GPGGA,100902.25,5703.5218249,N,00952.4428791,E,2,10,0.8,-2.251,M,40.593,M,2.2,0123*6C
$GPVTG,068.71,T,-571.19,M,003.664,N,006.786,K,D*00
$GPGGA,100902.30,5703.5218440,N,00952.4429558,E,2,10,0.8,-2.239,M,40.593,M,2.2,0123*6F
$GPVTG,065.70,T,-574.20,M,003.438,N,006.367,K,D*03
$GPGGA,100902.35,5703.5218641,N,00952.4430320,E,2,10,0.8,-2.224,M,40.593,M,2.2,0123*64
$GPVTG,063.13,T,-576.77,M,003.308,N,006.126,K,D*03
$GPGGA,100902.40,5703.5218855,N,00952.4431095,E,2,10,0.8,-2.204,M,40.593,M,2.2,0123*63
$GPVTG,061.29,T,-578.61,M,003.291,N,006.095,K,D*09
$GPGGA,100902.45,5703.5219049,N,00952.4431840,E,2,10,0.8,-2.176,M,40.593,M,2.5,0123*63
$GPVTG,060.95,T,-578.95,M,003.212,N,005.949,K,D*04
$GPGGA,100902.50,5703.5219253,N,00952.4432550,E,2,10,0.8,-2.146,M,40.593,M,2.5,0123*62
$GPVTG,059.94,T,-579.96,M,003.133,N,005.802,K,D*03
$GPGGA,100902.55,5703.5219462,N,00952.4433267,E,2,10,0.8,-2.113,M,40.593,M,2.5,0123*61
$GPVTG,059.55,T,-580.35,M,003.114,N,005.766,K,D*09
$GPGGA,100902.60,5703.5219676,N,00952.4433959,E,2,10,0.8,-2.083,M,40.593,M,2.5,0123*6E
$GPVTG,058.84,T,-581.06,M,003.083,N,005.711,K,D*0A
$GPGGA,100902.65,5703.5219895,N,00952.4434664,E,2,10,0.8,-2.043,M,40.593,M,2.7,0123*60
$GPVTG,058.81,T,-581.09,M,003.106,N,005.752,K,D*0B
$GPGGA,100902.70,5703.5220104,N,00952.4435383,E,2,10,0.8,-2.013,M,40.593,M,2.7,0123*67
$GPVTG,059.60,T,-580.30,M,003.140,N,005.815,K,D*00
$GPGGA,100902.75,5703.5220325,N,00952.4436113,E,2,10,0.8,-1.990,M,40.593,M,2.7,0123*6A
$GPVTG,059.93,T,-579.97,M,003.207,N,005.939,K,D*08
$GPGGA,100902.80,5703.5220560,N,00952.4436885,E,2,10,0.8,-1.974,M,40.593,M,2.7,0123*6B
$GPVTG,060.33,T,-579.57,M,003.351,N,006.205,K,D*01
$GPGGA,100902.85,5703.5220804,N,00952.4437672,E,2,10,0.8,-1.968,M,40.593,M,3.0,0123*6D
$GPVTG,060.34,T,-579.56,M,003.492,N,006.467,K,D*0D
$GPGGA,100902.90,5703.5221061,N,00952.4438506,E,2,10,0.8,-1.974,M,40.593,M,3.0,0123*61
$GPVTG,060.54,T,-579.36,M,003.684,N,006.822,K,D*05
$GPGGA,100902.95,5703.5221326,N,00952.4439396,E,2,10,0.8,-1.992,M,40.593,M,3.0,0123*62
$GPVTG,061.06,T,-578.84,M,003.916,N,007.253,K,D*02
$GPGGA,100903.00,5703.5221614,N,00952.4440336,E,2,10,0.8,-2.017,M,40.593,M,3.0,0123*68
$GPVTG,061.12,T,-578.78,M,004.180,N,007.742,K,D*01
$GPGGA,100903.05,5703.5221921,N,00952.4441311,E,2,10,0.8,-2.054,M,40.593,M,1.8,0123*6D
$GPVTG,060.81,T,-579.09,M,004.422,N,008.189,K,D*0E
$GPGGA,100903.10,5703.5222222,N,00952.4442263,E,2,10,0.8,-2.091,M,40.593,M,1.8,0123*6C
$GPVTG,060.34,T,-579.56,M,004.509,N,008.350,K,D*04
$GPGGA,100903.15,5703.5222537,N,00952.4443175,E,2,10,0.8,-2.126,M,40.593,M,1.8,0123*62
$GPVTG,058.96,T,-580.94,M,004.484,N,008.304,K,D*0A
$GPGGA,100903.20,5703.5222876,N,00952.4444006,E,2,10,0.8,-2.157,M,40.593,M,1.8,0123*68
$GPVTG,055.89,T,-584.01,M,004.343,N,008.043,K,D*0D
$GPGGA,100903.25,5703.5223219,N,00952.4444756,E,2,10,0.8,-2.190,M,40.593,M,2.1,0123*6C
$GPVTG,051.86,T,-588.04,M,004.107,N,007.605,K,D*06
$GPGGA,100903.30,5703.5223563,N,00952.4445435,E,2,10,0.8,-2.204,M,40.593,M,2.1,0123*6B
$GPVTG,046.52,T,-593.38,M,003.728,N,006.903,K,D*08
$GPGGA,100903.35,5703.5223922,N,00952.4446058,E,2,10,0.8,-2.208,M,40.593,M,2.1,0123*67
$GPVTG,041.31,T,-598.59,M,003.491,N,006.465,K,D*0A
$GPGGA,100903.40,5703.5224289,N,00952.4446635,E,2,10,0.8,-2.207,M,40.593,M,2.1,0123*6A
$GPVTG,038.00,T,-601.90,M,003.405,N,006.305,K,D*0C
$GPGGA,100903.45,5703.5224654,N,00952.4447170,E,2,10,0.8,-2.212,M,40.593,M,2.3,0123*6A
$GPVTG,035.67,T,-604.23,M,003.317,N,006.144,K,D*0E
$GPGGA,100903.50,5703.5225036,N,00952.4447668,E,2,10,0.8,-2.200,M,40.593,M,2.3,0123*60
$GPVTG,033.64,T,-606.26,M,003.328,N,006.163,K,D*05
$GPGGA,100903.55,5703.5225422,N,00952.4448151,E,2,10,0.8,-2.188,M,40.593,M,2.3,0123*65
$GPVTG,032.89,T,-607.01,M,003.348,N,006.201,K,D*02
$GPGGA,100903.60,5703.5225814,N,00952.4448623,E,2,10,0.8,-2.177,M,40.593,M,2.3,0123*68
$GPVTG,032.26,T,-607.64,M,003.379,N,006.258,K,D*0A
$GPGGA,100903.65,5703.5226199,N,00952.4449106,E,2,10,0.8,-2.159,M,40.593,M,2.6,0123*6A
$GPVTG,033.63,T,-606.27,M,003.377,N,006.253,K,D*09
$GPGGA,100903.70,5703.5226585,N,00952.4449582,E,2,10,0.8,-2.144,M,40.593,M,2.6,0123*63
$GPVTG,033.79,T,-606.11,M,003.358,N,006.219,K,D*04
$GPGGA,100903.75,5703.5226962,N,00952.4450060,E,2,10,0.8,-2.126,M,40.593,M,2.6,0123*66
$GPVTG,034.52,T,-605.38,M,003.315,N,006.140,K,D*04
$GPGGA,100903.80,5703.5227350,N,00952.4450530,E,2,10,0.8,-2.109,M,40.593,M,2.6,0123*6B
$GPVTG,033.66,T,-606.24,M,003.337,N,006.180,K,D*06
$GPGGA,100903.85,5703.5227737,N,00952.4451008,E,2,10,0.8,-2.093,M,40.593,M,2.8,0123*68
$GPVTG,033.89,T,-606.01,M,003.361,N,006.225,K,D*0F
$GPGGA,100903.90,5703.5228134,N,00952.4451505,E,2,10,0.8,-2.084,M,40.593,M,2.8,0123*68
$GPVTG,034.45,T,-605.45,M,003.464,N,006.416,K,D*0F
$GPGGA,100903.95,5703.5228536,N,00952.4452031,E,2,10,0.8,-2.083,M,40.593,M,2.8,0123*6D
$GPVTG,035.61,T,-604.29,M,003.585,N,006.640,K,D*0C
$GPGGA,100904.00,5703.5228956,N,00952.4452576,E,2,10,0.8,-2.088,M,40.593,M,2.8,0123*61
$GPVTG,035.70,T,-604.20,M,003.740,N,006.926,K,D*01
$GPGGA,100904.05,5703.5229376,N,00952.4453124,E,2,10,0.8,-2.098,M,40.593,M,1.5,0123*60
$GPVTG,035.51,T,-604.39,M,003.777,N,006.996,K,D*05
$GPGGA,100904.10,5703.5229810,N,00952.4453673,E,2,10,0.8,-2.107,M,40.593,M,1.5,0123*6D
$GPVTG,034.69,T,-605.21,M,003.842,N,007.116,K,D*0F
$GPGGA,100904.15,5703.5230267,N,00952.4454151,E,2,10,0.8,-2.118,M,40.593,M,1.5,0123*64
$GPVTG,029.92,T,-609.98,M,003.819,N,007.073,K,D*05
$GPGGA,100904.20,5703.5230716,N,00952.4454563,E,2,10,0.8,-2.124,M,40.593,M,1.5,0123*6B
$GPVTG,025.37,T,-614.53,M,003.667,N,006.792,K,D*03
$GPGGA,100904.25,5703.5231171,N,00952.4454920,E,2,10,0.8,-2.131,M,40.593,M,1.8,0123*6A
$GPVTG,021.34,T,-618.56,M,003.573,N,006.617,K,D*07
$GPGGA,100904.30,5703.5231617,N,00952.4455242,E,2,10,0.8,-2.137,M,40.593,M,1.8,0123*61
$GPVTG,019.41,T,-620.49,M,003.454,N,006.397,K,D*02
$GPGGA,100904.35,5703.5232070,N,00952.4455546,E,2,10,0.8,-2.145,M,40.593,M,1.8,0123*66
$GPVTG,018.54,T,-621.36,M,003.444,N,006.378,K,D*0E
$GPGGA,100904.40,5703.5232520,N,00952.4455841,E,2,10,0.8,-2.151,M,40.593,M,1.8,0123*6B
$GPVTG,018.59,T,-621.31,M,003.430,N,006.353,K,D*0E
$GPGGA,100904.45,5703.5232973,N,00952.4456103,E,2,10,0.8,-2.158,M,40.593,M,2.0,0123*6A
$GPVTG,016.89,T,-623.01,M,003.415,N,006.324,K,D*0B
$GPGGA,100904.50,5703.5233417,N,00952.4456328,E,2,10,0.8,-2.168,M,40.593,M,2.0,0123*68
$GPVTG,014.70,T,-625.20,M,003.322,N,006.152,K,D*0A
$GPGGA,100904.55,5703.5233860,N,00952.4456540,E,2,10,0.8,-2.176,M,40.593,M,2.0,0123*66
$GPVTG,013.69,T,-626.21,M,003.279,N,006.072,K,D*0B
$GPGGA,100904.60,5703.5234310,N,00952.4456740,E,2,10,0.8,-2.181,M,40.593,M,2.0,0123*61
$GPVTG,012.86,T,-627.04,M,003.311,N,006.132,K,D*07
$GPGGA,100904.65,5703.5234768,N,00952.4456941,E,2,10,0.8,-2.179,M,40.593,M,2.2,0123*65
$GPVTG,013.12,T,-626.78,M,003.385,N,006.268,K,D*00
$GPGGA,100904.70,5703.5235231,N,00952.4457133,E,2,10,0.8,-2.181,M,40.593,M,2.2,0123*62
$GPVTG,012.55,T,-627.35,M,003.431,N,006.354,K,D*0C
$GPGGA,100904.75,5703.5235688,N,00952.4457319,E,2,10,0.8,-2.183,M,40.593,M,2.2,0123*69
$GPVTG,012.23,T,-627.67,M,003.403,N,006.303,K,D*09
$GPGGA,100904.80,5703.5236139,N,00952.4457481,E,2,10,0.8,-2.184,M,40.593,M,2.2,0123*6C
$GPVTG,010.83,T,-629.07,M,003.332,N,006.170,K,D*0A
$GPGGA,100904.85,5703.5236589,N,00952.4457636,E,2,10,0.8,-2.176,M,40.593,M,2.4,0123*63
$GPVTG,010.38,T,-629.52,M,003.292,N,006.097,K,D*09
$GPGGA,100904.90,5703.5237038,N,00952.4457793,E,2,10,0.8,-2.173,M,40.593,M,2.4,0123*62
$GPVTG,010.44,T,-629.46,M,003.277,N,006.070,K,D*05
$GPGGA,100904.95,5703.5237485,N,00952.4457925,E,2,10,0.8,-2.166,M,40.593,M,2.4,0123*62
$GPVTG,008.97,T,-630.93,M,003.257,N,006.032,K,D*06
$GPGGA,100905.00,5703.5237931,N,00952.4458021,E,2,10,0.8,-2.158,M,40.593,M,2.4,0123*62
$GPVTG,006.27,T,-633.63,M,003.226,N,005.974,K,D*01
$GPGGA,100905.05,5703.5238364,N,00952.4458090,E,2,10,0.8,-2.151,M,40.593,M,2.7,0123*62
$GPVTG,004.02,T,-635.88,M,003.141,N,005.817,K,D*01
$GPGGA,100905.10,5703.5238792,N,00952.4458142,E,2,10,0.8,-2.141,M,40.593,M,2.7,0123*64
$GPVTG,002.75,T,-637.15,M,003.081,N,005.706,K,D*03
$GPGGA,100905.15,5703.5239221,N,00952.4458172,E,2,10,0.8,-2.131,M,40.593,M,2.7,0123*69
$GPVTG,001.29,T,-638.61,M,003.065,N,005.676,K,D*09
$GPGGA,100905.20,5703.5239645,N,00952.4458184,E,2,10,0.8,-2.121,M,40.593,M,2.7,0123*61
$GPVTG,000.10,T,-639.80,M,003.044,N,005.637,K,D*0A
$GPGGA,100905.25,5703.5240078,N,00952.4458170,E,2,10,0.8,-2.118,M,40.593,M,2.9,0123*6D
$GPVTG,358.32,T,-281.58,M,003.106,N,005.752,K,D*03
$GPGGA,100905.30,5703.5240519,N,00952.4458154,E,2,10,0.8,-2.118,M,40.593,M,2.9,0123*6D
$GPVTG,358.12,T,-281.78,M,003.175,N,005.880,K,D*07
$GPGGA,100905.35,5703.5240969,N,00952.4458138,E,2,10,0.8,-2.118,M,40.593,M,2.9,0123*69
$GPVTG,358.43,T,-281.47,M,003.259,N,006.035,K,D*07
$GPGGA,100905.40,5703.5241426,N,00952.4458117,E,2,10,0.8,-2.117,M,40.593,M,2.9,0123*6E
$GPVTG,358.37,T,-281.53,M,003.327,N,006.161,K,D*09
$GPGGA,100905.45,5703.5241891,N,00952.4458100,E,2,10,0.8,-2.110,M,40.593,M,3.1,0123*63
$GPVTG,359.28,T,-280.62,M,003.374,N,006.248,K,D*0B
$GPGGA,100905.50,5703.5242364,N,00952.4458103,E,2,10,0.8,-2.119,M,40.593,M,3.1,0123*6F
$GPVTG,000.36,T,-639.54,M,003.435,N,006.362,K,D*03
$GPGGA,100905.55,5703.5242849,N,00952.4458101,E,2,10,0.8,-2.132,M,40.593,M,3.1,0123*65
$GPVTG,000.17,T,-639.73,M,003.525,N,006.529,K,D*0C
$GPGGA,100905.60,5703.5243344,N,00952.4458071,E,2,10,0.8,-2.148,M,40.593,M,3.1,0123*6F
$GPVTG,358.28,T,-281.62,M,003.610,N,006.686,K,D*0A
$GPGGA,100905.65,5703.5243837,N,00952.4458031,E,2,10,0.8,-2.166,M,40.593,M,3.3,0123*6F
$GPVTG,357.00,T,-282.90,M,003.614,N,006.693,K,D*01
$GPGGA,100905.70,5703.5244312,N,00952.4457953,E,2,10,0.8,-2.175,M,40.593,M,3.3,0123*60
$GPVTG,354.45,T,-285.45,M,003.489,N,006.462,K,D*06
$GPGGA,100905.75,5703.5244750,N,00952.4457842,E,2,10,0.8,-2.185,M,40.593,M,3.3,0123*69
$GPVTG,351.32,T,-288.58,M,003.226,N,005.975,K,D*09
$GPGGA,100905.80,5703.5245148,N,00952.4457707,E,2,10,0.8,-2.192,M,40.593,M,3.3,0123*65
$GPVTG,348.12,T,-291.78,M,002.899,N,005.369,K,D*01
$GPGGA,100905.85,5703.5245516,N,00952.4457555,E,2,10,0.8,-2.192,M,40.593,M,3.5,0123*6C
$GPVTG,345.79,T,-294.11,M,002.644,N,004.896,K,D*0F
$GPGGA,100905.90,5703.5245862,N,00952.4457391,E,2,10,0.8,-2.189,M,40.593,M,3.5,0123*62
$GPVTG,343.70,T,-296.20,M,002.464,N,004.564,K,D*00
$GPGGA,100905.95,5703.5246189,N,00952.4457222,E,2,10,0.8,-2.185,M,40.593,M,3.5,0123*6D
$GPVTG,342.67,T,-297.23,M,002.344,N,004.340,K,D*00
$GPGGA,100906.00,5703.5246521,N,00952.4457051,E,2,10,0.8,-2.179,M,40.593,M,3.5,0123*61
$GPVTG,343.06,T,-296.84,M,002.371,N,004.390,K,D*01
$GPGGA,100906.05,5703.5246834,N,00952.4456887,E,2,10,0.8,-2.177,M,40.593,M,2.0,0123*65
$GPVTG,343.33,T,-296.57,M,002.318,N,004.293,K,D*04
$GPGGA,100906.10,5703.5247160,N,00952.4456752,E,2,10,0.8,-2.173,M,40.593,M,2.0,0123*6B
$GPVTG,346.96,T,-292.94,M,002.348,N,004.348,K,D*07
$GPGGA,100906.15,5703.5247505,N,00952.4456646,E,2,10,0.8,-2.173,M,40.593,M,2.0,0123*6D
$GPVTG,351.03,T,-288.87,M,002.484,N,004.600,K,D*0A
$GPGGA,100906.20,5703.5247860,N,00952.4456551,E,2,10,0.8,-2.173,M,40.593,M,2.0,0123*60
$GPVTG,352.92,T,-286.98,M,002.604,N,004.823,K,D*04
$GPGGA,100906.25,5703.5248225,N,00952.4456471,E,2,10,0.8,-2.173,M,40.593,M,2.2,0123*60
$GPVTG,354.20,T,-285.70,M,002.674,N,004.953,K,D*0F
$GPGGA,100906.30,5703.5248587,N,00952.4456409,E,2,10,0.8,-2.179,M,40.593,M,2.2,0123*6E
$GPVTG,355.53,T,-284.37,M,002.672,N,004.949,K,D*05
$GPGGA,100906.35,5703.5248947,N,00952.4456340,E,2,10,0.8,-2.192,M,40.593,M,2.2,0123*64
$GPVTG,354.87,T,-285.03,M,002.645,N,004.899,K,D*03
$GPGGA,100906.40,5703.5249299,N,00952.4456268,E,2,10,0.8,-2.207,M,40.593,M,2.2,0123*6B
$GPVTG,353.92,T,-285.98,M,002.577,N,004.773,K,D*0B
$GPGGA,100906.45,5703.5249661,N,00952.4456183,E,2,10,0.8,-2.218,M,40.593,M,2.5,0123*62
$GPVTG,353.07,T,-286.83,M,002.615,N,004.842,K,D*04
$GPGGA,100906.50,5703.5250031,N,00952.4456100,E,2,10,0.8,-2.238,M,40.593,M,2.5,0123*64
$GPVTG,352.75,T,-287.15,M,002.678,N,004.959,K,D*0E
$GPGGA,100906.55,5703.5250400,N,00952.4456002,E,2,10,0.8,-2.263,M,40.593,M,2.5,0123*6A
$GPVTG,351.55,T,-288.35,M,002.709,N,005.018,K,D*08
$GPGGA,100906.60,5703.5250752,N,00952.4455911,E,2,10,0.8,-2.291,M,40.593,M,2.5,0123*6D
$GPVTG,351.66,T,-288.24,M,002.597,N,004.809,K,D*04
$GPGGA,100906.65,5703.5251064,N,00952.4455826,E,2,10,0.8,-2.308,M,40.593,M,2.7,0123*6D
$GPVTG,351.91,T,-287.99,M,002.299,N,004.258,K,D*02
$GPGGA,100906.70,5703.5251339,N,00952.4455721,E,2,10,0.8,-2.325,M,40.593,M,2.7,0123*65
$GPVTG,348.26,T,-291.64,M,001.987,N,003.681,K,D*03
$GPGGA,100906.75,5703.5251589,N,00952.4455603,E,2,10,0.8,-2.337,M,40.593,M,2.7,0123*6F
$GPVTG,344.28,T,-295.62,M,001.768,N,003.275,K,D*03
$GPGGA,100906.80,5703.5251814,N,00952.4455486,E,2,10,0.8,-2.342,M,40.593,M,2.7,0123*61
$GPVTG,342.15,T,-297.75,M,001.580,N,002.927,K,D*06
$GPGGA,100906.85,5703.5252007,N,00952.4455364,E,2,10,0.8,-2.348,M,40.593,M,3.0,0123*6A
$GPVTG,338.45,T,-301.45,M,001.375,N,002.546,K,D*04
$GPGGA,100906.90,5703.5252187,N,00952.4455243,E,2,10,0.8,-2.350,M,40.593,M,3.0,0123*6A
$GPVTG,337.51,T,-302.39,M,001.270,N,002.352,K,D*01
$GPGGA,100906.95,5703.5252364,N,00952.4455129,E,2,10,0.8,-2.344,M,40.593,M,3.0,0123*6A
$GPVTG,338.73,T,-301.17,M,001.250,N,002.315,K,D*00
$GPGGA,100907.00,5703.5252541,N,00952.4455032,E,2,10,0.8,-2.334,M,40.593,M,3.0,0123*6A
$GPVTG,342.67,T,-297.23,M,001.261,N,002.336,K,D*02
$GPGGA,100907.05,5703.5252728,N,00952.4454956,E,2,10,0.8,-2.331,M,40.593,M,1.8,0123*67
$GPVTG,347.19,T,-292.71,M,001.343,N,002.488,K,D*0F
$GPGGA,100907.10,5703.5252920,N,00952.4454890,E,2,10,0.8,-2.317,M,40.593,M,1.8,0123*6A
$GPVTG,350.56,T,-289.34,M,001.403,N,002.598,K,D*0A
$GPGGA,100907.15,5703.5253124,N,00952.4454851,E,2,10,0.8,-2.304,M,40.593,M,1.8,0123*6D
$GPVTG,355.25,T,-284.65,M,001.488,N,002.756,K,D*01
$GPGGA,100907.20,5703.5253343,N,00952.4454836,E,2,10,0.8,-2.289,M,40.593,M,1.8,0123*6D
$GPVTG,359.45,T,-280.45,M,001.608,N,002.978,K,D*05
$GPGGA,100907.25,5703.5253583,N,00952.4454850,E,2,10,0.8,-2.265,M,40.593,M,2.1,0123*6A
$GPVTG,003.57,T,-636.33,M,001.747,N,003.236,K,D*08
$GPGGA,100907.30,5703.5253838,N,00952.4454870,E,2,10,0.8,-2.245,M,40.593,M,2.1,0123*63
$GPVTG,003.95,T,-635.95,M,001.898,N,003.515,K,D*02
$GPGGA,100907.35,5703.5254122,N,00952.4454911,E,2,10,0.8,-2.230,M,40.593,M,2.1,0123*67
$GPVTG,005.33,T,-634.57,M,002.108,N,003.905,K,D*09
$GPGGA,100907.40,5703.5254428,N,00952.4454948,E,2,10,0.8,-2.216,M,40.593,M,2.1,0123*62
$GPVTG,004.54,T,-635.36,M,002.293,N,004.247,K,D*04
$GPGGA,100907.45,5703.5254754,N,00952.4454987,E,2,10,0.8,-2.202,M,40.593,M,2.3,0123*6B
$GPVTG,004.17,T,-635.73,M,002.431,N,004.503,K,D*0B
$GPGGA,100907.50,5703.5255103,N,00952.4455022,E,2,10,0.8,-2.193,M,40.593,M,2.3,0123*66
$GPVTG,003.21,T,-636.69,M,002.598,N,004.812,K,D*0E
$GPGGA,100907.55,5703.5255461,N,00952.4455070,E,2,10,0.8,-2.189,M,40.593,M,2.3,0123*6E
$GPVTG,003.96,T,-635.94,M,002.683,N,004.968,K,D*06
$GPGGA,100907.60,5703.5255815,N,00952.4455112,E,2,10,0.8,-2.189,M,40.593,M,2.3,0123*62
$GPVTG,003.72,T,-636.18,M,002.650,N,004.908,K,D*03
$GPGGA,100907.65,5703.5256153,N,00952.4455158,E,2,10,0.8,-2.187,M,40.593,M,2.6,0123*6A
$GPVTG,004.32,T,-635.58,M,002.507,N,004.643,K,D*06
$GPGGA,100907.70,5703.5256461,N,00952.4455193,E,2,10,0.8,-2.189,M,40.593,M,2.6,0123*63
$GPVTG,003.61,T,-636.29,M,002.253,N,004.173,K,D*00
$GPGGA,100907.75,5703.5256754,N,00952.4455208,E,2,10,0.8,-2.191,M,40.593,M,2.6,0123*6B
$GPVTG,001.38,T,-638.52,M,002.065,N,003.824,K,D*07
$GPGGA,100907.80,5703.5257023,N,00952.4455214,E,2,10,0.8,-2.196,M,40.593,M,2.6,0123*6D
$GPVTG,359.98,T,-279.92,M,001.879,N,003.480,K,D*0A
$GPGGA,100907.85,5703.5257253,N,00952.4455218,E,2,10,0.8,-2.209,M,40.593,M,2.8,0123*6A
$GPVTG,358.81,T,-281.09,M,001.626,N,003.011,K,D*0E
$GPGGA,100907.90,5703.5257467,N,00952.4455200,E,2,10,0.8,-2.210,M,40.593,M,2.8,0123*6E
$GPVTG,356.30,T,-283.60,M,001.445,N,002.675,K,D*05
$GPGGA,100907.95,5703.5257652,N,00952.4455166,E,2,10,0.8,-2.210,M,40.593,M,2.8,0123*6C
$GPVTG,352.63,T,-287.27,M,001.252,N,002.318,K,D*0E
$GPGGA,100908.00,5703.5257816,N,00952.4455141,E,2,10,0.8,-2.215,M,40.593,M,2.8,0123*61
$GPVTG,353.29,T,-286.61,M,001.081,N,002.002,K,D*06
$GPGGA,100908.05,5703.5257975,N,00952.4455125,E,2,10,0.8,-2.218,M,40.593,M,1.5,0123*61
$GPVTG,354.75,T,-285.15,M,001.050,N,001.945,K,D*0D
$GPGGA,100908.10,5703.5258151,N,00952.4455113,E,2,10,0.8,-2.223,M,40.593,M,1.5,0123*69
$GPVTG,357.91,T,-281.99,M,001.171,N,002.169,K,D*03
$GPGGA,100908.15,5703.5258351,N,00952.4455124,E,2,10,0.8,-2.227,M,40.593,M,1.5,0123*6E
$GPVTG,002.32,T,-637.58,M,001.397,N,002.588,K,D*0C
$GPGGA,100908.20,5703.5258560,N,00952.4455161,E,2,10,0.8,-2.229,M,40.593,M,1.5,0123*63
$GPVTG,006.52,T,-633.38,M,001.547,N,002.865,K,D*09
$GPGGA,100908.25,5703.5258775,N,00952.4455207,E,2,10,0.8,-2.236,M,40.593,M,1.8,0123*60
$GPVTG,007.63,T,-632.27,M,001.615,N,002.991,K,D*0B
$GPGGA,100908.30,5703.5259003,N,00952.4455269,E,2,10,0.8,-2.241,M,40.593,M,1.8,0123*6B
$GPVTG,009.38,T,-630.52,M,001.709,N,003.165,K,D*05
$GPGGA,100908.35,5703.5259248,N,00952.4455330,E,2,10,0.8,-2.247,M,40.593,M,1.8,0123*68
$GPVTG,008.55,T,-631.35,M,001.829,N,003.387,K,D*0C
$GPGGA,100908.40,5703.5259508,N,00952.4455403,E,2,10,0.8,-2.254,M,40.593,M,1.8,0123*6C
$GPVTG,008.97,T,-630.93,M,001.947,N,003.605,K,D*09
$GPGGA,100908.45,5703.5259769,N,00952.4455452,E,2,10,0.8,-2.256,M,40.593,M,2.0,0123*61
$GPVTG,006.98,T,-632.92,M,001.960,N,003.630,K,D*08
$GPGGA,100908.50,5703.5260021,N,00952.4455518,E,2,10,0.8,-2.262,M,40.593,M,2.0,0123*6C
$GPVTG,007.48,T,-632.42,M,001.926,N,003.566,K,D*0B
$GPGGA,100908.55,5703.5260285,N,00952.4455577,E,2,10,0.8,-2.269,M,40.593,M,2.0,0123*67
$GPVTG,007.02,T,-632.88,M,001.953,N,003.618,K,D*0B
$GPGGA,100908.60,5703.5260563,N,00952.4455639,E,2,10,0.8,-2.274,M,40.593,M,2.0,0123*6B
$GPVTG,006.81,T,-633.09,M,002.019,N,003.739,K,D*0F
$GPGGA,100908.65,5703.5260840,N,00952.4455703,E,2,10,0.8,-2.285,M,40.593,M,2.2,0123*66
$GPVTG,006.72,T,-633.18,M,002.055,N,003.807,K,D*09
$GPGGA,100908.70,5703.5261102,N,00952.4455756,E,2,10,0.8,-2.292,M,40.593,M,2.2,0123*6A
$GPVTG,006.35,T,-633.55,M,002.013,N,003.727,K,D*0C
