$GPGGA,101237.70,5703.4579110,N,00952.3724429,E,2,10,0.8,-2.193,M,40.593,M,3.3,0123*6B
$GPVTG,138.96,T,-500.94,M,004.134,N,007.656,K,D*06
$GPGGA,101237.75,5703.4578663,N,00952.3725069,E,2,10,0.8,-2.199,M,40.593,M,3.3,0123*67
$GPVTG,140.70,T,-499.20,M,004.134,N,007.656,K,D*0F
$GPGGA,101237.80,5703.4578209,N,00952.3725692,E,2,10,0.8,-2.205,M,40.593,M,3.3,0123*61
$GPVTG,142.43,T,-497.47,M,004.129,N,007.647,K,D*0E
$GPGGA,101237.85,5703.4577758,N,00952.3726297,E,2,10,0.8,-2.221,M,40.593,M,3.5,0123*68
$GPVTG,143.85,T,-496.05,M,004.092,N,007.578,K,D*0C
$GPGGA,101237.90,5703.4577287,N,00952.3726862,E,2,10,0.8,-2.232,M,40.593,M,3.5,0123*69
$GPVTG,146.15,T,-493.75,M,004.076,N,007.549,K,D*0A
$GPGGA,101237.95,5703.4576813,N,00952.3727425,E,2,10,0.8,-2.242,M,40.593,M,3.5,0123*63
$GPVTG,147.62,T,-492.28,M,004.078,N,007.552,K,D*06
$GPGGA,101238.00,5703.4576347,N,00952.3727975,E,2,10,0.8,-2.251,M,40.593,M,3.5,0123*60
$GPVTG,148.52,T,-491.38,M,004.047,N,007.495,K,D*0E
$GPGGA,101238.05,5703.4575882,N,00952.3728475,E,2,10,0.8,-2.259,M,40.593,M,2.0,0123*6A
$GPVTG,150.10,T,-489.80,M,003.965,N,007.344,K,D*0E
$GPGGA,101238.10,5703.4575430,N,00952.3728953,E,2,10,0.8,-2.265,M,40.593,M,2.0,0123*6D
$GPVTG,151.27,T,-488.63,M,003.861,N,007.151,K,D*04
$GPGGA,101238.15,5703.4574965,N,00952.3729399,E,2,10,0.8,-2.270,M,40.593,M,2.0,0123*6D
$GPVTG,152.92,T,-486.98,M,003.800,N,007.038,K,D*0A
$GPGGA,101238.20,5703.4574502,N,00952.3729830,E,2,10,0.8,-2.274,M,40.593,M,2.0,0123*6A
$GPVTG,154.17,T,-485.73,M,003.748,N,006.941,K,D*02
$GPGGA,101238.25,5703.4574030,N,00952.3730248,E,2,10,0.8,-2.273,M,40.593,M,2.2,0123*63
$GPVTG,155.29,T,-484.61,M,003.734,N,006.916,K,D*05
$GPGGA,101238.30,5703.4573555,N,00952.3730660,E,2,10,0.8,-2.268,M,40.593,M,2.2,0123*62
$GPVTG,155.97,T,-483.93,M,003.738,N,006.924,K,D*07
$GPGGA,101238.35,5703.4573080,N,00952.3731049,E,2,10,0.8,-2.264,M,40.593,M,2.2,0123*6A
$GPVTG,156.85,T,-483.05,M,003.730,N,006.907,K,D*01
$GPGGA,101238.40,5703.4572607,N,00952.3731417,E,2,10,0.8,-2.264,M,40.593,M,2.2,0123*6F
$GPVTG,157.81,T,-482.09,M,003.709,N,006.869,K,D*0A
$GPGGA,101238.45,5703.4572122,N,00952.3731750,E,2,10,0.8,-2.252,M,40.593,M,2.5,0123*68
$GPVTG,159.39,T,-480.51,M,003.709,N,006.870,K,D*00
$GPGGA,101238.50,5703.4571629,N,00952.3732074,E,2,10,0.8,-2.249,M,40.593,M,2.5,0123*6B
$GPVTG,160.76,T,-479.14,M,003.732,N,006.912,K,D*0B
$GPGGA,101238.55,5703.4571142,N,00952.3732401,E,2,10,0.8,-2.245,M,40.593,M,2.5,0123*6E
$GPVTG,161.24,T,-478.66,M,003.738,N,006.923,K,D*01
$GPGGA,101238.60,5703.4570654,N,00952.3732703,E,2,10,0.8,-2.238,M,40.593,M,2.5,0123*62
$GPVTG,162.08,T,-477.82,M,003.730,N,006.908,K,D*08
$GPGGA,101238.65,5703.4570153,N,00952.3732981,E,2,10,0.8,-2.236,M,40.593,M,2.7,0123*6F
$GPVTG,163.39,T,-476.51,M,003.749,N,006.944,K,D*02
$GPGGA,101238.70,5703.4569654,N,00952.3733242,E,2,10,0.8,-2.232,M,40.593,M,2.7,0123*62
$GPVTG,164.55,T,-475.35,M,003.752,N,006.949,K,D*09
$GPGGA,101238.75,5703.4569156,N,00952.3733497,E,2,10,0.8,-2.228,M,40.593,M,2.7,0123*67
$GPVTG,165.29,T,-474.61,M,003.748,N,006.942,K,D*03
$GPGGA,101238.80,5703.4568653,N,00952.3733744,E,2,10,0.8,-2.223,M,40.593,M,2.7,0123*68
$GPVTG,165.90,T,-474.00,M,003.757,N,006.957,K,D*0C
$GPGGA,101238.85,5703.4568147,N,00952.3733981,E,2,10,0.8,-2.209,M,40.593,M,3.0,0123*66
$GPVTG,166.32,T,-473.58,M,003.771,N,006.984,K,D*07
$GPGGA,101238.90,5703.4567643,N,00952.3734181,E,2,10,0.8,-2.203,M,40.593,M,3.0,0123*6B
$GPVTG,167.68,T,-472.22,M,003.755,N,006.955,K,D*0F
$GPGGA,101238.95,5703.4567132,N,00952.3734366,E,2,10,0.8,-2.201,M,40.593,M,3.0,0123*66
$GPVTG,168.98,T,-470.92,M,003.759,N,006.961,K,D*0D
$GPGGA,101239.00,5703.4566623,N,00952.3734528,E,2,10,0.8,-2.201,M,40.593,M,3.0,0123*61
$GPVTG,170.36,T,-469.54,M,003.750,N,006.946,K,D*0E
$GPGGA,101239.05,5703.4566112,N,00952.3734654,E,2,10,0.8,-2.194,M,40.593,M,1.8,0123*6C
$GPVTG,172.03,T,-467.87,M,003.740,N,006.926,K,D*0D
$GPGGA,101239.10,5703.4565597,N,00952.3734757,E,2,10,0.8,-2.191,M,40.593,M,1.8,0123*65
$GPVTG,173.88,T,-466.02,M,003.740,N,006.927,K,D*02
$GPGGA,101239.15,5703.4565083,N,00952.3734838,E,2,10,0.8,-2.190,M,40.593,M,1.8,0123*67
$GPVTG,175.58,T,-464.32,M,003.736,N,006.919,K,D*04
$GPGGA,101239.20,5703.4564579,N,00952.3734916,E,2,10,0.8,-2.189,M,40.593,M,1.8,0123*65
$GPVTG,176.47,T,-463.43,M,003.703,N,006.859,K,D*0B
$GPGGA,101239.25,5703.4564073,N,00952.3734980,E,2,10,0.8,-2.191,M,40.593,M,2.1,0123*63
$GPVTG,177.23,T,-462.67,M,003.684,N,006.823,K,D*0C
$GPGGA,101239.30,5703.4563568,N,00952.3735038,E,2,10,0.8,-2.190,M,40.593,M,2.1,0123*65
$GPVTG,177.70,T,-462.20,M,003.663,N,006.784,K,D*02
$GPGGA,101239.35,5703.4563068,N,00952.3735048,E,2,10,0.8,-2.188,M,40.593,M,2.1,0123*6B
$GPVTG,179.34,T,-460.56,M,003.634,N,006.729,K,D*0A
$GPGGA,101239.40,5703.4562558,N,00952.3735015,E,2,10,0.8,-2.188,M,40.593,M,2.1,0123*66
$GPVTG,181.63,T,-458.27,M,003.650,N,006.760,K,D*0D
$GPGGA,101239.45,5703.4562060,N,00952.3734971,E,2,10,0.8,-2.188,M,40.593,M,2.3,0123*65
$GPVTG,183.34,T,-456.56,M,003.626,N,006.716,K,D*05
$GPGGA,101239.50,5703.4561560,N,00952.3734936,E,2,10,0.8,-2.184,M,40.593,M,2.3,0123*68
$GPVTG,183.88,T,-456.02,M,003.614,N,006.694,K,D*09
$GPGGA,101239.55,5703.4561071,N,00952.3734896,E,2,10,0.8,-2.184,M,40.593,M,2.3,0123*63
$GPVTG,184.12,T,-455.78,M,003.570,N,006.612,K,D*0C
$GPGGA,101239.60,5703.4560576,N,00952.3734829,E,2,10,0.8,-2.182,M,40.593,M,2.3,0123*64
$GPVTG,184.94,T,-454.96,M,003.567,N,006.607,K,D*01
$GPGGA,101239.65,5703.4560084,N,00952.3734742,E,2,10,0.8,-2.179,M,40.593,M,2.6,0123*6A
$GPVTG,185.95,T,-453.95,M,003.560,N,006.593,K,D*0C
$GPGGA,101239.70,5703.4559589,N,00952.3734655,E,2,10,0.8,-2.175,M,40.593,M,2.6,0123*67
$GPVTG,186.44,T,-453.46,M,003.565,N,006.602,K,D*03
$GPGGA,101239.75,5703.4559107,N,00952.3734550,E,2,10,0.8,-2.171,M,40.593,M,2.6,0123*62
$GPVTG,187.24,T,-452.66,M,003.534,N,006.544,K,D*02
$GPGGA,101239.80,5703.4558641,N,00952.3734420,E,2,10,0.8,-2.170,M,40.593,M,2.6,0123*6B
$GPVTG,188.57,T,-451.33,M,003.466,N,006.419,K,D*05
$GPGGA,101239.85,5703.4558170,N,00952.3734288,E,2,10,0.8,-2.179,M,40.593,M,2.8,0123*68
$GPVTG,189.43,T,-450.47,M,003.440,N,006.371,K,D*0E
$GPGGA,101239.90,5703.4557680,N,00952.3734152,E,2,10,0.8,-2.179,M,40.593,M,2.8,0123*6F
$GPVTG,189.73,T,-450.17,M,003.482,N,006.448,K,D*0B
$GPGGA,101239.95,5703.4557194,N,00952.3733997,E,2,10,0.8,-2.177,M,40.593,M,2.8,0123*60
$GPVTG,190.38,T,-449.52,M,003.510,N,006.501,K,D*03
$GPGGA,101240.00,5703.4556719,N,00952.3733815,E,2,10,0.8,-2.173,M,40.593,M,2.8,0123*6F
$GPVTG,191.67,T,-448.23,M,003.507,N,006.495,K,D*05
$GPGGA,101240.05,5703.4556258,N,00952.3733596,E,2,10,0.8,-2.171,M,40.593,M,1.5,0123*60
$GPVTG,193.35,T,-446.55,M,003.471,N,006.428,K,D*09
$GPGGA,101240.10,5703.4555810,N,00952.3733389,E,2,10,0.8,-2.173,M,40.593,M,1.5,0123*6B
$GPVTG,194.51,T,-445.39,M,003.405,N,006.306,K,D*0D
$GPGGA,101240.15,5703.4555355,N,00952.3733165,E,2,10,0.8,-2.172,M,40.593,M,1.5,0123*65
$GPVTG,195.65,T,-444.25,M,003.388,N,006.274,K,D*01
$GPGGA,101240.20,5703.4554895,N,00952.3732936,E,2,10,0.8,-2.171,M,40.593,M,1.5,0123*69
$GPVTG,196.23,T,-443.67,M,003.397,N,006.291,K,D*04
$GPGGA,101240.25,5703.4554436,N,00952.3732679,E,2,10,0.8,-2.172,M,40.593,M,1.8,0123*63
$GPVTG,197.36,T,-442.54,M,003.424,N,006.341,K,D*03
$GPGGA,101240.30,5703.4553979,N,00952.3732409,E,2,10,0.8,-2.176,M,40.593,M,1.8,0123*67
$GPVTG,198.39,T,-441.51,M,003.441,N,006.373,K,D*07
$GPGGA,101240.35,5703.4553546,N,00952.3732125,E,2,10,0.8,-2.177,M,40.593,M,1.8,0123*68
$GPVTG,199.74,T,-440.16,M,003.389,N,006.277,K,D*0B
$GPGGA,101240.40,5703.4553116,N,00952.3731828,E,2,10,0.8,-2.175,M,40.593,M,1.8,0123*6E
$GPVTG,201.00,T,-438.90,M,003.352,N,006.207,K,D*0A
$GPGGA,101240.45,5703.4552692,N,00952.3731532,E,2,10,0.8,-2.184,M,40.593,M,2.0,0123*62
$GPVTG,201.88,T,-438.02,M,003.304,N,006.119,K,D*0E
$GPGGA,101240.50,5703.4552281,N,00952.3731216,E,2,10,0.8,-2.187,M,40.593,M,2.0,0123*62
$GPVTG,203.06,T,-436.84,M,003.250,N,006.019,K,D*0B
$GPGGA,101240.55,5703.4551868,N,00952.3730868,E,2,10,0.8,-2.188,M,40.593,M,2.0,0123*64
$GPVTG,204.76,T,-435.14,M,003.245,N,006.010,K,D*0C
$GPGGA,101240.60,5703.4551447,N,00952.3730527,E,2,10,0.8,-2.189,M,40.593,M,2.0,0123*64
$GPVTG,205.27,T,-434.63,M,003.262,N,006.041,K,D*09
$GPGGA,101240.65,5703.4551035,N,00952.3730170,E,2,10,0.8,-2.190,M,40.593,M,2.2,0123*6C
$GPVTG,206.08,T,-433.82,M,003.266,N,006.048,K,D*02
$GPGGA,101240.70,5703.4550621,N,00952.3729802,E,2,10,0.8,-2.189,M,40.593,M,2.2,0123*66
$GPVTG,206.74,T,-433.16,M,003.285,N,006.083,K,D*0E
$GPGGA,101240.75,5703.4550221,N,00952.3729409,E,2,10,0.8,-2.190,M,40.593,M,2.2,0123*68
$GPVTG,208.18,T,-431.72,M,003.281,N,006.077,K,D*05
$GPGGA,101240.80,5703.4549835,N,00952.3729019,E,2,10,0.8,-2.192,M,40.593,M,2.2,0123*62
$GPVTG,209.24,T,-430.66,M,003.236,N,005.994,K,D*04
$GPGGA,101240.85,5703.4549448,N,00952.3728609,E,2,10,0.8,-2.195,M,40.593,M,2.4,0123*66
$GPVTG,210.46,T,-429.44,M,003.222,N,005.967,K,D*09
$GPGGA,101240.90,5703.4549068,N,00952.3728188,E,2,10,0.8,-2.199,M,40.593,M,2.4,0123*66
$GPVTG,211.59,T,-428.31,M,003.209,N,005.943,K,D*0A
$GPGGA,101240.95,5703.4548683,N,00952.3727762,E,2,10,0.8,-2.201,M,40.593,M,2.4,0123*6E
$GPVTG,212.21,T,-427.69,M,003.217,N,005.958,K,D*01
$GPGGA,101241.00,5703.4548300,N,00952.3727322,E,2,10,0.8,-2.202,M,40.593,M,2.4,0123*6E
$GPVTG,212.89,T,-427.01,M,003.231,N,005.983,K,D*0F
$GPGGA,101241.05,5703.4547918,N,00952.3726842,E,2,10,0.8,-2.195,M,40.593,M,2.7,0123*65
$GPVTG,213.94,T,-425.96,M,003.267,N,006.051,K,D*08
$GPGGA,101241.10,5703.4547541,N,00952.3726364,E,2,10,0.8,-2.199,M,40.593,M,2.7,0123*62
$GPVTG,215.02,T,-424.88,M,003.292,N,006.097,K,D*0F
$GPGGA,101241.15,5703.4547169,N,00952.3725855,E,2,10,0.8,-2.203,M,40.593,M,2.7,0123*63
$GPVTG,216.64,T,-423.26,M,003.335,N,006.176,K,D*0D
$GPGGA,101241.20,5703.4546809,N,00952.3725314,E,2,10,0.8,-2.207,M,40.593,M,2.7,0123*61
$GPVTG,218.81,T,-421.09,M,003.367,N,006.235,K,D*04
$GPGGA,101241.25,5703.4546469,N,00952.3724759,E,2,10,0.8,-2.212,M,40.593,M,2.9,0123*68
$GPVTG,221.09,T,-418.81,M,003.355,N,006.213,K,D*01
$GPGGA,101241.30,5703.4546131,N,00952.3724200,E,2,10,0.8,-2.216,M,40.593,M,2.9,0123*69
$GPVTG,222.65,T,-417.25,M,003.339,N,006.184,K,D*0E
$GPGGA,101241.35,5703.4545795,N,00952.3723617,E,2,10,0.8,-2.221,M,40.593,M,2.9,0123*66
$GPVTG,224.17,T,-415.73,M,003.352,N,006.207,K,D*09
$GPGGA,101241.40,5703.4545451,N,00952.3723031,E,2,10,0.8,-2.225,M,40.593,M,2.9,0123*69
$GPVTG,224.70,T,-415.20,M,003.374,N,006.249,K,D*00
$GPGGA,101241.45,5703.4545120,N,00952.3722458,E,2,10,0.8,-2.232,M,40.593,M,3.1,0123*6A
$GPVTG,224.98,T,-414.92,M,003.345,N,006.195,K,D*0E
$GPGGA,101241.50,5703.4544795,N,00952.3721883,E,2,10,0.8,-2.232,M,40.593,M,3.1,0123*6E
$GPVTG,225.22,T,-414.68,M,003.301,N,006.113,K,D*05
$GPGGA,101241.55,5703.4544482,N,00952.3721283,E,2,10,0.8,-2.235,M,40.593,M,3.1,0123*63
$GPVTG,226.31,T,-413.59,M,003.281,N,006.076,K,D*0A
$GPGGA,101241.60,5703.4544168,N,00952.3720666,E,2,10,0.8,-2.237,M,40.593,M,3.1,0123*68
$GPVTG,227.37,T,-412.53,M,003.293,N,006.099,K,D*04
$GPGGA,101241.65,5703.4543844,N,00952.3720036,E,2,10,0.8,-2.240,M,40.593,M,3.3,0123*6C
$GPVTG,228.02,T,-411.88,M,003.320,N,006.149,K,D*0D
$GPGGA,101241.70,5703.4543535,N,00952.3719387,E,2,10,0.8,-2.240,M,40.593,M,3.3,0123*60
$GPVTG,229.11,T,-410.79,M,003.357,N,006.218,K,D*06
$GPGGA,101241.75,5703.4543235,N,00952.3718739,E,2,10,0.8,-2.239,M,40.593,M,3.3,0123*6C
$GPVTG,230.05,T,-409.85,M,003.361,N,006.224,K,D*0A
$GPGGA,101241.80,5703.4542938,N,00952.3718070,E,2,10,0.8,-2.239,M,40.593,M,3.3,0123*6B
$GPVTG,231.12,T,-408.78,M,003.388,N,006.275,K,D*0D
$GPGGA,101241.85,5703.4542647,N,00952.3717368,E,2,10,0.8,-2.236,M,40.593,M,3.5,0123*65
$GPVTG,232.72,T,-407.18,M,003.426,N,006.344,K,D*01
$GPGGA,101241.90,5703.4542366,N,00952.3716677,E,2,10,0.8,-2.236,M,40.593,M,3.5,0123*6D
$GPVTG,233.76,T,-406.14,M,003.427,N,006.347,K,D*0B
$GPGGA,101241.95,5703.4542088,N,00952.3715975,E,2,10,0.8,-2.234,M,40.593,M,3.5,0123*67
$GPVTG,234.67,T,-405.23,M,003.432,N,006.356,K,D*0F
$GPGGA,101242.00,5703.4541822,N,00952.3715257,E,2,10,0.8,-2.236,M,40.593,M,3.5,0123*6A
$GPVTG,235.94,T,-403.96,M,003.440,N,006.370,K,D*0B
$GPGGA,101242.05,5703.4541567,N,00952.3714518,E,2,10,0.8,-2.231,M,40.593,M,2.0,0123*6D
$GPVTG,237.25,T,-402.65,M,003.424,N,006.342,K,D*0D
$GPGGA,101242.10,5703.4541323,N,00952.3713766,E,2,10,0.8,-2.234,M,40.593,M,2.0,0123*66
$GPVTG,239.02,T,-400.88,M,003.443,N,006.377,K,D*00
$GPGGA,101242.15,5703.4541074,N,00952.3713008,E,2,10,0.8,-2.234,M,40.593,M,2.0,0123*6D
$GPVTG,239.96,T,-399.94,M,003.472,N,006.429,K,D*09
$GPGGA,101242.20,5703.4540833,N,00952.3712233,E,2,10,0.8,-2.234,M,40.593,M,2.0,0123*6A
$GPVTG,240.99,T,-398.91,M,003.505,N,006.491,K,D*0E
$GPGGA,101242.25,5703.4540602,N,00952.3711458,E,2,10,0.8,-2.233,M,40.593,M,2.2,0123*6E
$GPVTG,241.94,T,-397.96,M,003.505,N,006.492,K,D*09
$GPGGA,101242.30,5703.4540364,N,00952.3710662,E,2,10,0.8,-2.237,M,40.593,M,2.2,0123*61
$GPVTG,242.47,T,-397.43,M,003.548,N,006.571,K,D*09
$GPGGA,101242.35,5703.4540145,N,00952.3709857,E,2,10,0.8,-2.238,M,40.593,M,2.2,0123*6A
$GPVTG,243.67,T,-396.23,M,003.562,N,006.597,K,D*0D
$GPGGA,101242.40,5703.4539939,N,00952.3709048,E,2,10,0.8,-2.238,M,40.593,M,2.2,0123*63
$GPVTG,244.96,T,-394.94,M,003.555,N,006.585,K,D*0D
$GPGGA,101242.45,5703.4539742,N,00952.3708214,E,2,10,0.8,-2.238,M,40.593,M,2.5,0123*69
$GPVTG,246.51,T,-393.39,M,003.579,N,006.629,K,D*0F
$GPGGA,101242.50,5703.4539564,N,00952.3707374,E,2,10,0.8,-2.236,M,40.593,M,2.5,0123*6D
$GPVTG,248.36,T,-391.54,M,003.581,N,006.632,K,D*04
$GPGGA,101242.55,5703.4539382,N,00952.3706529,E,2,10,0.8,-2.234,M,40.593,M,2.5,0123*6B
$GPVTG,249.41,T,-390.49,M,003.590,N,006.649,K,D*04
$GPGGA,101242.60,5703.4539202,N,00952.3705694,E,2,10,0.8,-2.234,M,40.593,M,2.5,0123*62
$GPVTG,249.84,T,-390.06,M,003.569,N,006.610,K,D*0C
$GPGGA,101242.65,5703.4539035,N,00952.3704838,E,2,10,0.8,-2.236,M,40.593,M,2.7,0123*68
$GPVTG,250.87,T,-389.03,M,003.584,N,006.638,K,D*03
$GPGGA,101242.70,5703.4538876,N,00952.3703970,E,2,10,0.8,-2.235,M,40.593,M,2.7,0123*6B
$GPVTG,251.96,T,-387.94,M,003.600,N,006.666,K,D*06
$GPGGA,101242.75,5703.4538723,N,00952.3703097,E,2,10,0.8,-2.233,M,40.593,M,2.7,0123*67
$GPVTG,252.83,T,-387.07,M,003.613,N,006.691,K,D*01
$GPGGA,101242.80,5703.4538585,N,00952.3702202,E,2,10,0.8,-2.230,M,40.593,M,2.7,0123*6F
$GPVTG,254.25,T,-385.65,M,003.647,N,006.754,K,D*04
$GPGGA,101242.85,5703.4538452,N,00952.3701298,E,2,10,0.8,-2.221,M,40.593,M,3.0,0123*67
$GPVTG,255.28,T,-384.62,M,003.675,N,006.805,K,D*04
$GPGGA,101242.90,5703.4538331,N,00952.3700384,E,2,10,0.8,-2.220,M,40.593,M,3.0,0123*6D
$GPVTG,256.60,T,-383.30,M,003.706,N,006.864,K,D*09
$GPGGA,101242.95,5703.4538213,N,00952.3699471,E,2,10,0.8,-2.220,M,40.593,M,3.0,0123*65
$GPVTG,257.48,T,-382.42,M,003.717,N,006.885,K,D*09
$GPGGA,101243.00,5703.4538111,N,00952.3698541,E,2,10,0.8,-2.218,M,40.593,M,3.0,0123*61
$GPVTG,258.75,T,-381.15,M,003.743,N,006.932,K,D*05
$GPGGA,101243.05,5703.4538008,N,00952.3697604,E,2,10,0.8,-2.223,M,40.593,M,1.8,0123*62
$GPVTG,259.57,T,-380.33,M,003.751,N,006.947,K,D*00
$GPGGA,101243.10,5703.4537925,N,00952.3696651,E,2,10,0.8,-2.223,M,40.593,M,1.8,0123*6E
$GPVTG,260.99,T,-378.91,M,003.791,N,007.020,K,D*02
$GPGGA,101243.15,5703.4537856,N,00952.3695693,E,2,10,0.8,-2.226,M,40.593,M,1.8,0123*66
$GPVTG,262.47,T,-377.43,M,003.819,N,007.073,K,D*0A
$GPGGA,101243.20,5703.4537795,N,00952.3694736,E,2,10,0.8,-2.227,M,40.593,M,1.8,0123*6E
$GPVTG,263.74,T,-376.16,M,003.824,N,007.082,K,D*0A
$GPGGA,101243.25,5703.4537748,N,00952.3693757,E,2,10,0.8,-2.228,M,40.593,M,2.1,0123*6E
$GPVTG,265.13,T,-374.77,M,003.864,N,007.155,K,D*07
$GPGGA,101243.30,5703.4537719,N,00952.3692771,E,2,10,0.8,-2.229,M,40.593,M,2.1,0123*6A
$GPVTG,266.83,T,-373.07,M,003.895,N,007.214,K,D*05
$GPGGA,101243.35,5703.4537700,N,00952.3691783,E,2,10,0.8,-2.233,M,40.593,M,2.1,0123*62
$GPVTG,268.27,T,-371.63,M,003.918,N,007.256,K,D*07
$GPGGA,101243.40,5703.4537674,N,00952.3690799,E,2,10,0.8,-2.235,M,40.593,M,2.1,0123*6E
$GPVTG,268.96,T,-370.94,M,003.927,N,007.272,K,D*0E
$GPGGA,101243.45,5703.4537658,N,00952.3689810,E,2,10,0.8,-2.238,M,40.593,M,2.3,0123*6C
$GPVTG,269.70,T,-370.20,M,003.938,N,007.293,K,D*09
$GPGGA,101243.50,5703.4537654,N,00952.3688801,E,2,10,0.8,-2.238,M,40.593,M,2.3,0123*65
$GPVTG,270.57,T,-369.33,M,003.972,N,007.355,K,D*0B
$GPGGA,101243.55,5703.4537660,N,00952.3687791,E,2,10,0.8,-2.239,M,40.593,M,2.3,0123*6F
$GPVTG,271.43,T,-368.47,M,003.995,N,007.398,K,D*05
$GPGGA,101243.60,5703.4537678,N,00952.3686791,E,2,10,0.8,-2.240,M,40.593,M,2.3,0123*6F
$GPVTG,272.44,T,-367.46,M,003.990,N,007.390,K,D*02
$GPGGA,101243.65,5703.4537714,N,00952.3685800,E,2,10,0.8,-2.244,M,40.593,M,2.6,0123*64
$GPVTG,273.80,T,-366.10,M,003.968,N,007.349,K,D*0A
$GPGGA,101243.70,5703.4537751,N,00952.3684790,E,2,10,0.8,-2.242,M,40.593,M,2.6,0123*60
$GPVTG,274.70,T,-365.20,M,003.982,N,007.375,K,D*09
$GPGGA,101243.75,5703.4537782,N,00952.3683781,E,2,10,0.8,-2.238,M,40.593,M,2.6,0123*61
$GPVTG,274.89,T,-365.01,M,003.989,N,007.387,K,D*0A
$GPGGA,101243.80,5703.4537816,N,00952.3682782,E,2,10,0.8,-2.232,M,40.593,M,2.6,0123*61
$GPVTG,274.96,T,-364.94,M,003.969,N,007.350,K,D*0D
$GPGGA,101243.85,5703.4537865,N,00952.3681779,E,2,10,0.8,-2.227,M,40.593,M,2.8,0123*6D
$GPVTG,275.58,T,-364.32,M,003.970,N,007.353,K,D*09
$GPGGA,101243.90,5703.4537912,N,00952.3680784,E,2,10,0.8,-2.219,M,40.593,M,2.8,0123*66
$GPVTG,275.86,T,-364.04,M,003.951,N,007.317,K,D*0C
$GPGGA,101243.95,5703.4537962,N,00952.3679785,E,2,10,0.8,-2.214,M,40.593,M,2.8,0123*6E
$GPVTG,276.02,T,-363.88,M,003.947,N,007.309,K,D*08
$GPGGA,101244.00,5703.4538022,N,00952.3678787,E,2,10,0.8,-2.206,M,40.593,M,2.8,0123*67
$GPVTG,276.55,T,-363.35,M,003.945,N,007.306,K,D*01
$GPGGA,101244.05,5703.4538101,N,00952.3677787,E,2,10,0.8,-2.192,M,40.593,M,1.5,0123*6D
$GPVTG,277.70,T,-362.20,M,003.961,N,007.335,K,D*04
$GPGGA,101244.10,5703.4538201,N,00952.3676784,E,2,10,0.8,-2.183,M,40.593,M,1.5,0123*68
$GPVTG,279.42,T,-360.48,M,003.986,N,007.382,K,D*02
$GPGGA,101244.15,5703.4538301,N,00952.3675788,E,2,10,0.8,-2.174,M,40.593,M,1.5,0123*6B
$GPVTG,280.53,T,-359.37,M,003.991,N,007.391,K,D*02
$GPGGA,101244.20,5703.4538390,N,00952.3674789,E,2,10,0.8,-2.167,M,40.593,M,1.5,0123*67
$GPVTG,280.72,T,-359.18,M,003.994,N,007.397,K,D*0F
$GPGGA,101244.25,5703.4538485,N,00952.3673792,E,2,10,0.8,-2.163,M,40.593,M,1.8,0123*65
$GPVTG,280.95,T,-358.95,M,003.998,N,007.404,K,D*03
$GPGGA,101244.30,5703.4538600,N,00952.3672804,E,2,10,0.8,-2.156,M,40.593,M,1.8,0123*69
$GPVTG,281.97,T,-357.93,M,003.989,N,007.388,K,D*0A
$GPGGA,101244.35,5703.4538719,N,00952.3671800,E,2,10,0.8,-2.153,M,40.593,M,1.8,0123*67
$GPVTG,282.65,T,-357.25,M,004.019,N,007.443,K,D*0E
$GPGGA,101244.40,5703.4538845,N,00952.3670794,E,2,10,0.8,-2.150,M,40.593,M,1.8,0123*63
$GPVTG,283.32,T,-356.58,M,004.047,N,007.496,K,D*05
$GPGGA,101244.45,5703.4538985,N,00952.3669796,E,2,10,0.8,-2.146,M,40.593,M,2.0,0123*6D
$GPVTG,284.35,T,-355.55,M,004.059,N,007.517,K,D*0C
$GPGGA,101244.50,5703.4539134,N,00952.3668797,E,2,10,0.8,-2.143,M,40.593,M,2.0,0123*6F
$GPVTG,285.35,T,-354.55,M,004.076,N,007.550,K,D*02
$GPGGA,101244.55,5703.4539305,N,00952.3667811,E,2,10,0.8,-2.142,M,40.593,M,2.0,0123*65
$GPVTG,287.04,T,-352.86,M,004.081,N,007.558,K,D*0A
$GPGGA,101244.60,5703.4539478,N,00952.3666832,E,2,10,0.8,-2.139,M,40.593,M,2.0,0123*62
$GPVTG,288.25,T,-351.65,M,004.073,N,007.544,K,D*08
$GPGGA,101244.65,5703.4539656,N,00952.3665857,E,2,10,0.8,-2.140,M,40.593,M,2.2,0123*65
$GPVTG,289.19,T,-350.71,M,004.068,N,007.534,K,D*0F
$GPGGA,101244.70,5703.4539829,N,00952.3664904,E,2,10,0.8,-2.141,M,40.593,M,2.2,0123*60
$GPVTG,289.70,T,-350.20,M,004.015,N,007.435,K,D*0E
$GPGGA,101244.75,5703.4540024,N,00952.3663941,E,2,10,0.8,-2.141,M,40.593,M,2.2,0123*68
$GPVTG,290.73,T,-349.17,M,004.023,N,007.451,K,D*0E
$GPGGA,101244.80,5703.4540229,N,00952.3662988,E,2,10,0.8,-2.139,M,40.593,M,2.2,0123*66
$GPVTG,291.83,T,-348.07,M,004.023,N,007.450,K,D*01
$GPGGA,101244.85,5703.4540444,N,00952.3662041,E,2,10,0.8,-2.144,M,40.593,M,2.4,0123*6E
$GPVTG,292.93,T,-346.97,M,004.037,N,007.476,K,D*05
$GPGGA,101244.90,5703.4540663,N,00952.3661106,E,2,10,0.8,-2.144,M,40.593,M,2.4,0123*6C
$GPVTG,293.92,T,-345.98,M,004.022,N,007.449,K,D*01
$GPGGA,101244.95,5703.4540894,N,00952.3660168,E,2,10,0.8,-2.143,M,40.593,M,2.4,0123*61
$GPVTG,294.84,T,-345.06,M,004.035,N,007.473,K,D*09
$GPGGA,101245.00,5703.4541136,N,00952.3659241,E,2,10,0.8,-2.142,M,40.593,M,2.4,0123*6F
$GPVTG,295.94,T,-343.96,M,004.041,N,007.484,K,D*0D
$GPGGA,101245.05,5703.4541381,N,00952.3658319,E,2,10,0.8,-2.143,M,40.593,M,2.7,0123*6B
$GPVTG,296.81,T,-343.09,M,004.054,N,007.509,K,D*0C
$GPGGA,101245.10,5703.4541637,N,00952.3657412,E,2,10,0.8,-2.145,M,40.593,M,2.7,0123*62
$GPVTG,297.81,T,-342.09,M,004.042,N,007.486,K,D*0D
$GPGGA,101245.15,5703.4541906,N,00952.3656499,E,2,10,0.8,-2.149,M,40.593,M,2.7,0123*64
$GPVTG,298.86,T,-341.04,M,004.065,N,007.528,K,D*0B
$GPGGA,101245.20,5703.4542190,N,00952.3655598,E,2,10,0.8,-2.150,M,40.593,M,2.7,0123*6D
$GPVTG,300.12,T,-339.78,M,004.086,N,007.567,K,D*04
$GPGGA,101245.25,5703.4542482,N,00952.3654703,E,2,10,0.8,-2.160,M,40.593,M,2.9,0123*62
$GPVTG,301.29,T,-338.61,M,004.110,N,007.611,K,D*08
$GPGGA,101245.30,5703.4542785,N,00952.3653824,E,2,10,0.8,-2.162,M,40.593,M,2.9,0123*6D
$GPVTG,302.57,T,-337.33,M,004.112,N,007.616,K,D*0F
$GPGGA,101245.35,5703.4543093,N,00952.3652952,E,2,10,0.8,-2.163,M,40.593,M,2.9,0123*69
$GPVTG,303.63,T,-336.27,M,004.111,N,007.613,K,D*0B
$GPGGA,101245.40,5703.4543409,N,00952.3652086,E,2,10,0.8,-2.165,M,40.593,M,2.9,0123*6A
$GPVTG,304.55,T,-335.35,M,004.115,N,007.622,K,D*0F
$GPGGA,101245.45,5703.4543733,N,00952.3651232,E,2,10,0.8,-2.168,M,40.593,M,3.1,0123*6F
$GPVTG,305.56,T,-334.34,M,004.116,N,007.623,K,D*0F
$GPGGA,101245.50,5703.4544080,N,00952.3650391,E,2,10,0.8,-2.169,M,40.593,M,3.1,0123*6B
$GPVTG,307.07,T,-332.83,M,004.136,N,007.660,K,D*06
$GPGGA,101245.55,5703.4544419,N,00952.3649553,E,2,10,0.8,-2.173,M,40.593,M,3.1,0123*61
$GPVTG,307.74,T,-332.16,M,004.133,N,007.655,K,D*0D
$GPGGA,101245.60,5703.4544754,N,00952.3648723,E,2,10,0.8,-2.174,M,40.593,M,3.1,0123*6E
$GPVTG,308.01,T,-331.89,M,004.110,N,007.612,K,D*07
$GPGGA,101245.65,5703.4545099,N,00952.3647908,E,2,10,0.8,-2.174,M,40.593,M,3.3,0123*66
$GPVTG,308.63,T,-331.27,M,004.093,N,007.580,K,D*05
$GPGGA,101245.70,5703.4545467,N,00952.3647099,E,2,10,0.8,-2.172,M,40.593,M,3.3,0123*60
$GPVTG,309.82,T,-330.08,M,004.114,N,007.620,K,D*00
$GPGGA,101245.75,5703.4545842,N,00952.3646296,E,2,10,0.8,-2.172,M,40.593,M,3.3,0123*62
$GPVTG,310.86,T,-329.04,M,004.140,N,007.668,K,D*05
$GPGGA,101245.80,5703.4546218,N,00952.3645500,E,2,10,0.8,-2.172,M,40.593,M,3.3,0123*65
$GPVTG,311.58,T,-328.32,M,004.152,N,007.689,K,D*0F
$GPGGA,101245.85,5703.4546603,N,00952.3644723,E,2,10,0.8,-2.171,M,40.593,M,3.5,0123*69
$GPVTG,312.47,T,-327.43,M,004.148,N,007.683,K,D*0A
$GPGGA,101245.90,5703.4546998,N,00952.3643961,E,2,10,0.8,-2.173,M,40.593,M,3.5,0123*6D
$GPVTG,313.65,T,-326.25,M,004.148,N,007.682,K,D*0B
$GPGGA,101245.95,5703.4547397,N,00952.3643199,E,2,10,0.8,-2.171,M,40.593,M,3.5,0123*61
$GPVTG,314.47,T,-325.43,M,004.159,N,007.703,K,D*07
$GPGGA,101246.00,5703.4547800,N,00952.3642449,E,2,10,0.8,-2.172,M,40.593,M,3.5,0123*61
$GPVTG,315.26,T,-324.64,M,004.160,N,007.705,K,D*09
$GPGGA,101246.05,5703.4548200,N,00952.3641719,E,2,10,0.8,-2.172,M,40.593,M,2.0,0123*60
$GPVTG,316.02,T,-323.88,M,004.143,N,007.673,K,D*08
$GPGGA,101246.10,5703.4548626,N,00952.3640980,E,2,10,0.8,-2.173,M,40.593,M,2.0,0123*6A
$GPVTG,316.93,T,-322.97,M,004.189,N,007.758,K,D*01
$GPGGA,101246.15,5703.4549066,N,00952.3640265,E,2,10,0.8,-2.174,M,40.593,M,2.0,0123*6B
$GPVTG,318.33,T,-321.57,M,004.222,N,007.818,K,D*03
$GPGGA,101246.20,5703.4549512,N,00952.3639559,E,2,10,0.8,-2.178,M,40.593,M,2.0,0123*61
$GPVTG,319.46,T,-320.44,M,004.249,N,007.870,K,D*00
$GPGGA,101246.25,5703.4549951,N,00952.3638869,E,2,10,0.8,-2.181,M,40.593,M,2.2,0123*64
$GPVTG,320.25,T,-319.65,M,004.230,N,007.834,K,D*08
$GPGGA,101246.30,5703.4550417,N,00952.3638198,E,2,10,0.8,-2.184,M,40.593,M,2.2,0123*65
$GPVTG,321.79,T,-318.11,M,004.260,N,007.889,K,D*01
$GPGGA,101246.35,5703.4550885,N,00952.3637554,E,2,10,0.8,-2.189,M,40.593,M,2.2,0123*61
$GPVTG,323.30,T,-316.60,M,004.254,N,007.879,K,D*0E
$GPGGA,101246.40,5703.4551361,N,00952.3636925,E,2,10,0.8,-2.190,M,40.593,M,2.2,0123*60
$GPVTG,324.67,T,-315.23,M,004.253,N,007.876,K,D*07
$GPGGA,101246.45,5703.4551854,N,00952.3636312,E,2,10,0.8,-2.195,M,40.593,M,2.5,0123*64
$GPVTG,326.16,T,-313.74,M,004.285,N,007.936,K,D*09
$GPGGA,101246.50,5703.4552343,N,00952.3635692,E,2,10,0.8,-2.198,M,40.593,M,2.5,0123*6D
$GPVTG,326.72,T,-313.18,M,004.305,N,007.972,K,D*08
$GPGGA,101246.55,5703.4552841,N,00952.3635074,E,2,10,0.8,-2.204,M,40.593,M,2.5,0123*69
$GPVTG,327.12,T,-312.78,M,004.340,N,008.037,K,D*0E
$GPGGA,101246.60,5703.4553350,N,00952.3634469,E,2,10,0.8,-2.208,M,40.593,M,2.5,0123*60
$GPVTG,327.76,T,-312.14,M,004.380,N,008.111,K,D*0F
$GPGGA,101246.65,5703.4553863,N,00952.3633894,E,2,10,0.8,-2.217,M,40.593,M,2.7,0123*6B
$GPVTG,328.78,T,-311.12,M,004.387,N,008.125,K,D*0B
$GPGGA,101246.70,5703.4554396,N,00952.3633330,E,2,10,0.8,-2.221,M,40.593,M,2.7,0123*69
$GPVTG,330.07,T,-309.83,M,004.430,N,008.205,K,D*01
$GPGGA,101246.75,5703.4554928,N,00952.3632783,E,2,10,0.8,-2.225,M,40.593,M,2.7,0123*6A
$GPVTG,331.13,T,-308.77,M,004.438,N,008.220,K,D*00
$GPGGA,101246.80,5703.4555460,N,00952.3632236,E,2,10,0.8,-2.228,M,40.593,M,2.7,0123*66
$GPVTG,331.69,T,-308.21,M,004.445,N,008.232,K,D*07
$GPGGA,101246.85,5703.4556003,N,00952.3631704,E,2,10,0.8,-2.225,M,40.593,M,3.0,0123*6D
$GPVTG,332.51,T,-307.39,M,004.456,N,008.252,K,D*0D
$GPGGA,101246.90,5703.4556547,N,00952.3631177,E,2,10,0.8,-2.228,M,40.593,M,3.0,0123*63
$GPVTG,333.00,T,-306.90,M,004.467,N,008.274,K,D*0C
$GPGGA,101246.95,5703.4557095,N,00952.3630645,E,2,10,0.8,-2.230,M,40.593,M,3.0,0123*63
$GPVTG,333.13,T,-306.77,M,004.489,N,008.313,K,D*07
$GPGGA,101247.00,5703.4557648,N,00952.3630138,E,2,10,0.8,-2.231,M,40.593,M,3.0,0123*64
$GPVTG,333.75,T,-306.15,M,004.492,N,008.319,K,D*03
$GPGGA,101247.05,5703.4558199,N,00952.3629647,E,2,10,0.8,-2.225,M,40.593,M,1.8,0123*6D
$GPVTG,334.40,T,-305.50,M,004.479,N,008.295,K,D*00
$GPGGA,101247.10,5703.4558760,N,00952.3629172,E,2,10,0.8,-2.224,M,40.593,M,1.8,0123*69
$GPVTG,335.30,T,-304.60,M,004.477,N,008.292,K,D*0D
$GPGGA,101247.15,5703.4559345,N,00952.3628714,E,2,10,0.8,-2.221,M,40.593,M,1.8,0123*6C
$GPVTG,336.61,T,-303.29,M,004.531,N,008.391,K,D*01
$GPGGA,101247.20,5703.4559926,N,00952.3628263,E,2,10,0.8,-2.218,M,40.593,M,1.8,0123*6A
$GPVTG,337.46,T,-302.44,M,004.556,N,008.438,K,D*0A
$GPGGA,101247.25,5703.4560486,N,00952.3627823,E,2,10,0.8,-2.219,M,40.593,M,2.1,0123*68
$GPVTG,337.78,T,-302.12,M,004.506,N,008.344,K,D*0D
$GPGGA,101247.30,5703.4561060,N,00952.3627392,E,2,10,0.8,-2.217,M,40.593,M,2.1,0123*6E
$GPVTG,338.31,T,-301.59,M,004.498,N,008.330,K,D*06
$GPGGA,101247.35,5703.4561647,N,00952.3626969,E,2,10,0.8,-2.211,M,40.593,M,2.1,0123*61
$GPVTG,338.93,T,-300.97,M,004.526,N,008.382,K,D*00
$GPGGA,101247.40,5703.4562236,N,00952.3626553,E,2,10,0.8,-2.205,M,40.593,M,2.1,0123*62
$GPVTG,339.42,T,-300.48,M,004.545,N,008.418,K,D*0E
$GPGGA,101247.45,5703.4562832,N,00952.3626158,E,2,10,0.8,-2.200,M,40.593,M,2.3,0123*61
$GPVTG,340.09,T,-299.81,M,004.558,N,008.442,K,D*08
$GPGGA,101247.50,5703.4563424,N,00952.3625785,E,2,10,0.8,-2.195,M,40.593,M,2.3,0123*65
$GPVTG,341.04,T,-298.86,M,004.550,N,008.426,K,D*08
$GPGGA,101247.55,5703.4564027,N,00952.3625434,E,2,10,0.8,-2.190,M,40.593,M,2.3,0123*6C
$GPVTG,342.26,T,-297.64,M,004.562,N,008.449,K,D*00
$GPGGA,101247.60,5703.4564647,N,00952.3625095,E,2,10,0.8,-2.188,M,40.593,M,2.3,0123*6C
$GPVTG,343.41,T,-296.49,M,004.614,N,008.546,K,D*02
$GPGGA,101247.65,5703.4565282,N,00952.3624770,E,2,10,0.8,-2.191,M,40.593,M,2.6,0123*65
$GPVTG,344.29,T,-295.61,M,004.679,N,008.666,K,D*08
$GPGGA,101247.70,5703.4565914,N,00952.3624444,E,2,10,0.8,-2.192,M,40.593,M,2.6,0123*62
$GPVTG,344.93,T,-294.97,M,004.732,N,008.763,K,D*0B
$GPGGA,101247.75,5703.4566550,N,00952.3624126,E,2,10,0.8,-2.191,M,40.593,M,2.6,0123*6A
$GPVTG,345.42,T,-294.48,M,004.770,N,008.834,K,D*0F
$GPGGA,101247.80,5703.4567173,N,00952.3623806,E,2,10,0.8,-2.196,M,40.593,M,2.6,0123*6F
$GPVTG,345.43,T,-294.47,M,004.758,N,008.812,K,D*0F
$GPGGA,101247.85,5703.4567811,N,00952.3623492,E,2,10,0.8,-2.194,M,40.593,M,2.8,0123*6A
$GPVTG,345.70,T,-294.20,M,004.777,N,008.847,K,D*03
$GPGGA,101247.90,5703.4568467,N,00952.3623191,E,2,10,0.8,-2.197,M,40.593,M,2.8,0123*69
$GPVTG,346.17,T,-293.73,M,004.842,N,008.968,K,D*05
$GPGGA,101247.95,5703.4569125,N,00952.3622907,E,2,10,0.8,-2.202,M,40.593,M,2.8,0123*67
$GPVTG,346.80,T,-293.10,M,004.884,N,009.045,K,D*03
$GPGGA,101248.00,5703.4569778,N,00952.3622649,E,2,10,0.8,-2.206,M,40.593,M,2.8,0123*6B
$GPVTG,347.73,T,-292.17,M,004.881,N,009.040,K,D*08
$GPGGA,101248.05,5703.4570436,N,00952.3622419,E,2,10,0.8,-2.210,M,40.593,M,1.5,0123*61
$GPVTG,349.04,T,-290.86,M,004.886,N,009.049,K,D*02
$GPGGA,101248.10,5703.4571090,N,00952.3622222,E,2,10,0.8,-2.213,M,40.593,M,1.5,0123*61
$GPVTG,350.50,T,-289.40,M,004.860,N,009.000,K,D*0C
$GPGGA,101248.15,5703.4571756,N,00952.3622019,E,2,10,0.8,-2.212,M,40.593,M,1.5,0123*62
$GPVTG,351.22,T,-288.68,M,004.874,N,009.027,K,D*03
$GPGGA,101248.20,5703.4572416,N,00952.3621847,E,2,10,0.8,-2.208,M,40.593,M,1.5,0123*6B
$GPVTG,352.26,T,-287.64,M,004.858,N,008.997,K,D*0A
$GPGGA,101248.25,5703.4573063,N,00952.3621691,E,2,10,0.8,-2.205,M,40.593,M,1.8,0123*6C
$GPVTG,353.08,T,-286.82,M,004.802,N,008.893,K,D*04
$GPGGA,101248.30,5703.4573716,N,00952.3621533,E,2,10,0.8,-2.199,M,40.593,M,1.8,0123*60
$GPVTG,353.46,T,-286.44,M,004.777,N,008.848,K,D*0F
$GPGGA,101248.35,5703.4574372,N,00952.3621407,E,2,10,0.8,-2.198,M,40.593,M,1.8,0123*63
$GPVTG,354.35,T,-285.55,M,004.763,N,008.821,K,D*05
$GPGGA,101248.40,5703.4575030,N,00952.3621287,E,2,10,0.8,-2.192,M,40.593,M,1.8,0123*61
$GPVTG,354.94,T,-284.96,M,004.762,N,008.819,K,D*0A
$GPGGA,101248.45,5703.4575701,N,00952.3621162,E,2,10,0.8,-2.184,M,40.593,M,2.0,0123*65
$GPVTG,355.08,T,-284.82,M,004.803,N,008.896,K,D*04
$GPGGA,101248.50,5703.4576377,N,00952.3621048,E,2,10,0.8,-2.182,M,40.593,M,2.0,0123*68
$GPVTG,355.31,T,-284.59,M,004.852,N,008.986,K,D*0C
$GPGGA,101248.55,5703.4577055,N,00952.3620944,E,2,10,0.8,-2.178,M,40.593,M,2.0,0123*6E
$GPVTG,355.62,T,-284.28,M,004.887,N,009.051,K,D*06
$GPGGA,101248.60,5703.4577748,N,00952.3620875,E,2,10,0.8,-2.179,M,40.593,M,2.0,0123*61
$GPVTG,356.63,T,-283.27,M,004.956,N,009.178,K,D*0B
$GPGGA,101248.65,5703.4578435,N,00952.3620824,E,2,10,0.8,-2.177,M,40.593,M,2.2,0123*6A
$GPVTG,357.65,T,-282.25,M,004.980,N,009.223,K,D*09
$GPGGA,101248.70,5703.4579114,N,00952.3620788,E,2,10,0.8,-2.180,M,40.593,M,2.2,0123*68
$GPVTG,358.52,T,-281.38,M,004.968,N,009.200,K,D*0A
$GPGGA,101248.75,5703.4579819,N,00952.3620754,E,2,10,0.8,-2.182,M,40.593,M,2.2,0123*6A
$GPVTG,359.03,T,-280.87,M,005.039,N,009.331,K,D*05
$GPGGA,101248.80,5703.4580521,N,00952.3620737,E,2,10,0.8,-2.189,M,40.593,M,2.2,0123*6E
$GPVTG,359.63,T,-280.27,M,005.076,N,009.401,K,D*06
$GPGGA,101248.85,5703.4581224,N,00952.3620742,E,2,10,0.8,-2.199,M,40.593,M,2.4,0123*6D
$GPVTG,000.35,T,-639.55,M,005.107,N,009.458,K,D*02
$GPGGA,101248.90,5703.4581912,N,00952.3620771,E,2,10,0.8,-2.202,M,40.593,M,2.4,0123*66
$GPVTG,001.34,T,-638.57,M,005.070,N,009.390,K,D*03
$GPGGA,101248.95,5703.4582600,N,00952.3620822,E,2,10,0.8,-2.205,M,40.593,M,2.4,0123*62
$GPVTG,002.39,T,-637.51,M,005.042,N,009.337,K,D*08
$GPGGA,101249.00,5703.4583294,N,00952.3620876,E,2,10,0.8,-2.206,M,40.593,M,2.4,0123*65
$GPVTG,003.00,T,-636.90,M,005.038,N,009.331,K,D*04
$GPGGA,101249.05,5703.4583983,N,00952.3620939,E,2,10,0.8,-2.201,M,40.593,M,2.7,0123*63
$GPVTG,003.58,T,-636.32,M,005.021,N,009.300,K,D*0B
$GPGGA,101249.10,5703.4584672,N,00952.3621021,E,2,10,0.8,-2.199,M,40.593,M,2.7,0123*62
$GPVTG,004.19,T,-635.71,M,005.005,N,009.269,K,D*05
$GPGGA,101249.15,5703.4585348,N,00952.3621130,E,2,10,0.8,-2.196,M,40.593,M,2.7,0123*64
$GPVTG,005.13,T,-634.77,M,004.958,N,009.182,K,D*0F
$GPGGA,101249.20,5703.4586018,N,00952.3621271,E,2,10,0.8,-2.192,M,40.593,M,2.7,0123*65
$GPVTG,006.43,T,-633.47,M,004.911,N,009.095,K,D*07
$GPGGA,101249.25,5703.4586673,N,00952.3621429,E,2,10,0.8,-2.185,M,40.593,M,2.9,0123*68
$GPVTG,007.63,T,-632.27,M,004.834,N,008.952,K,D*06
$GPGGA,101249.30,5703.4587348,N,00952.3621578,E,2,10,0.8,-2.176,M,40.593,M,2.9,0123*69
$GPVTG,007.95,T,-631.95,M,004.844,N,008.971,K,D*03
$GPGGA,101249.35,5703.4588036,N,00952.3621724,E,2,10,0.8,-2.168,M,40.593,M,2.9,0123*6D
$GPVTG,007.85,T,-632.05,M,004.896,N,009.068,K,D*07
$GPGGA,101249.40,5703.4588731,N,00952.3621864,E,2,10,0.8,-2.166,M,40.593,M,2.9,0123*6A
$GPVTG,007.44,T,-632.46,M,004.954,N,009.176,K,D*0C
$GPGGA,101249.45,5703.4589438,N,00952.3622018,E,2,10,0.8,-2.165,M,40.593,M,3.1,0123*6E
$GPVTG,007.33,T,-632.57,M,005.043,N,009.340,K,D*05
$GPGGA,101249.50,5703.4590150,N,00952.3622145,E,2,10,0.8,-2.168,M,40.593,M,3.1,0123*6D
$GPVTG,006.54,T,-633.36,M,005.116,N,009.474,K,D*02
$GPGGA,101249.55,5703.4590861,N,00952.3622293,E,2,10,0.8,-2.173,M,40.593,M,3.1,0123*61
$GPVTG,006.48,T,-633.42,M,005.162,N,009.560,K,D*0B
$GPGGA,101249.60,5703.4591585,N,00952.3622497,E,2,10,0.8,-2.181,M,40.593,M,3.1,0123*6E
$GPVTG,007.68,T,-632.22,M,005.249,N,009.721,K,D*02
$GPGGA,101249.65,5703.4592307,N,00952.3622745,E,2,10,0.8,-2.196,M,40.593,M,3.3,0123*6C
$GPVTG,009.38,T,-630.52,M,005.315,N,009.844,K,D*08
$GPGGA,101249.70,5703.4593041,N,00952.3623013,E,2,10,0.8,-2.206,M,40.593,M,3.3,0123*67
$GPVTG,010.82,T,-629.08,M,005.400,N,010.001,K,D*04
$GPGGA,101249.75,5703.4593774,N,00952.3623307,E,2,10,0.8,-2.216,M,40.593,M,3.3,0123*64
$GPVTG,012.21,T,-627.69,M,005.458,N,010.108,K,D*03
$GPGGA,101249.80,5703.4594474,N,00952.3623599,E,2,10,0.8,-2.221,M,40.593,M,3.3,0123*6F
$GPVTG,013.15,T,-626.75,M,005.382,N,009.968,K,D*0F
$GPGGA,101249.85,5703.4595153,N,00952.3623879,E,2,10,0.8,-2.217,M,40.593,M,3.5,0123*6B
$GPVTG,013.55,T,-626.35,M,005.247,N,009.717,K,D*01
$GPGGA,101249.90,5703.4595837,N,00952.3624184,E,2,10,0.8,-2.211,M,40.593,M,3.5,0123*6E
$GPVTG,014.17,T,-625.73,M,005.169,N,009.573,K,D*0E
$GPGGA,101249.95,5703.4596499,N,00952.3624513,E,2,10,0.8,-2.200,M,40.593,M,3.5,0123*6A
$GPVTG,015.19,T,-624.71,M,005.054,N,009.360,K,D*09
$GPGGA,101250.00,5703.4597149,N,00952.3624889,E,2,10,0.8,-2.189,M,40.593,M,3.5,0123*6B
$GPVTG,016.97,T,-622.93,M,004.967,N,009.199,K,D*0A
$GPGGA,101250.05,5703.4597786,N,00952.3625283,E,2,10,0.8,-2.168,M,40.593,M,2.0,0123*61
$GPVTG,018.78,T,-621.12,M,004.887,N,009.051,K,D*05
$GPGGA,101250.10,5703.4598428,N,00952.3625702,E,2,10,0.8,-2.156,M,40.593,M,2.0,0123*6C
$GPVTG,020.19,T,-619.71,M,004.862,N,009.003,K,D*0B
$GPGGA,101250.15,5703.4599070,N,00952.3626130,E,2,10,0.8,-2.147,M,40.593,M,2.0,0123*65
$GPVTG,021.08,T,-618.82,M,004.858,N,008.998,K,D*04
$GPGGA,101250.20,5703.4599726,N,00952.3626561,E,2,10,0.8,-2.138,M,40.593,M,2.0,0123*6F
$GPVTG,021.33,T,-618.57,M,004.906,N,009.086,K,D*09
$GPGGA,101250.25,5703.4600398,N,00952.3627008,E,2,10,0.8,-2.133,M,40.593,M,2.2,0123*6A
$GPVTG,021.37,T,-618.53,M,005.005,N,009.270,K,D*09
$GPGGA,101250.30,5703.4601084,N,00952.3627463,E,2,10,0.8,-2.131,M,40.593,M,2.2,0123*6A
$GPVTG,021.20,T,-618.70,M,005.125,N,009.492,K,D*07
$GPGGA,101250.35,5703.4601773,N,00952.3627922,E,2,10,0.8,-2.136,M,40.593,M,2.2,0123*6F
$GPVTG,020.97,T,-618.93,M,005.221,N,009.670,K,D*0E
$GPGGA,101250.40,5703.4602467,N,00952.3628409,E,2,10,0.8,-2.144,M,40.593,M,2.2,0123*66
$GPVTG,021.22,T,-618.68,M,005.317,N,009.848,K,D*04
$GPGGA,101250.45,5703.4603167,N,00952.3628918,E,2,10,0.8,-2.160,M,40.593,M,2.5,0123*6B
$GPVTG,021.65,T,-618.25,M,005.420,N,010.037,K,D*05
$GPGGA,101250.50,5703.4603863,N,00952.3629457,E,2,10,0.8,-2.175,M,40.593,M,2.5,0123*61
$GPVTG,022.53,T,-617.37,M,005.490,N,010.168,K,D*0F
$GPGGA,101250.55,5703.4604542,N,00952.3630022,E,2,10,0.8,-2.193,M,40.593,M,2.5,0123*6B
$GPVTG,023.78,T,-616.12,M,005.495,N,010.177,K,D*0A
$GPGGA,101250.60,5703.4605216,N,00952.3630603,E,2,10,0.8,-2.213,M,40.593,M,2.5,0123*64
$GPVTG,024.89,T,-615.01,M,005.489,N,010.166,K,D*0F
$GPGGA,101250.65,5703.4605891,N,00952.3631193,E,2,10,0.8,-2.228,M,40.593,M,2.7,0123*61
$GPVTG,025.71,T,-614.19,M,005.482,N,010.153,K,D*0C
$GPGGA,101250.70,5703.4606553,N,00952.3631768,E,2,10,0.8,-2.233,M,40.593,M,2.7,0123*6D
$GPVTG,026.00,T,-613.90,M,005.416,N,010.031,K,D*07
$GPGGA,101250.75,5703.4607200,N,00952.3632358,E,2,10,0.8,-2.231,M,40.593,M,2.7,0123*6E
$GPVTG,026.59,T,-613.31,M,005.330,N,009.871,K,D*07
$GPGGA,101250.80,5703.4607825,N,00952.3632956,E,2,10,0.8,-2.225,M,40.593,M,2.7,0123*68
$GPVTG,027.45,T,-612.45,M,005.210,N,009.648,K,D*0E
$GPGGA,101250.85,5703.4608422,N,00952.3633571,E,2,10,0.8,-2.221,M,40.593,M,3.0,0123*63
$GPVTG,028.72,T,-611.18,M,005.062,N,009.376,K,D*01
$GPGGA,101250.90,5703.4609005,N,00952.3634191,E,2,10,0.8,-2.212,M,40.593,M,3.0,0123*6A
$GPVTG,029.96,T,-609.94,M,004.928,N,009.126,K,D*06
$GPGGA,101250.95,5703.4609591,N,00952.3634809,E,2,10,0.8,-2.198,M,40.593,M,3.0,0123*6E
$GPVTG,030.63,T,-609.27,M,004.846,N,008.974,K,D*0B
$GPGGA,101251.00,5703.4610185,N,00952.3635420,E,2,10,0.8,-2.182,M,40.593,M,3.0,0123*67
$GPVTG,030.65,T,-609.25,M,004.813,N,008.913,K,D*0E
$GPGGA,101251.05,5703.4610785,N,00952.3636020,E,2,10,0.8,-2.157,M,40.593,M,1.8,0123*61
$GPVTG,030.29,T,-609.61,M,004.813,N,008.914,K,D*01
$GPGGA,101251.10,5703.4611385,N,00952.3636624,E,2,10,0.8,-2.139,M,40.593,M,1.8,0123*6A
$GPVTG,029.86,T,-610.04,M,004.825,N,008.935,K,D*01
$GPGGA,101251.15,5703.4611984,N,00952.3637266,E,2,10,0.8,-2.126,M,40.593,M,1.8,0123*69
$GPVTG,030.35,T,-609.55,M,004.881,N,009.039,K,D*07
$GPGGA,101251.20,5703.4612580,N,00952.3637924,E,2,10,0.8,-2.114,M,40.593,M,1.8,0123*68
$GPVTG,031.00,T,-608.90,M,004.932,N,009.135,K,D*0C
$GPGGA,101251.25,5703.4613193,N,00952.3638597,E,2,10,0.8,-2.107,M,40.593,M,2.1,0123*69
$GPVTG,031.34,T,-608.56,M,005.036,N,009.326,K,D*0D
$GPGGA,101251.30,5703.4613800,N,00952.3639291,E,2,10,0.8,-2.102,M,40.593,M,2.1,0123*6B
$GPVTG,031.98,T,-607.92,M,005.113,N,009.468,K,D*07
$GPGGA,101251.35,5703.4614426,N,00952.3640008,E,2,10,0.8,-2.103,M,40.593,M,2.1,0123*6C
$GPVTG,032.39,T,-607.51,M,005.240,N,009.704,K,D*0C
$GPGGA,101251.40,5703.4615066,N,00952.3640755,E,2,10,0.8,-2.110,M,40.593,M,2.1,0123*62
$GPVTG,032.84,T,-607.06,M,005.393,N,009.988,K,D*0D
$GPGGA,101251.45,5703.4615705,N,00952.3641526,E,2,10,0.8,-2.117,M,40.593,M,2.3,0123*67
$GPVTG,033.52,T,-606.38,M,005.517,N,010.217,K,D*04
$GPGGA,101251.50,5703.4616314,N,00952.3642362,E,2,10,0.8,-2.134,M,40.593,M,2.3,0123*60
$GPVTG,035.48,T,-604.42,M,005.583,N,010.340,K,D*08
$GPGGA,101251.55,5703.4616916,N,00952.3643240,E,2,10,0.8,-2.159,M,40.593,M,2.3,0123*66
$GPVTG,037.54,T,-602.36,M,005.646,N,010.456,K,D*08
$GPGGA,101251.60,5703.4617529,N,00952.3644152,E,2,10,0.8,-2.184,M,40.593,M,2.3,0123*66
$GPVTG,039.08,T,-600.82,M,005.741,N,010.632,K,D*04
$GPGGA,101251.65,5703.4618150,N,00952.3645059,E,2,10,0.8,-2.212,M,40.593,M,2.6,0123*64
$GPVTG,039.65,T,-600.25,M,005.805,N,010.750,K,D*08
$GPGGA,101251.70,5703.4618744,N,00952.3645952,E,2,10,0.8,-2.237,M,40.593,M,2.6,0123*66
$GPVTG,040.11,T,-599.79,M,005.742,N,010.634,K,D*00
$GPGGA,101251.75,5703.4619303,N,00952.3646855,E,2,10,0.8,-2.254,M,40.593,M,2.6,0123*65
$GPVTG,041.16,T,-598.74,M,005.607,N,010.384,K,D*04
$GPGGA,101251.80,5703.4619848,N,00952.3647739,E,2,10,0.8,-2.260,M,40.593,M,2.6,0123*68
$GPVTG,041.81,T,-598.09,M,005.442,N,010.079,K,D*02
$GPGGA,101251.85,5703.4620355,N,00952.3648628,E,2,10,0.8,-2.264,M,40.593,M,2.8,0123*64
$GPVTG,043.02,T,-596.88,M,005.238,N,009.701,K,D*07
$GPGGA,101251.90,5703.4620846,N,00952.3649498,E,2,10,0.8,-2.257,M,40.593,M,2.8,0123*61
$GPVTG,044.05,T,-595.85,M,005.035,N,009.324,K,D*05
$GPGGA,101251.95,5703.4621338,N,00952.3650370,E,2,10,0.8,-2.245,M,40.593,M,2.8,0123*6D
$GPVTG,044.74,T,-595.16,M,004.908,N,009.089,K,D*0B
$GPGGA,101252.00,5703.4621820,N,00952.3651245,E,2,10,0.8,-2.228,M,40.593,M,2.8,0123*6D
$GPVTG,045.45,T,-594.45,M,004.819,N,008.924,K,D*01
$GPGGA,101252.05,5703.4622288,N,00952.3652099,E,2,10,0.8,-2.196,M,40.593,M,1.5,0123*6B
$GPVTG,046.02,T,-593.88,M,004.722,N,008.745,K,D*09
$GPGGA,101252.10,5703.4622773,N,00952.3652972,E,2,10,0.8,-2.178,M,40.593,M,1.5,0123*62
$GPVTG,046.09,T,-593.81,M,004.716,N,008.734,K,D*0A
$GPGGA,101252.15,5703.4623249,N,00952.3653860,E,2,10,0.8,-2.154,M,40.593,M,1.5,0123*67
$GPVTG,046.46,T,-593.44,M,004.736,N,008.771,K,D*0B
$GPGGA,101252.20,5703.4623717,N,00952.3654744,E,2,10,0.8,-2.130,M,40.593,M,1.5,0123*63
$GPVTG,046.73,T,-593.17,M,004.740,N,008.778,K,D*03
$GPGGA,101252.25,5703.4624189,N,00952.3655667,E,2,10,0.8,-2.103,M,40.593,M,1.8,0123*6C
$GPVTG,047.36,T,-592.54,M,004.845,N,008.973,K,D*0A
$GPGGA,101252.30,5703.4624666,N,00952.3656630,E,2,10,0.8,-2.092,M,40.593,M,1.8,0123*66
$GPVTG,048.12,T,-591.78,M,004.975,N,009.215,K,D*06
$GPGGA,101252.35,5703.4625162,N,00952.3657574,E,2,10,0.8,-2.084,M,40.593,M,1.8,0123*64
$GPVTG,047.66,T,-592.24,M,005.074,N,009.397,K,D*02
$GPGGA,101252.40,5703.4625669,N,00952.3658522,E,2,10,0.8,-2.081,M,40.593,M,1.8,0123*63
$GPVTG,046.99,T,-592.91,M,005.167,N,009.570,K,D*01
$GPGGA,101252.45,5703.4626181,N,00952.3659511,E,2,10,0.8,-2.084,M,40.593,M,2.0,0123*6B
$GPVTG,046.86,T,-593.04,M,005.301,N,009.817,K,D*0C
$GPGGA,101252.50,5703.4626705,N,00952.3660521,E,2,10,0.8,-2.089,M,40.593,M,2.0,0123*61
$GPVTG,046.81,T,-593.09,M,005.440,N,010.075,K,D*00
$GPGGA,101252.55,5703.4627227,N,00952.3661557,E,2,10,0.8,-2.101,M,40.593,M,2.0,0123*61
$GPVTG,047.10,T,-592.80,M,005.561,N,010.299,K,D*0B
$GPGGA,101252.60,5703.4627756,N,00952.3662595,E,2,10,0.8,-2.121,M,40.593,M,2.0,0123*6B
$GPVTG,047.11,T,-592.79,M,005.644,N,010.453,K,D*08
$GPGGA,101252.65,5703.4628259,N,00952.3663672,E,2,10,0.8,-2.138,M,40.593,M,2.2,0123*6A
$GPVTG,048.29,T,-591.61,M,005.692,N,010.542,K,D*0C
$GPGGA,101252.70,5703.4628729,N,00952.3664813,E,2,10,0.8,-2.157,M,40.593,M,2.2,0123*6B
$GPVTG,050.67,T,-589.23,M,005.735,N,010.621,K,D*0A
$GPGGA,101252.75,5703.4629175,N,00952.3665974,E,2,10,0.8,-2.180,M,40.593,M,2.2,0123*6B
$GPVTG,053.10,T,-586.80,M,005.734,N,010.619,K,D*05
$GPGGA,101252.80,5703.4629594,N,00952.3667125,E,2,10,0.8,-2.201,M,40.593,M,2.2,0123*6E
$GPVTG,055.26,T,-584.64,M,005.650,N,010.464,K,D*05
$GPGGA,101252.85,5703.4629977,N,00952.3668270,E,2,10,0.8,-2.233,M,40.593,M,2.4,0123*61
$GPVTG,057.42,T,-582.48,M,005.497,N,010.180,K,D*0B
$GPGGA,101252.90,5703.4630350,N,00952.3669380,E,2,10,0.8,-2.243,M,40.593,M,2.4,0123*6A
$GPVTG,058.90,T,-581.00,M,005.308,N,009.830,K,D*0F
$GPGGA,101252.95,5703.4630719,N,00952.3670477,E,2,10,0.8,-2.246,M,40.593,M,2.4,0123*64
$GPVTG,059.73,T,-580.17,M,005.147,N,009.533,K,D*03
$GPGGA,101253.00,5703.4631099,N,00952.3671575,E,2,10,0.8,-2.244,M,40.593,M,2.4,0123*67
$GPVTG,059.80,T,-580.10,M,005.062,N,009.375,K,D*0A
$GPGGA,101253.05,5703.4631457,N,00952.3672663,E,2,10,0.8,-2.230,M,40.593,M,2.7,0123*63
$GPVTG,060.31,T,-579.59,M,004.978,N,009.219,K,D*09
$GPGGA,101253.10,5703.4631803,N,00952.3673756,E,2,10,0.8,-2.223,M,40.593,M,2.7,0123*6E
$GPVTG,060.90,T,-579.00,M,004.909,N,009.092,K,D*09
$GPGGA,101253.15,5703.4632132,N,00952.3674843,E,2,10,0.8,-2.212,M,40.593,M,2.7,0123*6D
$GPVTG,061.64,T,-578.26,M,004.840,N,008.965,K,D*0A
$GPGGA,101253.20,5703.4632448,N,00952.3675933,E,2,10,0.8,-2.196,M,40.593,M,2.7,0123*6B
$GPVTG,062.51,T,-577.39,M,004.792,N,008.874,K,D*0F
$GPGGA,101253.25,5703.4632770,N,00952.3677008,E,2,10,0.8,-2.174,M,40.593,M,2.9,0123*67
$GPVTG,062.69,T,-577.21,M,004.750,N,008.797,K,D*01
$GPGGA,101253.30,5703.4633084,N,00952.3678086,E,2,10,0.8,-2.153,M,40.593,M,2.9,0123*62
$GPVTG,062.92,T,-576.98,M,004.728,N,008.756,K,D*04
$GPGGA,101253.35,5703.4633405,N,00952.3679138,E,2,10,0.8,-2.130,M,40.593,M,2.9,0123*6A
$GPVTG,062.44,T,-577.46,M,004.688,N,008.682,K,D*0E
$GPGGA,101253.40,5703.4633720,N,00952.3680227,E,2,10,0.8,-2.113,M,40.593,M,2.9,0123*66
$GPVTG,062.63,T,-577.27,M,004.728,N,008.757,K,D*0E
$GPGGA,101253.45,5703.4634041,N,00952.3681350,E,2,10,0.8,-2.086,M,40.593,M,3.1,0123*60
$GPVTG,062.98,T,-576.92,M,004.842,N,008.968,K,D*04
$GPGGA,101253.50,5703.4634358,N,00952.3682505,E,2,10,0.8,-2.074,M,40.593,M,3.1,0123*67
$GPVTG,063.51,T,-576.39,M,004.974,N,009.213,K,D*03
$GPGGA,101253.55,5703.4634669,N,00952.3683683,E,2,10,0.8,-2.068,M,40.593,M,3.1,0123*64
$GPVTG,064.18,T,-575.72,M,005.092,N,009.430,K,D*02
$GPGGA,101253.60,5703.4634990,N,00952.3684879,E,2,10,0.8,-2.068,M,40.593,M,3.1,0123*67
$GPVTG,064.41,T,-575.49,M,005.210,N,009.650,K,D*0A
$GPGGA,101253.65,5703.4635296,N,00952.3686111,E,2,10,0.8,-2.078,M,40.593,M,3.3,0123*68
$GPVTG,065.24,T,-574.66,M,005.327,N,009.866,K,D*0A
$GPGGA,101253.70,5703.4635613,N,00952.3687368,E,2,10,0.8,-2.096,M,40.593,M,3.3,0123*68
$GPVTG,065.61,T,-574.29,M,005.451,N,010.096,K,D*09
$GPGGA,101253.75,5703.4635945,N,00952.3688665,E,2,10,0.8,-2.124,M,40.593,M,3.3,0123*6E
$GPVTG,065.63,T,-574.27,M,005.615,N,010.400,K,D*0C
$GPGGA,101253.80,5703.4636303,N,00952.3689968,E,2,10,0.8,-2.156,M,40.593,M,3.3,0123*69
$GPVTG,064.85,T,-575.05,M,005.750,N,010.650,K,D*03
$GPGGA,101253.85,5703.4636647,N,00952.3691292,E,2,10,0.8,-2.185,M,40.593,M,3.5,0123*66
$GPVTG,064.78,T,-575.12,M,005.850,N,010.834,K,D*04
$GPGGA,101253.90,5703.4636953,N,00952.3692625,E,2,10,0.8,-2.217,M,40.593,M,3.5,0123*6B
$GPVTG,065.81,T,-574.09,M,005.855,N,010.843,K,D*0D
$GPGGA,101253.95,5703.4637253,N,00952.3693923,E,2,10,0.8,-2.241,M,40.593,M,3.5,0123*6F
$GPVTG,066.43,T,-573.47,M,005.761,N,010.670,K,D*0B
$GPGGA,101254.00,5703.4637530,N,00952.3695162,E,2,10,0.8,-2.257,M,40.593,M,3.5,0123*6A
$GPVTG,067.06,T,-572.84,M,005.538,N,010.256,K,D*0B
$GPGGA,101254.05,5703.4637751,N,00952.3696345,E,2,10,0.8,-2.255,M,40.593,M,2.0,0123*68
$GPVTG,068.94,T,-570.96,M,005.218,N,009.664,K,D*06
$GPGGA,101254.10,5703.4637926,N,00952.3697545,E,2,10,0.8,-2.248,M,40.593,M,2.0,0123*69
$GPVTG,072.12,T,-567.78,M,004.980,N,009.224,K,D*0E
$GPGGA,101254.15,5703.4638095,N,00952.3698743,E,2,10,0.8,-2.235,M,40.593,M,2.0,0123*63
$GPVTG,074.72,T,-565.18,M,004.833,N,008.952,K,D*08
$GPGGA,101254.20,5703.4638253,N,00952.3699908,E,2,10,0.8,-2.220,M,40.593,M,2.0,0123*69
$GPVTG,076.66,T,-563.24,M,004.684,N,008.675,K,D*0E
$GPGGA,101254.25,5703.4638385,N,00952.3701064,E,2,10,0.8,-2.204,M,40.593,M,2.2,0123*61
$GPVTG,078.83,T,-561.07,M,004.567,N,008.459,K,D*0A
$GPGGA,101254.30,5703.4638487,N,00952.3702209,E,2,10,0.8,-2.186,M,40.593,M,2.2,0123*63
$GPVTG,081.30,T,-558.60,M,004.482,N,008.300,K,D*0E
$GPGGA,101254.35,5703.4638570,N,00952.3703358,E,2,10,0.8,-2.165,M,40.593,M,2.2,0123*66
$GPVTG,083.59,T,-556.31,M,004.447,N,008.236,K,D*04
$GPGGA,101254.40,5703.4638652,N,00952.3704522,E,2,10,0.8,-2.141,M,40.593,M,2.2,0123*6D
$GPVTG,084.94,T,-554.96,M,004.478,N,008.293,K,D*0E
$GPGGA,101254.45,5703.4638753,N,00952.3705676,E,2,10,0.8,-2.109,M,40.593,M,2.5,0123*60
$GPVTG,084.82,T,-555.08,M,004.501,N,008.335,K,D*0D
$GPGGA,101254.50,5703.4638863,N,00952.3706823,E,2,10,0.8,-2.088,M,40.593,M,2.5,0123*6D
$GPVTG,083.89,T,-556.01,M,004.508,N,008.350,K,D*01
$GPGGA,101254.55,5703.4638968,N,00952.3707995,E,2,10,0.8,-2.068,M,40.593,M,2.5,0123*61
$GPVTG,083.23,T,-556.67,M,004.570,N,008.464,K,D*0E
$GPGGA,101254.60,5703.4639095,N,00952.3709231,E,2,10,0.8,-2.059,M,40.593,M,2.5,0123*64
$GPVTG,081.97,T,-557.93,M,004.760,N,008.815,K,D*00
$GPGGA,101254.65,5703.4639238,N,00952.3710480,E,2,10,0.8,-2.048,M,40.593,M,2.7,0123*62
$GPVTG,080.53,T,-559.37,M,004.929,N,009.128,K,D*0C
$GPGGA,101254.70,5703.4639396,N,00952.3711753,E,2,10,0.8,-2.052,M,40.593,M,2.7,0123*64
$GPVTG,078.97,T,-560.93,M,005.087,N,009.422,K,D*04
$GPGGA,101254.75,5703.4639557,N,00952.3713071,E,2,10,0.8,-2.063,M,40.593,M,2.7,0123*6D
$GPVTG,077.99,T,-561.91,M,005.274,N,009.768,K,D*05
$GPGGA,101254.80,5703.4639722,N,00952.3714420,E,2,10,0.8,-2.082,M,40.593,M,2.7,0123*6F
$GPVTG,077.36,T,-562.54,M,005.449,N,010.091,K,D*0B
$GPGGA,101254.85,5703.4639865,N,00952.3715806,E,2,10,0.8,-2.114,M,40.593,M,3.0,0123*67
$GPVTG,077.82,T,-562.08,M,005.602,N,010.374,K,D*08
$GPGGA,101254.90,5703.4639991,N,00952.3717211,E,2,10,0.8,-2.144,M,40.593,M,3.0,0123*62
$GPVTG,078.84,T,-561.06,M,005.706,N,010.567,K,D*0D
$GPGGA,101254.95,5703.4640098,N,00952.3718597,E,2,10,0.8,-2.180,M,40.593,M,3.0,0123*67
$GPVTG,080.14,T,-559.76,M,005.697,N,010.552,K,D*00
$GPGGA,101255.00,5703.4640188,N,00952.3719995,E,2,10,0.8,-2.214,M,40.593,M,3.0,0123*6B
$GPVTG,081.66,T,-558.24,M,005.684,N,010.526,K,D*03
$GPGGA,101255.05,5703.4640231,N,00952.3721376,E,2,10,0.8,-2.254,M,40.593,M,1.8,0123*6D
$GPVTG,084.12,T,-555.78,M,005.606,N,010.382,K,D*03
$GPGGA,101255.10,5703.4640210,N,00952.3722658,E,2,10,0.8,-2.275,M,40.593,M,1.8,0123*63
$GPVTG,088.02,T,-551.88,M,005.327,N,009.865,K,D*09
$GPGGA,101255.15,5703.4640144,N,00952.3723830,E,2,10,0.8,-2.276,M,40.593,M,1.8,0123*66
$GPVTG,092.67,T,-547.23,M,004.924,N,009.118,K,D*0C
$GPGGA,101255.20,5703.4640072,N,00952.3724966,E,2,10,0.8,-2.267,M,40.593,M,1.8,0123*61
$GPVTG,096.46,T,-543.44,M,004.612,N,008.542,K,D*0E
$GPGGA,101255.25,5703.4640000,N,00952.3726076,E,2,10,0.8,-2.252,M,40.593,M,2.1,0123*67
$GPVTG,099.14,T,-540.76,M,004.388,N,008.126,K,D*04
$GPGGA,101255.30,5703.4639931,N,00952.3727167,E,2,10,0.8,-2.235,M,40.593,M,2.1,0123*67
$GPVTG,100.57,T,-539.33,M,004.235,N,007.843,K,D*0F
$GPGGA,101255.35,5703.4639837,N,00952.3728218,E,2,10,0.8,-2.210,M,40.593,M,2.1,0123*66
$GPVTG,102.37,T,-537.53,M,004.099,N,007.592,K,D*06
$GPGGA,101255.40,5703.4639741,N,00952.3729254,E,2,10,0.8,-2.181,M,40.593,M,2.1,0123*68
$GPVTG,103.37,T,-536.53,M,004.014,N,007.434,K,D*0E
$GPGGA,101255.45,5703.4639628,N,00952.3730288,E,2,10,0.8,-2.153,M,40.593,M,2.3,0123*67
$GPVTG,104.34,T,-535.56,M,003.992,N,007.393,K,D*06
$GPGGA,101255.50,5703.4639505,N,00952.3731344,E,2,10,0.8,-2.126,M,40.593,M,2.3,0123*6D
$GPVTG,104.88,T,-535.02,M,004.060,N,007.519,K,D*07
$GPGGA,101255.55,5703.4639402,N,00952.3732428,E,2,10,0.8,-2.100,M,40.593,M,2.3,0123*64
$GPVTG,103.81,T,-536.10,M,004.163,N,007.710,K,D*00
$GPGGA,101255.60,5703.4639329,N,00952.3733539,E,2,10,0.8,-2.080,M,40.593,M,2.3,0123*65
$GPVTG,101.39,T,-538.51,M,004.278,N,007.923,K,D*0D
$GPGGA,101255.65,5703.4639262,N,00952.3734656,E,2,10,0.8,-2.054,M,40.593,M,2.6,0123*6F
$GPVTG,099.32,T,-540.58,M,004.378,N,008.107,K,D*00
$GPGGA,101255.70,5703.4639184,N,00952.3735803,E,2,10,0.8,-2.039,M,40.593,M,2.6,0123*64
$GPVTG,098.12,T,-541.78,M,004.500,N,008.334,K,D*0B
$GPGGA,101255.75,5703.4639097,N,00952.3736982,E,2,10,0.8,-2.032,M,40.593,M,2.6,0123*62
$GPVTG,097.60,T,-542.30,M,004.641,N,008.595,K,D*05
$GPGGA,101255.80,5703.4639017,N,00952.3738189,E,2,10,0.8,-2.034,M,40.593,M,2.6,0123*6B
$GPVTG,096.98,T,-542.92,M,004.778,N,008.848,K,D*0D
$GPGGA,101255.85,5703.4638926,N,00952.3739432,E,2,10,0.8,-2.042,M,40.593,M,2.8,0123*6F
$GPVTG,096.90,T,-543.00,M,004.933,N,009.136,K,D*0F
$GPGGA,101255.90,5703.4638825,N,00952.3740696,E,2,10,0.8,-2.057,M,40.593,M,2.8,0123*6F
$GPVTG,097.27,T,-542.63,M,005.060,N,009.372,K,D*0A
$GPGGA,101255.95,5703.4638715,N,00952.3741980,E,2,10,0.8,-2.080,M,40.593,M,2.8,0123*65
$GPVTG,097.88,T,-542.02,M,005.171,N,009.576,K,D*0B
$GPGGA,101256.00,5703.4638569,N,00952.3743245,E,2,10,0.8,-2.107,M,40.593,M,2.8,0123*6D
$GPVTG,099.65,T,-540.25,M,005.200,N,009.631,K,D*04
$GPGGA,101256.05,5703.4638433,N,00952.3744505,E,2,10,0.8,-2.134,M,40.593,M,1.5,0123*6C
$GPVTG,100.57,T,-539.33,M,005.193,N,009.617,K,D*00
$GPGGA,101256.10,5703.4638286,N,00952.3745750,E,2,10,0.8,-2.166,M,40.593,M,1.5,0123*64
$GPVTG,101.67,T,-538.23,M,005.141,N,009.521,K,D*0B
$GPGGA,101256.15,5703.4638119,N,00952.3746957,E,2,10,0.8,-2.196,M,40.593,M,1.5,0123*61
$GPVTG,103.36,T,-536.54,M,005.036,N,009.327,K,D*02
$GPGGA,101256.20,5703.4637923,N,00952.3748101,E,2,10,0.8,-2.219,M,40.593,M,1.5,0123*68
$GPVTG,105.91,T,-533.99,M,004.860,N,009.001,K,D*00
$GPGGA,101256.25,5703.4637686,N,00952.3749178,E,2,10,0.8,-2.250,M,40.593,M,1.8,0123*62
$GPVTG,108.41,T,-531.49,M,004.676,N,008.660,K,D*06
$GPGGA,101256.30,5703.4637472,N,00952.3750231,E,2,10,0.8,-2.262,M,40.593,M,1.8,0123*68
$GPVTG,110.74,T,-529.16,M,004.492,N,008.318,K,D*08
$GPGGA,101256.35,5703.4637244,N,00952.3751255,E,2,10,0.8,-2.267,M,40.593,M,1.8,0123*68
$GPVTG,113.00,T,-526.90,M,004.349,N,008.054,K,D*03
$GPGGA,101256.40,5703.4636997,N,00952.3752240,E,2,10,0.8,-2.265,M,40.593,M,1.8,0123*6B
$GPVTG,115.47,T,-524.43,M,004.229,N,007.832,K,D*0A
$GPGGA,101256.45,5703.4636726,N,00952.3753171,E,2,10,0.8,-2.254,M,40.593,M,2.0,0123*63
$GPVTG,117.86,T,-522.04,M,004.114,N,007.619,K,D*0A
$GPGGA,101256.50,5703.4636465,N,00952.3754080,E,2,10,0.8,-2.239,M,40.593,M,2.0,0123*60
$GPVTG,119.76,T,-520.14,M,004.007,N,007.421,K,D*02
$GPGGA,101256.55,5703.4636212,N,00952.3754956,E,2,10,0.8,-2.220,M,40.593,M,2.0,0123*69
$GPVTG,120.81,T,-519.09,M,003.887,N,007.199,K,D*07
$GPGGA,101256.60,5703.4635958,N,00952.3755821,E,2,10,0.8,-2.200,M,40.593,M,2.0,0123*6B
$GPVTG,121.33,T,-518.57,M,003.809,N,007.054,K,D*03
$GPGGA,101256.65,5703.4635700,N,00952.3756689,E,2,10,0.8,-2.177,M,40.593,M,2.2,0123*63
$GPVTG,121.47,T,-518.43,M,003.791,N,007.022,K,D*0A
$GPGGA,101256.70,5703.4635448,N,00952.3757566,E,2,10,0.8,-2.152,M,40.593,M,2.2,0123*6C
$GPVTG,120.71,T,-519.19,M,003.801,N,007.040,K,D*02
$GPGGA,101256.75,5703.4635194,N,00952.3758453,E,2,10,0.8,-2.129,M,40.593,M,2.2,0123*69
$GPVTG,119.91,T,-519.99,M,003.843,N,007.117,K,D*0B
$GPGGA,101256.80,5703.4634928,N,00952.3759375,E,2,10,0.8,-2.109,M,40.593,M,2.2,0123*6D
$GPVTG,119.13,T,-520.77,M,003.961,N,007.335,K,D*08
$GPGGA,101256.85,5703.4634664,N,00952.3760324,E,2,10,0.8,-2.080,M,40.593,M,2.4,0123*67
$GPVTG,118.18,T,-521.72,M,004.102,N,007.597,K,D*02
$GPGGA,101256.90,5703.4634395,N,00952.3761293,E,2,10,0.8,-2.070,M,40.593,M,2.4,0123*6B
$GPVTG,117.45,T,-522.45,M,004.227,N,007.828,K,D*0F
$GPGGA,101256.95,5703.4634111,N,00952.3762291,E,2,10,0.8,-2.069,M,40.593,M,2.4,0123*69
$GPVTG,117.26,T,-522.64,M,004.379,N,008.109,K,D*06
$GPGGA,101257.00,5703.4633813,N,00952.3763316,E,2,10,0.8,-2.073,M,40.593,M,2.4,0123*6C
$GPVTG,117.39,T,-522.51,M,004.539,N,008.407,K,D*07
$GPGGA,101257.05,5703.4633515,N,00952.3764372,E,2,10,0.8,-2.076,M,40.593,M,2.7,0123*61
$GPVTG,117.17,T,-522.73,M,004.691,N,008.687,K,D*00
$GPGGA,101257.10,5703.4633214,N,00952.3765425,E,2,10,0.8,-2.090,M,40.593,M,2.7,0123*6F
$GPVTG,117.28,T,-522.62,M,004.768,N,008.830,K,D*09
$GPGGA,101257.15,5703.4632903,N,00952.3766463,E,2,10,0.8,-2.108,M,40.593,M,2.7,0123*67
$GPVTG,117.98,T,-521.92,M,004.786,N,008.864,K,D*0F
$GPGGA,101257.20,5703.4632574,N,00952.3767475,E,2,10,0.8,-2.126,M,40.593,M,2.7,0123*67
$GPVTG,119.42,T,-520.48,M,004.761,N,008.817,K,D*0D
$GPGGA,101257.25,5703.4632208,N,00952.3768425,E,2,10,0.8,-2.151,M,40.593,M,2.9,0123*6A
$GPVTG,122.46,T,-517.44,M,004.681,N,008.670,K,D*09
$GPGGA,101257.30,5703.4631833,N,00952.3769312,E,2,10,0.8,-2.166,M,40.593,M,2.9,0123*69
$GPVTG,125.85,T,-514.05,M,004.544,N,008.416,K,D*0F
$GPGGA,101257.35,5703.4631457,N,00952.3770149,E,2,10,0.8,-2.181,M,40.593,M,2.9,0123*6F
$GPVTG,128.98,T,-510.92,M,004.384,N,008.120,K,D*0E
$GPGGA,101257.40,5703.4631072,N,00952.3770969,E,2,10,0.8,-2.194,M,40.593,M,2.9,0123*60
$GPVTG,131.56,T,-508.34,M,004.287,N,007.940,K,D*02
$GPGGA,101257.45,5703.4630690,N,00952.3771765,E,2,10,0.8,-2.205,M,40.593,M,3.1,0123*6F
$GPVTG,133.29,T,-506.61,M,004.194,N,007.767,K,D*0C
$GPGGA,101257.50,5703.4630301,N,00952.3772540,E,2,10,0.8,-2.209,M,40.593,M,3.1,0123*6C
$GPVTG,134.69,T,-505.21,M,004.130,N,007.649,K,D*0B
$GPGGA,101257.55,5703.4629925,N,00952.3773305,E,2,10,0.8,-2.211,M,40.593,M,3.1,0123*62
$GPVTG,135.06,T,-504.84,M,004.062,N,007.524,K,D*03
$GPGGA,101257.60,5703.4629537,N,00952.3774047,E,2,10,0.8,-2.214,M,40.593,M,3.1,0123*6C
$GPVTG,135.75,T,-504.15,M,004.016,N,007.437,K,D*0F
$GPGGA,101257.65,5703.4629161,N,00952.3774769,E,2,10,0.8,-2.216,M,40.593,M,3.3,0123*65
$GPVTG,136.00,T,-503.90,M,003.941,N,007.300,K,D*0B
$GPGGA,101257.70,5703.4628771,N,00952.3775460,E,2,10,0.8,-2.212,M,40.593,M,3.3,0123*68
$GPVTG,136.92,T,-502.98,M,003.887,N,007.199,K,D*00
$GPGGA,101257.75,5703.4628375,N,00952.3776133,E,2,10,0.8,-2.207,M,40.593,M,3.3,0123*69
$GPVTG,137.96,T,-501.94,M,003.853,N,007.136,K,D*06
$GPGGA,101257.80,5703.4627966,N,00952.3776778,E,2,10,0.8,-2.201,M,40.593,M,3.3,0123*6B
$GPVTG,139.49,T,-500.41,M,003.835,N,007.103,K,D*05
$GPGGA,101257.85,5703.4627553,N,00952.3777410,E,2,10,0.8,-2.193,M,40.593,M,3.5,0123*66
$GPVTG,140.95,T,-498.95,M,003.826,N,007.085,K,D*0E
$GPGGA,101257.90,5703.4627120,N,00952.3778029,E,2,10,0.8,-2.183,M,40.593,M,3.5,0123*62
$GPVTG,142.39,T,-497.51,M,003.862,N,007.153,K,D*07
$GPGGA,101257.95,5703.4626700,N,00952.3778627,E,2,10,0.8,-2.171,M,40.593,M,3.5,0123*67
$GPVTG,143.32,T,-496.58,M,003.844,N,007.118,K,D*0E
$GPGGA,101258.00,5703.4626282,N,00952.3779189,E,2,10,0.8,-2.158,M,40.593,M,3.5,0123*62
$GPVTG,144.57,T,-495.33,M,003.789,N,007.018,K,D*0B
$GPGGA,101258.05,5703.4625860,N,00952.3779728,E,2,10,0.8,-2.131,M,40.593,M,2.0,0123*64
$GPVTG,145.54,T,-494.36,M,003.731,N,006.910,K,D*0E
$GPGGA,101258.10,5703.4625446,N,00952.3780292,E,2,10,0.8,-2.118,M,40.593,M,2.0,0123*61
$GPVTG,145.35,T,-494.55,M,003.710,N,006.870,K,D*08
$GPGGA,101258.15,5703.4625022,N,00952.3780851,E,2,10,0.8,-2.106,M,40.593,M,2.0,0123*68
$GPVTG,145.46,T,-494.44,M,003.723,N,006.896,K,D*04
$GPGGA,101258.20,5703.4624585,N,00952.3781402,E,2,10,0.8,-2.097,M,40.593,M,2.0,0123*65
$GPVTG,145.89,T,-494.01,M,003.761,N,006.965,K,D*0D
$GPGGA,101258.25,5703.4624152,N,00952.3781969,E,2,10,0.8,-2.091,M,40.593,M,2.2,0123*6A
$GPVTG,145.66,T,-494.24,M,003.803,N,007.044,K,D*0B
$GPGGA,101258.30,5703.4623701,N,00952.3782514,E,2,10,0.8,-2.088,M,40.593,M,2.2,0123*64
$GPVTG,146.38,T,-493.52,M,003.850,N,007.130,K,D*01
$GPGGA,101258.35,5703.4623246,N,00952.3783053,E,2,10,0.8,-2.085,M,40.593,M,2.2,0123*6D
$GPVTG,147.10,T,-492.80,M,003.891,N,007.206,K,D*0F
$GPGGA,101258.40,5703.4622780,N,00952.3783606,E,2,10,0.8,-2.088,M,40.593,M,2.2,0123*6A
$GPVTG,147.41,T,-492.49,M,003.962,N,007.337,K,D*00
$GPGGA,101258.45,5703.4622305,N,00952.3784140,E,2,10,0.8,-2.091,M,40.593,M,2.5,0123*6B
$GPVTG,148.21,T,-491.69,M,004.010,N,007.427,K,D*05
$GPGGA,101258.50,5703.4621839,N,00952.3784653,E,2,10,0.8,-2.095,M,40.593,M,2.5,0123*69
$GPVTG,149.08,T,-490.82,M,003.997,N,007.403,K,D*0C
$GPGGA,101258.55,5703.4621366,N,00952.3785136,E,2,10,0.8,-2.102,M,40.593,M,2.5,0123*67
$GPVTG,150.48,T,-489.42,M,003.969,N,007.350,K,D*04
$GPGGA,101258.60,5703.4620890,N,00952.3785565,E,2,10,0.8,-2.107,M,40.593,M,2.5,0123*65
$GPVTG,152.88,T,-487.02,M,003.909,N,007.240,K,D*06
$GPGGA,101258.65,5703.4620410,N,00952.3785968,E,2,10,0.8,-2.115,M,40.593,M,2.7,0123*64
$GPVTG,155.13,T,-484.77,M,003.855,N,007.140,K,D*09
$GPGGA,101258.70,5703.4619944,N,00952.3786349,E,2,10,0.8,-2.121,M,40.593,M,2.7,0123*6B
$GPVTG,156.81,T,-483.09,M,003.768,N,006.978,K,D*0C
$GPGGA,101258.75,5703.4619496,N,00952.3786699,E,2,10,0.8,-2.128,M,40.593,M,2.7,0123*6D
$GPVTG,158.24,T,-481.66,M,003.634,N,006.730,K,D*0C
$GPGGA,101258.80,5703.4619069,N,00952.3787021,E,2,10,0.8,-2.137,M,40.593,M,2.7,0123*69
$GPVTG,159.38,T,-480.52,M,003.463,N,006.413,K,D*04
$GPGGA,101258.85,5703.4618637,N,00952.3787356,E,2,10,0.8,-2.153,M,40.593,M,3.0,0123*67
$GPVTG,159.52,T,-480.38,M,003.374,N,006.248,K,D*0D
$GPGGA,101258.90,5703.4618215,N,00952.3787676,E,2,10,0.8,-2.167,M,40.593,M,3.0,0123*67
$GPVTG,159.50,T,-480.40,M,003.280,N,006.075,K,D*06
$GPGGA,101258.95,5703.4617800,N,00952.3787980,E,2,10,0.8,-2.179,M,40.593,M,3.0,0123*6A
$GPVTG,159.59,T,-480.31,M,003.198,N,005.923,K,D*0A
$GPGGA,101259.00,5703.4617392,N,00952.3788278,E,2,10,0.8,-2.191,M,40.593,M,3.0,0123*62
$GPVTG,159.50,T,-480.40,M,003.125,N,005.788,K,D*0C
$GPGGA,101259.05,5703.4616980,N,00952.3788582,E,2,10,0.8,-2.206,M,40.593,M,1.8,0123*6A
$GPVTG,159.08,T,-480.82,M,003.112,N,005.763,K,D*0E
