497,N,006.476,K,D*05
$GPGGA,100551.05,5703.4852268,N,00952.3899601,E,2,10,0.8,-2.195,M,40.593,M,1.8,0123*69
$GPVTG,305.60,T,-334.30,M,003.411,N,006.317,K,D*08
$GPGGA,100551.10,5703.4852530,N,00952.3898908,E,2,10,0.8,-2.192,M,40.593,M,1.8,0123*67
$GPVTG,303.74,T,-336.16,M,003.323,N,006.155,K,D*0F
$GPGGA,100551.15,5703.4852785,N,00952.3898197,E,2,10,0.8,-2.188,M,40.593,M,1.8,0123*6B
$GPVTG,301.98,T,-337.92,M,003.289,N,006.090,K,D*0B
$GPGGA,100551.20,5703.4853047,N,00952.3897510,E,2,10,0.8,-2.185,M,40.593,M,1.8,0123*6C
$GPVTG,301.88,T,-338.02,M,003.244,N,006.007,K,D*03
$GPGGA,100551.25,5703.4853295,N,00952.3896810,E,2,10,0.8,-2.192,M,40.593,M,2.1,0123*64
$GPVTG,301.14,T,-338.76,M,003.229,N,005.981,K,D*0A
$GPGGA,100551.30,5703.4853542,N,00952.3896107,E,2,10,0.8,-2.191,M,40.593,M,2.1,0123*61
$GPVTG,300.83,T,-339.07,M,003.223,N,005.969,K,D*0E
$GPGGA,100551.35,5703.4853791,N,00952.3895385,E,2,10,0.8,-2.191,M,40.593,M,2.1,0123*63
$GPVTG,300.60,T,-339.30,M,003.262,N,006.042,K,D*01
$GPGGA,100551.40,5703.4854056,N,00952.3894672,E,2,10,0.8,-2.194,M,40.593,M,2.1,0123*63
$GPVTG,301.58,T,-338.32,M,003.305,N,006.121,K,D*0C
$GPGGA,100551.45,5703.4854320,N,00952.3893941,E,2,10,0.8,-2.199,M,40.593,M,2.3,0123*63
$GPVTG,301.94,T,-337.96,M,003.362,N,006.226,K,D*08
$GPGGA,100551.50,5703.4854579,N,00952.3893199,E,2,10,0.8,-2.206,M,40.593,M,2.3,0123*65
$GPVTG,301.99,T,-337.91,M,003.420,N,006.334,K,D*01
$GPGGA,100551.55,5703.4854832,N,00952.3892438,E,2,10,0.8,-2.214,M,40.593,M,2.3,0123*6E
$GPVTG,301.50,T,-338.40,M,003.482,N,006.449,K,D*02
$GPGGA,100551.60,5703.4855079,N,00952.3891657,E,2,10,0.8,-2.224,M,40.593,M,2.3,0123*65
$GPVTG,300.57,T,-339.33,M,003.543,N,006.561,K,D*06
$GPGGA,100551.65,5703.4855310,N,00952.3890869,E,2,10,0.8,-2.238,M,40.593,M,2.6,0123*66
$GPVTG,299.19,T,-340.71,M,003.565,N,006.603,K,D*06
$GPGGA,100551.70,5703.4855526,N,00952.3890076,E,2,10,0.8,-2.249,M,40.593,M,2.6,0123*61
$GPVTG,297.54,T,-342.36,M,003.555,N,006.584,K,D*0F
$GPGGA,100551.75,5703.4855735,N,00952.3889292,E,2,10,0.8,-2.259,M,40.593,M,2.6,0123*65
$GPVTG,296.28,T,-343.62,M,003.515,N,006.510,K,D*0C
$GPGGA,100551.80,5703.4855921,N,00952.3888504,E,2,10,0.8,-2.266,M,40.593,M,2.6,0123*61
$GPVTG,294.36,T,-345.54,M,003.457,N,006.402,K,D*07
$GPGGA,100551.85,5703.4856074,N,00952.3887723,E,2,10,0.8,-2.279,M,40.593,M,2.8,0123*66
$GPVTG,291.54,T,-348.36,M,003.370,N,006.241,K,D*0C
$GPGGA,100551.90,5703.4856219,N,00952.3886937,E,2,10,0.8,-2.282,M,40.593,M,2.8,0123*65
$GPVTG,289.07,T,-350.83,M,003.304,N,006.120,K,D*03
$GPGGA,100551.95,5703.4856353,N,00952.3886156,E,2,10,0.8,-2.283,M,40.593,M,2.8,0123*61
$GPVTG,287.01,T,-352.89,M,003.242,N,006.004,K,D*07
$GPGGA,100552.00,5703.4856464,N,00952.3885373,E,2,10,0.8,-2.284,M,40.593,M,2.8,0123*6C
$GPVTG,284.41,T,-355.49,M,003.190,N,005.908,K,D*01
$GPGGA,100552.05,5703.4856574,N,00952.3884593,E,2,10,0.8,-2.280,M,40.593,M,1.5,0123*6A
$GPVTG,282.45,T,-357.45,M,003.149,N,005.832,K,D*01
$GPGGA,100552.10,5703.4856662,N,00952.3883817,E,2,10,0.8,-2.276,M,40.593,M,1.5,0123*65
$GPVTG,280.53,T,-359.37,M,003.109,N,005.758,K,D*08
$GPGGA,100552.15,5703.4856744,N,00952.3883030,E,2,10,0.8,-2.272,M,40.593,M,1.5,0123*6C
$GPVTG,279.02,T,-360.88,M,003.110,N,005.759,K,D*0D
$GPGGA,100552.20,5703.4856811,N,00952.3882253,E,2,10,0.8,-2.267,M,40.593,M,1.5,0123*67
$GPVTG,277.45,T,-362.45,M,003.087,N,005.716,K,D*07
$GPGGA,100552.25,5703.4856870,N,00952.3881481,E,2,10,0.8,-2.257,M,40.593,M,1.8,0123*61
$GPVTG,276.18,T,-363.72,M,003.061,N,005.669,K,D*0A
$GPGGA,100552.30,5703.4856903,N,00952.3880688,E,2,10,0.8,-2.251,M,40.593,M,1.8,0123*6C
$GPVTG,273.96,T,-365.94,M,003.084,N,005.711,K,D*02
$GPGGA,100552.35,5703.4856926,N,00952.3879905,E,2,10,0.8,-2.246,M,40.593,M,1.8,0123*64
$GPVTG,272.06,T,-367.84,M,003.082,N,005.707,K,D*08
$GPGGA,100552.40,5703.4856944,N,00952.3879114,E,2,10,0.8,-2.240,M,40.593,M,1.8,0123*6C
$GPVTG,270.76,T,-369.14,M,003.098,N,005.738,K,D*0D
$GPGGA,100552.45,5703.4856944,N,00952.3878351,E,2,10,0.8,-2.229,M,40.593,M,2.0,0123*6F
$GPVTG,269.06,T,-370.84,M,003.050,N,005.650,K,D*08
$GPGGA,100552.50,5703.4856922,N,00952.3877591,E,2,10,0.8,-2.221,M,40.593,M,2.0,0123*66
$GPVTG,266.71,T,-373.19,M,003.015,N,005.584,K,D*0B
$GPGGA,100552.55,5703.4856880,N,00952.3876834,E,2,10,0.8,-2.215,M,40.593,M,2.0,0123*6E
$GPVTG,264.10,T,-375.80,M,002.997,N,005.551,K,D*02
$GPGGA,100552.60,5703.4856841,N,00952.3876083,E,2,10,0.8,-2.209,M,40.593,M,2.0,0123*6C
$GPVTG,262.63,T,-377.27,M,002.977,N,005.513,K,D*07
$GPGGA,100552.65,5703.4856790,N,00952.3875362,E,2,10,0.8,-2.201,M,40.593,M,2.2,0123*6F
$GPVTG,261.14,T,-378.76,M,002.910,N,005.389,K,D*0B
$GPGGA,100552.70,5703.4856726,N,00952.3874637,E,2,10,0.8,-2.193,M,40.593,M,2.2,0123*6A
$GPVTG,259.46,T,-380.44,M,002.884,N,005.341,K,D*09
$GPGGA,100552.75,5703.4856658,N,00952.3873929,E,2,10,0.8,-2.187,M,40.593,M,2.2,0123*65
$GPVTG,258.23,T,-381.67,M,002.841,N,005.261,K,D*01
$GPGGA,100552.80,5703.4856584,N,00952.3873221,E,2,10,0.8,-2.181,M,40.593,M,2.2,0123*68
$GPVTG,257.22,T,-382.68,M,002.822,N,005.226,K,D*05
$GPGGA,100552.85,5703.4856485,N,00952.3872528,E,2,10,0.8,-2.183,M,40.593,M,2.4,0123*66
$GPVTG,255.16,T,-384.74,M,002.814,N,005.211,K,D*0A
$GPGGA,100552.90,5703.4856381,N,00952.3871831,E,2,10,0.8,-2.177,M,40.593,M,2.4,0123*6C
$GPVTG,253.63,T,-386.27,M,002.818,N,005.218,K,D*0F
$GPGGA,100552.95,5703.4856267,N,00952.3871152,E,2,10,0.8,-2.173,M,40.593,M,2.4,0123*68
$GPVTG,251.99,T,-387.91,M,002.801,N,005.188,K,D*06
$GPGGA,100553.00,5703.4856152,N,00952.3870487,E,2,10,0.8,-2.170,M,40.593,M,2.4,0123*6F
$GPVTG,250.80,T,-389.10,M,002.767,N,005.124,K,D*01
$GPGGA,100553.05,5703.4856033,N,00952.3869817,E,2,10,0.8,-2.162,M,40.593,M,2.7,0123*61
$GPVTG,249.64,T,-390.26,M,002.755,N,005.102,K,D*0B
$GPGGA,100553.10,5703.4855890,N,00952.3869165,E,2,10,0.8,-2.160,M,40.593,M,2.7,0123*69
$GPVTG,247.80,T,-392.10,M,002.749,N,005.092,K,D*0D
$GPGGA,100553.15,5703.4855750,N,00952.3868510,E,2,10,0.8,-2.158,M,40.593,M,2.7,0123*63
$GPVTG,246.90,T,-393.00,M,002.755,N,005.102,K,D*08
$GPGGA,100553.20,5703.4855610,N,00952.3867868,E,2,10,0.8,-2.157,M,40.593,M,2.7,0123*62
$GPVTG,246.30,T,-393.60,M,002.738,N,005.070,K,D*0B
$GPGGA,100553.25,5703.4855470,N,00952.3867248,E,2,10,0.8,-2.164,M,40.593,M,2.9,0123*65
$GPVTG,245.72,T,-394.18,M,002.696,N,004.993,K,D*06
$GPGGA,100553.30,5703.4855314,N,00952.3866631,E,2,10,0.8,-2.164,M,40.593,M,2.9,0123*6F
$GPVTG,244.59,T,-395.31,M,002.676,N,004.956,K,D*03
$GPGGA,100553.35,5703.4855156,N,00952.3866029,E,2,10,0.8,-2.167,M,40.593,M,2.9,0123*62
$GPVTG,243.51,T,-396.39,M,002.641,N,004.891,K,D*09
$GPGGA,100553.40,5703.4854991,N,00952.3865422,E,2,10,0.8,-2.171,M,40.593,M,2.9,0123*69
$GPVTG,242.60,T,-397.30,M,002.642,N,004.893,K,D*03
$GPGGA,100553.45,5703.4854809,N,00952.3864830,E,2,10,0.8,-2.179,M,40.593,M,3.1,0123*63
$GPVTG,240.90,T,-399.00,M,002.644,N,004.896,K,D*00
$GPGGA,100553.50,5703.4854615,N,00952.3864238,E,2,10,0.8,-2.185,M,40.593,M,3.1,0123*65
$GPVTG,239.09,T,-400.81,M,002.673,N,004.950,K,D*0F
$GPGGA,100553.55,5703.4854420,N,00952.3863665,E,2,10,0.8,-2.191,M,40.593,M,3.1,0123*6A
$GPVTG,237.57,T,-402.33,M,002.666,N,004.937,K,D*04
$GPGGA,100553.60,5703.4854217,N,00952.3863109,E,2,10,0.8,-2.199,M,40.593,M,3.1,0123*6B
$GPVTG,235.80,T,-404.10,M,002.648,N,004.905,K,D*06
$GPGGA,100553.65,5703.4854007,N,00952.3862554,E,2,10,0.8,-2.206,M,40.593,M,3.3,0123*67
$GPVTG,234.42,T,-405.48,M,002.652,N,004.912,K,D*08
$GPGGA,100553.70,5703.4853801,N,00952.3862007,E,2,10,0.8,-2.212,M,40.593,M,3.3,0123*6C
$GPVTG,233.68,T,-406.22,M,002.636,N,004.882,K,D*02
$GPGGA,100553.75,5703.4853576,N,00952.3861459,E,2,10,0.8,-2.217,M,40.593,M,3.3,0123*6D
$GPVTG,232.43,T,-407.47,M,002.667,N,004.940,K,D*03
$GPGGA,100553.80,5703.4853335,N,00952.3860950,E,2,10,0.8,-2.221,M,40.593,M,3.3,0123*66
$GPVTG,229.81,T,-410.09,M,002.660,N,004.926,K,D*0C
$GPGGA,100553.85,5703.4853079,N,00952.3860458,E,2,10,0.8,-2.225,M,40.593,M,3.5,0123*6F
$GPVTG,226.91,T,-412.99,M,002.665,N,004.935,K,D*0E
$GPGGA,100553.90,5703.4852828,N,00952.3859990,E,2,10,0.8,-2.229,M,40.593,M,3.5,0123*69
$GPVTG,224.68,T,-415.22,M,002.632,N,004.874,K,D*0B
$GPGGA,100553.95,5703.4852574,N,00952.3859537,E,2,10,0.8,-2.231,M,40.593,M,3.5,0123*60
$GPVTG,222.85,T,-417.05,M,002.595,N,004.806,K,D*02
$GPGGA,100554.00,5703.4852309,N,00952.3859095,E,2,10,0.8,-2.233,M,40.593,M,3.5,0123*68
$GPVTG,221.04,T,-418.86,M,002.587,N,004.792,K,D*0D
$GPGGA,100554.05,5703.4852050,N,00952.3858669,E,2,10,0.8,-2.240,M,40.593,M,2.0,0123*66
$GPVTG,219.61,T,-420.29,M,002.566,N,004.751,K,D*0B
$GPGGA,100554.10,5703.4851767,N,00952.3858252,E,2,10,0.8,-2.244,M,40.593,M,2.0,0123*6A
$GPVTG,217.85,T,-422.05,M,002.588,N,004.792,K,D*0C
$GPGGA,100554.15,5703.4851474,N,00952.3857850,E,2,10,0.8,-2.248,M,40.593,M,2.0,0123*65
$GPVTG,216.01,T,-423.89,M,002.618,N,004.849,K,D*07
$GPGGA,100554.20,5703.4851176,N,00952.3857446,E,2,10,0.8,-2.249,M,40.593,M,2.0,0123*6E
$GPVTG,214.96,T,-424.94,M,002.655,N,004.917,K,D*03
$GPGGA,100554.25,5703.4850878,N,00952.3857079,E,2,10,0.8,-2.247,M,40.593,M,2.2,0123*69
$GPVTG,213.17,T,-426.73,M,002.658,N,004.923,K,D*0C
$GPGGA,100554.30,5703.4850559,N,00952.3856732,E,2,10,0.8,-2.248,M,40.593,M,2.2,0123*65
$GPVTG,210.78,T,-429.12,M,002.678,N,004.959,K,D*01
$GPGGA,100554.35,5703.4850236,N,00952.3856391,E,2,10,0.8,-2.250,M,40.593,M,2.2,0123*6A
$GPVTG,209.02,T,-430.88,M,002.699,N,004.998,K,D*0D
$GPGGA,100554.40,5703.4849910,N,00952.3856051,E,2,10,0.8,-2.250,M,40.593,M,2.2,0123*60
$GPVTG,207.98,T,-431.92,M,002.723,N,005.044,K,D*03
$GPGGA,100554.45,5703.4849568,N,00952.3855724,E,2,10,0.8,-2.250,M,40.593,M,2.5,0123*67
$GPVTG,206.66,T,-433.24,M,002.757,N,005.105,K,D*0B
$GPGGA,100554.50,5703.4849224,N,00952.3855423,E,2,10,0.8,-2.252,M,40.593,M,2.5,0123*6A
$GPVTG,204.98,T,-434.92,M,002.774,N,005.138,K,D*0D
$GPGGA,100554.55,5703.4848870,N,00952.3855137,E,2,10,0.8,-2.252,M,40.593,M,2.5,0123*65
$GPVTG,203.23,T,-436.67,M,002.804,N,005.194,K,D*0C
$GPGGA,100554.60,5703.4848513,N,00952.3854874,E,2,10,0.8,-2.253,M,40.593,M,2.5,0123*65
$GPVTG,201.37,T,-438.53,M,002.814,N,005.211,K,D*0D
$GPGGA,100554.65,5703.4848152,N,00952.3854631,E,2,10,0.8,-2.256,M,40.593,M,2.7,0123*69
$GPVTG,199.60,T,-440.30,M,002.818,N,005.219,K,D*03
$GPGGA,100554.70,5703.4847787,N,00952.3854404,E,2,10,0.8,-2.257,M,40.593,M,2.7,0123*69
$GPVTG,197.93,T,-441.97,M,002.820,N,005.224,K,D*08
$GPGGA,100554.75,5703.4847419,N,00952.3854188,E,2,10,0.8,-2.257,M,40.593,M,2.7,0123*69
$GPVTG,196.57,T,-443.33,M,002.823,N,005.229,K,D*03
$GPGGA,100554.80,5703.4847049,N,00952.3853995,E,2,10,0.8,-2.253,M,40.593,M,2.7,0123*65
$GPVTG,195.04,T,-444.86,M,002.819,N,005.220,K,D*0F
$GPGGA,100554.85,5703.4846670,N,00952.3853818,E,2,10,0.8,-2.248,M,40.593,M,3.0,0123*65
$GPVTG,193.50,T,-446.40,M,002.836,N,005.252,K,D*08
$GPGGA,100554.90,5703.4846295,N,00952.3853667,E,2,10,0.8,-2.245,M,40.593,M,3.0,0123*65
$GPVTG,191.76,T,-448.14,M,002.821,N,005.225,K,D*07
$GPGGA,100554.95,5703.4845910,N,00952.3853538,E,2,10,0.8,-2.241,M,40.593,M,3.0,0123*68
$GPVTG,189.84,T,-450.06,M,002.830,N,005.241,K,D*0B
$GPGGA,100555.00,5703.4845525,N,00952.3853402,E,2,10,0.8,-2.239,M,40.593,M,3.0,0123*68
$GPVTG,189.15,T,-450.75,M,002.842,N,005.263,K,D*02
$GPGGA,100555.05,5703.4845143,N,00952.3853275,E,2,10,0.8,-2.235,M,40.593,M,1.8,0123*69
$GPVTG,188.57,T,-451.33,M,002.858,N,005.294,K,D*05
$GPGGA,100555.10,5703.4844743,N,00952.3853186,E,2,10,0.8,-2.230,M,40.593,M,1.8,0123*60
$GPVTG,186.83,T,-453.07,M,002.890,N,005.352,K,D*08
$GPGGA,100555.15,5703.4844346,N,00952.3853118,E,2,10,0.8,-2.228,M,40.593,M,1.8,0123*6A
$GPVTG,185.09,T,-454.81,M,002.901,N,005.373,K,D*0A
$GPGGA,100555.20,5703.4843941,N,00952.3853046,E,2,10,0.8,-2.230,M,40.593,M,1.8,0123*65
$GPVTG,184.29,T,-455.61,M,002.935,N,005.435,K,D*04
$GPGGA,100555.25,5703.4843531,N,00952.3852987,E,2,10,0.8,-2.227,M,40.593,M,2.1,0123*62
$GPVTG,183.48,T,-456.42,M,002.967,N,005.494,K,D*0A
$GPGGA,100555.30,5703.4843115,N,00952.3852955,E,2,10,0.8,-2.227,M,40.593,M,2.1,0123*6B
$GPVTG,182.13,T,-457.77,M,003.006,N,005.567,K,D*00
$GPGGA,100555.35,5703.4842697,N,00952.3852950,E,2,10,0.8,-2.227,M,40.593,M,2.1,0123*67
$GPVTG,180.36,T,-459.54,M,003.035,N,005.621,K,D*0B
$GPGGA,100555.40,5703.4842279,N,00952.3852939,E,2,10,0.8,-2.226,M,40.593,M,2.1,0123*6F
$GPVTG,179.66,T,-460.24,M,003.053,N,005.654,K,D*07
$GPGGA,100555.45,5703.4841869,N,00952.3852959,E,2,10,0.8,-2.228,M,40.593,M,2.3,0123*68
$GPVTG,178.26,T,-461.64,M,003.032,N,005.615,K,D*05
$GPGGA,100555.50,5703.4841452,N,00952.3852988,E,2,10,0.8,-2.227,M,40.593,M,2.3,0123*6B
$GPVTG,177.19,T,-462.71,M,003.037,N,005.625,K,D*07
$GPGGA,100555.55,5703.4841032,N,00952.3853040,E,2,10,0.8,-2.223,M,40.593,M,2.3,0123*64
$GPVTG,175.77,T,-464.13,M,003.053,N,005.654,K,D*0B
$GPGGA,100555.60,5703.4840613,N,00952.3853100,E,2,10,0.8,-2.221,M,40.593,M,2.3,0123*61
$GPVTG,174.77,T,-465.13,M,003.058,N,005.663,K,D*04
$GPGGA,100555.65,5703.4840187,N,00952.3853183,E,2,10,0.8,-2.223,M,40.593,M,2.6,0123*62
$GPVTG,173.56,T,-466.34,M,003.089,N,005.721,K,D*0D
$GPGGA,100555.70,5703.4839765,N,00952.3853291,E,2,10,0.8,-2.218,M,40.593,M,2.6,0123*6A
$GPVTG,171.95,T,-467.95,M,003.100,N,005.741,K,D*0C
$GPGGA,100555.75,5703.4839350,N,00952.3853420,E,2,10,0.8,-2.216,M,40.593,M,2.6,0123*6F
$GPVTG,170.23,T,-469.67,M,003.089,N,005.720,K,D*04
$GPGGA,100555.80,5703.4838935,N,00952.3853543,E,2,10,0.8,-2.216,M,40.593,M,2.6,0123*69
$GPVTG,169.52,T,-470.38,M,003.074,N,005.692,K,D*02
$GPGGA,100555.85,5703.4838514,N,00952.3853712,E,2,10,0.8,-2.218,M,40.593,M,2.8,0123*65
$GPVTG,167.83,T,-472.07,M,003.100,N,005.742,K,D*00
$GPGGA,100555.90,5703.4838093,N,00952.3853894,E,2,10,0.8,-2.216,M,40.593,M,2.8,0123*64
$GPVTG,166.33,T,-473.57,M,003.120,N,005.778,K,D*05
$GPGGA,100555.95,5703.4837673,N,00952.3854098,E,2,10,0.8,-2.217,M,40.593,M,2.8,0123*64
$GPVTG,164.81,T,-475.09,M,003.143,N,005.820,K,D*04
$GPGGA,100556.00,5703.4837237,N,00952.3854319,E,2,10,0.8,-2.218,M,40.593,M,2.8,0123*6A
$GPVTG,163.63,T,-476.27,M,003.201,N,005.929,K,D*0D
$GPGGA,100556.05,5703.4836818,N,00952.3854549,E,2,10,0.8,-2.217,M,40.593,M,1.5,0123*6B
$GPVTG,162.56,T,-477.34,M,003.232,N,005.985,K,D*0F
$GPGGA,100556.10,5703.4836398,N,00952.3854811,E,2,10,0.8,-2.218,M,40.593,M,1.5,0123*63
$GPVTG,161.08,T,-478.82,M,003.247,N,006.013,K,D*02
$GPGGA,100556.15,5703.4835975,N,00952.3855095,E,2,10,0.8,-2.218,M,40.593,M,1.5,0123*69
$GPVTG,159.66,T,-480.24,M,003.274,N,006.063,K,D*0D
$GPGGA,100556.20,5703.4835541,N,00952.3855399,E,2,10,0.8,-2.219,M,40.593,M,1.5,0123*6A
$GPVTG,158.43,T,-481.47,M,003.323,N,006.154,K,D*09
$GPGGA,100556.25,5703.4835130,N,00952.3855742,E,2,10,0.8,-2.225,M,40.593,M,1.8,0123*6D
$GPVTG,156.86,T,-483.04,M,003.347,N,006.198,K,D*09
$GPGGA,100556.30,5703.4834711,N,00952.3856094,E,2,10,0.8,-2.232,M,40.593,M,1.8,0123*64
$GPVTG,155.41,T,-484.49,M,003.373,N,006.247,K,D*09
$GPGGA,100556.35,5703.4834293,N,00952.3856473,E,2,10,0.8,-2.235,M,40.593,M,1.8,0123*64
$GPVTG,153.93,T,-485.97,M,003.405,N,006.306,K,D*00
$GPGGA,100556.40,5703.4833877,N,00952.3856879,E,2,10,0.8,-2.240,M,40.593,M,1.8,0123*65
$GPVTG,152.37,T,-487.53,M,003.439,N,006.368,K,D*02
$GPGGA,100556.45,5703.4833480,N,00952.3857304,E,2,10,0.8,-2.243,M,40.593,M,2.0,0123*6C
$GPVTG,150.88,T,-489.02,M,003.451,N,006.391,K,D*06
$GPGGA,100556.50,5703.4833074,N,00952.3857754,E,2,10,0.8,-2.246,M,40.593,M,2.0,0123*63
$GPVTG,149.27,T,-490.63,M,003.479,N,006.443,K,D*06
$GPGGA,100556.55,5703.4832677,N,00952.3858235,E,2,10,0.8,-2.249,M,40.593,M,2.0,0123*60
$GPVTG,147.49,T,-492.41,M,003.504,N,006.489,K,D*0F
$GPGGA,100556.60,5703.4832279,N,00952.3858748,E,2,10,0.8,-2.253,M,40.593,M,2.0,0123*68
$GPVTG,145.71,T,-494.19,M,003.543,N,006.562,K,D*0A
$GPGGA,100556.65,5703.4831899,N,00952.3859274,E,2,10,0.8,-2.259,M,40.593,M,2.2,0123*69
$GPVTG,143.96,T,-495.94,M,003.559,N,006.592,K,D*05
$GPGGA,100556.70,5703.4831522,N,00952.3859829,E,2,10,0.8,-2.263,M,40.593,M,2.2,0123*6B
$GPVTG,142.17,T,-497.73,M,003.583,N,006.635,K,D*0F
$GPGGA,100556.75,5703.4831135,N,00952.3860410,E,2,10,0.8,-2.267,M,40.593,M,2.2,0123*64
$GPVTG,140.63,T,-499.27,M,003.629,N,006.721,K,D*06
$GPGGA,100556.80,5703.4830755,N,00952.3861004,E,2,10,0.8,-2.269,M,40.593,M,2.2,0123*61
$GPVTG,139.23,T,-500.68,M,003.665,N,006.787,K,D*02
$GPGGA,100556.85,5703.4830390,N,00952.3861617,E,2,10,0.8,-2.271,M,40.593,M,2.4,0123*62
$GPVTG,137.72,T,-502.18,M,003.687,N,006.828,K,D*0B
$GPGGA,100556.90,5703.4830022,N,00952.3862240,E,2,10,0.8,-2.272,M,40.593,M,2.4,0123*6A
$GPVTG,136.52,T,-503.38,M,003.711,N,006.873,K,D*0B
$GPGGA,100556.95,5703.4829663,N,00952.3862888,E,2,10,0.8,-2.273,M,40.593,M,2.4,0123*6B
$GPVTG,135.18,T,-504.72,M,003.735,N,006.917,K,D*0A
$GPGGA,100557.00,5703.4829309,N,00952.3863550,E,2,10,0.8,-2.274,M,40.593,M,2.4,0123*61
$GPVTG,133.95,T,-505.95,M,003.753,N,006.951,K,D*03
$GPGGA,100557.05,5703.4828962,N,00952.3864202,E,2,10,0.8,-2.279,M,40.593,M,2.7,0123*6B
$GPVTG,133.08,T,-506.82,M,003.760,N,006.964,K,D*04
$GPGGA,100557.10,5703.4828615,N,00952.3864860,E,2,10,0.8,-2.276,M,40.593,M,2.7,0123*61
$GPVTG,132.33,T,-507.57,M,003.755,N,006.955,K,D*00
$GPGGA,100557.15,5703.4828264,N,00952.3865530,E,2,10,0.8,-2.269,M,40.593,M,2.7,0123*61
$GPVTG,131.74,T,-508.16,M,003.759,N,006.962,K,D*02
$GPGGA,100557.20,5703.4827917,N,00952.3866205,E,2,10,0.8,-2.260,M,40.593,M,2.7,0123*6C
$GPVTG,131.22,T,-508.68,M,003.758,N,006.959,K,D*01
$GPGGA,100557.25,5703.4827570,N,00952.3866872,E,2,10,0.8,-2.247,M,40.593,M,2.9,0123*65
$GPVTG,130.95,T,-508.95,M,003.749,N,006.943,K,D*05
$GPGGA,100557.30,5703.4827221,N,00952.3867569,E,2,10,0.8,-2.237,M,40.593,M,2.9,0123*63
$GPVTG,130.56,T,-509.34,M,003.760,N,006.964,K,D*0E
$GPGGA,100557.35,5703.4826869,N,00952.3868255,E,2,10,0.8,-2.228,M,40.593,M,2.9,0123*68
$GPVTG,130.49,T,-509.41,M,003.762,N,006.966,K,D*02
$GPGGA,100557.40,5703.4826524,N,00952.3868946,E,2,10,0.8,-2.219,M,40.593,M,2.9,0123*65
$GPVTG,130.32,T,-509.58,M,003.756,N,006.956,K,D*02
$GPGGA,100557.45,5703.4826182,N,00952.3869642,E,2,10,0.8,-2.210,M,40.593,M,3.1,0123*62
$GPVTG,130.15,T,-509.75,M,003.750,N,006.945,K,D*0C
$GPGGA,100557.50,5703.4825846,N,00952.3870360,E,2,10,0.8,-2.203,M,40.593,M,3.1,0123*6B
$GPVTG,129.73,T,-510.17,M,003.753,N,006.951,K,D*0E
$GPGGA,100557.55,5703.4825515,N,00952.3871099,E,2,10,0.8,-2.198,M,40.593,M,3.1,0123*60
$GPVTG,129.16,T,-510.74,M,003.766,N,006.975,K,D*08
$GPGGA,100557.60,5703.4825202,N,00952.3871855,E,2,10,0.8,-2.193,M,40.593,M,3.1,0123*64
$GPVTG,128.23,T,-511.67,M,003.772,N,006.985,K,D*06
$GPGGA,100557.65,5703.4824890,N,00952.3872621,E,2,10,0.8,-2.189,M,40.593,M,3.3,0123*66
$GPVTG,127.37,T,-512.53,M,003.781,N,007.003,K,D*02
$GPGGA,100557.70,5703.4824583,N,00952.3873403,E,2,10,0.8,-2.184,M,40.593,M,3.3,0123*63
$GPVTG,126.44,T,-513.46,M,003.796,N,007.031,K,D*05
$GPGGA,100557.75,5703.4824281,N,00952.3874211,E,2,10,0.8,-2.181,M,40.593,M,3.3,0123*64
$GPVTG,125.39,T,-514.51,M,003.825,N,007.084,K,D*04
$GPGGA,100557.80,5703.4823985,N,00952.3875040,E,2,10,0.8,-2.181,M,40.593,M,3.3,0123*61
$GPVTG,124.25,T,-515.65,M,003.860,N,007.148,K,D*0E
$GPGGA,100557.85,5703.4823708,N,00952.3875907,E,2,10,0.8,-2.183,M,40.593,M,3.5,0123*61
$GPVTG,122.70,T,-517.20,M,003.906,N,007.233,K,D*05
$GPGGA,100557.90,5703.4823442,N,00952.3876788,E,2,10,0.8,-2.187,M,40.593,M,3.5,0123*66
$GPVTG,121.13,T,-518.77,M,003.945,N,007.306,K,D*0E
$GPGGA,100557.95,5703.4823183,N,00952.3877692,E,2,10,0.8,-2.193,M,40.593,M,3.5,0123*65
$GPVTG,119.56,T,-520.34,M,003.991,N,007.392,K,D*0C
$GPGGA,100558.00,5703.4822931,N,00952.3878600,E,2,10,0.8,-2.201,M,40.593,M,3.5,0123*6A
$GPVTG,118.16,T,-521.74,M,004.027,N,007.458,K,D*0E
$GPGGA,100558.05,5703.4822699,N,00952.3879526,E,2,10,0.8,-2.210,M,40.593,M,2.0,0123*60
$GPVTG,116.72,T,-523.18,M,004.063,N,007.525,K,D*01
$GPGGA,100558.10,5703.4822462,N,00952.3880461,E,2,10,0.8,-2.217,M,40.593,M,2.0,0123*61
$GPVTG,115.41,T,-524.49,M,004.096,N,007.586,K,D*02
$GPGGA,100558.15,5703.4822224,N,00952.3881391,E,2,10,0.8,-2.223,M,40.593,M,2.0,0123*6E
$GPVTG,114.50,T,-525.40,M,004.109,N,007.610,K,D*00
$GPGGA,100558.20,5703.4821998,N,00952.3882338,E,2,10,0.8,-2.231,M,40.593,M,2.0,0123*64
$GPVTG,113.41,T,-526.49,M,004.117,N,007.625,K,D*04
$GPGGA,100558.25,5703.4821766,N,00952.3883267,E,2,10,0.8,-2.234,M,40.593,M,2.2,0123*63
$GPVTG,112.87,T,-527.03,M,004.097,N,007.587,K,D*02
$GPGGA,100558.30,5703.4821552,N,00952.3884206,E,2,10,0.8,-2.238,M,40.593,M,2.2,0123*6E
$GPVTG,112.13,T,-527.77,M,004.063,N,007.525,K,D*0F
$GPGGA,100558.35,5703.4821338,N,00952.3885163,E,2,10,0.8,-2.237,M,40.593,M,2.2,0123*6F
$GPVTG,111.53,T,-528.37,M,004.067,N,007.531,K,D*02
$GPGGA,100558.40,5703.4821140,N,00952.3886127,E,2,10,0.8,-2.235,M,40.593,M,2.2,0123*61
$GPVTG,110.54,T,-529.36,M,004.063,N,007.525,K,D*05
$GPGGA,100558.45,5703.4820946,N,00952.3887095,E,2,10,0.8,-2.230,M,40.593,M,2.5,0123*60
$GPVTG,109.75,T,-530.15,M,004.061,N,007.522,K,D*02
$GPGGA,100558.50,5703.4820760,N,00952.3888074,E,2,10,0.8,-2.227,M,40.593,M,2.5,0123*68
$GPVTG,108.89,T,-531.01,M,004.073,N,007.543,K,D*00
$GPGGA,100558.55,5703.4820570,N,00952.3889055,E,2,10,0.8,-2.225,M,40.593,M,2.5,0123*6E
$GPVTG,108.53,T,-531.37,M,004.086,N,007.568,K,D*01
$GPGGA,100558.60,5703.4820399,N,00952.3890061,E,2,10,0.8,-2.224,M,40.593,M,2.5,0123*67
$GPVTG,107.44,T,-532.46,M,004.122,N,007.634,K,D*08
$GPGGA,100558.65,5703.4820237,N,00952.3891080,E,2,10,0.8,-2.226,M,40.593,M,2.7,0123*69
$GPVTG,106.24,T,-533.66,M,004.160,N,007.704,K,D*08
$GPGGA,100558.70,5703.4820083,N,00952.3892114,E,2,10,0.8,-2.228,M,40.593,M,2.7,0123*61
$GPVTG,105.13,T,-534.77,M,004.207,N,007.791,K,D*06
$GPGGA,100558.75,5703.4819937,N,00952.3893174,E,2,10,0.8,-2.231,M,40.593,M,2.7,0123*67
$GPVTG,103.99,T,-535.91,M,004.279,N,007.925,K,D*03
$GPGGA,100558.80,5703.4819795,N,00952.3894250,E,2,10,0.8,-2.235,M,40.593,M,2.7,0123*6D
$GPVTG,103.08,T,-536.82,M,004.350,N,008.056,K,D*02
$GPGGA,100558.85,5703.4819676,N,00952.3895339,E,2,10,0.8,-2.241,M,40.593,M,3.0,0123*6E
$GPVTG,101.57,T,-538.33,M,004.399,N,008.148,K,D*05
$GPGGA,100558.90,5703.4819561,N,00952.3896444,E,2,10,0.8,-2.247,M,40.593,M,3.0,0123*67
$GPVTG,100.43,T,-539.47,M,004.451,N,008.244,K,D*0F
$GPGGA,100558.95,5703.4819457,N,00952.3897550,E,2,10,0.8,-2.255,M,40.593,M,3.0,0123*60
$GPVTG,099.37,T,-540.53,M,004.470,N,008.279,K,D*0B
$GPGGA,100559.00,5703.4819367,N,00952.3898685,E,2,10,0.8,-2.267,M,40.593,M,3.0,0123*6C
$GPVTG,098.10,T,-541.80,M,004.528,N,008.385,K,D*0E
$GPGGA,100559.05,5703.4819301,N,00952.3899831,E,2,10,0.8,-2.266,M,40.593,M,1.8,0123*62
$GPVTG,096.71,T,-543.19,M,004.581,N,008.485,K,D*01
$GPGGA,100559.10,5703.4819232,N,00952.3900981,E,2,10,0.8,-2.275,M,40.593,M,1.8,0123*6E
$GPVTG,095.64,T,-544.26,M,004.605,N,008.528,K,D*04
$GPGGA,100559.15,5703.4819176,N,00952.3902117,E,2,10,0.8,-2.280,M,40.593,M,1.8,0123*67
$GPVTG,094.61,T,-545.29,M,004.578,N,008.478,K,D*03
$GPGGA,100559.20,5703.4819132,N,00952.3903247,E,2,10,0.8,-2.280,M,40.593,M,1.8,0123*66
$GPVTG,093.56,T,-546.34,M,004.533,N,008.395,K,D*04
$GPGGA,100559.25,5703.4819089,N,00952.3904375,E,2,10,0.8,-2.280,M,40.593,M,2.1,0123*6F
$GPVTG,092.92,T,-546.98,M,004.493,N,008.320,K,D*0E
$GPGGA,100559.30,5703.4819064,N,00952.3905488,E,2,10,0.8,-2.275,M,40.593,M,2.1,0123*66
$GPVTG,091.93,T,-547.97,M,004.433,N,008.210,K,D*0A
$GPGGA,100559.35,5703.4819042,N,00952.3906605,E,2,10,0.8,-2.268,M,40.593,M,2.1,0123*6F
$GPVTG,091.21,T,-548.69,M,004.400,N,008.150,K,D*0A
$GPGGA,100559.40,5703.4819030,N,00952.3907716,E,2,10,0.8,-2.254,M,40.593,M,2.1,0123*65
$GPVTG,090.44,T,-549.46,M,004.372,N,008.097,K,D*0C
$GPGGA,100559.45,5703.4819024,N,00952.3908818,E,2,10,0.8,-2.234,M,40.593,M,2.3,0123*6F
$GPVTG,089.82,T,-550.08,M,004.337,N,008.032,K,D*02
$GPGGA,100559.50,5703.4819013,N,00952.3909928,E,2,10,0.8,-2.221,M,40.593,M,2.3,0123*68
$GPVTG,089.71,T,-550.19,M,004.335,N,008.028,K,D*07
$GPGGA,100559.55,5703.4819011,N,00952.3911065,E,2,10,0.8,-2.209,M,40.593,M,2.3,0123*6C
$GPVTG,089.41,T,-550.49,M,004.394,N,008.138,K,D*0A
$GPGGA,100559.60,5703.4819019,N,00952.3912212,E,2,10,0.8,-2.195,M,40.593,M,2.3,0123*65
$GPVTG,088.88,T,-551.02,M,004.456,N,008.253,K,D*07
$GPGGA,100559.65,5703.4819041,N,00952.3913345,E,2,10,0.8,-2.178,M,40.593,M,2.6,0123*69
$GPVTG,088.06,T,-551.84,M,004.473,N,008.284,K,D*02
$GPGGA,100559.70,5703.4819073,N,00952.3914450,E,2,10,0.8,-2.165,M,40.593,M,2.6,0123*64
$GPVTG,087.08,T,-552.82,M,004.422,N,008.189,K,D*0C
$GPGGA,100559.75,5703.4819125,N,00952.3915588,E,2,10,0.8,-2.153,M,40.593,M,2.6,0123*63
$GPVTG,085.68,T,-554.22,M,004.459,N,008.258,K,D*07
$GPGGA,100559.80,5703.4819182,N,00952.3916736,E,2,10,0.8,-2.146,M,40.593,M,2.6,0123*64
$GPVTG,084.63,T,-555.27,M,004.507,N,008.348,K,D*03
$GPGGA,100559.85,5703.4819241,N,00952.3917891,E,2,10,0.8,-2.135,M,40.593,M,2.8,0123*64
$GPVTG,083.68,T,-556.22,M,004.571,N,008.466,K,D*03
$GPGGA,100559.90,5703.4819320,N,00952.3919069,E,2,10,0.8,-2.137,M,40.593,M,2.8,0123*65
$GPVTG,082.73,T,-557.17,M,004.645,N,008.603,K,D*0A
$GPGGA,100559.95,5703.4819411,N,00952.3920260,E,2,10,0.8,-2.148,M,40.593,M,2.8,0123*6C
$GPVTG,081.74,T,-558.16,M,004.722,N,008.745,K,D*03
$GPGGA,100600.00,5703.4819509,N,00952.3921468,E,2,10,0.8,-2.165,M,40.593,M,2.8,0123*67
$GPVTG,080.98,T,-558.92,M,004.803,N,008.895,K,D*02
$GPGGA,100600.05,5703.4819640,N,00952.3922686,E,2,10,0.8,-2.193,M,40.593,M,1.5,0123*6A
$GPVTG,079.53,T,-560.37,M,004.887,N,009.050,K,D*0B
$GPGGA,100600.10,5703.4819777,N,00952.3923917,E,2,10,0.8,-2.214,M,40.593,M,1.5,0123*61
$GPVTG,078.30,T,-561.60,M,004.967,N,009.199,K,D*07
$GPGGA,100600.15,5703.4819944,N,00952.3925151,E,2,10,0.8,-2.235,M,40.593,M,1.5,0123*65
$GPVTG,076.57,T,-563.33,M,005.036,N,009.326,K,D*06
$GPGGA,100600.20,5703.4820111,N,00952.3926373,E,2,10,0.8,-2.259,M,40.593,M,1.5,0123*6A
$GPVTG,075.42,T,-564.48,M,005.047,N,009.348,K,D*04
$GPGGA,100600.25,5703.4820286,N,00952.3927534,E,2,10,0.8,-2.275,M,40.593,M,1.8,0123*65
$GPVTG,074.12,T,-565.78,M,004.933,N,009.137,K,D*03
$GPGGA,100600.30,5703.4820474,N,00952.3928639,E,2,10,0.8,-2.279,M,40.593,M,1.8,0123*67
$GPVTG,072.40,T,-567.50,M,004.744,N,008.785,K,D*0A
$GPGGA,100600.35,5703.4820677,N,00952.3929720,E,2,10,0.8,-2.275,M,40.593,M,1.8,0123*67
$GPVTG,070.62,T,-569.28,M,004.589,N,008.499,K,D*04
$GPGGA,100600.40,5703.4820880,N,00952.3930803,E,2,10,0.8,-2.269,M,40.593,M,1.8,0123*68
$GPVTG,069.56,T,-570.34,M,004.501,N,008.337,K,D*0D
$GPGGA,100600.45,5703.4821089,N,00952.3931881,E,2,10,0.8,-2.275,M,40.593,M,2.0,0123*60
$GPVTG,068.72,T,-571.18,M,004.447,N,008.236,K,D*06
$GPGGA,100600.50,5703.4821312,N,00952.3932951,E,2,10,0.8,-2.267,M,40.593,M,2.0,0123*69
$GPVTG,067.88,T,-572.02,M,004.435,N,008.214,K,D*01
$GPGGA,100600.55,5703.4821548,N,00952.3934017,E,2,10,0.8,-2.258,M,40.593,M,2.0,0123*64
$GPVTG,066.97,T,-572.93,M,004.448,N,008.238,K,D*02
$GPGGA,100600.60,5703.4821794,N,00952.3935072,E,2,10,0.8,-2.244,M,40.593,M,2.0,0123*6E
$GPVTG,066.02,T,-573.88,M,004.461,N,008.262,K,D*01
$GPGGA,100600.65,5703.4822044,N,00952.3936127,E,2,10,0.8,-2.227,M,40.593,M,2.2,0123*67
$GPVTG,065.29,T,-574.61,M,004.496,N,008.326,K,D*02
$GPGGA,100600.70,5703.4822301,N,00952.3937180,E,2,10,0.8,-2.215,M,40.593,M,2.2,0123*6C
$GPVTG,064.74,T,-575.16,M,004.518,N,008.367,K,D*08
$GPGGA,100600.75,5703.4822585,N,00952.3938226,E,2,10,0.8,-2.206,M,40.593,M,2.2,0123*61
$GPVTG,063.56,T,-576.34,M,004.556,N,008.437,K,D*04
$GPGGA,100600.80,5703.4822885,N,00952.3939280,E,2,10,0.8,-2.197,M,40.593,M,2.2,0123*60
$GPVTG,062.38,T,-577.52,M,004.622,N,008.561,K,D*0E
$GPGGA,100600.85,5703.4823171,N,00952.3940338,E,2,10,0.8,-2.186,M,40.593,M,2.4,0123*6C
$GPVTG,062.05,T,-577.85,M,004.705,N,008.714,K,D*0E
$GPGGA,100600.90,5703.4823461,N,00952.3941423,E,2,10,0.8,-2.185,M,40.593,M,2.4,0123*63
$GPVTG,062.32,T,-577.58,M,004.764,N,008.824,K,D*01
$GPGGA,100600.95,5703.4823759,N,00952.3942522,E,2,10,0.8,-2.189,M,40.593,M,2.4,0123*61
$GPVTG,062.51,T,-577.39,M,004.834,N,008.953,K,D*08
$GPGGA,100601.00,5703.4824072,N,00952.3943624,E,2,10,0.8,-2.197,M,40.593,M,2.4,0123*6E
$GPVTG,062.21,T,-577.69,M,004.902,N,009.078,K,D*0F
$GPGGA,100601.05,5703.4824405,N,00952.3944729,E,2,10,0.8,-2.204,M,40.593,M,2.7,0123*6E
$GPVTG,061.69,T,-578.21,M,004.973,N,009.210,K,D*09
$GPGGA,100601.10,5703.4824728,N,00952.3945849,E,2,10,0.8,-2.215,M,40.593,M,2.7,0123*6E
$GPVTG,061.62,T,-578.28,M,005.026,N,009.308,K,D*0B
$GPGGA,100601.15,5703.4825078,N,00952.3946973,E,2,10,0.8,-2.227,M,40.593,M,2.7,0123*62
$GPVTG,060.77,T,-579.13,M,005.099,N,009.443,K,D*0B
$GPGGA,100601.20,5703.4825446,N,00952.3948055,E,2,10,0.8,-2.241,M,40.593,M,2.7,0123*6E
$GPVTG,059.12,T,-580.78,M,005.093,N,009.432,K,D*05
$GPGGA,100601.25,5703.4825829,N,00952.3949085,E,2,10,0.8,-2.255,M,40.593,M,2.9,0123*69
$GPVTG,056.90,T,-583.00,M,005.022,N,009.301,K,D*01
$GPGGA,100601.30,5703.4826210,N,00952.3950062,E,2,10,0.8,-2.262,M,40.593,M,2.9,0123*6B
$GPVTG,054.79,T,-585.11,M,004.877,N,009.032,K,D*08
$GPGGA,100601.35,5703.4826607,N,00952.3951013,E,2,10,0.8,-2.261,M,40.593,M,2.9,0123*68
$GPVTG,052.58,T,-587.32,M,004.775,N,008.843,K,D*0C
$GPGGA,100601.40,5703.4827014,N,00952.3951916,E,2,10,0.8,-2.260,M,40.593,M,2.9,0123*62
$GPVTG,050.20,T,-589.70,M,004.660,N,008.630,K,D*06
$GPGGA,100601.45,5703.4827427,N,00952.3952787,E,2,10,0.8,-2.260,M,40.593,M,3.1,0123*6F
$GPVTG,048.02,T,-591.88,M,004.562,N,008.449,K,D*0C
$GPGGA,100601.50,5703.4827842,N,00952.3953625,E,2,10,0.8,-2.253,M,40.593,M,3.1,0123*6C
$GPVTG,046.25,T,-593.65,M,004.468,N,008.275,K,D*04
$GPGGA,100601.55,5703.4828279,N,00952.3954458,E,2,10,0.8,-2.240,M,40.593,M,3.1,0123*69
$GPVTG,044.70,T,-595.20,M,004.463,N,008.265,K,D*0B
$GPGGA,100601.60,5703.4828707,N,00952.3955285,E,2,10,0.8,-2.225,M,40.593,M,3.1,0123*67
$GPVTG,044.12,T,-595.78,M,004.448,N,008.238,K,D*03
$GPGGA,100601.65,5703.4829144,N,00952.3956109,E,2,10,0.8,-2.210,M,40.593,M,3.3,0123*62
$GPVTG,043.78,T,-596.12,M,004.464,N,008.268,K,D*0C
$GPGGA,100601.70,5703.4829586,N,00952.3956918,E,2,10,0.8,-2.199,M,40.593,M,3.3,0123*66
$GPVTG,043.43,T,-596.47,M,004.474,N,008.286,K,D*05
$GPGGA,100601.75,5703.4830039,N,00952.3957731,E,2,10,0.8,-2.190,M,40.593,M,3.3,0123*67
$GPVTG,043.15,T,-596.75,M,004.519,N,008.369,K,D*0D
$GPGGA,100601.80,5703.4830492,N,00952.3958554,E,2,10,0.8,-2.184,M,40.593,M,3.3,0123*63
$GPVTG,043.35,T,-596.55,M,004.567,N,008.459,K,D*00
$GPGGA,100601.85,5703.4830964,N,00952.3959397,E,2,10,0.8,-2.181,M,40.593,M,3.5,0123*69
$GPVTG,043.44,T,-596.46,M,004.673,N,008.654,K,D*0D
$GPGGA,100601.90,5703.4831443,N,00952.3960250,E,2,10,0.8,-2.183,M,40.593,M,3.5,0123*66
$GPVTG,043.56,T,-596.34,M,004.776,N,008.846,K,D*02
$GPGGA,100601.95,5703.4831922,N,00952.3961102,E,2,10,0.8,-2.186,M,40.593,M,3.5,0123*69
$GPVTG,043.65,T,-596.25,M,004.835,N,008.955,K,D*09
$GPGGA,100602.00,5703.4832404,N,00952.3961957,E,2,10,0.8,-2.192,M,40.593,M,3.5,0123*61
$GPVTG,043.71,T,-596.19,M,004.881,N,009.040,K,D*00
$GPGGA,100602.05,5703.4832903,N,00952.3962816,E,2,10,0.8,-2.195,M,40.593,M,2.0,0123*6A
$GPVTG,043.67,T,-596.23,M,004.946,N,009.159,K,D*0D
$GPGGA,100602.10,5703.4833394,N,00952.3963660,E,2,10,0.8,-2.210,M,40.593,M,2.0,0123*6B
$GPVTG,043.29,T,-596.61,M,004.941,N,009.151,K,D*0E
$GPGGA,100602.15,5703.4833907,N,00952.3964466,E,2,10,0.8,-2.225,M,40.593,M,2.0,0123*6B
$GPVTG,041.79,T,-598.11,M,004.931,N,009.131,K,D*01
$GPGGA,100602.20,5703.4834434,N,00952.3965245,E,2,10,0.8,-2.235,M,40.593,M,2.0,0123*60
$GPVTG,039.95,T,-599.95,M,004.916,N,009.105,K,D*03
$GPGGA,100602.25,5703.4834956,N,00952.3966003,E,2,10,0.8,-2.247,M,40.593,M,2.2,0123*68
$GPVTG,038.42,T,-601.48,M,004.876,N,009.030,K,D*0A
$GPGGA,100602.30,5703.4835489,N,00952.3966714,E,2,10,0.8,-2.248,M,40.593,M,2.2,0123*6C
$GPVTG,036.38,T,-603.52,M,004.815,N,008.917,K,D*08
$GPGGA,100602.35,5703.4836013,N,00952.3967377,E,2,10,0.8,-2.248,M,40.593,M,2.2,0123*6D
$GPVTG,034.42,T,-605.48,M,004.698,N,008.700,K,D*09
$GPGGA,100602.40,5703.4836542,N,00952.3967990,E,2,10,0.8,-2.245,M,40.593,M,2.2,0123*60
$GPVTG,032.07,T,-607.83,M,004.585,N,008.492,K,D*0C
$GPGGA,100602.45,5703.4837068,N,00952.3968573,E,2,10,0.8,-2.242,M,40.593,M,2.5,0123*67
$GPVTG,030.18,T,-609.72,M,004.478,N,008.294,K,D*03
$GPGGA,100602.50,5703.4837606,N,00952.3969141,E,2,10,0.8,-2.241,M,40.593,M,2.5,0123*6A
$GPVTG,028.63,T,-611.27,M,004.438,N,008.219,K,D*0E
$GPGGA,100602.55,5703.4838157,N,00952.3969696,E,2,10,0.8,-2.239,M,40.593,M,2.5,0123*61
$GPVTG,027.40,T,-612.50,M,004.450,N,008.241,K,D*00
$GPGGA,100602.60,5703.4838719,N,00952.3970257,E,2,10,0.8,-2.238,M,40.593,M,2.5,0123*6B
$GPVTG,026.86,T,-613.04,M,004.510,N,008.353,K,D*0C
$GPGGA,100602.65,5703.4839291,N,00952.3970793,E,2,10,0.8,-2.239,M,40.593,M,2.7,0123*64
$GPVTG,025.90,T,-614.00,M,004.563,N,008.451,K,D*0A
$GPGGA,100602.70,5703.4839857,N,00952.3971319,E,2,10,0.8,-2.237,M,40.593,M,2.7,0123*69
$GPVTG,025.47,T,-614.43,M,004.581,N,008.483,K,D*04
$GPGGA,100602.75,5703.4840434,N,00952.3971818,E,2,10,0.8,-2.235,M,40.593,M,2.7,0123*63
$GPVTG,024.60,T,-615.30,M,004.601,N,008.520,K,D*06
$GPGGA,100602.80,5703.4841015,N,00952.3972302,E,2,10,0.8,-2.235,M,40.593,M,2.7,0123*6C
$GPVTG,023.79,T,-616.11,M,004.615,N,008.548,K,D*02
$GPGGA,100602.85,5703.4841583,N,00952.3972763,E,2,10,0.8,-2.236,M,40.593,M,3.0,0123*65
$GPVTG,023.05,T,-616.85,M,004.565,N,008.453,K,D*0B
$GPGGA,100602.90,5703.4842149,N,00952.3973184,E,2,10,0.8,-2.230,M,40.593,M,3.0,0123*68
$GPVTG,021.78,T,-618.12,M,004.495,N,008.324,K,D*0A
$GPGGA,100602.95,5703.4842717,N,00952.3973568,E,2,10,0.8,-2.222,M,40.593,M,3.0,0123*65
$GPVTG,020.16,T,-619.74,M,004.425,N,008.194,K,D*00
$GPGGA,100603.00,5703.4843274,N,00952.3973941,E,2,10,0.8,-2.214,M,40.593,M,3.0,0123*6B
$GPVTG,019.17,T,-620.73,M,004.340,N,008.038,K,D*05
$GPGGA,100603.05,5703.4843838,N,00952.3974304,E,2,10,0.8,-2.200,M,40.593,M,1.8,0123*6F
$GPVTG,018.63,T,-621.27,M,004.286,N,007.938,K,D*0A
$GPGGA,100603.10,5703.4844413,N,00952.3974660,E,2,10,0.8,-2.196,M,40.593,M,1.8,0123*62
$GPVTG,017.92,T,-621.98,M,004.298,N,007.960,K,D*0D
$GPGGA,100603.15,5703.4845003,N,00952.3975009,E,2,10,0.8,-2.191,M,40.593,M,1.8,0123*6C
$GPVTG,017.25,T,-622.65,M,004.358,N,008.072,K,D*08
$GPGGA,100603.20,5703.4845619,N,00952.3975353,E,2,10,0.8,-2.190,M,40.593,M,1.8,0123*6A
$GPVTG,016.56,T,-623.34,M,004.487,N,008.311,K,D*0B
$GPGGA,100603.25,5703.4846226,N,00952.3975702,E,2,10,0.8,-2.195,M,40.593,M,2.1,0123*6B
$GPVTG,016.46,T,-623.44,M,004.557,N,008.439,K,D*0C
$GPGGA,100603.30,5703.4846837,N,00952.3976043,E,2,10,0.8,-2.205,M,40.593,M,2.1,0123*6E
$GPVTG,016.32,T,-623.58,M,004.607,N,008.532,K,D*0E
$GPGGA,100603.35,5703.4847459,N,00952.3976370,E,2,10,0.8,-2.216,M,40.593,M,2.1,0123*6F
$GPVTG,015.81,T,-624.09,M,004.669,N,008.646,K,D*0E
$GPGGA,100603.40,5703.4848094,N,00952.3976675,E,2,10,0.8,-2.231,M,40.593,M,2.1,0123*62
$GPVTG,014.88,T,-625.02,M,004.732,N,008.764,K,D*02
$GPGGA,100603.45,5703.4848736,N,00952.3976987,E,2,10,0.8,-2.251,M,40.593,M,2.3,0123*6E
$GPVTG,014.45,T,-625.45,M,004.800,N,008.889,K,D*02
$GPGGA,100603.50,5703.4849380,N,00952.3977274,E,2,10,0.8,-2.265,M,40.593,M,2.3,0123*63
$GPVTG,013.63,T,-626.27,M,004.832,N,008.949,K,D*0A
$GPGGA,100603.55,5703.4850017,N,00952.3977512,E,2,10,0.8,-2.278,M,40.593,M,2.3,0123*68
$GPVTG,012.05,T,-627.85,M,004.805,N,008.899,K,D*0A
$GPGGA,100603.60,5703.4850646,N,00952.3977695,E,2,10,0.8,-2.288,M,40.593,M,2.3,0123*6F
$GPVTG,009.81,T,-630.09,M,004.732,N,008.763,K,D*0F
$GPGGA,100603.65,5703.4851258,N,00952.3977853,E,2,10,0.8,-2.302,M,40.593,M,2.6,0123*62
$GPVTG,007.86,T,-632.04,M,004.620,N,008.555,K,D*0C
$GPGGA,100603.70,5703.4851852,N,00952.3977968,E,2,10,0.8,-2.299,M,40.593,M,2.6,0123*6C
$GPVTG,005.77,T,-634.13,M,004.468,N,008.275,K,D*0B
$GPGGA,100603.75,5703.4852433,N,00952.3978009,E,2,10,0.8,-2.288,M,40.593,M,2.6,0123*60
$GPVTG,002.61,T,-637.29,M,004.315,N,007.992,K,D*01
$GPGGA,100603.80,5703.4852994,N,00952.3978021,E,2,10,0.8,-2.276,M,40.593,M,2.6,0123*61
$GPVTG,359.93,T,-279.97,M,004.153,N,007.691,K,D*06
$GPGGA,100603.85,5703.4853539,N,00952.3977978,E,2,10,0.8,-2.255,M,40.593,M,2.8,0123*6B
$GPVTG,356.86,T,-283.04,M,004.000,N,007.407,K,D*08
$GPGGA,100603.90,5703.4854086,N,00952.3977903,E,2,10,0.8,-2.236,M,40.593,M,2.8,0123*60
$GPVTG,354.23,T,-285.67,M,003.918,N,007.256,K,D*03
$GPGGA,100603.95,5703.4854635,N,00952.3977812,E,2,10,0.8,-2.216,M,40.593,M,2.8,0123*68
$GPVTG,352.48,T,-287.42,M,003.890,N,007.204,K,D*0B
$GPGGA,100604.00,5703.4855178,N,00952.3977699,E,2,10,0.8,-2.197,M,40.593,M,2.8,0123*6B
$GPVTG,351.15,T,-288.75,M,003.865,N,007.157,K,D*04
$GPGGA,100604.05,5703.4855718,N,00952.3977589,E,2,10,0.8,-2.185,M,40.593,M,1.5,0123*61
$GPVTG,350.87,T,-289.03,M,003.836,N,007.104,K,D*0E
$GPGGA,100604.10,5703.4856265,N,00952.3977491,E,2,10,0.8,-2.170,M,40.593,M,1.5,0123*6B
$GPVTG,351.50,T,-288.40,M,003.851,N,007.132,K,D*07
$GPGGA,100604.15,5703.4856825,N,00952.3977417,E,2,10,0.8,-2.162,M,40.593,M,1.5,0123*6D
$GPVTG,353.05,T,-286.85,M,003.909,N,007.239,K,D*06
$GPGGA,100604.20,5703.4857409,N,00952.3977357,E,2,10,0.8,-2.159,M,40.593,M,1.5,0123*63
$GPVTG,354.78,T,-285.12,M,004.033,N,007.469,K,D*02
$GPGGA,100604.25,5703.4858008,N,00952.3977298,E,2,10,0.8,-2.149,M,40.593,M,1.8,0123*62
$GPVTG,356.04,T,-283.86,M,004.162,N,007.708,K,D*01
$GPGGA,100604.30,5703.4858613,N,00952.3977240,E,2,10,0.8,-2.156,M,40.593,M,1.8,0123*61
$GPVTG,356.85,T,-283.05,M,004.288,N,007.941,K,D*07
$GPGGA,100604.35,5703.4859242,N,00952.3977170,E,2,10,0.8,-2.164,M,40.593,M,1.8,0123*64
$GPVTG,357.00,T,-282.90,M,004.449,N,008.240,K,D*08
$GPGGA,100604.40,5703.4859885,N,00952.3977095,E,2,10,0.8,-2.177,M,40.593,M,1.8,0123*6F
$GPVTG,356.92,T,-282.98,M,004.602,N,008.524,K,D*02
$GPGGA,100604.45,5703.4860524,N,00952.3977014,E,2,10,0.8,-2.198,M,40.593,M,2.0,0123*65
$GPVTG,356.66,T,-283.24,M,004.689,N,008.685,K,D*04
$GPGGA,100604.50,5703.4861165,N,00952.3976900,E,2,10,0.8,-2.220,M,40.593,M,2.0,0123*6C
$GPVTG,355.61,T,-284.29,M,004.747,N,008.792,K,D*0E
$GPGGA,100604.55,5703.4861798,N,00952.3976732,E,2,10,0.8,-2.243,M,40.593,M,2.0,0123*67
$GPVTG,353.53,T,-286.37,M,004.756,N,008.808,K,D*08
$GPGGA,100604.60,5703.4862385,N,00952.3976469,E,2,10,0.8,-2.261,M,40.593,M,2.0,0123*67
$GPVTG,349.49,T,-290.41,M,004.634,N,008.583,K,D*05
$GPGGA,100604.65,5703.4862920,N,00952.3976181,E,2,10,0.8,-2.285,M,40.593,M,2.2,0123*6C
$GPVTG,345.49,T,-294.41,M,004.413,N,008.173,K,D*01
$GPGGA,100604.70,5703.4863426,N,00952.3975856,E,2,10,0.8,-2.284,M,40.593,M,2.2,0123*63
$GPVTG,341.61,T,-298.29,M,004.165,N,007.714,K,D*01
$GPGGA,100604.75,5703.4863905,N,00952.3975518,E,2,10,0.8,-2.276,M,40.593,M,2.2,0123*60
$GPVTG,338.31,T,-301.59,M,003.923,N,007.265,K,D*02
$GPGGA,100604.80,5703.4864354,N,00952.3975160,E,2,10,0.8,-2.267,M,40.593,M,2.2,0123*68
$GPVTG,335.18,T,-304.72,M,003.687,N,006.828,K,D*0B
$GPGGA,100604.85,5703.4864803,N,00952.3974772,E,2,10,0.8,-2.258,M,40.593,M,2.4,0123*6A
$GPVTG,332.40,T,-307.50,M,003.561,N,006.596,K,D*01
$GPGGA,100604.90,5703.4865248,N,00952.3974387,E,2,10,0.8,-2.245,M,40.593,M,2.4,0123*68
$GPVTG,331.11,T,-308.79,M,003.468,N,006.423,K,D*05
$GPGGA,100604.95,5703.4865699,N,00952.3974022,E,2,10,0.8,-2.232,M,40.593,M,2.4,0123*69
$GPVTG,331.54,T,-308.36,M,003.413,N,006.321,K,D*06
$GPGGA,100605.00,5703.4866153,N,00952.3973653,E,2,10,0.8,-2.219,M,40.593,M,2.4,0123*68
$GPVTG,332.31,T,-307.59,M,003.402,N,006.301,K,D*02
$GPGGA,100605.05,5703.4866641,N,00952.3973265,E,2,10,0.8,-2.211,M,40.593,M,2.7,0123*63
$GPVTG,333.34,T,-306.56,M,003.509,N,006.499,K,D*04
$GPGGA,100605.10,5703.4867129,N,00952.3972880,E,2,10,0.8,-2.204,M,40.593,M,2.7,0123*6B
$GPVTG,334.46,T,-305.44,M,003.620,N,006.704,K,D*09
$GPGGA,100605.15,5703.4867622,N,00952.3972486,E,2,10,0.8,-2.202,M,40.593,M,2.7,0123*6E
$GPVTG,335.15,T,-304.75,M,003.728,N,006.904,K,D*0A
$GPGGA,100605.20,5703.4868115,N,00952.3972064,E,2,10,0.8,-2.204,M,40.593,M,2.7,0123*6A
$GPVTG,334.91,T,-304.99,M,003.833,N,007.099,K,D*0C
$GPGGA,100605.25,5703.4868644,N,00952.3971636,E,2,10,0.8,-2.200,M,40.593,M,2.9,0123*64
$GPVTG,335.41,T,-304.49,M,003.993,N,007.395,K,D*09
$GPGGA,100605.30,5703.4869175,N,00952.3971214,E,2,10,0.8,-2.203,M,40.593,M,2.9,0123*63
$GPVTG,335.94,T,-303.96,M,004.123,N,007.635,K,D*0F
$GPGGA,100605.35,5703.4869713,N,00952.3970781,E,2,10,0.8,-2.210,M,40.593,M,2.9,0123*6A
$GPVTG,336.17,T,-303.73,M,004.235,N,007.844,K,D*00
$GPGGA,100605.40,5703.4870244,N,00952.3970317,E,2,10,0.8,-2.220,M,40.593,M,2.9,0123*6F
$GPVTG,335.45,T,-304.45,M,004.311,N,007.984,K,D*0C
$GPGGA,100605.45,5703.4870740,N,00952.3969829,E,2,10,0.8,-2.224,M,40.593,M,3.1,0123*68
$GPVTG,333.84,T,-306.06,M,004.260,N,007.889,K,D*09
$GPGGA,100605.50,5703.4871218,N,00952.3969321,E,2,10,0.8,-2.231,M,40.593,M,3.1,0123*62
$GPVTG,331.73,T,-308.17,M,004.183,N,007.746,K,D*0F
$GPGGA,100605.55,5703.4871666,N,00952.3968769,E,2,10,0.8,-2.237,M,40.593,M,3.1,0123*65
$GPVTG,328.56,T,-311.34,M,004.081,N,007.558,K,D*07
$GPGGA,100605.60,5703.4872096,N,00952.3968192,E,2,10,0.8,-2.240,M,40.593,M,3.1,0123*6B
$GPVTG,325.33,T,-314.57,M,003.986,N,007.382,K,D*01
$GPGGA,100605.65,5703.4872494,N,00952.3967609,E,2,10,0.8,-2.255,M,40.593,M,3.3,0123*64
$GPVTG,322.08,T,-317.82,M,003.850,N,007.130,K,D*04
$GPGGA,100605.70,5703.4872868,N,00952.3967012,E,2,10,0.8,-2.256,M,40.593,M,3.3,0123*60
$GPVTG,319.00,T,-320.90,M,003.705,N,006.861,K,D*00
$GPGGA,100605.75,5703.4873246,N,00952.3966416,E,2,10,0.8,-2.253,M,40.593,M,3.3,0123*66
$GPVTG,317.29,T,-322.61,M,003.612,N,006.689,K,D*06
$GPGGA,100605.80,5703.4873599,N,00952.3965817,E,2,10,0.8,-2.252,M,40.593,M,3.3,0123*66
$GPVTG,315.49,T,-324.41,M,003.501,N,006.484,K,D*08
$GPGGA,100605.85,5703.4873961,N,00952.3965219,E,2,10,0.8,-2.250,M,40.593,M,3.5,0123*68
$GPVTG,314.99,T,-324.91,M,003.457,N,006.402,K,D*05
$GPGGA,100605.90,5703.4874312,N,00952.3964610,E,2,10,0.8,-2.247,M,40.593,M,3.5,0123*6F
$GPVTG,314.28,T,-325.62,M,003.417,N,006.327,K,D*06
$GPGGA,100605.95,5703.4874664,N,00952.3964000,E,2,10,0.8,-2.241,M,40.593,M,3.5,0123*6F
$GPVTG,314.14,T,-325.76,M,003.401,N,006.299,K,D*0F
$GPGGA,100606.00,5703.4875019,N,00952.3963382,E,2,10,0.8,-2.238,M,40.593,M,3.5,0123*6D
$GPVTG,314.25,T,-325.65,M,003.420,N,006.333,K,D*0D
$GPGGA,100606.05,5703.4875381,N,00952.3962752,E,2,10,0.8,-2.234,M,40.593,M,2.0,0123*6A
$GPVTG,314.30,T,-325.60,M,003.452,N,006.394,K,D*04
$GPGGA,100606.10,5703.4875739,N,00952.3962113,E,2,10,0.8,-2.232,M,40.593,M,2.0,0123*6C
$GPVTG,314.36,T,-325.54,M,003.507,N,006.495,K,D*02
$GPGGA,100606.15,5703.4876109,N,00952.3961468,E,2,10,0.8,-2.235,M,40.593,M,2.0,0123*62
$GPVTG,314.91,T,-324.99,M,003.583,N,006.635,K,D*0B
$GPGGA,100606.20,5703.4876502,N,00952.3960812,E,2,10,0.8,-2.242,M,40.593,M,2.0,0123*6B
$GPVTG,315.92,T,-323.98,M,003.706,N,006.863,K,D*0D
$GPGGA,100606.25,5703.4876886,N,00952.3960132,E,2,10,0.8,-2.249,M,40.593,M,2.2,0123*6D
$GPVTG,315.79,T,-324.11,M,003.793,N,007.025,K,D*09
$GPGGA,100606.30,5703.4877273,N,00952.3959423,E,2,10,0.8,-2.257,M,40.593,M,2.2,0123*68
$GPVTG,315.32,T,-324.58,M,003.902,N,007.227,K,D*0D
$GPGGA,100606.35,5703.4877656,N,00952.3958691,E,2,10,0.8,-2.268,M,40.593,M,2.2,0123*68
$GPVTG,314.49,T,-325.41,M,003.998,N,007.405,K,D*0C
$GPGGA,100606.40,5703.4878032,N,00952.3957950,E,2,10,0.8,-2.278,M,40.593,M,2.2,0123*6D
$GPVTG,313.56,T,-326.34,M,004.049,N,007.499,K,D*03
$GPGGA,100606.45,5703.4878373,N,00952.3957184,E,2,10,0.8,-2.283,M,40.593,M,2.5,0123*6C
$GPVTG,311.65,T,-328.25,M,004.033,N,007.469,K,D*0D
$GPGGA,100606.50,5703.4878708,N,00952.3956418,E,2,10,0.8,-2.292,M,40.593,M,2.5,0123*61
$GPVTG,309.93,T,-329.97,M,004.002,N,007.412,K,D*0B
$GPGGA,100606.55,5703.4879020,N,00952.3955642,E,2,10,0.8,-2.300,M,40.593,M,2.5,0123*6C
$GPVTG,307.78,T,-332.12,M,003.937,N,007.291,K,D*02
$GPGGA,100606.60,5703.4879311,N,00952.3954850,E,2,10,0.8,-2.304,M,40.593,M,2.5,0123*63
$GPVTG,305.31,T,-334.59,M,003.870,N,007.168,K,D*03
$GPGGA,100606.65,5703.4879579,N,00952.3954066,E,2,10,0.8,-2.306,M,40.593,M,2.7,0123*63
$GPVTG,302.63,T,-337.27,M,003.756,N,006.956,K,D*06
$GPGGA,100606.70,5703.4879818,N,00952.3953281,E,2,10,0.8,-2.301,M,40.593,M,2.7,0123*66
$GPVTG,299.76,T,-340.14,M,003.635,N,006.733,K,D*08
$GPGGA,100606.75,5703.4880051,N,00952.3952488,E,2,10,0.8,-2.294,M,40.593,M,2.7,0123*63
$GPVTG,297.51,T,-342.39,M,003.561,N,006.595,K,D*02
$GPGGA,100606.80,5703.4880273,N,00952.3951705,E,2,10,0.8,-2.284,M,40.593,M,2.7,0123*6F
$GPVTG,295.86,T,-344.04,M,003.483,N,006.450,K,D*07
$GPGGA,100606.85,5703.4880488,N,00952.3950913,E,2,10,0.8,-2.266,M,40.593,M,3.0,0123*6A
$GPVTG,294.62,T,-345.28,M,003.438,N,006.368,K,D*0F
$GPGGA,100606.90,5703.4880687,N,00952.3950108,E,2,10,0.8,-2.257,M,40.593,M,3.0,0123*63
$GPVTG,293.05,T,-346.85,M,003.424,N,006.341,K,D*0B
$GPGGA,100606.95,5703.4880872,N,00952.3949293,E,2,10,0.8,-2.247,M,40.593,M,3.0,0123*6A
$GPVTG,291.35,T,-348.55,M,003.422,N,006.338,K,D*01
$GPGGA,100607.00,5703.4881047,N,00952.3948477,E,2,10,0.8,-2.233,M,40.593,M,3.0,0123*66
$GPVTG,289.94,T,-349.96,M,003.418,N,006.330,K,D*0C
$GPGGA,100607.05,5703.4881214,N,00952.3947653,E,2,10,0.8,-2.217,M,40.593,M,1.8,0123*60
$GPVTG,288.48,T,-351.42,M,003.410,N,006.316,K,D*00
$GPGGA,100607.10,5703.4881381,N,00952.3946828,E,2,10,0.8,-2.205,M,40.593,M,1.8,0123*69
$GPVTG,288.01,T,-351.89,M,003.422,N,006.337,K,D*08
$GPGGA,100607.15,5703.4881525,N,00952.3946007,E,2,10,0.8,-2.196,M,40.593,M,1.8,0123*68
$GPVTG,286.84,T,-353.06,M,003.400,N,006.297,K,D*05
$GPGGA,100607.20,5703.4881649,N,00952.3945184,E,2,10,0.8,-2.190,M,40.593,M,1.8,0123*68
$GPVTG,285.17,T,-354.73,M,003.373,N,006.247,K,D*07
$GPGGA,100607.25,5703.4881764,N,00952.3944354,E,2,10,0.8,-2.181,M,40.593,M,2.1,0123*67
$GPVTG,283.65,T,-356.25,M,003.360,N,006.223,K,D*05
$GPGGA,100607.30,5703.4881864,N,00952.3943533,E,2,10,0.8,-2.176,M,40.593,M,2.1,0123*64
$GPVTG,282.02,T,-357.88,M,003.327,N,006.161,K,D*05
$GPGGA,100607.35,5703.4881960,N,00952.3942696,E,2,10,0.8,-2.170,M,40.593,M,2.1,0123*6F
$GPVTG,280.77,T,-359.13,M,003.335,N,006.177,K,D*0D
$GPGGA,100607.40,5703.4882044,N,00952.3941859,E,2,10,0.8,-2.166,M,40.593,M,2.1,0123*68
$GPVTG,279.48,T,-360.42,M,003.336,N,006.178,K,D*05
$GPGGA,100607.45,5703.4882099,N,00952.3941031,E,2,10,0.8,-2.174,M,40.593,M,2.3,0123*6A
$GPVTG,277.28,T,-362.62,M,003.316,N,006.141,K,D*05
$GPGGA,100607.50,5703.4882149,N,00952.3940207,E,2,10,0.8,-2.177,M,40.593,M,2.3,0123*67
$GPVTG,275.61,T,-364.29,M,003.284,N,006.083,K,D*06
$GPGGA,100607.55,5703.4882195,N,00952.3939383,E,2,10,0.8,-2.181,M,40.593,M,2.3,0123*69
$GPVTG,274.44,T,-365.46,M,003.262,N,006.042,K,D*0D
$GPGGA,100607.60,5703.4882228,N,00952.3938576,E,2,10,0.8,-2.185,M,40.593,M,2.3,0123*63
$GPVTG,273.16,T,-366.74,M,003.213,N,005.951,K,D*01
$GPGGA,100607.65,5703.4882259,N,00952.3937767,E,2,10,0.8,-2.189,M,40.593,M,2.6,0123*64
$GPVTG,272.41,T,-367.49,M,003.185,N,005.899,K,D*04
$GPGGA,100607.70,5703.4882276,N,00952.3936963,E,2,10,0.8,-2.193,M,40.593,M,2.6,0123*6D
$GPVTG,271.29,T,-368.61,M,003.159,N,005.850,K,D*08
$GPGGA,100607.75,5703.4882290,N,00952.3936163,E,2,10,0.8,-2.195,M,40.593,M,2.6,0123*6E
$GPVTG,270.51,T,-369.39,M,003.138,N,005.812,K,D*0B
$GPGGA,100607.80,5703.4882291,N,00952.3935383,E,2,10,0.8,-2.198,M,40.593,M,2.6,0123*67
$GPVTG,269.39,T,-370.51,M,003.085,N,005.714,K,D*05
$GPGGA,100607.85,5703.4882281,N,00952.3934610,E,2,10,0.8,-2.206,M,40.593,M,2.8,0123*67
$GPVTG,268.11,T,-371.79,M,003.048,N,005.645,K,D*01
$GPGGA,100607.90,5703.4882274,N,00952.3933849,E,2,10,0.8,-2.206,M,40.593,M,2.8,0123*6C
$GPVTG,267.54,T,-372.36,M,002.999,N,005.554,K,D*00
$GPGGA,100607.95,5703.4882253,N,00952.3933085,E,2,10,0.8,-2.205,M,40.593,M,2.8,0123*67
$GPVTG,266.47,T,-373.44,M,002.979,N,005.517,K,D*0E
$GPGGA,100608.00,5703.4882219,N,00952.3932332,E,2,10,0.8,-2.205,M,40.593,M,2.8,0123*64
$GPVTG,265.03,T,-374.87,M,002.953,N,005.469,K,D*05
$GPGGA,100608.05,5703.4882179,N,00952.3931590,E,2,10,0.8,-2.199,M,40.593,M,1.5,0123*61
$GPVTG,263.38,T,-376.52,M,002.917,N,005.402,K,D*0C
$GPGGA,100608.10,5703.4882112,N,00952.3930862,E,2,10,0.8,-2.197,M,40.593,M,1.5,0123*67
$GPVTG,260.98,T,-378.92,M,002.888,N,005.348,K,D*09
$GPGGA,100608.15,5703.4882053,N,00952.3930150,E,2,10,0.8,-2.194,M,40.593,M,1.5,0123*6D
$GPVTG,259.85,T,-380.05,M,002.841,N,005.261,K,D*09
$GPGGA,100608.20,5703.4881990,N,00952.3929443,E,2,10,0.8,-2.191,M,40.593,M,1.5,0123*64
$GPVTG,259.04,T,-380.86,M,002.808,N,005.200,K,D*01
$GPGGA,100608.25,5703.4881906,N,00952.3928749,E,2,10,0.8,-2.186,M,40.593,M,1.8,0123*6D
$GPVTG,257.25,T,-382.65,M,002.781,N,005.151,K,D*0A
$GPGGA,100608.30,5703.4881812,N,00952.3928053,E,2,10,0.8,-2.182,M,40.593,M,1.8,0123*65
$GPVTG,255.53,T,-384.37,M,002.782,N,005.152,K,D*08
$GPGGA,100608.35,5703.4881707,N,00952.3927374,E,2,10,0.8,-2.179,M,40.593,M,1.8,0123*66
$GPVTG,253.72,T,-386.18,M,002.766,N,005.123,K,D*0E
$GPGGA,100608.40,5703.4881573,N,00952.3926712,E,2,10,0.8,-2.177,M,40.593,M,1.8,0123*6E
$GPVTG,250.54,T,-389.36,M,002.758,N,005.107,K,D*01
$GPGGA,100608.45,5703.4881431,N,00952.3926071,E,2,10,0.8,-2.173,M,40.593,M,2.0,0123*61
$GPVTG,247.78,T,-392.12,M,002.728,N,005.052,K,D*03
$GPGGA,100608.50,5703.4881288,N,00952.3925452,E,2,10,0.8,-2.171,M,40.593,M,2.0,0123*65
$GPVTG,245.68,T,-394.22,M,002.677,N,004.957,K,D*03
$GPGGA,100608.55,5703.4881134,N,00952.3924849,E,2,10,0.8,-2.171,M,40.593,M,2.0,0123*63
$GPVTG,243.50,T,-396.40,M,002.636,N,004.882,K,D*04
$GPGGA,100608.60,5703.4880962,N,00952.3924252,E,2,10,0.8,-2.173,M,40.593,M,2.0,0123*6D
$GPVTG,241.10,T,-398.80,M,002.634,N,004.878,K,D*07
$GPGGA,100608.65,5703.4880780,N,00952.3923658,E,2,10,0.8,-2.181,M,40.593,M,2.2,0123*6C
$GPVTG,239.33,T,-400.57,M,002.653,N,004.914,K,D*0F
$GPGGA,100608.70,5703.4880591,N,00952.3923089,E,2,10,0.8,-2.182,M,40.593,M,2.2,0123*63
$GPVTG,237.30,T,-402.60,M,002.641,N,004.890,K,D*0A
$GPGGA,100608.75,5703.4880398,N,00952.3922545,E,2,10,0.8,-2.184,M,40.593,M,2.2,0123*6B
$GPVTG,235.39,T,-404.51,M,002.596,N,004.807,K,D*02
$GPGGA,100608.80,5703.4880193,N,00952.3922007,E,2,10,0.8,-2.184,M,40.593,M,2.2,0123*6B
$GPVTG,233.57,T,-406.33,M,002.587,N,004.790,K,D*0B
$GPGGA,100608.85,5703.4879965,N,00952.3921482,E,2,10,0.8,-2.183,M,40.593,M,2.4,0123*62
$GPVTG,230.99,T,-408.91,M,002.606,N,004.826,K,D*04
$GPGGA,100608.90,5703.4879736,N,00952.3920978,E,2,10,0.8,-2.188,M,40.593,M,2.4,0123*6C
$GPVTG,228.88,T,-411.02,M,002.601,N,004.817,K,D*0A
$GPGGA,100608.95,5703.4879506,N,00952.3920492,E,2,10,0.8,-2.190,M,40.593,M,2.4,0123*68
$GPVTG,227.21,T,-412.69,M,002.572,N,004.763,K,D*03
$GPGGA,100609.00,5703.4879269,N,00952.3920019,E,2,10,0.8,-2.192,M,40.593,M,2.4,0123*6E
$GPVTG,225.68,T,-414.22,M,002.552,N,004.726,K,D*06
$GPGGA,100609.05,5703.4879027,N,00952.3919545,E,2,10,0.8,-2.197,M,40.593,M,2.7,0123*63
$GPVTG,224.45,T,-415.45,M,002.566,N,004.753,K,D*0D
$GPGGA,100609.10,5703.4878783,N,00952.3919082,E,2,10,0.8,-2.201,M,40.593,M,2.7,0123*6D
$GPVTG,223.78,T,-416.12,M,002.557,N,004.736,K,D*04
$GPGGA,100609.15,5703.4878527,N,00952.3918637,E,2,10,0.8,-2.204,M,40.593,M,2.7,0123*68
$GPVTG,222.47,T,-417.43,M,002.554,N,004.730,K,D*09
$GPGGA,100609.20,5703.4878263,N,00952.3918211,E,2,10,0.8,-2.207,M,40.593,M,2.7,0123*6A
$GPVTG,220.79,T,-419.11,M,002.545,N,004.714,K,D*09
$GPGGA,100609.25,5703.4877984,N,00952.3917788,E,2,10,0.8,-2.207,M,40.593,M,2.9,0123*66
$GPVTG,219.00,T,-420.90,M,002.580,N,004.778,K,D*0D
$GPGGA,100609.30,5703.4877698,N,00952.3917389,E,2,10,0.8,-2.208,M,40.593,M,2.9,0123*6A
$GPVTG,216.96,T,-422.94,M,002.595,N,004.806,K,D*09
$GPGGA,100609.35,5703.4877418,N,00952.3916997,E,2,10,0.8,-2.211,M,40.593,M,2.9,0123*69
$GPVTG,215.83,T,-424.07,M,002.581,N,004.780,K,D*06
$GPGGA,100609.40,5703.4877126,N,00952.3916615,E,2,10,0.8,-2.215,M,40.593,M,2.9,0123*62
$GPVTG,214.51,T,-425.39,M,002.592,N,004.801,K,D*00
$GPGGA,100609.45,5703.4876821,N,00952.3916253,E,2,10,0.8,-2.223,M,40.593,M,3.1,0123*62
$GPVTG,212.72,T,-427.18,M,002.615,N,004.844,K,D*0B
$GPGGA,100609.50,5703.4876516,N,00952.3915893,E,2,10,0.8,-2.223,M,40.593,M,3.1,0123*6A
$GPVTG,211.60,T,-428.30,M,002.628,N,004.867,K,D*01
$GPGGA,100609.55,5703.4876211,N,00952.3915553,E,2,10,0.8,-2.224,M,40.593,M,3.1,0123*69
$GPVTG,210.33,T,-429.57,M,002.619,N,004.850,K,D*00
$GPGGA,100609.60,5703.4875898,N,00952.3915228,E,2,10,0.8,-2.226,M,40.593,M,3.1,0123*6E
$GPVTG,208.86,T,-431.04,M,002.617,N,004.846,K,D*01
$GPGGA,100609.65,5703.4875584,N,00952.3914916,E,2,10,0.8,-2.222,M,40.593,M,3.3,0123*6A
$GPVTG,207.49,T,-432.41,M,002.606,N,004.827,K,D*08
$GPGGA,100609.70,5703.4875254,N,00952.3914626,E,2,10,0.8,-2.222,M,40.593,M,3.3,0123*68
$GPVTG,205.51,T,-434.39,M,002.625,N,004.862,K,D*0A
$GPGGA,100609.75,5703.4874927,N,00952.3914366,E,2,10,0.8,-2.220,M,40.593,M,3.3,0123*60
$GPVTG,203.21,T,-436.69,M,002.609,N,004.831,K,D*04
$GPGGA,100609.80,5703.4874602,N,00952.3914130,E,2,10,0.8,-2.219,M,40.593,M,3.3,0123*69
$GPVTG,201.03,T,-438.87,M,002.576,N,004.771,K,D*08
$GPGGA,100609.85,5703.4874271,N,00952.3913912,E,2,10,0.8,-2.216,M,40.593,M,3.5,0123*6A
$GPVTG,198.94,T,-440.96,M,002.559,N,004.739,K,D*0B
$GPGGA,100609.90,5703.4873929,N,00952.3913707,E,2,10,0.8,-2.216,M,40.593,M,3.5,0123*65
$GPVTG,197.09,T,-442.81,M,002.577,N,004.772,K,D*07
$GPGGA,100609.95,5703.4873585,N,00952.3913511,E,2,10,0.8,-2.212,M,40.593,M,3.5,0123*6B
$GPVTG,195.80,T,-444.10,M,002.595,N,004.806,K,D*0A
$GPGGA,100610.00,5703.4873243,N,00952.3913328,E,2,10,0.8,-2.208,M,40.593,M,3.5,0123*65
$GPVTG,194.72,T,-445.18,M,002.592,N,004.801,K,D*0F
$GPGGA,100610.05,5703.4872904,N,00952.3913159,E,2,10,0.8,-2.208,M,40.593,M,2.0,0123*69
$GPVTG,193.47,T,-446.43,M,002.590,N,004.797,K,D*01
$GPGGA,100610.10,5703.4872545,N,00952.3913008,E,2,10,0.8,-2.211,M,40.593,M,2.0,0123*69
$GPVTG,192.11,T,-447.79,M,002.627,N,004.865,K,D*06
$GPGGA,100610.15,5703.4872185,N,00952.3912884,E,2,10,0.8,-2.212,M,40.593,M,2.0,0123*6A
$GPVTG,190.32,T,-449.58,M,002.648,N,004.905,K,D*06
$GPGGA,100610.20,5703.4871822,N,00952.3912787,E,2,10,0.8,-2.209,M,40.593,M,2.0,0123*6D
$GPVTG,188.14,T,-451.76,M,002.661,N,004.928,K,D*0A
$GPGGA,100610.25,5703.4871449,N,00952.3912691,E,2,10,0.8,-2.208,M,40.593,M,2.2,0123*6C
$GPVTG,186.80,T,-453.10,M,002.691,N,004.984,K,D*02
$GPGGA,100610.30,5703.4871081,N,00952.3912590,E,2,10,0.8,-2.209,M,40.593,M,2.2,0123*6B
$GPVTG,186.48,T,-453.42,M,002.706,N,005.012,K,D*09
$GPGGA,100610.35,5703.4870702,N,00952.3912513,E,2,10,0.8,-2.214,M,40.593,M,2.2,0123*64
$GPVTG,185.51,T,-454.39,M,002.745,N,005.083,K,D*06
$GPGGA,100610.40,5703.4870323,N,00952.3912458,E,2,10,0.8,-2.216,M,40.593,M,2.2,0123*6D
$GPVTG,184.14,T,-455.76,M,002.764,N,005.119,K,D*0D
$GPGGA,100610.45,5703.4869939,N,00952.3912384,E,2,10,0.8,-2.212,M,40.593,M,2.5,0123*64
$GPVTG,184.00,T,-455.90,M,002.775,N,005.139,K,D*02
$GPGGA,100610.50,5703.4869553,N,00952.3912346,E,2,10,0.8,-2.213,M,40.593,M,2.5,0123*6F
$GPVTG,182.83,T,-457.07,M,002.800,N,005.185,K,D*09
$GPGGA,100610.55,5703.4869164,N,00952.3912349,E,2,10,0.8,-2.213,M,40.593,M,2.5,0123*65
$GPVTG,180.52,T,-459.38,M,002.823,N,005.228,K,D*00
$GPGGA,100610.60,5703.4868770,N,00952.3912373,E,2,10,0.8,-2.214,M,40.593,M,2.5,0123*6F
$GPVTG,178.30,T,-461.60,M,002.853,N,005.284,K,D*04
$GPGGA,100610.65,5703.4868372,N,00952.3912415,E,2,10,0.8,-2.218,M,40.593,M,2.7,0123*65
$GPVTG,176.44,T,-463.46,M,002.887,N,005.346,K,D*09
$GPGGA,100610.70,5703.4867978,N,00952.3912465,E,2,10,0.8,-2.221,M,40.593,M,2.7,0123*63
$GPVTG,175.08,T,-464.82,M,002.898,N,005.367,K,D*00
$GPGGA,100610.75,5703.4867578,N,00952.3912541,E,2,10,0.8,-2.223,M,40.593,M,2.7,0123*6F
$GPVTG,173.49,T,-466.41,M,002.923,N,005.413,K,D*0B
$GPGGA,100610.80,5703.4867176,N,00952.3912641,E,2,10,0.8,-2.219,M,40.593,M,2.7,0123*65
$GPVTG,171.79,T,-468.11,M,002.950,N,005.463,K,D*02
$GPGGA,100610.85,5703.4866770,N,00952.3912758,E,2,10,0.8,-2.223,M,40.593,M,3.0,0123*67
$GPVTG,170.41,T,-469.49,M,002.979,N,005.517,K,D*0D
$GPGGA,100610.90,5703.4866368,N,00952.3912882,E,2,10,0.8,-2.225,M,40.593,M,3.0,0123*60
$GPVTG,169.38,T,-470.52,M,002.988,N,005.534,K,D*06
$GPGGA,100610.95,5703.4865972,N,00952.3913016,E,2,10,0.8,-2.226,M,40.593,M,3.0,0123*60
$GPVTG,168.51,T,-471.39,M,002.971,N,005.503,K,D*06
$GPGGA,100611.00,5703.4865574,N,00952.3913172,E,2,10,0.8,-2.226,M,40.593,M,3.0,0123*64
$GPVTG,167.38,T,-472.52,M,002.972,N,005.503,K,D*0B
$GPGGA,100611.05,5703.4865182,N,00952.3913332,E,2,10,0.8,-2.219,M,40.593,M,1.8,0123*6C
$GPVTG,166.35,T,-473.55,M,002.973,N,005.506,K,D*05
$GPGGA,100611.10,5703.4864791,N,00952.3913535,E,2,10,0.8,-2.219,M,40.593,M,1.8,0123*6C
$GPVTG,164.40,T,-475.50,M,002.968,N,005.498,K,D*0A
$GPGGA,100611.15,5703.4864385,N,00952.3913758,E,2,10,0.8,-2.219,M,40.593,M,1.8,0123*61
$GPVTG,162.85,T,-477.05,M,003.020,N,005.592,K,D*08
$GPGGA,100611.20,5703.4863991,N,00952.3914004,E,2,10,0.8,-2.219,M,40.593,M,1.8,0123*66
$GPVTG,161.01,T,-478.89,M,003.030,N,005.612,K,D*06
$GPGGA,100611.25,5703.4863587,N,00952.3914264,E,2,10,0.8,-2.220,M,40.593,M,2.1,0123*6C
$GPVTG,159.78,T,-480.12,M,003.074,N,005.694,K,D*08
$GPGGA,100611.30,5703.4863184,N,00952.3914540,E,2,10,0.8,-2.220,M,40.593,M,2.1,0123*6E
$GPVTG,158.65,T,-481.25,M,003.109,N,005.759,K,D*0B
$GPGGA,100611.35,5703.4862775,N,00952.3914827,E,2,10,0.8,-2.221,M,40.593,M,2.1,0123*6F
$GPVTG,157.89,T,-482.01,M,003.157,N,005.847,K,D*08
$GPGGA,100611.40,5703.4862368,N,00952.3915141,E,2,10,0.8,-2.225,M,40.593,M,2.1,0123*69
$GPVTG,156.69,T,-483.21,M,003.197,N,005.921,K,D*09
$GPGGA,100611.45,5703.4861962,N,00952.3915478,E,2,10,0.8,-2.229,M,40.593,M,2.3,0123*6E
$GPVTG,155.36,T,-484.54,M,003.236,N,005.993,K,D*04
$GPGGA,100611.50,5703.4861554,N,00952.3915840,E,2,10,0.8,-2.235,M,40.593,M,2.3,0123*69
$GPVTG,153.89,T,-486.01,M,003.282,N,006.079,K,D*05
$GPGGA,100611.55,5703.4861143,N,00952.3916221,E,2,10,0.8,-2.239,M,40.593,M,2.3,0123*6C
$GPVTG,152.64,T,-487.26,M,003.334,N,006.175,K,D*02
$GPGGA,100611.60,5703.4860738,N,00952.3916621,E,2,10,0.8,-2.243,M,40.593,M,2.3,0123*68
$GPVTG,151.33,T,-488.57,M,003.365,N,006.232,K,D*0E
$GPGGA,100611.65,5703.4860335,N,00952.3917042,E,2,10,0.8,-2.244,M,40.593,M,2.6,0123*64
$GPVTG,149.97,T,-489.93,M,003.396,N,006.289,K,D*0C
$GPGGA,100611.70,5703.4859941,N,00952.3917486,E,2,10,0.8,-2.247,M,40.593,M,2.6,0123*6C
$GPVTG,148.42,T,-491.48,M,003.409,N,006.313,K,D*09
$GPGGA,100611.75,5703.4859557,N,00952.3917951,E,2,10,0.8,-2.249,M,40.593,M,2.6,0123*6B
$GPVTG,146.72,T,-493.18,M,003.407,N,006.310,K,D*0E
$GPGGA,100611.80,5703.4859179,N,00952.3918421,E,2,10,0.8,-2.251,M,40.593,M,2.6,0123*65
$GPVTG,145.39,T,-494.51,M,003.393,N,006.283,K,D*09
$GPGGA,100611.85,5703.4858793,N,00952.3918912,E,2,10,0.8,-2.258,M,40.593,M,2.8,0123*69
$GPVTG,144.24,T,-495.66,M,003.414,N,006.323,K,D*02
$GPGGA,100611.90,5703.4858406,N,00952.3919418,E,2,10,0.8,-2.257,M,40.593,M,2.8,0123*6B
$GPVTG,143.28,T,-496.62,M,003.441,N,006.373,K,D*0B
$GPGGA,100611.95,5703.4858028,N,00952.3919938,E,2,10,0.8,-2.257,M,40.593,M,2.8,0123*69
$GPVTG,142.23,T,-497.67,M,003.455,N,006.399,K,D*04
$GPGGA,100612.00,5703.4857655,N,00952.3920480,E,2,10,0.8,-2.255,M,40.593,M,2.8,0123*63
$GPVTG,141.09,T,-498.81,M,003.475,N,006.435,K,D*0B
$GPGGA,100612.05,5703.4857284,N,00952.3921007,E,2,10,0.8,-2.240,M,40.593,M,1.5,0123*6E
$GPVTG,140.16,T,-499.74,M,003.477,N,006.439,K,D*01
$GPGGA,100612.10,5703.4856922,N,00952.3921556,E,2,10,0.8,-2.235,M,40.593,M,1.5,0123*6F
$GPVTG,139.33,T,-500.57,M,003.473,N,006.431,K,D*04
$GPGGA,100612.15,5703.4856553,N,00952.3922112,E,2,10,0.8,-2.232,M,40.593,M,1.5,0123*60
$GPVTG,138.78,T,-501.12,M,003.483,N,006.451,K,D*03
$GPGGA,100612.20,5703.4856174,N,00952.3922693,E,2,10,0.8,-2.228,M,40.593,M,1.5,0123*62
$GPVTG,138.29,T,-501.61,M,003.524,N,006.526,K,D*0E
$GPGGA,100612.25,5703.4855796,N,00952.3923281,E,2,10,0.8,-2.225,M,40.593,M,1.8,0123*68
$GPVTG,137.80,T,-502.10,M,003.550,N,006.575,K,D*02
$GPGGA,100612.30,5703.4855426,N,00952.3923865,E,2,10,0.8,-2.221,M,40.593,M,1.8,0123*60
$GPVTG,137.44,T,-502.46,M,003.564,N,006.601,K,D*0E
$GPGGA,100612.35,5703.4855052,N,00952.3924460,E,2,10,0.8,-2.217,M,40.593,M,1.8,0123*69
$GPVTG,137.15,T,-502.75,M,003.584,N,006.637,K,D*01
$GPGGA,100612.40,5703.4854681,N,00952.3925070,E,2,10,0.8,-2.214,M,40.593,M,1.8,0123*65
$GPVTG,136.77,T,-503.13,M,003.605,N,006.677,K,D*0B
