4,M,40.593,M,2.8,0123*65
$GPVTG,031.74,T,-608.16,M,004.913,N,009.100,K,D*04
$GPGGA,100332.00,5703.4555959,N,00952.3607152,E,2,10,0.8,-2.068,M,40.593,M,2.8,0123*64
$GPVTG,029.23,T,-610.67,M,004.888,N,009.052,K,D*05
$GPGGA,100332.05,5703.4556541,N,00952.3607608,E,2,10,0.8,-2.072,M,40.593,M,1.5,0123*6A
$GPVTG,025.34,T,-614.56,M,004.766,N,008.827,K,D*0D
$GPGGA,100332.10,5703.4557100,N,00952.3608085,E,2,10,0.8,-2.066,M,40.593,M,1.5,0123*67
$GPVTG,023.45,T,-616.45,M,004.625,N,008.565,K,D*00
$GPGGA,100332.15,5703.4557668,N,00952.3608550,E,2,10,0.8,-2.059,M,40.593,M,1.5,0123*6A
$GPVTG,022.08,T,-617.82,M,004.541,N,008.410,K,D*00
$GPGGA,100332.20,5703.4558228,N,00952.3608997,E,2,10,0.8,-2.050,M,40.593,M,1.5,0123*6D
$GPVTG,021.23,T,-618.67,M,004.456,N,008.253,K,D*08
$GPGGA,100332.25,5703.4558796,N,00952.3609428,E,2,10,0.8,-2.040,M,40.593,M,1.8,0123*6C
$GPVTG,020.55,T,-619.35,M,004.379,N,008.110,K,D*00
$GPGGA,100332.30,5703.4559374,N,00952.3609847,E,2,10,0.8,-2.029,M,40.593,M,1.8,0123*6B
$GPVTG,020.03,T,-619.87,M,004.392,N,008.134,K,D*09
$GPGGA,100332.35,5703.4559959,N,00952.3610272,E,2,10,0.8,-2.019,M,40.593,M,1.8,0123*6C
$GPVTG,020.01,T,-619.89,M,004.436,N,008.216,K,D*0F
$GPGGA,100332.40,5703.4560544,N,00952.3610682,E,2,10,0.8,-2.013,M,40.593,M,1.8,0123*65
$GPVTG,019.83,T,-620.07,M,004.465,N,008.269,K,D*0D
$GPGGA,100332.45,5703.4561141,N,00952.3611098,E,2,10,0.8,-2.005,M,40.593,M,2.0,0123*60
$GPVTG,019.88,T,-620.02,M,004.528,N,008.386,K,D*0B
$GPGGA,100332.50,5703.4561740,N,00952.3611514,E,2,10,0.8,-2.005,M,40.593,M,2.0,0123*62
$GPVTG,019.97,T,-619.93,M,004.581,N,008.485,K,D*00
$GPGGA,100332.55,5703.4562345,N,00952.3611902,E,2,10,0.8,-2.009,M,40.593,M,2.0,0123*62
$GPVTG,019.36,T,-620.54,M,004.616,N,008.549,K,D*06
$GPGGA,100332.60,5703.4562975,N,00952.3612306,E,2,10,0.8,-2.015,M,40.593,M,2.0,0123*6D
$GPVTG,019.07,T,-620.83,M,004.725,N,008.750,K,D*05
$GPGGA,100332.65,5703.4563611,N,00952.3612706,E,2,10,0.8,-2.026,M,40.593,M,2.2,0123*62
$GPVTG,018.76,T,-621.14,M,004.820,N,008.927,K,D*09
$GPGGA,100332.70,5703.4564242,N,00952.3613080,E,2,10,0.8,-2.039,M,40.593,M,2.2,0123*65
$GPVTG,018.06,T,-621.84,M,004.845,N,008.973,K,D*05
$GPGGA,100332.75,5703.4564875,N,00952.3613430,E,2,10,0.8,-2.052,M,40.593,M,2.2,0123*6C
$GPVTG,017.04,T,-622.86,M,004.844,N,008.971,K,D*0A
$GPGGA,100332.80,5703.4565514,N,00952.3613765,E,2,10,0.8,-2.066,M,40.593,M,2.2,0123*69
$GPVTG,016.05,T,-623.85,M,004.852,N,008.986,K,D*07
$GPGGA,100332.85,5703.4566152,N,00952.3614047,E,2,10,0.8,-2.076,M,40.593,M,2.4,0123*6E
$GPVTG,014.41,T,-625.49,M,004.827,N,008.940,K,D*0B
$GPGGA,100332.90,5703.4566785,N,00952.3614279,E,2,10,0.8,-2.083,M,40.593,M,2.4,0123*63
$GPVTG,012.17,T,-627.73,M,004.767,N,008.829,K,D*00
$GPGGA,100332.95,5703.4567411,N,00952.3614501,E,2,10,0.8,-2.088,M,40.593,M,2.4,0123*6A
$GPVTG,010.54,T,-629.36,M,004.701,N,008.707,K,D*09
$GPGGA,100333.00,5703.4568019,N,00952.3614697,E,2,10,0.8,-2.090,M,40.593,M,2.4,0123*61
$GPVTG,009.17,T,-630.73,M,004.590,N,008.500,K,D*00
$GPGGA,100333.05,5703.4568612,N,00952.3614825,E,2,10,0.8,-2.098,M,40.593,M,2.7,0123*65
$GPVTG,007.00,T,-632.90,M,004.485,N,008.306,K,D*02
$GPGGA,100333.10,5703.4569209,N,00952.3614939,E,2,10,0.8,-2.098,M,40.593,M,2.7,0123*62
$GPVTG,005.19,T,-634.71,M,004.383,N,008.118,K,D*0D
$GPGGA,100333.15,5703.4569804,N,00952.3615036,E,2,10,0.8,-2.096,M,40.593,M,2.7,0123*69
$GPVTG,003.79,T,-636.11,M,004.315,N,007.991,K,D*00
$GPGGA,100333.20,5703.4570403,N,00952.3615110,E,2,10,0.8,-2.089,M,40.593,M,2.7,0123*67
$GPVTG,002.59,T,-637.31,M,004.283,N,007.933,K,D*06
$GPGGA,100333.25,5703.4570990,N,00952.3615155,E,2,10,0.8,-2.086,M,40.593,M,2.9,0123*65
$GPVTG,001.35,T,-638.55,M,004.247,N,007.866,K,D*0B
$GPGGA,100333.30,5703.4571584,N,00952.3615194,E,2,10,0.8,-2.077,M,40.593,M,2.9,0123*6A
$GPVTG,000.54,T,-639.36,M,004.233,N,007.840,K,D*0E
$GPGGA,100333.35,5703.4572173,N,00952.3615223,E,2,10,0.8,-2.068,M,40.593,M,2.9,0123*61
$GPVTG,000.04,T,-639.86,M,004.216,N,007.808,K,D*0B
$GPGGA,100333.40,5703.4572764,N,00952.3615255,E,2,10,0.8,-2.057,M,40.593,M,2.9,0123*6E
$GPVTG,000.04,T,-639.86,M,004.215,N,007.805,K,D*05
$GPGGA,100333.45,5703.4573364,N,00952.3615269,E,2,10,0.8,-2.052,M,40.593,M,3.1,0123*6D
$GPVTG,359.33,T,-280.57,M,004.207,N,007.792,K,D*06
$GPGGA,100333.50,5703.4573946,N,00952.3615247,E,2,10,0.8,-2.041,M,40.593,M,3.1,0123*6D
$GPVTG,358.45,T,-281.45,M,004.190,N,007.760,K,D*04
$GPGGA,100333.55,5703.4574535,N,00952.3615217,E,2,10,0.8,-2.028,M,40.593,M,3.1,0123*6D
$GPVTG,357.80,T,-282.10,M,004.203,N,007.785,K,D*03
$GPGGA,100333.60,5703.4575130,N,00952.3615169,E,2,10,0.8,-2.016,M,40.593,M,3.1,0123*6C
$GPVTG,357.04,T,-282.86,M,004.241,N,007.854,K,D*05
$GPGGA,100333.65,5703.4575730,N,00952.3615115,E,2,10,0.8,-2.004,M,40.593,M,3.3,0123*65
$GPVTG,356.61,T,-283.29,M,004.279,N,007.924,K,D*0E
$GPGGA,100333.70,5703.4576326,N,00952.3615065,E,2,10,0.8,-2.001,M,40.593,M,3.3,0123*62
$GPVTG,356.52,T,-283.38,M,004.298,N,007.960,K,D*01
$GPGGA,100333.75,5703.4576939,N,00952.3615027,E,2,10,0.8,-2.003,M,40.593,M,3.3,0123*67
$GPVTG,356.95,T,-282.95,M,004.365,N,008.084,K,D*03
$GPGGA,100333.80,5703.4577571,N,00952.3614986,E,2,10,0.8,-2.008,M,40.593,M,3.3,0123*64
$GPVTG,357.31,T,-282.59,M,004.470,N,008.278,K,D*0E
$GPGGA,100333.85,5703.4578204,N,00952.3614905,E,2,10,0.8,-2.014,M,40.593,M,3.5,0123*6B
$GPVTG,356.57,T,-283.33,M,004.554,N,008.435,K,D*0A
$GPGGA,100333.90,5703.4578834,N,00952.3614802,E,2,10,0.8,-2.025,M,40.593,M,3.5,0123*62
$GPVTG,355.51,T,-284.39,M,004.598,N,008.516,K,D*02
$GPGGA,100333.95,5703.4579478,N,00952.3614694,E,2,10,0.8,-2.041,M,40.593,M,3.5,0123*61
$GPVTG,354.79,T,-285.11,M,004.669,N,008.646,K,D*09
$GPGGA,100334.00,5703.4580127,N,00952.3614541,E,2,10,0.8,-2.056,M,40.593,M,3.5,0123*6E
$GPVTG,353.32,T,-286.58,M,004.736,N,008.772,K,D*02
$GPGGA,100334.05,5703.4580751,N,00952.3614333,E,2,10,0.8,-2.076,M,40.593,M,2.0,0123*69
$GPVTG,351.14,T,-288.76,M,004.733,N,008.766,K,D*06
$GPGGA,100334.10,5703.4581356,N,00952.3614077,E,2,10,0.8,-2.089,M,40.593,M,2.0,0123*6C
$GPVTG,348.26,T,-291.64,M,004.661,N,008.632,K,D*02
$GPGGA,100334.15,5703.4581915,N,00952.3613788,E,2,10,0.8,-2.095,M,40.593,M,2.0,0123*69
$GPVTG,345.23,T,-294.67,M,004.474,N,008.286,K,D*01
$GPGGA,100334.20,5703.4582446,N,00952.3613460,E,2,10,0.8,-2.098,M,40.593,M,2.0,0123*6F
$GPVTG,341.92,T,-297.98,M,004.276,N,007.919,K,D*0A
$GPGGA,100334.25,5703.4582960,N,00952.3613115,E,2,10,0.8,-2.095,M,40.593,M,2.2,0123*6B
$GPVTG,339.14,T,-300.76,M,004.099,N,007.591,K,D*0B
$GPGGA,100334.30,5703.4583448,N,00952.3612759,E,2,10,0.8,-2.085,M,40.593,M,2.2,0123*67
$GPVTG,336.84,T,-303.06,M,003.908,N,007.237,K,D*04
$GPGGA,100334.35,5703.4583937,N,00952.3612391,E,2,10,0.8,-2.074,M,40.593,M,2.2,0123*69
$GPVTG,335.27,T,-304.63,M,003.791,N,007.020,K,D*00
$GPGGA,100334.40,5703.4584424,N,00952.3612018,E,2,10,0.8,-2.061,M,40.593,M,2.2,0123*65
$GPVTG,334.47,T,-305.44,M,003.722,N,006.894,K,D*0D
$GPGGA,100334.45,5703.4584890,N,00952.3611635,E,2,10,0.8,-2.045,M,40.593,M,2.5,0123*68
$GPVTG,333.55,T,-306.35,M,003.632,N,006.727,K,D*0B
$GPGGA,100334.50,5703.4585360,N,00952.3611246,E,2,10,0.8,-2.033,M,40.593,M,2.5,0123*68
$GPVTG,333.24,T,-306.66,M,003.600,N,006.666,K,D*0E
$GPGGA,100334.55,5703.4585839,N,00952.3610855,E,2,10,0.8,-2.020,M,40.593,M,2.5,0123*61
$GPVTG,333.53,T,-306.37,M,003.620,N,006.704,K,D*0D
$GPGGA,100334.60,5703.4586334,N,00952.3610451,E,2,10,0.8,-2.010,M,40.593,M,2.5,0123*69
$GPVTG,333.98,T,-305.92,M,003.705,N,006.861,K,D*0C
$GPGGA,100334.65,5703.4586833,N,00952.3610051,E,2,10,0.8,-1.996,M,40.593,M,2.7,0123*62
$GPVTG,334.62,T,-305.28,M,003.772,N,006.986,K,D*07
$GPGGA,100334.70,5703.4587349,N,00952.3609656,E,2,10,0.8,-1.991,M,40.593,M,2.7,0123*6F
$GPVTG,335.71,T,-304.19,M,003.883,N,007.191,K,D*09
$GPGGA,100334.75,5703.4587859,N,00952.3609244,E,2,10,0.8,-1.988,M,40.593,M,2.7,0123*6F
$GPVTG,335.94,T,-303.96,M,003.963,N,007.339,K,D*0D
$GPGGA,100334.80,5703.4588375,N,00952.3608823,E,2,10,0.8,-1.989,M,40.593,M,2.7,0123*64
$GPVTG,335.97,T,-303.93,M,004.040,N,007.483,K,D*02
$GPGGA,100334.85,5703.4588901,N,00952.3608382,E,2,10,0.8,-1.990,M,40.593,M,3.0,0123*66
$GPVTG,335.71,T,-304.19,M,004.125,N,007.639,K,D*0E
$GPGGA,100334.90,5703.4589434,N,00952.3607949,E,2,10,0.8,-1.998,M,40.593,M,3.0,0123*62
$GPVTG,335.87,T,-304.03,M,004.200,N,007.778,K,D*0C
$GPGGA,100334.95,5703.4589958,N,00952.3607497,E,2,10,0.8,-2.010,M,40.593,M,3.0,0123*64
$GPVTG,335.36,T,-304.54,M,004.239,N,007.850,K,D*0B
$GPGGA,100335.00,5703.4590483,N,00952.3607004,E,2,10,0.8,-2.028,M,40.593,M,3.0,0123*6F
$GPVTG,334.02,T,-305.88,M,004.291,N,007.947,K,D*08
$GPGGA,100335.05,5703.4590993,N,00952.3606478,E,2,10,0.8,-2.056,M,40.593,M,1.8,0123*6B
$GPVTG,332.25,T,-307.65,M,004.326,N,008.012,K,D*01
$GPGGA,100335.10,5703.4591493,N,00952.3605930,E,2,10,0.8,-2.073,M,40.593,M,1.8,0123*66
$GPVTG,330.26,T,-309.64,M,004.318,N,007.996,K,D*08
$GPGGA,100335.15,5703.4591963,N,00952.3605363,E,2,10,0.8,-2.089,M,40.593,M,1.8,0123*68
$GPVTG,327.86,T,-312.04,M,004.235,N,007.843,K,D*0F
$GPGGA,100335.20,5703.4592416,N,00952.3604785,E,2,10,0.8,-2.103,M,40.593,M,1.8,0123*6C
$GPVTG,325.66,T,-314.24,M,004.133,N,007.654,K,D*0A
$GPGGA,100335.25,5703.4592845,N,00952.3604212,E,2,10,0.8,-2.115,M,40.593,M,2.1,0123*65
$GPVTG,323.78,T,-316.12,M,003.992,N,007.394,K,D*09
$GPGGA,100335.30,5703.4593235,N,00952.3603613,E,2,10,0.8,-2.117,M,40.593,M,2.1,0123*6D
$GPVTG,320.89,T,-319.01,M,003.821,N,007.077,K,D*0E
$GPGGA,100335.35,5703.4593610,N,00952.3603020,E,2,10,0.8,-2.117,M,40.593,M,2.1,0123*6D
$GPVTG,318.64,T,-321.26,M,003.659,N,006.776,K,D*0E
$GPGGA,100335.40,5703.4593978,N,00952.3602417,E,2,10,0.8,-2.111,M,40.593,M,2.1,0123*69
$GPVTG,316.76,T,-323.14,M,003.551,N,006.577,K,D*08
$GPGGA,100335.45,5703.4594358,N,00952.3601812,E,2,10,0.8,-2.110,M,40.593,M,2.3,0123*6A
$GPVTG,316.14,T,-323.76,M,003.527,N,006.531,K,D*0B
$GPGGA,100335.50,5703.4594721,N,00952.3601186,E,2,10,0.8,-2.102,M,40.593,M,2.3,0123*63
$GPVTG,315.00,T,-324.90,M,003.506,N,006.492,K,D*09
$GPGGA,100335.55,5703.4595085,N,00952.3600542,E,2,10,0.8,-2.095,M,40.593,M,2.3,0123*6C
$GPVTG,314.14,T,-325.76,M,003.528,N,006.533,K,D*02
$GPGGA,100335.60,5703.4595451,N,00952.3599890,E,2,10,0.8,-2.088,M,40.593,M,2.3,0123*6A
$GPVTG,313.77,T,-326.13,M,003.569,N,006.610,K,D*07
$GPGGA,100335.65,5703.4595831,N,00952.3599225,E,2,10,0.8,-2.081,M,40.593,M,2.6,0123*6D
$GPVTG,313.92,T,-325.98,M,003.648,N,006.756,K,D*0F
$GPGGA,100335.70,5703.4596209,N,00952.3598554,E,2,10,0.8,-2.076,M,40.593,M,2.6,0123*63
$GPVTG,314.17,T,-325.73,M,003.715,N,006.881,K,D*0C
$GPGGA,100335.75,5703.4596576,N,00952.3597865,E,2,10,0.8,-2.073,M,40.593,M,2.6,0123*6C
$GPVTG,313.77,T,-326.13,M,003.763,N,006.970,K,D*06
$GPGGA,100335.80,5703.4596954,N,00952.3597156,E,2,10,0.8,-2.071,M,40.593,M,2.6,0123*61
$GPVTG,313.57,T,-326.33,M,003.847,N,007.125,K,D*06
$GPGGA,100335.85,5703.4597334,N,00952.3596415,E,2,10,0.8,-2.061,M,40.593,M,2.8,0123*65
$GPVTG,312.95,T,-326.95,M,003.942,N,007.301,K,D*05
$GPGGA,100335.90,5703.4597713,N,00952.3595673,E,2,10,0.8,-2.062,M,40.593,M,2.8,0123*62
$GPVTG,312.65,T,-327.25,M,004.010,N,007.426,K,D*0B
$GPGGA,100335.95,5703.4598079,N,00952.3594911,E,2,10,0.8,-2.066,M,40.593,M,2.8,0123*6D
$GPVTG,311.72,T,-328.18,M,004.045,N,007.492,K,D*00
$GPGGA,100336.00,5703.4598427,N,00952.3594153,E,2,10,0.8,-2.069,M,40.593,M,2.8,0123*6C
$GPVTG,310.62,T,-329.28,M,004.016,N,007.437,K,D*0B
$GPGGA,100336.05,5703.4598739,N,00952.3593360,E,2,10,0.8,-2.065,M,40.593,M,1.5,0123*62
$GPVTG,308.41,T,-331.49,M,003.963,N,007.339,K,D*08
$GPGGA,100336.10,5703.4599021,N,00952.3592572,E,2,10,0.8,-2.065,M,40.593,M,1.5,0123*6D
$GPVTG,305.40,T,-334.50,M,003.856,N,007.141,K,D*03
$GPGGA,100336.15,5703.4599276,N,00952.3591768,E,2,10,0.8,-2.064,M,40.593,M,1.5,0123*63
$GPVTG,301.96,T,-337.94,M,003.762,N,006.967,K,D*02
$GPGGA,100336.20,5703.4599522,N,00952.3590950,E,2,10,0.8,-2.059,M,40.593,M,1.5,0123*69
$GPVTG,299.06,T,-340.84,M,003.707,N,006.866,K,D*09
$GPGGA,100336.25,5703.4599753,N,00952.3590155,E,2,10,0.8,-2.059,M,40.593,M,1.8,0123*68
$GPVTG,297.21,T,-342.69,M,003.620,N,006.704,K,D*0C
$GPGGA,100336.30,5703.4599980,N,00952.3589362,E,2,10,0.8,-2.051,M,40.593,M,1.8,0123*6A
$GPVTG,295.70,T,-344.20,M,003.544,N,006.564,K,D*04
$GPGGA,100336.35,5703.4600184,N,00952.3588566,E,2,10,0.8,-2.045,M,40.593,M,1.8,0123*66
$GPVTG,293.88,T,-346.02,M,003.469,N,006.425,K,D*0D
$GPGGA,100336.40,5703.4600368,N,00952.3587755,E,2,10,0.8,-2.037,M,40.593,M,1.8,0123*6C
$GPVTG,291.72,T,-348.18,M,003.430,N,006.351,K,D*07
$GPGGA,100336.45,5703.4600544,N,00952.3586946,E,2,10,0.8,-2.030,M,40.593,M,2.0,0123*60
$GPVTG,290.12,T,-349.78,M,003.403,N,006.302,K,D*01
$GPGGA,100336.50,5703.4600716,N,00952.3586141,E,2,10,0.8,-2.023,M,40.593,M,2.0,0123*6C
$GPVTG,289.12,T,-350.78,M,003.370,N,006.241,K,D*04
$GPGGA,100336.55,5703.4600877,N,00952.3585331,E,2,10,0.8,-2.018,M,40.593,M,2.0,0123*6F
$GPVTG,288.12,T,-351.78,M,003.355,N,006.214,K,D*03
$GPGGA,100336.60,5703.4601035,N,00952.3584532,E,2,10,0.8,-2.012,M,40.593,M,2.0,0123*68
$GPVTG,287.66,T,-352.24,M,003.323,N,006.155,K,D*02
$GPGGA,100336.65,5703.4601197,N,00952.3583722,E,2,10,0.8,-2.002,M,40.593,M,2.2,0123*63
$GPVTG,287.70,T,-352.20,M,003.329,N,006.166,K,D*0B
$GPGGA,100336.70,5703.4601349,N,00952.3582933,E,2,10,0.8,-1.997,M,40.593,M,2.2,0123*6F
$GPVTG,287.70,T,-352.20,M,003.289,N,006.092,K,D*0A
$GPGGA,100336.75,5703.4601482,N,00952.3582127,E,2,10,0.8,-1.989,M,40.593,M,2.2,0123*68
$GPVTG,286.63,T,-353.27,M,003.282,N,006.079,K,D*01
$GPGGA,100336.80,5703.4601601,N,00952.3581322,E,2,10,0.8,-1.984,M,40.593,M,2.2,0123*62
$GPVTG,285.26,T,-354.64,M,003.267,N,006.051,K,D*02
$GPGGA,100336.85,5703.4601723,N,00952.3580514,E,2,10,0.8,-1.984,M,40.593,M,2.4,0123*62
$GPVTG,284.52,T,-355.38,M,003.272,N,006.059,K,D*04
$GPGGA,100336.90,5703.4601836,N,00952.3579707,E,2,10,0.8,-1.981,M,40.593,M,2.4,0123*6E
$GPVTG,283.74,T,-356.16,M,003.265,N,006.047,K,D*01
$GPGGA,100336.95,5703.4601935,N,00952.3578904,E,2,10,0.8,-1.983,M,40.593,M,2.4,0123*67
$GPVTG,282.54,T,-357.36,M,003.244,N,006.008,K,D*09
$GPGGA,100337.00,5703.4602038,N,00952.3578107,E,2,10,0.8,-1.982,M,40.593,M,2.4,0123*67
$GPVTG,282.16,T,-357.74,M,003.223,N,005.968,K,D*04
$GPGGA,100337.05,5703.4602120,N,00952.3577302,E,2,10,0.8,-1.984,M,40.593,M,2.7,0123*67
$GPVTG,281.79,T,-358.11,M,003.187,N,005.903,K,D*02
$GPGGA,100337.10,5703.4602210,N,00952.3576526,E,2,10,0.8,-1.987,M,40.593,M,2.7,0123*61
$GPVTG,281.28,T,-358.62,M,003.138,N,005.812,K,D*07
$GPGGA,100337.15,5703.4602286,N,00952.3575743,E,2,10,0.8,-1.992,M,40.593,M,2.7,0123*6D
$GPVTG,280.20,T,-359.70,M,003.114,N,005.767,K,D*0F
$GPGGA,100337.20,5703.4602358,N,00952.3574957,E,2,10,0.8,-1.995,M,40.593,M,2.7,0123*64
$GPVTG,279.28,T,-360.62,M,003.105,N,005.751,K,D*0D
$GPGGA,100337.25,5703.4602420,N,00952.3574185,E,2,10,0.8,-2.000,M,40.593,M,2.9,0123*66
$GPVTG,278.27,T,-361.63,M,003.075,N,005.695,K,D*0C
$GPGGA,100337.30,5703.4602484,N,00952.3573411,E,2,10,0.8,-2.006,M,40.593,M,2.9,0123*65
$GPVTG,277.72,T,-362.18,M,003.059,N,005.665,K,D*0D
$GPGGA,100337.35,5703.4602543,N,00952.3572650,E,2,10,0.8,-2.013,M,40.593,M,2.9,0123*68
$GPVTG,277.23,T,-362.67,M,003.025,N,005.602,K,D*0B
$GPGGA,100337.40,5703.4602589,N,00952.3571876,E,2,10,0.8,-2.018,M,40.593,M,2.9,0123*6E
$GPVTG,276.17,T,-363.73,M,003.026,N,005.604,K,D*0C
$GPGGA,100337.45,5703.4602637,N,00952.3571104,E,2,10,0.8,-2.030,M,40.593,M,3.1,0123*62
$GPVTG,275.55,T,-364.35,M,003.035,N,005.621,K,D*09
$GPGGA,100337.50,5703.4602659,N,00952.3570332,E,2,10,0.8,-2.035,M,40.593,M,3.1,0123*6D
$GPVTG,273.83,T,-366.07,M,003.030,N,005.611,K,D*01
$GPGGA,100337.55,5703.4602679,N,00952.3569558,E,2,10,0.8,-2.041,M,40.593,M,3.1,0123*6B
$GPVTG,272.58,T,-367.32,M,003.034,N,005.619,K,D*0D
$GPGGA,100337.60,5703.4602688,N,00952.3568787,E,2,10,0.8,-2.052,M,40.593,M,3.1,0123*60
$GPVTG,271.17,T,-368.73,M,003.031,N,005.613,K,D*00
$GPGGA,100337.65,5703.4602689,N,00952.3568023,E,2,10,0.8,-2.071,M,40.593,M,3.3,0123*6E
$GPVTG,269.59,T,-370.31,M,003.033,N,005.617,K,D*0A
$GPGGA,100337.70,5703.4602686,N,00952.3567265,E,2,10,0.8,-2.079,M,40.593,M,3.3,0123*62
$GPVTG,268.61,T,-371.29,M,003.005,N,005.566,K,D*08
$GPGGA,100337.75,5703.4602670,N,00952.3566493,E,2,10,0.8,-2.087,M,40.593,M,3.3,0123*61
$GPVTG,267.35,T,-372.55,M,003.020,N,005.593,K,D*03
$GPGGA,100337.80,5703.4602641,N,00952.3565732,E,2,10,0.8,-2.096,M,40.593,M,3.3,0123*62
$GPVTG,265.84,T,-374.06,M,003.009,N,005.573,K,D*0E
$GPGGA,100337.85,5703.4602607,N,00952.3564956,E,2,10,0.8,-2.101,M,40.593,M,3.5,0123*61
$GPVTG,264.67,T,-375.23,M,003.034,N,005.619,K,D*05
$GPGGA,100337.90,5703.4602568,N,00952.3564171,E,2,10,0.8,-2.109,M,40.593,M,3.5,0123*6A
$GPVTG,263.80,T,-376.10,M,003.076,N,005.696,K,D*09
$GPGGA,100337.95,5703.4602513,N,00952.3563387,E,2,10,0.8,-2.114,M,40.593,M,3.5,0123*63
$GPVTG,262.42,T,-377.48,M,003.105,N,005.751,K,D*05
$GPGGA,100338.00,5703.4602445,N,00952.3562613,E,2,10,0.8,-2.118,M,40.593,M,3.5,0123*67
$GPVTG,260.77,T,-379.13,M,003.109,N,005.758,K,D*04
$GPGGA,100338.05,5703.4602355,N,00952.3561825,E,2,10,0.8,-2.123,M,40.593,M,2.0,0123*60
$GPVTG,258.95,T,-380.95,M,003.131,N,005.799,K,D*0D
$GPGGA,100338.10,5703.4602259,N,00952.3561058,E,2,10,0.8,-2.130,M,40.593,M,2.0,0123*69
$GPVTG,257.01,T,-382.89,M,003.129,N,005.795,K,D*05
$GPGGA,100338.15,5703.4602149,N,00952.3560294,E,2,10,0.8,-2.136,M,40.593,M,2.0,0123*6B
$GPVTG,255.02,T,-384.88,M,003.128,N,005.794,K,D*03
$GPGGA,100338.20,5703.4602036,N,00952.3559521,E,2,10,0.8,-2.140,M,40.593,M,2.0,0123*66
$GPVTG,253.81,T,-386.09,M,003.151,N,005.836,K,D*0C
$GPGGA,100338.25,5703.4601921,N,00952.3558739,E,2,10,0.8,-2.141,M,40.593,M,2.2,0123*66
$GPVTG,253.22,T,-386.68,M,003.186,N,005.900,K,D*0C
$GPGGA,100338.30,5703.4601796,N,00952.3557950,E,2,10,0.8,-2.141,M,40.593,M,2.2,0123*6E
$GPVTG,252.48,T,-387.42,M,003.228,N,005.978,K,D*00
$GPGGA,100338.35,5703.4601654,N,00952.3557176,E,2,10,0.8,-2.142,M,40.593,M,2.2,0123*6B
$GPVTG,251.15,T,-388.75,M,003.242,N,006.004,K,D*0D
$GPGGA,100338.40,5703.4601503,N,00952.3556404,E,2,10,0.8,-2.140,M,40.593,M,2.2,0123*6B
$GPVTG,249.80,T,-390.10,M,003.253,N,006.024,K,D*00
$GPGGA,100338.45,5703.4601347,N,00952.3555643,E,2,10,0.8,-2.135,M,40.593,M,2.5,0123*6F
$GPVTG,248.67,T,-391.23,M,003.241,N,006.002,K,D*0E
$GPGGA,100338.50,5703.4601181,N,00952.3554887,E,2,10,0.8,-2.135,M,40.593,M,2.5,0123*64
$GPVTG,247.44,T,-392.46,M,003.235,N,005.991,K,D*03
$GPGGA,100338.55,5703.4600993,N,00952.3554140,E,2,10,0.8,-2.132,M,40.593,M,2.5,0123*6E
$GPVTG,245.47,T,-394.43,M,003.243,N,006.005,K,D*07
$GPGGA,100338.60,5703.4600797,N,00952.3553384,E,2,10,0.8,-2.128,M,40.593,M,2.5,0123*64
$GPVTG,244.02,T,-395.88,M,003.278,N,006.071,K,D*0A
$GPGGA,100338.65,5703.4600591,N,00952.3552655,E,2,10,0.8,-2.119,M,40.593,M,2.7,0123*6D
$GPVTG,242.31,T,-397.59,M,003.265,N,006.048,K,D*04
$GPGGA,100338.70,5703.4600369,N,00952.3551930,E,2,10,0.8,-2.111,M,40.593,M,2.7,0123*6F
$GPVTG,240.40,T,-399.50,M,003.276,N,006.068,K,D*07
$GPGGA,100338.75,5703.4600139,N,00952.3551210,E,2,10,0.8,-2.104,M,40.593,M,2.7,0123*60
$GPVTG,238.89,T,-401.01,M,003.291,N,006.095,K,D*04
$GPGGA,100338.80,5703.4599900,N,00952.3550502,E,2,10,0.8,-2.097,M,40.593,M,2.7,0123*65
$GPVTG,237.36,T,-402.54,M,003.297,N,006.107,K,D*00
$GPGGA,100338.85,5703.4599646,N,00952.3549821,E,2,10,0.8,-2.086,M,40.593,M,3.0,0123*6F
$GPVTG,235.35,T,-404.55,M,003.281,N,006.077,K,D*07
$GPGGA,100338.90,5703.4599382,N,00952.3549125,E,2,10,0.8,-2.080,M,40.593,M,3.0,0123*6D
$GPVTG,234.03,T,-405.87,M,003.318,N,006.145,K,D*0C
$GPGGA,100338.95,5703.4599105,N,00952.3548440,E,2,10,0.8,-2.077,M,40.593,M,3.0,0123*6A
$GPVTG,232.62,T,-407.28,M,003.353,N,006.210,K,D*06
$GPGGA,100339.00,5703.4598818,N,00952.3547776,E,2,10,0.8,-2.075,M,40.593,M,3.0,0123*68
$GPVTG,230.98,T,-408.92,M,003.359,N,006.222,K,D*04
$GPGGA,100339.05,5703.4598508,N,00952.3547128,E,2,10,0.8,-2.076,M,40.593,M,1.8,0123*65
$GPVTG,228.89,T,-411.01,M,003.372,N,006.246,K,D*04
$GPGGA,100339.10,5703.4598182,N,00952.3546503,E,2,10,0.8,-2.072,M,40.593,M,1.8,0123*6F
$GPVTG,226.39,T,-413.51,M,003.401,N,006.298,K,D*06
$GPGGA,100339.15,5703.4597861,N,00952.3545911,E,2,10,0.8,-2.070,M,40.593,M,1.8,0123*6F
$GPVTG,224.32,T,-415.58,M,003.364,N,006.230,K,D*06
$GPGGA,100339.20,5703.4597540,N,00952.3545310,E,2,10,0.8,-2.067,M,40.593,M,1.8,0123*6A
$GPVTG,223.44,T,-416.46,M,003.355,N,006.213,K,D*0F
$GPGGA,100339.25,5703.4597212,N,00952.3544723,E,2,10,0.8,-2.066,M,40.593,M,2.1,0123*61
$GPVTG,222.45,T,-417.45,M,003.370,N,006.241,K,D*0D
$GPGGA,100339.30,5703.4596864,N,00952.3544147,E,2,10,0.8,-2.062,M,40.593,M,2.1,0123*6F
$GPVTG,221.14,T,-418.76,M,003.389,N,006.276,K,D*07
$GPGGA,100339.35,5703.4596515,N,00952.3543575,E,2,10,0.8,-2.059,M,40.593,M,2.1,0123*6B
$GPVTG,220.32,T,-419.58,M,003.399,N,006.295,K,D*03
$GPGGA,100339.40,5703.4596166,N,00952.3543032,E,2,10,0.8,-2.056,M,40.593,M,2.1,0123*60
$GPVTG,219.23,T,-420.67,M,003.371,N,006.243,K,D*02
$GPGGA,100339.45,5703.4595803,N,00952.3542505,E,2,10,0.8,-2.050,M,40.593,M,2.3,0123*68
$GPVTG,217.79,T,-422.11,M,003.355,N,006.213,K,D*03
$GPGGA,100339.50,5703.4595428,N,00952.3542004,E,2,10,0.8,-2.049,M,40.593,M,2.3,0123*65
$GPVTG,215.91,T,-423.99,M,003.353,N,006.209,K,D*0B
$GPGGA,100339.55,5703.4595049,N,00952.3541524,E,2,10,0.8,-2.046,M,40.593,M,2.3,0123*68
$GPVTG,214.15,T,-425.75,M,003.342,N,006.189,K,D*09
$GPGGA,100339.60,5703.4594655,N,00952.3541066,E,2,10,0.8,-2.042,M,40.593,M,2.3,0123*63
$GPVTG,212.10,T,-427.80,M,003.357,N,006.216,K,D*03
$GPGGA,100339.65,5703.4594265,N,00952.3540649,E,2,10,0.8,-2.040,M,40.593,M,2.6,0123*6C
$GPVTG,209.86,T,-430.04,M,003.312,N,006.133,K,D*09
$GPGGA,100339.70,5703.4593859,N,00952.3540241,E,2,10,0.8,-2.041,M,40.593,M,2.6,0123*67
$GPVTG,207.94,T,-431.96,M,003.325,N,006.159,K,D*06
$GPGGA,100339.75,5703.4593458,N,00952.3539851,E,2,10,0.8,-2.040,M,40.593,M,2.6,0123*6B
$GPVTG,206.51,T,-433.39,M,003.310,N,006.130,K,D*00
$GPGGA,100339.80,5703.4593040,N,00952.3539482,E,2,10,0.8,-2.040,M,40.593,M,2.6,0123*6E
$GPVTG,204.80,T,-435.10,M,003.331,N,006.169,K,D*0C
$GPGGA,100339.85,5703.4592629,N,00952.3539128,E,2,10,0.8,-2.047,M,40.593,M,2.8,0123*6F
$GPVTG,203.78,T,-436.12,M,003.316,N,006.141,K,D*02
$GPGGA,100339.90,5703.4592213,N,00952.3538791,E,2,10,0.8,-2.050,M,40.593,M,2.8,0123*65
$GPVTG,202.63,T,-437.27,M,003.308,N,006.126,K,D*00
$GPGGA,100339.95,5703.4591788,N,00952.3538485,E,2,10,0.8,-2.052,M,40.593,M,2.8,0123*60
$GPVTG,200.90,T,-439.00,M,003.304,N,006.119,K,D*05
$GPGGA,100340.00,5703.4591354,N,00952.3538213,E,2,10,0.8,-2.053,M,40.593,M,2.8,0123*6F
$GPVTG,198.73,T,-441.17,M,003.309,N,006.127,K,D*03
$GPGGA,100340.05,5703.4590913,N,00952.3537962,E,2,10,0.8,-2.051,M,40.593,M,1.5,0123*6C
$GPVTG,196.51,T,-443.39,M,003.306,N,006.123,K,D*08
$GPGGA,100340.10,5703.4590468,N,00952.3537734,E,2,10,0.8,-2.052,M,40.593,M,1.5,0123*67
$GPVTG,194.70,T,-445.20,M,003.325,N,006.159,K,D*0B
$GPGGA,100340.15,5703.4590025,N,00952.3537527,E,2,10,0.8,-2.052,M,40.593,M,1.5,0123*6F
$GPVTG,193.14,T,-446.76,M,003.327,N,006.162,K,D*04
$GPGGA,100340.20,5703.4589571,N,00952.3537353,E,2,10,0.8,-2.053,M,40.593,M,1.5,0123*61
$GPVTG,191.14,T,-448.76,M,003.347,N,006.198,K,D*0B
$GPGGA,100340.25,5703.4589119,N,00952.3537208,E,2,10,0.8,-2.061,M,40.593,M,1.8,0123*6D
$GPVTG,189.28,T,-450.62,M,003.345,N,006.195,K,D*0E
$GPGGA,100340.30,5703.4588674,N,00952.3537075,E,2,10,0.8,-2.063,M,40.593,M,1.8,0123*6E
$GPVTG,187.90,T,-452.00,M,003.320,N,006.148,K,D*06
$GPGGA,100340.35,5703.4588212,N,00952.3536976,E,2,10,0.8,-2.066,M,40.593,M,1.8,0123*61
$GPVTG,186.01,T,-453.89,M,003.345,N,006.195,K,D*0C
$GPGGA,100340.40,5703.4587737,N,00952.3536906,E,2,10,0.8,-2.069,M,40.593,M,1.8,0123*66
$GPVTG,184.01,T,-455.89,M,003.401,N,006.298,K,D*01
$GPGGA,100340.45,5703.4587265,N,00952.3536863,E,2,10,0.8,-2.078,M,40.593,M,2.0,0123*68
$GPVTG,182.23,T,-457.67,M,003.428,N,006.349,K,D*03
$GPGGA,100340.50,5703.4586803,N,00952.3536829,E,2,10,0.8,-2.082,M,40.593,M,2.0,0123*6C
$GPVTG,180.96,T,-458.94,M,003.411,N,006.318,K,D*02
$GPGGA,100340.55,5703.4586326,N,00952.3536813,E,2,10,0.8,-2.083,M,40.593,M,2.0,0123*6D
$GPVTG,179.85,T,-460.05,M,003.443,N,006.377,K,D*0B
$GPGGA,100340.60,5703.4585849,N,00952.3536828,E,2,10,0.8,-2.082,M,40.593,M,2.0,0123*63
$GPVTG,178.33,T,-461.57,M,003.463,N,006.414,K,D*01
$GPGGA,100340.65,5703.4585385,N,00952.3536875,E,2,10,0.8,-2.084,M,40.593,M,2.2,0123*61
$GPVTG,176.77,T,-463.13,M,003.461,N,006.410,K,D*0B
$GPGGA,100340.70,5703.4584919,N,00952.3536929,E,2,10,0.8,-2.085,M,40.593,M,2.2,0123*62
$GPVTG,175.50,T,-464.40,M,003.444,N,006.379,K,D*03
$GPGGA,100340.75,5703.4584440,N,00952.3536974,E,2,10,0.8,-2.084,M,40.593,M,2.2,0123*6F
$GPVTG,175.23,T,-464.67,M,003.460,N,006.408,K,D*05
$GPGGA,100340.80,5703.4583963,N,00952.3537037,E,2,10,0.8,-2.082,M,40.593,M,2.2,0123*67
$GPVTG,174.71,T,-465.19,M,003.468,N,006.422,K,D*0B
$GPGGA,100340.85,5703.4583502,N,00952.3537123,E,2,10,0.8,-2.077,M,40.593,M,2.4,0123*61
$GPVTG,173.99,T,-465.91,M,003.443,N,006.377,K,D*04
$GPGGA,100340.90,5703.4583029,N,00952.3537226,E,2,10,0.8,-2.072,M,40.593,M,2.4,0123*6A
$GPVTG,172.94,T,-466.96,M,003.444,N,006.379,K,D*05
$GPGGA,100340.95,5703.4582563,N,00952.3537338,E,2,10,0.8,-2.069,M,40.593,M,2.4,0123*61
$GPVTG,172.02,T,-467.88,M,003.428,N,006.348,K,D*0C
$GPGGA,100341.00,5703.4582083,N,00952.3537464,E,2,10,0.8,-2.067,M,40.593,M,2.4,0123*67
$GPVTG,171.25,T,-468.65,M,003.461,N,006.410,K,D*01
$GPGGA,100341.05,5703.4581606,N,00952.3537596,E,2,10,0.8,-2.067,M,40.593,M,2.7,0123*65
$GPVTG,170.41,T,-469.49,M,003.465,N,006.417,K,D*0E
$GPGGA,100341.10,5703.4581130,N,00952.3537755,E,2,10,0.8,-2.064,M,40.593,M,2.7,0123*6D
$GPVTG,169.41,T,-470.49,M,003.484,N,006.452,K,D*00
$GPGGA,100341.15,5703.4580657,N,00952.3537912,E,2,10,0.8,-2.060,M,40.593,M,2.7,0123*66
$GPVTG,168.92,T,-470.98,M,003.485,N,006.454,K,D*04
$GPGGA,100341.20,5703.4580196,N,00952.3538102,E,2,10,0.8,-2.056,M,40.593,M,2.7,0123*69
$GPVTG,167.53,T,-472.37,M,003.461,N,006.410,K,D*0B
$GPGGA,100341.25,5703.4579732,N,00952.3538308,E,2,10,0.8,-2.052,M,40.593,M,2.9,0123*60
$GPVTG,166.28,T,-473.62,M,003.458,N,006.403,K,D*0F
$GPGGA,100341.30,5703.4579263,N,00952.3538516,E,2,10,0.8,-2.048,M,40.593,M,2.9,0123*67
$GPVTG,165.56,T,-474.34,M,003.472,N,006.430,K,D*09
$GPGGA,100341.35,5703.4578787,N,00952.3538732,E,2,10,0.8,-2.041,M,40.593,M,2.9,0123*61
$GPVTG,165.07,T,-474.83,M,003.501,N,006.485,K,D*0A
$GPGGA,100341.40,5703.4578324,N,00952.3538966,E,2,10,0.8,-2.036,M,40.593,M,2.9,0123*61
$GPVTG,164.22,T,-475.68,M,003.498,N,006.477,K,D*04
$GPGGA,100341.45,5703.4577877,N,00952.3539225,E,2,10,0.8,-2.028,M,40.593,M,3.1,0123*6D
$GPVTG,163.14,T,-476.77,M,003.481,N,006.447,K,D*00
$GPGGA,100341.50,5703.4577423,N,00952.3539498,E,2,10,0.8,-2.022,M,40.593,M,3.1,0123*6E
$GPVTG,161.98,T,-477.92,M,003.479,N,006.443,K,D*0F
$GPGGA,100341.55,5703.4576966,N,00952.3539795,E,2,10,0.8,-2.020,M,40.593,M,3.1,0123*6A
$GPVTG,160.74,T,-479.16,M,003.491,N,006.466,K,D*0F
$GPGGA,100341.60,5703.4576500,N,00952.3540100,E,2,10,0.8,-2.016,M,40.593,M,3.1,0123*61
$GPVTG,159.80,T,-480.10,M,003.520,N,006.519,K,D*0C
$GPGGA,100341.65,5703.4576044,N,00952.3540435,E,2,10,0.8,-2.020,M,40.593,M,3.3,0123*65
$GPVTG,158.71,T,-481.19,M,003.548,N,006.570,K,D*0A
$GPGGA,100341.70,5703.4575580,N,00952.3540782,E,2,10,0.8,-2.023,M,40.593,M,3.3,0123*63
$GPVTG,157.63,T,-482.27,M,003.579,N,006.628,K,D*04
$GPGGA,100341.75,5703.4575124,N,00952.3541151,E,2,10,0.8,-2.025,M,40.593,M,3.3,0123*63
$GPVTG,156.39,T,-483.51,M,003.600,N,006.667,K,D*0C
$GPGGA,100341.80,5703.4574678,N,00952.3541529,E,2,10,0.8,-2.025,M,40.593,M,3.3,0123*6D
$GPVTG,155.23,T,-484.67,M,003.603,N,006.673,K,D*00
$GPGGA,100341.85,5703.4574234,N,00952.3541933,E,2,10,0.8,-2.026,M,40.593,M,3.5,0123*66
$GPVTG,153.94,T,-485.96,M,003.615,N,006.695,K,D*0A
$GPGGA,100341.90,5703.4573796,N,00952.3542362,E,2,10,0.8,-2.030,M,40.593,M,3.5,0123*62
$GPVTG,152.53,T,-487.37,M,003.626,N,006.716,K,D*03
$GPGGA,100341.95,5703.4573352,N,00952.3542805,E,2,10,0.8,-2.034,M,40.593,M,3.5,0123*65
$GPVTG,151.33,T,-488.57,M,003.649,N,006.757,K,D*03
$GPGGA,100342.00,5703.4572918,N,00952.3543252,E,2,10,0.8,-2.037,M,40.593,M,3.5,0123*65
$GPVTG,150.26,T,-489.64,M,003.656,N,006.771,K,D*0D
$GPGGA,100342.05,5703.4572472,N,00952.3543700,E,2,10,0.8,-2.041,M,40.593,M,2.0,0123*66
$GPVTG,149.41,T,-490.49,M,003.677,N,006.809,K,D*00
$GPGGA,100342.10,5703.4572032,N,00952.3544168,E,2,10,0.8,-2.040,M,40.593,M,2.0,0123*6C
$GPVTG,148.65,T,-491.25,M,003.695,N,006.842,K,D*0F
$GPGGA,100342.15,5703.4571604,N,00952.3544648,E,2,10,0.8,-2.037,M,40.593,M,2.0,0123*6C
$GPVTG,147.80,T,-492.10,M,003.697,N,006.847,K,D*09
$GPGGA,100342.20,5703.4571184,N,00952.3545136,E,2,10,0.8,-2.036,M,40.593,M,2.0,0123*6B
$GPVTG,146.96,T,-492.94,M,003.690,N,006.834,K,D*00
$GPGGA,100342.25,5703.4570774,N,00952.3545647,E,2,10,0.8,-2.042,M,40.593,M,2.2,0123*66
$GPVTG,145.94,T,-493.96,M,003.681,N,006.818,K,D*0C
$GPGGA,100342.30,5703.4570361,N,00952.3546163,E,2,10,0.8,-2.044,M,40.593,M,2.2,0123*66
$GPVTG,145.10,T,-494.80,M,003.679,N,006.813,K,D*0C
$GPGGA,100342.35,5703.4569948,N,00952.3546704,E,2,10,0.8,-2.044,M,40.593,M,2.2,0123*6D
$GPVTG,144.14,T,-495.76,M,003.689,N,006.832,K,D*0D
$GPGGA,100342.40,5703.4569539,N,00952.3547258,E,2,10,0.8,-2.042,M,40.593,M,2.2,0123*6E
$GPVTG,143.21,T,-496.69,M,003.698,N,006.850,K,D*05
$GPGGA,100342.45,5703.4569134,N,00952.3547833,E,2,10,0.8,-2.037,M,40.593,M,2.5,0123*60
$GPVTG,142.18,T,-497.72,M,003.715,N,006.879,K,D*0A
$GPGGA,100342.50,5703.4568744,N,00952.3548429,E,2,10,0.8,-2.039,M,40.593,M,2.5,0123*62
$GPVTG,140.92,T,-498.98,M,003.720,N,006.889,K,D*08
$GPGGA,100342.55,5703.4568347,N,00952.3549033,E,2,10,0.8,-2.043,M,40.593,M,2.5,0123*63
$GPVTG,139.96,T,-499.94,M,003.736,N,006.918,K,D*01
$GPGGA,100342.60,5703.4567963,N,00952.3549657,E,2,10,0.8,-2.044,M,40.593,M,2.5,0123*65
$GPVTG,138.79,T,-501.11,M,003.746,N,006.938,K,D*09
$GPGGA,100342.65,5703.4567578,N,00952.3550319,E,2,10,0.8,-2.052,M,40.593,M,2.7,0123*64
$GPVTG,137.50,T,-502.40,M,003.778,N,006.996,K,D*03
$GPGGA,100342.70,5703.4567202,N,00952.3550998,E,2,10,0.8,-2.056,M,40.593,M,2.7,0123*6D
$GPVTG,136.15,T,-503.75,M,003.806,N,007.048,K,D*09
$GPGGA,100342.75,5703.4566833,N,00952.3551696,E,2,10,0.8,-2.059,M,40.593,M,2.7,0123*6E
$GPVTG,134.77,T,-505.13,M,003.834,N,007.100,K,D*05
$GPGGA,100342.80,5703.4566472,N,00952.3552414,E,2,10,0.8,-2.063,M,40.593,M,2.7,0123*6F
$GPVTG,133.38,T,-506.52,M,003.861,N,007.150,K,D*0A
$GPGGA,100342.85,5703.4566109,N,00952.3553150,E,2,10,0.8,-2.060,M,40.593,M,3.0,0123*62
$GPVTG,132.15,T,-507.75,M,003.900,N,007.223,K,D*01
$GPGGA,100342.90,5703.4565771,N,00952.3553904,E,2,10,0.8,-2.063,M,40.593,M,3.0,0123*66
$GPVTG,130.60,T,-509.30,M,003.916,N,007.252,K,D*0F
$GPGGA,100342.95,5703.4565432,N,00952.3554650,E,2,10,0.8,-2.065,M,40.593,M,3.0,0123*68
$GPVTG,129.48,T,-510.42,M,003.921,N,007.262,K,D*07
$GPGGA,100343.00,5703.4565090,N,00952.3555403,E,2,10,0.8,-2.067,M,40.593,M,3.0,0123*6E
$GPVTG,128.62,T,-511.28,M,003.930,N,007.279,K,D*09
$GPGGA,100343.05,5703.4564769,N,00952.3556170,E,2,10,0.8,-2.070,M,40.593,M,1.8,0123*65
$GPVTG,127.32,T,-512.58,M,003.931,N,007.280,K,D*00
$GPGGA,100343.10,5703.4564460,N,00952.3556955,E,2,10,0.8,-2.070,M,40.593,M,1.8,0123*64
$GPVTG,126.07,T,-513.83,M,003.923,N,007.266,K,D*0B
$GPGGA,100343.15,5703.4564154,N,00952.3557767,E,2,10,0.8,-2.068,M,40.593,M,1.8,0123*64
$GPVTG,124.75,T,-515.15,M,003.931,N,007.280,K,D*0E
$GPGGA,100343.20,5703.4563849,N,00952.3558576,E,2,10,0.8,-2.066,M,40.593,M,1.8,0123*63
$GPVTG,123.87,T,-516.03,M,003.922,N,007.263,K,D*0F
$GPGGA,100343.25,5703.4563551,N,00952.3559397,E,2,10,0.8,-2.057,M,40.593,M,2.1,0123*62
$GPVTG,122.99,T,-516.91,M,003.915,N,007.250,K,D*0E
$GPGGA,100343.30,5703.4563246,N,00952.3560241,E,2,10,0.8,-2.053,M,40.593,M,2.1,0123*63
$GPVTG,122.40,T,-517.50,M,003.951,N,007.317,K,D*04
$GPGGA,100343.35,5703.4562949,N,00952.3561112,E,2,10,0.8,-2.048,M,40.593,M,2.1,0123*6D
$GPVTG,121.54,T,-518.36,M,004.009,N,007.424,K,D*09
$GPGGA,100343.40,5703.4562668,N,00952.3561992,E,2,10,0.8,-2.045,M,40.593,M,2.1,0123*6E
$GPVTG,120.33,T,-519.57,M,004.032,N,007.468,K,D*0F
$GPGGA,100343.45,5703.4562402,N,00952.3562894,E,2,10,0.8,-2.044,M,40.593,M,2.3,0123*62
$GPVTG,118.72,T,-521.18,M,004.056,N,007.512,K,D*0F
$GPGGA,100343.50,5703.4562132,N,00952.3563804,E,2,10,0.8,-2.043,M,40.593,M,2.3,0123*6F
$GPVTG,117.82,T,-522.08,M,004.086,N,007.568,K,D*0D
$GPGGA,100343.55,5703.4561867,N,00952.3564716,E,2,10,0.8,-2.044,M,40.593,M,2.3,0123*6C
$GPVTG,117.14,T,-522.76,M,004.095,N,007.584,K,D*0B
$GPGGA,100343.60,5703.4561627,N,00952.3565651,E,2,10,0.8,-2.043,M,40.593,M,2.3,0123*64
$GPVTG,115.58,T,-524.32,M,004.101,N,007.595,K,D*0B
$GPGGA,100343.65,5703.4561391,N,00952.3566620,E,2,10,0.8,-2.045,M,40.593,M,2.6,0123*6F
$GPVTG,114.05,T,-525.85,M,004.160,N,007.704,K,D*02
$GPGGA,100343.70,5703.4561161,N,00952.3567595,E,2,10,0.8,-2.049,M,40.593,M,2.6,0123*66
$GPVTG,112.87,T,-527.03,M,004.195,N,007.769,K,D*03
$GPGGA,100343.75,5703.4560955,N,00952.3568581,E,2,10,0.8,-2.048,M,40.593,M,2.6,0123*66
$GPVTG,111.16,T,-528.74,M,004.202,N,007.783,K,D*0E
$GPGGA,100343.80,5703.4560749,N,00952.3569585,E,2,10,0.8,-2.050,M,40.593,M,2.6,0123*63
$GPVTG,109.93,T,-529.97,M,004.234,N,007.842,K,D*01
$GPGGA,100343.85,5703.4560554,N,00952.3570576,E,2,10,0.8,-2.054,M,40.593,M,2.8,0123*66
$GPVTG,108.98,T,-530.92,M,004.209,N,007.796,K,D*0E
$GPGGA,100343.90,5703.4560375,N,00952.3571588,E,2,10,0.8,-2.055,M,40.593,M,2.8,0123*66
$GPVTG,107.64,T,-532.26,M,004.211,N,007.799,K,D*09
$GPGGA,100343.95,5703.4560196,N,00952.3572603,E,2,10,0.8,-2.055,M,40.593,M,2.8,0123*6F
$GPVTG,106.84,T,-533.06,M,004.214,N,007.805,K,D*0A
$GPGGA,100344.00,5703.4560027,N,00952.3573647,E,2,10,0.8,-2.058,M,40.593,M,2.8,0123*63
$GPVTG,105.87,T,-534.03,M,004.260,N,007.889,K,D*0F
$GPGGA,100344.05,5703.4559856,N,00952.3574682,E,2,10,0.8,-2.056,M,40.593,M,1.5,0123*6C
$GPVTG,105.27,T,-534.63,M,004.296,N,007.956,K,D*09
$GPGGA,100344.10,5703.4559698,N,00952.3575729,E,2,10,0.8,-2.057,M,40.593,M,1.5,0123*64
$GPVTG,104.62,T,-535.28,M,004.301,N,007.966,K,D*0B
$GPGGA,100344.15,5703.4559550,N,00952.3576767,E,2,10,0.8,-2.058,M,40.593,M,1.5,0123*60
$GPVTG,103.99,T,-535.91,M,004.274,N,007.916,K,D*0E
$GPGGA,100344.20,5703.4559422,N,00952.3577829,E,2,10,0.8,-2.056,M,40.593,M,1.5,0123*68
$GPVTG,102.65,T,-537.25,M,004.284,N,007.934,K,D*0E
$GPGGA,100344.25,5703.4559305,N,00952.3578908,E,2,10,0.8,-2.057,M,40.593,M,1.8,0123*6E
$GPVTG,101.29,T,-538.61,M,004.316,N,007.993,K,D*0D
$GPGGA,100344.30,5703.4559201,N,00952.3580000,E,2,10,0.8,-2.058,M,40.593,M,1.8,0123*66
$GPVTG,099.88,T,-540.02,M,004.353,N,008.062,K,D*05
$GPGGA,100344.35,5703.4559095,N,00952.3581103,E,2,10,0.8,-2.061,M,40.593,M,1.8,0123*65
$GPVTG,099.12,T,-540.78,M,004.399,N,008.147,K,D*0B
$GPGGA,100344.40,5703.4559000,N,00952.3582196,E,2,10,0.8,-2.061,M,40.593,M,1.8,0123*64
$GPVTG,098.33,T,-541.57,M,004.396,N,008.141,K,D*0C
$GPGGA,100344.45,5703.4558914,N,00952.3583309,E,2,10,0.8,-2.067,M,40.593,M,2.0,0123*64
$GPVTG,097.45,T,-542.45,M,004.426,N,008.198,K,D*0A
$GPGGA,100344.50,5703.4558830,N,00952.3584418,E,2,10,0.8,-2.068,M,40.593,M,2.0,0123*68
$GPVTG,096.97,T,-542.93,M,004.433,N,008.209,K,D*00
$GPGGA,100344.55,5703.4558763,N,00952.3585552,E,2,10,0.8,-2.069,M,40.593,M,2.0,0123*6B
$GPVTG,095.95,T,-543.95,M,004.476,N,008.290,K,D*07
$GPGGA,100344.60,5703.4558716,N,00952.3586693,E,2,10,0.8,-2.072,M,40.593,M,2.0,0123*68
$GPVTG,094.58,T,-545.32,M,004.510,N,008.352,K,D*02
$GPGGA,100344.65,5703.4558668,N,00952.3587831,E,2,10,0.8,-2.064,M,40.593,M,2.2,0123*67
$GPVTG,093.80,T,-546.10,M,004.533,N,008.396,K,D*0A
$GPGGA,100344.70,5703.4558611,N,00952.3588971,E,2,10,0.8,-2.067,M,40.593,M,2.2,0123*64
$GPVTG,093.76,T,-546.14,M,004.537,N,008.403,K,D*08
$GPGGA,100344.75,5703.4558565,N,00952.3590121,E,2,10,0.8,-2.068,M,40.593,M,2.2,0123*6A
$GPVTG,093.40,T,-546.50,M,004.552,N,008.431,K,D*0F
$GPGGA,100344.80,5703.4558544,N,00952.3591265,E,2,10,0.8,-2.067,M,40.593,M,2.2,0123*6E
$GPVTG,092.26,T,-547.64,M,004.541,N,008.410,K,D*09
$GPGGA,100344.85,5703.4558536,N,00952.3592410,E,2,10,0.8,-2.072,M,40.593,M,2.4,0123*6B
$GPVTG,090.96,T,-548.94,M,004.523,N,008.376,K,D*03
$GPGGA,100344.90,5703.4558543,N,00952.3593546,E,2,10,0.8,-2.067,M,40.593,M,2.4,0123*6A
$GPVTG,089.57,T,-550.33,M,004.500,N,008.334,K,D*05
$GPGGA,100344.95,5703.4558558,N,00952.3594682,E,2,10,0.8,-2.060,M,40.593,M,2.4,0123*6E
$GPVTG,088.34,T,-551.56,M,004.484,N,008.304,K,D*0D
$GPGGA,100345.00,5703.4558587,N,00952.3595810,E,2,10,0.8,-2.053,M,40.593,M,2.4,0123*65
$GPVTG,087.07,T,-552.83,M,004.459,N,008.257,K,D*0E
$GPGGA,100345.05,5703.4558613,N,00952.3596930,E,2,10,0.8,-2.044,M,40.593,M,2.7,0123*6B
$GPVTG,086.29,T,-553.61,M,004.456,N,008.253,K,D*05
$GPGGA,100345.10,5703.4558645,N,00952.3598069,E,2,10,0.8,-2.039,M,40.593,M,2.7,0123*6D
$GPVTG,085.84,T,-554.06,M,004.470,N,008.278,K,D*0A
$GPGGA,100345.15,5703.4558694,N,00952.3599216,E,2,10,0.8,-2.032,M,40.593,M,2.7,0123*64
$GPVTG,085.02,T,-554.88,M,004.499,N,008.333,K,D*0B
$GPGGA,100345.20,5703.4558757,N,00952.3600376,E,2,10,0.8,-2.030,M,40.593,M,2.7,0123*6A
$GPVTG,084.02,T,-555.88,M,004.551,N,008.429,K,D*02
$GPGGA,100345.25,5703.4558835,N,00952.3601531,E,2,10,0.8,-2.028,M,40.593,M,2.9,0123*67
$GPVTG,082.84,T,-557.06,M,004.581,N,008.483,K,D*03
$GPGGA,100345.30,5703.4558923,N,00952.3602680,E,2,10,0.8,-2.025,M,40.593,M,2.9,0123*62
$GPVTG,081.72,T,-558.18,M,004.590,N,008.500,K,D*03
$GPGGA,100345.35,5703.4559009,N,00952.3603860,E,2,10,0.8,-2.026,M,40.593,M,2.9,0123*65
$GPVTG,081.29,T,-558.61,M,004.653,N,008.618,K,D*05
$GPGGA,100345.40,5703.4559114,N,00952.3605037,E,2,10,0.8,-2.025,M,40.593,M,2.9,0123*65
$GPVTG,080.39,T,-559.51,M,004.698,N,008.700,K,D*08
$GPGGA,100345.45,5703.4559237,N,00952.3606223,E,2,10,0.8,-2.026,M,40.593,M,3.1,0123*6C
$GPVTG,079.26,T,-560.64,M,004.761,N,008.817,K,D*02
$GPGGA,100345.50,5703.4559368,N,00952.3607414,E,2,10,0.8,-2.033,M,40.593,M,3.1,0123*64
$GPVTG,078.30,T,-561.60,M,004.803,N,008.895,K,D*00
$GPGGA,100345.55,5703.4559523,N,00952.3608581,E,2,10,0.8,-2.036,M,40.593,M,3.1,0123*6F
$GPVTG,076.72,T,-563.18,M,004.798,N,008.885,K,D*09
$GPGGA,100345.60,5703.4559694,N,00952.3609739,E,2,10,0.8,-2.041,M,40.593,M,3.1,0123*66
$GPVTG,075.11,T,-564.79,M,004.782,N,008.856,K,D*0A
$GPGGA,100345.65,5703.4559865,N,00952.3610892,E,2,10,0.8,-2.044,M,40.593,M,3.3,0123*62
$GPVTG,073.98,T,-565.92,M,004.766,N,008.826,K,D*04
$GPGGA,100345.70,5703.4560048,N,00952.3612034,E,2,10,0.8,-2.046,M,40.593,M,3.3,0123*6F
$GPVTG,072.87,T,-567.03,M,004.734,N,008.768,K,D*03
$GPGGA,100345.75,5703.4560243,N,00952.3613167,E,2,10,0.8,-2.046,M,40.593,M,3.3,0123*65
$GPVTG,071.79,T,-568.11,M,004.705,N,008.714,K,D*04
$GPGGA,100345.80,5703.4560456,N,00952.3614304,E,2,10,0.8,-2.046,M,40.593,M,3.3,0123*6D
$GPVTG,070.55,T,-569.35,M,004.716,N,008.733,K,D*0B
$GPGGA,100345.85,5703.4560674,N,00952.3615439,E,2,10,0.8,-2.053,M,40.593,M,3.5,0123*60
$GPVTG,069.66,T,-570.24,M,004.726,N,008.753,K,D*0E
$GPGGA,100345.90,5703.4560901,N,00952.3616555,E,2,10,0.8,-2.053,M,40.593,M,3.5,0123*61
$GPVTG,068.74,T,-571.16,M,004.711,N,008.724,K,D*08
$GPGGA,100345.95,5703.4561125,N,00952.3617666,E,2,10,0.8,-2.054,M,40.593,M,3.5,0123*6E
$GPVTG,068.32,T,-571.58,M,004.689,N,008.683,K,D*0C
$GPGGA,100346.00,5703.4561359,N,00952.3618784,E,2,10,0.8,-2.053,M,40.593,M,3.5,0123*6D
$GPVTG,067.94,T,-571.96,M,004.699,N,008.702,K,D*04
$GPGGA,100346.05,5703.4561603,N,00952.3619874,E,2,10,0.8,-2.049,M,40.593,M,2.0,0123*6C
$GPVTG,067.15,T,-572.75,M,004.698,N,008.701,K,D*01
$GPGGA,100346.10,5703.4561871,N,00952.3620963,E,2,10,0.8,-2.047,M,40.593,M,2.0,0123*60
$GPVTG,065.87,T,-574.03,M,004.697,N,008.699,K,D*00
$GPGGA,100346.15,5703.4562145,N,00952.3622048,E,2,10,0.8,-2.043,M,40.593,M,2.0,0123*6E
$GPVTG,064.83,T,-575.07,M,004.701,N,008.706,K,D*09
$GPGGA,100346.20,5703.4562419,N,00952.3623142,E,2,10,0.8,-2.039,M,40.593,M,2.0,0123*63
$GPVTG,064.34,T,-575.56,M,004.724,N,008.748,K,D*0C
$GPGGA,100346.25,5703.4562697,N,00952.3624217,E,2,10,0.8,-2.031,M,40.593,M,2.2,0123*6C
$GPVTG,063.84,T,-576.06,M,004.711,N,008.724,K,D*0A
$GPGGA,100346.30,5703.4562998,N,00952.3625287,E,2,10,0.8,-2.025,M,40.593,M,2.2,0123*65
$GPVTG,062.76,T,-577.14,M,004.725,N,008.751,K,D*01
$GPGGA,100346.35,5703.4563314,N,00952.3626337,E,2,10,0.8,-2.020,M,40.593,M,2.2,0123*63
$GPVTG,061.33,T,-578.57,M,004.723,N,008.747,K,D*0A
$GPGGA,100346.40,5703.4563644,N,00952.3627383,E,2,10,0.8,-2.018,M,40.593,M,2.2,0123*64
$GPVTG,059.93,T,-579.97,M,004.742,N,008.782,K,D*08
$GPGGA,100346.45,5703.4563981,N,00952.3628409,E,2,10,0.8,-2.024,M,40.593,M,2.5,0123*65
$GPVTG,058.57,T,-581.33,M,004.730,N,008.761,K,D*00
$GPGGA,100346.50,5703.4564327,N,00952.3629441,E,2,10,0.8,-2.025,M,40.593,M,2.5,0123*6C
$GPVTG,057.64,T,-582.26,M,004.754,N,008.804,K,D*06
$GPGGA,100346.55,5703.4564687,N,00952.3630464,E,2,10,0.8,-2.029,M,40.593,M,2.5,0123*65
$GPVTG,056.62,T,-583.28,M,004.781,N,008.855,K,D*02
$GPGGA,100346.60,5703.4565060,N,00952.3631473,E,2,10,0.8,-2.033,M,40.593,M,2.5,0123*61
$GPVTG,055.44,T,-584.46,M,004.802,N,008.893,K,D*04
$GPGGA,100346.65,5703.4565449,N,00952.3632473,E,2,10,0.8,-2.034,M,40.593,M,2.7,0123*6D
$GPVTG,054.23,T,-585.67,M,004.832,N,008.948,K,D*02
$GPGGA,100346.70,5703.4565843,N,00952.3633453,E,2,10,0.8,-2.038,M,40.593,M,2.7,0123*60
$GPVTG,053.05,T,-586.85,M,004.828,N,008.942,K,D*0F
$GPGGA,100346.75,5703.4566240,N,00952.3634436,E,2,10,0.8,-2.043,M,40.593,M,2.7,0123*67
$GPVTG,052.37,T,-587.53,M,004.839,N,008.962,K,D*07
$GPGGA,100346.80,5703.4566653,N,00952.3635418,E,2,10,0.8,-2.050,M,40.593,M,2.7,0123*64
$GPVTG,051.62,T,-588.28,M,004.873,N,009.025,K,D*02
$GPGGA,100346.85,5703.4567075,N,00952.3636396,E,2,10,0.8,-2.056,M,40.593,M,3.0,0123*60
$GPVTG,050.97,T,-588.93,M,004.910,N,009.094,K,D*07
$GPGGA,100346.90,5703.4567506,N,00952.3637340,E,2,10,0.8,-2.062,M,40.593,M,3.0,0123*68
$GPVTG,049.81,T,-590.09,M,004.896,N,009.067,K,D*01
$GPGGA,100346.95,5703.4567946,N,00952.3638260,E,2,10,0.8,-2.064,M,40.593,M,3.0,0123*6F
$GPVTG,048.54,T,-591.36,M,004.867,N,009.015,K,D*0E
$GPGGA,100347.00,5703.4568376,N,00952.3639134,E,2,10,0.8,-2.062,M,40.593,M,3.0,0123*61
$GPVTG,047.35,T,-592.55,M,004.757,N,008.811,K,D*01
$GPGGA,100347.05,5703.4568815,N,00952.3639958,E,2,10,0.8,-2.057,M,40.593,M,1.8,0123*64
$GPVTG,045.61,T,-594.29,M,004.657,N,008.625,K,D*07
$GPGGA,100347.10,5703.4569266,N,00952.3640786,E,2,10,0.8,-2.047,M,40.593,M,1.8,0123*6D
$GPVTG,044.30,T,-595.60,M,004.604,N,008.527,K,D*09
$GPGGA,100347.15,5703.4569710,N,00952.3641608,E,2,10,0.8,-2.040,M,40.593,M,1.8,0123*6D
$GPVTG,043.73,T,-596.17,M,004.553,N,008.432,K,D*0E
$GPGGA,100347.20,5703.4570167,N,00952.3642413,E,2,10,0.8,-2.033,M,40.593,M,1.8,0123*6A
$GPVTG,042.88,T,-597.02,M,004.536,N,008.400,K,D*0C
$GPGGA,100347.25,5703.4570631,N,00952.3643199,E,2,10,0.8,-2.020,M,40.593,M,2.1,0123*65
$GPVTG,042.02,T,-597.88,M,004.521,N,008.373,K,D*09
$GPGGA,100347.30,5703.4571093,N,00952.3643985,E,2,10,0.8,-2.013,M,40.593,M,2.1,0123*6B
$GPVTG,041.65,T,-598.25,M,004.518,N,008.367,K,D*0C
$GPGGA,100347.35,5703.4571571,N,00952.3644769,E,2,10,0.8,-2.008,M,40.593,M,2.1,0123*66
$GPVTG,041.14,T,-598.76,M,004.559,N,008.442,K,D*09
$GPGGA,100347.40,5703.4572067,N,00952.3645550,E,2,10,0.8,-2.002,M,40.593,M,2.1,0123*66
$GPVTG,040.39,T,-599.51,M,004.631,N,008.576,K,D*08
$GPGGA,100347.45,5703.4572567,N,00952.3646328,E,2,10,0.8,-1.997,M,40.593,M,2.3,0123*68
$GPVTG,039.82,T,-600.08,M,004.691,N,008.687,K,D*0E
$GPGGA,100347.50,5703.4573067,N,00952.3647088,E,2,10,0.8,-1.998,M,40.593,M,2.3,0123*6F
$GPVTG,039.22,T,-600.68,M,004.709,N,008.720,K,D*0E
$GPGGA,100347.55,5703.4573580,N,00952.3647846,E,2,10,0.8,-2.002,M,40.593,M,2.3,0123*65
$GPVTG,038.54,T,-601.36,M,004.749,N,008.796,K,D*0D
$GPGGA,100347.60,5703.4574114,N,00952.3648606,E,2,10,0.8,-2.008,M,40.593,M,2.3,0123*62
$GPVTG,037.73,T,-602.17,M,004.832,N,008.949,K,D*08
$GPGGA,100347.65,5703.4574658,N,00952.3649334,E,2,10,0.8,-2.010,M,40.593,M,2.6,0123*61
$GPVTG,036.61,T,-603.29,M,004.902,N,009.079,K,D*0F
$GPGGA,100347.70,5703.4575214,N,00952.3650060,E,2,10,0.8,-2.023,M,40.593,M,2.6,0123*62
$GPVTG,035.50,T,-604.40,M,004.949,N,009.165,K,D*05
$GPGGA,100347.75,5703.4575787,N,00952.3650777,E,2,10,0.8,-2.037,M,40.593,M,2.6,0123*6C
$GPVTG,034.31,T,-605.59,M,005.010,N,009.278,K,D*01
$GPGGA,100347.80,5703.4576364,N,00952.3651469,E,2,10,0.8,-2.053,M,40.593,M,2.6,0123*63
$GPVTG,033.08,T,-606.82,M,005.031,N,009.318,K,D*0D
$GPGGA,100347.85,5703.4576950,N,00952.3652170,E,2,10,0.8,-2.085,M,40.593,M,2.8,0123*60
$GPVTG,032.22,T,-607.68,M,005.067,N,009.384,K,D*07
$GPGGA,100347.90,5703.4577525,N,00952.3652836,E,2,10,0.8,-2.100,M,40.593,M,2.8,0123*6C
$GPVTG,031.48,T,-608.42,M,005.026,N,009.308,K,D*0E
$GPGGA,100347.95,5703.4578085,N,00952.3653465,E,2,10,0.8,-2.106,M,40.593,M,2.8,0123*64
$GPVTG,030.66,T,-609.24,M,004.909,N,009.092,K,D*07
$GPGGA,100348.00,5703.4578639,N,00952.3654047,E,2,10,0.8,-2.107,M,40.593,M,2.8,0123*64
$GPVTG,029.39,T,-610.51,M,004.764,N,008.823,K,D*09
$GPGGA,100348.05,5703.4579192,N,00952.3654576,E,2,10,0.8,-2.098,M,40.593,M,1.5,0123*68
$GPVTG,027.82,T,-612.08,M,004.635,N,008.585,K,D*0D
$GPGGA,100348.10,5703.4579751,N,00952.3655074,E,2,10,0.8,-2.090,M,40.593,M,1.5,0123*6B
$GPVTG,025.81,T,-614.09,M,004.519,N,008.369,K,D*02
$GPGGA,100348.15,5703.4580309,N,00952.3655533,E,2,10,0.8,-2.077,M,40.593,M,1.5,0123*6E
$GPVTG,023.76,T,-616.14,M,004.418,N,008.181,K,D*06
$GPGGA,100348.20,5703.4580876,N,00952.3655959,E,2,10,0.8,-2.061,M,40.593,M,1.5,0123*6C
$GPVTG,021.70,T,-618.20,M,004.365,N,008.084,K,D*02
$GPGGA,100348.25,5703.4581433,N,00952.3656364,E,2,10,0.8,-2.049,M,40.593,M,1.8,0123*65
$GPVTG,020.14,T,-619.76,M,004.314,N,007.990,K,D*06
$GPGGA,100348.30,5703.4582005,N,00952.3656779,E,2,10,0.8,-2.036,M,40.593,M,1.8,0123*63
$GPVTG,019.55,T,-620.35,M,004.324,N,008.009,K,D*01
$GPGGA,100348.35,5703.4582576,N,00952.3657192,E,2,10,0.8,-2.026,M,40.593,M,1.8,0123*64
$GPVTG,019.48,T,-620.42,M,004.345,N,008.047,K,D*00
$GPGGA,100348.40,5703.4583159,N,00952.3657616,E,2,10,0.8,-2.015,M,40.593,M,1.8,0123*65
$GPVTG,019.79,T,-620.11,M,004.409,N,008.165,K,D*0A
$GPGGA,100348.45,5703.4583759,N,00952.3658057,E,2,10,0.8,-1.997,M,40.593,M,2.0,0123*61
$GPVTG,020.53,T,-619.37,M,004.504,N,008.342,K,D*0D
$GPGGA,100348.50,5703.4584352,N,00952.3658499,E,2,10,0.8,-1.989,M,40.593,M,2.0,0123*64
$GPVTG,021.16,T,-618.74,M,004.576,N,008.475,K,D*0D
$GPGGA,100348.55,5703.4584954,N,00952.3658952,E,2,10,0.8,-1.985,M,40.593,M,2.0,0123*6B
$GPVTG,021.72,T,-618.18,M,004.657,N,008.625,K,D*02
$GPGGA,100348.60,5703.4585572,N,00952.3659420,E,2,10,0.8,-1.984,M,40.593,M,2.0,0123*6C
$GPVTG,022.17,T,-617.73,M,004.771,N,008.836,K,D*09
$GPGGA,100348.65,5703.4586210,N,00952.3659898,E,2,10,0.8,-1.985,M,40.593,M,2.2,0123*65
$GPVTG,022.35,T,-617.55,M,004.871,N,009.020,K,D*0C
$GPGGA,100348.70,5703.4586854,N,00952.3660357,E,2,10,0.8,-1.993,M,40.593,M,2.2,0123*6E
$GPVTG,021.97,T,-617.93,M,004.969,N,009.202,K,D*07
$GPGGA,100348.75,5703.4587511,N,00952.3660781,E,2,10,0.8,-1.999,M,40.593,M,2.2,0123*63
$GPVTG,020.73,T,-619.17,M,005.046,N,009.344,K,D*08
$GPGGA,100348.80,5703.4588160,N,00952.3661159,E,2,10,0.8,-2.009,M,40.593,M,2.2,0123*65
$GPVTG,018.95,T,-620.95,M,005.038,N,009.330,K,D*01
$GPGGA,100348.85,5703.4588811,N,00952.3661504,E,2,10,0.8,-2.030,M,40.593,M,2.4,0123*6F
$GPVTG,016.67,T,-623.23,M,004.972,N,009.209,K,D*01
$GPGGA,100348.90,5703.4589471,N,00952.3661807,E,2,10,0.8,-2.042,M,40.593,M,2.4,0123*6B
$GPVTG,014.49,T,-625.41,M,004.961,N,009.188,K,D*05
$GPGGA,100348.95,5703.4590125,N,00952.3662102,E,2,10,0.8,-2.059,M,40.593,M,2.4,0123*67
$GPVTG,013.14,T,-626.76,M,004.936,N,009.141,K,D*0A
$GPGGA,100349.00,5703.4590785,N,00952.3662380,E,2,10,0.8,-2.073,M,40.593,M,2.4,0123*66
$GPVTG,012.04,T,-627.86,M,004.924,N,009.120,K,D*00
$GPGGA,100349.05,5703.4591441,N,00952.3662605,E,2,10,0.8,-2.084,M,40.593,M,2.7,0123*6A
$GPVTG,010.58,T,-629.32,M,004.906,N,009.085,K,D*04
$GPGGA,100349.10,5703.4592098,N,00952.3662793,E,2,10,0.8,-2.094,M,40.593,M,2.7,0123*62
$GPVTG,008.67,T,-631.23,M,004.861,N,009.003,K,D*06
$GPGGA,100349.15,5703.4592750,N,00952.3662957,E,2,10,0.8,-2.102,M,40.593,M,2.7,0123*6C
$GPVTG,007.09,T,-632.81,M,004.812,N,008.912,K,D*06
$GPGGA,100349.20,5703.4593370,N,00952.3663104,E,2,10,0.8,-2.102,M,40.593,M,2.7,0123*62
$GPVTG,006.03,T,-633.87,M,004.669,N,008.647,K,D*07
$GPGGA,100349.25,5703.4593970,N,00952.3663217,E,2,10,0.8,-2.099,M,40.593,M,2.9,0123*61
$GPVTG,004.75,T,-635.15,M,004.497,N,008.329,K,D*07
$GPGGA,100349.30,5703.4594568,N,00952.3663309,E,2,10,0.8,-2.087,M,40.593,M,2.9,0123*66
$GPVTG,003.64,T,-636.26,M,004.372,N,008.098,K,D*06
$GPGGA,100349.35,5703.4595180,N,00952.3663403,E,2,10,0.8,-2.072,M,40.593,M,2.9,0123*67
$GPVTG,003.19,T,-636.71,M,004.342,N,008.041,K,D*09
$GPGGA,100349.40,5703.4595794,N,00952.3663476,E,2,10,0.8,-2.059,M,40.593,M,2.9,0123*6D
$GPVTG,002.62,T,-637.28,M,004.338,N,008.033,K,D*01
$GPGGA,100349.45,5703.4596400,N,00952.3663526,E,2,10,0.8,-2.041,M,40.593,M,3.1,0123*61
$GPVTG,001.84,T,-638.06,M,004.315,N,007.991,K,D*08
$GPGGA,100349.50,5703.4597009,N,00952.3663560,E,2,10,0.8,-2.028,M,40.593,M,3.1,0123*64
$GPVTG,001.07,T,-638.83,M,004.317,N,007.995,K,D*08
$GPGGA,100349.55,5703.4597633,N,00952.3663574,E,2,10,0.8,-2.021,M,40.593,M,3.1,0123*62
$GPVTG,000.21,T,-639.69,M,004.377,N,008.107,K,D*02
$GPGGA,100349.60,5703.4598265,N,00952.3663588,E,2,10,0.8,-2.014,M,40.593,M,3.1,0123*69
$GPVTG,359.82,T,-280.08,M,004.453,N,008.247,K,D*03
$GPGGA,100349.65,5703.4598900,N,00952.3663614,E,2,10,0.8,-2.015,M,40.593,M,3.3,0123*61
$GPVTG,000.00,T,-639.90,M,004.518,N,008.367,K,D*0C
$GPGGA,100349.70,5703.4599539,N,00952.3663638,E,2,10,0.8,-2.014,M,40.593,M,3.3,0123*6D
$GPVTG,000.26,T,-639.64,M,004.579,N,008.480,K,D*0A
$GPGGA,100349.75,5703.4600192,N,00952.3663634,E,2,10,0.8,-2.013,M,40.593,M,3.3,0123*65
$GPVTG,359.80,T,-280.10,M,004.662,N,008.635,K,D*09
$GPGGA,100349.80,5703.4600851,N,00952.3663636,E,2,10,0.8,-2.018,M,40.593,M,3.3,0123*60
$GPVTG,359.72,T,-280.18,M,004.735,N,008.770,K,D*0F
$GPGGA,100349.85,5703.4601515,N,00952.3663605,E,2,10,0.8,-2.017,M,40.593,M,3.5,0123*60
$GPVTG,358.99,T,-280.91,M,004.798,N,008.885,K,D*08
$GPGGA,100349.90,5703.4602165,N,00952.3663540,E,2,10,0.8,-2.021,M,40.593,M,3.5,0123*63
$GPVTG,357.63,T,-282.27,M,004.795,N,008.880,K,D*05
$GPGGA,100349.95,5703.4602787,N,00952.3663446,E,2,10,0.8,-2.021,M,40.593,M,3.5,0123*6B
$GPVTG,355.98,T,-283.92,M,004.694,N,008.694,K,D*07
$GPGGA,100350.00,5703.4603393,N,00952.3663310,E,2,10,0.8,-2.022,M,40.593,M,3.5,0123*68
$GPVTG,353.82,T,-286.08,M,004.576,N,008.475,K,D*0E
$GPGGA,100350.05,5703.4603997,N,00952.3663134,E,2,10,0.8,-2.023,M,40.593,M,2.0,0123*62
$GPVTG,351.65,T,-288.25,M,004.499,N,008.333,K,D*01
$GPGGA,100350.10,5703.4604581,N,00952.3662928,E,2,10,0.8,-2.023,M,40.593,M,2.0,0123*6E
$GPVTG,349.30,T,-290.60,M,004.399,N,008.147,K,D*06
$GPGGA,100350.15,5703.4605161,N,00952.3662710,E,2,10,0.8,-2.022,M,40.593,M,2.0,0123*64
$GPVTG,347.53,T,-292.37,M,004.316,N,007.994,K,D*03
$GPGGA,100350.20,5703.4605737,N,00952.3662472,E,2,10,0.8,-2.019,M,40.593,M,2.0,0123*68
$GPVTG,346.08,T,-293.82,M,004.258,N,007.887,K,D*0B
$GPGGA,100350.25,5703.4606305,N,00952.3662236,E,2,10,0.8,-2.025,M,40.593,M,2.2,0123*60
$GPVTG,345.23,T,-294.67,M,004.197,N,007.774,K,D*0E
$GPGGA,100350.30,5703.4606872,N,00952.3661983,E,2,10,0.8,-2.025,M,40.593,M,2.2,0123*69
$GPVTG,344.68,T,-295.22,M,004.168,N,007.719,K,D*0B
$GPGGA,100350.35,5703.4607431,N,00952.3661709,E,2,10,0.8,-2.025,M,40.593,M,2.2,0123*6A
$GPVTG,343.90,T,-296.00,M,004.135,N,007.658,K,D*04
$GPGGA,100350.40,5703.4607997,N,00952.3661438,E,2,10,0.8,-2.026,M,40.593,M,2.2,0123*6B
$GPVTG,343.76,T,-296.14,M,004.140,N,007.667,K,D*07
$GPGGA,100350.45,5703.4608575,N,00952.3661169,E,2,10,0.8,-2.027,M,40.593,M,2.5,0123*66
$GPVTG,344.13,T,-295.77,M,004.186,N,007.753,K,D*09
$GPGGA,100350.50,5703.4609151,N,00952.3660877,E,2,10,0.8,-2.031,M,40.593,M,2.5,0123*61
$GPVTG,343.89,T,-296.01,M,004.231,N,007.835,K,D*0F
$GPGGA,100350.55,5703.4609729,N,00952.3660589,E,2,10,0.8,-2.035,M,40.593,M,2.5,0123*65
$GPVTG,343.98,T,-295.92,M,004.272,N,007.911,K,D*06
$GPGGA,100350.60,5703.4610311,N,00952.3660286,E,2,10,0.8,-2.041,M,40.593,M,2.5,0123*6F
$GPVTG,343.80,T,-296.10,M,004.318,N,007.997,K,D*05
$GPGGA,100350.65,5703.4610892,N,00952.3659964,E,2,10,0.8,-2.044,M,40.593,M,2.7,0123*60
$GPVTG,343.30,T,-296.60,M,004.357,N,008.069,K,D*05
$GPGGA,100350.70,5703.4611464,N,00952.3659633,E,2,10,0.8,-2.050,M,40.593,M,2.7,0123*68
$GPVTG,342.63,T,-297.27,M,004.363,N,008.080,K,D*00
$GPGGA,100350.75,5703.4612036,N,00952.3659282,E,2,10,0.8,-2.056,M,40.593,M,2.7,0123*65
$GPVTG,341.73,T,-298.17,M,004.372,N,008.098,K,D*07
$GPGGA,100350.80,5703.4612596,N,00952.3658913,E,2,10,0.8,-2.063,M,40.593,M,2.7,0123*64
$GPVTG,340.58,T,-299.32,M,004.353,N,008.061,K,D*0C
$GPGGA,100350.85,5703.4613136,N,00952.3658513,E,2,10,0.8,-2.077,M,40.593,M,3.0,0123*61
$GPVTG,338.76,T,-301.14,M,004.299,N,007.962,K,D*09
$GPGGA,100350.90,5703.4613678,N,00952.3658079,E,2,10,0.8,-2.086,M,40.593,M,3.0,0123*6F
$GPVTG,336.85,T,-303.05,M,004.287,N,007.940,K,D*06
$GPGGA,100350.95,5703.4614213,N,00952.3657636,E,2,10,0.8,-2.089,M,40.593,M,3.0,0123*69
$GPVTG,335.38,T,-304.52,M,004.268,N,007.905,K,D*06
$GPGGA,100351.00,5703.4614734,N,00952.3657164,E,2,10,0.8,-2.093,M,40.593,M,3.0,0123*6F
$GPVTG,333.60,T,-306.30,M,004.232,N,007.838,K,D*0B
$GPGGA,100351.05,5703.4615239,N,00952.3656665,E,2,10,0.8,-2.090,M,40.593,M,1.8,0123*6D
$GPVTG,331.98,T,-307.92,M,004.196,N,007.772,K,D*0B
$GPGGA,100351.10,5703.4615744,N,00952.3656163,E,2,10,0.8,-2.094,M,40.593,M,1.8,0123*63
$GPVTG,330.69,T,-309.21,M,004.163,N,007.710,K,D*0C
$GPGGA,100351.15,5703.4616235,N,00952.3655651,E,2,10,0.8,-2.096,M,40.593,M,1.8,0123*61
$GPVTG,329.48,T,-310.42,M,004.110,N,007.613,K,D*0C
$GPGGA,100351.20,5703.4616724,N,00952.3655135,E,2,10,0.8,-2.096,M,40.593,M,1.8,0123*67
$GPVTG,328.76,T,-311.14,M,004.071,N,007.539,K,D*0F
$GPGGA,100351.25,5703.4617205,N,00952.3654613,E,2,10,0.8,-2.097,M,40.593,M,2.1,0123*6C
$GPVTG,328.13,T,-311.77,M,004.034,N,007.471,K,D*05
$GPGGA,100351.30,5703.4617671,N,00952.3654054,E,2,10,0.8,-2.090,M,40.593,M,2.1,0123*6D
$GPVTG,326.66,T,-313.24,M,004.008,N,007.423,K,D*05
$GPGGA,100351.35,5703.4618123,N,00952.3653488,E,2,10,0.8,-2.083,M,40.593,M,2.1,0123*67
$GPVTG,325.29,T,-314.61,M,003.962,N,007.337,K,D*0B
$GPGGA,100351.40,5703.4618577,N,00952.3652906,E,2,10,0.8,-2.076,M,40.593,M,2.1,0123*60
$GPVTG,324.19,T,-315.71,M,003.958,N,007.329,K,D*0F
$GPGGA,100351.45,5703.4619030,N,00952.3652305,E,2,10,0.8,-2.063,M,40.593,M,2.3,0123*6D
$GPVTG,323.21,T,-316.69,M,003.975,N,007.361,K,D*0A
$GPGGA,100351.50,5703.4619454,N,00952.3651683,E,2,10,0.8,-2.057,M,40.593,M,2.3,0123*60
$GPVTG,321.41,T,-318.49,M,003.941,N,007.300,K,D*02
$GPGGA,100351.55,5703.4619873,N,00952.3651055,E,2,10,0.8,-2.048,M,40.593,M,2.3,0123*6F
$GPVTG,320.08,T,-319.82,M,003.914,N,007.248,K,D*05
$GPGGA,100351.60,5703.4620291,N,00952.3650430,E,2,10,0.8,-2.039,M,40.593,M,2.3,0123*65
$GPVTG,319.45,T,-320.45,M,003.888,N,007.200,K,D*0F
$GPGGA,100351.65,5703.4620703,N,00952.3649781,E,2,10,0.8,-2.031,M,40.593,M,2.6,0123*62
$GPVTG,318.49,T,-321.41,M,003.889,N,007.203,K,D*05
$GPGGA,100351.70,5703.4621093,N,00952.3649086,E,2,10,0.8,-2.025,M,40.593,M,2.6,0123*6C
$GPVTG,316.30,T,-323.60,M,003.902,N,007.226,K,D*01
$GPGGA,100351.75,5703.4621465,N,00952.3648397,E,2,10,0.8,-2.021,M,40.593,M,2.6,0123*62
$GPVTG,314.51,T,-325.39,M,003.860,N,007.148,K,D*00
$GPGGA,100351.80,5703.4621832,N,00952.3647707,E,2,10,0.8,-2.015,M,40.593,M,2.6,0123*63
$GPVTG,313.33,T,-326.57,M,003.820,N,007.075,K,D*03
$GPGGA,100351.85,5703.4622201,N,00952.3647008,E,2,10,0.8,-2.004,M,40.593,M,2.8,0123*69
$GPVTG,312.66,T,-327.24,M,003.805,N,007.047,K,D*01
$GPGGA,100351.90,5703.4622567,N,00952.3646306,E,2,10,0.8,-1.998,M,40.593,M,2.8,0123*69
$GPVTG,312.24,T,-327.66,M,003.797,N,007.032,K,D*07
$GPGGA,100351.95,5703.4622911,N,00952.3645589,E,2,10,0.8,-1.989,M,40.593,M,2.8,0123*63
$GPVTG,311.05,T,-328.85,M,003.769,N,006.980,K,D*05
$GPGGA,100352.00,5703.4623236,N,00952.3644859,E,2,10,0.8,-1.985,M,40.593,M,2.8,0123*6E
$GPVTG,309.35,T,-330.55,M,003.730,N,006.909,K,D*06
$GPGGA,100352.05,5703.4623552,N,00952.3644116,E,2,10,0.8,-1.983,M,40.593,M,1.5,0123*64
$GPVTG,308.20,T,-331.70,M,003.718,N,006.886,K,D*09
$GPGGA,100352.10,5703.4623869,N,00952.3643366,E,2,10,0.8,-1.982,M,40.593,M,1.5,0123*66
$GPVTG,307.02,T,-332.88,M,003.713,N,006.876,K,D*06
$GPGGA,100352.15,5703.4624174,N,00952.3642629,E,2,10,0.8,-1.980,M,40.593,M,1.5,0123*6C
$GPVTG,306.22,T,-333.68,M,003.664,N,006.787,K,D*0A
$GPGGA,100352.20,5703.4624476,N,00952.3641888,E,2,10,0.8,-1.981,M,40.593,M,1.5,0123*6A
$GPVTG,305.61,T,-334.29,M,003.633,N,006.728,K,D*0B
$GPGGA,100352.25,5703.4624761,N,00952.3641145,E,2,10,0.8,-1.990,M,40.593,M,1.8,0123*6F
$GPVTG,304.67,T,-335.23,M,003.592,N,006.652,K,D*03
$GPGGA,100352.30,5703.4625045,N,00952.3640395,E,2,10,0.8,-1.993,M,40.593,M,1.8,0123*66
$GPVTG,303.90,T,-336.00,M,003.570,N,006.611,K,D*05
$GPGGA,100352.35,5703.4625317,N,00952.3639630,E,2,10,0.8,-1.994,M,40.593,M,1.8,0123*64
$GPVTG,302.81,T,-337.09,M,003.564,N,006.600,K,D*09
$GPGGA,100352.40,5703.4625581,N,00952.3638857,E,2,10,0.8,-1.997,M,40.593,M,1.8,0123*62
$GPVTG,301.65,T,-338.25,M,003.561,N,006.596,K,D*08
$GPGGA,100352.45,5703.4625836,N,00952.3638092,E,2,10,0.8,-2.004,M,40.593,M,2.0,0123*6C
$GPVTG,300.78,T,-339.12,M,003.537,N,006.550,K,D*09
$GPGGA,100352.50,5703.4626085,N,00952.3637322,E,2,10,0.8,-2.005,M,40.593,M,2.0,0123*6D
$GPVTG,299.96,T,-339.94,M,003.516,N,006.512,K,D*03
$GPGGA,100352.55,5703.4626333,N,00952.3636540,E,2,10,0.8,-2.008,M,40.593,M,2.0,0123*68
$GPVTG,299.28,T,-340.62,M,003.524,N,006.527,K,D*06
$GPGGA,100352.60,5703.4626577,N,00952.3635757,E,2,10,0.8,-2.011,M,40.593,M,2.0,0123*67
$GPVTG,298.81,T,-341.09,M,003.526,N,006.531,K,D*0D
$GPGGA,100352.65,5703.4626798,N,00952.3634979,E,2,10,0.8,-2.020,M,40.593,M,2.2,0123*62
$GPVTG,297.86,T,-342.04,M,003.489,N,006.462,K,D*08
$GPGGA,100352.70,5703.4627007,N,00952.3634191,E,2,10,0.8,-2.019,M,40.593,M,2.2,0123*62
$GPVTG,296.38,T,-343.52,M,003.461,N,006.410,K,D*0D
$GPGGA,100352.75,5703.4627206,N,00952.3633406,E,2,10,0.8,-2.019,M,40.593,M,2.2,0123*68
$GPVTG,295.01,T,-344.89,M,003.424,N,006.341,K,D*07
$GPGGA,100352.80,5703.4627385,N,00952.3632615,E,2,10,0.8,-2.022,M,40.593,M,2.2,0123*61
$GPVTG,293.09,T,-346.81,M,003.387,N,006.273,K,D*0D
$GPGGA,100352.85,5703.4627558,N,00952.3631825,E,2,10,0.8,-2.027,M,40.593,M,2.4,0123*6F
$GPVTG,291.92,T,-347.98,M,003.350,N,006.205,K,D*0F
$GPGGA,100352.90,5703.4627730,N,00952.3631031,E,2,10,0.8,-2.028,M,40.593,M,2.4,0123*65
$GPVTG,290.80,T,-349.10,M,003.338,N,006.183,K,D*00
$GPGGA,100352.95,5703.4627883,N,00952.3630242,E,2,10,0.8,-2.026,M,40.593,M,2.4,0123*6E
$GPVTG,289.26,T,-350.64,M,003.301,N,006.114,K,D*0B
$GPGGA,100353.00,5703.4628031,N,00952.3629463,E,2,10,0.8,-2.026,M,40.593,M,2.4,0123*60
$GPVTG,288.23,T,-351.67,M,003.255,N,006.027,K,D*0C
$GPGGA,100353.05,5703.4628151,N,00952.3628669,E,2,10,0.8,-2.025,M,40.593,M,2.7,0123*6B
$GPVTG,286.56,T,-353.34,M,003.227,N,005.977,K,D*0E
$GPGGA,100353.10,5703.4628273,N,00952.3627881,E,2,10,0.8,-2.026,M,40.593,M,2.7,0123*68
$GPVTG,285.14,T,-354.76,M,003.206,N,005.938,K,D*02
$GPGGA,100353.15,5703.4628392,N,00952.3627091,E,2,10,0.8,-2.027,M,40.593,M,2.7,0123*6B
$GPVTG,284.18,T,-355.72,M,003.198,N,005.923,K,D*04
$GPGGA,100353.20,5703.4628499,N,00952.3626297,E,2,10,0.8,-2.027,M,40.593,M,2.7,0123*64
$GPVTG,282.98,T,-356.92,M,003.195,N,005.918,K,D*02
$GPGGA,100353.25,5703.4628598,N,00952.3625520,E,2,10,0.8,-2.026,M,40.593,M,2.9,0123*66
$GPVTG,281.62,T,-358.28,M,003.168,N,005.867,K,D*00
$GPGGA,100353.30,5703.4628661,N,00952.3624738,E,2,10,0.8,-2.025,M,40.593,M,2.9,0123*6E
$GPVTG,279.23,T,-360.67,M,003.129,N,005.794,K,D*04
$GPGGA,100353.35,5703.4628716,N,00952.3623967,E,2,10,0.8,-2.025,M,40.593,M,2.9,0123*69
$GPVTG,277.21,T,-362.69,M,003.082,N,005.708,K,D*01
