$GPGGA,084602.30,5700.9255137,N,00959.1846793,E,2,8,1.1,9.758,M,40.583,M,1.8,0123*7D\r\n
$GPGGA,084602.35,5700.9255137,N,00959.1846793,E,2,8,1.1,9.758,M,40.583,M,1.8,0123*78\r\n
$GPGGA,084602.40,5700.9255138,N,00959.1846793,E,2,8,1.1,9.758,M,40.583,M,1.8,0123*75\r\n
$GPGGA,084602.45,5700.9255157,N,00959.1846803,E,2,8,1.1,9.757,M,40.583,M,2.0,0123*7B\r\n
$GPGGA,084602.50,5700.9255158,N,00959.1846802,E,2,8,1.1,9.757,M,40.583,M,2.0,0123*71\r\n
$GPGGA,084602.55,5700.9255159,N,00959.1846804,E,2,8,1.1,9.757,M,40.583,M,2.0,0123*73\r\n
$GPGGA,084602.60,5700.9255159,N,00959.1846803,E,2,8,1.1,9.757,M,40.583,M,2.0,0123*72\r\n
$GPGGA,084602.65,5700.9255140,N,00959.1846787,E,2,8,1.1,9.756,M,40.583,M,2.3,0123*7E\r\n
$GPGGA,084602.70,5700.9255140,N,00959.1846787,E,2,8,1.1,9.756,M,40.583,M,2.3,0123*7A\r\n
$GPGGA,084602.75,5700.9255141,N,00959.1846786,E,2,8,1.1,9.756,M,40.583,M,2.3,0123*7F\r\n
$GPGGA,084602.80,5700.9255141,N,00959.1846786,E,2,8,1.1,9.756,M,40.583,M,2.3,0123*75\r\n
$GPGGA,084602.85,5700.9255147,N,00959.1846783,E,2,8,1.1,9.755,M,40.583,M,1.4,0123*74\r\n
$GPGGA,084602.90,5700.9255148,N,00959.1846783,E,2,8,1.1,9.755,M,40.583,M,1.4,0123*7F\r\n
$GPGGA,084602.95,5700.9255148,N,00959.1846781,E,2,8,1.1,9.755,M,40.583,M,1.4,0123*78\r\n
$GPGGA,084603.00,5700.9255149,N,00959.1846781,E,2,8,1.1,9.755,M,40.583,M,1.4,0123*74\r\n
$GPGGA,084603.05,5700.9255057,N,00959.1846812,E,2,8,1.1,9.773,M,40.583,M,1.7,0123*7D\r\n
$GPGGA,084603.10,5700.9255057,N,00959.1846812,E,2,8,1.1,9.772,M,40.583,M,1.7,0123*78\r\n
$GPGGA,084603.15,5700.9255057,N,00959.1846812,E,2,8,1.1,9.772,M,40.583,M,1.7,0123*7D\r\n
$GPGGA,084603.20,5700.9255057,N,00959.1846812,E,2,8,1.1,9.772,M,40.583,M,1.7,0123*7B\r\n
$GPGGA,084603.25,5700.9255060,N,00959.1846810,E,2,8,1.1,9.775,M,40.583,M,1.9,0123*71\r\n
$GPGGA,084603.30,5700.9255060,N,00959.1846810,E,2,8,1.1,9.775,M,40.583,M,1.9,0123*75\r\n
$GPGGA,084603.35,5700.9255061,N,00959.1846809,E,2,8,1.1,9.775,M,40.583,M,1.9,0123*79\r\n
$GPGGA,084603.40,5700.9255061,N,00959.1846811,E,2,8,1.1,9.775,M,40.583,M,1.9,0123*72\r\n
$GPGGA,084603.45,5700.9255061,N,00959.1846818,E,2,8,1.1,9.775,M,40.583,M,2.1,0123*75\r\n
$GPGGA,084603.50,5700.9255061,N,00959.1846819,E,2,8,1.1,9.775,M,40.583,M,2.1,0123*70\r\n
$GPGGA,084603.55,5700.9255061,N,00959.1846819,E,2,8,1.1,9.775,M,40.583,M,2.1,0123*75\r\n
$GPGGA,084603.60,5700.9255062,N,00959.1846817,E,2,8,1.1,9.775,M,40.583,M,2.1,0123*7E\r\n
$GPGGA,084603.65,5700.9255078,N,00959.1846797,E,2,8,1.1,9.773,M,40.583,M,2.4,0123*74\r\n
$GPGGA,084603.70,5700.9255078,N,00959.1846797,E,2,8,1.1,9.773,M,40.583,M,2.4,0123*70\r\n
$GPGGA,084603.75,5700.9255079,N,00959.1846797,E,2,8,1.1,9.773,M,40.583,M,2.4,0123*74\r\n
$GPGGA,084603.80,5700.9255081,N,00959.1846795,E,2,8,1.1,9.773,M,40.583,M,2.4,0123*7B\r\n
$GPGGA,084603.85,5700.9255063,N,00959.1846805,E,2,8,1.1,9.774,M,40.583,M,2.6,0123*71\r\n
$GPGGA,084603.90,5700.9255064,N,00959.1846804,E,2,8,1.1,9.774,M,40.583,M,2.6,0123*73\r\n
$GPGGA,084603.95,5700.9255065,N,00959.1846804,E,2,8,1.1,9.774,M,40.583,M,2.6,0123*77\r\n
$GPGGA,084604.00,5700.9255065,N,00959.1846805,E,2,8,1.1,9.774,M,40.583,M,2.6,0123*7D\r\n
$GPGGA,084604.05,5700.9254988,N,00959.1846847,E,2,8,1.1,9.792,M,40.583,M,2.8,0123*73\r\n
$GPGGA,084604.10,5700.9254989,N,00959.1846847,E,2,8,1.1,9.792,M,40.583,M,2.8,0123*76\r\n
$GPGGA,084604.15,5700.9254990,N,00959.1846847,E,2,8,1.1,9.792,M,40.583,M,2.8,0123*7B\r\n
$GPGGA,084604.20,5700.9254990,N,00959.1846849,E,2,8,1.1,9.792,M,40.583,M,2.8,0123*73\r\n
$GPGGA,084604.25,5700.9254972,N,00959.1846825,E,2,8,1.1,9.792,M,40.583,M,3.0,0123*79\r\n
$GPGGA,084604.30,5700.9254972,N,00959.1846825,E,2,8,1.1,9.792,M,40.583,M,3.0,0123*7D\r\n
$GPGGA,084604.35,5700.9254972,N,00959.1846825,E,2,8,1.1,9.792,M,40.583,M,3.0,0123*78\r\n
$GPGGA,084604.40,5700.9254972,N,00959.1846826,E,2,8,1.1,9.792,M,40.583,M,3.0,0123*79\r\n
$GPGGA,084604.45,5700.9254976,N,00959.1846828,E,2,8,1.1,9.791,M,40.583,M,3.2,0123*77\r\n
$GPGGA,084604.50,5700.9254976,N,00959.1846829,E,2,8,1.1,9.791,M,40.583,M,3.2,0123*72\r\n
$GPGGA,084604.55,5700.9254976,N,00959.1846828,E,2,8,1.1,9.791,M,40.583,M,3.2,0123*76\r\n
$GPGGA,084604.60,5700.9254975,N,00959.1846828,E,2,8,1.1,9.791,M,40.583,M,3.2,0123*73\r\n
$GPGGA,084604.65,5700.9254977,N,00959.1846822,E,2,8,1.1,9.791,M,40.583,M,3.4,0123*78\r\n
$GPGGA,084604.70,5700.9254976,N,00959.1846821,E,2,8,1.1,9.791,M,40.583,M,3.4,0123*7E\r\n
$GPGGA,084604.75,5700.9254976,N,00959.1846821,E,2,8,1.1,9.791,M,40.583,M,3.4,0123*7B\r\n
$GPGGA,084604.80,5700.9254975,N,00959.1846821,E,2,8,1.1,9.791,M,40.583,M,3.4,0123*72\r\n
$GPGGA,084604.85,5700.9254972,N,00959.1846822,E,2,8,1.1,9.789,M,40.583,M,1.7,0123*7B\r\n
$GPGGA,084604.90,5700.9254972,N,00959.1846821,E,2,8,1.1,9.789,M,40.583,M,1.7,0123*7C\r\n
$GPGGA,084604.95,5700.9254971,N,00959.1846821,E,2,8,1.1,9.789,M,40.583,M,1.7,0123*7A\r\n
$GPGGA,084605.00,5700.9254970,N,00959.1846820,E,2,8,1.1,9.789,M,40.583,M,1.7,0123*77\r\n
$GPGGA,084605.05,5700.9254893,N,00959.1846843,E,2,8,1.1,9.812,M,40.583,M,2.0,0123*72\r\n
$GPGGA,084605.10,5700.9254893,N,00959.1846842,E,2,8,1.1,9.812,M,40.583,M,2.0,0123*77\r\n
$GPGGA,084605.15,5700.9254892,N,00959.1846841,E,2,8,1.1,9.812,M,40.583,M,2.0,0123*70\r\n
$GPGGA,084605.20,5700.9254892,N,00959.1846841,E,2,8,1.1,9.812,M,40.583,M,2.0,0123*76\r\n
$GPGGA,084605.25,5700.9254907,N,00959.1846850,E,2,8,1.1,9.810,M,40.583,M,2.3,0123*7F\r\n
$GPGGA,084605.30,5700.9254907,N,00959.1846850,E,2,8,1.1,9.810,M,40.583,M,2.3,0123*7B\r\n
$GPGGA,084605.35,5700.9254907,N,00959.1846851,E,2,8,1.1,9.810,M,40.583,M,2.3,0123*7F\r\n
$GPGGA,084605.40,5700.9254907,N,00959.1846848,E,2,8,1.1,9.810,M,40.583,M,2.3,0123*75\r\n
$GPGGA,084605.45,5700.9254901,N,00959.1846844,E,2,8,1.1,9.810,M,40.583,M,2.6,0123*7F\r\n
$GPGGA,084605.50,5700.9254900,N,00959.1846843,E,2,8,1.1,9.810,M,40.583,M,2.6,0123*7D\r\n
$GPGGA,084605.55,5700.9254901,N,00959.1846844,E,2,8,1.1,9.810,M,40.583,M,2.6,0123*7E\r\n
$GPGGA,084605.60,5700.9254900,N,00959.1846843,E,2,8,1.1,9.810,M,40.583,M,2.6,0123*7E\r\n
$GPGGA,084605.65,5700.9254916,N,00959.1846849,E,2,8,1.1,9.810,M,40.583,M,2.8,0123*78\r\n
$GPGGA,084605.70,5700.9254916,N,00959.1846848,E,2,8,1.1,9.809,M,40.583,M,2.8,0123*75\r\n
$GPGGA,084605.75,5700.9254917,N,00959.1846848,E,2,8,1.1,9.809,M,40.583,M,2.8,0123*71\r\n
$GPGGA,084605.80,5700.9254917,N,00959.1846848,E,2,8,1.1,9.809,M,40.583,M,2.8,0123*7B\r\n
$GPGGA,084605.85,5700.9254901,N,00959.1846845,E,2,8,1.1,9.810,M,40.583,M,1.3,0123*74\r\n
$GPGGA,084605.90,5700.9254901,N,00959.1846844,E,2,8,1.1,9.810,M,40.583,M,1.3,0123*71\r\n
$GPGGA,084605.95,5700.9254902,N,00959.1846844,E,2,8,1.1,9.810,M,40.583,M,1.3,0123*77\r\n
$GPGGA,084606.00,5700.9254902,N,00959.1846843,E,2,8,1.1,9.810,M,40.583,M,1.3,0123*7F\r\n
$GPGGA,084606.05,5700.9254821,N,00959.1846877,E,2,8,1.1,9.823,M,40.583,M,1.6,0123*78\r\n
$GPGGA,084606.10,5700.9254822,N,00959.1846877,E,2,8,1.1,9.823,M,40.583,M,1.6,0123*7F\r\n
$GPGGA,084606.15,5700.9254822,N,00959.1846875,E,2,8,1.1,9.823,M,40.583,M,1.6,0123*78\r\n
$GPGGA,084606.20,5700.9254823,N,00959.1846875,E,2,8,1.1,9.823,M,40.583,M,1.6,0123*7F\r\n
$GPGGA,084606.25,5700.9254814,N,00959.1846879,E,2,8,1.1,9.826,M,40.583,M,1.8,0123*79\r\n
$GPGGA,084606.30,5700.9254814,N,00959.1846879,E,2,8,1.1,9.826,M,40.583,M,1.8,0123*7D\r\n
$GPGGA,084606.35,5700.9254814,N,00959.1846878,E,2,8,1.1,9.826,M,40.583,M,1.8,0123*79\r\n
$GPGGA,084606.40,5700.9254815,N,00959.1846877,E,2,8,1.1,9.826,M,40.583,M,1.8,0123*75\r\n
$GPGGA,084606.45,5700.9254838,N,00959.1846888,E,2,8,1.1,9.822,M,40.583,M,2.0,0123*70\r\n
$GPGGA,084606.50,5700.9254838,N,00959.1846888,E,2,8,1.1,9.822,M,40.583,M,2.0,0123*74\r\n
$GPGGA,084606.55,5700.9254839,N,00959.1846886,E,2,8,1.1,9.822,M,40.583,M,2.0,0123*7E\r\n
$GPGGA,084606.60,5700.9254839,N,00959.1846886,E,2,8,1.1,9.821,M,40.583,M,2.0,0123*7B\r\n
$GPGGA,084606.65,5700.9254816,N,00959.1846881,E,2,8,1.1,9.825,M,40.583,M,2.3,0123*73\r\n
$GPGGA,084606.70,5700.9254816,N,00959.1846880,E,2,8,1.1,9.825,M,40.583,M,2.3,0123*76\r\n
$GPGGA,084606.75,5700.9254817,N,00959.1846880,E,2,8,1.1,9.824,M,40.583,M,2.3,0123*73\r\n
$GPGGA,084606.80,5700.9254817,N,00959.1846881,E,2,8,1.1,9.824,M,40.583,M,2.3,0123*78\r\n
$GPGGA,084606.85,5700.9254826,N,00959.1846888,E,2,8,1.1,9.824,M,40.583,M,1.4,0123*72\r\n
$GPGGA,084606.90,5700.9254826,N,00959.1846888,E,2,8,1.1,9.824,M,40.583,M,1.4,0123*76\r\n
$GPGGA,084606.95,5700.9254826,N,00959.1846888,E,2,8,1.1,9.824,M,40.583,M,1.4,0123*73\r\n
$GPGGA,084607.00,5700.9254827,N,00959.1846888,E,2,8,1.1,9.824,M,40.583,M,1.4,0123*7F\r\n
$GPGGA,084607.05,5700.9254740,N,00959.1846933,E,2,8,1.1,9.837,M,40.583,M,1.7,0123*74\r\n
$GPGGA,084607.10,5700.9254740,N,00959.1846933,E,2,8,1.1,9.837,M,40.583,M,1.7,0123*70\r\n
$GPGGA,084607.15,5700.9254741,N,00959.1846934,E,2,8,1.1,9.837,M,40.583,M,1.7,0123*73\r\n
$GPGGA,084607.20,5700.9254741,N,00959.1846935,E,2,8,1.1,9.836,M,40.583,M,1.7,0123*75\r\n
$GPGGA,084607.25,5700.9254744,N,00959.1846931,E,2,8,1.1,9.839,M,40.583,M,1.9,0123*70\r\n
$GPGGA,084607.30,5700.9254745,N,00959.1846931,E,2,8,1.1,9.839,M,40.583,M,1.9,0123*75\r\n
$GPGGA,084607.35,5700.9254745,N,00959.1846932,E,2,8,1.1,9.839,M,40.583,M,1.9,0123*73\r\n
$GPGGA,084607.40,5700.9254745,N,00959.1846932,E,2,8,1.1,9.839,M,40.583,M,1.9,0123*71\r\n
$GPGGA,084607.45,5700.9254747,N,00959.1846933,E,2,8,1.1,9.838,M,40.583,M,2.1,0123*7D\r\n
$GPGGA,084607.50,5700.9254747,N,00959.1846934,E,2,8,1.1,9.838,M,40.583,M,2.1,0123*7E\r\n
$GPGGA,084607.55,5700.9254748,N,00959.1846935,E,2,8,1.1,9.838,M,40.583,M,2.1,0123*75\r\n
$GPGGA,084607.60,5700.9254748,N,00959.1846934,E,2,8,1.1,9.838,M,40.583,M,2.1,0123*72\r\n
$GPGGA,084607.65,5700.9254752,N,00959.1846938,E,2,8,1.1,9.836,M,40.583,M,2.4,0123*7B\r\n
$GPGGA,084607.70,5700.9254752,N,00959.1846938,E,2,8,1.1,9.836,M,40.583,M,2.4,0123*7F\r\n
$GPGGA,084607.75,5700.9254753,N,00959.1846938,E,2,8,1.1,9.836,M,40.583,M,2.4,0123*7B\r\n
$GPGGA,084607.80,5700.9254754,N,00959.1846940,E,2,8,1.1,9.836,M,40.583,M,2.4,0123*79\r\n
$GPGGA,084607.85,5700.9254746,N,00959.1846930,E,2,8,1.1,9.837,M,40.583,M,2.6,0123*7B\r\n
$GPGGA,084607.90,5700.9254746,N,00959.1846930,E,2,8,1.1,9.837,M,40.583,M,2.6,0123*7F\r\n
$GPGGA,084607.95,5700.9254747,N,00959.1846930,E,2,8,1.1,9.837,M,40.583,M,2.6,0123*7B\r\n
$GPGGA,084608.00,5700.9254747,N,00959.1846930,E,2,8,1.1,9.837,M,40.583,M,2.6,0123*78\r\n
$GPGGA,084608.05,5700.9254670,N,00959.1846974,E,2,8,1.1,9.848,M,40.583,M,2.8,0123*7E\r\n
$GPGGA,084608.10,5700.9254670,N,00959.1846973,E,2,8,1.1,9.848,M,40.583,M,2.8,0123*7D\r\n
$GPGGA,084608.15,5700.9254670,N,00959.1846973,E,2,8,1.1,9.848,M,40.583,M,2.8,0123*78\r\n
$GPGGA,084608.20,5700.9254671,N,00959.1846973,E,2,8,1.1,9.847,M,40.583,M,2.8,0123*70\r\n
$GPGGA,084608.25,5700.9254681,N,00959.1846966,E,2,8,1.1,9.851,M,40.583,M,3.0,0123*70\r\n
$GPGGA,084608.30,5700.9254681,N,00959.1846966,E,2,8,1.1,9.851,M,40.583,M,3.0,0123*74\r\n
$GPGGA,084608.35,5700.9254681,N,00959.1846966,E,2,8,1.1,9.850,M,40.583,M,3.0,0123*70\r\n
$GPGGA,084608.40,5700.9254682,N,00959.1846965,E,2,8,1.1,9.850,M,40.583,M,3.0,0123*72\r\n
$GPGGA,084608.45,5700.9254681,N,00959.1846977,E,2,8,1.1,9.851,M,40.583,M,3.2,0123*74\r\n
$GPGGA,084608.50,5700.9254681,N,00959.1846977,E,2,8,1.1,9.851,M,40.583,M,3.2,0123*70\r\n
$GPGGA,084608.55,5700.9254681,N,00959.1846977,E,2,8,1.1,9.851,M,40.583,M,3.2,0123*75\r\n
$GPGGA,084608.60,5700.9254682,N,00959.1846978,E,2,8,1.1,9.851,M,40.583,M,3.2,0123*7F\r\n
$GPGGA,084608.65,5700.9254673,N,00959.1846985,E,2,8,1.1,9.849,M,40.583,M,3.4,0123*79\r\n
$GPGGA,084608.70,5700.9254673,N,00959.1846985,E,2,8,1.1,9.849,M,40.583,M,3.4,0123*7D\r\n
$GPGGA,084608.75,5700.9254673,N,00959.1846986,E,2,8,1.1,9.849,M,40.583,M,3.4,0123*7B\r\n
$GPGGA,084608.80,5700.9254673,N,00959.1846986,E,2,8,1.1,9.849,M,40.583,M,3.4,0123*71\r\n
$GPGGA,084608.85,5700.9254681,N,00959.1846974,E,2,8,1.1,9.849,M,40.583,M,1.7,0123*75\r\n
$GPGGA,084608.90,5700.9254681,N,00959.1846975,E,2,8,1.1,9.849,M,40.583,M,1.7,0123*70\r\n
$GPGGA,084608.95,5700.9254682,N,00959.1846974,E,2,8,1.1,9.849,M,40.583,M,1.7,0123*77\r\n
$GPGGA,084609.00,5700.9254682,N,00959.1846975,E,2,8,1.1,9.849,M,40.583,M,1.7,0123*7B\r\n
$GPGGA,084609.05,5700.9254600,N,00959.1847015,E,2,8,1.1,9.860,M,40.583,M,2.0,0123*75\r\n
$GPGGA,084609.10,5700.9254600,N,00959.1847015,E,2,8,1.1,9.860,M,40.583,M,2.0,0123*71\r\n
$GPGGA,084609.15,5700.9254600,N,00959.1847016,E,2,8,1.1,9.859,M,40.583,M,2.0,0123*7D\r\n
$GPGGA,084609.20,5700.9254600,N,00959.1847015,E,2,8,1.1,9.859,M,40.583,M,2.0,0123*78\r\n
$GPGGA,084609.25,5700.9254618,N,00959.1847027,E,2,8,1.1,9.858,M,40.583,M,2.3,0123*77\r\n
$GPGGA,084609.30,5700.9254619,N,00959.1847027,E,2,8,1.1,9.858,M,40.583,M,2.3,0123*72\r\n
$GPGGA,084609.35,5700.9254619,N,00959.1847029,E,2,8,1.1,9.857,M,40.583,M,2.3,0123*76\r\n
$GPGGA,084609.40,5700.9254619,N,00959.1847028,E,2,8,1.1,9.857,M,40.583,M,2.3,0123*75\r\n
$GPGGA,084609.45,5700.9254619,N,00959.1847028,E,2,8,1.1,9.858,M,40.583,M,2.6,0123*7A\r\n
$GPGGA,084609.50,5700.9254619,N,00959.1847028,E,2,8,1.1,9.857,M,40.583,M,2.6,0123*71\r\n
$GPGGA,084609.55,5700.9254619,N,00959.1847028,E,2,8,1.1,9.857,M,40.583,M,2.6,0123*74\r\n
$GPGGA,084609.60,5700.9254620,N,00959.1847030,E,2,8,1.1,9.857,M,40.583,M,2.6,0123*71\r\n
$GPGGA,084609.65,5700.9254607,N,00959.1847018,E,2,8,1.1,9.861,M,40.583,M,2.8,0123*70\r\n
$GPGGA,084609.70,5700.9254608,N,00959.1847018,E,2,8,1.1,9.861,M,40.583,M,2.8,0123*7B\r\n
$GPGGA,084609.75,5700.9254608,N,00959.1847019,E,2,8,1.1,9.861,M,40.583,M,2.8,0123*7F\r\n
$GPGGA,084609.80,5700.9254608,N,00959.1847018,E,2,8,1.1,9.860,M,40.583,M,2.8,0123*75\r\n
$GPGGA,084609.85,5700.9254624,N,00959.1847031,E,2,8,1.1,9.859,M,40.583,M,1.3,0123*77\r\n
$GPGGA,084609.90,5700.9254625,N,00959.1847031,E,2,8,1.1,9.859,M,40.583,M,1.3,0123*72\r\n
$GPGGA,084609.95,5700.9254626,N,00959.1847032,E,2,8,1.1,9.859,M,40.583,M,1.3,0123*77\r\n
$GPGGA,084610.00,5700.9254626,N,00959.1847032,E,2,8,1.1,9.859,M,40.583,M,1.3,0123*73\r\n
$GPGGA,084610.05,5700.9254558,N,00959.1847053,E,2,8,1.1,9.873,M,40.583,M,1.6,0123*76\r\n
$GPGGA,084610.10,5700.9254558,N,00959.1847054,E,2,8,1.1,9.873,M,40.583,M,1.6,0123*75\r\n
$GPGGA,084610.15,5700.9254558,N,00959.1847053,E,2,8,1.1,9.873,M,40.583,M,1.6,0123*77\r\n
$GPGGA,084610.20,5700.9254558,N,00959.1847055,E,2,8,1.1,9.873,M,40.583,M,1.6,0123*77\r\n
$GPGGA,084610.25,5700.9254560,N,00959.1847062,E,2,8,1.1,9.874,M,40.583,M,1.8,0123*74\r\n
$GPGGA,084610.30,5700.9254561,N,00959.1847062,E,2,8,1.1,9.874,M,40.583,M,1.8,0123*71\r\n
$GPGGA,084610.35,5700.9254561,N,00959.1847062,E,2,8,1.1,9.874,M,40.583,M,1.8,0123*74\r\n
$GPGGA,084610.40,5700.9254561,N,00959.1847064,E,2,8,1.1,9.873,M,40.583,M,1.8,0123*77\r\n
$GPGGA,084610.45,5700.9254567,N,00959.1847065,E,2,8,1.1,9.874,M,40.583,M,2.0,0123*79\r\n
$GPGGA,084610.50,5700.9254567,N,00959.1847066,E,2,8,1.1,9.873,M,40.583,M,2.0,0123*79\r\n
$GPGGA,084610.55,5700.9254567,N,00959.1847066,E,2,8,1.1,9.873,M,40.583,M,2.0,0123*7C\r\n
$GPGGA,084610.60,5700.9254567,N,00959.1847067,E,2,8,1.1,9.873,M,40.583,M,2.0,0123*7B\r\n
$GPGGA,084610.65,5700.9254563,N,00959.1847051,E,2,8,1.1,9.873,M,40.583,M,2.3,0123*7C\r\n
$GPGGA,084610.70,5700.9254563,N,00959.1847050,E,2,8,1.1,9.873,M,40.583,M,2.3,0123*79\r\n
$GPGGA,084610.75,5700.9254563,N,00959.1847051,E,2,8,1.1,9.873,M,40.583,M,2.3,0123*7D\r\n
$GPGGA,084610.80,5700.9254563,N,00959.1847050,E,2,8,1.1,9.873,M,40.583,M,2.3,0123*76\r\n
$GPGGA,084610.85,5700.9254576,N,00959.1847055,E,2,8,1.1,9.870,M,40.583,M,1.4,0123*75\r\n
$GPGGA,084610.90,5700.9254576,N,00959.1847055,E,2,8,1.1,9.870,M,40.583,M,1.4,0123*71\r\n
$GPGGA,084610.95,5700.9254577,N,00959.1847055,E,2,8,1.1,9.870,M,40.583,M,1.4,0123*75\r\n
$GPGGA,084611.00,5700.9254578,N,00959.1847055,E,2,8,1.1,9.869,M,40.583,M,1.4,0123*7F\r\n
$GPGGA,084611.05,5700.9254520,N,00959.1847089,E,2,8,1.1,9.881,M,40.583,M,1.7,0123*73\r\n
$GPGGA,084611.10,5700.9254520,N,00959.1847089,E,2,8,1.1,9.880,M,40.583,M,1.7,0123*76\r\n
$GPGGA,084611.15,5700.9254521,N,00959.1847088,E,2,8,1.1,9.880,M,40.583,M,1.7,0123*73\r\n
$GPGGA,084611.20,5700.9254522,N,00959.1847089,E,2,8,1.1,9.880,M,40.583,M,1.7,0123*77\r\n
$GPGGA,084611.25,5700.9254537,N,00959.1847087,E,2,8,1.1,9.885,M,40.583,M,1.9,0123*73\r\n
$GPGGA,084611.30,5700.9254538,N,00959.1847086,E,2,8,1.1,9.885,M,40.583,M,1.9,0123*79\r\n
$GPGGA,084611.35,5700.9254539,N,00959.1847086,E,2,8,1.1,9.885,M,40.583,M,1.9,0123*7D\r\n
$GPGGA,084611.40,5700.9254540,N,00959.1847086,E,2,8,1.1,9.885,M,40.583,M,1.9,0123*71\r\n
$GPGGA,084611.45,5700.9254518,N,00959.1847080,E,2,8,1.1,9.881,M,40.583,M,2.1,0123*70\r\n
$GPGGA,084611.50,5700.9254519,N,00959.1847080,E,2,8,1.1,9.881,M,40.583,M,2.1,0123*75\r\n
$GPGGA,084611.55,5700.9254519,N,00959.1847081,E,2,8,1.1,9.881,M,40.583,M,2.1,0123*71\r\n
$GPGGA,084611.60,5700.9254519,N,00959.1847080,E,2,8,1.1,9.881,M,40.583,M,2.1,0123*76\r\n
$GPGGA,084611.65,5700.9254527,N,00959.1847084,E,2,8,1.1,9.881,M,40.583,M,2.4,0123*7F\r\n
$GPGGA,084611.70,5700.9254527,N,00959.1847083,E,2,8,1.1,9.881,M,40.583,M,2.4,0123*7C\r\n
$GPGGA,084611.75,5700.9254528,N,00959.1847083,E,2,8,1.1,9.880,M,40.583,M,2.4,0123*77\r\n
$GPGGA,084611.80,5700.9254528,N,00959.1847084,E,2,8,1.1,9.880,M,40.583,M,2.4,0123*7A\r\n
$GPGGA,084611.85,5700.9254527,N,00959.1847090,E,2,8,1.1,9.880,M,40.583,M,2.6,0123*77\r\n
$GPGGA,084611.90,5700.9254527,N,00959.1847089,E,2,8,1.1,9.879,M,40.583,M,2.6,0123*7D\r\n
$GPGGA,084611.95,5700.9254527,N,00959.1847089,E,2,8,1.1,9.879,M,40.583,M,2.6,0123*78\r\n
$GPGGA,084612.00,5700.9254527,N,00959.1847090,E,2,8,1.1,9.879,M,40.583,M,2.6,0123*7F\r\n
$GPGGA,084612.05,5700.9254477,N,00959.1847117,E,2,8,1.1,9.893,M,40.583,M,2.8,0123*7A\r\n
$GPGGA,084612.10,5700.9254477,N,00959.1847116,E,2,8,1.1,9.893,M,40.583,M,2.8,0123*7F\r\n
$GPGGA,084612.15,5700.9254477,N,00959.1847118,E,2,8,1.1,9.893,M,40.583,M,2.8,0123*74\r\n
$GPGGA,084612.20,5700.9254476,N,00959.1847118,E,2,8,1.1,9.892,M,40.583,M,2.8,0123*72\r\n
$GPGGA,084612.25,5700.9254477,N,00959.1847116,E,2,8,1.1,9.893,M,40.583,M,3.0,0123*70\r\n
$GPGGA,084612.30,5700.9254476,N,00959.1847116,E,2,8,1.1,9.893,M,40.583,M,3.0,0123*75\r\n
$GPGGA,084612.35,5700.9254476,N,00959.1847116,E,2,8,1.1,9.893,M,40.583,M,3.0,0123*70\r\n
$GPGGA,084612.40,5700.9254475,N,00959.1847117,E,2,8,1.1,9.892,M,40.583,M,3.0,0123*71\r\n
$GPGGA,084612.45,5700.9254485,N,00959.1847122,E,2,8,1.1,9.886,M,40.583,M,3.2,0123*7A\r\n
$GPGGA,084612.50,5700.9254485,N,00959.1847121,E,2,8,1.1,9.886,M,40.583,M,3.2,0123*7D\r\n
$GPGGA,084612.55,5700.9254485,N,00959.1847121,E,2,8,1.1,9.886,M,40.583,M,3.2,0123*78\r\n
$GPGGA,084612.60,5700.9254485,N,00959.1847122,E,2,8,1.1,9.886,M,40.583,M,3.2,0123*7D\r\n
$GPGGA,084612.65,5700.9254490,N,00959.1847120,E,2,8,1.1,9.891,M,40.583,M,3.4,0123*7E\r\n
$GPGGA,084612.70,5700.9254490,N,00959.1847120,E,2,8,1.1,9.890,M,40.583,M,3.4,0123*7B\r\n
$GPGGA,084612.75,5700.9254490,N,00959.1847119,E,2,8,1.1,9.890,M,40.583,M,3.4,0123*74\r\n
$GPGGA,084612.80,5700.9254491,N,00959.1847119,E,2,8,1.1,9.890,M,40.583,M,3.4,0123*7F\r\n
$GPGGA,084612.85,5700.9254488,N,00959.1847100,E,2,8,1.1,9.891,M,40.583,M,1.7,0123*7A\r\n
$GPGGA,084612.90,5700.9254488,N,00959.1847100,E,2,8,1.1,9.891,M,40.583,M,1.7,0123*7E\r\n
$GPGGA,084612.95,5700.9254488,N,00959.1847099,E,2,8,1.1,9.891,M,40.583,M,1.7,0123*7A\r\n
$GPGGA,084613.00,5700.9254488,N,00959.1847099,E,2,8,1.1,9.891,M,40.583,M,1.7,0123*77\r\n
$GPGGA,084613.05,5700.9254457,N,00959.1847154,E,2,8,1.1,9.898,M,40.583,M,2.0,0123*7D\r\n
$GPGGA,084613.10,5700.9254458,N,00959.1847154,E,2,8,1.1,9.898,M,40.583,M,2.0,0123*76\r\n
$GPGGA,084613.15,5700.9254458,N,00959.1847155,E,2,8,1.1,9.898,M,40.583,M,2.0,0123*72\r\n
$GPGGA,084613.20,5700.9254458,N,00959.1847155,E,2,8,1.1,9.898,M,40.583,M,2.0,0123*74\r\n
$GPGGA,084613.25,5700.9254440,N,00959.1847149,E,2,8,1.1,9.901,M,40.583,M,2.3,0123*77\r\n
$GPGGA,084613.30,5700.9254440,N,00959.1847149,E,2,8,1.1,9.901,M,40.583,M,2.3,0123*73\r\n
$GPGGA,084613.35,5700.9254440,N,00959.1847150,E,2,8,1.1,9.901,M,40.583,M,2.3,0123*7E\r\n
$GPGGA,084613.40,5700.9254440,N,00959.1847151,E,2,8,1.1,9.901,M,40.583,M,2.3,0123*7D\r\n
$GPGGA,084613.45,5700.9254474,N,00959.1847168,E,2,8,1.1,9.894,M,40.583,M,2.6,0123*7D\r\n
$GPGGA,084613.50,5700.9254475,N,00959.1847168,E,2,8,1.1,9.894,M,40.583,M,2.6,0123*78\r\n
$GPGGA,084613.55,5700.9254476,N,00959.1847168,E,2,8,1.1,9.894,M,40.583,M,2.6,0123*7E\r\n
$GPGGA,084613.60,5700.9254477,N,00959.1847170,E,2,8,1.1,9.894,M,40.583,M,2.6,0123*70\r\n
$GPGGA,084613.65,5700.9254448,N,00959.1847146,E,2,8,1.1,9.897,M,40.583,M,2.8,0123*71\r\n
$GPGGA,084613.70,5700.9254448,N,00959.1847146,E,2,8,1.1,9.897,M,40.583,M,2.8,0123*75\r\n
$GPGGA,084613.75,5700.9254448,N,00959.1847146,E,2,8,1.1,9.896,M,40.583,M,2.8,0123*71\r\n
$GPGGA,084613.80,5700.9254449,N,00959.1847147,E,2,8,1.1,9.896,M,40.583,M,2.8,0123*7B\r\n
$GPGGA,084613.85,5700.9254463,N,00959.1847165,E,2,8,1.1,9.896,M,40.583,M,1.3,0123*7E\r\n
$GPGGA,084613.90,5700.9254463,N,00959.1847165,E,2,8,1.1,9.896,M,40.583,M,1.3,0123*7A\r\n
$GPGGA,084613.95,5700.9254464,N,00959.1847165,E,2,8,1.1,9.896,M,40.583,M,1.3,0123*78\r\n
$GPGGA,084614.00,5700.9254465,N,00959.1847167,E,2,8,1.1,9.896,M,40.583,M,1.3,0123*70\r\n
$GPGGA,084614.05,5700.9254426,N,00959.1847204,E,2,8,1.1,9.900,M,40.583,M,1.6,0123*7F\r\n
$GPGGA,084614.10,5700.9254427,N,00959.1847205,E,2,8,1.1,9.900,M,40.583,M,1.6,0123*7B\r\n
$GPGGA,084614.15,5700.9254428,N,00959.1847206,E,2,8,1.1,9.900,M,40.583,M,1.6,0123*72\r\n
$GPGGA,084614.20,5700.9254429,N,00959.1847205,E,2,8,1.1,9.899,M,40.583,M,1.6,0123*77\r\n
$GPGGA,084614.25,5700.9254438,N,00959.1847199,E,2,8,1.1,9.898,M,40.583,M,1.8,0123*7B\r\n
$GPGGA,084614.30,5700.9254439,N,00959.1847199,E,2,8,1.1,9.898,M,40.583,M,1.8,0123*7E\r\n
$GPGGA,084614.35,5700.9254440,N,00959.1847200,E,2,8,1.1,9.898,M,40.583,M,1.8,0123*76\r\n
$GPGGA,084614.40,5700.9254441,N,00959.1847201,E,2,8,1.1,9.897,M,40.583,M,1.8,0123*7B\r\n
$GPGGA,084614.45,5700.9254421,N,00959.1847212,E,2,8,1.1,9.896,M,40.583,M,2.0,0123*70\r\n
$GPGGA,084614.50,5700.9254421,N,00959.1847213,E,2,8,1.1,9.896,M,40.583,M,2.0,0123*75\r\n
$GPGGA,084614.55,5700.9254422,N,00959.1847213,E,2,8,1.1,9.896,M,40.583,M,2.0,0123*73\r\n
$GPGGA,084614.60,5700.9254422,N,00959.1847213,E,2,8,1.1,9.895,M,40.583,M,2.0,0123*76\r\n
$GPGGA,084614.65,5700.9254415,N,00959.1847191,E,2,8,1.1,9.901,M,40.583,M,2.3,0123*71\r\n
$GPGGA,084614.70,5700.9254415,N,00959.1847191,E,2,8,1.1,9.901,M,40.583,M,2.3,0123*75\r\n
$GPGGA,084614.75,5700.9254415,N,00959.1847191,E,2,8,1.1,9.901,M,40.583,M,2.3,0123*70\r\n
$GPGGA,084614.80,5700.9254415,N,00959.1847191,E,2,8,1.1,9.901,M,40.583,M,2.3,0123*7A\r\n
$GPGGA,084614.85,5700.9254446,N,00959.1847220,E,2,8,1.1,9.897,M,40.583,M,1.4,0123*7A\r\n
$GPGGA,084614.90,5700.9254447,N,00959.1847221,E,2,8,1.1,9.897,M,40.583,M,1.4,0123*7E\r\n
$GPGGA,084614.95,5700.9254448,N,00959.1847221,E,2,8,1.1,9.897,M,40.583,M,1.4,0123*74\r\n
$GPGGA,084615.00,5700.9254448,N,00959.1847221,E,2,8,1.1,9.897,M,40.583,M,1.4,0123*79\r\n
$GPGGA,084615.05,5700.9254373,N,00959.1847232,E,2,8,1.1,9.899,M,40.583,M,1.7,0123*7C\r\n
$GPGGA,084615.10,5700.9254373,N,00959.1847232,E,2,8,1.1,9.898,M,40.583,M,1.7,0123*79\r\n
$GPGGA,084615.15,5700.9254373,N,00959.1847233,E,2,8,1.1,9.898,M,40.583,M,1.7,0123*7D\r\n
$GPGGA,084615.20,5700.9254373,N,00959.1847232,E,2,8,1.1,9.898,M,40.583,M,1.7,0123*7A\r\n
$GPGGA,084615.25,5700.9254397,N,00959.1847247,E,2,8,1.1,9.894,M,40.583,M,1.9,0123*75\r\n
$GPGGA,084615.30,5700.9254398,N,00959.1847248,E,2,8,1.1,9.894,M,40.583,M,1.9,0123*71\r\n
$GPGGA,084615.35,5700.9254398,N,00959.1847247,E,2,8,1.1,9.893,M,40.583,M,1.9,0123*7C\r\n
$GPGGA,084615.40,5700.9254398,N,00959.1847249,E,2,8,1.1,9.893,M,40.583,M,1.9,0123*70\r\n
$GPGGA,084615.45,5700.9254381,N,00959.1847249,E,2,8,1.1,9.900,M,40.583,M,2.1,0123*7D\r\n
$GPGGA,084615.50,5700.9254380,N,00959.1847249,E,2,8,1.1,9.900,M,40.583,M,2.1,0123*78\r\n
$GPGGA,084615.55,5700.9254380,N,00959.1847250,E,2,8,1.1,9.900,M,40.583,M,2.1,0123*75\r\n
$GPGGA,084615.60,5700.9254380,N,00959.1847250,E,2,8,1.1,9.900,M,40.583,M,2.1,0123*73\r\n
$GPGGA,084615.65,5700.9254385,N,00959.1847238,E,2,8,1.1,9.899,M,40.583,M,2.4,0123*79\r\n
$GPGGA,084615.70,5700.9254385,N,00959.1847237,E,2,8,1.1,9.899,M,40.583,M,2.4,0123*72\r\n
$GPGGA,084615.75,5700.9254384,N,00959.1847236,E,2,8,1.1,9.899,M,40.583,M,2.4,0123*77\r\n
$GPGGA,084615.80,5700.9254385,N,00959.1847237,E,2,8,1.1,9.899,M,40.583,M,2.4,0123*7D\r\n
$GPGGA,084615.85,5700.9254394,N,00959.1847249,E,2,8,1.1,9.897,M,40.583,M,2.6,0123*7D\r\n
$GPGGA,084615.90,5700.9254394,N,00959.1847248,E,2,8,1.1,9.897,M,40.583,M,2.6,0123*78\r\n
$GPGGA,084615.95,5700.9254394,N,00959.1847248,E,2,8,1.1,9.897,M,40.583,M,2.6,0123*7D\r\n
$GPGGA,084616.00,5700.9254394,N,00959.1847248,E,2,8,1.1,9.897,M,40.583,M,2.6,0123*72\r\n
$GPGGA,084616.05,5700.9253884,N,00959.1846994,E,2,8,1.1,10.103,M,40.583,M,2.8,0123*43\r\n
$GPGGA,084616.10,5700.9253883,N,00959.1846993,E,2,8,1.1,10.104,M,40.583,M,2.8,0123*40\r\n
$GPGGA,084616.15,5700.9253883,N,00959.1846992,E,2,8,1.1,10.104,M,40.583,M,2.8,0123*44\r\n
$GPGGA,084616.20,5700.9253883,N,00959.1846992,E,2,8,1.1,10.104,M,40.583,M,2.8,0123*42\r\n
$GPGGA,084616.25,5700.9253895,N,00959.1847012,E,2,8,1.1,10.102,M,40.583,M,3.0,0123*4F\r\n
$GPGGA,084616.30,5700.9253895,N,00959.1847012,E,2,8,1.1,10.102,M,40.583,M,3.0,0123*4B\r\n
$GPGGA,084616.35,5700.9253895,N,00959.1847013,E,2,8,1.1,10.102,M,40.583,M,3.0,0123*4F\r\n
$GPGGA,084616.40,5700.9253895,N,00959.1847012,E,2,8,1.1,10.102,M,40.583,M,3.0,0123*4C\r\n
$GPGGA,084616.45,5700.9253896,N,00959.1847008,E,2,8,1.1,10.104,M,40.583,M,3.2,0123*45\r\n
$GPGGA,084616.50,5700.9253895,N,00959.1847009,E,2,8,1.1,10.104,M,40.583,M,3.2,0123*43\r\n
$GPGGA,084616.55,5700.9253894,N,00959.1847009,E,2,8,1.1,10.104,M,40.583,M,3.2,0123*47\r\n
$GPGGA,084616.60,5700.9253894,N,00959.1847009,E,2,8,1.1,10.104,M,40.583,M,3.2,0123*41\r\n
$GPGGA,084616.65,5700.9253873,N,00959.1847015,E,2,8,1.1,10.100,M,40.583,M,3.4,0123*42\r\n
$GPGGA,084616.70,5700.9253872,N,00959.1847015,E,2,8,1.1,10.100,M,40.583,M,3.4,0123*47\r\n
$GPGGA,084616.75,5700.9253871,N,00959.1847015,E,2,8,1.1,10.100,M,40.583,M,3.4,0123*41\r\n
$GPGGA,084616.80,5700.9253870,N,00959.1847015,E,2,8,1.1,10.100,M,40.583,M,3.4,0123*4A\r\n
$GPGGA,084616.85,5700.9253911,N,00959.1847014,E,2,8,1.1,10.100,M,40.583,M,1.7,0123*49\r\n
$GPGGA,084616.90,5700.9253911,N,00959.1847015,E,2,8,1.1,10.100,M,40.583,M,1.7,0123*4C\r\n
$GPGGA,084616.95,5700.9253911,N,00959.1847015,E,2,8,1.1,10.100,M,40.583,M,1.7,0123*49\r\n
$GPGGA,084617.00,5700.9253912,N,00959.1847014,E,2,8,1.1,10.100,M,40.583,M,1.7,0123*46\r\n
$GPGGA,084617.05,5700.9253843,N,00959.1846981,E,2,8,1.1,10.170,M,40.583,M,2.0,0123*41\r\n
$GPGGA,084617.10,5700.9253843,N,00959.1846981,E,2,8,1.1,10.170,M,40.583,M,2.0,0123*45\r\n
$GPGGA,084617.15,5700.9253842,N,00959.1846980,E,2,8,1.1,10.170,M,40.583,M,2.0,0123*40\r\n
$GPGGA,084617.20,5700.9253842,N,00959.1846978,E,2,8,1.1,10.170,M,40.583,M,2.0,0123*41\r\n
$GPGGA,084617.25,5700.9253837,N,00959.1846988,E,2,8,1.1,10.168,M,40.583,M,2.3,0123*43\r\n
$GPGGA,084617.30,5700.9253837,N,00959.1846987,E,2,8,1.1,10.168,M,40.583,M,2.3,0123*48\r\n
$GPGGA,084617.35,5700.9253837,N,00959.1846986,E,2,8,1.1,10.168,M,40.583,M,2.3,0123*4C\r\n
$GPGGA,084617.40,5700.9253836,N,00959.1846987,E,2,8,1.1,10.168,M,40.583,M,2.3,0123*4E\r\n
$GPGGA,084617.45,5700.9253837,N,00959.1846993,E,2,8,1.1,10.170,M,40.583,M,2.6,0123*43\r\n
$GPGGA,084617.50,5700.9253836,N,00959.1846993,E,2,8,1.1,10.170,M,40.583,M,2.6,0123*46\r\n
$GPGGA,084617.55,5700.9253836,N,00959.1846992,E,2,8,1.1,10.170,M,40.583,M,2.6,0123*42\r\n
$GPGGA,084617.60,5700.9253836,N,00959.1846992,E,2,8,1.1,10.170,M,40.583,M,2.6,0123*44\r\n
$GPGGA,084617.65,5700.9253846,N,00959.1846995,E,2,8,1.1,10.169,M,40.583,M,2.8,0123*47\r\n
$GPGGA,084617.70,5700.9253845,N,00959.1846995,E,2,8,1.1,10.169,M,40.583,M,2.8,0123*40\r\n
$GPGGA,084617.75,5700.9253845,N,00959.1846995,E,2,8,1.1,10.169,M,40.583,M,2.8,0123*45\r\n
$GPGGA,084617.80,5700.9253845,N,00959.1846996,E,2,8,1.1,10.169,M,40.583,M,2.8,0123*4C\r\n
$GPGGA,084617.85,5700.9253830,N,00959.1846989,E,2,8,1.1,10.165,M,40.583,M,1.3,0123*41\r\n
$GPGGA,084617.90,5700.9253830,N,00959.1846990,E,2,8,1.1,10.165,M,40.583,M,1.3,0123*4D\r\n
$GPGGA,084617.95,5700.9253829,N,00959.1846990,E,2,8,1.1,10.165,M,40.583,M,1.3,0123*40\r\n
$GPGGA,084618.00,5700.9253828,N,00959.1846990,E,2,8,1.1,10.165,M,40.583,M,1.3,0123*42\r\n
$GPGGA,084618.05,5700.9253789,N,00959.1846964,E,2,8,1.1,10.232,M,40.583,M,1.6,0123*4C\r\n
$GPGGA,084618.10,5700.9253789,N,00959.1846964,E,2,8,1.1,10.232,M,40.583,M,1.6,0123*48\r\n
$GPGGA,084618.15,5700.9253788,N,00959.1846963,E,2,8,1.1,10.232,M,40.583,M,1.6,0123*4B\r\n
$GPGGA,084618.20,5700.9253787,N,00959.1846963,E,2,8,1.1,10.232,M,40.583,M,1.6,0123*42\r\n
$GPGGA,084618.25,5700.9253796,N,00959.1846970,E,2,8,1.1,10.230,M,40.583,M,1.8,0123*49\r\n
$GPGGA,084618.30,5700.9253796,N,00959.1846970,E,2,8,1.1,10.230,M,40.583,M,1.8,0123*4D\r\n
$GPGGA,084618.35,5700.9253795,N,00959.1846970,E,2,8,1.1,10.230,M,40.583,M,1.8,0123*4B\r\n
$GPGGA,084618.40,5700.9253795,N,00959.1846971,E,2,8,1.1,10.230,M,40.583,M,1.8,0123*48\r\n
$GPGGA,084618.45,5700.9253792,N,00959.1846971,E,2,8,1.1,10.228,M,40.583,M,2.0,0123*48\r\n
$GPGGA,084618.50,5700.9253791,N,00959.1846971,E,2,8,1.1,10.228,M,40.583,M,2.0,0123*4F\r\n
$GPGGA,084618.55,5700.9253791,N,00959.1846971,E,2,8,1.1,10.228,M,40.583,M,2.0,0123*4A\r\n
$GPGGA,084618.60,5700.9253791,N,00959.1846971,E,2,8,1.1,10.227,M,40.583,M,2.0,0123*43\r\n
$GPGGA,084618.65,5700.9253810,N,00959.1846965,E,2,8,1.1,10.230,M,40.583,M,2.3,0123*40\r\n
$GPGGA,084618.70,5700.9253810,N,00959.1846965,E,2,8,1.1,10.230,M,40.583,M,2.3,0123*44\r\n
$GPGGA,084618.75,5700.9253810,N,00959.1846964,E,2,8,1.1,10.230,M,40.583,M,2.3,0123*40\r\n
$GPGGA,084618.80,5700.9253811,N,00959.1846964,E,2,8,1.1,10.230,M,40.583,M,2.3,0123*4B\r\n
$GPGGA,084618.85,5700.9253802,N,00959.1846966,E,2,8,1.1,10.228,M,40.583,M,1.4,0123*43\r\n
$GPGGA,084618.90,5700.9253802,N,00959.1846967,E,2,8,1.1,10.228,M,40.583,M,1.4,0123*46\r\n
$GPGGA,084618.95,5700.9253803,N,00959.1846967,E,2,8,1.1,10.227,M,40.583,M,1.4,0123*4D\r\n
$GPGGA,084619.00,5700.9253804,N,00959.1846967,E,2,8,1.1,10.227,M,40.583,M,1.4,0123*47\r\n
$GPGGA,084619.05,5700.9253780,N,00959.1846963,E,2,8,1.1,10.293,M,40.583,M,1.7,0123*49\r\n
$GPGGA,084619.10,5700.9253780,N,00959.1846963,E,2,8,1.1,10.293,M,40.583,M,1.7,0123*4D\r\n
$GPGGA,084619.15,5700.9253780,N,00959.1846964,E,2,8,1.1,10.293,M,40.583,M,1.7,0123*4F\r\n
$GPGGA,084619.20,5700.9253780,N,00959.1846964,E,2,8,1.1,10.293,M,40.583,M,1.7,0123*49\r\n
$GPGGA,084619.25,5700.9253769,N,00959.1846958,E,2,8,1.1,10.291,M,40.583,M,1.9,0123*48\r\n
$GPGGA,084619.30,5700.9253769,N,00959.1846958,E,2,8,1.1,10.290,M,40.583,M,1.9,0123*4D\r\n
$GPGGA,084619.35,5700.9253769,N,00959.1846958,E,2,8,1.1,10.290,M,40.583,M,1.9,0123*48\r\n
$GPGGA,084619.40,5700.9253769,N,00959.1846958,E,2,8,1.1,10.290,M,40.583,M,1.9,0123*4A\r\n
$GPGGA,084619.45,5700.9253795,N,00959.1846970,E,2,8,1.1,10.290,M,40.583,M,2.1,0123*4D\r\n
$GPGGA,084619.50,5700.9253795,N,00959.1846970,E,2,8,1.1,10.289,M,40.583,M,2.1,0123*41\r\n
$GPGGA,084619.55,5700.9253795,N,00959.1846971,E,2,8,1.1,10.289,M,40.583,M,2.1,0123*45\r\n
$GPGGA,084619.60,5700.9253796,N,00959.1846971,E,2,8,1.1,10.289,M,40.583,M,2.1,0123*40\r\n
$GPGGA,084619.65,5700.9253773,N,00959.1846951,E,2,8,1.1,10.292,M,40.583,M,2.4,0123*43\r\n
$GPGGA,084619.70,5700.9253774,N,00959.1846950,E,2,8,1.1,10.292,M,40.583,M,2.4,0123*41\r\n
$GPGGA,084619.75,5700.9253774,N,00959.1846949,E,2,8,1.1,10.291,M,40.583,M,2.4,0123*4F\r\n
$GPGGA,084619.80,5700.9253773,N,00959.1846950,E,2,8,1.1,10.291,M,40.583,M,2.4,0123*4A\r\n
$GPGGA,084619.85,5700.9253788,N,00959.1846970,E,2,8,1.1,10.290,M,40.583,M,2.6,0123*4A\r\n
$GPGGA,084619.90,5700.9253789,N,00959.1846970,E,2,8,1.1,10.290,M,40.583,M,2.6,0123*4F\r\n
$GPGGA,084619.95,5700.9253789,N,00959.1846970,E,2,8,1.1,10.290,M,40.583,M,2.6,0123*4A\r\n
$GPGGA,084620.00,5700.9253789,N,00959.1846972,E,2,8,1.1,10.290,M,40.583,M,2.6,0123*4E\r\n
$GPGGA,084620.05,5700.9253780,N,00959.1846956,E,2,8,1.1,10.347,M,40.583,M,2.8,0123*41\r\n
$GPGGA,084620.10,5700.9253781,N,00959.1846956,E,2,8,1.1,10.347,M,40.583,M,2.8,0123*44\r\n
$GPGGA,084620.15,5700.9253781,N,00959.1846956,E,2,8,1.1,10.346,M,40.583,M,2.8,0123*40\r\n
$GPGGA,084620.20,5700.9253782,N,00959.1846956,E,2,8,1.1,10.346,M,40.583,M,2.8,0123*45\r\n
$GPGGA,084620.25,5700.9253789,N,00959.1846959,E,2,8,1.1,10.352,M,40.583,M,3.0,0123*48\r\n
$GPGGA,084620.30,5700.9253790,N,00959.1846959,E,2,8,1.1,10.352,M,40.583,M,3.0,0123*44\r\n
$GPGGA,084620.35,5700.9253791,N,00959.1846959,E,2,8,1.1,10.352,M,40.583,M,3.0,0123*40\r\n
$GPGGA,084620.40,5700.9253791,N,00959.1846960,E,2,8,1.1,10.352,M,40.583,M,3.0,0123*48\r\n
$GPGGA,084620.45,5700.9253777,N,00959.1846960,E,2,8,1.1,10.343,M,40.583,M,3.2,0123*47\r\n
$GPGGA,084620.50,5700.9253778,N,00959.1846960,E,2,8,1.1,10.343,M,40.583,M,3.2,0123*4C\r\n
$GPGGA,084620.55,5700.9253778,N,00959.1846961,E,2,8,1.1,10.343,M,40.583,M,3.2,0123*48\r\n
$GPGGA,084620.60,5700.9253779,N,00959.1846962,E,2,8,1.1,10.342,M,40.583,M,3.2,0123*4D\r\n
$GPGGA,084620.65,5700.9253787,N,00959.1846966,E,2,8,1.1,10.351,M,40.583,M,3.4,0123*49\r\n
$GPGGA,084620.70,5700.9253788,N,00959.1846966,E,2,8,1.1,10.351,M,40.583,M,3.4,0123*42\r\n
$GPGGA,084620.75,5700.9253789,N,00959.1846966,E,2,8,1.1,10.351,M,40.583,M,3.4,0123*46\r\n
$GPGGA,084620.80,5700.9253789,N,00959.1846967,E,2,8,1.1,10.351,M,40.583,M,3.4,0123*4D\r\n
$GPGGA,084620.85,5700.9253792,N,00959.1846961,E,2,8,1.1,10.347,M,40.583,M,1.7,0123*42\r\n
$GPGGA,084620.90,5700.9253793,N,00959.1846962,E,2,8,1.1,10.346,M,40.583,M,1.7,0123*45\r\n
$GPGGA,084620.95,5700.9253794,N,00959.1846962,E,2,8,1.1,10.346,M,40.583,M,1.7,0123*47\r\n
$GPGGA,084621.00,5700.9253795,N,00959.1846963,E,2,8,1.1,10.346,M,40.583,M,1.7,0123*4A\r\n
$GPGGA,084621.05,5700.9253798,N,00959.1846962,E,2,8,1.1,10.399,M,40.583,M,2.0,0123*45\r\n
$GPGGA,084621.10,5700.9253798,N,00959.1846963,E,2,8,1.1,10.399,M,40.583,M,2.0,0123*40\r\n
$GPGGA,084621.15,5700.9253799,N,00959.1846964,E,2,8,1.1,10.398,M,40.583,M,2.0,0123*42\r\n
$GPGGA,084621.20,5700.9253800,N,00959.1846965,E,2,8,1.1,10.398,M,40.583,M,2.0,0123*4A\r\n
$GPGGA,084621.25,5700.9253800,N,00959.1846964,E,2,8,1.1,10.401,M,40.583,M,2.3,0123*4A\r\n
$GPGGA,084621.30,5700.9253801,N,00959.1846964,E,2,8,1.1,10.400,M,40.583,M,2.3,0123*4E\r\n
$GPGGA,084621.35,5700.9253802,N,00959.1846966,E,2,8,1.1,10.400,M,40.583,M,2.3,0123*4A\r\n
$GPGGA,084621.40,5700.9253802,N,00959.1846968,E,2,8,1.1,10.400,M,40.583,M,2.3,0123*46\r\n
$GPGGA,084621.45,5700.9253797,N,00959.1846966,E,2,8,1.1,10.397,M,40.583,M,2.6,0123*42\r\n
$GPGGA,084621.50,5700.9253797,N,00959.1846966,E,2,8,1.1,10.396,M,40.583,M,2.6,0123*47\r\n
$GPGGA,084621.55,5700.9253798,N,00959.1846967,E,2,8,1.1,10.396,M,40.583,M,2.6,0123*4C\r\n
$GPGGA,084621.60,5700.9253798,N,00959.1846969,E,2,8,1.1,10.396,M,40.583,M,2.6,0123*44\r\n
$GPGGA,084621.65,5700.9253792,N,00959.1846960,E,2,8,1.1,10.398,M,40.583,M,2.8,0123*42\r\n
$GPGGA,084621.70,5700.9253792,N,00959.1846961,E,2,8,1.1,10.398,M,40.583,M,2.8,0123*47\r\n
$GPGGA,084621.75,5700.9253793,N,00959.1846962,E,2,8,1.1,10.397,M,40.583,M,2.8,0123*4F\r\n
$GPGGA,084621.80,5700.9253793,N,00959.1846964,E,2,8,1.1,10.397,M,40.583,M,2.8,0123*43\r\n
$GPGGA,084621.85,5700.9253800,N,00959.1846963,E,2,8,1.1,10.397,M,40.583,M,1.3,0123*4C\r\n
$GPGGA,084621.90,5700.9253800,N,00959.1846964,E,2,8,1.1,10.396,M,40.583,M,1.3,0123*4E\r\n
$GPGGA,084621.95,5700.9253800,N,00959.1846966,E,2,8,1.1,10.396,M,40.583,M,1.3,0123*49\r\n
$GPGGA,084622.00,5700.9253800,N,00959.1846966,E,2,8,1.1,10.396,M,40.583,M,1.3,0123*46\r\n
$GPGGA,084622.05,5700.9253816,N,00959.1846958,E,2,8,1.1,10.446,M,40.583,M,1.6,0123*46\r\n
$GPGGA,084622.10,5700.9253816,N,00959.1846959,E,2,8,1.1,10.446,M,40.583,M,1.6,0123*43\r\n
$GPGGA,084622.15,5700.9253816,N,00959.1846960,E,2,8,1.1,10.445,M,40.583,M,1.6,0123*4F\r\n
$GPGGA,084622.20,5700.9253816,N,00959.1846960,E,2,8,1.1,10.445,M,40.583,M,1.6,0123*49\r\n
$GPGGA,084622.25,5700.9253820,N,00959.1846953,E,2,8,1.1,10.448,M,40.583,M,1.8,0123*4A\r\n
$GPGGA,084622.30,5700.9253820,N,00959.1846953,E,2,8,1.1,10.448,M,40.583,M,1.8,0123*4E\r\n
$GPGGA,084622.35,5700.9253820,N,00959.1846954,E,2,8,1.1,10.448,M,40.583,M,1.8,0123*4C\r\n
$GPGGA,084622.40,5700.9253820,N,00959.1846954,E,2,8,1.1,10.447,M,40.583,M,1.8,0123*41\r\n
$GPGGA,084622.45,5700.9253833,N,00959.1846958,E,2,8,1.1,10.446,M,40.583,M,2.0,0123*40\r\n
$GPGGA,084622.50,5700.9253833,N,00959.1846958,E,2,8,1.1,10.446,M,40.583,M,2.0,0123*44\r\n
$GPGGA,084622.55,5700.9253833,N,00959.1846957,E,2,8,1.1,10.446,M,40.583,M,2.0,0123*4E\r\n
$GPGGA,084622.60,5700.9253833,N,00959.1846958,E,2,8,1.1,10.446,M,40.583,M,2.0,0123*47\r\n
$GPGGA,084622.65,5700.9253821,N,00959.1846950,E,2,8,1.1,10.449,M,40.583,M,2.3,0123*45\r\n
$GPGGA,084622.70,5700.9253821,N,00959.1846950,E,2,8,1.1,10.449,M,40.583,M,2.3,0123*41\r\n
$GPGGA,084622.75,5700.9253822,N,00959.1846950,E,2,8,1.1,10.449,M,40.583,M,2.3,0123*47\r\n
$GPGGA,084622.80,5700.9253822,N,00959.1846950,E,2,8,1.1,10.449,M,40.583,M,2.3,0123*4D\r\n
$GPGGA,084622.85,5700.9253832,N,00959.1846950,E,2,8,1.1,10.445,M,40.583,M,1.4,0123*41\r\n
$GPGGA,084622.90,5700.9253832,N,00959.1846950,E,2,8,1.1,10.445,M,40.583,M,1.4,0123*45\r\n
$GPGGA,084622.95,5700.9253832,N,00959.1846950,E,2,8,1.1,10.445,M,40.583,M,1.4,0123*40\r\n
$GPGGA,084623.00,5700.9253833,N,00959.1846950,E,2,8,1.1,10.445,M,40.583,M,1.4,0123*4C\r\n
$GPGGA,084623.05,5700.9253869,N,00959.1846966,E,2,8,1.1,10.492,M,40.583,M,1.7,0123*4A\r\n
$GPGGA,084623.10,5700.9253870,N,00959.1846966,E,2,8,1.1,10.492,M,40.583,M,1.7,0123*46\r\n
$GPGGA,084623.15,5700.9253870,N,00959.1846966,E,2,8,1.1,10.492,M,40.583,M,1.7,0123*43\r\n
$GPGGA,084623.20,5700.9253871,N,00959.1846967,E,2,8,1.1,10.492,M,40.583,M,1.7,0123*45\r\n
$GPGGA,084623.25,5700.9253879,N,00959.1846956,E,2,8,1.1,10.492,M,40.583,M,1.9,0123*44\r\n
$GPGGA,084623.30,5700.9253880,N,00959.1846957,E,2,8,1.1,10.492,M,40.583,M,1.9,0123*47\r\n
$GPGGA,084623.35,5700.9253880,N,00959.1846957,E,2,8,1.1,10.492,M,40.583,M,1.9,0123*42\r\n
$GPGGA,084623.40,5700.9253881,N,00959.1846957,E,2,8,1.1,10.492,M,40.583,M,1.9,0123*41\r\n
$GPGGA,084623.45,5700.9253867,N,00959.1846958,E,2,8,1.1,10.490,M,40.583,M,2.1,0123*4A\r\n
$GPGGA,084623.50,5700.9253867,N,00959.1846958,E,2,8,1.1,10.490,M,40.583,M,2.1,0123*4E\r\n
$GPGGA,084623.55,5700.9253867,N,00959.1846959,E,2,8,1.1,10.490,M,40.583,M,2.1,0123*4A\r\n
$GPGGA,084623.60,5700.9253868,N,00959.1846959,E,2,8,1.1,10.490,M,40.583,M,2.1,0123*43\r\n
$GPGGA,084623.65,5700.9253881,N,00959.1846970,E,2,8,1.1,10.492,M,40.583,M,2.4,0123*4D\r\n
$GPGGA,084623.70,5700.9253882,N,00959.1846971,E,2,8,1.1,10.492,M,40.583,M,2.4,0123*4B\r\n
$GPGGA,084623.75,5700.9253883,N,00959.1846970,E,2,8,1.1,10.491,M,40.583,M,2.4,0123*4D\r\n
$GPGGA,084623.80,5700.9253883,N,00959.1846971,E,2,8,1.1,10.491,M,40.583,M,2.4,0123*46\r\n
$GPGGA,084623.85,5700.9253878,N,00959.1846954,E,2,8,1.1,10.489,M,40.583,M,2.6,0123*4B\r\n
$GPGGA,084623.90,5700.9253878,N,00959.1846954,E,2,8,1.1,10.489,M,40.583,M,2.6,0123*4F\r\n
$GPGGA,084623.95,5700.9253879,N,00959.1846953,E,2,8,1.1,10.489,M,40.583,M,2.6,0123*4C\r\n
$GPGGA,084624.00,5700.9253880,N,00959.1846953,E,2,8,1.1,10.489,M,40.583,M,2.6,0123*41\r\n
$GPGGA,084624.05,5700.9253935,N,00959.1846968,E,2,8,1.1,10.532,M,40.583,M,2.8,0123*4C\r\n
$GPGGA,084624.10,5700.9253936,N,00959.1846967,E,2,8,1.1,10.532,M,40.583,M,2.8,0123*44\r\n
$GPGGA,084624.15,5700.9253936,N,00959.1846967,E,2,8,1.1,10.532,M,40.583,M,2.8,0123*41\r\n
$GPGGA,084624.20,5700.9253937,N,00959.1846967,E,2,8,1.1,10.532,M,40.583,M,2.8,0123*46\r\n
$GPGGA,084624.25,5700.9253948,N,00959.1846986,E,2,8,1.1,10.529,M,40.583,M,3.0,0123*47\r\n
$GPGGA,084624.30,5700.9253949,N,00959.1846986,E,2,8,1.1,10.529,M,40.583,M,3.0,0123*42\r\n
$GPGGA,084624.35,5700.9253950,N,00959.1846985,E,2,8,1.1,10.529,M,40.583,M,3.0,0123*4C\r\n
$GPGGA,084624.40,5700.9253951,N,00959.1846986,E,2,8,1.1,10.529,M,40.583,M,3.0,0123*4C\r\n
$GPGGA,084624.45,5700.9253937,N,00959.1846971,E,2,8,1.1,10.532,M,40.583,M,3.2,0123*49\r\n
$GPGGA,084624.50,5700.9253938,N,00959.1846971,E,2,8,1.1,10.532,M,40.583,M,3.2,0123*42\r\n
$GPGGA,084624.55,5700.9253939,N,00959.1846970,E,2,8,1.1,10.531,M,40.583,M,3.2,0123*44\r\n
$GPGGA,084624.60,5700.9253940,N,00959.1846971,E,2,8,1.1,10.531,M,40.583,M,3.2,0123*4D\r\n
$GPGGA,084624.65,5700.9253938,N,00959.1846977,E,2,8,1.1,10.530,M,40.583,M,1.4,0123*44\r\n
$GPGGA,084624.70,5700.9253939,N,00959.1846977,E,2,8,1.1,10.530,M,40.583,M,1.4,0123*41\r\n
$GPGGA,084624.75,5700.9253939,N,00959.1846977,E,2,8,1.1,10.530,M,40.583,M,1.4,0123*44\r\n
$GPGGA,084624.80,5700.9253939,N,00959.1846977,E,2,8,1.1,10.529,M,40.583,M,1.4,0123*46\r\n
$GPGGA,084624.85,5700.9253935,N,00959.1846980,E,2,8,1.1,10.528,M,40.583,M,1.7,0123*45\r\n
$GPGGA,084624.90,5700.9253935,N,00959.1846980,E,2,8,1.1,10.528,M,40.583,M,1.7,0123*41\r\n
$GPGGA,084624.95,5700.9253935,N,00959.1846980,E,2,8,1.1,10.528,M,40.583,M,1.7,0123*44\r\n
$GPGGA,084625.00,5700.9253935,N,00959.1846980,E,2,8,1.1,10.528,M,40.583,M,1.7,0123*49\r\n
$GPGGA,084625.05,5700.9254000,N,00959.1846986,E,2,8,1.1,10.568,M,40.583,M,2.0,0123*42\r\n
$GPGGA,084625.10,5700.9254000,N,00959.1846985,E,2,8,1.1,10.568,M,40.583,M,2.0,0123*45\r\n
$GPGGA,084625.15,5700.9254000,N,00959.1846985,E,2,8,1.1,10.568,M,40.583,M,2.0,0123*40\r\n
$GPGGA,084625.20,5700.9254000,N,00959.1846985,E,2,8,1.1,10.568,M,40.583,M,2.0,0123*46\r\n
$GPGGA,084625.25,5700.9254016,N,00959.1846999,E,2,8,1.1,10.565,M,40.583,M,2.3,0123*47\r\n
$GPGGA,084625.30,5700.9254016,N,00959.1846999,E,2,8,1.1,10.565,M,40.583,M,2.3,0123*43\r\n
$GPGGA,084625.35,5700.9254016,N,00959.1846998,E,2,8,1.1,10.565,M,40.583,M,2.3,0123*47\r\n
$GPGGA,084625.40,5700.9254017,N,00959.1846999,E,2,8,1.1,10.565,M,40.583,M,2.3,0123*45\r\n
$GPGGA,084625.45,5700.9254013,N,00959.1847001,E,2,8,1.1,10.564,M,40.583,M,2.6,0123*49\r\n
$GPGGA,084625.50,5700.9254013,N,00959.1846999,E,2,8,1.1,10.564,M,40.583,M,2.6,0123*44\r\n
$GPGGA,084625.55,5700.9254013,N,00959.1847000,E,2,8,1.1,10.564,M,40.583,M,2.6,0123*49\r\n
$GPGGA,084625.60,5700.9254013,N,00959.1847000,E,2,8,1.1,10.564,M,40.583,M,2.6,0123*4F\r\n
$GPGGA,084625.65,5700.9254000,N,00959.1846983,E,2,8,1.1,10.565,M,40.583,M,1.0,0123*4F\r\n
$GPGGA,084625.70,5700.9254000,N,00959.1846982,E,2,8,1.1,10.565,M,40.583,M,1.0,0123*4A\r\n
$GPGGA,084625.75,5700.9254000,N,00959.1846981,E,2,8,1.1,10.565,M,40.583,M,1.0,0123*4C\r\n
$GPGGA,084625.80,5700.9253999,N,00959.1846980,E,2,8,1.1,10.565,M,40.583,M,1.0,0123*49\r\n
$GPGGA,084625.85,5700.9254013,N,00959.1846989,E,2,8,1.1,10.564,M,40.583,M,1.3,0123*4B\r\n
$GPGGA,084625.90,5700.9254013,N,00959.1846989,E,2,8,1.1,10.564,M,40.583,M,1.3,0123*4F\r\n
$GPGGA,084625.95,5700.9254013,N,00959.1846988,E,2,8,1.1,10.564,M,40.583,M,1.3,0123*4B\r\n
$GPGGA,084626.00,5700.9254012,N,00959.1846987,E,2,8,1.1,10.564,M,40.583,M,1.3,0123*4A\r\n
$GPGGA,084626.05,5700.9254095,N,00959.1847006,E,2,8,1.1,10.602,M,40.583,M,1.6,0123*47\r\n
$GPGGA,084626.10,5700.9254094,N,00959.1847005,E,2,8,1.1,10.602,M,40.583,M,1.6,0123*41\r\n
$GPGGA,084626.15,5700.9254095,N,00959.1847005,E,2,8,1.1,10.602,M,40.583,M,1.6,0123*45\r\n
$GPGGA,084626.20,5700.9254094,N,00959.1847003,E,2,8,1.1,10.602,M,40.583,M,1.6,0123*44\r\n
$GPGGA,084626.25,5700.9254113,N,00959.1847010,E,2,8,1.1,10.600,M,40.583,M,1.8,0123*41\r\n
$GPGGA,084626.30,5700.9254113,N,00959.1847009,E,2,8,1.1,10.600,M,40.583,M,1.8,0123*4D\r\n
$GPGGA,084626.35,5700.9254113,N,00959.1847008,E,2,8,1.1,10.600,M,40.583,M,1.8,0123*49\r\n
$GPGGA,084626.40,5700.9254114,N,00959.1847008,E,2,8,1.1,10.600,M,40.583,M,1.8,0123*4C\r\n
$GPGGA,084626.45,5700.9254113,N,00959.1847009,E,2,8,1.1,10.598,M,40.583,M,2.0,0123*46\r\n
$GPGGA,084626.50,5700.9254114,N,00959.1847010,E,2,8,1.1,10.598,M,40.583,M,2.0,0123*4D\r\n
$GPGGA,084626.55,5700.9254114,N,00959.1847008,E,2,8,1.1,10.598,M,40.583,M,2.0,0123*41\r\n
$GPGGA,084626.60,5700.9254115,N,00959.1847008,E,2,8,1.1,10.598,M,40.583,M,2.0,0123*46\r\n
$GPGGA,084626.65,5700.9254114,N,00959.1847009,E,2,8,1.1,10.598,M,40.583,M,1.2,0123*42\r\n
$GPGGA,084626.70,5700.9254115,N,00959.1847010,E,2,8,1.1,10.598,M,40.583,M,1.2,0123*4F\r\n
$GPGGA,084626.75,5700.9254116,N,00959.1847009,E,2,8,1.1,10.598,M,40.583,M,1.2,0123*41\r\n
$GPGGA,084626.80,5700.9254116,N,00959.1847007,E,2,8,1.1,10.598,M,40.583,M,1.2,0123*45\r\n
$GPGGA,084626.85,5700.9254092,N,00959.1846989,E,2,8,1.1,10.599,M,40.583,M,1.4,0123*44\r\n
$GPGGA,084626.90,5700.9254092,N,00959.1846988,E,2,8,1.1,10.599,M,40.583,M,1.4,0123*41\r\n
$GPGGA,084626.95,5700.9254093,N,00959.1846987,E,2,8,1.1,10.599,M,40.583,M,1.4,0123*4A\r\n
$GPGGA,084627.00,5700.9254093,N,00959.1846987,E,2,8,1.1,10.599,M,40.583,M,1.4,0123*47\r\n
$GPGGA,084627.05,5700.9254225,N,00959.1847038,E,2,8,1.1,10.628,M,40.583,M,1.7,0123*4B\r\n
$GPGGA,084627.10,5700.9254226,N,00959.1847038,E,2,8,1.1,10.628,M,40.583,M,1.7,0123*4C\r\n
$GPGGA,084627.15,5700.9254226,N,00959.1847038,E,2,8,1.1,10.628,M,40.583,M,1.7,0123*49\r\n
$GPGGA,084627.20,5700.9254228,N,00959.1847039,E,2,8,1.1,10.628,M,40.583,M,1.7,0123*40\r\n
$GPGGA,084627.25,5700.9254231,N,00959.1847040,E,2,8,1.1,10.630,M,40.583,M,1.9,0123*44\r\n
$GPGGA,084627.30,5700.9254232,N,00959.1847040,E,2,8,1.1,10.630,M,40.583,M,1.9,0123*43\r\n
$GPGGA,084627.35,5700.9254232,N,00959.1847041,E,2,8,1.1,10.630,M,40.583,M,1.9,0123*47\r\n
$GPGGA,084627.40,5700.9254233,N,00959.1847043,E,2,8,1.1,10.630,M,40.583,M,1.9,0123*46\r\n
$GPGGA,084627.45,5700.9254213,N,00959.1847033,E,2,8,1.1,10.626,M,40.583,M,2.1,0123*4A\r\n
$GPGGA,084627.50,5700.9254213,N,00959.1847033,E,2,8,1.1,10.626,M,40.583,M,2.1,0123*4E\r\n
$GPGGA,084627.55,5700.9254214,N,00959.1847033,E,2,8,1.1,10.626,M,40.583,M,2.1,0123*4C\r\n
$GPGGA,084627.60,5700.9254214,N,00959.1847033,E,2,8,1.1,10.626,M,40.583,M,2.1,0123*4A\r\n
$GPGGA,084627.65,5700.9254219,N,00959.1847023,E,2,8,1.1,10.627,M,40.583,M,2.4,0123*47\r\n
$GPGGA,084627.70,5700.9254219,N,00959.1847022,E,2,8,1.1,10.627,M,40.583,M,2.4,0123*42\r\n
$GPGGA,084627.75,5700.9254220,N,00959.1847022,E,2,8,1.1,10.626,M,40.583,M,2.4,0123*4C\r\n
$GPGGA,084627.80,5700.9254220,N,00959.1847021,E,2,8,1.1,10.626,M,40.583,M,2.4,0123*45\r\n
$GPGGA,084627.85,5700.9254208,N,00959.1847018,E,2,8,1.1,10.629,M,40.583,M,2.6,0123*4D\r\n
$GPGGA,084627.90,5700.9254207,N,00959.1847018,E,2,8,1.1,10.628,M,40.583,M,2.6,0123*47\r\n
$GPGGA,084627.95,5700.9254206,N,00959.1847016,E,2,8,1.1,10.628,M,40.583,M,2.6,0123*4D\r\n
$GPGGA,084628.00,5700.9254205,N,00959.1847015,E,2,8,1.1,10.628,M,40.583,M,2.6,0123*4E\r\n
$GPGGA,084628.05,5700.9254327,N,00959.1847043,E,2,8,1.1,10.656,M,40.583,M,2.8,0123*4E\r\n
$GPGGA,084628.10,5700.9254326,N,00959.1847042,E,2,8,1.1,10.656,M,40.583,M,2.8,0123*4A\r\n
$GPGGA,084628.15,5700.9254326,N,00959.1847041,E,2,8,1.1,10.656,M,40.583,M,2.8,0123*4C\r\n
$GPGGA,084628.20,5700.9254324,N,00959.1847041,E,2,8,1.1,10.656,M,40.583,M,2.8,0123*48\r\n
$GPGGA,084628.25,5700.9254348,N,00959.1847069,E,2,8,1.1,10.653,M,40.583,M,3.0,0123*41\r\n
$GPGGA,084628.30,5700.9254348,N,00959.1847068,E,2,8,1.1,10.653,M,40.583,M,3.0,0123*44\r\n
$GPGGA,084628.35,5700.9254349,N,00959.1847069,E,2,8,1.1,10.652,M,40.583,M,3.0,0123*40\r\n
$GPGGA,084628.40,5700.9254349,N,00959.1847069,E,2,8,1.1,10.652,M,40.583,M,3.0,0123*42\r\n
$GPGGA,084628.45,5700.9254352,N,00959.1847054,E,2,8,1.1,10.651,M,40.583,M,3.2,0123*42\r\n
$GPGGA,084628.50,5700.9254353,N,00959.1847054,E,2,8,1.1,10.651,M,40.583,M,3.2,0123*47\r\n
$GPGGA,084628.55,5700.9254353,N,00959.1847052,E,2,8,1.1,10.651,M,40.583,M,3.2,0123*44\r\n
$GPGGA,084628.60,5700.9254354,N,00959.1847054,E,2,8,1.1,10.651,M,40.583,M,3.2,0123*43\r\n
$GPGGA,084628.65,5700.9254357,N,00959.1847060,E,2,8,1.1,10.651,M,40.583,M,1.4,0123*46\r\n
$GPGGA,084628.70,5700.9254358,N,00959.1847060,E,2,8,1.1,10.650,M,40.583,M,1.4,0123*4C\r\n
$GPGGA,084628.75,5700.9254359,N,00959.1847060,E,2,8,1.1,10.650,M,40.583,M,1.4,0123*48\r\n
$GPGGA,084628.80,5700.9254360,N,00959.1847060,E,2,8,1.1,10.650,M,40.583,M,1.4,0123*48\r\n
$GPGGA,084628.85,5700.9254346,N,00959.1847057,E,2,8,1.1,10.652,M,40.583,M,1.7,0123*4C\r\n
$GPGGA,084628.90,5700.9254346,N,00959.1847056,E,2,8,1.1,10.651,M,40.583,M,1.7,0123*4A\r\n
$GPGGA,084628.95,5700.9254347,N,00959.1847055,E,2,8,1.1,10.651,M,40.583,M,1.7,0123*4D\r\n
$GPGGA,084629.00,5700.9254347,N,00959.1847056,E,2,8,1.1,10.651,M,40.583,M,1.7,0123*43\r\n
$GPGGA,084629.05,5700.9254476,N,00959.1847075,E,2,8,1.1,10.678,M,40.583,M,2.0,0123*4D\r\n
$GPGGA,084629.10,5700.9254476,N,00959.1847075,E,2,8,1.1,10.678,M,40.583,M,2.0,0123*49\r\n
$GPGGA,084629.15,5700.9254476,N,00959.1847074,E,2,8,1.1,10.678,M,40.583,M,2.0,0123*4D\r\n
$GPGGA,084629.20,5700.9254476,N,00959.1847073,E,2,8,1.1,10.678,M,40.583,M,2.0,0123*4C\r\n
$GPGGA,084629.25,5700.9254472,N,00959.1847076,E,2,8,1.1,10.680,M,40.583,M,2.3,0123*4C\r\n
$GPGGA,084629.30,5700.9254472,N,00959.1847076,E,2,8,1.1,10.680,M,40.583,M,2.3,0123*48\r\n
$GPGGA,084629.35,5700.9254472,N,00959.1847074,E,2,8,1.1,10.680,M,40.583,M,2.3,0123*4F\r\n
$GPGGA,084629.40,5700.9254471,N,00959.1847073,E,2,8,1.1,10.680,M,40.583,M,2.3,0123*49\r\n
$GPGGA,084629.45,5700.9254478,N,00959.1847078,E,2,8,1.1,10.673,M,40.583,M,2.6,0123*47\r\n
$GPGGA,084629.50,5700.9254478,N,00959.1847077,E,2,8,1.1,10.672,M,40.583,M,2.6,0123*4D\r\n
$GPGGA,084629.55,5700.9254477,N,00959.1847077,E,2,8,1.1,10.672,M,40.583,M,2.6,0123*47\r\n
$GPGGA,084629.60,5700.9254477,N,00959.1847075,E,2,8,1.1,10.672,M,40.583,M,2.6,0123*43\r\n
$GPGGA,084629.65,5700.9254482,N,00959.1847079,E,2,8,1.1,10.677,M,40.583,M,1.0,0123*40\r\n
$GPGGA,084629.70,5700.9254481,N,00959.1847078,E,2,8,1.1,10.677,M,40.583,M,1.0,0123*46\r\n
$GPGGA,084629.75,5700.9254481,N,00959.1847078,E,2,8,1.1,10.676,M,40.583,M,1.0,0123*42\r\n
$GPGGA,084629.80,5700.9254482,N,00959.1847079,E,2,8,1.1,10.676,M,40.583,M,1.0,0123*4A\r\n
$GPGGA,084629.85,5700.9254493,N,00959.1847097,E,2,8,1.1,10.674,M,40.583,M,1.3,0123*4E\r\n
$GPGGA,084629.90,5700.9254494,N,00959.1847098,E,2,8,1.1,10.674,M,40.583,M,1.3,0123*42\r\n
$GPGGA,084629.95,5700.9254495,N,00959.1847099,E,2,8,1.1,10.674,M,40.583,M,1.3,0123*47\r\n
$GPGGA,084630.00,5700.9254496,N,00959.1847099,E,2,8,1.1,10.673,M,40.583,M,1.3,0123*47\r\n
$GPGGA,084630.05,5700.9254640,N,00959.1847112,E,2,8,1.1,10.700,M,40.583,M,1.6,0123*49\r\n
$GPGGA,084630.10,5700.9254640,N,00959.1847112,E,2,8,1.1,10.699,M,40.583,M,1.6,0123*4C\r\n
$GPGGA,084630.15,5700.9254641,N,00959.1847113,E,2,8,1.1,10.699,M,40.583,M,1.6,0123*49\r\n
$GPGGA,084630.20,5700.9254641,N,00959.1847112,E,2,8,1.1,10.699,M,40.583,M,1.6,0123*4E\r\n
$GPGGA,084630.25,5700.9254638,N,00959.1847110,E,2,8,1.1,10.699,M,40.583,M,1.8,0123*49\r\n
$GPGGA,084630.30,5700.9254639,N,00959.1847109,E,2,8,1.1,10.699,M,40.583,M,1.8,0123*44\r\n
$GPGGA,084630.35,5700.9254639,N,00959.1847110,E,2,8,1.1,10.699,M,40.583,M,1.8,0123*49\r\n
$GPGGA,084630.40,5700.9254641,N,00959.1847109,E,2,8,1.1,10.699,M,40.583,M,1.8,0123*4C\r\n
$GPGGA,084630.45,5700.9254654,N,00959.1847127,E,2,8,1.1,10.693,M,40.583,M,2.0,0123*40\r\n
$GPGGA,084630.50,5700.9254655,N,00959.1847127,E,2,8,1.1,10.693,M,40.583,M,2.0,0123*45\r\n
$GPGGA,084630.55,5700.9254656,N,00959.1847127,E,2,8,1.1,10.692,M,40.583,M,2.0,0123*42\r\n
$GPGGA,084630.60,5700.9254656,N,00959.1847129,E,2,8,1.1,10.692,M,40.583,M,2.0,0123*4A\r\n
$GPGGA,084630.65,5700.9254630,N,00959.1847121,E,2,8,1.1,10.695,M,40.583,M,1.2,0123*41\r\n
$GPGGA,084630.70,5700.9254631,N,00959.1847121,E,2,8,1.1,10.695,M,40.583,M,1.2,0123*44\r\n
$GPGGA,084630.75,5700.9254631,N,00959.1847123,E,2,8,1.1,10.695,M,40.583,M,1.2,0123*43\r\n
$GPGGA,084630.80,5700.9254632,N,00959.1847122,E,2,8,1.1,10.694,M,40.583,M,1.2,0123*4A\r\n
$GPGGA,084630.85,5700.9254652,N,00959.1847110,E,2,8,1.1,10.693,M,40.583,M,1.4,0123*49\r\n
$GPGGA,084630.90,5700.9254653,N,00959.1847111,E,2,8,1.1,10.693,M,40.583,M,1.4,0123*4D\r\n
$GPGGA,084630.95,5700.9254654,N,00959.1847110,E,2,8,1.1,10.693,M,40.583,M,1.4,0123*4E\r\n
$GPGGA,084631.00,5700.9254654,N,00959.1847110,E,2,8,1.1,10.692,M,40.583,M,1.4,0123*42\r\n
$GPGGA,084631.05,5700.9254821,N,00959.1847165,E,2,8,1.1,10.711,M,40.583,M,1.7,0123*40\r\n
$GPGGA,084631.10,5700.9254822,N,00959.1847166,E,2,8,1.1,10.711,M,40.583,M,1.7,0123*44\r\n
$GPGGA,084631.15,5700.9254823,N,00959.1847166,E,2,8,1.1,10.711,M,40.583,M,1.7,0123*40\r\n
$GPGGA,084631.20,5700.9254823,N,00959.1847166,E,2,8,1.1,10.710,M,40.583,M,1.7,0123*47\r\n
$GPGGA,084631.25,5700.9254800,N,00959.1847152,E,2,8,1.1,10.712,M,40.583,M,1.9,0123*48\r\n
$GPGGA,084631.30,5700.9254800,N,00959.1847151,E,2,8,1.1,10.711,M,40.583,M,1.9,0123*4C\r\n
$GPGGA,084631.35,5700.9254800,N,00959.1847152,E,2,8,1.1,10.711,M,40.583,M,1.9,0123*4A\r\n
$GPGGA,084631.40,5700.9254800,N,00959.1847151,E,2,8,1.1,10.711,M,40.583,M,1.9,0123*4B\r\n
$GPGGA,084631.45,5700.9254807,N,00959.1847156,E,2,8,1.1,10.713,M,40.583,M,2.1,0123*47\r\n
$GPGGA,084631.50,5700.9254807,N,00959.1847156,E,2,8,1.1,10.713,M,40.583,M,2.1,0123*43\r\n
$GPGGA,084631.55,5700.9254807,N,00959.1847156,E,2,8,1.1,10.712,M,40.583,M,2.1,0123*47\r\n
$GPGGA,084631.60,5700.9254807,N,00959.1847156,E,2,8,1.1,10.712,M,40.583,M,2.1,0123*41\r\n
$GPGGA,084631.65,5700.9254814,N,00959.1847158,E,2,8,1.1,10.709,M,40.583,M,2.4,0123*47\r\n
$GPGGA,084631.70,5700.9254813,N,00959.1847158,E,2,8,1.1,10.709,M,40.583,M,2.4,0123*44\r\n
$GPGGA,084631.75,5700.9254813,N,00959.1847158,E,2,8,1.1,10.708,M,40.583,M,2.4,0123*40\r\n
$GPGGA,084631.80,5700.9254813,N,00959.1847159,E,2,8,1.1,10.708,M,40.583,M,2.4,0123*4B\r\n
$GPGGA,084631.85,5700.9254806,N,00959.1847163,E,2,8,1.1,10.709,M,40.583,M,2.6,0123*40\r\n
$GPGGA,084631.90,5700.9254806,N,00959.1847163,E,2,8,1.1,10.709,M,40.583,M,2.6,0123*44\r\n
$GPGGA,084631.95,5700.9254806,N,00959.1847164,E,2,8,1.1,10.709,M,40.583,M,2.6,0123*46\r\n
$GPGGA,084632.00,5700.9254806,N,00959.1847165,E,2,8,1.1,10.708,M,40.583,M,2.6,0123*49\r\n
$GPGGA,084632.05,5700.9255006,N,00959.1847210,E,2,8,1.1,10.727,M,40.583,M,2.8,0123*47\r\n
$GPGGA,084632.10,5700.9255006,N,00959.1847210,E,2,8,1.1,10.726,M,40.583,M,2.8,0123*42\r\n
$GPGGA,084632.15,5700.9255007,N,00959.1847210,E,2,8,1.1,10.726,M,40.583,M,2.8,0123*46\r\n
$GPGGA,084632.20,5700.9255007,N,00959.1847212,E,2,8,1.1,10.726,M,40.583,M,2.8,0123*42\r\n
$GPGGA,084632.25,5700.9254994,N,00959.1847204,E,2,8,1.1,10.726,M,40.583,M,3.0,0123*4B\r\n
$GPGGA,084632.30,5700.9254994,N,00959.1847205,E,2,8,1.1,10.726,M,40.583,M,3.0,0123*4E\r\n
$GPGGA,084632.35,5700.9254994,N,00959.1847205,E,2,8,1.1,10.725,M,40.583,M,3.0,0123*48\r\n
$GPGGA,084632.40,5700.9254995,N,00959.1847205,E,2,8,1.1,10.725,M,40.583,M,3.0,0123*4B\r\n
$GPGGA,084632.45,5700.9254995,N,00959.1847203,E,2,8,1.1,10.727,M,40.583,M,3.2,0123*48\r\n
$GPGGA,084632.50,5700.9254995,N,00959.1847202,E,2,8,1.1,10.726,M,40.583,M,3.2,0123*4C\r\n
$GPGGA,084632.55,5700.9254995,N,00959.1847203,E,2,8,1.1,10.726,M,40.583,M,3.2,0123*48\r\n
$GPGGA,084632.60,5700.9254995,N,00959.1847204,E,2,8,1.1,10.726,M,40.583,M,3.2,0123*49\r\n
$GPGGA,084632.65,5700.9254994,N,00959.1847202,E,2,8,1.1,10.725,M,40.583,M,1.4,0123*4C\r\n
$GPGGA,084632.70,5700.9254994,N,00959.1847201,E,2,8,1.1,10.724,M,40.583,M,1.4,0123*4A\r\n
$GPGGA,084632.75,5700.9254994,N,00959.1847202,E,2,8,1.1,10.724,M,40.583,M,1.4,0123*4C\r\n
$GPGGA,084632.80,5700.9254995,N,00959.1847201,E,2,8,1.1,10.724,M,40.583,M,1.4,0123*44\r\n
$GPGGA,084632.85,5700.9255007,N,00959.1847203,E,2,8,1.1,10.728,M,40.583,M,1.7,0123*4F\r\n
$GPGGA,084632.90,5700.9255007,N,00959.1847204,E,2,8,1.1,10.728,M,40.583,M,1.7,0123*4C\r\n
$GPGGA,084632.95,5700.9255007,N,00959.1847203,E,2,8,1.1,10.728,M,40.583,M,1.7,0123*4E\r\n
$GPGGA,084633.00,5700.9255006,N,00959.1847203,E,2,8,1.1,10.727,M,40.583,M,1.7,0123*4D\r\n
$GPGGA,084633.05,5700.9255173,N,00959.1847241,E,2,8,1.1,10.738,M,40.583,M,2.0,0123*47\r\n
$GPGGA,084633.10,5700.9255172,N,00959.1847240,E,2,8,1.1,10.738,M,40.583,M,2.0,0123*43\r\n
$GPGGA,084633.15,5700.9255173,N,00959.1847240,E,2,8,1.1,10.738,M,40.583,M,2.0,0123*47\r\n
$GPGGA,084633.20,5700.9255172,N,00959.1847238,E,2,8,1.1,10.738,M,40.583,M,2.0,0123*4F\r\n
$GPGGA,084633.25,5700.9255197,N,00959.1847247,E,2,8,1.1,10.741,M,40.583,M,2.3,0123*44\r\n
$GPGGA,084633.30,5700.9255197,N,00959.1847246,E,2,8,1.1,10.741,M,40.583,M,2.3,0123*41\r\n
$GPGGA,084633.35,5700.9255197,N,00959.1847247,E,2,8,1.1,10.741,M,40.583,M,2.3,0123*45\r\n
$GPGGA,084633.40,5700.9255197,N,00959.1847247,E,2,8,1.1,10.741,M,40.583,M,2.3,0123*47\r\n
$GPGGA,084633.45,5700.9255200,N,00959.1847263,E,2,8,1.1,10.739,M,40.583,M,2.6,0123*43\r\n
$GPGGA,084633.50,5700.9255201,N,00959.1847263,E,2,8,1.1,10.739,M,40.583,M,2.6,0123*46\r\n
$GPGGA,084633.55,5700.9255201,N,00959.1847264,E,2,8,1.1,10.739,M,40.583,M,2.6,0123*44\r\n
$GPGGA,084633.60,5700.9255202,N,00959.1847266,E,2,8,1.1,10.739,M,40.583,M,2.6,0123*43\r\n
$GPGGA,084633.65,5700.9255204,N,00959.1847266,E,2,8,1.1,10.742,M,40.583,M,1.0,0123*49\r\n
$GPGGA,084633.70,5700.9255205,N,00959.1847266,E,2,8,1.1,10.742,M,40.583,M,1.0,0123*4C\r\n
$GPGGA,084633.75,5700.9255206,N,00959.1847267,E,2,8,1.1,10.742,M,40.583,M,1.0,0123*4B\r\n
$GPGGA,084633.80,5700.9255206,N,00959.1847268,E,2,8,1.1,10.742,M,40.583,M,1.0,0123*4E\r\n
$GPGGA,084633.85,5700.9255191,N,00959.1847246,E,2,8,1.1,10.740,M,40.583,M,1.3,0123*4B\r\n
$GPGGA,084633.90,5700.9255191,N,00959.1847246,E,2,8,1.1,10.740,M,40.583,M,1.3,0123*4F\r\n
$GPGGA,084633.95,5700.9255192,N,00959.1847246,E,2,8,1.1,10.740,M,40.583,M,1.3,0123*49\r\n
$GPGGA,084634.00,5700.9255192,N,00959.1847246,E,2,8,1.1,10.740,M,40.583,M,1.3,0123*42\r\n
$GPGGA,084634.05,5700.9255394,N,00959.1847292,E,2,8,1.1,10.753,M,40.583,M,1.6,0123*4D\r\n
$GPGGA,084634.10,5700.9255394,N,00959.1847291,E,2,8,1.1,10.753,M,40.583,M,1.6,0123*4A\r\n
$GPGGA,084634.15,5700.9255394,N,00959.1847290,E,2,8,1.1,10.753,M,40.583,M,1.6,0123*4E\r\n
$GPGGA,084634.20,5700.9255394,N,00959.1847290,E,2,8,1.1,10.753,M,40.583,M,1.6,0123*48\r\n
$GPGGA,084634.25,5700.9255375,N,00959.1847276,E,2,8,1.1,10.752,M,40.583,M,1.8,0123*45\r\n
$GPGGA,084634.30,5700.9255374,N,00959.1847275,E,2,8,1.1,10.752,M,40.583,M,1.8,0123*43\r\n
$GPGGA,084634.35,5700.9255373,N,00959.1847273,E,2,8,1.1,10.752,M,40.583,M,1.8,0123*47\r\n
$GPGGA,084634.40,5700.9255372,N,00959.1847272,E,2,8,1.1,10.752,M,40.583,M,1.8,0123*45\r\n
$GPGGA,084634.45,5700.9255396,N,00959.1847292,E,2,8,1.1,10.750,M,40.583,M,2.0,0123*4D\r\n
$GPGGA,084634.50,5700.9255395,N,00959.1847292,E,2,8,1.1,10.749,M,40.583,M,2.0,0123*42\r\n
$GPGGA,084634.55,5700.9255395,N,00959.1847290,E,2,8,1.1,10.749,M,40.583,M,2.0,0123*45\r\n
$GPGGA,084634.60,5700.9255394,N,00959.1847291,E,2,8,1.1,10.749,M,40.583,M,2.0,0123*43\r\n
$GPGGA,084634.65,5700.9255398,N,00959.1847301,E,2,8,1.1,10.749,M,40.583,M,1.2,0123*43\r\n
$GPGGA,084634.70,5700.9255397,N,00959.1847301,E,2,8,1.1,10.749,M,40.583,M,1.2,0123*48\r\n
$GPGGA,084634.75,5700.9255397,N,00959.1847302,E,2,8,1.1,10.749,M,40.583,M,1.2,0123*4E\r\n
$GPGGA,084634.80,5700.9255397,N,00959.1847301,E,2,8,1.1,10.748,M,40.583,M,1.2,0123*46\r\n
$GPGGA,084634.85,5700.9255397,N,00959.1847292,E,2,8,1.1,10.745,M,40.583,M,1.4,0123*43\r\n
$GPGGA,084634.90,5700.9255397,N,00959.1847292,E,2,8,1.1,10.744,M,40.583,M,1.4,0123*46\r\n
$GPGGA,084634.95,5700.9255398,N,00959.1847292,E,2,8,1.1,10.744,M,40.583,M,1.4,0123*4C\r\n
$GPGGA,084635.00,5700.9255397,N,00959.1847292,E,2,8,1.1,10.744,M,40.583,M,1.4,0123*4E\r\n
$GPGGA,084635.05,5700.9255624,N,00959.1847339,E,2,8,1.1,10.756,M,40.583,M,1.7,0123*46\r\n
$GPGGA,084635.10,5700.9255624,N,00959.1847339,E,2,8,1.1,10.756,M,40.583,M,1.7,0123*42\r\n
$GPGGA,084635.15,5700.9255625,N,00959.1847338,E,2,8,1.1,10.755,M,40.583,M,1.7,0123*44\r\n
$GPGGA,084635.20,5700.9255626,N,00959.1847338,E,2,8,1.1,10.755,M,40.583,M,1.7,0123*41\r\n
$GPGGA,084635.25,5700.9255612,N,00959.1847335,E,2,8,1.1,10.755,M,40.583,M,1.9,0123*40\r\n
$GPGGA,084635.30,5700.9255612,N,00959.1847335,E,2,8,1.1,10.754,M,40.583,M,1.9,0123*45\r\n
$GPGGA,084635.35,5700.9255612,N,00959.1847335,E,2,8,1.1,10.754,M,40.583,M,1.9,0123*40\r\n
$GPGGA,084635.40,5700.9255613,N,00959.1847335,E,2,8,1.1,10.753,M,40.583,M,1.9,0123*44\r\n
$GPGGA,084635.45,5700.9255616,N,00959.1847342,E,2,8,1.1,10.756,M,40.583,M,2.1,0123*4A\r\n
$GPGGA,084635.50,5700.9255616,N,00959.1847342,E,2,8,1.1,10.755,M,40.583,M,2.1,0123*4D\r\n
$GPGGA,084635.55,5700.9255617,N,00959.1847341,E,2,8,1.1,10.755,M,40.583,M,2.1,0123*4A\r\n
$GPGGA,084635.60,5700.9255616,N,00959.1847341,E,2,8,1.1,10.755,M,40.583,M,2.1,0123*4D\r\n
$GPGGA,084635.65,5700.9255604,N,00959.1847325,E,2,8,1.1,10.756,M,40.583,M,2.4,0123*4F\r\n
$GPGGA,084635.70,5700.9255604,N,00959.1847325,E,2,8,1.1,10.755,M,40.583,M,2.4,0123*48\r\n
