$GPGGA,152725.10,5700.7923191,N,00959.0309118,E,2,8,1.1,13.971,M,40.582,M,2.5,0123*4C\r\n
$GPGGA,152725.15,5700.7923200,N,00959.0309029,E,2,8,1.1,13.972,M,40.582,M,2.5,0123*42\r\n
$GPGGA,152725.20,5700.7923207,N,00959.0308911,E,2,8,1.1,13.973,M,40.582,M,2.5,0123*41\r\n
$GPGGA,152725.25,5700.7923212,N,00959.0308789,E,2,8,1.1,13.972,M,40.582,M,2.7,0123*4C\r\n
$GPGGA,152725.30,5700.7923222,N,00959.0308656,E,2,8,1.1,13.971,M,40.582,M,2.7,0123*4B\r\n
$GPGGA,152725.35,5700.7923214,N,00959.0308507,E,2,8,1.1,13.969,M,40.582,M,2.7,0123*45\r\n
$GPGGA,152725.40,5700.7923204,N,00959.0308368,E,2,8,1.1,13.968,M,40.582,M,2.7,0123*48\r\n
$GPGGA,152725.45,5700.7923190,N,00959.0308233,E,2,8,1.1,13.967,M,40.582,M,2.9,0123*4D\r\n
$GPGGA,152725.50,5700.7923169,N,00959.0308091,E,2,8,1.1,13.963,M,40.582,M,2.9,0123*41\r\n
$GPGGA,152725.55,5700.7923163,N,00959.0307933,E,2,8,1.1,13.960,M,40.582,M,2.9,0123*43\r\n
$GPGGA,152725.60,5700.7923169,N,00959.0307761,E,2,8,1.1,13.958,M,40.582,M,2.9,0123*4D\r\n
$GPGGA,152725.65,5700.7923169,N,00959.0307553,E,2,8,1.1,13.957,M,40.582,M,2.1,0123*4C\r\n
$GPGGA,152725.70,5700.7923165,N,00959.0307326,E,2,8,1.1,13.956,M,40.582,M,2.1,0123*41\r\n
$GPGGA,152725.75,5700.7923154,N,00959.0307072,E,2,8,1.1,13.956,M,40.582,M,2.1,0123*44\r\n
$GPGGA,152725.80,5700.7923158,N,00959.0306806,E,2,8,1.1,13.957,M,40.582,M,2.1,0123*49\r\n
$GPGGA,152725.85,5700.7923171,N,00959.0306521,E,2,8,1.1,13.958,M,40.582,M,2.4,0123*45\r\n
$GPGGA,152725.90,5700.7923195,N,00959.0306221,E,2,8,1.1,13.964,M,40.582,M,2.4,0123*43\r\n
$GPGGA,152725.95,5700.7923208,N,00959.0305896,E,2,8,1.1,13.970,M,40.582,M,2.4,0123*41\r\n
$GPGGA,152726.00,5700.7923213,N,00959.0305564,E,2,8,1.1,13.975,M,40.582,M,2.4,0123*41\r\n
$GPGGA,152726.05,5700.7923221,N,00959.0305221,E,2,8,1.1,13.981,M,40.582,M,2.7,0123*4B\r\n
$GPGGA,152726.10,5700.7923211,N,00959.0304882,E,2,8,1.1,13.984,M,40.582,M,2.7,0123*4B\r\n
$GPGGA,152726.15,5700.7923195,N,00959.0304553,E,2,8,1.1,13.987,M,40.582,M,2.7,0123*43\r\n
$GPGGA,152726.20,5700.7923199,N,00959.0304243,E,2,8,1.1,13.994,M,40.582,M,2.7,0123*4D\r\n
$GPGGA,152726.25,5700.7923213,N,00959.0303920,E,2,8,1.1,13.995,M,40.582,M,3.0,0123*47\r\n
$GPGGA,152726.30,5700.7923212,N,00959.0303596,E,2,8,1.1,13.993,M,40.582,M,3.0,0123*45\r\n
$GPGGA,152726.35,5700.7923228,N,00959.0303282,E,2,8,1.1,13.987,M,40.582,M,3.0,0123*4E\r\n
$GPGGA,152726.40,5700.7923271,N,00959.0302988,E,2,8,1.1,13.984,M,40.582,M,3.0,0123*43\r\n
$GPGGA,152726.45,5700.7923311,N,00959.0302695,E,2,8,1.1,13.981,M,40.582,M,3.2,0123*45\r\n
$GPGGA,152726.50,5700.7923306,N,00959.0302383,E,2,8,1.1,13.976,M,40.582,M,3.2,0123*4D\r\n
$GPGGA,152726.55,5700.7923283,N,00959.0302065,E,2,8,1.1,13.975,M,40.582,M,3.2,0123*4C\r\n
$GPGGA,152726.60,5700.7923289,N,00959.0301727,E,2,8,1.1,13.978,M,40.582,M,3.2,0123*4F\r\n
$GPGGA,152726.65,5700.7923298,N,00959.0301366,E,2,8,1.1,13.974,M,40.582,M,1.1,0123*46\r\n
$GPGGA,152726.70,5700.7923297,N,00959.0301011,E,2,8,1.1,13.975,M,40.582,M,1.1,0123*4F\r\n
$GPGGA,152726.75,5700.7923289,N,00959.0300607,E,2,8,1.1,13.976,M,40.582,M,1.1,0123*46\r\n
$GPGGA,152726.80,5700.7923296,N,00959.0300193,E,2,8,1.1,13.978,M,40.582,M,1.1,0123*46\r\n
$GPGGA,152726.85,5700.7923325,N,00959.0299803,E,2,8,1.1,13.982,M,40.582,M,1.4,0123*4B\r\n
$GPGGA,152726.90,5700.7923354,N,00959.0299417,E,2,8,1.1,13.982,M,40.582,M,1.4,0123*40\r\n
$GPGGA,152726.95,5700.7923390,N,00959.0299012,E,2,8,1.1,13.984,M,40.582,M,1.4,0123*4A\r\n
$GPGGA,152727.00,5700.7923422,N,00959.0298616,E,2,8,1.1,13.988,M,40.582,M,1.4,0123*46\r\n
$GPGGA,152727.05,5700.7923445,N,00959.0298200,E,2,8,1.1,13.985,M,40.582,M,1.6,0123*4E\r\n
$GPGGA,152727.10,5700.7923467,N,00959.0297795,E,2,8,1.1,13.980,M,40.582,M,1.6,0123*49\r\n
$GPGGA,152727.15,5700.7923494,N,00959.0297396,E,2,8,1.1,13.978,M,40.582,M,1.6,0123*40\r\n
$GPGGA,152727.20,5700.7923512,N,00959.0296959,E,2,8,1.1,13.975,M,40.582,M,1.6,0123*4C\r\n
$GPGGA,152727.25,5700.7923542,N,00959.0296489,E,2,8,1.1,13.972,M,40.582,M,1.9,0123*44\r\n
$GPGGA,152727.30,5700.7923592,N,00959.0295996,E,2,8,1.1,13.979,M,40.582,M,1.9,0123*46\r\n
$GPGGA,152727.35,5700.7923627,N,00959.0295443,E,2,8,1.1,13.984,M,40.582,M,1.9,0123*49\r\n
$GPGGA,152727.40,5700.7923668,N,00959.0294914,E,2,8,1.1,13.994,M,40.582,M,1.9,0123*4F\r\n
$GPGGA,152727.45,5700.7923719,N,00959.0294373,E,2,8,1.1,14.007,M,40.582,M,2.2,0123*4A\r\n
$GPGGA,152727.50,5700.7923731,N,00959.0293858,E,2,8,1.1,14.011,M,40.582,M,2.2,0123*46\r\n
$GPGGA,152727.55,5700.7923760,N,00959.0293334,E,2,8,1.1,14.013,M,40.582,M,2.2,0123*44\r\n
$GPGGA,152727.60,5700.7923784,N,00959.0292854,E,2,8,1.1,14.010,M,40.582,M,2.2,0123*47\r\n
$GPGGA,152727.65,5700.7923794,N,00959.0292400,E,2,8,1.1,14.003,M,40.582,M,0.9,0123*45\r\n
$GPGGA,152727.70,5700.7923798,N,00959.0291923,E,2,8,1.1,13.997,M,40.582,M,0.9,0123*41\r\n
$GPGGA,152727.75,5700.7923835,N,00959.0291428,E,2,8,1.1,13.993,M,40.582,M,0.9,0123*4E\r\n
$GPGGA,152727.80,5700.7923860,N,00959.0290945,E,2,8,1.1,13.991,M,40.582,M,0.9,0123*41\r\n
$GPGGA,152727.85,5700.7923871,N,00959.0290471,E,2,8,1.1,13.978,M,40.582,M,1.2,0123*43\r\n
$GPGGA,152727.90,5700.7923913,N,00959.0289984,E,2,8,1.1,13.969,M,40.582,M,1.2,0123*4D\r\n
$GPGGA,152727.95,5700.7923957,N,00959.0289453,E,2,8,1.1,13.963,M,40.582,M,1.2,0123*45\r\n
$GPGGA,152728.00,5700.7924018,N,00959.0288936,E,2,8,1.1,13.962,M,40.582,M,1.2,0123*4D\r\n
$GPGGA,152728.05,5700.7924066,N,00959.0288373,E,2,8,1.1,13.960,M,40.582,M,1.4,0123*4E\r\n
$GPGGA,152728.10,5700.7924107,N,00959.0287832,E,2,8,1.1,13.960,M,40.582,M,1.4,0123*4D\r\n
$GPGGA,152728.15,5700.7924146,N,00959.0287282,E,2,8,1.1,13.962,M,40.582,M,1.4,0123*4E\r\n
$GPGGA,152728.20,5700.7924169,N,00959.0286745,E,2,8,1.1,13.966,M,40.582,M,1.4,0123*4E\r\n
$GPGGA,152728.25,5700.7924196,N,00959.0286183,E,2,8,1.1,13.969,M,40.582,M,1.6,0123*4A\r\n
$GPGGA,152728.30,5700.7924209,N,00959.0285610,E,2,8,1.1,13.967,M,40.582,M,1.6,0123*4B\r\n
$GPGGA,152728.35,5700.7924217,N,00959.0285052,E,2,8,1.1,13.963,M,40.582,M,1.6,0123*45\r\n
$GPGGA,152728.40,5700.7924221,N,00959.0284518,E,2,8,1.1,13.963,M,40.582,M,1.6,0123*48\r\n
$GPGGA,152728.45,5700.7924213,N,00959.0283974,E,2,8,1.1,13.960,M,40.582,M,1.9,0123*41\r\n
$GPGGA,152728.50,5700.7924224,N,00959.0283437,E,2,8,1.1,13.964,M,40.582,M,1.9,0123*4F\r\n
$GPGGA,152728.55,5700.7924238,N,00959.0282845,E,2,8,1.1,13.964,M,40.582,M,1.9,0123*4F\r\n
$GPGGA,152728.60,5700.7924257,N,00959.0282211,E,2,8,1.1,13.968,M,40.582,M,1.9,0123*47\r\n
$GPGGA,152728.65,5700.7924260,N,00959.0281607,E,2,8,1.1,13.987,M,40.582,M,2.1,0123*4C\r\n
$GPGGA,152728.70,5700.7924251,N,00959.0281010,E,2,8,1.1,13.994,M,40.582,M,2.1,0123*48\r\n
$GPGGA,152728.75,5700.7924269,N,00959.0280434,E,2,8,1.1,14.001,M,40.582,M,2.1,0123*47\r\n
$GPGGA,152728.80,5700.7924249,N,00959.0279857,E,2,8,1.1,14.003,M,40.582,M,2.1,0123*42\r\n
$GPGGA,152728.85,5700.7924188,N,00959.0279314,E,2,8,1.1,13.997,M,40.582,M,2.3,0123*44\r\n
$GPGGA,152728.90,5700.7924138,N,00959.0278787,E,2,8,1.1,13.992,M,40.582,M,2.3,0123*41\r\n
$GPGGA,152728.95,5700.7924088,N,00959.0278266,E,2,8,1.1,13.983,M,40.582,M,2.3,0123*44\r\n
$GPGGA,152729.00,5700.7924034,N,00959.0277748,E,2,8,1.1,13.975,M,40.582,M,2.3,0123*41\r\n
$GPGGA,152729.05,5700.7924011,N,00959.0277214,E,2,8,1.1,13.968,M,40.582,M,2.5,0123*45\r\n
$GPGGA,152729.10,5700.7924014,N,00959.0276687,E,2,8,1.1,13.963,M,40.582,M,2.5,0123*40\r\n
$GPGGA,152729.15,5700.7924021,N,00959.0276164,E,2,8,1.1,13.958,M,40.582,M,2.5,0123*41\r\n
$GPGGA,152729.20,5700.7924016,N,00959.0275636,E,2,8,1.1,13.951,M,40.582,M,2.5,0123*49\r\n
$GPGGA,152729.25,5700.7924011,N,00959.0275095,E,2,8,1.1,13.949,M,40.582,M,2.7,0123*4F\r\n
$GPGGA,152729.30,5700.7924000,N,00959.0274549,E,2,8,1.1,13.946,M,40.582,M,2.7,0123*41\r\n
$GPGGA,152729.35,5700.7923998,N,00959.0273994,E,2,8,1.1,13.943,M,40.582,M,2.7,0123*45\r\n
$GPGGA,152729.40,5700.7923978,N,00959.0273452,E,2,8,1.1,13.947,M,40.582,M,2.7,0123*4A\r\n
$GPGGA,152729.45,5700.7923959,N,00959.0272855,E,2,8,1.1,13.948,M,40.582,M,2.9,0123*47\r\n
$GPGGA,152729.50,5700.7923946,N,00959.0272304,E,2,8,1.1,13.947,M,40.582,M,2.9,0123*4D\r\n
$GPGGA,152729.55,5700.7923936,N,00959.0271757,E,2,8,1.1,13.942,M,40.582,M,2.9,0123*4B\r\n
$GPGGA,152729.60,5700.7923908,N,00959.0271201,E,2,8,1.1,13.939,M,40.582,M,2.9,0123*4A\r\n
$GPGGA,152729.65,5700.7923887,N,00959.0270652,E,2,8,1.1,13.945,M,40.582,M,3.1,0123*48\r\n
$GPGGA,152729.70,5700.7923863,N,00959.0270104,E,2,8,1.1,13.949,M,40.582,M,3.1,0123*4E\r\n
$GPGGA,152729.75,5700.7923858,N,00959.0269518,E,2,8,1.1,13.956,M,40.582,M,3.1,0123*4C\r\n
$GPGGA,152729.80,5700.7923844,N,00959.0268924,E,2,8,1.1,13.961,M,40.582,M,3.1,0123*4D\r\n
$GPGGA,152729.85,5700.7923823,N,00959.0268364,E,2,8,1.1,13.971,M,40.582,M,2.4,0123*42\r\n
$GPGGA,152729.90,5700.7923805,N,00959.0267823,E,2,8,1.1,13.972,M,40.582,M,2.4,0123*46\r\n
$GPGGA,152729.95,5700.7923776,N,00959.0267286,E,2,8,1.1,13.970,M,40.582,M,2.4,0123*4F\r\n
$GPGGA,152730.00,5700.7923735,N,00959.0266761,E,2,8,1.1,13.966,M,40.582,M,2.4,0123*46\r\n
$GPGGA,152730.05,5700.7923701,N,00959.0266254,E,2,8,1.1,13.953,M,40.582,M,2.7,0123*42\r\n
$GPGGA,152730.10,5700.7923701,N,00959.0265743,E,2,8,1.1,13.947,M,40.582,M,2.7,0123*43\r\n
$GPGGA,152730.15,5700.7923696,N,00959.0265235,E,2,8,1.1,13.944,M,40.582,M,2.7,0123*4E\r\n
$GPGGA,152730.20,5700.7923685,N,00959.0264693,E,2,8,1.1,13.942,M,40.582,M,2.7,0123*45\r\n
$GPGGA,152730.25,5700.7923683,N,00959.0264195,E,2,8,1.1,13.948,M,40.582,M,3.0,0123*4B\r\n
$GPGGA,152730.30,5700.7923675,N,00959.0263715,E,2,8,1.1,13.946,M,40.582,M,3.0,0123*41\r\n
$GPGGA,152730.35,5700.7923650,N,00959.0263195,E,2,8,1.1,13.944,M,40.582,M,3.0,0123*4F\r\n
$GPGGA,152730.40,5700.7923598,N,00959.0262683,E,2,8,1.1,13.948,M,40.582,M,3.0,0123*47\r\n
$GPGGA,152730.45,5700.7923583,N,00959.0262165,E,2,8,1.1,13.949,M,40.582,M,3.2,0123*44\r\n
$GPGGA,152730.50,5700.7923596,N,00959.0261640,E,2,8,1.1,13.950,M,40.582,M,3.2,0123*4F\r\n
$GPGGA,152730.55,5700.7923586,N,00959.0261133,E,2,8,1.1,13.951,M,40.582,M,3.2,0123*49\r\n
$GPGGA,152730.60,5700.7923588,N,00959.0260671,E,2,8,1.1,13.949,M,40.582,M,3.2,0123*48\r\n
$GPGGA,152730.65,5700.7923584,N,00959.0260189,E,2,8,1.1,13.938,M,40.582,M,1.1,0123*46\r\n
$GPGGA,152730.70,5700.7923591,N,00959.0259707,E,2,8,1.1,13.934,M,40.582,M,1.1,0123*40\r\n
$GPGGA,152730.75,5700.7923584,N,00959.0259209,E,2,8,1.1,13.933,M,40.582,M,1.1,0123*4D\r\n
$GPGGA,152730.80,5700.7923578,N,00959.0258757,E,2,8,1.1,13.936,M,40.582,M,1.1,0123*4E\r\n
$GPGGA,152730.85,5700.7923584,N,00959.0258288,E,2,8,1.1,13.944,M,40.582,M,1.4,0123*4F\r\n
$GPGGA,152730.90,5700.7923581,N,00959.0257800,E,2,8,1.1,13.942,M,40.582,M,1.4,0123*4D\r\n
$GPGGA,152730.95,5700.7923572,N,00959.0257342,E,2,8,1.1,13.941,M,40.582,M,1.4,0123*4A\r\n
$GPGGA,152731.00,5700.7923549,N,00959.0256869,E,2,8,1.1,13.945,M,40.582,M,1.4,0123*48\r\n
$GPGGA,152731.05,5700.7923547,N,00959.0256390,E,2,8,1.1,13.946,M,40.582,M,1.6,0123*4F\r\n
$GPGGA,152731.10,5700.7923527,N,00959.0255958,E,2,8,1.1,13.948,M,40.582,M,1.6,0123*4E\r\n
$GPGGA,152731.15,5700.7923513,N,00959.0255530,E,2,8,1.1,13.949,M,40.582,M,1.6,0123*4F\r\n
$GPGGA,152731.20,5700.7923529,N,00959.0255120,E,2,8,1.1,13.944,M,40.582,M,1.6,0123*48\r\n
$GPGGA,152731.25,5700.7923529,N,00959.0254668,E,2,8,1.1,13.935,M,40.582,M,1.9,0123*4E\r\n
$GPGGA,152731.30,5700.7923502,N,00959.0254236,E,2,8,1.1,13.934,M,40.582,M,1.9,0123*4D\r\n
$GPGGA,152731.35,5700.7923483,N,00959.0253823,E,2,8,1.1,13.935,M,40.582,M,1.9,0123*48\r\n
$GPGGA,152731.40,5700.7923474,N,00959.0253405,E,2,8,1.1,13.936,M,40.582,M,1.9,0123*49\r\n
$GPGGA,152731.45,5700.7923456,N,00959.0252971,E,2,8,1.1,13.926,M,40.582,M,2.2,0123*4A\r\n
$GPGGA,152731.50,5700.7923432,N,00959.0252538,E,2,8,1.1,13.924,M,40.582,M,2.2,0123*4F\r\n
$GPGGA,152731.55,5700.7923405,N,00959.0252116,E,2,8,1.1,13.925,M,40.582,M,2.2,0123*47\r\n
$GPGGA,152731.60,5700.7923362,N,00959.0251680,E,2,8,1.1,13.926,M,40.582,M,2.2,0123*4F\r\n
$GPGGA,152731.65,5700.7923351,N,00959.0251298,E,2,9,1.1,13.930,M,40.582,M,2.4,0123*47\r\n
$GPGGA,152731.70,5700.7923334,N,00959.0250919,E,2,9,1.1,13.930,M,40.582,M,2.4,0123*43\r\n
$GPGGA,152731.75,5700.7923311,N,00959.0250507,E,2,9,1.1,13.931,M,40.582,M,2.4,0123*43\r\n
$GPGGA,152731.80,5700.7923323,N,00959.0250129,E,2,9,1.1,13.933,M,40.582,M,2.4,0123*42\r\n
$GPGGA,152731.85,5700.7923318,N,00959.0249723,E,2,9,0.9,13.924,M,40.582,M,1.2,0123*41\r\n
$GPGGA,152731.90,5700.7923317,N,00959.0249310,E,2,9,0.9,13.923,M,40.582,M,1.2,0123*49\r\n
$GPGGA,152731.95,5700.7923322,N,00959.0248933,E,2,9,0.9,13.925,M,40.582,M,1.2,0123*46\r\n
$GPGGA,152732.00,5700.7923316,N,00959.0248561,E,2,9,0.9,13.928,M,40.582,M,1.2,0123*48\r\n
$GPGGA,152732.05,5700.7923303,N,00959.0248175,E,2,9,0.9,13.933,M,40.582,M,1.4,0123*44\r\n
$GPGGA,152732.10,5700.7923294,N,00959.0247813,E,2,9,0.9,13.930,M,40.582,M,1.4,0123*4A\r\n
$GPGGA,152732.15,5700.7923298,N,00959.0247467,E,2,9,0.9,13.926,M,40.582,M,1.4,0123*4B\r\n
$GPGGA,152732.20,5700.7923300,N,00959.0247099,E,2,9,0.9,13.932,M,40.582,M,1.4,0123*4D\r\n
$GPGGA,152732.25,5700.7923294,N,00959.0246714,E,2,9,0.9,13.932,M,40.582,M,1.6,0123*45\r\n
$GPGGA,152732.30,5700.7923279,N,00959.0246337,E,2,9,0.9,13.931,M,40.582,M,1.6,0123*44\r\n
$GPGGA,152732.35,5700.7923263,N,00959.0245983,E,2,9,0.9,13.930,M,40.582,M,1.6,0123*4D\r\n
$GPGGA,152732.40,5700.7923258,N,00959.0245643,E,2,9,0.9,13.931,M,40.582,M,1.6,0123*45\r\n
$GPGGA,152732.45,5700.7923243,N,00959.0245303,E,2,9,0.9,13.937,M,40.582,M,1.9,0123*42\r\n
$GPGGA,152732.50,5700.7923226,N,00959.0244957,E,2,9,0.9,13.932,M,40.582,M,1.9,0123*4A\r\n
$GPGGA,152732.55,5700.7923204,N,00959.0244632,E,2,9,0.9,13.931,M,40.582,M,1.9,0123*40\r\n
$GPGGA,152732.60,5700.7923179,N,00959.0244322,E,2,9,0.9,13.929,M,40.582,M,1.9,0123*42\r\n
$GPGGA,152732.65,5700.7923140,N,00959.0243985,E,2,9,0.9,13.925,M,40.582,M,2.1,0123*4A\r\n
$GPGGA,152732.70,5700.7923112,N,00959.0243627,E,2,9,0.9,13.924,M,40.582,M,2.1,0123*4F\r\n
$GPGGA,152732.75,5700.7923116,N,00959.0243296,E,2,9,0.9,13.923,M,40.582,M,2.1,0123*47\r\n
$GPGGA,152732.80,5700.7923122,N,00959.0242968,E,2,9,0.9,13.923,M,40.582,M,2.1,0123*41\r\n
$GPGGA,152732.85,5700.7923125,N,00959.0242637,E,2,9,0.9,13.929,M,40.582,M,2.3,0123*4E\r\n
$GPGGA,152732.90,5700.7923132,N,00959.0242308,E,2,9,0.9,13.932,M,40.582,M,2.3,0123*4F\r\n
$GPGGA,152732.95,5700.7923145,N,00959.0241989,E,2,9,0.9,13.929,M,40.582,M,2.3,0123*40\r\n
$GPGGA,152733.00,5700.7923140,N,00959.0241662,E,2,9,0.9,13.922,M,40.582,M,2.3,0123*49\r\n
$GPGGA,152733.05,5700.7923132,N,00959.0241300,E,2,9,0.9,13.920,M,40.582,M,2.5,0123*4C\r\n
$GPGGA,152733.10,5700.7923118,N,00959.0240966,E,2,9,0.9,13.925,M,40.582,M,2.5,0123*4E\r\n
$GPGGA,152733.15,5700.7923100,N,00959.0240627,E,2,9,0.9,13.926,M,40.582,M,2.5,0123*4B\r\n
$GPGGA,152733.20,5700.7923062,N,00959.0240288,E,2,9,0.9,13.923,M,40.582,M,2.5,0123*4C\r\n
$GPGGA,152733.25,5700.7923028,N,00959.0239959,E,2,9,0.9,13.930,M,40.582,M,2.7,0123*4E\r\n
$GPGGA,152733.30,5700.7923012,N,00959.0239610,E,2,9,0.9,13.936,M,40.582,M,2.7,0123*47\r\n
$GPGGA,152733.35,5700.7923004,N,00959.0239282,E,2,9,0.9,13.937,M,40.582,M,2.7,0123*4B\r\n
$GPGGA,152733.40,5700.7922988,N,00959.0238968,E,2,9,0.9,13.937,M,40.582,M,2.7,0123*4B\r\n
$GPGGA,152733.45,5700.7922970,N,00959.0238661,E,2,9,0.9,13.933,M,40.582,M,2.9,0123*45\r\n
$GPGGA,152733.50,5700.7922962,N,00959.0238359,E,2,9,0.9,13.929,M,40.582,M,2.9,0123*47\r\n
$GPGGA,152733.55,5700.7922971,N,00959.0238016,E,2,9,0.9,13.934,M,40.582,M,2.9,0123*44\r\n
$GPGGA,152733.60,5700.7922982,N,00959.0237697,E,2,9,0.9,13.940,M,40.582,M,2.9,0123*4D\r\n
$GPGGA,152733.65,5700.7922971,N,00959.0237387,E,2,9,0.9,13.939,M,40.582,M,3.1,0123*47\r\n
$GPGGA,152733.70,5700.7922965,N,00959.0237083,E,2,9,0.9,13.939,M,40.582,M,3.1,0123*41\r\n
$GPGGA,152733.75,5700.7922963,N,00959.0236806,E,2,9,0.9,13.942,M,40.582,M,3.1,0123*4A\r\n
$GPGGA,152733.80,5700.7922962,N,00959.0236516,E,2,9,0.9,13.942,M,40.582,M,3.1,0123*4D\r\n
$GPGGA,152733.85,5700.7922955,N,00959.0236220,E,2,9,0.9,13.935,M,40.582,M,2.4,0123*4A\r\n
$GPGGA,152733.90,5700.7922963,N,00959.0235938,E,2,9,0.9,13.932,M,40.582,M,2.4,0123*4D\r\n
$GPGGA,152733.95,5700.7922973,N,00959.0235667,E,2,9,0.9,13.934,M,40.582,M,2.4,0123*4A\r\n
$GPGGA,152734.00,5700.7922976,N,00959.0235386,E,2,9,0.9,13.934,M,40.582,M,2.4,0123*4E\r\n
$GPGGA,152734.05,5700.7922970,N,00959.0235087,E,2,9,0.9,13.934,M,40.582,M,2.7,0123*4C\r\n
$GPGGA,152734.10,5700.7922978,N,00959.0234833,E,2,9,0.9,13.934,M,40.582,M,2.7,0123*46\r\n
$GPGGA,152734.15,5700.7922980,N,00959.0234575,E,2,9,0.9,13.931,M,40.582,M,2.7,0123*4E\r\n
$GPGGA,152734.20,5700.7922951,N,00959.0234311,E,2,9,0.9,13.931,M,40.582,M,2.7,0123*40\r\n
$GPGGA,152734.25,5700.7922913,N,00959.0234094,E,2,9,0.9,13.932,M,40.582,M,3.0,0123*48\r\n
$GPGGA,152734.30,5700.7922879,N,00959.0233885,E,2,9,0.9,13.932,M,40.582,M,3.0,0123*4E\r\n
$GPGGA,152734.35,5700.7922836,N,00959.0233662,E,2,9,0.9,13.930,M,40.582,M,3.0,0123*45\r\n
$GPGGA,152734.40,5700.7922821,N,00959.0233446,E,2,9,0.9,13.927,M,40.582,M,3.0,0123*43\r\n
$GPGGA,152734.45,5700.7922825,N,00959.0233229,E,2,9,0.9,13.925,M,40.582,M,3.2,0123*4D\r\n
$GPGGA,152734.50,5700.7922849,N,00959.0233007,E,2,9,0.9,13.926,M,40.582,M,3.2,0123*4E\r\n
$GPGGA,152734.55,5700.7922887,N,00959.0232805,E,2,9,0.9,13.928,M,40.582,M,3.2,0123*4C\r\n
$GPGGA,152734.60,5700.7922927,N,00959.0232581,E,2,9,0.9,13.931,M,40.582,M,3.2,0123*48\r\n
$GPGGA,152734.65,5700.7922989,N,00959.0232373,E,2,9,0.9,13.942,M,40.582,M,3.5,0123*41\r\n
$GPGGA,152734.70,5700.7923027,N,00959.0232190,E,2,9,0.9,13.943,M,40.582,M,3.5,0123*47\r\n
$GPGGA,152734.75,5700.7923050,N,00959.0232034,E,2,9,0.9,13.944,M,40.582,M,3.5,0123*4A\r\n
$GPGGA,152734.80,5700.7923061,N,00959.0231861,E,2,9,0.9,13.944,M,40.582,M,3.5,0123*49\r\n
$GPGGA,152734.85,5700.7923076,N,00959.0231672,E,2,9,0.9,13.938,M,40.582,M,1.4,0123*4E\r\n
$GPGGA,152734.90,5700.7923090,N,00959.0231487,E,2,9,0.9,13.935,M,40.582,M,1.4,0123*47\r\n
$GPGGA,152734.95,5700.7923117,N,00959.0231337,E,2,9,0.9,13.933,M,40.582,M,1.4,0123*46\r\n
$GPGGA,152735.00,5700.7923137,N,00959.0231206,E,2,9,0.9,13.930,M,40.582,M,1.4,0123*49\r\n
$GPGGA,152735.05,5700.7923163,N,00959.0231080,E,2,9,0.9,13.928,M,40.582,M,1.6,0123*4A\r\n
$GPGGA,152735.10,5700.7923198,N,00959.0230988,E,2,9,0.9,13.923,M,40.582,M,1.6,0123*41\r\n
$GPGGA,152735.15,5700.7923225,N,00959.0230882,E,2,9,0.9,13.919,M,40.582,M,1.6,0123*43\r\n
$GPGGA,152735.20,5700.7923256,N,00959.0230755,E,2,9,0.9,13.917,M,40.582,M,1.6,0123*4A\r\n
$GPGGA,152735.25,5700.7923310,N,00959.0230626,E,2,9,0.9,13.918,M,40.582,M,1.9,0123*49\r\n
$GPGGA,152735.30,5700.7923347,N,00959.0230486,E,2,9,0.9,13.919,M,40.582,M,1.9,0123*46\r\n
$GPGGA,152735.35,5700.7923362,N,00959.0230356,E,2,9,0.9,13.923,M,40.582,M,1.9,0123*47\r\n
$GPGGA,152735.40,5700.7923370,N,00959.0230241,E,2,9,0.9,13.929,M,40.582,M,1.9,0123*4B\r\n
$GPGGA,152735.45,5700.7923380,N,00959.0230141,E,2,9,0.9,13.935,M,40.582,M,2.2,0123*47\r\n
$GPGGA,152735.50,5700.7923390,N,00959.0230034,E,2,9,0.9,13.939,M,40.582,M,2.2,0123*4D\r\n
$GPGGA,152735.55,5700.7923403,N,00959.0229940,E,2,9,0.9,13.939,M,40.582,M,2.2,0123*47\r\n
$GPGGA,152735.60,5700.7923428,N,00959.0229859,E,2,9,0.9,13.939,M,40.582,M,2.2,0123*41\r\n
$GPGGA,152735.65,5700.7923457,N,00959.0229792,E,2,9,0.9,13.944,M,40.582,M,2.4,0123*48\r\n
$GPGGA,152735.70,5700.7923470,N,00959.0229734,E,2,9,0.9,13.945,M,40.582,M,2.4,0123*44\r\n
$GPGGA,152735.75,5700.7923488,N,00959.0229675,E,2,9,0.9,13.947,M,40.582,M,2.4,0123*40\r\n
$GPGGA,152735.80,5700.7923489,N,00959.0229624,E,2,9,0.9,13.949,M,40.582,M,2.4,0123*41\r\n
$GPGGA,152735.85,5700.7923479,N,00959.0229600,E,2,9,0.9,13.947,M,40.582,M,1.2,0123*46\r\n
$GPGGA,152735.90,5700.7923455,N,00959.0229568,E,2,9,0.9,13.946,M,40.582,M,1.2,0123*40\r\n
$GPGGA,152735.95,5700.7923448,N,00959.0229554,E,2,9,0.9,13.945,M,40.582,M,1.2,0123*45\r\n
$GPGGA,152736.00,5700.7923429,N,00959.0229547,E,2,9,0.9,13.945,M,40.582,M,1.2,0123*4F\r\n
$GPGGA,152736.05,5700.7923405,N,00959.0229520,E,2,9,0.9,13.940,M,40.582,M,1.4,0123*46\r\n
$GPGGA,152736.10,5700.7923388,N,00959.0229530,E,2,9,0.9,13.940,M,40.582,M,1.4,0123*41\r\n
$GPGGA,152736.15,5700.7923393,N,00959.0229544,E,2,9,0.9,13.939,M,40.582,M,1.4,0123*43\r\n
$GPGGA,152736.20,5700.7923400,N,00959.0229576,E,2,9,0.9,13.938,M,40.582,M,1.4,0123*48\r\n
$GPGGA,152736.25,5700.7923400,N,00959.0229614,E,2,9,0.9,13.940,M,40.582,M,1.6,0123*47\r\n
$GPGGA,152736.30,5700.7923392,N,00959.0229653,E,2,9,0.9,13.940,M,40.582,M,1.6,0123*4C\r\n
$GPGGA,152736.35,5700.7923383,N,00959.0229696,E,2,9,0.9,13.939,M,40.582,M,1.6,0123*4E\r\n
$GPGGA,152736.40,5700.7923376,N,00959.0229746,E,2,9,0.9,13.939,M,40.582,M,1.6,0123*4A\r\n
$GPGGA,152736.45,5700.7923370,N,00959.0229791,E,2,9,0.9,13.935,M,40.582,M,1.9,0123*40\r\n
$GPGGA,152736.50,5700.7923363,N,00959.0229850,E,2,9,0.9,13.935,M,40.582,M,1.9,0123*44\r\n
$GPGGA,152736.55,5700.7923356,N,00959.0229897,E,2,9,0.9,13.932,M,40.582,M,1.9,0123*4B\r\n
$GPGGA,152736.60,5700.7923350,N,00959.0229951,E,2,9,0.9,13.927,M,40.582,M,1.9,0123*44\r\n
$GPGGA,152736.65,5700.7923357,N,00959.0230019,E,2,9,0.9,13.925,M,40.582,M,2.1,0123*42\r\n
$GPGGA,152736.70,5700.7923364,N,00959.0230072,E,2,9,0.9,13.925,M,40.582,M,2.1,0123*4B\r\n
$GPGGA,152736.75,5700.7923364,N,00959.0230124,E,2,9,0.9,13.923,M,40.582,M,2.1,0123*4A\r\n
$GPGGA,152736.80,5700.7923367,N,00959.0230186,E,2,9,0.9,13.923,M,40.582,M,2.1,0123*4B\r\n
$GPGGA,152736.85,5700.7923375,N,00959.0230254,E,2,9,0.9,13.926,M,40.582,M,2.3,0123*46\r\n
$GPGGA,152736.90,5700.7923373,N,00959.0230313,E,2,9,0.9,13.928,M,40.582,M,2.3,0123*48\r\n
$GPGGA,152736.95,5700.7923356,N,00959.0230370,E,2,9,0.9,13.929,M,40.582,M,2.3,0123*4E\r\n
$GPGGA,152737.00,5700.7923338,N,00959.0230441,E,2,9,0.9,13.929,M,40.582,M,2.3,0123*4E\r\n
$GPGGA,152737.05,5700.7923329,N,00959.0230487,E,2,9,0.9,13.931,M,40.582,M,2.5,0123*4E\r\n
$GPGGA,152737.10,5700.7923320,N,00959.0230567,E,2,9,0.9,13.932,M,40.582,M,2.5,0123*4F\r\n
$GPGGA,152737.15,5700.7923312,N,00959.0230647,E,2,9,0.9,13.936,M,40.582,M,2.5,0123*4E\r\n
$GPGGA,152737.20,5700.7923301,N,00959.0230729,E,2,9,0.9,13.937,M,40.582,M,2.5,0123*42\r\n
$GPGGA,152737.25,5700.7923291,N,00959.0230820,E,2,9,0.9,13.939,M,40.582,M,2.7,0123*45\r\n
$GPGGA,152737.30,5700.7923275,N,00959.0230912,E,2,9,0.9,13.940,M,40.582,M,2.7,0123*45\r\n
$GPGGA,152737.35,5700.7923265,N,00959.0231007,E,2,9,0.9,13.944,M,40.582,M,2.7,0123*49\r\n
$GPGGA,152737.40,5700.7923247,N,00959.0231102,E,2,9,0.9,13.945,M,40.582,M,2.7,0123*4E\r\n
$GPGGA,152737.45,5700.7923220,N,00959.0231212,E,2,9,0.9,13.939,M,40.582,M,2.9,0123*4D\r\n
$GPGGA,152737.50,5700.7923197,N,00959.0231315,E,2,9,0.9,13.941,M,40.582,M,2.9,0123*4F\r\n
$GPGGA,152737.55,5700.7923171,N,00959.0231427,E,2,9,0.9,13.946,M,40.582,M,2.9,0123*43\r\n
$GPGGA,152737.60,5700.7923151,N,00959.0231547,E,2,9,0.9,13.949,M,40.582,M,2.9,0123*4F\r\n
$GPGGA,152737.65,5700.7923140,N,00959.0231694,E,2,9,0.9,13.957,M,40.582,M,3.1,0123*41\r\n
$GPGGA,152737.70,5700.7923127,N,00959.0231867,E,2,9,0.9,13.960,M,40.582,M,3.1,0123*42\r\n
$GPGGA,152737.75,5700.7923099,N,00959.0232049,E,2,9,0.9,13.962,M,40.582,M,3.1,0123*46\r\n
$GPGGA,152737.80,5700.7923080,N,00959.0232216,E,2,9,0.9,13.966,M,40.582,M,3.1,0123*48\r\n
$GPGGA,152737.85,5700.7923063,N,00959.0232377,E,2,9,0.9,13.965,M,40.582,M,2.4,0123*41\r\n
$GPGGA,152737.90,5700.7923046,N,00959.0232558,E,2,9,0.9,13.966,M,40.582,M,2.4,0123*4A\r\n
$GPGGA,152737.95,5700.7923029,N,00959.0232780,E,2,9,0.9,13.968,M,40.582,M,2.4,0123*4F\r\n
$GPGGA,152738.00,5700.7922997,N,00959.0233019,E,2,9,0.9,13.966,M,40.582,M,2.4,0123*49\r\n
$GPGGA,152738.05,5700.7922971,N,00959.0233231,E,2,9,0.9,13.967,M,40.582,M,2.7,0123*4E\r\n
$GPGGA,152738.10,5700.7922953,N,00959.0233443,E,2,9,0.9,13.968,M,40.582,M,2.7,0123*46\r\n
$GPGGA,152738.15,5700.7922938,N,00959.0233653,E,2,9,0.9,13.971,M,40.582,M,2.7,0123*45\r\n
$GPGGA,152738.20,5700.7922929,N,00959.0233901,E,2,9,0.9,13.972,M,40.582,M,2.7,0123*48\r\n
$GPGGA,152738.25,5700.7922933,N,00959.0234174,E,2,9,0.9,13.967,M,40.582,M,3.0,0123*49\r\n
$GPGGA,152738.30,5700.7922945,N,00959.0234437,E,2,9,0.9,13.963,M,40.582,M,3.0,0123*4A\r\n
$GPGGA,152738.35,5700.7922965,N,00959.0234696,E,2,9,0.9,13.958,M,40.582,M,3.0,0123*4C\r\n
$GPGGA,152738.40,5700.7922987,N,00959.0234973,E,2,9,0.9,13.955,M,40.582,M,3.0,0123*4B\r\n
$GPGGA,152738.45,5700.7922979,N,00959.0235261,E,2,9,0.9,13.955,M,40.582,M,3.2,0123*44\r\n
$GPGGA,152738.50,5700.7922950,N,00959.0235533,E,2,9,0.9,13.949,M,40.582,M,3.2,0123*46\r\n
$GPGGA,152738.55,5700.7922936,N,00959.0235792,E,2,9,0.9,13.946,M,40.582,M,3.2,0123*45\r\n
$GPGGA,152738.60,5700.7922928,N,00959.0236071,E,2,9,0.9,13.950,M,40.582,M,3.2,0123*42\r\n
$GPGGA,152738.65,5700.7922884,N,00959.0236375,E,2,9,0.9,13.955,M,40.582,M,3.5,0123*45\r\n
$GPGGA,152738.70,5700.7922847,N,00959.0236660,E,2,9,0.9,13.959,M,40.582,M,3.5,0123*43\r\n
$GPGGA,152738.75,5700.7922828,N,00959.0236944,E,2,9,0.9,13.958,M,40.582,M,3.5,0123*47\r\n
$GPGGA,152738.80,5700.7922818,N,00959.0237236,E,2,9,0.9,13.959,M,40.582,M,3.5,0123*40\r\n
$GPGGA,152738.85,5700.7922802,N,00959.0237510,E,2,9,0.9,13.957,M,40.582,M,1.4,0123*40\r\n
$GPGGA,152738.90,5700.7922784,N,00959.0237806,E,2,9,0.9,13.957,M,40.582,M,1.4,0123*4F\r\n
$GPGGA,152738.95,5700.7922780,N,00959.0238130,E,2,9,0.9,13.957,M,40.582,M,1.4,0123*4D\r\n
$GPGGA,152739.00,5700.7922772,N,00959.0238457,E,2,9,0.9,13.958,M,40.582,M,1.4,0123*46\r\n
$GPGGA,152739.05,5700.7922762,N,00959.0238716,E,2,9,0.9,13.960,M,40.582,M,1.6,0123*4D\r\n
$GPGGA,152739.10,5700.7922757,N,00959.0239018,E,2,9,0.9,13.958,M,40.582,M,1.6,0123*4C\r\n
$GPGGA,152739.15,5700.7922740,N,00959.0239367,E,2,9,0.9,13.953,M,40.582,M,1.6,0123*4F\r\n
$GPGGA,152739.20,5700.7922710,N,00959.0239690,E,2,9,0.9,13.950,M,40.582,M,1.6,0123*42\r\n
$GPGGA,152739.25,5700.7922694,N,00959.0240006,E,2,9,0.9,13.955,M,40.582,M,1.9,0123*47\r\n
$GPGGA,152739.30,5700.7922699,N,00959.0240335,E,2,9,0.9,13.954,M,40.582,M,1.9,0123*4C\r\n
$GPGGA,152739.35,5700.7922712,N,00959.0240675,E,2,9,0.9,13.952,M,40.582,M,1.9,0123*4C\r\n
$GPGGA,152739.40,5700.7922732,N,00959.0241025,E,2,9,0.9,13.951,M,40.582,M,1.9,0123*4D\r\n
$GPGGA,152739.45,5700.7922760,N,00959.0241359,E,2,9,0.9,13.951,M,40.582,M,2.2,0123*4F\r\n
$GPGGA,152739.50,5700.7922773,N,00959.0241682,E,2,9,0.9,13.951,M,40.582,M,2.2,0123*4A\r\n
$GPGGA,152739.55,5700.7922776,N,00959.0242014,E,2,9,0.9,13.952,M,40.582,M,2.2,0123*43\r\n
$GPGGA,152739.60,5700.7922769,N,00959.0242351,E,2,9,0.9,13.956,M,40.582,M,2.2,0123*4D\r\n
$GPGGA,152739.65,5700.7922766,N,00959.0242645,E,2,9,0.9,13.953,M,40.582,M,2.4,0123*44\r\n
$GPGGA,152739.70,5700.7922760,N,00959.0242986,E,2,9,0.9,13.951,M,40.582,M,2.4,0123*44\r\n
$GPGGA,152739.75,5700.7922733,N,00959.0243330,E,2,9,0.9,13.949,M,40.582,M,2.4,0123*48\r\n
$GPGGA,152739.80,5700.7922709,N,00959.0243665,E,2,9,0.9,13.945,M,40.582,M,2.4,0123*42\r\n
$GPGGA,152739.85,5700.7922689,N,00959.0243996,E,2,9,0.9,13.940,M,40.582,M,1.2,0123*4D\r\n
$GPGGA,152739.90,5700.7922667,N,00959.0244349,E,2,9,0.9,13.935,M,40.582,M,1.2,0123*44\r\n
$GPGGA,152739.95,5700.7922647,N,00959.0244704,E,2,9,0.9,13.932,M,40.582,M,1.2,0123*49\r\n
$GPGGA,152740.00,5700.7922648,N,00959.0245054,E,2,9,0.9,13.929,M,40.582,M,1.2,0123*4D\r\n
$GPGGA,152740.05,5700.7922660,N,00959.0245377,E,2,9,0.9,13.931,M,40.582,M,1.4,0123*4F\r\n
$GPGGA,152740.10,5700.7922658,N,00959.0245714,E,2,9,0.9,13.929,M,40.582,M,1.4,0123*48\r\n
$GPGGA,152740.15,5700.7922644,N,00959.0246080,E,2,9,0.9,13.933,M,40.582,M,1.4,0123*42\r\n
$GPGGA,152740.20,5700.7922632,N,00959.0246416,E,2,9,0.9,13.933,M,40.582,M,1.4,0123*4E\r\n
$GPGGA,152740.25,5700.7922639,N,00959.0246770,E,2,9,0.9,13.931,M,40.582,M,1.6,0123*43\r\n
$GPGGA,152740.30,5700.7922634,N,00959.0247148,E,2,9,0.9,13.929,M,40.582,M,1.6,0123*4F\r\n
$GPGGA,152740.35,5700.7922627,N,00959.0247496,E,2,9,0.9,13.931,M,40.582,M,1.6,0123*47\r\n
$GPGGA,152740.40,5700.7922630,N,00959.0247837,E,2,9,0.9,13.930,M,40.582,M,1.6,0123*45\r\n
$GPGGA,152740.45,5700.7922623,N,00959.0248188,E,2,9,0.9,13.925,M,40.582,M,1.9,0123*4B\r\n
$GPGGA,152740.50,5700.7922602,N,00959.0248534,E,2,9,0.9,13.924,M,40.582,M,1.9,0123*4E\r\n
$GPGGA,152740.55,5700.7922606,N,00959.0248871,E,2,9,0.9,13.925,M,40.582,M,1.9,0123*42\r\n
$GPGGA,152740.60,5700.7922629,N,00959.0249242,E,2,9,0.9,13.933,M,40.582,M,1.9,0123*45\r\n
$GPGGA,152740.65,5700.7922627,N,00959.0249615,E,2,9,0.9,13.943,M,40.582,M,2.1,0123*44\r\n
$GPGGA,152740.70,5700.7922618,N,00959.0249980,E,2,9,0.9,13.938,M,40.582,M,2.1,0123*43\r\n
$GPGGA,152740.75,5700.7922621,N,00959.0250367,E,2,9,0.9,13.937,M,40.582,M,2.1,0123*48\r\n
$GPGGA,152740.80,5700.7922626,N,00959.0250725,E,2,9,0.9,13.939,M,40.582,M,2.1,0123*49\r\n
$GPGGA,152740.85,5700.7922637,N,00959.0251084,E,2,9,0.9,13.936,M,40.582,M,2.3,0123*4C\r\n
$GPGGA,152740.90,5700.7922660,N,00959.0251482,E,2,9,0.9,13.940,M,40.582,M,2.3,0123*49\r\n
$GPGGA,152740.95,5700.7922654,N,00959.0251850,E,2,9,0.9,13.937,M,40.582,M,2.3,0123*48\r\n
$GPGGA,152741.00,5700.7922649,N,00959.0252241,E,2,9,0.9,13.935,M,40.582,M,2.3,0123*42\r\n
$GPGGA,152741.05,5700.7922664,N,00959.0252620,E,2,9,0.9,13.938,M,40.582,M,2.5,0123*40\r\n
$GPGGA,152741.10,5700.7922672,N,00959.0253021,E,2,9,0.9,13.937,M,40.582,M,2.5,0123*4A\r\n
$GPGGA,152741.15,5700.7922667,N,00959.0253434,E,2,9,0.9,13.934,M,40.582,M,2.5,0123*48\r\n
$GPGGA,152741.20,5700.7922671,N,00959.0253835,E,2,9,0.9,13.930,M,40.582,M,2.5,0123*40\r\n
$GPGGA,152741.25,5700.7922669,N,00959.0254229,E,2,9,0.9,13.928,M,40.582,M,2.7,0123*47\r\n
$GPGGA,152741.30,5700.7922668,N,00959.0254632,E,2,9,0.9,13.932,M,40.582,M,2.7,0123*47\r\n
$GPGGA,152741.35,5700.7922662,N,00959.0255037,E,2,9,0.9,13.938,M,40.582,M,2.7,0123*40\r\n
$GPGGA,152741.40,5700.7922654,N,00959.0255426,E,2,9,0.9,13.942,M,40.582,M,2.7,0123*4E\r\n
$GPGGA,152741.45,5700.7922655,N,00959.0255826,E,2,9,0.9,13.947,M,40.582,M,2.9,0123*4D\r\n
$GPGGA,152741.50,5700.7922649,N,00959.0256226,E,2,9,0.9,13.950,M,40.582,M,2.9,0123*4B\r\n
$GPGGA,152741.55,5700.7922640,N,00959.0256618,E,2,9,0.9,13.951,M,40.582,M,2.9,0123*4F\r\n
$GPGGA,152741.60,5700.7922637,N,00959.0257027,E,2,9,0.9,13.951,M,40.582,M,2.9,0123*42\r\n
$GPGGA,152741.65,5700.7922635,N,00959.0257456,E,2,9,0.9,13.947,M,40.582,M,3.1,0123*49\r\n
$GPGGA,152741.70,5700.7922636,N,00959.0257886,E,2,9,0.9,13.947,M,40.582,M,3.1,0123*4F\r\n
$GPGGA,152741.75,5700.7922637,N,00959.0258291,E,2,9,0.9,13.947,M,40.582,M,3.1,0123*48\r\n
$GPGGA,152741.80,5700.7922636,N,00959.0258711,E,2,9,0.9,13.944,M,40.582,M,3.1,0123*4D\r\n
$GPGGA,152741.85,5700.7922645,N,00959.0259163,E,2,9,0.9,13.938,M,40.582,M,2.4,0123*41\r\n
$GPGGA,152741.90,5700.7922642,N,00959.0259566,E,2,9,0.9,13.934,M,40.582,M,2.4,0123*4F\r\n
$GPGGA,152741.95,5700.7922643,N,00959.0259982,E,2,9,0.9,13.930,M,40.582,M,2.4,0123*49\r\n
$GPGGA,152742.00,5700.7922653,N,00959.0260415,E,2,9,0.9,13.931,M,40.582,M,2.4,0123*4F\r\n
$GPGGA,152742.05,5700.7922650,N,00959.0260816,E,2,9,0.9,13.937,M,40.582,M,2.7,0123*43\r\n
$GPGGA,152742.10,5700.7922669,N,00959.0261263,E,2,9,0.9,13.940,M,40.582,M,2.7,0123*44\r\n
$GPGGA,152742.15,5700.7922684,N,00959.0261714,E,2,9,0.9,13.941,M,40.582,M,2.7,0123*46\r\n
$GPGGA,152742.20,5700.7922696,N,00959.0262123,E,2,9,0.9,13.945,M,40.582,M,2.7,0123*46\r\n
$GPGGA,152742.25,5700.7922688,N,00959.0262518,E,2,9,0.9,13.940,M,40.582,M,3.0,0123*43\r\n
$GPGGA,152742.30,5700.7922687,N,00959.0262940,E,2,9,0.9,13.937,M,40.582,M,3.0,0123*49\r\n
$GPGGA,152742.35,5700.7922694,N,00959.0263379,E,2,9,0.9,13.934,M,40.582,M,3.0,0123*4C\r\n
$GPGGA,152742.40,5700.7922694,N,00959.0263816,E,2,9,0.9,13.936,M,40.582,M,3.0,0123*4E\r\n
$GPGGA,152742.45,5700.7922689,N,00959.0264269,E,2,9,0.9,13.949,M,40.582,M,3.2,0123*48\r\n
$GPGGA,152742.50,5700.7922670,N,00959.0264711,E,2,9,0.9,13.947,M,40.582,M,3.2,0123*4E\r\n
$GPGGA,152742.55,5700.7922662,N,00959.0265135,E,2,9,0.9,13.948,M,40.582,M,3.2,0123*46\r\n
$GPGGA,152742.60,5700.7922662,N,00959.0265549,E,2,9,0.9,13.952,M,40.582,M,3.2,0123*44\r\n
$GPGGA,152742.65,5700.7922667,N,00959.0265978,E,2,9,0.9,13.945,M,40.582,M,3.5,0123*4B\r\n
$GPGGA,152742.70,5700.7922657,N,00959.0266419,E,2,9,0.9,13.945,M,40.582,M,3.5,0123*45\r\n
$GPGGA,152742.75,5700.7922652,N,00959.0266867,E,2,9,0.9,13.942,M,40.582,M,3.5,0123*47\r\n
$GPGGA,152742.80,5700.7922658,N,00959.0267305,E,2,9,0.9,13.940,M,40.582,M,3.5,0123*4B\r\n
$GPGGA,152742.85,5700.7922645,N,00959.0267739,E,2,9,0.9,13.945,M,40.582,M,1.4,0123*4F\r\n
$GPGGA,152742.90,5700.7922629,N,00959.0268178,E,2,9,0.9,13.949,M,40.582,M,1.4,0123*41\r\n
$GPGGA,152742.95,5700.7922617,N,00959.0268597,E,2,9,0.9,13.951,M,40.582,M,1.4,0123*45\r\n
$GPGGA,152743.00,5700.7922604,N,00959.0269011,E,2,9,0.9,13.950,M,40.582,M,1.4,0123*41\r\n
$GPGGA,152743.05,5700.7922597,N,00959.0269415,E,2,9,0.9,13.953,M,40.582,M,1.6,0123*4C\r\n
$GPGGA,152743.10,5700.7922596,N,00959.0269840,E,2,9,0.9,13.955,M,40.582,M,1.6,0123*43\r\n
$GPGGA,152743.15,5700.7922585,N,00959.0270266,E,2,9,0.9,13.957,M,40.582,M,1.6,0123*40\r\n
$GPGGA,152743.20,5700.7922559,N,00959.0270698,E,2,9,0.9,13.957,M,40.582,M,1.6,0123*42\r\n
$GPGGA,152743.25,5700.7922537,N,00959.0271166,E,2,9,0.9,13.961,M,40.582,M,1.9,0123*42\r\n
$GPGGA,152743.30,5700.7922521,N,00959.0271617,E,2,9,0.9,13.963,M,40.582,M,1.9,0123*42\r\n
$GPGGA,152743.35,5700.7922511,N,00959.0272055,E,2,9,0.9,13.962,M,40.582,M,1.9,0123*46\r\n
$GPGGA,152743.40,5700.7922516,N,00959.0272495,E,2,9,0.9,13.963,M,40.582,M,1.9,0123*4A\r\n
$GPGGA,152743.45,5700.7922501,N,00959.0272947,E,2,9,0.9,13.958,M,40.582,M,2.2,0123*4B\r\n
$GPGGA,152743.50,5700.7922481,N,00959.0273393,E,2,9,0.9,13.956,M,40.582,M,2.2,0123*4A\r\n
$GPGGA,152743.55,5700.7922472,N,00959.0273829,E,2,9,0.9,13.955,M,40.582,M,2.2,0123*4A\r\n
$GPGGA,152743.60,5700.7922467,N,00959.0274273,E,2,9,0.9,13.956,M,40.582,M,2.2,0123*49\r\n
$GPGGA,152743.65,5700.7922466,N,00959.0274731,E,2,9,0.9,13.956,M,40.582,M,2.4,0123*48\r\n
$GPGGA,152743.70,5700.7922456,N,00959.0275195,E,2,9,0.9,13.956,M,40.582,M,2.4,0123*46\r\n
$GPGGA,152743.75,5700.7922432,N,00959.0275657,E,2,9,0.9,13.954,M,40.582,M,2.4,0123*4A\r\n
$GPGGA,152743.80,5700.7922420,N,00959.0276106,E,2,9,0.9,13.956,M,40.582,M,2.4,0123*41\r\n
$GPGGA,152743.85,5700.7922410,N,00959.0276577,E,2,9,0.9,13.967,M,40.582,M,1.2,0123*42\r\n
$GPGGA,152743.90,5700.7922395,N,00959.0277048,E,2,9,0.9,13.969,M,40.582,M,1.2,0123*4A\r\n
$GPGGA,152743.95,5700.7922396,N,00959.0277545,E,2,9,0.9,13.971,M,40.582,M,1.2,0123*4D\r\n
$GPGGA,152744.00,5700.7922391,N,00959.0278016,E,2,9,0.9,13.974,M,40.582,M,1.2,0123*48\r\n
$GPGGA,152744.05,5700.7922380,N,00959.0278445,E,2,9,0.9,13.978,M,40.582,M,1.4,0123*45\r\n
$GPGGA,152744.10,5700.7922381,N,00959.0278901,E,2,9,0.9,13.979,M,40.582,M,1.4,0123*4C\r\n
$GPGGA,152744.15,5700.7922386,N,00959.0279375,E,2,9,0.9,13.981,M,40.582,M,1.4,0123*41\r\n
$GPGGA,152744.20,5700.7922387,N,00959.0279876,E,2,9,0.9,13.983,M,40.582,M,1.4,0123*4C\r\n
$GPGGA,152744.25,5700.7922385,N,00959.0280373,E,2,9,0.9,13.985,M,40.582,M,1.6,0123*47\r\n
$GPGGA,152744.30,5700.7922400,N,00959.0280884,E,2,9,0.9,13.979,M,40.582,M,1.6,0123*49\r\n
$GPGGA,152744.35,5700.7922397,N,00959.0281398,E,2,9,0.9,13.979,M,40.582,M,1.6,0123*42\r\n
$GPGGA,152744.40,5700.7922382,N,00959.0281906,E,2,9,0.9,13.981,M,40.582,M,1.6,0123*4E\r\n
$GPGGA,152744.45,5700.7922358,N,00959.0282378,E,2,9,0.9,13.970,M,40.582,M,1.9,0123*4D\r\n
$GPGGA,152744.50,5700.7922349,N,00959.0282878,E,2,9,0.9,13.971,M,40.582,M,1.9,0123*43\r\n
$GPGGA,152744.55,5700.7922337,N,00959.0283364,E,2,9,0.9,13.973,M,40.582,M,1.9,0123*4A\r\n
$GPGGA,152744.60,5700.7922312,N,00959.0283839,E,2,9,0.9,13.973,M,40.582,M,1.9,0123*48\r\n
$GPGGA,152744.65,5700.7922312,N,00959.0284340,E,2,9,0.9,13.973,M,40.582,M,2.1,0123*44\r\n
$GPGGA,152744.70,5700.7922306,N,00959.0284859,E,2,9,0.9,13.968,M,40.582,M,2.1,0123*4C\r\n
$GPGGA,152744.75,5700.7922293,N,00959.0285382,E,2,9,0.9,13.967,M,40.582,M,2.1,0123*47\r\n
$GPGGA,152744.80,5700.7922300,N,00959.0285864,E,2,9,0.9,13.968,M,40.582,M,2.1,0123*4A\r\n
$GPGGA,152744.85,5700.7922320,N,00959.0286335,E,2,9,0.9,13.972,M,40.582,M,2.3,0123*48\r\n
$GPGGA,152744.90,5700.7922323,N,00959.0286827,E,2,9,0.9,13.974,M,40.582,M,2.3,0123*41\r\n
$GPGGA,152744.95,5700.7922325,N,00959.0287346,E,2,9,0.9,13.977,M,40.582,M,2.3,0123*4C\r\n
$GPGGA,152745.00,5700.7922337,N,00959.0287876,E,2,9,0.9,13.977,M,40.582,M,2.3,0123*4A\r\n
$GPGGA,152745.05,5700.7922328,N,00959.0288366,E,2,9,0.9,13.968,M,40.582,M,2.5,0123*4C\r\n
$GPGGA,152745.10,5700.7922328,N,00959.0288843,E,2,9,0.9,13.964,M,40.582,M,2.5,0123*48\r\n
$GPGGA,152745.15,5700.7922303,N,00959.0289316,E,2,9,0.9,13.963,M,40.582,M,2.5,0123*49\r\n
$GPGGA,152745.20,5700.7922285,N,00959.0289802,E,2,9,0.9,13.968,M,40.582,M,2.5,0123*45\r\n
$GPGGA,152745.25,5700.7922271,N,00959.0290288,E,2,9,0.9,13.972,M,40.582,M,2.7,0123*42\r\n
$GPGGA,152745.30,5700.7922268,N,00959.0290767,E,2,9,0.9,13.976,M,40.582,M,2.7,0123*4E\r\n
$GPGGA,152745.35,5700.7922262,N,00959.0291223,E,2,9,0.9,13.980,M,40.582,M,2.7,0123*4C\r\n
$GPGGA,152745.40,5700.7922267,N,00959.0291702,E,2,9,0.9,13.979,M,40.582,M,2.7,0123*4B\r\n
$GPGGA,152745.45,5700.7922295,N,00959.0292207,E,2,9,0.9,13.990,M,40.582,M,2.9,0123*49\r\n
$GPGGA,152745.50,5700.7922303,N,00959.0292718,E,2,9,0.9,13.992,M,40.582,M,2.9,0123*4A\r\n
$GPGGA,152745.55,5700.7922321,N,00959.0293208,E,2,9,0.9,13.991,M,40.582,M,2.9,0123*49\r\n
$GPGGA,152745.60,5700.7922319,N,00959.0293702,E,2,9,0.9,13.992,M,40.582,M,2.9,0123*48\r\n
$GPGGA,152745.65,5700.7922309,N,00959.0294183,E,2,9,0.9,13.978,M,40.582,M,3.1,0123*49\r\n
$GPGGA,152745.70,5700.7922320,N,00959.0294631,E,2,9,0.9,13.975,M,40.582,M,3.1,0123*45\r\n
$GPGGA,152745.75,5700.7922344,N,00959.0295114,E,2,9,0.9,13.975,M,40.582,M,3.1,0123*43\r\n
$GPGGA,152745.80,5700.7922377,N,00959.0295610,E,2,9,0.9,13.977,M,40.582,M,3.1,0123*48\r\n
$GPGGA,152745.85,5700.7922428,N,00959.0296097,E,2,9,0.9,13.985,M,40.582,M,2.4,0123*43\r\n
$GPGGA,152745.90,5700.7922477,N,00959.0296595,E,2,9,0.9,13.982,M,40.582,M,2.4,0123*4D\r\n
$GPGGA,152745.95,5700.7922512,N,00959.0297081,E,2,9,0.9,13.979,M,40.582,M,2.4,0123*4F\r\n
$GPGGA,152746.00,5700.7922548,N,00959.0297547,E,2,9,0.9,13.976,M,40.582,M,2.4,0123*4F\r\n
$GPGGA,152746.05,5700.7922595,N,00959.0297998,E,2,9,0.9,13.972,M,40.582,M,2.7,0123*43\r\n
$GPGGA,152746.10,5700.7922636,N,00959.0298466,E,2,9,0.9,13.968,M,40.582,M,2.7,0123*45\r\n
$GPGGA,152746.15,5700.7922652,N,00959.0298933,E,2,9,0.9,13.967,M,40.582,M,2.7,0123*40\r\n
$GPGGA,152746.20,5700.7922659,N,00959.0299396,E,2,9,0.9,13.968,M,40.582,M,2.7,0123*46\r\n
$GPGGA,152746.25,5700.7922647,N,00959.0299855,E,2,9,0.9,13.968,M,40.582,M,3.0,0123*4E\r\n
$GPGGA,152746.30,5700.7922634,N,00959.0300293,E,2,9,0.9,13.969,M,40.582,M,3.0,0123*4E\r\n
$GPGGA,152746.35,5700.7922624,N,00959.0300733,E,2,9,0.9,13.967,M,40.582,M,3.0,0123*4B\r\n
$GPGGA,152746.40,5700.7922606,N,00959.0301183,E,2,9,0.9,13.971,M,40.582,M,3.0,0123*42\r\n
$GPGGA,152746.45,5700.7922568,N,00959.0301658,E,2,9,0.9,13.981,M,40.582,M,3.2,0123*40\r\n
$GPGGA,152746.50,5700.7922530,N,00959.0302118,E,2,9,0.9,13.980,M,40.582,M,3.2,0123*48\r\n
$GPGGA,152746.55,5700.7922499,N,00959.0302583,E,2,9,0.9,13.979,M,40.582,M,3.2,0123*4F\r\n
$GPGGA,152746.60,5700.7922469,N,00959.0303038,E,2,9,0.9,13.976,M,40.582,M,3.2,0123*4D\r\n
$GPGGA,152746.65,5700.7922442,N,00959.0303518,E,2,9,0.9,13.979,M,40.582,M,3.5,0123*4E\r\n
$GPGGA,152746.70,5700.7922391,N,00959.0304000,E,2,9,0.9,13.973,M,40.582,M,3.5,0123*42\r\n
$GPGGA,152746.75,5700.7922320,N,00959.0304488,E,2,9,0.9,13.970,M,40.582,M,3.5,0123*4A\r\n
$GPGGA,152746.80,5700.7922255,N,00959.0304952,E,2,9,0.9,13.971,M,40.582,M,3.5,0123*48\r\n
$GPGGA,152746.85,5700.7922220,N,00959.0305403,E,2,9,0.9,13.970,M,40.582,M,1.4,0123*45\r\n
$GPGGA,152746.90,5700.7922176,N,00959.0305875,E,2,9,0.9,13.971,M,40.582,M,1.4,0123*4D\r\n
$GPGGA,152746.95,5700.7922109,N,00959.0306336,E,2,9,0.9,13.972,M,40.582,M,1.4,0123*4C\r\n
$GPGGA,152747.00,5700.7922057,N,00959.0306802,E,2,9,0.9,13.972,M,40.582,M,1.4,0123*47\r\n
$GPGGA,152747.05,5700.7922024,N,00959.0307231,E,2,9,0.9,13.969,M,40.582,M,1.6,0123*45\r\n
$GPGGA,152747.10,5700.7921986,N,00959.0307692,E,2,9,0.9,13.965,M,40.582,M,1.6,0123*42\r\n
$GPGGA,152747.15,5700.7921934,N,00959.0308138,E,2,9,0.9,13.961,M,40.582,M,1.6,0123*42\r\n
$GPGGA,152747.20,5700.7921870,N,00959.0308597,E,2,9,0.9,13.959,M,40.582,M,1.6,0123*4F\r\n
$GPGGA,152747.25,5700.7921824,N,00959.0309061,E,2,9,0.9,13.961,M,40.582,M,1.9,0123*42\r\n
$GPGGA,152747.30,5700.7921775,N,00959.0309503,E,2,9,0.9,13.968,M,40.582,M,1.9,0123*45\r\n
$GPGGA,152747.35,5700.7921702,N,00959.0309916,E,2,9,0.9,13.974,M,40.582,M,1.9,0123*45\r\n
$GPGGA,152747.40,5700.7921633,N,00959.0310339,E,2,9,0.9,13.982,M,40.582,M,1.9,0123*42\r\n
$GPGGA,152747.45,5700.7921550,N,00959.0310770,E,2,9,0.9,13.996,M,40.582,M,2.2,0123*45\r\n
$GPGGA,152747.50,5700.7921472,N,00959.0311240,E,2,9,0.9,14.003,M,40.582,M,2.2,0123*45\r\n
$GPGGA,152747.55,5700.7921404,N,00959.0311724,E,2,9,0.9,14.003,M,40.582,M,2.2,0123*46\r\n
$GPGGA,152747.60,5700.7921304,N,00959.0312224,E,2,9,0.9,14.000,M,40.582,M,2.2,0123*42\r\n
$GPGGA,152747.65,5700.7921191,N,00959.0312733,E,2,9,0.9,13.989,M,40.582,M,2.4,0123*43\r\n
$GPGGA,152747.70,5700.7921100,N,00959.0313239,E,2,9,0.9,13.985,M,40.582,M,2.4,0123*4D\r\n
$GPGGA,152747.75,5700.7921017,N,00959.0313735,E,2,9,0.9,13.979,M,40.582,M,2.4,0123*45\r\n
$GPGGA,152747.80,5700.7920902,N,00959.0314235,E,2,9,0.9,13.975,M,40.582,M,2.4,0123*4D\r\n
$GPGGA,152747.85,5700.7920773,N,00959.0314759,E,2,9,0.9,13.972,M,40.582,M,1.2,0123*4D\r\n
$GPGGA,152747.90,5700.7920647,N,00959.0315277,E,2,9,0.9,13.969,M,40.582,M,1.2,0123*4D\r\n
$GPGGA,152747.95,5700.7920549,N,00959.0315777,E,2,9,0.9,13.968,M,40.582,M,1.2,0123*41\r\n
$GPGGA,152748.00,5700.7920440,N,00959.0316297,E,2,9,0.9,13.965,M,40.582,M,1.2,0123*4F\r\n
$GPGGA,152748.05,5700.7920338,N,00959.0316784,E,2,9,0.9,13.971,M,40.582,M,1.4,0123*46\r\n
$GPGGA,152748.10,5700.7920244,N,00959.0317296,E,2,9,0.9,13.973,M,40.582,M,1.4,0123*4D\r\n
$GPGGA,152748.15,5700.7920138,N,00959.0317813,E,2,9,0.9,13.974,M,40.582,M,1.4,0123*40\r\n
$GPGGA,152748.20,5700.7920028,N,00959.0318323,E,2,9,0.9,13.978,M,40.582,M,1.4,0123*4D\r\n
$GPGGA,152748.25,5700.7919922,N,00959.0318831,E,2,9,0.9,13.981,M,40.582,M,1.6,0123*4D\r\n
$GPGGA,152748.30,5700.7919824,N,00959.0319334,E,2,9,0.9,13.986,M,40.582,M,1.6,0123*46\r\n
$GPGGA,152748.35,5700.7919699,N,00959.0319822,E,2,9,0.9,13.991,M,40.582,M,1.6,0123*41\r\n
$GPGGA,152748.40,5700.7919572,N,00959.0320318,E,2,9,0.9,13.994,M,40.582,M,1.6,0123*48\r\n
$GPGGA,152748.45,5700.7919424,N,00959.0320831,E,2,9,0.9,13.999,M,40.582,M,1.9,0123*4D\r\n
$GPGGA,152748.50,5700.7919273,N,00959.0321372,E,2,9,0.9,13.999,M,40.582,M,1.9,0123*40\r\n
$GPGGA,152748.55,5700.7919124,N,00959.0321943,E,2,9,0.9,13.997,M,40.582,M,1.9,0123*42\r\n
$GPGGA,152748.60,5700.7918965,N,00959.0322483,E,2,9,0.9,13.998,M,40.582,M,1.9,0123*45\r\n
$GPGGA,152748.65,5700.7918803,N,00959.0323045,E,2,9,0.9,13.993,M,40.582,M,2.1,0123*4E\r\n
$GPGGA,152748.70,5700.7918647,N,00959.0323591,E,2,9,0.9,13.988,M,40.582,M,2.1,0123*42\r\n
$GPGGA,152748.75,5700.7918488,N,00959.0324121,E,2,9,0.9,13.986,M,40.582,M,2.1,0123*40\r\n
$GPGGA,152748.80,5700.7918310,N,00959.0324637,E,2,9,0.9,13.982,M,40.582,M,2.1,0123*48\r\n
$GPGGA,152748.85,5700.7918143,N,00959.0325174,E,2,9,0.9,13.979,M,40.582,M,2.3,0123*4E\r\n
$GPGGA,152748.90,5700.7917983,N,00959.0325729,E,2,8,0.9,13.979,M,40.582,M,2.3,0123*4E\r\n
$GPGGA,152748.95,5700.7917822,N,00959.0326294,E,2,8,0.9,13.977,M,40.582,M,2.3,0123*4F\r\n
$GPGGA,152749.00,5700.7917672,N,00959.0326852,E,2,8,0.9,13.973,M,40.582,M,2.3,0123*4D\r\n
$GPGGA,152749.05,5700.7917512,N,00959.0327338,E,2,8,0.9,13.971,M,40.582,M,2.5,0123*4F\r\n
$GPGGA,152749.10,5700.7917356,N,00959.0327873,E,2,8,0.9,13.978,M,40.582,M,2.5,0123*40\r\n
$GPGGA,152749.15,5700.7917161,N,00959.0328384,E,2,8,0.9,13.983,M,40.582,M,2.5,0123*4B\r\n
$GPGGA,152749.20,5700.7916979,N,00959.0328910,E,2,8,0.9,13.990,M,40.582,M,2.5,0123*48\r\n
$GPGGA,152749.25,5700.7916802,N,00959.0329408,E,2,8,0.9,13.997,M,40.582,M,2.7,0123*40\r\n
$GPGGA,152749.30,5700.7916615,N,00959.0329921,E,2,8,0.9,14.002,M,40.582,M,2.7,0123*48\r\n
$GPGGA,152749.35,5700.7916418,N,00959.0330432,E,2,8,0.9,14.005,M,40.582,M,2.7,0123*42\r\n
$GPGGA,152749.40,5700.7916233,N,00959.0330994,E,2,8,0.9,14.007,M,40.582,M,2.7,0123*4C\r\n
$GPGGA,152749.45,5700.7916033,N,00959.0331539,E,2,8,0.9,14.003,M,40.582,M,2.9,0123*4B\r\n
$GPGGA,152749.50,5700.7915825,N,00959.0332097,E,2,8,0.9,14.000,M,40.582,M,2.9,0123*42\r\n
$GPGGA,152749.55,5700.7915622,N,00959.0332659,E,2,8,0.9,13.998,M,40.582,M,2.9,0123*45\r\n
$GPGGA,152749.60,5700.7915406,N,00959.0333164,E,2,8,0.9,13.997,M,40.582,M,2.9,0123*40\r\n
$GPGGA,152749.65,5700.7915171,N,00959.0333681,E,2,8,0.9,13.990,M,40.582,M,3.1,0123*42\r\n
$GPGGA,152749.70,5700.7914968,N,00959.0334193,E,2,8,0.9,13.988,M,40.582,M,3.1,0123*4D\r\n
$GPGGA,152749.75,5700.7914757,N,00959.0334734,E,2,8,0.9,13.986,M,40.582,M,3.1,0123*4F\r\n
$GPGGA,152749.80,5700.7914527,N,00959.0335226,E,2,8,0.9,13.983,M,40.582,M,3.1,0123*42\r\n
$GPGGA,152749.85,5700.7914283,N,00959.0335761,E,2,8,0.9,13.993,M,40.582,M,2.4,0123*4D\r\n
$GPGGA,152749.90,5700.7914035,N,00959.0336212,E,2,8,0.9,13.994,M,40.582,M,2.4,0123*43\r\n
$GPGGA,152749.95,5700.7913813,N,00959.0336688,E,2,8,0.9,13.999,M,40.582,M,2.4,0123*47\r\n
$GPGGA,152750.00,5700.7913615,N,00959.0337190,E,2,8,0.9,14.008,M,40.582,M,2.4,0123*42\r\n
$GPGGA,152750.05,5700.7913398,N,00959.0337643,E,2,8,0.9,14.020,M,40.582,M,2.7,0123*47\r\n
$GPGGA,152750.10,5700.7913179,N,00959.0338115,E,2,8,0.9,14.024,M,40.582,M,2.7,0123*41\r\n
$GPGGA,152750.15,5700.7912960,N,00959.0338653,E,2,8,0.9,14.027,M,40.582,M,2.7,0123*43\r\n
$GPGGA,152750.20,5700.7912738,N,00959.0339171,E,2,8,0.9,14.025,M,40.582,M,2.7,0123*42\r\n
$GPGGA,152750.25,5700.7912501,N,00959.0339697,E,2,8,0.9,14.016,M,40.582,M,3.0,0123*46\r\n
$GPGGA,152750.30,5700.7912262,N,00959.0340235,E,2,8,0.9,14.011,M,40.582,M,3.0,0123*45\r\n
$GPGGA,152750.35,5700.7912000,N,00959.0340764,E,2,8,0.9,14.008,M,40.582,M,3.0,0123*4F\r\n
$GPGGA,152750.40,5700.7911735,N,00959.0341267,E,2,8,0.9,14.004,M,40.582,M,3.0,0123*44\r\n
$GPGGA,152750.45,5700.7911500,N,00959.0341741,E,2,8,0.9,14.006,M,40.582,M,3.2,0123*44\r\n
$GPGGA,152750.50,5700.7911263,N,00959.0342239,E,2,8,0.9,14.006,M,40.582,M,3.2,0123*4B\r\n
$GPGGA,152750.55,5700.7911011,N,00959.0342724,E,2,8,0.9,14.001,M,40.582,M,3.2,0123*47\r\n
$GPGGA,152750.60,5700.7910756,N,00959.0343232,E,2,8,0.9,14.002,M,40.582,M,3.2,0123*44\r\n
$GPGGA,152750.65,5700.7910525,N,00959.0343719,E,2,8,0.9,14.008,M,40.582,M,3.5,0123*46\r\n
$GPGGA,152750.70,5700.7910277,N,00959.0344211,E,2,8,0.9,14.007,M,40.582,M,3.5,0123*47\r\n
$GPGGA,152750.75,5700.7910039,N,00959.0344682,E,2,8,0.9,14.010,M,40.582,M,3.5,0123*42\r\n
$GPGGA,152750.80,5700.7909784,N,00959.0345152,E,2,8,0.9,14.010,M,40.582,M,3.5,0123*4A\r\n
$GPGGA,152750.85,5700.7909537,N,00959.0345606,E,2,8,0.9,14.009,M,40.582,M,1.4,0123*48\r\n
$GPGGA,152750.90,5700.7909284,N,00959.0346036,E,2,8,0.9,14.016,M,40.582,M,1.4,0123*4B\r\n
$GPGGA,152750.95,5700.7909023,N,00959.0346461,E,2,8,0.9,14.021,M,40.582,M,1.4,0123*43\r\n
$GPGGA,152751.00,5700.7908747,N,00959.0346843,E,2,8,0.9,14.023,M,40.582,M,1.4,0123*44\r\n
$GPGGA,152751.05,5700.7908470,N,00959.0347221,E,2,8,0.9,14.026,M,40.582,M,1.6,0123*4E\r\n
$GPGGA,152751.10,5700.7908186,N,00959.0347634,E,2,8,0.9,14.030,M,40.582,M,1.6,0123*41\r\n
$GPGGA,152751.15,5700.7907901,N,00959.0348053,E,2,8,0.9,14.030,M,40.582,M,1.6,0123*44\r\n
$GPGGA,152751.20,5700.7907629,N,00959.0348507,E,2,8,0.9,14.028,M,40.582,M,1.6,0123*4A\r\n
$GPGGA,152751.25,5700.7907356,N,00959.0348936,E,2,8,0.9,14.024,M,40.582,M,1.9,0123*4F\r\n
$GPGGA,152751.30,5700.7907074,N,00959.0349343,E,2,8,0.9,14.020,M,40.582,M,1.9,0123*45\r\n
$GPGGA,152751.35,5700.7906806,N,00959.0349727,E,2,8,0.9,14.021,M,40.582,M,1.9,0123*4B\r\n
$GPGGA,152751.40,5700.7906549,N,00959.0350104,E,2,8,0.9,14.016,M,40.582,M,1.9,0123*44\r\n
$GPGGA,152751.45,5700.7906310,N,00959.0350504,E,2,9,0.9,14.013,M,40.582,M,2.2,0123*43\r\n
$GPGGA,152751.50,5700.7906044,N,00959.0350868,E,2,9,0.9,14.013,M,40.582,M,2.2,0123*42\r\n
$GPGGA,152751.55,5700.7905753,N,00959.0351239,E,2,9,0.9,14.020,M,40.582,M,2.2,0123*4A\r\n
$GPGGA,152751.60,5700.7905496,N,00959.0351624,E,2,9,0.9,14.021,M,40.582,M,2.2,0123*4F\r\n
$GPGGA,152751.65,5700.7905248,N,00959.0351994,E,2,9,0.9,14.032,M,40.582,M,2.4,0123*4F\r\n
$GPGGA,152751.70,5700.7904997,N,00959.0352338,E,2,9,0.9,14.036,M,40.582,M,2.4,0123*48\r\n
$GPGGA,152751.75,5700.7904764,N,00959.0352679,E,2,9,0.9,14.039,M,40.582,M,2.4,0123*40\r\n
$GPGGA,152751.80,5700.7904528,N,00959.0353002,E,2,9,0.9,14.045,M,40.582,M,2.4,0123*40\r\n
$GPGGA,152751.85,5700.7904261,N,00959.0353334,E,2,9,0.9,14.042,M,40.582,M,1.2,0123*4B\r\n
$GPGGA,152751.90,5700.7903983,N,00959.0353661,E,2,9,0.9,14.042,M,40.582,M,1.2,0123*4A\r\n
$GPGGA,152751.95,5700.7903733,N,00959.0354004,E,2,9,0.9,14.037,M,40.582,M,1.2,0123*4A\r\n
$GPGGA,152752.00,5700.7903468,N,00959.0354348,E,2,9,0.9,14.034,M,40.582,M,1.2,0123*40\r\n
$GPGGA,152752.05,5700.7903158,N,00959.0354643,E,2,9,0.9,14.034,M,40.582,M,1.4,0123*4B\r\n
$GPGGA,152752.10,5700.7902891,N,00959.0354954,E,2,9,0.9,14.031,M,40.582,M,1.4,0123*4E\r\n
$GPGGA,152752.15,5700.7902649,N,00959.0355264,E,2,9,0.9,14.037,M,40.582,M,1.4,0123*4F\r\n
$GPGGA,152752.20,5700.7902401,N,00959.0355555,E,2,9,0.9,14.046,M,40.582,M,1.4,0123*44\r\n
$GPGGA,152752.25,5700.7902135,N,00959.0355826,E,2,9,0.9,14.046,M,40.582,M,1.6,0123*48\r\n
$GPGGA,152752.30,5700.7901909,N,00959.0356086,E,2,9,0.9,14.043,M,40.582,M,1.6,0123*4C\r\n
$GPGGA,152752.35,5700.7901689,N,00959.0356388,E,2,9,0.9,14.047,M,40.582,M,1.6,0123*47\r\n
$GPGGA,152752.40,5700.7901436,N,00959.0356651,E,2,9,0.9,14.051,M,40.582,M,1.6,0123*45\r\n
$GPGGA,152752.45,5700.7901173,N,00959.0356872,E,2,9,0.9,14.048,M,40.582,M,1.9,0123*4C\r\n
$GPGGA,152752.50,5700.7900927,N,00959.0357089,E,2,9,0.9,14.048,M,40.582,M,1.9,0123*4D\r\n
$GPGGA,152752.55,5700.7900669,N,00959.0357291,E,2,9,0.9,14.049,M,40.582,M,1.9,0123*47\r\n
$GPGGA,152752.60,5700.7900417,N,00959.0357486,E,2,9,0.9,14.054,M,40.582,M,1.9,0123*46\r\n
$GPGGA,152752.65,5700.7900172,N,00959.0357669,E,2,9,0.9,14.063,M,40.582,M,2.1,0123*49\r\n
$GPGGA,152752.70,5700.7899908,N,00959.0357819,E,2,9,0.9,14.071,M,40.582,M,2.1,0123*43\r\n
$GPGGA,152752.75,5700.7899648,N,00959.0357969,E,2,9,0.9,14.072,M,40.582,M,2.1,0123*48\r\n
$GPGGA,152752.80,5700.7899410,N,00959.0358188,E,2,9,0.9,14.071,M,40.582,M,2.1,0123*46\r\n
$GPGGA,152752.85,5700.7899145,N,00959.0358396,E,2,9,0.9,14.072,M,40.582,M,2.3,0123*4A\r\n
$GPGGA,152752.90,5700.7898870,N,00959.0358551,E,2,9,0.9,14.070,M,40.582,M,2.3,0123*4F\r\n
$GPGGA,152752.95,5700.7898602,N,00959.0358680,E,2,9,0.9,14.065,M,40.582,M,2.3,0123*4A\r\n
$GPGGA,152753.00,5700.7898329,N,00959.0358841,E,2,9,0.9,14.061,M,40.582,M,2.3,0123*4C\r\n
$GPGGA,152753.05,5700.7898031,N,00959.0358940,E,2,9,0.9,14.051,M,40.582,M,2.5,0123*46\r\n
$GPGGA,152753.10,5700.7897778,N,00959.0359065,E,2,9,0.9,14.053,M,40.582,M,2.5,0123*4A\r\n
$GPGGA,152753.15,5700.7897531,N,00959.0359139,E,2,9,0.9,14.049,M,40.582,M,2.5,0123*43\r\n
$GPGGA,152753.20,5700.7897265,N,00959.0359201,E,2,9,0.9,14.047,M,40.582,M,2.5,0123*45\r\n
$GPGGA,152753.25,5700.7897023,N,00959.0359298,E,2,9,0.9,14.063,M,40.582,M,2.7,0123*44\r\n
$GPGGA,152753.30,5700.7896771,N,00959.0359403,E,2,9,0.9,14.065,M,40.582,M,2.7,0123*43\r\n
$GPGGA,152753.35,5700.7896539,N,00959.0359505,E,2,9,0.9,14.068,M,40.582,M,2.7,0123*42\r\n
$GPGGA,152753.40,5700.7896290,N,00959.0359608,E,2,9,0.9,14.073,M,40.582,M,2.7,0123*40\r\n
$GPGGA,152753.45,5700.7896026,N,00959.0359674,E,2,9,0.9,14.073,M,40.582,M,2.9,0123*4F\r\n
$GPGGA,152753.50,5700.7895790,N,00959.0359768,E,2,9,0.9,14.077,M,40.582,M,2.9,0123*4A\r\n
$GPGGA,152753.55,5700.7895577,N,00959.0359871,E,2,9,0.9,14.083,M,40.582,M,2.9,0123*48\r\n
$GPGGA,152753.60,5700.7895348,N,00959.0359917,E,2,9,0.9,14.084,M,40.582,M,2.9,0123*42\r\n
$GPGGA,152753.65,5700.7895089,N,00959.0359928,E,2,9,0.9,14.080,M,40.582,M,3.1,0123*48\r\n
$GPGGA,152753.70,5700.7894830,N,00959.0360011,E,2,9,0.9,14.080,M,40.582,M,3.1,0123*4E\r\n
$GPGGA,152753.75,5700.7894584,N,00959.0360104,E,2,9,0.9,14.074,M,40.582,M,3.1,0123*47\r\n
$GPGGA,152753.80,5700.7894308,N,00959.0360130,E,2,9,0.9,14.066,M,40.582,M,3.1,0123*4B\r\n
$GPGGA,152753.85,5700.7894001,N,00959.0360162,E,2,9,0.9,14.056,M,40.582,M,2.4,0123*44\r\n
$GPGGA,152753.90,5700.7893777,N,00959.0360196,E,2,9,0.9,14.056,M,40.582,M,2.4,0123*4A\r\n
$GPGGA,152753.95,5700.7893585,N,00959.0360184,E,2,9,0.9,14.062,M,40.582,M,2.4,0123*44\r\n
$GPGGA,152754.00,5700.7893332,N,00959.0360209,E,2,9,0.9,14.068,M,40.582,M,2.4,0123*49\r\n
$GPGGA,152754.05,5700.7893093,N,00959.0360223,E,2,9,0.9,14.072,M,40.582,M,2.7,0123*44\r\n
$GPGGA,152754.10,5700.7892872,N,00959.0360248,E,2,9,0.9,14.074,M,40.582,M,2.7,0123*4D\r\n
$GPGGA,152754.15,5700.7892624,N,00959.0360233,E,2,9,0.9,14.076,M,40.582,M,2.7,0123*4B\r\n
$GPGGA,152754.20,5700.7892373,N,00959.0360210,E,2,9,0.9,14.074,M,40.582,M,2.7,0123*49\r\n
$GPGGA,152754.25,5700.7892125,N,00959.0360175,E,2,9,0.9,14.060,M,40.582,M,3.0,0123*4E\r\n
$GPGGA,152754.30,5700.7891881,N,00959.0360126,E,2,9,0.9,14.060,M,40.582,M,3.0,0123*48\r\n
$GPGGA,152754.35,5700.7891652,N,00959.0360054,E,2,9,0.9,14.064,M,40.582,M,3.0,0123*4D\r\n
$GPGGA,152754.40,5700.7891412,N,00959.0359969,E,2,9,0.9,14.069,M,40.582,M,3.0,0123*49\r\n
$GPGGA,152754.45,5700.7891198,N,00959.0359877,E,2,9,0.9,14.078,M,40.582,M,3.2,0123*47\r\n
$GPGGA,152754.50,5700.7891014,N,00959.0359738,E,2,9,0.9,14.088,M,40.582,M,3.2,0123*4D\r\n
$GPGGA,152754.55,5700.7890792,N,00959.0359620,E,2,9,0.9,14.095,M,40.582,M,3.2,0123*44\r\n
$GPGGA,152754.60,5700.7890545,N,00959.0359537,E,2,9,0.9,14.097,M,40.582,M,3.2,0123*4D\r\n
$GPGGA,152754.65,5700.7890308,N,00959.0359489,E,2,9,0.9,14.102,M,40.582,M,3.5,0123*49\r\n
$GPGGA,152754.70,5700.7890078,N,00959.0359392,E,2,9,0.9,14.100,M,40.582,M,3.5,0123*46\r\n
$GPGGA,152754.75,5700.7889847,N,00959.0359273,E,2,9,0.9,14.098,M,40.582,M,3.5,0123*41\r\n
$GPGGA,152754.80,5700.7889593,N,00959.0359165,E,2,9,0.9,14.095,M,40.582,M,3.5,0123*46\r\n
$GPGGA,152754.85,5700.7889332,N,00959.0359058,E,2,9,0.9,14.075,M,40.582,M,1.4,0123*4C\r\n
$GPGGA,152754.90,5700.7889066,N,00959.0358981,E,2,9,0.9,14.070,M,40.582,M,1.4,0123*43\r\n
$GPGGA,152754.95,5700.7888825,N,00959.0358908,E,2,9,0.9,14.069,M,40.582,M,1.4,0123*41\r\n
$GPGGA,152755.00,5700.7888637,N,00959.0358865,E,2,9,0.9,14.066,M,40.582,M,1.4,0123*44\r\n
$GPGGA,152755.05,5700.7888462,N,00959.0358821,E,2,9,0.9,14.067,M,40.582,M,1.6,0123*40\r\n
$GPGGA,152755.10,5700.7888265,N,00959.0358803,E,2,9,0.9,14.073,M,40.582,M,1.6,0123*40\r\n
$GPGGA,152755.15,5700.7888036,N,00959.0358759,E,2,9,0.9,14.075,M,40.582,M,1.6,0123*47\r\n
$GPGGA,152755.20,5700.7887796,N,00959.0358699,E,2,9,0.9,14.071,M,40.582,M,1.6,0123*4A\r\n
$GPGGA,152755.25,5700.7887583,N,00959.0358657,E,2,9,0.9,14.073,M,40.582,M,1.9,0123*46\r\n
$GPGGA,152755.30,5700.7887381,N,00959.0358624,E,2,9,0.9,14.075,M,40.582,M,1.9,0123*44\r\n
$GPGGA,152755.35,5700.7887183,N,00959.0358578,E,2,9,0.9,14.077,M,40.582,M,1.9,0123*49\r\n
$GPGGA,152755.40,5700.7886974,N,00959.0358535,E,2,9,0.9,14.073,M,40.582,M,1.9,0123*47\r\n
$GPGGA,152755.45,5700.7886768,N,00959.0358471,E,2,9,0.9,14.057,M,40.582,M,2.2,0123*4E\r\n
$GPGGA,152755.50,5700.7886579,N,00959.0358431,E,2,9,0.9,14.062,M,40.582,M,2.2,0123*4A\r\n
$GPGGA,152755.55,5700.7886393,N,00959.0358383,E,2,9,0.9,14.064,M,40.582,M,2.2,0123*45\r\n
$GPGGA,152755.60,5700.7886204,N,00959.0358328,E,2,9,0.9,14.064,M,40.582,M,2.2,0123*4D\r\n
$GPGGA,152755.65,5700.7885921,N,00959.0358379,E,2,9,1.0,14.042,M,40.582,M,2.4,0123*49\r\n
$GPGGA,152755.70,5700.7885708,N,00959.0358377,E,2,9,1.0,14.033,M,40.582,M,2.4,0123*40\r\n
$GPGGA,152755.75,5700.7885540,N,00959.0358351,E,2,9,1.0,14.031,M,40.582,M,2.4,0123*4D\r\n
$GPGGA,152755.80,5700.7885354,N,00959.0358319,E,2,9,1.0,14.029,M,40.582,M,2.4,0123*41\r\n
$GPGGA,152755.85,5700.7885150,N,00959.0358287,E,2,9,0.9,14.024,M,40.582,M,1.2,0123*44\r\n
$GPGGA,152755.90,5700.7884967,N,00959.0358265,E,2,9,0.9,14.023,M,40.582,M,1.2,0123*46\r\n
$GPGGA,152755.95,5700.7884796,N,00959.0358246,E,2,9,0.9,14.029,M,40.582,M,1.2,0123*48\r\n
$GPGGA,152756.00,5700.7884638,N,00959.0358206,E,2,9,0.9,14.040,M,40.582,M,1.2,0123*49\r\n
$GPGGA,152756.05,5700.7884488,N,00959.0358111,E,2,9,0.9,14.054,M,40.582,M,1.4,0123*43\r\n
$GPGGA,152756.10,5700.7884297,N,00959.0358051,E,2,9,0.9,14.051,M,40.582,M,1.4,0123*4F\r\n
$GPGGA,152756.15,5700.7884129,N,00959.0358018,E,2,9,0.9,14.049,M,40.582,M,1.4,0123*48\r\n
$GPGGA,152756.20,5700.7883965,N,00959.0357979,E,2,9,0.9,14.053,M,40.582,M,1.4,0123*43\r\n
$GPGGA,152756.25,5700.7883762,N,00959.0357881,E,2,9,0.9,14.034,M,40.582,M,1.6,0123*4A\r\n
$GPGGA,152756.30,5700.7883572,N,00959.0357799,E,2,9,0.9,14.032,M,40.582,M,1.6,0123*4D\r\n
$GPGGA,152756.35,5700.7883396,N,00959.0357727,E,2,9,0.9,14.029,M,40.582,M,1.6,0123*4B\r\n
$GPGGA,152756.40,5700.7883236,N,00959.0357620,E,2,9,0.9,14.024,M,40.582,M,1.6,0123*49\r\n
$GPGGA,152756.45,5700.7883096,N,00959.0357498,E,2,9,0.9,14.044,M,40.582,M,1.9,0123*4C\r\n
$GPGGA,152756.50,5700.7882934,N,00959.0357387,E,2,9,0.9,14.050,M,40.582,M,1.9,0123*44\r\n
$GPGGA,152756.55,5700.7882781,N,00959.0357261,E,2,9,0.9,14.066,M,40.582,M,1.9,0123*4D\r\n
$GPGGA,152756.60,5700.7882641,N,00959.0357115,E,2,9,0.9,14.080,M,40.582,M,1.9,0123*4E\r\n
$GPGGA,152756.65,5700.7882508,N,00959.0356998,E,2,9,0.9,14.090,M,40.582,M,2.1,0123*43\r\n
$GPGGA,152756.70,5700.7882356,N,00959.0356884,E,2,9,0.9,14.093,M,40.582,M,2.1,0123*45\r\n
$GPGGA,152756.75,5700.7882194,N,00959.0356716,E,2,9,0.9,14.093,M,40.582,M,2.1,0123*48\r\n
$GPGGA,152756.80,5700.7882013,N,00959.0356564,E,2,9,0.9,14.096,M,40.582,M,2.1,0123*4E\r\n
$GPGGA,152756.85,5700.7881798,N,00959.0356399,E,2,9,0.9,14.083,M,40.582,M,2.3,0123*4E\r\n
$GPGGA,152756.90,5700.7881629,N,00959.0356229,E,2,9,0.9,14.079,M,40.582,M,2.3,0123*4E\r\n
$GPGGA,152756.95,5700.7881477,N,00959.0356055,E,2,9,0.9,14.073,M,40.582,M,2.3,0123*41\r\n
$GPGGA,152757.00,5700.7881342,N,00959.0355882,E,2,9,0.9,14.071,M,40.582,M,2.3,0123*4E\r\n
$GPGGA,152757.05,5700.7881176,N,00959.0355710,E,2,9,0.9,14.060,M,40.582,M,2.5,0123*4C\r\n
$GPGGA,152757.10,5700.7881025,N,00959.0355581,E,2,9,0.9,14.066,M,40.582,M,2.5,0123*43\r\n
$GPGGA,152757.15,5700.7880867,N,00959.0355441,E,2,9,0.9,14.070,M,40.582,M,2.5,0123*43\r\n
$GPGGA,152757.20,5700.7880696,N,00959.0355345,E,2,9,0.9,14.068,M,40.582,M,2.5,0123*4F\r\n
$GPGGA,152757.25,5700.7880555,N,00959.0355304,E,2,9,0.9,14.084,M,40.582,M,2.7,0123*43\r\n
$GPGGA,152757.30,5700.7880398,N,00959.0355240,E,2,9,0.9,14.083,M,40.582,M,2.7,0123*46\r\n
$GPGGA,152757.35,5700.7880244,N,00959.0355167,E,2,9,0.9,14.082,M,40.582,M,2.7,0123*44\r\n
$GPGGA,152757.40,5700.7880105,N,00959.0355114,E,2,9,0.9,14.079,M,40.582,M,2.7,0123*40\r\n
$GPGGA,152757.45,5700.7879954,N,00959.0355063,E,2,9,0.9,14.053,M,40.582,M,2.9,0123*48\r\n
$GPGGA,152757.50,5700.7879809,N,00959.0355040,E,2,9,0.9,14.048,M,40.582,M,2.9,0123*4E\r\n
$GPGGA,152757.55,5700.7879650,N,00959.0355021,E,2,9,0.9,14.043,M,40.582,M,2.9,0123*45\r\n
$GPGGA,152757.60,5700.7879493,N,00959.0354989,E,2,9,0.9,14.039,M,40.582,M,2.9,0123*49\r\n
$GPGGA,152757.65,5700.7879341,N,00959.0354968,E,2,9,0.9,14.051,M,40.582,M,3.1,0123*4C\r\n
$GPGGA,152757.70,5700.7879199,N,00959.0354948,E,2,9,0.9,14.051,M,40.582,M,3.1,0123*4D\r\n
$GPGGA,152757.75,5700.7879077,N,00959.0354961,E,2,9,0.9,14.049,M,40.582,M,3.1,0123*4B\r\n
$GPGGA,152757.80,5700.7878970,N,00959.0354994,E,2,9,0.9,14.047,M,40.582,M,3.1,0123*4A\r\n
$GPGGA,152757.85,5700.7878866,N,00959.0355055,E,2,9,0.9,14.057,M,40.582,M,2.4,0123*49\r\n
$GPGGA,152757.90,5700.7878766,N,00959.0355100,E,2,9,0.9,14.057,M,40.582,M,2.4,0123*43\r\n
$GPGGA,152757.95,5700.7878663,N,00959.0355153,E,2,9,0.9,14.055,M,40.582,M,2.4,0123*46\r\n
$GPGGA,152758.00,5700.7878561,N,00959.0355219,E,2,9,0.9,14.055,M,40.582,M,2.4,0123*49\r\n
$GPGGA,152758.05,5700.7878460,N,00959.0355245,E,2,9,0.9,14.045,M,40.582,M,2.7,0123*47\r\n
$GPGGA,152758.10,5700.7878359,N,00959.0355282,E,2,9,0.9,14.044,M,40.582,M,2.7,0123*44\r\n
$GPGGA,152758.15,5700.7878263,N,00959.0355316,E,2,9,0.9,14.041,M,40.582,M,2.7,0123*40\r\n
$GPGGA,152758.20,5700.7878179,N,00959.0355336,E,2,9,0.9,14.034,M,40.582,M,2.7,0123*4E\r\n
$GPGGA,152758.25,5700.7878097,N,00959.0355336,E,2,9,0.9,14.031,M,40.582,M,3.0,0123*49\r\n
$GPGGA,152758.30,5700.7878009,N,00959.0355357,E,2,9,0.9,14.023,M,40.582,M,3.0,0123*4E\r\n
$GPGGA,152758.35,5700.7877914,N,00959.0355380,E,2,9,0.9,14.014,M,40.582,M,3.0,0123*4F\r\n
