$GPGGA,080039.50,5703.2946674,N,00952.3703292,E,2,10,0.8,-1.843,M,40.592,M,2.3,0123*6A\r\n
$GPGGA,080039.55,5703.2946707,N,00952.3703220,E,2,10,0.8,-1.843,M,40.592,M,2.3,0123*63\r\n
$GPGGA,080039.60,5703.2946735,N,00952.3703148,E,2,10,0.8,-1.844,M,40.592,M,2.3,0123*6E\r\n
$GPGGA,080039.65,5703.2946759,N,00952.3703080,E,2,10,0.8,-1.846,M,40.592,M,2.6,0123*63\r\n
$GPGGA,080039.70,5703.2946792,N,00952.3703008,E,2,10,0.8,-1.848,M,40.592,M,2.6,0123*6E\r\n
$GPGGA,080039.75,5703.2946827,N,00952.3702934,E,2,10,0.8,-1.850,M,40.592,M,2.6,0123*64\r\n
$GPGGA,080039.80,5703.2946860,N,00952.3702862,E,2,10,0.8,-1.851,M,40.592,M,2.6,0123*6E\r\n
$GPGGA,080039.85,5703.2946895,N,00952.3702776,E,2,10,0.8,-1.841,M,40.592,M,1.3,0123*6C\r\n
$GPGGA,080039.90,5703.2946930,N,00952.3702693,E,2,10,0.8,-1.840,M,40.592,M,1.3,0123*6D\r\n
$GPGGA,080039.95,5703.2946963,N,00952.3702610,E,2,10,0.8,-1.841,M,40.592,M,1.3,0123*64\r\n
$GPGGA,080040.00,5703.2946995,N,00952.3702527,E,2,10,0.8,-1.841,M,40.592,M,1.3,0123*68\r\n
$GPGGA,080040.05,5703.2947023,N,00952.3702441,E,2,10,0.8,-1.843,M,40.592,M,1.5,0123*6D\r\n
$GPGGA,080040.10,5703.2947056,N,00952.3702362,E,2,10,0.8,-1.842,M,40.592,M,1.5,0123*6C\r\n
$GPGGA,080040.15,5703.2947080,N,00952.3702282,E,2,10,0.8,-1.843,M,40.592,M,1.5,0123*6C\r\n
$GPGGA,080040.20,5703.2947115,N,00952.3702199,E,2,10,0.8,-1.843,M,40.592,M,1.5,0123*6E\r\n
$GPGGA,080040.25,5703.2947140,N,00952.3702118,E,2,10,0.8,-1.846,M,40.592,M,1.8,0123*6A\r\n
$GPGGA,080040.30,5703.2947163,N,00952.3702037,E,2,10,0.8,-1.847,M,40.592,M,1.8,0123*62\r\n
$GPGGA,080040.35,5703.2947202,N,00952.3701958,E,2,10,0.8,-1.846,M,40.592,M,1.8,0123*61\r\n
$GPGGA,080040.40,5703.2947237,N,00952.3701881,E,2,10,0.8,-1.846,M,40.592,M,1.8,0123*60\r\n
$GPGGA,080040.45,5703.2947269,N,00952.3701802,E,2,10,0.8,-1.843,M,40.592,M,2.0,0123*6B\r\n
$GPGGA,080040.50,5703.2947299,N,00952.3701721,E,2,10,0.8,-1.845,M,40.592,M,2.0,0123*68\r\n
$GPGGA,080040.55,5703.2947335,N,00952.3701643,E,2,10,0.8,-1.846,M,40.592,M,2.0,0123*6C\r\n
$GPGGA,080040.60,5703.2947364,N,00952.3701564,E,2,10,0.8,-1.845,M,40.592,M,2.0,0123*6B\r\n
$GPGGA,080040.65,5703.2947390,N,00952.3701480,E,2,10,0.8,-1.850,M,40.592,M,2.2,0123*68\r\n
$GPGGA,080040.70,5703.2947420,N,00952.3701394,E,2,10,0.8,-1.849,M,40.592,M,2.2,0123*6A\r\n
$GPGGA,080040.75,5703.2947442,N,00952.3701309,E,2,10,0.8,-1.850,M,40.592,M,2.2,0123*67\r\n
$GPGGA,080040.80,5703.2947471,N,00952.3701222,E,2,10,0.8,-1.851,M,40.592,M,2.2,0123*64\r\n
$GPGGA,080040.85,5703.2947500,N,00952.3701129,E,2,10,0.8,-1.844,M,40.592,M,2.4,0123*6C\r\n
$GPGGA,080040.90,5703.2947528,N,00952.3701040,E,2,10,0.8,-1.844,M,40.592,M,2.4,0123*6C\r\n
$GPGGA,080040.95,5703.2947552,N,00952.3700943,E,2,10,0.8,-1.844,M,40.592,M,2.4,0123*6F\r\n
$GPGGA,080041.00,5703.2947583,N,00952.3700852,E,2,10,0.8,-1.845,M,40.592,M,2.4,0123*6E\r\n
$GPGGA,080041.05,5703.2947618,N,00952.3700757,E,2,10,0.8,-1.849,M,40.592,M,2.7,0123*6F\r\n
$GPGGA,080041.10,5703.2947650,N,00952.3700665,E,2,10,0.8,-1.848,M,40.592,M,2.7,0123*66\r\n
$GPGGA,080041.15,5703.2947678,N,00952.3700583,E,2,10,0.8,-1.849,M,40.592,M,2.7,0123*63\r\n
$GPGGA,080041.20,5703.2947710,N,00952.3700498,E,2,10,0.8,-1.849,M,40.592,M,2.7,0123*61\r\n
$GPGGA,080041.25,5703.2947748,N,00952.3700415,E,2,10,0.8,-1.850,M,40.592,M,2.9,0123*6A\r\n
$GPGGA,080041.30,5703.2947781,N,00952.3700333,E,2,10,0.8,-1.851,M,40.592,M,2.9,0123*69\r\n
$GPGGA,080041.35,5703.2947813,N,00952.3700254,E,2,10,0.8,-1.851,M,40.592,M,2.9,0123*68\r\n
$GPGGA,080041.40,5703.2947844,N,00952.3700181,E,2,10,0.8,-1.852,M,40.592,M,2.9,0123*60\r\n
$GPGGA,080041.45,5703.2947871,N,00952.3700100,E,2,10,0.8,-1.853,M,40.592,M,3.1,0123*62\r\n
$GPGGA,080041.50,5703.2947913,N,00952.3700013,E,2,10,0.8,-1.853,M,40.592,M,3.1,0123*60\r\n
$GPGGA,080041.55,5703.2947944,N,00952.3699919,E,2,10,0.8,-1.854,M,40.592,M,3.1,0123*62\r\n
$GPGGA,080041.60,5703.2947969,N,00952.3699834,E,2,10,0.8,-1.855,M,40.592,M,3.1,0123*64\r\n
$GPGGA,080041.65,5703.2947998,N,00952.3699758,E,2,10,0.8,-1.862,M,40.592,M,3.3,0123*6C\r\n
$GPGGA,080041.70,5703.2948028,N,00952.3699669,E,2,10,0.8,-1.862,M,40.592,M,3.3,0123*66\r\n
$GPGGA,080041.75,5703.2948060,N,00952.3699589,E,2,10,0.8,-1.861,M,40.592,M,3.3,0123*61\r\n
$GPGGA,080041.80,5703.2948086,N,00952.3699505,E,2,10,0.8,-1.859,M,40.592,M,3.3,0123*6C\r\n
$GPGGA,080041.85,5703.2948114,N,00952.3699408,E,2,10,0.8,-1.855,M,40.592,M,1.7,0123*65\r\n
$GPGGA,080041.90,5703.2948138,N,00952.3699326,E,2,10,0.8,-1.857,M,40.592,M,1.7,0123*66\r\n
$GPGGA,080041.95,5703.2948168,N,00952.3699239,E,2,10,0.8,-1.858,M,40.592,M,1.7,0123*66\r\n
$GPGGA,080042.00,5703.2948191,N,00952.3699142,E,2,10,0.8,-1.855,M,40.592,M,1.7,0123*6D\r\n
$GPGGA,080042.05,5703.2948225,N,00952.3699044,E,2,10,0.8,-1.855,M,40.592,M,2.0,0123*67\r\n
$GPGGA,080042.10,5703.2948256,N,00952.3698957,E,2,10,0.8,-1.855,M,40.592,M,2.0,0123*6D\r\n
$GPGGA,080042.15,5703.2948283,N,00952.3698869,E,2,10,0.8,-1.857,M,40.592,M,2.0,0123*6E\r\n
$GPGGA,080042.20,5703.2948310,N,00952.3698792,E,2,10,0.8,-1.860,M,40.592,M,2.0,0123*6C\r\n
$GPGGA,080042.25,5703.2948335,N,00952.3698702,E,2,10,0.8,-1.861,M,40.592,M,2.2,0123*64\r\n
$GPGGA,080042.30,5703.2948370,N,00952.3698606,E,2,10,0.8,-1.862,M,40.592,M,2.2,0123*67\r\n
$GPGGA,080042.35,5703.2948402,N,00952.3698516,E,2,10,0.8,-1.862,M,40.592,M,2.2,0123*62\r\n
$GPGGA,080042.40,5703.2948433,N,00952.3698423,E,2,10,0.8,-1.863,M,40.592,M,2.2,0123*64\r\n
$GPGGA,080042.45,5703.2948470,N,00952.3698337,E,2,10,0.8,-1.864,M,40.592,M,2.5,0123*64\r\n
$GPGGA,080042.50,5703.2948501,N,00952.3698241,E,2,10,0.8,-1.864,M,40.592,M,2.5,0123*67\r\n
$GPGGA,080042.55,5703.2948532,N,00952.3698148,E,2,10,0.8,-1.864,M,40.592,M,2.5,0123*68\r\n
$GPGGA,080042.60,5703.2948554,N,00952.3698058,E,2,10,0.8,-1.864,M,40.592,M,2.5,0123*6E\r\n
$GPGGA,080042.65,5703.2948573,N,00952.3697972,E,2,10,0.8,-1.865,M,40.592,M,2.7,0123*63\r\n
$GPGGA,080042.70,5703.2948597,N,00952.3697886,E,2,10,0.8,-1.867,M,40.592,M,2.7,0123*65\r\n
$GPGGA,080042.75,5703.2948620,N,00952.3697801,E,2,10,0.8,-1.868,M,40.592,M,2.7,0123*6F\r\n
$GPGGA,080042.80,5703.2948650,N,00952.3697711,E,2,10,0.8,-1.868,M,40.592,M,2.7,0123*6C\r\n
$GPGGA,080042.85,5703.2948672,N,00952.3697611,E,2,10,0.8,-1.865,M,40.592,M,1.5,0123*64\r\n
$GPGGA,080042.90,5703.2948698,N,00952.3697515,E,2,10,0.8,-1.863,M,40.592,M,1.5,0123*65\r\n
$GPGGA,080042.95,5703.2948733,N,00952.3697420,E,2,10,0.8,-1.864,M,40.592,M,1.5,0123*60\r\n
$GPGGA,080043.00,5703.2948756,N,00952.3697330,E,2,10,0.8,-1.862,M,40.592,M,1.5,0123*6E\r\n
$GPGGA,080043.05,5703.2948801,N,00952.3697241,E,2,10,0.8,-1.863,M,40.592,M,1.8,0123*6D\r\n
$GPGGA,080043.10,5703.2948832,N,00952.3697153,E,2,10,0.8,-1.863,M,40.592,M,1.8,0123*69\r\n
$GPGGA,080043.15,5703.2948858,N,00952.3697066,E,2,10,0.8,-1.863,M,40.592,M,1.8,0123*67\r\n
$GPGGA,080043.20,5703.2948887,N,00952.3696991,E,2,10,0.8,-1.864,M,40.592,M,1.8,0123*64\r\n
$GPGGA,080043.25,5703.2948919,N,00952.3696904,E,2,10,0.8,-1.866,M,40.592,M,2.1,0123*63\r\n
$GPGGA,080043.30,5703.2948945,N,00952.3696811,E,2,10,0.8,-1.867,M,40.592,M,2.1,0123*6A\r\n
$GPGGA,080043.35,5703.2948982,N,00952.3696726,E,2,10,0.8,-1.865,M,40.592,M,2.1,0123*6D\r\n
$GPGGA,080043.40,5703.2949021,N,00952.3696634,E,2,10,0.8,-1.867,M,40.592,M,2.1,0123*6E\r\n
$GPGGA,080043.45,5703.2949058,N,00952.3696537,E,2,10,0.8,-1.860,M,40.592,M,2.3,0123*60\r\n
$GPGGA,080043.50,5703.2949088,N,00952.3696456,E,2,10,0.8,-1.860,M,40.592,M,2.3,0123*6F\r\n
$GPGGA,080043.55,5703.2949109,N,00952.3696368,E,2,10,0.8,-1.860,M,40.592,M,2.3,0123*68\r\n
$GPGGA,080043.60,5703.2949137,N,00952.3696277,E,2,10,0.8,-1.860,M,40.592,M,2.3,0123*6C\r\n
$GPGGA,080043.65,5703.2949163,N,00952.3696200,E,2,10,0.8,-1.865,M,40.592,M,2.6,0123*68\r\n
$GPGGA,080043.70,5703.2949199,N,00952.3696117,E,2,10,0.8,-1.866,M,40.592,M,2.6,0123*6F\r\n
$GPGGA,080043.75,5703.2949231,N,00952.3696035,E,2,10,0.8,-1.867,M,40.592,M,2.6,0123*6B\r\n
$GPGGA,080043.80,5703.2949263,N,00952.3695951,E,2,10,0.8,-1.869,M,40.592,M,2.6,0123*60\r\n
$GPGGA,080043.85,5703.2949293,N,00952.3695869,E,2,10,0.8,-1.874,M,40.592,M,1.3,0123*6A\r\n
$GPGGA,080043.90,5703.2949321,N,00952.3695778,E,2,10,0.8,-1.875,M,40.592,M,1.3,0123*68\r\n
$GPGGA,080043.95,5703.2949351,N,00952.3695694,E,2,10,0.8,-1.875,M,40.592,M,1.3,0123*69\r\n
$GPGGA,080044.00,5703.2949388,N,00952.3695604,E,2,10,0.8,-1.877,M,40.592,M,1.3,0123*6D\r\n
$GPGGA,080044.05,5703.2949429,N,00952.3695518,E,2,10,0.8,-1.876,M,40.592,M,1.5,0123*6D\r\n
$GPGGA,080044.10,5703.2949459,N,00952.3695421,E,2,10,0.8,-1.876,M,40.592,M,1.5,0123*65\r\n
$GPGGA,080044.15,5703.2949486,N,00952.3695319,E,2,10,0.8,-1.877,M,40.592,M,1.5,0123*6F\r\n
$GPGGA,080044.20,5703.2949525,N,00952.3695232,E,2,10,0.8,-1.877,M,40.592,M,1.5,0123*69\r\n
$GPGGA,080044.25,5703.2949567,N,00952.3695158,E,2,10,0.8,-1.880,M,40.592,M,1.8,0123*60\r\n
$GPGGA,080044.30,5703.2949594,N,00952.3695074,E,2,10,0.8,-1.880,M,40.592,M,1.8,0123*67\r\n
$GPGGA,080044.35,5703.2949623,N,00952.3694986,E,2,10,0.8,-1.881,M,40.592,M,1.8,0123*69\r\n
$GPGGA,080044.40,5703.2949645,N,00952.3694896,E,2,10,0.8,-1.883,M,40.592,M,1.8,0123*69\r\n
$GPGGA,080044.45,5703.2949675,N,00952.3694809,E,2,10,0.8,-1.882,M,40.592,M,2.0,0123*63\r\n
$GPGGA,080044.50,5703.2949708,N,00952.3694723,E,2,10,0.8,-1.881,M,40.592,M,2.0,0123*68\r\n
$GPGGA,080044.55,5703.2949738,N,00952.3694628,E,2,10,0.8,-1.878,M,40.592,M,2.0,0123*62\r\n
$GPGGA,080044.60,5703.2949762,N,00952.3694528,E,2,10,0.8,-1.879,M,40.592,M,2.0,0123*69\r\n
$GPGGA,080044.65,5703.2949796,N,00952.3694441,E,2,10,0.8,-1.877,M,40.592,M,2.2,0123*65\r\n
$GPGGA,080044.70,5703.2949828,N,00952.3694342,E,2,10,0.8,-1.874,M,40.592,M,2.2,0123*6C\r\n
$GPGGA,080044.75,5703.2949853,N,00952.3694259,E,2,10,0.8,-1.873,M,40.592,M,2.2,0123*69\r\n
$GPGGA,080044.80,5703.2949878,N,00952.3694172,E,2,10,0.8,-1.874,M,40.592,M,2.2,0123*67\r\n
$GPGGA,080044.85,5703.2949911,N,00952.3694087,E,2,10,0.8,-1.876,M,40.592,M,2.4,0123*63\r\n
$GPGGA,080044.90,5703.2949939,N,00952.3693997,E,2,10,0.8,-1.873,M,40.592,M,2.4,0123*67\r\n
$GPGGA,080044.95,5703.2949967,N,00952.3693909,E,2,10,0.8,-1.871,M,40.592,M,2.4,0123*6C\r\n
$GPGGA,080045.00,5703.2949993,N,00952.3693816,E,2,10,0.8,-1.871,M,40.592,M,2.4,0123*65\r\n
$GPGGA,080045.05,5703.2950036,N,00952.3693728,E,2,10,0.8,-1.872,M,40.592,M,2.7,0123*6C\r\n
$GPGGA,080045.10,5703.2950057,N,00952.3693641,E,2,10,0.8,-1.873,M,40.592,M,2.7,0123*60\r\n
$GPGGA,080045.15,5703.2950091,N,00952.3693533,E,2,10,0.8,-1.876,M,40.592,M,2.7,0123*6C\r\n
$GPGGA,080045.20,5703.2950116,N,00952.3693432,E,2,10,0.8,-1.878,M,40.592,M,2.7,0123*6A\r\n
$GPGGA,080045.25,5703.2950136,N,00952.3693334,E,2,10,0.8,-1.879,M,40.592,M,2.9,0123*63\r\n
$GPGGA,080045.30,5703.2950166,N,00952.3693237,E,2,10,0.8,-1.881,M,40.592,M,2.9,0123*67\r\n
$GPGGA,080045.35,5703.2950200,N,00952.3693144,E,2,10,0.8,-1.880,M,40.592,M,2.9,0123*67\r\n
$GPGGA,080045.40,5703.2950229,N,00952.3693058,E,2,10,0.8,-1.882,M,40.592,M,2.9,0123*60\r\n
$GPGGA,080045.45,5703.2950261,N,00952.3692965,E,2,10,0.8,-1.879,M,40.592,M,3.1,0123*62\r\n
$GPGGA,080045.50,5703.2950298,N,00952.3692869,E,2,10,0.8,-1.879,M,40.592,M,3.1,0123*6D\r\n
$GPGGA,080045.55,5703.2950327,N,00952.3692781,E,2,10,0.8,-1.878,M,40.592,M,3.1,0123*65\r\n
$GPGGA,080045.60,5703.2950351,N,00952.3692690,E,2,10,0.8,-1.879,M,40.592,M,3.1,0123*62\r\n
$GPGGA,080045.65,5703.2950388,N,00952.3692603,E,2,10,0.8,-1.885,M,40.592,M,3.3,0123*68\r\n
$GPGGA,080045.70,5703.2950426,N,00952.3692513,E,2,10,0.8,-1.887,M,40.592,M,3.3,0123*6F\r\n
$GPGGA,080045.75,5703.2950451,N,00952.3692418,E,2,10,0.8,-1.888,M,40.592,M,3.3,0123*6F\r\n
$GPGGA,080045.80,5703.2950483,N,00952.3692321,E,2,10,0.8,-1.888,M,40.592,M,3.3,0123*67\r\n
$GPGGA,080045.85,5703.2950508,N,00952.3692224,E,2,10,0.8,-1.886,M,40.592,M,1.7,0123*6C\r\n
$GPGGA,080045.90,5703.2950540,N,00952.3692132,E,2,10,0.8,-1.886,M,40.592,M,1.7,0123*60\r\n
$GPGGA,080045.95,5703.2950570,N,00952.3692049,E,2,10,0.8,-1.884,M,40.592,M,1.7,0123*69\r\n
$GPGGA,080046.00,5703.2950599,N,00952.3691966,E,2,10,0.8,-1.885,M,40.592,M,1.7,0123*67\r\n
$GPGGA,080046.05,5703.2950620,N,00952.3691886,E,2,10,0.8,-1.885,M,40.592,M,2.0,0123*68\r\n
$GPGGA,080046.10,5703.2950642,N,00952.3691795,E,2,10,0.8,-1.881,M,40.592,M,2.0,0123*61\r\n
$GPGGA,080046.15,5703.2950669,N,00952.3691714,E,2,10,0.8,-1.881,M,40.592,M,2.0,0123*64\r\n
$GPGGA,080046.20,5703.2950696,N,00952.3691627,E,2,10,0.8,-1.881,M,40.592,M,2.0,0123*63\r\n
$GPGGA,080046.25,5703.2950722,N,00952.3691535,E,2,10,0.8,-1.876,M,40.592,M,2.2,0123*62\r\n
$GPGGA,080046.30,5703.2950748,N,00952.3691435,E,2,10,0.8,-1.876,M,40.592,M,2.2,0123*6B\r\n
$GPGGA,080046.35,5703.2950783,N,00952.3691344,E,2,10,0.8,-1.874,M,40.592,M,2.2,0123*6A\r\n
$GPGGA,080046.40,5703.2950810,N,00952.3691247,E,2,10,0.8,-1.876,M,40.592,M,2.2,0123*6D\r\n
$GPGGA,080046.45,5703.2950844,N,00952.3691159,E,2,10,0.8,-1.883,M,40.592,M,2.5,0123*68\r\n
$GPGGA,080046.50,5703.2950872,N,00952.3691073,E,2,10,0.8,-1.884,M,40.592,M,2.5,0123*67\r\n
$GPGGA,080046.55,5703.2950901,N,00952.3690990,E,2,10,0.8,-1.886,M,40.592,M,2.5,0123*60\r\n
$GPGGA,080046.60,5703.2950936,N,00952.3690903,E,2,10,0.8,-1.889,M,40.592,M,2.5,0123*67\r\n
$GPGGA,080046.65,5703.2950961,N,00952.3690818,E,2,10,0.8,-1.894,M,40.592,M,2.7,0123*65\r\n
$GPGGA,080046.70,5703.2950992,N,00952.3690732,E,2,10,0.8,-1.895,M,40.592,M,2.7,0123*6B\r\n
$GPGGA,080046.75,5703.2951029,N,00952.3690635,E,2,10,0.8,-1.895,M,40.592,M,2.7,0123*60\r\n
$GPGGA,080046.80,5703.2951068,N,00952.3690541,E,2,10,0.8,-1.896,M,40.592,M,2.7,0123*6C\r\n
$GPGGA,080046.85,5703.2951107,N,00952.3690442,E,2,10,0.8,-1.889,M,40.592,M,1.5,0123*6C\r\n
$GPGGA,080046.90,5703.2951139,N,00952.3690351,E,2,10,0.8,-1.890,M,40.592,M,1.5,0123*68\r\n
$GPGGA,080046.95,5703.2951169,N,00952.3690256,E,2,10,0.8,-1.890,M,40.592,M,1.5,0123*6E\r\n
$GPGGA,080047.00,5703.2951193,N,00952.3690171,E,2,10,0.8,-1.889,M,40.592,M,1.5,0123*68\r\n
$GPGGA,080047.05,5703.2951214,N,00952.3690085,E,2,10,0.8,-1.899,M,40.592,M,1.8,0123*67\r\n
$GPGGA,080047.10,5703.2951242,N,00952.3690002,E,2,10,0.8,-1.898,M,40.592,M,1.8,0123*6E\r\n
$GPGGA,080047.15,5703.2951264,N,00952.3689914,E,2,10,0.8,-1.899,M,40.592,M,1.8,0123*68\r\n
$GPGGA,080047.20,5703.2951285,N,00952.3689823,E,2,10,0.8,-1.899,M,40.592,M,1.8,0123*64\r\n
$GPGGA,080047.25,5703.2951312,N,00952.3689738,E,2,10,0.8,-1.894,M,40.592,M,2.1,0123*6C\r\n
$GPGGA,080047.30,5703.2951340,N,00952.3689643,E,2,10,0.8,-1.893,M,40.592,M,2.1,0123*65\r\n
$GPGGA,080047.35,5703.2951362,N,00952.3689554,E,2,10,0.8,-1.893,M,40.592,M,2.1,0123*65\r\n
$GPGGA,080047.40,5703.2951385,N,00952.3689451,E,2,10,0.8,-1.892,M,40.592,M,2.1,0123*6B\r\n
$GPGGA,080047.45,5703.2951423,N,00952.3689351,E,2,10,0.8,-1.885,M,40.592,M,2.3,0123*66\r\n
$GPGGA,080047.50,5703.2951457,N,00952.3689259,E,2,10,0.8,-1.885,M,40.592,M,2.3,0123*68\r\n
$GPGGA,080047.55,5703.2951484,N,00952.3689172,E,2,10,0.8,-1.886,M,40.592,M,2.3,0123*6A\r\n
$GPGGA,080047.60,5703.2951513,N,00952.3689085,E,2,10,0.8,-1.885,M,40.592,M,2.3,0123*69\r\n
$GPGGA,080047.65,5703.2951525,N,00952.3688993,E,2,10,0.8,-1.891,M,40.592,M,2.6,0123*66\r\n
$GPGGA,080047.70,5703.2951545,N,00952.3688907,E,2,10,0.8,-1.891,M,40.592,M,2.6,0123*69\r\n
$GPGGA,080047.75,5703.2951580,N,00952.3688818,E,2,10,0.8,-1.890,M,40.592,M,2.6,0123*6B\r\n
$GPGGA,080047.80,5703.2951620,N,00952.3688720,E,2,10,0.8,-1.891,M,40.592,M,2.6,0123*6D\r\n
$GPGGA,080047.85,5703.2951650,N,00952.3688628,E,2,10,0.8,-1.892,M,40.592,M,1.3,0123*63\r\n
$GPGGA,080047.90,5703.2951677,N,00952.3688531,E,2,10,0.8,-1.891,M,40.592,M,1.3,0123*6A\r\n
$GPGGA,080047.95,5703.2951708,N,00952.3688437,E,2,10,0.8,-1.889,M,40.592,M,1.3,0123*68\r\n
$GPGGA,080048.00,5703.2951743,N,00952.3688348,E,2,10,0.8,-1.890,M,40.592,M,1.3,0123*63\r\n
$GPGGA,080048.05,5703.2951776,N,00952.3688258,E,2,10,0.8,-1.891,M,40.592,M,1.5,0123*67\r\n
$GPGGA,080048.10,5703.2951799,N,00952.3688178,E,2,10,0.8,-1.890,M,40.592,M,1.5,0123*62\r\n
$GPGGA,080048.15,5703.2951826,N,00952.3688096,E,2,10,0.8,-1.892,M,40.592,M,1.5,0123*6F\r\n
$GPGGA,080048.20,5703.2951849,N,00952.3688014,E,2,10,0.8,-1.892,M,40.592,M,1.5,0123*6A\r\n
$GPGGA,080048.25,5703.2951871,N,00952.3687933,E,2,10,0.8,-1.890,M,40.592,M,1.8,0123*68\r\n
$GPGGA,080048.30,5703.2951904,N,00952.3687849,E,2,10,0.8,-1.891,M,40.592,M,1.8,0123*62\r\n
$GPGGA,080048.35,5703.2951944,N,00952.3687745,E,2,10,0.8,-1.893,M,40.592,M,1.8,0123*62\r\n
$GPGGA,080048.40,5703.2951976,N,00952.3687651,E,2,10,0.8,-1.893,M,40.592,M,1.8,0123*65\r\n
$GPGGA,080048.45,5703.2952002,N,00952.3687548,E,2,10,0.8,-1.893,M,40.592,M,2.0,0123*69\r\n
$GPGGA,080048.50,5703.2952031,N,00952.3687450,E,2,10,0.8,-1.893,M,40.592,M,2.0,0123*65\r\n
$GPGGA,080048.55,5703.2952056,N,00952.3687365,E,2,10,0.8,-1.894,M,40.592,M,2.0,0123*67\r\n
$GPGGA,080048.60,5703.2952087,N,00952.3687270,E,2,10,0.8,-1.895,M,40.592,M,2.0,0123*69\r\n
$GPGGA,080048.65,5703.2952114,N,00952.3687179,E,2,10,0.8,-1.900,M,40.592,M,2.2,0123*62\r\n
$GPGGA,080048.70,5703.2952149,N,00952.3687095,E,2,10,0.8,-1.900,M,40.592,M,2.2,0123*6D\r\n
$GPGGA,080048.75,5703.2952178,N,00952.3687007,E,2,10,0.8,-1.902,M,40.592,M,2.2,0123*63\r\n
$GPGGA,080048.80,5703.2952199,N,00952.3686920,E,2,10,0.8,-1.904,M,40.592,M,2.2,0123*6D\r\n
$GPGGA,080048.85,5703.2952225,N,00952.3686826,E,2,10,0.8,-1.900,M,40.592,M,2.4,0123*69\r\n
$GPGGA,080048.90,5703.2952254,N,00952.3686732,E,2,10,0.8,-1.900,M,40.592,M,2.4,0123*61\r\n
$GPGGA,080048.95,5703.2952288,N,00952.3686636,E,2,10,0.8,-1.901,M,40.592,M,2.4,0123*61\r\n
$GPGGA,080049.00,5703.2952313,N,00952.3686545,E,2,10,0.8,-1.901,M,40.592,M,2.4,0123*68\r\n
$GPGGA,080049.05,5703.2952340,N,00952.3686441,E,2,10,0.8,-1.902,M,40.592,M,2.7,0123*6E\r\n
$GPGGA,080049.10,5703.2952363,N,00952.3686344,E,2,10,0.8,-1.904,M,40.592,M,2.7,0123*6F\r\n
$GPGGA,080049.15,5703.2952389,N,00952.3686239,E,2,10,0.8,-1.904,M,40.592,M,2.7,0123*65\r\n
$GPGGA,080049.20,5703.2952418,N,00952.3686140,E,2,10,0.8,-1.904,M,40.592,M,2.7,0123*61\r\n
$GPGGA,080049.25,5703.2952443,N,00952.3686046,E,2,10,0.8,-1.904,M,40.592,M,2.9,0123*63\r\n
$GPGGA,080049.30,5703.2952478,N,00952.3685952,E,2,10,0.8,-1.905,M,40.592,M,2.9,0123*61\r\n
$GPGGA,080049.35,5703.2952515,N,00952.3685858,E,2,10,0.8,-1.905,M,40.592,M,2.9,0123*65\r\n
$GPGGA,080049.40,5703.2952550,N,00952.3685764,E,2,10,0.8,-1.905,M,40.592,M,2.9,0123*66\r\n
$GPGGA,080049.45,5703.2952572,N,00952.3685669,E,2,10,0.8,-1.905,M,40.592,M,3.1,0123*66\r\n
$GPGGA,080049.50,5703.2952602,N,00952.3685575,E,2,10,0.8,-1.904,M,40.592,M,3.1,0123*69\r\n
$GPGGA,080049.55,5703.2952629,N,00952.3685480,E,2,10,0.8,-1.905,M,40.592,M,3.1,0123*6F\r\n
$GPGGA,080049.60,5703.2952657,N,00952.3685385,E,2,10,0.8,-1.907,M,40.592,M,3.1,0123*60\r\n
$GPGGA,080049.65,5703.2952679,N,00952.3685299,E,2,10,0.8,-1.911,M,40.592,M,3.3,0123*60\r\n
$GPGGA,080049.70,5703.2952706,N,00952.3685209,E,2,10,0.8,-1.912,M,40.592,M,3.3,0123*67\r\n
$GPGGA,080049.75,5703.2952737,N,00952.3685118,E,2,10,0.8,-1.911,M,40.592,M,3.3,0123*60\r\n
$GPGGA,080049.80,5703.2952764,N,00952.3685023,E,2,10,0.8,-1.909,M,40.592,M,3.3,0123*6C\r\n
$GPGGA,080049.85,5703.2952796,N,00952.3684933,E,2,10,0.8,-1.902,M,40.592,M,1.7,0123*60\r\n
$GPGGA,080049.90,5703.2952826,N,00952.3684839,E,2,10,0.8,-1.900,M,40.592,M,1.7,0123*69\r\n
$GPGGA,080049.95,5703.2952856,N,00952.3684741,E,2,10,0.8,-1.897,M,40.592,M,1.7,0123*64\r\n
$GPGGA,080050.00,5703.2952886,N,00952.3684654,E,2,10,0.8,-1.896,M,40.592,M,1.7,0123*69\r\n
$GPGGA,080050.05,5703.2952907,N,00952.3684554,E,2,10,0.8,-1.899,M,40.592,M,2.0,0123*6C\r\n
$GPGGA,080050.10,5703.2952937,N,00952.3684463,E,2,10,0.8,-1.897,M,40.592,M,2.0,0123*60\r\n
$GPGGA,080050.15,5703.2952958,N,00952.3684384,E,2,10,0.8,-1.899,M,40.592,M,2.0,0123*6C\r\n
$GPGGA,080050.20,5703.2952987,N,00952.3684299,E,2,10,0.8,-1.901,M,40.592,M,2.0,0123*65\r\n
$GPGGA,080050.25,5703.2953014,N,00952.3684209,E,2,10,0.8,-1.906,M,40.592,M,2.2,0123*6E\r\n
$GPGGA,080050.30,5703.2953038,N,00952.3684113,E,2,10,0.8,-1.909,M,40.592,M,2.2,0123*63\r\n
$GPGGA,080050.35,5703.2953061,N,00952.3684015,E,2,10,0.8,-1.911,M,40.592,M,2.2,0123*64\r\n
$GPGGA,080050.40,5703.2953091,N,00952.3683917,E,2,10,0.8,-1.912,M,40.592,M,2.2,0123*66\r\n
$GPGGA,080050.45,5703.2953121,N,00952.3683825,E,2,10,0.8,-1.908,M,40.592,M,2.5,0123*65\r\n
$GPGGA,080050.50,5703.2953153,N,00952.3683727,E,2,10,0.8,-1.908,M,40.592,M,2.5,0123*69\r\n
$GPGGA,080050.55,5703.2953184,N,00952.3683628,E,2,10,0.8,-1.907,M,40.592,M,2.5,0123*67\r\n
$GPGGA,080050.60,5703.2953210,N,00952.3683536,E,2,10,0.8,-1.908,M,40.592,M,2.5,0123*6C\r\n
$GPGGA,080050.65,5703.2953229,N,00952.3683456,E,2,10,0.8,-1.913,M,40.592,M,2.7,0123*6C\r\n
$GPGGA,080050.70,5703.2953254,N,00952.3683369,E,2,10,0.8,-1.915,M,40.592,M,2.7,0123*6F\r\n
$GPGGA,080050.75,5703.2953277,N,00952.3683276,E,2,10,0.8,-1.915,M,40.592,M,2.7,0123*64\r\n
$GPGGA,080050.80,5703.2953288,N,00952.3683183,E,2,10,0.8,-1.914,M,40.592,M,2.7,0123*66\r\n
$GPGGA,080050.85,5703.2953324,N,00952.3683087,E,2,10,0.8,-1.905,M,40.592,M,1.5,0123*60\r\n
$GPGGA,080050.90,5703.2953358,N,00952.3682995,E,2,10,0.8,-1.903,M,40.592,M,1.5,0123*62\r\n
$GPGGA,080050.95,5703.2953394,N,00952.3682907,E,2,10,0.8,-1.903,M,40.592,M,1.5,0123*6C\r\n
$GPGGA,080051.00,5703.2953416,N,00952.3682800,E,2,10,0.8,-1.900,M,40.592,M,1.5,0123*69\r\n
$GPGGA,080051.05,5703.2953439,N,00952.3682705,E,2,10,0.8,-1.907,M,40.592,M,1.8,0123*61\r\n
$GPGGA,080051.10,5703.2953472,N,00952.3682598,E,2,10,0.8,-1.906,M,40.592,M,1.8,0123*6D\r\n
$GPGGA,080051.15,5703.2953501,N,00952.3682498,E,2,10,0.8,-1.908,M,40.592,M,1.8,0123*62\r\n
$GPGGA,080051.20,5703.2953520,N,00952.3682402,E,2,10,0.8,-1.904,M,40.592,M,1.8,0123*68\r\n
$GPGGA,080051.25,5703.2953546,N,00952.3682302,E,2,10,0.8,-1.909,M,40.592,M,2.1,0123*6D\r\n
$GPGGA,080051.30,5703.2953569,N,00952.3682203,E,2,10,0.8,-1.910,M,40.592,M,2.1,0123*6C\r\n
$GPGGA,080051.35,5703.2953602,N,00952.3682107,E,2,10,0.8,-1.912,M,40.592,M,2.1,0123*62\r\n
$GPGGA,080051.40,5703.2953636,N,00952.3682018,E,2,10,0.8,-1.913,M,40.592,M,2.1,0123*69\r\n
$GPGGA,080051.45,5703.2953666,N,00952.3681934,E,2,10,0.8,-1.912,M,40.592,M,2.3,0123*6E\r\n
$GPGGA,080051.50,5703.2953702,N,00952.3681838,E,2,10,0.8,-1.912,M,40.592,M,2.3,0123*64\r\n
$GPGGA,080051.55,5703.2953738,N,00952.3681739,E,2,10,0.8,-1.912,M,40.592,M,2.3,0123*66\r\n
$GPGGA,080051.60,5703.2953762,N,00952.3681645,E,2,10,0.8,-1.913,M,40.592,M,2.3,0123*64\r\n
$GPGGA,080051.65,5703.2953799,N,00952.3681563,E,2,10,0.8,-1.911,M,40.592,M,1.0,0123*60\r\n
$GPGGA,080051.70,5703.2953828,N,00952.3681464,E,2,10,0.8,-1.910,M,40.592,M,1.0,0123*66\r\n
$GPGGA,080051.75,5703.2953860,N,00952.3681379,E,2,10,0.8,-1.909,M,40.592,M,1.0,0123*6C\r\n
$GPGGA,080051.80,5703.2953886,N,00952.3681284,E,2,10,0.8,-1.910,M,40.592,M,1.0,0123*65\r\n
$GPGGA,080051.85,5703.2953910,N,00952.3681185,E,2,10,0.8,-1.913,M,40.592,M,1.3,0123*6C\r\n
$GPGGA,080051.90,5703.2953939,N,00952.3681079,E,2,10,0.8,-1.912,M,40.592,M,1.3,0123*60\r\n
$GPGGA,080051.95,5703.2953969,N,00952.3680973,E,2,10,0.8,-1.914,M,40.592,M,1.3,0123*64\r\n
$GPGGA,080052.00,5703.2953990,N,00952.3680881,E,2,10,0.8,-1.916,M,40.592,M,1.3,0123*63\r\n
$GPGGA,080052.05,5703.2954016,N,00952.3680781,E,2,10,0.8,-1.913,M,40.592,M,1.5,0123*6A\r\n
$GPGGA,080052.10,5703.2954048,N,00952.3680696,E,2,10,0.8,-1.913,M,40.592,M,1.5,0123*62\r\n
$GPGGA,080052.15,5703.2954061,N,00952.3680607,E,2,10,0.8,-1.912,M,40.592,M,1.5,0123*65\r\n
$GPGGA,080052.20,5703.2954093,N,00952.3680523,E,2,10,0.8,-1.911,M,40.592,M,1.5,0123*68\r\n
$GPGGA,080052.25,5703.2954112,N,00952.3680436,E,2,10,0.8,-1.912,M,40.592,M,1.8,0123*6E\r\n
$GPGGA,080052.30,5703.2954141,N,00952.3680347,E,2,10,0.8,-1.914,M,40.592,M,1.8,0123*6B\r\n
$GPGGA,080052.35,5703.2954169,N,00952.3680249,E,2,10,0.8,-1.913,M,40.592,M,1.8,0123*6C\r\n
$GPGGA,080052.40,5703.2954204,N,00952.3680153,E,2,10,0.8,-1.912,M,40.592,M,1.8,0123*6F\r\n
$GPGGA,080052.45,5703.2954241,N,00952.3680063,E,2,10,0.8,-1.908,M,40.592,M,2.0,0123*69\r\n
$GPGGA,080052.50,5703.2954280,N,00952.3679973,E,2,10,0.8,-1.910,M,40.592,M,2.0,0123*67\r\n
$GPGGA,080052.55,5703.2954318,N,00952.3679878,E,2,10,0.8,-1.912,M,40.592,M,2.0,0123*6A\r\n
$GPGGA,080052.60,5703.2954352,N,00952.3679783,E,2,10,0.8,-1.913,M,40.592,M,2.0,0123*68\r\n
$GPGGA,080052.65,5703.2954386,N,00952.3679684,E,2,10,0.8,-1.914,M,40.592,M,2.2,0123*67\r\n
$GPGGA,080052.70,5703.2954418,N,00952.3679580,E,2,10,0.8,-1.916,M,40.592,M,2.2,0123*66\r\n
$GPGGA,080052.75,5703.2954442,N,00952.3679491,E,2,10,0.8,-1.916,M,40.592,M,2.2,0123*6D\r\n
$GPGGA,080052.80,5703.2954450,N,00952.3679400,E,2,10,0.8,-1.916,M,40.592,M,2.2,0123*6C\r\n
$GPGGA,080052.85,5703.2954463,N,00952.3679307,E,2,10,0.8,-1.924,M,40.592,M,2.4,0123*6E\r\n
$GPGGA,080052.90,5703.2954485,N,00952.3679214,E,2,10,0.8,-1.924,M,40.592,M,2.4,0123*61\r\n
$GPGGA,080052.95,5703.2954506,N,00952.3679131,E,2,10,0.8,-1.923,M,40.592,M,2.4,0123*6D\r\n
$GPGGA,080053.00,5703.2954525,N,00952.3679042,E,2,10,0.8,-1.923,M,40.592,M,2.4,0123*64\r\n
$GPGGA,080053.05,5703.2954559,N,00952.3678943,E,2,10,0.8,-1.917,M,40.592,M,2.7,0123*67\r\n
$GPGGA,080053.10,5703.2954594,N,00952.3678849,E,2,10,0.8,-1.916,M,40.592,M,2.7,0123*68\r\n
$GPGGA,080053.15,5703.2954623,N,00952.3678761,E,2,10,0.8,-1.915,M,40.592,M,2.7,0123*64\r\n
$GPGGA,080053.20,5703.2954653,N,00952.3678678,E,2,10,0.8,-1.916,M,40.592,M,2.7,0123*6F\r\n
$GPGGA,080053.25,5703.2954678,N,00952.3678593,E,2,10,0.8,-1.915,M,40.592,M,2.9,0123*68\r\n
$GPGGA,080053.30,5703.2954710,N,00952.3678506,E,2,10,0.8,-1.913,M,40.592,M,2.9,0123*69\r\n
$GPGGA,080053.35,5703.2954740,N,00952.3678416,E,2,10,0.8,-1.913,M,40.592,M,2.9,0123*69\r\n
$GPGGA,080053.40,5703.2954767,N,00952.3678316,E,2,10,0.8,-1.913,M,40.592,M,2.9,0123*69\r\n
$GPGGA,080053.45,5703.2954804,N,00952.3678212,E,2,10,0.8,-1.909,M,40.592,M,3.1,0123*61\r\n
$GPGGA,080053.50,5703.2954833,N,00952.3678106,E,2,10,0.8,-1.909,M,40.592,M,3.1,0123*67\r\n
$GPGGA,080053.55,5703.2954878,N,00952.3678010,E,2,10,0.8,-1.909,M,40.592,M,3.1,0123*6B\r\n
$GPGGA,080053.60,5703.2954916,N,00952.3677915,E,2,10,0.8,-1.911,M,40.592,M,3.1,0123*6E\r\n
$GPGGA,080053.65,5703.2954957,N,00952.3677835,E,2,10,0.8,-1.914,M,40.592,M,1.4,0123*6F\r\n
$GPGGA,080053.70,5703.2954986,N,00952.3677761,E,2,10,0.8,-1.915,M,40.592,M,1.4,0123*68\r\n
$GPGGA,080053.75,5703.2955020,N,00952.3677685,E,2,10,0.8,-1.916,M,40.592,M,1.4,0123*61\r\n
$GPGGA,080053.80,5703.2955050,N,00952.3677613,E,2,10,0.8,-1.915,M,40.592,M,1.4,0123*60\r\n
$GPGGA,080053.85,5703.2955083,N,00952.3677530,E,2,10,0.8,-1.915,M,40.592,M,1.7,0123*6A\r\n
$GPGGA,080053.90,5703.2955119,N,00952.3677449,E,2,10,0.8,-1.915,M,40.592,M,1.7,0123*63\r\n
$GPGGA,080053.95,5703.2955146,N,00952.3677359,E,2,10,0.8,-1.912,M,40.592,M,1.7,0123*6D\r\n
$GPGGA,080054.00,5703.2955172,N,00952.3677262,E,2,10,0.8,-1.910,M,40.592,M,1.7,0123*6A\r\n
$GPGGA,080054.05,5703.2955192,N,00952.3677156,E,2,10,0.8,-1.910,M,40.592,M,2.0,0123*61\r\n
$GPGGA,080054.10,5703.2955217,N,00952.3677062,E,2,10,0.8,-1.908,M,40.592,M,2.0,0123*64\r\n
$GPGGA,080054.15,5703.2955246,N,00952.3676972,E,2,10,0.8,-1.908,M,40.592,M,2.0,0123*6C\r\n
$GPGGA,080054.20,5703.2955280,N,00952.3676883,E,2,10,0.8,-1.907,M,40.592,M,2.0,0123*60\r\n
$GPGGA,080054.25,5703.2955295,N,00952.3676797,E,2,10,0.8,-1.910,M,40.592,M,2.2,0123*6F\r\n
$GPGGA,080054.30,5703.2955330,N,00952.3676706,E,2,10,0.8,-1.909,M,40.592,M,2.2,0123*65\r\n
$GPGGA,080054.35,5703.2955352,N,00952.3676613,E,2,10,0.8,-1.909,M,40.592,M,2.2,0123*61\r\n
$GPGGA,080054.40,5703.2955378,N,00952.3676522,E,2,10,0.8,-1.909,M,40.592,M,2.2,0123*6A\r\n
$GPGGA,080054.45,5703.2955415,N,00952.3676425,E,2,10,0.8,-1.912,M,40.592,M,2.5,0123*68\r\n
$GPGGA,080054.50,5703.2955441,N,00952.3676337,E,2,10,0.8,-1.911,M,40.592,M,2.5,0123*6A\r\n
$GPGGA,080054.55,5703.2955473,N,00952.3676255,E,2,10,0.8,-1.911,M,40.592,M,2.5,0123*6B\r\n
$GPGGA,080054.60,5703.2955502,N,00952.3676173,E,2,10,0.8,-1.911,M,40.592,M,2.5,0123*6D\r\n
$GPGGA,080054.65,5703.2955531,N,00952.3676088,E,2,10,0.8,-1.910,M,40.592,M,1.3,0123*69\r\n
$GPGGA,080054.70,5703.2955557,N,00952.3676001,E,2,10,0.8,-1.910,M,40.592,M,1.3,0123*6C\r\n
$GPGGA,080054.75,5703.2955584,N,00952.3675912,E,2,10,0.8,-1.910,M,40.592,M,1.3,0123*6F\r\n
$GPGGA,080054.80,5703.2955609,N,00952.3675828,E,2,10,0.8,-1.912,M,40.592,M,1.3,0123*69\r\n
$GPGGA,080054.85,5703.2955634,N,00952.3675746,E,2,10,0.8,-1.914,M,40.592,M,1.5,0123*65\r\n
$GPGGA,080054.90,5703.2955659,N,00952.3675665,E,2,10,0.8,-1.915,M,40.592,M,1.5,0123*6B\r\n
$GPGGA,080054.95,5703.2955678,N,00952.3675582,E,2,10,0.8,-1.916,M,40.592,M,1.5,0123*64\r\n
$GPGGA,080055.00,5703.2955712,N,00952.3675488,E,2,10,0.8,-1.915,M,40.592,M,1.5,0123*6C\r\n
$GPGGA,080055.05,5703.2955721,N,00952.3675390,E,2,10,0.8,-1.920,M,40.592,M,1.8,0123*6C\r\n
$GPGGA,080055.10,5703.2955744,N,00952.3675303,E,2,10,0.8,-1.921,M,40.592,M,1.8,0123*60\r\n
$GPGGA,080055.15,5703.2955769,N,00952.3675222,E,2,10,0.8,-1.922,M,40.592,M,1.8,0123*6B\r\n
$GPGGA,080055.20,5703.2955799,N,00952.3675140,E,2,10,0.8,-1.922,M,40.592,M,1.8,0123*65\r\n
$GPGGA,080055.25,5703.2955829,N,00952.3675059,E,2,10,0.8,-1.924,M,40.592,M,2.1,0123*61\r\n
$GPGGA,080055.30,5703.2955871,N,00952.3675003,E,2,10,0.8,-1.922,M,40.592,M,2.1,0123*61\r\n
$GPGGA,080055.35,5703.2955918,N,00952.3674936,E,2,10,0.8,-1.920,M,40.592,M,2.1,0123*66\r\n
$GPGGA,080055.40,5703.2955980,N,00952.3674856,E,2,10,0.8,-1.924,M,40.592,M,2.1,0123*66\r\n
$GPGGA,080055.45,5703.2956027,N,00952.3674773,E,2,10,0.8,-1.929,M,40.592,M,2.3,0123*63\r\n
$GPGGA,080055.50,5703.2956067,N,00952.3674679,E,2,10,0.8,-1.933,M,40.592,M,2.3,0123*63\r\n
$GPGGA,080055.55,5703.2956104,N,00952.3674561,E,2,10,0.8,-1.938,M,40.592,M,2.3,0123*63\r\n
$GPGGA,080055.60,5703.2956137,N,00952.3674460,E,2,10,0.8,-1.942,M,40.592,M,2.3,0123*68\r\n
$GPGGA,080055.65,5703.2956153,N,00952.3674364,E,2,10,0.8,-1.944,M,40.592,M,1.0,0123*6A\r\n
$GPGGA,080055.70,5703.2956168,N,00952.3674249,E,2,10,0.8,-1.945,M,40.592,M,1.0,0123*69\r\n
$GPGGA,080055.75,5703.2956174,N,00952.3674130,E,2,10,0.8,-1.946,M,40.592,M,1.0,0123*6F\r\n
$GPGGA,080055.80,5703.2956178,N,00952.3674013,E,2,10,0.8,-1.945,M,40.592,M,1.0,0123*6A\r\n
$GPGGA,080055.85,5703.2956189,N,00952.3673917,E,2,10,0.8,-1.941,M,40.592,M,1.3,0123*6C\r\n
$GPGGA,080055.90,5703.2956210,N,00952.3673832,E,2,10,0.8,-1.938,M,40.592,M,1.3,0123*63\r\n
$GPGGA,080055.95,5703.2956241,N,00952.3673762,E,2,10,0.8,-1.933,M,40.592,M,1.3,0123*63\r\n
$GPGGA,080056.00,5703.2956265,N,00952.3673687,E,2,10,0.8,-1.930,M,40.592,M,1.3,0123*63\r\n
$GPGGA,080056.05,5703.2956286,N,00952.3673589,E,2,10,0.8,-1.930,M,40.592,M,1.5,0123*60\r\n
$GPGGA,080056.10,5703.2956311,N,00952.3673510,E,2,10,0.8,-1.925,M,40.592,M,1.5,0123*6F\r\n
$GPGGA,080056.15,5703.2956339,N,00952.3673436,E,2,10,0.8,-1.921,M,40.592,M,1.5,0123*61\r\n
$GPGGA,080056.20,5703.2956377,N,00952.3673363,E,2,10,0.8,-1.916,M,40.592,M,1.5,0123*6E\r\n
$GPGGA,080056.25,5703.2956402,N,00952.3673284,E,2,10,0.8,-1.911,M,40.592,M,1.8,0123*6C\r\n
$GPGGA,080056.30,5703.2956436,N,00952.3673213,E,2,10,0.8,-1.910,M,40.592,M,1.8,0123*60\r\n
$GPGGA,080056.35,5703.2956476,N,00952.3673128,E,2,10,0.8,-1.909,M,40.592,M,1.8,0123*62\r\n
$GPGGA,080056.40,5703.2956525,N,00952.3673035,E,2,10,0.8,-1.911,M,40.592,M,1.8,0123*63\r\n
$GPGGA,080056.45,5703.2956565,N,00952.3672953,E,2,10,0.8,-1.914,M,40.592,M,2.0,0123*64\r\n
$GPGGA,080056.50,5703.2956597,N,00952.3672874,E,2,10,0.8,-1.917,M,40.592,M,2.0,0123*6A\r\n
$GPGGA,080056.55,5703.2956633,N,00952.3672798,E,2,10,0.8,-1.919,M,40.592,M,2.0,0123*61\r\n
$GPGGA,080056.60,5703.2956669,N,00952.3672721,E,2,10,0.8,-1.920,M,40.592,M,2.0,0123*60\r\n
$GPGGA,080056.65,5703.2956701,N,00952.3672648,E,2,10,0.8,-1.923,M,40.592,M,2.2,0123*65\r\n
$GPGGA,080056.70,5703.2956742,N,00952.3672572,E,2,10,0.8,-1.923,M,40.592,M,2.2,0123*6C\r\n
$GPGGA,080056.75,5703.2956776,N,00952.3672479,E,2,10,0.8,-1.925,M,40.592,M,2.2,0123*62\r\n
$GPGGA,080056.80,5703.2956813,N,00952.3672385,E,2,10,0.8,-1.927,M,40.592,M,2.2,0123*62\r\n
$GPGGA,080056.85,5703.2956855,N,00952.3672296,E,2,10,0.8,-1.918,M,40.592,M,2.4,0123*6C\r\n
$GPGGA,080056.90,5703.2956894,N,00952.3672218,E,2,10,0.8,-1.917,M,40.592,M,2.4,0123*6C\r\n
$GPGGA,080056.95,5703.2956940,N,00952.3672146,E,2,10,0.8,-1.918,M,40.592,M,2.4,0123*66\r\n
$GPGGA,080057.00,5703.2956977,N,00952.3672064,E,2,10,0.8,-1.917,M,40.592,M,2.4,0123*61\r\n
$GPGGA,080057.05,5703.2956978,N,00952.3671978,E,2,10,0.8,-1.935,M,40.592,M,2.7,0123*6F\r\n
$GPGGA,080057.10,5703.2956998,N,00952.3671874,E,2,10,0.8,-1.938,M,40.592,M,2.7,0123*65\r\n
$GPGGA,080057.15,5703.2957003,N,00952.3671756,E,2,10,0.8,-1.944,M,40.592,M,2.7,0123*6E\r\n
$GPGGA,080057.20,5703.2957017,N,00952.3671643,E,2,10,0.8,-1.950,M,40.592,M,2.7,0123*6D\r\n
$GPGGA,080057.25,5703.2957044,N,00952.3671551,E,2,10,0.8,-1.945,M,40.592,M,2.9,0123*64\r\n
$GPGGA,080057.30,5703.2957070,N,00952.3671465,E,2,10,0.8,-1.945,M,40.592,M,2.9,0123*61\r\n
$GPGGA,080057.35,5703.2957113,N,00952.3671381,E,2,10,0.8,-1.946,M,40.592,M,2.9,0123*6E\r\n
$GPGGA,080057.40,5703.2957155,N,00952.3671302,E,2,10,0.8,-1.946,M,40.592,M,2.9,0123*65\r\n
$GPGGA,080057.45,5703.2957199,N,00952.3671245,E,2,10,0.8,-1.946,M,40.592,M,3.1,0123*6B\r\n
$GPGGA,080057.50,5703.2957234,N,00952.3671193,E,2,10,0.8,-1.946,M,40.592,M,3.1,0123*63\r\n
$GPGGA,080057.55,5703.2957265,N,00952.3671130,E,2,10,0.8,-1.944,M,40.592,M,3.1,0123*69\r\n
$GPGGA,080057.60,5703.2957295,N,00952.3671067,E,2,10,0.8,-1.940,M,40.592,M,3.1,0123*67\r\n
$GPGGA,080057.65,5703.2957331,N,00952.3671011,E,2,10,0.8,-1.937,M,40.592,M,1.4,0123*6B\r\n
$GPGGA,080057.70,5703.2957372,N,00952.3670934,E,2,10,0.8,-1.935,M,40.592,M,1.4,0123*65\r\n
$GPGGA,080057.75,5703.2957409,N,00952.3670854,E,2,10,0.8,-1.934,M,40.592,M,1.4,0123*6D\r\n
$GPGGA,080057.80,5703.2957443,N,00952.3670765,E,2,10,0.8,-1.930,M,40.592,M,1.4,0123*60\r\n
$GPGGA,080057.85,5703.2957476,N,00952.3670666,E,2,10,0.8,-1.930,M,40.592,M,1.7,0123*62\r\n
$GPGGA,080057.90,5703.2957501,N,00952.3670570,E,2,10,0.8,-1.928,M,40.592,M,1.7,0123*6A\r\n
$GPGGA,080057.95,5703.2957527,N,00952.3670473,E,2,10,0.8,-1.925,M,40.592,M,1.7,0123*64\r\n
$GPGGA,080058.00,5703.2957544,N,00952.3670380,E,2,10,0.8,-1.924,M,40.592,M,1.7,0123*68\r\n
$GPGGA,080058.05,5703.2957567,N,00952.3670269,E,2,10,0.8,-1.919,M,40.592,M,2.0,0123*60\r\n
$GPGGA,080058.10,5703.2957589,N,00952.3670175,E,2,10,0.8,-1.916,M,40.592,M,2.0,0123*65\r\n
$GPGGA,080058.15,5703.2957615,N,00952.3670091,E,2,10,0.8,-1.917,M,40.592,M,2.0,0123*6C\r\n
$GPGGA,080058.20,5703.2957650,N,00952.3670010,E,2,10,0.8,-1.916,M,40.592,M,2.0,0123*63\r\n
$GPGGA,080058.25,5703.2957667,N,00952.3669926,E,2,10,0.8,-1.923,M,40.592,M,2.2,0123*62\r\n
$GPGGA,080058.30,5703.2957697,N,00952.3669827,E,2,10,0.8,-1.925,M,40.592,M,2.2,0123*6F\r\n
$GPGGA,080058.35,5703.2957727,N,00952.3669735,E,2,10,0.8,-1.928,M,40.592,M,2.2,0123*61\r\n
$GPGGA,080058.40,5703.2957756,N,00952.3669647,E,2,10,0.8,-1.931,M,40.592,M,2.2,0123*69\r\n
$GPGGA,080058.45,5703.2957795,N,00952.3669566,E,2,10,0.8,-1.932,M,40.592,M,2.5,0123*67\r\n
$GPGGA,080058.50,5703.2957830,N,00952.3669483,E,2,10,0.8,-1.933,M,40.592,M,2.5,0123*68\r\n
$GPGGA,080058.55,5703.2957868,N,00952.3669400,E,2,10,0.8,-1.936,M,40.592,M,2.5,0123*6E\r\n
$GPGGA,080058.60,5703.2957905,N,00952.3669309,E,2,10,0.8,-1.937,M,40.592,M,2.5,0123*6D\r\n
$GPGGA,080058.65,5703.2957949,N,00952.3669221,E,2,10,0.8,-1.935,M,40.592,M,1.3,0123*6C\r\n
$GPGGA,080058.70,5703.2957985,N,00952.3669146,E,2,10,0.8,-1.934,M,40.592,M,1.3,0123*6B\r\n
$GPGGA,080058.75,5703.2958013,N,00952.3669070,E,2,10,0.8,-1.934,M,40.592,M,1.3,0123*63\r\n
$GPGGA,080058.80,5703.2958044,N,00952.3668988,E,2,10,0.8,-1.933,M,40.592,M,1.3,0123*63\r\n
$GPGGA,080058.85,5703.2958076,N,00952.3668907,E,2,10,0.8,-1.933,M,40.592,M,1.5,0123*66\r\n
$GPGGA,080058.90,5703.2958105,N,00952.3668820,E,2,10,0.8,-1.934,M,40.592,M,1.5,0123*64\r\n
$GPGGA,080058.95,5703.2958143,N,00952.3668733,E,2,10,0.8,-1.935,M,40.592,M,1.5,0123*6F\r\n
$GPGGA,080059.00,5703.2958171,N,00952.3668639,E,2,10,0.8,-1.934,M,40.592,M,1.5,0123*69\r\n
$GPGGA,080059.05,5703.2958204,N,00952.3668525,E,2,10,0.8,-1.930,M,40.592,M,1.8,0123*6A\r\n
$GPGGA,080059.10,5703.2958246,N,00952.3668419,E,2,10,0.8,-1.929,M,40.592,M,1.8,0123*6E\r\n
$GPGGA,080059.15,5703.2958279,N,00952.3668317,E,2,10,0.8,-1.928,M,40.592,M,1.8,0123*6F\r\n
$GPGGA,080059.20,5703.2958309,N,00952.3668213,E,2,10,0.8,-1.925,M,40.592,M,1.8,0123*67\r\n
$GPGGA,080059.25,5703.2958345,N,00952.3668111,E,2,10,0.8,-1.921,M,40.592,M,2.1,0123*65\r\n
$GPGGA,080059.30,5703.2958381,N,00952.3668006,E,2,10,0.8,-1.921,M,40.592,M,2.1,0123*6E\r\n
$GPGGA,080059.35,5703.2958413,N,00952.3667895,E,2,10,0.8,-1.922,M,40.592,M,2.1,0123*69\r\n
$GPGGA,080059.40,5703.2958451,N,00952.3667775,E,2,10,0.8,-1.922,M,40.592,M,2.1,0123*6C\r\n
$GPGGA,080059.45,5703.2958493,N,00952.3667663,E,2,10,0.8,-1.921,M,40.592,M,2.3,0123*60\r\n
$GPGGA,080059.50,5703.2958532,N,00952.3667546,E,2,10,0.8,-1.922,M,40.592,M,2.3,0123*69\r\n
$GPGGA,080059.55,5703.2958574,N,00952.3667428,E,2,10,0.8,-1.921,M,40.592,M,2.3,0123*64\r\n
$GPGGA,080059.60,5703.2958625,N,00952.3667318,E,2,10,0.8,-1.920,M,40.592,M,2.3,0123*60\r\n
$GPGGA,080059.65,5703.2958662,N,00952.3667219,E,2,10,0.8,-1.933,M,40.592,M,1.0,0123*64\r\n
$GPGGA,080059.70,5703.2958704,N,00952.3667112,E,2,10,0.8,-1.934,M,40.592,M,1.0,0123*6E\r\n
$GPGGA,080059.75,5703.2958756,N,00952.3667010,E,2,10,0.8,-1.935,M,40.592,M,1.0,0123*6E\r\n
$GPGGA,080059.80,5703.2958808,N,00952.3666903,E,2,10,0.8,-1.938,M,40.592,M,1.0,0123*67\r\n
$GPGGA,080059.85,5703.2958865,N,00952.3666785,E,2,10,0.8,-1.940,M,40.592,M,1.3,0123*65\r\n
$GPGGA,080059.90,5703.2958925,N,00952.3666671,E,2,10,0.8,-1.941,M,40.592,M,1.3,0123*6F\r\n
$GPGGA,080059.95,5703.2958971,N,00952.3666566,E,2,10,0.8,-1.941,M,40.592,M,1.3,0123*6E\r\n
$GPGGA,080100.00,5703.2959017,N,00952.3666459,E,2,10,0.8,-1.941,M,40.592,M,1.3,0123*6A\r\n
$GPGGA,080100.05,5703.2959062,N,00952.3666341,E,2,10,0.8,-1.939,M,40.592,M,1.5,0123*6A\r\n
$GPGGA,080100.10,5703.2959104,N,00952.3666232,E,2,10,0.8,-1.939,M,40.592,M,1.5,0123*6A\r\n
$GPGGA,080100.15,5703.2959146,N,00952.3666126,E,2,10,0.8,-1.940,M,40.592,M,1.5,0123*61\r\n
$GPGGA,080100.20,5703.2959192,N,00952.3666010,E,2,10,0.8,-1.941,M,40.592,M,1.5,0123*6B\r\n
$GPGGA,080100.25,5703.2959237,N,00952.3665897,E,2,10,0.8,-1.938,M,40.592,M,1.8,0123*65\r\n
$GPGGA,080100.30,5703.2959290,N,00952.3665764,E,2,10,0.8,-1.937,M,40.592,M,1.8,0123*60\r\n
$GPGGA,080100.35,5703.2959347,N,00952.3665637,E,2,10,0.8,-1.936,M,40.592,M,1.8,0123*68\r\n
$GPGGA,080100.40,5703.2959403,N,00952.3665506,E,2,10,0.8,-1.936,M,40.592,M,1.8,0123*6C\r\n
$GPGGA,080100.45,5703.2959460,N,00952.3665377,E,2,10,0.8,-1.933,M,40.592,M,2.0,0123*62\r\n
$GPGGA,080100.50,5703.2959516,N,00952.3665248,E,2,10,0.8,-1.935,M,40.592,M,2.0,0123*6D\r\n
$GPGGA,080100.55,5703.2959574,N,00952.3665127,E,2,10,0.8,-1.937,M,40.592,M,2.0,0123*64\r\n
$GPGGA,080100.60,5703.2959628,N,00952.3665008,E,2,10,0.8,-1.937,M,40.592,M,2.0,0123*64\r\n
$GPGGA,080100.65,5703.2959691,N,00952.3664877,E,2,10,0.8,-1.942,M,40.592,M,2.2,0123*62\r\n
$GPGGA,080100.70,5703.2959764,N,00952.3664744,E,2,10,0.8,-1.942,M,40.592,M,2.2,0123*62\r\n
$GPGGA,080100.75,5703.2959821,N,00952.3664611,E,2,10,0.8,-1.942,M,40.592,M,2.2,0123*68\r\n
$GPGGA,080100.80,5703.2959866,N,00952.3664475,E,2,10,0.8,-1.945,M,40.592,M,2.2,0123*66\r\n
$GPGGA,080100.85,5703.2959915,N,00952.3664332,E,2,10,0.8,-1.943,M,40.592,M,2.4,0123*62\r\n
$GPGGA,080100.90,5703.2959981,N,00952.3664196,E,2,10,0.8,-1.944,M,40.592,M,2.4,0123*60\r\n
$GPGGA,080100.95,5703.2960043,N,00952.3664052,E,2,10,0.8,-1.944,M,40.592,M,2.4,0123*61\r\n
$GPGGA,080101.00,5703.2960106,N,00952.3663913,E,2,10,0.8,-1.946,M,40.592,M,2.4,0123*65\r\n
$GPGGA,080101.05,5703.2960166,N,00952.3663757,E,2,10,0.8,-1.950,M,40.592,M,2.7,0123*6C\r\n
$GPGGA,080101.10,5703.2960233,N,00952.3663611,E,2,10,0.8,-1.948,M,40.592,M,2.7,0123*61\r\n
$GPGGA,080101.15,5703.2960297,N,00952.3663467,E,2,10,0.8,-1.948,M,40.592,M,2.7,0123*69\r\n
$GPGGA,080101.20,5703.2960359,N,00952.3663343,E,2,10,0.8,-1.949,M,40.592,M,2.7,0123*6C\r\n
$GPGGA,080101.25,5703.2960423,N,00952.3663200,E,2,10,0.8,-1.944,M,40.592,M,2.9,0123*66\r\n
$GPGGA,080101.30,5703.2960487,N,00952.3663063,E,2,10,0.8,-1.946,M,40.592,M,2.9,0123*69\r\n
$GPGGA,080101.35,5703.2960541,N,00952.3662916,E,2,10,0.8,-1.945,M,40.592,M,2.9,0123*6E\r\n
$GPGGA,080101.40,5703.2960603,N,00952.3662766,E,2,10,0.8,-1.944,M,40.592,M,2.9,0123*61\r\n
$GPGGA,080101.45,5703.2960672,N,00952.3662626,E,2,10,0.8,-1.946,M,40.592,M,3.1,0123*6C\r\n
$GPGGA,080101.50,5703.2960741,N,00952.3662482,E,2,10,0.8,-1.945,M,40.592,M,3.1,0123*66\r\n
$GPGGA,080101.55,5703.2960813,N,00952.3662343,E,2,10,0.8,-1.945,M,40.592,M,3.1,0123*61\r\n
$GPGGA,080101.60,5703.2960881,N,00952.3662194,E,2,10,0.8,-1.943,M,40.592,M,3.1,0123*62\r\n
$GPGGA,080101.65,5703.2960954,N,00952.3662037,E,2,10,0.8,-1.940,M,40.592,M,1.4,0123*62\r\n
$GPGGA,080101.70,5703.2961023,N,00952.3661890,E,2,10,0.8,-1.937,M,40.592,M,1.4,0123*68\r\n
$GPGGA,080101.75,5703.2961102,N,00952.3661732,E,2,10,0.8,-1.936,M,40.592,M,1.4,0123*69\r\n
$GPGGA,080101.80,5703.2961175,N,00952.3661581,E,2,10,0.8,-1.932,M,40.592,M,1.4,0123*6D\r\n
$GPGGA,080101.85,5703.2961248,N,00952.3661439,E,2,10,0.8,-1.936,M,40.592,M,1.7,0123*60\r\n
$GPGGA,080101.90,5703.2961321,N,00952.3661289,E,2,10,0.8,-1.937,M,40.592,M,1.7,0123*66\r\n
$GPGGA,080101.95,5703.2961404,N,00952.3661134,E,2,10,0.8,-1.939,M,40.592,M,1.7,0123*68\r\n
$GPGGA,080102.00,5703.2961476,N,00952.3660970,E,2,10,0.8,-1.941,M,40.592,M,1.7,0123*64\r\n
$GPGGA,080102.05,5703.2961557,N,00952.3660793,E,2,10,0.8,-1.937,M,40.592,M,2.0,0123*65\r\n
$GPGGA,080102.10,5703.2961631,N,00952.3660641,E,2,10,0.8,-1.938,M,40.592,M,2.0,0123*63\r\n
$GPGGA,080102.15,5703.2961701,N,00952.3660488,E,2,10,0.8,-1.937,M,40.592,M,2.0,0123*6C\r\n
$GPGGA,080102.20,5703.2961781,N,00952.3660340,E,2,10,0.8,-1.938,M,40.592,M,2.0,0123*6E\r\n
$GPGGA,080102.25,5703.2961873,N,00952.3660183,E,2,10,0.8,-1.937,M,40.592,M,2.2,0123*69\r\n
$GPGGA,080102.30,5703.2961958,N,00952.3660014,E,2,10,0.8,-1.939,M,40.592,M,2.2,0123*64\r\n
$GPGGA,080102.35,5703.2962034,N,00952.3659854,E,2,10,0.8,-1.941,M,40.592,M,2.2,0123*68\r\n
$GPGGA,080102.40,5703.2962113,N,00952.3659688,E,2,10,0.8,-1.942,M,40.592,M,2.2,0123*62\r\n
$GPGGA,080102.45,5703.2962187,N,00952.3659512,E,2,10,0.8,-1.943,M,40.592,M,2.5,0123*6C\r\n
$GPGGA,080102.50,5703.2962270,N,00952.3659347,E,2,10,0.8,-1.944,M,40.592,M,2.5,0123*62\r\n
$GPGGA,080102.55,5703.2962357,N,00952.3659184,E,2,10,0.8,-1.944,M,40.592,M,2.5,0123*6E\r\n
$GPGGA,080102.60,5703.2962443,N,00952.3659019,E,2,10,0.8,-1.944,M,40.592,M,2.5,0123*6F\r\n
$GPGGA,080102.65,5703.2962525,N,00952.3658859,E,2,10,0.8,-1.942,M,40.592,M,1.3,0123*65\r\n
$GPGGA,080102.70,5703.2962615,N,00952.3658688,E,2,10,0.8,-1.942,M,40.592,M,1.3,0123*63\r\n
$GPGGA,080102.75,5703.2962711,N,00952.3658523,E,2,10,0.8,-1.942,M,40.592,M,1.3,0123*61\r\n
$GPGGA,080102.80,5703.2962794,N,00952.3658360,E,2,10,0.8,-1.943,M,40.592,M,1.3,0123*66\r\n
$GPGGA,080102.85,5703.2962875,N,00952.3658203,E,2,10,0.8,-1.944,M,40.592,M,1.5,0123*66\r\n
$GPGGA,080102.90,5703.2962956,N,00952.3658032,E,2,10,0.8,-1.944,M,40.592,M,1.5,0123*62\r\n
$GPGGA,080102.95,5703.2963044,N,00952.3657848,E,2,10,0.8,-1.946,M,40.592,M,1.5,0123*64\r\n
$GPGGA,080103.00,5703.2963141,N,00952.3657668,E,2,10,0.8,-1.947,M,40.592,M,1.5,0123*60\r\n
$GPGGA,080103.05,5703.2963230,N,00952.3657479,E,2,10,0.8,-1.944,M,40.592,M,1.8,0123*6C\r\n
$GPGGA,080103.10,5703.2963317,N,00952.3657320,E,2,10,0.8,-1.943,M,40.592,M,1.8,0123*60\r\n
$GPGGA,080103.15,5703.2963407,N,00952.3657152,E,2,10,0.8,-1.942,M,40.592,M,1.8,0123*65\r\n
$GPGGA,080103.20,5703.2963498,N,00952.3656958,E,2,10,0.8,-1.942,M,40.592,M,1.8,0123*66\r\n
$GPGGA,080103.25,5703.2963592,N,00952.3656774,E,2,10,0.8,-1.940,M,40.592,M,2.1,0123*60\r\n
$GPGGA,080103.30,5703.2963674,N,00952.3656603,E,2,10,0.8,-1.941,M,40.592,M,2.1,0123*6F\r\n
$GPGGA,080103.35,5703.2963760,N,00952.3656444,E,2,10,0.8,-1.941,M,40.592,M,2.1,0123*6F\r\n
$GPGGA,080103.40,5703.2963852,N,00952.3656280,E,2,10,0.8,-1.942,M,40.592,M,2.1,0123*6E\r\n
$GPGGA,080103.45,5703.2963954,N,00952.3656099,E,2,10,0.8,-1.943,M,40.592,M,2.3,0123*65\r\n
$GPGGA,080103.50,5703.2964054,N,00952.3655908,E,2,10,0.8,-1.946,M,40.592,M,2.3,0123*68\r\n
$GPGGA,080103.55,5703.2964154,N,00952.3655721,E,2,10,0.8,-1.946,M,40.592,M,2.3,0123*69\r\n
$GPGGA,080103.60,5703.2964257,N,00952.3655544,E,2,10,0.8,-1.945,M,40.592,M,2.3,0123*6D\r\n
$GPGGA,080103.65,5703.2964354,N,00952.3655388,E,2,10,0.8,-1.950,M,40.592,M,1.0,0123*68\r\n
$GPGGA,080103.70,5703.2964444,N,00952.3655214,E,2,10,0.8,-1.949,M,40.592,M,1.0,0123*66\r\n
$GPGGA,080103.75,5703.2964543,N,00952.3655034,E,2,10,0.8,-1.951,M,40.592,M,1.0,0123*6C\r\n
$GPGGA,080103.80,5703.2964638,N,00952.3654834,E,2,10,0.8,-1.950,M,40.592,M,1.0,0123*61\r\n
$GPGGA,080103.85,5703.2964748,N,00952.3654645,E,2,10,0.8,-1.949,M,40.592,M,1.3,0123*61\r\n
$GPGGA,080103.90,5703.2964849,N,00952.3654463,E,2,10,0.8,-1.948,M,40.592,M,1.3,0123*6C\r\n
$GPGGA,080103.95,5703.2964946,N,00952.3654285,E,2,10,0.8,-1.948,M,40.592,M,1.3,0123*69\r\n
$GPGGA,080104.00,5703.2965045,N,00952.3654101,E,2,10,0.8,-1.950,M,40.592,M,1.3,0123*6F\r\n
$GPGGA,080104.05,5703.2965149,N,00952.3653896,E,2,10,0.8,-1.947,M,40.592,M,1.5,0123*67\r\n
$GPGGA,080104.10,5703.2965251,N,00952.3653697,E,2,10,0.8,-1.947,M,40.592,M,1.5,0123*66\r\n
$GPGGA,080104.15,5703.2965368,N,00952.3653504,E,2,10,0.8,-1.944,M,40.592,M,1.5,0123*62\r\n
$GPGGA,080104.20,5703.2965466,N,00952.3653324,E,2,10,0.8,-1.941,M,40.592,M,1.5,0123*6C\r\n
$GPGGA,080104.25,5703.2965571,N,00952.3653137,E,2,10,0.8,-1.942,M,40.592,M,1.8,0123*60\r\n
$GPGGA,080104.30,5703.2965668,N,00952.3652942,E,2,10,0.8,-1.942,M,40.592,M,1.8,0123*64\r\n
$GPGGA,080104.35,5703.2965772,N,00952.3652751,E,2,10,0.8,-1.943,M,40.592,M,1.8,0123*66\r\n
$GPGGA,080104.40,5703.2965875,N,00952.3652559,E,2,10,0.8,-1.945,M,40.592,M,1.8,0123*60\r\n
$GPGGA,080104.45,5703.2965979,N,00952.3652364,E,2,10,0.8,-1.943,M,40.592,M,2.0,0123*6D\r\n
$GPGGA,080104.50,5703.2966076,N,00952.3652180,E,2,10,0.8,-1.944,M,40.592,M,2.0,0123*63\r\n
$GPGGA,080104.55,5703.2966174,N,00952.3651990,E,2,10,0.8,-1.943,M,40.592,M,2.0,0123*68\r\n
$GPGGA,080104.60,5703.2966289,N,00952.3651804,E,2,10,0.8,-1.944,M,40.592,M,2.0,0123*64\r\n
$GPGGA,080104.65,5703.2966405,N,00952.3651606,E,2,10,0.8,-1.940,M,40.592,M,2.2,0123*69\r\n
$GPGGA,080104.70,5703.2966523,N,00952.3651404,E,2,10,0.8,-1.939,M,40.592,M,2.2,0123*66\r\n
$GPGGA,080104.75,5703.2966645,N,00952.3651203,E,2,10,0.8,-1.936,M,40.592,M,2.2,0123*6E\r\n
$GPGGA,080104.80,5703.2966752,N,00952.3651007,E,2,10,0.8,-1.934,M,40.592,M,2.2,0123*67\r\n
$GPGGA,080104.85,5703.2966859,N,00952.3650829,E,2,10,0.8,-1.937,M,40.592,M,2.4,0123*66\r\n
$GPGGA,080104.90,5703.2966968,N,00952.3650648,E,2,10,0.8,-1.938,M,40.592,M,2.4,0123*67\r\n
$GPGGA,080104.95,5703.2967073,N,00952.3650445,E,2,10,0.8,-1.940,M,40.592,M,2.4,0123*60\r\n
$GPGGA,080105.00,5703.2967181,N,00952.3650219,E,2,10,0.8,-1.940,M,40.592,M,2.4,0123*6E\r\n
$GPGGA,080105.05,5703.2967287,N,00952.3650003,E,2,10,0.8,-1.942,M,40.592,M,2.7,0123*66\r\n
$GPGGA,080105.10,5703.2967404,N,00952.3649815,E,2,10,0.8,-1.943,M,40.592,M,2.7,0123*69\r\n
$GPGGA,080105.15,5703.2967517,N,00952.3649617,E,2,10,0.8,-1.945,M,40.592,M,2.7,0123*65\r\n
$GPGGA,080105.20,5703.2967634,N,00952.3649406,E,2,10,0.8,-1.946,M,40.592,M,2.7,0123*60\r\n
$GPGGA,080105.25,5703.2967748,N,00952.3649193,E,2,10,0.8,-1.946,M,40.592,M,2.9,0123*68\r\n
$GPGGA,080105.30,5703.2967852,N,00952.3649001,E,2,10,0.8,-1.950,M,40.592,M,2.9,0123*65\r\n
$GPGGA,080105.35,5703.2967966,N,00952.3648816,E,2,10,0.8,-1.951,M,40.592,M,2.9,0123*68\r\n
$GPGGA,080105.40,5703.2968077,N,00952.3648614,E,2,10,0.8,-1.951,M,40.592,M,2.9,0123*60\r\n
$GPGGA,080105.45,5703.2968205,N,00952.3648393,E,2,10,0.8,-1.947,M,40.592,M,3.1,0123*66\r\n
$GPGGA,080105.50,5703.2968325,N,00952.3648181,E,2,10,0.8,-1.946,M,40.592,M,3.1,0123*61\r\n
$GPGGA,080105.55,5703.2968438,N,00952.3647975,E,2,10,0.8,-1.946,M,40.592,M,3.1,0123*63\r\n
$GPGGA,080105.60,5703.2968563,N,00952.3647779,E,2,10,0.8,-1.945,M,40.592,M,3.1,0123*6B\r\n
$GPGGA,080105.65,5703.2968692,N,00952.3647567,E,2,10,0.8,-1.942,M,40.592,M,1.4,0123*6E\r\n
$GPGGA,080105.70,5703.2968815,N,00952.3647360,E,2,10,0.8,-1.942,M,40.592,M,1.4,0123*6A\r\n
$GPGGA,080105.75,5703.2968936,N,00952.3647152,E,2,10,0.8,-1.942,M,40.592,M,1.4,0123*6C\r\n
$GPGGA,080105.80,5703.2969064,N,00952.3646962,E,2,10,0.8,-1.945,M,40.592,M,1.4,0123*64\r\n
$GPGGA,080105.85,5703.2969177,N,00952.3646758,E,2,10,0.8,-1.949,M,40.592,M,1.7,0123*6A\r\n
$GPGGA,080105.90,5703.2969299,N,00952.3646555,E,2,10,0.8,-1.949,M,40.592,M,1.7,0123*62\r\n
$GPGGA,080105.95,5703.2969409,N,00952.3646343,E,2,10,0.8,-1.947,M,40.592,M,1.7,0123*67\r\n
$GPGGA,080106.00,5703.2969524,N,00952.3646125,E,2,10,0.8,-1.946,M,40.592,M,1.7,0123*65\r\n
$GPGGA,080106.05,5703.2969640,N,00952.3645902,E,2,10,0.8,-1.942,M,40.592,M,2.0,0123*6F\r\n
$GPGGA,080106.10,5703.2969756,N,00952.3645690,E,2,10,0.8,-1.940,M,40.592,M,2.0,0123*6B\r\n
$GPGGA,080106.15,5703.2969870,N,00952.3645479,E,2,10,0.8,-1.938,M,40.592,M,2.0,0123*6F\r\n
$GPGGA,080106.20,5703.2969999,N,00952.3645273,E,2,10,0.8,-1.938,M,40.592,M,2.0,0123*63\r\n
$GPGGA,080106.25,5703.2970134,N,00952.3645065,E,2,10,0.8,-1.933,M,40.592,M,2.2,0123*6D\r\n
$GPGGA,080106.30,5703.2970279,N,00952.3644852,E,2,10,0.8,-1.932,M,40.592,M,2.2,0123*6F\r\n
$GPGGA,080106.35,5703.2970411,N,00952.3644630,E,2,10,0.8,-1.932,M,40.592,M,2.2,0123*68\r\n
$GPGGA,080106.40,5703.2970523,N,00952.3644418,E,2,10,0.8,-1.934,M,40.592,M,2.2,0123*64\r\n
$GPGGA,080106.45,5703.2970625,N,00952.3644218,E,2,10,0.8,-1.942,M,40.592,M,2.5,0123*64\r\n
$GPGGA,080106.50,5703.2970751,N,00952.3644003,E,2,10,0.8,-1.945,M,40.592,M,2.5,0123*6D\r\n
$GPGGA,080106.55,5703.2970884,N,00952.3643769,E,2,10,0.8,-1.945,M,40.592,M,2.5,0123*63\r\n
$GPGGA,080106.60,5703.2971012,N,00952.3643543,E,2,10,0.8,-1.943,M,40.592,M,2.5,0123*6F\r\n
$GPGGA,080106.65,5703.2971144,N,00952.3643325,E,2,10,0.8,-1.938,M,40.592,M,1.3,0123*67\r\n
$GPGGA,080106.70,5703.2971273,N,00952.3643124,E,2,10,0.8,-1.939,M,40.592,M,1.3,0123*66\r\n
$GPGGA,080106.75,5703.2971400,N,00952.3642923,E,2,10,0.8,-1.940,M,40.592,M,1.3,0123*61\r\n
$GPGGA,080106.80,5703.2971532,N,00952.3642706,E,2,10,0.8,-1.937,M,40.592,M,1.3,0123*62\r\n
$GPGGA,080106.85,5703.2971663,N,00952.3642480,E,2,10,0.8,-1.939,M,40.592,M,1.5,0123*65\r\n
$GPGGA,080106.90,5703.2971796,N,00952.3642270,E,2,10,0.8,-1.940,M,40.592,M,1.5,0123*6D\r\n
$GPGGA,080106.95,5703.2971924,N,00952.3642062,E,2,10,0.8,-1.940,M,40.592,M,1.5,0123*6E\r\n
$GPGGA,080107.00,5703.2972057,N,00952.3641841,E,2,10,0.8,-1.943,M,40.592,M,1.5,0123*64\r\n
$GPGGA,080107.05,5703.2972184,N,00952.3641606,E,2,10,0.8,-1.946,M,40.592,M,1.8,0123*6B\r\n
$GPGGA,080107.10,5703.2972302,N,00952.3641375,E,2,10,0.8,-1.946,M,40.592,M,1.8,0123*62\r\n
$GPGGA,080107.15,5703.2972417,N,00952.3641154,E,2,10,0.8,-1.944,M,40.592,M,1.8,0123*67\r\n
$GPGGA,080107.20,5703.2972547,N,00952.3640937,E,2,10,0.8,-1.944,M,40.592,M,1.8,0123*69\r\n
$GPGGA,080107.25,5703.2972703,N,00952.3640716,E,2,10,0.8,-1.939,M,40.592,M,2.1,0123*63\r\n
$GPGGA,080107.30,5703.2972837,N,00952.3640507,E,2,10,0.8,-1.939,M,40.592,M,2.1,0123*6D\r\n
$GPGGA,080107.35,5703.2972968,N,00952.3640296,E,2,10,0.8,-1.939,M,40.592,M,2.1,0123*6C\r\n
$GPGGA,080107.40,5703.2973108,N,00952.3640075,E,2,10,0.8,-1.939,M,40.592,M,2.1,0123*6E\r\n
$GPGGA,080107.45,5703.2973245,N,00952.3639851,E,2,10,0.8,-1.942,M,40.592,M,2.3,0123*6F\r\n
$GPGGA,080107.50,5703.2973383,N,00952.3639620,E,2,10,0.8,-1.942,M,40.592,M,2.3,0123*68\r\n
$GPGGA,080107.55,5703.2973508,N,00952.3639402,E,2,10,0.8,-1.942,M,40.592,M,2.3,0123*6A\r\n
$GPGGA,080107.60,5703.2973630,N,00952.3639184,E,2,10,0.8,-1.942,M,40.592,M,2.3,0123*6F\r\n
$GPGGA,080107.65,5703.2973765,N,00952.3638955,E,2,10,0.8,-1.940,M,40.592,M,1.0,0123*6C\r\n
$GPGGA,080107.70,5703.2973922,N,00952.3638726,E,2,10,0.8,-1.939,M,40.592,M,1.0,0123*61\r\n
$GPGGA,080107.75,5703.2974065,N,00952.3638502,E,2,10,0.8,-1.939,M,40.592,M,1.0,0123*6D\r\n
$GPGGA,080107.80,5703.2974201,N,00952.3638278,E,2,10,0.8,-1.938,M,40.592,M,1.0,0123*6C\r\n
$GPGGA,080107.85,5703.2974339,N,00952.3638075,E,2,10,0.8,-1.936,M,40.592,M,1.3,0123*61\r\n
$GPGGA,080107.90,5703.2974472,N,00952.3637836,E,2,10,0.8,-1.937,M,40.592,M,1.3,0123*6C\r\n
$GPGGA,080107.95,5703.2974609,N,00952.3637600,E,2,10,0.8,-1.937,M,40.592,M,1.3,0123*6C\r\n
$GPGGA,080108.00,5703.2974750,N,00952.3637365,E,2,10,0.8,-1.937,M,40.592,M,1.3,0123*64\r\n
$GPGGA,080108.05,5703.2974883,N,00952.3637138,E,2,10,0.8,-1.940,M,40.592,M,1.5,0123*6C\r\n
$GPGGA,080108.10,5703.2975020,N,00952.3636940,E,2,10,0.8,-1.941,M,40.592,M,1.5,0123*6F\r\n
$GPGGA,080108.15,5703.2975176,N,00952.3636723,E,2,10,0.8,-1.943,M,40.592,M,1.5,0123*61\r\n
$GPGGA,080108.20,5703.2975329,N,00952.3636482,E,2,10,0.8,-1.944,M,40.592,M,1.5,0123*60\r\n
$GPGGA,080108.25,5703.2975468,N,00952.3636250,E,2,10,0.8,-1.941,M,40.592,M,1.8,0123*66\r\n
$GPGGA,080108.30,5703.2975595,N,00952.3636016,E,2,10,0.8,-1.939,M,40.592,M,1.8,0123*6E\r\n
$GPGGA,080108.35,5703.2975727,N,00952.3635779,E,2,10,0.8,-1.940,M,40.592,M,1.8,0123*63\r\n
$GPGGA,080108.40,5703.2975866,N,00952.3635560,E,2,10,0.8,-1.943,M,40.592,M,1.8,0123*62\r\n
$GPGGA,080108.45,5703.2976018,N,00952.3635334,E,2,10,0.8,-1.944,M,40.592,M,2.0,0123*6E\r\n
$GPGGA,080108.50,5703.2976169,N,00952.3635116,E,2,10,0.8,-1.944,M,40.592,M,2.0,0123*6F\r\n
$GPGGA,080108.55,5703.2976312,N,00952.3634896,E,2,10,0.8,-1.944,M,40.592,M,2.0,0123*64\r\n
$GPGGA,080108.60,5703.2976449,N,00952.3634673,E,2,10,0.8,-1.942,M,40.592,M,2.0,0123*68\r\n
$GPGGA,080108.65,5703.2976600,N,00952.3634434,E,2,10,0.8,-1.938,M,40.592,M,2.2,0123*6C\r\n
$GPGGA,080108.70,5703.2976756,N,00952.3634210,E,2,10,0.8,-1.935,M,40.592,M,2.2,0123*67\r\n
$GPGGA,080108.75,5703.2976904,N,00952.3633988,E,2,10,0.8,-1.934,M,40.592,M,2.2,0123*67\r\n
$GPGGA,080108.80,5703.2977049,N,00952.3633752,E,2,10,0.8,-1.934,M,40.592,M,2.2,0123*65\r\n
$GPGGA,080108.85,5703.2977182,N,00952.3633519,E,2,10,0.8,-1.937,M,40.592,M,2.4,0123*6E\r\n
$GPGGA,080108.90,5703.2977314,N,00952.3633302,E,2,10,0.8,-1.940,M,40.592,M,2.4,0123*6B\r\n
$GPGGA,080108.95,5703.2977458,N,00952.3633086,E,2,10,0.8,-1.941,M,40.592,M,2.4,0123*6F\r\n
$GPGGA,080109.00,5703.2977606,N,00952.3632867,E,2,10,0.8,-1.941,M,40.592,M,2.4,0123*6D\r\n
$GPGGA,080109.05,5703.2977756,N,00952.3632631,E,2,10,0.8,-1.940,M,40.592,M,2.7,0123*63\r\n
$GPGGA,080109.10,5703.2977905,N,00952.3632413,E,2,10,0.8,-1.942,M,40.592,M,2.7,0123*6F\r\n
$GPGGA,080109.15,5703.2978045,N,00952.3632204,E,2,10,0.8,-1.942,M,40.592,M,2.7,0123*68\r\n
$GPGGA,080109.20,5703.2978194,N,00952.3632003,E,2,10,0.8,-1.943,M,40.592,M,2.7,0123*67\r\n
$GPGGA,080109.25,5703.2978365,N,00952.3631784,E,2,10,0.8,-1.947,M,40.592,M,2.9,0123*6F\r\n
$GPGGA,080109.30,5703.2978511,N,00952.3631550,E,2,10,0.8,-1.949,M,40.592,M,2.9,0123*6B\r\n
$GPGGA,080109.35,5703.2978647,N,00952.3631326,E,2,10,0.8,-1.950,M,40.592,M,2.9,0123*61\r\n
$GPGGA,080109.40,5703.2978788,N,00952.3631096,E,2,10,0.8,-1.950,M,40.592,M,2.9,0123*69\r\n
$GPGGA,080109.45,5703.2978951,N,00952.3630850,E,2,10,0.8,-1.938,M,40.592,M,3.1,0123*62\r\n
$GPGGA,080109.50,5703.2979106,N,00952.3630624,E,2,10,0.8,-1.937,M,40.592,M,3.1,0123*6F\r\n
$GPGGA,080109.55,5703.2979261,N,00952.3630390,E,2,10,0.8,-1.938,M,40.592,M,3.1,0123*6D\r\n
$GPGGA,080109.60,5703.2979412,N,00952.3630155,E,2,10,0.8,-1.939,M,40.592,M,3.1,0123*63\r\n
$GPGGA,080109.65,5703.2979560,N,00952.3629951,E,2,10,0.8,-1.951,M,40.592,M,1.4,0123*6F\r\n
$GPGGA,080109.70,5703.2979718,N,00952.3629738,E,2,10,0.8,-1.955,M,40.592,M,1.4,0123*63\r\n
$GPGGA,080109.75,5703.2979888,N,00952.3629488,E,2,10,0.8,-1.956,M,40.592,M,1.4,0123*6B\r\n
$GPGGA,080109.80,5703.2980044,N,00952.3629249,E,2,10,0.8,-1.957,M,40.592,M,1.4,0123*65\r\n
$GPGGA,080109.85,5703.2980183,N,00952.3629032,E,2,10,0.8,-1.958,M,40.592,M,1.7,0123*68\r\n
$GPGGA,080109.90,5703.2980336,N,00952.3628809,E,2,10,0.8,-1.956,M,40.592,M,1.7,0123*6F\r\n
$GPGGA,080109.95,5703.2980490,N,00952.3628562,E,2,10,0.8,-1.957,M,40.592,M,1.7,0123*60\r\n
$GPGGA,080110.00,5703.2980640,N,00952.3628308,E,2,10,0.8,-1.956,M,40.592,M,1.7,0123*60\r\n
$GPGGA,080110.05,5703.2980821,N,00952.3628054,E,2,10,0.8,-1.944,M,40.592,M,2.0,0123*61\r\n
$GPGGA,080110.10,5703.2980995,N,00952.3627835,E,2,10,0.8,-1.943,M,40.592,M,2.0,0123*6C\r\n
$GPGGA,080110.15,5703.2981182,N,00952.3627612,E,2,10,0.8,-1.941,M,40.592,M,2.0,0123*6F\r\n
$GPGGA,080110.20,5703.2981347,N,00952.3627383,E,2,10,0.8,-1.942,M,40.592,M,2.0,0123*6C\r\n
$GPGGA,080110.25,5703.2981494,N,00952.3627158,E,2,10,0.8,-1.952,M,40.592,M,2.2,0123*67\r\n
$GPGGA,080110.30,5703.2981650,N,00952.3626913,E,2,10,0.8,-1.951,M,40.592,M,2.2,0123*6C\r\n
$GPGGA,080110.35,5703.2981808,N,00952.3626658,E,2,10,0.8,-1.947,M,40.592,M,2.2,0123*6D\r\n
$GPGGA,080110.40,5703.2981950,N,00952.3626416,E,2,10,0.8,-1.944,M,40.592,M,2.2,0123*68\r\n
$GPGGA,080110.45,5703.2982102,N,00952.3626164,E,2,10,0.8,-1.936,M,40.592,M,2.5,0123*63\r\n
$GPGGA,080110.50,5703.2982254,N,00952.3625926,E,2,10,0.8,-1.935,M,40.592,M,2.5,0123*69\r\n
$GPGGA,080110.55,5703.2982414,N,00952.3625703,E,2,10,0.8,-1.934,M,40.592,M,2.5,0123*66\r\n
$GPGGA,080110.60,5703.2982591,N,00952.3625474,E,2,10,0.8,-1.935,M,40.592,M,2.5,0123*6E\r\n
$GPGGA,080110.65,5703.2982761,N,00952.3625242,E,2,10,0.8,-1.943,M,40.592,M,1.3,0123*61\r\n
$GPGGA,080110.70,5703.2982917,N,00952.3625001,E,2,10,0.8,-1.944,M,40.592,M,1.3,0123*68\r\n
$GPGGA,080110.75,5703.2983065,N,00952.3624755,E,2,10,0.8,-1.944,M,40.592,M,1.3,0123*67\r\n
$GPGGA,080110.80,5703.2983220,N,00952.3624495,E,2,10,0.8,-1.942,M,40.592,M,1.3,0123*67\r\n
$GPGGA,080110.85,5703.2983406,N,00952.3624236,E,2,10,0.8,-1.938,M,40.592,M,1.5,0123*64\r\n
$GPGGA,080110.90,5703.2983572,N,00952.3624016,E,2,10,0.8,-1.936,M,40.592,M,1.5,0123*6C\r\n
$GPGGA,080110.95,5703.2983714,N,00952.3623788,E,2,10,0.8,-1.937,M,40.592,M,1.5,0123*6D\r\n
$GPGGA,080111.00,5703.2983863,N,00952.3623529,E,2,10,0.8,-1.938,M,40.592,M,1.5,0123*69\r\n
$GPGGA,080111.05,5703.2984057,N,00952.3623279,E,2,10,0.8,-1.936,M,40.592,M,1.8,0123*65\r\n
$GPGGA,080111.10,5703.2984241,N,00952.3623051,E,2,10,0.8,-1.938,M,40.592,M,1.8,0123*62\r\n
$GPGGA,080111.15,5703.2984395,N,00952.3622792,E,2,10,0.8,-1.940,M,40.592,M,1.8,0123*69\r\n
$GPGGA,080111.20,5703.2984536,N,00952.3622539,E,2,10,0.8,-1.941,M,40.592,M,1.8,0123*62\r\n
$GPGGA,080111.25,5703.2984698,N,00952.3622298,E,2,10,0.8,-1.939,M,40.592,M,2.1,0123*69\r\n
$GPGGA,080111.30,5703.2984868,N,00952.3622070,E,2,10,0.8,-1.942,M,40.592,M,2.1,0123*64\r\n
$GPGGA,080111.35,5703.2985028,N,00952.3621836,E,2,10,0.8,-1.944,M,40.592,M,2.1,0123*63\r\n
$GPGGA,080111.40,5703.2985187,N,00952.3621598,E,2,10,0.8,-1.945,M,40.592,M,2.1,0123*6D\r\n
$GPGGA,080111.45,5703.2985346,N,00952.3621347,E,2,10,0.8,-1.946,M,40.592,M,2.3,0123*62\r\n
$GPGGA,080111.50,5703.2985519,N,00952.3621092,E,2,10,0.8,-1.948,M,40.592,M,2.3,0123*6F\r\n
$GPGGA,080111.55,5703.2985692,N,00952.3620850,E,2,10,0.8,-1.950,M,40.592,M,2.3,0123*64\r\n
$GPGGA,080111.60,5703.2985843,N,00952.3620598,E,2,10,0.8,-1.949,M,40.592,M,2.3,0123*61\r\n
$GPGGA,080111.65,5703.2985994,N,00952.3620328,E,2,10,0.8,-1.942,M,40.592,M,1.0,0123*69\r\n
$GPGGA,080111.70,5703.2986143,N,00952.3620074,E,2,10,0.8,-1.941,M,40.592,M,1.0,0123*65\r\n
$GPGGA,080111.75,5703.2986328,N,00952.3619845,E,2,10,0.8,-1.940,M,40.592,M,1.0,0123*6E\r\n
$GPGGA,080111.80,5703.2986500,N,00952.3619619,E,2,10,0.8,-1.940,M,40.592,M,1.0,0123*6F\r\n
$GPGGA,080111.85,5703.2986660,N,00952.3619370,E,2,10,0.8,-1.941,M,40.592,M,1.3,0123*67\r\n
$GPGGA,080111.90,5703.2986815,N,00952.3619118,E,2,10,0.8,-1.941,M,40.592,M,1.3,0123*63\r\n
$GPGGA,080111.95,5703.2986968,N,00952.3618876,E,2,10,0.8,-1.942,M,40.592,M,1.3,0123*6E\r\n
$GPGGA,080112.00,5703.2987140,N,00952.3618621,E,2,10,0.8,-1.942,M,40.592,M,1.3,0123*6E\r\n
$GPGGA,080112.05,5703.2987318,N,00952.3618353,E,2,10,0.8,-1.941,M,40.592,M,1.5,0123*61\r\n
$GPGGA,080112.10,5703.2987462,N,00952.3618098,E,2,10,0.8,-1.940,M,40.592,M,1.5,0123*6A\r\n
$GPGGA,080112.15,5703.2987624,N,00952.3617840,E,2,10,0.8,-1.942,M,40.592,M,1.5,0123*6F\r\n
$GPGGA,080112.20,5703.2987792,N,00952.3617586,E,2,10,0.8,-1.943,M,40.592,M,1.5,0123*63\r\n
$GPGGA,080112.25,5703.2987966,N,00952.3617346,E,2,10,0.8,-1.938,M,40.592,M,1.8,0123*68\r\n
$GPGGA,080112.30,5703.2988129,N,00952.3617089,E,2,10,0.8,-1.938,M,40.592,M,1.8,0123*60\r\n
$GPGGA,080112.35,5703.2988296,N,00952.3616811,E,2,10,0.8,-1.939,M,40.592,M,1.8,0123*6B\r\n
$GPGGA,080112.40,5703.2988463,N,00952.3616567,E,2,10,0.8,-1.940,M,40.592,M,1.8,0123*67\r\n
