$GPGGA,083030.25,5703.3474281,N,00952.2104579,E,2,10,1.0,-1.803,M,40.593,M,3.0,0123*6D\r\n
$GPGGA,083030.30,5703.3474449,N,00952.2104344,E,2,10,1.0,-1.804,M,40.593,M,3.0,0123*64\r\n
$GPGGA,083030.35,5703.3474623,N,00952.2104109,E,2,10,1.0,-1.802,M,40.593,M,3.0,0123*62\r\n
$GPGGA,083030.40,5703.3474790,N,00952.2103878,E,2,10,1.0,-1.803,M,40.593,M,3.0,0123*60\r\n
$GPGGA,083030.45,5703.3474958,N,00952.2103645,E,2,10,1.0,-1.807,M,40.593,M,3.2,0123*69\r\n
$GPGGA,083030.50,5703.3475144,N,00952.2103408,E,2,10,1.0,-1.807,M,40.593,M,3.2,0123*62\r\n
$GPGGA,083030.55,5703.3475324,N,00952.2103163,E,2,10,1.0,-1.809,M,40.593,M,3.2,0123*65\r\n
$GPGGA,083030.60,5703.3475500,N,00952.2102924,E,2,10,1.0,-1.810,M,40.593,M,3.2,0123*61\r\n
$GPGGA,083030.65,5703.3475678,N,00952.2102685,E,2,10,1.0,-1.808,M,40.593,M,3.4,0123*63\r\n
$GPGGA,083030.70,5703.3475857,N,00952.2102439,E,2,10,1.0,-1.807,M,40.593,M,3.4,0123*6E\r\n
$GPGGA,083030.75,5703.3476045,N,00952.2102192,E,2,10,1.0,-1.806,M,40.593,M,3.4,0123*66\r\n
$GPGGA,083030.80,5703.3476212,N,00952.2101958,E,2,10,1.0,-1.804,M,40.593,M,3.4,0123*63\r\n
$GPGGA,083030.85,5703.3476383,N,00952.2101743,E,2,10,1.0,-1.803,M,40.593,M,3.6,0123*6E\r\n
$GPGGA,083030.90,5703.3476554,N,00952.2101521,E,2,10,1.0,-1.804,M,40.593,M,3.6,0123*67\r\n
$GPGGA,083030.95,5703.3476722,N,00952.2101303,E,2,10,1.0,-1.804,M,40.593,M,3.6,0123*67\r\n
$GPGGA,083031.00,5703.3476895,N,00952.2101070,E,2,10,1.0,-1.804,M,40.593,M,3.6,0123*6E\r\n
$GPGGA,083031.05,5703.3477064,N,00952.2100844,E,2,10,1.0,-1.800,M,40.593,M,3.8,0123*68\r\n
$GPGGA,083031.10,5703.3477250,N,00952.2100614,E,2,10,1.0,-1.800,M,40.593,M,3.8,0123*62\r\n
$GPGGA,083031.15,5703.3477438,N,00952.2100389,E,2,10,1.0,-1.799,M,40.593,M,3.8,0123*61\r\n
$GPGGA,083031.20,5703.3477618,N,00952.2100150,E,2,10,1.0,-1.800,M,40.593,M,3.8,0123*6E\r\n
$GPGGA,083031.25,5703.3477795,N,00952.2099906,E,2,10,1.0,-1.796,M,40.593,M,2.2,0123*6E\r\n
$GPGGA,083031.30,5703.3477979,N,00952.2099668,E,2,10,1.0,-1.795,M,40.593,M,2.2,0123*62\r\n
$GPGGA,083031.35,5703.3478155,N,00952.2099439,E,2,10,1.0,-1.795,M,40.593,M,2.2,0123*68\r\n
$GPGGA,083031.40,5703.3478340,N,00952.2099203,E,2,10,1.0,-1.794,M,40.593,M,2.2,0123*62\r\n
$GPGGA,083031.45,5703.3478512,N,00952.2098974,E,2,10,1.0,-1.796,M,40.593,M,2.4,0123*68\r\n
$GPGGA,083031.50,5703.3478685,N,00952.2098752,E,2,10,1.0,-1.796,M,40.593,M,2.4,0123*6B\r\n
$GPGGA,083031.55,5703.3478855,N,00952.2098534,E,2,10,1.0,-1.797,M,40.593,M,2.4,0123*6E\r\n
$GPGGA,083031.60,5703.3479031,N,00952.2098311,E,2,10,1.0,-1.798,M,40.593,M,2.4,0123*6D\r\n
$GPGGA,083031.65,5703.3479223,N,00952.2098085,E,2,10,1.0,-1.794,M,40.593,M,2.7,0123*68\r\n
$GPGGA,083031.70,5703.3479407,N,00952.2097854,E,2,10,1.0,-1.795,M,40.593,M,2.7,0123*66\r\n
$GPGGA,083031.75,5703.3479583,N,00952.2097620,E,2,10,1.0,-1.797,M,40.593,M,2.7,0123*61\r\n
$GPGGA,083031.80,5703.3479763,N,00952.2097396,E,2,10,1.0,-1.800,M,40.593,M,2.7,0123*6E\r\n
$GPGGA,083031.85,5703.3479939,N,00952.2097169,E,2,10,1.0,-1.803,M,40.593,M,2.9,0123*65\r\n
$GPGGA,083031.90,5703.3480137,N,00952.2096934,E,2,10,1.0,-1.804,M,40.593,M,2.9,0123*67\r\n
$GPGGA,083031.95,5703.3480324,N,00952.2096701,E,2,10,1.0,-1.803,M,40.593,M,2.9,0123*6D\r\n
$GPGGA,083032.00,5703.3480504,N,00952.2096482,E,2,10,1.0,-1.804,M,40.593,M,2.9,0123*69\r\n
$GPGGA,083032.05,5703.3480683,N,00952.2096256,E,2,10,1.0,-1.800,M,40.593,M,3.2,0123*61\r\n
$GPGGA,083032.10,5703.3480859,N,00952.2096036,E,2,10,1.0,-1.800,M,40.593,M,3.2,0123*68\r\n
$GPGGA,083032.15,5703.3481039,N,00952.2095828,E,2,10,1.0,-1.800,M,40.593,M,3.2,0123*66\r\n
$GPGGA,083032.20,5703.3481211,N,00952.2095603,E,2,10,1.0,-1.800,M,40.593,M,3.2,0123*6F\r\n
$GPGGA,083032.25,5703.3481384,N,00952.2095384,E,2,10,1.0,-1.800,M,40.593,M,2.0,0123*6E\r\n
$GPGGA,083032.30,5703.3481561,N,00952.2095169,E,2,10,1.0,-1.800,M,40.593,M,2.0,0123*66\r\n
$GPGGA,083032.35,5703.3481751,N,00952.2094936,E,2,10,1.0,-1.802,M,40.593,M,2.0,0123*63\r\n
$GPGGA,083032.40,5703.3481943,N,00952.2094699,E,2,10,1.0,-1.801,M,40.593,M,2.0,0123*65\r\n
$GPGGA,083032.45,5703.3482138,N,00952.2094458,E,2,10,1.0,-1.799,M,40.593,M,2.2,0123*64\r\n
$GPGGA,083032.50,5703.3482325,N,00952.2094226,E,2,10,1.0,-1.799,M,40.593,M,2.2,0123*61\r\n
$GPGGA,083032.55,5703.3482488,N,00952.2094031,E,2,10,1.0,-1.803,M,40.593,M,2.2,0123*6C\r\n
$GPGGA,083032.60,5703.3482664,N,00952.2093832,E,2,10,1.0,-1.807,M,40.593,M,2.2,0123*62\r\n
$GPGGA,083032.65,5703.3482853,N,00952.2093622,E,2,10,1.0,-1.805,M,40.593,M,2.4,0123*66\r\n
$GPGGA,083032.70,5703.3483050,N,00952.2093408,E,2,10,1.0,-1.803,M,40.593,M,2.4,0123*64\r\n
$GPGGA,083032.75,5703.3483239,N,00952.2093180,E,2,10,1.0,-1.802,M,40.593,M,2.4,0123*68\r\n
$GPGGA,083032.80,5703.3483426,N,00952.2092948,E,2,10,1.0,-1.804,M,40.593,M,2.4,0123*61\r\n
$GPGGA,083032.85,5703.3483606,N,00952.2092708,E,2,10,1.0,-1.807,M,40.593,M,2.7,0123*6E\r\n
$GPGGA,083032.90,5703.3483796,N,00952.2092477,E,2,10,1.0,-1.810,M,40.593,M,2.7,0123*6F\r\n
$GPGGA,083032.95,5703.3483994,N,00952.2092238,E,2,10,1.0,-1.812,M,40.593,M,2.7,0123*69\r\n
$GPGGA,083033.00,5703.3484187,N,00952.2092027,E,2,10,1.0,-1.812,M,40.593,M,2.7,0123*65\r\n
$GPGGA,083033.05,5703.3484376,N,00952.2091815,E,2,10,1.0,-1.806,M,40.593,M,2.9,0123*6D\r\n
$GPGGA,083033.10,5703.3484556,N,00952.2091598,E,2,10,1.0,-1.803,M,40.593,M,2.9,0123*60\r\n
$GPGGA,083033.15,5703.3484729,N,00952.2091392,E,2,10,1.0,-1.800,M,40.593,M,2.9,0123*60\r\n
$GPGGA,083033.20,5703.3484914,N,00952.2091176,E,2,10,1.0,-1.797,M,40.593,M,2.9,0123*6F\r\n
$GPGGA,083033.25,5703.3485103,N,00952.2090952,E,2,10,1.0,-1.797,M,40.593,M,1.9,0123*69\r\n
$GPGGA,083033.30,5703.3485296,N,00952.2090726,E,2,10,1.0,-1.794,M,40.593,M,1.9,0123*6C\r\n
$GPGGA,083033.35,5703.3485481,N,00952.2090509,E,2,10,1.0,-1.793,M,40.593,M,1.9,0123*61\r\n
$GPGGA,083033.40,5703.3485675,N,00952.2090280,E,2,10,1.0,-1.792,M,40.593,M,1.9,0123*6D\r\n
$GPGGA,083033.45,5703.3485881,N,00952.2090056,E,2,10,1.0,-1.787,M,40.593,M,2.1,0123*6B\r\n
$GPGGA,083033.50,5703.3486065,N,00952.2089847,E,2,10,1.0,-1.786,M,40.593,M,2.1,0123*6F\r\n
$GPGGA,083033.55,5703.3486251,N,00952.2089642,E,2,10,1.0,-1.786,M,40.593,M,2.1,0123*64\r\n
$GPGGA,083033.60,5703.3486430,N,00952.2089451,E,2,10,1.0,-1.787,M,40.593,M,2.1,0123*62\r\n
$GPGGA,083033.65,5703.3486601,N,00952.2089265,E,2,10,1.0,-1.791,M,40.593,M,2.3,0123*63\r\n
$GPGGA,083033.70,5703.3486786,N,00952.2089052,E,2,10,1.0,-1.793,M,40.593,M,2.3,0123*6D\r\n
$GPGGA,083033.75,5703.3486975,N,00952.2088838,E,2,10,1.0,-1.795,M,40.593,M,2.3,0123*69\r\n
$GPGGA,083033.80,5703.3487159,N,00952.2088640,E,2,10,1.0,-1.798,M,40.593,M,2.3,0123*68\r\n
$GPGGA,083033.85,5703.3487350,N,00952.2088428,E,2,10,1.0,-1.800,M,40.593,M,2.6,0123*61\r\n
$GPGGA,083033.90,5703.3487547,N,00952.2088215,E,2,10,1.0,-1.802,M,40.593,M,2.6,0123*6F\r\n
$GPGGA,083033.95,5703.3487731,N,00952.2088004,E,2,10,1.0,-1.802,M,40.593,M,2.6,0123*6B\r\n
$GPGGA,083034.00,5703.3487925,N,00952.2087784,E,2,10,1.0,-1.803,M,40.593,M,2.6,0123*6A\r\n
$GPGGA,083034.05,5703.3488120,N,00952.2087573,E,2,10,1.0,-1.804,M,40.593,M,2.8,0123*6E\r\n
$GPGGA,083034.10,5703.3488306,N,00952.2087373,E,2,10,1.0,-1.807,M,40.593,M,2.8,0123*69\r\n
$GPGGA,083034.15,5703.3488493,N,00952.2087159,E,2,10,1.0,-1.809,M,40.593,M,2.8,0123*63\r\n
$GPGGA,083034.20,5703.3488679,N,00952.2086951,E,2,10,1.0,-1.809,M,40.593,M,2.8,0123*62\r\n
$GPGGA,083034.25,5703.3488873,N,00952.2086744,E,2,10,1.0,-1.810,M,40.593,M,3.0,0123*68\r\n
$GPGGA,083034.30,5703.3489067,N,00952.2086527,E,2,10,1.0,-1.811,M,40.593,M,3.0,0123*66\r\n
$GPGGA,083034.35,5703.3489251,N,00952.2086309,E,2,10,1.0,-1.814,M,40.593,M,3.0,0123*6B\r\n
$GPGGA,083034.40,5703.3489448,N,00952.2086091,E,2,10,1.0,-1.815,M,40.593,M,3.0,0123*64\r\n
$GPGGA,083034.45,5703.3489656,N,00952.2085882,E,2,10,1.0,-1.817,M,40.593,M,3.2,0123*65\r\n
$GPGGA,083034.50,5703.3489846,N,00952.2085671,E,2,10,1.0,-1.820,M,40.593,M,3.2,0123*68\r\n
$GPGGA,083034.55,5703.3490037,N,00952.2085466,E,2,10,1.0,-1.822,M,40.593,M,3.2,0123*6D\r\n
$GPGGA,083034.60,5703.3490232,N,00952.2085257,E,2,10,1.0,-1.821,M,40.593,M,3.2,0123*6B\r\n
$GPGGA,083034.65,5703.3490441,N,00952.2085048,E,2,10,1.0,-1.816,M,40.593,M,3.4,0123*62\r\n
$GPGGA,083034.70,5703.3490635,N,00952.2084850,E,2,10,1.0,-1.814,M,40.593,M,3.4,0123*65\r\n
$GPGGA,083034.75,5703.3490831,N,00952.2084644,E,2,10,1.0,-1.814,M,40.593,M,3.4,0123*61\r\n
$GPGGA,083034.80,5703.3491020,N,00952.2084431,E,2,10,1.0,-1.814,M,40.593,M,3.4,0123*62\r\n
$GPGGA,083034.85,5703.3491221,N,00952.2084219,E,2,10,1.0,-1.812,M,40.593,M,3.6,0123*6C\r\n
$GPGGA,083034.90,5703.3491408,N,00952.2084014,E,2,10,1.0,-1.811,M,40.593,M,3.6,0123*69\r\n
$GPGGA,083034.95,5703.3491614,N,00952.2083802,E,2,10,1.0,-1.810,M,40.593,M,3.6,0123*6A\r\n
$GPGGA,083035.00,5703.3491811,N,00952.2083588,E,2,10,1.0,-1.810,M,40.593,M,3.6,0123*63\r\n
$GPGGA,083035.05,5703.3492011,N,00952.2083385,E,2,10,1.0,-1.806,M,40.593,M,3.8,0123*6F\r\n
$GPGGA,083035.10,5703.3492216,N,00952.2083178,E,2,10,1.0,-1.804,M,40.593,M,3.8,0123*6C\r\n
$GPGGA,083035.15,5703.3492422,N,00952.2082967,E,2,10,1.0,-1.803,M,40.593,M,3.8,0123*68\r\n
$GPGGA,083035.20,5703.3492623,N,00952.2082753,E,2,10,1.0,-1.802,M,40.593,M,3.8,0123*65\r\n
$GPGGA,083035.25,5703.3492834,N,00952.2082542,E,2,10,1.0,-1.797,M,40.593,M,2.2,0123*62\r\n
$GPGGA,083035.30,5703.3493031,N,00952.2082330,E,2,10,1.0,-1.796,M,40.593,M,2.2,0123*68\r\n
$GPGGA,083035.35,5703.3493235,N,00952.2082120,E,2,10,1.0,-1.795,M,40.593,M,2.2,0123*6B\r\n
$GPGGA,083035.40,5703.3493439,N,00952.2081913,E,2,10,1.0,-1.797,M,40.593,M,2.2,0123*6A\r\n
$GPGGA,083035.45,5703.3493644,N,00952.2081709,E,2,10,1.0,-1.802,M,40.593,M,2.4,0123*67\r\n
$GPGGA,083035.50,5703.3493851,N,00952.2081503,E,2,10,1.0,-1.803,M,40.593,M,2.4,0123*60\r\n
$GPGGA,083035.55,5703.3494056,N,00952.2081299,E,2,10,1.0,-1.803,M,40.593,M,2.4,0123*69\r\n
$GPGGA,083035.60,5703.3494254,N,00952.2081092,E,2,10,1.0,-1.804,M,40.593,M,2.4,0123*61\r\n
$GPGGA,083035.65,5703.3494471,N,00952.2080877,E,2,10,1.0,-1.802,M,40.593,M,2.7,0123*62\r\n
$GPGGA,083035.70,5703.3494688,N,00952.2080669,E,2,10,1.0,-1.802,M,40.593,M,2.7,0123*63\r\n
$GPGGA,083035.75,5703.3494899,N,00952.2080462,E,2,10,1.0,-1.799,M,40.593,M,2.7,0123*6C\r\n
$GPGGA,083035.80,5703.3495090,N,00952.2080265,E,2,10,1.0,-1.796,M,40.593,M,2.7,0123*68\r\n
$GPGGA,083035.85,5703.3495292,N,00952.2080052,E,2,10,1.0,-1.796,M,40.593,M,2.9,0123*65\r\n
$GPGGA,083035.90,5703.3495494,N,00952.2079840,E,2,10,1.0,-1.796,M,40.593,M,2.9,0123*6C\r\n
$GPGGA,083035.95,5703.3495690,N,00952.2079632,E,2,10,1.0,-1.798,M,40.593,M,2.9,0123*6A\r\n
$GPGGA,083036.00,5703.3495887,N,00952.2079416,E,2,10,1.0,-1.799,M,40.593,M,2.9,0123*68\r\n
$GPGGA,083036.05,5703.3496090,N,00952.2079208,E,2,10,1.0,-1.801,M,40.593,M,3.2,0123*6D\r\n
$GPGGA,083036.10,5703.3496303,N,00952.2078986,E,2,10,1.0,-1.800,M,40.593,M,3.2,0123*6D\r\n
$GPGGA,083036.15,5703.3496513,N,00952.2078753,E,2,10,1.0,-1.800,M,40.593,M,3.2,0123*69\r\n
$GPGGA,083036.20,5703.3496719,N,00952.2078525,E,2,10,1.0,-1.799,M,40.593,M,3.2,0123*6B\r\n
$GPGGA,083036.25,5703.3496914,N,00952.2078310,E,2,10,1.0,-1.798,M,40.593,M,2.0,0123*6F\r\n
$GPGGA,083036.30,5703.3497111,N,00952.2078105,E,2,10,1.0,-1.798,M,40.593,M,2.0,0123*61\r\n
$GPGGA,083036.35,5703.3497311,N,00952.2077893,E,2,10,1.0,-1.798,M,40.593,M,2.0,0123*6F\r\n
$GPGGA,083036.40,5703.3497519,N,00952.2077678,E,2,10,1.0,-1.796,M,40.593,M,2.0,0123*66\r\n
$GPGGA,083036.45,5703.3497720,N,00952.2077468,E,2,10,1.0,-1.798,M,40.593,M,2.2,0123*64\r\n
$GPGGA,083036.50,5703.3497916,N,00952.2077265,E,2,10,1.0,-1.796,M,40.593,M,2.2,0123*6E\r\n
$GPGGA,083036.55,5703.3498117,N,00952.2077060,E,2,10,1.0,-1.797,M,40.593,M,2.2,0123*6B\r\n
$GPGGA,083036.60,5703.3498324,N,00952.2076844,E,2,10,1.0,-1.798,M,40.593,M,2.2,0123*6F\r\n
$GPGGA,083036.65,5703.3498541,N,00952.2076626,E,2,10,1.0,-1.796,M,40.593,M,2.4,0123*6D\r\n
$GPGGA,083036.70,5703.3498751,N,00952.2076415,E,2,10,1.0,-1.797,M,40.593,M,2.4,0123*69\r\n
$GPGGA,083036.75,5703.3498953,N,00952.2076211,E,2,10,1.0,-1.798,M,40.593,M,2.4,0123*6D\r\n
$GPGGA,083036.80,5703.3499159,N,00952.2075996,E,2,10,1.0,-1.799,M,40.593,M,2.4,0123*62\r\n
$GPGGA,083036.85,5703.3499376,N,00952.2075780,E,2,10,1.0,-1.798,M,40.593,M,2.7,0123*63\r\n
$GPGGA,083036.90,5703.3499605,N,00952.2075555,E,2,10,1.0,-1.798,M,40.593,M,2.7,0123*6C\r\n
$GPGGA,083036.95,5703.3499830,N,00952.2075335,E,2,10,1.0,-1.796,M,40.593,M,2.7,0123*6F\r\n
$GPGGA,083037.00,5703.3500058,N,00952.2075105,E,2,10,1.0,-1.796,M,40.593,M,2.7,0123*64\r\n
$GPGGA,083037.05,5703.3500302,N,00952.2074882,E,2,10,1.0,-1.789,M,40.593,M,2.9,0123*6A\r\n
$GPGGA,083037.10,5703.3500544,N,00952.2074643,E,2,10,1.0,-1.786,M,40.593,M,2.9,0123*66\r\n
$GPGGA,083037.15,5703.3500782,N,00952.2074424,E,2,10,1.0,-1.783,M,40.593,M,2.9,0123*6D\r\n
$GPGGA,083037.20,5703.3501021,N,00952.2074191,E,2,10,1.0,-1.781,M,40.593,M,2.9,0123*6D\r\n
$GPGGA,083037.25,5703.3501276,N,00952.2073957,E,2,10,1.0,-1.778,M,40.593,M,1.9,0123*68\r\n
$GPGGA,083037.30,5703.3501528,N,00952.2073730,E,2,10,1.0,-1.775,M,40.593,M,1.9,0123*62\r\n
$GPGGA,083037.35,5703.3501799,N,00952.2073500,E,2,10,1.0,-1.773,M,40.593,M,1.9,0123*68\r\n
$GPGGA,083037.40,5703.3502084,N,00952.2073255,E,2,10,1.0,-1.768,M,40.593,M,1.9,0123*6F\r\n
$GPGGA,083037.45,5703.3502369,N,00952.2073013,E,2,10,1.0,-1.764,M,40.593,M,2.1,0123*6D\r\n
$GPGGA,083037.50,5703.3502659,N,00952.2072761,E,2,10,1.0,-1.759,M,40.593,M,2.1,0123*62\r\n
$GPGGA,083037.55,5703.3502960,N,00952.2072500,E,2,10,1.0,-1.756,M,40.593,M,2.1,0123*68\r\n
$GPGGA,083037.60,5703.3503276,N,00952.2072235,E,2,10,1.0,-1.752,M,40.593,M,2.1,0123*66\r\n
$GPGGA,083037.65,5703.3503602,N,00952.2071968,E,2,10,1.0,-1.748,M,40.593,M,2.3,0123*6D\r\n
$GPGGA,083037.70,5703.3503929,N,00952.2071688,E,2,10,1.0,-1.745,M,40.593,M,2.3,0123*63\r\n
$GPGGA,083037.75,5703.3504264,N,00952.2071413,E,2,10,1.0,-1.743,M,40.593,M,2.3,0123*65\r\n
$GPGGA,083037.80,5703.3504610,N,00952.2071139,E,2,10,1.0,-1.741,M,40.593,M,2.3,0123*67\r\n
$GPGGA,083037.85,5703.3504966,N,00952.2070854,E,2,10,1.0,-1.738,M,40.593,M,2.6,0123*64\r\n
$GPGGA,083037.90,5703.3505329,N,00952.2070583,E,2,10,1.0,-1.735,M,40.593,M,2.6,0123*6A\r\n
$GPGGA,083037.95,5703.3505700,N,00952.2070302,E,2,10,1.0,-1.730,M,40.593,M,2.6,0123*6A\r\n
$GPGGA,083038.00,5703.3506085,N,00952.2070021,E,2,10,1.0,-1.728,M,40.593,M,2.6,0123*6B\r\n
$GPGGA,083038.05,5703.3506472,N,00952.2069743,E,2,10,1.0,-1.727,M,40.593,M,2.8,0123*68\r\n
$GPGGA,083038.10,5703.3506867,N,00952.2069461,E,2,10,1.0,-1.725,M,40.593,M,2.8,0123*65\r\n
$GPGGA,083038.15,5703.3507273,N,00952.2069180,E,2,10,1.0,-1.722,M,40.593,M,2.8,0123*63\r\n
$GPGGA,083038.20,5703.3507687,N,00952.2068878,E,2,10,1.0,-1.721,M,40.593,M,2.8,0123*66\r\n
$GPGGA,083038.25,5703.3508117,N,00952.2068565,E,2,10,1.0,-1.720,M,40.593,M,3.0,0123*6B\r\n
$GPGGA,083038.30,5703.3508541,N,00952.2068266,E,2,10,1.0,-1.719,M,40.593,M,3.0,0123*66\r\n
$GPGGA,083038.35,5703.3508981,N,00952.2067953,E,2,10,1.0,-1.714,M,40.593,M,3.0,0123*6C\r\n
$GPGGA,083038.40,5703.3509425,N,00952.2067621,E,2,10,1.0,-1.712,M,40.593,M,3.0,0123*60\r\n
$GPGGA,083038.45,5703.3509878,N,00952.2067280,E,2,10,1.0,-1.708,M,40.593,M,3.2,0123*67\r\n
$GPGGA,083038.50,5703.3510332,N,00952.2066947,E,2,10,1.0,-1.707,M,40.593,M,3.2,0123*60\r\n
$GPGGA,083038.55,5703.3510776,N,00952.2066622,E,2,10,1.0,-1.707,M,40.593,M,3.2,0123*6D\r\n
$GPGGA,083038.60,5703.3511232,N,00952.2066267,E,2,10,1.0,-1.704,M,40.593,M,3.2,0123*69\r\n
$GPGGA,083038.65,5703.3511695,N,00952.2065907,E,2,10,1.0,-1.706,M,40.593,M,3.4,0123*6F\r\n
$GPGGA,083038.70,5703.3512168,N,00952.2065545,E,2,10,1.0,-1.705,M,40.593,M,3.4,0123*64\r\n
$GPGGA,083038.75,5703.3512647,N,00952.2065169,E,2,10,1.0,-1.703,M,40.593,M,3.4,0123*67\r\n
$GPGGA,083038.80,5703.3513125,N,00952.2064776,E,2,10,1.0,-1.704,M,40.593,M,3.4,0123*61\r\n
$GPGGA,083038.85,5703.3513619,N,00952.2064376,E,2,10,1.0,-1.698,M,40.593,M,3.6,0123*6E\r\n
$GPGGA,083038.90,5703.3514115,N,00952.2063974,E,2,10,1.0,-1.696,M,40.593,M,3.6,0123*67\r\n
$GPGGA,083038.95,5703.3514594,N,00952.2063564,E,2,10,1.0,-1.695,M,40.593,M,3.6,0123*61\r\n
$GPGGA,083039.00,5703.3515092,N,00952.2063143,E,2,10,1.0,-1.693,M,40.593,M,3.6,0123*69\r\n
$GPGGA,083039.05,5703.3515585,N,00952.2062734,E,2,10,1.0,-1.694,M,40.593,M,3.8,0123*61\r\n
$GPGGA,083039.10,5703.3516080,N,00952.2062306,E,2,10,1.0,-1.695,M,40.593,M,3.8,0123*62\r\n
$GPGGA,083039.15,5703.3516574,N,00952.2061869,E,2,10,1.0,-1.697,M,40.593,M,3.8,0123*6A\r\n
$GPGGA,083039.20,5703.3517077,N,00952.2061427,E,2,10,1.0,-1.697,M,40.593,M,3.8,0123*6D\r\n
$GPGGA,083039.25,5703.3517574,N,00952.2060963,E,2,10,1.0,-1.693,M,40.593,M,2.2,0123*6D\r\n
$GPGGA,083039.30,5703.3518073,N,00952.2060492,E,2,10,1.0,-1.695,M,40.593,M,2.2,0123*61\r\n
$GPGGA,083039.35,5703.3518580,N,00952.2060006,E,2,10,1.0,-1.696,M,40.593,M,2.2,0123*67\r\n
$GPGGA,083039.40,5703.3519088,N,00952.2059523,E,2,10,1.0,-1.694,M,40.593,M,2.2,0123*63\r\n
$GPGGA,083039.45,5703.3519604,N,00952.2059031,E,2,10,1.0,-1.693,M,40.593,M,2.4,0123*63\r\n
$GPGGA,083039.50,5703.3520105,N,00952.2058534,E,2,10,1.0,-1.695,M,40.593,M,2.4,0123*6C\r\n
$GPGGA,083039.55,5703.3520599,N,00952.2058031,E,2,10,1.0,-1.698,M,40.593,M,2.4,0123*65\r\n
$GPGGA,083039.60,5703.3521110,N,00952.2057504,E,2,10,1.0,-1.700,M,40.593,M,2.4,0123*6B\r\n
$GPGGA,083039.65,5703.3521616,N,00952.2056963,E,2,10,1.0,-1.695,M,40.593,M,2.7,0123*6D\r\n
$GPGGA,083039.70,5703.3522129,N,00952.2056416,E,2,10,1.0,-1.696,M,40.593,M,2.7,0123*6D\r\n
$GPGGA,083039.75,5703.3522646,N,00952.2055867,E,2,10,1.0,-1.694,M,40.593,M,2.7,0123*6D\r\n
$GPGGA,083039.80,5703.3523156,N,00952.2055306,E,2,10,1.0,-1.694,M,40.593,M,2.7,0123*6C\r\n
$GPGGA,083039.85,5703.3523655,N,00952.2054727,E,2,10,1.0,-1.695,M,40.593,M,2.9,0123*64\r\n
$GPGGA,083039.90,5703.3524161,N,00952.2054143,E,2,10,1.0,-1.695,M,40.593,M,2.9,0123*63\r\n
$GPGGA,083039.95,5703.3524667,N,00952.2053542,E,2,10,1.0,-1.696,M,40.593,M,2.9,0123*66\r\n
$GPGGA,083040.00,5703.3525179,N,00952.2052932,E,2,10,1.0,-1.695,M,40.593,M,2.9,0123*64\r\n
$GPGGA,083040.05,5703.3525667,N,00952.2052310,E,2,10,1.0,-1.699,M,40.593,M,3.2,0123*65\r\n
$GPGGA,083040.10,5703.3526162,N,00952.2051682,E,2,10,1.0,-1.699,M,40.593,M,3.2,0123*6D\r\n
$GPGGA,083040.15,5703.3526642,N,00952.2051027,E,2,10,1.0,-1.701,M,40.593,M,3.2,0123*64\r\n
$GPGGA,083040.20,5703.3527131,N,00952.2050365,E,2,10,1.0,-1.701,M,40.593,M,3.2,0123*64\r\n
$GPGGA,083040.25,5703.3527630,N,00952.2049686,E,2,10,1.0,-1.701,M,40.593,M,2.0,0123*64\r\n
$GPGGA,083040.30,5703.3528132,N,00952.2048990,E,2,10,1.0,-1.703,M,40.593,M,2.0,0123*61\r\n
$GPGGA,083040.35,5703.3528622,N,00952.2048300,E,2,10,1.0,-1.704,M,40.593,M,2.0,0123*66\r\n
$GPGGA,083040.40,5703.3529097,N,00952.2047621,E,2,10,1.0,-1.705,M,40.593,M,2.0,0123*65\r\n
$GPGGA,083040.45,5703.3529588,N,00952.2046917,E,2,10,1.0,-1.702,M,40.593,M,2.2,0123*65\r\n
$GPGGA,083040.50,5703.3530072,N,00952.2046201,E,2,10,1.0,-1.704,M,40.593,M,2.2,0123*63\r\n
$GPGGA,083040.55,5703.3530561,N,00952.2045443,E,2,10,1.0,-1.706,M,40.593,M,2.2,0123*60\r\n
$GPGGA,083040.60,5703.3531045,N,00952.2044690,E,2,10,1.0,-1.704,M,40.593,M,2.2,0123*6B\r\n
$GPGGA,083040.65,5703.3531520,N,00952.2043921,E,2,10,1.0,-1.701,M,40.593,M,2.4,0123*69\r\n
$GPGGA,083040.70,5703.3531981,N,00952.2043142,E,2,10,1.0,-1.702,M,40.593,M,2.4,0123*64\r\n
$GPGGA,083040.75,5703.3532444,N,00952.2042343,E,2,10,1.0,-1.703,M,40.593,M,2.4,0123*65\r\n
$GPGGA,083040.80,5703.3532901,N,00952.2041525,E,2,10,1.0,-1.704,M,40.593,M,2.4,0123*61\r\n
$GPGGA,083040.85,5703.3533343,N,00952.2040701,E,2,10,1.0,-1.709,M,40.593,M,2.7,0123*62\r\n
$GPGGA,083040.90,5703.3533778,N,00952.2039859,E,2,10,1.0,-1.708,M,40.593,M,2.7,0123*67\r\n
$GPGGA,083040.95,5703.3534213,N,00952.2039004,E,2,10,1.0,-1.706,M,40.593,M,2.7,0123*63\r\n
$GPGGA,083041.00,5703.3534654,N,00952.2038116,E,2,10,1.0,-1.708,M,40.593,M,2.7,0123*64\r\n
$GPGGA,083041.05,5703.3535082,N,00952.2037208,E,2,10,1.0,-1.703,M,40.593,M,2.9,0123*6B\r\n
$GPGGA,083041.10,5703.3535503,N,00952.2036313,E,2,10,1.0,-1.704,M,40.593,M,2.9,0123*6E\r\n
$GPGGA,083041.15,5703.3535904,N,00952.2035399,E,2,10,1.0,-1.706,M,40.593,M,2.9,0123*63\r\n
$GPGGA,083041.20,5703.3536326,N,00952.2034499,E,2,10,1.0,-1.707,M,40.593,M,2.9,0123*6B\r\n
$GPGGA,083041.25,5703.3536760,N,00952.2033590,E,2,10,1.0,-1.706,M,40.593,M,1.9,0123*65\r\n
$GPGGA,083041.30,5703.3537165,N,00952.2032660,E,2,10,1.0,-1.704,M,40.593,M,1.9,0123*6C\r\n
$GPGGA,083041.35,5703.3537561,N,00952.2031701,E,2,10,1.0,-1.704,M,40.593,M,1.9,0123*6C\r\n
$GPGGA,083041.40,5703.3537939,N,00952.2030724,E,2,10,1.0,-1.705,M,40.593,M,1.9,0123*68\r\n
$GPGGA,083041.45,5703.3538316,N,00952.2029746,E,2,10,1.0,-1.699,M,40.593,M,2.1,0123*66\r\n
$GPGGA,083041.50,5703.3538698,N,00952.2028763,E,2,10,1.0,-1.698,M,40.593,M,2.1,0123*66\r\n
$GPGGA,083041.55,5703.3539071,N,00952.2027753,E,2,10,1.0,-1.698,M,40.593,M,2.1,0123*6F\r\n
$GPGGA,083041.60,5703.3539437,N,00952.2026742,E,2,10,1.0,-1.695,M,40.593,M,2.1,0123*63\r\n
$GPGGA,083041.65,5703.3539792,N,00952.2025728,E,2,10,1.0,-1.690,M,40.593,M,2.3,0123*62\r\n
$GPGGA,083041.70,5703.3540156,N,00952.2024709,E,2,10,1.0,-1.690,M,40.593,M,2.3,0123*64\r\n
$GPGGA,083041.75,5703.3540499,N,00952.2023668,E,2,10,1.0,-1.687,M,40.593,M,2.3,0123*60\r\n
$GPGGA,083041.80,5703.3540838,N,00952.2022608,E,2,10,1.0,-1.682,M,40.593,M,2.3,0123*6F\r\n
$GPGGA,083041.85,5703.3541159,N,00952.2021547,E,2,10,1.0,-1.683,M,40.593,M,2.6,0123*6A\r\n
$GPGGA,083041.90,5703.3541481,N,00952.2020459,E,2,10,1.0,-1.682,M,40.593,M,2.6,0123*60\r\n
$GPGGA,083041.95,5703.3541809,N,00952.2019379,E,2,10,1.0,-1.683,M,40.593,M,2.6,0123*67\r\n
$GPGGA,083042.00,5703.3542117,N,00952.2018284,E,2,10,1.0,-1.681,M,40.593,M,2.6,0123*6D\r\n
$GPGGA,083042.05,5703.3542391,N,00952.2017172,E,2,10,1.0,-1.682,M,40.593,M,2.8,0123*6C\r\n
$GPGGA,083042.10,5703.3542679,N,00952.2016071,E,2,10,1.0,-1.682,M,40.593,M,2.8,0123*68\r\n
$GPGGA,083042.15,5703.3542974,N,00952.2014953,E,2,10,1.0,-1.681,M,40.593,M,2.8,0123*67\r\n
$GPGGA,083042.20,5703.3543250,N,00952.2013831,E,2,10,1.0,-1.679,M,40.593,M,2.8,0123*68\r\n
$GPGGA,083042.25,5703.3543519,N,00952.2012686,E,2,10,1.0,-1.674,M,40.593,M,3.0,0123*60\r\n
$GPGGA,083042.30,5703.3543771,N,00952.2011549,E,2,10,1.0,-1.675,M,40.593,M,3.0,0123*6A\r\n
$GPGGA,083042.35,5703.3544017,N,00952.2010393,E,2,10,1.0,-1.677,M,40.593,M,3.0,0123*6D\r\n
$GPGGA,083042.40,5703.3544251,N,00952.2009220,E,2,10,1.0,-1.679,M,40.593,M,3.0,0123*60\r\n
$GPGGA,083042.45,5703.3544471,N,00952.2008046,E,2,10,1.0,-1.684,M,40.593,M,3.2,0123*62\r\n
$GPGGA,083042.50,5703.3544679,N,00952.2006854,E,2,10,1.0,-1.685,M,40.593,M,3.2,0123*68\r\n
$GPGGA,083042.55,5703.3544859,N,00952.2005664,E,2,10,1.0,-1.688,M,40.593,M,3.2,0123*62\r\n
$GPGGA,083042.60,5703.3545049,N,00952.2004470,E,2,10,1.0,-1.689,M,40.593,M,3.2,0123*6B\r\n
$GPGGA,083042.65,5703.3545238,N,00952.2003279,E,2,10,1.0,-1.693,M,40.593,M,3.4,0123*6F\r\n
$GPGGA,083042.70,5703.3545415,N,00952.2002057,E,2,10,1.0,-1.695,M,40.593,M,3.4,0123*6B\r\n
$GPGGA,083042.75,5703.3545560,N,00952.2000833,E,2,10,1.0,-1.698,M,40.593,M,3.4,0123*68\r\n
$GPGGA,083042.80,5703.3545691,N,00952.1999604,E,2,10,1.0,-1.700,M,40.593,M,3.4,0123*6F\r\n
$GPGGA,083042.85,5703.3545817,N,00952.1998366,E,2,10,1.0,-1.700,M,40.593,M,3.6,0123*68\r\n
$GPGGA,083042.90,5703.3545946,N,00952.1997127,E,2,10,1.0,-1.703,M,40.593,M,3.6,0123*62\r\n
$GPGGA,083042.95,5703.3546054,N,00952.1995882,E,2,10,1.0,-1.704,M,40.593,M,3.6,0123*6D\r\n
$GPGGA,083043.00,5703.3546144,N,00952.1994639,E,2,10,1.0,-1.707,M,40.593,M,3.6,0123*6C\r\n
$GPGGA,083043.05,5703.3546204,N,00952.1993380,E,2,10,1.0,-1.707,M,40.593,M,3.8,0123*60\r\n
$GPGGA,083043.10,5703.3546281,N,00952.1992135,E,2,10,1.0,-1.706,M,40.593,M,3.8,0123*65\r\n
$GPGGA,083043.15,5703.3546348,N,00952.1990894,E,2,10,1.0,-1.706,M,40.593,M,3.8,0123*64\r\n
$GPGGA,083043.20,5703.3546394,N,00952.1989641,E,2,10,1.0,-1.705,M,40.593,M,3.8,0123*6E\r\n
$GPGGA,083043.25,5703.3546436,N,00952.1988374,E,2,10,1.0,-1.704,M,40.593,M,2.2,0123*6C\r\n
$GPGGA,083043.30,5703.3546471,N,00952.1987134,E,2,10,1.0,-1.702,M,40.593,M,2.2,0123*64\r\n
$GPGGA,083043.35,5703.3546486,N,00952.1985883,E,2,10,1.0,-1.701,M,40.593,M,2.2,0123*6D\r\n
$GPGGA,083043.40,5703.3546489,N,00952.1984631,E,2,10,1.0,-1.700,M,40.593,M,2.2,0123*67\r\n
$GPGGA,083043.45,5703.3546476,N,00952.1983376,E,2,10,1.0,-1.698,M,40.593,M,2.4,0123*65\r\n
$GPGGA,083043.50,5703.3546448,N,00952.1982124,E,2,10,1.0,-1.696,M,40.593,M,2.4,0123*66\r\n
$GPGGA,083043.55,5703.3546425,N,00952.1980870,E,2,10,1.0,-1.694,M,40.593,M,2.4,0123*60\r\n
$GPGGA,083043.60,5703.3546397,N,00952.1979617,E,2,10,1.0,-1.693,M,40.593,M,2.4,0123*66\r\n
$GPGGA,083043.65,5703.3546360,N,00952.1978369,E,2,10,1.0,-1.691,M,40.593,M,2.7,0123*67\r\n
$GPGGA,083043.70,5703.3546299,N,00952.1977113,E,2,10,1.0,-1.691,M,40.593,M,2.7,0123*64\r\n
$GPGGA,083043.75,5703.3546234,N,00952.1975856,E,2,10,1.0,-1.689,M,40.593,M,2.7,0123*65\r\n
$GPGGA,083043.80,5703.3546150,N,00952.1974609,E,2,10,1.0,-1.689,M,40.593,M,2.7,0123*6B\r\n
$GPGGA,083043.85,5703.3546052,N,00952.1973379,E,2,10,1.0,-1.696,M,40.593,M,2.9,0123*68\r\n
$GPGGA,083043.90,5703.3545953,N,00952.1972139,E,2,10,1.0,-1.697,M,40.593,M,2.9,0123*61\r\n
$GPGGA,083043.95,5703.3545847,N,00952.1970897,E,2,10,1.0,-1.697,M,40.593,M,2.9,0123*6F\r\n
$GPGGA,083044.00,5703.3545728,N,00952.1969659,E,2,10,1.0,-1.697,M,40.593,M,2.9,0123*66\r\n
$GPGGA,083044.05,5703.3545582,N,00952.1968412,E,2,10,1.0,-1.698,M,40.593,M,3.2,0123*68\r\n
$GPGGA,083044.10,5703.3545439,N,00952.1967181,E,2,10,1.0,-1.699,M,40.593,M,3.2,0123*6C\r\n
$GPGGA,083044.15,5703.3545289,N,00952.1965938,E,2,10,1.0,-1.703,M,40.593,M,3.2,0123*6E\r\n
$GPGGA,083044.20,5703.3545145,N,00952.1964713,E,2,10,1.0,-1.704,M,40.593,M,3.2,0123*6A\r\n
$GPGGA,083044.25,5703.3544975,N,00952.1963491,E,2,10,1.0,-1.703,M,40.593,M,2.0,0123*6F\r\n
$GPGGA,083044.30,5703.3544775,N,00952.1962271,E,2,10,1.0,-1.704,M,40.593,M,2.0,0123*6B\r\n
$GPGGA,083044.35,5703.3544572,N,00952.1961066,E,2,10,1.0,-1.706,M,40.593,M,2.0,0123*6E\r\n
$GPGGA,083044.40,5703.3544364,N,00952.1959876,E,2,10,1.0,-1.706,M,40.593,M,2.0,0123*6F\r\n
$GPGGA,083044.45,5703.3544163,N,00952.1958676,E,2,10,1.0,-1.708,M,40.593,M,2.2,0123*6C\r\n
$GPGGA,083044.50,5703.3543961,N,00952.1957490,E,2,10,1.0,-1.708,M,40.593,M,2.2,0123*60\r\n
$GPGGA,083044.55,5703.3543746,N,00952.1956300,E,2,10,1.0,-1.708,M,40.593,M,2.2,0123*61\r\n
$GPGGA,083044.60,5703.3543519,N,00952.1955122,E,2,10,1.0,-1.707,M,40.593,M,2.2,0123*61\r\n
$GPGGA,083044.65,5703.3543266,N,00952.1953959,E,2,10,1.0,-1.707,M,40.593,M,2.4,0123*6F\r\n
$GPGGA,083044.70,5703.3543012,N,00952.1952796,E,2,10,1.0,-1.707,M,40.593,M,2.4,0123*66\r\n
$GPGGA,083044.75,5703.3542745,N,00952.1951627,E,2,10,1.0,-1.707,M,40.593,M,2.4,0123*6F\r\n
$GPGGA,083044.80,5703.3542471,N,00952.1950467,E,2,10,1.0,-1.708,M,40.593,M,2.4,0123*69\r\n
$GPGGA,083044.85,5703.3542178,N,00952.1949328,E,2,10,1.0,-1.709,M,40.593,M,2.7,0123*66\r\n
$GPGGA,083044.90,5703.3541883,N,00952.1948198,E,2,10,1.0,-1.711,M,40.593,M,2.7,0123*6D\r\n
$GPGGA,083044.95,5703.3541576,N,00952.1947065,E,2,10,1.0,-1.712,M,40.593,M,2.7,0123*60\r\n
$GPGGA,083045.00,5703.3541266,N,00952.1945950,E,2,10,1.0,-1.710,M,40.593,M,2.7,0123*64\r\n
$GPGGA,083045.05,5703.3540926,N,00952.1944852,E,2,10,1.0,-1.713,M,40.593,M,2.9,0123*60\r\n
$GPGGA,083045.10,5703.3540593,N,00952.1943750,E,2,10,1.0,-1.714,M,40.593,M,2.9,0123*6B\r\n
$GPGGA,083045.15,5703.3540247,N,00952.1942658,E,2,10,1.0,-1.715,M,40.593,M,2.9,0123*69\r\n
$GPGGA,083045.20,5703.3539901,N,00952.1941566,E,2,10,1.0,-1.715,M,40.593,M,2.9,0123*65\r\n
$GPGGA,083045.25,5703.3539558,N,00952.1940499,E,2,10,1.0,-1.712,M,40.593,M,1.9,0123*64\r\n
$GPGGA,083045.30,5703.3539209,N,00952.1939441,E,2,10,1.0,-1.710,M,40.593,M,1.9,0123*6A\r\n
$GPGGA,083045.35,5703.3538836,N,00952.1938395,E,2,10,1.0,-1.710,M,40.593,M,1.9,0123*67\r\n
$GPGGA,083045.40,5703.3538462,N,00952.1937351,E,2,10,1.0,-1.709,M,40.593,M,1.9,0123*67\r\n
$GPGGA,083045.45,5703.3538081,N,00952.1936314,E,2,10,1.0,-1.711,M,40.593,M,2.1,0123*69\r\n
$GPGGA,083045.50,5703.3537697,N,00952.1935284,E,2,10,1.0,-1.708,M,40.593,M,2.1,0123*60\r\n
$GPGGA,083045.55,5703.3537300,N,00952.1934267,E,2,10,1.0,-1.707,M,40.593,M,2.1,0123*6D\r\n
$GPGGA,083045.60,5703.3536907,N,00952.1933257,E,2,10,1.0,-1.706,M,40.593,M,2.1,0123*62\r\n
$GPGGA,083045.65,5703.3536496,N,00952.1932244,E,2,10,1.0,-1.702,M,40.593,M,2.3,0123*67\r\n
$GPGGA,083045.70,5703.3536077,N,00952.1931241,E,2,10,1.0,-1.702,M,40.593,M,2.3,0123*6E\r\n
$GPGGA,083045.75,5703.3535654,N,00952.1930271,E,2,10,1.0,-1.703,M,40.593,M,2.3,0123*6C\r\n
$GPGGA,083045.80,5703.3535222,N,00952.1929315,E,2,10,1.0,-1.701,M,40.593,M,2.3,0123*6A\r\n
$GPGGA,083045.85,5703.3534770,N,00952.1928394,E,2,10,1.0,-1.704,M,40.593,M,2.6,0123*64\r\n
$GPGGA,083045.90,5703.3534332,N,00952.1927466,E,2,10,1.0,-1.703,M,40.593,M,2.6,0123*60\r\n
$GPGGA,083045.95,5703.3533887,N,00952.1926546,E,2,10,1.0,-1.703,M,40.593,M,2.6,0123*65\r\n
$GPGGA,083046.00,5703.3533430,N,00952.1925635,E,2,10,1.0,-1.700,M,40.593,M,2.6,0123*6D\r\n
$GPGGA,083046.05,5703.3532965,N,00952.1924713,E,2,10,1.0,-1.700,M,40.593,M,2.8,0123*6E\r\n
$GPGGA,083046.10,5703.3532502,N,00952.1923806,E,2,10,1.0,-1.698,M,40.593,M,2.8,0123*6B\r\n
$GPGGA,083046.15,5703.3532016,N,00952.1922938,E,2,10,1.0,-1.699,M,40.593,M,2.8,0123*62\r\n
$GPGGA,083046.20,5703.3531535,N,00952.1922092,E,2,10,1.0,-1.701,M,40.593,M,2.8,0123*6A\r\n
$GPGGA,083046.25,5703.3531048,N,00952.1921231,E,2,10,1.0,-1.698,M,40.593,M,3.0,0123*60\r\n
$GPGGA,083046.30,5703.3530541,N,00952.1920394,E,2,10,1.0,-1.700,M,40.593,M,3.0,0123*66\r\n
$GPGGA,083046.35,5703.3530030,N,00952.1919576,E,2,10,1.0,-1.702,M,40.593,M,3.0,0123*62\r\n
$GPGGA,083046.40,5703.3529519,N,00952.1918777,E,2,10,1.0,-1.703,M,40.593,M,3.0,0123*65\r\n
$GPGGA,083046.45,5703.3528997,N,00952.1917993,E,2,10,1.0,-1.708,M,40.593,M,3.2,0123*69\r\n
$GPGGA,083046.50,5703.3528479,N,00952.1917213,E,2,10,1.0,-1.709,M,40.593,M,3.2,0123*62\r\n
$GPGGA,083046.55,5703.3527936,N,00952.1916473,E,2,10,1.0,-1.711,M,40.593,M,3.2,0123*66\r\n
$GPGGA,083046.60,5703.3527405,N,00952.1915746,E,2,10,1.0,-1.712,M,40.593,M,3.2,0123*68\r\n
$GPGGA,083046.65,5703.3526901,N,00952.1915033,E,2,10,1.0,-1.710,M,40.593,M,3.4,0123*64\r\n
$GPGGA,083046.70,5703.3526369,N,00952.1914329,E,2,10,1.0,-1.710,M,40.593,M,3.4,0123*6D\r\n
$GPGGA,083046.75,5703.3525837,N,00952.1913643,E,2,10,1.0,-1.707,M,40.593,M,3.4,0123*63\r\n
$GPGGA,083046.80,5703.3525280,N,00952.1912980,E,2,10,1.0,-1.706,M,40.593,M,3.4,0123*6F\r\n
$GPGGA,083046.85,5703.3524728,N,00952.1912318,E,2,10,1.0,-1.704,M,40.593,M,3.6,0123*67\r\n
$GPGGA,083046.90,5703.3524179,N,00952.1911670,E,2,10,1.0,-1.707,M,40.593,M,3.6,0123*6A\r\n
$GPGGA,083046.95,5703.3523629,N,00952.1911022,E,2,10,1.0,-1.708,M,40.593,M,3.6,0123*64\r\n
$GPGGA,083047.00,5703.3523061,N,00952.1910407,E,2,10,1.0,-1.707,M,40.593,M,3.6,0123*6E\r\n
$GPGGA,083047.05,5703.3522486,N,00952.1909788,E,2,10,1.0,-1.706,M,40.593,M,3.8,0123*64\r\n
$GPGGA,083047.10,5703.3521911,N,00952.1909194,E,2,10,1.0,-1.706,M,40.593,M,3.8,0123*6B\r\n
$GPGGA,083047.15,5703.3521336,N,00952.1908607,E,2,10,1.0,-1.705,M,40.593,M,3.8,0123*6E\r\n
$GPGGA,083047.20,5703.3520767,N,00952.1908060,E,2,10,1.0,-1.707,M,40.593,M,3.8,0123*6C\r\n
$GPGGA,083047.25,5703.3520198,N,00952.1907523,E,2,10,1.0,-1.704,M,40.593,M,2.2,0123*6A\r\n
$GPGGA,083047.30,5703.3519616,N,00952.1906991,E,2,10,1.0,-1.703,M,40.593,M,2.2,0123*66\r\n
$GPGGA,083047.35,5703.3519045,N,00952.1906481,E,2,10,1.0,-1.701,M,40.593,M,2.2,0123*6D\r\n
$GPGGA,083047.40,5703.3518459,N,00952.1906001,E,2,10,1.0,-1.701,M,40.593,M,2.2,0123*6B\r\n
$GPGGA,083047.45,5703.3517877,N,00952.1905540,E,2,10,1.0,-1.699,M,40.593,M,2.4,0123*64\r\n
$GPGGA,083047.50,5703.3517282,N,00952.1905071,E,2,10,1.0,-1.700,M,40.593,M,2.4,0123*66\r\n
$GPGGA,083047.55,5703.3516677,N,00952.1904616,E,2,10,1.0,-1.702,M,40.593,M,2.4,0123*68\r\n
$GPGGA,083047.60,5703.3516076,N,00952.1904194,E,2,10,1.0,-1.707,M,40.593,M,2.4,0123*61\r\n
$GPGGA,083047.65,5703.3515466,N,00952.1903800,E,2,10,1.0,-1.709,M,40.593,M,2.7,0123*6C\r\n
$GPGGA,083047.70,5703.3514846,N,00952.1903413,E,2,10,1.0,-1.710,M,40.593,M,2.7,0123*61\r\n
$GPGGA,083047.75,5703.3514238,N,00952.1903040,E,2,10,1.0,-1.711,M,40.593,M,2.7,0123*64\r\n
$GPGGA,083047.80,5703.3513649,N,00952.1902687,E,2,10,1.0,-1.714,M,40.593,M,2.7,0123*62\r\n
$GPGGA,083047.85,5703.3513038,N,00952.1902368,E,2,10,1.0,-1.713,M,40.593,M,2.9,0123*6A\r\n
$GPGGA,083047.90,5703.3512429,N,00952.1902063,E,2,10,1.0,-1.713,M,40.593,M,2.9,0123*63\r\n
$GPGGA,083047.95,5703.3511815,N,00952.1901766,E,2,10,1.0,-1.715,M,40.593,M,2.9,0123*61\r\n
$GPGGA,083048.00,5703.3511192,N,00952.1901474,E,2,10,1.0,-1.716,M,40.593,M,2.9,0123*67\r\n
$GPGGA,083048.05,5703.3510600,N,00952.1901192,E,2,10,1.0,-1.705,M,40.593,M,3.2,0123*6A\r\n
$GPGGA,083048.10,5703.3510010,N,00952.1900932,E,2,10,1.0,-1.704,M,40.593,M,3.2,0123*6B\r\n
$GPGGA,083048.15,5703.3509397,N,00952.1900699,E,2,10,1.0,-1.703,M,40.593,M,3.2,0123*63\r\n
$GPGGA,083048.20,5703.3508768,N,00952.1900491,E,2,10,1.0,-1.702,M,40.593,M,3.2,0123*6B\r\n
$GPGGA,083048.25,5703.3508164,N,00952.1900283,E,2,10,1.0,-1.698,M,40.593,M,2.0,0123*60\r\n
$GPGGA,083048.30,5703.3507556,N,00952.1900089,E,2,10,1.0,-1.698,M,40.593,M,2.0,0123*66\r\n
$GPGGA,083048.35,5703.3506942,N,00952.1899909,E,2,10,1.0,-1.694,M,40.593,M,2.0,0123*67\r\n
$GPGGA,083048.40,5703.3506323,N,00952.1899737,E,2,10,1.0,-1.695,M,40.593,M,2.0,0123*6A\r\n
$GPGGA,083048.45,5703.3505707,N,00952.1899595,E,2,10,1.0,-1.699,M,40.593,M,2.2,0123*6A\r\n
$GPGGA,083048.50,5703.3505092,N,00952.1899467,E,2,10,1.0,-1.701,M,40.593,M,2.2,0123*69\r\n
$GPGGA,083048.55,5703.3504467,N,00952.1899356,E,2,10,1.0,-1.706,M,40.593,M,2.2,0123*61\r\n
$GPGGA,083048.60,5703.3503842,N,00952.1899270,E,2,10,1.0,-1.709,M,40.593,M,2.2,0123*61\r\n
$GPGGA,083048.65,5703.3503260,N,00952.1899189,E,2,10,1.0,-1.699,M,40.593,M,2.4,0123*65\r\n
$GPGGA,083048.70,5703.3502655,N,00952.1899145,E,2,10,1.0,-1.700,M,40.593,M,2.4,0123*63\r\n
$GPGGA,083048.75,5703.3502038,N,00952.1899101,E,2,10,1.0,-1.701,M,40.593,M,2.4,0123*6A\r\n
$GPGGA,083048.80,5703.3501439,N,00952.1899053,E,2,10,1.0,-1.703,M,40.593,M,2.4,0123*62\r\n
$GPGGA,083048.85,5703.3500840,N,00952.1899030,E,2,10,1.0,-1.702,M,40.593,M,2.7,0123*63\r\n
$GPGGA,083048.90,5703.3500217,N,00952.1899031,E,2,10,1.0,-1.704,M,40.593,M,2.7,0123*68\r\n
$GPGGA,083048.95,5703.3499614,N,00952.1899056,E,2,10,1.0,-1.706,M,40.593,M,2.7,0123*68\r\n
$GPGGA,083049.00,5703.3499016,N,00952.1899100,E,2,10,1.0,-1.708,M,40.593,M,2.7,0123*6D\r\n
$GPGGA,083049.05,5703.3498409,N,00952.1899137,E,2,10,1.0,-1.706,M,40.593,M,2.9,0123*67\r\n
$GPGGA,083049.10,5703.3497813,N,00952.1899195,E,2,10,1.0,-1.708,M,40.593,M,2.9,0123*6D\r\n
$GPGGA,083049.15,5703.3497225,N,00952.1899284,E,2,10,1.0,-1.710,M,40.593,M,2.9,0123*6D\r\n
$GPGGA,083049.20,5703.3496634,N,00952.1899384,E,2,10,1.0,-1.711,M,40.593,M,2.9,0123*6E\r\n
$GPGGA,083049.25,5703.3496037,N,00952.1899495,E,2,10,1.0,-1.706,M,40.593,M,1.9,0123*6C\r\n
$GPGGA,083049.30,5703.3495442,N,00952.1899629,E,2,10,1.0,-1.708,M,40.593,M,1.9,0123*66\r\n
$GPGGA,083049.35,5703.3494851,N,00952.1899776,E,2,10,1.0,-1.709,M,40.593,M,1.9,0123*66\r\n
$GPGGA,083049.40,5703.3494259,N,00952.1899929,E,2,10,1.0,-1.709,M,40.593,M,1.9,0123*62\r\n
$GPGGA,083049.45,5703.3493673,N,00952.1900117,E,2,10,1.0,-1.709,M,40.593,M,2.1,0123*63\r\n
$GPGGA,083049.50,5703.3493097,N,00952.1900307,E,2,10,1.0,-1.708,M,40.593,M,2.1,0123*69\r\n
$GPGGA,083049.55,5703.3492536,N,00952.1900517,E,2,10,1.0,-1.705,M,40.593,M,2.1,0123*69\r\n
$GPGGA,083049.60,5703.3491967,N,00952.1900738,E,2,10,1.0,-1.705,M,40.593,M,2.1,0123*6B\r\n
$GPGGA,083049.65,5703.3491406,N,00952.1900955,E,2,10,1.0,-1.697,M,40.593,M,2.3,0123*69\r\n
$GPGGA,083049.70,5703.3490825,N,00952.1901212,E,2,10,1.0,-1.696,M,40.593,M,2.3,0123*69\r\n
$GPGGA,083049.75,5703.3490266,N,00952.1901474,E,2,10,1.0,-1.694,M,40.593,M,2.3,0123*65\r\n
$GPGGA,083049.80,5703.3489706,N,00952.1901739,E,2,10,1.0,-1.693,M,40.593,M,2.3,0123*69\r\n
$GPGGA,083049.85,5703.3489122,N,00952.1902039,E,2,10,1.0,-1.697,M,40.593,M,2.6,0123*69\r\n
$GPGGA,083049.90,5703.3488579,N,00952.1902341,E,2,10,1.0,-1.699,M,40.593,M,2.6,0123*64\r\n
$GPGGA,083049.95,5703.3488027,N,00952.1902666,E,2,10,1.0,-1.701,M,40.593,M,2.6,0123*6F\r\n
$GPGGA,083050.00,5703.3487472,N,00952.1903004,E,2,10,1.0,-1.704,M,40.593,M,2.6,0123*66\r\n
$GPGGA,083050.05,5703.3486922,N,00952.1903360,E,2,10,1.0,-1.697,M,40.593,M,2.8,0123*6E\r\n
$GPGGA,083050.10,5703.3486383,N,00952.1903749,E,2,10,1.0,-1.703,M,40.593,M,2.8,0123*68\r\n
$GPGGA,083050.15,5703.3485838,N,00952.1904147,E,2,10,1.0,-1.707,M,40.593,M,2.8,0123*6E\r\n
$GPGGA,083050.20,5703.3485298,N,00952.1904565,E,2,10,1.0,-1.708,M,40.593,M,2.8,0123*63\r\n
$GPGGA,083050.25,5703.3484781,N,00952.1904995,E,2,10,1.0,-1.709,M,40.593,M,3.0,0123*61\r\n
$GPGGA,083050.30,5703.3484261,N,00952.1905424,E,2,10,1.0,-1.711,M,40.593,M,3.0,0123*61\r\n
$GPGGA,083050.35,5703.3483766,N,00952.1905866,E,2,10,1.0,-1.712,M,40.593,M,3.0,0123*68\r\n
$GPGGA,083050.40,5703.3483254,N,00952.1906323,E,2,10,1.0,-1.712,M,40.593,M,3.0,0123*67\r\n
$GPGGA,083050.45,5703.3482741,N,00952.1906801,E,2,10,1.0,-1.712,M,40.593,M,3.2,0123*6B\r\n
$GPGGA,083050.50,5703.3482269,N,00952.1907288,E,2,10,1.0,-1.711,M,40.593,M,3.2,0123*69\r\n
$GPGGA,083050.55,5703.3481788,N,00952.1907783,E,2,10,1.0,-1.708,M,40.593,M,3.2,0123*63\r\n
$GPGGA,083050.60,5703.3481296,N,00952.1908285,E,2,10,1.0,-1.708,M,40.593,M,3.2,0123*63\r\n
$GPGGA,083050.65,5703.3480832,N,00952.1908808,E,2,10,1.0,-1.707,M,40.593,M,3.4,0123*65\r\n
$GPGGA,083050.70,5703.3480363,N,00952.1909333,E,2,10,1.0,-1.704,M,40.593,M,3.4,0123*6F\r\n
$GPGGA,083050.75,5703.3479887,N,00952.1909873,E,2,10,1.0,-1.703,M,40.593,M,3.4,0123*65\r\n
$GPGGA,083050.80,5703.3479425,N,00952.1910425,E,2,10,1.0,-1.700,M,40.593,M,3.4,0123*6F\r\n
$GPGGA,083050.85,5703.3478966,N,00952.1911003,E,2,10,1.0,-1.701,M,40.593,M,3.6,0123*63\r\n
$GPGGA,083050.90,5703.3478519,N,00952.1911583,E,2,10,1.0,-1.701,M,40.593,M,3.6,0123*6E\r\n
$GPGGA,083050.95,5703.3478101,N,00952.1912171,E,2,10,1.0,-1.698,M,40.593,M,3.6,0123*6D\r\n
$GPGGA,083051.00,5703.3477653,N,00952.1912778,E,2,10,1.0,-1.695,M,40.593,M,3.6,0123*6D\r\n
$GPGGA,083051.05,5703.3477217,N,00952.1913397,E,2,10,1.0,-1.698,M,40.593,M,3.8,0123*6B\r\n
$GPGGA,083051.10,5703.3476788,N,00952.1914026,E,2,10,1.0,-1.700,M,40.593,M,3.8,0123*63\r\n
$GPGGA,083051.15,5703.3476373,N,00952.1914673,E,2,10,1.0,-1.699,M,40.593,M,3.8,0123*61\r\n
$GPGGA,083051.20,5703.3475952,N,00952.1915330,E,2,10,1.0,-1.698,M,40.593,M,3.8,0123*6F\r\n
$GPGGA,083051.25,5703.3475548,N,00952.1915995,E,2,10,1.0,-1.701,M,40.593,M,2.2,0123*62\r\n
$GPGGA,083051.30,5703.3475134,N,00952.1916659,E,2,10,1.0,-1.702,M,40.593,M,2.2,0123*66\r\n
$GPGGA,083051.35,5703.3474739,N,00952.1917332,E,2,10,1.0,-1.703,M,40.593,M,2.2,0123*61\r\n
$GPGGA,083051.40,5703.3474358,N,00952.1918012,E,2,10,1.0,-1.700,M,40.593,M,2.2,0123*6D\r\n
$GPGGA,083051.45,5703.3473971,N,00952.1918707,E,2,10,1.0,-1.700,M,40.593,M,2.4,0123*6B\r\n
$GPGGA,083051.50,5703.3473611,N,00952.1919412,E,2,10,1.0,-1.699,M,40.593,M,2.4,0123*61\r\n
$GPGGA,083051.55,5703.3473242,N,00952.1920131,E,2,10,1.0,-1.697,M,40.593,M,2.4,0123*66\r\n
$GPGGA,083051.60,5703.3472874,N,00952.1920862,E,2,10,1.0,-1.694,M,40.593,M,2.4,0123*62\r\n
$GPGGA,083051.65,5703.3472518,N,00952.1921594,E,2,10,1.0,-1.696,M,40.593,M,2.7,0123*64\r\n
$GPGGA,083051.70,5703.3472162,N,00952.1922336,E,2,10,1.0,-1.696,M,40.593,M,2.7,0123*64\r\n
$GPGGA,083051.75,5703.3471828,N,00952.1923077,E,2,10,1.0,-1.693,M,40.593,M,2.7,0123*67\r\n
$GPGGA,083051.80,5703.3471507,N,00952.1923821,E,2,10,1.0,-1.689,M,40.593,M,2.7,0123*6D\r\n
$GPGGA,083051.85,5703.3471183,N,00952.1924576,E,2,10,1.0,-1.688,M,40.593,M,2.9,0123*67\r\n
$GPGGA,083051.90,5703.3470861,N,00952.1925343,E,2,10,1.0,-1.688,M,40.593,M,2.9,0123*66\r\n
$GPGGA,083051.95,5703.3470560,N,00952.1926114,E,2,10,1.0,-1.686,M,40.593,M,2.9,0123*62\r\n
$GPGGA,083052.00,5703.3470266,N,00952.1926897,E,2,10,1.0,-1.686,M,40.593,M,2.9,0123*6E\r\n
$GPGGA,083052.05,5703.3469977,N,00952.1927685,E,2,10,1.0,-1.684,M,40.593,M,3.2,0123*6C\r\n
$GPGGA,083052.10,5703.3469697,N,00952.1928473,E,2,10,1.0,-1.683,M,40.593,M,3.2,0123*6A\r\n
$GPGGA,083052.15,5703.3469414,N,00952.1929272,E,2,10,1.0,-1.683,M,40.593,M,3.2,0123*60\r\n
$GPGGA,083052.20,5703.3469143,N,00952.1930076,E,2,10,1.0,-1.683,M,40.593,M,3.2,0123*6F\r\n
$GPGGA,083052.25,5703.3468872,N,00952.1930885,E,2,10,1.0,-1.686,M,40.593,M,2.0,0123*62\r\n
$GPGGA,083052.30,5703.3468623,N,00952.1931714,E,2,10,1.0,-1.689,M,40.593,M,2.0,0123*65\r\n
$GPGGA,083052.35,5703.3468381,N,00952.1932543,E,2,10,1.0,-1.691,M,40.593,M,2.0,0123*67\r\n
$GPGGA,083052.40,5703.3468148,N,00952.1933371,E,2,10,1.0,-1.693,M,40.593,M,2.0,0123*66\r\n
$GPGGA,083052.45,5703.3467919,N,00952.1934216,E,2,10,1.0,-1.693,M,40.593,M,2.2,0123*65\r\n
$GPGGA,083052.50,5703.3467706,N,00952.1935063,E,2,10,1.0,-1.694,M,40.593,M,2.2,0123*67\r\n
$GPGGA,083052.55,5703.3467486,N,00952.1935913,E,2,10,1.0,-1.694,M,40.593,M,2.2,0123*67\r\n
$GPGGA,083052.60,5703.3467261,N,00952.1936775,E,2,10,1.0,-1.694,M,40.593,M,2.2,0123*63\r\n
$GPGGA,083052.65,5703.3467061,N,00952.1937635,E,2,10,1.0,-1.697,M,40.593,M,2.4,0123*65\r\n
$GPGGA,083052.70,5703.3466855,N,00952.1938517,E,2,10,1.0,-1.698,M,40.593,M,2.4,0123*6C\r\n
$GPGGA,083052.75,5703.3466669,N,00952.1939392,E,2,10,1.0,-1.700,M,40.593,M,2.4,0123*62\r\n
$GPGGA,083052.80,5703.3466472,N,00952.1940264,E,2,10,1.0,-1.701,M,40.593,M,2.4,0123*67\r\n
$GPGGA,083052.85,5703.3466287,N,00952.1941148,E,2,10,1.0,-1.710,M,40.593,M,2.7,0123*61\r\n
$GPGGA,083052.90,5703.3466106,N,00952.1942045,E,2,10,1.0,-1.709,M,40.593,M,2.7,0123*68\r\n
$GPGGA,083052.95,5703.3465940,N,00952.1942940,E,2,10,1.0,-1.710,M,40.593,M,2.7,0123*60\r\n
$GPGGA,083053.00,5703.3465761,N,00952.1943832,E,2,10,1.0,-1.708,M,40.593,M,2.7,0123*6C\r\n
$GPGGA,083053.05,5703.3465591,N,00952.1944717,E,2,10,1.0,-1.702,M,40.593,M,2.9,0123*6F\r\n
$GPGGA,083053.10,5703.3465431,N,00952.1945624,E,2,10,1.0,-1.701,M,40.593,M,2.9,0123*63\r\n
$GPGGA,083053.15,5703.3465289,N,00952.1946544,E,2,10,1.0,-1.699,M,40.593,M,2.9,0123*65\r\n
$GPGGA,083053.20,5703.3465152,N,00952.1947470,E,2,10,1.0,-1.697,M,40.593,M,2.9,0123*6F\r\n
$GPGGA,083053.25,5703.3465019,N,00952.1948394,E,2,10,1.0,-1.692,M,40.593,M,1.9,0123*60\r\n
$GPGGA,083053.30,5703.3464884,N,00952.1949334,E,2,10,1.0,-1.689,M,40.593,M,1.9,0123*68\r\n
$GPGGA,083053.35,5703.3464762,N,00952.1950279,E,2,10,1.0,-1.689,M,40.593,M,1.9,0123*6A\r\n
$GPGGA,083053.40,5703.3464658,N,00952.1951234,E,2,10,1.0,-1.686,M,40.593,M,1.9,0123*67\r\n
$GPGGA,083053.45,5703.3464555,N,00952.1952180,E,2,10,1.0,-1.692,M,40.593,M,2.1,0123*6D\r\n
$GPGGA,083053.50,5703.3464453,N,00952.1953132,E,2,10,1.0,-1.690,M,40.593,M,2.1,0123*64\r\n
$GPGGA,083053.55,5703.3464370,N,00952.1954087,E,2,10,1.0,-1.689,M,40.593,M,2.1,0123*67\r\n
$GPGGA,083053.60,5703.3464284,N,00952.1955053,E,2,10,1.0,-1.688,M,40.593,M,2.1,0123*62\r\n
$GPGGA,083053.65,5703.3464207,N,00952.1956026,E,2,10,1.0,-1.687,M,40.593,M,2.3,0123*60\r\n
$GPGGA,083053.70,5703.3464143,N,00952.1956988,E,2,10,1.0,-1.683,M,40.593,M,2.3,0123*6E\r\n
$GPGGA,083053.75,5703.3464086,N,00952.1957944,E,2,10,1.0,-1.680,M,40.593,M,2.3,0123*61\r\n
$GPGGA,083053.80,5703.3464037,N,00952.1958896,E,2,10,1.0,-1.676,M,40.593,M,2.3,0123*69\r\n
$GPGGA,083053.85,5703.3463982,N,00952.1959869,E,2,10,1.0,-1.674,M,40.593,M,2.6,0123*6A\r\n
$GPGGA,083053.90,5703.3463916,N,00952.1960847,E,2,10,1.0,-1.673,M,40.593,M,2.6,0123*62\r\n
$GPGGA,083053.95,5703.3463869,N,00952.1961823,E,2,10,1.0,-1.669,M,40.593,M,2.6,0123*66\r\n
$GPGGA,083054.00,5703.3463832,N,00952.1962811,E,2,10,1.0,-1.668,M,40.593,M,2.6,0123*60\r\n
$GPGGA,083054.05,5703.3463796,N,00952.1963795,E,2,10,1.0,-1.666,M,40.593,M,2.8,0123*66\r\n
$GPGGA,083054.10,5703.3463772,N,00952.1964786,E,2,10,1.0,-1.663,M,40.593,M,2.8,0123*68\r\n
$GPGGA,083054.15,5703.3463750,N,00952.1965784,E,2,10,1.0,-1.663,M,40.593,M,2.8,0123*6E\r\n
$GPGGA,083054.20,5703.3463736,N,00952.1966781,E,2,10,1.0,-1.663,M,40.593,M,2.8,0123*6E\r\n
$GPGGA,083054.25,5703.3463714,N,00952.1967771,E,2,10,1.0,-1.665,M,40.593,M,3.0,0123*6A\r\n
$GPGGA,083054.30,5703.3463693,N,00952.1968772,E,2,10,1.0,-1.666,M,40.593,M,3.0,0123*6F\r\n
$GPGGA,083054.35,5703.3463685,N,00952.1969776,E,2,10,1.0,-1.667,M,40.593,M,3.0,0123*69\r\n
$GPGGA,083054.40,5703.3463680,N,00952.1970791,E,2,10,1.0,-1.667,M,40.593,M,3.0,0123*6F\r\n
$GPGGA,083054.45,5703.3463685,N,00952.1971797,E,2,10,1.0,-1.667,M,40.593,M,3.2,0123*6A\r\n
$GPGGA,083054.50,5703.3463702,N,00952.1972794,E,2,10,1.0,-1.666,M,40.593,M,3.2,0123*61\r\n
$GPGGA,083054.55,5703.3463716,N,00952.1973786,E,2,10,1.0,-1.666,M,40.593,M,3.2,0123*63\r\n
$GPGGA,083054.60,5703.3463720,N,00952.1974784,E,2,10,1.0,-1.664,M,40.593,M,3.2,0123*67\r\n
$GPGGA,083054.65,5703.3463743,N,00952.1975785,E,2,10,1.0,-1.666,M,40.593,M,3.4,0123*63\r\n
$GPGGA,083054.70,5703.3463763,N,00952.1976788,E,2,10,1.0,-1.665,M,40.593,M,3.4,0123*68\r\n
$GPGGA,083054.75,5703.3463791,N,00952.1977793,E,2,10,1.0,-1.663,M,40.593,M,3.4,0123*6D\r\n
$GPGGA,083054.80,5703.3463830,N,00952.1978788,E,2,10,1.0,-1.662,M,40.593,M,3.4,0123*67\r\n
$GPGGA,083054.85,5703.3463877,N,00952.1979802,E,2,10,1.0,-1.663,M,40.593,M,3.6,0123*6E\r\n
$GPGGA,083054.90,5703.3463918,N,00952.1980812,E,2,10,1.0,-1.661,M,40.593,M,3.6,0123*67\r\n
$GPGGA,083054.95,5703.3463955,N,00952.1981832,E,2,10,1.0,-1.663,M,40.593,M,3.6,0123*6A\r\n
$GPGGA,083055.00,5703.3463995,N,00952.1982839,E,2,10,1.0,-1.666,M,40.593,M,3.6,0123*66\r\n
$GPGGA,083055.05,5703.3464049,N,00952.1983836,E,2,10,1.0,-1.663,M,40.593,M,3.8,0123*69\r\n
$GPGGA,083055.10,5703.3464114,N,00952.1984833,E,2,10,1.0,-1.663,M,40.593,M,3.8,0123*66\r\n
$GPGGA,083055.15,5703.3464183,N,00952.1985837,E,2,10,1.0,-1.663,M,40.593,M,3.8,0123*68\r\n
$GPGGA,083055.20,5703.3464251,N,00952.1986866,E,2,10,1.0,-1.661,M,40.593,M,3.8,0123*67\r\n
$GPGGA,083055.25,5703.3464312,N,00952.1987865,E,2,10,1.0,-1.658,M,40.593,M,2.2,0123*67\r\n
$GPGGA,083055.30,5703.3464379,N,00952.1988867,E,2,10,1.0,-1.660,M,40.593,M,2.2,0123*68\r\n
$GPGGA,083055.35,5703.3464451,N,00952.1989873,E,2,10,1.0,-1.659,M,40.593,M,2.2,0123*6E\r\n
$GPGGA,083055.40,5703.3464527,N,00952.1990887,E,2,10,1.0,-1.658,M,40.593,M,2.2,0123*6E\r\n
$GPGGA,083055.45,5703.3464613,N,00952.1991901,E,2,10,1.0,-1.659,M,40.593,M,2.4,0123*66\r\n
$GPGGA,083055.50,5703.3464699,N,00952.1992915,E,2,10,1.0,-1.659,M,40.593,M,2.4,0123*66\r\n
$GPGGA,083055.55,5703.3464791,N,00952.1993927,E,2,10,1.0,-1.658,M,40.593,M,2.4,0123*6B\r\n
$GPGGA,083055.60,5703.3464889,N,00952.1994946,E,2,10,1.0,-1.659,M,40.593,M,2.4,0123*6A\r\n
$GPGGA,083055.65,5703.3464977,N,00952.1995974,E,2,10,1.0,-1.661,M,40.593,M,2.7,0123*67\r\n
$GPGGA,083055.70,5703.3465081,N,00952.1996993,E,2,10,1.0,-1.664,M,40.593,M,2.7,0123*6D\r\n
$GPGGA,083055.75,5703.3465186,N,00952.1998023,E,2,10,1.0,-1.665,M,40.593,M,2.7,0123*63\r\n
$GPGGA,083055.80,5703.3465287,N,00952.1999045,E,2,10,1.0,-1.668,M,40.593,M,2.7,0123*67\r\n
$GPGGA,083055.85,5703.3465379,N,00952.2000070,E,2,10,1.0,-1.668,M,40.593,M,2.9,0123*60\r\n
$GPGGA,083055.90,5703.3465482,N,00952.2001090,E,2,10,1.0,-1.666,M,40.593,M,2.9,0123*66\r\n
$GPGGA,083055.95,5703.3465585,N,00952.2002107,E,2,10,1.0,-1.666,M,40.593,M,2.9,0123*69\r\n
$GPGGA,083056.00,5703.3465681,N,00952.2003136,E,2,10,1.0,-1.666,M,40.593,M,2.9,0123*62\r\n
$GPGGA,083056.05,5703.3465777,N,00952.2004149,E,2,10,1.0,-1.659,M,40.593,M,3.2,0123*66\r\n
$GPGGA,083056.10,5703.3465869,N,00952.2005176,E,2,10,1.0,-1.657,M,40.593,M,3.2,0123*61\r\n
$GPGGA,083056.15,5703.3465960,N,00952.2006217,E,2,10,1.0,-1.656,M,40.593,M,3.2,0123*6A\r\n
$GPGGA,083056.20,5703.3466047,N,00952.2007265,E,2,10,1.0,-1.656,M,40.593,M,3.2,0123*67\r\n
$GPGGA,083056.25,5703.3466135,N,00952.2008308,E,2,10,1.0,-1.651,M,40.593,M,2.0,0123*67\r\n
$GPGGA,083056.30,5703.3466223,N,00952.2009364,E,2,10,1.0,-1.650,M,40.593,M,2.0,0123*6D\r\n
$GPGGA,083056.35,5703.3466312,N,00952.2010427,E,2,10,1.0,-1.648,M,40.593,M,2.0,0123*6A\r\n
$GPGGA,083056.40,5703.3466393,N,00952.2011487,E,2,10,1.0,-1.649,M,40.593,M,2.0,0123*6B\r\n
$GPGGA,083056.45,5703.3466501,N,00952.2012546,E,2,10,1.0,-1.645,M,40.593,M,2.2,0123*62\r\n
$GPGGA,083056.50,5703.3466598,N,00952.2013608,E,2,10,1.0,-1.645,M,40.593,M,2.2,0123*6E\r\n
$GPGGA,083056.55,5703.3466693,N,00952.2014689,E,2,10,1.0,-1.646,M,40.593,M,2.2,0123*6E\r\n
$GPGGA,083056.60,5703.3466782,N,00952.2015765,E,2,10,1.0,-1.645,M,40.593,M,2.2,0123*68\r\n
$GPGGA,083056.65,5703.3466887,N,00952.2016835,E,2,10,1.0,-1.648,M,40.593,M,2.4,0123*65\r\n
$GPGGA,083056.70,5703.3467003,N,00952.2017890,E,2,10,1.0,-1.648,M,40.593,M,2.4,0123*6A\r\n
$GPGGA,083056.75,5703.3467111,N,00952.2018958,E,2,10,1.0,-1.649,M,40.593,M,2.4,0123*66\r\n
$GPGGA,083056.80,5703.3467219,N,00952.2020029,E,2,10,1.0,-1.651,M,40.593,M,2.4,0123*6A\r\n
$GPGGA,083056.85,5703.3467347,N,00952.2021095,E,2,10,1.0,-1.648,M,40.593,M,2.7,0123*68\r\n
$GPGGA,083056.90,5703.3467455,N,00952.2022156,E,2,10,1.0,-1.648,M,40.593,M,2.7,0123*65\r\n
$GPGGA,083056.95,5703.3467576,N,00952.2023214,E,2,10,1.0,-1.646,M,40.593,M,2.7,0123*6A\r\n
$GPGGA,083057.00,5703.3467704,N,00952.2024274,E,2,10,1.0,-1.644,M,40.593,M,2.7,0123*63\r\n
$GPGGA,083057.05,5703.3467837,N,00952.2025331,E,2,10,1.0,-1.642,M,40.593,M,2.9,0123*60\r\n
$GPGGA,083057.10,5703.3467966,N,00952.2026379,E,2,10,1.0,-1.640,M,40.593,M,2.9,0123*6C\r\n
$GPGGA,083057.15,5703.3468092,N,00952.2027438,E,2,10,1.0,-1.637,M,40.593,M,2.9,0123*67\r\n
$GPGGA,083057.20,5703.3468210,N,00952.2028495,E,2,10,1.0,-1.636,M,40.593,M,2.9,0123*60\r\n
$GPGGA,083057.25,5703.3468336,N,00952.2029554,E,2,10,1.0,-1.633,M,40.593,M,1.9,0123*6B\r\n
$GPGGA,083057.30,5703.3468461,N,00952.2030611,E,2,10,1.0,-1.631,M,40.593,M,1.9,0123*62\r\n
$GPGGA,083057.35,5703.3468596,N,00952.2031675,E,2,10,1.0,-1.630,M,40.593,M,1.9,0123*6C\r\n
$GPGGA,083057.40,5703.3468727,N,00952.2032761,E,2,10,1.0,-1.629,M,40.593,M,1.9,0123*69\r\n
$GPGGA,083057.45,5703.3468855,N,00952.2033828,E,2,10,1.0,-1.631,M,40.593,M,2.1,0123*67\r\n
$GPGGA,083057.50,5703.3469001,N,00952.2034890,E,2,10,1.0,-1.633,M,40.593,M,2.1,0123*6D\r\n
$GPGGA,083057.55,5703.3469148,N,00952.2035954,E,2,10,1.0,-1.634,M,40.593,M,2.1,0123*6B\r\n
$GPGGA,083057.60,5703.3469293,N,00952.2037020,E,2,10,1.0,-1.634,M,40.593,M,2.1,0123*60\r\n
$GPGGA,083057.65,5703.3469443,N,00952.2038083,E,2,10,1.0,-1.634,M,40.593,M,2.3,0123*6A\r\n
$GPGGA,083057.70,5703.3469586,N,00952.2039134,E,2,10,1.0,-1.633,M,40.593,M,2.3,0123*6D\r\n
$GPGGA,083057.75,5703.3469743,N,00952.2040185,E,2,10,1.0,-1.631,M,40.593,M,2.3,0123*65\r\n
$GPGGA,083057.80,5703.3469887,N,00952.2041233,E,2,10,1.0,-1.630,M,40.593,M,2.3,0123*66\r\n
$GPGGA,083057.85,5703.3470046,N,00952.2042274,E,2,10,1.0,-1.629,M,40.593,M,2.6,0123*63\r\n
$GPGGA,083057.90,5703.3470212,N,00952.2043301,E,2,10,1.0,-1.629,M,40.593,M,2.6,0123*66\r\n
$GPGGA,083057.95,5703.3470390,N,00952.2044330,E,2,10,1.0,-1.627,M,40.593,M,2.6,0123*63\r\n
$GPGGA,083058.00,5703.3470566,N,00952.2045358,E,2,10,1.0,-1.626,M,40.593,M,2.6,0123*61\r\n
$GPGGA,083058.05,5703.3470746,N,00952.2046421,E,2,10,1.0,-1.626,M,40.593,M,2.8,0123*60\r\n
$GPGGA,083058.10,5703.3470918,N,00952.2047462,E,2,10,1.0,-1.625,M,40.593,M,2.8,0123*64\r\n
$GPGGA,083058.15,5703.3471090,N,00952.2048475,E,2,10,1.0,-1.626,M,40.593,M,2.8,0123*63\r\n
$GPGGA,083058.20,5703.3471266,N,00952.2049509,E,2,10,1.0,-1.626,M,40.593,M,2.8,0123*65\r\n
$GPGGA,083058.25,5703.3471452,N,00952.2050536,E,2,10,1.0,-1.630,M,40.593,M,3.0,0123*6B\r\n
$GPGGA,083058.30,5703.3471640,N,00952.2051569,E,2,10,1.0,-1.630,M,40.593,M,3.0,0123*65\r\n
$GPGGA,083058.35,5703.3471850,N,00952.2052567,E,2,10,1.0,-1.630,M,40.593,M,3.0,0123*62\r\n
$GPGGA,083058.40,5703.3472055,N,00952.2053562,E,2,10,1.0,-1.629,M,40.593,M,3.0,0123*62\r\n
$GPGGA,083058.45,5703.3472240,N,00952.2054571,E,2,10,1.0,-1.628,M,40.593,M,3.2,0123*67\r\n
$GPGGA,083058.50,5703.3472436,N,00952.2055587,E,2,10,1.0,-1.629,M,40.593,M,3.2,0123*6D\r\n
$GPGGA,083058.55,5703.3472639,N,00952.2056591,E,2,10,1.0,-1.630,M,40.593,M,3.2,0123*69\r\n
$GPGGA,083058.60,5703.3472841,N,00952.2057584,E,2,10,1.0,-1.628,M,40.593,M,3.2,0123*62\r\n
$GPGGA,083058.65,5703.3473041,N,00952.2058576,E,2,10,1.0,-1.625,M,40.593,M,3.4,0123*67\r\n
$GPGGA,083058.70,5703.3473242,N,00952.2059567,E,2,10,1.0,-1.625,M,40.593,M,3.4,0123*63\r\n
$GPGGA,083058.75,5703.3473451,N,00952.2060561,E,2,10,1.0,-1.626,M,40.593,M,3.4,0123*6D\r\n
$GPGGA,083058.80,5703.3473661,N,00952.2061557,E,2,10,1.0,-1.626,M,40.593,M,3.4,0123*62\r\n
$GPGGA,083058.85,5703.3473879,N,00952.2062554,E,2,10,1.0,-1.628,M,40.593,M,3.6,0123*6C\r\n
$GPGGA,083058.90,5703.3474091,N,00952.2063537,E,2,10,1.0,-1.627,M,40.593,M,3.6,0123*6A\r\n
$GPGGA,083058.95,5703.3474307,N,00952.2064525,E,2,10,1.0,-1.628,M,40.593,M,3.6,0123*68\r\n
$GPGGA,083059.00,5703.3474527,N,00952.2065505,E,2,10,1.0,-1.627,M,40.593,M,3.6,0123*6D\r\n
$GPGGA,083059.05,5703.3474761,N,00952.2066485,E,2,10,1.0,-1.629,M,40.593,M,3.8,0123*62\r\n
$GPGGA,083059.10,5703.3474991,N,00952.2067440,E,2,10,1.0,-1.628,M,40.593,M,3.8,0123*6E\r\n
$GPGGA,083059.15,5703.3475239,N,00952.2068394,E,2,10,1.0,-1.626,M,40.593,M,3.8,0123*6C\r\n
$GPGGA,083059.20,5703.3475478,N,00952.2069353,E,2,10,1.0,-1.626,M,40.593,M,3.8,0123*63\r\n
$GPGGA,083059.25,5703.3475709,N,00952.2070325,E,2,10,1.0,-1.629,M,40.593,M,2.2,0123*6E\r\n
$GPGGA,083059.30,5703.3475959,N,00952.2071273,E,2,10,1.0,-1.629,M,40.593,M,2.2,0123*62\r\n
$GPGGA,083059.35,5703.3476213,N,00952.2072232,E,2,10,1.0,-1.630,M,40.593,M,2.2,0123*6F\r\n
$GPGGA,083059.40,5703.3476466,N,00952.2073181,E,2,10,1.0,-1.633,M,40.593,M,2.2,0123*60\r\n
$GPGGA,083059.45,5703.3476744,N,00952.2074135,E,2,10,1.0,-1.632,M,40.593,M,2.4,0123*69\r\n
$GPGGA,083059.50,5703.3477026,N,00952.2075079,E,2,10,1.0,-1.633,M,40.593,M,2.4,0123*66\r\n
$GPGGA,083059.55,5703.3477296,N,00952.2076023,E,2,10,1.0,-1.636,M,40.593,M,2.4,0123*63\r\n
$GPGGA,083059.60,5703.3477556,N,00952.2076954,E,2,10,1.0,-1.636,M,40.593,M,2.4,0123*67\r\n
$GPGGA,083059.65,5703.3477843,N,00952.2077884,E,2,10,1.0,-1.639,M,40.593,M,2.7,0123*6A\r\n
$GPGGA,083059.70,5703.3478131,N,00952.2078810,E,2,10,1.0,-1.639,M,40.593,M,2.7,0123*6F\r\n
$GPGGA,083059.75,5703.3478418,N,00952.2079739,E,2,10,1.0,-1.639,M,40.593,M,2.7,0123*61\r\n
$GPGGA,083059.80,5703.3478696,N,00952.2080667,E,2,10,1.0,-1.639,M,40.593,M,2.7,0123*63\r\n
$GPGGA,083059.85,5703.3478970,N,00952.2081602,E,2,10,1.0,-1.644,M,40.593,M,2.9,0123*67\r\n
$GPGGA,083059.90,5703.3479258,N,00952.2082516,E,2,10,1.0,-1.646,M,40.593,M,2.9,0123*64\r\n
$GPGGA,083059.95,5703.3479551,N,00952.2083431,E,2,10,1.0,-1.645,M,40.593,M,2.9,0123*69\r\n
$GPGGA,083100.00,5703.3479851,N,00952.2084349,E,2,10,1.0,-1.646,M,40.593,M,2.9,0123*69\r\n
$GPGGA,083100.05,5703.3480178,N,00952.2085273,E,2,10,1.0,-1.643,M,40.593,M,3.2,0123*6E\r\n
$GPGGA,083100.10,5703.3480490,N,00952.2086177,E,2,10,1.0,-1.642,M,40.593,M,3.2,0123*6C\r\n
$GPGGA,083100.15,5703.3480797,N,00952.2087080,E,2,10,1.0,-1.640,M,40.593,M,3.2,0123*67\r\n
$GPGGA,083100.20,5703.3481107,N,00952.2087979,E,2,10,1.0,-1.638,M,40.593,M,3.2,0123*6F\r\n
$GPGGA,083100.25,5703.3481428,N,00952.2088878,E,2,10,1.0,-1.636,M,40.593,M,2.0,0123*60\r\n
$GPGGA,083100.30,5703.3481758,N,00952.2089771,E,2,10,1.0,-1.635,M,40.593,M,2.0,0123*64\r\n
$GPGGA,083100.35,5703.3482082,N,00952.2090656,E,2,10,1.0,-1.633,M,40.593,M,2.0,0123*68\r\n
$GPGGA,083100.40,5703.3482425,N,00952.2091541,E,2,10,1.0,-1.631,M,40.593,M,2.0,0123*65\r\n
$GPGGA,083100.45,5703.3482753,N,00952.2092445,E,2,10,1.0,-1.637,M,40.593,M,2.2,0123*60\r\n
$GPGGA,083100.50,5703.3483097,N,00952.2093328,E,2,10,1.0,-1.635,M,40.593,M,2.2,0123*65\r\n
$GPGGA,083100.55,5703.3483443,N,00952.2094209,E,2,10,1.0,-1.635,M,40.593,M,2.2,0123*68\r\n
$GPGGA,083100.60,5703.3483794,N,00952.2095082,E,2,10,1.0,-1.634,M,40.593,M,2.2,0123*66\r\n
$GPGGA,083100.65,5703.3484157,N,00952.2095947,E,2,10,1.0,-1.632,M,40.593,M,2.4,0123*6D\r\n
$GPGGA,083100.70,5703.3484512,N,00952.2096810,E,2,10,1.0,-1.632,M,40.593,M,2.4,0123*6C\r\n
$GPGGA,083100.75,5703.3484866,N,00952.2097661,E,2,10,1.0,-1.631,M,40.593,M,2.4,0123*6D\r\n
$GPGGA,083100.80,5703.3485233,N,00952.2098503,E,2,10,1.0,-1.625,M,40.593,M,2.4,0123*61\r\n
$GPGGA,083100.85,5703.3485614,N,00952.2099344,E,2,10,1.0,-1.621,M,40.593,M,2.7,0123*66\r\n
$GPGGA,083100.90,5703.3485993,N,00952.2100188,E,2,10,1.0,-1.620,M,40.593,M,2.7,0123*60\r\n
$GPGGA,083100.95,5703.3486369,N,00952.2101027,E,2,10,1.0,-1.622,M,40.593,M,2.7,0123*6E\r\n
$GPGGA,083101.00,5703.3486729,N,00952.2101879,E,2,10,1.0,-1.624,M,40.593,M,2.7,0123*66\r\n
$GPGGA,083101.05,5703.3487129,N,00952.2102717,E,2,10,1.0,-1.627,M,40.593,M,2.9,0123*6D\r\n
$GPGGA,083101.10,5703.3487528,N,00952.2103553,E,2,10,1.0,-1.627,M,40.593,M,2.9,0123*6F\r\n
$GPGGA,083101.15,5703.3487920,N,00952.2104393,E,2,10,1.0,-1.629,M,40.593,M,2.9,0123*6D\r\n
$GPGGA,083101.20,5703.3488304,N,00952.2105229,E,2,10,1.0,-1.631,M,40.593,M,2.9,0123*60\r\n
$GPGGA,083101.25,5703.3488703,N,00952.2106045,E,2,10,1.0,-1.627,M,40.593,M,1.9,0123*69\r\n
$GPGGA,083101.30,5703.3489094,N,00952.2106862,E,2,10,1.0,-1.626,M,40.593,M,1.9,0123*69\r\n
$GPGGA,083101.35,5703.3489489,N,00952.2107675,E,2,10,1.0,-1.623,M,40.593,M,1.9,0123*68\r\n
$GPGGA,083101.40,5703.3489877,N,00952.2108497,E,2,10,1.0,-1.621,M,40.593,M,1.9,0123*64\r\n
$GPGGA,083101.45,5703.3490273,N,00952.2109324,E,2,10,1.0,-1.621,M,40.593,M,2.1,0123*62\r\n
$GPGGA,083101.50,5703.3490668,N,00952.2110153,E,2,10,1.0,-1.620,M,40.593,M,2.1,0123*63\r\n
$GPGGA,083101.55,5703.3491062,N,00952.2110965,E,2,10,1.0,-1.618,M,40.593,M,2.1,0123*6D\r\n
$GPGGA,083101.60,5703.3491470,N,00952.2111772,E,2,10,1.0,-1.613,M,40.593,M,2.1,0123*6E\r\n
$GPGGA,083101.65,5703.3491876,N,00952.2112576,E,2,10,1.0,-1.618,M,40.593,M,2.3,0123*6D\r\n
$GPGGA,083101.70,5703.3492288,N,00952.2113362,E,2,10,1.0,-1.619,M,40.593,M,2.3,0123*62\r\n
$GPGGA,083101.75,5703.3492699,N,00952.2114143,E,2,10,1.0,-1.617,M,40.593,M,2.3,0123*6B\r\n
$GPGGA,083101.80,5703.3493116,N,00952.2114930,E,2,10,1.0,-1.615,M,40.593,M,2.3,0123*6E\r\n
$GPGGA,083101.85,5703.3493526,N,00952.2115705,E,2,10,1.0,-1.614,M,40.593,M,2.6,0123*61\r\n
$GPGGA,083101.90,5703.3493963,N,00952.2116480,E,2,10,1.0,-1.613,M,40.593,M,2.6,0123*62\r\n
$GPGGA,083101.95,5703.3494399,N,00952.2117261,E,2,10,1.0,-1.610,M,40.593,M,2.6,0123*64\r\n
$GPGGA,083102.00,5703.3494809,N,00952.2118031,E,2,10,1.0,-1.611,M,40.593,M,2.6,0123*60\r\n
$GPGGA,083102.05,5703.3495234,N,00952.2118794,E,2,10,1.0,-1.610,M,40.593,M,2.8,0123*67\r\n
$GPGGA,083102.10,5703.3495672,N,00952.2119550,E,2,10,1.0,-1.607,M,40.593,M,2.8,0123*68\r\n
$GPGGA,083102.15,5703.3496111,N,00952.2120303,E,2,10,1.0,-1.608,M,40.593,M,2.8,0123*69\r\n
$GPGGA,083102.20,5703.3496550,N,00952.2121065,E,2,10,1.0,-1.609,M,40.593,M,2.8,0123*6D\r\n
$GPGGA,083102.25,5703.3496984,N,00952.2121823,E,2,10,1.0,-1.613,M,40.593,M,3.0,0123*65\r\n
$GPGGA,083102.30,5703.3497420,N,00952.2122569,E,2,10,1.0,-1.613,M,40.593,M,3.0,0123*63\r\n
$GPGGA,083102.35,5703.3497856,N,00952.2123318,E,2,10,1.0,-1.613,M,40.593,M,3.0,0123*6A\r\n
$GPGGA,083102.40,5703.3498295,N,00952.2124062,E,2,10,1.0,-1.611,M,40.593,M,3.0,0123*69\r\n
$GPGGA,083102.45,5703.3498737,N,00952.2124800,E,2,10,1.0,-1.613,M,40.593,M,3.2,0123*6D\r\n
$GPGGA,083102.50,5703.3499179,N,00952.2125527,E,2,10,1.0,-1.610,M,40.593,M,3.2,0123*6E\r\n
$GPGGA,083102.55,5703.3499621,N,00952.2126261,E,2,10,1.0,-1.608,M,40.593,M,3.2,0123*6E\r\n
$GPGGA,083102.60,5703.3500053,N,00952.2126996,E,2,10,1.0,-1.609,M,40.593,M,3.2,0123*68\r\n
$GPGGA,083102.65,5703.3500496,N,00952.2127726,E,2,10,1.0,-1.614,M,40.593,M,3.4,0123*6E\r\n
$GPGGA,083102.70,5703.3500950,N,00952.2128456,E,2,10,1.0,-1.617,M,40.593,M,3.4,0123*65\r\n
$GPGGA,083102.75,5703.3501408,N,00952.2129183,E,2,10,1.0,-1.620,M,40.593,M,3.4,0123*69\r\n
$GPGGA,083102.80,5703.3501865,N,00952.2129894,E,2,10,1.0,-1.620,M,40.593,M,3.4,0123*6B\r\n
$GPGGA,083102.85,5703.3502315,N,00952.2130613,E,2,10,1.0,-1.613,M,40.593,M,3.6,0123*6A\r\n
$GPGGA,083102.90,5703.3502771,N,00952.2131303,E,2,10,1.0,-1.611,M,40.593,M,3.6,0123*6F\r\n
$GPGGA,083102.95,5703.3503228,N,00952.2131996,E,2,10,1.0,-1.609,M,40.593,M,3.6,0123*6D\r\n
$GPGGA,083103.00,5703.3503693,N,00952.2132689,E,2,10,1.0,-1.608,M,40.593,M,3.6,0123*67\r\n
$GPGGA,083103.05,5703.3504156,N,00952.2133369,E,2,10,1.0,-1.612,M,40.593,M,3.8,0123*64\r\n
$GPGGA,083103.10,5703.3504619,N,00952.2134045,E,2,10,1.0,-1.611,M,40.593,M,3.8,0123*65\r\n
$GPGGA,083103.15,5703.3505076,N,00952.2134721,E,2,10,1.0,-1.610,M,40.593,M,3.8,0123*6A\r\n
