$GPGGA,153927.95,5700.7926115,N,00959.0363955,E,2,9,1.0,13.654,M,40.582,M,1.2,0123*44\r\n
$GPGGA,153928.00,5700.7925908,N,00959.0363971,E,2,9,1.0,13.650,M,40.582,M,1.2,0123*42\r\n
$GPGGA,153928.05,5700.7925699,N,00959.0364006,E,2,9,1.0,13.658,M,40.582,M,1.4,0123*40\r\n
$GPGGA,153928.10,5700.7925472,N,00959.0364007,E,2,9,1.0,13.657,M,40.582,M,1.4,0123*4D\r\n
$GPGGA,153928.15,5700.7925243,N,00959.0364004,E,2,9,1.0,13.659,M,40.582,M,1.4,0123*41\r\n
$GPGGA,153928.20,5700.7925034,N,00959.0364011,E,2,9,1.0,13.660,M,40.582,M,1.4,0123*4B\r\n
$GPGGA,153928.25,5700.7924833,N,00959.0364005,E,2,9,1.0,13.663,M,40.582,M,1.6,0123*44\r\n
$GPGGA,153928.30,5700.7924620,N,00959.0363998,E,2,9,1.0,13.666,M,40.582,M,1.6,0123*43\r\n
$GPGGA,153928.35,5700.7924403,N,00959.0363996,E,2,9,1.0,13.669,M,40.582,M,1.6,0123*44\r\n
$GPGGA,153928.40,5700.7924193,N,00959.0364012,E,2,9,1.0,13.669,M,40.582,M,1.6,0123*48\r\n
$GPGGA,153928.45,5700.7923978,N,00959.0364049,E,2,9,1.0,13.670,M,40.582,M,1.9,0123*4E\r\n
$GPGGA,153928.50,5700.7923753,N,00959.0364050,E,2,9,1.0,13.664,M,40.582,M,1.9,0123*40\r\n
$GPGGA,153928.55,5700.7923542,N,00959.0364022,E,2,9,1.0,13.665,M,40.582,M,1.9,0123*43\r\n
$GPGGA,153928.60,5700.7923340,N,00959.0364024,E,2,9,1.0,13.667,M,40.582,M,1.9,0123*45\r\n
$GPGGA,153928.65,5700.7923143,N,00959.0364033,E,2,9,1.0,13.659,M,40.582,M,2.1,0123*41\r\n
$GPGGA,153928.70,5700.7922940,N,00959.0364045,E,2,9,1.0,13.657,M,40.582,M,2.1,0123*40\r\n
$GPGGA,153928.75,5700.7922725,N,00959.0364055,E,2,9,1.0,13.661,M,40.582,M,2.1,0123*4C\r\n
$GPGGA,153928.80,5700.7922517,N,00959.0364078,E,2,9,1.0,13.663,M,40.582,M,2.1,0123*48\r\n
$GPGGA,153928.85,5700.7922327,N,00959.0364113,E,2,9,1.0,13.672,M,40.582,M,2.3,0123*46\r\n
$GPGGA,153928.90,5700.7922127,N,00959.0364118,E,2,9,1.0,13.670,M,40.582,M,2.3,0123*49\r\n
$GPGGA,153928.95,5700.7921925,N,00959.0364104,E,2,9,1.0,13.671,M,40.582,M,2.3,0123*49\r\n
$GPGGA,153929.00,5700.7921739,N,00959.0364095,E,2,9,1.0,13.675,M,40.582,M,2.3,0123*4A\r\n
$GPGGA,153929.05,5700.7921565,N,00959.0364091,E,2,9,1.0,13.677,M,40.582,M,2.5,0123*44\r\n
$GPGGA,153929.10,5700.7921391,N,00959.0364080,E,2,9,1.0,13.679,M,40.582,M,2.5,0123*43\r\n
$GPGGA,153929.15,5700.7921197,N,00959.0364086,E,2,9,1.0,13.684,M,40.582,M,2.5,0123*46\r\n
$GPGGA,153929.20,5700.7920993,N,00959.0364083,E,2,9,1.0,13.686,M,40.582,M,2.5,0123*4A\r\n
$GPGGA,153929.25,5700.7920799,N,00959.0364089,E,2,9,1.0,13.685,M,40.582,M,2.7,0123*40\r\n
$GPGGA,153929.30,5700.7920618,N,00959.0364086,E,2,9,1.0,13.680,M,40.582,M,2.7,0123*46\r\n
$GPGGA,153929.35,5700.7920415,N,00959.0364075,E,2,9,1.0,13.678,M,40.582,M,2.7,0123*47\r\n
$GPGGA,153929.40,5700.7920212,N,00959.0364054,E,2,9,1.0,13.677,M,40.582,M,2.7,0123*48\r\n
$GPGGA,153929.45,5700.7920019,N,00959.0364044,E,2,9,1.0,13.676,M,40.582,M,2.9,0123*4A\r\n
$GPGGA,153929.50,5700.7919831,N,00959.0364053,E,2,9,1.0,13.675,M,40.582,M,2.9,0123*43\r\n
$GPGGA,153929.55,5700.7919641,N,00959.0364070,E,2,9,1.0,13.676,M,40.582,M,2.9,0123*4D\r\n
$GPGGA,153929.60,5700.7919451,N,00959.0364051,E,2,9,1.0,13.677,M,40.582,M,2.9,0123*4A\r\n
$GPGGA,153929.65,5700.7919271,N,00959.0364047,E,2,9,1.0,13.679,M,40.582,M,3.1,0123*4B\r\n
$GPGGA,153929.70,5700.7919088,N,00959.0364073,E,2,9,1.0,13.682,M,40.582,M,3.1,0123*48\r\n
$GPGGA,153929.75,5700.7918908,N,00959.0364088,E,2,9,1.0,13.683,M,40.582,M,3.1,0123*48\r\n
$GPGGA,153929.80,5700.7918726,N,00959.0364094,E,2,9,1.0,13.683,M,40.582,M,3.1,0123*4D\r\n
$GPGGA,153929.85,5700.7918548,N,00959.0364082,E,2,9,1.0,13.686,M,40.582,M,2.4,0123*44\r\n
$GPGGA,153929.90,5700.7918376,N,00959.0364053,E,2,9,1.0,13.689,M,40.582,M,2.4,0123*48\r\n
$GPGGA,153929.95,5700.7918198,N,00959.0364013,E,2,9,1.0,13.692,M,40.582,M,2.4,0123*41\r\n
$GPGGA,153930.00,5700.7918017,N,00959.0363977,E,2,9,1.0,13.695,M,40.582,M,2.4,0123*48\r\n
$GPGGA,153930.05,5700.7917834,N,00959.0363962,E,2,9,1.0,13.700,M,40.582,M,2.7,0123*41\r\n
$GPGGA,153930.10,5700.7917671,N,00959.0363969,E,2,9,1.0,13.701,M,40.582,M,2.7,0123*40\r\n
$GPGGA,153930.15,5700.7917501,N,00959.0363961,E,2,9,1.0,13.701,M,40.582,M,2.7,0123*49\r\n
$GPGGA,153930.20,5700.7917315,N,00959.0363954,E,2,9,1.0,13.701,M,40.582,M,2.7,0123*4A\r\n
$GPGGA,153930.25,5700.7917122,N,00959.0363926,E,2,9,1.0,13.695,M,40.582,M,3.0,0123*46\r\n
$GPGGA,153930.30,5700.7916941,N,00959.0363908,E,2,9,1.0,13.692,M,40.582,M,3.0,0123*45\r\n
$GPGGA,153930.35,5700.7916759,N,00959.0363879,E,2,9,1.0,13.693,M,40.582,M,3.0,0123*41\r\n
$GPGGA,153930.40,5700.7916586,N,00959.0363865,E,2,9,1.0,13.696,M,40.582,M,3.0,0123*4B\r\n
$GPGGA,153930.45,5700.7916429,N,00959.0363855,E,2,9,1.0,13.700,M,40.582,M,3.2,0123*45\r\n
$GPGGA,153930.50,5700.7916269,N,00959.0363829,E,2,9,1.0,13.698,M,40.582,M,3.2,0123*48\r\n
$GPGGA,153930.55,5700.7916106,N,00959.0363798,E,2,9,1.0,13.697,M,40.582,M,3.2,0123*4D\r\n
$GPGGA,153930.60,5700.7915930,N,00959.0363775,E,2,9,1.0,13.699,M,40.582,M,3.2,0123*48\r\n
$GPGGA,153930.65,5700.7915761,N,00959.0363767,E,2,9,1.0,13.695,M,40.582,M,3.5,0123*4F\r\n
$GPGGA,153930.70,5700.7915615,N,00959.0363790,E,2,9,1.0,13.696,M,40.582,M,3.5,0123*42\r\n
$GPGGA,153930.75,5700.7915468,N,00959.0363789,E,2,9,1.0,13.694,M,40.582,M,3.5,0123*45\r\n
$GPGGA,153930.80,5700.7915307,N,00959.0363745,E,2,9,1.0,13.687,M,40.582,M,3.5,0123*43\r\n
$GPGGA,153930.85,5700.7915145,N,00959.0363722,E,2,9,1.0,13.695,M,40.582,M,1.4,0123*43\r\n
$GPGGA,153930.90,5700.7914995,N,00959.0363693,E,2,9,1.0,13.698,M,40.582,M,1.4,0123*45\r\n
$GPGGA,153930.95,5700.7914847,N,00959.0363677,E,2,9,1.0,13.701,M,40.582,M,1.4,0123*45\r\n
$GPGGA,153931.00,5700.7914695,N,00959.0363669,E,2,9,1.0,13.705,M,40.582,M,1.4,0123*42\r\n
$GPGGA,153931.05,5700.7914536,N,00959.0363660,E,2,9,1.0,13.706,M,40.582,M,1.6,0123*45\r\n
$GPGGA,153931.10,5700.7914383,N,00959.0363649,E,2,9,1.0,13.705,M,40.582,M,1.6,0123*41\r\n
$GPGGA,153931.15,5700.7914236,N,00959.0363637,E,2,9,1.0,13.704,M,40.582,M,1.6,0123*43\r\n
$GPGGA,153931.20,5700.7914092,N,00959.0363616,E,2,9,1.0,13.705,M,40.582,M,1.6,0123*4B\r\n
$GPGGA,153931.25,5700.7913938,N,00959.0363582,E,2,9,1.0,13.703,M,40.582,M,1.9,0123*47\r\n
$GPGGA,153931.30,5700.7913798,N,00959.0363588,E,2,9,1.0,13.703,M,40.582,M,1.9,0123*4D\r\n
$GPGGA,153931.35,5700.7913650,N,00959.0363591,E,2,9,1.0,13.705,M,40.582,M,1.9,0123*43\r\n
$GPGGA,153931.40,5700.7913500,N,00959.0363596,E,2,9,1.0,13.707,M,40.582,M,1.9,0123*42\r\n
$GPGGA,153931.45,5700.7913363,N,00959.0363608,E,2,9,1.0,13.711,M,40.582,M,2.2,0123*4F\r\n
$GPGGA,153931.50,5700.7913230,N,00959.0363609,E,2,9,1.0,13.714,M,40.582,M,2.2,0123*48\r\n
$GPGGA,153931.55,5700.7913093,N,00959.0363595,E,2,9,1.0,13.716,M,40.582,M,2.2,0123*42\r\n
$GPGGA,153931.60,5700.7912946,N,00959.0363592,E,2,9,1.0,13.716,M,40.582,M,2.2,0123*43\r\n
$GPGGA,153931.65,5700.7912802,N,00959.0363596,E,2,9,1.0,13.714,M,40.582,M,2.4,0123*47\r\n
$GPGGA,153931.70,5700.7912672,N,00959.0363601,E,2,9,1.0,13.715,M,40.582,M,2.4,0123*46\r\n
$GPGGA,153931.75,5700.7912548,N,00959.0363613,E,2,9,1.0,13.718,M,40.582,M,2.4,0123*47\r\n
$GPGGA,153931.80,5700.7912420,N,00959.0363605,E,2,9,1.0,13.721,M,40.582,M,2.4,0123*4F\r\n
$GPGGA,153931.85,5700.7912283,N,00959.0363598,E,2,9,1.0,13.731,M,40.582,M,1.2,0123*46\r\n
$GPGGA,153931.90,5700.7912122,N,00959.0363594,E,2,9,1.0,13.733,M,40.582,M,1.2,0123*44\r\n
$GPGGA,153931.95,5700.7911961,N,00959.0363561,E,2,9,1.0,13.729,M,40.582,M,1.2,0123*4C\r\n
$GPGGA,153932.00,5700.7911828,N,00959.0363534,E,2,9,1.0,13.727,M,40.582,M,1.2,0123*41\r\n
$GPGGA,153932.05,5700.7911690,N,00959.0363513,E,2,9,1.0,13.728,M,40.582,M,1.4,0123*45\r\n
$GPGGA,153932.10,5700.7911544,N,00959.0363523,E,2,9,1.0,13.729,M,40.582,M,1.4,0123*49\r\n
$GPGGA,153932.15,5700.7911383,N,00959.0363533,E,2,9,1.0,13.734,M,40.582,M,1.4,0123*4C\r\n
$GPGGA,153932.20,5700.7911224,N,00959.0363515,E,2,9,1.0,13.732,M,40.582,M,1.4,0123*44\r\n
$GPGGA,153932.25,5700.7911072,N,00959.0363519,E,2,9,1.0,13.738,M,40.582,M,1.6,0123*44\r\n
$GPGGA,153932.30,5700.7910914,N,00959.0363518,E,2,9,1.0,13.737,M,40.582,M,1.6,0123*46\r\n
$GPGGA,153932.35,5700.7910755,N,00959.0363547,E,2,9,1.0,13.743,M,40.582,M,1.6,0123*41\r\n
$GPGGA,153932.40,5700.7910593,N,00959.0363557,E,2,9,1.0,13.745,M,40.582,M,1.6,0123*4C\r\n
$GPGGA,153932.45,5700.7910428,N,00959.0363516,E,2,9,1.0,13.737,M,40.582,M,1.9,0123*47\r\n
$GPGGA,153932.50,5700.7910257,N,00959.0363482,E,2,9,1.0,13.734,M,40.582,M,1.9,0123*42\r\n
$GPGGA,153932.55,5700.7910092,N,00959.0363465,E,2,9,1.0,13.733,M,40.582,M,1.9,0123*42\r\n
$GPGGA,153932.60,5700.7909934,N,00959.0363465,E,2,9,1.0,13.737,M,40.582,M,1.9,0123*4D\r\n
$GPGGA,153932.65,5700.7909763,N,00959.0363450,E,2,9,1.0,13.737,M,40.582,M,2.1,0123*49\r\n
$GPGGA,153932.70,5700.7909596,N,00959.0363439,E,2,9,1.0,13.737,M,40.582,M,2.1,0123*4A\r\n
$GPGGA,153932.75,5700.7909435,N,00959.0363430,E,2,9,1.0,13.735,M,40.582,M,2.1,0123*4C\r\n
$GPGGA,153932.80,5700.7909266,N,00959.0363438,E,2,9,1.0,13.733,M,40.582,M,2.1,0123*48\r\n
$GPGGA,153932.85,5700.7909089,N,00959.0363433,E,2,9,1.0,13.733,M,40.582,M,2.3,0123*47\r\n
$GPGGA,153932.90,5700.7908914,N,00959.0363417,E,2,9,1.0,13.732,M,40.582,M,2.3,0123*48\r\n
$GPGGA,153932.95,5700.7908732,N,00959.0363412,E,2,9,1.0,13.730,M,40.582,M,2.3,0123*40\r\n
$GPGGA,153933.00,5700.7908553,N,00959.0363413,E,2,9,1.0,13.726,M,40.582,M,2.3,0123*4E\r\n
$GPGGA,153933.05,5700.7908383,N,00959.0363425,E,2,9,1.0,13.728,M,40.582,M,2.5,0123*4D\r\n
$GPGGA,153933.10,5700.7908222,N,00959.0363444,E,2,9,1.0,13.731,M,40.582,M,2.5,0123*4C\r\n
$GPGGA,153933.15,5700.7908071,N,00959.0363433,E,2,9,1.0,13.737,M,40.582,M,2.5,0123*4B\r\n
$GPGGA,153933.20,5700.7907889,N,00959.0363400,E,2,9,1.0,13.736,M,40.582,M,2.5,0123*4C\r\n
$GPGGA,153933.25,5700.7907704,N,00959.0363394,E,2,9,1.0,13.743,M,40.582,M,2.7,0123*49\r\n
$GPGGA,153933.30,5700.7907533,N,00959.0363368,E,2,9,1.0,13.744,M,40.582,M,2.7,0123*4F\r\n
$GPGGA,153933.35,5700.7907361,N,00959.0363362,E,2,9,1.0,13.749,M,40.582,M,2.7,0123*4C\r\n
$GPGGA,153933.40,5700.7907183,N,00959.0363352,E,2,9,1.0,13.749,M,40.582,M,2.7,0123*43\r\n
$GPGGA,153933.45,5700.7907007,N,00959.0363316,E,2,9,1.0,13.744,M,40.582,M,2.9,0123*48\r\n
$GPGGA,153933.50,5700.7906837,N,00959.0363279,E,2,9,1.0,13.740,M,40.582,M,2.9,0123*4A\r\n
$GPGGA,153933.55,5700.7906661,N,00959.0363226,E,2,9,1.0,13.737,M,40.582,M,2.9,0123*48\r\n
$GPGGA,153933.60,5700.7906462,N,00959.0363163,E,2,9,1.0,13.733,M,40.582,M,2.9,0123*49\r\n
$GPGGA,153933.65,5700.7906280,N,00959.0363110,E,2,9,1.0,13.732,M,40.582,M,3.1,0123*4A\r\n
$GPGGA,153933.70,5700.7906082,N,00959.0363072,E,2,9,1.0,13.732,M,40.582,M,3.1,0123*4B\r\n
$GPGGA,153933.75,5700.7905898,N,00959.0363015,E,2,9,1.0,13.732,M,40.582,M,3.1,0123*4F\r\n
$GPGGA,153933.80,5700.7905703,N,00959.0362949,E,2,9,1.0,13.730,M,40.582,M,3.1,0123*4B\r\n
$GPGGA,153933.85,5700.7905516,N,00959.0362897,E,2,9,1.0,13.737,M,40.582,M,2.4,0123*49\r\n
$GPGGA,153933.90,5700.7905314,N,00959.0362845,E,2,9,1.0,13.738,M,40.582,M,2.4,0123*49\r\n
$GPGGA,153933.95,5700.7905124,N,00959.0362798,E,2,9,1.0,13.736,M,40.582,M,2.4,0123*4C\r\n
$GPGGA,153934.00,5700.7904922,N,00959.0362742,E,2,9,1.0,13.735,M,40.582,M,2.4,0123*4C\r\n
$GPGGA,153934.05,5700.7904705,N,00959.0362648,E,2,9,1.0,13.731,M,40.582,M,2.7,0123*4E\r\n
$GPGGA,153934.10,5700.7904509,N,00959.0362567,E,2,9,1.0,13.728,M,40.582,M,2.7,0123*42\r\n
$GPGGA,153934.15,5700.7904332,N,00959.0362488,E,2,9,1.0,13.726,M,40.582,M,2.7,0123*47\r\n
$GPGGA,153934.20,5700.7904160,N,00959.0362397,E,2,9,1.0,13.724,M,40.582,M,2.7,0123*4F\r\n
$GPGGA,153934.25,5700.7903966,N,00959.0362318,E,2,9,1.0,13.738,M,40.582,M,3.0,0123*4F\r\n
$GPGGA,153934.30,5700.7903752,N,00959.0362236,E,2,9,1.0,13.742,M,40.582,M,3.0,0123*42\r\n
$GPGGA,153934.35,5700.7903557,N,00959.0362131,E,2,9,1.0,13.738,M,40.582,M,3.0,0123*49\r\n
$GPGGA,153934.40,5700.7903373,N,00959.0362006,E,2,9,1.0,13.736,M,40.582,M,3.0,0123*40\r\n
$GPGGA,153934.45,5700.7903182,N,00959.0361925,E,2,9,1.0,13.740,M,40.582,M,3.2,0123*41\r\n
$GPGGA,153934.50,5700.7902979,N,00959.0361888,E,2,9,1.0,13.744,M,40.582,M,3.2,0123*4A\r\n
$GPGGA,153934.55,5700.7902785,N,00959.0361814,E,2,9,1.0,13.743,M,40.582,M,3.2,0123*40\r\n
$GPGGA,153934.60,5700.7902584,N,00959.0361698,E,2,9,1.0,13.738,M,40.582,M,3.2,0123*43\r\n
$GPGGA,153934.65,5700.7902380,N,00959.0361566,E,2,9,1.0,13.728,M,40.582,M,3.5,0123*40\r\n
$GPGGA,153934.70,5700.7902186,N,00959.0361459,E,2,9,1.0,13.726,M,40.582,M,3.5,0123*43\r\n
$GPGGA,153934.75,5700.7901992,N,00959.0361365,E,2,9,1.0,13.729,M,40.582,M,3.5,0123*4F\r\n
$GPGGA,153934.80,5700.7901805,N,00959.0361267,E,2,9,1.0,13.734,M,40.582,M,3.5,0123*45\r\n
$GPGGA,153934.85,5700.7901635,N,00959.0361180,E,2,9,1.0,13.740,M,40.582,M,1.4,0123*47\r\n
$GPGGA,153934.90,5700.7901446,N,00959.0361089,E,2,9,1.0,13.742,M,40.582,M,1.4,0123*4F\r\n
$GPGGA,153934.95,5700.7901233,N,00959.0360973,E,2,9,1.0,13.743,M,40.582,M,1.4,0123*42\r\n
$GPGGA,153935.00,5700.7901032,N,00959.0360870,E,2,9,1.0,13.747,M,40.582,M,1.4,0123*4A\r\n
$GPGGA,153935.05,5700.7900864,N,00959.0360787,E,2,9,1.0,13.751,M,40.582,M,1.6,0123*47\r\n
$GPGGA,153935.10,5700.7900684,N,00959.0360705,E,2,9,1.0,13.755,M,40.582,M,1.6,0123*4D\r\n
$GPGGA,153935.15,5700.7900492,N,00959.0360590,E,2,9,1.0,13.756,M,40.582,M,1.6,0123*40\r\n
$GPGGA,153935.20,5700.7900289,N,00959.0360446,E,2,9,1.0,13.751,M,40.582,M,1.6,0123*47\r\n
$GPGGA,153935.25,5700.7900091,N,00959.0360313,E,2,9,1.0,13.747,M,40.582,M,1.9,0123*46\r\n
$GPGGA,153935.30,5700.7899903,N,00959.0360189,E,2,9,1.0,13.747,M,40.582,M,1.9,0123*40\r\n
$GPGGA,153935.35,5700.7899747,N,00959.0360082,E,2,9,1.0,13.751,M,40.582,M,1.9,0123*46\r\n
$GPGGA,153935.40,5700.7899577,N,00959.0359986,E,2,9,1.0,13.755,M,40.582,M,1.9,0123*46\r\n
$GPGGA,153935.45,5700.7899398,N,00959.0359892,E,2,9,1.0,13.758,M,40.582,M,2.2,0123*45\r\n
$GPGGA,153935.50,5700.7899190,N,00959.0359749,E,2,9,1.0,13.752,M,40.582,M,2.2,0123*48\r\n
$GPGGA,153935.55,5700.7898978,N,00959.0359607,E,2,9,1.0,13.749,M,40.582,M,2.2,0123*43\r\n
$GPGGA,153935.60,5700.7898792,N,00959.0359517,E,2,9,1.0,13.753,M,40.582,M,2.2,0123*46\r\n
$GPGGA,153935.65,5700.7898625,N,00959.0359449,E,2,9,1.0,13.755,M,40.582,M,2.4,0123*44\r\n
$GPGGA,153935.70,5700.7898463,N,00959.0359358,E,2,9,1.0,13.760,M,40.582,M,2.4,0123*41\r\n
$GPGGA,153935.75,5700.7898279,N,00959.0359240,E,2,9,1.0,13.761,M,40.582,M,2.4,0123*40\r\n
$GPGGA,153935.80,5700.7898085,N,00959.0359120,E,2,9,1.0,13.762,M,40.582,M,2.4,0123*4D\r\n
$GPGGA,153935.85,5700.7897902,N,00959.0359015,E,2,9,1.0,13.773,M,40.582,M,1.2,0123*43\r\n
$GPGGA,153935.90,5700.7897732,N,00959.0358907,E,2,9,1.0,13.778,M,40.582,M,1.2,0123*4A\r\n
$GPGGA,153935.95,5700.7897572,N,00959.0358787,E,2,9,1.0,13.785,M,40.582,M,1.2,0123*4D\r\n
$GPGGA,153936.00,5700.7897408,N,00959.0358663,E,2,9,1.0,13.787,M,40.582,M,1.2,0123*47\r\n
$GPGGA,153936.05,5700.7897238,N,00959.0358501,E,2,9,1.0,13.784,M,40.582,M,1.4,0123*45\r\n
$GPGGA,153936.10,5700.7897048,N,00959.0358350,E,2,9,1.0,13.782,M,40.582,M,1.4,0123*40\r\n
$GPGGA,153936.15,5700.7896858,N,00959.0358209,E,2,9,1.0,13.782,M,40.582,M,1.4,0123*40\r\n
$GPGGA,153936.20,5700.7896678,N,00959.0358074,E,2,9,1.0,13.787,M,40.582,M,1.4,0123*47\r\n
$GPGGA,153936.25,5700.7896499,N,00959.0357922,E,2,9,1.0,13.789,M,40.582,M,1.6,0123*46\r\n
$GPGGA,153936.30,5700.7896321,N,00959.0357753,E,2,9,1.0,13.788,M,40.582,M,1.6,0123*4F\r\n
$GPGGA,153936.35,5700.7896148,N,00959.0357593,E,2,9,1.0,13.784,M,40.582,M,1.6,0123*45\r\n
$GPGGA,153936.40,5700.7895986,N,00959.0357423,E,2,9,1.0,13.782,M,40.582,M,1.6,0123*42\r\n
$GPGGA,153936.45,5700.7895813,N,00959.0357248,E,2,9,1.0,13.779,M,40.582,M,1.9,0123*4A\r\n
$GPGGA,153936.50,5700.7895616,N,00959.0357064,E,2,9,1.0,13.775,M,40.582,M,1.9,0123*45\r\n
$GPGGA,153936.55,5700.7895419,N,00959.0356885,E,2,9,1.0,13.774,M,40.582,M,1.9,0123*4A\r\n
$GPGGA,153936.60,5700.7895237,N,00959.0356722,E,2,9,1.0,13.773,M,40.582,M,1.9,0123*43\r\n
$GPGGA,153936.65,5700.7895067,N,00959.0356578,E,2,9,1.0,13.780,M,40.582,M,2.1,0123*4B\r\n
$GPGGA,153936.70,5700.7894894,N,00959.0356403,E,2,9,1.0,13.784,M,40.582,M,2.1,0123*43\r\n
$GPGGA,153936.75,5700.7894732,N,00959.0356245,E,2,9,1.0,13.786,M,40.582,M,2.1,0123*43\r\n
$GPGGA,153936.80,5700.7894583,N,00959.0356106,E,2,9,1.0,13.787,M,40.582,M,2.1,0123*44\r\n
$GPGGA,153936.85,5700.7894419,N,00959.0355945,E,2,9,1.0,13.798,M,40.582,M,2.3,0123*43\r\n
$GPGGA,153936.90,5700.7894226,N,00959.0355743,E,2,9,1.0,13.801,M,40.582,M,2.3,0123*4A\r\n
$GPGGA,153936.95,5700.7894056,N,00959.0355542,E,2,9,1.0,13.803,M,40.582,M,2.3,0123*4B\r\n
$GPGGA,153937.00,5700.7893900,N,00959.0355352,E,2,9,1.0,13.804,M,40.582,M,2.3,0123*4B\r\n
$GPGGA,153937.05,5700.7893730,N,00959.0355167,E,2,9,1.0,13.804,M,40.582,M,2.5,0123*41\r\n
$GPGGA,153937.10,5700.7893561,N,00959.0354990,E,2,9,1.0,13.806,M,40.582,M,2.5,0123*40\r\n
$GPGGA,153937.15,5700.7893393,N,00959.0354792,E,2,9,1.0,13.808,M,40.582,M,2.5,0123*4C\r\n
$GPGGA,153937.20,5700.7893226,N,00959.0354570,E,2,8,1.0,13.805,M,40.582,M,2.5,0123*47\r\n
$GPGGA,153937.25,5700.7893060,N,00959.0354364,E,2,8,1.0,13.794,M,40.582,M,2.7,0123*44\r\n
$GPGGA,153937.30,5700.7892889,N,00959.0354184,E,2,8,1.0,13.793,M,40.582,M,2.7,0123*45\r\n
$GPGGA,153937.35,5700.7892684,N,00959.0353992,E,2,8,1.0,13.790,M,40.582,M,2.7,0123*48\r\n
$GPGGA,153937.40,5700.7892468,N,00959.0353750,E,2,8,1.0,13.785,M,40.582,M,2.7,0123*4E\r\n
$GPGGA,153937.45,5700.7892300,N,00959.0353533,E,2,8,1.0,13.791,M,40.582,M,2.9,0123*4E\r\n
$GPGGA,153937.50,5700.7892162,N,00959.0353343,E,2,8,1.0,13.793,M,40.582,M,2.9,0123*4F\r\n
$GPGGA,153937.55,5700.7892012,N,00959.0353172,E,2,8,1.0,13.796,M,40.582,M,2.9,0123*49\r\n
$GPGGA,153937.60,5700.7891847,N,00959.0352997,E,2,8,1.0,13.799,M,40.582,M,2.9,0123*49\r\n
$GPGGA,153937.65,5700.7891667,N,00959.0352775,E,2,8,1.0,13.793,M,40.582,M,3.1,0123*41\r\n
$GPGGA,153937.70,5700.7891500,N,00959.0352550,E,2,8,1.0,13.788,M,40.582,M,3.1,0123*48\r\n
$GPGGA,153937.75,5700.7891326,N,00959.0352349,E,2,8,1.0,13.784,M,40.582,M,3.1,0123*4D\r\n
$GPGGA,153937.80,5700.7891153,N,00959.0352172,E,2,8,1.0,13.785,M,40.582,M,3.1,0123*4C\r\n
$GPGGA,153937.85,5700.7890977,N,00959.0351994,E,2,8,1.0,13.785,M,40.582,M,2.4,0123*41\r\n
$GPGGA,153937.90,5700.7890805,N,00959.0351781,E,2,8,1.0,13.788,M,40.582,M,2.4,0123*46\r\n
$GPGGA,153937.95,5700.7890658,N,00959.0351534,E,2,8,1.0,13.790,M,40.582,M,2.4,0123*40\r\n
$GPGGA,153938.00,5700.7890498,N,00959.0351279,E,2,8,1.0,13.787,M,40.582,M,2.4,0123*45\r\n
$GPGGA,153938.05,5700.7890352,N,00959.0351069,E,2,9,1.0,13.805,M,40.582,M,2.7,0123*45\r\n
$GPGGA,153938.10,5700.7890203,N,00959.0350887,E,2,9,1.0,13.805,M,40.582,M,2.7,0123*4D\r\n
$GPGGA,153938.15,5700.7890063,N,00959.0350713,E,2,9,1.0,13.808,M,40.582,M,2.7,0123*43\r\n
$GPGGA,153938.20,5700.7889895,N,00959.0350507,E,2,9,1.0,13.809,M,40.582,M,2.7,0123*4A\r\n
$GPGGA,153938.25,5700.7889708,N,00959.0350257,E,2,9,1.0,13.802,M,40.582,M,3.0,0123*4B\r\n
$GPGGA,153938.30,5700.7889536,N,00959.0349998,E,2,9,1.0,13.800,M,40.582,M,3.0,0123*42\r\n
$GPGGA,153938.35,5700.7889368,N,00959.0349787,E,2,9,1.0,13.800,M,40.582,M,3.0,0123*4A\r\n
$GPGGA,153938.40,5700.7889196,N,00959.0349623,E,2,9,1.0,13.802,M,40.582,M,3.0,0123*46\r\n
$GPGGA,153938.45,5700.7889033,N,00959.0349479,E,2,9,1.0,13.804,M,40.582,M,3.2,0123*44\r\n
$GPGGA,153938.50,5700.7888888,N,00959.0349318,E,2,9,1.0,13.806,M,40.582,M,3.2,0123*4B\r\n
$GPGGA,153938.55,5700.7888740,N,00959.0349104,E,2,9,1.0,13.805,M,40.582,M,3.2,0123*49\r\n
$GPGGA,153938.60,5700.7888590,N,00959.0348878,E,2,9,1.0,13.806,M,40.582,M,3.2,0123*40\r\n
$GPGGA,153938.65,5700.7888449,N,00959.0348668,E,2,9,1.0,13.811,M,40.582,M,3.5,0123*4E\r\n
$GPGGA,153938.70,5700.7888292,N,00959.0348468,E,2,9,1.0,13.813,M,40.582,M,3.5,0123*4A\r\n
$GPGGA,153938.75,5700.7888131,N,00959.0348260,E,2,9,1.0,13.815,M,40.582,M,3.5,0123*4D\r\n
$GPGGA,153938.80,5700.7887978,N,00959.0348070,E,2,9,1.0,13.818,M,40.582,M,3.5,0123*43\r\n
$GPGGA,153938.85,5700.7887839,N,00959.0347884,E,2,9,1.0,13.822,M,40.582,M,1.4,0123*44\r\n
$GPGGA,153938.90,5700.7887696,N,00959.0347697,E,2,9,1.0,13.822,M,40.582,M,1.4,0123*47\r\n
$GPGGA,153938.95,5700.7887558,N,00959.0347501,E,2,9,1.0,13.823,M,40.582,M,1.4,0123*4E\r\n
$GPGGA,153939.00,5700.7887414,N,00959.0347299,E,2,9,1.0,13.821,M,40.582,M,1.4,0123*4E\r\n
$GPGGA,153939.05,5700.7887265,N,00959.0347122,E,2,9,1.0,13.822,M,40.582,M,1.6,0123*49\r\n
$GPGGA,153939.10,5700.7887118,N,00959.0346958,E,2,9,1.0,13.817,M,40.582,M,1.6,0123*46\r\n
$GPGGA,153939.15,5700.7886968,N,00959.0346792,E,2,9,1.0,13.812,M,40.582,M,1.6,0123*40\r\n
$GPGGA,153939.20,5700.7886804,N,00959.0346618,E,2,9,1.0,13.810,M,40.582,M,1.6,0123*4C\r\n
$GPGGA,153939.25,5700.7886625,N,00959.0346427,E,2,9,1.0,13.813,M,40.582,M,1.9,0123*46\r\n
$GPGGA,153939.30,5700.7886477,N,00959.0346227,E,2,9,1.0,13.811,M,40.582,M,1.9,0123*43\r\n
$GPGGA,153939.35,5700.7886354,N,00959.0346030,E,2,9,1.0,13.808,M,40.582,M,1.9,0123*4C\r\n
$GPGGA,153939.40,5700.7886235,N,00959.0345863,E,2,9,1.0,13.807,M,40.582,M,1.9,0123*4A\r\n
$GPGGA,153939.45,5700.7886110,N,00959.0345703,E,2,9,1.0,13.799,M,40.582,M,2.2,0123*42\r\n
$GPGGA,153939.50,5700.7885990,N,00959.0345576,E,2,9,1.0,13.801,M,40.582,M,2.2,0123*4B\r\n
$GPGGA,153939.55,5700.7885862,N,00959.0345442,E,2,9,1.0,13.804,M,40.582,M,2.2,0123*41\r\n
$GPGGA,153939.60,5700.7885712,N,00959.0345321,E,2,9,1.0,13.809,M,40.582,M,2.2,0123*40\r\n
$GPGGA,153939.65,5700.7885575,N,00959.0345189,E,2,9,1.0,13.828,M,40.582,M,2.4,0123*43\r\n
$GPGGA,153939.70,5700.7885464,N,00959.0345010,E,2,9,1.0,13.834,M,40.582,M,2.4,0123*4A\r\n
$GPGGA,153939.75,5700.7885370,N,00959.0344833,E,2,9,1.0,13.841,M,40.582,M,2.4,0123*47\r\n
$GPGGA,153939.80,5700.7885285,N,00959.0344649,E,2,9,1.0,13.842,M,40.582,M,2.4,0123*46\r\n
$GPGGA,153939.85,5700.7885179,N,00959.0344464,E,2,9,1.0,13.836,M,40.582,M,1.2,0123*48\r\n
$GPGGA,153939.90,5700.7885047,N,00959.0344311,E,2,9,1.0,13.836,M,40.582,M,1.2,0123*45\r\n
$GPGGA,153939.95,5700.7884923,N,00959.0344152,E,2,9,1.0,13.832,M,40.582,M,1.2,0123*4B\r\n
$GPGGA,153940.00,5700.7884780,N,00959.0344028,E,2,9,1.0,13.826,M,40.582,M,1.2,0123*47\r\n
$GPGGA,153940.05,5700.7884645,N,00959.0343924,E,2,9,1.0,13.821,M,40.582,M,1.4,0123*49\r\n
$GPGGA,153940.10,5700.7884522,N,00959.0343842,E,2,9,1.0,13.819,M,40.582,M,1.4,0123*45\r\n
$GPGGA,153940.15,5700.7884403,N,00959.0343780,E,2,9,1.0,13.817,M,40.582,M,1.4,0123*4D\r\n
$GPGGA,153940.20,5700.7884274,N,00959.0343726,E,2,9,1.0,13.819,M,40.582,M,1.4,0123*4F\r\n
$GPGGA,153940.25,5700.7884137,N,00959.0343697,E,2,9,1.0,13.832,M,40.582,M,1.6,0123*4E\r\n
$GPGGA,153940.30,5700.7884016,N,00959.0343642,E,2,9,1.0,13.834,M,40.582,M,1.6,0123*46\r\n
$GPGGA,153940.35,5700.7883906,N,00959.0343608,E,2,9,1.0,13.837,M,40.582,M,1.6,0123*41\r\n
$GPGGA,153940.40,5700.7883782,N,00959.0343584,E,2,9,1.0,13.839,M,40.582,M,1.6,0123*48\r\n
$GPGGA,153940.45,5700.7883653,N,00959.0343533,E,2,9,1.0,13.821,M,40.582,M,1.9,0123*4A\r\n
$GPGGA,153940.50,5700.7883526,N,00959.0343503,E,2,9,1.0,13.822,M,40.582,M,1.9,0123*4F\r\n
$GPGGA,153940.55,5700.7883417,N,00959.0343476,E,2,9,1.0,13.826,M,40.582,M,1.9,0123*4E\r\n
$GPGGA,153940.60,5700.7883322,N,00959.0343413,E,2,9,1.0,13.829,M,40.582,M,1.9,0123*45\r\n
$GPGGA,153940.65,5700.7883221,N,00959.0343351,E,2,9,1.0,13.843,M,40.582,M,2.1,0123*44\r\n
$GPGGA,153940.70,5700.7883108,N,00959.0343288,E,2,9,1.0,13.842,M,40.582,M,2.1,0123*4C\r\n
$GPGGA,153940.75,5700.7882968,N,00959.0343250,E,2,9,1.0,13.840,M,40.582,M,2.1,0123*41\r\n
$GPGGA,153940.80,5700.7882827,N,00959.0343211,E,2,9,1.0,13.840,M,40.582,M,2.1,0123*44\r\n
$GPGGA,153940.85,5700.7882696,N,00959.0343178,E,2,9,1.0,13.832,M,40.582,M,2.3,0123*4E\r\n
$GPGGA,153940.90,5700.7882574,N,00959.0343156,E,2,9,1.0,13.832,M,40.582,M,2.3,0123*49\r\n
$GPGGA,153940.95,5700.7882461,N,00959.0343112,E,2,9,1.0,13.832,M,40.582,M,2.3,0123*49\r\n
$GPGGA,153941.00,5700.7882353,N,00959.0343060,E,2,9,1.0,13.833,M,40.582,M,2.3,0123*47\r\n
$GPGGA,153941.05,5700.7882259,N,00959.0343034,E,2,9,1.0,13.847,M,40.582,M,2.5,0123*4D\r\n
$GPGGA,153941.10,5700.7882159,N,00959.0343015,E,2,9,1.0,13.849,M,40.582,M,2.5,0123*47\r\n
$GPGGA,153941.15,5700.7882051,N,00959.0343006,E,2,9,1.0,13.849,M,40.582,M,2.5,0123*49\r\n
$GPGGA,153941.20,5700.7881942,N,00959.0343005,E,2,9,1.0,13.848,M,40.582,M,2.5,0123*45\r\n
$GPGGA,153941.25,5700.7881833,N,00959.0342977,E,2,9,1.0,13.838,M,40.582,M,2.7,0123*4F\r\n
$GPGGA,153941.30,5700.7881727,N,00959.0342935,E,2,9,1.0,13.839,M,40.582,M,2.7,0123*46\r\n
$GPGGA,153941.35,5700.7881611,N,00959.0342895,E,2,9,1.0,13.845,M,40.582,M,2.7,0123*47\r\n
$GPGGA,153941.40,5700.7881500,N,00959.0342856,E,2,9,1.0,13.848,M,40.582,M,2.7,0123*44\r\n
$GPGGA,153941.45,5700.7881402,N,00959.0342841,E,2,9,1.0,13.862,M,40.582,M,2.9,0123*42\r\n
$GPGGA,153941.50,5700.7881305,N,00959.0342827,E,2,9,1.0,13.863,M,40.582,M,2.9,0123*47\r\n
$GPGGA,153941.55,5700.7881205,N,00959.0342823,E,2,9,1.0,13.864,M,40.582,M,2.9,0123*40\r\n
$GPGGA,153941.60,5700.7881120,N,00959.0342807,E,2,9,1.0,13.863,M,40.582,M,2.9,0123*43\r\n
$GPGGA,153941.65,5700.7881037,N,00959.0342763,E,2,9,1.0,13.852,M,40.582,M,3.1,0123*47\r\n
$GPGGA,153941.70,5700.7880954,N,00959.0342729,E,2,9,1.0,13.851,M,40.582,M,3.1,0123*43\r\n
$GPGGA,153941.75,5700.7880863,N,00959.0342711,E,2,9,1.0,13.853,M,40.582,M,3.1,0123*4A\r\n
$GPGGA,153941.80,5700.7880772,N,00959.0342675,E,2,9,1.0,13.855,M,40.582,M,3.1,0123*4A\r\n
$GPGGA,153941.85,5700.7880670,N,00959.0342663,E,2,9,1.0,13.864,M,40.582,M,2.4,0123*4D\r\n
$GPGGA,153941.90,5700.7880564,N,00959.0342632,E,2,9,1.0,13.867,M,40.582,M,2.4,0123*48\r\n
$GPGGA,153941.95,5700.7880470,N,00959.0342591,E,2,9,1.0,13.868,M,40.582,M,2.4,0123*4C\r\n
$GPGGA,153942.00,5700.7880376,N,00959.0342570,E,2,9,1.0,13.869,M,40.582,M,2.4,0123*4C\r\n
$GPGGA,153942.05,5700.7880292,N,00959.0342546,E,2,9,1.0,13.876,M,40.582,M,2.7,0123*4A\r\n
$GPGGA,153942.10,5700.7880207,N,00959.0342526,E,2,9,1.0,13.877,M,40.582,M,2.7,0123*45\r\n
$GPGGA,153942.15,5700.7880131,N,00959.0342496,E,2,9,1.0,13.879,M,40.582,M,2.7,0123*42\r\n
$GPGGA,153942.20,5700.7880046,N,00959.0342442,E,2,9,1.0,13.881,M,40.582,M,2.7,0123*4B\r\n
$GPGGA,153942.25,5700.7879957,N,00959.0342377,E,2,9,1.0,13.875,M,40.582,M,3.0,0123*4D\r\n
$GPGGA,153942.30,5700.7879879,N,00959.0342318,E,2,9,1.0,13.876,M,40.582,M,3.0,0123*4E\r\n
$GPGGA,153942.35,5700.7879802,N,00959.0342233,E,2,9,1.0,13.879,M,40.582,M,3.0,0123*40\r\n
$GPGGA,153942.40,5700.7879734,N,00959.0342118,E,2,9,1.0,13.882,M,40.582,M,3.0,0123*46\r\n
$GPGGA,153942.45,5700.7879667,N,00959.0341993,E,2,9,1.0,13.888,M,40.582,M,3.2,0123*44\r\n
$GPGGA,153942.50,5700.7879592,N,00959.0341857,E,2,9,1.0,13.890,M,40.582,M,3.2,0123*49\r\n
$GPGGA,153942.55,5700.7879511,N,00959.0341705,E,2,9,1.0,13.887,M,40.582,M,3.2,0123*49\r\n
$GPGGA,153942.60,5700.7879427,N,00959.0341543,E,2,9,1.0,13.884,M,40.582,M,3.2,0123*48\r\n
$GPGGA,153942.65,5700.7879345,N,00959.0341375,E,2,9,1.0,13.879,M,40.582,M,3.5,0123*48\r\n
$GPGGA,153942.70,5700.7879265,N,00959.0341206,E,2,9,1.0,13.879,M,40.582,M,3.5,0123*4A\r\n
$GPGGA,153942.75,5700.7879194,N,00959.0341054,E,2,9,1.0,13.882,M,40.582,M,3.5,0123*43\r\n
$GPGGA,153942.80,5700.7879120,N,00959.0340907,E,2,9,1.0,13.884,M,40.582,M,3.5,0123*4E\r\n
$GPGGA,153942.85,5700.7879050,N,00959.0340753,E,2,9,1.0,13.886,M,40.582,M,1.4,0123*43\r\n
$GPGGA,153942.90,5700.7878974,N,00959.0340596,E,2,9,1.0,13.889,M,40.582,M,1.4,0123*4D\r\n
$GPGGA,153942.95,5700.7878883,N,00959.0340453,E,2,9,1.0,13.888,M,40.582,M,1.4,0123*48\r\n
$GPGGA,153943.00,5700.7878793,N,00959.0340279,E,2,9,1.0,13.886,M,40.582,M,1.4,0123*4B\r\n
$GPGGA,153943.05,5700.7878714,N,00959.0340092,E,2,9,1.0,13.883,M,40.582,M,1.6,0123*41\r\n
$GPGGA,153943.10,5700.7878644,N,00959.0339911,E,2,9,1.0,13.877,M,40.582,M,1.6,0123*46\r\n
$GPGGA,153943.15,5700.7878585,N,00959.0339743,E,2,9,1.0,13.874,M,40.582,M,1.6,0123*47\r\n
$GPGGA,153943.20,5700.7878521,N,00959.0339550,E,2,9,1.0,13.872,M,40.582,M,1.6,0123*49\r\n
$GPGGA,153943.25,5700.7878463,N,00959.0339362,E,2,9,1.0,13.872,M,40.582,M,1.9,0123*43\r\n
$GPGGA,153943.30,5700.7878396,N,00959.0339165,E,2,9,1.0,13.876,M,40.582,M,1.9,0123*4B\r\n
$GPGGA,153943.35,5700.7878319,N,00959.0338980,E,2,9,1.0,13.878,M,40.582,M,1.9,0123*45\r\n
$GPGGA,153943.40,5700.7878248,N,00959.0338782,E,2,9,1.0,13.878,M,40.582,M,1.9,0123*4E\r\n
$GPGGA,153943.45,5700.7878185,N,00959.0338602,E,2,9,1.0,13.886,M,40.582,M,2.2,0123*49\r\n
$GPGGA,153943.50,5700.7878113,N,00959.0338436,E,2,9,1.0,13.881,M,40.582,M,2.2,0123*40\r\n
$GPGGA,153943.55,5700.7878037,N,00959.0338258,E,2,9,1.0,13.877,M,40.582,M,2.2,0123*45\r\n
$GPGGA,153943.60,5700.7877942,N,00959.0338070,E,2,9,1.0,13.873,M,40.582,M,2.2,0123*4B\r\n
$GPGGA,153943.65,5700.7877860,N,00959.0337863,E,2,9,1.0,13.859,M,40.582,M,2.4,0123*44\r\n
$GPGGA,153943.70,5700.7877786,N,00959.0337673,E,2,9,1.0,13.855,M,40.582,M,2.4,0123*44\r\n
$GPGGA,153943.75,5700.7877729,N,00959.0337501,E,2,9,1.0,13.856,M,40.582,M,2.4,0123*41\r\n
$GPGGA,153943.80,5700.7877674,N,00959.0337345,E,2,9,1.0,13.859,M,40.582,M,2.4,0123*4B\r\n
$GPGGA,153943.85,5700.7877615,N,00959.0337190,E,2,9,1.0,13.873,M,40.582,M,1.2,0123*4E\r\n
$GPGGA,153943.90,5700.7877557,N,00959.0337028,E,2,9,1.0,13.875,M,40.582,M,1.2,0123*4B\r\n
$GPGGA,153943.95,5700.7877489,N,00959.0336845,E,2,9,1.0,13.873,M,40.582,M,1.2,0123*48\r\n
$GPGGA,153944.00,5700.7877418,N,00959.0336666,E,2,9,1.0,13.872,M,40.582,M,1.2,0123*45\r\n
$GPGGA,153944.05,5700.7877367,N,00959.0336472,E,2,9,1.0,13.875,M,40.582,M,1.4,0123*49\r\n
$GPGGA,153944.10,5700.7877320,N,00959.0336304,E,2,9,1.0,13.879,M,40.582,M,1.4,0123*44\r\n
$GPGGA,153944.15,5700.7877270,N,00959.0336156,E,2,9,1.0,13.880,M,40.582,M,1.4,0123*46\r\n
$GPGGA,153944.20,5700.7877211,N,00959.0335996,E,2,9,1.0,13.881,M,40.582,M,1.4,0123*41\r\n
$GPGGA,153944.25,5700.7877149,N,00959.0335824,E,2,9,1.0,13.878,M,40.582,M,1.6,0123*46\r\n
$GPGGA,153944.30,5700.7877086,N,00959.0335669,E,2,9,1.0,13.879,M,40.582,M,1.6,0123*46\r\n
$GPGGA,153944.35,5700.7877034,N,00959.0335504,E,2,9,1.0,13.878,M,40.582,M,1.6,0123*43\r\n
$GPGGA,153944.40,5700.7876965,N,00959.0335325,E,2,9,1.0,13.875,M,40.582,M,1.6,0123*45\r\n
$GPGGA,153944.45,5700.7876886,N,00959.0335152,E,2,9,1.0,13.869,M,40.582,M,1.9,0123*4C\r\n
$GPGGA,153944.50,5700.7876821,N,00959.0335015,E,2,9,1.0,13.871,M,40.582,M,1.9,0123*4E\r\n
$GPGGA,153944.55,5700.7876758,N,00959.0334877,E,2,9,1.0,13.873,M,40.582,M,1.9,0123*45\r\n
$GPGGA,153944.60,5700.7876679,N,00959.0334752,E,2,9,1.0,13.876,M,40.582,M,1.9,0123*4C\r\n
$GPGGA,153944.65,5700.7876603,N,00959.0334661,E,2,9,1.0,13.886,M,40.582,M,2.1,0123*41\r\n
$GPGGA,153944.70,5700.7876526,N,00959.0334545,E,2,9,1.0,13.887,M,40.582,M,2.1,0123*45\r\n
$GPGGA,153944.75,5700.7876447,N,00959.0334420,E,2,9,1.0,13.886,M,40.582,M,2.1,0123*45\r\n
$GPGGA,153944.80,5700.7876374,N,00959.0334290,E,2,9,1.0,13.884,M,40.582,M,2.1,0123*47\r\n
$GPGGA,153944.85,5700.7876291,N,00959.0334143,E,2,9,1.0,13.874,M,40.582,M,2.3,0123*48\r\n
$GPGGA,153944.90,5700.7876222,N,00959.0334000,E,2,9,1.0,13.873,M,40.582,M,2.3,0123*45\r\n
$GPGGA,153944.95,5700.7876153,N,00959.0333816,E,2,9,1.0,13.874,M,40.582,M,2.3,0123*4A\r\n
$GPGGA,153945.00,5700.7876095,N,00959.0333632,E,2,9,1.0,13.876,M,40.582,M,2.3,0123*46\r\n
$GPGGA,153945.05,5700.7876040,N,00959.0333425,E,2,9,1.0,13.876,M,40.582,M,2.5,0123*49\r\n
$GPGGA,153945.10,5700.7875987,N,00959.0333246,E,2,9,1.0,13.880,M,40.582,M,2.5,0123*46\r\n
$GPGGA,153945.15,5700.7875949,N,00959.0333037,E,2,9,1.0,13.883,M,40.582,M,2.5,0123*46\r\n
$GPGGA,153945.20,5700.7875917,N,00959.0332795,E,2,9,1.0,13.881,M,40.582,M,2.5,0123*47\r\n
$GPGGA,153945.25,5700.7875903,N,00959.0332545,E,2,9,1.0,13.889,M,40.582,M,2.7,0123*42\r\n
$GPGGA,153945.30,5700.7875878,N,00959.0332297,E,2,9,1.0,13.890,M,40.582,M,2.7,0123*4B\r\n
$GPGGA,153945.35,5700.7875842,N,00959.0332052,E,2,9,1.0,13.893,M,40.582,M,2.7,0123*4F\r\n
$GPGGA,153945.40,5700.7875806,N,00959.0331820,E,2,9,1.0,13.892,M,40.582,M,2.7,0123*42\r\n
$GPGGA,153945.45,5700.7875774,N,00959.0331568,E,2,9,1.0,13.890,M,40.582,M,2.9,0123*40\r\n
$GPGGA,153945.50,5700.7875753,N,00959.0331299,E,2,9,1.0,13.889,M,40.582,M,2.9,0123*40\r\n
$GPGGA,153945.55,5700.7875730,N,00959.0331034,E,2,9,1.0,13.889,M,40.582,M,2.9,0123*45\r\n
$GPGGA,153945.60,5700.7875685,N,00959.0330781,E,2,9,1.0,13.890,M,40.582,M,2.9,0123*4C\r\n
$GPGGA,153945.65,5700.7875616,N,00959.0330527,E,2,9,1.0,13.878,M,40.582,M,2.1,0123*43\r\n
$GPGGA,153945.70,5700.7875556,N,00959.0330276,E,2,9,1.0,13.877,M,40.582,M,2.1,0123*4C\r\n
$GPGGA,153945.75,5700.7875500,N,00959.0330030,E,2,9,1.0,13.877,M,40.582,M,2.1,0123*4A\r\n
$GPGGA,153945.80,5700.7875465,N,00959.0329770,E,2,9,1.0,13.875,M,40.582,M,2.1,0123*4B\r\n
$GPGGA,153945.85,5700.7875445,N,00959.0329504,E,2,9,1.0,13.882,M,40.582,M,2.4,0123*40\r\n
$GPGGA,153945.90,5700.7875419,N,00959.0329248,E,2,9,1.0,13.879,M,40.582,M,2.4,0123*46\r\n
$GPGGA,153945.95,5700.7875399,N,00959.0329027,E,2,9,1.0,13.881,M,40.582,M,2.4,0123*40\r\n
$GPGGA,153946.00,5700.7875368,N,00959.0328787,E,2,9,1.0,13.887,M,40.582,M,2.4,0123*4B\r\n
$GPGGA,153946.05,5700.7875329,N,00959.0328496,E,2,9,1.0,13.881,M,40.582,M,2.7,0123*4D\r\n
$GPGGA,153946.10,5700.7875278,N,00959.0328238,E,2,9,1.0,13.879,M,40.582,M,2.7,0123*49\r\n
$GPGGA,153946.15,5700.7875217,N,00959.0328007,E,2,9,1.0,13.875,M,40.582,M,2.7,0123*47\r\n
$GPGGA,153946.20,5700.7875155,N,00959.0327772,E,2,9,1.0,13.873,M,40.582,M,2.7,0123*48\r\n
$GPGGA,153946.25,5700.7875091,N,00959.0327530,E,2,9,1.0,13.876,M,40.582,M,3.0,0123*43\r\n
$GPGGA,153946.30,5700.7875044,N,00959.0327276,E,2,9,1.0,13.877,M,40.582,M,3.0,0123*4B\r\n
$GPGGA,153946.35,5700.7875003,N,00959.0327025,E,2,9,1.0,13.876,M,40.582,M,3.0,0123*48\r\n
$GPGGA,153946.40,5700.7874951,N,00959.0326771,E,2,9,1.0,13.876,M,40.582,M,3.0,0123*42\r\n
$GPGGA,153946.45,5700.7874880,N,00959.0326515,E,2,9,1.0,13.874,M,40.582,M,3.2,0123*4A\r\n
$GPGGA,153946.50,5700.7874833,N,00959.0326299,E,2,9,1.0,13.874,M,40.582,M,3.2,0123*45\r\n
$GPGGA,153946.55,5700.7874802,N,00959.0326054,E,2,9,1.0,13.874,M,40.582,M,3.2,0123*41\r\n
$GPGGA,153946.60,5700.7874766,N,00959.0325778,E,2,9,1.0,13.876,M,40.582,M,3.2,0123*42\r\n
$GPGGA,153946.65,5700.7874731,N,00959.0325479,E,2,9,1.0,13.871,M,40.582,M,1.1,0123*41\r\n
$GPGGA,153946.70,5700.7874722,N,00959.0325176,E,2,9,1.0,13.874,M,40.582,M,1.1,0123*48\r\n
$GPGGA,153946.75,5700.7874725,N,00959.0324908,E,2,9,1.0,13.875,M,40.582,M,1.1,0123*4B\r\n
$GPGGA,153946.80,5700.7874727,N,00959.0324643,E,2,9,1.0,13.877,M,40.582,M,1.1,0123*41\r\n
$GPGGA,153946.85,5700.7874729,N,00959.0324345,E,2,9,1.0,13.877,M,40.582,M,1.4,0123*4C\r\n
$GPGGA,153946.90,5700.7874715,N,00959.0324016,E,2,9,1.0,13.876,M,40.582,M,1.4,0123*43\r\n
$GPGGA,153946.95,5700.7874710,N,00959.0323731,E,2,9,1.0,13.880,M,40.582,M,1.4,0123*4F\r\n
$GPGGA,153947.00,5700.7874700,N,00959.0323466,E,2,9,1.0,13.880,M,40.582,M,1.4,0123*42\r\n
$GPGGA,153947.05,5700.7874705,N,00959.0323176,E,2,9,1.0,13.888,M,40.582,M,1.6,0123*4C\r\n
$GPGGA,153947.10,5700.7874701,N,00959.0322871,E,2,9,1.0,13.884,M,40.582,M,1.6,0123*4F\r\n
$GPGGA,153947.15,5700.7874687,N,00959.0322604,E,2,9,1.0,13.885,M,40.582,M,1.6,0123*48\r\n
$GPGGA,153947.20,5700.7874657,N,00959.0322347,E,2,9,1.0,13.892,M,40.582,M,1.6,0123*47\r\n
$GPGGA,153947.25,5700.7874629,N,00959.0322073,E,2,9,1.0,13.879,M,40.582,M,1.9,0123*45\r\n
$GPGGA,153947.30,5700.7874614,N,00959.0321799,E,2,9,1.0,13.877,M,40.582,M,1.9,0123*41\r\n
$GPGGA,153947.35,5700.7874590,N,00959.0321511,E,2,9,1.0,13.873,M,40.582,M,1.9,0123*4D\r\n
$GPGGA,153947.40,5700.7874571,N,00959.0321206,E,2,9,1.0,13.871,M,40.582,M,1.9,0123*43\r\n
$GPGGA,153947.45,5700.7874552,N,00959.0320922,E,2,9,1.0,13.874,M,40.582,M,2.2,0123*46\r\n
$GPGGA,153947.50,5700.7874535,N,00959.0320653,E,2,9,1.0,13.875,M,40.582,M,2.2,0123*4B\r\n
$GPGGA,153947.55,5700.7874528,N,00959.0320390,E,2,9,1.0,13.878,M,40.582,M,2.2,0123*45\r\n
$GPGGA,153947.60,5700.7874516,N,00959.0320091,E,2,9,1.0,13.880,M,40.582,M,2.2,0123*4B\r\n
$GPGGA,153947.65,5700.7874506,N,00959.0319794,E,2,9,1.0,13.879,M,40.582,M,0.9,0123*48\r\n
$GPGGA,153947.70,5700.7874487,N,00959.0319512,E,2,9,1.0,13.878,M,40.582,M,0.9,0123*49\r\n
$GPGGA,153947.75,5700.7874456,N,00959.0319237,E,2,9,1.0,13.880,M,40.582,M,0.9,0123*47\r\n
$GPGGA,153947.80,5700.7874424,N,00959.0318920,E,2,9,1.0,13.878,M,40.582,M,0.9,0123*43\r\n
$GPGGA,153947.85,5700.7874401,N,00959.0318583,E,2,9,1.0,13.874,M,40.582,M,1.2,0123*42\r\n
$GPGGA,153947.90,5700.7874380,N,00959.0318273,E,2,9,1.0,13.871,M,40.582,M,1.2,0123*45\r\n
$GPGGA,153947.95,5700.7874347,N,00959.0317977,E,2,9,1.0,13.872,M,40.582,M,1.2,0123*48\r\n
$GPGGA,153948.00,5700.7874316,N,00959.0317651,E,2,9,1.0,13.872,M,40.582,M,1.2,0123*44\r\n
$GPGGA,153948.05,5700.7874292,N,00959.0317306,E,2,9,1.0,13.869,M,40.582,M,1.4,0123*47\r\n
$GPGGA,153948.10,5700.7874265,N,00959.0316994,E,2,9,1.0,13.868,M,40.582,M,1.4,0123*4A\r\n
$GPGGA,153948.15,5700.7874212,N,00959.0316696,E,2,9,1.0,13.868,M,40.582,M,1.4,0123*42\r\n
$GPGGA,153948.20,5700.7874136,N,00959.0316375,E,2,9,1.0,13.866,M,40.582,M,1.4,0123*47\r\n
$GPGGA,153948.25,5700.7874069,N,00959.0316060,E,2,9,1.0,13.863,M,40.582,M,1.6,0123*49\r\n
$GPGGA,153948.30,5700.7874018,N,00959.0315750,E,2,9,1.0,13.859,M,40.582,M,1.6,0123*45\r\n
$GPGGA,153948.35,5700.7873970,N,00959.0315440,E,2,9,1.0,13.855,M,40.582,M,1.6,0123*4E\r\n
$GPGGA,153948.40,5700.7873924,N,00959.0315114,E,2,9,1.0,13.852,M,40.582,M,1.6,0123*4E\r\n
$GPGGA,153948.45,5700.7873894,N,00959.0314797,E,2,9,1.0,13.853,M,40.582,M,1.9,0123*43\r\n
$GPGGA,153948.50,5700.7873887,N,00959.0314480,E,2,9,1.0,13.859,M,40.582,M,1.9,0123*4A\r\n
$GPGGA,153948.55,5700.7873887,N,00959.0314208,E,2,9,1.0,13.864,M,40.582,M,1.9,0123*47\r\n
$GPGGA,153948.60,5700.7873864,N,00959.0313942,E,2,9,1.0,13.869,M,40.582,M,1.9,0123*43\r\n
$GPGGA,153948.65,5700.7873840,N,00959.0313672,E,2,9,1.0,13.877,M,40.582,M,2.1,0123*48\r\n
$GPGGA,153948.70,5700.7873813,N,00959.0313362,E,2,9,1.0,13.880,M,40.582,M,2.1,0123*46\r\n
$GPGGA,153948.75,5700.7873788,N,00959.0313062,E,2,9,1.0,13.881,M,40.582,M,2.1,0123*4C\r\n
$GPGGA,153948.80,5700.7873762,N,00959.0312802,E,2,9,1.0,13.882,M,40.582,M,2.1,0123*4E\r\n
$GPGGA,153948.85,5700.7873733,N,00959.0312547,E,2,9,1.0,13.882,M,40.582,M,2.3,0123*41\r\n
$GPGGA,153948.90,5700.7873716,N,00959.0312248,E,2,9,1.0,13.880,M,40.582,M,2.3,0123*48\r\n
$GPGGA,153948.95,5700.7873696,N,00959.0311947,E,2,9,1.0,13.878,M,40.582,M,2.3,0123*44\r\n
$GPGGA,153949.00,5700.7873664,N,00959.0311665,E,2,9,1.0,13.878,M,40.582,M,2.3,0123*4B\r\n
$GPGGA,153949.05,5700.7873638,N,00959.0311379,E,2,9,1.0,13.885,M,40.582,M,2.5,0123*4B\r\n
$GPGGA,153949.10,5700.7873618,N,00959.0311072,E,2,9,1.0,13.885,M,40.582,M,2.5,0123*45\r\n
$GPGGA,153949.15,5700.7873590,N,00959.0310777,E,2,9,1.0,13.881,M,40.582,M,2.5,0123*44\r\n
$GPGGA,153949.20,5700.7873560,N,00959.0310504,E,2,9,1.0,13.873,M,40.582,M,2.5,0123*46\r\n
$GPGGA,153949.25,5700.7873531,N,00959.0310247,E,2,9,1.0,13.870,M,40.582,M,2.7,0123*46\r\n
$GPGGA,153949.30,5700.7873494,N,00959.0309994,E,2,9,1.0,13.871,M,40.582,M,2.7,0123*40\r\n
$GPGGA,153949.35,5700.7873461,N,00959.0309731,E,2,9,1.0,13.874,M,40.582,M,2.7,0123*4B\r\n
$GPGGA,153949.40,5700.7873427,N,00959.0309469,E,2,9,1.0,13.878,M,40.582,M,2.7,0123*49\r\n
$GPGGA,153949.45,5700.7873404,N,00959.0309242,E,2,9,1.0,13.885,M,40.582,M,2.9,0123*4E\r\n
$GPGGA,153949.50,5700.7873379,N,00959.0309024,E,2,9,1.0,13.889,M,40.582,M,2.9,0123*49\r\n
$GPGGA,153949.55,5700.7873358,N,00959.0308809,E,2,9,1.0,13.893,M,40.582,M,2.9,0123*42\r\n
$GPGGA,153949.60,5700.7873320,N,00959.0308556,E,2,9,1.0,13.893,M,40.582,M,2.9,0123*4C\r\n
$GPGGA,153949.65,5700.7873278,N,00959.0308278,E,2,9,1.0,13.890,M,40.582,M,2.1,0123*45\r\n
$GPGGA,153949.70,5700.7873240,N,00959.0307993,E,2,9,1.0,13.891,M,40.582,M,2.1,0123*4A\r\n
$GPGGA,153949.75,5700.7873205,N,00959.0307711,E,2,9,1.0,13.892,M,40.582,M,2.1,0123*49\r\n
$GPGGA,153949.80,5700.7873166,N,00959.0307462,E,2,9,1.0,13.890,M,40.582,M,2.1,0123*40\r\n
$GPGGA,153949.85,5700.7873122,N,00959.0307228,E,2,9,1.0,13.893,M,40.582,M,2.4,0123*4B\r\n
$GPGGA,153949.90,5700.7873067,N,00959.0306981,E,2,9,1.0,13.892,M,40.582,M,2.4,0123*47\r\n
$GPGGA,153949.95,5700.7873020,N,00959.0306728,E,2,9,1.0,13.894,M,40.582,M,2.4,0123*4A\r\n
$GPGGA,153950.00,5700.7872974,N,00959.0306476,E,2,9,1.0,13.897,M,40.582,M,2.4,0123*4C\r\n
$GPGGA,153950.05,5700.7872936,N,00959.0306184,E,2,9,1.0,13.895,M,40.582,M,2.7,0123*46\r\n
$GPGGA,153950.10,5700.7872898,N,00959.0305894,E,2,9,1.0,13.893,M,40.582,M,2.7,0123*4A\r\n
$GPGGA,153950.15,5700.7872860,N,00959.0305644,E,2,9,1.0,13.893,M,40.582,M,2.7,0123*4B\r\n
$GPGGA,153950.20,5700.7872822,N,00959.0305392,E,2,9,1.0,13.893,M,40.582,M,2.7,0123*45\r\n
$GPGGA,153950.25,5700.7872785,N,00959.0305116,E,2,9,1.0,13.897,M,40.582,M,3.0,0123*4E\r\n
$GPGGA,153950.30,5700.7872747,N,00959.0304843,E,2,9,1.0,13.897,M,40.582,M,3.0,0123*4C\r\n
$GPGGA,153950.35,5700.7872725,N,00959.0304574,E,2,9,1.0,13.899,M,40.582,M,3.0,0123*4A\r\n
$GPGGA,153950.40,5700.7872704,N,00959.0304297,E,2,9,1.0,13.899,M,40.582,M,3.0,0123*41\r\n
$GPGGA,153950.45,5700.7872683,N,00959.0304001,E,2,9,1.0,13.902,M,40.582,M,3.2,0123*46\r\n
$GPGGA,153950.50,5700.7872627,N,00959.0303705,E,2,9,1.0,13.901,M,40.582,M,3.2,0123*4B\r\n
$GPGGA,153950.55,5700.7872564,N,00959.0303409,E,2,9,1.0,13.899,M,40.582,M,3.2,0123*45\r\n
$GPGGA,153950.60,5700.7872517,N,00959.0303094,E,2,9,1.0,13.897,M,40.582,M,3.2,0123*49\r\n
$GPGGA,153950.65,5700.7872477,N,00959.0302770,E,2,9,1.0,13.892,M,40.582,M,1.1,0123*43\r\n
$GPGGA,153950.70,5700.7872433,N,00959.0302475,E,2,9,1.0,13.890,M,40.582,M,1.1,0123*43\r\n
$GPGGA,153950.75,5700.7872379,N,00959.0302171,E,2,9,1.0,13.885,M,40.582,M,1.1,0123*4A\r\n
$GPGGA,153950.80,5700.7872339,N,00959.0301846,E,2,9,1.0,13.881,M,40.582,M,1.1,0123*4E\r\n
$GPGGA,153950.85,5700.7872314,N,00959.0301534,E,2,9,1.0,13.881,M,40.582,M,1.4,0123*49\r\n
$GPGGA,153950.90,5700.7872288,N,00959.0301242,E,2,9,1.0,13.883,M,40.582,M,1.4,0123*4D\r\n
$GPGGA,153950.95,5700.7872257,N,00959.0300940,E,2,9,1.0,13.885,M,40.582,M,1.4,0123*44\r\n
$GPGGA,153951.00,5700.7872224,N,00959.0300617,E,2,9,1.0,13.884,M,40.582,M,1.4,0123*41\r\n
$GPGGA,153951.05,5700.7872219,N,00959.0300290,E,2,9,1.0,13.892,M,40.582,M,1.6,0123*44\r\n
$GPGGA,153951.10,5700.7872209,N,00959.0299996,E,2,9,1.0,13.895,M,40.582,M,1.6,0123*4A\r\n
$GPGGA,153951.15,5700.7872168,N,00959.0299689,E,2,9,1.0,13.893,M,40.582,M,1.6,0123*4C\r\n
$GPGGA,153951.20,5700.7872134,N,00959.0299368,E,2,9,1.0,13.891,M,40.582,M,1.6,0123*4B\r\n
$GPGGA,153951.25,5700.7872116,N,00959.0299041,E,2,9,1.0,13.893,M,40.582,M,1.9,0123*4B\r\n
$GPGGA,153951.30,5700.7872092,N,00959.0298724,E,2,9,1.0,13.896,M,40.582,M,1.9,0123*42\r\n
$GPGGA,153951.35,5700.7872069,N,00959.0298398,E,2,9,1.0,13.900,M,40.582,M,1.9,0123*4E\r\n
$GPGGA,153951.40,5700.7872044,N,00959.0298062,E,2,9,1.0,13.900,M,40.582,M,1.9,0123*45\r\n
$GPGGA,153951.45,5700.7872011,N,00959.0297710,E,2,9,1.0,13.894,M,40.582,M,2.2,0123*49\r\n
$GPGGA,153951.50,5700.7871977,N,00959.0297385,E,2,9,1.0,13.893,M,40.582,M,2.2,0123*48\r\n
$GPGGA,153951.55,5700.7871931,N,00959.0297093,E,2,9,1.0,13.895,M,40.582,M,2.2,0123*4D\r\n
$GPGGA,153951.60,5700.7871898,N,00959.0296769,E,2,9,1.0,13.895,M,40.582,M,2.2,0123*4A\r\n
$GPGGA,153951.65,5700.7871861,N,00959.0296427,E,2,9,1.0,13.891,M,40.582,M,0.9,0123*4D\r\n
$GPGGA,153951.70,5700.7871821,N,00959.0296091,E,2,9,1.0,13.889,M,40.582,M,0.9,0123*4D\r\n
$GPGGA,153951.75,5700.7871761,N,00959.0295780,E,2,9,1.0,13.887,M,40.582,M,0.9,0123*49\r\n
$GPGGA,153951.80,5700.7871717,N,00959.0295457,E,2,9,1.0,13.889,M,40.582,M,0.9,0123*45\r\n
$GPGGA,153951.85,5700.7871681,N,00959.0295111,E,2,9,1.0,13.889,M,40.582,M,1.2,0123*43\r\n
$GPGGA,153951.90,5700.7871644,N,00959.0294785,E,2,9,1.0,13.887,M,40.582,M,1.2,0123*4A\r\n
$GPGGA,153951.95,5700.7871604,N,00959.0294456,E,2,9,1.0,13.889,M,40.582,M,1.2,0123*48\r\n
$GPGGA,153952.00,5700.7871562,N,00959.0294123,E,2,9,1.0,13.892,M,40.582,M,1.2,0123*49\r\n
$GPGGA,153952.05,5700.7871516,N,00959.0293764,E,2,9,1.0,13.900,M,40.582,M,1.4,0123*41\r\n
$GPGGA,153952.10,5700.7871469,N,00959.0293425,E,2,9,1.0,13.904,M,40.582,M,1.4,0123*4E\r\n
$GPGGA,153952.15,5700.7871422,N,00959.0293113,E,2,9,1.0,13.907,M,40.582,M,1.4,0123*47\r\n
$GPGGA,153952.20,5700.7871378,N,00959.0292756,E,2,9,1.0,13.905,M,40.582,M,1.4,0123*4D\r\n
$GPGGA,153952.25,5700.7871341,N,00959.0292381,E,2,9,1.0,13.897,M,40.582,M,1.6,0123*44\r\n
$GPGGA,153952.30,5700.7871303,N,00959.0292038,E,2,9,1.0,13.898,M,40.582,M,1.6,0123*48\r\n
$GPGGA,153952.35,5700.7871241,N,00959.0291678,E,2,9,1.0,13.901,M,40.582,M,1.6,0123*4A\r\n
$GPGGA,153952.40,5700.7871175,N,00959.0291296,E,2,9,1.0,13.899,M,40.582,M,1.6,0123*48\r\n
$GPGGA,153952.45,5700.7871133,N,00959.0290939,E,2,9,1.0,13.893,M,40.582,M,1.9,0123*45\r\n
$GPGGA,153952.50,5700.7871070,N,00959.0290603,E,2,9,1.0,13.891,M,40.582,M,1.9,0123*43\r\n
$GPGGA,153952.55,5700.7870987,N,00959.0290277,E,2,9,1.0,13.890,M,40.582,M,1.9,0123*40\r\n
$GPGGA,153952.60,5700.7870923,N,00959.0289949,E,2,9,1.0,13.891,M,40.582,M,1.9,0123*47\r\n
$GPGGA,153952.65,5700.7870862,N,00959.0289621,E,2,9,1.0,13.894,M,40.582,M,2.1,0123*49\r\n
$GPGGA,153952.70,5700.7870787,N,00959.0289267,E,2,9,1.0,13.892,M,40.582,M,2.1,0123*49\r\n
$GPGGA,153952.75,5700.7870714,N,00959.0288903,E,2,9,1.0,13.892,M,40.582,M,2.1,0123*4E\r\n
$GPGGA,153952.80,5700.7870665,N,00959.0288531,E,2,9,1.0,13.895,M,40.582,M,2.1,0123*49\r\n
$GPGGA,153952.85,5700.7870618,N,00959.0288165,E,2,9,1.0,13.890,M,40.582,M,2.3,0123*44\r\n
$GPGGA,153952.90,5700.7870567,N,00959.0287825,E,2,9,1.0,13.890,M,40.582,M,2.3,0123*49\r\n
$GPGGA,153952.95,5700.7870517,N,00959.0287489,E,2,9,1.0,13.891,M,40.582,M,2.3,0123*40\r\n
$GPGGA,153953.00,5700.7870469,N,00959.0287144,E,2,9,1.0,13.896,M,40.582,M,2.3,0123*46\r\n
$GPGGA,153953.05,5700.7870416,N,00959.0286764,E,2,9,1.0,13.901,M,40.582,M,2.5,0123*47\r\n
$GPGGA,153953.10,5700.7870333,N,00959.0286394,E,2,9,1.0,13.899,M,40.582,M,2.5,0123*48\r\n
$GPGGA,153953.15,5700.7870254,N,00959.0286043,E,2,9,1.0,13.896,M,40.582,M,2.5,0123*4B\r\n
$GPGGA,153953.20,5700.7870187,N,00959.0285700,E,2,9,1.0,13.891,M,40.582,M,2.5,0123*44\r\n
$GPGGA,153953.25,5700.7870127,N,00959.0285340,E,2,9,1.0,13.886,M,40.582,M,2.7,0123*4F\r\n
$GPGGA,153953.30,5700.7870057,N,00959.0284974,E,2,9,1.0,13.890,M,40.582,M,2.7,0123*46\r\n
$GPGGA,153953.35,5700.7869979,N,00959.0284626,E,2,9,1.0,13.891,M,40.582,M,2.7,0123*47\r\n
$GPGGA,153953.40,5700.7869929,N,00959.0284260,E,2,9,1.0,13.889,M,40.582,M,2.7,0123*4F\r\n
$GPGGA,153953.45,5700.7869879,N,00959.0283904,E,2,9,1.0,13.893,M,40.582,M,2.9,0123*45\r\n
$GPGGA,153953.50,5700.7869817,N,00959.0283570,E,2,9,1.0,13.894,M,40.582,M,2.9,0123*41\r\n
$GPGGA,153953.55,5700.7869756,N,00959.0283233,E,2,9,1.0,13.896,M,40.582,M,2.9,0123*4C\r\n
$GPGGA,153953.60,5700.7869701,N,00959.0282855,E,2,9,1.0,13.894,M,40.582,M,2.9,0123*41\r\n
$GPGGA,153953.65,5700.7869651,N,00959.0282497,E,2,9,1.0,13.896,M,40.582,M,2.1,0123*48\r\n
$GPGGA,153953.70,5700.7869594,N,00959.0282162,E,2,9,1.0,13.898,M,40.582,M,2.1,0123*47\r\n
$GPGGA,153953.75,5700.7869531,N,00959.0281804,E,2,9,1.0,13.898,M,40.582,M,2.1,0123*47\r\n
$GPGGA,153953.80,5700.7869473,N,00959.0281445,E,2,9,1.0,13.899,M,40.582,M,2.1,0123*42\r\n
$GPGGA,153953.85,5700.7869404,N,00959.0281093,E,2,9,1.0,13.891,M,40.582,M,2.4,0123*45\r\n
$GPGGA,153953.90,5700.7869345,N,00959.0280725,E,2,9,1.0,13.892,M,40.582,M,2.4,0123*4B\r\n
$GPGGA,153953.95,5700.7869302,N,00959.0280365,E,2,9,1.0,13.894,M,40.582,M,2.4,0123*4B\r\n
$GPGGA,153954.00,5700.7869266,N,00959.0280007,E,2,9,1.0,13.894,M,40.582,M,2.4,0123*44\r\n
$GPGGA,153954.05,5700.7869229,N,00959.0279636,E,2,9,1.0,13.900,M,40.582,M,2.7,0123*47\r\n
$GPGGA,153954.10,5700.7869175,N,00959.0279239,E,2,9,1.0,13.899,M,40.582,M,2.7,0123*43\r\n
$GPGGA,153954.15,5700.7869121,N,00959.0278858,E,2,9,1.0,13.897,M,40.582,M,2.7,0123*45\r\n
$GPGGA,153954.20,5700.7869067,N,00959.0278503,E,2,9,1.0,13.896,M,40.582,M,2.7,0123*42\r\n
$GPGGA,153954.25,5700.7868997,N,00959.0278128,E,2,9,1.0,13.895,M,40.582,M,3.0,0123*48\r\n
$GPGGA,153954.30,5700.7868948,N,00959.0277755,E,2,9,1.0,13.896,M,40.582,M,3.0,0123*4E\r\n
$GPGGA,153954.35,5700.7868915,N,00959.0277373,E,2,9,1.0,13.897,M,40.582,M,3.0,0123*42\r\n
$GPGGA,153954.40,5700.7868858,N,00959.0277005,E,2,9,1.0,13.897,M,40.582,M,3.0,0123*4A\r\n
$GPGGA,153954.45,5700.7868797,N,00959.0276653,E,2,9,1.0,13.902,M,40.582,M,3.2,0123*48\r\n
$GPGGA,153954.50,5700.7868747,N,00959.0276256,E,2,9,1.0,13.900,M,40.582,M,3.2,0123*42\r\n
$GPGGA,153954.55,5700.7868715,N,00959.0275863,E,2,9,1.0,13.902,M,40.582,M,3.2,0123*4D\r\n
$GPGGA,153954.60,5700.7868682,N,00959.0275482,E,2,9,1.0,13.903,M,40.582,M,3.2,0123*46\r\n
$GPGGA,153954.65,5700.7868637,N,00959.0275077,E,2,9,1.0,13.898,M,40.582,M,1.1,0123*41\r\n
$GPGGA,153954.70,5700.7868600,N,00959.0274676,E,2,9,1.0,13.896,M,40.582,M,1.1,0123*49\r\n
$GPGGA,153954.75,5700.7868553,N,00959.0274294,E,2,9,1.0,13.896,M,40.582,M,1.1,0123*41\r\n
$GPGGA,153954.80,5700.7868497,N,00959.0273891,E,2,9,1.0,13.893,M,40.582,M,1.1,0123*4F\r\n
$GPGGA,153954.85,5700.7868454,N,00959.0273503,E,2,9,1.0,13.893,M,40.582,M,1.4,0123*46\r\n
$GPGGA,153954.90,5700.7868416,N,00959.0273117,E,2,9,1.0,13.892,M,40.582,M,1.4,0123*44\r\n
$GPGGA,153954.95,5700.7868372,N,00959.0272718,E,2,9,1.0,13.892,M,40.582,M,1.4,0123*4C\r\n
$GPGGA,153955.00,5700.7868348,N,00959.0272338,E,2,9,1.0,13.896,M,40.582,M,1.4,0123*4A\r\n
$GPGGA,153955.05,5700.7868330,N,00959.0271957,E,2,9,1.0,13.903,M,40.582,M,1.6,0123*4F\r\n
$GPGGA,153955.10,5700.7868270,N,00959.0271579,E,2,9,1.0,13.901,M,40.582,M,1.6,0123*4C\r\n
$GPGGA,153955.15,5700.7868208,N,00959.0271204,E,2,9,1.0,13.902,M,40.582,M,1.6,0123*48\r\n
$GPGGA,153955.20,5700.7868151,N,00959.0270809,E,2,9,1.0,13.901,M,40.582,M,1.6,0123*44\r\n
$GPGGA,153955.25,5700.7868096,N,00959.0270420,E,2,9,1.0,13.899,M,40.582,M,1.9,0123*43\r\n
$GPGGA,153955.30,5700.7868044,N,00959.0270044,E,2,9,1.0,13.903,M,40.582,M,1.9,0123*4C\r\n
$GPGGA,153955.35,5700.7867996,N,00959.0269648,E,2,9,1.0,13.905,M,40.582,M,1.9,0123*44\r\n
$GPGGA,153955.40,5700.7867966,N,00959.0269269,E,2,9,1.0,13.902,M,40.582,M,1.9,0123*49\r\n
$GPGGA,153955.45,5700.7867927,N,00959.0268901,E,2,9,1.0,13.904,M,40.582,M,2.2,0123*43\r\n
$GPGGA,153955.50,5700.7867888,N,00959.0268514,E,2,9,1.0,13.906,M,40.582,M,2.2,0123*49\r\n
$GPGGA,153955.55,5700.7867859,N,00959.0268130,E,2,9,1.0,13.909,M,40.582,M,2.2,0123*4D\r\n
$GPGGA,153955.60,5700.7867813,N,00959.0267748,E,2,9,1.0,13.908,M,40.582,M,2.2,0123*42\r\n
$GPGGA,153955.65,5700.7867753,N,00959.0267340,E,2,9,1.0,13.902,M,40.582,M,0.9,0123*43\r\n
$GPGGA,153955.70,5700.7867699,N,00959.0266959,E,2,9,1.0,13.900,M,40.582,M,0.9,0123*41\r\n
$GPGGA,153955.75,5700.7867653,N,00959.0266587,E,2,9,1.0,13.899,M,40.582,M,0.9,0123*4C\r\n
$GPGGA,153955.80,5700.7867606,N,00959.0266218,E,2,9,1.0,13.899,M,40.582,M,0.9,0123*47\r\n
$GPGGA,153955.85,5700.7867554,N,00959.0265865,E,2,9,1.0,13.909,M,40.582,M,1.2,0123*47\r\n
$GPGGA,153955.90,5700.7867499,N,00959.0265482,E,2,9,1.0,13.912,M,40.582,M,1.2,0123*4C\r\n
$GPGGA,153955.95,5700.7867449,N,00959.0265105,E,2,9,1.0,13.911,M,40.582,M,1.2,0123*4D\r\n
$GPGGA,153956.00,5700.7867384,N,00959.0264724,E,2,9,1.0,13.909,M,40.582,M,1.2,0123*49\r\n
$GPGGA,153956.05,5700.7867333,N,00959.0264329,E,2,9,1.0,13.907,M,40.582,M,1.4,0123*41\r\n
$GPGGA,153956.10,5700.7867281,N,00959.0263945,E,2,9,1.0,13.906,M,40.582,M,1.4,0123*4B\r\n
$GPGGA,153956.15,5700.7867233,N,00959.0263566,E,2,9,1.0,13.910,M,40.582,M,1.4,0123*4D\r\n
$GPGGA,153956.20,5700.7867188,N,00959.0263187,E,2,9,1.0,13.910,M,40.582,M,1.4,0123*43\r\n
$GPGGA,153956.25,5700.7867146,N,00959.0262784,E,2,9,1.0,13.908,M,40.582,M,1.6,0123*4B\r\n
$GPGGA,153956.30,5700.7867093,N,00959.0262390,E,2,9,1.0,13.906,M,40.582,M,1.6,0123*49\r\n
$GPGGA,153956.35,5700.7867037,N,00959.0262023,E,2,9,1.0,13.906,M,40.582,M,1.6,0123*49\r\n
$GPGGA,153956.40,5700.7866994,N,00959.0261634,E,2,9,1.0,13.905,M,40.582,M,1.6,0123*4A\r\n
$GPGGA,153956.45,5700.7866952,N,00959.0261251,E,2,9,1.0,13.905,M,40.582,M,1.9,0123*4D\r\n
$GPGGA,153956.50,5700.7866909,N,00959.0260861,E,2,9,1.0,13.907,M,40.582,M,1.9,0123*4D\r\n
$GPGGA,153956.55,5700.7866862,N,00959.0260451,E,2,9,1.0,13.907,M,40.582,M,1.9,0123*4B\r\n
$GPGGA,153956.60,5700.7866835,N,00959.0260047,E,2,9,1.0,13.906,M,40.582,M,1.9,0123*4D\r\n
$GPGGA,153956.65,5700.7866776,N,00959.0259654,E,2,9,1.0,13.903,M,40.582,M,2.1,0123*40\r\n
$GPGGA,153956.70,5700.7866710,N,00959.0259253,E,2,9,1.0,13.901,M,40.582,M,2.1,0123*45\r\n
$GPGGA,153956.75,5700.7866661,N,00959.0258866,E,2,9,1.0,13.903,M,40.582,M,2.1,0123*48\r\n
$GPGGA,153956.80,5700.7866611,N,00959.0258467,E,2,9,1.0,13.906,M,40.582,M,2.1,0123*4D\r\n
$GPGGA,153956.85,5700.7866562,N,00959.0258077,E,2,9,1.0,13.910,M,40.582,M,2.3,0123*4F\r\n
$GPGGA,153956.90,5700.7866510,N,00959.0257690,E,2,9,1.0,13.909,M,40.582,M,2.3,0123*46\r\n
$GPGGA,153956.95,5700.7866446,N,00959.0257298,E,2,9,1.0,13.905,M,40.582,M,2.3,0123*41\r\n
$GPGGA,153957.00,5700.7866389,N,00959.0256907,E,2,9,1.0,13.906,M,40.582,M,2.3,0123*47\r\n
$GPGGA,153957.05,5700.7866347,N,00959.0256495,E,2,9,1.0,13.902,M,40.582,M,2.5,0123*44\r\n
$GPGGA,153957.10,5700.7866308,N,00959.0256083,E,2,9,1.0,13.904,M,40.582,M,2.5,0123*4E\r\n
$GPGGA,153957.15,5700.7866276,N,00959.0255673,E,2,9,1.0,13.907,M,40.582,M,2.5,0123*4A\r\n
$GPGGA,153957.20,5700.7866240,N,00959.0255272,E,2,9,1.0,13.907,M,40.582,M,2.5,0123*4C\r\n
$GPGGA,153957.25,5700.7866194,N,00959.0254897,E,2,9,1.0,13.916,M,40.582,M,2.7,0123*41\r\n
$GPGGA,153957.30,5700.7866139,N,00959.0254501,E,2,9,1.0,13.917,M,40.582,M,2.7,0123*41\r\n
$GPGGA,153957.35,5700.7866087,N,00959.0254109,E,2,9,1.0,13.916,M,40.582,M,2.7,0123*4D\r\n
$GPGGA,153957.40,5700.7866033,N,00959.0253737,E,2,9,1.0,13.916,M,40.582,M,2.7,0123*4C\r\n
$GPGGA,153957.45,5700.7865988,N,00959.0253323,E,2,9,1.0,13.909,M,40.582,M,2.9,0123*42\r\n
$GPGGA,153957.50,5700.7865943,N,00959.0252917,E,2,9,1.0,13.910,M,40.582,M,2.9,0123*45\r\n
$GPGGA,153957.55,5700.7865886,N,00959.0252530,E,2,9,1.0,13.911,M,40.582,M,2.9,0123*40\r\n
$GPGGA,153957.60,5700.7865817,N,00959.0252122,E,2,9,1.0,13.910,M,40.582,M,2.9,0123*48\r\n
$GPGGA,153957.65,5700.7865765,N,00959.0251724,E,2,9,1.0,13.914,M,40.582,M,2.1,0123*48\r\n
$GPGGA,153957.70,5700.7865691,N,00959.0251329,E,2,9,1.0,13.913,M,40.582,M,2.1,0123*48\r\n
$GPGGA,153957.75,5700.7865611,N,00959.0250918,E,2,9,1.0,13.910,M,40.582,M,2.1,0123*4F\r\n
$GPGGA,153957.80,5700.7865562,N,00959.0250504,E,2,9,1.0,13.908,M,40.582,M,2.1,0123*4A\r\n
$GPGGA,153957.85,5700.7865505,N,00959.0250078,E,2,9,1.0,13.903,M,40.582,M,2.4,0123*4E\r\n
$GPGGA,153957.90,5700.7865443,N,00959.0249693,E,2,9,1.0,13.904,M,40.582,M,2.4,0123*45\r\n
$GPGGA,153957.95,5700.7865385,N,00959.0249316,E,2,9,1.0,13.907,M,40.582,M,2.4,0123*46\r\n
$GPGGA,153958.00,5700.7865332,N,00959.0248896,E,2,9,1.0,13.907,M,40.582,M,2.4,0123*4B\r\n
$GPGGA,153958.05,5700.7865279,N,00959.0248493,E,2,9,1.0,13.913,M,40.582,M,2.7,0123*4F\r\n
$GPGGA,153958.10,5700.7865227,N,00959.0248135,E,2,9,1.0,13.917,M,40.582,M,2.7,0123*4D\r\n
$GPGGA,153958.15,5700.7865182,N,00959.0247729,E,2,9,1.0,13.914,M,40.582,M,2.7,0123*43\r\n
$GPGGA,153958.20,5700.7865130,N,00959.0247292,E,2,9,1.0,13.911,M,40.582,M,2.7,0123*4C\r\n
$GPGGA,153958.25,5700.7865096,N,00959.0246883,E,2,9,1.0,13.912,M,40.582,M,3.0,0123*4A\r\n
$GPGGA,153958.30,5700.7865054,N,00959.0246500,E,2,9,1.0,13.914,M,40.582,M,3.0,0123*40\r\n
$GPGGA,153958.35,5700.7864993,N,00959.0246077,E,2,9,1.0,13.913,M,40.582,M,3.0,0123*44\r\n
$GPGGA,153958.40,5700.7864944,N,00959.0245662,E,2,9,1.0,13.908,M,40.582,M,3.0,0123*47\r\n
$GPGGA,153958.45,5700.7864906,N,00959.0245277,E,2,9,1.0,13.913,M,40.582,M,3.2,0123*4C\r\n
$GPGGA,153958.50,5700.7864836,N,00959.0244873,E,2,9,1.0,13.913,M,40.582,M,3.2,0123*45\r\n
$GPGGA,153958.55,5700.7864776,N,00959.0244456,E,2,9,1.0,13.913,M,40.582,M,3.2,0123*40\r\n
$GPGGA,153958.60,5700.7864741,N,00959.0244046,E,2,9,1.0,13.916,M,40.582,M,3.2,0123*42\r\n
$GPGGA,153958.65,5700.7864698,N,00959.0243617,E,2,9,1.0,13.914,M,40.582,M,1.1,0123*44\r\n
$GPGGA,153958.70,5700.7864632,N,00959.0243215,E,2,9,1.0,13.911,M,40.582,M,1.1,0123*43\r\n
$GPGGA,153958.75,5700.7864561,N,00959.0242806,E,2,9,1.0,13.909,M,40.582,M,1.1,0123*43\r\n
$GPGGA,153958.80,5700.7864514,N,00959.0242411,E,2,9,1.0,13.911,M,40.582,M,1.1,0123*48\r\n
$GPGGA,153958.85,5700.7864474,N,00959.0242022,E,2,9,1.0,13.912,M,40.582,M,1.4,0123*48\r\n
$GPGGA,153958.90,5700.7864422,N,00959.0241626,E,2,9,1.0,13.915,M,40.582,M,1.4,0123*49\r\n
$GPGGA,153958.95,5700.7864355,N,00959.0241219,E,2,9,1.0,13.918,M,40.582,M,1.4,0123*4E\r\n
$GPGGA,153959.00,5700.7864298,N,00959.0240807,E,2,9,1.0,13.921,M,40.582,M,1.4,0123*4D\r\n
$GPGGA,153959.05,5700.7864254,N,00959.0240393,E,2,9,1.0,13.927,M,40.582,M,1.6,0123*4A\r\n
$GPGGA,153959.10,5700.7864188,N,00959.0239963,E,2,9,1.0,13.926,M,40.582,M,1.6,0123*46\r\n
$GPGGA,153959.15,5700.7864135,N,00959.0239551,E,2,9,1.0,13.926,M,40.582,M,1.6,0123*48\r\n
$GPGGA,153959.20,5700.7864093,N,00959.0239132,E,2,9,1.0,13.929,M,40.582,M,1.6,0123*4D\r\n
$GPGGA,153959.25,5700.7864029,N,00959.0238683,E,2,9,1.0,13.925,M,40.582,M,1.9,0123*46\r\n
$GPGGA,153959.30,5700.7863970,N,00959.0238250,E,2,9,1.0,13.925,M,40.582,M,1.9,0123*4A\r\n
$GPGGA,153959.35,5700.7863919,N,00959.0237795,E,2,9,1.0,13.921,M,40.582,M,1.9,0123*47\r\n
$GPGGA,153959.40,5700.7863865,N,00959.0237353,E,2,9,1.0,13.920,M,40.582,M,1.9,0123*40\r\n
$GPGGA,153959.45,5700.7863813,N,00959.0236920,E,2,9,1.0,13.921,M,40.582,M,2.2,0123*42\r\n
$GPGGA,153959.50,5700.7863762,N,00959.0236456,E,2,9,1.0,13.919,M,40.582,M,2.2,0123*48\r\n
$GPGGA,153959.55,5700.7863700,N,00959.0236046,E,2,9,1.0,13.918,M,40.582,M,2.2,0123*4D\r\n
$GPGGA,153959.60,5700.7863631,N,00959.0235616,E,2,9,1.0,13.920,M,40.582,M,2.2,0123*43\r\n
$GPGGA,153959.65,5700.7863581,N,00959.0235153,E,2,9,1.0,13.922,M,40.582,M,0.9,0123*43\r\n
$GPGGA,153959.70,5700.7863541,N,00959.0234716,E,2,9,1.0,13.922,M,40.582,M,0.9,0123*4D\r\n
$GPGGA,153959.75,5700.7863486,N,00959.0234267,E,2,9,1.0,13.922,M,40.582,M,0.9,0123*41\r\n
$GPGGA,153959.80,5700.7863437,N,00959.0233820,E,2,9,1.0,13.924,M,40.582,M,0.9,0123*49\r\n
$GPGGA,153959.85,5700.7863387,N,00959.0233369,E,2,9,1.0,13.920,M,40.582,M,1.2,0123*48\r\n
$GPGGA,153959.90,5700.7863335,N,00959.0232905,E,2,9,1.0,13.917,M,40.582,M,1.2,0123*40\r\n
$GPGGA,153959.95,5700.7863297,N,00959.0232461,E,2,9,1.0,13.918,M,40.582,M,1.2,0123*4C\r\n
$GPGGA,154000.00,5700.7863241,N,00959.0231985,E,2,9,1.0,13.913,M,40.582,M,1.2,0123*46\r\n
$GPGGA,154000.05,5700.7863180,N,00959.0231524,E,2,9,1.0,13.920,M,40.582,M,1.4,0123*4C\r\n
$GPGGA,154000.10,5700.7863111,N,00959.0231070,E,2,9,1.0,13.919,M,40.582,M,1.4,0123*4E\r\n
$GPGGA,154000.15,5700.7863052,N,00959.0230596,E,2,9,1.0,13.915,M,40.582,M,1.4,0123*4D\r\n
$GPGGA,154000.20,5700.7863003,N,00959.0230149,E,2,9,1.0,13.916,M,40.582,M,1.4,0123*4A\r\n
$GPGGA,154000.25,5700.7862959,N,00959.0229698,E,2,9,1.0,13.913,M,40.582,M,1.6,0123*4C\r\n
$GPGGA,154000.30,5700.7862925,N,00959.0229254,E,2,9,1.0,13.916,M,40.582,M,1.6,0123*42\r\n
$GPGGA,154000.35,5700.7862888,N,00959.0228818,E,2,9,1.0,13.919,M,40.582,M,1.6,0123*4D\r\n
$GPGGA,154000.40,5700.7862851,N,00959.0228371,E,2,9,1.0,13.918,M,40.582,M,1.6,0123*4E\r\n
$GPGGA,154000.45,5700.7862821,N,00959.0227935,E,2,9,1.0,13.926,M,40.582,M,1.9,0123*4B\r\n
$GPGGA,154000.50,5700.7862756,N,00959.0227487,E,2,9,1.0,13.926,M,40.582,M,1.9,0123*44\r\n
$GPGGA,154000.55,5700.7862692,N,00959.0227043,E,2,9,1.0,13.922,M,40.582,M,1.9,0123*40\r\n
$GPGGA,154000.60,5700.7862624,N,00959.0226593,E,2,9,1.0,13.919,M,40.582,M,1.9,0123*4A\r\n
$GPGGA,154000.65,5700.7862561,N,00959.0226140,E,2,9,1.0,13.914,M,40.582,M,2.1,0123*41\r\n
$GPGGA,154000.70,5700.7862508,N,00959.0225686,E,2,9,1.0,13.917,M,40.582,M,2.1,0123*47\r\n
$GPGGA,154000.75,5700.7862443,N,00959.0225249,E,2,9,1.0,13.916,M,40.582,M,2.1,0123*4A\r\n
$GPGGA,154000.80,5700.7862395,N,00959.0224811,E,2,9,1.0,13.913,M,40.582,M,2.1,0123*4F\r\n
$GPGGA,154000.85,5700.7862346,N,00959.0224365,E,2,9,1.0,13.914,M,40.582,M,2.3,0123*49\r\n
$GPGGA,154000.90,5700.7862300,N,00959.0223919,E,2,9,1.0,13.913,M,40.582,M,2.3,0123*4E\r\n
$GPGGA,154000.95,5700.7862252,N,00959.0223474,E,2,9,1.0,13.914,M,40.582,M,2.3,0123*4C\r\n
$GPGGA,154001.00,5700.7862204,N,00959.0223011,E,2,9,1.0,13.914,M,40.582,M,2.3,0123*45\r\n
$GPGGA,154001.05,5700.7862150,N,00959.0222574,E,2,9,1.0,13.920,M,40.582,M,2.5,0123*44\r\n
$GPGGA,154001.10,5700.7862095,N,00959.0222155,E,2,9,1.0,13.925,M,40.582,M,2.5,0123*4A\r\n
$GPGGA,154001.15,5700.7862043,N,00959.0221695,E,2,9,1.0,13.925,M,40.582,M,2.5,0123*4C\r\n
$GPGGA,154001.20,5700.7861999,N,00959.0221260,E,2,9,1.0,13.924,M,40.582,M,2.5,0123*48\r\n
