$GPGGA,094630.00,5700.9078109,N,00959.1376195,E,2,8,0.9,10.380,M,40.582,M,3.7,0136*4E\r\n
$GPGGA,094630.05,5700.9078075,N,00959.1376195,E,2,8,0.9,10.369,M,40.582,M,2.2,0136*42\r\n
$GPGGA,094630.10,5700.9078066,N,00959.1376200,E,2,8,0.9,10.369,M,40.582,M,2.2,0136*4B\r\n
$GPGGA,094630.15,5700.9078080,N,00959.1376220,E,2,8,0.9,10.370,M,40.582,M,2.2,0136*4C\r\n
$GPGGA,094630.20,5700.9078085,N,00959.1376235,E,2,8,0.9,10.369,M,40.582,M,2.2,0136*43\r\n
$GPGGA,094630.25,5700.9078086,N,00959.1376223,E,2,8,0.9,10.379,M,40.582,M,2.5,0136*44\r\n
$GPGGA,094630.30,5700.9078090,N,00959.1376202,E,2,8,0.9,10.378,M,40.582,M,2.5,0136*45\r\n
$GPGGA,094630.35,5700.9078096,N,00959.1376178,E,2,8,0.9,10.380,M,40.582,M,2.5,0136*4F\r\n
$GPGGA,094630.40,5700.9078098,N,00959.1376176,E,2,8,0.9,10.381,M,40.582,M,2.5,0136*4C\r\n
$GPGGA,094630.45,5700.9078096,N,00959.1376159,E,2,8,0.9,10.382,M,40.582,M,2.7,0136*4B\r\n
$GPGGA,094630.50,5700.9078099,N,00959.1376154,E,2,8,0.9,10.382,M,40.582,M,2.7,0136*4D\r\n
$GPGGA,094630.55,5700.9078100,N,00959.1376145,E,2,8,0.9,10.382,M,40.582,M,2.7,0136*49\r\n
$GPGGA,094630.60,5700.9078099,N,00959.1376138,E,2,8,0.9,10.383,M,40.582,M,2.7,0136*45\r\n
$GPGGA,094630.65,5700.9078100,N,00959.1376218,E,2,8,0.9,10.376,M,40.582,M,3.0,0136*4C\r\n
$GPGGA,094630.70,5700.9078100,N,00959.1376218,E,2,8,0.9,10.376,M,40.582,M,3.0,0136*48\r\n
$GPGGA,094630.75,5700.9078101,N,00959.1376219,E,2,8,0.9,10.375,M,40.582,M,3.0,0136*4E\r\n
$GPGGA,094630.80,5700.9078102,N,00959.1376215,E,2,8,0.9,10.375,M,40.582,M,3.0,0136*4B\r\n
$GPGGA,094630.85,5700.9078086,N,00959.1376204,E,2,8,0.9,10.372,M,40.582,M,3.2,0136*46\r\n
$GPGGA,094630.90,5700.9078085,N,00959.1376198,E,2,8,0.9,10.371,M,40.582,M,3.2,0136*44\r\n
$GPGGA,094630.95,5700.9078085,N,00959.1376196,E,2,8,0.9,10.370,M,40.582,M,3.2,0136*4E\r\n
$GPGGA,094631.00,5700.9078080,N,00959.1376200,E,2,8,0.9,10.369,M,40.582,M,3.2,0136*42\r\n
$GPGGA,094631.05,5700.9078052,N,00959.1376177,E,2,8,0.9,10.370,M,40.582,M,1.5,0136*46\r\n
$GPGGA,094631.10,5700.9078050,N,00959.1376177,E,2,8,0.9,10.370,M,40.582,M,1.5,0136*40\r\n
$GPGGA,094631.15,5700.9078049,N,00959.1376177,E,2,8,0.9,10.369,M,40.582,M,1.5,0136*45\r\n
$GPGGA,094631.20,5700.9078048,N,00959.1376180,E,2,8,0.9,10.368,M,40.582,M,1.5,0136*4B\r\n
$GPGGA,094631.25,5700.9078065,N,00959.1376212,E,2,8,0.9,10.368,M,40.582,M,1.7,0136*4B\r\n
$GPGGA,094631.30,5700.9078063,N,00959.1376217,E,2,8,0.9,10.368,M,40.582,M,1.7,0136*4C\r\n
$GPGGA,094631.35,5700.9078062,N,00959.1376213,E,2,8,0.9,10.367,M,40.582,M,1.7,0136*43\r\n
$GPGGA,094631.40,5700.9078059,N,00959.1376206,E,2,8,0.9,10.367,M,40.582,M,1.7,0136*4D\r\n
$GPGGA,094631.45,5700.9078040,N,00959.1376152,E,2,8,0.9,10.370,M,40.582,M,1.9,0136*4A\r\n
$GPGGA,094631.50,5700.9078039,N,00959.1376158,E,2,8,0.9,10.370,M,40.582,M,1.9,0136*4A\r\n
$GPGGA,094631.55,5700.9078040,N,00959.1376165,E,2,8,0.9,10.370,M,40.582,M,1.9,0136*4F\r\n
$GPGGA,094631.60,5700.9078042,N,00959.1376164,E,2,8,0.9,10.370,M,40.582,M,1.9,0136*4A\r\n
$GPGGA,094631.65,5700.9078100,N,00959.1376237,E,2,8,0.9,10.378,M,40.582,M,2.2,0136*4D\r\n
$GPGGA,094631.70,5700.9078103,N,00959.1376240,E,2,8,0.9,10.379,M,40.582,M,2.2,0136*4B\r\n
$GPGGA,094631.75,5700.9078105,N,00959.1376245,E,2,8,0.9,10.380,M,40.582,M,2.2,0136*4B\r\n
$GPGGA,094631.80,5700.9078111,N,00959.1376247,E,2,8,0.9,10.382,M,40.582,M,2.2,0136*44\r\n
$GPGGA,094631.85,5700.9078058,N,00959.1376178,E,2,8,0.9,10.369,M,40.582,M,2.4,0136*41\r\n
$GPGGA,094631.90,5700.9078057,N,00959.1376175,E,2,8,0.9,10.369,M,40.582,M,2.4,0136*47\r\n
$GPGGA,094631.95,5700.9078055,N,00959.1376174,E,2,8,0.9,10.369,M,40.582,M,2.4,0136*41\r\n
$GPGGA,094632.00,5700.9078057,N,00959.1376178,E,2,8,0.9,10.369,M,40.582,M,2.4,0136*40\r\n
$GPGGA,094632.05,5700.9078043,N,00959.1376183,E,2,8,0.9,10.371,M,40.582,M,1.7,0136*4D\r\n
$GPGGA,094632.10,5700.9078040,N,00959.1376184,E,2,8,0.9,10.371,M,40.582,M,1.7,0136*4D\r\n
$GPGGA,094632.15,5700.9078039,N,00959.1376181,E,2,8,0.9,10.371,M,40.582,M,1.7,0136*43\r\n
$GPGGA,094632.20,5700.9078039,N,00959.1376176,E,2,8,0.9,10.371,M,40.582,M,1.7,0136*4D\r\n
$GPGGA,094632.25,5700.9078044,N,00959.1376192,E,2,8,0.9,10.374,M,40.582,M,1.9,0136*43\r\n
$GPGGA,094632.30,5700.9078043,N,00959.1376193,E,2,8,0.9,10.374,M,40.582,M,1.9,0136*41\r\n
$GPGGA,094632.35,5700.9078043,N,00959.1376193,E,2,8,0.9,10.374,M,40.582,M,1.9,0136*44\r\n
$GPGGA,094632.40,5700.9078042,N,00959.1376188,E,2,8,0.9,10.374,M,40.582,M,1.9,0136*4D\r\n
$GPGGA,094632.45,5700.9078070,N,00959.1376176,E,2,8,0.9,10.378,M,40.582,M,2.2,0136*4C\r\n
$GPGGA,094632.50,5700.9078069,N,00959.1376178,E,2,8,0.9,10.378,M,40.582,M,2.2,0136*4E\r\n
$GPGGA,094632.55,5700.9078071,N,00959.1376178,E,2,8,0.9,10.379,M,40.582,M,2.2,0136*43\r\n
$GPGGA,094632.60,5700.9078073,N,00959.1376174,E,2,8,0.9,10.380,M,40.582,M,2.2,0136*4D\r\n
$GPGGA,094632.65,5700.9078063,N,00959.1376190,E,2,8,0.9,10.377,M,40.582,M,2.4,0136*4D\r\n
$GPGGA,094632.70,5700.9078064,N,00959.1376189,E,2,8,0.9,10.378,M,40.582,M,2.4,0136*49\r\n
$GPGGA,094632.75,5700.9078061,N,00959.1376186,E,2,8,0.9,10.378,M,40.582,M,2.4,0136*46\r\n
$GPGGA,094632.80,5700.9078061,N,00959.1376184,E,2,8,0.9,10.379,M,40.582,M,2.4,0136*4F\r\n
$GPGGA,094632.85,5700.9078026,N,00959.1376172,E,2,8,0.9,10.371,M,40.582,M,2.6,0136*4A\r\n
$GPGGA,094632.90,5700.9078025,N,00959.1376173,E,2,8,0.9,10.371,M,40.582,M,2.6,0136*4C\r\n
$GPGGA,094632.95,5700.9078026,N,00959.1376170,E,2,8,0.9,10.370,M,40.582,M,2.6,0136*48\r\n
$GPGGA,094633.00,5700.9078023,N,00959.1376171,E,2,8,0.9,10.370,M,40.582,M,2.6,0136*41\r\n
$GPGGA,094633.05,5700.9078024,N,00959.1376176,E,2,8,0.9,10.368,M,40.582,M,2.8,0136*43\r\n
$GPGGA,094633.10,5700.9078022,N,00959.1376177,E,2,8,0.9,10.367,M,40.582,M,2.8,0136*4F\r\n
$GPGGA,094633.15,5700.9078020,N,00959.1376181,E,2,8,0.9,10.366,M,40.582,M,2.8,0136*40\r\n
$GPGGA,094633.20,5700.9078021,N,00959.1376183,E,2,8,0.9,10.365,M,40.582,M,2.8,0136*46\r\n
$GPGGA,094633.25,5700.9078026,N,00959.1376196,E,2,8,0.9,10.367,M,40.582,M,3.0,0136*4B\r\n
$GPGGA,094633.30,5700.9078027,N,00959.1376192,E,2,8,0.9,10.366,M,40.582,M,3.0,0136*4B\r\n
$GPGGA,094633.35,5700.9078025,N,00959.1376195,E,2,8,0.9,10.365,M,40.582,M,3.0,0136*48\r\n
$GPGGA,094633.40,5700.9078026,N,00959.1376198,E,2,8,0.9,10.364,M,40.582,M,3.0,0136*45\r\n
$GPGGA,094633.45,5700.9078051,N,00959.1376169,E,2,8,0.9,10.377,M,40.582,M,3.2,0136*4E\r\n
$GPGGA,094633.50,5700.9078052,N,00959.1376170,E,2,8,0.9,10.378,M,40.582,M,3.2,0136*4E\r\n
$GPGGA,094633.55,5700.9078050,N,00959.1376176,E,2,8,0.9,10.378,M,40.582,M,3.2,0136*4F\r\n
$GPGGA,094633.60,5700.9078050,N,00959.1376182,E,2,8,0.9,10.379,M,40.582,M,3.2,0136*43\r\n
$GPGGA,094633.65,5700.9078007,N,00959.1376222,E,2,8,0.9,10.369,M,40.582,M,3.5,0136*4B\r\n
$GPGGA,094633.70,5700.9078007,N,00959.1376221,E,2,8,0.9,10.370,M,40.582,M,3.5,0136*44\r\n
$GPGGA,094633.75,5700.9078006,N,00959.1376220,E,2,8,0.9,10.370,M,40.582,M,3.5,0136*41\r\n
$GPGGA,094633.80,5700.9078003,N,00959.1376225,E,2,8,0.9,10.371,M,40.582,M,3.5,0136*4A\r\n
$GPGGA,094633.85,5700.9078003,N,00959.1376183,E,2,8,0.9,10.370,M,40.582,M,1.9,0136*4F\r\n
$GPGGA,094633.90,5700.9078004,N,00959.1376181,E,2,8,0.9,10.370,M,40.582,M,1.9,0136*4E\r\n
$GPGGA,094633.95,5700.9078007,N,00959.1376180,E,2,8,0.9,10.370,M,40.582,M,1.9,0136*49\r\n
$GPGGA,094634.00,5700.9078011,N,00959.1376181,E,2,8,0.9,10.370,M,40.582,M,1.9,0136*44\r\n
$GPGGA,094634.05,5700.9078050,N,00959.1376171,E,2,8,0.9,10.370,M,40.582,M,2.2,0136*43\r\n
$GPGGA,094634.10,5700.9078050,N,00959.1376169,E,2,8,0.9,10.370,M,40.582,M,2.2,0136*4E\r\n
$GPGGA,094634.15,5700.9078052,N,00959.1376168,E,2,8,0.9,10.370,M,40.582,M,2.2,0136*48\r\n
$GPGGA,094634.20,5700.9078056,N,00959.1376172,E,2,8,0.9,10.371,M,40.582,M,2.2,0136*40\r\n
$GPGGA,094634.25,5700.9078013,N,00959.1376191,E,2,8,0.9,10.366,M,40.582,M,2.5,0136*48\r\n
$GPGGA,094634.30,5700.9078013,N,00959.1376190,E,2,8,0.9,10.366,M,40.582,M,2.5,0136*4D\r\n
$GPGGA,094634.35,5700.9078014,N,00959.1376190,E,2,8,0.9,10.366,M,40.582,M,2.5,0136*4F\r\n
$GPGGA,094634.40,5700.9078012,N,00959.1376190,E,2,8,0.9,10.366,M,40.582,M,2.5,0136*4B\r\n
$GPGGA,094634.45,5700.9077996,N,00959.1376173,E,2,8,0.9,10.366,M,40.582,M,2.7,0136*4B\r\n
$GPGGA,094634.50,5700.9077995,N,00959.1376170,E,2,8,0.9,10.366,M,40.582,M,2.7,0136*4F\r\n
$GPGGA,094634.55,5700.9077995,N,00959.1376171,E,2,8,0.9,10.365,M,40.582,M,2.7,0136*48\r\n
$GPGGA,094634.60,5700.9077992,N,00959.1376172,E,2,8,0.9,10.365,M,40.582,M,2.7,0136*4A\r\n
$GPGGA,094634.65,5700.9078012,N,00959.1376176,E,2,8,0.9,10.368,M,40.582,M,3.0,0136*4E\r\n
$GPGGA,094634.70,5700.9078012,N,00959.1376174,E,2,8,0.9,10.368,M,40.582,M,3.0,0136*48\r\n
$GPGGA,094634.75,5700.9078011,N,00959.1376171,E,2,8,0.9,10.368,M,40.582,M,3.0,0136*4B\r\n
$GPGGA,094634.80,5700.9078011,N,00959.1376171,E,2,8,0.9,10.368,M,40.582,M,3.0,0136*41\r\n
$GPGGA,094634.85,5700.9078011,N,00959.1376155,E,2,8,0.9,10.367,M,40.582,M,1.2,0136*4D\r\n
$GPGGA,094634.90,5700.9078012,N,00959.1376157,E,2,8,0.9,10.367,M,40.582,M,1.2,0136*48\r\n
$GPGGA,094634.95,5700.9078013,N,00959.1376157,E,2,8,0.9,10.367,M,40.582,M,1.2,0136*4C\r\n
$GPGGA,094635.00,5700.9078015,N,00959.1376157,E,2,8,0.9,10.367,M,40.582,M,1.2,0136*47\r\n
$GPGGA,094635.05,5700.9078019,N,00959.1376178,E,2,8,0.9,10.370,M,40.582,M,1.5,0136*42\r\n
$GPGGA,094635.10,5700.9078017,N,00959.1376182,E,2,8,0.9,10.371,M,40.582,M,1.5,0136*4C\r\n
$GPGGA,094635.15,5700.9078018,N,00959.1376186,E,2,8,0.9,10.371,M,40.582,M,1.5,0136*42\r\n
$GPGGA,094635.20,5700.9078022,N,00959.1376191,E,2,8,0.9,10.372,M,40.582,M,1.5,0136*48\r\n
$GPGGA,094635.25,5700.9077989,N,00959.1376203,E,2,8,0.9,10.371,M,40.582,M,1.7,0136*43\r\n
$GPGGA,094635.30,5700.9077992,N,00959.1376206,E,2,8,0.9,10.372,M,40.582,M,1.7,0136*4B\r\n
$GPGGA,094635.35,5700.9077995,N,00959.1376206,E,2,8,0.9,10.373,M,40.582,M,1.7,0136*48\r\n
$GPGGA,094635.40,5700.9077995,N,00959.1376210,E,2,8,0.9,10.373,M,40.582,M,1.7,0136*4D\r\n
$GPGGA,094635.45,5700.9078018,N,00959.1376191,E,2,8,0.9,10.373,M,40.582,M,1.9,0136*4F\r\n
$GPGGA,094635.50,5700.9078018,N,00959.1376197,E,2,8,0.9,10.374,M,40.582,M,1.9,0136*4A\r\n
$GPGGA,094635.55,5700.9078020,N,00959.1376199,E,2,8,0.9,10.375,M,40.582,M,1.9,0136*4B\r\n
$GPGGA,094635.60,5700.9078022,N,00959.1376198,E,2,8,0.9,10.376,M,40.582,M,1.9,0136*4D\r\n
$GPGGA,094635.65,5700.9078000,N,00959.1376194,E,2,8,0.9,10.372,M,40.582,M,2.2,0136*48\r\n
$GPGGA,094635.70,5700.9078002,N,00959.1376194,E,2,8,0.9,10.373,M,40.582,M,2.2,0136*4F\r\n
$GPGGA,094635.75,5700.9078005,N,00959.1376195,E,2,8,0.9,10.373,M,40.582,M,2.2,0136*4C\r\n
$GPGGA,094635.80,5700.9078006,N,00959.1376196,E,2,8,0.9,10.374,M,40.582,M,2.2,0136*41\r\n
$GPGGA,094635.85,5700.9078017,N,00959.1376189,E,2,8,0.9,10.374,M,40.582,M,1.5,0136*4E\r\n
$GPGGA,094635.90,5700.9078017,N,00959.1376191,E,2,8,0.9,10.374,M,40.582,M,1.5,0136*43\r\n
$GPGGA,094635.95,5700.9078017,N,00959.1376194,E,2,8,0.9,10.374,M,40.582,M,1.5,0136*43\r\n
$GPGGA,094636.00,5700.9078019,N,00959.1376194,E,2,8,0.9,10.374,M,40.582,M,1.5,0136*42\r\n
$GPGGA,094636.05,5700.9077979,N,00959.1376197,E,2,8,0.9,10.362,M,40.582,M,1.7,0136*41\r\n
$GPGGA,094636.10,5700.9077978,N,00959.1376194,E,2,8,0.9,10.362,M,40.582,M,1.7,0136*47\r\n
$GPGGA,094636.15,5700.9077977,N,00959.1376197,E,2,8,0.9,10.362,M,40.582,M,1.7,0136*4E\r\n
$GPGGA,094636.20,5700.9077976,N,00959.1376196,E,2,8,0.9,10.361,M,40.582,M,1.7,0136*4B\r\n
$GPGGA,094636.25,5700.9077975,N,00959.1376173,E,2,8,0.9,10.371,M,40.582,M,1.9,0136*49\r\n
$GPGGA,094636.30,5700.9077975,N,00959.1376172,E,2,8,0.9,10.371,M,40.582,M,1.9,0136*4C\r\n
$GPGGA,094636.35,5700.9077976,N,00959.1376172,E,2,8,0.9,10.370,M,40.582,M,1.9,0136*4B\r\n
$GPGGA,094636.40,5700.9077974,N,00959.1376171,E,2,8,0.9,10.370,M,40.582,M,1.9,0136*48\r\n
$GPGGA,094636.45,5700.9077975,N,00959.1376183,E,2,8,0.9,10.367,M,40.582,M,2.2,0136*4F\r\n
$GPGGA,094636.50,5700.9077974,N,00959.1376183,E,2,8,0.9,10.366,M,40.582,M,2.2,0136*4B\r\n
$GPGGA,094636.55,5700.9077974,N,00959.1376181,E,2,8,0.9,10.366,M,40.582,M,2.2,0136*4C\r\n
$GPGGA,094636.60,5700.9077971,N,00959.1376178,E,2,8,0.9,10.365,M,40.582,M,2.2,0136*4A\r\n
$GPGGA,094636.65,5700.9077974,N,00959.1376179,E,2,8,0.9,10.370,M,40.582,M,2.4,0136*49\r\n
$GPGGA,094636.70,5700.9077973,N,00959.1376176,E,2,8,0.9,10.370,M,40.582,M,2.4,0136*45\r\n
$GPGGA,094636.75,5700.9077969,N,00959.1376178,E,2,8,0.9,10.369,M,40.582,M,2.4,0136*4D\r\n
$GPGGA,094636.80,5700.9077967,N,00959.1376178,E,2,8,0.9,10.369,M,40.582,M,2.4,0136*49\r\n
$GPGGA,094636.85,5700.9077957,N,00959.1376189,E,2,8,0.9,10.366,M,40.582,M,2.6,0136*4C\r\n
$GPGGA,094636.90,5700.9077954,N,00959.1376188,E,2,8,0.9,10.366,M,40.582,M,2.6,0136*4A\r\n
$GPGGA,094636.95,5700.9077953,N,00959.1376187,E,2,8,0.9,10.366,M,40.582,M,2.6,0136*47\r\n
$GPGGA,094637.00,5700.9077952,N,00959.1376188,E,2,8,0.9,10.365,M,40.582,M,2.6,0136*47\r\n
$GPGGA,094637.05,5700.9077950,N,00959.1376172,E,2,8,0.9,10.367,M,40.582,M,2.8,0136*49\r\n
$GPGGA,094637.10,5700.9077949,N,00959.1376170,E,2,8,0.9,10.367,M,40.582,M,2.8,0136*47\r\n
$GPGGA,094637.15,5700.9077946,N,00959.1376170,E,2,8,0.9,10.366,M,40.582,M,2.8,0136*4C\r\n
$GPGGA,094637.20,5700.9077944,N,00959.1376175,E,2,8,0.9,10.366,M,40.582,M,2.8,0136*4D\r\n
$GPGGA,094637.25,5700.9077930,N,00959.1376186,E,2,8,0.9,10.360,M,40.582,M,3.0,0136*48\r\n
$GPGGA,094637.30,5700.9077928,N,00959.1376187,E,2,8,0.9,10.359,M,40.582,M,3.0,0136*4E\r\n
$GPGGA,094637.35,5700.9077928,N,00959.1376185,E,2,8,0.9,10.359,M,40.582,M,3.0,0136*49\r\n
$GPGGA,094637.40,5700.9077926,N,00959.1376184,E,2,8,0.9,10.358,M,40.582,M,3.0,0136*45\r\n
$GPGGA,094637.45,5700.9077944,N,00959.1376170,E,2,8,0.9,10.368,M,40.582,M,3.2,0136*4E\r\n
$GPGGA,094637.50,5700.9077942,N,00959.1376172,E,2,8,0.9,10.368,M,40.582,M,3.2,0136*4E\r\n
$GPGGA,094637.55,5700.9077942,N,00959.1376172,E,2,8,0.9,10.368,M,40.582,M,3.2,0136*4B\r\n
$GPGGA,094637.60,5700.9077941,N,00959.1376173,E,2,8,0.9,10.367,M,40.582,M,3.2,0136*40\r\n
$GPGGA,094637.65,5700.9077937,N,00959.1376200,E,2,8,0.9,10.360,M,40.582,M,3.5,0136*43\r\n
$GPGGA,094637.70,5700.9077936,N,00959.1376203,E,2,8,0.9,10.360,M,40.582,M,3.5,0136*45\r\n
$GPGGA,094637.75,5700.9077935,N,00959.1376204,E,2,8,0.9,10.359,M,40.582,M,3.5,0136*4E\r\n
$GPGGA,094637.80,5700.9077936,N,00959.1376206,E,2,8,0.9,10.359,M,40.582,M,3.5,0136*45\r\n
$GPGGA,094637.85,5700.9077948,N,00959.1376213,E,2,8,0.9,10.365,M,40.582,M,1.9,0136*4C\r\n
$GPGGA,094637.90,5700.9077947,N,00959.1376214,E,2,8,0.9,10.365,M,40.582,M,1.9,0136*40\r\n
$GPGGA,094637.95,5700.9077946,N,00959.1376216,E,2,8,0.9,10.364,M,40.582,M,1.9,0136*47\r\n
$GPGGA,094638.00,5700.9077943,N,00959.1376219,E,2,8,0.9,10.364,M,40.582,M,1.9,0136*4E\r\n
$GPGGA,094638.05,5700.9077915,N,00959.1376189,E,2,8,0.9,10.361,M,40.582,M,2.2,0136*4F\r\n
$GPGGA,094638.10,5700.9077915,N,00959.1376191,E,2,8,0.9,10.361,M,40.582,M,2.2,0136*42\r\n
$GPGGA,094638.15,5700.9077913,N,00959.1376189,E,2,8,0.9,10.361,M,40.582,M,2.2,0136*48\r\n
$GPGGA,094638.20,5700.9077914,N,00959.1376183,E,2,8,0.9,10.361,M,40.582,M,2.2,0136*43\r\n
$GPGGA,094638.25,5700.9077918,N,00959.1376160,E,2,8,0.9,10.363,M,40.582,M,2.5,0136*42\r\n
$GPGGA,094638.30,5700.9077918,N,00959.1376162,E,2,8,0.9,10.363,M,40.582,M,2.5,0136*44\r\n
$GPGGA,094638.35,5700.9077917,N,00959.1376165,E,2,8,0.9,10.364,M,40.582,M,2.5,0136*4E\r\n
$GPGGA,094638.40,5700.9077917,N,00959.1376167,E,2,8,0.9,10.364,M,40.582,M,2.5,0136*4E\r\n
$GPGGA,094638.45,5700.9077914,N,00959.1376198,E,2,8,0.9,10.365,M,40.582,M,2.7,0136*4B\r\n
$GPGGA,094638.50,5700.9077916,N,00959.1376197,E,2,8,0.9,10.366,M,40.582,M,2.7,0136*41\r\n
$GPGGA,094638.55,5700.9077919,N,00959.1376197,E,2,8,0.9,10.366,M,40.582,M,2.7,0136*4B\r\n
$GPGGA,094638.60,5700.9077916,N,00959.1376199,E,2,8,0.9,10.367,M,40.582,M,2.7,0136*4D\r\n
$GPGGA,094638.65,5700.9077932,N,00959.1376191,E,2,8,0.9,10.365,M,40.582,M,3.0,0136*42\r\n
$GPGGA,094638.70,5700.9077931,N,00959.1376194,E,2,8,0.9,10.366,M,40.582,M,3.0,0136*43\r\n
$GPGGA,094638.75,5700.9077934,N,00959.1376189,E,2,8,0.9,10.366,M,40.582,M,3.0,0136*4F\r\n
$GPGGA,094638.80,5700.9077933,N,00959.1376191,E,2,8,0.9,10.366,M,40.582,M,3.0,0136*4B\r\n
$GPGGA,094638.85,5700.9077912,N,00959.1376201,E,2,8,0.9,10.360,M,40.582,M,1.2,0136*41\r\n
$GPGGA,094638.90,5700.9077912,N,00959.1376202,E,2,8,0.9,10.360,M,40.582,M,1.2,0136*46\r\n
$GPGGA,094638.95,5700.9077915,N,00959.1376201,E,2,8,0.9,10.360,M,40.582,M,1.2,0136*47\r\n
$GPGGA,094639.00,5700.9077914,N,00959.1376198,E,2,8,0.9,10.360,M,40.582,M,1.2,0136*48\r\n
$GPGGA,094639.05,5700.9077897,N,00959.1376173,E,2,8,0.9,10.358,M,40.582,M,1.5,0136*4E\r\n
$GPGGA,094639.10,5700.9077898,N,00959.1376173,E,2,8,0.9,10.358,M,40.582,M,1.5,0136*45\r\n
$GPGGA,094639.15,5700.9077899,N,00959.1376177,E,2,8,0.9,10.358,M,40.582,M,1.5,0136*45\r\n
$GPGGA,094639.20,5700.9077899,N,00959.1376177,E,2,8,0.9,10.359,M,40.582,M,1.5,0136*42\r\n
$GPGGA,094639.25,5700.9077904,N,00959.1376199,E,2,8,0.9,10.361,M,40.582,M,1.7,0136*4B\r\n
$GPGGA,094639.30,5700.9077905,N,00959.1376198,E,2,8,0.9,10.361,M,40.582,M,1.7,0136*4F\r\n
$GPGGA,094639.35,5700.9077902,N,00959.1376202,E,2,8,0.9,10.362,M,40.582,M,1.7,0136*4E\r\n
$GPGGA,094639.40,5700.9077904,N,00959.1376199,E,2,8,0.9,10.362,M,40.582,M,1.7,0136*4B\r\n
$GPGGA,094639.45,5700.9077888,N,00959.1376184,E,2,8,0.9,10.358,M,40.582,M,1.9,0136*40\r\n
$GPGGA,094639.50,5700.9077889,N,00959.1376185,E,2,8,0.9,10.358,M,40.582,M,1.9,0136*44\r\n
$GPGGA,094639.55,5700.9077890,N,00959.1376188,E,2,8,0.9,10.358,M,40.582,M,1.9,0136*44\r\n
$GPGGA,094639.60,5700.9077888,N,00959.1376192,E,2,8,0.9,10.358,M,40.582,M,1.9,0136*40\r\n
$GPGGA,094639.65,5700.9077891,N,00959.1376214,E,2,8,0.9,10.357,M,40.582,M,2.2,0136*47\r\n
$GPGGA,094639.70,5700.9077893,N,00959.1376212,E,2,8,0.9,10.358,M,40.582,M,2.2,0136*48\r\n
$GPGGA,094639.75,5700.9077894,N,00959.1376208,E,2,8,0.9,10.358,M,40.582,M,2.2,0136*41\r\n
$GPGGA,094639.80,5700.9077892,N,00959.1376211,E,2,8,0.9,10.358,M,40.582,M,2.2,0136*45\r\n
$GPGGA,094639.85,5700.9077902,N,00959.1376184,E,2,8,0.9,10.367,M,40.582,M,1.5,0136*4F\r\n
$GPGGA,094639.90,5700.9077902,N,00959.1376189,E,2,8,0.9,10.368,M,40.582,M,1.5,0136*49\r\n
$GPGGA,094639.95,5700.9077904,N,00959.1376192,E,2,8,0.9,10.368,M,40.582,M,1.5,0136*40\r\n
$GPGGA,094640.00,5700.9077903,N,00959.1376191,E,2,8,0.9,10.369,M,40.582,M,1.5,0136*47\r\n
$GPGGA,094640.05,5700.9077863,N,00959.1376196,E,2,8,0.9,10.356,M,40.582,M,1.7,0136*4C\r\n
$GPGGA,094640.10,5700.9077863,N,00959.1376199,E,2,8,0.9,10.356,M,40.582,M,1.7,0136*47\r\n
$GPGGA,094640.15,5700.9077866,N,00959.1376204,E,2,8,0.9,10.357,M,40.582,M,1.7,0136*41\r\n
$GPGGA,094640.20,5700.9077870,N,00959.1376203,E,2,8,0.9,10.358,M,40.582,M,1.7,0136*48\r\n
$GPGGA,094640.25,5700.9077889,N,00959.1376206,E,2,8,0.9,10.355,M,40.582,M,1.9,0136*4D\r\n
$GPGGA,094640.30,5700.9077890,N,00959.1376207,E,2,8,0.9,10.355,M,40.582,M,1.9,0136*40\r\n
$GPGGA,094640.35,5700.9077890,N,00959.1376212,E,2,8,0.9,10.355,M,40.582,M,1.9,0136*41\r\n
$GPGGA,094640.40,5700.9077888,N,00959.1376213,E,2,8,0.9,10.356,M,40.582,M,1.9,0136*48\r\n
$GPGGA,094640.45,5700.9077859,N,00959.1376215,E,2,8,0.9,10.354,M,40.582,M,2.2,0136*4D\r\n
$GPGGA,094640.50,5700.9077860,N,00959.1376214,E,2,8,0.9,10.354,M,40.582,M,2.2,0136*42\r\n
$GPGGA,094640.55,5700.9077864,N,00959.1376211,E,2,8,0.9,10.354,M,40.582,M,2.2,0136*46\r\n
$GPGGA,094640.60,5700.9077862,N,00959.1376212,E,2,8,0.9,10.354,M,40.582,M,2.2,0136*45\r\n
$GPGGA,094640.65,5700.9077878,N,00959.1376176,E,2,8,0.9,10.355,M,40.582,M,2.4,0136*4D\r\n
$GPGGA,094640.70,5700.9077879,N,00959.1376179,E,2,8,0.9,10.356,M,40.582,M,2.4,0136*44\r\n
$GPGGA,094640.75,5700.9077881,N,00959.1376176,E,2,8,0.9,10.356,M,40.582,M,2.4,0136*49\r\n
$GPGGA,094640.80,5700.9077881,N,00959.1376175,E,2,8,0.9,10.356,M,40.582,M,2.4,0136*40\r\n
$GPGGA,094640.85,5700.9077878,N,00959.1376200,E,2,8,0.9,10.359,M,40.582,M,2.6,0136*4F\r\n
$GPGGA,094640.90,5700.9077878,N,00959.1376200,E,2,8,0.9,10.359,M,40.582,M,2.6,0136*4B\r\n
$GPGGA,094640.95,5700.9077879,N,00959.1376195,E,2,8,0.9,10.359,M,40.582,M,2.6,0136*40\r\n
$GPGGA,094641.00,5700.9077880,N,00959.1376188,E,2,8,0.9,10.360,M,40.582,M,2.6,0136*4D\r\n
$GPGGA,094641.05,5700.9077850,N,00959.1376144,E,2,8,0.9,10.351,M,40.582,M,2.8,0136*49\r\n
$GPGGA,094641.10,5700.9077848,N,00959.1376147,E,2,8,0.9,10.351,M,40.582,M,2.8,0136*47\r\n
$GPGGA,094641.15,5700.9077848,N,00959.1376143,E,2,8,0.9,10.351,M,40.582,M,2.8,0136*46\r\n
$GPGGA,094641.20,5700.9077850,N,00959.1376142,E,2,8,0.9,10.351,M,40.582,M,2.8,0136*48\r\n
$GPGGA,094641.25,5700.9077832,N,00959.1376181,E,2,8,0.9,10.348,M,40.582,M,3.0,0136*47\r\n
$GPGGA,094641.30,5700.9077834,N,00959.1376180,E,2,8,0.9,10.348,M,40.582,M,3.0,0136*44\r\n
$GPGGA,094641.35,5700.9077833,N,00959.1376181,E,2,8,0.9,10.348,M,40.582,M,3.0,0136*47\r\n
$GPGGA,094641.40,5700.9077831,N,00959.1376183,E,2,8,0.9,10.348,M,40.582,M,3.0,0136*45\r\n
$GPGGA,094641.45,5700.9077832,N,00959.1376194,E,2,8,0.9,10.349,M,40.582,M,3.2,0136*46\r\n
$GPGGA,094641.50,5700.9077832,N,00959.1376197,E,2,8,0.9,10.349,M,40.582,M,3.2,0136*41\r\n
$GPGGA,094641.55,5700.9077836,N,00959.1376196,E,2,8,0.9,10.349,M,40.582,M,3.2,0136*41\r\n
$GPGGA,094641.60,5700.9077838,N,00959.1376196,E,2,8,0.9,10.349,M,40.582,M,3.2,0136*49\r\n
$GPGGA,094641.65,5700.9077868,N,00959.1376180,E,2,8,0.9,10.358,M,40.582,M,3.5,0136*49\r\n
$GPGGA,094641.70,5700.9077867,N,00959.1376181,E,2,8,0.9,10.358,M,40.582,M,3.5,0136*43\r\n
$GPGGA,094641.75,5700.9077866,N,00959.1376179,E,2,8,0.9,10.359,M,40.582,M,3.5,0136*41\r\n
$GPGGA,094641.80,5700.9077864,N,00959.1376177,E,2,8,0.9,10.359,M,40.582,M,3.5,0136*47\r\n
$GPGGA,094641.85,5700.9077828,N,00959.1376167,E,2,8,0.9,10.352,M,40.582,M,3.7,0136*42\r\n
$GPGGA,094641.90,5700.9077829,N,00959.1376166,E,2,8,0.9,10.352,M,40.582,M,3.7,0136*46\r\n
$GPGGA,094641.95,5700.9077828,N,00959.1376168,E,2,8,0.9,10.352,M,40.582,M,3.7,0136*4C\r\n
$GPGGA,094642.00,5700.9077827,N,00959.1376168,E,2,8,0.9,10.353,M,40.582,M,3.7,0136*4D\r\n
$GPGGA,094642.05,5700.9077812,N,00959.1376163,E,2,8,0.9,10.341,M,40.582,M,2.2,0136*42\r\n
$GPGGA,094642.10,5700.9077812,N,00959.1376163,E,2,8,0.9,10.341,M,40.582,M,2.2,0136*46\r\n
$GPGGA,094642.15,5700.9077812,N,00959.1376164,E,2,8,0.9,10.341,M,40.582,M,2.2,0136*44\r\n
$GPGGA,094642.20,5700.9077812,N,00959.1376164,E,2,8,0.9,10.341,M,40.582,M,2.2,0136*42\r\n
$GPGGA,094642.25,5700.9077817,N,00959.1376171,E,2,8,0.9,10.339,M,40.582,M,2.5,0136*4E\r\n
$GPGGA,094642.30,5700.9077815,N,00959.1376175,E,2,8,0.9,10.339,M,40.582,M,2.5,0136*4C\r\n
$GPGGA,094642.35,5700.9077813,N,00959.1376175,E,2,8,0.9,10.339,M,40.582,M,2.5,0136*4F\r\n
$GPGGA,094642.40,5700.9077815,N,00959.1376172,E,2,8,0.9,10.339,M,40.582,M,2.5,0136*4C\r\n
$GPGGA,094642.45,5700.9077817,N,00959.1376170,E,2,8,0.9,10.349,M,40.582,M,2.7,0136*4C\r\n
$GPGGA,094642.50,5700.9077817,N,00959.1376166,E,2,8,0.9,10.349,M,40.582,M,2.7,0136*4F\r\n
$GPGGA,094642.55,5700.9077815,N,00959.1376174,E,2,8,0.9,10.349,M,40.582,M,2.7,0136*4B\r\n
$GPGGA,094642.60,5700.9077815,N,00959.1376176,E,2,8,0.9,10.349,M,40.582,M,2.7,0136*4F\r\n
$GPGGA,094642.65,5700.9077805,N,00959.1376156,E,2,8,0.9,10.337,M,40.582,M,3.0,0136*46\r\n
$GPGGA,094642.70,5700.9077803,N,00959.1376158,E,2,8,0.9,10.337,M,40.582,M,3.0,0136*4A\r\n
$GPGGA,094642.75,5700.9077805,N,00959.1376160,E,2,8,0.9,10.337,M,40.582,M,3.0,0136*42\r\n
$GPGGA,094642.80,5700.9077804,N,00959.1376162,E,2,8,0.9,10.337,M,40.582,M,3.0,0136*4B\r\n
$GPGGA,094642.85,5700.9077816,N,00959.1376175,E,2,8,0.9,10.345,M,40.582,M,3.2,0136*4C\r\n
$GPGGA,094642.90,5700.9077815,N,00959.1376173,E,2,8,0.9,10.345,M,40.582,M,3.2,0136*4D\r\n
$GPGGA,094642.95,5700.9077815,N,00959.1376173,E,2,8,0.9,10.345,M,40.582,M,3.2,0136*48\r\n
$GPGGA,094643.00,5700.9077817,N,00959.1376174,E,2,8,0.9,10.345,M,40.582,M,3.2,0136*40\r\n
$GPGGA,094643.05,5700.9077785,N,00959.1376153,E,2,8,0.9,10.338,M,40.582,M,1.5,0136*4B\r\n
$GPGGA,094643.10,5700.9077787,N,00959.1376154,E,2,8,0.9,10.338,M,40.582,M,1.5,0136*4A\r\n
$GPGGA,094643.15,5700.9077788,N,00959.1376153,E,2,8,0.9,10.338,M,40.582,M,1.5,0136*47\r\n
$GPGGA,094643.20,5700.9077787,N,00959.1376155,E,2,8,0.9,10.339,M,40.582,M,1.5,0136*49\r\n
$GPGGA,094643.25,5700.9077784,N,00959.1376157,E,2,8,0.9,10.334,M,40.582,M,1.7,0136*42\r\n
$GPGGA,094643.30,5700.9077783,N,00959.1376156,E,2,8,0.9,10.334,M,40.582,M,1.7,0136*40\r\n
$GPGGA,094643.35,5700.9077785,N,00959.1376155,E,2,8,0.9,10.334,M,40.582,M,1.7,0136*40\r\n
$GPGGA,094643.40,5700.9077786,N,00959.1376160,E,2,8,0.9,10.334,M,40.582,M,1.7,0136*47\r\n
$GPGGA,094643.45,5700.9077791,N,00959.1376161,E,2,8,0.9,10.334,M,40.582,M,1.9,0136*4B\r\n
$GPGGA,094643.50,5700.9077791,N,00959.1376159,E,2,8,0.9,10.334,M,40.582,M,1.9,0136*44\r\n
$GPGGA,094643.55,5700.9077794,N,00959.1376156,E,2,8,0.9,10.334,M,40.582,M,1.9,0136*4B\r\n
$GPGGA,094643.60,5700.9077791,N,00959.1376157,E,2,8,0.9,10.334,M,40.582,M,1.9,0136*49\r\n
$GPGGA,094643.65,5700.9077776,N,00959.1376150,E,2,8,0.9,10.337,M,40.582,M,2.2,0136*49\r\n
$GPGGA,094643.70,5700.9077775,N,00959.1376154,E,2,8,0.9,10.337,M,40.582,M,2.2,0136*4A\r\n
$GPGGA,094643.75,5700.9077775,N,00959.1376155,E,2,8,0.9,10.337,M,40.582,M,2.2,0136*4E\r\n
$GPGGA,094643.80,5700.9077777,N,00959.1376155,E,2,8,0.9,10.338,M,40.582,M,2.2,0136*49\r\n
$GPGGA,094643.85,5700.9077781,N,00959.1376170,E,2,8,0.9,10.334,M,40.582,M,2.4,0136*48\r\n
$GPGGA,094643.90,5700.9077783,N,00959.1376169,E,2,8,0.9,10.334,M,40.582,M,2.4,0136*46\r\n
$GPGGA,094643.95,5700.9077784,N,00959.1376170,E,2,8,0.9,10.334,M,40.582,M,2.4,0136*4C\r\n
$GPGGA,094644.00,5700.9077783,N,00959.1376174,E,2,8,0.9,10.334,M,40.582,M,2.4,0136*44\r\n
$GPGGA,094644.05,5700.9077756,N,00959.1376148,E,2,8,0.9,10.325,M,40.582,M,1.7,0136*46\r\n
$GPGGA,094644.10,5700.9077756,N,00959.1376148,E,2,8,0.9,10.325,M,40.582,M,1.7,0136*42\r\n
$GPGGA,094644.15,5700.9077756,N,00959.1376151,E,2,8,0.9,10.324,M,40.582,M,1.7,0136*4E\r\n
$GPGGA,094644.20,5700.9077756,N,00959.1376152,E,2,8,0.9,10.324,M,40.582,M,1.7,0136*4B\r\n
$GPGGA,094644.25,5700.9077765,N,00959.1376156,E,2,8,0.9,10.333,M,40.582,M,1.9,0136*42\r\n
$GPGGA,094644.30,5700.9077764,N,00959.1376157,E,2,8,0.9,10.334,M,40.582,M,1.9,0136*41\r\n
$GPGGA,094644.35,5700.9077763,N,00959.1376157,E,2,8,0.9,10.334,M,40.582,M,1.9,0136*43\r\n
$GPGGA,094644.40,5700.9077763,N,00959.1376155,E,2,8,0.9,10.334,M,40.582,M,1.9,0136*43\r\n
$GPGGA,094644.45,5700.9077733,N,00959.1376148,E,2,8,0.9,10.320,M,40.582,M,2.2,0136*42\r\n
$GPGGA,094644.50,5700.9077733,N,00959.1376150,E,2,8,0.9,10.320,M,40.582,M,2.2,0136*4F\r\n
$GPGGA,094644.55,5700.9077733,N,00959.1376151,E,2,8,0.9,10.320,M,40.582,M,2.2,0136*4B\r\n
$GPGGA,094644.60,5700.9077736,N,00959.1376147,E,2,8,0.9,10.320,M,40.582,M,2.2,0136*4F\r\n
$GPGGA,094644.65,5700.9077787,N,00959.1376148,E,2,8,0.9,10.334,M,40.582,M,2.4,0136*4C\r\n
$GPGGA,094644.70,5700.9077787,N,00959.1376150,E,2,8,0.9,10.334,M,40.582,M,2.4,0136*41\r\n
$GPGGA,094644.75,5700.9077788,N,00959.1376151,E,2,8,0.9,10.334,M,40.582,M,2.4,0136*4A\r\n
$GPGGA,094644.80,5700.9077791,N,00959.1376156,E,2,8,0.9,10.335,M,40.582,M,2.4,0136*4E\r\n
$GPGGA,094644.85,5700.9077768,N,00959.1376178,E,2,8,0.9,10.326,M,40.582,M,2.6,0136*41\r\n
$GPGGA,094644.90,5700.9077769,N,00959.1376180,E,2,8,0.9,10.326,M,40.582,M,2.6,0136*43\r\n
$GPGGA,094644.95,5700.9077767,N,00959.1376179,E,2,8,0.9,10.325,M,40.582,M,2.6,0136*4D\r\n
$GPGGA,094645.00,5700.9077769,N,00959.1376175,E,2,8,0.9,10.325,M,40.582,M,2.6,0136*42\r\n
$GPGGA,094645.05,5700.9077735,N,00959.1376128,E,2,8,0.9,10.320,M,40.582,M,2.8,0136*4D\r\n
$GPGGA,094645.10,5700.9077735,N,00959.1376131,E,2,8,0.9,10.320,M,40.582,M,2.8,0136*41\r\n
$GPGGA,094645.15,5700.9077736,N,00959.1376136,E,2,8,0.9,10.320,M,40.582,M,2.8,0136*40\r\n
$GPGGA,094645.20,5700.9077737,N,00959.1376140,E,2,8,0.9,10.320,M,40.582,M,2.8,0136*46\r\n
$GPGGA,094645.25,5700.9077747,N,00959.1376171,E,2,8,0.9,10.320,M,40.582,M,3.0,0136*4F\r\n
$GPGGA,094645.30,5700.9077745,N,00959.1376167,E,2,8,0.9,10.320,M,40.582,M,3.0,0136*4E\r\n
$GPGGA,094645.35,5700.9077746,N,00959.1376167,E,2,8,0.9,10.319,M,40.582,M,3.0,0136*42\r\n
$GPGGA,094645.40,5700.9077747,N,00959.1376170,E,2,8,0.9,10.319,M,40.582,M,3.0,0136*47\r\n
$GPGGA,094645.45,5700.9077739,N,00959.1376133,E,2,8,0.9,10.324,M,40.582,M,3.2,0136*40\r\n
$GPGGA,094645.50,5700.9077740,N,00959.1376132,E,2,8,0.9,10.324,M,40.582,M,3.2,0136*4B\r\n
$GPGGA,094645.55,5700.9077741,N,00959.1376132,E,2,8,0.9,10.324,M,40.582,M,3.2,0136*4F\r\n
$GPGGA,094645.60,5700.9077740,N,00959.1376132,E,2,8,0.9,10.325,M,40.582,M,3.2,0136*49\r\n
$GPGGA,094645.65,5700.9077752,N,00959.1376147,E,2,8,0.9,10.323,M,40.582,M,3.5,0136*4C\r\n
$GPGGA,094645.70,5700.9077753,N,00959.1376145,E,2,8,0.9,10.323,M,40.582,M,3.5,0136*4B\r\n
$GPGGA,094645.75,5700.9077755,N,00959.1376141,E,2,8,0.9,10.323,M,40.582,M,3.5,0136*4C\r\n
$GPGGA,094645.80,5700.9077755,N,00959.1376143,E,2,8,0.9,10.323,M,40.582,M,3.5,0136*44\r\n
$GPGGA,094645.85,5700.9077748,N,00959.1376135,E,2,8,0.9,10.321,M,40.582,M,3.7,0136*4C\r\n
$GPGGA,094645.90,5700.9077748,N,00959.1376134,E,2,8,0.9,10.321,M,40.582,M,3.7,0136*49\r\n
$GPGGA,094645.95,5700.9077747,N,00959.1376135,E,2,8,0.9,10.321,M,40.582,M,3.7,0136*42\r\n
$GPGGA,094646.00,5700.9077747,N,00959.1376134,E,2,8,0.9,10.321,M,40.582,M,3.7,0136*4C\r\n
$GPGGA,094646.05,5700.9077699,N,00959.1376142,E,2,8,0.9,10.309,M,40.582,M,2.2,0136*44\r\n
$GPGGA,094646.10,5700.9077697,N,00959.1376143,E,2,8,0.9,10.309,M,40.582,M,2.2,0136*4F\r\n
$GPGGA,094646.15,5700.9077697,N,00959.1376145,E,2,8,0.9,10.308,M,40.582,M,2.2,0136*4D\r\n
$GPGGA,094646.20,5700.9077697,N,00959.1376147,E,2,8,0.9,10.308,M,40.582,M,2.2,0136*49\r\n
$GPGGA,094646.25,5700.9077706,N,00959.1376147,E,2,8,0.9,10.314,M,40.582,M,2.5,0136*4F\r\n
$GPGGA,094646.30,5700.9077705,N,00959.1376145,E,2,8,0.9,10.314,M,40.582,M,2.5,0136*4A\r\n
$GPGGA,094646.35,5700.9077706,N,00959.1376143,E,2,8,0.9,10.314,M,40.582,M,2.5,0136*4A\r\n
$GPGGA,094646.40,5700.9077706,N,00959.1376140,E,2,8,0.9,10.314,M,40.582,M,2.5,0136*4B\r\n
$GPGGA,094646.45,5700.9077719,N,00959.1376102,E,2,8,0.9,10.318,M,40.582,M,2.7,0136*48\r\n
$GPGGA,094646.50,5700.9077720,N,00959.1376103,E,2,8,0.9,10.318,M,40.582,M,2.7,0136*47\r\n
$GPGGA,094646.55,5700.9077721,N,00959.1376107,E,2,8,0.9,10.318,M,40.582,M,2.7,0136*47\r\n
$GPGGA,094646.60,5700.9077720,N,00959.1376108,E,2,8,0.9,10.319,M,40.582,M,2.7,0136*4E\r\n
$GPGGA,094646.65,5700.9077706,N,00959.1376143,E,2,8,0.9,10.315,M,40.582,M,3.0,0136*4A\r\n
$GPGGA,094646.70,5700.9077704,N,00959.1376146,E,2,8,0.9,10.316,M,40.582,M,3.0,0136*4A\r\n
$GPGGA,094646.75,5700.9077705,N,00959.1376148,E,2,8,0.9,10.316,M,40.582,M,3.0,0136*40\r\n
$GPGGA,094646.80,5700.9077706,N,00959.1376148,E,2,8,0.9,10.316,M,40.582,M,3.0,0136*49\r\n
$GPGGA,094646.85,5700.9077704,N,00959.1376141,E,2,8,0.9,10.309,M,40.582,M,3.2,0136*4B\r\n
$GPGGA,094646.90,5700.9077705,N,00959.1376139,E,2,8,0.9,10.309,M,40.582,M,3.2,0136*41\r\n
$GPGGA,094646.95,5700.9077707,N,00959.1376136,E,2,8,0.9,10.309,M,40.582,M,3.2,0136*49\r\n
$GPGGA,094647.00,5700.9077707,N,00959.1376136,E,2,8,0.9,10.309,M,40.582,M,3.2,0136*44\r\n
$GPGGA,094647.05,5700.9077691,N,00959.1376102,E,2,8,0.9,10.304,M,40.582,M,1.5,0136*40\r\n
$GPGGA,094647.10,5700.9077691,N,00959.1376102,E,2,8,0.9,10.304,M,40.582,M,1.5,0136*44\r\n
$GPGGA,094647.15,5700.9077695,N,00959.1376098,E,2,8,0.9,10.304,M,40.582,M,1.5,0136*47\r\n
$GPGGA,094647.20,5700.9077698,N,00959.1376098,E,2,8,0.9,10.304,M,40.582,M,1.5,0136*4C\r\n
$GPGGA,094647.25,5700.9077713,N,00959.1376098,E,2,8,0.9,10.313,M,40.582,M,1.7,0136*4F\r\n
$GPGGA,094647.30,5700.9077703,N,00959.1376107,E,2,8,0.9,10.311,M,40.582,M,1.7,0136*4F\r\n
$GPGGA,094647.35,5700.9077699,N,00959.1376108,E,2,8,0.9,10.311,M,40.582,M,1.7,0136*47\r\n
$GPGGA,094647.40,5700.9077693,N,00959.1376123,E,2,8,0.9,10.311,M,40.582,M,1.7,0136*46\r\n
$GPGGA,094647.45,5700.9077689,N,00959.1376129,E,2,8,0.9,10.300,M,40.582,M,1.9,0136*4C\r\n
$GPGGA,094647.50,5700.9077679,N,00959.1376126,E,2,8,0.9,10.299,M,40.582,M,1.9,0136*49\r\n
$GPGGA,094647.55,5700.9077677,N,00959.1376109,E,2,8,0.9,10.300,M,40.582,M,1.9,0136*4E\r\n
$GPGGA,094647.60,5700.9077692,N,00959.1376111,E,2,8,0.9,10.301,M,40.582,M,1.9,0136*4B\r\n
$GPGGA,094647.65,5700.9077704,N,00959.1376113,E,2,8,0.9,10.310,M,40.582,M,2.2,0136*4A\r\n
$GPGGA,094647.70,5700.9077705,N,00959.1376120,E,2,8,0.9,10.310,M,40.582,M,2.2,0136*4F\r\n
$GPGGA,094647.75,5700.9077694,N,00959.1376107,E,2,8,0.9,10.309,M,40.582,M,2.2,0136*4E\r\n
$GPGGA,094647.80,5700.9077695,N,00959.1376103,E,2,8,0.9,10.309,M,40.582,M,2.2,0136*41\r\n
$GPGGA,094647.85,5700.9077693,N,00959.1376105,E,2,8,0.9,10.310,M,40.582,M,2.4,0136*4A\r\n
$GPGGA,094647.90,5700.9077693,N,00959.1376111,E,2,8,0.9,10.310,M,40.582,M,2.4,0136*4B\r\n
$GPGGA,094647.95,5700.9077695,N,00959.1376116,E,2,8,0.9,10.310,M,40.582,M,2.4,0136*4F\r\n
$GPGGA,094648.00,5700.9077691,N,00959.1376118,E,2,8,0.9,10.310,M,40.582,M,2.4,0136*46\r\n
$GPGGA,094648.05,5700.9077673,N,00959.1376145,E,2,8,0.9,10.295,M,40.582,M,1.7,0136*4B\r\n
$GPGGA,094648.10,5700.9077672,N,00959.1376152,E,2,8,0.9,10.295,M,40.582,M,1.7,0136*48\r\n
$GPGGA,094648.15,5700.9077672,N,00959.1376155,E,2,8,0.9,10.294,M,40.582,M,1.7,0136*4B\r\n
$GPGGA,094648.20,5700.9077674,N,00959.1376153,E,2,8,0.9,10.293,M,40.582,M,1.7,0136*4A\r\n
$GPGGA,094648.25,5700.9077678,N,00959.1376099,E,2,8,0.9,10.298,M,40.582,M,1.9,0136*41\r\n
$GPGGA,094648.30,5700.9077679,N,00959.1376102,E,2,8,0.9,10.298,M,40.582,M,1.9,0136*47\r\n
$GPGGA,094648.35,5700.9077681,N,00959.1376104,E,2,8,0.9,10.297,M,40.582,M,1.9,0136*4C\r\n
$GPGGA,094648.40,5700.9077680,N,00959.1376101,E,2,8,0.9,10.297,M,40.582,M,1.9,0136*4A\r\n
$GPGGA,094648.45,5700.9077686,N,00959.1376119,E,2,8,0.9,10.301,M,40.582,M,2.2,0136*46\r\n
$GPGGA,094648.50,5700.9077685,N,00959.1376119,E,2,8,0.9,10.301,M,40.582,M,2.2,0136*41\r\n
$GPGGA,094648.55,5700.9077682,N,00959.1376118,E,2,8,0.9,10.301,M,40.582,M,2.2,0136*42\r\n
$GPGGA,094648.60,5700.9077683,N,00959.1376117,E,2,8,0.9,10.302,M,40.582,M,2.2,0136*49\r\n
$GPGGA,094648.65,5700.9077646,N,00959.1376109,E,2,8,0.9,10.291,M,40.582,M,2.4,0136*47\r\n
$GPGGA,094648.70,5700.9077641,N,00959.1376109,E,2,8,0.9,10.290,M,40.582,M,2.4,0136*45\r\n
$GPGGA,094648.75,5700.9077636,N,00959.1376106,E,2,8,0.9,10.290,M,40.582,M,2.4,0136*4F\r\n
$GPGGA,094648.80,5700.9077632,N,00959.1376102,E,2,8,0.9,10.289,M,40.582,M,2.4,0136*4D\r\n
$GPGGA,094648.85,5700.9077640,N,00959.1376098,E,2,8,0.9,10.291,M,40.582,M,2.6,0136*44\r\n
$GPGGA,094648.90,5700.9077637,N,00959.1376093,E,2,8,0.9,10.291,M,40.582,M,2.6,0136*4B\r\n
$GPGGA,094648.95,5700.9077636,N,00959.1376091,E,2,8,0.9,10.290,M,40.582,M,2.6,0136*4C\r\n
$GPGGA,094649.00,5700.9077633,N,00959.1376093,E,2,8,0.9,10.289,M,40.582,M,2.6,0136*4E\r\n
$GPGGA,094649.05,5700.9077642,N,00959.1376101,E,2,8,0.9,10.291,M,40.582,M,2.8,0136*40\r\n
$GPGGA,094649.10,5700.9077644,N,00959.1376107,E,2,8,0.9,10.291,M,40.582,M,2.8,0136*44\r\n
$GPGGA,094649.15,5700.9077646,N,00959.1376109,E,2,8,0.9,10.292,M,40.582,M,2.8,0136*4E\r\n
$GPGGA,094649.20,5700.9077648,N,00959.1376110,E,2,8,0.9,10.293,M,40.582,M,2.8,0136*4F\r\n
$GPGGA,094649.25,5700.9077626,N,00959.1376140,E,2,8,0.9,10.282,M,40.582,M,3.0,0136*4E\r\n
$GPGGA,094649.30,5700.9077626,N,00959.1376142,E,2,8,0.9,10.282,M,40.582,M,3.0,0136*48\r\n
$GPGGA,094649.35,5700.9077625,N,00959.1376146,E,2,8,0.9,10.281,M,40.582,M,3.0,0136*49\r\n
$GPGGA,094649.40,5700.9077624,N,00959.1376155,E,2,8,0.9,10.281,M,40.582,M,3.0,0136*48\r\n
$GPGGA,094649.45,5700.9077621,N,00959.1376116,E,2,8,0.9,10.285,M,40.582,M,3.2,0136*49\r\n
$GPGGA,094649.50,5700.9077621,N,00959.1376119,E,2,8,0.9,10.285,M,40.582,M,3.2,0136*42\r\n
$GPGGA,094649.55,5700.9077619,N,00959.1376119,E,2,8,0.9,10.285,M,40.582,M,3.2,0136*4C\r\n
$GPGGA,094649.60,5700.9077618,N,00959.1376120,E,2,8,0.9,10.285,M,40.582,M,3.2,0136*41\r\n
$GPGGA,094649.65,5700.9077631,N,00959.1376126,E,2,8,0.9,10.288,M,40.582,M,3.5,0136*43\r\n
$GPGGA,094649.70,5700.9077631,N,00959.1376129,E,2,8,0.9,10.288,M,40.582,M,3.5,0136*48\r\n
$GPGGA,094649.75,5700.9077631,N,00959.1376135,E,2,8,0.9,10.289,M,40.582,M,3.5,0136*41\r\n
$GPGGA,094649.80,5700.9077633,N,00959.1376133,E,2,8,0.9,10.289,M,40.582,M,3.5,0136*4F\r\n
$GPGGA,094649.85,5700.9077633,N,00959.1376138,E,2,8,0.9,10.286,M,40.582,M,3.7,0136*4C\r\n
$GPGGA,094649.90,5700.9077635,N,00959.1376132,E,2,8,0.9,10.286,M,40.582,M,3.7,0136*44\r\n
$GPGGA,094649.95,5700.9077635,N,00959.1376128,E,2,8,0.9,10.286,M,40.582,M,3.7,0136*4A\r\n
$GPGGA,094650.00,5700.9077634,N,00959.1376129,E,2,8,0.9,10.287,M,40.582,M,3.7,0136*4F\r\n
$GPGGA,094650.05,5700.9077606,N,00959.1376060,E,2,8,0.9,10.284,M,40.582,M,2.2,0136*40\r\n
$GPGGA,094650.10,5700.9077608,N,00959.1376062,E,2,8,0.9,10.285,M,40.582,M,2.2,0136*49\r\n
$GPGGA,094650.15,5700.9077611,N,00959.1376059,E,2,8,0.9,10.285,M,40.582,M,2.2,0136*4C\r\n
$GPGGA,094650.20,5700.9077613,N,00959.1376058,E,2,8,0.9,10.286,M,40.582,M,2.2,0136*4A\r\n
$GPGGA,094650.25,5700.9077619,N,00959.1376140,E,2,8,0.9,10.278,M,40.582,M,2.5,0136*4B\r\n
$GPGGA,094650.30,5700.9077620,N,00959.1376137,E,2,8,0.9,10.278,M,40.582,M,2.5,0136*45\r\n
$GPGGA,094650.35,5700.9077621,N,00959.1376135,E,2,8,0.9,10.279,M,40.582,M,2.5,0136*42\r\n
$GPGGA,094650.40,5700.9077621,N,00959.1376134,E,2,8,0.9,10.279,M,40.582,M,2.5,0136*41\r\n
$GPGGA,094650.45,5700.9077599,N,00959.1376057,E,2,8,0.9,10.281,M,40.582,M,2.7,0136*45\r\n
$GPGGA,094650.50,5700.9077598,N,00959.1376058,E,2,8,0.9,10.281,M,40.582,M,2.7,0136*4F\r\n
$GPGGA,094650.55,5700.9077600,N,00959.1376053,E,2,8,0.9,10.281,M,40.582,M,2.7,0136*43\r\n
$GPGGA,094650.60,5700.9077604,N,00959.1376043,E,2,8,0.9,10.281,M,40.582,M,2.7,0136*40\r\n
$GPGGA,094650.65,5700.9077645,N,00959.1376076,E,2,8,0.9,10.287,M,40.582,M,3.0,0136*46\r\n
$GPGGA,094650.70,5700.9077646,N,00959.1376079,E,2,8,0.9,10.287,M,40.582,M,3.0,0136*4E\r\n
$GPGGA,094650.75,5700.9077648,N,00959.1376082,E,2,8,0.9,10.288,M,40.582,M,3.0,0136*4E\r\n
$GPGGA,094650.80,5700.9077651,N,00959.1376085,E,2,8,0.9,10.289,M,40.582,M,3.0,0136*4A\r\n
$GPGGA,094650.85,5700.9077610,N,00959.1376120,E,2,8,0.9,10.283,M,40.582,M,3.2,0136*4C\r\n
$GPGGA,094650.90,5700.9077608,N,00959.1376119,E,2,8,0.9,10.283,M,40.582,M,3.2,0136*4B\r\n
$GPGGA,094650.95,5700.9077608,N,00959.1376114,E,2,8,0.9,10.283,M,40.582,M,3.2,0136*43\r\n
$GPGGA,094651.00,5700.9077606,N,00959.1376120,E,2,8,0.9,10.284,M,40.582,M,3.2,0136*40\r\n
$GPGGA,094651.05,5700.9077573,N,00959.1376048,E,2,8,0.9,10.268,M,40.582,M,1.5,0136*4C\r\n
$GPGGA,094651.10,5700.9077573,N,00959.1376050,E,2,8,0.9,10.268,M,40.582,M,1.5,0136*41\r\n
$GPGGA,094651.15,5700.9077572,N,00959.1376049,E,2,8,0.9,10.267,M,40.582,M,1.5,0136*42\r\n
$GPGGA,094651.20,5700.9077569,N,00959.1376052,E,2,8,0.9,10.265,M,40.582,M,1.5,0136*46\r\n
$GPGGA,094651.25,5700.9077602,N,00959.1376103,E,2,8,0.9,10.273,M,40.582,M,1.7,0136*4D\r\n
$GPGGA,094651.30,5700.9077605,N,00959.1376107,E,2,8,0.9,10.272,M,40.582,M,1.7,0136*4B\r\n
$GPGGA,094651.35,5700.9077605,N,00959.1376114,E,2,8,0.9,10.272,M,40.582,M,1.7,0136*4C\r\n
$GPGGA,094651.40,5700.9077607,N,00959.1376117,E,2,8,0.9,10.272,M,40.582,M,1.7,0136*4F\r\n
$GPGGA,094651.45,5700.9077607,N,00959.1376101,E,2,8,0.9,10.275,M,40.582,M,1.9,0136*44\r\n
$GPGGA,094651.50,5700.9077609,N,00959.1376105,E,2,8,0.9,10.275,M,40.582,M,1.9,0136*4A\r\n
$GPGGA,094651.55,5700.9077611,N,00959.1376109,E,2,8,0.9,10.275,M,40.582,M,1.9,0136*4A\r\n
$GPGGA,094651.60,5700.9077611,N,00959.1376114,E,2,8,0.9,10.276,M,40.582,M,1.9,0136*43\r\n
$GPGGA,094651.65,5700.9077602,N,00959.1376110,E,2,8,0.9,10.278,M,40.582,M,2.2,0136*46\r\n
$GPGGA,094651.70,5700.9077604,N,00959.1376110,E,2,8,0.9,10.278,M,40.582,M,2.2,0136*44\r\n
$GPGGA,094651.75,5700.9077605,N,00959.1376111,E,2,8,0.9,10.279,M,40.582,M,2.2,0136*40\r\n
$GPGGA,094651.80,5700.9077605,N,00959.1376112,E,2,8,0.9,10.280,M,40.582,M,2.2,0136*4F\r\n
$GPGGA,094651.85,5700.9077594,N,00959.1376086,E,2,8,0.9,10.268,M,40.582,M,2.4,0136*4D\r\n
$GPGGA,094651.90,5700.9077593,N,00959.1376085,E,2,8,0.9,10.268,M,40.582,M,2.4,0136*4D\r\n
$GPGGA,094651.95,5700.9077591,N,00959.1376086,E,2,8,0.9,10.268,M,40.582,M,2.4,0136*49\r\n
$GPGGA,094652.00,5700.9077589,N,00959.1376086,E,2,8,0.9,10.267,M,40.582,M,2.4,0136*40\r\n
$GPGGA,094652.05,5700.9077560,N,00959.1376083,E,2,8,0.9,10.263,M,40.582,M,1.7,0136*43\r\n
$GPGGA,094652.10,5700.9077558,N,00959.1376082,E,2,8,0.9,10.262,M,40.582,M,1.7,0136*4C\r\n
$GPGGA,094652.15,5700.9077558,N,00959.1376078,E,2,8,0.9,10.262,M,40.582,M,1.7,0136*4C\r\n
$GPGGA,094652.20,5700.9077555,N,00959.1376078,E,2,8,0.9,10.262,M,40.582,M,1.7,0136*47\r\n
$GPGGA,094652.25,5700.9077568,N,00959.1376070,E,2,8,0.9,10.264,M,40.582,M,1.9,0136*4C\r\n
$GPGGA,094652.30,5700.9077565,N,00959.1376072,E,2,8,0.9,10.264,M,40.582,M,1.9,0136*47\r\n
$GPGGA,094652.35,5700.9077567,N,00959.1376073,E,2,8,0.9,10.264,M,40.582,M,1.9,0136*41\r\n
$GPGGA,094652.40,5700.9077567,N,00959.1376071,E,2,8,0.9,10.264,M,40.582,M,1.9,0136*41\r\n
$GPGGA,094652.45,5700.9077578,N,00959.1376093,E,2,8,0.9,10.268,M,40.582,M,2.2,0136*42\r\n
$GPGGA,094652.50,5700.9077578,N,00959.1376096,E,2,8,0.9,10.268,M,40.582,M,2.2,0136*43\r\n
$GPGGA,094652.55,5700.9077579,N,00959.1376099,E,2,8,0.9,10.269,M,40.582,M,2.2,0136*49\r\n
$GPGGA,094652.60,5700.9077581,N,00959.1376101,E,2,8,0.9,10.270,M,40.582,M,2.2,0136*40\r\n
$GPGGA,094652.65,5700.9077575,N,00959.1376104,E,2,8,0.9,10.268,M,40.582,M,2.4,0136*44\r\n
$GPGGA,094652.70,5700.9077578,N,00959.1376110,E,2,8,0.9,10.268,M,40.582,M,2.4,0136*48\r\n
$GPGGA,094652.75,5700.9077581,N,00959.1376117,E,2,8,0.9,10.269,M,40.582,M,2.4,0136*4D\r\n
$GPGGA,094652.80,5700.9077581,N,00959.1376118,E,2,8,0.9,10.269,M,40.582,M,2.4,0136*48\r\n
$GPGGA,094652.85,5700.9077578,N,00959.1376120,E,2,8,0.9,10.265,M,40.582,M,2.6,0136*4E\r\n
$GPGGA,094652.90,5700.9077577,N,00959.1376122,E,2,8,0.9,10.265,M,40.582,M,2.6,0136*47\r\n
$GPGGA,094652.95,5700.9077579,N,00959.1376123,E,2,8,0.9,10.265,M,40.582,M,2.6,0136*4D\r\n
$GPGGA,094653.00,5700.9077580,N,00959.1376127,E,2,8,0.9,10.265,M,40.582,M,2.6,0136*42\r\n
$GPGGA,094653.05,5700.9077533,N,00959.1376073,E,2,8,0.9,10.259,M,40.582,M,2.8,0136*4E\r\n
$GPGGA,094653.10,5700.9077534,N,00959.1376077,E,2,8,0.9,10.259,M,40.582,M,2.8,0136*49\r\n
$GPGGA,094653.15,5700.9077537,N,00959.1376076,E,2,8,0.9,10.259,M,40.582,M,2.8,0136*4E\r\n
$GPGGA,094653.20,5700.9077538,N,00959.1376067,E,2,8,0.9,10.259,M,40.582,M,2.8,0136*47\r\n
$GPGGA,094653.25,5700.9077573,N,00959.1376064,E,2,8,0.9,10.265,M,40.582,M,3.0,0136*48\r\n
$GPGGA,094653.30,5700.9077573,N,00959.1376064,E,2,8,0.9,10.265,M,40.582,M,3.0,0136*4C\r\n
$GPGGA,094653.35,5700.9077575,N,00959.1376068,E,2,8,0.9,10.266,M,40.582,M,3.0,0136*40\r\n
$GPGGA,094653.40,5700.9077575,N,00959.1376070,E,2,8,0.9,10.266,M,40.582,M,3.0,0136*4B\r\n
$GPGGA,094653.45,5700.9077546,N,00959.1376102,E,2,8,0.9,10.262,M,40.582,M,3.2,0136*4C\r\n
$GPGGA,094653.50,5700.9077544,N,00959.1376103,E,2,8,0.9,10.262,M,40.582,M,3.2,0136*4B\r\n
$GPGGA,094653.55,5700.9077545,N,00959.1376105,E,2,8,0.9,10.262,M,40.582,M,3.2,0136*49\r\n
$GPGGA,094653.60,5700.9077544,N,00959.1376106,E,2,8,0.9,10.263,M,40.582,M,3.2,0136*4C\r\n
$GPGGA,094653.65,5700.9077536,N,00959.1376091,E,2,8,0.9,10.262,M,40.582,M,3.5,0136*45\r\n
$GPGGA,094653.70,5700.9077535,N,00959.1376094,E,2,8,0.9,10.262,M,40.582,M,3.5,0136*47\r\n
$GPGGA,094653.75,5700.9077534,N,00959.1376089,E,2,8,0.9,10.262,M,40.582,M,3.5,0136*4F\r\n
$GPGGA,094653.80,5700.9077535,N,00959.1376087,E,2,8,0.9,10.262,M,40.582,M,3.5,0136*4A\r\n
$GPGGA,094653.85,5700.9077542,N,00959.1376076,E,2,8,0.9,10.259,M,40.582,M,3.7,0136*4B\r\n
$GPGGA,094653.90,5700.9077541,N,00959.1376076,E,2,8,0.9,10.259,M,40.582,M,3.7,0136*4C\r\n
$GPGGA,094653.95,5700.9077536,N,00959.1376070,E,2,8,0.9,10.259,M,40.582,M,3.7,0136*4F\r\n
$GPGGA,094654.00,5700.9077530,N,00959.1376058,E,2,8,0.9,10.259,M,40.582,M,3.7,0136*48\r\n
$GPGGA,094654.05,5700.9077476,N,00959.1375983,E,2,8,0.9,10.276,M,40.582,M,2.2,0136*4B\r\n
$GPGGA,094654.10,5700.9077451,N,00959.1375963,E,2,8,0.9,10.287,M,40.582,M,2.2,0136*4A\r\n
$GPGGA,094654.15,5700.9077424,N,00959.1375946,E,2,8,0.9,10.298,M,40.582,M,2.2,0136*44\r\n
$GPGGA,094654.20,5700.9077395,N,00959.1375937,E,2,8,0.9,10.311,M,40.582,M,2.2,0136*49\r\n
$GPGGA,094654.25,5700.9077350,N,00959.1375931,E,2,8,0.9,10.319,M,40.582,M,2.5,0136*4C\r\n
$GPGGA,094654.30,5700.9077322,N,00959.1375920,E,2,8,0.9,10.337,M,40.582,M,2.5,0136*41\r\n
$GPGGA,094654.35,5700.9077283,N,00959.1375883,E,2,8,0.9,10.358,M,40.582,M,2.5,0136*4F\r\n
$GPGGA,094654.40,5700.9077226,N,00959.1375852,E,2,8,0.9,10.377,M,40.582,M,2.5,0136*43\r\n
$GPGGA,094654.45,5700.9077190,N,00959.1375813,E,2,8,0.9,10.409,M,40.582,M,2.7,0136*41\r\n
$GPGGA,094654.50,5700.9077134,N,00959.1375781,E,2,8,0.9,10.424,M,40.582,M,2.7,0136*40\r\n
$GPGGA,094654.55,5700.9077080,N,00959.1375752,E,2,8,0.9,10.437,M,40.582,M,2.7,0136*47\r\n
$GPGGA,094654.60,5700.9077033,N,00959.1375729,E,2,8,0.9,10.450,M,40.582,M,2.7,0136*44\r\n
$GPGGA,094654.65,5700.9076992,N,00959.1375701,E,2,8,0.9,10.450,M,40.582,M,3.0,0136*4E\r\n
$GPGGA,094654.70,5700.9076969,N,00959.1375672,E,2,8,0.9,10.461,M,40.582,M,3.0,0136*49\r\n
$GPGGA,094654.75,5700.9076940,N,00959.1375647,E,2,8,0.9,10.470,M,40.582,M,3.0,0136*41\r\n
$GPGGA,094654.80,5700.9076917,N,00959.1375634,E,2,8,0.9,10.479,M,40.582,M,3.0,0136*44\r\n
$GPGGA,094654.85,5700.9076894,N,00959.1375612,E,2,8,0.9,10.483,M,40.582,M,3.2,0136*48\r\n
$GPGGA,094654.90,5700.9076876,N,00959.1375586,E,2,8,0.9,10.489,M,40.582,M,3.2,0136*44\r\n
$GPGGA,094654.95,5700.9076854,N,00959.1375569,E,2,8,0.9,10.496,M,40.582,M,3.2,0136*4E\r\n
$GPGGA,094655.00,5700.9076837,N,00959.1375556,E,2,8,0.9,10.504,M,40.582,M,3.2,0136*40\r\n
$GPGGA,094655.05,5700.9076804,N,00959.1375511,E,2,8,0.9,10.497,M,40.582,M,1.5,0136*48\r\n
$GPGGA,094655.10,5700.9076796,N,00959.1375502,E,2,8,0.9,10.500,M,40.582,M,1.5,0136*45\r\n
$GPGGA,094655.15,5700.9076789,N,00959.1375490,E,2,8,0.9,10.503,M,40.582,M,1.5,0136*47\r\n
$GPGGA,094655.20,5700.9076776,N,00959.1375483,E,2,8,0.9,10.507,M,40.582,M,1.5,0136*47\r\n
$GPGGA,094655.25,5700.9076771,N,00959.1375475,E,2,8,0.9,10.505,M,40.582,M,1.7,0136*4C\r\n
$GPGGA,094655.30,5700.9076764,N,00959.1375467,E,2,8,0.9,10.507,M,40.582,M,1.7,0136*4D\r\n
$GPGGA,094655.35,5700.9076759,N,00959.1375462,E,2,8,0.9,10.509,M,40.582,M,1.7,0136*4D\r\n
$GPGGA,094655.40,5700.9076755,N,00959.1375456,E,2,8,0.9,10.510,M,40.582,M,1.7,0136*4C\r\n
$GPGGA,094655.45,5700.9076773,N,00959.1375466,E,2,8,0.9,10.524,M,40.582,M,1.9,0136*47\r\n
$GPGGA,094655.50,5700.9076769,N,00959.1375472,E,2,8,0.9,10.529,M,40.582,M,1.9,0136*40\r\n
$GPGGA,094655.55,5700.9076782,N,00959.1375466,E,2,8,0.9,10.532,M,40.582,M,1.9,0136*4F\r\n
$GPGGA,094655.60,5700.9076794,N,00959.1375453,E,2,8,0.9,10.537,M,40.582,M,1.9,0136*4D\r\n
$GPGGA,094655.65,5700.9076812,N,00959.1375449,E,2,8,0.9,10.544,M,40.582,M,2.2,0136*4E\r\n
$GPGGA,094655.70,5700.9076825,N,00959.1375445,E,2,8,0.9,10.548,M,40.582,M,2.2,0136*4E\r\n
$GPGGA,094655.75,5700.9076847,N,00959.1375449,E,2,8,0.9,10.554,M,40.582,M,2.2,0136*4E\r\n
$GPGGA,094655.80,5700.9076871,N,00959.1375460,E,2,8,0.9,10.558,M,40.582,M,2.2,0136*46\r\n
$GPGGA,094655.85,5700.9076900,N,00959.1375465,E,2,8,0.9,10.561,M,40.582,M,2.4,0136*4D\r\n
$GPGGA,094655.90,5700.9076931,N,00959.1375478,E,2,8,0.9,10.565,M,40.582,M,2.4,0136*43\r\n
$GPGGA,094655.95,5700.9076976,N,00959.1375484,E,2,8,0.9,10.567,M,40.582,M,2.4,0136*44\r\n
$GPGGA,094656.00,5700.9077022,N,00959.1375486,E,2,8,0.9,10.568,M,40.582,M,2.4,0136*4F\r\n
$GPGGA,094656.05,5700.9077053,N,00959.1375449,E,2,8,0.9,10.562,M,40.582,M,1.7,0136*45\r\n
$GPGGA,094656.10,5700.9077111,N,00959.1375447,E,2,8,0.9,10.562,M,40.582,M,1.7,0136*48\r\n
$GPGGA,094656.15,5700.9077160,N,00959.1375455,E,2,8,0.9,10.562,M,40.582,M,1.7,0136*48\r\n
$GPGGA,094656.20,5700.9077216,N,00959.1375448,E,2,8,0.9,10.563,M,40.582,M,1.7,0136*41\r\n
$GPGGA,094656.25,5700.9077270,N,00959.1375448,E,2,8,0.9,10.564,M,40.582,M,1.9,0136*4D\r\n
$GPGGA,094656.30,5700.9077335,N,00959.1375448,E,2,8,0.9,10.568,M,40.582,M,1.9,0136*45\r\n
$GPGGA,094656.35,5700.9077407,N,00959.1375455,E,2,8,0.9,10.570,M,40.582,M,1.9,0136*43\r\n
$GPGGA,094656.40,5700.9077477,N,00959.1375450,E,2,8,0.9,10.568,M,40.582,M,1.9,0136*4A\r\n
$GPGGA,094656.45,5700.9077560,N,00959.1375441,E,2,8,0.9,10.576,M,40.582,M,2.2,0136*4F\r\n
$GPGGA,094656.50,5700.9077638,N,00959.1375421,E,2,8,0.9,10.578,M,40.582,M,2.2,0136*4D\r\n
$GPGGA,094656.55,5700.9077736,N,00959.1375404,E,2,8,0.9,10.578,M,40.582,M,2.2,0136*40\r\n
$GPGGA,094656.60,5700.9077837,N,00959.1375407,E,2,8,0.9,10.578,M,40.582,M,2.2,0136*4B\r\n
$GPGGA,094656.65,5700.9077918,N,00959.1375445,E,2,8,0.9,10.569,M,40.582,M,2.4,0136*42\r\n
$GPGGA,094656.70,5700.9077999,N,00959.1375469,E,2,8,0.9,10.572,M,40.582,M,2.4,0136*4B\r\n
$GPGGA,094656.75,5700.9078084,N,00959.1375495,E,2,8,0.9,10.573,M,40.582,M,2.4,0136*46\r\n
$GPGGA,094656.80,5700.9078176,N,00959.1375503,E,2,8,0.9,10.573,M,40.582,M,2.4,0136*4E\r\n
$GPGGA,094656.85,5700.9078291,N,00959.1375494,E,2,8,0.9,10.586,M,40.582,M,2.6,0136*46\r\n
$GPGGA,094656.90,5700.9078408,N,00959.1375494,E,2,8,0.9,10.581,M,40.582,M,2.6,0136*43\r\n
$GPGGA,094656.95,5700.9078515,N,00959.1375520,E,2,8,0.9,10.581,M,40.582,M,2.6,0136*45\r\n
$GPGGA,094657.00,5700.9078620,N,00959.1375538,E,2,8,0.9,10.584,M,40.582,M,2.6,0136*41\r\n
$GPGGA,094657.05,5700.9078712,N,00959.1375518,E,2,8,0.9,10.569,M,40.582,M,2.8,0136*4B\r\n
$GPGGA,094657.10,5700.9078846,N,00959.1375534,E,2,8,0.9,10.569,M,40.582,M,2.8,0136*4F\r\n
$GPGGA,094657.15,5700.9078987,N,00959.1375571,E,2,8,0.9,10.563,M,40.582,M,2.8,0136*4D\r\n
$GPGGA,094657.20,5700.9079110,N,00959.1375631,E,2,8,0.9,10.556,M,40.582,M,2.8,0136*4D\r\n
$GPGGA,094657.25,5700.9079228,N,00959.1375667,E,2,8,0.9,10.559,M,40.582,M,3.0,0136*45\r\n
$GPGGA,094657.30,5700.9079347,N,00959.1375682,E,2,8,0.9,10.560,M,40.582,M,3.0,0136*48\r\n
$GPGGA,094657.35,5700.9079485,N,00959.1375671,E,2,8,0.9,10.562,M,40.582,M,3.0,0136*4A\r\n
$GPGGA,094657.40,5700.9079630,N,00959.1375639,E,2,8,0.9,10.559,M,40.582,M,3.0,0136*40\r\n
$GPGGA,094657.45,5700.9079766,N,00959.1375634,E,2,8,0.9,10.566,M,40.582,M,3.2,0136*44\r\n
$GPGGA,094657.50,5700.9079907,N,00959.1375690,E,2,8,0.9,10.567,M,40.582,M,3.2,0136*46\r\n
$GPGGA,094657.55,5700.9080043,N,00959.1375759,E,2,8,0.9,10.566,M,40.582,M,3.2,0136*49\r\n
$GPGGA,094657.60,5700.9080175,N,00959.1375787,E,2,8,0.9,10.562,M,40.582,M,3.2,0136*4C\r\n
$GPGGA,094657.65,5700.9080313,N,00959.1375789,E,2,8,0.9,10.562,M,40.582,M,3.5,0136*42\r\n
$GPGGA,094657.70,5700.9080452,N,00959.1375831,E,2,8,0.9,10.564,M,40.582,M,3.5,0136*4E\r\n
$GPGGA,094657.75,5700.9080584,N,00959.1375868,E,2,8,0.9,10.565,M,40.582,M,3.5,0136*4C\r\n
$GPGGA,094657.80,5700.9080718,N,00959.1375892,E,2,8,0.9,10.564,M,40.582,M,3.5,0136*45\r\n
$GPGGA,094657.85,5700.9080876,N,00959.1375911,E,2,8,0.9,10.568,M,40.582,M,3.7,0136*43\r\n
$GPGGA,094657.90,5700.9081033,N,00959.1375933,E,2,8,0.9,10.571,M,40.582,M,3.7,0136*47\r\n
$GPGGA,094657.95,5700.9081173,N,00959.1375962,E,2,8,0.9,10.571,M,40.582,M,3.7,0136*43\r\n
$GPGGA,094658.00,5700.9081307,N,00959.1375992,E,2,8,0.9,10.565,M,40.582,M,3.7,0136*4B\r\n
$GPGGA,094658.05,5700.9081429,N,00959.1375992,E,2,8,0.9,10.551,M,40.582,M,2.2,0136*46\r\n
$GPGGA,094658.10,5700.9081580,N,00959.1376037,E,2,8,0.9,10.550,M,40.582,M,2.2,0136*44\r\n
$GPGGA,094658.15,5700.9081742,N,00959.1376071,E,2,8,0.9,10.551,M,40.582,M,2.2,0136*4E\r\n
$GPGGA,094658.20,5700.9081905,N,00959.1376102,E,2,8,0.9,10.547,M,40.582,M,2.2,0136*47\r\n
$GPGGA,094658.25,5700.9082071,N,00959.1376103,E,2,8,0.9,10.548,M,40.582,M,2.5,0136*42\r\n
$GPGGA,094658.30,5700.9082222,N,00959.1376124,E,2,8,0.9,10.550,M,40.582,M,2.5,0136*4E\r\n
$GPGGA,094658.35,5700.9082350,N,00959.1376185,E,2,8,0.9,10.552,M,40.582,M,2.5,0136*46\r\n
$GPGGA,094658.40,5700.9082489,N,00959.1376279,E,2,8,0.9,10.554,M,40.582,M,2.5,0136*41\r\n
$GPGGA,094658.45,5700.9082636,N,00959.1376356,E,2,8,0.9,10.555,M,40.582,M,2.7,0136*4D\r\n
$GPGGA,094658.50,5700.9082775,N,00959.1376424,E,2,8,0.9,10.554,M,40.582,M,2.7,0136*4C\r\n
$GPGGA,094658.55,5700.9082932,N,00959.1376470,E,2,8,0.9,10.548,M,40.582,M,2.7,0136*48\r\n
$GPGGA,094658.60,5700.9083110,N,00959.1376512,E,2,8,0.9,10.546,M,40.582,M,2.7,0136*4C\r\n
$GPGGA,094658.65,5700.9083267,N,00959.1376555,E,2,8,0.9,10.553,M,40.582,M,3.0,0136*4B\r\n
$GPGGA,094658.70,5700.9083391,N,00959.1376589,E,2,8,0.9,10.550,M,40.582,M,3.0,0136*45\r\n
$GPGGA,094658.75,5700.9083538,N,00959.1376630,E,2,8,0.9,10.545,M,40.582,M,3.0,0136*40\r\n
$GPGGA,094658.80,5700.9083727,N,00959.1376688,E,2,8,0.9,10.543,M,40.582,M,3.0,0136*43\r\n
$GPGGA,094658.85,5700.9083882,N,00959.1376755,E,2,8,0.9,10.546,M,40.582,M,3.2,0136*40\r\n
$GPGGA,094658.90,5700.9084004,N,00959.1376799,E,2,8,0.9,10.546,M,40.582,M,3.2,0136*45\r\n
$GPGGA,094658.95,5700.9084149,N,00959.1376827,E,2,8,0.9,10.543,M,40.582,M,3.2,0136*47\r\n
$GPGGA,094659.00,5700.9084329,N,00959.1376866,E,2,8,0.9,10.539,M,40.582,M,3.2,0136*46\r\n
$GPGGA,094659.05,5700.9084461,N,00959.1376887,E,2,8,0.9,10.538,M,40.582,M,1.5,0136*43\r\n
$GPGGA,094659.10,5700.9084587,N,00959.1376937,E,2,8,0.9,10.540,M,40.582,M,1.5,0136*4B\r\n
$GPGGA,094659.15,5700.9084717,N,00959.1376970,E,2,8,0.9,10.542,M,40.582,M,1.5,0136*44\r\n
$GPGGA,094659.20,5700.9084891,N,00959.1377005,E,2,8,0.9,10.542,M,40.582,M,1.5,0136*49\r\n
$GPGGA,094659.25,5700.9085057,N,00959.1377065,E,2,8,0.9,10.543,M,40.582,M,1.7,0136*4A\r\n
$GPGGA,094659.30,5700.9085187,N,00959.1377150,E,2,8,0.9,10.546,M,40.582,M,1.7,0136*40\r\n
$GPGGA,094659.35,5700.9085314,N,00959.1377224,E,2,8,0.9,10.550,M,40.582,M,1.7,0136*4A\r\n
$GPGGA,094659.40,5700.9085480,N,00959.1377256,E,2,8,0.9,10.549,M,40.582,M,1.7,0136*4F\r\n
$GPGGA,094659.45,5700.9085644,N,00959.1377300,E,2,8,0.9,10.543,M,40.582,M,1.9,0136*46\r\n
$GPGGA,094659.50,5700.9085788,N,00959.1377372,E,2,8,0.9,10.543,M,40.582,M,1.9,0136*46\r\n
$GPGGA,094659.55,5700.9085941,N,00959.1377443,E,2,8,0.9,10.544,M,40.582,M,1.9,0136*4A\r\n
$GPGGA,094659.60,5700.9086112,N,00959.1377506,E,2,8,0.9,10.539,M,40.582,M,1.9,0136*4B\r\n
$GPGGA,094659.65,5700.9086276,N,00959.1377568,E,2,8,0.9,10.528,M,40.582,M,2.2,0136*4F\r\n
$GPGGA,094659.70,5700.9086411,N,00959.1377641,E,2,8,0.9,10.530,M,40.582,M,2.2,0136*4D\r\n
$GPGGA,094659.75,5700.9086527,N,00959.1377675,E,2,8,0.9,10.530,M,40.582,M,2.2,0136*4B\r\n
$GPGGA,094659.80,5700.9086683,N,00959.1377701,E,2,7,0.9,10.529,M,40.582,M,2.2,0136*49\r\n
$GPGGA,094659.85,5700.9086869,N,00959.1377721,E,2,7,0.9,10.535,M,40.582,M,2.4,0136*4F\r\n
$GPGGA,094659.90,5700.9087031,N,00959.1377762,E,2,7,0.9,10.534,M,40.582,M,2.4,0136*49\r\n
$GPGGA,094659.95,5700.9087173,N,00959.1377837,E,2,7,0.9,10.531,M,40.582,M,2.4,0136*41\r\n
$GPGGA,094700.00,5700.9087311,N,00959.1377901,E,2,7,0.9,10.530,M,40.582,M,2.4,0136*43\r\n
$GPGGA,094700.05,5700.9087434,N,00959.1377951,E,2,7,0.9,10.514,M,40.582,M,1.7,0136*45\r\n
$GPGGA,094700.10,5700.9087576,N,00959.1378014,E,2,7,0.9,10.512,M,40.582,M,1.7,0136*47\r\n
$GPGGA,094700.15,5700.9087718,N,00959.1378069,E,2,7,0.9,10.507,M,40.582,M,1.7,0136*46\r\n
$GPGGA,094700.20,5700.9087881,N,00959.1378092,E,2,7,0.9,10.502,M,40.582,M,1.7,0136*4E\r\n
$GPGGA,094700.25,5700.9088013,N,00959.1378116,E,2,7,0.9,10.502,M,40.582,M,1.9,0136*44\r\n
$GPGGA,094700.30,5700.9088119,N,00959.1378156,E,2,7,0.9,10.502,M,40.582,M,1.9,0136*4F\r\n
$GPGGA,094700.35,5700.9088241,N,00959.1378193,E,2,7,0.9,10.497,M,40.582,M,1.9,0136*40\r\n
$GPGGA,094700.40,5700.9088387,N,00959.1378216,E,2,7,0.9,10.493,M,40.582,M,1.9,0136*43\r\n
$GPGGA,094700.45,5700.9088538,N,00959.1378231,E,2,7,0.9,10.503,M,40.582,M,2.2,0136*41\r\n
$GPGGA,094700.50,5700.9088650,N,00959.1378246,E,2,7,0.9,10.501,M,40.582,M,2.2,0136*4A\r\n
$GPGGA,094700.55,5700.9088746,N,00959.1378266,E,2,7,0.9,10.499,M,40.582,M,2.2,0136*4B\r\n
$GPGGA,094700.60,5700.9088862,N,00959.1378291,E,2,7,0.9,10.499,M,40.582,M,2.2,0136*4C\r\n
$GPGGA,094700.65,5700.9089006,N,00959.1378316,E,2,7,0.9,10.489,M,40.582,M,2.4,0136*4B\r\n
$GPGGA,094700.70,5700.9089129,N,00959.1378353,E,2,7,0.9,10.485,M,40.582,M,2.4,0136*4E\r\n
$GPGGA,094700.75,5700.9089220,N,00959.1378402,E,2,7,0.9,10.483,M,40.582,M,2.4,0136*44\r\n
$GPGGA,094700.80,5700.9089297,N,00959.1378448,E,2,7,0.9,10.483,M,40.582,M,2.4,0136*4C\r\n
$GPGGA,094700.85,5700.9089373,N,00959.1378462,E,2,8,0.9,10.484,M,40.582,M,2.6,0136*40\r\n
$GPGGA,094700.90,5700.9089461,N,00959.1378470,E,2,7,0.9,10.485,M,40.582,M,2.6,0136*4D\r\n
$GPGGA,094700.95,5700.9089553,N,00959.1378480,E,2,7,0.9,10.482,M,40.582,M,2.6,0136*40\r\n
$GPGGA,094701.00,5700.9089643,N,00959.1378500,E,2,7,0.9,10.478,M,40.582,M,2.6,0136*43\r\n
$GPGGA,094701.05,5700.9089707,N,00959.1378517,E,2,7,0.9,10.477,M,40.582,M,2.8,0136*40\r\n
$GPGGA,094701.10,5700.9089763,N,00959.1378553,E,2,7,0.9,10.478,M,40.582,M,2.8,0136*49\r\n
$GPGGA,094701.15,5700.9089829,N,00959.1378571,E,2,7,0.9,10.478,M,40.582,M,2.8,0136*4D\r\n
$GPGGA,094701.20,5700.9089904,N,00959.1378562,E,2,7,0.9,10.477,M,40.582,M,2.8,0136*48\r\n
$GPGGA,094701.25,5700.9089985,N,00959.1378557,E,2,7,0.9,10.475,M,40.582,M,3.0,0136*49\r\n
$GPGGA,094701.30,5700.9090063,N,00959.1378549,E,2,7,0.9,10.468,M,40.582,M,3.0,0136*47\r\n
$GPGGA,094701.35,5700.9090132,N,00959.1378534,E,2,7,0.9,10.462,M,40.582,M,3.0,0136*47\r\n
$GPGGA,094701.40,5700.9090185,N,00959.1378527,E,2,7,0.9,10.455,M,40.582,M,3.0,0136*4F\r\n
$GPGGA,094701.45,5700.9090216,N,00959.1378507,E,2,7,0.9,10.438,M,40.582,M,3.2,0136*48\r\n
$GPGGA,094701.50,5700.9090253,N,00959.1378490,E,2,7,0.9,10.431,M,40.582,M,3.2,0136*4B\r\n
$GPGGA,094701.55,5700.9090302,N,00959.1378481,E,2,7,0.9,10.423,M,40.582,M,3.2,0136*48\r\n
$GPGGA,094701.60,5700.9090354,N,00959.1378476,E,2,7,0.9,10.416,M,40.582,M,3.2,0136*43\r\n
$GPGGA,094701.65,5700.9090402,N,00959.1378481,E,2,7,0.9,10.414,M,40.582,M,3.5,0136*4F\r\n
$GPGGA,094701.70,5700.9090444,N,00959.1378493,E,2,7,0.9,10.406,M,40.582,M,3.5,0136*49\r\n
$GPGGA,094701.75,5700.9090488,N,00959.1378499,E,2,7,0.9,10.395,M,40.582,M,3.5,0136*4B\r\n
$GPGGA,094701.80,5700.9090524,N,00959.1378517,E,2,7,0.9,10.386,M,40.582,M,3.5,0136*43\r\n
$GPGGA,094701.85,5700.9090560,N,00959.1378526,E,2,7,0.9,10.376,M,40.582,M,3.7,0136*49\r\n
$GPGGA,094701.90,5700.9090588,N,00959.1378530,E,2,7,0.9,10.365,M,40.582,M,3.7,0136*4E\r\n
$GPGGA,094701.95,5700.9090617,N,00959.1378515,E,2,7,0.9,10.352,M,40.582,M,3.7,0136*4D\r\n
$GPGGA,094702.00,5700.9090645,N,00959.1378508,E,2,7,0.9,10.339,M,40.582,M,3.7,0136*44\r\n
$GPGGA,094702.05,5700.9090675,N,00959.1378486,E,2,7,0.9,10.318,M,40.582,M,2.2,0136*42\r\n
$GPGGA,094702.10,5700.9090726,N,00959.1378488,E,2,7,0.9,10.308,M,40.582,M,2.2,0136*4E\r\n
$GPGGA,094702.15,5700.9090769,N,00959.1378488,E,2,7,0.9,10.295,M,40.582,M,2.2,0136*45\r\n
$GPGGA,094702.20,5700.9090813,N,00959.1378501,E,2,7,0.9,10.282,M,40.582,M,2.2,0136*47\r\n
$GPGGA,094702.25,5700.9090868,N,00959.1378507,E,2,7,0.9,10.274,M,40.582,M,2.5,0136*46\r\n
$GPGGA,094702.30,5700.9090908,N,00959.1378507,E,2,7,0.9,10.263,M,40.582,M,2.5,0136*43\r\n
$GPGGA,094702.35,5700.9090939,N,00959.1378519,E,2,7,0.9,10.251,M,40.582,M,2.5,0136*4A\r\n
$GPGGA,094702.40,5700.9090957,N,00959.1378512,E,2,7,0.9,10.239,M,40.582,M,2.5,0136*45\r\n
$GPGGA,094702.45,5700.9090975,N,00959.1378522,E,2,7,0.9,10.236,M,40.582,M,2.7,0136*4E\r\n
$GPGGA,094702.50,5700.9090993,N,00959.1378511,E,2,7,0.9,10.228,M,40.582,M,2.7,0136*4D\r\n
$GPGGA,094702.55,5700.9091013,N,00959.1378520,E,2,7,0.9,10.223,M,40.582,M,2.7,0136*41\r\n
$GPGGA,094702.60,5700.9091026,N,00959.1378536,E,2,7,0.9,10.218,M,40.582,M,2.7,0136*4E\r\n
$GPGGA,094702.65,5700.9091030,N,00959.1378546,E,2,7,0.9,10.207,M,40.582,M,3.0,0136*43\r\n
$GPGGA,094702.70,5700.9091042,N,00959.1378550,E,2,7,0.9,10.200,M,40.582,M,3.0,0136*42\r\n
$GPGGA,094702.75,5700.9091058,N,00959.1378576,E,2,7,0.9,10.195,M,40.582,M,3.0,0136*47\r\n
$GPGGA,094702.80,5700.9091059,N,00959.1378606,E,2,7,0.9,10.189,M,40.582,M,3.0,0136*45\r\n
$GPGGA,094702.85,5700.9091071,N,00959.1378641,E,2,7,0.9,10.190,M,40.582,M,3.2,0136*43\r\n
$GPGGA,094702.90,5700.9091086,N,00959.1378656,E,2,7,0.9,10.187,M,40.582,M,3.2,0136*4F\r\n
$GPGGA,094702.95,5700.9091085,N,00959.1378652,E,2,7,0.9,10.194,M,40.582,M,3.2,0136*4F\r\n
$GPGGA,094703.00,5700.9091060,N,00959.1378628,E,2,7,0.9,10.199,M,40.582,M,3.2,0136*49\r\n
$GPGGA,094703.05,5700.9091063,N,00959.1378576,E,2,7,0.9,10.200,M,40.582,M,1.5,0136*41\r\n
$GPGGA,094703.10,5700.9091087,N,00959.1378561,E,2,7,0.9,10.197,M,40.582,M,1.5,0136*44\r\n
$GPGGA,094703.15,5700.9091086,N,00959.1378561,E,2,7,0.9,10.200,M,40.582,M,1.5,0136*4D\r\n
$GPGGA,094703.20,5700.9091083,N,00959.1378582,E,2,7,0.9,10.204,M,40.582,M,1.5,0136*47\r\n
$GPGGA,094703.25,5700.9091074,N,00959.1378610,E,2,7,0.9,10.190,M,40.582,M,1.7,0136*4E\r\n
