$GPGGA,064822.35,5703.2729305,N,00952.3894286,E,2,12,0.9,2.366,M,40.592,M,1.9,0123*49\r\n
$GPGGA,064822.40,5703.2729307,N,00952.3894285,E,2,12,0.9,2.365,M,40.592,M,1.9,0123*49\r\n
$GPGGA,064822.45,5703.2729313,N,00952.3894291,E,2,12,0.9,2.366,M,40.592,M,2.1,0123*44\r\n
$GPGGA,064822.50,5703.2729314,N,00952.3894290,E,2,12,0.9,2.366,M,40.592,M,2.1,0123*46\r\n
$GPGGA,064822.55,5703.2729315,N,00952.3894289,E,2,12,0.9,2.366,M,40.592,M,2.1,0123*4A\r\n
$GPGGA,064822.60,5703.2729315,N,00952.3894291,E,2,12,0.9,2.365,M,40.592,M,2.1,0123*46\r\n
$GPGGA,064822.65,5703.2729315,N,00952.3894287,E,2,12,0.9,2.366,M,40.592,M,2.3,0123*45\r\n
$GPGGA,064822.70,5703.2729316,N,00952.3894286,E,2,12,0.9,2.366,M,40.592,M,2.3,0123*43\r\n
$GPGGA,064822.75,5703.2729315,N,00952.3894285,E,2,12,0.9,2.366,M,40.592,M,2.3,0123*46\r\n
$GPGGA,064822.80,5703.2729314,N,00952.3894288,E,2,12,0.9,2.366,M,40.592,M,2.3,0123*40\r\n
$GPGGA,064822.85,5703.2729309,N,00952.3894289,E,2,12,0.9,2.367,M,40.592,M,2.6,0123*4C\r\n
$GPGGA,064822.90,5703.2729308,N,00952.3894288,E,2,12,0.9,2.367,M,40.592,M,2.6,0123*48\r\n
$GPGGA,064822.95,5703.2729308,N,00952.3894287,E,2,12,0.9,2.367,M,40.592,M,2.6,0123*42\r\n
$GPGGA,064823.00,5703.2729307,N,00952.3894284,E,2,12,0.9,2.367,M,40.592,M,2.6,0123*43\r\n
$GPGGA,064823.05,5703.2729320,N,00952.3894255,E,2,12,0.9,2.366,M,40.592,M,2.8,0123*40\r\n
$GPGGA,064823.10,5703.2729321,N,00952.3894255,E,2,12,0.9,2.366,M,40.592,M,2.8,0123*45\r\n
$GPGGA,064823.15,5703.2729322,N,00952.3894254,E,2,12,0.9,2.366,M,40.592,M,2.8,0123*42\r\n
$GPGGA,064823.20,5703.2729317,N,00952.3894254,E,2,12,0.9,2.366,M,40.592,M,2.8,0123*42\r\n
$GPGGA,064823.25,5703.2729321,N,00952.3894264,E,2,12,0.9,2.367,M,40.592,M,3.0,0123*49\r\n
$GPGGA,064823.30,5703.2729321,N,00952.3894262,E,2,12,0.9,2.367,M,40.592,M,3.0,0123*4B\r\n
$GPGGA,064823.35,5703.2729322,N,00952.3894263,E,2,12,0.9,2.367,M,40.592,M,3.0,0123*4C\r\n
$GPGGA,064823.40,5703.2729322,N,00952.3894263,E,2,12,0.9,2.367,M,40.592,M,3.0,0123*4E\r\n
$GPGGA,064823.45,5703.2729331,N,00952.3894263,E,2,12,0.9,2.365,M,40.592,M,3.2,0123*49\r\n
$GPGGA,064823.50,5703.2729330,N,00952.3894263,E,2,12,0.9,2.365,M,40.592,M,3.2,0123*4C\r\n
$GPGGA,064823.55,5703.2729329,N,00952.3894261,E,2,12,0.9,2.364,M,40.592,M,3.2,0123*42\r\n
$GPGGA,064823.60,5703.2729329,N,00952.3894260,E,2,12,0.9,2.364,M,40.592,M,3.2,0123*45\r\n
$GPGGA,064823.65,5703.2729316,N,00952.3894252,E,2,12,0.9,2.362,M,40.592,M,1.3,0123*48\r\n
$GPGGA,064823.70,5703.2729316,N,00952.3894251,E,2,12,0.9,2.362,M,40.592,M,1.3,0123*4F\r\n
$GPGGA,064823.75,5703.2729317,N,00952.3894248,E,2,12,0.9,2.362,M,40.592,M,1.3,0123*43\r\n
$GPGGA,064823.80,5703.2729315,N,00952.3894249,E,2,12,0.9,2.361,M,40.592,M,1.3,0123*49\r\n
$GPGGA,064823.85,5703.2729314,N,00952.3894254,E,2,12,0.9,2.362,M,40.592,M,1.6,0123*47\r\n
$GPGGA,064823.90,5703.2729314,N,00952.3894255,E,2,12,0.9,2.361,M,40.592,M,1.6,0123*41\r\n
$GPGGA,064823.95,5703.2729318,N,00952.3894256,E,2,12,0.9,2.361,M,40.592,M,1.6,0123*4B\r\n
$GPGGA,064824.00,5703.2729316,N,00952.3894254,E,2,12,0.9,2.361,M,40.592,M,1.6,0123*4C\r\n
$GPGGA,064824.05,5703.2729341,N,00952.3894240,E,2,12,0.9,2.364,M,40.592,M,1.9,0123*44\r\n
$GPGGA,064824.10,5703.2729340,N,00952.3894236,E,2,12,0.9,2.364,M,40.592,M,1.9,0123*40\r\n
$GPGGA,064824.15,5703.2729337,N,00952.3894235,E,2,12,0.9,2.363,M,40.592,M,1.9,0123*41\r\n
$GPGGA,064824.20,5703.2729339,N,00952.3894236,E,2,12,0.9,2.363,M,40.592,M,1.9,0123*4A\r\n
$GPGGA,064824.25,5703.2729330,N,00952.3894229,E,2,12,0.9,2.364,M,40.592,M,2.2,0123*47\r\n
$GPGGA,064824.30,5703.2729330,N,00952.3894226,E,2,12,0.9,2.363,M,40.592,M,2.2,0123*4B\r\n
$GPGGA,064824.35,5703.2729329,N,00952.3894227,E,2,12,0.9,2.363,M,40.592,M,2.2,0123*47\r\n
$GPGGA,064824.40,5703.2729329,N,00952.3894225,E,2,12,0.9,2.363,M,40.592,M,2.2,0123*47\r\n
$GPGGA,064824.45,5703.2729329,N,00952.3894228,E,2,12,0.9,2.364,M,40.592,M,2.4,0123*4E\r\n
$GPGGA,064824.50,5703.2729328,N,00952.3894230,E,2,12,0.9,2.363,M,40.592,M,2.4,0123*45\r\n
$GPGGA,064824.55,5703.2729326,N,00952.3894229,E,2,12,0.9,2.363,M,40.592,M,2.4,0123*46\r\n
$GPGGA,064824.60,5703.2729326,N,00952.3894227,E,2,12,0.9,2.363,M,40.592,M,2.4,0123*4E\r\n
$GPGGA,064824.65,5703.2729334,N,00952.3894244,E,2,12,0.9,2.364,M,40.592,M,1.2,0123*4F\r\n
$GPGGA,064824.70,5703.2729334,N,00952.3894244,E,2,12,0.9,2.364,M,40.592,M,1.2,0123*4B\r\n
$GPGGA,064824.75,5703.2729335,N,00952.3894241,E,2,12,0.9,2.364,M,40.592,M,1.2,0123*4A\r\n
$GPGGA,064824.80,5703.2729335,N,00952.3894240,E,2,12,0.9,2.364,M,40.592,M,1.2,0123*41\r\n
$GPGGA,064824.85,5703.2729335,N,00952.3894226,E,2,12,0.9,2.362,M,40.592,M,1.5,0123*45\r\n
$GPGGA,064824.90,5703.2729337,N,00952.3894226,E,2,12,0.9,2.362,M,40.592,M,1.5,0123*43\r\n
$GPGGA,064824.95,5703.2729336,N,00952.3894231,E,2,12,0.9,2.362,M,40.592,M,1.5,0123*41\r\n
$GPGGA,064825.00,5703.2729337,N,00952.3894231,E,2,12,0.9,2.362,M,40.592,M,1.5,0123*4D\r\n
$GPGGA,064825.05,5703.2729357,N,00952.3894231,E,2,12,0.9,2.363,M,40.592,M,1.7,0123*4D\r\n
$GPGGA,064825.10,5703.2729358,N,00952.3894231,E,2,12,0.9,2.363,M,40.592,M,1.7,0123*46\r\n
$GPGGA,064825.15,5703.2729358,N,00952.3894228,E,2,12,0.9,2.363,M,40.592,M,1.7,0123*4B\r\n
$GPGGA,064825.20,5703.2729356,N,00952.3894224,E,2,12,0.9,2.362,M,40.592,M,1.7,0123*4E\r\n
$GPGGA,064825.25,5703.2729344,N,00952.3894201,E,2,12,0.9,2.361,M,40.592,M,2.0,0123*48\r\n
$GPGGA,064825.30,5703.2729344,N,00952.3894199,E,2,12,0.9,2.361,M,40.592,M,2.0,0123*4E\r\n
$GPGGA,064825.35,5703.2729342,N,00952.3894201,E,2,12,0.9,2.361,M,40.592,M,2.0,0123*4F\r\n
$GPGGA,064825.40,5703.2729342,N,00952.3894198,E,2,12,0.9,2.361,M,40.592,M,2.0,0123*4E\r\n
$GPGGA,064825.45,5703.2729336,N,00952.3894197,E,2,12,0.9,2.360,M,40.592,M,2.2,0123*44\r\n
$GPGGA,064825.50,5703.2729336,N,00952.3894200,E,2,12,0.9,2.360,M,40.592,M,2.2,0123*4D\r\n
$GPGGA,064825.55,5703.2729335,N,00952.3894202,E,2,12,0.9,2.360,M,40.592,M,2.2,0123*49\r\n
$GPGGA,064825.60,5703.2729338,N,00952.3894203,E,2,12,0.9,2.360,M,40.592,M,2.2,0123*43\r\n
$GPGGA,064825.65,5703.2729356,N,00952.3894221,E,2,12,0.9,2.359,M,40.592,M,1.1,0123*44\r\n
$GPGGA,064825.70,5703.2729354,N,00952.3894219,E,2,12,0.9,2.358,M,40.592,M,1.1,0123*48\r\n
$GPGGA,064825.75,5703.2729354,N,00952.3894221,E,2,12,0.9,2.358,M,40.592,M,1.1,0123*46\r\n
$GPGGA,064825.80,5703.2729355,N,00952.3894218,E,2,12,0.9,2.358,M,40.592,M,1.1,0123*47\r\n
$GPGGA,064825.85,5703.2729349,N,00952.3894211,E,2,12,0.9,2.362,M,40.592,M,1.4,0123*4A\r\n
$GPGGA,064825.90,5703.2729349,N,00952.3894210,E,2,12,0.9,2.362,M,40.592,M,1.4,0123*4F\r\n
$GPGGA,064825.95,5703.2729349,N,00952.3894211,E,2,12,0.9,2.362,M,40.592,M,1.4,0123*4B\r\n
$GPGGA,064826.00,5703.2729348,N,00952.3894209,E,2,12,0.9,2.362,M,40.592,M,1.4,0123*4C\r\n
$GPGGA,064826.05,5703.2729361,N,00952.3894182,E,2,12,0.9,2.363,M,40.592,M,1.6,0123*41\r\n
$GPGGA,064826.10,5703.2729362,N,00952.3894182,E,2,12,0.9,2.363,M,40.592,M,1.6,0123*46\r\n
$GPGGA,064826.15,5703.2729362,N,00952.3894185,E,2,12,0.9,2.362,M,40.592,M,1.6,0123*45\r\n
$GPGGA,064826.20,5703.2729363,N,00952.3894187,E,2,12,0.9,2.362,M,40.592,M,1.6,0123*40\r\n
$GPGGA,064826.25,5703.2729370,N,00952.3894203,E,2,12,0.9,2.365,M,40.592,M,1.9,0123*40\r\n
$GPGGA,064826.30,5703.2729371,N,00952.3894202,E,2,12,0.9,2.365,M,40.592,M,1.9,0123*44\r\n
$GPGGA,064826.35,5703.2729371,N,00952.3894198,E,2,12,0.9,2.365,M,40.592,M,1.9,0123*41\r\n
$GPGGA,064826.40,5703.2729371,N,00952.3894197,E,2,12,0.9,2.365,M,40.592,M,1.9,0123*4C\r\n
$GPGGA,064826.45,5703.2729367,N,00952.3894183,E,2,12,0.9,2.365,M,40.592,M,2.1,0123*40\r\n
$GPGGA,064826.50,5703.2729366,N,00952.3894185,E,2,12,0.9,2.365,M,40.592,M,2.1,0123*43\r\n
$GPGGA,064826.55,5703.2729367,N,00952.3894187,E,2,12,0.9,2.365,M,40.592,M,2.1,0123*45\r\n
$GPGGA,064826.60,5703.2729367,N,00952.3894187,E,2,12,0.9,2.365,M,40.592,M,2.1,0123*43\r\n
$GPGGA,064826.65,5703.2729363,N,00952.3894200,E,2,12,0.9,2.360,M,40.592,M,2.3,0123*49\r\n
$GPGGA,064826.70,5703.2729363,N,00952.3894197,E,2,12,0.9,2.360,M,40.592,M,2.3,0123*40\r\n
$GPGGA,064826.75,5703.2729363,N,00952.3894195,E,2,12,0.9,2.360,M,40.592,M,2.3,0123*47\r\n
$GPGGA,064826.80,5703.2729364,N,00952.3894194,E,2,12,0.9,2.360,M,40.592,M,2.3,0123*4B\r\n
$GPGGA,064826.85,5703.2729376,N,00952.3894192,E,2,12,0.9,2.364,M,40.592,M,2.6,0123*4A\r\n
$GPGGA,064826.90,5703.2729378,N,00952.3894195,E,2,12,0.9,2.364,M,40.592,M,2.6,0123*47\r\n
$GPGGA,064826.95,5703.2729378,N,00952.3894197,E,2,12,0.9,2.364,M,40.592,M,2.6,0123*40\r\n
$GPGGA,064827.00,5703.2729381,N,00952.3894196,E,2,12,0.9,2.365,M,40.592,M,2.6,0123*4B\r\n
$GPGGA,064827.05,5703.2729400,N,00952.3894193,E,2,12,0.9,2.365,M,40.592,M,2.8,0123*4B\r\n
$GPGGA,064827.10,5703.2729401,N,00952.3894196,E,2,12,0.9,2.365,M,40.592,M,2.8,0123*4B\r\n
$GPGGA,064827.15,5703.2729400,N,00952.3894196,E,2,12,0.9,2.365,M,40.592,M,2.8,0123*4F\r\n
$GPGGA,064827.20,5703.2729401,N,00952.3894198,E,2,12,0.9,2.365,M,40.592,M,2.8,0123*46\r\n
$GPGGA,064827.25,5703.2729386,N,00952.3894191,E,2,12,0.9,2.363,M,40.592,M,3.0,0123*4D\r\n
$GPGGA,064827.30,5703.2729386,N,00952.3894192,E,2,12,0.9,2.363,M,40.592,M,3.0,0123*4A\r\n
$GPGGA,064827.35,5703.2729385,N,00952.3894193,E,2,12,0.9,2.363,M,40.592,M,3.0,0123*4D\r\n
$GPGGA,064827.40,5703.2729385,N,00952.3894191,E,2,12,0.9,2.363,M,40.592,M,3.0,0123*4D\r\n
$GPGGA,064827.45,5703.2729383,N,00952.3894186,E,2,12,0.9,2.363,M,40.592,M,3.2,0123*4A\r\n
$GPGGA,064827.50,5703.2729385,N,00952.3894190,E,2,12,0.9,2.363,M,40.592,M,3.2,0123*4F\r\n
$GPGGA,064827.55,5703.2729385,N,00952.3894193,E,2,12,0.9,2.363,M,40.592,M,3.2,0123*49\r\n
$GPGGA,064827.60,5703.2729384,N,00952.3894193,E,2,12,0.9,2.363,M,40.592,M,3.2,0123*4E\r\n
$GPGGA,064827.65,5703.2729394,N,00952.3894203,E,2,12,0.9,2.363,M,40.592,M,1.3,0123*43\r\n
$GPGGA,064827.70,5703.2729394,N,00952.3894205,E,2,12,0.9,2.363,M,40.592,M,1.3,0123*41\r\n
$GPGGA,064827.75,5703.2729393,N,00952.3894203,E,2,12,0.9,2.363,M,40.592,M,1.3,0123*45\r\n
$GPGGA,064827.80,5703.2729394,N,00952.3894202,E,2,12,0.9,2.363,M,40.592,M,1.3,0123*49\r\n
$GPGGA,064827.85,5703.2729394,N,00952.3894195,E,2,12,0.9,2.362,M,40.592,M,1.6,0123*45\r\n
$GPGGA,064827.90,5703.2729394,N,00952.3894196,E,2,12,0.9,2.362,M,40.592,M,1.6,0123*42\r\n
$GPGGA,064827.95,5703.2729394,N,00952.3894199,E,2,12,0.9,2.361,M,40.592,M,1.6,0123*4B\r\n
$GPGGA,064828.00,5703.2729395,N,00952.3894196,E,2,12,0.9,2.361,M,40.592,M,1.6,0123*46\r\n
$GPGGA,064828.05,5703.2729409,N,00952.3894178,E,2,12,0.9,2.363,M,40.592,M,1.9,0123*4C\r\n
$GPGGA,064828.10,5703.2729410,N,00952.3894180,E,2,12,0.9,2.363,M,40.592,M,1.9,0123*47\r\n
$GPGGA,064828.15,5703.2729409,N,00952.3894181,E,2,12,0.9,2.362,M,40.592,M,1.9,0123*4A\r\n
$GPGGA,064828.20,5703.2729410,N,00952.3894183,E,2,12,0.9,2.362,M,40.592,M,1.9,0123*46\r\n
$GPGGA,064828.25,5703.2729411,N,00952.3894183,E,2,12,0.9,2.362,M,40.592,M,2.2,0123*4A\r\n
$GPGGA,064828.30,5703.2729413,N,00952.3894181,E,2,12,0.9,2.362,M,40.592,M,2.2,0123*4E\r\n
$GPGGA,064828.35,5703.2729411,N,00952.3894179,E,2,12,0.9,2.361,M,40.592,M,2.2,0123*4D\r\n
$GPGGA,064828.40,5703.2729412,N,00952.3894181,E,2,12,0.9,2.361,M,40.592,M,2.2,0123*4B\r\n
$GPGGA,064828.45,5703.2729411,N,00952.3894180,E,2,12,0.9,2.364,M,40.592,M,2.4,0123*4F\r\n
$GPGGA,064828.50,5703.2729411,N,00952.3894177,E,2,12,0.9,2.364,M,40.592,M,2.4,0123*43\r\n
$GPGGA,064828.55,5703.2729412,N,00952.3894175,E,2,12,0.9,2.364,M,40.592,M,2.4,0123*47\r\n
$GPGGA,064828.60,5703.2729414,N,00952.3894175,E,2,12,0.9,2.364,M,40.592,M,2.4,0123*47\r\n
$GPGGA,064828.65,5703.2729422,N,00952.3894179,E,2,12,0.9,2.365,M,40.592,M,1.2,0123*4F\r\n
$GPGGA,064828.70,5703.2729421,N,00952.3894179,E,2,12,0.9,2.366,M,40.592,M,1.2,0123*4B\r\n
$GPGGA,064828.75,5703.2729421,N,00952.3894177,E,2,12,0.9,2.366,M,40.592,M,1.2,0123*40\r\n
$GPGGA,064828.80,5703.2729422,N,00952.3894178,E,2,12,0.9,2.366,M,40.592,M,1.2,0123*46\r\n
$GPGGA,064828.85,5703.2729414,N,00952.3894185,E,2,12,0.9,2.364,M,40.592,M,1.5,0123*41\r\n
$GPGGA,064828.90,5703.2729411,N,00952.3894181,E,2,12,0.9,2.364,M,40.592,M,1.5,0123*44\r\n
$GPGGA,064828.95,5703.2729411,N,00952.3894181,E,2,12,0.9,2.365,M,40.592,M,1.5,0123*40\r\n
$GPGGA,064829.00,5703.2729413,N,00952.3894179,E,2,12,0.9,2.365,M,40.592,M,1.5,0123*48\r\n
$GPGGA,064829.05,5703.2729423,N,00952.3894153,E,2,12,0.9,2.362,M,40.592,M,1.7,0123*43\r\n
$GPGGA,064829.10,5703.2729422,N,00952.3894155,E,2,12,0.9,2.362,M,40.592,M,1.7,0123*40\r\n
$GPGGA,064829.15,5703.2729419,N,00952.3894153,E,2,12,0.9,2.362,M,40.592,M,1.7,0123*4B\r\n
$GPGGA,064829.20,5703.2729420,N,00952.3894151,E,2,12,0.9,2.362,M,40.592,M,1.7,0123*45\r\n
$GPGGA,064829.25,5703.2729424,N,00952.3894159,E,2,12,0.9,2.364,M,40.592,M,2.0,0123*4E\r\n
$GPGGA,064829.30,5703.2729424,N,00952.3894158,E,2,12,0.9,2.364,M,40.592,M,2.0,0123*4B\r\n
$GPGGA,064829.35,5703.2729424,N,00952.3894156,E,2,12,0.9,2.364,M,40.592,M,2.0,0123*40\r\n
$GPGGA,064829.40,5703.2729422,N,00952.3894154,E,2,12,0.9,2.364,M,40.592,M,2.0,0123*46\r\n
$GPGGA,064829.45,5703.2729420,N,00952.3894152,E,2,12,0.9,2.361,M,40.592,M,2.2,0123*40\r\n
$GPGGA,064829.50,5703.2729421,N,00952.3894154,E,2,12,0.9,2.361,M,40.592,M,2.2,0123*43\r\n
$GPGGA,064829.55,5703.2729421,N,00952.3894152,E,2,12,0.9,2.361,M,40.592,M,2.2,0123*40\r\n
$GPGGA,064829.60,5703.2729418,N,00952.3894152,E,2,12,0.9,2.360,M,40.592,M,2.2,0123*4D\r\n
$GPGGA,064829.65,5703.2729427,N,00952.3894165,E,2,12,0.9,2.364,M,40.592,M,1.1,0123*44\r\n
$GPGGA,064829.70,5703.2729428,N,00952.3894164,E,2,12,0.9,2.364,M,40.592,M,1.1,0123*4E\r\n
$GPGGA,064829.75,5703.2729427,N,00952.3894163,E,2,12,0.9,2.364,M,40.592,M,1.1,0123*43\r\n
$GPGGA,064829.80,5703.2729428,N,00952.3894165,E,2,12,0.9,2.364,M,40.592,M,1.1,0123*40\r\n
$GPGGA,064829.85,5703.2729432,N,00952.3894163,E,2,12,0.9,2.361,M,40.592,M,1.4,0123*48\r\n
$GPGGA,064829.90,5703.2729431,N,00952.3894158,E,2,12,0.9,2.361,M,40.592,M,1.4,0123*47\r\n
$GPGGA,064829.95,5703.2729432,N,00952.3894159,E,2,12,0.9,2.361,M,40.592,M,1.4,0123*40\r\n
$GPGGA,064830.00,5703.2729433,N,00952.3894160,E,2,12,0.9,2.361,M,40.592,M,1.4,0123*4F\r\n
$GPGGA,064830.05,5703.2729445,N,00952.3894142,E,2,12,0.9,2.364,M,40.592,M,1.6,0123*4C\r\n
$GPGGA,064830.10,5703.2729444,N,00952.3894145,E,2,12,0.9,2.364,M,40.592,M,1.6,0123*4E\r\n
$GPGGA,064830.15,5703.2729445,N,00952.3894141,E,2,12,0.9,2.364,M,40.592,M,1.6,0123*4E\r\n
$GPGGA,064830.20,5703.2729446,N,00952.3894145,E,2,12,0.9,2.364,M,40.592,M,1.6,0123*4F\r\n
$GPGGA,064830.25,5703.2729449,N,00952.3894152,E,2,12,0.9,2.364,M,40.592,M,1.9,0123*4C\r\n
$GPGGA,064830.30,5703.2729448,N,00952.3894154,E,2,12,0.9,2.364,M,40.592,M,1.9,0123*4F\r\n
$GPGGA,064830.35,5703.2729449,N,00952.3894153,E,2,12,0.9,2.364,M,40.592,M,1.9,0123*4C\r\n
$GPGGA,064830.40,5703.2729449,N,00952.3894153,E,2,12,0.9,2.364,M,40.592,M,1.9,0123*4E\r\n
$GPGGA,064830.45,5703.2729446,N,00952.3894155,E,2,12,0.9,2.368,M,40.592,M,2.1,0123*45\r\n
$GPGGA,064830.50,5703.2729445,N,00952.3894153,E,2,12,0.9,2.368,M,40.592,M,2.1,0123*44\r\n
$GPGGA,064830.55,5703.2729445,N,00952.3894154,E,2,12,0.9,2.368,M,40.592,M,2.1,0123*46\r\n
$GPGGA,064830.60,5703.2729445,N,00952.3894150,E,2,12,0.9,2.369,M,40.592,M,2.1,0123*45\r\n
$GPGGA,064830.65,5703.2729442,N,00952.3894144,E,2,12,0.9,2.366,M,40.592,M,2.3,0123*4F\r\n
$GPGGA,064830.70,5703.2729442,N,00952.3894146,E,2,12,0.9,2.366,M,40.592,M,2.3,0123*49\r\n
$GPGGA,064830.75,5703.2729442,N,00952.3894149,E,2,12,0.9,2.366,M,40.592,M,2.3,0123*43\r\n
$GPGGA,064830.80,5703.2729445,N,00952.3894148,E,2,12,0.9,2.366,M,40.592,M,2.3,0123*4F\r\n
$GPGGA,064830.85,5703.2729451,N,00952.3894155,E,2,12,0.9,2.364,M,40.592,M,2.6,0123*44\r\n
$GPGGA,064830.90,5703.2729449,N,00952.3894155,E,2,12,0.9,2.364,M,40.592,M,2.6,0123*49\r\n
$GPGGA,064830.95,5703.2729451,N,00952.3894158,E,2,12,0.9,2.364,M,40.592,M,2.6,0123*48\r\n
$GPGGA,064831.00,5703.2729452,N,00952.3894160,E,2,12,0.9,2.364,M,40.592,M,2.6,0123*4D\r\n
$GPGGA,064831.05,5703.2729463,N,00952.3894137,E,2,12,0.9,2.366,M,40.592,M,2.8,0123*44\r\n
$GPGGA,064831.10,5703.2729464,N,00952.3894138,E,2,12,0.9,2.366,M,40.592,M,2.8,0123*48\r\n
$GPGGA,064831.15,5703.2729466,N,00952.3894140,E,2,12,0.9,2.366,M,40.592,M,2.8,0123*40\r\n
$GPGGA,064831.20,5703.2729466,N,00952.3894143,E,2,12,0.9,2.366,M,40.592,M,2.8,0123*45\r\n
$GPGGA,064831.25,5703.2729458,N,00952.3894132,E,2,12,0.9,2.364,M,40.592,M,3.0,0123*40\r\n
$GPGGA,064831.30,5703.2729457,N,00952.3894131,E,2,12,0.9,2.364,M,40.592,M,3.0,0123*48\r\n
$GPGGA,064831.35,5703.2729457,N,00952.3894129,E,2,12,0.9,2.364,M,40.592,M,3.0,0123*44\r\n
$GPGGA,064831.40,5703.2729458,N,00952.3894132,E,2,12,0.9,2.364,M,40.592,M,3.0,0123*43\r\n
$GPGGA,064831.45,5703.2729454,N,00952.3894131,E,2,12,0.9,2.364,M,40.592,M,3.2,0123*4B\r\n
$GPGGA,064831.50,5703.2729454,N,00952.3894132,E,2,12,0.9,2.364,M,40.592,M,3.2,0123*4C\r\n
$GPGGA,064831.55,5703.2729454,N,00952.3894134,E,2,12,0.9,2.364,M,40.592,M,3.2,0123*4F\r\n
$GPGGA,064831.60,5703.2729454,N,00952.3894128,E,2,12,0.9,2.364,M,40.592,M,3.2,0123*44\r\n
$GPGGA,064831.65,5703.2729454,N,00952.3894123,E,2,12,0.9,2.364,M,40.592,M,1.3,0123*49\r\n
$GPGGA,064831.70,5703.2729456,N,00952.3894127,E,2,12,0.9,2.364,M,40.592,M,1.3,0123*4B\r\n
$GPGGA,064831.75,5703.2729459,N,00952.3894133,E,2,12,0.9,2.364,M,40.592,M,1.3,0123*44\r\n
$GPGGA,064831.80,5703.2729460,N,00952.3894136,E,2,12,0.9,2.364,M,40.592,M,1.3,0123*41\r\n
$GPGGA,064831.85,5703.2729476,N,00952.3894159,E,2,12,0.9,2.365,M,40.592,M,1.6,0123*4E\r\n
$GPGGA,064831.90,5703.2729477,N,00952.3894157,E,2,12,0.9,2.365,M,40.592,M,1.6,0123*45\r\n
$GPGGA,064831.95,5703.2729477,N,00952.3894154,E,2,12,0.9,2.365,M,40.592,M,1.6,0123*43\r\n
$GPGGA,064832.00,5703.2729475,N,00952.3894154,E,2,12,0.9,2.365,M,40.592,M,1.6,0123*4E\r\n
$GPGGA,064832.05,5703.2729471,N,00952.3894108,E,2,12,0.9,2.366,M,40.592,M,1.9,0123*4A\r\n
$GPGGA,064832.10,5703.2729472,N,00952.3894108,E,2,12,0.9,2.367,M,40.592,M,1.9,0123*4C\r\n
$GPGGA,064832.15,5703.2729471,N,00952.3894109,E,2,12,0.9,2.367,M,40.592,M,1.9,0123*4B\r\n
$GPGGA,064832.20,5703.2729472,N,00952.3894115,E,2,12,0.9,2.367,M,40.592,M,1.9,0123*43\r\n
$GPGGA,064832.25,5703.2729475,N,00952.3894125,E,2,12,0.9,2.366,M,40.592,M,2.2,0123*4B\r\n
$GPGGA,064832.30,5703.2729476,N,00952.3894124,E,2,12,0.9,2.366,M,40.592,M,2.2,0123*4D\r\n
$GPGGA,064832.35,5703.2729477,N,00952.3894125,E,2,12,0.9,2.366,M,40.592,M,2.2,0123*48\r\n
$GPGGA,064832.40,5703.2729477,N,00952.3894123,E,2,12,0.9,2.367,M,40.592,M,2.2,0123*4D\r\n
$GPGGA,064832.45,5703.2729483,N,00952.3894119,E,2,12,0.9,2.365,M,40.592,M,2.4,0123*4E\r\n
$GPGGA,064832.50,5703.2729482,N,00952.3894121,E,2,12,0.9,2.365,M,40.592,M,2.4,0123*40\r\n
$GPGGA,064832.55,5703.2729482,N,00952.3894121,E,2,12,0.9,2.365,M,40.592,M,2.4,0123*45\r\n
$GPGGA,064832.60,5703.2729484,N,00952.3894123,E,2,12,0.9,2.365,M,40.592,M,2.4,0123*47\r\n
$GPGGA,064832.65,5703.2729476,N,00952.3894124,E,2,12,0.9,2.363,M,40.592,M,1.2,0123*4B\r\n
$GPGGA,064832.70,5703.2729476,N,00952.3894122,E,2,12,0.9,2.363,M,40.592,M,1.2,0123*49\r\n
$GPGGA,064832.75,5703.2729476,N,00952.3894123,E,2,12,0.9,2.363,M,40.592,M,1.2,0123*4D\r\n
$GPGGA,064832.80,5703.2729475,N,00952.3894124,E,2,12,0.9,2.363,M,40.592,M,1.2,0123*43\r\n
$GPGGA,064832.85,5703.2729473,N,00952.3894125,E,2,12,0.9,2.365,M,40.592,M,1.5,0123*40\r\n
$GPGGA,064832.90,5703.2729472,N,00952.3894120,E,2,12,0.9,2.365,M,40.592,M,1.5,0123*40\r\n
$GPGGA,064832.95,5703.2729472,N,00952.3894116,E,2,12,0.9,2.364,M,40.592,M,1.5,0123*41\r\n
$GPGGA,064833.00,5703.2729469,N,00952.3894118,E,2,12,0.9,2.364,M,40.592,M,1.5,0123*48\r\n
$GPGGA,064833.05,5703.2729474,N,00952.3894090,E,2,12,0.9,2.366,M,40.592,M,1.7,0123*40\r\n
$GPGGA,064833.10,5703.2729476,N,00952.3894091,E,2,12,0.9,2.366,M,40.592,M,1.7,0123*47\r\n
$GPGGA,064833.15,5703.2729476,N,00952.3894094,E,2,12,0.9,2.366,M,40.592,M,1.7,0123*47\r\n
$GPGGA,064833.20,5703.2729476,N,00952.3894097,E,2,12,0.9,2.366,M,40.592,M,1.7,0123*42\r\n
$GPGGA,064833.25,5703.2729494,N,00952.3894121,E,2,12,0.9,2.362,M,40.592,M,2.0,0123*47\r\n
$GPGGA,064833.30,5703.2729495,N,00952.3894118,E,2,12,0.9,2.361,M,40.592,M,2.0,0123*4B\r\n
$GPGGA,064833.35,5703.2729493,N,00952.3894111,E,2,12,0.9,2.361,M,40.592,M,2.0,0123*41\r\n
$GPGGA,064833.40,5703.2729493,N,00952.3894109,E,2,12,0.9,2.361,M,40.592,M,2.0,0123*4A\r\n
$GPGGA,064833.45,5703.2729492,N,00952.3894080,E,2,12,0.9,2.365,M,40.592,M,2.2,0123*48\r\n
$GPGGA,064833.50,5703.2729493,N,00952.3894087,E,2,12,0.9,2.365,M,40.592,M,2.2,0123*4A\r\n
$GPGGA,064833.55,5703.2729493,N,00952.3894093,E,2,12,0.9,2.365,M,40.592,M,2.2,0123*4A\r\n
$GPGGA,064833.60,5703.2729493,N,00952.3894093,E,2,12,0.9,2.365,M,40.592,M,2.2,0123*4C\r\n
$GPGGA,064833.65,5703.2729495,N,00952.3894121,E,2,12,0.9,2.361,M,40.592,M,1.1,0123*43\r\n
$GPGGA,064833.70,5703.2729494,N,00952.3894114,E,2,12,0.9,2.361,M,40.592,M,1.1,0123*40\r\n
$GPGGA,064833.75,5703.2729493,N,00952.3894105,E,2,12,0.9,2.361,M,40.592,M,1.1,0123*42\r\n
$GPGGA,064833.80,5703.2729493,N,00952.3894097,E,2,12,0.9,2.361,M,40.592,M,1.1,0123*42\r\n
$GPGGA,064833.85,5703.2729468,N,00952.3894028,E,2,12,0.9,2.362,M,40.592,M,1.4,0123*41\r\n
$GPGGA,064833.90,5703.2729471,N,00952.3894037,E,2,12,0.9,2.362,M,40.592,M,1.4,0123*43\r\n
$GPGGA,064833.95,5703.2729473,N,00952.3894050,E,2,12,0.9,2.361,M,40.592,M,1.4,0123*46\r\n
$GPGGA,064834.00,5703.2729474,N,00952.3894059,E,2,12,0.9,2.361,M,40.592,M,1.4,0123*43\r\n
$GPGGA,064834.05,5703.2729530,N,00952.3894155,E,2,12,0.9,2.362,M,40.592,M,1.6,0123*4B\r\n
$GPGGA,064834.10,5703.2729531,N,00952.3894155,E,2,12,0.9,2.362,M,40.592,M,1.6,0123*4E\r\n
$GPGGA,064834.15,5703.2729528,N,00952.3894147,E,2,12,0.9,2.362,M,40.592,M,1.6,0123*40\r\n
$GPGGA,064834.20,5703.2729525,N,00952.3894137,E,2,12,0.9,2.362,M,40.592,M,1.6,0123*4C\r\n
$GPGGA,064834.25,5703.2729484,N,00952.3894036,E,2,12,0.9,2.364,M,40.592,M,1.9,0123*4A\r\n
$GPGGA,064834.30,5703.2729483,N,00952.3894034,E,2,12,0.9,2.364,M,40.592,M,1.9,0123*4B\r\n
$GPGGA,064834.35,5703.2729483,N,00952.3894034,E,2,12,0.9,2.364,M,40.592,M,1.9,0123*4E\r\n
$GPGGA,064834.40,5703.2729484,N,00952.3894035,E,2,12,0.9,2.364,M,40.592,M,1.9,0123*4A\r\n
$GPGGA,064834.45,5703.2729500,N,00952.3894070,E,2,12,0.9,2.361,M,40.592,M,2.1,0123*4D\r\n
$GPGGA,064834.50,5703.2729500,N,00952.3894073,E,2,12,0.9,2.361,M,40.592,M,2.1,0123*4A\r\n
$GPGGA,064834.55,5703.2729501,N,00952.3894072,E,2,12,0.9,2.361,M,40.592,M,2.1,0123*4F\r\n
$GPGGA,064834.60,5703.2729502,N,00952.3894078,E,2,12,0.9,2.361,M,40.592,M,2.1,0123*40\r\n
$GPGGA,064834.65,5703.2729523,N,00952.3894117,E,2,12,0.9,2.365,M,40.592,M,2.3,0123*48\r\n
$GPGGA,064834.70,5703.2729522,N,00952.3894110,E,2,12,0.9,2.365,M,40.592,M,2.3,0123*4A\r\n
$GPGGA,064834.75,5703.2729522,N,00952.3894108,E,2,12,0.9,2.365,M,40.592,M,2.3,0123*46\r\n
$GPGGA,064834.80,5703.2729522,N,00952.3894106,E,2,12,0.9,2.365,M,40.592,M,2.3,0123*42\r\n
$GPGGA,064834.85,5703.2729492,N,00952.3894051,E,2,12,0.9,2.364,M,40.592,M,2.6,0123*4A\r\n
$GPGGA,064834.90,5703.2729491,N,00952.3894051,E,2,12,0.9,2.364,M,40.592,M,2.6,0123*4D\r\n
$GPGGA,064834.95,5703.2729493,N,00952.3894052,E,2,12,0.9,2.364,M,40.592,M,2.6,0123*49\r\n
$GPGGA,064835.00,5703.2729494,N,00952.3894053,E,2,12,0.9,2.364,M,40.592,M,2.6,0123*42\r\n
$GPGGA,064835.05,5703.2729535,N,00952.3894043,E,2,12,0.9,2.366,M,40.592,M,2.8,0123*40\r\n
$GPGGA,064835.10,5703.2729536,N,00952.3894048,E,2,12,0.9,2.366,M,40.592,M,2.8,0123*4C\r\n
$GPGGA,064835.15,5703.2729537,N,00952.3894051,E,2,12,0.9,2.366,M,40.592,M,2.8,0123*40\r\n
$GPGGA,064835.20,5703.2729538,N,00952.3894052,E,2,12,0.9,2.366,M,40.592,M,2.8,0123*4A\r\n
$GPGGA,064835.25,5703.2729546,N,00952.3894068,E,2,12,0.9,2.367,M,40.592,M,3.0,0123*47\r\n
$GPGGA,064835.30,5703.2729545,N,00952.3894066,E,2,12,0.9,2.367,M,40.592,M,3.0,0123*4E\r\n
$GPGGA,064835.35,5703.2729544,N,00952.3894060,E,2,12,0.9,2.367,M,40.592,M,3.0,0123*4C\r\n
$GPGGA,064835.40,5703.2729543,N,00952.3894053,E,2,12,0.9,2.367,M,40.592,M,3.0,0123*49\r\n
$GPGGA,064835.45,5703.2729516,N,00952.3894008,E,2,12,0.9,2.369,M,40.592,M,3.2,0123*4E\r\n
$GPGGA,064835.50,5703.2729517,N,00952.3894008,E,2,12,0.9,2.369,M,40.592,M,3.2,0123*4B\r\n
$GPGGA,064835.55,5703.2729517,N,00952.3894016,E,2,12,0.9,2.369,M,40.592,M,3.2,0123*41\r\n
$GPGGA,064835.60,5703.2729516,N,00952.3894021,E,2,12,0.9,2.370,M,40.592,M,3.2,0123*4A\r\n
$GPGGA,064835.65,5703.2729540,N,00952.3894076,E,2,12,0.9,2.366,M,40.592,M,1.3,0123*4A\r\n
$GPGGA,064835.70,5703.2729541,N,00952.3894074,E,2,12,0.9,2.366,M,40.592,M,1.3,0123*4D\r\n
$GPGGA,064835.75,5703.2729538,N,00952.3894070,E,2,12,0.9,2.366,M,40.592,M,1.3,0123*42\r\n
$GPGGA,064835.80,5703.2729539,N,00952.3894069,E,2,12,0.9,2.365,M,40.592,M,1.3,0123*42\r\n
$GPGGA,064835.85,5703.2729533,N,00952.3894028,E,2,12,0.9,2.366,M,40.592,M,1.6,0123*4E\r\n
$GPGGA,064835.90,5703.2729532,N,00952.3894030,E,2,12,0.9,2.366,M,40.592,M,1.6,0123*42\r\n
$GPGGA,064835.95,5703.2729531,N,00952.3894030,E,2,12,0.9,2.366,M,40.592,M,1.6,0123*44\r\n
$GPGGA,064836.00,5703.2729534,N,00952.3894029,E,2,12,0.9,2.366,M,40.592,M,1.6,0123*46\r\n
$GPGGA,064836.05,5703.2729560,N,00952.3894005,E,2,12,0.9,2.370,M,40.592,M,1.9,0123*44\r\n
$GPGGA,064836.10,5703.2729559,N,00952.3894003,E,2,12,0.9,2.370,M,40.592,M,1.9,0123*4C\r\n
$GPGGA,064836.15,5703.2729560,N,00952.3894002,E,2,12,0.9,2.370,M,40.592,M,1.9,0123*42\r\n
$GPGGA,064836.20,5703.2729561,N,00952.3894007,E,2,12,0.9,2.369,M,40.592,M,1.9,0123*48\r\n
$GPGGA,064836.25,5703.2729568,N,00952.3894015,E,2,12,0.9,2.369,M,40.592,M,2.2,0123*4F\r\n
$GPGGA,064836.30,5703.2729568,N,00952.3894014,E,2,12,0.9,2.369,M,40.592,M,2.2,0123*4A\r\n
$GPGGA,064836.35,5703.2729569,N,00952.3894012,E,2,12,0.9,2.369,M,40.592,M,2.2,0123*48\r\n
$GPGGA,064836.40,5703.2729568,N,00952.3894009,E,2,12,0.9,2.369,M,40.592,M,2.2,0123*41\r\n
$GPGGA,064836.45,5703.2729563,N,00952.3893995,E,2,12,0.9,2.371,M,40.592,M,2.4,0123*4B\r\n
$GPGGA,064836.50,5703.2729563,N,00952.3893997,E,2,12,0.9,2.370,M,40.592,M,2.4,0123*4C\r\n
$GPGGA,064836.55,5703.2729561,N,00952.3893998,E,2,12,0.9,2.370,M,40.592,M,2.4,0123*44\r\n
$GPGGA,064836.60,5703.2729562,N,00952.3894001,E,2,12,0.9,2.370,M,40.592,M,2.4,0123*4F\r\n
$GPGGA,064836.65,5703.2729558,N,00952.3894012,E,2,12,0.9,2.369,M,40.592,M,1.2,0123*4C\r\n
$GPGGA,064836.70,5703.2729558,N,00952.3894013,E,2,12,0.9,2.369,M,40.592,M,1.2,0123*49\r\n
$GPGGA,064836.75,5703.2729557,N,00952.3894008,E,2,12,0.9,2.368,M,40.592,M,1.2,0123*48\r\n
$GPGGA,064836.80,5703.2729557,N,00952.3894005,E,2,12,0.9,2.368,M,40.592,M,1.2,0123*4F\r\n
$GPGGA,064836.85,5703.2729564,N,00952.3893993,E,2,12,0.9,2.368,M,40.592,M,1.5,0123*4C\r\n
$GPGGA,064836.90,5703.2729563,N,00952.3893993,E,2,12,0.9,2.368,M,40.592,M,1.5,0123*4F\r\n
$GPGGA,064836.95,5703.2729561,N,00952.3893991,E,2,12,0.9,2.367,M,40.592,M,1.5,0123*45\r\n
$GPGGA,064837.00,5703.2729561,N,00952.3893990,E,2,12,0.9,2.367,M,40.592,M,1.5,0123*49\r\n
$GPGGA,064837.05,5703.2729593,N,00952.3893958,E,2,12,0.9,2.372,M,40.592,M,1.7,0123*43\r\n
$GPGGA,064837.10,5703.2729592,N,00952.3893956,E,2,12,0.9,2.372,M,40.592,M,1.7,0123*48\r\n
$GPGGA,064837.15,5703.2729591,N,00952.3893956,E,2,12,0.9,2.371,M,40.592,M,1.7,0123*4D\r\n
$GPGGA,064837.20,5703.2729592,N,00952.3893957,E,2,12,0.9,2.371,M,40.592,M,1.7,0123*49\r\n
$GPGGA,064837.25,5703.2729601,N,00952.3893964,E,2,12,0.9,2.374,M,40.592,M,2.0,0123*44\r\n
$GPGGA,064837.30,5703.2729601,N,00952.3893963,E,2,12,0.9,2.374,M,40.592,M,2.0,0123*47\r\n
$GPGGA,064837.35,5703.2729601,N,00952.3893960,E,2,12,0.9,2.374,M,40.592,M,2.0,0123*41\r\n
$GPGGA,064837.40,5703.2729599,N,00952.3893964,E,2,12,0.9,2.374,M,40.592,M,2.0,0123*45\r\n
$GPGGA,064837.45,5703.2729590,N,00952.3893961,E,2,12,0.9,2.373,M,40.592,M,2.2,0123*49\r\n
$GPGGA,064837.50,5703.2729589,N,00952.3893961,E,2,12,0.9,2.373,M,40.592,M,2.2,0123*45\r\n
$GPGGA,064837.55,5703.2729589,N,00952.3893958,E,2,12,0.9,2.373,M,40.592,M,2.2,0123*4A\r\n
$GPGGA,064837.60,5703.2729589,N,00952.3893956,E,2,12,0.9,2.373,M,40.592,M,2.2,0123*42\r\n
$GPGGA,064837.65,5703.2729588,N,00952.3893943,E,2,12,0.9,2.369,M,40.592,M,1.1,0123*49\r\n
$GPGGA,064837.70,5703.2729588,N,00952.3893946,E,2,12,0.9,2.369,M,40.592,M,1.1,0123*48\r\n
$GPGGA,064837.75,5703.2729589,N,00952.3893948,E,2,12,0.9,2.369,M,40.592,M,1.1,0123*42\r\n
$GPGGA,064837.80,5703.2729590,N,00952.3893950,E,2,12,0.9,2.368,M,40.592,M,1.1,0123*48\r\n
$GPGGA,064837.85,5703.2729606,N,00952.3893976,E,2,12,0.9,2.371,M,40.592,M,1.4,0123*48\r\n
$GPGGA,064837.90,5703.2729606,N,00952.3893974,E,2,12,0.9,2.371,M,40.592,M,1.4,0123*4E\r\n
$GPGGA,064837.95,5703.2729605,N,00952.3893973,E,2,12,0.9,2.371,M,40.592,M,1.4,0123*4F\r\n
$GPGGA,064838.00,5703.2729606,N,00952.3893972,E,2,12,0.9,2.371,M,40.592,M,1.4,0123*4E\r\n
$GPGGA,064838.05,5703.2729630,N,00952.3893910,E,2,12,0.9,2.377,M,40.592,M,1.6,0123*4E\r\n
$GPGGA,064838.10,5703.2729631,N,00952.3893912,E,2,12,0.9,2.377,M,40.592,M,1.6,0123*49\r\n
$GPGGA,064838.15,5703.2729632,N,00952.3893910,E,2,12,0.9,2.377,M,40.592,M,1.6,0123*4D\r\n
$GPGGA,064838.20,5703.2729631,N,00952.3893910,E,2,12,0.9,2.377,M,40.592,M,1.6,0123*48\r\n
$GPGGA,064838.25,5703.2729637,N,00952.3893925,E,2,12,0.9,2.377,M,40.592,M,1.9,0123*42\r\n
$GPGGA,064838.30,5703.2729638,N,00952.3893924,E,2,12,0.9,2.377,M,40.592,M,1.9,0123*48\r\n
$GPGGA,064838.35,5703.2729638,N,00952.3893921,E,2,12,0.9,2.377,M,40.592,M,1.9,0123*48\r\n
$GPGGA,064838.40,5703.2729638,N,00952.3893924,E,2,12,0.9,2.377,M,40.592,M,1.9,0123*4F\r\n
$GPGGA,064838.45,5703.2729636,N,00952.3893922,E,2,12,0.9,2.377,M,40.592,M,2.1,0123*49\r\n
$GPGGA,064838.50,5703.2729635,N,00952.3893921,E,2,12,0.9,2.377,M,40.592,M,2.1,0123*4D\r\n
$GPGGA,064838.55,5703.2729636,N,00952.3893920,E,2,12,0.9,2.377,M,40.592,M,2.1,0123*4A\r\n
$GPGGA,064838.60,5703.2729639,N,00952.3893918,E,2,12,0.9,2.377,M,40.592,M,2.1,0123*48\r\n
$GPGGA,064838.65,5703.2729645,N,00952.3893912,E,2,12,0.9,2.375,M,40.592,M,2.3,0123*4C\r\n
$GPGGA,064838.70,5703.2729644,N,00952.3893911,E,2,12,0.9,2.375,M,40.592,M,2.3,0123*4A\r\n
$GPGGA,064838.75,5703.2729644,N,00952.3893912,E,2,12,0.9,2.375,M,40.592,M,2.3,0123*4C\r\n
$GPGGA,064838.80,5703.2729646,N,00952.3893912,E,2,12,0.9,2.375,M,40.592,M,2.3,0123*44\r\n
$GPGGA,064838.85,5703.2729640,N,00952.3893924,E,2,12,0.9,2.377,M,40.592,M,2.6,0123*45\r\n
$GPGGA,064838.90,5703.2729638,N,00952.3893924,E,2,12,0.9,2.377,M,40.592,M,2.6,0123*4E\r\n
$GPGGA,064838.95,5703.2729639,N,00952.3893925,E,2,12,0.9,2.377,M,40.592,M,2.6,0123*4B\r\n
$GPGGA,064839.00,5703.2729641,N,00952.3893927,E,2,12,0.9,2.377,M,40.592,M,2.6,0123*4B\r\n
$GPGGA,064839.05,5703.2729678,N,00952.3893884,E,2,12,0.9,2.377,M,40.592,M,2.8,0123*42\r\n
$GPGGA,064839.10,5703.2729676,N,00952.3893885,E,2,12,0.9,2.377,M,40.592,M,2.8,0123*49\r\n
$GPGGA,064839.15,5703.2729677,N,00952.3893888,E,2,12,0.9,2.377,M,40.592,M,2.8,0123*40\r\n
$GPGGA,064839.20,5703.2729678,N,00952.3893886,E,2,12,0.9,2.377,M,40.592,M,2.8,0123*47\r\n
$GPGGA,064839.25,5703.2729673,N,00952.3893880,E,2,12,0.9,2.377,M,40.592,M,3.0,0123*46\r\n
$GPGGA,064839.30,5703.2729673,N,00952.3893884,E,2,12,0.9,2.377,M,40.592,M,3.0,0123*46\r\n
$GPGGA,064839.35,5703.2729675,N,00952.3893884,E,2,12,0.9,2.377,M,40.592,M,3.0,0123*45\r\n
$GPGGA,064839.40,5703.2729675,N,00952.3893887,E,2,12,0.9,2.377,M,40.592,M,3.0,0123*44\r\n
$GPGGA,064839.45,5703.2729675,N,00952.3893897,E,2,12,0.9,2.376,M,40.592,M,3.2,0123*43\r\n
$GPGGA,064839.50,5703.2729676,N,00952.3893898,E,2,12,0.9,2.376,M,40.592,M,3.2,0123*4B\r\n
$GPGGA,064839.55,5703.2729676,N,00952.3893898,E,2,12,0.9,2.376,M,40.592,M,3.2,0123*4E\r\n
$GPGGA,064839.60,5703.2729676,N,00952.3893896,E,2,12,0.9,2.376,M,40.592,M,3.2,0123*46\r\n
$GPGGA,064839.65,5703.2729676,N,00952.3893875,E,2,12,0.9,2.376,M,40.592,M,1.3,0123*4D\r\n
$GPGGA,064839.70,5703.2729677,N,00952.3893877,E,2,12,0.9,2.376,M,40.592,M,1.3,0123*4A\r\n
$GPGGA,064839.75,5703.2729679,N,00952.3893875,E,2,12,0.9,2.376,M,40.592,M,1.3,0123*43\r\n
$GPGGA,064839.80,5703.2729677,N,00952.3893874,E,2,12,0.9,2.376,M,40.592,M,1.3,0123*46\r\n
$GPGGA,064839.85,5703.2729680,N,00952.3893887,E,2,12,0.9,2.378,M,40.592,M,1.6,0123*4C\r\n
$GPGGA,064839.90,5703.2729679,N,00952.3893890,E,2,12,0.9,2.378,M,40.592,M,1.6,0123*48\r\n
$GPGGA,064839.95,5703.2729680,N,00952.3893888,E,2,12,0.9,2.378,M,40.592,M,1.6,0123*42\r\n
$GPGGA,064840.00,5703.2729680,N,00952.3893887,E,2,12,0.9,2.378,M,40.592,M,1.6,0123*4F\r\n
$GPGGA,064840.05,5703.2729706,N,00952.3893844,E,2,12,0.9,2.376,M,40.592,M,1.9,0123*4B\r\n
$GPGGA,064840.10,5703.2729705,N,00952.3893844,E,2,12,0.9,2.376,M,40.592,M,1.9,0123*4C\r\n
$GPGGA,064840.15,5703.2729703,N,00952.3893841,E,2,12,0.9,2.376,M,40.592,M,1.9,0123*4A\r\n
$GPGGA,064840.20,5703.2729702,N,00952.3893838,E,2,12,0.9,2.376,M,40.592,M,1.9,0123*43\r\n
$GPGGA,064840.25,5703.2729695,N,00952.3893827,E,2,12,0.9,2.375,M,40.592,M,2.2,0123*4C\r\n
$GPGGA,064840.30,5703.2729695,N,00952.3893828,E,2,12,0.9,2.375,M,40.592,M,2.2,0123*47\r\n
$GPGGA,064840.35,5703.2729694,N,00952.3893827,E,2,12,0.9,2.375,M,40.592,M,2.2,0123*4C\r\n
$GPGGA,064840.40,5703.2729695,N,00952.3893826,E,2,12,0.9,2.375,M,40.592,M,2.2,0123*4E\r\n
$GPGGA,064840.45,5703.2729720,N,00952.3893850,E,2,12,0.9,2.380,M,40.592,M,2.4,0123*49\r\n
$GPGGA,064840.50,5703.2729720,N,00952.3893851,E,2,12,0.9,2.380,M,40.592,M,2.4,0123*4C\r\n
