$GPGGA,065702.00,5703.2815535,N,00952.3680273,E,2,5,3.0,-1.032,M,40.592,M,3.0,0123*5C\r\n
$GPGGA,065702.05,5703.2815452,N,00952.3680326,E,2,5,3.0,-1.038,M,40.592,M,3.2,0123*50\r\n
$GPGGA,065702.10,5703.2815459,N,00952.3680328,E,2,5,3.0,-1.038,M,40.592,M,3.2,0123*51\r\n
$GPGGA,065702.15,5703.2815466,N,00952.3680332,E,2,5,3.0,-1.039,M,40.592,M,3.2,0123*52\r\n
$GPGGA,065702.20,5703.2815471,N,00952.3680341,E,2,5,3.0,-1.039,M,40.592,M,3.2,0123*56\r\n
$GPGGA,065702.25,5703.2815521,N,00952.3680299,E,2,5,3.0,-1.042,M,40.592,M,3.4,0123*59\r\n
$GPGGA,065702.30,5703.2815527,N,00952.3680304,E,2,5,3.0,-1.042,M,40.592,M,3.4,0123*5E\r\n
$GPGGA,065702.35,5703.2815531,N,00952.3680313,E,2,5,3.0,-1.043,M,40.592,M,3.4,0123*5B\r\n
$GPGGA,065702.40,5703.2815536,N,00952.3680324,E,2,5,3.0,-1.043,M,40.592,M,3.4,0123*5A\r\n
$GPGGA,065702.45,5703.2815585,N,00952.3680122,E,2,5,3.0,-1.042,M,40.592,M,3.6,0123*50\r\n
$GPGGA,065702.50,5703.2815588,N,00952.3680133,E,2,5,3.0,-1.042,M,40.592,M,3.6,0123*59\r\n
$GPGGA,065702.55,5703.2815593,N,00952.3680142,E,2,5,3.0,-1.042,M,40.592,M,3.6,0123*50\r\n
$GPGGA,065702.60,5703.2815597,N,00952.3680145,E,2,5,3.0,-1.042,M,40.592,M,3.6,0123*55\r\n
$GPGGA,065702.65,5703.2815610,N,00952.3680111,E,2,5,3.0,-1.053,M,40.592,M,3.9,0123*52\r\n
$GPGGA,065702.70,5703.2815613,N,00952.3680119,E,2,5,3.0,-1.053,M,40.592,M,3.9,0123*5D\r\n
$GPGGA,065702.75,5703.2815616,N,00952.3680123,E,2,5,3.0,-1.053,M,40.592,M,3.9,0123*54\r\n
$GPGGA,065702.80,5703.2815619,N,00952.3680133,E,2,5,3.0,-1.053,M,40.592,M,3.9,0123*50\r\n
$GPGGA,065702.85,5703.2815619,N,00952.3680051,E,2,5,3.0,-1.049,M,40.592,M,4.1,0123*54\r\n
$GPGGA,065702.90,5703.2815621,N,00952.3680061,E,2,5,3.0,-1.049,M,40.592,M,4.1,0123*58\r\n
$GPGGA,065702.95,5703.2815623,N,00952.3680066,E,2,5,3.0,-1.049,M,40.592,M,4.1,0123*58\r\n
$GPGGA,065703.00,5703.2815624,N,00952.3680070,E,2,5,3.0,-1.049,M,40.592,M,4.1,0123*55\r\n
$GPGGA,065703.05,5703.2815632,N,00952.3680055,E,2,5,3.0,-1.060,M,40.592,M,1.2,0123*5D\r\n
$GPGGA,065703.10,5703.2815635,N,00952.3680053,E,2,5,3.0,-1.059,M,40.592,M,1.2,0123*52\r\n
$GPGGA,065703.15,5703.2815635,N,00952.3680055,E,2,5,3.0,-1.059,M,40.592,M,1.2,0123*51\r\n
$GPGGA,065703.20,5703.2815636,N,00952.3680058,E,2,5,3.0,-1.059,M,40.592,M,1.2,0123*59\r\n
$GPGGA,065703.25,5703.2815800,N,00952.3679658,E,2,5,3.0,-1.061,M,40.592,M,1.4,0123*5A\r\n
$GPGGA,065703.30,5703.2815812,N,00952.3679609,E,2,5,3.0,-1.062,M,40.592,M,1.4,0123*5A\r\n
$GPGGA,065703.35,5703.2815836,N,00952.3679549,E,2,5,3.0,-1.065,M,40.592,M,1.4,0123*59\r\n
$GPGGA,065703.40,5703.2815850,N,00952.3679502,E,2,5,3.0,-1.066,M,40.592,M,1.4,0123*57\r\n
$GPGGA,065703.45,5703.2815984,N,00952.3679259,E,2,5,3.0,-1.060,M,40.592,M,1.6,0123*57\r\n
$GPGGA,065703.50,5703.2815986,N,00952.3679143,E,2,5,3.0,-1.060,M,40.592,M,1.6,0123*59\r\n
$GPGGA,065703.55,5703.2816021,N,00952.3679035,E,2,5,3.0,-1.062,M,40.592,M,1.6,0123*59\r\n
$GPGGA,065703.60,5703.2816032,N,00952.3678941,E,2,5,3.0,-1.062,M,40.592,M,1.6,0123*56\r\n
$GPGGA,065703.65,5703.2816166,N,00952.3678743,E,2,5,3.0,-1.071,M,40.592,M,1.9,0123*52\r\n
$GPGGA,065703.70,5703.2816187,N,00952.3678680,E,2,5,3.0,-1.073,M,40.592,M,1.9,0123*55\r\n
$GPGGA,065703.75,5703.2816217,N,00952.3678567,E,2,5,3.0,-1.074,M,40.592,M,1.9,0123*57\r\n
$GPGGA,065703.80,5703.2816229,N,00952.3678473,E,2,5,3.0,-1.074,M,40.592,M,1.9,0123*54\r\n
$GPGGA,065703.85,5703.2816299,N,00952.3678322,E,2,5,3.0,-1.069,M,40.592,M,2.1,0123*5E\r\n
$GPGGA,065703.90,5703.2816321,N,00952.3678229,E,2,\x005,3.0,-1.068,M,40.592,M,2.1,0123*53\r\n
$GPGGA,065703.95,5703.2816342,N,009\x0052.3678102,E,2,5,3.0,-1.070,M,40.592,M,2.1,0123*50\r\n
$GPGGA,065704.00,570\x003.281636\n
$GPGGA,065707.70,5703.2820942,N,00952.3666751,E,2,5,3.0,-1.133,M,40.592,M,1.9,0123*52\r\n
$GPGGA,065707.75,5703.2821010,N,00952.3666522,E,2,5,3.0,-1.131,M,40.592,M,1.9,0123*5C\r\n
$GPGGA,065707.80,5703.2821070,N,00952.3666384,E,2,5,3.0,-1.131,M,40.592,M,1.9,0123*5A\r\n
$GPGGA,065707.85,5703.2821136,N,00952.3666168,E,2,5,3.0,-1.138,M,40.592,M,2.1,0123*5E\r\n
$GPGGA,065707.90,5703.2821189,N,00952.3666069,E,2,5,3.0,-1.138,M,40.592,M,2.1,0123*5E\r\n
$GPGGA,065707.95,5703.2821248,N,00952.3665920,E,2,5,3.0,-1.139,M,40.592,M,2.1,0123*53\r\n
$GPGGA,065708.00,5703.2821307,N,00952.3665772,E,2,5,3.0,-1.138,M,40.592,M,2.1,0123*52\r\n
$GPGGA,065708.05,5703.2821374,N,00952.3665586,E,2,5,3.0,-1.149,M,40.592,M,2.3,0123*5E\r\n
$GPGGA,065708.10,5703.2821428,N,00952.3665468,E,2,5,3.0,-1.149,M,40.592,M,2.3,0123*55\r\n
$GPGGA,065708.15,5703.2821486,N,00952.3665350,E,2,5,3.0,-1.148,M,40.592,M,2.3,0123*59\r\n
$GPGGA,065708.20,5703.2821525,N,00952.3665234,E,2,5,3.0,-1.147,M,40.592,M,2.3,0123*5B\r\n
$GPGGA,065708.25,5703.2821587,N,00952.3665029,E,2,5,3.0,-1.159,M,40.592,M,2.5,0123*51\r\n
$GPGGA,065708.30,5703.2821647,N,00952.3664892,E,2,5,3.0,-1.156,M,40.592,M,2.5,0123*5C\r\n
$GPGGA,065708.35,5703.2821721,N,00952.3664736,E,2,5,3.0,-1.159,M,40.592,M,2.5,0123*56\r\n
$GPGGA,065708.40,5703.2821778,N,00952.3664617,E,2,5,3.0,-1.163,M,40.592,M,2.5,0123*53\r\n
$GPGGA,065708.45,5703.2821882,N,00952.3664405,E,2,5,3.0,-1.164,M,40.592,M,2.7,0123*58\r\n
$GPGGA,065708.50,5703.2821927,N,00952.3664234,E,2,5,3.0,-1.160,M,40.592,M,2.7,0123*52\r\n
$GPGGA,065708.55,5703.2821971,N,00952.3664156,E,2,5,3.0,-1.157,M,40.592,M,2.7,0123*57\r\n
$GPGGA,065708.60,5703.2822023,N,00952.3664005,E,2,5,3.0,-1.155,M,40.592,M,2.7,0123*59\r\n
$GPGGA,065708.65,5703.2822108,N,00952.3663712,E,2,5,3.0,-1.174,M,40.592,M,2.9,0123*5F\r\n
$GPGGA,065708.70,5703.2822167,N,00952.3663581,E,2,5,3.0,-1.174,M,40.592,M,2.9,0123*5A\r\n
$GPGGA,065708.75,5703.2822225,N,00952.3663427,E,2,5,3.0,-1.175,M,40.592,M,2.9,0123*56\r\n
$GPGGA,065708.80,5703.2822290,N,00952.3663244,E,2,5,3.0,-1.177,M,40.592,M,2.9,0123*53\r\n
$GPGGA,065708.85,5703.2822389,N,00952.3663035,E,2,5,3.0,-1.181,M,40.592,M,3.1,0123*5B\r\n
$GPGGA,065708.90,5703.2822429,N,00952.3662913,E,2,5,3.0,-1.182,M,40.592,M,3.1,0123*5D\r\n
$GPGGA,065708.95,5703.2822493,N,00952.3662744,E,2,5,3.0,-1.186,M,40.592,M,3.1,0123*51\r\n
$GPGGA,065709.00,5703.2822553,N,00952.3662538,E,2,5,3.0,-1.187,M,40.592,M,3.1,0123*59\r\n
$GPGGA,065709.05,5703.2822598,N,00952.3662333,E,2,5,3.0,-1.183,M,40.592,M,2.0,0123*52\r\n
$GPGGA,065709.10,5703.2822639,N,00952.3662242,E,2,5,3.0,-1.181,M,40.592,M,2.0,0123*5B\r\n
$GPGGA,065709.15,5703.2822696,N,00952.3662122,E,2,5,3.0,-1.178,M,40.592,M,2.0,0123*58\r\n
$GPGGA,065709.20,5703.2822737,N,00952.3661996,E,2,5,3.0,-1.179,M,40.592,M,2.0,0123*51\r\n
$GPGGA,065709.25,5703.2822830,N,00952.3661744,E,2,5,3.0,-1.197,M,40.592,M,2.3,0123*5E\r\n
$GPGGA,065709.30,5703.2822869,N,00952.3661616,E,2,5,3.0,-1.196,M,40.592,M,2.3,0123*51\r\n
$GPGGA,065709.35,5703.2822931,N,00952.3661447,E,2,5,3.0,-1.195,M,40.592,M,2.3,0123*5D\r\n
$GPGGA,065709.40,5703.2822984,N,00952.3661314,E,2,5,3.0,-1.197,M,40.592,M,2.3,0123*52\r\n
$GPGGA,065709.45,5703.2823077,N,00952.3661134,E,2,5,3.0,-1.201,M,40.592,M,2.5,0123*59\r\n
$GPGGA,065709.50,5703.2823101,N,00952.3661063,E,2,5,3.0,-1.198,M,40.592,M,2.5,0123*5D\r\n
$GPGGA,065709.55,5703.2823150,N,00952.3660954,E,2,5,3.0,-1.196,M,40.592,M,2.5,0123*5E\r\n
$GPGGA,065709.60,5703.2823195,N,00952.3660890,E,2,5,3.0,-1.197,M,40.592,M,2.5,0123*59\r\n
$GPGGA,065709.65,5703.2823280,N,00952.3660660,E,2,5,3.0,-1.230,M,40.592,M,2.7,0123*56\r\n
$GPGGA,065709.70,5703.2823302,N,00952.3660568,E,2,5,3.0,-1.232,M,40.592,M,2.7,0123*50\r\n
$GPGGA,065709.75,5703.2823343,N,00952.3660447,E,2,5,3.0,-1.227,M,40.592,M,2.7,0123*58\r\n
$GPGGA,065709.80,5703.2823375,N,00952.3660314,E,2,5,3.0,-1.231,M,40.592,M,2.7,0123*51\r\n
$GPGGA,065709.85,5703.2823484,N,00952.3660136,E,2,5,3.0,-1.246,M,40.592,M,3.0,0123*59\r\n
$GPGGA,065709.90,5703.2823578,N,00952.3660039,E,2,5,3.0,-1.246,M,40.592,M,3.0,0123*51\r\n
$GPGGA,065709.95,5703.2823589,N,00952.3659962,E,2,5,3.0,-1.249,M,40.592,M,3.0,0123*58\r\n
$GPGGA,065710.00,5703.2823643,N,00952.3659826,E,2,5,3.0,-1.251,M,40.592,M,3.0,0123*51\r\n
$GPGGA,065710.05,5703.2823706,N,00952.3659639,E,2,5,3.0,-1.252,M,40.592,M,3.2,0123*55\r\n
$GPGGA,065710.10,5703.2823761,N,00952.3659532,E,2,5,3.0,-1.251,M,40.592,M,3.2,0123*5B\r\n
$GPGGA,065710.15,5703.2823755,N,00952.3659393,E,2,5,3.0,-1.253,M,40.592,M,3.2,0123*56\r\n
$GPGGA,065710.20,5703.2823802,N,00952.3659301,E,2,5,3.0,-1.251,M,40.592,M,3.2,0123*54\r\n
$GPGGA,065710.25,5703.2823933,N,00952.3659067,E,2,5,3.0,-1.272,M,40.592,M,3.4,0123*56\r\n
$GPGGA,065710.35,5703.2824018,N,00952.3658821,E\x00,2,5,3.0,-1.271,M,40.592,M,3.4,0123*58\r\n
$GPGGA,065713.15,5703.2826651,N,00952.3653232,E,2,5,3.0,-1.472,M,40.592,M,2.0,0123*53\r\n
$GPGGA,065713.20,5703.2826678,N,00952.3653134,E,2,5,3.0,-1.471,M,40.592,M,2.0,0123*58\r\n
$GPGGA,065713.25,5703.2826845,N,00952.3652916,E,2,5,3.0,-1.470,M,40.592,M,2.3,0123*56\r\n
$GPGGA,065713.30,5703.2826871,N,00952.3652784,E,2,5,3.0,-1.471,M,40.592,M,2.3,0123*51\r\n
$GPGGA,065713.35,5703.2826895,N,00952.3652658,E,2,5,3.0,-1.468,M,40.592,M,2.3,0123*56\r\n
$GPGGA,065713.40,5703.2826928,N,00952.3652538,E,2,5,3.0,-1.465,M,40.592,M,2.3,0123*5B\r\n
$GPGGA,065713.45,5703.2827108,N,00952.3652269,E,2,5,3.0,-1.484,M,40.592,M,2.5,0123*5F\r\n
$GPGGA,065713.50,5703.2827144,N,00952.3652128,E,2,5,3.0,-1.482,M,40.592,M,2.5,0123*53\r\n
$GPGGA,065713.55,5703.2827181,N,00952.3651967,E,2,5,3.0,-1.485,M,40.592,M,2.5,0123*58\r\n
$GPGGA,065713.60,5703.2827233,N,00952.3651795,E,2,5,3.0,-1.486,M,40.592,M,2.5,0123*54\r\n
$GPGGA,065713.65,5703.2827411,N,00952.3651558,E,2,5,3.0,-1.499,M,40.592,M,2.7,0123*58\r\n
$GPGGA,065713.70,5703.2827445,N,00952.3651414,E,2,5,3.0,-1.499,M,40.592,M,2.7,0123*54\r\n
$GPGGA,065713.75,5703.2827466,N,00952.3651339,E,2,5,3.0,-1.499,M,40.592,M,2.7,0123*58\r\n
$GPGGA,065713.80,5703.2827514,N,00952.3651187,E,2,5,3.0,-1.500,M,40.592,M,2.7,0123*50\r\n
$GPGGA,065713.85,5703.2827598,N,00952.3651001,E,2,5,3.0,-1.511,M,40.592,M,3.0,0123*58\r\n
$GPGGA,065713.90,5703.2827650,N,00952.3650859,E,2,5,3.0,-1.511,M,40.592,M,3.0,0123*5F\r\n
$GPGGA,065713.95,5703.2827685,N,00952.3650794,E,2,5,3.0,-1.512,M,40.592,M,3.0,0123*5F\r\n
$GPGGA,065714.00,5703.2827719,N,00952.3650691,E,2,5,3.0,-1.510,M,40.592,M,3.0,0123*56\r\n
$GPGGA,065714.05,5703.2827804,N,00952.3650501,E,2,5,3.0,-1.525,M,40.592,M,3.2,0123*5E\r\n
$GPGGA,065714.10,5703.2827845,N,00952.3650416,E,2,5,3.0,-1.524,M,40.592,M,3.2,0123*59\r\n
$GPGGA,065714.15,5703.2827879,N,00952.3650341,E,2,5,3.0,-1.523,M,40.592,M,3.2,0123*51\r\n
$GPGGA,065714.20,5703.2827926,N,00952.3650229,E,2,5,3.0,-1.525,M,40.592,M,3.2,0123*55\r\n
$GPGGA,065714.25,5703.2828041,N,00952.3649988,E,2,5,3.0,-1.541,M,40.592,M,3.4,0123*5B\r\n
$GPGGA,065714.30,5703.2828069,N,00952.3649919,E,2,5,3.0,-1.542,M,40.592,M,3.4,0123*5E\r\n
$GPGGA,065714.35,5703.2828099,N,00952.3649807,E,2,5,3.0,-1.541,M,40.592,M,3.4,0123*59\r\n
$GPGGA,065714.40,5703.2828127,N,00952.3649679,E,2,5,3.0,-1.540,M,40.592,M,3.4,0123*59\r\n
$GPGGA,065714.45,5703.2828156,N,00952.3649499,E,2,5,3.0,-1.552,M,40.592,M,3.6,0123*57\r\n
$GPGGA,065714.50,5703.2828205,N,00952.3649381,E,2,5,3.0,-1.551,M,40.592,M,3.6,0123*5B\r\n
$GPGGA,065714.55,5703.2828234,N,00952.3649371,E,2,5,3.0,-1.554,M,40.592,M,3.6,0123*56\r\n
$GPGGA,065714.60,5703.2828272,N,00952.3649288,E,2,5,3.0,-1.552,M,40.592,M,3.6,0123*53\r\n
$GPGGA,065714.65,5703.2828394,N,00952.3649056,E,2,5,3.0,-1.575,M,40.592,M,3.9,0123*54\r\n
$GPGGA,065714.70,5703.2828439,N,00952.3648936,E,2,5,3.0,-1.574,M,40.592,M,3.9,0123*5F\r\n
$GPGGA,065714.75,5703.2828492,N,00952.3648789,E,2,5,3.0,-1.573,M,40.592,M,3.9,0123*56\r\n
$GPGGA,065714.80,5703.2828521,N,00952.3648702,E,2,5,3.0,-1.572,M,40.592,M,3.9,0123*57\r\n
$GPGGA,065714.85,5703.2828668,N,00952.3648463,E,2,5,3.0,-1.590,M,40.592,M,4.1,0123*5B\r\n
$GPGGA,065714.90,5703.2828725,N,00952.3648329,E,2,5,3.0,-1.591,M,40.592,M,4.1,0123*5F\r\n
$GPGGA,065714.95,5703.2828781,N,00952.3648171,E,2,5,3.0,-1.592,M,40.592,M,4.1,0123*58\r\n
$GPGGA,065715.00,5703.2828816,N,00952.3648088,E,2,5,3.0,-1.596,M,40.592,M,4.1,0123*57\r\n
$GPGGA,065715.05,5703.2828889,N,00952.3647887,E,2,5,3.0,-1.597,M,40.592,M,1.2,0123*5B\r\n
$GPGGA,065715.10,5703.2828927,N,00952.3647764,E,2,5,3.0,-1.593,M,40.592,M,1.2,0123*5C\r\n
$GPGGA,065715.15,5703.2828972,N,00952.3647659,E,2,5,3.0,-1.590,M,40.592,M,1.2,0123*55\r\n
$GPGGA,065715.20,5703.2829025,N,00952.3647522,E,2,5,3.0,-1.587,M,40.592,M,1.2,0123*50\r\n
$GPGGA,065715.25,5703.2829212,N,00952.3647198,E,2,5,3.0,-1.622,M,40.592,M,1.4,0123*5C\r\n
$GPGGA,065715.30,5703.2829270,N,00952.3647045,E,2,5,3.0,-1.621,M,40.592,M,1.4,0123*5E\r\n
$GPGGA,065715.35,5703.2829310,N,00952.3646950,E,2,5,3.0,-1.618,M,40.592,M,1.4,0123*5A\r\n
$GPGGA,065715.40,5703.2829352,N,00952.3646883,E,2,5,3.0,-1.618,M,40.592,M,1.4,0123*51\r\n
$GPGGA,065715.45,5703.2829488,N,00952.3646607,E,2,5,3.0,-1.640,M,40.592,M,1.6,0123*59\r\n
$GPGGA,065715.50,5703.2829549,N,00952.3646441,E,2,5,3.0,-1.642,M,40.592,M,1.6,0123*53\r\n
$GPGGA,065715.55,5703.2829629,N,00952.3646274,E,2,5,3.0,-1.644,M,40.592,M,1.6,0123*55\r\n
$GPGGA,065715.60,5703.2829673,N,00952.3646163,E,2,5,3.0,-1.643,M,40.592,M,1.6,0123*5E\r\n
$GPGGA,065715.65,5703.2829799,N,00952.3645949,E,2,5,3.0,-1.654,M,40.592,M,1.9,0123*54\r\n
$GPGGA,065715.70,5703.2829851,N,00952.3645856,E,2,5,3.0,-1.653,M,40.592,M,1.9,0123*53\r\n
$GPGGA,065715.75,5703.2829877,N,00952.3645778,E,2,5,3.0,-1.656,M,40.592,M,1.9,0123*54\r\n
$GPGGA,065715.85,5703.2830000,N,00952.3645360,E\x00,2,5,3.0,-1.678,M,40.592,M,2.1,0123*51\r\n
$GPGGA,065718.65,5703.2833393,N,00952.3637404,E,2,5,3.0,-1.906,M,40.592,M,3.9,0123*57\r\n
$GPGGA,065718.70,5703.2833443,N,00952.3637245,E,2,5,3.0,-1.908,M,40.592,M,3.9,0123*54\r\n
$GPGGA,065718.75,5703.2833520,N,00952.3637075,E,2,5,3.0,-1.911,M,40.592,M,3.9,0123*5C\r\n
$GPGGA,065718.80,5703.2833570,N,00952.3636989,E,2,5,3.0,-1.915,M,40.592,M,3.9,0123*5C\r\n
$GPGGA,065718.85,5703.2833745,N,00952.3636797,E,2,5,3.0,-1.916,M,40.592,M,4.1,0123*50\r\n
$GPGGA,065718.90,5703.2833787,N,00952.3636702,E,2,5,3.0,-1.916,M,40.592,M,4.1,0123*56\r\n
$GPGGA,065718.95,5703.2833836,N,00952.3636577,E,2,5,3.0,-1.916,M,40.592,M,4.1,0123*56\r\n
$GPGGA,065719.00,5703.2833881,N,00952.3636510,E,2,5,3.0,-1.916,M,40.592,M,4.1,0123*56\r\n
$GPGGA,065719.05,5703.2834047,N,00952.3636261,E,2,5,3.0,-1.938,M,40.592,M,1.2,0123*5D\r\n
$GPGGA,065719.10,5703.2834098,N,00952.3636108,E,2,5,3.0,-1.940,M,40.592,M,1.2,0123*58\r\n
$GPGGA,065719.15,5703.2834148,N,00952.3635939,E,2,5,3.0,-1.937,M,40.592,M,1.2,0123*58\r\n
$GPGGA,065719.20,5703.2834186,N,00952.3635822,E,2,5,3.0,-1.934,M,40.592,M,1.2,0123*54\r\n
$GPGGA,065719.25,5703.2834303,N,00952.3635638,E,2,5,3.0,-1.937,M,40.592,M,1.4,0123*5E\r\n
$GPGGA,065719.30,5703.2834353,N,00952.3635538,E,2,5,3.0,-1.938,M,40.592,M,1.4,0123*53\r\n
$GPGGA,065719.35,5703.2834414,N,00952.3635422,E,2,5,3.0,-1.941,M,40.592,M,1.4,0123*56\r\n
$GPGGA,065719.40,5703.2834468,N,00952.3635301,E,2,5,3.0,-1.942,M,40.592,M,1.4,0123*5A\r\n
$GPGGA,065719.45,5703.2834568,N,00952.3635104,E,2,5,3.0,-1.953,M,40.592,M,1.6,0123*5B\r\n
$GPGGA,065719.50,5703.2834611,N,00952.3635071,E,2,5,3.0,-1.953,M,40.592,M,1.6,0123*51\r\n
$GPGGA,065719.55,5703.2834671,N,00952.3634953,E,2,5,3.0,-1.950,M,40.592,M,1.6,0123*59\r\n
$GPGGA,065719.60,5703.2834722,N,00952.3634859,E,2,5,3.0,-1.950,M,40.592,M,1.6,0123*53\r\n
$GPGGA,065719.65,5703.2834876,N,00952.3634580,E,2,5,3.0,-1.978,M,40.592,M,1.9,0123*54\r\n
$GPGGA,065719.70,5703.2834911,N,00952.3634438,E,2,5,3.0,-1.981,M,40.592,M,1.9,0123*54\r\n
$GPGGA,065719.75,5703.2834905,N,00952.3634310,E,2,5,3.0,-1.980,M,40.592,M,1.9,0123*58\r\n
$GPGGA,065719.80,5703.2834971,N,00952.3634254,E,2,5,3.0,-1.980,M,40.592,M,1.9,0123*50\r\n
$GPGGA,065719.85,5703.2835017,N,00952.3634191,E,2,5,3.0,-1.982,M,40.592,M,2.1,0123*5E\r\n
$GPGGA,065719.90,5703.2835066,N,00952.3634129,E,2,5,3.0,-1.986,M,40.592,M,2.1,0123*5B\r\n
$GPGGA,065719.95,5703.2835110,N,00952.3634035,E,2,5,3.0,-1.990,M,40.592,M,2.1,0123*55\r\n
$GPGGA,065720.00,5703.2835149,N,00952.3633940,E,2,5,3.0,-1.987,M,40.592,M,2.1,0123*55\r\n
$GPGGA,065720.05,5703.2835200,N,00952.3633872,E,2,5,3.0,-1.991,M,40.592,M,2.3,0123*5B\r\n
$GPGGA,065720.10,5703.2835234,N,00952.3633790,E,2,5,3.0,-1.984,M,40.592,M,2.3,0123*5F\r\n
$GPGGA,065720.15,5703.2835262,N,00952.3633740,E,2,5,3.0,-1.982,M,40.592,M,2.3,0123*52\r\n
$GPGGA,065720.20,5703.2835291,N,00952.3633694,E,2,5,3.0,-1.977,M,40.592,M,2.3,0123*5A\r\n
$GPGGA,065720.25,5703.2835370,N,00952.3633529,E,2,5,3.0,-2.000,M,40.592,M,2.5,0123*58\r\n
$GPGGA,065720.30,5703.2835403,N,00952.3633472,E,2,5,3.0,-2.002,M,40.592,M,2.5,0123*52\r\n
$GPGGA,065720.35,5703.2835437,N,00952.3633379,E,2,5,3.0,-2.000,M,40.592,M,2.5,0123*5E\r\n
$GPGGA,065720.40,5703.2835457,N,00952.3633332,E,2,5,3.0,-2.002,M,40.592,M,2.5,0123*57\r\n
$GPGGA,065720.45,5703.2835443,N,00952.3633256,E,2,5,3.0,-2.005,M,40.592,M,2.7,0123*51\r\n
$GPGGA,065720.50,5703.2835467,N,00952.3633206,E,2,5,3.0,-2.005,M,40.592,M,2.7,0123*56\r\n
$GPGGA,065720.55,5703.2835490,N,00952.3633161,E,2,5,3.0,-2.004,M,40.592,M,2.7,0123*58\r\n
$GPGGA,065720.60,5703.2835512,N,00952.3633111,E,2,5,3.0,-2.004,M,40.592,M,2.7,0123*52\r\n
$GPGGA,065720.65,5703.2835635,N,00952.3632948,E,2,5,3.0,-2.008,M,40.592,M,2.9,0123*56\r\n
$GPGGA,065720.70,5703.2835679,N,00952.3632886,E,2,5,3.0,-2.010,M,40.592,M,2.9,0123*50\r\n
$GPGGA,065720.75,5703.2835702,N,00952.3632874,E,2,5,3.0,-2.009,M,40.592,M,2.9,0123*5D\r\n
$GPGGA,065720.80,5703.2835723,N,00952.3632802,E,2,5,3.0,-2.007,M,40.592,M,2.9,0123*5B\r\n
$GPGGA,065720.85,5703.2835848,N,00952.3632648,E,2,5,3.0,-2.025,M,40.592,M,3.1,0123*55\r\n
$GPGGA,065720.90,5703.2835876,N,00952.3632547,E,2,5,3.0,-2.027,M,40.592,M,3.1,0123*52\r\n
$GPGGA,065720.95,5703.2835886,N,00952.3632452,E,2,5,3.0,-2.027,M,40.592,M,3.1,0123*5D\r\n
$GPGGA,065721.00,5703.2835904,N,00952.3632390,E,2,5,3.0,-2.034,M,40.592,M,3.1,0123*50\r\n
$GPGGA,065721.05,5703.2835929,N,00952.3632302,E,2,5,3.0,-2.027,M,40.592,M,2.0,0123*53\r\n
$GPGGA,065721.10,5703.2835954,N,00952.3632241,E,2,5,3.0,-2.026,M,40.592,M,2.0,0123*5A\r\n
$GPGGA,065721.15,5703.2835969,N,00952.3632156,E,2,5,3.0,-2.025,M,40.592,M,2.0,0123*57\r\n
$GPGGA,065721.20,5703.2835988,N,00952.3632089,E,2,5,3.0,-2.020,M,40.592,M,2.0,0123*58\r\n
$GPGGA,065721.25,5703.2836136,N,00952.3632006,E,2,5,3.0,-2.028,M,40.592,M,2.3,0123*5F\r\n
$GPGGA,065721.35,5703.2836192,N,00952.3631829,E\x00,2,5,3.0,-2.030,M,40.592,M,2.3,0123*5F\r\n
$GPGGA,065724.15,5703.2837461,N,00952.3630207,E,2,5,3.0,-2.072,M,40.592,M,2.3,0123*51\r\n
$GPGGA,065724.20,5703.2837454,N,00952.3630220,E,2,5,3.0,-2.072,M,40.592,M,2.3,0123*54\r\n
$GPGGA,065724.25,5703.2837494,N,00952.3630217,E,2,5,3.0,-2.075,M,40.592,M,2.5,0123*58\r\n
$GPGGA,065724.30,5703.2837487,N,00952.3630228,E,2,5,3.0,-2.076,M,40.592,M,2.5,0123*51\r\n
$GPGGA,065724.35,5703.2837481,N,00952.3630235,E,2,5,3.0,-2.076,M,40.592,M,2.5,0123*5E\r\n
$GPGGA,065724.40,5703.2837473,N,00952.3630242,E,2,5,3.0,-2.077,M,40.592,M,2.5,0123*50\r\n
$GPGGA,065724.45,5703.2837537,N,00952.3630160,E,2,5,3.0,-2.072,M,40.592,M,2.7,0123*50\r\n
$GPGGA,065724.50,5703.2837529,N,00952.3630168,E,2,5,3.0,-2.073,M,40.592,M,2.7,0123*52\r\n
$GPGGA,065724.55,5703.2837521,N,00952.3630173,E,2,5,3.0,-2.073,M,40.592,M,2.7,0123*55\r\n
$GPGGA,065724.60,5703.2837514,N,00952.3630174,E,2,5,3.0,-2.074,M,40.592,M,2.7,0123*55\r\n
$GPGGA,065724.65,5703.2837599,N,00952.3630241,E,2,5,3.0,-2.073,M,40.592,M,2.9,0123*59\r\n
$GPGGA,065724.70,5703.2837594,N,00952.3630247,E,2,5,3.0,-2.073,M,40.592,M,2.9,0123*56\r\n
$GPGGA,065724.75,5703.2837586,N,00952.3630245,E,2,5,3.0,-2.074,M,40.592,M,2.9,0123*55\r\n
$GPGGA,065724.80,5703.2837577,N,00952.3630247,E,2,5,3.0,-2.074,M,40.592,M,2.9,0123*53\r\n
$GPGGA,065724.85,5703.2837628,N,00952.3630247,E,2,5,3.0,-2.079,M,40.592,M,3.1,0123*5B\r\n
$GPGGA,065724.90,5703.2837621,N,00952.3630249,E,2,5,3.0,-2.079,M,40.592,M,3.1,0123*58\r\n
$GPGGA,065724.95,5703.2837615,N,00952.3630252,E,2,5,3.0,-2.079,M,40.592,M,3.1,0123*50\r\n
$GPGGA,065725.00,5703.2837608,N,00952.3630251,E,2,5,3.0,-2.079,M,40.592,M,3.1,0123*52\r\n
$GPGGA,065725.05,5703.2837690,N,00952.3630254,E,2,5,3.0,-2.063,M,40.592,M,2.0,0123*58\r\n
$GPGGA,065725.10,5703.2837652,N,00952.3630288,E,2,5,3.0,-2.064,M,40.592,M,2.0,0123*54\r\n
$GPGGA,065725.15,5703.2837642,N,00952.3630283,E,2,5,3.0,-2.064,M,40.592,M,2.0,0123*5B\r\n
$GPGGA,065725.20,5703.2837671,N,00952.3630257,E,2,5,3.0,-2.060,M,40.592,M,2.0,0123*50\r\n
$GPGGA,065725.25,5703.2837741,N,00952.3630243,E,2,5,3.0,-2.069,M,40.592,M,2.3,0123*58\r\n
$GPGGA,065725.30,5703.2837732,N,00952.3630237,E,2,5,3.0,-2.069,M,40.592,M,2.3,0123*5B\r\n
$GPGGA,065725.35,5703.2837724,N,00952.3630230,E,2,5,3.0,-2.070,M,40.592,M,2.3,0123*56\r\n
$GPGGA,065725.40,5703.2837718,N,00952.3630231,E,2,5,3.0,-2.069,M,40.592,M,2.3,0123*52\r\n
$GPGGA,065725.45,5703.2837765,N,00952.3630307,E,2,5,3.0,-2.073,M,40.592,M,2.5,0123*54\r\n
$GPGGA,065725.50,5703.2837757,N,00952.3630301,E,2,5,3.0,-2.073,M,40.592,M,2.5,0123*57\r\n
$GPGGA,065725.55,5703.2837751,N,00952.3630297,E,2,5,3.0,-2.073,M,40.592,M,2.5,0123*5A\r\n
$GPGGA,065725.60,5703.2837744,N,00952.3630293,E,2,5,3.0,-2.073,M,40.592,M,2.5,0123*5C\r\n
$GPGGA,065725.65,5703.2837841,N,00952.3630258,E,2,5,3.0,-2.057,M,40.592,M,2.7,0123*50\r\n
$GPGGA,065725.70,5703.2837836,N,00952.3630216,E,2,5,3.0,-2.059,M,40.592,M,2.7,0123*50\r\n
$GPGGA,065725.75,5703.2837833,N,00952.3630226,E,2,5,3.0,-2.057,M,40.592,M,2.7,0123*5D\r\n
$GPGGA,065725.80,5703.2837825,N,00952.3630262,E,2,5,3.0,-2.061,M,40.592,M,2.7,0123*55\r\n
$GPGGA,065725.85,5703.2837869,N,00952.3630274,E,2,5,3.0,-2.071,M,40.592,M,3.0,0123*58\r\n
$GPGGA,065725.90,5703.2837863,N,00952.3630272,E,2,5,3.0,-2.072,M,40.592,M,3.0,0123*53\r\n
$GPGGA,065725.95,5703.2837855,N,00952.3630272,E,2,5,3.0,-2.072,M,40.592,M,3.0,0123*53\r\n
$GPGGA,065726.00,5703.2837849,N,00952.3630266,E,2,5,3.0,-2.073,M,40.592,M,3.0,0123*55\r\n
$GPGGA,065726.05,5703.2837911,N,00952.3630295,E,2,5,3.0,-2.062,M,40.592,M,3.2,0123*52\r\n
$GPGGA,065726.10,5703.2837904,N,00952.3630296,E,2,5,3.0,-2.063,M,40.592,M,3.2,0123*50\r\n
$GPGGA,065726.15,5703.2837901,N,00952.3630298,E,2,5,3.0,-2.063,M,40.592,M,3.2,0123*5E\r\n
$GPGGA,065726.20,5703.2837896,N,00952.3630296,E,2,5,3.0,-2.064,M,40.592,M,3.2,0123*5E\r\n
$GPGGA,065726.25,5703.2837949,N,00952.3630343,E,2,5,3.0,-2.061,M,40.592,M,3.4,0123*52\r\n
$GPGGA,065726.30,5703.2837943,N,00952.3630340,E,2,5,3.0,-2.062,M,40.592,M,3.4,0123*5C\r\n
$GPGGA,065726.35,5703.2837939,N,00952.3630341,E,2,5,3.0,-2.063,M,40.592,M,3.4,0123*54\r\n
$GPGGA,065726.40,5703.2837937,N,00952.3630344,E,2,5,3.0,-2.063,M,40.592,M,3.4,0123*5D\r\n
$GPGGA,065726.45,5703.2837983,N,00952.3630321,E,2,5,3.0,-2.054,M,40.592,M,3.6,0123*52\r\n
$GPGGA,065726.50,5703.2837980,N,00952.3630319,E,2,5,3.0,-2.055,M,40.592,M,3.6,0123*5F\r\n
$GPGGA,065726.55,5703.2837981,N,00952.3630317,E,2,5,3.0,-2.055,M,40.592,M,3.6,0123*55\r\n
$GPGGA,065726.60,5703.2837975,N,00952.3630312,E,2,5,3.0,-2.055,M,40.592,M,3.6,0123*5D\r\n
$GPGGA,065726.65,5703.2838021,N,00952.3630292,E,2,5,3.0,-2.054,M,40.592,M,3.9,0123*58\r\n
$GPGGA,065726.70,5703.2838020,N,00952.3630289,E,2,5,3.0,-2.055,M,40.592,M,3.9,0123*56\r\n
$GPGGA,065726.75,5703.2838019,N,00952.3630285,E,2,5,3.0,-2.055,M,40.592,M,3.9,0123*55\r\n
$GPGGA,065726.85,5703.2838104,N,00952.3630321,E,2,5,3.0,-2.054,M,40.592,M,4.1,0123*56\r\n
$GPGGA,065729.70,5703.2838351,N,00952.3630711,E,2,5,3.0,-2.015,M,40.592,M,2.7,0123*53\r\n
$GPGGA,065729.75,5703.2838355,N,00952.3630716,E,2,5,3.0,-2.016,M,40.592,M,2.7,0123*56\r\n
$GPGGA,065729.80,5703.2838357,N,00952.3630717,E,2,5,3.0,-2.016,M,40.592,M,2.7,0123*5F\r\n
$GPGGA,065729.85,5703.2838434,N,00952.3630726,E,2,5,3.0,-1.999,M,40.592,M,3.0,0123*51\r\n
$GPGGA,065729.90,5703.2838437,N,00952.3630723,E,2,5,3.0,-2.000,M,40.592,M,3.0,0123*59\r\n
$GPGGA,065729.95,5703.2838439,N,00952.3630723,E,2,5,3.0,-2.001,M,40.592,M,3.0,0123*53\r\n
$GPGGA,065730.00,5703.2838442,N,00952.3630722,E,2,5,3.0,-2.001,M,40.592,M,3.0,0123*5A\r\n
$GPGGA,065730.05,5703.2838435,N,00952.3630720,E,2,5,3.0,-2.000,M,40.592,M,3.2,0123*5E\r\n
$GPGGA,065730.10,5703.2838439,N,00952.3630716,E,2,5,3.0,-2.001,M,40.592,M,3.2,0123*52\r\n
$GPGGA,065730.15,5703.2838443,N,00952.3630719,E,2,5,3.0,-2.001,M,40.592,M,3.2,0123*55\r\n
$GPGGA,065730.20,5703.2838444,N,00952.3630715,E,2,5,3.0,-2.002,M,40.592,M,3.2,0123*5B\r\n
$GPGGA,065730.25,5703.2838449,N,00952.3630737,E,2,5,3.0,-1.982,M,40.592,M,3.4,0123*57\r\n
$GPGGA,065730.30,5703.2838450,N,00952.3630735,E,2,5,3.0,-1.982,M,40.592,M,3.4,0123*59\r\n
$GPGGA,065730.35,5703.2838450,N,00952.3630735,E,2,5,3.0,-1.982,M,40.592,M,3.4,0123*5C\r\n
$GPGGA,065730.40,5703.2838454,N,00952.3630736,E,2,5,3.0,-1.983,M,40.592,M,3.4,0123*58\r\n
$GPGGA,065730.45,5703.2838487,N,00952.3630754,E,2,5,3.0,-1.987,M,40.592,M,3.6,0123*51\r\n
$GPGGA,065730.50,5703.2838488,N,00952.3630756,E,2,5,3.0,-1.986,M,40.592,M,3.6,0123*59\r\n
$GPGGA,065730.55,5703.2838490,N,00952.3630747,E,2,5,3.0,-1.986,M,40.592,M,3.6,0123*55\r\n
$GPGGA,065730.60,5703.2838491,N,00952.3630746,E,2,5,3.0,-1.987,M,40.592,M,3.6,0123*52\r\n
$GPGGA,065730.65,5703.2838506,N,00952.3630724,E,2,5,3.0,-1.983,M,40.592,M,3.9,0123*57\r\n
$GPGGA,065730.70,5703.2838508,N,00952.3630724,E,2,5,3.0,-1.983,M,40.592,M,3.9,0123*5D\r\n
$GPGGA,065730.75,5703.2838507,N,00952.3630726,E,2,5,3.0,-1.983,M,40.592,M,3.9,0123*55\r\n
$GPGGA,065730.80,5703.2838507,N,00952.3630719,E,2,5,3.0,-1.983,M,40.592,M,3.9,0123*53\r\n
$GPGGA,065730.85,5703.2838481,N,00952.3630790,E,2,5,3.0,-1.966,M,40.592,M,4.1,0123*5C\r\n
$GPGGA,065730.90,5703.2838476,N,00952.3630767,E,2,5,3.0,-1.966,M,40.592,M,4.1,0123*58\r\n
$GPGGA,065730.95,5703.2838504,N,00952.3630768,E,2,5,3.0,-1.966,M,40.592,M,4.1,0123*56\r\n
$GPGGA,065731.00,5703.2838501,N,00952.3630775,E,2,5,3.0,-1.965,M,40.592,M,4.1,0123*51\r\n
$GPGGA,065731.05,5703.2838524,N,00952.3630773,E,2,5,3.0,-1.960,M,40.592,M,1.2,0123*56\r\n
$GPGGA,065731.10,5703.2838525,N,00952.3630767,E,2,5,3.0,-1.959,M,40.592,M,1.2,0123*5C\r\n
$GPGGA,065731.15,5703.2838524,N,00952.3630762,E,2,5,3.0,-1.959,M,40.592,M,1.2,0123*5D\r\n
$GPGGA,065731.20,5703.2838523,N,00952.3630756,E,2,5,3.0,-1.959,M,40.592,M,1.2,0123*5B\r\n
$GPGGA,065731.25,5703.2838532,N,00952.3630810,E,2,5,3.0,-1.968,M,40.592,M,1.4,0123*57\r\n
$GPGGA,065731.30,5703.2838533,N,00952.3630808,E,2,5,3.0,-1.968,M,40.592,M,1.4,0123*5B\r\n
$GPGGA,065731.35,5703.2838530,N,00952.3630804,E,2,5,3.0,-1.968,M,40.592,M,1.4,0123*51\r\n
$GPGGA,065731.40,5703.2838529,N,00952.3630800,E,2,5,3.0,-1.968,M,40.592,M,1.4,0123*5F\r\n
$GPGGA,065731.45,5703.2838539,N,00952.3630823,E,2,5,3.0,-1.955,M,40.592,M,1.6,0123*56\r\n
$GPGGA,065731.50,5703.2838537,N,00952.3630828,E,2,5,3.0,-1.955,M,40.592,M,1.6,0123*57\r\n
$GPGGA,065731.55,5703.2838537,N,00952.3630822,E,2,5,3.0,-1.955,M,40.592,M,1.6,0123*58\r\n
$GPGGA,065731.60,5703.2838535,N,00952.3630821,E,2,5,3.0,-1.955,M,40.592,M,1.6,0123*5F\r\n
$GPGGA,065731.65,5703.2838626,N,00952.3630785,E,2,5,3.0,-1.943,M,40.592,M,1.9,0123*52\r\n
$GPGGA,065731.70,5703.2838622,N,00952.3630785,E,2,5,3.0,-1.943,M,40.592,M,1.9,0123*52\r\n
$GPGGA,065731.75,5703.2838621,N,00952.3630785,E,2,5,3.0,-1.943,M,40.592,M,1.9,0123*54\r\n
$GPGGA,065731.80,5703.2838620,N,00952.3630784,E,2,5,3.0,-1.942,M,40.592,M,1.9,0123*5F\r\n
$GPGGA,065731.85,5703.2838540,N,00952.3630864,E,2,5,3.0,-1.950,M,40.592,M,2.1,0123*56\r\n
$GPGGA,065731.90,5703.2838538,N,00952.3630866,E,2,5,3.0,-1.950,M,40.592,M,2.1,0123*5F\r\n
$GPGGA,065731.95,5703.2838536,N,00952.3630869,E,2,5,3.0,-1.949,M,40.592,M,2.1,0123*53\r\n
$GPGGA,065732.00,5703.2838528,N,00952.3630863,E,2,5,3.0,-1.950,M,40.592,M,2.1,0123*51\r\n
$GPGGA,065732.05,5703.2838561,N,00952.3630858,E,2,5,3.0,-1.955,M,40.592,M,2.3,0123*56\r\n
$GPGGA,065732.10,5703.2838630,N,00952.3630803,E,2,5,3.0,-1.955,M,40.592,M,2.3,0123*5B\r\n
$GPGGA,065732.15,5703.2838631,N,00952.3630810,E,2,5,3.0,-1.957,M,40.592,M,2.3,0123*5F\r\n
$GPGGA,065732.20,5703.2838600,N,00952.3630858,E,2,5,3.0,-1.960,M,40.592,M,2.3,0123*53\r\n
$GPGGA,065732.25,5703.2838625,N,00952.3630887,E,2,5,3.0,-1.943,M,40.592,M,2.5,0123*54\r\n
$GPGGA,065732.30,5703.2838624,N,00952.3630891,E,2,5,3.0,-1.943,M,40.592,M,2.5,0123*56\r\n
$GPGGA,065732.40,5703.2838623,N,00952.3630901,E,2,5,3.0,-1.942,M,40.592,M,2.5,0123*5F\r\n
$GPGGA,065735.25,5703.2839193,N,00952.3630591,E,2,5,3.0,-1.914,M,40.592,M,1.4,0123*52\r\n
$GPGGA,065735.30,5703.2839197,N,00952.3630591,E,2,5,3.0,-1.914,M,40.592,M,1.4,0123*52\r\n
$GPGGA,065735.35,5703.2839200,N,00952.3630593,E,2,5,3.0,-1.915,M,40.592,M,1.4,0123*59\r\n
$GPGGA,065735.40,5703.2839202,N,00952.3630598,E,2,5,3.0,-1.916,M,40.592,M,1.4,0123*51\r\n
$GPGGA,065735.45,5703.2839189,N,00952.3630553,E,2,5,3.0,-1.918,M,40.592,M,1.6,0123*5F\r\n
$GPGGA,065735.50,5703.2839191,N,00952.3630550,E,2,5,3.0,-1.919,M,40.592,M,1.6,0123*50\r\n
$GPGGA,065735.55,5703.2839194,N,00952.3630550,E,2,5,3.0,-1.919,M,40.592,M,1.6,0123*50\r\n
$GPGGA,065735.60,5703.2839194,N,00952.3630559,E,2,5,3.0,-1.920,M,40.592,M,1.6,0123*55\r\n
$GPGGA,065735.65,5703.2839254,N,00952.3630512,E,2,5,3.0,-1.917,M,40.592,M,1.9,0123*5B\r\n
$GPGGA,065735.70,5703.2839254,N,00952.3630519,E,2,5,3.0,-1.918,M,40.592,M,1.9,0123*5B\r\n
$GPGGA,065735.75,5703.2839257,N,00952.3630519,E,2,5,3.0,-1.918,M,40.592,M,1.9,0123*5D\r\n
$GPGGA,065735.80,5703.2839257,N,00952.3630517,E,2,5,3.0,-1.919,M,40.592,M,1.9,0123*58\r\n
$GPGGA,065735.85,5703.2839375,N,00952.3630451,E,2,5,3.0,-1.907,M,40.592,M,2.1,0123*5B\r\n
$GPGGA,065735.90,5703.2839354,N,00952.3630418,E,2,5,3.0,-1.908,M,40.592,M,2.1,0123*5E\r\n
$GPGGA,065735.95,5703.2839336,N,00952.3630420,E,2,5,3.0,-1.909,M,40.592,M,2.1,0123*55\r\n
$GPGGA,065736.00,5703.2839332,N,00952.3630411,E,2,5,3.0,-1.913,M,40.592,M,2.1,0123*57\r\n
$GPGGA,065736.05,5703.2839350,N,00952.3630374,E,2,5,3.0,-1.922,M,40.592,M,2.3,0123*52\r\n
$GPGGA,065736.10,5703.2839349,N,00952.3630377,E,2,5,3.0,-1.923,M,40.592,M,2.3,0123*5C\r\n
$GPGGA,065736.15,5703.2839345,N,00952.3630376,E,2,5,3.0,-1.924,M,40.592,M,2.3,0123*53\r\n
$GPGGA,065736.20,5703.2839343,N,00952.3630374,E,2,5,3.0,-1.925,M,40.592,M,2.3,0123*50\r\n
$GPGGA,065736.25,5703.2839427,N,00952.3630412,E,2,5,3.0,-1.922,M,40.592,M,2.5,0123*56\r\n
$GPGGA,065736.30,5703.2839423,N,00952.3630407,E,2,5,3.0,-1.923,M,40.592,M,2.5,0123*53\r\n
$GPGGA,065736.35,5703.2839421,N,00952.3630412,E,2,5,3.0,-1.923,M,40.592,M,2.5,0123*50\r\n
$GPGGA,065736.40,5703.2839418,N,00952.3630408,E,2,5,3.0,-1.924,M,40.592,M,2.5,0123*54\r\n
$GPGGA,065736.45,5703.2839485,N,00952.3630292,E,2,5,3.0,-1.923,M,40.592,M,2.7,0123*55\r\n
$GPGGA,065736.50,5703.2839484,N,00952.3630291,E,2,5,3.0,-1.923,M,40.592,M,2.7,0123*53\r\n
$GPGGA,065736.55,5703.2839483,N,00952.3630293,E,2,5,3.0,-1.924,M,40.592,M,2.7,0123*54\r\n
$GPGGA,065736.60,5703.2839481,N,00952.3630283,E,2,5,3.0,-1.925,M,40.592,M,2.7,0123*50\r\n
$GPGGA,065736.65,5703.2839597,N,00952.3630246,E,2,5,3.0,-1.917,M,40.592,M,2.9,0123*55\r\n
$GPGGA,065736.70,5703.2839597,N,00952.3630240,E,2,5,3.0,-1.917,M,40.592,M,2.9,0123*57\r\n
$GPGGA,065736.75,5703.2839597,N,00952.3630236,E,2,5,3.0,-1.917,M,40.592,M,2.9,0123*53\r\n
$GPGGA,065736.80,5703.2839595,N,00952.3630234,E,2,5,3.0,-1.918,M,40.592,M,2.9,0123*56\r\n
$GPGGA,065736.85,5703.2839518,N,00952.3630322,E,2,5,3.0,-1.925,M,40.592,M,3.1,0123*57\r\n
$GPGGA,065736.90,5703.2839515,N,00952.3630321,E,2,5,3.0,-1.926,M,40.592,M,3.1,0123*5E\r\n
$GPGGA,065736.95,5703.2839514,N,00952.3630321,E,2,5,3.0,-1.926,M,40.592,M,3.1,0123*5A\r\n
$GPGGA,065737.00,5703.2839510,N,00952.3630319,E,2,5,3.0,-1.926,M,40.592,M,3.1,0123*58\r\n
$GPGGA,065737.05,5703.2839629,N,00952.3630287,E,2,5,3.0,-1.913,M,40.592,M,2.0,0123*54\r\n
$GPGGA,065737.10,5703.2839627,N,00952.3630284,E,2,5,3.0,-1.913,M,40.592,M,2.0,0123*5D\r\n
$GPGGA,065737.15,5703.2839624,N,00952.3630287,E,2,5,3.0,-1.913,M,40.592,M,2.0,0123*58\r\n
$GPGGA,065737.20,5703.2839624,N,00952.3630287,E,2,5,3.0,-1.913,M,40.592,M,2.0,0123*5E\r\n
$GPGGA,065737.25,5703.2839664,N,00952.3630218,E,2,5,3.0,-1.921,M,40.592,M,2.3,0123*5B\r\n
$GPGGA,065737.30,5703.2839662,N,00952.3630217,E,2,5,3.0,-1.921,M,40.592,M,2.3,0123*56\r\n
$GPGGA,065737.35,5703.2839658,N,00952.3630216,E,2,5,3.0,-1.921,M,40.592,M,2.3,0123*5B\r\n
$GPGGA,065737.40,5703.2839655,N,00952.3630215,E,2,5,3.0,-1.921,M,40.592,M,2.3,0123*57\r\n
$GPGGA,065737.45,5703.2839657,N,00952.3630215,E,2,5,3.0,-1.933,M,40.592,M,2.5,0123*55\r\n
$GPGGA,065737.50,5703.2839654,N,00952.3630220,E,2,5,3.0,-1.933,M,40.592,M,2.5,0123*54\r\n
$GPGGA,065737.55,5703.2839650,N,00952.3630222,E,2,5,3.0,-1.934,M,40.592,M,2.5,0123*50\r\n
$GPGGA,065737.60,5703.2839648,N,00952.3630220,E,2,5,3.0,-1.934,M,40.592,M,2.5,0123*5D\r\n
$GPGGA,065737.65,5703.2839790,N,00952.3630174,E,2,5,3.0,-1.925,M,40.592,M,2.7,0123*5C\r\n
$GPGGA,065737.70,5703.2839789,N,00952.3630172,E,2,5,3.0,-1.924,M,40.592,M,2.7,0123*57\r\n
$GPGGA,065737.75,5703.2839787,N,00952.3630174,E,2,5,3.0,-1.924,M,40.592,M,2.7,0123*5A\r\n
$GPGGA,065737.80,5703.2839785,N,00952.3630175,E,2,5,3.0,-1.924,M,40.592,M,2.7,0123*53\r\n
$GPGGA,065737.85,5703.2839815,N,00952.3630176,E,2,5,3.0,-1.925,M,40.592,M,3.0,0123*54\r\n
$GPGGA,065737.95,5703.2839812,N,00952.3630177,E\x00,2,5,3.0,-1.924,M,40.592,M,3.0,0123*52\r\n
$GPGGA,065740.80,5703.2840344,N,00952.3630057,E,2,5,3.0,-1.937,M,40.592,M,2.9,0123*59\r\n
$GPGGA,065740.85,5703.2840441,N,00952.3630018,E,2,5,3.0,-1.920,M,40.592,M,3.1,0123*5A\r\n
$GPGGA,065740.90,5703.2840446,N,00952.3630020,E,2,5,3.0,-1.920,M,40.592,M,3.1,0123*52\r\n
$GPGGA,065740.95,5703.2840449,N,00952.3630020,E,2,5,3.0,-1.921,M,40.592,M,3.1,0123*59\r\n
$GPGGA,065741.00,5703.2840454,N,00952.3630017,E,2,5,3.0,-1.922,M,40.592,M,3.1,0123*5F\r\n
$GPGGA,065741.05,5703.2840486,N,00952.3630011,E,2,5,3.0,-1.915,M,40.592,M,2.0,0123*57\r\n
$GPGGA,065741.10,5703.2840491,N,00952.3630013,E,2,5,3.0,-1.915,M,40.592,M,2.0,0123*57\r\n
$GPGGA,065741.15,5703.2840496,N,00952.3630013,E,2,5,3.0,-1.916,M,40.592,M,2.0,0123*56\r\n
$GPGGA,065741.20,5703.2840502,N,00952.3630017,E,2,5,3.0,-1.916,M,40.592,M,2.0,0123*58\r\n
$GPGGA,065741.25,5703.2840492,N,00952.3630074,E,2,5,3.0,-1.913,M,40.592,M,2.3,0123*56\r\n
$GPGGA,065741.30,5703.2840497,N,00952.3630072,E,2,5,3.0,-1.913,M,40.592,M,2.3,0123*51\r\n
$GPGGA,065741.35,5703.2840502,N,00952.3630080,E,2,5,3.0,-1.913,M,40.592,M,2.3,0123*54\r\n
$GPGGA,065741.40,5703.2840504,N,00952.3630083,E,2,5,3.0,-1.914,M,40.592,M,2.3,0123*54\r\n
$GPGGA,065741.45,5703.2840513,N,00952.3630071,E,2,5,3.0,-1.917,M,40.592,M,2.5,0123*5F\r\n
$GPGGA,065741.50,5703.2840517,N,00952.3630070,E,2,5,3.0,-1.917,M,40.592,M,2.5,0123*5E\r\n
$GPGGA,065741.55,5703.2840521,N,00952.3630076,E,2,5,3.0,-1.918,M,40.592,M,2.5,0123*57\r\n
$GPGGA,065741.60,5703.2840524,N,00952.3630084,E,2,5,3.0,-1.918,M,40.592,M,2.5,0123*59\r\n
$GPGGA,065741.65,5703.2840574,N,00952.3630057,E,2,5,3.0,-1.910,M,40.592,M,2.7,0123*5D\r\n
$GPGGA,065741.70,5703.2840579,N,00952.3630059,E,2,5,3.0,-1.910,M,40.592,M,2.7,0123*5A\r\n
$GPGGA,065741.75,5703.2840580,N,00952.3630057,E,2,5,3.0,-1.910,M,40.592,M,2.7,0123*57\r\n
$GPGGA,065741.80,5703.2840581,N,00952.3630061,E,2,5,3.0,-1.911,M,40.592,M,2.7,0123*58\r\n
$GPGGA,065741.85,5703.2840595,N,00952.3630028,E,2,5,3.0,-1.915,M,40.592,M,3.0,0123*57\r\n
$GPGGA,065741.90,5703.2840596,N,00952.3630026,E,2,5,3.0,-1.916,M,40.592,M,3.0,0123*5D\r\n
$GPGGA,065741.95,5703.2840600,N,00952.3630027,E,2,5,3.0,-1.916,M,40.592,M,3.0,0123*55\r\n
$GPGGA,065742.00,5703.2840601,N,00952.3630028,E,2,5,3.0,-1.916,M,40.592,M,3.0,0123*54\r\n
$GPGGA,065742.05,5703.2840666,N,00952.3630067,E,2,5,3.0,-1.903,M,40.592,M,3.2,0123*5D\r\n
$GPGGA,065742.10,5703.2840668,N,00952.3630068,E,2,5,3.0,-1.903,M,40.592,M,3.2,0123*58\r\n
$GPGGA,065742.15,5703.2840668,N,00952.3630070,E,2,5,3.0,-1.903,M,40.592,M,3.2,0123*54\r\n
$GPGGA,065742.20,5703.2840669,N,00952.3630067,E,2,5,3.0,-1.904,M,40.592,M,3.2,0123*52\r\n
$GPGGA,065742.25,5703.2840616,N,00952.3630065,E,2,5,3.0,-1.907,M,40.592,M,3.4,0123*58\r\n
$GPGGA,065742.30,5703.2840616,N,00952.3630066,E,2,5,3.0,-1.907,M,40.592,M,3.4,0123*5F\r\n
$GPGGA,065742.35,5703.2840615,N,00952.3630063,E,2,5,3.0,-1.908,M,40.592,M,3.4,0123*53\r\n
$GPGGA,065742.40,5703.2840613,N,00952.3630063,E,2,5,3.0,-1.908,M,40.592,M,3.4,0123*57\r\n
$GPGGA,065742.45,5703.2840648,N,00952.3630079,E,2,5,3.0,-1.912,M,40.592,M,3.6,0123*5E\r\n
$GPGGA,065742.50,5703.2840646,N,00952.3630078,E,2,5,3.0,-1.912,M,40.592,M,3.6,0123*55\r\n
$GPGGA,065742.55,5703.2840645,N,00952.3630077,E,2,5,3.0,-1.913,M,40.592,M,3.6,0123*5D\r\n
$GPGGA,065742.60,5703.2840643,N,00952.3630072,E,2,5,3.0,-1.913,M,40.592,M,3.6,0123*58\r\n
$GPGGA,065742.65,5703.2840759,N,00952.3630014,E,2,5,3.0,-1.907,M,40.592,M,3.9,0123*5D\r\n
$GPGGA,065742.70,5703.2840758,N,00952.3630009,E,2,5,3.0,-1.908,M,40.592,M,3.9,0123*5B\r\n
$GPGGA,065742.75,5703.2840757,N,00952.3630001,E,2,5,3.0,-1.908,M,40.592,M,3.9,0123*59\r\n
$GPGGA,065742.80,5703.2840757,N,00952.3629992,E,2,5,3.0,-1.909,M,40.592,M,3.9,0123*59\r\n
$GPGGA,065742.85,5703.2840830,N,00952.3629961,E,2,5,3.0,-1.899,M,40.592,M,4.1,0123*59\r\n
$GPGGA,065742.90,5703.2840830,N,00952.3629955,E,2,5,3.0,-1.899,M,40.592,M,4.1,0123*5A\r\n
$GPGGA,065742.95,5703.2840830,N,00952.3629950,E,2,5,3.0,-1.900,M,40.592,M,4.1,0123*5B\r\n
$GPGGA,065743.00,5703.2840831,N,00952.3629940,E,2,5,3.0,-1.900,M,40.592,M,4.1,0123*56\r\n
$GPGGA,065743.05,5703.2840802,N,00952.3630103,E,2,5,3.0,-1.896,M,40.592,M,1.2,0123*5C\r\n
$GPGGA,065743.10,5703.2840802,N,00952.3630100,E,2,5,3.0,-1.897,M,40.592,M,1.2,0123*5A\r\n
$GPGGA,065743.15,5703.2840803,N,00952.3630093,E,2,5,3.0,-1.897,M,40.592,M,1.2,0123*55\r\n
$GPGGA,065743.20,5703.2840801,N,00952.3630092,E,2,5,3.0,-1.897,M,40.592,M,1.2,0123*50\r\n
$GPGGA,065743.25,5703.2840823,N,00952.3630101,E,2,5,3.0,-1.895,M,40.592,M,1.4,0123*5A\r\n
$GPGGA,065743.30,5703.2840822,N,00952.3630099,E,2,5,3.0,-1.895,M,40.592,M,1.4,0123*5F\r\n
$GPGGA,065743.35,5703.2840821,N,00952.3630101,E,2,5,3.0,-1.895,M,40.592,M,1.4,0123*59\r\n
$GPGGA,065743.40,5703.2840820,N,00952.3630101,E,2,5,3.0,-1.896,M,40.592,M,1.4,0123*59\r\n
$GPGGA,065743.45,5703.2840826,N,00952.3630189,E,2,5,3.0,-1.886,M,40.592,M,1.6,0123*59\r\n
$GPGGA,065743.55,5703.2840821,N,00952.3630192,E\x00,2,5,3.0,-1.887,M,40.592,M,1.6,0123*54\r\n
$GPGGA,065746.40,5703.2841081,N,00952.3630352,E,2,5,3.0,-1.824,M,40.592,M,3.4,0123*51\r\n
$GPGGA,065746.45,5703.2841084,N,00952.3630477,E,2,5,3.0,-1.811,M,40.592,M,3.6,0123*55\r\n
$GPGGA,065746.50,5703.2841087,N,00952.3630472,E,2,5,3.0,-1.811,M,40.592,M,3.6,0123*57\r\n
$GPGGA,065746.55,5703.2841091,N,00952.3630464,E,2,5,3.0,-1.811,M,40.592,M,3.6,0123*52\r\n
$GPGGA,065746.60,5703.2841095,N,00952.3630456,E,2,5,3.0,-1.811,M,40.592,M,3.6,0123*51\r\n
$GPGGA,065746.65,5703.2841119,N,00952.3630400,E,2,5,3.0,-1.805,M,40.592,M,3.9,0123*58\r\n
$GPGGA,065746.70,5703.2841122,N,00952.3630394,E,2,5,3.0,-1.805,M,40.592,M,3.9,0123*5E\r\n
$GPGGA,065746.75,5703.2841126,N,00952.3630384,E,2,5,3.0,-1.805,M,40.592,M,3.9,0123*5E\r\n
$GPGGA,065746.80,5703.2841130,N,00952.3630377,E,2,5,3.0,-1.805,M,40.592,M,3.9,0123*5F\r\n
$GPGGA,065746.85,5703.2841103,N,00952.3630442,E,2,5,3.0,-1.795,M,40.592,M,4.1,0123*52\r\n
$GPGGA,065746.90,5703.2841107,N,00952.3630438,E,2,5,3.0,-1.796,M,40.592,M,4.1,0123*5C\r\n
$GPGGA,065746.95,5703.2841110,N,00952.3630437,E,2,5,3.0,-1.796,M,40.592,M,4.1,0123*50\r\n
$GPGGA,065747.00,5703.2841114,N,00952.3630431,E,2,5,3.0,-1.796,M,40.592,M,4.1,0123*5F\r\n
$GPGGA,065747.05,5703.2841085,N,00952.3630528,E,2,5,3.0,-1.791,M,40.592,M,1.2,0123*5B\r\n
$GPGGA,065747.10,5703.2841088,N,00952.3630525,E,2,5,3.0,-1.791,M,40.592,M,1.2,0123*5F\r\n
$GPGGA,065747.15,5703.2841090,N,00952.3630520,E,2,5,3.0,-1.791,M,40.592,M,1.2,0123*56\r\n
$GPGGA,065747.20,5703.2841092,N,00952.3630519,E,2,5,3.0,-1.791,M,40.592,M,1.2,0123*58\r\n
$GPGGA,065747.25,5703.2841117,N,00952.3630500,E,2,5,3.0,-1.777,M,40.592,M,1.4,0123*57\r\n
$GPGGA,065747.30,5703.2841117,N,00952.3630498,E,2,5,3.0,-1.778,M,40.592,M,1.4,0123*5C\r\n
$GPGGA,065747.35,5703.2841123,N,00952.3630496,E,2,5,3.0,-1.777,M,40.592,M,1.4,0123*5F\r\n
$GPGGA,065747.40,5703.2841125,N,00952.3630491,E,2,5,3.0,-1.777,M,40.592,M,1.4,0123*5C\r\n
$GPGGA,065747.45,5703.2841180,N,00952.3630471,E,2,5,3.0,-1.773,M,40.592,M,1.6,0123*5E\r\n
$GPGGA,065747.50,5703.2841181,N,00952.3630470,E,2,5,3.0,-1.773,M,40.592,M,1.6,0123*5A\r\n
$GPGGA,065747.55,5703.2841186,N,00952.3630467,E,2,5,3.0,-1.772,M,40.592,M,1.6,0123*5F\r\n
$GPGGA,065747.60,5703.2841188,N,00952.3630463,E,2,5,3.0,-1.772,M,40.592,M,1.6,0123*53\r\n
$GPGGA,065747.65,5703.2841106,N,00952.3630544,E,2,5,3.0,-1.770,M,40.592,M,1.9,0123*59\r\n
$GPGGA,065747.70,5703.2841108,N,00952.3630542,E,2,5,3.0,-1.770,M,40.592,M,1.9,0123*55\r\n
$GPGGA,065747.75,5703.2841111,N,00952.3630539,E,2,5,3.0,-1.770,M,40.592,M,1.9,0123*54\r\n
$GPGGA,065747.80,5703.2841110,N,00952.3630538,E,2,5,3.0,-1.769,M,40.592,M,1.9,0123*56\r\n
$GPGGA,065747.85,5703.2841106,N,00952.3630557,E,2,5,3.0,-1.767,M,40.592,M,2.1,0123*58\r\n
$GPGGA,065747.90,5703.2841108,N,00952.3630558,E,2,5,3.0,-1.767,M,40.592,M,2.1,0123*5D\r\n
$GPGGA,065747.95,5703.2841110,N,00952.3630554,E,2,5,3.0,-1.767,M,40.592,M,2.1,0123*5D\r\n
$GPGGA,065748.00,5703.2841109,N,00952.3630551,E,2,5,3.0,-1.767,M,40.592,M,2.1,0123*53\r\n
$GPGGA,065748.05,5703.2841210,N,00952.3630485,E,2,5,3.0,-1.753,M,40.592,M,2.3,0123*50\r\n
$GPGGA,065748.10,5703.2841186,N,00952.3630513,E,2,5,3.0,-1.753,M,40.592,M,2.3,0123*56\r\n
$GPGGA,065748.15,5703.2841172,N,00952.3630524,E,2,5,3.0,-1.751,M,40.592,M,2.3,0123*5E\r\n
$GPGGA,065748.20,5703.2841189,N,00952.3630517,E,2,5,3.0,-1.749,M,40.592,M,2.3,0123*55\r\n
$GPGGA,065748.25,5703.2841156,N,00952.3630585,E,2,5,3.0,-1.752,M,40.592,M,2.5,0123*55\r\n
$GPGGA,065748.30,5703.2841151,N,00952.3630589,E,2,5,3.0,-1.752,M,40.592,M,2.5,0123*5A\r\n
$GPGGA,065748.35,5703.2841148,N,00952.3630593,E,2,5,3.0,-1.753,M,40.592,M,2.5,0123*5D\r\n
$GPGGA,065748.40,5703.2841146,N,00952.3630591,E,2,5,3.0,-1.753,M,40.592,M,2.5,0123*53\r\n
$GPGGA,065748.45,5703.2841210,N,00952.3630528,E,2,5,3.0,-1.750,M,40.592,M,2.7,0123*55\r\n
$GPGGA,065748.50,5703.2841206,N,00952.3630526,E,2,5,3.0,-1.751,M,40.592,M,2.7,0123*59\r\n
$GPGGA,065748.55,5703.2841204,N,00952.3630525,E,2,5,3.0,-1.751,M,40.592,M,2.7,0123*5D\r\n
$GPGGA,065748.60,5703.2841200,N,00952.3630518,E,2,5,3.0,-1.752,M,40.592,M,2.7,0123*52\r\n
$GPGGA,065748.65,5703.2841194,N,00952.3630493,E,2,5,3.0,-1.754,M,40.592,M,2.9,0123*53\r\n
$GPGGA,065748.70,5703.2841192,N,00952.3630497,E,2,5,3.0,-1.754,M,40.592,M,2.9,0123*55\r\n
$GPGGA,065748.75,5703.2841187,N,00952.3630489,E,2,5,3.0,-1.756,M,40.592,M,2.9,0123*59\r\n
$GPGGA,065748.80,5703.2841181,N,00952.3630484,E,2,5,3.0,-1.757,M,40.592,M,2.9,0123*59\r\n
$GPGGA,065748.85,5703.2841150,N,00952.3630657,E,2,5,3.0,-1.751,M,40.592,M,3.1,0123*53\r\n
$GPGGA,065748.90,5703.2841146,N,00952.3630654,E,2,5,3.0,-1.752,M,40.592,M,3.1,0123*50\r\n
$GPGGA,065748.95,5703.2841142,N,00952.3630657,E,2,5,3.0,-1.753,M,40.592,M,3.1,0123*53\r\n
$GPGGA,065749.00,5703.2841139,N,00952.3630660,E,2,5,3.0,-1.754,M,40.592,M,3.1,0123*51\r\n
$GPGGA,065749.05,5703.2841260,N,00952.3630648,E,2,5,3.0,-1.728,M,40.592,M,2.0,0123*5A\r\n
$GPGGA,065749.15,5703.2841215,N,00952.3630611,E\x00,2,5,3.0,-1.728,M,40.592,M,2.0,0123*55\r\n
$GPGGA,065752.00,5703.2841279,N,00952.3630878,E,2,5,3.0,-1.678,M,40.592,M,2.1,0123*55\r\n
$GPGGA,065752.05,5703.2841329,N,00952.3630817,E,2,5,3.0,-1.665,M,40.592,M,2.3,0123*53\r\n
$GPGGA,065752.10,5703.2841332,N,00952.3630815,E,2,5,3.0,-1.664,M,40.592,M,2.3,0123*5E\r\n
$GPGGA,065752.15,5703.2841332,N,00952.3630817,E,2,5,3.0,-1.664,M,40.592,M,2.3,0123*59\r\n
$GPGGA,065752.20,5703.2841333,N,00952.3630822,E,2,5,3.0,-1.664,M,40.592,M,2.3,0123*58\r\n
$GPGGA,065752.25,5703.2841330,N,00952.3630803,E,2,5,3.0,-1.676,M,40.592,M,2.5,0123*58\r\n
$GPGGA,065752.30,5703.2841348,N,00952.3630801,E,2,5,3.0,-1.678,M,40.592,M,2.5,0123*5F\r\n
$GPGGA,065752.35,5703.2841339,N,00952.3630783,E,2,5,3.0,-1.686,M,40.592,M,2.5,0123*58\r\n
$GPGGA,065752.40,5703.2841349,N,00952.3630771,E,2,5,3.0,-1.686,M,40.592,M,2.5,0123*50\r\n
$GPGGA,065752.45,5703.2841359,N,00952.3630782,E,2,5,3.0,-1.669,M,40.592,M,2.7,0123*5B\r\n
$GPGGA,065752.50,5703.2841363,N,00952.3630778,E,2,5,3.0,-1.669,M,40.592,M,2.7,0123*53\r\n
$GPGGA,065752.55,5703.2841368,N,00952.3630772,E,2,5,3.0,-1.669,M,40.592,M,2.7,0123*57\r\n
$GPGGA,065752.60,5703.2841376,N,00952.3630772,E,2,5,3.0,-1.669,M,40.592,M,2.7,0123*5E\r\n
$GPGGA,065752.65,5703.2841382,N,00952.3630823,E,2,5,3.0,-1.664,M,40.592,M,2.9,0123*58\r\n
$GPGGA,065752.70,5703.2841386,N,00952.3630817,E,2,5,3.0,-1.664,M,40.592,M,2.9,0123*5F\r\n
$GPGGA,065752.75,5703.2841392,N,00952.3630808,E,2,5,3.0,-1.664,M,40.592,M,2.9,0123*51\r\n
$GPGGA,065752.80,5703.2841402,N,00952.3630808,E,2,5,3.0,-1.664,M,40.592,M,2.9,0123*55\r\n
$GPGGA,065752.85,5703.2841419,N,00952.3630795,E,2,5,3.0,-1.658,M,40.592,M,3.1,0123*57\r\n
$GPGGA,065752.90,5703.2841425,N,00952.3630788,E,2,5,3.0,-1.658,M,40.592,M,3.1,0123*50\r\n
$GPGGA,065752.95,5703.2841431,N,00952.3630784,E,2,5,3.0,-1.658,M,40.592,M,3.1,0123*5C\r\n
$GPGGA,065753.00,5703.2841440,N,00952.3630780,E,2,5,3.0,-1.658,M,40.592,M,3.1,0123*53\r\n
$GPGGA,065753.05,5703.2841339,N,00952.3630832,E,2,5,3.0,-1.662,M,40.592,M,2.0,0123*50\r\n
$GPGGA,065753.10,5703.2841343,N,00952.3630826,E,2,5,3.0,-1.662,M,40.592,M,2.0,0123*5C\r\n
$GPGGA,065753.15,5703.2841350,N,00952.3630823,E,2,5,3.0,-1.662,M,40.592,M,2.0,0123*5E\r\n
$GPGGA,065753.20,5703.2841357,N,00952.3630820,E,2,5,3.0,-1.662,M,40.592,M,2.0,0123*5C\r\n
$GPGGA,065753.25,5703.2841455,N,00952.3630777,E,2,5,3.0,-1.645,M,40.592,M,2.3,0123*57\r\n
$GPGGA,065753.30,5703.2841433,N,00952.3630803,E,2,5,3.0,-1.646,M,40.592,M,2.3,0123*5C\r\n
$GPGGA,065753.35,5703.2841422,N,00952.3630761,E,2,5,3.0,-1.646,M,40.592,M,2.3,0123*52\r\n
$GPGGA,065753.40,5703.2841421,N,00952.3630831,E,2,5,3.0,-1.644,M,40.592,M,2.3,0123*5B\r\n
$GPGGA,065753.45,5703.2841418,N,00952.3630813,E,2,5,3.0,-1.647,M,40.592,M,2.5,0123*51\r\n
$GPGGA,065753.50,5703.2841421,N,00952.3630808,E,2,5,3.0,-1.648,M,40.592,M,2.5,0123*5A\r\n
$GPGGA,065753.55,5703.2841424,N,00952.3630805,E,2,5,3.0,-1.648,M,40.592,M,2.5,0123*57\r\n
$GPGGA,065753.60,5703.2841428,N,00952.3630803,E,2,5,3.0,-1.649,M,40.592,M,2.5,0123*5A\r\n
$GPGGA,065753.65,5703.2841429,N,00952.3630782,E,2,5,3.0,-1.648,M,40.592,M,2.7,0123*5B\r\n
$GPGGA,065753.70,5703.2841432,N,00952.3630779,E,2,5,3.0,-1.648,M,40.592,M,2.7,0123*51\r\n
$GPGGA,065753.75,5703.2841433,N,00952.3630773,E,2,5,3.0,-1.649,M,40.592,M,2.7,0123*5E\r\n
$GPGGA,065753.80,5703.2841435,N,00952.3630773,E,2,5,3.0,-1.649,M,40.592,M,2.7,0123*52\r\n
$GPGGA,065753.85,5703.2841424,N,00952.3630808,E,2,5,3.0,-1.643,M,40.592,M,3.0,0123*58\r\n
$GPGGA,065753.90,5703.2841426,N,00952.3630805,E,2,5,3.0,-1.643,M,40.592,M,3.0,0123*53\r\n
$GPGGA,065753.95,5703.2841428,N,00952.3630801,E,2,5,3.0,-1.644,M,40.592,M,3.0,0123*5B\r\n
$GPGGA,065754.00,5703.2841429,N,00952.3630800,E,2,5,3.0,-1.645,M,40.592,M,3.0,0123*51\r\n
$GPGGA,065754.05,5703.2841476,N,00952.3630809,E,2,5,3.0,-1.641,M,40.592,M,3.2,0123*51\r\n
$GPGGA,065754.10,5703.2841477,N,00952.3630807,E,2,5,3.0,-1.642,M,40.592,M,3.2,0123*59\r\n
$GPGGA,065754.15,5703.2841478,N,00952.3630805,E,2,5,3.0,-1.643,M,40.592,M,3.2,0123*50\r\n
$GPGGA,065754.20,5703.2841480,N,00952.3630801,E,2,5,3.0,-1.644,M,40.592,M,3.2,0123*52\r\n
$GPGGA,065754.25,5703.2841474,N,00952.3630830,E,2,5,3.0,-1.636,M,40.592,M,3.4,0123*5D\r\n
$GPGGA,065754.30,5703.2841474,N,00952.3630831,E,2,5,3.0,-1.637,M,40.592,M,3.4,0123*59\r\n
$GPGGA,065754.35,5703.2841476,N,00952.3630828,E,2,5,3.0,-1.637,M,40.592,M,3.4,0123*56\r\n
$GPGGA,065754.40,5703.2841475,N,00952.3630826,E,2,5,3.0,-1.638,M,40.592,M,3.4,0123*56\r\n
$GPGGA,065754.45,5703.2841435,N,00952.3630877,E,2,5,3.0,-1.631,M,40.592,M,3.6,0123*58\r\n
$GPGGA,065754.50,5703.2841434,N,00952.3630879,E,2,5,3.0,-1.631,M,40.592,M,3.6,0123*53\r\n
$GPGGA,065754.55,5703.2841433,N,00952.3630884,E,2,5,3.0,-1.632,M,40.592,M,3.6,0123*50\r\n
$GPGGA,065754.60,5703.2841432,N,00952.3630884,E,2,5,3.0,-1.633,M,40.592,M,3.6,0123*56\r\n
$GPGGA,065754.70,5703.2841486,N,00952.3630873,E\x00,2,5,3.0,-1.626,M,40.592,M,3.9,0123*5B\r\n
$GPGGA,065757.50,5703.2841515,N,00952.3631058,E,2,5,3.0,-1.565,M,40.592,M,2.5,0123*58\r\n
$GPGGA,065757.55,5703.2841511,N,00952.3631063,E,2,5,3.0,-1.565,M,40.592,M,2.5,0123*51\r\n
$GPGGA,065757.60,5703.2841509,N,00952.3631067,E,2,5,3.0,-1.565,M,40.592,M,2.5,0123*5A\r\n
$GPGGA,065757.65,5703.2841571,N,00952.3630998,E,2,5,3.0,-1.567,M,40.592,M,2.7,0123*58\r\n
$GPGGA,065757.70,5703.2841570,N,00952.3630995,E,2,5,3.0,-1.567,M,40.592,M,2.7,0123*50\r\n
$GPGGA,065757.75,5703.2841568,N,00952.3630995,E,2,5,3.0,-1.567,M,40.592,M,2.7,0123*5C\r\n
$GPGGA,065757.80,5703.2841568,N,00952.3630994,E,2,5,3.0,-1.567,M,40.592,M,2.7,0123*57\r\n
$GPGGA,065757.85,5703.2841596,N,00952.3630962,E,2,5,3.0,-1.561,M,40.592,M,3.0,0123*5A\r\n
$GPGGA,065757.90,5703.2841596,N,00952.3630959,E,2,5,3.0,-1.561,M,40.592,M,3.0,0123*56\r\n
$GPGGA,065757.95,5703.2841595,N,00952.3630959,E,2,5,3.0,-1.561,M,40.592,M,3.0,0123*50\r\n
$GPGGA,065758.00,5703.2841594,N,00952.3630956,E,2,5,3.0,-1.561,M,40.592,M,3.0,0123*5D\r\n
$GPGGA,065758.05,5703.2841584,N,00952.3630993,E,2,5,3.0,-1.560,M,40.592,M,3.2,0123*53\r\n
$GPGGA,065758.10,5703.2841585,N,00952.3630988,E,2,5,3.0,-1.560,M,40.592,M,3.2,0123*5C\r\n
$GPGGA,065758.15,5703.2841584,N,00952.3630982,E,2,5,3.0,-1.559,M,40.592,M,3.2,0123*58\r\n
$GPGGA,065758.20,5703.2841583,N,00952.3630987,E,2,5,3.0,-1.559,M,40.592,M,3.2,0123*5C\r\n
$GPGGA,065758.25,5703.2841641,N,00952.3630996,E,2,5,3.0,-1.553,M,40.592,M,3.4,0123*58\r\n
$GPGGA,065758.30,5703.2841641,N,00952.3630995,E,2,5,3.0,-1.553,M,40.592,M,3.4,0123*5F\r\n
$GPGGA,065758.35,5703.2841642,N,00952.3630992,E,2,5,3.0,-1.553,M,40.592,M,3.4,0123*5E\r\n
$GPGGA,065758.40,5703.2841642,N,00952.3630994,E,2,5,3.0,-1.552,M,40.592,M,3.4,0123*5B\r\n
$GPGGA,065758.45,5703.2841654,N,00952.3630959,E,2,5,3.0,-1.555,M,40.592,M,3.6,0123*5D\r\n
$GPGGA,065758.50,5703.2841654,N,00952.3630960,E,2,5,3.0,-1.554,M,40.592,M,3.6,0123*52\r\n
$GPGGA,065758.55,5703.2841653,N,00952.3630961,E,2,5,3.0,-1.554,M,40.592,M,3.6,0123*51\r\n
$GPGGA,065758.60,5703.2841654,N,00952.3630960,E,2,5,3.0,-1.554,M,40.592,M,3.6,0123*51\r\n
$GPGGA,065758.65,5703.2841648,N,00952.3630962,E,2,5,3.0,-1.552,M,40.592,M,3.9,0123*52\r\n
$GPGGA,065758.70,5703.2841649,N,00952.3630961,E,2,5,3.0,-1.552,M,40.592,M,3.9,0123*54\r\n
$GPGGA,065758.75,5703.2841650,N,00952.3630958,E,2,5,3.0,-1.552,M,40.592,M,3.9,0123*53\r\n
$GPGGA,065758.80,5703.2841651,N,00952.3630958,E,2,5,3.0,-1.552,M,40.592,M,3.9,0123*58\r\n
$GPGGA,065758.85,5703.2841704,N,00952.3630917,E,2,5,3.0,-1.544,M,40.592,M,4.1,0123*5F\r\n
$GPGGA,065758.90,5703.2841706,N,00952.3630915,E,2,5,3.0,-1.543,M,40.592,M,4.1,0123*5C\r\n
$GPGGA,065758.95,5703.2841707,N,00952.3630914,E,2,5,3.0,-1.543,M,40.592,M,4.1,0123*59\r\n
$GPGGA,065759.00,5703.2841709,N,00952.3630909,E,2,5,3.0,-1.543,M,40.592,M,4.1,0123*56\r\n
$GPGGA,065759.05,5703.2841721,N,00952.3630853,E,2,5,3.0,-1.544,M,40.592,M,1.2,0123*56\r\n
$GPGGA,065759.10,5703.2841723,N,00952.3630851,E,2,5,3.0,-1.544,M,40.592,M,1.2,0123*52\r\n
$GPGGA,065759.15,5703.2841725,N,00952.3630842,E,2,5,3.0,-1.544,M,40.592,M,1.2,0123*53\r\n
$GPGGA,065759.20,5703.2841726,N,00952.3630839,E,2,5,3.0,-1.544,M,40.592,M,1.2,0123*5A\r\n
$GPGGA,065759.25,5703.2841722,N,00952.3630865,E,2,5,3.0,-1.536,M,40.592,M,1.4,0123*51\r\n
$GPGGA,065759.30,5703.2841723,N,00952.3630861,E,2,5,3.0,-1.536,M,40.592,M,1.4,0123*50\r\n
$GPGGA,065759.35,5703.2841726,N,00952.3630852,E,2,5,3.0,-1.536,M,40.592,M,1.4,0123*50\r\n
$GPGGA,065759.40,5703.2841728,N,00952.3630844,E,2,5,3.0,-1.536,M,40.592,M,1.4,0123*5B\r\n
$GPGGA,065759.45,5703.2841769,N,00952.3630821,E,2,5,3.0,-1.539,M,40.592,M,1.6,0123*55\r\n
$GPGGA,065759.50,5703.2841770,N,00952.3630819,E,2,5,3.0,-1.539,M,40.592,M,1.6,0123*52\r\n
$GPGGA,065759.55,5703.2841773,N,00952.3630814,E,2,5,3.0,-1.539,M,40.592,M,1.6,0123*59\r\n
$GPGGA,065759.60,5703.2841774,N,00952.3630809,E,2,5,3.0,-1.539,M,40.592,M,1.6,0123*54\r\n
$GPGGA,065759.65,5703.2841732,N,00952.3630947,E,2,5,3.0,-1.536,M,40.592,M,1.9,0123*58\r\n
$GPGGA,065759.70,5703.2841735,N,00952.3630939,E,2,5,3.0,-1.536,M,40.592,M,1.9,0123*52\r\n
$GPGGA,065759.75,5703.2841737,N,00952.3630935,E,2,5,3.0,-1.536,M,40.592,M,1.9,0123*59\r\n
$GPGGA,065759.80,5703.2841737,N,00952.3630935,E,2,5,3.0,-1.536,M,40.592,M,1.9,0123*53\r\n
$GPGGA,065759.85,5703.2841746,N,00952.3630910,E,2,5,3.0,-1.529,M,40.592,M,2.1,0123*52\r\n
$GPGGA,065759.90,5703.2841748,N,00952.3630906,E,2,5,3.0,-1.529,M,40.592,M,2.1,0123*5F\r\n
$GPGGA,065759.95,5703.2841749,N,00952.3630901,E,2,5,3.0,-1.529,M,40.592,M,2.1,0123*5C\r\n
$GPGGA,065800.00,5703.2841750,N,00952.3630899,E,2,5,3.0,-1.529,M,40.592,M,2.1,0123*5B\r\n
$GPGGA,065800.05,5703.2841747,N,00952.3630877,E,2,5,3.0,-1.523,M,40.592,M,2.3,0123*50\r\n
$GPGGA,065800.10,5703.2841748,N,00952.3630873,E,2,5,3.0,-1.523,M,40.592,M,2.3,0123*5F\r\n
$GPGGA,065800.20,5703.2841752,N,00952.3630863,E\x00,2,5,3.0,-1.523,M,40.592,M,2.3,0123*56\r\n
$GPGGA,065803.00,5703.2841914,N,00952.3630732,E,2,5,3.0,-1.460,M,40.592,M,4.1,0123*52\r\n
$GPGGA,065803.05,5703.2841857,N,00952.3630868,E,2,5,3.0,-1.460,M,40.592,M,1.2,0123*57\r\n
$GPGGA,065803.10,5703.2841857,N,00952.3630871,E,2,5,3.0,-1.460,M,40.592,M,1.2,0123*5B\r\n
$GPGGA,065803.15,5703.2841858,N,00952.3630868,E,2,5,3.0,-1.460,M,40.592,M,1.2,0123*59\r\n
$GPGGA,065803.20,5703.2841857,N,00952.3630876,E,2,5,3.0,-1.460,M,40.592,M,1.2,0123*5F\r\n
$GPGGA,065803.25,5703.2841867,N,00952.3630861,E,2,5,3.0,-1.455,M,40.592,M,1.4,0123*5F\r\n
$GPGGA,065803.30,5703.2841867,N,00952.3630863,E,2,5,3.0,-1.455,M,40.592,M,1.4,0123*59\r\n
$GPGGA,065803.35,5703.2841868,N,00952.3630859,E,2,5,3.0,-1.455,M,40.592,M,1.4,0123*5A\r\n
$GPGGA,065803.40,5703.2841867,N,00952.3630860,E,2,5,3.0,-1.455,M,40.592,M,1.4,0123*5D\r\n
$GPGGA,065803.45,5703.2841916,N,00952.3630730,E,2,5,3.0,-1.447,M,40.592,M,1.6,0123*54\r\n
$GPGGA,065803.50,5703.2841917,N,00952.3630730,E,2,5,3.0,-1.447,M,40.592,M,1.6,0123*51\r\n
$GPGGA,065803.55,5703.2841918,N,00952.3630728,E,2,5,3.0,-1.448,M,40.592,M,1.6,0123*5D\r\n
$GPGGA,065803.60,5703.2841918,N,00952.3630731,E,2,5,3.0,-1.448,M,40.592,M,1.6,0123*53\r\n
$GPGGA,065803.65,5703.2841918,N,00952.3630784,E,2,5,3.0,-1.445,M,40.592,M,1.9,0123*5A\r\n
$GPGGA,065803.70,5703.2841919,N,00952.3630783,E,2,5,3.0,-1.445,M,40.592,M,1.9,0123*58\r\n
$GPGGA,065803.75,5703.2841918,N,00952.3630784,E,2,5,3.0,-1.445,M,40.592,M,1.9,0123*5B\r\n
$GPGGA,065803.80,5703.2841918,N,00952.3630786,E,2,5,3.0,-1.446,M,40.592,M,1.9,0123*50\r\n
$GPGGA,065803.85,5703.2841872,N,00952.3630802,E,2,5,3.0,-1.436,M,40.592,M,2.1,0123*57\r\n
$GPGGA,065803.90,5703.2841873,N,00952.3630802,E,2,5,3.0,-1.436,M,40.592,M,2.1,0123*52\r\n
$GPGGA,065803.95,5703.2841872,N,00952.3630807,E,2,5,3.0,-1.437,M,40.592,M,2.1,0123*52\r\n
$GPGGA,065804.00,5703.2841872,N,00952.3630804,E,2,5,3.0,-1.437,M,40.592,M,2.1,0123*5A\r\n
$GPGGA,065804.05,5703.2841910,N,00952.3630725,E,2,5,3.0,-1.439,M,40.592,M,2.3,0123*5A\r\n
$GPGGA,065804.10,5703.2841909,N,00952.3630725,E,2,5,3.0,-1.439,M,40.592,M,2.3,0123*56\r\n
$GPGGA,065804.15,5703.2841910,N,00952.3630731,E,2,5,3.0,-1.439,M,40.592,M,2.3,0123*5E\r\n
$GPGGA,065804.20,5703.2841911,N,00952.3630727,E,2,5,3.0,-1.439,M,40.592,M,2.3,0123*5E\r\n
$GPGGA,065804.25,5703.2841973,N,00952.3630757,E,2,5,3.0,-1.429,M,40.592,M,2.5,0123*5F\r\n
$GPGGA,065804.30,5703.2841973,N,00952.3630757,E,2,5,3.0,-1.429,M,40.592,M,2.5,0123*5B\r\n
$GPGGA,065804.35,5703.2841974,N,00952.3630757,E,2,5,3.0,-1.429,M,40.592,M,2.5,0123*59\r\n
$GPGGA,065804.40,5703.2841973,N,00952.3630758,E,2,5,3.0,-1.430,M,40.592,M,2.5,0123*5B\r\n
$GPGGA,065804.45,5703.2841890,N,00952.3630804,E,2,5,3.0,-1.424,M,40.592,M,2.7,0123*53\r\n
$GPGGA,065804.50,5703.2841890,N,00952.3630805,E,2,5,3.0,-1.424,M,40.592,M,2.7,0123*56\r\n
$GPGGA,065804.55,5703.2841891,N,00952.3630805,E,2,5,3.0,-1.424,M,40.592,M,2.7,0123*52\r\n
$GPGGA,065804.60,5703.2841893,N,00952.3630810,E,2,5,3.0,-1.424,M,40.592,M,2.7,0123*52\r\n
$GPGGA,065804.65,5703.2841971,N,00952.3630846,E,2,5,3.0,-1.412,M,40.592,M,2.9,0123*52\r\n
$GPGGA,065804.70,5703.2841974,N,00952.3630845,E,2,5,3.0,-1.412,M,40.592,M,2.9,0123*50\r\n
$GPGGA,065804.75,5703.2841976,N,00952.3630840,E,2,5,3.0,-1.411,M,40.592,M,2.9,0123*51\r\n
$GPGGA,065804.80,5703.2841980,N,00952.3630832,E,2,5,3.0,-1.411,M,40.592,M,2.9,0123*57\r\n
$GPGGA,065804.85,5703.2842271,N,00952.3630567,E,2,5,3.0,-1.395,M,40.592,M,3.1,0123*5B\r\n
$GPGGA,065804.90,5703.2842287,N,00952.3630558,E,2,5,3.0,-1.392,M,40.592,M,3.1,0123*5D\r\n
$GPGGA,065804.95,5703.2842306,N,00952.3630613,E,2,5,3.0,-1.395,M,40.592,M,3.1,0123*5B\r\n
$GPGGA,065805.00,5703.2842316,N,00952.3630579,E,1,4,3.0,-1.401,M,40.592,M,,*7C\r\n
$GPGGA,065805.05,5703.2842285,N,00952.3630608,E,1,4,3.0,-1.390,M,40.592,M,,*78\r\n
$GPGGA,065805.10,5703.2842289,N,00952.3630606,E,1,4,3.0,-1.390,M,40.592,M,,*7E\r\n
$GPGGA,065805.15,5703.2842291,N,00952.3630607,E,1,4,3.0,-1.390,M,40.592,M,,*73\r\n
$GPGGA,065805.20,5703.2842294,N,00952.3630606,E,1,4,3.0,-1.390,M,40.592,M,,*71\r\n
$GPGGA,065805.25,5703.2842313,N,00952.3630548,E,1,4,3.0,-1.390,M,40.592,M,,*73\r\n
$GPGGA,065805.30,5703.2842316,N,00952.3630548,E,1,4,3.0,-1.390,M,40.592,M,,*72\r\n
$GPGGA,065805.35,5703.2842322,N,00952.3630547,E,1,4,3.0,-1.390,M,40.592,M,,*7F\r\n
$GPGGA,065805.40,5703.2842324,N,00952.3630550,E,1,4,3.0,-1.390,M,40.592,M,,*7D\r\n
$GPGGA,065805.45,5703.2842499,N,00952.3630511,E,1,4,3.0,-1.384,M,40.592,M,,*79\r\n
$GPGGA,065805.50,5703.2842499,N,00952.3630506,E,1,4,3.0,-1.384,M,40.592,M,,*7B\r\n
$GPGGA,065805.55,5703.2842505,N,00952.3630533,E,1,4,3.0,-1.386,M,40.592,M,,*7E\r\n
$GPGGA,065805.60,5703.2842516,N,00952.3630535,E,1,4,3.0,-1.387,M,40.592,M,,*7D\r\n
$GPGGA,065805.65,5703.2842597,N,00952.3630484,E,1,4,3.0,-1.373,M,40.592,M,,*71\r\n
$GPGGA,065805.75,5703.2842611,N,00952.3630493,E,1,3,3.\x000,-1.371,M,40.592,M,,*7E\r\n
$GPGGA,065808.60,5703.2842998,N,00952.3625150,E,1,1,3.0,-1.255,M,40.592,M,,*72\r\n
$GPGGA,065808.65,5703.2843249,N,00952.3625339,E,1,1,3.0,-1.274,M,40.592,M,,*7F\r\n
$GPGGA,065808.70,5703.2843240,N,00952.3625307,E,1,1,3.0,-1.274,M,40.592,M,,*7F\r\n
$GPGGA,065808.75,5703.2843238,N,00952.3625300,E,1,1,3.0,-1.274,M,40.592,M,,*72\r\n
$GPGGA,065808.80,5703.2843268,N,00952.3625407,E,1,1,3.0,-1.273,M,40.592,M,,*7A\r\n
$GPGGA,065808.85,5703.2843101,N,00952.3625871,E,1,1,3.0,-1.295,M,40.592,M,,*76\r\n
$GPGGA,065808.90,5703.2843124,N,00952.3625883,E,1,1,3.0,-1.301,M,40.592,M,,*74\r\n
$GPGGA,065808.95,5703.2843132,N,00952.3625909,E,1,1,3.0,-1.301,M,40.592,M,,*75\r\n
$GPGGA,065809.00,5703.2843156,N,00952.3625996,E,1,1,3.0,-1.301,M,40.592,M,,*7C\r\n
$GPGGA,065809.05,5703.2842397,N,00952.3627413,E,1,1,3.0,-1.335,M,40.592,M,,*72\r\n
$GPGGA,065809.10,5703.2842290,N,00952.3627670,E,1,1,3.0,-1.345,M,40.592,M,,*70\r\n
$GPGGA,065809.15,5703.2842295,N,00952.3627686,E,1,1,3.0,-1.345,M,40.592,M,,*79\r\n
$GPGGA,065809.20,5703.2842296,N,00952.3627689,E,1,1,3.0,-1.345,M,40.592,M,,*73\r\n
$GPGGA,065809.25,5703.2840452,N,00952.3630375,E,1,1,3.0,-1.375,M,40.592,M,,*79\r\n
$GPGGA,065809.30,5703.2840075,N,00952.3630994,E,1,1,3.0,-1.386,M,40.592,M,,*75\r\n
$GPGGA,065809.35,5703.2840067,N,00952.3630961,E,1,1,3.0,-1.386,M,40.592,M,,*79\r\n
$GPGGA,065809.40,5703.2840059,N,00952.3630930,E,1,1,3.0,-1.387,M,40.592,M,,*73\r\n
$GPGGA,065809.45,5703.2838679,N,00952.3633229,E,1,1,3.0,-1.392,M,40.592,M,,*79\r\n
$GPGGA,065809.50,5703.2838675,N,00952.3633208,E,1,1,3.0,-1.392,M,40.592,M,,*72\r\n
$GPGGA,065809.55,5703.2838675,N,00952.3633207,E,1,1,3.0,-1.392,M,40.592,M,,*78\r\n
$GPGGA,065809.60,5703.2838721,N,00952.3633373,E,1,1,3.0,-1.392,M,40.592,M,,*7C\r\n
$GPGGA,065809.65,5703.2836951,N,00952.3635836,E,1,1,3.0,-1.397,M,40.592,M,,*77\r\n
$GPGGA,065809.70,5703.2836931,N,00952.3635756,E,1,1,3.0,-1.397,M,40.592,M,,*7C\r\n
$GPGGA,065809.75,5703.2836939,N,00952.3635783,E,1,1,3.0,-1.397,M,40.592,M,,*79\r\n
$GPGGA,065809.80,5703.2836976,N,00952.3635915,E,1,1,3.0,-1.396,M,40.592,M,,*78\r\n
$GPGGA,065809.85,5703.2834385,N,00952.3639378,E,1,1,3.0,-1.416,M,40.592,M,,*7B\r\n
$GPGGA,065809.90,5703.2834402,N,00952.3639428,E,1,1,3.0,-1.416,M,40.592,M,,*75\r\n
$GPGGA,065809.95,5703.2834422,N,00952.3639503,E,1,1,3.0,-1.415,M,40.592,M,,*79\r\n
$GPGGA,065810.00,5703.2834378,N,00952.3639341,E,1,1,3.0,-1.416,M,40.592,M,,*76\r\n
$GPGGA,065810.05,5703.2833940,N,00952.3640089,E,1,1,3.0,-1.438,M,40.592,M,,*70\r\n
$GPGGA,065810.10,5703.2833930,N,00952.3640052,E,1,1,3.0,-1.438,M,40.592,M,,*75\r\n
$GPGGA,065810.15,5703.2833973,N,00952.3640206,E,1,1,3.0,-1.438,M,40.592,M,,*74\r\n
$GPGGA,065810.20,5703.2833955,N,00952.3640142,E,1,1,3.0,-1.438,M,40.592,M,,*75\r\n
$GPGGA,065810.25,,,,,0,4,,,M,,M,,*71\r\n
