$GPGGA,095237.15,5703.3752859,N,00952.2950672,E,2,11,0.9,-1.115,M,40.593,M,2.9,0123*6A\r\n
$GPGGA,095237.20,5703.3752783,N,00952.2950009,E,2,11,0.9,-1.115,M,40.593,M,2.9,0123*6E\r\n
$GPGGA,095237.25,5703.3752706,N,00952.2949342,E,2,11,0.9,-1.116,M,40.593,M,1.8,0123*63\r\n
$GPGGA,095237.30,5703.3752624,N,00952.2948675,E,2,11,0.9,-1.115,M,40.593,M,1.8,0123*65\r\n
$GPGGA,095237.35,5703.3752542,N,00952.2948013,E,2,11,0.9,-1.120,M,40.593,M,1.8,0123*63\r\n
$GPGGA,095237.40,5703.3752464,N,00952.2947354,E,2,11,0.9,-1.122,M,40.593,M,1.8,0123*69\r\n
$GPGGA,095237.45,5703.3752387,N,00952.2946685,E,2,11,0.9,-1.126,M,40.593,M,2.0,0123*61\r\n
$GPGGA,095237.50,5703.3752317,N,00952.2946024,E,2,11,0.9,-1.127,M,40.593,M,2.0,0123*60\r\n
$GPGGA,095237.55,5703.3752240,N,00952.2945352,E,2,11,0.9,-1.131,M,40.593,M,2.0,0123*60\r\n
$GPGGA,095237.60,5703.3752169,N,00952.2944691,E,2,11,0.9,-1.131,M,40.593,M,2.0,0123*65\r\n
$GPGGA,095237.65,5703.3752095,N,00952.2944023,E,2,11,0.9,-1.132,M,40.593,M,2.3,0123*6D\r\n
$GPGGA,095237.70,5703.3752022,N,00952.2943373,E,2,11,0.9,-1.131,M,40.593,M,2.3,0123*67\r\n
$GPGGA,095237.75,5703.3751951,N,00952.2942724,E,2,11,0.9,-1.132,M,40.593,M,2.3,0123*68\r\n
$GPGGA,095237.80,5703.3751878,N,00952.2942064,E,2,11,0.9,-1.132,M,40.593,M,2.3,0123*6B\r\n
$GPGGA,095237.85,5703.3751791,N,00952.2941403,E,2,11,0.9,-1.136,M,40.593,M,2.5,0123*62\r\n
$GPGGA,095237.90,5703.3751722,N,00952.2940752,E,2,11,0.9,-1.137,M,40.593,M,2.5,0123*69\r\n
$GPGGA,095237.95,5703.3751648,N,00952.2940101,E,2,11,0.9,-1.136,M,40.593,M,2.5,0123*60\r\n
$GPGGA,095238.00,5703.3751576,N,00952.2939446,E,2,11,0.9,-1.135,M,40.593,M,2.5,0123*66\r\n
$GPGGA,095238.05,5703.3751505,N,00952.2938801,E,2,11,0.9,-1.133,M,40.593,M,2.7,0123*6D\r\n
$GPGGA,095238.10,5703.3751433,N,00952.2938143,E,2,11,0.9,-1.133,M,40.593,M,2.7,0123*62\r\n
$GPGGA,095238.15,5703.3751352,N,00952.2937484,E,2,11,0.9,-1.134,M,40.593,M,2.7,0123*61\r\n
$GPGGA,095238.20,5703.3751274,N,00952.2936820,E,2,11,0.9,-1.134,M,40.593,M,2.7,0123*61\r\n
$GPGGA,095238.25,5703.3751205,N,00952.2936155,E,2,11,0.9,-1.132,M,40.593,M,2.2,0123*6A\r\n
$GPGGA,095238.30,5703.3751139,N,00952.2935493,E,2,11,0.9,-1.129,M,40.593,M,2.2,0123*64\r\n
$GPGGA,095238.35,5703.3751062,N,00952.2934831,E,2,11,0.9,-1.130,M,40.593,M,2.2,0123*63\r\n
$GPGGA,095238.40,5703.3750998,N,00952.2934162,E,2,11,0.9,-1.130,M,40.593,M,2.2,0123*63\r\n
$GPGGA,095238.45,5703.3750918,N,00952.2933494,E,2,11,0.9,-1.138,M,40.593,M,2.4,0123*6B\r\n
$GPGGA,095238.50,5703.3750853,N,00952.2932827,E,2,11,0.9,-1.142,M,40.593,M,2.4,0123*69\r\n
$GPGGA,095238.55,5703.3750786,N,00952.2932160,E,2,11,0.9,-1.145,M,40.593,M,2.4,0123*66\r\n
$GPGGA,095238.60,5703.3750711,N,00952.2931493,E,2,11,0.9,-1.146,M,40.593,M,2.4,0123*67\r\n
$GPGGA,095238.65,5703.3750642,N,00952.2930827,E,2,11,0.9,-1.146,M,40.593,M,2.6,0123*65\r\n
$GPGGA,095238.70,5703.3750578,N,00952.2930161,E,2,11,0.9,-1.147,M,40.593,M,2.6,0123*61\r\n
$GPGGA,095238.75,5703.3750514,N,00952.2929492,E,2,11,0.9,-1.147,M,40.593,M,2.6,0123*6F\r\n
$GPGGA,095238.80,5703.3750445,N,00952.2928818,E,2,11,0.9,-1.146,M,40.593,M,2.6,0123*6E\r\n
$GPGGA,095238.85,5703.3750375,N,00952.2928155,E,2,11,0.9,-1.147,M,40.593,M,2.9,0123*61\r\n
$GPGGA,095238.90,5703.3750308,N,00952.2927506,E,2,11,0.9,-1.145,M,40.593,M,2.9,0123*60\r\n
$GPGGA,095238.95,5703.3750236,N,00952.2926843,E,2,11,0.9,-1.147,M,40.593,M,2.9,0123*66\r\n
$GPGGA,095239.00,5703.3750166,N,00952.2926161,E,2,11,0.9,-1.146,M,40.593,M,2.9,0123*65\r\n
$GPGGA,095239.05,5703.3750088,N,00952.2925481,E,2,11,0.9,-1.146,M,40.593,M,3.1,0123*60\r\n
$GPGGA,095239.10,5703.3750016,N,00952.2924820,E,2,11,0.9,-1.144,M,40.593,M,3.1,0123*67\r\n
$GPGGA,095239.15,5703.3749953,N,00952.2924155,E,2,11,0.9,-1.141,M,40.593,M,3.1,0123*6C\r\n
$GPGGA,095239.20,5703.3749876,N,00952.2923485,E,2,11,0.9,-1.140,M,40.593,M,3.1,0123*62\r\n
$GPGGA,095239.25,5703.3749806,N,00952.2922824,E,2,11,0.9,-1.136,M,40.593,M,3.3,0123*65\r\n
$GPGGA,095239.30,5703.3749737,N,00952.2922142,E,2,11,0.9,-1.134,M,40.593,M,3.3,0123*67\r\n
$GPGGA,095239.35,5703.3749680,N,00952.2921465,E,2,11,0.9,-1.130,M,40.593,M,3.3,0123*68\r\n
$GPGGA,095239.40,5703.3749618,N,00952.2920796,E,2,11,0.9,-1.129,M,40.593,M,3.3,0123*6D\r\n
$GPGGA,095239.45,5703.3749541,N,00952.2920124,E,2,11,0.9,-1.128,M,40.593,M,3.5,0123*6F\r\n
$GPGGA,095239.50,5703.3749465,N,00952.2919446,E,2,11,0.9,-1.129,M,40.593,M,3.5,0123*66\r\n
$GPGGA,095239.55,5703.3749401,N,00952.2918778,E,2,11,0.9,-1.125,M,40.593,M,3.5,0123*62\r\n
$GPGGA,095239.60,5703.3749333,N,00952.2918108,E,2,11,0.9,-1.122,M,40.593,M,3.5,0123*64\r\n
$GPGGA,095239.65,5703.3749263,N,00952.2917443,E,2,11,0.9,-1.128,M,40.593,M,3.7,0123*68\r\n
$GPGGA,095239.70,5703.3749173,N,00952.2916780,E,2,11,0.9,-1.129,M,40.593,M,3.7,0123*62\r\n
$GPGGA,095239.75,5703.3749093,N,00952.2916111,E,2,11,0.9,-1.129,M,40.593,M,3.7,0123*66\r\n
$GPGGA,095239.80,5703.3749018,N,00952.2915438,E,2,11,0.9,-1.130,M,40.593,M,3.7,0123*6A\r\n
$GPGGA,095239.85,5703.3748949,N,00952.2914781,E,2,11,0.9,-1.128,M,40.593,M,3.9,0123*64\r\n
$GPGGA,095239.90,5703.3748875,N,00952.2914118,E,2,11,0.9,-1.129,M,40.593,M,3.9,0123*69\r\n
$GPGGA,095239.95,5703.3748801,N,00952.2913451,E,2,11,0.9,-1.131,M,40.593,M,3.9,0123*69\r\n
$GPGGA,095240.00,5703.3748720,N,00952.2912767,E,2,11,0.9,-1.132,M,40.593,M,3.9,0123*63\r\n
$GPGGA,095240.05,5703.3748638,N,00952.2912105,E,2,11,0.9,-1.130,M,40.593,M,4.1,0123*61\r\n
$GPGGA,095240.10,5703.3748564,N,00952.2911440,E,2,11,0.9,-1.128,M,40.593,M,4.1,0123*61\r\n
$GPGGA,095240.15,5703.3748483,N,00952.2910786,E,2,11,0.9,-1.131,M,40.593,M,4.1,0123*6C\r\n
$GPGGA,095240.20,5703.3748411,N,00952.2910123,E,2,11,0.9,-1.133,M,40.593,M,4.1,0123*6A\r\n
$GPGGA,095240.25,5703.3748341,N,00952.2909459,E,2,11,0.9,-1.135,M,40.593,M,1.9,0123*66\r\n
$GPGGA,095240.30,5703.3748281,N,00952.2908787,E,2,11,0.9,-1.136,M,40.593,M,1.9,0123*6D\r\n
$GPGGA,095240.35,5703.3748209,N,00952.2908126,E,2,11,0.9,-1.137,M,40.593,M,1.9,0123*64\r\n
$GPGGA,095240.40,5703.3748126,N,00952.2907455,E,2,11,0.9,-1.141,M,40.593,M,1.9,0123*67\r\n
$GPGGA,095240.45,5703.3748059,N,00952.2906806,E,2,11,0.9,-1.142,M,40.593,M,2.2,0123*6B\r\n
$GPGGA,095240.50,5703.3747992,N,00952.2906147,E,2,11,0.9,-1.140,M,40.593,M,2.2,0123*60\r\n
$GPGGA,095240.55,5703.3747924,N,00952.2905483,E,2,11,0.9,-1.138,M,40.593,M,2.2,0123*69\r\n
$GPGGA,095240.60,5703.3747849,N,00952.2904816,E,2,11,0.9,-1.141,M,40.593,M,2.2,0123*6A\r\n
$GPGGA,095240.65,5703.3747769,N,00952.2904154,E,2,11,0.9,-1.144,M,40.593,M,2.4,0123*6E\r\n
$GPGGA,095240.70,5703.3747698,N,00952.2903498,E,2,11,0.9,-1.147,M,40.593,M,2.4,0123*64\r\n
$GPGGA,095240.75,5703.3747632,N,00952.2902823,E,2,11,0.9,-1.148,M,40.593,M,2.4,0123*63\r\n
$GPGGA,095240.80,5703.3747564,N,00952.2902155,E,2,11,0.9,-1.148,M,40.593,M,2.4,0123*61\r\n
$GPGGA,095240.85,5703.3747493,N,00952.2901495,E,2,11,0.9,-1.150,M,40.593,M,2.7,0123*6D\r\n
$GPGGA,095240.90,5703.3747422,N,00952.2900841,E,2,11,0.9,-1.150,M,40.593,M,2.7,0123*67\r\n
$GPGGA,095240.95,5703.3747358,N,00952.2900171,E,2,11,0.9,-1.150,M,40.593,M,2.7,0123*62\r\n
$GPGGA,095241.00,5703.3747293,N,00952.2899501,E,2,11,0.9,-1.147,M,40.593,M,2.7,0123*6D\r\n
$GPGGA,095241.05,5703.3747212,N,00952.2898821,E,2,11,0.9,-1.152,M,40.593,M,2.9,0123*65\r\n
$GPGGA,095241.10,5703.3747138,N,00952.2898162,E,2,11,0.9,-1.155,M,40.593,M,2.9,0123*63\r\n
$GPGGA,095241.15,5703.3747067,N,00952.2897492,E,2,11,0.9,-1.152,M,40.593,M,2.9,0123*6F\r\n
$GPGGA,095241.20,5703.3746994,N,00952.2896830,E,2,11,0.9,-1.152,M,40.593,M,2.9,0123*68\r\n
$GPGGA,095241.25,5703.3746929,N,00952.2896164,E,2,11,0.9,-1.148,M,40.593,M,1.8,0123*6A\r\n
$GPGGA,095241.30,5703.3746868,N,00952.2895498,E,2,11,0.9,-1.144,M,40.593,M,1.8,0123*63\r\n
$GPGGA,095241.35,5703.3746789,N,00952.2894827,E,2,11,0.9,-1.145,M,40.593,M,1.8,0123*6E\r\n
$GPGGA,095241.40,5703.3746720,N,00952.2894167,E,2,11,0.9,-1.145,M,40.593,M,1.8,0123*62\r\n
$GPGGA,095241.45,5703.3746650,N,00952.2893488,E,2,11,0.9,-1.146,M,40.593,M,2.0,0123*6A\r\n
$GPGGA,095241.50,5703.3746579,N,00952.2892802,E,2,11,0.9,-1.146,M,40.593,M,2.0,0123*69\r\n
$GPGGA,095241.55,5703.3746505,N,00952.2892130,E,2,11,0.9,-1.147,M,40.593,M,2.0,0123*6E\r\n
$GPGGA,095241.60,5703.3746432,N,00952.2891467,E,2,11,0.9,-1.146,M,40.593,M,2.0,0123*68\r\n
$GPGGA,095241.65,5703.3746364,N,00952.2890793,E,2,11,0.9,-1.143,M,40.593,M,2.3,0123*66\r\n
$GPGGA,095241.70,5703.3746293,N,00952.2890102,E,2,11,0.9,-1.143,M,40.593,M,2.3,0123*65\r\n
$GPGGA,095241.75,5703.3746225,N,00952.2889424,E,2,11,0.9,-1.143,M,40.593,M,2.3,0123*64\r\n
$GPGGA,095241.80,5703.3746162,N,00952.2888752,E,2,11,0.9,-1.141,M,40.593,M,2.3,0123*6F\r\n
$GPGGA,095241.85,5703.3746083,N,00952.2888086,E,2,11,0.9,-1.138,M,40.593,M,2.5,0123*62\r\n
$GPGGA,095241.90,5703.3746003,N,00952.2887416,E,2,11,0.9,-1.138,M,40.593,M,2.5,0123*6C\r\n
$GPGGA,095241.95,5703.3745919,N,00952.2886741,E,2,11,0.9,-1.137,M,40.593,M,2.5,0123*67\r\n
$GPGGA,095242.00,5703.3745849,N,00952.2886054,E,2,11,0.9,-1.136,M,40.593,M,2.5,0123*6E\r\n
$GPGGA,095242.05,5703.3745769,N,00952.2885386,E,2,11,0.9,-1.146,M,40.593,M,2.7,0123*6C\r\n
$GPGGA,095242.10,5703.3745703,N,00952.2884720,E,2,11,0.9,-1.145,M,40.593,M,2.7,0123*6E\r\n
$GPGGA,095242.15,5703.3745630,N,00952.2884047,E,2,11,0.9,-1.145,M,40.593,M,2.7,0123*6C\r\n
$GPGGA,095242.20,5703.3745553,N,00952.2883373,E,2,11,0.9,-1.144,M,40.593,M,2.7,0123*6E\r\n
$GPGGA,095242.25,5703.3745484,N,00952.2882709,E,2,11,0.9,-1.139,M,40.593,M,2.2,0123*67\r\n
$GPGGA,095242.30,5703.3745414,N,00952.2882034,E,2,11,0.9,-1.138,M,40.593,M,2.2,0123*62\r\n
$GPGGA,095242.35,5703.3745341,N,00952.2881363,E,2,11,0.9,-1.137,M,40.593,M,2.2,0123*6D\r\n
$GPGGA,095242.40,5703.3745273,N,00952.2880690,E,2,11,0.9,-1.137,M,40.593,M,2.2,0123*67\r\n
$GPGGA,095242.45,5703.3745200,N,00952.2880018,E,2,11,0.9,-1.140,M,40.593,M,2.4,0123*66\r\n
$GPGGA,095242.50,5703.3745122,N,00952.2879349,E,2,11,0.9,-1.139,M,40.593,M,2.4,0123*6E\r\n
$GPGGA,095242.55,5703.3745047,N,00952.2878672,E,2,11,0.9,-1.137,M,40.593,M,2.4,0123*6B\r\n
$GPGGA,095242.60,5703.3744972,N,00952.2878004,E,2,11,0.9,-1.136,M,40.593,M,2.4,0123*65\r\n
$GPGGA,095242.65,5703.3744897,N,00952.2877340,E,2,11,0.9,-1.136,M,40.593,M,2.6,0123*64\r\n
$GPGGA,095242.70,5703.3744821,N,00952.2876687,E,2,11,0.9,-1.137,M,40.593,M,2.6,0123*63\r\n
$GPGGA,095242.75,5703.3744750,N,00952.2876018,E,2,11,0.9,-1.136,M,40.593,M,2.6,0123*6E\r\n
$GPGGA,095242.80,5703.3744675,N,00952.2875349,E,2,11,0.9,-1.136,M,40.593,M,2.6,0123*66\r\n
$GPGGA,095242.85,5703.3744593,N,00952.2874685,E,2,11,0.9,-1.142,M,40.593,M,2.9,0123*60\r\n
$GPGGA,095242.90,5703.3744517,N,00952.2874017,E,2,11,0.9,-1.144,M,40.593,M,2.9,0123*63\r\n
$GPGGA,095242.95,5703.3744433,N,00952.2873353,E,2,11,0.9,-1.149,M,40.593,M,2.9,0123*68\r\n
$GPGGA,095243.00,5703.3744355,N,00952.2872700,E,2,11,0.9,-1.150,M,40.593,M,2.9,0123*69\r\n
$GPGGA,095243.05,5703.3744276,N,00952.2872039,E,2,11,0.9,-1.152,M,40.593,M,3.1,0123*6A\r\n
$GPGGA,095243.10,5703.3744199,N,00952.2871363,E,2,11,0.9,-1.155,M,40.593,M,3.1,0123*64\r\n
$GPGGA,095243.15,5703.3744132,N,00952.2870692,E,2,11,0.9,-1.155,M,40.593,M,3.1,0123*6A\r\n
$GPGGA,095243.20,5703.3744062,N,00952.2870020,E,2,11,0.9,-1.159,M,40.593,M,3.1,0123*6B\r\n
$GPGGA,095243.25,5703.3743994,N,00952.2869355,E,2,11,0.9,-1.160,M,40.593,M,3.3,0123*68\r\n
$GPGGA,095243.30,5703.3743919,N,00952.2868691,E,2,11,0.9,-1.164,M,40.593,M,3.3,0123*61\r\n
$GPGGA,095243.35,5703.3743846,N,00952.2868019,E,2,11,0.9,-1.168,M,40.593,M,3.3,0123*65\r\n
$GPGGA,095243.40,5703.3743780,N,00952.2867341,E,2,11,0.9,-1.168,M,40.593,M,3.3,0123*63\r\n
$GPGGA,095243.45,5703.3743708,N,00952.2866667,E,2,11,0.9,-1.169,M,40.593,M,3.5,0123*61\r\n
$GPGGA,095243.50,5703.3743638,N,00952.2866004,E,2,11,0.9,-1.171,M,40.593,M,3.5,0123*6D\r\n
$GPGGA,095243.55,5703.3743558,N,00952.2865332,E,2,11,0.9,-1.174,M,40.593,M,3.5,0123*6D\r\n
$GPGGA,095243.60,5703.3743490,N,00952.2864669,E,2,11,0.9,-1.174,M,40.593,M,3.5,0123*64\r\n
$GPGGA,095243.65,5703.3743417,N,00952.2863997,E,2,11,0.9,-1.171,M,40.593,M,3.7,0123*60\r\n
$GPGGA,095243.70,5703.3743344,N,00952.2863324,E,2,11,0.9,-1.171,M,40.593,M,3.7,0123*67\r\n
$GPGGA,095243.75,5703.3743269,N,00952.2862653,E,2,11,0.9,-1.169,M,40.593,M,3.7,0123*61\r\n
$GPGGA,095243.80,5703.3743193,N,00952.2861971,E,2,11,0.9,-1.169,M,40.593,M,3.7,0123*61\r\n
$GPGGA,095243.85,5703.3743123,N,00952.2861296,E,2,11,0.9,-1.166,M,40.593,M,3.9,0123*6C\r\n
$GPGGA,095243.90,5703.3743049,N,00952.2860629,E,2,11,0.9,-1.167,M,40.593,M,3.9,0123*65\r\n
$GPGGA,095243.95,5703.3742978,N,00952.2859949,E,2,11,0.9,-1.163,M,40.593,M,3.9,0123*6D\r\n
$GPGGA,095244.00,5703.3742908,N,00952.2859264,E,2,11,0.9,-1.160,M,40.593,M,3.9,0123*66\r\n
$GPGGA,095244.05,5703.3742834,N,00952.2858572,E,2,11,0.9,-1.155,M,40.593,M,4.1,0123*65\r\n
$GPGGA,095244.10,5703.3742764,N,00952.2857868,E,2,11,0.9,-1.152,M,40.593,M,4.1,0123*65\r\n
$GPGGA,095244.15,5703.3742696,N,00952.2857166,E,2,11,0.9,-1.145,M,40.593,M,4.1,0123*6D\r\n
$GPGGA,095244.20,5703.3742631,N,00952.2856449,E,2,11,0.9,-1.140,M,40.593,M,4.1,0123*6A\r\n
$GPGGA,095244.25,5703.3742557,N,00952.2855728,E,2,11,0.9,-1.140,M,40.593,M,1.9,0123*66\r\n
$GPGGA,095244.30,5703.3742497,N,00952.2855019,E,2,11,0.9,-1.136,M,40.593,M,1.9,0123*6B\r\n
$GPGGA,095244.35,5703.3742431,N,00952.2854277,E,2,11,0.9,-1.133,M,40.593,M,1.9,0123*6C\r\n
$GPGGA,095244.40,5703.3742355,N,00952.2853518,E,2,11,0.9,-1.130,M,40.593,M,1.9,0123*61\r\n
$GPGGA,095244.45,5703.3742278,N,00952.2852751,E,2,11,0.9,-1.127,M,40.593,M,2.2,0123*6A\r\n
$GPGGA,095244.50,5703.3742208,N,00952.2851961,E,2,11,0.9,-1.122,M,40.593,M,2.2,0123*62\r\n
$GPGGA,095244.55,5703.3742144,N,00952.2851163,E,2,11,0.9,-1.113,M,40.593,M,2.2,0123*64\r\n
$GPGGA,095244.60,5703.3742083,N,00952.2850348,E,2,11,0.9,-1.105,M,40.593,M,2.2,0123*65\r\n
$GPGGA,095244.65,5703.3742022,N,00952.2849508,E,2,11,0.9,-1.099,M,40.593,M,2.4,0123*63\r\n
$GPGGA,095244.70,5703.3741965,N,00952.2848641,E,2,11,0.9,-1.090,M,40.593,M,2.4,0123*68\r\n
$GPGGA,095244.75,5703.3741901,N,00952.2847753,E,2,11,0.9,-1.081,M,40.593,M,2.4,0123*62\r\n
$GPGGA,095244.80,5703.3741834,N,00952.2846832,E,2,11,0.9,-1.072,M,40.593,M,2.4,0123*6A\r\n
$GPGGA,095244.85,5703.3741763,N,00952.2845885,E,2,11,0.9,-1.070,M,40.593,M,2.7,0123*6C\r\n
$GPGGA,095244.90,5703.3741708,N,00952.2844916,E,2,11,0.9,-1.062,M,40.593,M,2.7,0123*6C\r\n
$GPGGA,095244.95,5703.3741646,N,00952.2843932,E,2,11,0.9,-1.056,M,40.593,M,2.7,0123*64\r\n
$GPGGA,095245.00,5703.3741584,N,00952.2842924,E,2,11,0.9,-1.053,M,40.593,M,2.7,0123*67\r\n
$GPGGA,095245.05,5703.3741518,N,00952.2841874,E,2,11,0.9,-1.051,M,40.593,M,2.9,0123*6C\r\n
$GPGGA,095245.10,5703.3741464,N,00952.2840807,E,2,11,0.9,-1.047,M,40.593,M,2.9,0123*60\r\n
$GPGGA,095245.15,5703.3741396,N,00952.2839724,E,2,11,0.9,-1.046,M,40.593,M,2.9,0123*6E\r\n
$GPGGA,095245.20,5703.3741341,N,00952.2838608,E,2,11,0.9,-1.046,M,40.593,M,2.9,0123*6C\r\n
$GPGGA,095245.25,5703.3741294,N,00952.2837472,E,2,11,0.9,-1.044,M,40.593,M,1.8,0123*60\r\n
$GPGGA,095245.30,5703.3741234,N,00952.2836320,E,2,11,0.9,-1.042,M,40.593,M,1.8,0123*69\r\n
$GPGGA,095245.35,5703.3741177,N,00952.2835161,E,2,11,0.9,-1.040,M,40.593,M,1.8,0123*6E\r\n
$GPGGA,095245.40,5703.3741133,N,00952.2833980,E,2,11,0.9,-1.041,M,40.593,M,1.8,0123*6C\r\n
$GPGGA,095245.45,5703.3741078,N,00952.2832779,E,2,11,0.9,-1.040,M,40.593,M,2.0,0123*64\r\n
$GPGGA,095245.50,5703.3741025,N,00952.2831568,E,2,11,0.9,-1.039,M,40.593,M,2.0,0123*67\r\n
$GPGGA,095245.55,5703.3740986,N,00952.2830340,E,2,11,0.9,-1.036,M,40.593,M,2.0,0123*61\r\n
$GPGGA,095245.60,5703.3740942,N,00952.2829082,E,2,11,0.9,-1.033,M,40.593,M,2.0,0123*6F\r\n
$GPGGA,095245.65,5703.3740886,N,00952.2827818,E,2,11,0.9,-1.032,M,40.593,M,2.3,0123*64\r\n
$GPGGA,095245.70,5703.3740831,N,00952.2826544,E,2,11,0.9,-1.030,M,40.593,M,2.3,0123*6B\r\n
$GPGGA,095245.75,5703.3740779,N,00952.2825267,E,2,11,0.9,-1.027,M,40.593,M,2.3,0123*6E\r\n
$GPGGA,095245.80,5703.3740726,N,00952.2823973,E,2,11,0.9,-1.026,M,40.593,M,2.3,0123*67\r\n
$GPGGA,095245.85,5703.3740667,N,00952.2822666,E,2,11,0.9,-1.022,M,40.593,M,2.5,0123*6E\r\n
$GPGGA,095245.90,5703.3740605,N,00952.2821345,E,2,11,0.9,-1.021,M,40.593,M,2.5,0123*6A\r\n
$GPGGA,095245.95,5703.3740543,N,00952.2819986,E,2,11,0.9,-1.022,M,40.593,M,2.5,0123*63\r\n
$GPGGA,095246.00,5703.3740477,N,00952.2818640,E,2,11,0.9,-1.023,M,40.593,M,2.5,0123*6F\r\n
$GPGGA,095246.05,5703.3740418,N,00952.2817297,E,2,11,0.9,-1.026,M,40.593,M,2.7,0123*65\r\n
$GPGGA,095246.10,5703.3740367,N,00952.2815930,E,2,11,0.9,-1.026,M,40.593,M,2.7,0123*6A\r\n
$GPGGA,095246.15,5703.3740311,N,00952.2814559,E,2,11,0.9,-1.026,M,40.593,M,2.7,0123*6C\r\n
$GPGGA,095246.20,5703.3740259,N,00952.2813179,E,2,11,0.9,-1.026,M,40.593,M,2.7,0123*66\r\n
$GPGGA,095246.25,5703.3740214,N,00952.2811770,E,2,11,0.9,-1.024,M,40.593,M,2.2,0123*60\r\n
$GPGGA,095246.30,5703.3740171,N,00952.2810377,E,2,11,0.9,-1.023,M,40.593,M,2.2,0123*61\r\n
$GPGGA,095246.35,5703.3740126,N,00952.2808990,E,2,11,0.9,-1.022,M,40.593,M,2.2,0123*6D\r\n
$GPGGA,095246.40,5703.3740084,N,00952.2807585,E,2,11,0.9,-1.023,M,40.593,M,2.2,0123*60\r\n
$GPGGA,095246.45,5703.3740031,N,00952.2806162,E,2,11,0.9,-1.022,M,40.593,M,2.4,0123*60\r\n
$GPGGA,095246.50,5703.3739979,N,00952.2804735,E,2,11,0.9,-1.021,M,40.593,M,2.4,0123*6A\r\n
$GPGGA,095246.55,5703.3739935,N,00952.2803304,E,2,11,0.9,-1.020,M,40.593,M,2.4,0123*67\r\n
$GPGGA,095246.60,5703.3739880,N,00952.2801871,E,2,11,0.9,-1.018,M,40.593,M,2.4,0123*6E\r\n
$GPGGA,095246.65,5703.3739826,N,00952.2800451,E,2,11,0.9,-1.017,M,40.593,M,2.6,0123*65\r\n
$GPGGA,095246.70,5703.3739777,N,00952.2798996,E,2,11,0.9,-1.022,M,40.593,M,2.6,0123*64\r\n
$GPGGA,095246.75,5703.3739733,N,00952.2797530,E,2,11,0.9,-1.021,M,40.593,M,2.6,0123*6D\r\n
$GPGGA,095246.80,5703.3739689,N,00952.2796060,E,2,11,0.9,-1.021,M,40.593,M,2.6,0123*66\r\n
$GPGGA,095246.85,5703.3739628,N,00952.2794594,E,2,11,0.9,-1.022,M,40.593,M,2.9,0123*68\r\n
$GPGGA,095246.90,5703.3739563,N,00952.2793129,E,2,11,0.9,-1.025,M,40.593,M,2.9,0123*62\r\n
$GPGGA,095246.95,5703.3739495,N,00952.2791675,E,2,11,0.9,-1.024,M,40.593,M,2.9,0123*62\r\n
$GPGGA,095247.00,5703.3739441,N,00952.2790212,E,2,11,0.9,-1.024,M,40.593,M,2.9,0123*62\r\n
$GPGGA,095247.05,5703.3739386,N,00952.2788744,E,2,11,0.9,-1.026,M,40.593,M,3.1,0123*6F\r\n
$GPGGA,095247.10,5703.3739332,N,00952.2787265,E,2,11,0.9,-1.025,M,40.593,M,3.1,0123*6E\r\n
$GPGGA,095247.15,5703.3739266,N,00952.2785773,E,2,11,0.9,-1.028,M,40.593,M,3.1,0123*66\r\n
$GPGGA,095247.20,5703.3739199,N,00952.2784285,E,2,11,0.9,-1.028,M,40.593,M,3.1,0123*6E\r\n
$GPGGA,095247.25,5703.3739144,N,00952.2782791,E,2,11,0.9,-1.027,M,40.593,M,3.3,0123*60\r\n
$GPGGA,095247.30,5703.3739088,N,00952.2781274,E,2,11,0.9,-1.028,M,40.593,M,3.3,0123*67\r\n
$GPGGA,095247.35,5703.3739046,N,00952.2779778,E,2,11,0.9,-1.027,M,40.593,M,3.3,0123*61\r\n
$GPGGA,095247.40,5703.3739002,N,00952.2778290,E,2,11,0.9,-1.027,M,40.593,M,3.3,0123*61\r\n
$GPGGA,095247.45,5703.3738953,N,00952.2776783,E,2,11,0.9,-1.025,M,40.593,M,3.5,0123*65\r\n
$GPGGA,095247.50,5703.3738909,N,00952.2775281,E,2,11,0.9,-1.024,M,40.593,M,3.5,0123*6B\r\n
$GPGGA,095247.55,5703.3738878,N,00952.2773763,E,2,11,0.9,-1.025,M,40.593,M,3.5,0123*67\r\n
$GPGGA,095247.60,5703.3738834,N,00952.2772236,E,2,11,0.9,-1.025,M,40.593,M,3.5,0123*6D\r\n
$GPGGA,095247.65,5703.3738785,N,00952.2770698,E,2,11,0.9,-1.028,M,40.593,M,3.7,0123*60\r\n
$GPGGA,095247.70,5703.3738740,N,00952.2769165,E,2,11,0.9,-1.028,M,40.593,M,3.7,0123*60\r\n
$GPGGA,095247.75,5703.3738678,N,00952.2767633,E,2,11,0.9,-1.030,M,40.593,M,3.7,0123*6C\r\n
$GPGGA,095247.80,5703.3738614,N,00952.2766107,E,2,11,0.9,-1.031,M,40.593,M,3.7,0123*6C\r\n
$GPGGA,095247.85,5703.3738549,N,00952.2764566,E,2,11,0.9,-1.033,M,40.593,M,3.9,0123*6F\r\n
$GPGGA,095247.90,5703.3738486,N,00952.2763035,E,2,11,0.9,-1.036,M,40.593,M,3.9,0123*68\r\n
$GPGGA,095247.95,5703.3738426,N,00952.2761507,E,2,11,0.9,-1.032,M,40.593,M,3.9,0123*65\r\n
$GPGGA,095248.00,5703.3738353,N,00952.2759963,E,2,11,0.9,-1.029,M,40.593,M,3.9,0123*6C\r\n
$GPGGA,095248.05,5703.3738272,N,00952.2758404,E,2,11,0.9,-1.031,M,40.593,M,4.1,0123*60\r\n
$GPGGA,095248.10,5703.3738200,N,00952.2756869,E,2,11,0.9,-1.029,M,40.593,M,4.1,0123*61\r\n
$GPGGA,095248.15,5703.3738125,N,00952.2755335,E,2,11,0.9,-1.027,M,40.593,M,4.1,0123*6F\r\n
$GPGGA,095248.20,5703.3738039,N,00952.2753798,E,2,11,0.9,-1.026,M,40.593,M,4.1,0123*61\r\n
$GPGGA,095248.25,5703.3737963,N,00952.2752253,E,2,11,0.9,-1.022,M,40.593,M,1.9,0123*67\r\n
$GPGGA,095248.30,5703.3737892,N,00952.2750703,E,2,11,0.9,-1.020,M,40.593,M,1.9,0123*6C\r\n
$GPGGA,095248.35,5703.3737827,N,00952.2749142,E,2,11,0.9,-1.020,M,40.593,M,1.9,0123*6C\r\n
$GPGGA,095248.40,5703.3737759,N,00952.2747581,E,2,11,0.9,-1.018,M,40.593,M,1.9,0123*66\r\n
$GPGGA,095248.45,5703.3737685,N,00952.2746016,E,2,11,0.9,-1.019,M,40.593,M,2.2,0123*60\r\n
$GPGGA,095248.50,5703.3737613,N,00952.2744439,E,2,11,0.9,-1.020,M,40.593,M,2.2,0123*6A\r\n
$GPGGA,095248.55,5703.3737527,N,00952.2742855,E,2,11,0.9,-1.022,M,40.593,M,2.2,0123*69\r\n
$GPGGA,095248.60,5703.3737441,N,00952.2741286,E,2,11,0.9,-1.021,M,40.593,M,2.2,0123*6A\r\n
$GPGGA,095248.65,5703.3737364,N,00952.2739714,E,2,11,0.9,-1.022,M,40.593,M,2.4,0123*6B\r\n
$GPGGA,095248.70,5703.3737275,N,00952.2738136,E,2,11,0.9,-1.022,M,40.593,M,2.4,0123*69\r\n
$GPGGA,095248.75,5703.3737187,N,00952.2736550,E,2,11,0.9,-1.023,M,40.593,M,2.4,0123*69\r\n
$GPGGA,095248.80,5703.3737098,N,00952.2734978,E,2,11,0.9,-1.024,M,40.593,M,2.4,0123*6F\r\n
$GPGGA,095248.85,5703.3737016,N,00952.2733409,E,2,11,0.9,-1.023,M,40.593,M,2.7,0123*64\r\n
$GPGGA,095248.90,5703.3736924,N,00952.2731835,E,2,11,0.9,-1.020,M,40.593,M,2.7,0123*6B\r\n
$GPGGA,095248.95,5703.3736829,N,00952.2730246,E,2,11,0.9,-1.021,M,40.593,M,2.7,0123*6C\r\n
$GPGGA,095249.00,5703.3736726,N,00952.2728670,E,2,11,0.9,-1.021,M,40.593,M,2.7,0123*69\r\n
$GPGGA,095249.05,5703.3736625,N,00952.2727074,E,2,11,0.9,-1.018,M,40.593,M,2.9,0123*67\r\n
$GPGGA,095249.10,5703.3736523,N,00952.2725474,E,2,11,0.9,-1.019,M,40.593,M,2.9,0123*61\r\n
$GPGGA,095249.15,5703.3736431,N,00952.2723882,E,2,11,0.9,-1.019,M,40.593,M,2.9,0123*65\r\n
$GPGGA,095249.20,5703.3736325,N,00952.2722292,E,2,11,0.9,-1.020,M,40.593,M,2.9,0123*61\r\n
$GPGGA,095249.25,5703.3736215,N,00952.2720695,E,2,11,0.9,-1.022,M,40.593,M,1.8,0123*67\r\n
$GPGGA,095249.30,5703.3736111,N,00952.2719098,E,2,11,0.9,-1.019,M,40.593,M,1.8,0123*6D\r\n
$GPGGA,095249.35,5703.3736005,N,00952.2717509,E,2,11,0.9,-1.018,M,40.593,M,1.8,0123*6E\r\n
$GPGGA,095249.40,5703.3735900,N,00952.2715916,E,2,11,0.9,-1.015,M,40.593,M,1.8,0123*6E\r\n
$GPGGA,095249.45,5703.3735792,N,00952.2714317,E,2,11,0.9,-1.013,M,40.593,M,2.0,0123*69\r\n
$GPGGA,095249.50,5703.3735697,N,00952.2712720,E,2,11,0.9,-1.010,M,40.593,M,2.0,0123*6C\r\n
$GPGGA,095249.55,5703.3735611,N,00952.2711138,E,2,11,0.9,-1.004,M,40.593,M,2.0,0123*6E\r\n
$GPGGA,095249.60,5703.3735497,N,00952.2709538,E,2,11,0.9,-1.003,M,40.593,M,2.0,0123*6E\r\n
$GPGGA,095249.65,5703.3735377,N,00952.2707927,E,2,11,0.9,-1.000,M,40.593,M,2.3,0123*6E\r\n
$GPGGA,095249.70,5703.3735270,N,00952.2706331,E,2,11,0.9,-0.999,M,40.593,M,2.3,0123*68\r\n
$GPGGA,095249.75,5703.3735162,N,00952.2704726,E,2,11,0.9,-0.997,M,40.593,M,2.3,0123*63\r\n
$GPGGA,095249.80,5703.3735042,N,00952.2703128,E,2,11,0.9,-0.995,M,40.593,M,2.3,0123*67\r\n
$GPGGA,095249.85,5703.3734926,N,00952.2701519,E,2,11,0.9,-0.995,M,40.593,M,2.5,0123*6A\r\n
$GPGGA,095249.90,5703.3734816,N,00952.2699904,E,2,11,0.9,-0.997,M,40.593,M,2.5,0123*6E\r\n
$GPGGA,095249.95,5703.3734690,N,00952.2698295,E,2,11,0.9,-0.999,M,40.593,M,2.5,0123*67\r\n
$GPGGA,095250.00,5703.3734563,N,00952.2696672,E,2,11,0.9,-1.000,M,40.593,M,2.5,0123*67\r\n
$GPGGA,095250.05,5703.3734436,N,00952.2695045,E,2,11,0.9,-1.001,M,40.593,M,2.7,0123*61\r\n
$GPGGA,095250.10,5703.3734330,N,00952.2693439,E,2,11,0.9,-1.002,M,40.593,M,2.7,0123*6E\r\n
$GPGGA,095250.15,5703.3734210,N,00952.2691821,E,2,11,0.9,-1.000,M,40.593,M,2.7,0123*6D\r\n
$GPGGA,095250.20,5703.3734098,N,00952.2690221,E,2,11,0.9,-0.994,M,40.593,M,2.7,0123*67\r\n
$GPGGA,095250.25,5703.3733968,N,00952.2688631,E,2,11,0.9,-0.999,M,40.593,M,2.2,0123*67\r\n
$GPGGA,095250.30,5703.3733855,N,00952.2687051,E,2,11,0.9,-0.996,M,40.593,M,2.2,0123*6C\r\n
$GPGGA,095250.35,5703.3733735,N,00952.2685438,E,2,11,0.9,-0.992,M,40.593,M,2.2,0123*6D\r\n
$GPGGA,095250.40,5703.3733621,N,00952.2683818,E,2,11,0.9,-0.994,M,40.593,M,2.2,0123*65\r\n
$GPGGA,095250.45,5703.3733510,N,00952.2682187,E,2,11,0.9,-0.996,M,40.593,M,2.4,0123*6B\r\n
$GPGGA,095250.50,5703.3733399,N,00952.2680549,E,2,11,0.9,-0.997,M,40.593,M,2.4,0123*6D\r\n
$GPGGA,095250.55,5703.3733277,N,00952.2678919,E,2,11,0.9,-0.998,M,40.593,M,2.4,0123*68\r\n
$GPGGA,095250.60,5703.3733165,N,00952.2677312,E,2,11,0.9,-0.997,M,40.593,M,2.4,0123*6F\r\n
$GPGGA,095250.65,5703.3733048,N,00952.2675717,E,2,11,0.9,-0.998,M,40.593,M,2.6,0123*6A\r\n
$GPGGA,095250.70,5703.3732951,N,00952.2674123,E,2,11,0.9,-0.995,M,40.593,M,2.6,0123*63\r\n
$GPGGA,095250.75,5703.3732852,N,00952.2672515,E,2,11,0.9,-0.992,M,40.593,M,2.6,0123*64\r\n
$GPGGA,095250.80,5703.3732743,N,00952.2670902,E,2,11,0.9,-0.991,M,40.593,M,2.6,0123*6A\r\n
$GPGGA,095250.85,5703.3732635,N,00952.2669283,E,2,11,0.9,-0.991,M,40.593,M,2.9,0123*6A\r\n
$GPGGA,095250.90,5703.3732521,N,00952.2667669,E,2,11,0.9,-0.995,M,40.593,M,2.9,0123*62\r\n
$GPGGA,095250.95,5703.3732420,N,00952.2666069,E,2,11,0.9,-0.993,M,40.593,M,2.9,0123*66\r\n
$GPGGA,095251.00,5703.3732311,N,00952.2664464,E,2,11,0.9,-0.991,M,40.593,M,2.9,0123*67\r\n
$GPGGA,095251.05,5703.3732204,N,00952.2662863,E,2,11,0.9,-0.993,M,40.593,M,3.1,0123*61\r\n
$GPGGA,095251.10,5703.3732100,N,00952.2661259,E,2,11,0.9,-0.992,M,40.593,M,3.1,0123*63\r\n
$GPGGA,095251.15,5703.3732002,N,00952.2659649,E,2,11,0.9,-0.994,M,40.593,M,3.1,0123*6D\r\n
$GPGGA,095251.20,5703.3731897,N,00952.2658035,E,2,11,0.9,-0.994,M,40.593,M,3.1,0123*60\r\n
$GPGGA,095251.25,5703.3731809,N,00952.2656434,E,2,11,0.9,-0.994,M,40.593,M,3.3,0123*6B\r\n
$GPGGA,095251.30,5703.3731721,N,00952.2654834,E,2,11,0.9,-0.994,M,40.593,M,3.3,0123*64\r\n
$GPGGA,095251.35,5703.3731623,N,00952.2653223,E,2,11,0.9,-0.994,M,40.593,M,3.3,0123*69\r\n
$GPGGA,095251.40,5703.3731519,N,00952.2651620,E,2,11,0.9,-0.995,M,40.593,M,3.3,0123*65\r\n
$GPGGA,095251.45,5703.3731427,N,00952.2650014,E,2,11,0.9,-0.996,M,40.593,M,3.5,0123*69\r\n
$GPGGA,095251.50,5703.3731338,N,00952.2648410,E,2,11,0.9,-0.997,M,40.593,M,3.5,0123*6C\r\n
$GPGGA,095251.55,5703.3731259,N,00952.2646820,E,2,11,0.9,-0.998,M,40.593,M,3.5,0123*61\r\n
$GPGGA,095251.60,5703.3731179,N,00952.2645209,E,2,11,0.9,-0.996,M,40.593,M,3.5,0123*6A\r\n
$GPGGA,095251.65,5703.3731105,N,00952.2643604,E,2,11,0.9,-0.993,M,40.593,M,3.7,0123*6C\r\n
$GPGGA,095251.70,5703.3731012,N,00952.2642003,E,2,11,0.9,-0.995,M,40.593,M,3.7,0123*69\r\n
$GPGGA,095251.75,5703.3730933,N,00952.2640402,E,2,11,0.9,-0.994,M,40.593,M,3.7,0123*61\r\n
$GPGGA,095251.80,5703.3730849,N,00952.2638794,E,2,11,0.9,-0.994,M,40.593,M,3.7,0123*64\r\n
$GPGGA,095251.85,5703.3730757,N,00952.2637173,E,2,11,0.9,-1.000,M,40.593,M,3.9,0123*6A\r\n
$GPGGA,095251.90,5703.3730679,N,00952.2635576,E,2,11,0.9,-0.999,M,40.593,M,3.9,0123*68\r\n
$GPGGA,095251.95,5703.3730604,N,00952.2633997,E,2,11,0.9,-1.000,M,40.593,M,3.9,0123*6A\r\n
$GPGGA,095252.00,5703.3730532,N,00952.2632403,E,2,11,0.9,-0.998,M,40.593,M,3.9,0123*6B\r\n
$GPGGA,095252.05,5703.3730465,N,00952.2630825,E,2,11,0.9,-0.991,M,40.593,M,4.1,0123*61\r\n
$GPGGA,095252.10,5703.3730393,N,00952.2629237,E,2,11,0.9,-0.989,M,40.593,M,4.1,0123*63\r\n
$GPGGA,095252.15,5703.3730318,N,00952.2627634,E,2,11,0.9,-0.988,M,40.593,M,4.1,0123*6D\r\n
$GPGGA,095252.20,5703.3730231,N,00952.2626036,E,2,11,0.9,-0.991,M,40.593,M,4.1,0123*6C\r\n
$GPGGA,095252.25,5703.3730146,N,00952.2624440,E,2,11,0.9,-0.999,M,40.593,M,1.9,0123*68\r\n
$GPGGA,095252.30,5703.3730079,N,00952.2622846,E,2,11,0.9,-0.998,M,40.593,M,1.9,0123*6C\r\n
$GPGGA,095252.35,5703.3730010,N,00952.2621250,E,2,11,0.9,-1.000,M,40.593,M,1.9,0123*61\r\n
$GPGGA,095252.40,5703.3729945,N,00952.2619642,E,2,11,0.9,-1.002,M,40.593,M,1.9,0123*6C\r\n
$GPGGA,095252.45,5703.3729866,N,00952.2618041,E,2,11,0.9,-1.003,M,40.593,M,2.2,0123*64\r\n
$GPGGA,095252.50,5703.3729786,N,00952.2616453,E,2,11,0.9,-1.003,M,40.593,M,2.2,0123*68\r\n
$GPGGA,095252.55,5703.3729715,N,00952.2614871,E,2,11,0.9,-1.002,M,40.593,M,2.2,0123*68\r\n
$GPGGA,095252.60,5703.3729661,N,00952.2613288,E,2,11,0.9,-1.001,M,40.593,M,2.2,0123*64\r\n
$GPGGA,095252.65,5703.3729602,N,00952.2611708,E,2,11,0.9,-0.997,M,40.593,M,2.4,0123*6A\r\n
$GPGGA,095252.70,5703.3729541,N,00952.2610112,E,2,11,0.9,-0.997,M,40.593,M,2.4,0123*66\r\n
$GPGGA,095252.75,5703.3729482,N,00952.2608519,E,2,11,0.9,-0.998,M,40.593,M,2.4,0123*64\r\n
$GPGGA,095252.80,5703.3729415,N,00952.2606929,E,2,11,0.9,-1.000,M,40.593,M,2.4,0123*68\r\n
$GPGGA,095252.85,5703.3729347,N,00952.2605323,E,2,11,0.9,-1.001,M,40.593,M,2.7,0123*6C\r\n
$GPGGA,095252.90,5703.3729290,N,00952.2603711,E,2,11,0.9,-1.000,M,40.593,M,2.7,0123*61\r\n
$GPGGA,095252.95,5703.3729233,N,00952.2602115,E,2,11,0.9,-1.000,M,40.593,M,2.7,0123*6E\r\n
$GPGGA,095253.00,5703.3729176,N,00952.2600528,E,2,11,0.9,-1.002,M,40.593,M,2.7,0123*6B\r\n
$GPGGA,095253.05,5703.3729103,N,00952.2598918,E,2,11,0.9,-1.006,M,40.593,M,2.9,0123*6B\r\n
$GPGGA,095253.10,5703.3729041,N,00952.2597294,E,2,11,0.9,-1.006,M,40.593,M,2.9,0123*68\r\n
$GPGGA,095253.15,5703.3728967,N,00952.2595680,E,2,11,0.9,-1.009,M,40.593,M,2.9,0123*6D\r\n
$GPGGA,095253.20,5703.3728899,N,00952.2594065,E,2,11,0.9,-1.012,M,40.593,M,2.9,0123*6D\r\n
$GPGGA,095253.25,5703.3728838,N,00952.2592451,E,2,11,0.9,-1.016,M,40.593,M,1.8,0123*60\r\n
$GPGGA,095253.30,5703.3728780,N,00952.2590825,E,2,11,0.9,-1.017,M,40.593,M,1.8,0123*64\r\n
$GPGGA,095253.35,5703.3728721,N,00952.2589195,E,2,11,0.9,-1.018,M,40.593,M,1.8,0123*6F\r\n
$GPGGA,095253.40,5703.3728662,N,00952.2587576,E,2,11,0.9,-1.018,M,40.593,M,1.8,0123*6C\r\n
$GPGGA,095253.45,5703.3728604,N,00952.2585953,E,2,11,0.9,-1.019,M,40.593,M,2.0,0123*6A\r\n
$GPGGA,095253.50,5703.3728533,N,00952.2584329,E,2,11,0.9,-1.019,M,40.593,M,2.0,0123*6F\r\n
$GPGGA,095253.55,5703.3728473,N,00952.2582725,E,2,11,0.9,-1.015,M,40.593,M,2.0,0123*6D\r\n
$GPGGA,095253.60,5703.3728416,N,00952.2581122,E,2,11,0.9,-1.009,M,40.593,M,2.0,0123*67\r\n
$GPGGA,095253.65,5703.3728368,N,00952.2579521,E,2,11,0.9,-1.006,M,40.593,M,2.3,0123*60\r\n
$GPGGA,095253.70,5703.3728310,N,00952.2577913,E,2,11,0.9,-1.004,M,40.593,M,2.3,0123*6A\r\n
$GPGGA,095253.75,5703.3728257,N,00952.2576309,E,2,11,0.9,-1.003,M,40.593,M,2.3,0123*6A\r\n
$GPGGA,095253.80,5703.3728195,N,00952.2574685,E,2,11,0.9,-1.001,M,40.593,M,2.3,0123*6C\r\n
$GPGGA,095253.85,5703.3728137,N,00952.2573054,E,2,11,0.9,-0.998,M,40.593,M,2.5,0123*62\r\n
$GPGGA,095253.90,5703.3728088,N,00952.2571422,E,2,11,0.9,-0.997,M,40.593,M,2.5,0123*6B\r\n
$GPGGA,095253.95,5703.3728029,N,00952.2569784,E,2,11,0.9,-0.997,M,40.593,M,2.5,0123*63\r\n
$GPGGA,095254.00,5703.3727977,N,00952.2568153,E,2,11,0.9,-0.997,M,40.593,M,2.5,0123*68\r\n
$GPGGA,095254.05,5703.3727914,N,00952.2566548,E,2,11,0.9,-0.996,M,40.593,M,2.7,0123*6B\r\n
$GPGGA,095254.10,5703.3727856,N,00952.2564930,E,2,11,0.9,-0.994,M,40.593,M,2.7,0123*6B\r\n
$GPGGA,095254.15,5703.3727781,N,00952.2563312,E,2,11,0.9,-0.994,M,40.593,M,2.7,0123*66\r\n
$GPGGA,095254.20,5703.3727715,N,00952.2561681,E,2,11,0.9,-0.995,M,40.593,M,2.7,0123*61\r\n
$GPGGA,095254.25,5703.3727649,N,00952.2560049,E,2,11,0.9,-1.000,M,40.593,M,2.2,0123*6E\r\n
$GPGGA,095254.30,5703.3727579,N,00952.2558428,E,2,11,0.9,-0.999,M,40.593,M,2.2,0123*6A\r\n
$GPGGA,095254.35,5703.3727522,N,00952.2556811,E,2,11,0.9,-1.002,M,40.593,M,2.2,0123*63\r\n
$GPGGA,095254.40,5703.3727459,N,00952.2555166,E,2,11,0.9,-1.003,M,40.593,M,2.2,0123*67\r\n
$GPGGA,095254.45,5703.3727391,N,00952.2553541,E,2,11,0.9,-1.000,M,40.593,M,2.4,0123*63\r\n
$GPGGA,095254.50,5703.3727314,N,00952.2551930,E,2,11,0.9,-1.003,M,40.593,M,2.4,0123*61\r\n
$GPGGA,095254.55,5703.3727256,N,00952.2550316,E,2,11,0.9,-1.001,M,40.593,M,2.4,0123*6E\r\n
$GPGGA,095254.60,5703.3727193,N,00952.2548713,E,2,11,0.9,-0.998,M,40.593,M,2.4,0123*62\r\n
$GPGGA,095254.65,5703.3727133,N,00952.2547112,E,2,11,0.9,-0.993,M,40.593,M,2.6,0123*6C\r\n
$GPGGA,095254.70,5703.3727090,N,00952.2545501,E,2,11,0.9,-0.988,M,40.593,M,2.6,0123*6E\r\n
$GPGGA,095254.75,5703.3727034,N,00952.2543891,E,2,11,0.9,-0.987,M,40.593,M,2.6,0123*68\r\n
$GPGGA,095254.80,5703.3726978,N,00952.2542285,E,2,11,0.9,-0.987,M,40.593,M,2.6,0123*6C\r\n
$GPGGA,095254.85,5703.3726920,N,00952.2540668,E,2,11,0.9,-0.987,M,40.593,M,2.9,0123*6E\r\n
$GPGGA,095254.90,5703.3726859,N,00952.2539055,E,2,11,0.9,-0.987,M,40.593,M,2.9,0123*63\r\n
$GPGGA,095254.95,5703.3726796,N,00952.2537448,E,2,11,0.9,-0.986,M,40.593,M,2.9,0123*6D\r\n
$GPGGA,095255.00,5703.3726726,N,00952.2535840,E,2,11,0.9,-0.988,M,40.593,M,2.9,0123*63\r\n
$GPGGA,095255.05,5703.3726636,N,00952.2534217,E,2,11,0.9,-0.993,M,40.593,M,3.1,0123*6C\r\n
$GPGGA,095255.10,5703.3726574,N,00952.2532581,E,2,11,0.9,-0.993,M,40.593,M,3.1,0123*63\r\n
$GPGGA,095255.15,5703.3726516,N,00952.2530959,E,2,11,0.9,-0.997,M,40.593,M,3.1,0123*6D\r\n
$GPGGA,095255.20,5703.3726441,N,00952.2529341,E,2,11,0.9,-1.002,M,40.593,M,3.1,0123*67\r\n
$GPGGA,095255.25,5703.3726373,N,00952.2527726,E,2,11,0.9,-1.007,M,40.593,M,3.3,0123*68\r\n
$GPGGA,095255.30,5703.3726315,N,00952.2526109,E,2,11,0.9,-1.009,M,40.593,M,3.3,0123*68\r\n
$GPGGA,095255.35,5703.3726256,N,00952.2524502,E,2,11,0.9,-1.010,M,40.593,M,3.3,0123*6E\r\n
$GPGGA,095255.40,5703.3726191,N,00952.2522911,E,2,11,0.9,-1.009,M,40.593,M,3.3,0123*64\r\n
$GPGGA,095255.45,5703.3726135,N,00952.2521315,E,2,11,0.9,-1.011,M,40.593,M,3.5,0123*6D\r\n
$GPGGA,095255.50,5703.3726078,N,00952.2519721,E,2,11,0.9,-1.010,M,40.593,M,3.5,0123*68\r\n
$GPGGA,095255.55,5703.3726016,N,00952.2518136,E,2,11,0.9,-1.008,M,40.593,M,3.5,0123*6D\r\n
$GPGGA,095255.60,5703.3725951,N,00952.2516540,E,2,11,0.9,-1.005,M,40.593,M,3.5,0123*64\r\n
$GPGGA,095255.65,5703.3725902,N,00952.2514941,E,2,11,0.9,-1.001,M,40.593,M,3.7,0123*6E\r\n
$GPGGA,095255.70,5703.3725846,N,00952.2513340,E,2,11,0.9,-1.003,M,40.593,M,3.7,0123*65\r\n
$GPGGA,095255.75,5703.3725797,N,00952.2511729,E,2,11,0.9,-1.001,M,40.593,M,3.7,0123*68\r\n
$GPGGA,095255.80,5703.3725742,N,00952.2510122,E,2,11,0.9,-1.000,M,40.593,M,3.7,0123*67\r\n
$GPGGA,095255.85,5703.3725680,N,00952.2508521,E,2,11,0.9,-1.001,M,40.593,M,3.9,0123*6C\r\n
$GPGGA,095255.90,5703.3725616,N,00952.2506915,E,2,11,0.9,-1.001,M,40.593,M,3.9,0123*62\r\n
$GPGGA,095255.95,5703.3725543,N,00952.2505298,E,2,11,0.9,-1.002,M,40.593,M,3.9,0123*6A\r\n
$GPGGA,095256.00,5703.3725465,N,00952.2503682,E,2,11,0.9,-1.004,M,40.593,M,3.9,0123*6F\r\n
$GPGGA,095256.05,5703.3725395,N,00952.2502096,E,2,11,0.9,-1.007,M,40.593,M,4.1,0123*6C\r\n
$GPGGA,095256.10,5703.3725326,N,00952.2500501,E,2,11,0.9,-1.009,M,40.593,M,4.1,0123*67\r\n
$GPGGA,095256.15,5703.3725250,N,00952.2498901,E,2,11,0.9,-1.011,M,40.593,M,4.1,0123*67\r\n
$GPGGA,095256.20,5703.3725182,N,00952.2497298,E,2,11,0.9,-1.011,M,40.593,M,4.1,0123*69\r\n
$GPGGA,095256.25,5703.3725108,N,00952.2495687,E,2,11,0.9,-1.013,M,40.593,M,1.9,0123*69\r\n
$GPGGA,095256.30,5703.3725020,N,00952.2494075,E,2,11,0.9,-1.015,M,40.593,M,1.9,0123*6A\r\n
$GPGGA,095256.35,5703.3724942,N,00952.2492472,E,2,11,0.9,-1.014,M,40.593,M,1.9,0123*67\r\n
$GPGGA,095256.40,5703.3724873,N,00952.2490882,E,2,11,0.9,-1.010,M,40.593,M,1.9,0123*63\r\n
$GPGGA,095256.45,5703.3724788,N,00952.2489278,E,2,11,0.9,-1.008,M,40.593,M,2.2,0123*6B\r\n
$GPGGA,095256.50,5703.3724699,N,00952.2487683,E,2,11,0.9,-1.007,M,40.593,M,2.2,0123*6F\r\n
$GPGGA,095256.55,5703.3724628,N,00952.2486092,E,2,11,0.9,-1.006,M,40.593,M,2.2,0123*66\r\n
$GPGGA,095256.60,5703.3724558,N,00952.2484483,E,2,11,0.9,-1.005,M,40.593,M,2.2,0123*61\r\n
$GPGGA,095256.65,5703.3724494,N,00952.2482875,E,2,11,0.9,-1.006,M,40.593,M,2.4,0123*63\r\n
$GPGGA,095256.70,5703.3724433,N,00952.2481263,E,2,11,0.9,-1.005,M,40.593,M,2.4,0123*67\r\n
$GPGGA,095256.75,5703.3724367,N,00952.2479656,E,2,11,0.9,-1.003,M,40.593,M,2.4,0123*67\r\n
$GPGGA,095256.80,5703.3724298,N,00952.2478047,E,2,11,0.9,-1.004,M,40.593,M,2.4,0123*6C\r\n
$GPGGA,095256.85,5703.3724244,N,00952.2476454,E,2,11,0.9,-1.000,M,40.593,M,2.7,0123*67\r\n
$GPGGA,095256.90,5703.3724177,N,00952.2474855,E,2,11,0.9,-0.997,M,40.593,M,2.7,0123*69\r\n
$GPGGA,095256.95,5703.3724120,N,00952.2473252,E,2,11,0.9,-0.996,M,40.593,M,2.7,0123*65\r\n
$GPGGA,095257.00,5703.3724054,N,00952.2471641,E,2,11,0.9,-0.995,M,40.593,M,2.7,0123*6D\r\n
$GPGGA,095257.05,5703.3723974,N,00952.2470019,E,2,11,0.9,-0.997,M,40.593,M,2.9,0123*62\r\n
$GPGGA,095257.10,5703.3723915,N,00952.2468391,E,2,11,0.9,-0.997,M,40.593,M,2.9,0123*6B\r\n
$GPGGA,095257.15,5703.3723848,N,00952.2466751,E,2,11,0.9,-1.000,M,40.593,M,2.9,0123*67\r\n
$GPGGA,095257.20,5703.3723770,N,00952.2465120,E,2,11,0.9,-1.004,M,40.593,M,2.9,0123*62\r\n
$GPGGA,095257.25,5703.3723698,N,00952.2463487,E,2,11,0.9,-1.006,M,40.593,M,1.8,0123*6E\r\n
$GPGGA,095257.30,5703.3723623,N,00952.2461872,E,2,11,0.9,-1.007,M,40.593,M,1.8,0123*6F\r\n
$GPGGA,095257.35,5703.3723535,N,00952.2460269,E,2,11,0.9,-1.010,M,40.593,M,1.8,0123*69\r\n
$GPGGA,095257.40,5703.3723468,N,00952.2458646,E,2,11,0.9,-1.009,M,40.593,M,1.8,0123*68\r\n
$GPGGA,095257.45,5703.3723405,N,00952.2457018,E,2,11,0.9,-1.010,M,40.593,M,2.0,0123*67\r\n
$GPGGA,095257.50,5703.3723349,N,00952.2455400,E,2,11,0.9,-1.008,M,40.593,M,2.0,0123*6A\r\n
$GPGGA,095257.55,5703.3723292,N,00952.2453805,E,2,11,0.9,-1.007,M,40.593,M,2.0,0123*68\r\n
$GPGGA,095257.60,5703.3723223,N,00952.2452202,E,2,11,0.9,-1.006,M,40.593,M,2.0,0123*69\r\n
$GPGGA,095257.65,5703.3723158,N,00952.2450584,E,2,11,0.9,-1.003,M,40.593,M,2.3,0123*6E\r\n
$GPGGA,095257.70,5703.3723100,N,00952.2448959,E,2,11,0.9,-1.002,M,40.593,M,2.3,0123*63\r\n
$GPGGA,095257.75,5703.3723050,N,00952.2447338,E,2,11,0.9,-1.002,M,40.593,M,2.3,0123*60\r\n
$GPGGA,095257.80,5703.3723004,N,00952.2445709,E,2,11,0.9,-1.000,M,40.593,M,2.3,0123*6D\r\n
$GPGGA,095257.85,5703.3722957,N,00952.2444085,E,2,11,0.9,-0.998,M,40.593,M,2.5,0123*6B\r\n
$GPGGA,095257.90,5703.3722897,N,00952.2442447,E,2,11,0.9,-0.999,M,40.593,M,2.5,0123*6F\r\n
$GPGGA,095257.95,5703.3722848,N,00952.2440829,E,2,11,0.9,-0.997,M,40.593,M,2.5,0123*60\r\n
$GPGGA,095258.00,5703.3722791,N,00952.2439221,E,2,11,0.9,-0.999,M,40.593,M,2.5,0123*6A\r\n
$GPGGA,095258.05,5703.3722731,N,00952.2437616,E,2,11,0.9,-1.003,M,40.593,M,2.7,0123*62\r\n
$GPGGA,095258.10,5703.3722692,N,00952.2435997,E,2,11,0.9,-1.000,M,40.593,M,2.7,0123*69\r\n
$GPGGA,095258.15,5703.3722643,N,00952.2434389,E,2,11,0.9,-0.997,M,40.593,M,2.7,0123*62\r\n
$GPGGA,095258.20,5703.3722592,N,00952.2432769,E,2,11,0.9,-0.995,M,40.593,M,2.7,0123*65\r\n
$GPGGA,095258.25,5703.3722547,N,00952.2431148,E,2,11,0.9,-0.992,M,40.593,M,2.2,0123*6C\r\n
$GPGGA,095258.30,5703.3722508,N,00952.2429534,E,2,11,0.9,-0.991,M,40.593,M,2.2,0123*66\r\n
$GPGGA,095258.35,5703.3722460,N,00952.2427904,E,2,11,0.9,-0.990,M,40.593,M,2.2,0123*6C\r\n
$GPGGA,095258.40,5703.3722408,N,00952.2426274,E,2,11,0.9,-0.992,M,40.593,M,2.2,0123*6F\r\n
$GPGGA,095258.45,5703.3722368,N,00952.2424649,E,2,11,0.9,-0.996,M,40.593,M,2.4,0123*61\r\n
$GPGGA,095258.50,5703.3722322,N,00952.2423034,E,2,11,0.9,-0.996,M,40.593,M,2.4,0123*60\r\n
$GPGGA,095258.55,5703.3722274,N,00952.2421431,E,2,11,0.9,-0.997,M,40.593,M,2.4,0123*65\r\n
$GPGGA,095258.60,5703.3722236,N,00952.2419818,E,2,11,0.9,-0.995,M,40.593,M,2.4,0123*6B\r\n
$GPGGA,095258.65,5703.3722179,N,00952.2418196,E,2,11,0.9,-0.992,M,40.593,M,2.6,0123*6D\r\n
$GPGGA,095258.70,5703.3722119,N,00952.2416587,E,2,11,0.9,-0.996,M,40.593,M,2.6,0123*61\r\n
$GPGGA,095258.75,5703.3722083,N,00952.2414974,E,2,11,0.9,-0.994,M,40.593,M,2.6,0123*66\r\n
$GPGGA,095258.80,5703.3722051,N,00952.2413362,E,2,11,0.9,-0.994,M,40.593,M,2.6,0123*69\r\n
$GPGGA,095258.85,5703.3722022,N,00952.2411740,E,2,11,0.9,-0.994,M,40.593,M,2.9,0123*61\r\n
$GPGGA,095258.90,5703.3721981,N,00952.2410119,E,2,11,0.9,-0.991,M,40.593,M,2.9,0123*68\r\n
$GPGGA,095258.95,5703.3721947,N,00952.2408507,E,2,11,0.9,-0.990,M,40.593,M,2.9,0123*64\r\n
$GPGGA,095259.00,5703.3721916,N,00952.2406900,E,2,11,0.9,-0.992,M,40.593,M,2.9,0123*6A\r\n
$GPGGA,095259.05,5703.3721878,N,00952.2405305,E,2,11,0.9,-0.993,M,40.593,M,3.1,0123*62\r\n
$GPGGA,095259.10,5703.3721849,N,00952.2403691,E,2,11,0.9,-0.992,M,40.593,M,3.1,0123*6B\r\n
$GPGGA,095259.15,5703.3721832,N,00952.2402079,E,2,11,0.9,-0.990,M,40.593,M,3.1,0123*61\r\n
$GPGGA,095259.20,5703.3721804,N,00952.2400457,E,2,11,0.9,-0.993,M,40.593,M,3.1,0123*6B\r\n
$GPGGA,095259.25,5703.3721779,N,00952.2398849,E,2,11,0.9,-0.997,M,40.593,M,3.3,0123*68\r\n
$GPGGA,095259.30,5703.3721761,N,00952.2397243,E,2,11,0.9,-0.997,M,40.593,M,3.3,0123*6A\r\n
$GPGGA,095259.35,5703.3721738,N,00952.2395627,E,2,11,0.9,-0.996,M,40.593,M,3.3,0123*66\r\n
$GPGGA,095259.40,5703.3721702,N,00952.2394014,E,2,11,0.9,-0.996,M,40.593,M,3.3,0123*6A\r\n
$GPGGA,095259.45,5703.3721668,N,00952.2392400,E,2,11,0.9,-0.994,M,40.593,M,3.5,0123*61\r\n
$GPGGA,095259.50,5703.3721636,N,00952.2390786,E,2,11,0.9,-0.997,M,40.593,M,3.5,0123*62\r\n
$GPGGA,095259.55,5703.3721608,N,00952.2389172,E,2,11,0.9,-1.000,M,40.593,M,3.5,0123*69\r\n
$GPGGA,095259.60,5703.3721589,N,00952.2387545,E,2,11,0.9,-1.001,M,40.593,M,3.5,0123*6A\r\n
$GPGGA,095259.65,5703.3721547,N,00952.2385925,E,2,11,0.9,-1.004,M,40.593,M,3.7,0123*62\r\n
$GPGGA,095259.70,5703.3721524,N,00952.2384321,E,2,11,0.9,-1.005,M,40.593,M,3.7,0123*6D\r\n
$GPGGA,095259.75,5703.3721512,N,00952.2382713,E,2,11,0.9,-1.004,M,40.593,M,3.7,0123*6F\r\n
$GPGGA,095259.80,5703.3721484,N,00952.2381115,E,2,11,0.9,-1.002,M,40.593,M,3.7,0123*6E\r\n
$GPGGA,095259.85,5703.3721444,N,00952.2379510,E,2,11,0.9,-1.002,M,40.593,M,3.9,0123*6F\r\n
$GPGGA,095259.90,5703.3721415,N,00952.2377881,E,2,11,0.9,-1.001,M,40.593,M,3.9,0123*67\r\n
$GPGGA,095259.95,5703.3721397,N,00952.2376263,E,2,11,0.9,-1.000,M,40.593,M,3.9,0123*69\r\n
$GPGGA,095300.00,5703.3721387,N,00952.2374645,E,2,11,0.9,-0.999,M,40.593,M,3.9,0123*63\r\n
$GPGGA,095300.05,5703.3721374,N,00952.2373033,E,2,11,0.9,-1.003,M,40.593,M,4.1,0123*6E\r\n
$GPGGA,095300.10,5703.3721366,N,00952.2371426,E,2,11,0.9,-1.002,M,40.593,M,4.1,0123*6A\r\n
$GPGGA,095300.15,5703.3721358,N,00952.2369805,E,2,11,0.9,-1.004,M,40.593,M,4.1,0123*60\r\n
$GPGGA,095300.20,5703.3721341,N,00952.2368181,E,2,11,0.9,-1.006,M,40.593,M,4.1,0123*68\r\n
$GPGGA,095300.25,5703.3721325,N,00952.2366569,E,2,11,0.9,-1.006,M,40.593,M,1.9,0123*6E\r\n
$GPGGA,095300.30,5703.3721305,N,00952.2364951,E,2,11,0.9,-1.006,M,40.593,M,1.9,0123*6D\r\n
$GPGGA,095300.35,5703.3721281,N,00952.2363328,E,2,11,0.9,-1.004,M,40.593,M,1.9,0123*64\r\n
$GPGGA,095300.40,5703.3721255,N,00952.2361703,E,2,11,0.9,-1.004,M,40.593,M,1.9,0123*60\r\n
$GPGGA,095300.45,5703.3721250,N,00952.2360097,E,2,11,0.9,-1.000,M,40.593,M,2.2,0123*67\r\n
$GPGGA,095300.50,5703.3721243,N,00952.2358484,E,2,11,0.9,-1.000,M,40.593,M,2.2,0123*6C\r\n
$GPGGA,095300.55,5703.3721217,N,00952.2356861,E,2,11,0.9,-1.000,M,40.593,M,2.2,0123*61\r\n
$GPGGA,095300.60,5703.3721198,N,00952.2355255,E,2,11,0.9,-0.998,M,40.593,M,2.2,0123*64\r\n
$GPGGA,095300.65,5703.3721179,N,00952.2353632,E,2,11,0.9,-0.995,M,40.593,M,2.4,0123*66\r\n
$GPGGA,095300.70,5703.3721150,N,00952.2352012,E,2,11,0.9,-0.993,M,40.593,M,2.4,0123*6A\r\n
$GPGGA,095300.75,5703.3721125,N,00952.2350399,E,2,11,0.9,-0.994,M,40.593,M,2.4,0123*68\r\n
$GPGGA,095300.80,5703.3721101,N,00952.2348786,E,2,11,0.9,-0.995,M,40.593,M,2.4,0123*66\r\n
$GPGGA,095300.85,5703.3721077,N,00952.2347166,E,2,11,0.9,-0.995,M,40.593,M,2.7,0123*67\r\n
$GPGGA,095300.90,5703.3721056,N,00952.2345550,E,2,11,0.9,-0.993,M,40.593,M,2.7,0123*65\r\n
$GPGGA,095300.95,5703.3721038,N,00952.2343924,E,2,11,0.9,-0.992,M,40.593,M,2.7,0123*60\r\n
$GPGGA,095301.00,5703.3721019,N,00952.2342312,E,2,11,0.9,-0.991,M,40.593,M,2.7,0123*63\r\n
$GPGGA,095301.05,5703.3720998,N,00952.2340696,E,2,11,0.9,-0.992,M,40.593,M,2.9,0123*61\r\n
$GPGGA,095301.10,5703.3720981,N,00952.2339099,E,2,11,0.9,-0.991,M,40.593,M,2.9,0123*69\r\n
$GPGGA,095301.15,5703.3720956,N,00952.2337505,E,2,11,0.9,-0.991,M,40.593,M,2.9,0123*68\r\n
$GPGGA,095301.20,5703.3720935,N,00952.2335894,E,2,11,0.9,-0.991,M,40.593,M,2.9,0123*6C\r\n
$GPGGA,095301.25,5703.3720919,N,00952.2334282,E,2,11,0.9,-0.989,M,40.593,M,1.8,0123*60\r\n
$GPGGA,095301.30,5703.3720909,N,00952.2332672,E,2,11,0.9,-0.988,M,40.593,M,1.8,0123*69\r\n
$GPGGA,095301.35,5703.3720889,N,00952.2331066,E,2,11,0.9,-0.989,M,40.593,M,1.8,0123*64\r\n
$GPGGA,095301.40,5703.3720880,N,00952.2329456,E,2,11,0.9,-0.990,M,40.593,M,1.8,0123*69\r\n
$GPGGA,095301.45,5703.3720872,N,00952.2327843,E,2,11,0.9,-0.991,M,40.593,M,2.0,0123*6D\r\n
$GPGGA,095301.50,5703.3720863,N,00952.2326231,E,2,11,0.9,-0.991,M,40.593,M,2.0,0123*67\r\n
$GPGGA,095301.55,5703.3720859,N,00952.2324629,E,2,11,0.9,-0.992,M,40.593,M,2.0,0123*67\r\n
$GPGGA,095301.60,5703.3720846,N,00952.2323013,E,2,11,0.9,-0.992,M,40.593,M,2.0,0123*67\r\n
$GPGGA,095301.65,5703.3720831,N,00952.2321408,E,2,11,0.9,-0.996,M,40.593,M,2.3,0123*69\r\n
$GPGGA,095301.70,5703.3720802,N,00952.2319809,E,2,11,0.9,-1.000,M,40.593,M,2.3,0123*6C\r\n
$GPGGA,095301.75,5703.3720777,N,00952.2318200,E,2,11,0.9,-1.001,M,40.593,M,2.3,0123*67\r\n
$GPGGA,095301.80,5703.3720754,N,00952.2316575,E,2,11,0.9,-1.002,M,40.593,M,2.3,0123*64\r\n
$GPGGA,095301.85,5703.3720729,N,00952.2314969,E,2,11,0.9,-0.999,M,40.593,M,2.5,0123*64\r\n
$GPGGA,095301.90,5703.3720690,N,00952.2313357,E,2,11,0.9,-1.001,M,40.593,M,2.5,0123*6A\r\n
$GPGGA,095301.95,5703.3720656,N,00952.2311743,E,2,11,0.9,-1.005,M,40.593,M,2.5,0123*62\r\n
$GPGGA,095302.00,5703.3720634,N,00952.2310129,E,2,11,0.9,-1.006,M,40.593,M,2.5,0123*61\r\n
$GPGGA,095302.05,5703.3720601,N,00952.2308525,E,2,11,0.9,-1.013,M,40.593,M,2.7,0123*65\r\n
$GPGGA,095302.10,5703.3720573,N,00952.2306945,E,2,11,0.9,-1.011,M,40.593,M,2.7,0123*61\r\n
$GPGGA,095302.15,5703.3720551,N,00952.2305361,E,2,11,0.9,-1.011,M,40.593,M,2.7,0123*6B\r\n
$GPGGA,095302.20,5703.3720536,N,00952.2303761,E,2,11,0.9,-1.010,M,40.593,M,2.7,0123*6F\r\n
$GPGGA,095302.25,5703.3720516,N,00952.2302176,E,2,11,0.9,-1.007,M,40.593,M,2.2,0123*6A\r\n
$GPGGA,095302.30,5703.3720478,N,00952.2300591,E,2,11,0.9,-1.007,M,40.593,M,2.2,0123*68\r\n
$GPGGA,095302.35,5703.3720442,N,00952.2298988,E,2,11,0.9,-1.007,M,40.593,M,2.2,0123*60\r\n
$GPGGA,095302.40,5703.3720421,N,00952.2297394,E,2,11,0.9,-1.008,M,40.593,M,2.2,0123*60\r\n
$GPGGA,095302.45,5703.3720391,N,00952.2295809,E,2,11,0.9,-1.009,M,40.593,M,2.4,0123*63\r\n
$GPGGA,095302.50,5703.3720362,N,00952.2294214,E,2,11,0.9,-1.007,M,40.593,M,2.4,0123*62\r\n
$GPGGA,095302.55,5703.3720330,N,00952.2292625,E,2,11,0.9,-1.006,M,40.593,M,2.4,0123*61\r\n
$GPGGA,095302.60,5703.3720297,N,00952.2291030,E,2,11,0.9,-1.005,M,40.593,M,2.4,0123*69\r\n
$GPGGA,095302.65,5703.3720264,N,00952.2289422,E,2,11,0.9,-1.003,M,40.593,M,2.6,0123*6A\r\n
$GPGGA,095302.70,5703.3720227,N,00952.2287814,E,2,11,0.9,-1.004,M,40.593,M,2.6,0123*69\r\n
$GPGGA,095302.75,5703.3720183,N,00952.2286211,E,2,11,0.9,-1.006,M,40.593,M,2.6,0123*6D\r\n
$GPGGA,095302.80,5703.3720137,N,00952.2284601,E,2,11,0.9,-1.012,M,40.593,M,2.6,0123*6A\r\n
$GPGGA,095302.85,5703.3720090,N,00952.2282986,E,2,11,0.9,-1.016,M,40.593,M,2.9,0123*6E\r\n
$GPGGA,095302.90,5703.3720064,N,00952.2281374,E,2,11,0.9,-1.015,M,40.593,M,2.9,0123*66\r\n
$GPGGA,095302.95,5703.3720046,N,00952.2279771,E,2,11,0.9,-1.015,M,40.593,M,2.9,0123*65\r\n
$GPGGA,095303.00,5703.3720023,N,00952.2278196,E,2,11,0.9,-1.014,M,40.593,M,2.9,0123*64\r\n
$GPGGA,095303.05,5703.3719990,N,00952.2276611,E,2,11,0.9,-1.013,M,40.593,M,3.1,0123*62\r\n
$GPGGA,095303.10,5703.3719952,N,00952.2275017,E,2,11,0.9,-1.013,M,40.593,M,3.1,0123*6B\r\n
$GPGGA,095303.15,5703.3719917,N,00952.2273415,E,2,11,0.9,-1.011,M,40.593,M,3.1,0123*6D\r\n
$GPGGA,095303.20,5703.3719882,N,00952.2271818,E,2,11,0.9,-1.010,M,40.593,M,3.1,0123*64\r\n
$GPGGA,095303.25,5703.3719842,N,00952.2270221,E,2,11,0.9,-1.009,M,40.593,M,3.3,0123*66\r\n
$GPGGA,095303.30,5703.3719804,N,00952.2268611,E,2,11,0.9,-1.010,M,40.593,M,3.3,0123*66\r\n
$GPGGA,095303.35,5703.3719774,N,00952.2266993,E,2,11,0.9,-1.011,M,40.593,M,3.3,0123*61\r\n
$GPGGA,095303.40,5703.3719738,N,00952.2265370,E,2,11,0.9,-1.014,M,40.593,M,3.3,0123*6A\r\n
$GPGGA,095303.45,5703.3719691,N,00952.2263753,E,2,11,0.9,-1.014,M,40.593,M,3.5,0123*68\r\n
$GPGGA,095303.50,5703.3719636,N,00952.2262135,E,2,11,0.9,-1.017,M,40.593,M,3.5,0123*65\r\n
$GPGGA,095303.55,5703.3719587,N,00952.2260522,E,2,11,0.9,-1.020,M,40.593,M,3.5,0123*6D\r\n
$GPGGA,095303.60,5703.3719544,N,00952.2258921,E,2,11,0.9,-1.022,M,40.593,M,3.5,0123*62\r\n
$GPGGA,095303.65,5703.3719502,N,00952.2257332,E,2,11,0.9,-1.023,M,40.593,M,3.7,0123*61\r\n
$GPGGA,095303.70,5703.3719465,N,00952.2255732,E,2,11,0.9,-1.020,M,40.593,M,3.7,0123*60\r\n
$GPGGA,095303.75,5703.3719431,N,00952.2254130,E,2,11,0.9,-1.018,M,40.593,M,3.7,0123*6A\r\n
$GPGGA,095303.80,5703.3719390,N,00952.2252528,E,2,11,0.9,-1.017,M,40.593,M,3.7,0123*68\r\n
$GPGGA,095303.85,5703.3719361,N,00952.2250928,E,2,11,0.9,-1.011,M,40.593,M,3.9,0123*65\r\n
$GPGGA,095303.90,5703.3719329,N,00952.2249311,E,2,11,0.9,-1.011,M,40.593,M,3.9,0123*65\r\n
$GPGGA,095303.95,5703.3719305,N,00952.2247707,E,2,11,0.9,-1.011,M,40.593,M,3.9,0123*63\r\n
$GPGGA,095304.00,5703.3719276,N,00952.2246084,E,2,11,0.9,-1.010,M,40.593,M,3.9,0123*61\r\n
$GPGGA,095304.05,5703.3719232,N,00952.2244445,E,2,11,0.9,-1.015,M,40.593,M,4.1,0123*65\r\n
$GPGGA,095304.10,5703.3719189,N,00952.2242825,E,2,11,0.9,-1.013,M,40.593,M,4.1,0123*68\r\n
$GPGGA,095304.15,5703.3719147,N,00952.2241215,E,2,11,0.9,-1.014,M,40.593,M,4.1,0123*62\r\n
$GPGGA,095304.20,5703.3719117,N,00952.2239621,E,2,11,0.9,-1.011,M,40.593,M,4.1,0123*68\r\n
$GPGGA,095304.25,5703.3719080,N,00952.2238023,E,2,11,0.9,-1.011,M,40.593,M,1.9,0123*6A\r\n
$GPGGA,095304.30,5703.3719051,N,00952.2236420,E,2,11,0.9,-1.008,M,40.593,M,1.9,0123*63\r\n
$GPGGA,095304.35,5703.3719017,N,00952.2234800,E,2,11,0.9,-1.009,M,40.593,M,1.9,0123*69\r\n
$GPGGA,095304.40,5703.3718985,N,00952.2233180,E,2,11,0.9,-1.011,M,40.593,M,1.9,0123*67\r\n
$GPGGA,095304.45,5703.3718951,N,00952.2231559,E,2,11,0.9,-1.014,M,40.593,M,2.2,0123*64\r\n
$GPGGA,095304.50,5703.3718913,N,00952.2229931,E,2,11,0.9,-1.014,M,40.593,M,2.2,0123*6D\r\n
$GPGGA,095304.55,5703.3718878,N,00952.2228314,E,2,11,0.9,-1.015,M,40.593,M,2.2,0123*69\r\n
$GPGGA,095304.60,5703.3718860,N,00952.2226720,E,2,11,0.9,-1.014,M,40.593,M,2.2,0123*6A\r\n
$GPGGA,095304.65,5703.3718845,N,00952.2225117,E,2,11,0.9,-1.014,M,40.593,M,2.4,0123*6F\r\n
$GPGGA,095304.70,5703.3718813,N,00952.2223516,E,2,11,0.9,-1.013,M,40.593,M,2.4,0123*6C\r\n
$GPGGA,095304.75,5703.3718774,N,00952.2221918,E,2,11,0.9,-1.013,M,40.593,M,2.4,0123*67\r\n
$GPGGA,095304.80,5703.3718753,N,00952.2220313,E,2,11,0.9,-1.013,M,40.593,M,2.4,0123*68\r\n
$GPGGA,095304.85,5703.3718739,N,00952.2218700,E,2,11,0.9,-1.011,M,40.593,M,2.7,0123*6D\r\n
$GPGGA,095304.90,5703.3718722,N,00952.2217105,E,2,11,0.9,-1.010,M,40.593,M,2.7,0123*6E\r\n
$GPGGA,095304.95,5703.3718705,N,00952.2215511,E,2,11,0.9,-1.008,M,40.593,M,2.7,0123*64\r\n
$GPGGA,095305.00,5703.3718688,N,00952.2213929,E,2,11,0.9,-1.006,M,40.593,M,2.7,0123*62\r\n
$GPGGA,095305.05,5703.3718662,N,00952.2212346,E,2,11,0.9,-1.007,M,40.593,M,2.9,0123*6E\r\n
$GPGGA,095305.10,5703.3718646,N,00952.2210757,E,2,11,0.9,-1.008,M,40.593,M,2.9,0123*65\r\n
$GPGGA,095305.15,5703.3718637,N,00952.2209163,E,2,11,0.9,-1.008,M,40.593,M,2.9,0123*6F\r\n
$GPGGA,095305.20,5703.3718644,N,00952.2207557,E,2,11,0.9,-1.007,M,40.593,M,2.9,0123*6F\r\n
$GPGGA,095305.25,5703.3718639,N,00952.2205963,E,2,11,0.9,-1.006,M,40.593,M,1.8,0123*6A\r\n
$GPGGA,095305.30,5703.3718626,N,00952.2204358,E,2,11,0.9,-1.008,M,40.593,M,1.8,0123*6D\r\n
$GPGGA,095305.35,5703.3718608,N,00952.2202750,E,2,11,0.9,-1.012,M,40.593,M,1.8,0123*65\r\n
$GPGGA,095305.40,5703.3718611,N,00952.2201150,E,2,11,0.9,-1.015,M,40.593,M,1.8,0123*6D\r\n
$GPGGA,095305.45,5703.3718606,N,00952.2199555,E,2,11,0.9,-1.018,M,40.593,M,2.0,0123*6B\r\n
$GPGGA,095305.50,5703.3718608,N,00952.2197974,E,2,11,0.9,-1.017,M,40.593,M,2.0,0123*6F\r\n
$GPGGA,095305.55,5703.3718611,N,00952.2196401,E,2,11,0.9,-1.015,M,40.593,M,2.0,0123*6E\r\n
$GPGGA,095305.60,5703.3718613,N,00952.2194836,E,2,11,0.9,-1.011,M,40.593,M,2.0,0123*64\r\n
$GPGGA,095305.65,5703.3718618,N,00952.2193261,E,2,11,0.9,-1.011,M,40.593,M,2.3,0123*66\r\n
$GPGGA,095305.70,5703.3718624,N,00952.2191672,E,2,11,0.9,-1.011,M,40.593,M,2.3,0123*69\r\n
$GPGGA,095305.75,5703.3718632,N,00952.2190080,E,2,11,0.9,-1.011,M,40.593,M,2.3,0123*61\r\n
$GPGGA,095305.80,5703.3718652,N,00952.2188508,E,2,11,0.9,-1.009,M,40.593,M,2.3,0123*68\r\n
$GPGGA,095305.85,5703.3718657,N,00952.2186920,E,2,11,0.9,-1.012,M,40.593,M,2.5,0123*6C\r\n
$GPGGA,095305.90,5703.3718676,N,00952.2185345,E,2,11,0.9,-1.015,M,40.593,M,2.5,0123*66\r\n
$GPGGA,095305.95,5703.3718706,N,00952.2183760,E,2,11,0.9,-1.015,M,40.593,M,2.5,0123*60\r\n
$GPGGA,095306.00,5703.3718747,N,00952.2182175,E,2,11,0.9,-1.015,M,40.593,M,2.5,0123*69\r\n
$GPGGA,095306.05,5703.3718773,N,00952.2180606,E,2,11,0.9,-1.014,M,40.593,M,2.7,0123*69\r\n
$GPGGA,095306.10,5703.3718796,N,00952.2179022,E,2,11,0.9,-1.015,M,40.593,M,2.7,0123*61\r\n
$GPGGA,095306.15,5703.3718827,N,00952.2177438,E,2,11,0.9,-1.017,M,40.593,M,2.7,0123*62\r\n
$GPGGA,095306.20,5703.3718863,N,00952.2175856,E,2,11,0.9,-1.019,M,40.593,M,2.7,0123*6C\r\n
$GPGGA,095306.25,5703.3718901,N,00952.2174281,E,2,11,0.9,-1.022,M,40.593,M,2.2,0123*60\r\n
$GPGGA,095306.30,5703.3718931,N,00952.2172710,E,2,11,0.9,-1.024,M,40.593,M,2.2,0123*6A\r\n
$GPGGA,095306.35,5703.3718962,N,00952.2171135,E,2,11,0.9,-1.023,M,40.593,M,2.2,0123*6C\r\n
$GPGGA,095306.40,5703.3719000,N,00952.2169551,E,2,11,0.9,-1.023,M,40.593,M,2.2,0123*6D\r\n
$GPGGA,095306.45,5703.3719043,N,00952.2167969,E,2,11,0.9,-1.022,M,40.593,M,2.4,0123*61\r\n
$GPGGA,095306.50,5703.3719086,N,00952.2166394,E,2,11,0.9,-1.024,M,40.593,M,2.4,0123*63\r\n
$GPGGA,095306.55,5703.3719131,N,00952.2164821,E,2,11,0.9,-1.025,M,40.593,M,2.4,0123*6D\r\n
$GPGGA,095306.60,5703.3719172,N,00952.2163257,E,2,11,0.9,-1.027,M,40.593,M,2.4,0123*62\r\n
$GPGGA,095306.65,5703.3719229,N,00952.2161695,E,2,11,0.9,-1.025,M,40.593,M,2.6,0123*62\r\n
$GPGGA,095306.70,5703.3719277,N,00952.2160131,E,2,11,0.9,-1.025,M,40.593,M,2.6,0123*65\r\n
$GPGGA,095306.75,5703.3719322,N,00952.2158569,E,2,11,0.9,-1.025,M,40.593,M,2.6,0123*63\r\n
$GPGGA,095306.80,5703.3719373,N,00952.2157011,E,2,11,0.9,-1.023,M,40.593,M,2.6,0123*6E\r\n
$GPGGA,095306.85,5703.3719430,N,00952.2155447,E,2,11,0.9,-1.022,M,40.593,M,2.9,0123*60\r\n
$GPGGA,095306.90,5703.3719486,N,00952.2153879,E,2,11,0.9,-1.021,M,40.593,M,2.9,0123*6D\r\n
$GPGGA,095306.95,5703.3719538,N,00952.2152302,E,2,11,0.9,-1.023,M,40.593,M,2.9,0123*68\r\n
$GPGGA,095307.00,5703.3719576,N,00952.2150708,E,2,11,0.9,-1.027,M,40.593,M,2.9,0123*67\r\n
$GPGGA,095307.05,5703.3719617,N,00952.2149112,E,2,11,0.9,-1.029,M,40.593,M,3.1,0123*64\r\n
$GPGGA,095307.10,5703.3719671,N,00952.2147528,E,2,11,0.9,-1.028,M,40.593,M,3.1,0123*62\r\n
$GPGGA,095307.15,5703.3719727,N,00952.2145956,E,2,11,0.9,-1.028,M,40.593,M,3.1,0123*62\r\n
$GPGGA,095307.20,5703.3719776,N,00952.2144393,E,2,11,0.9,-1.031,M,40.593,M,3.1,0123*6A\r\n
$GPGGA,095307.25,5703.3719817,N,00952.2142820,E,2,11,0.9,-1.032,M,40.593,M,3.3,0123*63\r\n
$GPGGA,095307.30,5703.3719860,N,00952.2141244,E,2,11,0.9,-1.029,M,40.593,M,3.3,0123*66\r\n
$GPGGA,095307.35,5703.3719906,N,00952.2139664,E,2,11,0.9,-1.027,M,40.593,M,3.3,0123*65\r\n
$GPGGA,095307.40,5703.3719964,N,00952.2138093,E,2,11,0.9,-1.024,M,40.593,M,3.3,0123*6F\r\n
$GPGGA,095307.45,5703.3720015,N,00952.2136510,E,2,11,0.9,-1.025,M,40.593,M,3.5,0123*68\r\n
$GPGGA,095307.50,5703.3720065,N,00952.2134922,E,2,11,0.9,-1.024,M,40.593,M,3.5,0123*65\r\n
$GPGGA,095307.55,5703.3720112,N,00952.2133331,E,2,11,0.9,-1.024,M,40.593,M,3.5,0123*6E\r\n
$GPGGA,095307.60,5703.3720164,N,00952.2131726,E,2,11,0.9,-1.026,M,40.593,M,3.5,0123*6B\r\n
$GPGGA,095307.65,5703.3720211,N,00952.2130112,E,2,11,0.9,-1.032,M,40.593,M,3.7,0123*68\r\n
$GPGGA,095307.70,5703.3720264,N,00952.2128507,E,2,11,0.9,-1.034,M,40.593,M,3.7,0123*61\r\n
$GPGGA,095307.75,5703.3720312,N,00952.2126896,E,2,11,0.9,-1.036,M,40.593,M,3.7,0123*6D\r\n
$GPGGA,095307.80,5703.3720363,N,00952.2125292,E,2,11,0.9,-1.037,M,40.593,M,3.7,0123*6D\r\n
$GPGGA,095307.85,5703.3720412,N,00952.2123701,E,2,11,0.9,-1.034,M,40.593,M,3.9,0123*6D\r\n
$GPGGA,095307.90,5703.3720462,N,00952.2122107,E,2,11,0.9,-1.033,M,40.593,M,3.9,0123*68\r\n
$GPGGA,095307.95,5703.3720514,N,00952.2120515,E,2,11,0.9,-1.030,M,40.593,M,3.9,0123*6B\r\n
$GPGGA,095308.00,5703.3720566,N,00952.2118925,E,2,11,0.9,-1.025,M,40.593,M,3.9,0123*6D\r\n
$GPGGA,095308.05,5703.3720604,N,00952.2117361,E,2,11,0.9,-1.025,M,40.593,M,4.1,0123*65\r\n
$GPGGA,095308.10,5703.3720653,N,00952.2115782,E,2,11,0.9,-1.021,M,40.593,M,4.1,0123*6C\r\n
$GPGGA,095308.15,5703.3720707,N,00952.2114175,E,2,11,0.9,-1.019,M,40.593,M,4.1,0123*6D\r\n
$GPGGA,095308.20,5703.3720761,N,00952.2112558,E,2,11,0.9,-1.018,M,40.593,M,4.1,0123*67\r\n
$GPGGA,095308.25,5703.3720813,N,00952.2110946,E,2,11,0.9,-1.019,M,40.593,M,1.9,0123*65\r\n
$GPGGA,095308.30,5703.3720868,N,00952.2109334,E,2,11,0.9,-1.018,M,40.593,M,1.9,0123*6B\r\n
$GPGGA,095308.35,5703.3720930,N,00952.2107727,E,2,11,0.9,-1.019,M,40.593,M,1.9,0123*6B\r\n
$GPGGA,095308.40,5703.3720986,N,00952.2106111,E,2,11,0.9,-1.021,M,40.593,M,1.9,0123*6D\r\n
$GPGGA,095308.45,5703.3721025,N,00952.2104512,E,2,11,0.9,-1.022,M,40.593,M,2.2,0123*67\r\n
$GPGGA,095308.50,5703.3721056,N,00952.2102897,E,2,11,0.9,-1.023,M,40.593,M,2.2,0123*60\r\n
$GPGGA,095308.55,5703.3721094,N,00952.2101285,E,2,11,0.9,-1.025,M,40.593,M,2.2,0123*67\r\n
$GPGGA,095308.60,5703.3721149,N,00952.2099696,E,2,11,0.9,-1.024,M,40.593,M,2.2,0123*67\r\n
