$GPGGA,121245.90,5703.3370394,N,00952.0495825,E,2,6,1.8,-2.795,M,40.592,M,2.6,0123*5D
$GPVTG,208.83,T,-431.07,M,004.064,N,007.527,K,D*0A
$GPGGA,121245.95,5703.3369858,N,00952.0495273,E,2,6,1.8,-2.797,M,40.592,M,2.6,0123*50
$GPVTG,209.01,T,-430.89,M,004.142,N,007.671,K,D*03
$GPGGA,121246.00,5703.3369338,N,00952.0494736,E,2,6,1.8,-2.800,M,40.592,M,2.6,0123*56
$GPVTG,209.10,T,-430.80,M,004.182,N,007.745,K,D*00
$GPGGA,121246.05,5703.3368945,N,00952.0494242,E,2,6,1.8,-2.798,M,40.592,M,2.8,0123*54
$GPVTG,210.22,T,-429.68,M,004.123,N,007.636,K,D*09
$GPGGA,121246.10,5703.3368412,N,00952.0493749,E,2,6,1.8,-2.805,M,40.592,M,2.8,0123*5D
$GPVTG,209.01,T,-430.89,M,004.180,N,007.742,K,D*0C
$GPGGA,121246.15,5703.3367923,N,00952.0493205,E,2,6,1.8,-2.809,M,40.592,M,2.8,0123*59
$GPVTG,209.65,T,-430.25,M,004.172,N,007.727,K,D*06
$GPGGA,121246.20,5703.3367464,N,00952.0492659,E,2,6,1.8,-2.812,M,40.592,M,2.8,0123*57
$GPVTG,210.56,T,-429.34,M,004.121,N,007.632,K,D*05
$GPGGA,121246.25,5703.3367103,N,00952.0492223,E,2,6,1.8,-2.768,M,40.592,M,3.1,0123*55
$GPVTG,209.99,T,-429.91,M,004.013,N,007.433,K,D*02
$GPGGA,121246.30,5703.3366582,N,00952.0491707,E,2,6,1.8,-2.767,M,40.592,M,3.1,0123*52
$GPVTG,209.57,T,-430.33,M,004.066,N,007.531,K,D*01
$GPGGA,121246.35,5703.3366064,N,00952.0491181,E,2,6,1.8,-2.765,M,40.592,M,3.1,0123*50
$GPVTG,209.42,T,-430.48,M,004.115,N,007.620,K,D*0F
$GPGGA,121246.40,5703.3365615,N,00952.0490655,E,2,6,1.8,-2.762,M,40.592,M,3.1,0123*59
$GPVTG,210.13,T,-429.77,M,004.051,N,007.502,K,D*05
$GPGGA,121246.45,5703.3365171,N,00952.0490168,E,2,6,1.8,-2.764,M,40.592,M,3.3,0123*54
$GPVTG,210.45,T,-429.45,M,003.977,N,007.365,K,D*0A
$GPGGA,121246.50,5703.3364686,N,00952.0489688,E,2,6,1.8,-2.763,M,40.592,M,3.3,0123*58
$GPVTG,209.81,T,-430.09,M,003.958,N,007.329,K,D*0F
$GPGGA,121246.55,5703.3364178,N,00952.0489207,E,2,6,1.8,-2.762,M,40.592,M,3.3,0123*59
$GPVTG,209.06,T,-430.84,M,003.979,N,007.370,K,D*0A
$GPGGA,121246.60,5703.3363628,N,00952.0488764,E,2,6,1.8,-2.764,M,40.592,M,3.3,0123*5D
$GPVTG,207.34,T,-432.56,M,004.041,N,007.483,K,D*06
$GPGGA,121246.65,5703.3363199,N,00952.0488267,E,2,6,1.8,-2.749,M,40.592,M,3.5,0123*5A
$GPVTG,208.18,T,-431.72,M,004.017,N,007.439,K,D*00
$GPGGA,121246.70,5703.3362739,N,00952.0487741,E,2,6,1.8,-2.747,M,40.592,M,3.5,0123*53
$GPVTG,209.13,T,-430.77,M,003.991,N,007.392,K,D*08
$GPGGA,121246.75,5703.3362279,N,00952.0487220,E,2,6,1.8,-2.745,M,40.592,M,3.5,0123*57
$GPVTG,209.85,T,-430.05,M,003.968,N,007.349,K,D*02
$GPGGA,121246.80,5703.3361827,N,00952.0486671,E,2,6,1.8,-2.743,M,40.592,M,3.5,0123*58
$GPVTG,211.02,T,-428.88,M,003.955,N,007.324,K,D*0D
$GPGGA,121246.85,5703.3361381,N,00952.0486205,E,2,6,1.8,-2.739,M,40.592,M,3.7,0123*52
$GPVTG,210.73,T,-429.17,M,003.917,N,007.255,K,D*0C
$GPGGA,121246.90,5703.3360860,N,00952.0485736,E,2,6,1.8,-2.738,M,40.592,M,3.7,0123*54
$GPVTG,209.49,T,-430.41,M,003.964,N,007.341,K,D*06
$GPGGA,121246.95,5703.3360378,N,00952.0485227,E,2,6,1.8,-2.736,M,40.592,M,3.7,0123*58
$GPVTG,209.64,T,-430.26,M,003.973,N,007.357,K,D*09
$GPGGA,121247.00,5703.3359888,N,00952.0484722,E,2,6,1.8,-2.733,M,40.592,M,3.7,0123*5F
$GPVTG,209.58,T,-430.32,M,003.989,N,007.388,K,D*04
$GPGGA,121247.05,5703.3359491,N,00952.0484285,E,2,6,1.8,-2.716,M,40.592,M,3.9,0123*5F
$GPVTG,209.61,T,-430.29,M,003.874,N,007.175,K,D*07
$GPGGA,121247.10,5703.3359032,N,00952.0483763,E,2,6,1.8,-2.713,M,40.592,M,3.9,0123*59
$GPVTG,210.28,T,-429.62,M,003.871,N,007.169,K,D*0D
$GPGGA,121247.15,5703.3358577,N,00952.0483253,E,2,6,1.8,-2.713,M,40.592,M,3.9,0123*5F
$GPVTG,210.68,T,-429.22,M,003.857,N,007.142,K,D*00
$GPGGA,121247.20,5703.3358082,N,00952.0482781,E,2,6,1.8,-2.714,M,40.592,M,3.9,0123*5A
$GPVTG,209.89,T,-430.01,M,003.877,N,007.181,K,D*03
$GPGGA,121247.25,5703.3357641,N,00952.0482251,E,2,6,1.8,-2.720,M,40.592,M,4.1,0123*59
$GPVTG,210.27,T,-429.63,M,003.872,N,007.170,K,D*08
$GPGGA,121247.30,5703.3357204,N,00952.0481735,E,2,6,1.8,-2.721,M,40.592,M,4.1,0123*5D
$GPVTG,210.82,T,-429.08,M,003.838,N,007.107,K,D*04
$GPGGA,121247.35,5703.3356727,N,00952.0481259,E,2,6,1.8,-2.722,M,40.592,M,4.1,0123*51
$GPVTG,210.44,T,-429.46,M,003.842,N,007.116,K,D*09
$GPGGA,121247.40,5703.3356274,N,00952.0480775,E,2,6,1.8,-2.723,M,40.592,M,4.1,0123*5B
$GPVTG,210.41,T,-429.49,M,003.820,N,007.074,K,D*02
$GPGGA,121247.45,5703.3355882,N,00952.0480226,E,2,6,1.8,-2.686,M,40.592,M,1.0,0123*57
$GPVTG,211.69,T,-428.21,M,003.835,N,007.102,K,D*02
$GPGGA,121247.50,5703.3355434,N,00952.0479743,E,2,6,1.8,-2.683,M,40.592,M,1.0,0123*57
$GPVTG,211.33,T,-428.57,M,003.797,N,007.032,K,D*09
$GPGGA,121247.55,5703.3354971,N,00952.0479248,E,2,6,1.8,-2.682,M,40.592,M,1.0,0123*50
$GPVTG,211.10,T,-428.80,M,003.804,N,007.046,K,D*04
$GPGGA,121247.60,5703.3354535,N,00952.0478745,E,2,6,1.8,-2.680,M,40.592,M,1.0,0123*51
$GPVTG,211.46,T,-428.44,M,003.774,N,006.989,K,D*0C
$GPGGA,121247.65,5703.3354070,N,00952.0478215,E,2,6,1.8,-2.677,M,40.592,M,1.3,0123*5B
$GPVTG,212.35,T,-427.55,M,003.769,N,006.981,K,D*00
$GPGGA,121247.70,5703.3353617,N,00952.0477758,E,2,6,1.8,-2.681,M,40.592,M,1.3,0123*55
$GPVTG,211.40,T,-428.50,M,003.740,N,006.927,K,D*0C
$GPGGA,121247.75,5703.3353158,N,00952.0477286,E,2,6,1.8,-2.684,M,40.592,M,1.3,0123*5F
$GPVTG,210.80,T,-429.10,M,003.736,N,006.919,K,D*08
$GPGGA,121247.80,5703.3352730,N,00952.0476730,E,2,6,1.8,-2.683,M,40.592,M,1.3,0123*52
$GPVTG,212.21,T,-427.69,M,003.749,N,006.943,K,D*06
$GPGGA,121247.85,5703.3352306,N,00952.0476236,E,2,6,1.8,-2.671,M,40.592,M,1.6,0123*5D
$GPVTG,212.56,T,-427.34,M,003.700,N,006.853,K,D*03
$GPGGA,121247.90,5703.3351895,N,00952.0475696,E,2,6,1.8,-2.670,M,40.592,M,1.6,0123*57
$GPVTG,213.63,T,-426.27,M,003.681,N,006.817,K,D*0F
$GPGGA,121247.95,5703.3351451,N,00952.0475232,E,2,6,1.8,-2.671,M,40.592,M,1.6,0123*5D
$GPVTG,212.70,T,-427.20,M,003.658,N,006.774,K,D*04
$GPGGA,121248.00,5703.3351029,N,00952.0474737,E,2,6,1.8,-2.671,M,40.592,M,1.6,0123*54
$GPVTG,212.75,T,-427.15,M,003.632,N,006.727,K,D*0D
$GPGGA,121248.05,5703.3350595,N,00952.0474296,E,2,6,1.8,-2.658,M,40.592,M,1.9,0123*58
$GPVTG,211.66,T,-428.24,M,003.609,N,006.683,K,D*06
$GPGGA,121248.10,5703.3350193,N,00952.0473808,E,2,6,1.8,-2.657,M,40.592,M,1.9,0123*5B
$GPVTG,212.11,T,-427.79,M,003.558,N,006.590,K,D*04
$GPGGA,121248.15,5703.3349787,N,00952.0473322,E,2,6,1.8,-2.656,M,40.592,M,1.9,0123*57
$GPVTG,212.38,T,-427.52,M,003.524,N,006.526,K,D*00
$GPGGA,121248.20,5703.3349367,N,00952.0472775,E,2,6,1.8,-2.659,M,40.592,M,1.9,0123*53
$GPVTG,213.54,T,-426.36,M,003.563,N,006.598,K,D*0E
$GPGGA,121248.25,5703.3348903,N,00952.0472301,E,2,6,1.8,-2.680,M,40.592,M,2.1,0123*57
$GPVTG,213.44,T,-426.46,M,003.521,N,006.521,K,D*0C
$GPGGA,121248.30,5703.3348452,N,00952.0471818,E,2,6,1.8,-2.687,M,40.592,M,2.1,0123*5D
$GPVTG,212.71,T,-427.19,M,003.563,N,006.598,K,D*04
$GPGGA,121248.35,5703.3347984,N,00952.0471309,E,2,6,1.8,-2.698,M,40.592,M,2.1,0123*54
$GPVTG,212.30,T,-427.60,M,003.645,N,006.751,K,D*0F
$GPGGA,121248.40,5703.3347557,N,00952.0470758,E,2,6,1.8,-2.707,M,40.592,M,2.1,0123*52
$GPVTG,213.29,T,-426.61,M,003.687,N,006.828,K,D*09
$GPGGA,121248.45,5703.3347247,N,00952.0470300,E,2,6,1.8,-2.657,M,40.592,M,0.8,0123*57
$GPVTG,214.01,T,-425.89,M,003.553,N,006.581,K,D*05
$GPGGA,121248.50,5703.3346854,N,00952.0469817,E,2,6,1.8,-2.655,M,40.592,M,0.8,0123*5D
$GPVTG,214.04,T,-425.86,M,003.504,N,006.490,K,D*0C
$GPGGA,121248.55,5703.3346436,N,00952.0469342,E,2,6,1.8,-2.650,M,40.592,M,0.8,0123*5E
$GPVTG,213.54,T,-426.36,M,003.494,N,006.472,K,D*02
$GPGGA,121248.60,5703.3346063,N,00952.0468832,E,2,6,1.8,-2.650,M,40.592,M,0.8,0123*51
$GPVTG,214.45,T,-425.45,M,003.450,N,006.389,K,D*09
$GPGGA,121248.65,5703.3345592,N,00952.0468344,E,2,6,1.8,-2.674,M,40.592,M,1.2,0123*5B
$GPVTG,213.76,T,-426.14,M,003.483,N,006.450,K,D*04
$GPGGA,121248.70,5703.3345150,N,00952.0467867,E,2,6,1.8,-2.678,M,40.592,M,1.2,0123*5C
$GPVTG,212.88,T,-427.02,M,003.522,N,006.523,K,D*0D
$GPGGA,121248.75,5703.3344696,N,00952.0467389,E,2,6,1.8,-2.681,M,40.592,M,1.2,0123*58
$GPVTG,211.99,T,-427.91,M,003.578,N,006.626,K,D*0D
$GPGGA,121248.80,5703.3344319,N,00952.0466885,E,2,6,1.8,-2.687,M,40.592,M,1.2,0123*50
$GPVTG,212.91,T,-426.99,M,003.530,N,006.538,K,D*0F
$GPGGA,121248.85,5703.3343911,N,00952.0466448,E,2,6,1.8,-2.669,M,40.592,M,1.4,0123*5B
$GPVTG,212.52,T,-427.38,M,003.489,N,006.461,K,D*04
$GPGGA,121248.90,5703.3343476,N,00952.0465941,E,2,6,1.8,-2.670,M,40.592,M,1.4,0123*5C
$GPVTG,212.57,T,-427.33,M,003.544,N,006.564,K,D*0E
$GPGGA,121248.95,5703.3343009,N,00952.0465458,E,2,6,1.8,-2.670,M,40.592,M,1.4,0123*50
$GPVTG,211.68,T,-428.22,M,003.623,N,006.710,K,D*0D
$GPGGA,121249.00,5703.3342583,N,00952.0464982,E,2,6,1.8,-2.673,M,40.592,M,1.4,0123*53
$GPVTG,211.43,T,-428.47,M,003.624,N,006.711,K,D*01
$GPGGA,121249.05,5703.3342174,N,00952.0464531,E,2,6,1.8,-2.658,M,40.592,M,1.7,0123*54
$GPVTG,211.21,T,-428.69,M,003.608,N,006.683,K,D*0D
$GPGGA,121249.10,5703.3341747,N,00952.0463987,E,2,6,1.8,-2.663,M,40.592,M,1.7,0123*5B
$GPVTG,211.78,T,-428.12,M,003.641,N,006.743,K,D*0D
$GPGGA,121249.15,5703.3341343,N,00952.0463490,E,2,6,1.8,-2.664,M,40.592,M,1.7,0123*52
$GPVTG,212.14,T,-427.76,M,003.623,N,006.710,K,D*0B
$GPGGA,121249.20,5703.3340909,N,00952.0463007,E,2,6,1.8,-2.664,M,40.592,M,1.7,0123*5B
$GPVTG,211.94,T,-427.96,M,003.636,N,006.734,K,D*0C
$GPGGA,121249.25,5703.3340427,N,00952.0462490,E,2,6,1.8,-2.673,M,40.592,M,1.9,0123*5C
$GPVTG,212.23,T,-427.67,M,003.678,N,006.812,K,D*0C
$GPGGA,121249.30,5703.3340007,N,00952.0462035,E,2,6,1.8,-2.677,M,40.592,M,1.9,0123*51
$GPVTG,211.58,T,-428.32,M,003.644,N,006.749,K,D*02
$GPGGA,121249.35,5703.3339554,N,00952.0461530,E,2,6,1.8,-2.681,M,40.592,M,1.9,0123*53
$GPVTG,211.60,T,-428.30,M,003.688,N,006.831,K,D*0B
$GPGGA,121249.40,5703.3339128,N,00952.0461029,E,2,6,1.8,-2.685,M,40.592,M,1.9,0123*57
$GPVTG,211.81,T,-428.09,M,003.693,N,006.840,K,D*02
$GPGGA,121249.45,5703.3338681,N,00952.0460509,E,2,6,1.8,-2.687,M,40.592,M,2.2,0123*5B
$GPVTG,212.44,T,-427.46,M,003.753,N,006.950,K,D*01
$GPGGA,121249.50,5703.3338222,N,00952.0460005,E,2,6,1.8,-2.695,M,40.592,M,2.2,0123*58
$GPVTG,212.17,T,-427.73,M,003.786,N,007.011,K,D*04
$GPGGA,121249.55,5703.3337784,N,00952.0459520,E,2,6,1.8,-2.699,M,40.592,M,2.2,0123*5F
$GPVTG,211.84,T,-428.06,M,003.778,N,006.996,K,D*06
$GPGGA,121249.60,5703.3337340,N,00952.0458984,E,2,6,1.8,-2.704,M,40.592,M,2.2,0123*53
$GPVTG,212.26,T,-427.64,M,003.808,N,007.052,K,D*0E
$GPGGA,121249.65,5703.3336805,N,00952.0458486,E,2,6,1.8,-2.716,M,40.592,M,2.4,0123*57
$GPVTG,211.69,T,-428.21,M,003.841,N,007.114,K,D*06
$GPGGA,121249.70,5703.3336290,N,00952.0457964,E,2,6,1.8,-2.726,M,40.592,M,2.4,0123*58
$GPVTG,211.26,T,-428.64,M,003.919,N,007.259,K,D*0A
$GPGGA,121249.75,5703.3335826,N,00952.0457446,E,2,6,1.8,-2.734,M,40.592,M,2.4,0123*57
$GPVTG,211.20,T,-428.70,M,003.942,N,007.301,K,D*0B
$GPGGA,121249.80,5703.3335383,N,00952.0456951,E,2,6,1.8,-2.737,M,40.592,M,2.4,0123*50
$GPVTG,211.01,T,-428.89,M,003.926,N,007.271,K,D*0A
$GPGGA,121249.85,5703.3334873,N,00952.0456433,E,2,6,1.8,-2.730,M,40.592,M,2.6,0123*5C
$GPVTG,210.79,T,-429.11,M,003.980,N,007.372,K,D*0A
$GPGGA,121249.90,5703.3334381,N,00952.0455889,E,2,6,1.8,-2.735,M,40.592,M,2.6,0123*55
$GPVTG,210.89,T,-429.01,M,004.036,N,007.475,K,D*07
$GPGGA,121249.95,5703.3333822,N,00952.0455359,E,2,6,1.8,-2.740,M,40.592,M,2.6,0123*51
$GPVTG,210.14,T,-429.76,M,004.150,N,007.687,K,D*0D
$GPGGA,121250.00,5703.3333339,N,00952.0454803,E,2,6,1.8,-2.742,M,40.592,M,2.6,0123*53
$GPVTG,210.51,T,-429.39,M,004.181,N,007.743,K,D*02
$GPGGA,121250.05,5703.3332864,N,00952.0454317,E,2,6,1.8,-2.743,M,40.592,M,2.8,0123*55
$GPVTG,210.24,T,-429.66,M,004.168,N,007.719,K,D*02
$GPGGA,121250.10,5703.3332395,N,00952.0453791,E,2,6,1.8,-2.747,M,40.592,M,2.8,0123*5D
$GPVTG,210.31,T,-429.59,M,004.156,N,007.696,K,D*01
$GPGGA,121250.15,5703.3331946,N,00952.0453268,E,2,6,1.8,-2.748,M,40.592,M,2.8,0123*53
$GPVTG,210.52,T,-429.38,M,004.118,N,007.627,K,D*03
$GPGGA,121250.20,5703.3331340,N,00952.0452705,E,2,6,1.8,-2.754,M,40.592,M,2.8,0123*5B
$GPVTG,209.83,T,-430.07,M,004.287,N,007.939,K,D*06
$GPGGA,121250.25,5703.3330788,N,00952.0452236,E,2,6,1.8,-2.747,M,40.592,M,3.1,0123*50
$GPVTG,208.59,T,-431.31,M,004.348,N,008.052,K,D*0D
$GPGGA,121250.30,5703.3330308,N,00952.0451751,E,2,6,1.8,-2.751,M,40.592,M,3.1,0123*58
$GPVTG,208.21,T,-431.69,M,004.298,N,007.960,K,D*04
$GPGGA,121250.35,5703.3329817,N,00952.0451222,E,2,6,1.8,-2.753,M,40.592,M,3.1,0123*53
$GPVTG,208.41,T,-431.49,M,004.289,N,007.943,K,D*01
$GPGGA,121250.40,5703.3329318,N,00952.0450679,E,2,6,1.8,-2.753,M,40.592,M,3.1,0123*5E
$GPVTG,208.73,T,-431.17,M,004.295,N,007.954,K,D*00
$GPGGA,121250.45,5703.3328796,N,00952.0450160,E,2,6,1.8,-2.749,M,40.592,M,0.8,0123*56
$GPVTG,208.74,T,-431.16,M,004.342,N,008.042,K,D*0C
$GPGGA,121250.50,5703.3328260,N,00952.0449589,E,2,6,1.8,-2.755,M,40.592,M,0.8,0123*58
$GPVTG,209.09,T,-430.81,M,004.397,N,008.144,K,D*07
$GPGGA,121250.55,5703.3327814,N,00952.0449074,E,2,6,1.8,-2.755,M,40.592,M,0.8,0123*5C
$GPVTG,209.39,T,-430.51,M,004.305,N,007.973,K,D*01
$GPGGA,121250.60,5703.3327299,N,00952.0448571,E,2,6,1.8,-2.758,M,40.592,M,0.8,0123*59
$GPVTG,208.93,T,-430.97,M,004.296,N,007.957,K,D*07
$GPGGA,121250.65,5703.3326785,N,00952.0448061,E,2,6,1.8,-2.754,M,40.592,M,1.1,0123*55
$GPVTG,208.84,T,-431.06,M,004.316,N,007.993,K,D*09
$GPGGA,121250.70,5703.3326241,N,00952.0447515,E,2,6,1.8,-2.762,M,40.592,M,1.1,0123*50
$GPVTG,208.78,T,-431.12,M,004.361,N,008.077,K,D*03
$GPGGA,121250.75,5703.3325759,N,00952.0446992,E,2,6,1.8,-2.769,M,40.592,M,1.1,0123*53
$GPVTG,208.98,T,-430.92,M,004.315,N,007.991,K,D*09

