,M,40.592,M,2.6,0123*54
$GPVTG,238.33,T,-401.57,M,004.583,N,008.487,K,D*0C
$GPGGA,121433.95,5703.2391505,N,00951.9227609,E,2,6,1.8,-3.144,M,40.592,M,2.6,0123*51
$GPVTG,238.06,T,-401.84,M,004.583,N,008.487,K,D*04
$GPGGA,121434.00,5703.2391216,N,00951.9226588,E,2,6,1.8,-3.150,M,40.592,M,2.6,0123*51
$GPVTG,238.88,T,-401.02,M,004.573,N,008.470,K,D*0B
$GPGGA,121434.05,5703.2390886,N,00951.9225546,E,2,6,1.8,-3.136,M,40.592,M,2.8,0123*59
$GPVTG,239.20,T,-400.70,M,004.605,N,008.529,K,D*03
$GPGGA,121434.10,5703.2390563,N,00951.9224591,E,2,6,1.8,-3.138,M,40.592,M,2.8,0123*5E
$GPVTG,238.93,T,-400.97,M,004.550,N,008.427,K,D*0F
$GPGGA,121434.15,5703.2390199,N,00951.9223583,E,2,6,1.8,-3.145,M,40.592,M,2.8,0123*54
$GPVTG,238.51,T,-401.39,M,004.585,N,008.492,K,D*02
$GPGGA,121434.20,5703.2389848,N,00951.9222604,E,2,6,1.8,-3.151,M,40.592,M,2.8,0123*57
$GPVTG,238.11,T,-401.79,M,004.579,N,008.481,K,D*03
$GPGGA,121434.25,5703.2389514,N,00951.9221594,E,2,6,1.8,-3.142,M,40.592,M,3.1,0123*55
$GPVTG,238.29,T,-401.61,M,004.585,N,008.491,K,D*03
$GPGGA,121434.30,5703.2389170,N,00951.9220597,E,2,6,1.8,-3.149,M,40.592,M,3.1,0123*5E
$GPVTG,238.15,T,-401.75,M,004.594,N,008.508,K,D*08
$GPGGA,121434.35,5703.2388887,N,00951.9219628,E,2,6,1.8,-3.155,M,40.592,M,3.1,0123*5B
$GPVTG,238.67,T,-401.23,M,004.533,N,008.394,K,D*00
$GPGGA,121434.40,5703.2388596,N,00951.9218689,E,2,6,1.8,-3.157,M,40.592,M,3.1,0123*5C
$GPVTG,238.84,T,-401.06,M,004.456,N,008.253,K,D*02
$GPGGA,121434.45,5703.2388254,N,00951.9217652,E,2,6,1.8,-3.136,M,40.592,M,0.8,0123*54
$GPVTG,238.79,T,-401.11,M,004.529,N,008.388,K,D*08
$GPGGA,121434.50,5703.2387874,N,00951.9216629,E,2,6,1.8,-3.139,M,40.592,M,0.8,0123*55
$GPVTG,238.34,T,-401.57,M,004.599,N,008.518,K,D*07
$GPGGA,121434.55,5703.2387521,N,00951.9215631,E,2,6,1.8,-3.140,M,40.592,M,0.8,0123*59
$GPVTG,238.08,T,-401.82,M,004.617,N,008.551,K,D*08
$GPGGA,121434.60,5703.2387187,N,00951.9214612,E,2,6,1.8,-3.143,M,40.592,M,0.8,0123*54
$GPVTG,238.28,T,-401.62,M,004.640,N,008.593,K,D*08
$GPGGA,121434.65,5703.2386935,N,00951.9213641,E,2,6,1.8,-3.148,M,40.592,M,1.1,0123*53
$GPVTG,239.47,T,-400.43,M,004.551,N,008.429,K,D*01
$GPGGA,121434.70,5703.2386629,N,00951.9212686,E,2,6,1.8,-3.156,M,40.592,M,1.1,0123*50
$GPVTG,239.45,T,-400.45,M,004.498,N,008.330,K,D*0E
$GPGGA,121434.75,5703.2386231,N,00951.9211699,E,2,6,1.8,-3.162,M,40.592,M,1.1,0123*52
$GPVTG,238.37,T,-401.53,M,004.546,N,008.420,K,D*08
$GPGGA,121434.80,5703.2385928,N,00951.9210736,E,2,6,1.8,-3.167,M,40.592,M,1.1,0123*58
$GPVTG,238.56,T,-401.34,M,004.503,N,008.340,K,D*0E
$GPGGA,121434.85,5703.2385640,N,00951.9209714,E,2,6,1.8,-3.148,M,40.592,M,1.4,0123*5C
$GPVTG,239.21,T,-400.69,M,004.523,N,008.377,K,D*00
$GPGGA,121434.90,5703.2385322,N,00951.9208710,E,2,6,1.8,-3.151,M,40.592,M,1.4,0123*54
$GPVTG,239.42,T,-400.48,M,004.533,N,008.396,K,D*08
$GPGGA,121434.95,5703.2384859,N,00951.9207672,E,2,6,1.8,-3.157,M,40.592,M,1.4,0123*5B
$GPVTG,237.83,T,-402.07,M,004.675,N,008.657,K,D*0B
$GPGGA,121435.00,5703.2384508,N,00951.9206694,E,2,6,1.8,-3.160,M,40.592,M,1.4,0123*52
$GPVTG,237.47,T,-402.43,M,004.664,N,008.637,K,D*05
$GPGGA,121435.05,5703.2384165,N,00951.9205790,E,2,6,1.8,-3.155,M,40.592,M,1.6,0123*5A
$GPVTG,236.59,T,-403.31,M,004.585,N,008.492,K,D*0E
$GPGGA,121435.10,5703.2383845,N,00951.9204794,E,2,6,1.8,-3.159,M,40.592,M,1.6,0123*5B
$GPVTG,237.05,T,-402.85,M,004.582,N,008.486,K,D*0A
$GPGGA,121435.15,5703.2383523,N,00951.9203804,E,2,6,1.8,-3.163,M,40.592,M,1.6,0123*5B
$GPVTG,237.39,T,-402.51,M,004.575,N,008.474,K,D*09
$GPGGA,121435.20,5703.2383164,N,00951.9202865,E,2,6,1.8,-3.167,M,40.592,M,1.6,0123*58
$GPVTG,236.71,T,-403.19,M,004.546,N,008.420,K,D*08
$GPGGA,121435.25,5703.2382840,N,00951.9201908,E,2,6,1.8,-3.125,M,40.592,M,1.9,0123*53
$GPVTG,237.60,T,-402.30,M,004.490,N,008.315,K,D*08
$GPGGA,121435.30,5703.2382471,N,00951.9200916,E,2,6,1.8,-3.126,M,40.592,M,1.9,0123*54
$GPVTG,236.97,T,-402.93,M,004.537,N,008.403,K,D*04
$GPGGA,121435.35,5703.2382151,N,00951.9199900,E,2,6,1.8,-3.126,M,40.592,M,1.9,0123*52
$GPVTG,237.62,T,-402.28,M,004.550,N,008.426,K,D*09
$GPGGA,121435.40,5703.2381798,N,00951.9198998,E,2,6,1.8,-3.123,M,40.592,M,1.9,0123*55
$GPVTG,236.84,T,-403.06,M,004.501,N,008.337,K,D*0E
$GPGGA,121435.45,5703.2381430,N,00951.9198071,E,2,6,1.8,-3.115,M,40.592,M,1.0,0123*53
$GPVTG,235.60,T,-404.30,M,004.462,N,008.264,K,D*06
$GPGGA,121435.50,5703.2381096,N,00951.9197088,E,2,6,1.8,-3.114,M,40.592,M,1.0,0123*57
$GPVTG,236.29,T,-403.61,M,004.498,N,008.330,K,D*0E
$GPGGA,121435.55,5703.2380754,N,00951.9196118,E,2,6,1.8,-3.114,M,40.592,M,1.0,0123*53
$GPVTG,236.46,T,-403.44,M,004.513,N,008.357,K,D*03
$GPGGA,121435.60,5703.2380378,N,00951.9195141,E,2,6,1.8,-3.114,M,40.592,M,1.0,0123*50
$GPVTG,236.00,T,-403.90,M,004.565,N,008.455,K,D*0C
$GPGGA,121435.65,5703.2380010,N,00951.9194171,E,2,6,1.8,-3.115,M,40.592,M,1.3,0123*58
$GPVTG,236.12,T,-403.78,M,004.565,N,008.454,K,D*08
$GPGGA,121435.70,5703.2379666,N,00951.9193232,E,2,6,1.8,-3.121,M,40.592,M,1.3,0123*59
$GPVTG,235.98,T,-403.92,M,004.533,N,008.395,K,D*04
$GPGGA,121435.75,5703.2379287,N,00951.9192229,E,2,6,1.8,-3.125,M,40.592,M,1.3,0123*58
$GPVTG,235.83,T,-404.07,M,004.613,N,008.542,K,D*08
$GPGGA,121435.80,5703.2378928,N,00951.9191254,E,2,6,1.8,-3.130,M,40.592,M,1.3,0123*50
$GPVTG,235.80,T,-404.10,M,004.627,N,008.569,K,D*03
$GPGGA,121435.85,5703.2378571,N,00951.9190303,E,2,6,1.8,-3.108,M,40.592,M,1.6,0123*59
$GPVTG,235.11,T,-404.79,M,004.644,N,008.601,K,D*0C
$GPGGA,121435.90,5703.2378200,N,00951.9189354,E,2,6,1.8,-3.110,M,40.592,M,1.6,0123*5F
$GPVTG,234.73,T,-405.17,M,004.634,N,008.583,K,D*0E
$GPGGA,121435.95,5703.2377874,N,00951.9188428,E,2,6,1.8,-3.111,M,40.592,M,1.6,0123*50
$GPVTG,235.01,T,-404.89,M,004.557,N,008.440,K,D*04
$GPGGA,121436.00,5703.2377443,N,00951.9187494,E,2,6,1.8,-3.114,M,40.592,M,1.6,0123*5A
$GPVTG,233.52,T,-406.38,M,004.605,N,008.528,K,D*07
$GPGGA,121436.05,5703.2377076,N,00951.9186568,E,2,6,1.8,-3.116,M,40.592,M,1.9,0123*53
$GPVTG,233.22,T,-406.68,M,004.611,N,008.540,K,D*0E
$GPGGA,121436.10,5703.2376689,N,00951.9185640,E,2,6,1.8,-3.118,M,40.592,M,1.9,0123*54
$GPVTG,232.81,T,-407.09,M,004.608,N,008.534,K,D*0B
$GPGGA,121436.15,5703.2376266,N,00951.9184681,E,2,6,1.8,-3.122,M,40.592,M,1.9,0123*51
$GPVTG,232.37,T,-407.53,M,004.654,N,008.619,K,D*0C
$GPGGA,121436.20,5703.2375922,N,00951.9183728,E,2,6,1.8,-3.124,M,40.592,M,1.9,0123*5C
$GPVTG,232.70,T,-407.20,M,004.644,N,008.600,K,D*02
$GPGGA,121436.25,5703.2375567,N,00951.9182792,E,2,6,1.8,-3.118,M,40.592,M,2.1,0123*50
$GPVTG,232.90,T,-407.00,M,004.622,N,008.560,K,D*0B
$GPGGA,121436.30,5703.2375170,N,00951.9181832,E,2,6,1.8,-3.124,M,40.592,M,2.1,0123*5F
$GPVTG,232.79,T,-407.11,M,004.654,N,008.620,K,D*0A
$GPGGA,121436.35,5703.2374813,N,00951.9180886,E,2,6,1.8,-3.129,M,40.592,M,2.1,0123*54
$GPVTG,233.05,T,-406.85,M,004.639,N,008.591,K,D*0E
$GPGGA,121436.40,5703.2374406,N,00951.9179983,E,2,6,1.8,-3.134,M,40.592,M,2.1,0123*50
$GPVTG,232.33,T,-407.57,M,004.623,N,008.562,K,D*03
$GPGGA,121436.45,5703.2374001,N,00951.9179047,E,2,6,1.8,-3.126,M,40.592,M,0.8,0123*5F
$GPVTG,232.01,T,-407.89,M,004.645,N,008.602,K,D*04
$GPGGA,121436.50,5703.2373644,N,00951.9178129,E,2,6,1.8,-3.130,M,40.592,M,0.8,0123*54
$GPVTG,232.21,T,-407.69,M,004.604,N,008.527,K,D*09
$GPGGA,121436.55,5703.2373206,N,00951.9177194,E,2,6,1.8,-3.133,M,40.592,M,0.8,0123*59
$GPVTG,231.52,T,-408.38,M,004.652,N,008.615,K,D*04
$GPGGA,121436.60,5703.2372801,N,00951.9176220,E,2,6,1.8,-3.138,M,40.592,M,0.8,0123*55
$GPVTG,231.71,T,-408.19,M,004.703,N,008.710,K,D*07
$GPGGA,121436.65,5703.2372359,N,00951.9175269,E,2,6,1.8,-3.129,M,40.592,M,1.2,0123*53
$GPVTG,231.18,T,-408.72,M,004.763,N,008.822,K,D*0D
$GPGGA,121436.70,5703.2372023,N,00951.9174358,E,2,6,1.8,-3.131,M,40.592,M,1.2,0123*52
$GPVTG,231.63,T,-408.27,M,004.692,N,008.689,K,D*01
$GPGGA,121436.75,5703.2371666,N,00951.9173381,E,2,6,1.8,-3.134,M,40.592,M,1.2,0123*55
$GPVTG,232.40,T,-407.50,M,004.699,N,008.702,K,D*05
$GPGGA,121436.80,5703.2371205,N,00951.9172441,E,2,6,1.8,-3.141,M,40.592,M,1.2,0123*56
$GPVTG,231.55,T,-408.35,M,004.750,N,008.796,K,D*07
$GPGGA,121436.85,5703.2370758,N,00951.9171525,E,2,6,1.8,-3.130,M,40.592,M,1.4,0123*5F
$GPVTG,230.63,T,-409.27,M,004.771,N,008.836,K,D*07
$GPGGA,121436.90,5703.2370332,N,00951.9170625,E,2,6,1.8,-3.128,M,40.592,M,1.4,0123*58
$GPVTG,230.02,T,-409.88,M,004.753,N,008.803,K,D*03
$GPGGA,121436.95,5703.2369953,N,00951.9169663,E,2,6,1.8,-3.134,M,40.592,M,1.4,0123*5F
$GPVTG,230.70,T,-409.20,M,004.753,N,008.803,K,D*04
$GPGGA,121437.00,5703.2369519,N,00951.9168691,E,2,6,1.8,-3.138,M,40.592,M,1.4,0123*50
$GPVTG,230.66,T,-409.24,M,004.810,N,008.907,K,D*0A
$GPGGA,121437.05,5703.2369202,N,00951.9167806,E,2,6,1.8,-3.115,M,40.592,M,1.7,0123*5B
$GPVTG,231.78,T,-408.12,M,004.638,N,008.589,K,D*0E
$GPGGA,121437.10,5703.2368721,N,00951.9166883,E,2,6,1.8,-3.116,M,40.592,M,1.7,0123*55
$GPVTG,229.79,T,-410.11,M,004.756,N,008.808,K,D*01
$GPGGA,121437.15,5703.2368281,N,00951.9165943,E,2,6,1.8,-3.120,M,40.592,M,1.7,0123*54
$GPVTG,229.50,T,-410.40,M,004.799,N,008.887,K,D*0A
$GPGGA,121437.20,5703.2367832,N,00951.9164985,E,2,6,1.8,-3.123,M,40.592,M,1.7,0123*57
$GPVTG,229.34,T,-410.56,M,004.861,N,009.003,K,D*02
$GPGGA,121437.25,5703.2367485,N,00951.9164084,E,2,6,1.8,-3.090,M,40.592,M,1.9,0123*5D
$GPVTG,229.83,T,-410.07,M,004.778,N,008.849,K,D*0A
$GPGGA,121437.30,5703.2367058,N,00951.9163156,E,2,6,1.8,-3.088,M,40.592,M,1.9,0123*5D
$GPVTG,229.70,T,-410.20,M,004.783,N,008.858,K,D*07
$GPGGA,121437.35,5703.2366645,N,00951.9162225,E,2,6,1.8,-3.086,M,40.592,M,1.9,0123*5B
$GPVTG,229.86,T,-410.04,M,004.773,N,008.839,K,D*00
$GPGGA,121437.40,5703.2366216,N,00951.9161322,E,2,6,1.8,-3.084,M,40.592,M,1.9,0123*5C
$GPVTG,229.47,T,-410.43,M,004.754,N,008.805,K,D*04
$GPGGA,121437.45,5703.2365796,N,00951.9160394,E,2,6,1.8,-3.079,M,40.592,M,2.2,0123*51
$GPVTG,229.83,T,-410.07,M,004.737,N,008.773,K,D*07
$GPGGA,121437.50,5703.2365346,N,00951.9159467,E,2,6,1.8,-3.078,M,40.592,M,2.2,0123*5C
$GPVTG,229.38,T,-410.52,M,004.772,N,008.838,K,D*06
$GPGGA,121437.55,5703.2364929,N,00951.9158510,E,2,6,1.8,-3.079,M,40.592,M,2.2,0123*5A
$GPVTG,229.86,T,-410.04,M,004.796,N,008.883,K,D*0A
$GPGGA,121437.60,5703.2364512,N,00951.9157613,E,2,6,1.8,-3.078,M,40.592,M,2.2,0123*56
$GPVTG,229.64,T,-410.26,M,004.755,N,008.806,K,D*04
$GPGGA,121437.65,5703.2364096,N,00951.9156693,E,2,6,1.8,-3.071,M,40.592,M,2.4,0123*5C
$GPVTG,229.92,T,-409.98,M,004.733,N,008.766,K,D*09
$GPGGA,121437.70,5703.2363662,N,00951.9155762,E,2,6,1.8,-3.070,M,40.592,M,2.4,0123*5F
$GPVTG,229.79,T,-410.11,M,004.755,N,008.807,K,D*0D
$GPGGA,121437.75,5703.2363218,N,00951.9154823,E,2,6,1.8,-3.069,M,40.592,M,2.4,0123*50
$GPVTG,229.63,T,-410.27,M,004.792,N,008.874,K,D*0C
$GPGGA,121437.80,5703.2362801,N,00951.9153890,E,2,6,1.8,-3.068,M,40.592,M,2.4,0123*57
$GPVTG,229.83,T,-410.07,M,004.787,N,008.866,K,D*07
$GPGGA,121437.85,5703.2362378,N,00951.9153014,E,2,6,1.8,-3.048,M,40.592,M,2.6,0123*53
$GPVTG,229.36,T,-410.54,M,004.782,N,008.856,K,D*09
$GPGGA,121437.90,5703.2361937,N,00951.9152078,E,2,6,1.8,-3.045,M,40.592,M,2.6,0123*53
$GPVTG,229.25,T,-410.65,M,004.799,N,008.887,K,D*0F
$GPGGA,121437.95,5703.2361525,N,00951.9151144,E,2,6,1.8,-3.044,M,40.592,M,2.6,0123*55
$GPVTG,229.50,T,-410.40,M,004.790,N,008.871,K,D*0A
$GPGGA,121438.00,5703.2361087,N,00951.9150181,E,2,6,1.8,-3.044,M,40.592,M,2.6,0123*53
$GPVTG,229.64,T,-410.26,M,004.824,N,008.933,K,D*0A
$GPGGA,121438.05,5703.2360628,N,00951.9149250,E,2,6,1.8,-3.038,M,40.592,M,2.8,0123*56
$GPVTG,229.75,T,-410.15,M,004.870,N,009.020,K,D*01
$GPGGA,121438.10,5703.2360206,N,00951.9148302,E,2,6,1.8,-3.037,M,40.592,M,2.8,0123*52
$GPVTG,230.05,T,-409.85,M,004.866,N,009.012,K,D*09
$GPGGA,121438.15,5703.2359815,N,00951.9147371,E,2,6,1.8,-3.033,M,40.592,M,2.8,0123*5A
$GPVTG,230.61,T,-409.29,M,004.804,N,008.898,K,D*02
$GPGGA,121438.20,5703.2359403,N,00951.9146413,E,2,6,1.8,-3.033,M,40.592,M,2.8,0123*55
$GPVTG,231.02,T,-408.88,M,004.808,N,008.905,K,D*05
$GPGGA,121438.25,5703.2358960,N,00951.9145490,E,2,6,1.8,-3.019,M,40.592,M,3.1,0123*51
$GPVTG,230.35,T,-409.55,M,004.828,N,008.942,K,D*00
$GPGGA,121438.30,5703.2358517,N,00951.9144572,E,2,6,1.8,-3.020,M,40.592,M,3.1,0123*5F
$GPVTG,229.82,T,-410.08,M,004.821,N,008.929,K,D*00
$GPGGA,121438.35,5703.2358059,N,00951.9143608,E,2,6,1.8,-3.022,M,40.592,M,3.1,0123*5E
$GPVTG,229.64,T,-410.26,M,004.881,N,009.040,K,D*09

