31.93,T,-407.97,M,005.373,N,009.950,K,D*0B
$GPGGA,121527.50,5703.1984504,N,00951.8133130,E,2,6,1.8,-2.529,M,40.592,M,1.0,0123*51
$GPVTG,231.29,T,-408.61,M,005.377,N,009.958,K,D*00
$GPGGA,121527.55,5703.1984075,N,00951.8132078,E,2,6,1.8,-2.526,M,40.592,M,1.0,0123*54
$GPVTG,231.51,T,-408.39,M,005.314,N,009.841,K,D*0E
$GPGGA,121527.60,5703.1983632,N,00951.8131045,E,2,6,1.8,-2.522,M,40.592,M,1.0,0123*59
$GPVTG,231.35,T,-408.55,M,005.260,N,009.741,K,D*0B
$GPGGA,121527.65,5703.1983141,N,00951.8130017,E,2,6,1.8,-2.511,M,40.592,M,1.3,0123*5A
$GPVTG,230.31,T,-409.59,M,005.284,N,009.787,K,D*03
$GPGGA,121527.70,5703.1982693,N,00951.8128957,E,2,6,1.8,-2.509,M,40.592,M,1.3,0123*5A
$GPVTG,230.60,T,-409.30,M,005.275,N,009.770,K,D*0E
$GPGGA,121527.75,5703.1982232,N,00951.8127957,E,2,6,1.8,-2.510,M,40.592,M,1.3,0123*57
$GPVTG,230.13,T,-409.77,M,005.223,N,009.672,K,D*09
$GPGGA,121527.80,5703.1981792,N,00951.8126923,E,2,6,1.8,-2.507,M,40.592,M,1.3,0123*55
$GPVTG,230.40,T,-409.50,M,005.196,N,009.622,K,D*02
$GPGGA,121527.85,5703.1981376,N,00951.8125864,E,2,6,1.8,-2.493,M,40.592,M,1.6,0123*56
$GPVTG,231.01,T,-408.89,M,005.199,N,009.628,K,D*06
$GPGGA,121527.90,5703.1980906,N,00951.8124844,E,2,6,1.8,-2.489,M,40.592,M,1.6,0123*56
$GPVTG,230.64,T,-409.26,M,005.197,N,009.624,K,D*02
$GPGGA,121527.95,5703.1980444,N,00951.8123829,E,2,6,1.8,-2.485,M,40.592,M,1.6,0123*58
$GPVTG,230.40,T,-409.50,M,005.185,N,009.603,K,D*03
$GPGGA,121528.00,5703.1979957,N,00951.8122873,E,2,6,1.8,-2.480,M,40.592,M,1.6,0123*59
$GPVTG,229.30,T,-410.60,M,005.143,N,009.525,K,D*0A
$GPGGA,121528.05,5703.1979497,N,00951.8121921,E,2,6,1.8,-2.473,M,40.592,M,1.9,0123*5B
$GPVTG,228.71,T,-411.19,M,005.083,N,009.414,K,D*0F
$GPGGA,121528.10,5703.1979002,N,00951.8120934,E,2,6,1.8,-2.471,M,40.592,M,1.9,0123*50
$GPVTG,228.12,T,-411.78,M,005.115,N,009.473,K,D*02
$GPGGA,121528.15,5703.1978590,N,00951.8119923,E,2,6,1.8,-2.470,M,40.592,M,1.9,0123*57
$GPVTG,229.15,T,-410.75,M,005.073,N,009.395,K,D*06
$GPGGA,121528.20,5703.1978096,N,00951.8118967,E,2,6,1.8,-2.468,M,40.592,M,1.9,0123*5A
$GPVTG,228.32,T,-411.58,M,005.076,N,009.400,K,D*02
$GPGGA,121528.25,5703.1977592,N,00951.8118073,E,2,6,1.8,-2.466,M,40.592,M,2.1,0123*58
$GPVTG,226.97,T,-412.93,M,005.026,N,009.308,K,D*0D
$GPGGA,121528.30,5703.1977119,N,00951.8117079,E,2,6,1.8,-2.463,M,40.592,M,2.1,0123*5B
$GPVTG,227.26,T,-412.64,M,005.064,N,009.378,K,D*0F
$GPGGA,121528.35,5703.1976655,N,00951.8116117,E,2,6,1.8,-2.461,M,40.592,M,2.1,0123*5A
$GPVTG,227.33,T,-412.57,M,005.055,N,009.361,K,D*01
$GPGGA,121528.40,5703.1976236,N,00951.8115150,E,2,6,1.8,-2.461,M,40.592,M,2.1,0123*59
$GPVTG,228.15,T,-411.75,M,005.002,N,009.264,K,D*0F
$GPGGA,121528.45,5703.1975751,N,00951.8114249,E,2,6,1.8,-2.458,M,40.592,M,0.8,0123*50
$GPVTG,227.16,T,-412.74,M,004.976,N,009.215,K,D*0C
$GPGGA,121528.50,5703.1975275,N,00951.8113322,E,2,6,1.8,-2.454,M,40.592,M,0.8,0123*50
$GPVTG,226.84,T,-413.06,M,004.968,N,009.201,K,D*08
$GPGGA,121528.55,5703.1974757,N,00951.8112407,E,2,6,1.8,-2.454,M,40.592,M,0.8,0123*50
$GPVTG,225.88,T,-414.02,M,005.004,N,009.267,K,D*06
$GPGGA,121528.60,5703.1974286,N,00951.8111521,E,2,6,1.8,-2.453,M,40.592,M,0.8,0123*5E
$GPVTG,225.46,T,-414.44,M,004.956,N,009.178,K,D*04
$GPGGA,121528.65,5703.1973856,N,00951.8110595,E,2,6,1.8,-2.448,M,40.592,M,1.2,0123*54
$GPVTG,226.14,T,-413.76,M,004.917,N,009.106,K,D*0A
$GPGGA,121528.70,5703.1973388,N,00951.8109677,E,2,6,1.8,-2.446,M,40.592,M,1.2,0123*51
$GPVTG,226.19,T,-413.71,M,004.913,N,009.099,K,D*03
$GPGGA,121528.75,5703.1972852,N,00951.8108787,E,2,6,1.8,-2.446,M,40.592,M,1.2,0123*56
$GPVTG,224.98,T,-414.92,M,004.969,N,009.203,K,D*0E
$GPGGA,121528.80,5703.1972348,N,00951.8107906,E,2,6,1.8,-2.443,M,40.592,M,1.2,0123*51
$GPVTG,224.35,T,-415.55,M,004.974,N,009.211,K,D*0C
$GPGGA,121528.85,5703.1971902,N,00951.8107047,E,2,6,1.8,-2.430,M,40.592,M,1.4,0123*5D
$GPVTG,224.24,T,-415.66,M,004.912,N,009.097,K,D*00
$GPGGA,121528.90,5703.1971446,N,00951.8106194,E,2,6,1.8,-2.426,M,40.592,M,1.4,0123*5D
$GPVTG,224.21,T,-415.69,M,004.844,N,008.970,K,D*09
$GPGGA,121528.95,5703.1971000,N,00951.8105309,E,2,6,1.8,-2.422,M,40.592,M,1.4,0123*5F
$GPVTG,224.75,T,-415.15,M,004.808,N,008.904,K,D*08
$GPGGA,121529.00,5703.1970516,N,00951.8104433,E,2,6,1.8,-2.418,M,40.592,M,1.4,0123*57
$GPVTG,224.60,T,-415.30,M,004.817,N,008.921,K,D*02
$GPGGA,121529.05,5703.1970046,N,00951.8103547,E,2,6,1.8,-2.425,M,40.592,M,1.7,0123*5A
$GPVTG,225.03,T,-414.87,M,004.796,N,008.882,K,D*05
$GPGGA,121529.10,5703.1969555,N,00951.8102695,E,2,6,1.8,-2.430,M,40.592,M,1.7,0123*58
$GPVTG,224.51,T,-415.39,M,004.800,N,008.889,K,D*0C
$GPGGA,121529.15,5703.1969073,N,00951.8101829,E,2,6,1.8,-2.433,M,40.592,M,1.7,0123*55
$GPVTG,224.39,T,-415.51,M,004.807,N,008.903,K,D*08
$GPGGA,121529.20,5703.1968577,N,00951.8100964,E,2,6,1.8,-2.436,M,40.592,M,1.7,0123*5F
$GPVTG,224.11,T,-415.79,M,004.832,N,008.949,K,D*00
$GPGGA,121529.25,5703.1968143,N,00951.8100110,E,2,6,1.8,-2.419,M,40.592,M,1.9,0123*51
$GPVTG,224.25,T,-415.65,M,004.816,N,008.920,K,D*03
$GPGGA,121529.30,5703.1967649,N,00951.8099262,E,2,6,1.8,-2.419,M,40.592,M,1.9,0123*50
$GPVTG,223.86,T,-416.04,M,004.825,N,008.936,K,D*0E
$GPGGA,121529.35,5703.1967146,N,00951.8098420,E,2,6,1.8,-2.418,M,40.592,M,1.9,0123*5D
$GPVTG,223.35,T,-416.55,M,004.840,N,008.963,K,D*01
$GPGGA,121529.40,5703.1966699,N,00951.8097603,E,2,6,1.8,-2.419,M,40.592,M,1.9,0123*56
$GPVTG,223.43,T,-416.47,M,004.762,N,008.820,K,D*0A
$GPGGA,121529.45,5703.1966264,N,00951.8096727,E,2,6,1.8,-2.412,M,40.592,M,2.2,0123*50
$GPVTG,224.22,T,-415.68,M,004.758,N,008.813,K,D*0D
$GPGGA,121529.50,5703.1965783,N,00951.8095862,E,2,6,1.8,-2.411,M,40.592,M,2.2,0123*55
$GPVTG,224.31,T,-415.59,M,004.780,N,008.853,K,D*0C
$GPGGA,121529.55,5703.1965306,N,00951.8095090,E,2,6,1.8,-2.410,M,40.592,M,2.2,0123*5D
$GPVTG,223.38,T,-416.52,M,004.709,N,008.720,K,D*00
$GPGGA,121529.60,5703.1964828,N,00951.8094234,E,2,6,1.8,-2.408,M,40.592,M,2.2,0123*59
$GPVTG,223.59,T,-416.31,M,004.731,N,008.761,K,D*0C
$GPGGA,121529.65,5703.1964341,N,00951.8093388,E,2,6,1.8,-2.409,M,40.592,M,2.4,0123*5E
$GPVTG,223.49,T,-416.41,M,004.755,N,008.806,K,D*06
$GPGGA,121529.70,5703.1963855,N,00951.8092561,E,2,6,1.8,-2.411,M,40.592,M,2.4,0123*5A
$GPVTG,223.24,T,-416.66,M,004.756,N,008.809,K,D*04
$GPGGA,121529.75,5703.1963372,N,00951.8091749,E,2,6,1.8,-2.414,M,40.592,M,2.4,0123*5F
$GPVTG,222.90,T,-417.00,M,004.741,N,008.780,K,D*03
$GPGGA,121529.80,5703.1962881,N,00951.8090918,E,2,6,1.8,-2.415,M,40.592,M,2.4,0123*59
$GPVTG,222.77,T,-417.13,M,004.757,N,008.811,K,D*08
$GPGGA,121529.85,5703.1962383,N,00951.8090092,E,2,6,1.8,-2.410,M,40.592,M,2.6,0123*59
$GPVTG,222.33,T,-417.57,M,004.798,N,008.886,K,D*05
$GPGGA,121529.90,5703.1961937,N,00951.8089275,E,2,6,1.8,-2.408,M,40.592,M,2.6,0123*51
$GPVTG,222.80,T,-417.10,M,004.736,N,008.771,K,D*0D
$GPGGA,121529.95,5703.1961478,N,00951.8088445,E,2,6,1.8,-2.407,M,40.592,M,2.6,0123*59
$GPVTG,223.18,T,-416.72,M,004.714,N,008.730,K,D*0D
$GPGGA,121530.00,5703.1961012,N,00951.8087608,E,2,6,1.8,-2.409,M,40.592,M,2.6,0123*5F
$GPVTG,223.49,T,-416.41,M,004.710,N,008.724,K,D*08
$GPGGA,121530.05,5703.1960540,N,00951.8086780,E,2,6,1.8,-2.407,M,40.592,M,2.8,0123*59
$GPVTG,223.23,T,-416.67,M,004.743,N,008.784,K,D*0C
$GPGGA,121530.10,5703.1960034,N,00951.8085982,E,2,6,1.8,-2.411,M,40.592,M,2.8,0123*53
$GPVTG,222.50,T,-417.40,M,004.751,N,008.800,K,D*0D
$GPGGA,121530.15,5703.1959556,N,00951.8085162,E,2,6,1.8,-2.410,M,40.592,M,2.8,0123*5A
$GPVTG,222.54,T,-417.36,M,004.745,N,008.788,K,D*02
$GPGGA,121530.20,5703.1959052,N,00951.8084322,E,2,6,1.8,-2.411,M,40.592,M,2.8,0123*5B
$GPVTG,222.48,T,-417.42,M,004.791,N,008.873,K,D*0E
$GPGGA,121530.25,5703.1958557,N,00951.8083518,E,2,6,1.8,-2.411,M,40.592,M,3.1,0123*5F
$GPVTG,222.01,T,-417.89,M,004.799,N,008.888,K,D*08
$GPGGA,121530.30,5703.1958095,N,00951.8082668,E,2,6,1.8,-2.413,M,40.592,M,3.1,0123*57
$GPVTG,222.77,T,-417.13,M,004.791,N,008.873,K,D*06
$GPGGA,121530.35,5703.1957617,N,00951.8081898,E,2,6,1.8,-2.416,M,40.592,M,3.1,0123*56
$GPVTG,222.21,T,-417.69,M,004.729,N,008.759,K,D*0C
$GPGGA,121530.40,5703.1957106,N,00951.8081103,E,2,6,1.8,-2.419,M,40.592,M,3.1,0123*57
$GPVTG,221.61,T,-418.29,M,004.746,N,008.790,K,D*0C
$GPGGA,121530.45,5703.1956611,N,00951.8080308,E,2,6,1.8,-2.412,M,40.592,M,3.3,0123*53
$GPVTG,220.97,T,-418.93,M,004.787,N,008.865,K,D*0D
$GPGGA,121530.50,5703.1956158,N,00951.8079488,E,2,6,1.8,-2.409,M,40.592,M,3.3,0123*5E
$GPVTG,221.74,T,-418.16,M,004.743,N,008.784,K,D*04
$GPGGA,121530.55,5703.1955692,N,00951.8078655,E,2,6,1.8,-2.406,M,40.592,M,3.3,0123*55
$GPVTG,222.37,T,-417.53,M,004.735,N,008.769,K,D*0C
$GPGGA,121530.60,5703.1955217,N,00951.8077853,E,2,6,1.8,-2.407,M,40.592,M,3.3,0123*5C
$GPVTG,222.40,T,-417.50,M,004.712,N,008.726,K,D*01
$GPGGA,121530.65,5703.1954699,N,00951.8077059,E,2,6,1.8,-2.415,M,40.592,M,3.5,0123*5D
$GPVTG,221.60,T,-418.30,M,004.750,N,008.797,K,D*05
$GPGGA,121530.70,5703.1954154,N,00951.8076284,E,2,6,1.8,-2.419,M,40.592,M,3.5,0123*50
$GPVTG,220.44,T,-419.46,M,004.799,N,008.887,K,D*09
$GPGGA,121530.75,5703.1953663,N,00951.8075499,E,2,6,1.8,-2.422,M,40.592,M,3.5,0123*50
$GPVTG,220.37,T,-419.53,M,004.777,N,008.847,K,D*05
$GPGGA,121530.80,5703.1953164,N,00951.8074745,E,2,6,1.8,-2.423,M,40.592,M,3.5,0123*58
$GPVTG,219.84,T,-420.06,M,004.744,N,008.786,K,D*0F
$GPGGA,121530.85,5703.1952735,N,00951.8073965,E,2,6,1.8,-2.397,M,40.592,M,3.7,0123*5F
$GPVTG,220.08,T,-419.82,M,004.729,N,008.757,K,D*00
$GPGGA,121530.90,5703.1952240,N,00951.8073188,E,2,6,1.8,-2.395,M,40.592,M,3.7,0123*55
$GPVTG,220.03,T,-419.87,M,004.719,N,008.739,K,D*05
$GPGGA,121530.95,5703.1951733,N,00951.8072379,E,2,6,1.8,-2.391,M,40.592,M,3.7,0123*5B
$GPVTG,220.25,T,-419.65,M,004.755,N,008.806,K,D*06
$GPGGA,121531.00,5703.1951192,N,00951
