$GPGGA,121617.85,5703.1489922,N,00951.7171358,E,2,6,1.8,-1.635,M,40.592,M,2.6,0123*5C
$GPVTG,240.85,T,-399.05,M,005.064,N,009.378,K,D*04
$GPGGA,121617.90,5703.1489603,N,00951.7170265,E,2,6,1.8,-1.636,M,40.592,M,2.6,0123*59
$GPVTG,241.05,T,-398.85,M,005.017,N,009.292,K,D*05
$GPGGA,121617.95,5703.1489265,N,00951.7169145,E,2,6,1.8,-1.634,M,40.592,M,2.6,0123*53
$GPVTG,241.10,T,-398.80,M,005.025,N,009.307,K,D*08
$GPGGA,121618.00,5703.1488894,N,00951.7168027,E,2,6,1.8,-1.633,M,40.592,M,2.6,0123*56
$GPVTG,240.54,T,-399.36,M,005.056,N,009.364,K,D*04
$GPGGA,121618.05,5703.1488552,N,00951.7166903,E,2,6,1.8,-1.638,M,40.592,M,2.8,0123*50
$GPVTG,240.97,T,-398.93,M,005.040,N,009.334,K,D*07
$GPGGA,121618.10,5703.1488209,N,00951.7165789,E,2,6,1.8,-1.641,M,40.592,M,2.8,0123*5C
$GPVTG,240.89,T,-399.01,M,005.038,N,009.331,K,D*08
$GPGGA,121618.15,5703.1487863,N,00951.7164673,E,2,6,1.8,-1.640,M,40.592,M,2.8,0123*54
$GPVTG,240.75,T,-399.15,M,005.044,N,009.342,K,D*01
$GPGGA,121618.20,5703.1487520,N,00951.7163514,E,2,6,1.8,-1.641,M,40.592,M,2.8,0123*5C
$GPVTG,241.01,T,-398.89,M,005.094,N,009.434,K,D*0C
$GPGGA,121618.25,5703.1487106,N,00951.7162394,E,2,6,1.8,-1.647,M,40.592,M,3.1,0123*58
$GPVTG,240.07,T,-399.83,M,005.128,N,009.497,K,D*0F
$GPGGA,121618.30,5703.1486743,N,00951.7161247,E,2,6,1.8,-1.650,M,40.592,M,3.1,0123*50
$GPVTG,239.96,T,-399.94,M,005.166,N,009.567,K,D*0B
$GPGGA,121618.35,5703.1486400,N,00951.7160104,E,2,6,1.8,-1.650,M,40.592,M,3.1,0123*54
$GPVTG,240.19,T,-399.71,M,005.173,N,009.581,K,D*05
$GPGGA,121618.40,5703.1486027,N,00951.7158945,E,2,6,1.8,-1.652,M,40.592,M,3.1,0123*53
$GPVTG,240.00,T,-399.90,M,005.221,N,009.670,K,D*0B
$GPGGA,121618.45,5703.1485717,N,00951.7157799,E,2,6,1.8,-1.639,M,40.592,M,3.3,0123*5E
$GPVTG,240.70,T,-399.20,M,005.199,N,009.629,K,D*0B
$GPGGA,121618.50,5703.1485335,N,00951.7156669,E,2,6,1.8,-1.640,M,40.592,M,3.3,0123*5F
$GPVTG,240.07,T,-399.83,M,005.211,N,009.650,K,D*0F
$GPGGA,121618.55,5703.1485001,N,00951.7155527,E,2,6,1.8,-1.639,M,40.592,M,3.3,0123*5A
$GPVTG,240.41,T,-399.49,M,005.192,N,009.616,K,D*01
$GPGGA,121618.60,5703.1484605,N,00951.7154347,E,2,6,1.8,-1.638,M,40.592,M,3.3,0123*5F
$GPVTG,239.97,T,-399.93,M,005.272,N,009.764,K,D*0A
$GPGGA,121618.65,5703.1484175,N,00951.7153189,E,2,6,1.8,-1.639,M,40.592,M,3.5,0123*5A
$GPVTG,239.07,T,-400.83,M,005.328,N,009.867,K,D*07
$GPGGA,121618.70,5703.1483859,N,00951.7152033,E,2,6,1.8,-1.640,M,40.592,M,3.5,0123*51
$GPVTG,239.93,T,-399.97,M,005.284,N,009.787,K,D*0E
$GPGGA,121618.75,5703.1483507,N,00951.7150837,E,2,6,1.8,-1.642,M,40.592,M,3.5,0123*5E
$GPVTG,240.39,T,-399.51,M,005.322,N,009.856,K,D*04
$GPGGA,121618.80,5703.1483125,N,00951.7149708,E,2,6,1.8,-1.644,M,40.592,M,3.5,0123*5D
$GPVTG,239.79,T,-400.11,M,005.299,N,009.813,K,D*0D
$GPGGA,121618.85,5703.1482709,N,00951.7148540,E,2,6,1.8,-1.634,M,40.592,M,3.7,0123*5B
$GPVTG,238.86,T,-401.04,M,005.365,N,009.936,K,D*0D
$GPGGA,121618.90,5703.1482312,N,00951.7147381,E,2,6,1.8,-1.629,M,40.592,M,3.7,0123*59
$GPVTG,238.46,T,-401.44,M,005.383,N,009.970,K,D*0F
$GPGGA,121618.95,5703.1481938,N,00951.7146208,E,2,6,1.8,-1.625,M,40.592,M,3.7,0123*50
$GPVTG,238.59,T,-401.31,M,005.391,N,009.984,K,D*0B
$GPGGA,121619.00,5703.1481564,N,00951.7144994,E,2,6,1.8,-1.620,M,40.592,M,3.7,0123*51
$GPVTG,239.01,T,-400.89,M,005.442,N,010.079,K,D*0F
$GPGGA,121619.05,5703.1481158,N,00951.7143862,E,2,6,1.8,-1.626,M,40.592,M,3.9,0123*58
$GPVTG,238.73,T,-401.17,M,005.385,N,009.973,K,D*0A
$GPGGA,121619.10,5703.1480759,N,00951.7142646,E,2,6,1.8,-1.625,M,40.592,M,3.9,0123*50
$GPVTG,238.77,T,-401.13,M,005.457,N,010.105,K,D*03
$GPGGA,121619.15,5703.1480402,N,00951.7141444,E,2,6,1.8,-1.627,M,40.592,M,3.9,0123*59
$GPVTG,239.36,T,-400.54,M,005.459,N,010.111,K,D*0E
$GPGGA,121619.20,5703.1479984,N,00951.7140223,E,2,6,1.8,-1.626,M,40.592,M,3.9,0123*5D
$GPVTG,239.05,T,-400.85,M,005.534,N,010.249,K,D*06
$GPGGA,121619.25,5703.1479558,N,00951.7139063,E,2,6,1.8,-1.629,M,40.592,M,4.1,0123*5D
$GPVTG,238.50,T,-401.40,M,005.516,N,010.215,K,D*06
$GPGGA,121619.30,5703.1479118,N,00951.7137902,E,2,6,1.8,-1.628,M,40.592,M,4.1,0123*58
$GPVTG,237.53,T,-402.37,M,005.530,N,010.242,K,D*0F
$GPGGA,121619.35,5703.1478755,N,00951.7136694,E,2,6,1.8,-1.627,M,40.592,M,4.1,0123*5D
$GPVTG,238.23,T,-401.67,M,005.526,N,010.233,K,D*00
$GPGGA,121619.40,5703.1478379,N,00951.7135447,E,2,6,1.8,-1.625,M,40.592,M,4.1,0123*58
$GPVTG,238.92,T,-400.98,M,005.573,N,010.321,K,D*09
$GPGGA,121619.45,5703.1477962,N,00951.7134252,E,2,6,1.8,-1.616,M,40.592,M,2.1,0123*57
$GPVTG,238.39,T,-401.51,M,005.593,N,010.358,K,D*0C
$GPGGA,121619.50,5703.1477544,N,00951.7133079,E,2,6,1.8,-1.614,M,40.592,M,2.1,0123*55
$GPVTG,237.87,T,-402.03,M,005.578,N,010.330,K,D*09
$GPGGA,121619.55,5703.1477130,N,00951.7131890,E,2,6,1.8,-1.612,M,40.592,M,2.1,0123*5C
$GPVTG,237.63,T,-402.27,M,005.580,N,010.334,K,D*06
$GPGGA,121619.60,5703.1476749,N,00951.7130662,E,2,6,1.8,-1.609,M,40.592,M,2.1,0123*5B
$GPVTG,238.19,T,-401.71,M,005.593,N,010.358,K,D*0C
$GPGGA,121619.65,5703.1476337,N,00951.7129418,E,2,6,1.8,-1.609,M,40.592,M,2.4,0123*51
$GPVTG,238.53,T,-401.37,M,005.633,N,010.432,K,D*02
$GPGGA,121619.70,5703.1475940,N,00951.7128189,E,2,6,1.8,-1.605,M,40.592,M,2.4,0123*5C
$GPVTG,238.76,T,-401.14,M,005.646,N,010.456,K,D*04
$GPGGA,121619.75,5703.1475483,N,00951.7127015,E,2,6,1.8,-1.604,M,40.592,M,2.4,0123*51
$GPVTG,237.63,T,-402.27,M,005.647,N,010.459,K,D*02
$GPGGA,121619.80,5703.1475044,N,00951.7125823,E,2,6,1.8,-1.601,M,40.592,M,2.4,0123*5E
$GPVTG,237.08,T,-402.82,M,005.654,N,010.471,K,D*08
$GPGGA,121619.85,5703.1474640,N,00951.7124569,E,2,6,1.8,-1.599,M,40.592,M,2.6,0123*5A
$GPVTG,237.75,T,-402.15,M,005.684,N,010.527,K,D*03
$GPGGA,121619.90,5703.1474227,N,00951.7123311,E,2,6,1.8,-1.599,M,40.592,M,2.6,0123*55
$GPVTG,238.06,T,-401.84,M,005.730,N,010.612,K,D*08
$GPGGA,121619.95,5703.1473821,N,00951.7122134,E,2,6,1.8,-1.599,M,40.592,M,2.6,0123*5F
$GPVTG,237.84,T,-402.06,M,005.668,N,010.498,K,D*08
$GPGGA,121620.00,5703.1473406,N,00951.7120901,E,2,6,1.8,-1.598,M,40.592,M,2.6,0123*5D
$GPVTG,237.92,T,-401.98,M,005.686,N,010.530,K,D*08
$GPGGA,121620.05,5703.1472928,N,00951.7119669,E,2,6,1.8,-1.596,M,40.592,M,2.9,0123*52
$GPVTG,237.62,T,-402.28,M,005.738,N,010.627,K,D*0E
$GPGGA,121620.10,5703.1472539,N,00951.7118450,E,2,6,1.8,-1.593,M,40.592,M,2.9,0123*56
$GPVTG,237.93,T,-401.97,M,005.717,N,010.588,K,D*0C
$GPGGA,121620.15,5703.1472156,N,00951.7117217,E,2,6,1.8,-1.589,M,40.592,M,2.9,0123*5F
$GPVTG,238.37,T,-401.53,M,005.700,N,010.556,K,D*00
$GPGGA,121620.20,5703.1471808,N,00951.7115912,E,2,6,1.8,-1.583,M,40.592,M,2.9,0123*5E
$GPVTG,239.56,T,-400.34,M,005.713,N,010.580,K,D*0F
$GPGGA,121620.25,5703.1471306,N,00951.7114716,E,2,6,1.8,-1.593,M,40.592,M,3.1,0123*5D
$GPVTG,238.94,T,-400.96,M,005.750,N,010.650,K,D*01
$GPGGA,121620.30,5703.1470870,N,00951.7113529,E,2,6,1.8,-1.592,M,40.592,M,3.1,0123*5A
$GPVTG,238.02,T,-401.88,M,005.695,N,010.547,K,D*0D
$GPGGA,121620.35,5703.1470431,N,00951.7112295,E,2,6,1.8,-1.591,M,40.592,M,3.1,0123*54
$GPVTG,237.68,T,-402.22,M,005.724,N,010.601,K,D*07
$GPGGA,121620.40,5703.1470052,N,00951.7111055,E,2,6,1.8,-1.591,M,40.592,M,3.1,0123*5A
$GPVTG,238.38,T,-401.52,M,005.697,N,010.551,K,D*06
$GPGGA,121620.45,5703.1469658,N,00951.7109815,E,2,6,1.8,-1.581,M,40.592,M,2.4,0123*5B
$GPVTG,238.69,T,-401.21,M,005.689,N,010.536,K,D*08
$GPGGA,121620.50,5703.1469286,N,00951.7108624,E,2,6,1.8,-1.578,M,40.592,M,2.4,0123*53
$GPVTG,239.04,T,-400.86,M,005.589,N,010.351,K,D*0A
$GPGGA,121620.55,5703.1468859,N,00951.7107377,E,2,6,1.8,-1.572,M,40.592,M,2.4,0123*59
$GPVTG,238.82,T,-401.08,M,005.643,N,010.450,K,D*01
$GPGGA,121620.60,5703.1468406,N,00951.7106131,E,2,6,1.8,-1.568,M,40.592,M,2.4,0123*53
$GPVTG,238.20,T,-401.70,M,005.711,N,010.576,K,D*05
$GPGGA,121620.65,5703.1468025,N,00951.7104928,E,2,6,1.8,-1.559,M,40.592,M,2.6,0123*51
$GPVTG,238.56,T,-401.34,M,005.639,N,010.443,K,D*08
$GPGGA,121620.70,5703.1467622,N,00951.7103749,E,2,6,1.8,-1.556,M,40.592,M,2.6,0123*5A
$GPVTG,238.30,T,-401.60,M,005.573,N,010.321,K,D*07
$GPGGA,121620.75,5703.1467208,N,00951.7102560,E,2,6,1.8,-1.555,M,40.592,M,2.6,0123*58
$GPVTG,238.00,T,-401.90,M,005.548,N,010.274,K,D*02
$GPGGA,121620.80,5703.1466820,N,00951.7101298,E,2,6,1.8,-1.551,M,40.592,M,2.6,0123*54
$GPVTG,238.75,T,-401.15,M,005.593,N,010.359,K,D*05
$GPGGA,121620.85,5703.1466419,N,00951.7100079,E,2,6,1.8,-1.548,M,40.592,M,2.8,0123*5D
$GPVTG,238.92,T,-400.98,M,005.583,N,010.339,K,D*0F
$GPGGA,121620.90,5703.1465966,N,00951.7098918,E,2,6,1.8,-1.544,M,40.592,M,2.8,0123*5D
$GPVTG,237.85,T,-402.05,M,005.564,N,010.304,K,D*07
$GPGGA,121620.95,5703.1465573,N,00951.7097740,E,2,6,1.8,-1.541,M,40.592,M,2.8,0123*59
$GPVTG,237.86,T,-402.04,M,005.518,N,010.219,K,D*03
$GPGGA,121621.00,5703.1465192,N,00951.7096565,E,2,6,1.8,-1.537,M,40.592,M,2.8,0123*5A
$GPVTG,238.07,T,-401.83,M,005.466,N,010.123,K,D*0B
$GPGGA,121621.05,5703.1464806,N,00951.7095358,E,2,6,1.8,-1.527,M,40.592,M,3.1,0123*58
$GPVTG,238.47,T,-401.43,M,005.460,N,010.111,K,D*04
$GPGGA,121621.10,5703.1464374,N,00951.7094161,E,2,6,1.8,-1.523,M,40.592,M,3.1,0123*5F
$GPVTG,238.01,T,-401.89,M,005.494,N,010.175,K,D*09
$GPGGA,121621.15,5703.1463975,N,00951.7092976,E,2,6,1.8,-1.521,M,40.592,M,3.1,0123*5C
$GPVTG,238.03,T,-401.87,M,005.481,N,010.151,K,D*07
$GPGGA,121621.20,5703.1463596,N,00951.7091813,E,2,6,1.8,-1.518,M,40.592,M,3.1,0123*50
$GPVTG,238.21,T,-401.69,M,005.429,N,010.054,K,D*01
$GPGGA,121621.25,5703.1463183,N,00951.7090616,E,2,6,1.8,-1.527,M,40.592,M,3.3,0123*51
$GPVTG,238.45,T,-401.45,M,005.423,N,010.043,K,D*01
$GPGGA,121621.30,5703.1462767,N,00951.7089489,E,2,6,1.8,-1.526,M,40.592,M,3.3,0123*55
$GPVTG,237.74,T,-402.16,M,005.376,N,009.957,K,D*0A
$GPGGA,121621.35,5703.1462373,N,00951.7088335,E,2,6,1.8,-1.525,M,40.592,M,3.3,0123*53
$GPVTG,237.71,T,-402.19,M,005.352,N,009.912,K,D*07
$GPGGA,121621.40,5703.1461964,N,00951.7087169,E,2,6,1.8,-1.526,M,40.592,M,3.3,0123*59
$GPVTG,237.57,T,-402.33,M,005.365,N,009.935,K,D*0A
$GPGGA,121621.45,5703.1461608,N,00951.7086008,E,2,6,1.8,-1.518,M,40.592,M,2.2,0123*53
$GPVTG,238.10,T,-401.80,M,005.330,N,009.872,K,D*0F
$GPGGA,121621.50,5703.1461181,N,00951.7084920,E,2,6,1.8,-1.519,M,40.592,M,2.2,0123*51
$GPVTG,237.01,T,-402.89,M,005.280,N,009.778,K,D*05
$GPGGA,121621.55,5703.1460798,N,00951.7083771,E,2,6,1.8,-1.518,M,40.592,M,2.2,0123*57
$GPVTG,237.31,T,-402.59,M,005.270,N,009.760,K,D*0D
$GPGGA,121621.60,5703.1460383,N,00951.7082642,E,2,6,1.8,-1.518,M,40.592,M,2.2,0123*5F
$GPVTG,236.92,T,-402.98,M,005.272,N,009.764,K,D*0E
$GPGGA,121621.65,5703.1460017,N,00951.7081524,E,2,6,1.8,-1.506,M,40.592,M,2.4,0123*5D
$GPVTG,237.08,T,-402.82,M,005.231,N,009.688,K,D*03
$GPGGA,121621.70,5703.1459622,N,00951.7080411,E,2,6,1.8,-1.504,M,40.592,M,2.4,0123*57
$GPVTG,236.95,T,-402.95,M,005.210,N,009.648,K,D*0F
$GPGGA,121621.75,5703.1459242,N,00951.7079260,E,2,6,1.8,-1.501,M,40.592,M,2.4,0123*53
$GPVTG,237.41,T,-402.49,M,005.226,N,009.678,K,D*00

