$GPGGA,082428.85,5703.2880951,N,00952.3667786,E,2,10,0.8,-2.153,M,40.593,M,1.5,0123*6B\r\n
$GPGGA,082428.90,5703.2880966,N,00952.3667788,E,2,10,0.8,-2.152,M,40.593,M,1.5,0123*64\r\n
$GPGGA,082428.95,5703.2880979,N,00952.3667785,E,2,10,0.8,-2.152,M,40.593,M,1.5,0123*62\r\n
$GPGGA,082429.00,5703.2880994,N,00952.3667782,E,2,10,0.8,-2.151,M,40.593,M,1.5,0123*68\r\n
$GPGGA,082429.05,5703.2881021,N,00952.3667770,E,2,10,0.8,-2.150,M,40.593,M,1.7,0123*65\r\n
$GPGGA,082429.10,5703.2881030,N,00952.3667762,E,2,10,0.8,-2.150,M,40.593,M,1.7,0123*62\r\n
$GPGGA,082429.15,5703.2881037,N,00952.3667757,E,2,10,0.8,-2.149,M,40.593,M,1.7,0123*6E\r\n
$GPGGA,082429.20,5703.2881043,N,00952.3667748,E,2,10,0.8,-2.148,M,40.593,M,1.7,0123*64\r\n
$GPGGA,082429.25,5703.2880987,N,00952.3667728,E,2,10,0.8,-2.152,M,40.593,M,2.0,0123*68\r\n
$GPGGA,082429.30,5703.2880992,N,00952.3667720,E,2,10,0.8,-2.152,M,40.593,M,2.0,0123*60\r\n
$GPGGA,082429.35,5703.2880996,N,00952.3667708,E,2,10,0.8,-2.151,M,40.593,M,2.0,0123*68\r\n
$GPGGA,082429.40,5703.2881000,N,00952.3667695,E,2,10,0.8,-2.150,M,40.593,M,2.0,0123*69\r\n
$GPGGA,082429.45,5703.2880983,N,00952.3667675,E,2,10,0.8,-2.153,M,40.593,M,0.9,0123*69\r\n
$GPGGA,082429.50,5703.2880985,N,00952.3667665,E,2,10,0.8,-2.152,M,40.593,M,0.9,0123*6B\r\n
$GPGGA,082429.55,5703.2880982,N,00952.3667649,E,2,10,0.8,-2.152,M,40.593,M,0.9,0123*67\r\n
$GPGGA,082429.60,5703.2880980,N,00952.3667635,E,2,10,0.8,-2.151,M,40.593,M,0.9,0123*6B\r\n
$GPGGA,082429.65,5703.2880958,N,00952.3667615,E,2,10,0.8,-2.150,M,40.593,M,1.2,0123*62\r\n
$GPGGA,082429.70,5703.2880951,N,00952.3667597,E,2,10,0.8,-2.149,M,40.593,M,1.2,0123*6E\r\n
$GPGGA,082429.75,5703.2880945,N,00952.3667581,E,2,10,0.8,-2.149,M,40.593,M,1.2,0123*69\r\n
$GPGGA,082429.80,5703.2880936,N,00952.3667566,E,2,10,0.8,-2.148,M,40.593,M,1.2,0123*6F\r\n
$GPGGA,082429.85,5703.2880898,N,00952.3667535,E,2,10,0.8,-2.150,M,40.593,M,1.5,0123*67\r\n
$GPGGA,082429.90,5703.2880890,N,00952.3667518,E,2,10,0.8,-2.149,M,40.593,M,1.5,0123*6C\r\n
$GPGGA,082429.95,5703.2880884,N,00952.3667500,E,2,10,0.8,-2.149,M,40.593,M,1.5,0123*65\r\n
$GPGGA,082430.00,5703.2880873,N,00952.3667482,E,2,10,0.8,-2.149,M,40.593,M,1.5,0123*62\r\n
$GPGGA,082430.05,5703.2880881,N,00952.3667465,E,2,10,0.8,-2.156,M,40.593,M,1.7,0123*6F\r\n
$GPGGA,082430.10,5703.2880867,N,00952.3667448,E,2,10,0.8,-2.156,M,40.593,M,1.7,0123*6C\r\n
$GPGGA,082430.15,5703.2880858,N,00952.3667436,E,2,10,0.8,-2.156,M,40.593,M,1.7,0123*6C\r\n
$GPGGA,082430.20,5703.2880853,N,00952.3667425,E,2,10,0.8,-2.156,M,40.593,M,1.7,0123*63\r\n
$GPGGA,082430.25,5703.2880884,N,00952.3667461,E,2,10,0.8,-2.163,M,40.593,M,2.0,0123*6E\r\n
$GPGGA,082430.30,5703.2880891,N,00952.3667451,E,2,10,0.8,-2.162,M,40.593,M,2.0,0123*6C\r\n
$GPGGA,082430.35,5703.2880896,N,00952.3667463,E,2,10,0.8,-2.164,M,40.593,M,2.0,0123*69\r\n
$GPGGA,082430.40,5703.2880906,N,00952.3667457,E,2,10,0.8,-2.167,M,40.593,M,2.0,0123*67\r\n
$GPGGA,082430.45,5703.2880921,N,00952.3667462,E,2,10,0.8,-2.164,M,40.593,M,0.9,0123*69\r\n
$GPGGA,082430.50,5703.2880916,N,00952.3667459,E,2,10,0.8,-2.165,M,40.593,M,0.9,0123*60\r\n
$GPGGA,082430.55,5703.2880916,N,00952.3667458,E,2,10,0.8,-2.165,M,40.593,M,0.9,0123*64\r\n
$GPGGA,082430.60,5703.2880919,N,00952.3667459,E,2,10,0.8,-2.166,M,40.593,M,0.9,0123*6F\r\n
$GPGGA,082430.65,5703.2880964,N,00952.3667501,E,2,10,0.8,-2.161,M,40.593,M,1.2,0123*61\r\n
$GPGGA,082430.70,5703.2880969,N,00952.3667503,E,2,10,0.8,-2.161,M,40.593,M,1.2,0123*6A\r\n
$GPGGA,082430.75,5703.2880973,N,00952.3667506,E,2,10,0.8,-2.161,M,40.593,M,1.2,0123*61\r\n
$GPGGA,082430.80,5703.2880977,N,00952.3667511,E,2,10,0.8,-2.161,M,40.593,M,1.2,0123*69\r\n
$GPGGA,082430.85,5703.2880972,N,00952.3667506,E,2,10,0.8,-2.158,M,40.593,M,1.5,0123*62\r\n
$GPGGA,082430.90,5703.2880977,N,00952.3667513,E,2,10,0.8,-2.157,M,40.593,M,1.5,0123*68\r\n
$GPGGA,082430.95,5703.2880981,N,00952.3667525,E,2,10,0.8,-2.156,M,40.593,M,1.5,0123*60\r\n
$GPGGA,082431.00,5703.2880986,N,00952.3667532,E,2,10,0.8,-2.156,M,40.593,M,1.5,0123*6C\r\n
$GPGGA,082431.05,5703.2880974,N,00952.3667536,E,2,10,0.8,-2.158,M,40.593,M,1.7,0123*6C\r\n
$GPGGA,082431.10,5703.2880976,N,00952.3667540,E,2,10,0.8,-2.157,M,40.593,M,1.7,0123*64\r\n
$GPGGA,082431.15,5703.2880980,N,00952.3667552,E,2,10,0.8,-2.156,M,40.593,M,1.7,0123*6A\r\n
$GPGGA,082431.20,5703.2880981,N,00952.3667562,E,2,10,0.8,-2.156,M,40.593,M,1.7,0123*6E\r\n
$GPGGA,082431.25,5703.2880974,N,00952.3667552,E,2,10,0.8,-2.158,M,40.593,M,2.0,0123*68\r\n
$GPGGA,082431.30,5703.2880973,N,00952.3667557,E,2,10,0.8,-2.158,M,40.593,M,2.0,0123*6E\r\n
$GPGGA,082431.35,5703.2880972,N,00952.3667563,E,2,10,0.8,-2.157,M,40.593,M,2.0,0123*62\r\n
$GPGGA,082431.40,5703.2880972,N,00952.3667568,E,2,10,0.8,-2.157,M,40.593,M,2.0,0123*6B\r\n
$GPGGA,082431.45,5703.2880960,N,00952.3667543,E,2,10,0.8,-2.153,M,40.593,M,2.2,0123*62\r\n
$GPGGA,082431.50,5703.2880960,N,00952.3667546,E,2,10,0.8,-2.152,M,40.593,M,2.2,0123*62\r\n
$GPGGA,082431.55,5703.2880957,N,00952.3667550,E,2,10,0.8,-2.151,M,40.593,M,2.2,0123*67\r\n
$GPGGA,082431.60,5703.2880955,N,00952.3667552,E,2,10,0.8,-2.151,M,40.593,M,2.2,0123*61\r\n
$GPGGA,082431.65,5703.2880958,N,00952.3667553,E,2,10,0.8,-2.154,M,40.593,M,2.4,0123*6B\r\n
$GPGGA,082431.70,5703.2880956,N,00952.3667552,E,2,10,0.8,-2.153,M,40.593,M,2.4,0123*67\r\n
$GPGGA,082431.75,5703.2880951,N,00952.3667551,E,2,10,0.8,-2.153,M,40.593,M,2.4,0123*66\r\n
$GPGGA,082431.80,5703.2880948,N,00952.3667555,E,2,10,0.8,-2.153,M,40.593,M,2.4,0123*60\r\n
$GPGGA,082431.85,5703.2880938,N,00952.3667563,E,2,10,0.8,-2.157,M,40.593,M,2.6,0123*61\r\n
$GPGGA,082431.90,5703.2880933,N,00952.3667566,E,2,10,0.8,-2.157,M,40.593,M,2.6,0123*6B\r\n
$GPGGA,082431.95,5703.2880928,N,00952.3667567,E,2,10,0.8,-2.157,M,40.593,M,2.6,0123*65\r\n
$GPGGA,082432.00,5703.2880925,N,00952.3667567,E,2,10,0.8,-2.157,M,40.593,M,2.6,0123*67\r\n
$GPGGA,082432.05,5703.2880943,N,00952.3667559,E,2,10,0.8,-2.152,M,40.593,M,2.9,0123*65\r\n
$GPGGA,082432.10,5703.2880940,N,00952.3667560,E,2,10,0.8,-2.152,M,40.593,M,2.9,0123*68\r\n
$GPGGA,082432.15,5703.2880936,N,00952.3667562,E,2,10,0.8,-2.152,M,40.593,M,2.9,0123*6E\r\n
$GPGGA,082432.20,5703.2880932,N,00952.3667564,E,2,10,0.8,-2.152,M,40.593,M,2.9,0123*6A\r\n
$GPGGA,082432.25,5703.2880930,N,00952.3667578,E,2,10,0.8,-2.152,M,40.593,M,3.1,0123*69\r\n
$GPGGA,082432.30,5703.2880928,N,00952.3667581,E,2,10,0.8,-2.153,M,40.593,M,3.1,0123*63\r\n
$GPGGA,082432.35,5703.2880923,N,00952.3667584,E,2,10,0.8,-2.153,M,40.593,M,3.1,0123*68\r\n
$GPGGA,082432.40,5703.2880918,N,00952.3667586,E,2,10,0.8,-2.153,M,40.593,M,3.1,0123*60\r\n
$GPGGA,082432.45,5703.2880914,N,00952.3667582,E,2,10,0.8,-2.156,M,40.593,M,3.3,0123*6A\r\n
$GPGGA,082432.50,5703.2880910,N,00952.3667584,E,2,10,0.8,-2.157,M,40.593,M,3.3,0123*6D\r\n
$GPGGA,082432.55,5703.2880907,N,00952.3667581,E,2,10,0.8,-2.157,M,40.593,M,3.3,0123*6B\r\n
$GPGGA,082432.60,5703.2880903,N,00952.3667585,E,2,10,0.8,-2.158,M,40.593,M,3.3,0123*62\r\n
$GPGGA,082432.65,5703.2880905,N,00952.3667583,E,2,10,0.8,-2.157,M,40.593,M,3.5,0123*6E\r\n
$GPGGA,082432.70,5703.2880901,N,00952.3667587,E,2,10,0.8,-2.157,M,40.593,M,3.5,0123*6A\r\n
$GPGGA,082432.75,5703.2880896,N,00952.3667584,E,2,10,0.8,-2.158,M,40.593,M,3.5,0123*6C\r\n
$GPGGA,082432.80,5703.2880891,N,00952.3667583,E,2,10,0.8,-2.159,M,40.593,M,3.5,0123*67\r\n
$GPGGA,082432.85,5703.2880871,N,00952.3667587,E,2,10,0.8,-2.162,M,40.593,M,3.7,0123*62\r\n
$GPGGA,082432.90,5703.2880865,N,00952.3667589,E,2,10,0.8,-2.163,M,40.593,M,3.7,0123*6C\r\n
$GPGGA,082432.95,5703.2880858,N,00952.3667587,E,2,10,0.8,-2.164,M,40.593,M,3.7,0123*6E\r\n
$GPGGA,082433.00,5703.2880854,N,00952.3667587,E,2,10,0.8,-2.164,M,40.593,M,3.7,0123*6F\r\n
$GPGGA,082433.05,5703.2880868,N,00952.3667572,E,2,10,0.8,-2.158,M,40.593,M,3.9,0123*6E\r\n
$GPGGA,082433.10,5703.2880861,N,00952.3667571,E,2,10,0.8,-2.159,M,40.593,M,3.9,0123*61\r\n
$GPGGA,082433.15,5703.2880852,N,00952.3667567,E,2,10,0.8,-2.159,M,40.593,M,3.9,0123*63\r\n
$GPGGA,082433.20,5703.2880846,N,00952.3667561,E,2,10,0.8,-2.160,M,40.593,M,3.9,0123*6C\r\n
$GPGGA,082433.25,5703.2880830,N,00952.3667544,E,2,10,0.8,-2.164,M,40.593,M,4.1,0123*64\r\n
$GPGGA,082433.30,5703.2880824,N,00952.3667540,E,2,10,0.8,-2.164,M,40.593,M,4.1,0123*61\r\n
$GPGGA,082433.35,5703.2880820,N,00952.3667537,E,2,10,0.8,-2.165,M,40.593,M,4.1,0123*61\r\n
$GPGGA,082433.40,5703.2880811,N,00952.3667530,E,2,10,0.8,-2.166,M,40.593,M,4.1,0123*65\r\n
$GPGGA,082433.45,5703.2880820,N,00952.3667535,E,2,10,0.8,-2.161,M,40.593,M,2.3,0123*64\r\n
$GPGGA,082433.50,5703.2880814,N,00952.3667532,E,2,10,0.8,-2.162,M,40.593,M,2.3,0123*63\r\n
$GPGGA,082433.55,5703.2880808,N,00952.3667530,E,2,10,0.8,-2.162,M,40.593,M,2.3,0123*69\r\n
$GPGGA,082433.60,5703.2880805,N,00952.3667531,E,2,10,0.8,-2.162,M,40.593,M,2.3,0123*63\r\n
$GPGGA,082433.65,5703.2880806,N,00952.3667547,E,2,10,0.8,-2.162,M,40.593,M,2.5,0123*62\r\n
$GPGGA,082433.70,5703.2880801,N,00952.3667543,E,2,10,0.8,-2.162,M,40.593,M,2.5,0123*65\r\n
$GPGGA,082433.75,5703.2880796,N,00952.3667542,E,2,10,0.8,-2.162,M,40.593,M,2.5,0123*60\r\n
$GPGGA,082433.80,5703.2880793,N,00952.3667544,E,2,10,0.8,-2.162,M,40.593,M,2.5,0123*69\r\n
$GPGGA,082433.85,5703.2880788,N,00952.3667543,E,2,10,0.8,-2.170,M,40.593,M,2.7,0123*60\r\n
$GPGGA,082433.90,5703.2880786,N,00952.3667542,E,2,10,0.8,-2.170,M,40.593,M,2.7,0123*6B\r\n
$GPGGA,082433.95,5703.2880783,N,00952.3667545,E,2,10,0.8,-2.171,M,40.593,M,2.7,0123*6D\r\n
$GPGGA,082434.00,5703.2880779,N,00952.3667546,E,2,10,0.8,-2.172,M,40.593,M,2.7,0123*63\r\n
$GPGGA,082434.05,5703.2880800,N,00952.3667539,E,2,10,0.8,-2.164,M,40.593,M,3.0,0123*6E\r\n
$GPGGA,082434.10,5703.2880800,N,00952.3667540,E,2,10,0.8,-2.164,M,40.593,M,3.0,0123*64\r\n
$GPGGA,082434.15,5703.2880801,N,00952.3667542,E,2,10,0.8,-2.164,M,40.593,M,3.0,0123*62\r\n
$GPGGA,082434.20,5703.2880801,N,00952.3667544,E,2,10,0.8,-2.165,M,40.593,M,3.0,0123*63\r\n
$GPGGA,082434.25,5703.2880814,N,00952.3667542,E,2,10,0.8,-2.164,M,40.593,M,3.2,0123*67\r\n
$GPGGA,082434.30,5703.2880815,N,00952.3667545,E,2,10,0.8,-2.164,M,40.593,M,3.2,0123*65\r\n
$GPGGA,082434.35,5703.2880820,N,00952.3667548,E,2,10,0.8,-2.164,M,40.593,M,3.2,0123*6B\r\n
$GPGGA,082434.40,5703.2880822,N,00952.3667551,E,2,10,0.8,-2.164,M,40.593,M,3.2,0123*63\r\n
$GPGGA,082434.45,5703.2880818,N,00952.3667555,E,2,10,0.8,-2.167,M,40.593,M,2.2,0123*69\r\n
$GPGGA,082434.50,5703.2880820,N,00952.3667556,E,2,10,0.8,-2.167,M,40.593,M,2.2,0123*65\r\n
$GPGGA,082434.55,5703.2880824,N,00952.3667558,E,2,10,0.8,-2.167,M,40.593,M,2.2,0123*6A\r\n
$GPGGA,082434.60,5703.2880830,N,00952.3667560,E,2,10,0.8,-2.167,M,40.593,M,2.2,0123*62\r\n
$GPGGA,082434.65,5703.2880832,N,00952.3667557,E,2,10,0.8,-2.166,M,40.593,M,2.5,0123*67\r\n
$GPGGA,082434.70,5703.2880837,N,00952.3667558,E,2,10,0.8,-2.166,M,40.593,M,2.5,0123*69\r\n
$GPGGA,082434.75,5703.2880841,N,00952.3667554,E,2,10,0.8,-2.166,M,40.593,M,2.5,0123*61\r\n
$GPGGA,082434.80,5703.2880845,N,00952.3667555,E,2,10,0.8,-2.166,M,40.593,M,2.5,0123*6E\r\n
$GPGGA,082434.85,5703.2880844,N,00952.3667544,E,2,10,0.8,-2.164,M,40.593,M,2.7,0123*6A\r\n
$GPGGA,082434.90,5703.2880848,N,00952.3667545,E,2,10,0.8,-2.163,M,40.593,M,2.7,0123*64\r\n
$GPGGA,082434.95,5703.2880852,N,00952.3667542,E,2,10,0.8,-2.163,M,40.593,M,2.7,0123*6D\r\n
$GPGGA,082435.00,5703.2880857,N,00952.3667541,E,2,10,0.8,-2.162,M,40.593,M,2.7,0123*67\r\n
$GPGGA,082435.05,5703.2880872,N,00952.3667537,E,2,10,0.8,-2.160,M,40.593,M,2.9,0123*68\r\n
$GPGGA,082435.10,5703.2880877,N,00952.3667532,E,2,10,0.8,-2.160,M,40.593,M,2.9,0123*6C\r\n
$GPGGA,082435.15,5703.2880881,N,00952.3667529,E,2,10,0.8,-2.159,M,40.593,M,2.9,0123*60\r\n
$GPGGA,082435.20,5703.2880885,N,00952.3667526,E,2,10,0.8,-2.158,M,40.593,M,2.9,0123*6C\r\n
$GPGGA,082435.25,5703.2880882,N,00952.3667515,E,2,10,0.8,-2.161,M,40.593,M,3.1,0123*6D\r\n
$GPGGA,082435.30,5703.2880886,N,00952.3667508,E,2,10,0.8,-2.160,M,40.593,M,3.1,0123*60\r\n
$GPGGA,082435.35,5703.2880888,N,00952.3667504,E,2,10,0.8,-2.160,M,40.593,M,3.1,0123*67\r\n
$GPGGA,082435.40,5703.2880893,N,00952.3667497,E,2,10,0.8,-2.160,M,40.593,M,3.1,0123*64\r\n
$GPGGA,082435.45,5703.2880894,N,00952.3667489,E,2,10,0.8,-2.164,M,40.593,M,2.2,0123*6F\r\n
$GPGGA,082435.50,5703.2880897,N,00952.3667481,E,2,10,0.8,-2.164,M,40.593,M,2.2,0123*60\r\n
$GPGGA,082435.55,5703.2880902,N,00952.3667475,E,2,10,0.8,-2.164,M,40.593,M,2.2,0123*63\r\n
$GPGGA,082435.60,5703.2880906,N,00952.3667471,E,2,10,0.8,-2.165,M,40.593,M,2.2,0123*64\r\n
$GPGGA,082435.65,5703.2880920,N,00952.3667472,E,2,10,0.8,-2.161,M,40.593,M,2.4,0123*64\r\n
$GPGGA,082435.70,5703.2880926,N,00952.3667470,E,2,10,0.8,-2.161,M,40.593,M,2.4,0123*64\r\n
$GPGGA,082435.75,5703.2880931,N,00952.3667467,E,2,10,0.8,-2.162,M,40.593,M,2.4,0123*62\r\n
$GPGGA,082435.80,5703.2880937,N,00952.3667461,E,2,10,0.8,-2.162,M,40.593,M,2.4,0123*68\r\n
$GPGGA,082435.85,5703.2880946,N,00952.3667471,E,2,10,0.8,-2.163,M,40.593,M,2.6,0123*69\r\n
$GPGGA,082435.90,5703.2880951,N,00952.3667470,E,2,10,0.8,-2.163,M,40.593,M,2.6,0123*6A\r\n
$GPGGA,082435.95,5703.2880957,N,00952.3667466,E,2,10,0.8,-2.164,M,40.593,M,2.6,0123*69\r\n
$GPGGA,082436.00,5703.2880963,N,00952.3667463,E,2,10,0.8,-2.164,M,40.593,M,2.6,0123*64\r\n
$GPGGA,082436.05,5703.2880977,N,00952.3667462,E,2,10,0.8,-2.160,M,40.593,M,2.9,0123*6E\r\n
$GPGGA,082436.10,5703.2880983,N,00952.3667458,E,2,10,0.8,-2.160,M,40.593,M,2.9,0123*68\r\n
$GPGGA,082436.15,5703.2880988,N,00952.3667454,E,2,10,0.8,-2.161,M,40.593,M,2.9,0123*6B\r\n
$GPGGA,082436.20,5703.2880993,N,00952.3667449,E,2,10,0.8,-2.161,M,40.593,M,2.9,0123*6B\r\n
$GPGGA,082436.25,5703.2880997,N,00952.3667436,E,2,10,0.8,-2.160,M,40.593,M,3.1,0123*6A\r\n
$GPGGA,082436.30,5703.2881001,N,00952.3667429,E,2,10,0.8,-2.161,M,40.593,M,3.1,0123*66\r\n
$GPGGA,082436.35,5703.2881005,N,00952.3667427,E,2,10,0.8,-2.161,M,40.593,M,3.1,0123*69\r\n
$GPGGA,082436.40,5703.2881011,N,00952.3667422,E,2,10,0.8,-2.162,M,40.593,M,3.1,0123*68\r\n
$GPGGA,082436.45,5703.2881008,N,00952.3667422,E,2,10,0.8,-2.161,M,40.593,M,3.3,0123*64\r\n
$GPGGA,082436.50,5703.2881013,N,00952.3667419,E,2,10,0.8,-2.161,M,40.593,M,3.3,0123*62\r\n
$GPGGA,082436.55,5703.2881015,N,00952.3667418,E,2,10,0.8,-2.162,M,40.593,M,3.3,0123*63\r\n
$GPGGA,082436.60,5703.2881018,N,00952.3667418,E,2,10,0.8,-2.162,M,40.593,M,3.3,0123*68\r\n
$GPGGA,082436.65,5703.2881009,N,00952.3667429,E,2,10,0.8,-2.158,M,40.593,M,3.5,0123*60\r\n
$GPGGA,082436.70,5703.2881010,N,00952.3667426,E,2,10,0.8,-2.158,M,40.593,M,3.5,0123*63\r\n
$GPGGA,082436.75,5703.2881014,N,00952.3667422,E,2,10,0.8,-2.158,M,40.593,M,3.5,0123*66\r\n
$GPGGA,082436.80,5703.2881018,N,00952.3667427,E,2,10,0.8,-2.158,M,40.593,M,3.5,0123*65\r\n
$GPGGA,082436.85,5703.2881021,N,00952.3667429,E,2,10,0.8,-2.159,M,40.593,M,3.7,0123*67\r\n
$GPGGA,082436.90,5703.2881022,N,00952.3667426,E,2,10,0.8,-2.160,M,40.593,M,3.7,0123*65\r\n
$GPGGA,082436.95,5703.2881025,N,00952.3667427,E,2,10,0.8,-2.160,M,40.593,M,3.7,0123*66\r\n
$GPGGA,082437.00,5703.2881028,N,00952.3667427,E,2,10,0.8,-2.160,M,40.593,M,3.7,0123*66\r\n
$GPGGA,082437.05,5703.2881042,N,00952.3667425,E,2,10,0.8,-2.159,M,40.593,M,3.9,0123*69\r\n
$GPGGA,082437.10,5703.2881042,N,00952.3667422,E,2,10,0.8,-2.159,M,40.593,M,3.9,0123*6A\r\n
$GPGGA,082437.15,5703.2881042,N,00952.3667420,E,2,10,0.8,-2.159,M,40.593,M,3.9,0123*6D\r\n
$GPGGA,082437.20,5703.2881044,N,00952.3667421,E,2,10,0.8,-2.159,M,40.593,M,3.9,0123*6C\r\n
$GPGGA,082437.25,5703.2881035,N,00952.3667417,E,2,10,0.8,-2.156,M,40.593,M,4.1,0123*6A\r\n
$GPGGA,082437.30,5703.2881035,N,00952.3667420,E,2,10,0.8,-2.156,M,40.593,M,4.1,0123*6A\r\n
$GPGGA,082437.35,5703.2881036,N,00952.3667421,E,2,10,0.8,-2.156,M,40.593,M,4.1,0123*6D\r\n
$GPGGA,082437.40,5703.2881037,N,00952.3667422,E,2,10,0.8,-2.156,M,40.593,M,4.1,0123*6D\r\n
$GPGGA,082437.45,5703.2881039,N,00952.3667437,E,2,10,0.8,-2.155,M,40.593,M,0.9,0123*6D\r\n
$GPGGA,082437.50,5703.2881038,N,00952.3667442,E,2,10,0.8,-2.155,M,40.593,M,0.9,0123*6A\r\n
$GPGGA,082437.55,5703.2881036,N,00952.3667441,E,2,10,0.8,-2.155,M,40.593,M,0.9,0123*62\r\n
$GPGGA,082437.60,5703.2881034,N,00952.3667436,E,2,10,0.8,-2.155,M,40.593,M,0.9,0123*66\r\n
$GPGGA,082437.65,5703.2881016,N,00952.3667428,E,2,10,0.8,-2.163,M,40.593,M,1.2,0123*63\r\n
$GPGGA,082437.70,5703.2881012,N,00952.3667430,E,2,10,0.8,-2.163,M,40.593,M,1.2,0123*6A\r\n
$GPGGA,082437.75,5703.2881008,N,00952.3667432,E,2,10,0.8,-2.163,M,40.593,M,1.2,0123*66\r\n
$GPGGA,082437.80,5703.2881004,N,00952.3667430,E,2,10,0.8,-2.164,M,40.593,M,1.2,0123*65\r\n
$GPGGA,082437.85,5703.2880982,N,00952.3667437,E,2,10,0.8,-2.170,M,40.593,M,1.5,0123*63\r\n
$GPGGA,082437.90,5703.2880977,N,00952.3667439,E,2,10,0.8,-2.171,M,40.593,M,1.5,0123*62\r\n
$GPGGA,082437.95,5703.2880975,N,00952.3667439,E,2,10,0.8,-2.171,M,40.593,M,1.5,0123*65\r\n
$GPGGA,082438.00,5703.2880971,N,00952.3667445,E,2,10,0.8,-2.172,M,40.593,M,1.5,0123*6A\r\n
$GPGGA,082438.05,5703.2880987,N,00952.3667453,E,2,10,0.8,-2.165,M,40.593,M,1.7,0123*65\r\n
$GPGGA,082438.10,5703.2880983,N,00952.3667455,E,2,10,0.8,-2.165,M,40.593,M,1.7,0123*63\r\n
$GPGGA,082438.15,5703.2880980,N,00952.3667457,E,2,10,0.8,-2.166,M,40.593,M,1.7,0123*64\r\n
$GPGGA,082438.20,5703.2880975,N,00952.3667458,E,2,10,0.8,-2.166,M,40.593,M,1.7,0123*67\r\n
$GPGGA,082438.25,5703.2880977,N,00952.3667440,E,2,10,0.8,-2.171,M,40.593,M,2.0,0123*6B\r\n
$GPGGA,082438.30,5703.2880971,N,00952.3667440,E,2,10,0.8,-2.172,M,40.593,M,2.0,0123*6A\r\n
$GPGGA,082438.35,5703.2880967,N,00952.3667441,E,2,10,0.8,-2.172,M,40.593,M,2.0,0123*69\r\n
$GPGGA,082438.40,5703.2880961,N,00952.3667436,E,2,10,0.8,-2.173,M,40.593,M,2.0,0123*6C\r\n
$GPGGA,082438.45,5703.2880959,N,00952.3667404,E,2,10,0.8,-2.170,M,40.593,M,0.9,0123*6B\r\n
$GPGGA,082438.50,5703.2880953,N,00952.3667404,E,2,10,0.8,-2.171,M,40.593,M,0.9,0123*64\r\n
$GPGGA,082438.55,5703.2880948,N,00952.3667399,E,2,10,0.8,-2.171,M,40.593,M,0.9,0123*68\r\n
$GPGGA,082438.60,5703.2880941,N,00952.3667397,E,2,10,0.8,-2.172,M,40.593,M,0.9,0123*6A\r\n
$GPGGA,082438.65,5703.2880931,N,00952.3667408,E,2,10,0.8,-2.170,M,40.593,M,1.2,0123*61\r\n
$GPGGA,082438.70,5703.2880925,N,00952.3667404,E,2,10,0.8,-2.171,M,40.593,M,1.2,0123*6D\r\n
$GPGGA,082438.75,5703.2880918,N,00952.3667397,E,2,10,0.8,-2.171,M,40.593,M,1.2,0123*6B\r\n
$GPGGA,082438.80,5703.2880912,N,00952.3667394,E,2,10,0.8,-2.172,M,40.593,M,1.2,0123*6B\r\n
$GPGGA,082438.85,5703.2880911,N,00952.3667376,E,2,10,0.8,-2.170,M,40.593,M,1.5,0123*64\r\n
$GPGGA,082438.90,5703.2880904,N,00952.3667370,E,2,10,0.8,-2.171,M,40.593,M,1.5,0123*63\r\n
$GPGGA,082438.95,5703.2880897,N,00952.3667365,E,2,10,0.8,-2.171,M,40.593,M,1.5,0123*69\r\n
$GPGGA,082439.00,5703.2880892,N,00952.3667360,E,2,10,0.8,-2.171,M,40.593,M,1.5,0123*64\r\n
$GPGGA,082439.05,5703.2880904,N,00952.3667357,E,2,10,0.8,-2.173,M,40.593,M,1.7,0123*6B\r\n
$GPGGA,082439.10,5703.2880897,N,00952.3667352,E,2,10,0.8,-2.174,M,40.593,M,1.7,0123*66\r\n
$GPGGA,082439.15,5703.2880891,N,00952.3667344,E,2,10,0.8,-2.174,M,40.593,M,1.7,0123*62\r\n
$GPGGA,082439.20,5703.2880886,N,00952.3667329,E,2,10,0.8,-2.175,M,40.593,M,1.7,0123*68\r\n
$GPGGA,082439.25,5703.2880876,N,00952.3667309,E,2,10,0.8,-2.180,M,40.593,M,2.0,0123*6E\r\n
$GPGGA,082439.30,5703.2880869,N,00952.3667303,E,2,10,0.8,-2.181,M,40.593,M,2.0,0123*6F\r\n
$GPGGA,082439.35,5703.2880863,N,00952.3667293,E,2,10,0.8,-2.182,M,40.593,M,2.0,0123*6B\r\n
$GPGGA,082439.40,5703.2880855,N,00952.3667283,E,2,10,0.8,-2.183,M,40.593,M,2.0,0123*6C\r\n
$GPGGA,082439.45,5703.2880839,N,00952.3667281,E,2,10,0.8,-2.185,M,40.593,M,2.2,0123*65\r\n
$GPGGA,082439.50,5703.2880832,N,00952.3667270,E,2,10,0.8,-2.187,M,40.593,M,2.2,0123*66\r\n
$GPGGA,082439.55,5703.2880824,N,00952.3667258,E,2,10,0.8,-2.188,M,40.593,M,2.2,0123*61\r\n
$GPGGA,082439.60,5703.2880816,N,00952.3667250,E,2,10,0.8,-2.189,M,40.593,M,2.2,0123*6F\r\n
$GPGGA,082439.65,5703.2880819,N,00952.3667237,E,2,10,0.8,-2.186,M,40.593,M,2.4,0123*6D\r\n
$GPGGA,082439.70,5703.2880813,N,00952.3667229,E,2,10,0.8,-2.187,M,40.593,M,2.4,0123*6D\r\n
$GPGGA,082439.75,5703.2880809,N,00952.3667221,E,2,10,0.8,-2.188,M,40.593,M,2.4,0123*64\r\n
$GPGGA,082439.80,5703.2880804,N,00952.3667216,E,2,10,0.8,-2.189,M,40.593,M,2.4,0123*66\r\n
$GPGGA,082439.85,5703.2880826,N,00952.3667236,E,2,10,0.8,-2.175,M,40.593,M,2.6,0123*60\r\n
$GPGGA,082439.90,5703.2880822,N,00952.3667232,E,2,10,0.8,-2.176,M,40.593,M,2.6,0123*67\r\n
$GPGGA,082439.95,5703.2880818,N,00952.3667227,E,2,10,0.8,-2.176,M,40.593,M,2.6,0123*6F\r\n
$GPGGA,082440.00,5703.2880815,N,00952.3667224,E,2,10,0.8,-2.176,M,40.593,M,2.6,0123*63\r\n
$GPGGA,082440.05,5703.2880841,N,00952.3667240,E,2,10,0.8,-2.180,M,40.593,M,2.9,0123*63\r\n
$GPGGA,082440.10,5703.2880841,N,00952.3667237,E,2,10,0.8,-2.181,M,40.593,M,2.9,0123*66\r\n
$GPGGA,082440.15,5703.2880842,N,00952.3667235,E,2,10,0.8,-2.181,M,40.593,M,2.9,0123*62\r\n
$GPGGA,082440.20,5703.2880842,N,00952.3667235,E,2,10,0.8,-2.181,M,40.593,M,2.9,0123*64\r\n
$GPGGA,082440.25,5703.2880869,N,00952.3667236,E,2,10,0.8,-2.174,M,40.593,M,3.1,0123*68\r\n
$GPGGA,082440.30,5703.2880871,N,00952.3667235,E,2,10,0.8,-2.174,M,40.593,M,3.1,0123*66\r\n
$GPGGA,082440.35,5703.2880872,N,00952.3667235,E,2,10,0.8,-2.173,M,40.593,M,3.1,0123*67\r\n
$GPGGA,082440.40,5703.2880873,N,00952.3667231,E,2,10,0.8,-2.173,M,40.593,M,3.1,0123*60\r\n
$GPGGA,082440.45,5703.2880865,N,00952.3667230,E,2,10,0.8,-2.170,M,40.593,M,0.8,0123*6A\r\n
$GPGGA,082440.50,5703.2880869,N,00952.3667235,E,2,10,0.8,-2.170,M,40.593,M,0.8,0123*67\r\n
$GPGGA,082440.55,5703.2880872,N,00952.3667241,E,2,10,0.8,-2.169,M,40.593,M,0.8,0123*63\r\n
$GPGGA,082440.60,5703.2880873,N,00952.3667249,E,2,10,0.8,-2.168,M,40.593,M,0.8,0123*6D\r\n
$GPGGA,082440.65,5703.2880875,N,00952.3667299,E,2,10,0.8,-2.171,M,40.593,M,1.2,0123*60\r\n
$GPGGA,082440.70,5703.2880879,N,00952.3667304,E,2,10,0.8,-2.171,M,40.593,M,1.2,0123*6D\r\n
$GPGGA,082440.75,5703.2880882,N,00952.3667309,E,2,10,0.8,-2.170,M,40.593,M,1.2,0123*60\r\n
$GPGGA,082440.80,5703.2880885,N,00952.3667315,E,2,10,0.8,-2.169,M,40.593,M,1.2,0123*68\r\n
$GPGGA,082440.85,5703.2880889,N,00952.3667296,E,2,10,0.8,-2.169,M,40.593,M,1.5,0123*6C\r\n
$GPGGA,082440.90,5703.2880894,N,00952.3667297,E,2,10,0.8,-2.168,M,40.593,M,1.5,0123*64\r\n
$GPGGA,082440.95,5703.2880899,N,00952.3667302,E,2,10,0.8,-2.168,M,40.593,M,1.5,0123*61\r\n
$GPGGA,082441.00,5703.2880906,N,00952.3667300,E,2,10,0.8,-2.167,M,40.593,M,1.5,0123*66\r\n
$GPGGA,082441.05,5703.2880919,N,00952.3667272,E,2,10,0.8,-2.166,M,40.593,M,1.7,0123*6A\r\n
$GPGGA,082441.10,5703.2880924,N,00952.3667273,E,2,10,0.8,-2.165,M,40.593,M,1.7,0123*62\r\n
$GPGGA,082441.15,5703.2880930,N,00952.3667271,E,2,10,0.8,-2.164,M,40.593,M,1.7,0123*61\r\n
$GPGGA,082441.20,5703.2880934,N,00952.3667270,E,2,10,0.8,-2.164,M,40.593,M,1.7,0123*62\r\n
$GPGGA,082441.25,5703.2880923,N,00952.3667253,E,2,10,0.8,-2.169,M,40.593,M,2.0,0123*69\r\n
$GPGGA,082441.30,5703.2880929,N,00952.3667252,E,2,10,0.8,-2.168,M,40.593,M,2.0,0123*67\r\n
$GPGGA,082441.35,5703.2880934,N,00952.3667251,E,2,10,0.8,-2.167,M,40.593,M,2.0,0123*62\r\n
$GPGGA,082441.40,5703.2880938,N,00952.3667248,E,2,10,0.8,-2.167,M,40.593,M,2.0,0123*64\r\n
$GPGGA,082441.45,5703.2880942,N,00952.3667243,E,2,10,0.8,-2.168,M,40.593,M,0.9,0123*63\r\n
$GPGGA,082441.50,5703.2880945,N,00952.3667241,E,2,10,0.8,-2.167,M,40.593,M,0.9,0123*6D\r\n
$GPGGA,082441.55,5703.2880948,N,00952.3667239,E,2,10,0.8,-2.167,M,40.593,M,0.9,0123*6A\r\n
$GPGGA,082441.60,5703.2880951,N,00952.3667237,E,2,10,0.8,-2.166,M,40.593,M,0.9,0123*6B\r\n
$GPGGA,082441.65,5703.2880927,N,00952.3667230,E,2,10,0.8,-2.165,M,40.593,M,1.2,0123*61\r\n
$GPGGA,082441.70,5703.2880928,N,00952.3667226,E,2,10,0.8,-2.164,M,40.593,M,1.2,0123*6C\r\n
$GPGGA,082441.75,5703.2880930,N,00952.3667225,E,2,10,0.8,-2.164,M,40.593,M,1.2,0123*63\r\n
$GPGGA,082441.80,5703.2880930,N,00952.3667216,E,2,10,0.8,-2.164,M,40.593,M,1.2,0123*69\r\n
$GPGGA,082441.85,5703.2880912,N,00952.3667203,E,2,10,0.8,-2.169,M,40.593,M,1.5,0123*62\r\n
$GPGGA,082441.90,5703.2880911,N,00952.3667199,E,2,10,0.8,-2.169,M,40.593,M,1.5,0123*65\r\n
$GPGGA,082441.95,5703.2880913,N,00952.3667196,E,2,10,0.8,-2.169,M,40.593,M,1.5,0123*6D\r\n
$GPGGA,082442.00,5703.2880912,N,00952.3667193,E,2,10,0.8,-2.169,M,40.593,M,1.5,0123*66\r\n
$GPGGA,082442.05,5703.2880929,N,00952.3667207,E,2,10,0.8,-2.163,M,40.593,M,1.7,0123*6D\r\n
$GPGGA,082442.10,5703.2880929,N,00952.3667206,E,2,10,0.8,-2.163,M,40.593,M,1.7,0123*68\r\n
$GPGGA,082442.15,5703.2880932,N,00952.3667208,E,2,10,0.8,-2.163,M,40.593,M,1.7,0123*69\r\n
$GPGGA,082442.20,5703.2880933,N,00952.3667204,E,2,10,0.8,-2.163,M,40.593,M,1.7,0123*62\r\n
$GPGGA,082442.25,5703.2880937,N,00952.3667212,E,2,10,0.8,-2.165,M,40.593,M,2.0,0123*66\r\n
$GPGGA,082442.30,5703.2880936,N,00952.3667212,E,2,10,0.8,-2.165,M,40.593,M,2.0,0123*63\r\n
$GPGGA,082442.35,5703.2880937,N,00952.3667212,E,2,10,0.8,-2.165,M,40.593,M,2.0,0123*67\r\n
$GPGGA,082442.40,5703.2880937,N,00952.3667212,E,2,10,0.8,-2.165,M,40.593,M,2.0,0123*65\r\n
$GPGGA,082442.45,5703.2880931,N,00952.3667225,E,2,10,0.8,-2.166,M,40.593,M,0.9,0123*6A\r\n
$GPGGA,082442.50,5703.2880932,N,00952.3667224,E,2,10,0.8,-2.166,M,40.593,M,0.9,0123*6C\r\n
$GPGGA,082442.55,5703.2880932,N,00952.3667226,E,2,10,0.8,-2.166,M,40.593,M,0.9,0123*6B\r\n
$GPGGA,082442.60,5703.2880933,N,00952.3667226,E,2,10,0.8,-2.166,M,40.593,M,0.9,0123*6C\r\n
$GPGGA,082442.65,5703.2880951,N,00952.3667232,E,2,10,0.8,-2.171,M,40.593,M,1.2,0123*64\r\n
$GPGGA,082442.70,5703.2880951,N,00952.3667234,E,2,10,0.8,-2.172,M,40.593,M,1.2,0123*65\r\n
$GPGGA,082442.75,5703.2880953,N,00952.3667235,E,2,10,0.8,-2.172,M,40.593,M,1.2,0123*63\r\n
$GPGGA,082442.80,5703.2880954,N,00952.3667238,E,2,10,0.8,-2.173,M,40.593,M,1.2,0123*62\r\n
$GPGGA,082442.85,5703.2880958,N,00952.3667236,E,2,10,0.8,-2.167,M,40.593,M,1.5,0123*67\r\n
$GPGGA,082442.90,5703.2880958,N,00952.3667240,E,2,10,0.8,-2.167,M,40.593,M,1.5,0123*62\r\n
$GPGGA,082442.95,5703.2880959,N,00952.3667243,E,2,10,0.8,-2.167,M,40.593,M,1.5,0123*65\r\n
$GPGGA,082443.00,5703.2880961,N,00952.3667249,E,2,10,0.8,-2.168,M,40.593,M,1.5,0123*66\r\n
$GPGGA,082443.05,5703.2880972,N,00952.3667267,E,2,10,0.8,-2.165,M,40.593,M,1.7,0123*62\r\n
$GPGGA,082443.10,5703.2880974,N,00952.3667270,E,2,10,0.8,-2.165,M,40.593,M,1.7,0123*66\r\n
$GPGGA,082443.15,5703.2880973,N,00952.3667277,E,2,10,0.8,-2.166,M,40.593,M,1.7,0123*60\r\n
$GPGGA,082443.20,5703.2880974,N,00952.3667283,E,2,10,0.8,-2.166,M,40.593,M,1.7,0123*6A\r\n
$GPGGA,082443.25,5703.2880977,N,00952.3667287,E,2,10,0.8,-2.160,M,40.593,M,2.0,0123*6A\r\n
$GPGGA,082443.30,5703.2880979,N,00952.3667299,E,2,10,0.8,-2.160,M,40.593,M,2.0,0123*6F\r\n
$GPGGA,082443.35,5703.2880982,N,00952.3667309,E,2,10,0.8,-2.160,M,40.593,M,2.0,0123*66\r\n
$GPGGA,082443.40,5703.2880984,N,00952.3667321,E,2,10,0.8,-2.160,M,40.593,M,2.0,0123*68\r\n
$GPGGA,082443.45,5703.2880995,N,00952.3667371,E,2,10,0.8,-2.164,M,40.593,M,2.2,0123*6E\r\n
$GPGGA,082443.50,5703.2880999,N,00952.3667392,E,2,10,0.8,-2.164,M,40.593,M,2.2,0123*6B\r\n
$GPGGA,082443.55,5703.2881001,N,00952.3667415,E,2,10,0.8,-2.164,M,40.593,M,2.2,0123*6F\r\n
$GPGGA,082443.60,5703.2881004,N,00952.3667435,E,2,10,0.8,-2.164,M,40.593,M,2.2,0123*6E\r\n
$GPGGA,082443.65,5703.2881019,N,00952.3667500,E,2,10,0.8,-2.162,M,40.593,M,2.4,0123*60\r\n
$GPGGA,082443.70,5703.2881025,N,00952.3667524,E,2,10,0.8,-2.162,M,40.593,M,2.4,0123*6D\r\n
$GPGGA,082443.75,5703.2881031,N,00952.3667548,E,2,10,0.8,-2.162,M,40.593,M,2.4,0123*67\r\n
$GPGGA,082443.80,5703.2881034,N,00952.3667572,E,2,10,0.8,-2.162,M,40.593,M,2.4,0123*61\r\n
$GPGGA,082443.85,5703.2881049,N,00952.3667592,E,2,10,0.8,-2.168,M,40.593,M,2.6,0123*68\r\n
$GPGGA,082443.90,5703.2881052,N,00952.3667613,E,2,10,0.8,-2.168,M,40.593,M,2.6,0123*6C\r\n
$GPGGA,082443.95,5703.2881055,N,00952.3667634,E,2,10,0.8,-2.169,M,40.593,M,2.6,0123*6A\r\n
$GPGGA,082444.00,5703.2881059,N,00952.3667652,E,2,10,0.8,-2.169,M,40.593,M,2.6,0123*6D\r\n
$GPGGA,082444.05,5703.2881051,N,00952.3667634,E,2,10,0.8,-2.167,M,40.593,M,2.9,0123*61\r\n
$GPGGA,082444.10,5703.2881054,N,00952.3667650,E,2,10,0.8,-2.168,M,40.593,M,2.9,0123*6D\r\n
$GPGGA,082444.15,5703.2881056,N,00952.3667668,E,2,10,0.8,-2.168,M,40.593,M,2.9,0123*61\r\n
$GPGGA,082444.20,5703.2881056,N,00952.3667680,E,2,10,0.8,-2.169,M,40.593,M,2.9,0123*60\r\n
$GPGGA,082444.25,5703.2881038,N,00952.3667644,E,2,10,0.8,-2.166,M,40.593,M,3.1,0123*63\r\n
$GPGGA,082444.30,5703.2881038,N,00952.3667654,E,2,10,0.8,-2.166,M,40.593,M,3.1,0123*66\r\n
$GPGGA,082444.35,5703.2881037,N,00952.3667665,E,2,10,0.8,-2.166,M,40.593,M,3.1,0123*6E\r\n
$GPGGA,082444.40,5703.2881036,N,00952.3667671,E,2,10,0.8,-2.166,M,40.593,M,3.1,0123*68\r\n
$GPGGA,082444.45,5703.2881019,N,00952.3667639,E,2,10,0.8,-2.163,M,40.593,M,0.8,0123*63\r\n
$GPGGA,082444.50,5703.2881017,N,00952.3667642,E,2,10,0.8,-2.163,M,40.593,M,0.8,0123*65\r\n
$GPGGA,082444.55,5703.2881014,N,00952.3667645,E,2,10,0.8,-2.163,M,40.593,M,0.8,0123*64\r\n
$GPGGA,082444.60,5703.2881010,N,00952.3667645,E,2,10,0.8,-2.163,M,40.593,M,0.8,0123*66\r\n
$GPGGA,082444.65,5703.2880987,N,00952.3667609,E,2,10,0.8,-2.162,M,40.593,M,1.2,0123*67\r\n
$GPGGA,082444.70,5703.2880982,N,00952.3667609,E,2,10,0.8,-2.162,M,40.593,M,1.2,0123*66\r\n
$GPGGA,082444.75,5703.2880978,N,00952.3667605,E,2,10,0.8,-2.161,M,40.593,M,1.2,0123*69\r\n
$GPGGA,082444.80,5703.2880972,N,00952.3667609,E,2,10,0.8,-2.161,M,40.593,M,1.2,0123*65\r\n
$GPGGA,082444.85,5703.2880965,N,00952.3667609,E,2,10,0.8,-2.162,M,40.593,M,1.5,0123*62\r\n
$GPGGA,082444.90,5703.2880960,N,00952.3667610,E,2,10,0.8,-2.162,M,40.593,M,1.5,0123*6B\r\n
$GPGGA,082444.95,5703.2880956,N,00952.3667609,E,2,10,0.8,-2.162,M,40.593,M,1.5,0123*63\r\n
$GPGGA,082445.00,5703.2880952,N,00952.3667612,E,2,10,0.8,-2.162,M,40.593,M,1.5,0123*60\r\n
$GPGGA,082445.05,5703.2880981,N,00952.3667637,E,2,10,0.8,-2.164,M,40.593,M,1.7,0123*68\r\n
$GPGGA,082445.10,5703.2880975,N,00952.3667637,E,2,10,0.8,-2.164,M,40.593,M,1.7,0123*67\r\n
$GPGGA,082445.15,5703.2880974,N,00952.3667639,E,2,10,0.8,-2.164,M,40.593,M,1.7,0123*6D\r\n
$GPGGA,082445.20,5703.2880972,N,00952.3667636,E,2,10,0.8,-2.164,M,40.593,M,1.7,0123*62\r\n
$GPGGA,082445.25,5703.2880980,N,00952.3667648,E,2,10,0.8,-2.167,M,40.593,M,2.0,0123*64\r\n
$GPGGA,082445.30,5703.2880977,N,00952.3667645,E,2,10,0.8,-2.167,M,40.593,M,2.0,0123*65\r\n
$GPGGA,082445.35,5703.2880971,N,00952.3667641,E,2,10,0.8,-2.168,M,40.593,M,2.0,0123*6D\r\n
$GPGGA,082445.40,5703.2880968,N,00952.3667646,E,2,10,0.8,-2.168,M,40.593,M,2.0,0123*60\r\n
$GPGGA,082445.45,5703.2880961,N,00952.3667660,E,2,10,0.8,-2.172,M,40.593,M,2.3,0123*60\r\n
$GPGGA,082445.50,5703.2880959,N,00952.3667661,E,2,10,0.8,-2.173,M,40.593,M,2.3,0123*6F\r\n
$GPGGA,082445.55,5703.2880957,N,00952.3667657,E,2,10,0.8,-2.173,M,40.593,M,2.3,0123*61\r\n
$GPGGA,082445.60,5703.2880955,N,00952.3667656,E,2,10,0.8,-2.174,M,40.593,M,2.3,0123*63\r\n
$GPGGA,082445.65,5703.2880977,N,00952.3667660,E,2,10,0.8,-2.174,M,40.593,M,2.5,0123*65\r\n
$GPGGA,082445.70,5703.2880976,N,00952.3667661,E,2,10,0.8,-2.175,M,40.593,M,2.5,0123*60\r\n
$GPGGA,082445.75,5703.2880976,N,00952.3667661,E,2,10,0.8,-2.175,M,40.593,M,2.5,0123*65\r\n
$GPGGA,082445.80,5703.2880978,N,00952.3667666,E,2,10,0.8,-2.176,M,40.593,M,2.5,0123*65\r\n
$GPGGA,082445.85,5703.2881002,N,00952.3667686,E,2,10,0.8,-2.169,M,40.593,M,2.7,0123*67\r\n
$GPGGA,082445.90,5703.2881004,N,00952.3667689,E,2,10,0.8,-2.169,M,40.593,M,2.7,0123*6A\r\n
$GPGGA,082445.95,5703.2881007,N,00952.3667692,E,2,10,0.8,-2.170,M,40.593,M,2.7,0123*6E\r\n
$GPGGA,082446.00,5703.2881010,N,00952.3667697,E,2,10,0.8,-2.170,M,40.593,M,2.7,0123*62\r\n
$GPGGA,082446.05,5703.2881045,N,00952.3667721,E,2,10,0.8,-2.163,M,40.593,M,3.0,0123*6F\r\n
$GPGGA,082446.10,5703.2881051,N,00952.3667725,E,2,10,0.8,-2.163,M,40.593,M,3.0,0123*6A\r\n
$GPGGA,082446.15,5703.2881056,N,00952.3667735,E,2,10,0.8,-2.163,M,40.593,M,3.0,0123*69\r\n
$GPGGA,082446.20,5703.2881060,N,00952.3667745,E,2,10,0.8,-2.163,M,40.593,M,3.0,0123*6D\r\n
$GPGGA,082446.25,5703.2881074,N,00952.3667771,E,2,10,0.8,-2.164,M,40.593,M,3.2,0123*6F\r\n
$GPGGA,082446.30,5703.2881083,N,00952.3667780,E,2,10,0.8,-2.164,M,40.593,M,3.2,0123*6D\r\n
$GPGGA,082446.35,5703.2881089,N,00952.3667789,E,2,10,0.8,-2.164,M,40.593,M,3.2,0123*6B\r\n
$GPGGA,082446.40,5703.2881096,N,00952.3667797,E,2,10,0.8,-2.164,M,40.593,M,3.2,0123*68\r\n
$GPGGA,082446.45,5703.2881101,N,00952.3667804,E,2,10,0.8,-2.165,M,40.593,M,2.2,0123*67\r\n
$GPGGA,082446.50,5703.2881109,N,00952.3667813,E,2,10,0.8,-2.165,M,40.593,M,2.2,0123*6D\r\n
$GPGGA,082446.55,5703.2881118,N,00952.3667820,E,2,10,0.8,-2.165,M,40.593,M,2.2,0123*68\r\n
$GPGGA,082446.60,5703.2881124,N,00952.3667831,E,2,10,0.8,-2.164,M,40.593,M,2.2,0123*60\r\n
$GPGGA,082446.65,5703.2881122,N,00952.3667839,E,2,10,0.8,-2.168,M,40.593,M,2.5,0123*60\r\n
$GPGGA,082446.70,5703.2881130,N,00952.3667846,E,2,10,0.8,-2.168,M,40.593,M,2.5,0123*6F\r\n
$GPGGA,082446.75,5703.2881138,N,00952.3667851,E,2,10,0.8,-2.168,M,40.593,M,2.5,0123*64\r\n
$GPGGA,082446.80,5703.2881144,N,00952.3667855,E,2,10,0.8,-2.168,M,40.593,M,2.5,0123*61\r\n
$GPGGA,082446.85,5703.2881133,N,00952.3667829,E,2,10,0.8,-2.167,M,40.593,M,2.7,0123*62\r\n
$GPGGA,082446.90,5703.2881141,N,00952.3667831,E,2,10,0.8,-2.167,M,40.593,M,2.7,0123*6A\r\n
$GPGGA,082446.95,5703.2881145,N,00952.3667834,E,2,10,0.8,-2.167,M,40.593,M,2.7,0123*6E\r\n
$GPGGA,082447.00,5703.2881148,N,00952.3667830,E,2,10,0.8,-2.166,M,40.593,M,2.7,0123*6B\r\n
$GPGGA,082447.05,5703.2881136,N,00952.3667800,E,2,10,0.8,-2.161,M,40.593,M,2.9,0123*6D\r\n
$GPGGA,082447.10,5703.2881140,N,00952.3667799,E,2,10,0.8,-2.161,M,40.593,M,2.9,0123*67\r\n
$GPGGA,082447.15,5703.2881142,N,00952.3667793,E,2,10,0.8,-2.161,M,40.593,M,2.9,0123*6A\r\n
$GPGGA,082447.20,5703.2881145,N,00952.3667786,E,2,10,0.8,-2.161,M,40.593,M,2.9,0123*6F\r\n
$GPGGA,082447.25,5703.2881127,N,00952.3667754,E,2,10,0.8,-2.162,M,40.593,M,3.1,0123*6B\r\n
$GPGGA,082447.30,5703.2881130,N,00952.3667745,E,2,10,0.8,-2.162,M,40.593,M,3.1,0123*69\r\n
$GPGGA,082447.35,5703.2881131,N,00952.3667735,E,2,10,0.8,-2.162,M,40.593,M,3.1,0123*6A\r\n
$GPGGA,082447.40,5703.2881131,N,00952.3667725,E,2,10,0.8,-2.161,M,40.593,M,3.1,0123*6A\r\n
$GPGGA,082447.45,5703.2881118,N,00952.3667697,E,2,10,0.8,-2.160,M,40.593,M,2.2,0123*6F\r\n
$GPGGA,082447.50,5703.2881116,N,00952.3667686,E,2,10,0.8,-2.160,M,40.593,M,2.2,0123*65\r\n
$GPGGA,082447.55,5703.2881116,N,00952.3667672,E,2,10,0.8,-2.159,M,40.593,M,2.2,0123*61\r\n
$GPGGA,082447.60,5703.2881112,N,00952.3667658,E,2,10,0.8,-2.159,M,40.593,M,2.2,0123*6B\r\n
$GPGGA,082447.65,5703.2881087,N,00952.3667648,E,2,10,0.8,-2.166,M,40.593,M,2.4,0123*68\r\n
$GPGGA,082447.70,5703.2881084,N,00952.3667634,E,2,10,0.8,-2.165,M,40.593,M,2.4,0123*67\r\n
$GPGGA,082447.75,5703.2881077,N,00952.3667615,E,2,10,0.8,-2.165,M,40.593,M,2.4,0123*6D\r\n
$GPGGA,082447.80,5703.2881075,N,00952.3667600,E,2,10,0.8,-2.165,M,40.593,M,2.4,0123*61\r\n
$GPGGA,082447.85,5703.2881064,N,00952.3667582,E,2,10,0.8,-2.166,M,40.593,M,2.6,0123*6C\r\n
$GPGGA,082447.90,5703.2881059,N,00952.3667566,E,2,10,0.8,-2.166,M,40.593,M,2.6,0123*6C\r\n
$GPGGA,082447.95,5703.2881053,N,00952.3667547,E,2,10,0.8,-2.166,M,40.593,M,2.6,0123*60\r\n
$GPGGA,082448.00,5703.2881047,N,00952.3667533,E,2,10,0.8,-2.166,M,40.593,M,2.6,0123*65\r\n
$GPGGA,082448.05,5703.2881042,N,00952.3667544,E,2,10,0.8,-2.167,M,40.593,M,2.9,0123*6B\r\n
$GPGGA,082448.10,5703.2881033,N,00952.3667526,E,2,10,0.8,-2.167,M,40.593,M,2.9,0123*6D\r\n
$GPGGA,082448.15,5703.2881026,N,00952.3667507,E,2,10,0.8,-2.168,M,40.593,M,2.9,0123*60\r\n
$GPGGA,082448.20,5703.2881018,N,00952.3667492,E,2,10,0.8,-2.168,M,40.593,M,2.9,0123*66\r\n
$GPGGA,082448.25,5703.2881012,N,00952.3667492,E,2,10,0.8,-2.170,M,40.593,M,3.1,0123*69\r\n
$GPGGA,082448.30,5703.2881004,N,00952.3667478,E,2,10,0.8,-2.170,M,40.593,M,3.1,0123*6E\r\n
$GPGGA,082448.35,5703.2880994,N,00952.3667460,E,2,10,0.8,-2.171,M,40.593,M,3.1,0123*62\r\n
$GPGGA,082448.40,5703.2880986,N,00952.3667444,E,2,10,0.8,-2.172,M,40.593,M,3.1,0123*66\r\n
$GPGGA,082448.45,5703.2880986,N,00952.3667453,E,2,10,0.8,-2.176,M,40.593,M,3.3,0123*63\r\n
$GPGGA,082448.50,5703.2880977,N,00952.3667442,E,2,10,0.8,-2.177,M,40.593,M,3.3,0123*68\r\n
$GPGGA,082448.55,5703.2880969,N,00952.3667433,E,2,10,0.8,-2.178,M,40.593,M,3.3,0123*6B\r\n
$GPGGA,082448.60,5703.2880961,N,00952.3667420,E,2,10,0.8,-2.179,M,40.593,M,3.3,0123*66\r\n
$GPGGA,082448.65,5703.2880969,N,00952.3667454,E,2,10,0.8,-2.175,M,40.593,M,3.5,0123*62\r\n
$GPGGA,082448.70,5703.2880959,N,00952.3667446,E,2,10,0.8,-2.176,M,40.593,M,3.5,0123*65\r\n
$GPGGA,082448.75,5703.2880949,N,00952.3667441,E,2,10,0.8,-2.177,M,40.593,M,3.5,0123*67\r\n
$GPGGA,082448.80,5703.2880939,N,00952.3667436,E,2,10,0.8,-2.178,M,40.593,M,3.5,0123*65\r\n
$GPGGA,082448.85,5703.2880933,N,00952.3667462,E,2,10,0.8,-2.179,M,40.593,M,3.7,0123*68\r\n
$GPGGA,082448.90,5703.2880925,N,00952.3667459,E,2,10,0.8,-2.180,M,40.593,M,3.7,0123*65\r\n
$GPGGA,082448.95,5703.2880918,N,00952.3667460,E,2,10,0.8,-2.181,M,40.593,M,3.7,0123*65\r\n
$GPGGA,082449.00,5703.2880910,N,00952.3667461,E,2,10,0.8,-2.182,M,40.593,M,3.7,0123*62\r\n
$GPGGA,082449.05,5703.2880938,N,00952.3667488,E,2,10,0.8,-2.174,M,40.593,M,3.9,0123*6D\r\n
$GPGGA,082449.10,5703.2880933,N,00952.3667494,E,2,10,0.8,-2.174,M,40.593,M,3.9,0123*6F\r\n
$GPGGA,082449.15,5703.2880929,N,00952.3667503,E,2,10,0.8,-2.175,M,40.593,M,3.9,0123*6F\r\n
$GPGGA,082449.20,5703.2880926,N,00952.3667508,E,2,10,0.8,-2.176,M,40.593,M,3.9,0123*6E\r\n
$GPGGA,082449.25,5703.2880959,N,00952.3667529,E,2,10,0.8,-2.173,M,40.593,M,2.0,0123*6D\r\n
$GPGGA,082449.30,5703.2880958,N,00952.3667541,E,2,10,0.8,-2.173,M,40.593,M,2.0,0123*66\r\n
$GPGGA,082449.35,5703.2880960,N,00952.3667553,E,2,10,0.8,-2.174,M,40.593,M,2.0,0123*6C\r\n
$GPGGA,082449.40,5703.2880962,N,00952.3667569,E,2,10,0.8,-2.174,M,40.593,M,2.0,0123*65\r\n
$GPGGA,082449.45,5703.2881011,N,00952.3667605,E,2,10,0.8,-2.174,M,40.593,M,2.3,0123*66\r\n
$GPGGA,082449.50,5703.2881014,N,00952.3667620,E,2,10,0.8,-2.174,M,40.593,M,2.3,0123*60\r\n
$GPGGA,082449.55,5703.2881020,N,00952.3667636,E,2,10,0.8,-2.174,M,40.593,M,2.3,0123*65\r\n
$GPGGA,082449.60,5703.2881027,N,00952.3667656,E,2,10,0.8,-2.174,M,40.593,M,2.3,0123*62\r\n
$GPGGA,082449.65,5703.2881064,N,00952.3667679,E,2,10,0.8,-2.171,M,40.593,M,2.5,0123*6E\r\n
$GPGGA,082449.70,5703.2881072,N,00952.3667700,E,2,10,0.8,-2.171,M,40.593,M,2.5,0123*62\r\n
$GPGGA,082449.75,5703.2881083,N,00952.3667722,E,2,10,0.8,-2.171,M,40.593,M,2.5,0123*69\r\n
$GPGGA,082449.80,5703.2881090,N,00952.3667744,E,2,10,0.8,-2.171,M,40.593,M,2.5,0123*61\r\n
$GPGGA,082449.85,5703.2881103,N,00952.3667765,E,2,10,0.8,-2.174,M,40.593,M,2.7,0123*6B\r\n
$GPGGA,082449.90,5703.2881115,N,00952.3667785,E,2,10,0.8,-2.174,M,40.593,M,2.7,0123*66\r\n
$GPGGA,082449.95,5703.2881127,N,00952.3667807,E,2,10,0.8,-2.174,M,40.593,M,2.7,0123*67\r\n
$GPGGA,082450.00,5703.2881137,N,00952.3667824,E,2,10,0.8,-2.173,M,40.593,M,2.7,0123*64\r\n
$GPGGA,082450.05,5703.2881147,N,00952.3667819,E,2,10,0.8,-2.170,M,40.593,M,3.0,0123*6D\r\n
$GPGGA,082450.10,5703.2881157,N,00952.3667835,E,2,10,0.8,-2.169,M,40.593,M,3.0,0123*6E\r\n
$GPGGA,082450.15,5703.2881168,N,00952.3667849,E,2,10,0.8,-2.169,M,40.593,M,3.0,0123*6C\r\n
$GPGGA,082450.20,5703.2881179,N,00952.3667862,E,2,10,0.8,-2.168,M,40.593,M,3.0,0123*62\r\n
$GPGGA,082450.25,5703.2881159,N,00952.3667825,E,2,10,0.8,-2.166,M,40.593,M,2.0,0123*69\r\n
$GPGGA,082450.30,5703.2881170,N,00952.3667834,E,2,10,0.8,-2.165,M,40.593,M,2.0,0123*65\r\n
$GPGGA,082450.35,5703.2881178,N,00952.3667842,E,2,10,0.8,-2.165,M,40.593,M,2.0,0123*69\r\n
$GPGGA,082450.40,5703.2881187,N,00952.3667845,E,2,10,0.8,-2.164,M,40.593,M,2.0,0123*6D\r\n
$GPGGA,082450.45,5703.2881148,N,00952.3667791,E,2,10,0.8,-2.167,M,40.593,M,2.2,0123*6C\r\n
$GPGGA,082450.50,5703.2881156,N,00952.3667793,E,2,10,0.8,-2.166,M,40.593,M,2.2,0123*64\r\n
$GPGGA,082450.55,5703.2881161,N,00952.3667790,E,2,10,0.8,-2.165,M,40.593,M,2.2,0123*65\r\n
$GPGGA,082450.60,5703.2881166,N,00952.3667785,E,2,10,0.8,-2.165,M,40.593,M,2.2,0123*60\r\n
$GPGGA,082450.65,5703.2881122,N,00952.3667728,E,2,10,0.8,-2.165,M,40.593,M,2.5,0123*65\r\n
$GPGGA,082450.70,5703.2881125,N,00952.3667720,E,2,10,0.8,-2.164,M,40.593,M,2.5,0123*6F\r\n
$GPGGA,082450.75,5703.2881127,N,00952.3667710,E,2,10,0.8,-2.163,M,40.593,M,2.5,0123*6C\r\n
$GPGGA,082450.80,5703.2881127,N,00952.3667699,E,2,10,0.8,-2.162,M,40.593,M,2.5,0123*67\r\n
$GPGGA,082450.85,5703.2881078,N,00952.3667669,E,2,10,0.8,-2.175,M,40.593,M,2.7,0123*62\r\n
$GPGGA,082450.90,5703.2881076,N,00952.3667658,E,2,10,0.8,-2.175,M,40.593,M,2.7,0123*6A\r\n
$GPGGA,082450.95,5703.2881075,N,00952.3667647,E,2,10,0.8,-2.175,M,40.593,M,2.7,0123*62\r\n
$GPGGA,082451.00,5703.2881072,N,00952.3667634,E,2,10,0.8,-2.175,M,40.593,M,2.7,0123*6C\r\n
$GPGGA,082451.05,5703.2881063,N,00952.3667643,E,2,10,0.8,-2.173,M,40.593,M,2.9,0123*61\r\n
$GPGGA,082451.10,5703.2881060,N,00952.3667633,E,2,10,0.8,-2.173,M,40.593,M,2.9,0123*61\r\n
$GPGGA,082451.15,5703.2881056,N,00952.3667623,E,2,10,0.8,-2.172,M,40.593,M,2.9,0123*61\r\n
$GPGGA,082451.20,5703.2881053,N,00952.3667615,E,2,10,0.8,-2.172,M,40.593,M,2.9,0123*67\r\n
$GPGGA,082451.25,5703.2881052,N,00952.3667644,E,2,10,0.8,-2.172,M,40.593,M,3.1,0123*6E\r\n
$GPGGA,082451.30,5703.2881048,N,00952.3667637,E,2,10,0.8,-2.172,M,40.593,M,3.1,0123*65\r\n
$GPGGA,082451.35,5703.2881043,N,00952.3667628,E,2,10,0.8,-2.172,M,40.593,M,3.1,0123*65\r\n
$GPGGA,082451.40,5703.2881038,N,00952.3667619,E,2,10,0.8,-2.172,M,40.593,M,3.1,0123*69\r\n
$GPGGA,082451.45,5703.2881038,N,00952.3667655,E,2,10,0.8,-2.174,M,40.593,M,2.2,0123*60\r\n
$GPGGA,082451.50,5703.2881032,N,00952.3667652,E,2,10,0.8,-2.174,M,40.593,M,2.2,0123*69\r\n
$GPGGA,082451.55,5703.2881027,N,00952.3667646,E,2,10,0.8,-2.175,M,40.593,M,2.2,0123*6C\r\n
$GPGGA,082451.60,5703.2881020,N,00952.3667646,E,2,10,0.8,-2.175,M,40.593,M,2.2,0123*6D\r\n
$GPGGA,082451.65,5703.2881015,N,00952.3667686,E,2,10,0.8,-2.175,M,40.593,M,2.4,0123*64\r\n
$GPGGA,082451.70,5703.2881007,N,00952.3667686,E,2,10,0.8,-2.175,M,40.593,M,2.4,0123*63\r\n
$GPGGA,082451.75,5703.2881001,N,00952.3667685,E,2,10,0.8,-2.176,M,40.593,M,2.4,0123*60\r\n
$GPGGA,082451.80,5703.2880996,N,00952.3667686,E,2,10,0.8,-2.176,M,40.593,M,2.4,0123*6F\r\n
$GPGGA,082451.85,5703.2881008,N,00952.3667701,E,2,10,0.8,-2.176,M,40.593,M,2.6,0123*69\r\n
$GPGGA,082451.90,5703.2881002,N,00952.3667702,E,2,10,0.8,-2.176,M,40.593,M,2.6,0123*64\r\n
$GPGGA,082451.95,5703.2880994,N,00952.3667709,E,2,10,0.8,-2.177,M,40.593,M,2.6,0123*6C\r\n
$GPGGA,082452.00,5703.2880988,N,00952.3667718,E,2,10,0.8,-2.177,M,40.593,M,2.6,0123*6E\r\n
$GPGGA,082452.05,5703.2880995,N,00952.3667763,E,2,10,0.8,-2.177,M,40.593,M,2.9,0123*64\r\n
$GPGGA,082452.10,5703.2880989,N,00952.3667770,E,2,10,0.8,-2.178,M,40.593,M,2.9,0123*60\r\n
$GPGGA,082452.15,5703.2880984,N,00952.3667782,E,2,10,0.8,-2.178,M,40.593,M,2.9,0123*65\r\n
$GPGGA,082452.20,5703.2880980,N,00952.3667795,E,2,10,0.8,-2.179,M,40.593,M,2.9,0123*60\r\n
$GPGGA,082452.25,5703.2881000,N,00952.3667822,E,2,10,0.8,-2.179,M,40.593,M,3.1,0123*6F\r\n
$GPGGA,082452.30,5703.2880996,N,00952.3667835,E,2,10,0.8,-2.180,M,40.593,M,3.1,0123*6C\r\n
$GPGGA,082452.35,5703.2880991,N,00952.3667850,E,2,10,0.8,-2.180,M,40.593,M,3.1,0123*6D\r\n
$GPGGA,082452.40,5703.2880988,N,00952.3667860,E,2,10,0.8,-2.181,M,40.593,M,3.1,0123*65\r\n
$GPGGA,082452.45,5703.2881004,N,00952.3667869,E,2,10,0.8,-2.175,M,40.593,M,3.3,0123*6C\r\n
$GPGGA,082452.50,5703.2880999,N,00952.3667883,E,2,10,0.8,-2.176,M,40.593,M,3.3,0123*63\r\n
$GPGGA,082452.55,5703.2880997,N,00952.3667895,E,2,10,0.8,-2.176,M,40.593,M,3.3,0123*6F\r\n
$GPGGA,082452.60,5703.2880994,N,00952.3667903,E,2,10,0.8,-2.176,M,40.593,M,3.3,0123*64\r\n
$GPGGA,082452.65,5703.2880985,N,00952.3667896,E,2,10,0.8,-2.177,M,40.593,M,3.5,0123*6B\r\n
$GPGGA,082452.70,5703.2880982,N,00952.3667906,E,2,10,0.8,-2.177,M,40.593,M,3.5,0123*60\r\n
$GPGGA,082452.75,5703.2880978,N,00952.3667916,E,2,10,0.8,-2.178,M,40.593,M,3.5,0123*6E\r\n
$GPGGA,082452.80,5703.2880973,N,00952.3667922,E,2,10,0.8,-2.178,M,40.593,M,3.5,0123*68\r\n
$GPGGA,082452.85,5703.2880960,N,00952.3667901,E,2,10,0.8,-2.182,M,40.593,M,3.7,0123*69\r\n
$GPGGA,082452.90,5703.2880955,N,00952.3667906,E,2,10,0.8,-2.183,M,40.593,M,3.7,0123*6D\r\n
$GPGGA,082452.95,5703.2880951,N,00952.3667910,E,2,10,0.8,-2.183,M,40.593,M,3.7,0123*6B\r\n
$GPGGA,082453.00,5703.2880944,N,00952.3667916,E,2,10,0.8,-2.184,M,40.593,M,3.7,0123*63\r\n
$GPGGA,082453.05,5703.2880945,N,00952.3667891,E,2,10,0.8,-2.178,M,40.593,M,3.9,0123*64\r\n
$GPGGA,082453.10,5703.2880942,N,00952.3667895,E,2,10,0.8,-2.179,M,40.593,M,3.9,0123*62\r\n
$GPGGA,082453.15,5703.2880937,N,00952.3667895,E,2,10,0.8,-2.179,M,40.593,M,3.9,0123*65\r\n
$GPGGA,082453.20,5703.2880931,N,00952.3667895,E,2,10,0.8,-2.179,M,40.593,M,3.9,0123*65\r\n
$GPGGA,082453.25,5703.2880932,N,00952.3667870,E,2,10,0.8,-2.184,M,40.593,M,4.1,0123*65\r\n
$GPGGA,082453.30,5703.2880928,N,00952.3667872,E,2,10,0.8,-2.184,M,40.593,M,4.1,0123*68\r\n
$GPGGA,082453.35,5703.2880926,N,00952.3667868,E,2,10,0.8,-2.185,M,40.593,M,4.1,0123*69\r\n
$GPGGA,082453.40,5703.2880919,N,00952.3667866,E,2,10,0.8,-2.185,M,40.593,M,4.1,0123*69\r\n
$GPGGA,082453.45,5703.2880917,N,00952.3667862,E,2,10,0.8,-2.184,M,40.593,M,2.3,0123*63\r\n
$GPGGA,082453.50,5703.2880914,N,00952.3667858,E,2,10,0.8,-2.185,M,40.593,M,2.3,0123*6C\r\n
$GPGGA,082453.55,5703.2880909,N,00952.3667855,E,2,10,0.8,-2.185,M,40.593,M,2.3,0123*68\r\n
$GPGGA,082453.60,5703.2880905,N,00952.3667849,E,2,10,0.8,-2.185,M,40.593,M,2.3,0123*6F\r\n
$GPGGA,082453.65,5703.2880905,N,00952.3667842,E,2,10,0.8,-2.185,M,40.593,M,2.5,0123*67\r\n
$GPGGA,082453.70,5703.2880901,N,00952.3667841,E,2,10,0.8,-2.185,M,40.593,M,2.5,0123*64\r\n
$GPGGA,082453.75,5703.2880899,N,00952.3667836,E,2,10,0.8,-2.186,M,40.593,M,2.5,0123*62\r\n
$GPGGA,082453.80,5703.2880895,N,00952.3667833,E,2,10,0.8,-2.186,M,40.593,M,2.5,0123*61\r\n
$GPGGA,082453.85,5703.2880890,N,00952.3667844,E,2,10,0.8,-2.184,M,40.593,M,2.7,0123*61\r\n
$GPGGA,082453.90,5703.2880884,N,00952.3667840,E,2,10,0.8,-2.184,M,40.593,M,2.7,0123*64\r\n
$GPGGA,082453.95,5703.2880881,N,00952.3667837,E,2,10,0.8,-2.184,M,40.593,M,2.7,0123*64\r\n
$GPGGA,082454.00,5703.2880878,N,00952.3667833,E,2,10,0.8,-2.184,M,40.593,M,2.7,0123*6D\r\n
$GPGGA,082454.05,5703.2880888,N,00952.3667835,E,2,10,0.8,-2.186,M,40.593,M,3.0,0123*65\r\n
$GPGGA,082454.10,5703.2880883,N,00952.3667832,E,2,10,0.8,-2.187,M,40.593,M,3.0,0123*6C\r\n
$GPGGA,082454.15,5703.2880880,N,00952.3667831,E,2,10,0.8,-2.187,M,40.593,M,3.0,0123*69\r\n
$GPGGA,082454.20,5703.2880877,N,00952.3667823,E,2,10,0.8,-2.187,M,40.593,M,3.0,0123*64\r\n
$GPGGA,082454.25,5703.2880872,N,00952.3667826,E,2,10,0.8,-2.183,M,40.593,M,3.2,0123*67\r\n
$GPGGA,082454.30,5703.2880869,N,00952.3667820,E,2,10,0.8,-2.183,M,40.593,M,3.2,0123*6F\r\n
$GPGGA,082454.35,5703.2880865,N,00952.3667815,E,2,10,0.8,-2.183,M,40.593,M,3.2,0123*60\r\n
$GPGGA,082454.40,5703.2880861,N,00952.3667812,E,2,10,0.8,-2.183,M,40.593,M,3.2,0123*61\r\n
$GPGGA,082454.45,5703.2880855,N,00952.3667811,E,2,10,0.8,-2.187,M,40.593,M,2.2,0123*65\r\n
$GPGGA,082454.50,5703.2880850,N,00952.3667805,E,2,10,0.8,-2.187,M,40.593,M,2.2,0123*61\r\n
$GPGGA,082454.55,5703.2880847,N,00952.3667799,E,2,10,0.8,-2.187,M,40.593,M,2.2,0123*68\r\n
$GPGGA,082454.60,5703.2880842,N,00952.3667795,E,2,10,0.8,-2.187,M,40.593,M,2.2,0123*67\r\n
$GPGGA,082454.65,5703.2880827,N,00952.3667787,E,2,10,0.8,-2.185,M,40.593,M,2.5,0123*67\r\n
$GPGGA,082454.70,5703.2880824,N,00952.3667779,E,2,10,0.8,-2.185,M,40.593,M,2.5,0123*61\r\n
$GPGGA,082454.75,5703.2880819,N,00952.3667778,E,2,10,0.8,-2.185,M,40.593,M,2.5,0123*6B\r\n
$GPGGA,082454.80,5703.2880817,N,00952.3667777,E,2,10,0.8,-2.185,M,40.593,M,2.5,0123*60\r\n
$GPGGA,082454.85,5703.2880819,N,00952.3667799,E,2,10,0.8,-2.187,M,40.593,M,2.7,0123*6B\r\n
$GPGGA,082454.90,5703.2880814,N,00952.3667795,E,2,10,0.8,-2.188,M,40.593,M,2.7,0123*61\r\n
$GPGGA,082454.95,5703.2880809,N,00952.3667793,E,2,10,0.8,-2.188,M,40.593,M,2.7,0123*6E\r\n
$GPGGA,082455.00,5703.2880805,N,00952.3667794,E,2,10,0.8,-2.188,M,40.593,M,2.7,0123*68\r\n
$GPGGA,082455.05,5703.2880809,N,00952.3667809,E,2,10,0.8,-2.191,M,40.593,M,2.9,0123*6C\r\n
$GPGGA,082455.10,5703.2880805,N,00952.3667804,E,2,10,0.8,-2.191,M,40.593,M,2.9,0123*69\r\n
$GPGGA,082455.15,5703.2880803,N,00952.3667803,E,2,10,0.8,-2.191,M,40.593,M,2.9,0123*6D\r\n
$GPGGA,082455.20,5703.2880798,N,00952.3667803,E,2,10,0.8,-2.192,M,40.593,M,2.9,0123*65\r\n
$GPGGA,082455.25,5703.2880806,N,00952.3667797,E,2,10,0.8,-2.193,M,40.593,M,3.1,0123*62\r\n
$GPGGA,082455.30,5703.2880804,N,00952.3667796,E,2,10,0.8,-2.193,M,40.593,M,3.1,0123*65\r\n
$GPGGA,082455.35,5703.2880802,N,00952.3667796,E,2,10,0.8,-2.194,M,40.593,M,3.1,0123*61\r\n
$GPGGA,082455.40,5703.2880803,N,00952.3667798,E,2,10,0.8,-2.194,M,40.593,M,3.1,0123*6C\r\n
$GPGGA,082455.45,5703.2880819,N,00952.3667808,E,2,10,0.8,-2.198,M,40.593,M,2.2,0123*6A\r\n
$GPGGA,082455.50,5703.2880819,N,00952.3667811,E,2,10,0.8,-2.199,M,40.593,M,2.2,0123*67\r\n
$GPGGA,082455.55,5703.2880819,N,00952.3667814,E,2,10,0.8,-2.199,M,40.593,M,2.2,0123*67\r\n
$GPGGA,082455.60,5703.2880822,N,00952.3667821,E,2,10,0.8,-2.200,M,40.593,M,2.2,0123*6C\r\n
$GPGGA,082455.65,5703.2880838,N,00952.3667841,E,2,10,0.8,-2.196,M,40.593,M,2.4,0123*6E\r\n
$GPGGA,082455.70,5703.2880843,N,00952.3667846,E,2,10,0.8,-2.196,M,40.593,M,2.4,0123*61\r\n
$GPGGA,082455.75,5703.2880847,N,00952.3667856,E,2,10,0.8,-2.197,M,40.593,M,2.4,0123*60\r\n
$GPGGA,082455.80,5703.2880849,N,00952.3667860,E,2,10,0.8,-2.198,M,40.593,M,2.4,0123*6E\r\n
$GPGGA,082455.85,5703.2880875,N,00952.3667864,E,2,10,0.8,-2.196,M,40.593,M,2.6,0123*6C\r\n
$GPGGA,082455.90,5703.2880880,N,00952.3667867,E,2,10,0.8,-2.196,M,40.593,M,2.6,0123*61\r\n
$GPGGA,082455.95,5703.2880888,N,00952.3667873,E,2,10,0.8,-2.196,M,40.593,M,2.6,0123*69\r\n
$GPGGA,082456.00,5703.2880896,N,00952.3667877,E,2,10,0.8,-2.196,M,40.593,M,2.6,0123*6D\r\n
$GPGGA,082456.05,5703.2880925,N,00952.3667860,E,2,10,0.8,-2.186,M,40.593,M,2.9,0123*69\r\n
$GPGGA,082456.10,5703.2880932,N,00952.3667860,E,2,10,0.8,-2.186,M,40.593,M,2.9,0123*6B\r\n
$GPGGA,082456.15,5703.2880940,N,00952.3667866,E,2,10,0.8,-2.186,M,40.593,M,2.9,0123*6D\r\n
$GPGGA,082456.20,5703.2880946,N,00952.3667868,E,2,10,0.8,-2.185,M,40.593,M,2.9,0123*60\r\n
$GPGGA,082456.25,5703.2880936,N,00952.3667854,E,2,10,0.8,-2.185,M,40.593,M,3.1,0123*64\r\n
$GPGGA,082456.30,5703.2880946,N,00952.3667856,E,2,10,0.8,-2.184,M,40.593,M,3.1,0123*64\r\n
$GPGGA,082456.35,5703.2880956,N,00952.3667856,E,2,10,0.8,-2.184,M,40.593,M,3.1,0123*60\r\n
$GPGGA,082456.40,5703.2880962,N,00952.3667859,E,2,10,0.8,-2.183,M,40.593,M,3.1,0123*6D\r\n
$GPGGA,082456.45,5703.2880965,N,00952.3667856,E,2,10,0.8,-2.185,M,40.593,M,3.3,0123*64\r\n
$GPGGA,082456.50,5703.2880975,N,00952.3667858,E,2,10,0.8,-2.184,M,40.593,M,3.3,0123*6E\r\n
$GPGGA,082456.55,5703.2880985,N,00952.3667862,E,2,10,0.8,-2.183,M,40.593,M,3.3,0123*6A\r\n
$GPGGA,082456.60,5703.2880994,N,00952.3667864,E,2,10,0.8,-2.182,M,40.593,M,3.3,0123*6B\r\n
$GPGGA,082456.65,5703.2880997,N,00952.3667880,E,2,10,0.8,-2.186,M,40.593,M,3.5,0123*65\r\n
$GPGGA,082456.70,5703.2881006,N,00952.3667882,E,2,10,0.8,-2.185,M,40.593,M,3.5,0123*60\r\n
$GPGGA,082456.75,5703.2881014,N,00952.3667888,E,2,10,0.8,-2.184,M,40.593,M,3.5,0123*6D\r\n
$GPGGA,082456.80,5703.2881023,N,00952.3667892,E,2,10,0.8,-2.183,M,40.593,M,3.5,0123*6F\r\n
$GPGGA,082456.85,5703.2881014,N,00952.3667898,E,2,10,0.8,-2.187,M,40.593,M,3.7,0123*62\r\n
$GPGGA,082456.90,5703.2881023,N,00952.3667901,E,2,10,0.8,-2.186,M,40.593,M,3.7,0123*62\r\n
$GPGGA,082456.95,5703.2881030,N,00952.3667903,E,2,10,0.8,-2.186,M,40.593,M,3.7,0123*67\r\n
$GPGGA,082457.00,5703.2881037,N,00952.3667907,E,2,10,0.8,-2.185,M,40.593,M,3.7,0123*6A\r\n
$GPGGA,082457.05,5703.2881036,N,00952.3667913,E,2,10,0.8,-2.189,M,40.593,M,3.9,0123*69\r\n
$GPGGA,082457.10,5703.2881045,N,00952.3667916,E,2,10,0.8,-2.189,M,40.593,M,3.9,0123*6C\r\n
$GPGGA,082457.15,5703.2881052,N,00952.3667918,E,2,10,0.8,-2.188,M,40.593,M,3.9,0123*60\r\n
$GPGGA,082457.20,5703.2881059,N,00952.3667923,E,2,10,0.8,-2.188,M,40.593,M,3.9,0123*65\r\n
$GPGGA,082457.25,5703.2881056,N,00952.3667929,E,2,10,0.8,-2.184,M,40.593,M,4.1,0123*66\r\n
$GPGGA,082457.30,5703.2881064,N,00952.3667934,E,2,10,0.8,-2.184,M,40.593,M,4.1,0123*6F\r\n
$GPGGA,082457.35,5703.2881069,N,00952.3667939,E,2,10,0.8,-2.184,M,40.593,M,4.1,0123*6A\r\n
$GPGGA,082457.40,5703.2881076,N,00952.3667943,E,2,10,0.8,-2.183,M,40.593,M,4.1,0123*6C\r\n
$GPGGA,082457.45,5703.2881075,N,00952.3667952,E,2,10,0.8,-2.182,M,40.593,M,2.3,0123*6F\r\n
$GPGGA,082457.50,5703.2881081,N,00952.3667959,E,2,10,0.8,-2.182,M,40.593,M,2.3,0123*6B\r\n
$GPGGA,082457.55,5703.2881087,N,00952.3667967,E,2,10,0.8,-2.181,M,40.593,M,2.3,0123*66\r\n
$GPGGA,082457.60,5703.2881093,N,00952.3667975,E,2,10,0.8,-2.181,M,40.593,M,2.3,0123*66\r\n
$GPGGA,082457.65,5703.2881096,N,00952.3668002,E,2,10,0.8,-2.184,M,40.593,M,2.5,0123*63\r\n
$GPGGA,082457.70,5703.2881100,N,00952.3668010,E,2,10,0.8,-2.184,M,40.593,M,2.5,0123*6A\r\n
$GPGGA,082457.75,5703.2881105,N,00952.3668016,E,2,10,0.8,-2.183,M,40.593,M,2.5,0123*6B\r\n
$GPGGA,082457.80,5703.2881111,N,00952.3668026,E,2,10,0.8,-2.183,M,40.593,M,2.5,0123*67\r\n
$GPGGA,082457.85,5703.2881120,N,00952.3668045,E,2,10,0.8,-2.184,M,40.593,M,2.7,0123*60\r\n
$GPGGA,082457.90,5703.2881126,N,00952.3668059,E,2,10,0.8,-2.184,M,40.593,M,2.7,0123*6F\r\n
$GPGGA,082457.95,5703.2881131,N,00952.3668071,E,2,10,0.8,-2.184,M,40.593,M,2.7,0123*66\r\n
$GPGGA,082458.00,5703.2881135,N,00952.3668083,E,2,10,0.8,-2.183,M,40.593,M,2.7,0123*6B\r\n
$GPGGA,082458.05,5703.2881149,N,00952.3668111,E,2,10,0.8,-2.183,M,40.593,M,3.0,0123*69\r\n
$GPGGA,082458.10,5703.2881155,N,00952.3668122,E,2,10,0.8,-2.183,M,40.593,M,3.0,0123*60\r\n
$GPGGA,082458.15,5703.2881160,N,00952.3668134,E,2,10,0.8,-2.183,M,40.593,M,3.0,0123*64\r\n
$GPGGA,082458.20,5703.2881163,N,00952.3668147,E,2,10,0.8,-2.183,M,40.593,M,3.0,0123*65\r\n
$GPGGA,082458.25,5703.2881167,N,00952.3668148,E,2,10,0.8,-2.188,M,40.593,M,3.2,0123*62\r\n
$GPGGA,082458.30,5703.2881169,N,00952.3668159,E,2,10,0.8,-2.188,M,40.593,M,3.2,0123*68\r\n
$GPGGA,082458.35,5703.2881173,N,00952.3668169,E,2,10,0.8,-2.189,M,40.593,M,3.2,0123*64\r\n
$GPGGA,082458.40,5703.2881178,N,00952.3668173,E,2,10,0.8,-2.189,M,40.593,M,3.2,0123*66\r\n
$GPGGA,082458.45,5703.2881177,N,00952.3668153,E,2,10,0.8,-2.189,M,40.593,M,0.9,0123*66\r\n
$GPGGA,082458.50,5703.2881178,N,00952.3668158,E,2,10,0.8,-2.189,M,40.593,M,0.9,0123*66\r\n
$GPGGA,082458.55,5703.2881180,N,00952.3668165,E,2,10,0.8,-2.190,M,40.593,M,0.9,0123*62\r\n
$GPGGA,082458.60,5703.2881184,N,00952.3668170,E,2,10,0.8,-2.190,M,40.593,M,0.9,0123*64\r\n
$GPGGA,082458.65,5703.2881171,N,00952.3668150,E,2,10,0.8,-2.183,M,40.593,M,1.2,0123*61\r\n
$GPGGA,082458.70,5703.2881173,N,00952.3668156,E,2,10,0.8,-2.183,M,40.593,M,1.2,0123*61\r\n
$GPGGA,082458.75,5703.2881175,N,00952.3668154,E,2,10,0.8,-2.183,M,40.593,M,1.2,0123*60\r\n
$GPGGA,082458.80,5703.2881172,N,00952.3668154,E,2,10,0.8,-2.183,M,40.593,M,1.2,0123*6D\r\n
$GPGGA,082458.85,5703.2881165,N,00952.3668127,E,2,10,0.8,-2.184,M,40.593,M,1.5,0123*6A\r\n
$GPGGA,082458.90,5703.2881165,N,00952.3668125,E,2,10,0.8,-2.185,M,40.593,M,1.5,0123*6D\r\n
$GPGGA,082458.95,5703.2881162,N,00952.3668124,E,2,10,0.8,-2.184,M,40.593,M,1.5,0123*6F\r\n
$GPGGA,082459.00,5703.2881161,N,00952.3668122,E,2,10,0.8,-2.184,M,40.593,M,1.5,0123*67\r\n
$GPGGA,082459.05,5703.2881170,N,00952.3668115,E,2,10,0.8,-2.182,M,40.593,M,1.7,0123*62\r\n
$GPGGA,082459.10,5703.2881167,N,00952.3668109,E,2,10,0.8,-2.182,M,40.593,M,1.7,0123*6D\r\n
$GPGGA,082459.15,5703.2881165,N,00952.3668106,E,2,10,0.8,-2.182,M,40.593,M,1.7,0123*65\r\n
$GPGGA,082459.20,5703.2881165,N,00952.3668104,E,2,10,0.8,-2.181,M,40.593,M,1.7,0123*62\r\n
$GPGGA,082459.25,5703.2881165,N,00952.3668099,E,2,10,0.8,-2.183,M,40.593,M,2.0,0123*64\r\n
$GPGGA,082459.30,5703.2881162,N,00952.3668094,E,2,10,0.8,-2.183,M,40.593,M,2.0,0123*6A\r\n
$GPGGA,082459.35,5703.2881158,N,00952.3668088,E,2,10,0.8,-2.183,M,40.593,M,2.0,0123*6B\r\n
$GPGGA,082459.40,5703.2881156,N,00952.3668085,E,2,10,0.8,-2.183,M,40.593,M,2.0,0123*6A\r\n
$GPGGA,082459.45,5703.2881150,N,00952.3668087,E,2,10,0.8,-2.183,M,40.593,M,2.2,0123*69\r\n
$GPGGA,082459.50,5703.2881147,N,00952.3668082,E,2,10,0.8,-2.183,M,40.593,M,2.2,0123*6E\r\n
$GPGGA,082459.55,5703.2881145,N,00952.3668076,E,2,10,0.8,-2.183,M,40.593,M,2.2,0123*62\r\n
$GPGGA,082459.60,5703.2881142,N,00952.3668069,E,2,10,0.8,-2.183,M,40.593,M,2.2,0123*6D\r\n
$GPGGA,082459.65,5703.2881153,N,00952.3668067,E,2,10,0.8,-2.185,M,40.593,M,2.4,0123*66\r\n
$GPGGA,082459.70,5703.2881149,N,00952.3668062,E,2,10,0.8,-2.185,M,40.593,M,2.4,0123*6C\r\n
$GPGGA,082459.75,5703.2881148,N,00952.3668058,E,2,10,0.8,-2.185,M,40.593,M,2.4,0123*61\r\n
$GPGGA,082459.80,5703.2881145,N,00952.3668050,E,2,10,0.8,-2.185,M,40.593,M,2.4,0123*6E\r\n
$GPGGA,082459.85,5703.2881137,N,00952.3668060,E,2,10,0.8,-2.190,M,40.593,M,2.6,0123*6B\r\n
$GPGGA,082459.90,5703.2881134,N,00952.3668054,E,2,10,0.8,-2.190,M,40.593,M,2.6,0123*6B\r\n
$GPGGA,082459.95,5703.2881128,N,00952.3668050,E,2,10,0.8,-2.190,M,40.593,M,2.6,0123*67\r\n
$GPGGA,082500.00,5703.2881126,N,00952.3668044,E,2,10,0.8,-2.190,M,40.593,M,2.6,0123*6D\r\n
$GPGGA,082500.05,5703.2881136,N,00952.3668049,E,2,10,0.8,-2.186,M,40.593,M,2.9,0123*6C\r\n
$GPGGA,082500.10,5703.2881130,N,00952.3668038,E,2,10,0.8,-2.186,M,40.593,M,2.9,0123*68\r\n
$GPGGA,082500.15,5703.2881127,N,00952.3668033,E,2,10,0.8,-2.186,M,40.593,M,2.9,0123*60\r\n
$GPGGA,082500.20,5703.2881126,N,00952.3668027,E,2,10,0.8,-2.186,M,40.593,M,2.9,0123*62\r\n
$GPGGA,082500.25,5703.2881128,N,00952.3668012,E,2,10,0.8,-2.188,M,40.593,M,3.1,0123*68\r\n
$GPGGA,082500.30,5703.2881123,N,00952.3668004,E,2,10,0.8,-2.188,M,40.593,M,3.1,0123*60\r\n
$GPGGA,082500.35,5703.2881119,N,00952.3667996,E,2,10,0.8,-2.189,M,40.593,M,3.1,0123*60\r\n
$GPGGA,082500.40,5703.2881116,N,00952.3667986,E,2,10,0.8,-2.189,M,40.593,M,3.1,0123*6C\r\n
$GPGGA,082500.45,5703.2881105,N,00952.3667974,E,2,10,0.8,-2.188,M,40.593,M,3.3,0123*65\r\n
$GPGGA,082500.50,5703.2881100,N,00952.3667963,E,2,10,0.8,-2.188,M,40.593,M,3.3,0123*62\r\n
$GPGGA,082500.55,5703.2881093,N,00952.3667956,E,2,10,0.8,-2.188,M,40.593,M,3.3,0123*6A\r\n
$GPGGA,082500.60,5703.2881087,N,00952.3667947,E,2,10,0.8,-2.188,M,40.593,M,3.3,0123*69\r\n
$GPGGA,082500.65,5703.2881075,N,00952.3667946,E,2,10,0.8,-2.188,M,40.593,M,3.5,0123*66\r\n
$GPGGA,082500.70,5703.2881069,N,00952.3667938,E,2,10,0.8,-2.189,M,40.593,M,3.5,0123*67\r\n
$GPGGA,082500.75,5703.2881063,N,00952.3667930,E,2,10,0.8,-2.189,M,40.593,M,3.5,0123*60\r\n
$GPGGA,082500.80,5703.2881059,N,00952.3667919,E,2,10,0.8,-2.189,M,40.593,M,3.5,0123*68\r\n
$GPGGA,082500.85,5703.2881067,N,00952.3667919,E,2,10,0.8,-2.194,M,40.593,M,3.7,0123*6E\r\n
$GPGGA,082500.90,5703.2881062,N,00952.3667912,E,2,10,0.8,-2.195,M,40.593,M,3.7,0123*65\r\n
$GPGGA,082500.95,5703.2881056,N,00952.3667909,E,2,10,0.8,-2.195,M,40.593,M,3.7,0123*6D\r\n
$GPGGA,082501.00,5703.2881053,N,00952.3667901,E,2,10,0.8,-2.196,M,40.593,M,3.7,0123*6E\r\n
$GPGGA,082501.05,5703.2881071,N,00952.3667911,E,2,10,0.8,-2.192,M,40.593,M,3.9,0123*60\r\n
$GPGGA,082501.10,5703.2881066,N,00952.3667901,E,2,10,0.8,-2.193,M,40.593,M,3.9,0123*62\r\n
$GPGGA,082501.15,5703.2881060,N,00952.3667893,E,2,10,0.8,-2.193,M,40.593,M,3.9,0123*6B\r\n
$GPGGA,082501.20,5703.2881055,N,00952.3667887,E,2,10,0.8,-2.194,M,40.593,M,3.9,0123*69\r\n
$GPGGA,082501.25,5703.2881044,N,00952.3667874,E,2,10,0.8,-2.195,M,40.593,M,4.1,0123*6E\r\n
$GPGGA,082501.30,5703.2881041,N,00952.3667866,E,2,10,0.8,-2.195,M,40.593,M,4.1,0123*6C\r\n
$GPGGA,082501.35,5703.2881035,N,00952.3667859,E,2,10,0.8,-2.196,M,40.593,M,4.1,0123*65\r\n
$GPGGA,082501.40,5703.2881029,N,00952.3667851,E,2,10,0.8,-2.197,M,40.593,M,4.1,0123*63\r\n
$GPGGA,082501.45,5703.2881022,N,00952.3667837,E,2,10,0.8,-2.196,M,40.593,M,2.3,0123*68\r\n
$GPGGA,082501.50,5703.2881017,N,00952.3667830,E,2,10,0.8,-2.196,M,40.593,M,2.3,0123*6D\r\n
$GPGGA,082501.55,5703.2881013,N,00952.3667823,E,2,10,0.8,-2.197,M,40.593,M,2.3,0123*6F\r\n
$GPGGA,082501.60,5703.2881009,N,00952.3667815,E,2,10,0.8,-2.197,M,40.593,M,2.3,0123*67\r\n
$GPGGA,082501.65,5703.2881010,N,00952.3667802,E,2,10,0.8,-2.198,M,40.593,M,2.5,0123*65\r\n
$GPGGA,082501.70,5703.2881006,N,00952.3667793,E,2,10,0.8,-2.198,M,40.593,M,2.5,0123*61\r\n
$GPGGA,082501.75,5703.2881003,N,00952.3667785,E,2,10,0.8,-2.199,M,40.593,M,2.5,0123*67\r\n
