$GPGGA,082853.35,5703.3846299,N,00952.2073232,E,2,10,1.0,-1.764,M,40.593,M,1.9,0123*68\r\n
$GPGGA,082853.40,5703.3846512,N,00952.2073001,E,2,10,1.0,-1.763,M,40.593,M,1.9,0123*6B\r\n
$GPGGA,082853.45,5703.3846734,N,00952.2072763,E,2,10,1.0,-1.762,M,40.593,M,2.1,0123*60\r\n
$GPGGA,082853.50,5703.3846943,N,00952.2072530,E,2,10,1.0,-1.763,M,40.593,M,2.1,0123*6F\r\n
$GPGGA,082853.55,5703.3847148,N,00952.2072292,E,2,10,1.0,-1.764,M,40.593,M,2.1,0123*60\r\n
$GPGGA,082853.60,5703.3847358,N,00952.2072035,E,2,10,1.0,-1.765,M,40.593,M,2.1,0123*6B\r\n
$GPGGA,082853.65,5703.3847563,N,00952.2071776,E,2,10,1.0,-1.766,M,40.593,M,2.3,0123*62\r\n
$GPGGA,082853.70,5703.3847783,N,00952.2071530,E,2,10,1.0,-1.769,M,40.593,M,2.3,0123*65\r\n
$GPGGA,082853.75,5703.3848002,N,00952.2071273,E,2,10,1.0,-1.772,M,40.593,M,2.3,0123*6B\r\n
$GPGGA,082853.80,5703.3848216,N,00952.2071013,E,2,10,1.0,-1.773,M,40.593,M,2.3,0123*63\r\n
$GPGGA,082853.85,5703.3848430,N,00952.2070765,E,2,10,1.0,-1.775,M,40.593,M,2.6,0123*60\r\n
$GPGGA,082853.90,5703.3848640,N,00952.2070515,E,2,10,1.0,-1.778,M,40.593,M,2.6,0123*69\r\n
$GPGGA,082853.95,5703.3848833,N,00952.2070270,E,2,10,1.0,-1.782,M,40.593,M,2.6,0123*67\r\n
$GPGGA,082854.00,5703.3849040,N,00952.2070029,E,2,10,1.0,-1.784,M,40.593,M,2.6,0123*69\r\n
$GPGGA,082854.05,5703.3849260,N,00952.2069775,E,2,10,1.0,-1.780,M,40.593,M,2.8,0123*60\r\n
$GPGGA,082854.10,5703.3849483,N,00952.2069529,E,2,10,1.0,-1.780,M,40.593,M,2.8,0123*64\r\n
$GPGGA,082854.15,5703.3849691,N,00952.2069297,E,2,10,1.0,-1.778,M,40.593,M,2.8,0123*65\r\n
$GPGGA,082854.20,5703.3849883,N,00952.2069060,E,2,10,1.0,-1.778,M,40.593,M,2.8,0123*64\r\n
$GPGGA,082854.25,5703.3850081,N,00952.2068828,E,2,10,1.0,-1.777,M,40.593,M,3.0,0123*60\r\n
$GPGGA,082854.30,5703.3850288,N,00952.2068600,E,2,10,1.0,-1.774,M,40.593,M,3.0,0123*68\r\n
$GPGGA,082854.35,5703.3850508,N,00952.2068374,E,2,10,1.0,-1.768,M,40.593,M,3.0,0123*69\r\n
$GPGGA,082854.40,5703.3850705,N,00952.2068157,E,2,10,1.0,-1.766,M,40.593,M,3.0,0123*69\r\n
$GPGGA,082854.45,5703.3850912,N,00952.2067928,E,2,10,1.0,-1.764,M,40.593,M,3.2,0123*6B\r\n
$GPGGA,082854.50,5703.3851117,N,00952.2067704,E,2,10,1.0,-1.764,M,40.593,M,3.2,0123*63\r\n
$GPGGA,082854.55,5703.3851325,N,00952.2067480,E,2,10,1.0,-1.763,M,40.593,M,3.2,0123*6D\r\n
$GPGGA,082854.60,5703.3851529,N,00952.2067250,E,2,10,1.0,-1.763,M,40.593,M,3.2,0123*6A\r\n
$GPGGA,082854.65,5703.3851737,N,00952.2067022,E,2,10,1.0,-1.761,M,40.593,M,3.4,0123*61\r\n
$GPGGA,082854.70,5703.3851959,N,00952.2066775,E,2,10,1.0,-1.759,M,40.593,M,3.4,0123*6C\r\n
$GPGGA,082854.75,5703.3852177,N,00952.2066525,E,2,10,1.0,-1.758,M,40.593,M,3.4,0123*68\r\n
$GPGGA,082854.80,5703.3852380,N,00952.2066294,E,2,10,1.0,-1.759,M,40.593,M,3.4,0123*64\r\n
$GPGGA,082854.85,5703.3852585,N,00952.2066060,E,2,10,1.0,-1.764,M,40.593,M,3.6,0123*67\r\n
$GPGGA,082854.90,5703.3852788,N,00952.2065818,E,2,10,1.0,-1.767,M,40.593,M,3.6,0123*6B\r\n
$GPGGA,082854.95,5703.3852999,N,00952.2065569,E,2,10,1.0,-1.768,M,40.593,M,3.6,0123*64\r\n
$GPGGA,082855.00,5703.3853214,N,00952.2065315,E,2,10,1.0,-1.769,M,40.593,M,3.6,0123*6A\r\n
$GPGGA,082855.05,5703.3853425,N,00952.2065071,E,2,10,1.0,-1.776,M,40.593,M,3.8,0123*6A\r\n
$GPGGA,082855.10,5703.3853632,N,00952.2064825,E,2,10,1.0,-1.777,M,40.593,M,3.8,0123*63\r\n
$GPGGA,082855.15,5703.3853843,N,00952.2064583,E,2,10,1.0,-1.779,M,40.593,M,3.8,0123*61\r\n
$GPGGA,082855.20,5703.3854055,N,00952.2064342,E,2,10,1.0,-1.781,M,40.593,M,3.8,0123*63\r\n
$GPGGA,082855.25,5703.3854264,N,00952.2064110,E,2,10,1.0,-1.780,M,40.593,M,2.2,0123*69\r\n
$GPGGA,082855.30,5703.3854464,N,00952.2063874,E,2,10,1.0,-1.780,M,40.593,M,2.2,0123*67\r\n
$GPGGA,082855.35,5703.3854671,N,00952.2063644,E,2,10,1.0,-1.780,M,40.593,M,2.2,0123*69\r\n
$GPGGA,082855.40,5703.3854887,N,00952.2063432,E,2,10,1.0,-1.780,M,40.593,M,2.2,0123*6F\r\n
$GPGGA,082855.45,5703.3855102,N,00952.2063212,E,2,10,1.0,-1.776,M,40.593,M,2.4,0123*64\r\n
$GPGGA,082855.50,5703.3855305,N,00952.2062990,E,2,10,1.0,-1.775,M,40.593,M,2.4,0123*66\r\n
$GPGGA,082855.55,5703.3855497,N,00952.2062772,E,2,10,1.0,-1.774,M,40.593,M,2.4,0123*6C\r\n
$GPGGA,082855.60,5703.3855706,N,00952.2062539,E,2,10,1.0,-1.771,M,40.593,M,2.4,0123*69\r\n
$GPGGA,082855.65,5703.3855903,N,00952.2062306,E,2,10,1.0,-1.772,M,40.593,M,2.7,0123*6D\r\n
$GPGGA,082855.70,5703.3856116,N,00952.2062062,E,2,10,1.0,-1.769,M,40.593,M,2.7,0123*6D\r\n
$GPGGA,082855.75,5703.3856328,N,00952.2061807,E,2,10,1.0,-1.766,M,40.593,M,2.7,0123*60\r\n
$GPGGA,082855.80,5703.3856535,N,00952.2061556,E,2,10,1.0,-1.764,M,40.593,M,2.7,0123*6B\r\n
$GPGGA,082855.85,5703.3856755,N,00952.2061296,E,2,10,1.0,-1.759,M,40.593,M,2.9,0123*61\r\n
$GPGGA,082855.90,5703.3856968,N,00952.2061043,E,2,10,1.0,-1.758,M,40.593,M,2.9,0123*6E\r\n
$GPGGA,082855.95,5703.3857179,N,00952.2060803,E,2,10,1.0,-1.757,M,40.593,M,2.9,0123*60\r\n
$GPGGA,082856.00,5703.3857376,N,00952.2060555,E,2,10,1.0,-1.757,M,40.593,M,2.9,0123*6C\r\n
$GPGGA,082856.05,5703.3857576,N,00952.2060300,E,2,10,1.0,-1.763,M,40.593,M,3.2,0123*64\r\n
$GPGGA,082856.10,5703.3857791,N,00952.2060036,E,2,10,1.0,-1.764,M,40.593,M,3.2,0123*6A\r\n
$GPGGA,082856.15,5703.3858000,N,00952.2059776,E,2,10,1.0,-1.765,M,40.593,M,3.2,0123*67\r\n
$GPGGA,082856.20,5703.3858204,N,00952.2059520,E,2,10,1.0,-1.765,M,40.593,M,3.2,0123*66\r\n
$GPGGA,082856.25,5703.3858403,N,00952.2059275,E,2,10,1.0,-1.770,M,40.593,M,2.0,0123*62\r\n
$GPGGA,082856.30,5703.3858618,N,00952.2059033,E,2,10,1.0,-1.771,M,40.593,M,2.0,0123*6F\r\n
$GPGGA,082856.35,5703.3858822,N,00952.2058782,E,2,10,1.0,-1.772,M,40.593,M,2.0,0123*62\r\n
$GPGGA,082856.40,5703.3859029,N,00952.2058540,E,2,10,1.0,-1.773,M,40.593,M,2.0,0123*6F\r\n
$GPGGA,082856.45,5703.3859236,N,00952.2058300,E,2,10,1.0,-1.773,M,40.593,M,2.2,0123*66\r\n
$GPGGA,082856.50,5703.3859439,N,00952.2058059,E,2,10,1.0,-1.773,M,40.593,M,2.2,0123*64\r\n
$GPGGA,082856.55,5703.3859635,N,00952.2057818,E,2,10,1.0,-1.771,M,40.593,M,2.2,0123*6F\r\n
$GPGGA,082856.60,5703.3859832,N,00952.2057569,E,2,10,1.0,-1.766,M,40.593,M,2.2,0123*6D\r\n
$GPGGA,082856.65,5703.3860026,N,00952.2057324,E,2,10,1.0,-1.767,M,40.593,M,2.4,0123*67\r\n
$GPGGA,082856.70,5703.3860234,N,00952.2057084,E,2,10,1.0,-1.764,M,40.593,M,2.4,0123*68\r\n
$GPGGA,082856.75,5703.3860442,N,00952.2056831,E,2,10,1.0,-1.760,M,40.593,M,2.4,0123*69\r\n
$GPGGA,082856.80,5703.3860651,N,00952.2056581,E,2,10,1.0,-1.756,M,40.593,M,2.4,0123*60\r\n
$GPGGA,082856.85,5703.3860851,N,00952.2056339,E,2,10,1.0,-1.755,M,40.593,M,2.7,0123*6E\r\n
$GPGGA,082856.90,5703.3861053,N,00952.2056090,E,2,10,1.0,-1.756,M,40.593,M,2.7,0123*62\r\n
$GPGGA,082856.95,5703.3861257,N,00952.2055827,E,2,10,1.0,-1.757,M,40.593,M,2.7,0123*67\r\n
$GPGGA,082857.00,5703.3861466,N,00952.2055568,E,2,10,1.0,-1.758,M,40.593,M,2.7,0123*67\r\n
$GPGGA,082857.05,5703.3861664,N,00952.2055289,E,2,10,1.0,-1.761,M,40.593,M,2.9,0123*6E\r\n
$GPGGA,082857.10,5703.3861870,N,00952.2055008,E,2,10,1.0,-1.763,M,40.593,M,2.9,0123*68\r\n
$GPGGA,082857.15,5703.3862077,N,00952.2054723,E,2,10,1.0,-1.764,M,40.593,M,2.9,0123*69\r\n
$GPGGA,082857.20,5703.3862277,N,00952.2054447,E,2,10,1.0,-1.767,M,40.593,M,2.9,0123*6F\r\n
$GPGGA,082857.25,5703.3862487,N,00952.2054160,E,2,10,1.0,-1.768,M,40.593,M,1.9,0123*6F\r\n
$GPGGA,082857.30,5703.3862691,N,00952.2053886,E,2,10,1.0,-1.771,M,40.593,M,1.9,0123*60\r\n
$GPGGA,082857.35,5703.3862898,N,00952.2053615,E,2,10,1.0,-1.772,M,40.593,M,1.9,0123*65\r\n
$GPGGA,082857.40,5703.3863094,N,00952.2053360,E,2,10,1.0,-1.774,M,40.593,M,1.9,0123*63\r\n
$GPGGA,082857.45,5703.3863293,N,00952.2053106,E,2,10,1.0,-1.778,M,40.593,M,2.1,0123*66\r\n
$GPGGA,082857.50,5703.3863500,N,00952.2052858,E,2,10,1.0,-1.777,M,40.593,M,2.1,0123*63\r\n
$GPGGA,082857.55,5703.3863706,N,00952.2052613,E,2,10,1.0,-1.778,M,40.593,M,2.1,0123*6C\r\n
$GPGGA,082857.60,5703.3863912,N,00952.2052367,E,2,10,1.0,-1.780,M,40.593,M,2.1,0123*60\r\n
$GPGGA,082857.65,5703.3864119,N,00952.2052116,E,2,10,1.0,-1.777,M,40.593,M,2.3,0123*6F\r\n
$GPGGA,082857.70,5703.3864331,N,00952.2051870,E,2,10,1.0,-1.775,M,40.593,M,2.3,0123*6B\r\n
$GPGGA,082857.75,5703.3864543,N,00952.2051633,E,2,10,1.0,-1.773,M,40.593,M,2.3,0123*62\r\n
$GPGGA,082857.80,5703.3864742,N,00952.2051399,E,2,10,1.0,-1.773,M,40.593,M,2.3,0123*6E\r\n
$GPGGA,082857.85,5703.3864937,N,00952.2051153,E,2,10,1.0,-1.775,M,40.593,M,2.6,0123*60\r\n
$GPGGA,082857.90,5703.3865143,N,00952.2050885,E,2,10,1.0,-1.777,M,40.593,M,2.6,0123*6F\r\n
$GPGGA,082857.95,5703.3865352,N,00952.2050618,E,2,10,1.0,-1.777,M,40.593,M,2.6,0123*62\r\n
$GPGGA,082858.00,5703.3865552,N,00952.2050333,E,2,10,1.0,-1.776,M,40.593,M,2.6,0123*6A\r\n
$GPGGA,082858.05,5703.3865761,N,00952.2050034,E,2,10,1.0,-1.769,M,40.593,M,2.8,0123*69\r\n
$GPGGA,082858.10,5703.3865963,N,00952.2049744,E,2,10,1.0,-1.767,M,40.593,M,2.8,0123*67\r\n
$GPGGA,082858.15,5703.3866154,N,00952.2049447,E,2,10,1.0,-1.766,M,40.593,M,2.8,0123*6C\r\n
$GPGGA,082858.20,5703.3866352,N,00952.2049150,E,2,10,1.0,-1.764,M,40.593,M,2.8,0123*6F\r\n
$GPGGA,082858.25,5703.3866549,N,00952.2048862,E,2,10,1.0,-1.765,M,40.593,M,3.0,0123*67\r\n
$GPGGA,082858.30,5703.3866755,N,00952.2048575,E,2,10,1.0,-1.765,M,40.593,M,3.0,0123*67\r\n
$GPGGA,082858.35,5703.3866959,N,00952.2048287,E,2,10,1.0,-1.765,M,40.593,M,3.0,0123*6A\r\n
$GPGGA,082858.40,5703.3867173,N,00952.2047987,E,2,10,1.0,-1.764,M,40.593,M,3.0,0123*6C\r\n
$GPGGA,082858.45,5703.3867383,N,00952.2047684,E,2,10,1.0,-1.762,M,40.593,M,3.2,0123*6C\r\n
$GPGGA,082858.50,5703.3867595,N,00952.2047388,E,2,10,1.0,-1.762,M,40.593,M,3.2,0123*60\r\n
$GPGGA,082858.55,5703.3867819,N,00952.2047097,E,2,10,1.0,-1.763,M,40.593,M,3.2,0123*60\r\n
$GPGGA,082858.60,5703.3868045,N,00952.2046806,E,2,10,1.0,-1.764,M,40.593,M,3.2,0123*6E\r\n
$GPGGA,082858.65,5703.3868283,N,00952.2046507,E,2,10,1.0,-1.761,M,40.593,M,3.4,0123*6C\r\n
$GPGGA,082858.70,5703.3868506,N,00952.2046216,E,2,10,1.0,-1.761,M,40.593,M,3.4,0123*65\r\n
$GPGGA,082858.75,5703.3868730,N,00952.2045921,E,2,10,1.0,-1.762,M,40.593,M,3.4,0123*68\r\n
$GPGGA,082858.80,5703.3868968,N,00952.2045615,E,2,10,1.0,-1.762,M,40.593,M,3.4,0123*69\r\n
$GPGGA,082858.85,5703.3869198,N,00952.2045308,E,2,10,1.0,-1.768,M,40.593,M,3.6,0123*6B\r\n
$GPGGA,082858.90,5703.3869447,N,00952.2044988,E,2,10,1.0,-1.766,M,40.593,M,3.6,0123*65\r\n
$GPGGA,082858.95,5703.3869679,N,00952.2044679,E,2,10,1.0,-1.764,M,40.593,M,3.6,0123*6C\r\n
$GPGGA,082859.00,5703.3869905,N,00952.2044365,E,2,10,1.0,-1.761,M,40.593,M,3.6,0123*68\r\n
$GPGGA,082859.05,5703.3870147,N,00952.2044024,E,2,10,1.0,-1.752,M,40.593,M,3.8,0123*63\r\n
$GPGGA,082859.10,5703.3870388,N,00952.2043688,E,2,10,1.0,-1.748,M,40.593,M,3.8,0123*6A\r\n
$GPGGA,082859.15,5703.3870633,N,00952.2043341,E,2,10,1.0,-1.744,M,40.593,M,3.8,0123*66\r\n
$GPGGA,082859.20,5703.3870886,N,00952.2042981,E,2,10,1.0,-1.738,M,40.593,M,3.8,0123*6C\r\n
$GPGGA,082859.25,5703.3871138,N,00952.2042624,E,2,10,1.0,-1.738,M,40.593,M,2.2,0123*6F\r\n
$GPGGA,082859.30,5703.3871401,N,00952.2042259,E,2,10,1.0,-1.735,M,40.593,M,2.2,0123*67\r\n
$GPGGA,082859.35,5703.3871673,N,00952.2041890,E,2,10,1.0,-1.730,M,40.593,M,2.2,0123*6C\r\n
$GPGGA,082859.40,5703.3871955,N,00952.2041506,E,2,10,1.0,-1.725,M,40.593,M,2.2,0123*63\r\n
$GPGGA,082859.45,5703.3872241,N,00952.2041121,E,2,10,1.0,-1.725,M,40.593,M,2.4,0123*6C\r\n
$GPGGA,082859.50,5703.3872530,N,00952.2040740,E,2,10,1.0,-1.727,M,40.593,M,2.4,0123*6B\r\n
$GPGGA,082859.55,5703.3872818,N,00952.2040358,E,2,10,1.0,-1.730,M,40.593,M,2.4,0123*62\r\n
$GPGGA,082859.60,5703.3873111,N,00952.2039970,E,2,10,1.0,-1.730,M,40.593,M,2.4,0123*6B\r\n
$GPGGA,082859.65,5703.3873399,N,00952.2039580,E,2,10,1.0,-1.735,M,40.593,M,2.7,0123*69\r\n
$GPGGA,082859.70,5703.3873694,N,00952.2039185,E,2,10,1.0,-1.736,M,40.593,M,2.7,0123*67\r\n
$GPGGA,082859.75,5703.3873989,N,00952.2038785,E,2,10,1.0,-1.734,M,40.593,M,2.7,0123*64\r\n
$GPGGA,082859.80,5703.3874276,N,00952.2038387,E,2,10,1.0,-1.736,M,40.593,M,2.7,0123*66\r\n
$GPGGA,082859.85,5703.3874572,N,00952.2037986,E,2,10,1.0,-1.735,M,40.593,M,2.9,0123*69\r\n
$GPGGA,082859.90,5703.3874883,N,00952.2037571,E,2,10,1.0,-1.731,M,40.593,M,2.9,0123*6E\r\n
$GPGGA,082859.95,5703.3875193,N,00952.2037132,E,2,10,1.0,-1.732,M,40.593,M,2.9,0123*62\r\n
$GPGGA,082900.00,5703.3875514,N,00952.2036696,E,2,10,1.0,-1.733,M,40.593,M,2.9,0123*61\r\n
$GPGGA,082900.05,5703.3875835,N,00952.2036239,E,2,10,1.0,-1.733,M,40.593,M,3.2,0123*61\r\n
$GPGGA,082900.10,5703.3876148,N,00952.2035802,E,2,10,1.0,-1.734,M,40.593,M,3.2,0123*63\r\n
$GPGGA,082900.15,5703.3876467,N,00952.2035354,E,2,10,1.0,-1.737,M,40.593,M,3.2,0123*65\r\n
$GPGGA,082900.20,5703.3876804,N,00952.2034891,E,2,10,1.0,-1.739,M,40.593,M,3.2,0123*67\r\n
$GPGGA,082900.25,5703.3877149,N,00952.2034416,E,2,10,1.0,-1.739,M,40.593,M,2.0,0123*63\r\n
$GPGGA,082900.30,5703.3877475,N,00952.2033948,E,2,10,1.0,-1.740,M,40.593,M,2.0,0123*62\r\n
$GPGGA,082900.35,5703.3877794,N,00952.2033458,E,2,10,1.0,-1.739,M,40.593,M,2.0,0123*69\r\n
$GPGGA,082900.40,5703.3878112,N,00952.2032945,E,2,10,1.0,-1.741,M,40.593,M,2.0,0123*63\r\n
$GPGGA,082900.45,5703.3878428,N,00952.2032422,E,2,10,1.0,-1.742,M,40.593,M,2.2,0123*67\r\n
$GPGGA,082900.50,5703.3878759,N,00952.2031888,E,2,10,1.0,-1.741,M,40.593,M,2.2,0123*6A\r\n
$GPGGA,082900.55,5703.3879093,N,00952.2031363,E,2,10,1.0,-1.740,M,40.593,M,2.2,0123*60\r\n
$GPGGA,082900.60,5703.3879425,N,00952.2030825,E,2,10,1.0,-1.738,M,40.593,M,2.2,0123*68\r\n
$GPGGA,082900.65,5703.3879751,N,00952.2030287,E,2,10,1.0,-1.734,M,40.593,M,2.4,0123*65\r\n
$GPGGA,082900.70,5703.3880079,N,00952.2029751,E,2,10,1.0,-1.733,M,40.593,M,2.4,0123*6B\r\n
$GPGGA,082900.75,5703.3880413,N,00952.2029215,E,2,10,1.0,-1.732,M,40.593,M,2.4,0123*62\r\n
$GPGGA,082900.80,5703.3880752,N,00952.2028670,E,2,10,1.0,-1.731,M,40.593,M,2.4,0123*6B\r\n
$GPGGA,082900.85,5703.3881085,N,00952.2028095,E,2,10,1.0,-1.730,M,40.593,M,2.7,0123*6D\r\n
$GPGGA,082900.90,5703.3881428,N,00952.2027512,E,2,10,1.0,-1.729,M,40.593,M,2.7,0123*67\r\n
$GPGGA,082900.95,5703.3881758,N,00952.2026937,E,2,10,1.0,-1.727,M,40.593,M,2.7,0123*62\r\n
$GPGGA,082901.00,5703.3882085,N,00952.2026365,E,2,10,1.0,-1.724,M,40.593,M,2.7,0123*65\r\n
$GPGGA,082901.05,5703.3882408,N,00952.2025765,E,2,10,1.0,-1.730,M,40.593,M,2.9,0123*6D\r\n
$GPGGA,082901.10,5703.3882743,N,00952.2025157,E,2,10,1.0,-1.733,M,40.593,M,2.9,0123*61\r\n
$GPGGA,082901.15,5703.3883071,N,00952.2024535,E,2,10,1.0,-1.734,M,40.593,M,2.9,0123*65\r\n
$GPGGA,082901.20,5703.3883411,N,00952.2023907,E,2,10,1.0,-1.735,M,40.593,M,2.9,0123*6A\r\n
$GPGGA,082901.25,5703.3883744,N,00952.2023266,E,2,10,1.0,-1.731,M,40.593,M,1.9,0123*67\r\n
$GPGGA,082901.30,5703.3884067,N,00952.2022616,E,2,10,1.0,-1.730,M,40.593,M,1.9,0123*61\r\n
$GPGGA,082901.35,5703.3884384,N,00952.2021952,E,2,10,1.0,-1.729,M,40.593,M,1.9,0123*6E\r\n
$GPGGA,082901.40,5703.3884694,N,00952.2021280,E,2,10,1.0,-1.731,M,40.593,M,1.9,0123*65\r\n
$GPGGA,082901.45,5703.3885004,N,00952.2020607,E,2,10,1.0,-1.737,M,40.593,M,2.1,0123*69\r\n
$GPGGA,082901.50,5703.3885320,N,00952.2019927,E,2,10,1.0,-1.738,M,40.593,M,2.1,0123*60\r\n
$GPGGA,082901.55,5703.3885626,N,00952.2019244,E,2,10,1.0,-1.740,M,40.593,M,2.1,0123*67\r\n
$GPGGA,082901.60,5703.3885938,N,00952.2018540,E,2,10,1.0,-1.741,M,40.593,M,2.1,0123*62\r\n
$GPGGA,082901.65,5703.3886249,N,00952.2017833,E,2,10,1.0,-1.742,M,40.593,M,2.3,0123*6E\r\n
$GPGGA,082901.70,5703.3886562,N,00952.2017113,E,2,10,1.0,-1.741,M,40.593,M,2.3,0123*6C\r\n
$GPGGA,082901.75,5703.3886850,N,00952.2016378,E,2,10,1.0,-1.741,M,40.593,M,2.3,0123*6B\r\n
$GPGGA,082901.80,5703.3887142,N,00952.2015634,E,2,10,1.0,-1.737,M,40.593,M,2.3,0123*65\r\n
$GPGGA,082901.85,5703.3887439,N,00952.2014892,E,2,10,1.0,-1.734,M,40.593,M,2.6,0123*6C\r\n
$GPGGA,082901.90,5703.3887724,N,00952.2014156,E,2,10,1.0,-1.734,M,40.593,M,2.6,0123*66\r\n
$GPGGA,082901.95,5703.3888010,N,00952.2013400,E,2,10,1.0,-1.733,M,40.593,M,2.6,0123*6A\r\n
$GPGGA,082902.00,5703.3888291,N,00952.2012639,E,2,10,1.0,-1.731,M,40.593,M,2.6,0123*65\r\n
$GPGGA,082902.05,5703.3888577,N,00952.2011863,E,2,10,1.0,-1.737,M,40.593,M,2.8,0123*65\r\n
$GPGGA,082902.10,5703.3888872,N,00952.2011088,E,2,10,1.0,-1.736,M,40.593,M,2.8,0123*65\r\n
$GPGGA,082902.15,5703.3889152,N,00952.2010289,E,2,10,1.0,-1.737,M,40.593,M,2.8,0123*69\r\n
$GPGGA,082902.20,5703.3889415,N,00952.2009482,E,2,10,1.0,-1.739,M,40.593,M,2.8,0123*62\r\n
$GPGGA,082902.25,5703.3889656,N,00952.2008659,E,2,10,1.0,-1.741,M,40.593,M,3.0,0123*61\r\n
$GPGGA,082902.30,5703.3889923,N,00952.2007842,E,2,10,1.0,-1.740,M,40.593,M,3.0,0123*62\r\n
$GPGGA,082902.35,5703.3890186,N,00952.2007021,E,2,10,1.0,-1.740,M,40.593,M,3.0,0123*65\r\n
$GPGGA,082902.40,5703.3890439,N,00952.2006189,E,2,10,1.0,-1.741,M,40.593,M,3.0,0123*65\r\n
$GPGGA,082902.45,5703.3890696,N,00952.2005347,E,2,10,1.0,-1.740,M,40.593,M,3.2,0123*67\r\n
$GPGGA,082902.50,5703.3890930,N,00952.2004498,E,2,10,1.0,-1.741,M,40.593,M,3.2,0123*65\r\n
$GPGGA,082902.55,5703.3891160,N,00952.2003637,E,2,10,1.0,-1.739,M,40.593,M,3.2,0123*63\r\n
$GPGGA,082902.60,5703.3891393,N,00952.2002768,E,2,10,1.0,-1.735,M,40.593,M,3.2,0123*6D\r\n
$GPGGA,082902.65,5703.3891608,N,00952.2001914,E,2,10,1.0,-1.742,M,40.593,M,3.4,0123*6F\r\n
$GPGGA,082902.70,5703.3891844,N,00952.2001037,E,2,10,1.0,-1.741,M,40.593,M,3.4,0123*66\r\n
$GPGGA,082902.75,5703.3892072,N,00952.2000150,E,2,10,1.0,-1.742,M,40.593,M,3.4,0123*6F\r\n
$GPGGA,082902.80,5703.3892283,N,00952.1999261,E,2,10,1.0,-1.743,M,40.593,M,3.4,0123*63\r\n
$GPGGA,082902.85,5703.3892490,N,00952.1998371,E,2,10,1.0,-1.743,M,40.593,M,3.6,0123*61\r\n
$GPGGA,082902.90,5703.3892692,N,00952.1997480,E,2,10,1.0,-1.745,M,40.593,M,3.6,0123*65\r\n
$GPGGA,082902.95,5703.3892896,N,00952.1996577,E,2,10,1.0,-1.745,M,40.593,M,3.6,0123*62\r\n
$GPGGA,082903.00,5703.3893106,N,00952.1995669,E,2,10,1.0,-1.745,M,40.593,M,3.6,0123*61\r\n
$GPGGA,082903.05,5703.3893309,N,00952.1994729,E,2,10,1.0,-1.745,M,40.593,M,3.8,0123*63\r\n
$GPGGA,082903.10,5703.3893498,N,00952.1993808,E,2,10,1.0,-1.746,M,40.593,M,3.8,0123*60\r\n
$GPGGA,082903.15,5703.3893687,N,00952.1992887,E,2,10,1.0,-1.745,M,40.593,M,3.8,0123*6C\r\n
$GPGGA,082903.20,5703.3893870,N,00952.1991964,E,2,10,1.0,-1.745,M,40.593,M,3.8,0123*63\r\n
$GPGGA,082903.25,5703.3894045,N,00952.1991047,E,2,10,1.0,-1.749,M,40.593,M,2.2,0123*60\r\n
$GPGGA,082903.30,5703.3894223,N,00952.1990112,E,2,10,1.0,-1.748,M,40.593,M,2.2,0123*67\r\n
$GPGGA,082903.35,5703.3894383,N,00952.1989169,E,2,10,1.0,-1.747,M,40.593,M,2.2,0123*62\r\n
$GPGGA,082903.40,5703.3894541,N,00952.1988225,E,2,10,1.0,-1.744,M,40.593,M,2.2,0123*61\r\n
$GPGGA,082903.45,5703.3894698,N,00952.1987284,E,2,10,1.0,-1.744,M,40.593,M,2.4,0123*61\r\n
$GPGGA,082903.50,5703.3894864,N,00952.1986318,E,2,10,1.0,-1.742,M,40.593,M,2.4,0123*6B\r\n
$GPGGA,082903.55,5703.3895011,N,00952.1985345,E,2,10,1.0,-1.738,M,40.593,M,2.4,0123*63\r\n
$GPGGA,082903.60,5703.3895142,N,00952.1984363,E,2,10,1.0,-1.739,M,40.593,M,2.4,0123*66\r\n
$GPGGA,082903.65,5703.3895276,N,00952.1983392,E,2,10,1.0,-1.741,M,40.593,M,2.7,0123*62\r\n
$GPGGA,082903.70,5703.3895410,N,00952.1982415,E,2,10,1.0,-1.741,M,40.593,M,2.7,0123*69\r\n
$GPGGA,082903.75,5703.3895527,N,00952.1981425,E,2,10,1.0,-1.739,M,40.593,M,2.7,0123*66\r\n
$GPGGA,082903.80,5703.3895642,N,00952.1980424,E,2,10,1.0,-1.737,M,40.593,M,2.7,0123*62\r\n
$GPGGA,082903.85,5703.3895759,N,00952.1979448,E,2,10,1.0,-1.740,M,40.593,M,2.9,0123*6E\r\n
$GPGGA,082903.90,5703.3895874,N,00952.1978452,E,2,10,1.0,-1.742,M,40.593,M,2.9,0123*62\r\n
$GPGGA,082903.95,5703.3895963,N,00952.1977447,E,2,10,1.0,-1.745,M,40.593,M,2.9,0123*6C\r\n
$GPGGA,082904.00,5703.3896052,N,00952.1976456,E,2,10,1.0,-1.745,M,40.593,M,2.9,0123*6E\r\n
$GPGGA,082904.05,5703.3896151,N,00952.1975445,E,2,10,1.0,-1.744,M,40.593,M,3.2,0123*63\r\n
$GPGGA,082904.10,5703.3896236,N,00952.1974439,E,2,10,1.0,-1.741,M,40.593,M,3.2,0123*6A\r\n
$GPGGA,082904.15,5703.3896305,N,00952.1973431,E,2,10,1.0,-1.738,M,40.593,M,3.2,0123*6F\r\n
$GPGGA,082904.20,5703.3896379,N,00952.1972419,E,2,10,1.0,-1.737,M,40.593,M,3.2,0123*66\r\n
$GPGGA,082904.25,5703.3896464,N,00952.1971403,E,2,10,1.0,-1.734,M,40.593,M,2.0,0123*60\r\n
$GPGGA,082904.30,5703.3896553,N,00952.1970381,E,2,10,1.0,-1.734,M,40.593,M,2.0,0123*6D\r\n
$GPGGA,082904.35,5703.3896624,N,00952.1969352,E,2,10,1.0,-1.734,M,40.593,M,2.0,0123*6D\r\n
$GPGGA,082904.40,5703.3896688,N,00952.1968325,E,2,10,1.0,-1.733,M,40.593,M,2.0,0123*6F\r\n
$GPGGA,082904.45,5703.3896729,N,00952.1967291,E,2,10,1.0,-1.735,M,40.593,M,2.2,0123*65\r\n
$GPGGA,082904.50,5703.3896778,N,00952.1966261,E,2,10,1.0,-1.735,M,40.593,M,2.2,0123*6B\r\n
$GPGGA,082904.55,5703.3896834,N,00952.1965227,E,2,10,1.0,-1.738,M,40.593,M,2.2,0123*65\r\n
$GPGGA,082904.60,5703.3896870,N,00952.1964173,E,2,10,1.0,-1.740,M,40.593,M,2.2,0123*6F\r\n
$GPGGA,082904.65,5703.3896891,N,00952.1963138,E,2,10,1.0,-1.745,M,40.593,M,2.4,0123*6E\r\n
$GPGGA,082904.70,5703.3896911,N,00952.1962110,E,2,10,1.0,-1.744,M,40.593,M,2.4,0123*69\r\n
$GPGGA,082904.75,5703.3896924,N,00952.1961070,E,2,10,1.0,-1.742,M,40.593,M,2.4,0123*68\r\n
$GPGGA,082904.80,5703.3896928,N,00952.1960029,E,2,10,1.0,-1.741,M,40.593,M,2.4,0123*60\r\n
$GPGGA,082904.85,5703.3896916,N,00952.1958999,E,2,10,1.0,-1.750,M,40.593,M,2.7,0123*62\r\n
$GPGGA,082904.90,5703.3896907,N,00952.1957961,E,2,10,1.0,-1.752,M,40.593,M,2.7,0123*6C\r\n
$GPGGA,082904.95,5703.3896906,N,00952.1956914,E,2,10,1.0,-1.752,M,40.593,M,2.7,0123*6B\r\n
$GPGGA,082905.00,5703.3896895,N,00952.1955862,E,2,10,1.0,-1.751,M,40.593,M,2.7,0123*6D\r\n
$GPGGA,082905.05,5703.3896900,N,00952.1954801,E,2,10,1.0,-1.749,M,40.593,M,2.9,0123*66\r\n
$GPGGA,082905.10,5703.3896885,N,00952.1953766,E,2,10,1.0,-1.748,M,40.593,M,2.9,0123*66\r\n
$GPGGA,082905.15,5703.3896857,N,00952.1952712,E,2,10,1.0,-1.749,M,40.593,M,2.9,0123*6F\r\n
$GPGGA,082905.20,5703.3896816,N,00952.1951656,E,2,10,1.0,-1.748,M,40.593,M,2.9,0123*6F\r\n
$GPGGA,082905.25,5703.3896769,N,00952.1950604,E,2,10,1.0,-1.747,M,40.593,M,1.9,0123*67\r\n
$GPGGA,082905.30,5703.3896727,N,00952.1949545,E,2,10,1.0,-1.743,M,40.593,M,1.9,0123*63\r\n
$GPGGA,082905.35,5703.3896673,N,00952.1948484,E,2,10,1.0,-1.742,M,40.593,M,1.9,0123*6A\r\n
$GPGGA,082905.40,5703.3896624,N,00952.1947426,E,2,10,1.0,-1.741,M,40.593,M,1.9,0123*6E\r\n
$GPGGA,082905.45,5703.3896571,N,00952.1946377,E,2,10,1.0,-1.746,M,40.593,M,2.1,0123*66\r\n
$GPGGA,082905.50,5703.3896506,N,00952.1945318,E,2,10,1.0,-1.747,M,40.593,M,2.1,0123*69\r\n
$GPGGA,082905.55,5703.3896439,N,00952.1944244,E,2,10,1.0,-1.748,M,40.593,M,2.1,0123*67\r\n
$GPGGA,082905.60,5703.3896360,N,00952.1943174,E,2,10,1.0,-1.748,M,40.593,M,2.1,0123*6D\r\n
$GPGGA,082905.65,5703.3896286,N,00952.1942101,E,2,10,1.0,-1.748,M,40.593,M,2.3,0123*60\r\n
$GPGGA,082905.70,5703.3896196,N,00952.1941036,E,2,10,1.0,-1.749,M,40.593,M,2.3,0123*61\r\n
$GPGGA,082905.75,5703.3896113,N,00952.1939975,E,2,10,1.0,-1.750,M,40.593,M,2.3,0123*60\r\n
$GPGGA,082905.80,5703.3896029,N,00952.1938915,E,2,10,1.0,-1.753,M,40.593,M,2.3,0123*66\r\n
$GPGGA,082905.85,5703.3895918,N,00952.1937860,E,2,10,1.0,-1.758,M,40.593,M,2.6,0123*69\r\n
$GPGGA,082905.90,5703.3895797,N,00952.1936801,E,2,10,1.0,-1.759,M,40.593,M,2.6,0123*63\r\n
$GPGGA,082905.95,5703.3895676,N,00952.1935747,E,2,10,1.0,-1.759,M,40.593,M,2.6,0123*66\r\n
$GPGGA,082906.00,5703.3895550,N,00952.1934704,E,2,10,1.0,-1.761,M,40.593,M,2.6,0123*63\r\n
$GPGGA,082906.05,5703.3895429,N,00952.1933642,E,2,10,1.0,-1.760,M,40.593,M,2.8,0123*62\r\n
$GPGGA,082906.10,5703.3895307,N,00952.1932586,E,2,10,1.0,-1.759,M,40.593,M,2.8,0123*6D\r\n
$GPGGA,082906.15,5703.3895173,N,00952.1931520,E,2,10,1.0,-1.758,M,40.593,M,2.8,0123*67\r\n
$GPGGA,082906.20,5703.3895029,N,00952.1930458,E,2,10,1.0,-1.758,M,40.593,M,2.8,0123*60\r\n
$GPGGA,082906.25,5703.3894881,N,00952.1929399,E,2,10,1.0,-1.759,M,40.593,M,3.0,0123*64\r\n
$GPGGA,082906.30,5703.3894728,N,00952.1928342,E,2,10,1.0,-1.761,M,40.593,M,3.0,0123*60\r\n
$GPGGA,082906.35,5703.3894583,N,00952.1927266,E,2,10,1.0,-1.763,M,40.593,M,3.0,0123*6C\r\n
$GPGGA,082906.40,5703.3894428,N,00952.1926210,E,2,10,1.0,-1.763,M,40.593,M,3.0,0123*6E\r\n
$GPGGA,082906.45,5703.3894265,N,00952.1925158,E,2,10,1.0,-1.759,M,40.593,M,3.2,0123*63\r\n
$GPGGA,082906.50,5703.3894096,N,00952.1924126,E,2,10,1.0,-1.759,M,40.593,M,3.2,0123*61\r\n
$GPGGA,082906.55,5703.3893910,N,00952.1923089,E,2,10,1.0,-1.757,M,40.593,M,3.2,0123*69\r\n
$GPGGA,082906.60,5703.3893717,N,00952.1922048,E,2,10,1.0,-1.754,M,40.593,M,3.2,0123*69\r\n
$GPGGA,082906.65,5703.3893547,N,00952.1921003,E,2,10,1.0,-1.753,M,40.593,M,3.4,0123*66\r\n
$GPGGA,082906.70,5703.3893358,N,00952.1919979,E,2,10,1.0,-1.751,M,40.593,M,3.4,0123*67\r\n
$GPGGA,082906.75,5703.3893163,N,00952.1918961,E,2,10,1.0,-1.749,M,40.593,M,3.4,0123*69\r\n
$GPGGA,082906.80,5703.3892965,N,00952.1917934,E,2,10,1.0,-1.745,M,40.593,M,3.4,0123*6F\r\n
$GPGGA,082906.85,5703.3892754,N,00952.1916907,E,2,10,1.0,-1.742,M,40.593,M,3.6,0123*62\r\n
$GPGGA,082906.90,5703.3892550,N,00952.1915874,E,2,10,1.0,-1.740,M,40.593,M,3.6,0123*64\r\n
$GPGGA,082906.95,5703.3892338,N,00952.1914848,E,2,10,1.0,-1.739,M,40.593,M,3.6,0123*69\r\n
$GPGGA,082907.00,5703.3892110,N,00952.1913845,E,2,10,1.0,-1.739,M,40.593,M,3.6,0123*66\r\n
$GPGGA,082907.05,5703.3891873,N,00952.1912843,E,2,10,1.0,-1.746,M,40.593,M,3.8,0123*6D\r\n
$GPGGA,082907.10,5703.3891622,N,00952.1911848,E,2,10,1.0,-1.751,M,40.593,M,3.8,0123*6D\r\n
$GPGGA,082907.15,5703.3891367,N,00952.1910852,E,2,10,1.0,-1.755,M,40.593,M,3.8,0123*62\r\n
$GPGGA,082907.20,5703.3891120,N,00952.1909846,E,2,10,1.0,-1.757,M,40.593,M,3.8,0123*6A\r\n
$GPGGA,082907.25,5703.3890866,N,00952.1908839,E,2,10,1.0,-1.756,M,40.593,M,4.0,0123*62\r\n
$GPGGA,082907.30,5703.3890611,N,00952.1907854,E,2,10,1.0,-1.756,M,40.593,M,4.0,0123*6C\r\n
$GPGGA,082907.35,5703.3890338,N,00952.1906874,E,2,10,1.0,-1.755,M,40.593,M,4.0,0123*67\r\n
$GPGGA,082907.40,5703.3890052,N,00952.1905912,E,2,10,1.0,-1.754,M,40.593,M,4.0,0123*69\r\n
$GPGGA,082907.45,5703.3889771,N,00952.1904971,E,2,10,1.0,-1.758,M,40.593,M,0.9,0123*67\r\n
$GPGGA,082907.50,5703.3889495,N,00952.1904023,E,2,10,1.0,-1.759,M,40.593,M,0.9,0123*65\r\n
$GPGGA,082907.55,5703.3889208,N,00952.1903073,E,2,10,1.0,-1.758,M,40.593,M,0.9,0123*61\r\n
$GPGGA,082907.60,5703.3888914,N,00952.1902133,E,2,10,1.0,-1.758,M,40.593,M,0.9,0123*64\r\n
$GPGGA,082907.65,5703.3888598,N,00952.1901205,E,2,10,1.0,-1.764,M,40.593,M,1.2,0123*69\r\n
$GPGGA,082907.70,5703.3888293,N,00952.1900269,E,2,10,1.0,-1.764,M,40.593,M,1.2,0123*6A\r\n
$GPGGA,082907.75,5703.3887987,N,00952.1899330,E,2,10,1.0,-1.765,M,40.593,M,1.2,0123*63\r\n
$GPGGA,082907.80,5703.3887667,N,00952.1898402,E,2,10,1.0,-1.765,M,40.593,M,1.2,0123*6F\r\n
$GPGGA,082907.85,5703.3887348,N,00952.1897491,E,2,10,1.0,-1.762,M,40.593,M,1.5,0123*67\r\n
$GPGGA,082907.90,5703.3887025,N,00952.1896576,E,2,10,1.0,-1.761,M,40.593,M,1.5,0123*61\r\n
$GPGGA,082907.95,5703.3886707,N,00952.1895675,E,2,10,1.0,-1.760,M,40.593,M,1.5,0123*60\r\n
$GPGGA,082908.00,5703.3886376,N,00952.1894790,E,2,10,1.0,-1.759,M,40.593,M,1.5,0123*60\r\n
$GPGGA,082908.05,5703.3886046,N,00952.1893901,E,2,10,1.0,-1.755,M,40.593,M,1.7,0123*6A\r\n
$GPGGA,082908.10,5703.3885707,N,00952.1893026,E,2,10,1.0,-1.753,M,40.593,M,1.7,0123*65\r\n
$GPGGA,082908.15,5703.3885359,N,00952.1892138,E,2,10,1.0,-1.753,M,40.593,M,1.7,0123*60\r\n
$GPGGA,082908.20,5703.3885024,N,00952.1891253,E,2,10,1.0,-1.752,M,40.593,M,1.7,0123*63\r\n
$GPGGA,082908.25,5703.3884677,N,00952.1890376,E,2,10,1.0,-1.753,M,40.593,M,2.0,0123*65\r\n
$GPGGA,082908.30,5703.3884324,N,00952.1889505,E,2,10,1.0,-1.754,M,40.593,M,2.0,0123*6F\r\n
$GPGGA,082908.35,5703.3883958,N,00952.1888642,E,2,10,1.0,-1.755,M,40.593,M,2.0,0123*6C\r\n
$GPGGA,082908.40,5703.3883588,N,00952.1887796,E,2,10,1.0,-1.755,M,40.593,M,2.0,0123*68\r\n
$GPGGA,082908.45,5703.3883197,N,00952.1886968,E,2,10,1.0,-1.755,M,40.593,M,0.8,0123*63\r\n
$GPGGA,082908.50,5703.3882814,N,00952.1886146,E,2,10,1.0,-1.757,M,40.593,M,0.8,0123*62\r\n
$GPGGA,082908.55,5703.3882440,N,00952.1885329,E,2,10,1.0,-1.757,M,40.593,M,0.8,0123*62\r\n
$GPGGA,082908.60,5703.3882056,N,00952.1884516,E,2,10,1.0,-1.755,M,40.593,M,0.8,0123*6E\r\n
$GPGGA,082908.65,5703.3881663,N,00952.1883713,E,2,10,1.0,-1.751,M,40.593,M,1.1,0123*64\r\n
$GPGGA,082908.70,5703.3881257,N,00952.1882904,E,2,10,1.0,-1.750,M,40.593,M,1.1,0123*6B\r\n
$GPGGA,082908.75,5703.3880867,N,00952.1882113,E,2,10,1.0,-1.748,M,40.593,M,1.1,0123*61\r\n
$GPGGA,082908.80,5703.3880464,N,00952.1881337,E,2,10,1.0,-1.748,M,40.593,M,1.1,0123*63\r\n
$GPGGA,082908.85,5703.3880045,N,00952.1880567,E,2,10,1.0,-1.753,M,40.593,M,1.4,0123*6C\r\n
$GPGGA,082908.90,5703.3879631,N,00952.1879794,E,2,10,1.0,-1.754,M,40.593,M,1.4,0123*64\r\n
$GPGGA,082908.95,5703.3879215,N,00952.1879018,E,2,10,1.0,-1.754,M,40.593,M,1.4,0123*60\r\n
$GPGGA,082909.00,5703.3878799,N,00952.1878236,E,2,10,1.0,-1.755,M,40.593,M,1.4,0123*63\r\n
$GPGGA,082909.05,5703.3878372,N,00952.1877455,E,2,10,1.0,-1.756,M,40.593,M,1.6,0123*6A\r\n
$GPGGA,082909.10,5703.3877950,N,00952.1876703,E,2,10,1.0,-1.757,M,40.593,M,1.6,0123*6B\r\n
$GPGGA,082909.15,5703.3877535,N,00952.1875975,E,2,10,1.0,-1.756,M,40.593,M,1.6,0123*6C\r\n
$GPGGA,082909.20,5703.3877114,N,00952.1875243,E,2,10,1.0,-1.753,M,40.593,M,1.6,0123*66\r\n
$GPGGA,082909.25,5703.3876685,N,00952.1874498,E,2,10,1.0,-1.753,M,40.593,M,1.9,0123*63\r\n
$GPGGA,082909.30,5703.3876247,N,00952.1873763,E,2,10,1.0,-1.753,M,40.593,M,1.9,0123*6D\r\n
$GPGGA,082909.35,5703.3875802,N,00952.1873050,E,2,10,1.0,-1.757,M,40.593,M,1.9,0123*63\r\n
$GPGGA,082909.40,5703.3875368,N,00952.1872338,E,2,10,1.0,-1.758,M,40.593,M,1.9,0123*65\r\n
$GPGGA,082909.45,5703.3874929,N,00952.1871623,E,2,10,1.0,-1.753,M,40.593,M,2.1,0123*62\r\n
$GPGGA,082909.50,5703.3874491,N,00952.1870919,E,2,10,1.0,-1.754,M,40.593,M,2.1,0123*68\r\n
$GPGGA,082909.55,5703.3874036,N,00952.1870221,E,2,10,1.0,-1.753,M,40.593,M,2.1,0123*63\r\n
$GPGGA,082909.60,5703.3873575,N,00952.1869524,E,2,10,1.0,-1.751,M,40.593,M,2.1,0123*68\r\n
$GPGGA,082909.65,5703.3873120,N,00952.1868845,E,2,10,1.0,-1.756,M,40.593,M,2.3,0123*67\r\n
$GPGGA,082909.70,5703.3872672,N,00952.1868166,E,2,10,1.0,-1.756,M,40.593,M,2.3,0123*6A\r\n
$GPGGA,082909.75,5703.3872221,N,00952.1867495,E,2,10,1.0,-1.756,M,40.593,M,2.3,0123*6B\r\n
$GPGGA,082909.80,5703.3871753,N,00952.1866825,E,2,10,1.0,-1.756,M,40.593,M,2.3,0123*64\r\n
$GPGGA,082909.85,5703.3871295,N,00952.1866166,E,2,10,1.0,-1.754,M,40.593,M,2.6,0123*67\r\n
$GPGGA,082909.90,5703.3870830,N,00952.1865523,E,2,10,1.0,-1.754,M,40.593,M,2.6,0123*61\r\n
$GPGGA,082909.95,5703.3870362,N,00952.1864898,E,2,10,1.0,-1.755,M,40.593,M,2.6,0123*65\r\n
$GPGGA,082910.00,5703.3869878,N,00952.1864276,E,2,10,1.0,-1.756,M,40.593,M,2.6,0123*60\r\n
$GPGGA,082910.05,5703.3869402,N,00952.1863657,E,2,10,1.0,-1.751,M,40.593,M,2.8,0123*6D\r\n
$GPGGA,082910.10,5703.3868927,N,00952.1863050,E,2,10,1.0,-1.749,M,40.593,M,2.8,0123*6A\r\n
$GPGGA,082910.15,5703.3868463,N,00952.1862442,E,2,10,1.0,-1.747,M,40.593,M,2.8,0123*6A\r\n
$GPGGA,082910.20,5703.3867977,N,00952.1861864,E,2,10,1.0,-1.746,M,40.593,M,2.8,0123*61\r\n
$GPGGA,082910.25,5703.3867485,N,00952.1861303,E,2,10,1.0,-1.749,M,40.593,M,3.0,0123*68\r\n
$GPGGA,082910.30,5703.3867002,N,00952.1860748,E,2,10,1.0,-1.749,M,40.593,M,3.0,0123*6D\r\n
$GPGGA,082910.35,5703.3866506,N,00952.1860198,E,2,10,1.0,-1.751,M,40.593,M,3.0,0123*6A\r\n
$GPGGA,082910.40,5703.3865992,N,00952.1859646,E,2,10,1.0,-1.753,M,40.593,M,3.0,0123*66\r\n
$GPGGA,082910.45,5703.3865498,N,00952.1859096,E,2,10,1.0,-1.751,M,40.593,M,3.2,0123*6F\r\n
$GPGGA,082910.50,5703.3864997,N,00952.1858551,E,2,10,1.0,-1.753,M,40.593,M,3.2,0123*65\r\n
$GPGGA,082910.55,5703.3864488,N,00952.1858021,E,2,10,1.0,-1.754,M,40.593,M,3.2,0123*66\r\n
$GPGGA,082910.60,5703.3863998,N,00952.1857481,E,2,10,1.0,-1.752,M,40.593,M,3.2,0123*6C\r\n
$GPGGA,082910.65,5703.3863483,N,00952.1856984,E,2,10,1.0,-1.756,M,40.593,M,3.4,0123*65\r\n
$GPGGA,082910.70,5703.3862984,N,00952.1856508,E,2,10,1.0,-1.756,M,40.593,M,3.4,0123*62\r\n
$GPGGA,082910.75,5703.3862462,N,00952.1856036,E,2,10,1.0,-1.756,M,40.593,M,3.4,0123*6A\r\n
$GPGGA,082910.80,5703.3861949,N,00952.1855569,E,2,10,1.0,-1.757,M,40.593,M,3.4,0123*6A\r\n
$GPGGA,082910.85,5703.3861435,N,00952.1855108,E,2,10,1.0,-1.758,M,40.593,M,3.6,0123*67\r\n
$GPGGA,082910.90,5703.3860925,N,00952.1854640,E,2,10,1.0,-1.756,M,40.593,M,3.6,0123*6A\r\n
$GPGGA,082910.95,5703.3860395,N,00952.1854190,E,2,10,1.0,-1.752,M,40.593,M,3.6,0123*60\r\n
$GPGGA,082911.00,5703.3859872,N,00952.1853753,E,2,10,1.0,-1.750,M,40.593,M,3.6,0123*69\r\n
$GPGGA,082911.05,5703.3859364,N,00952.1853312,E,2,10,1.0,-1.747,M,40.593,M,3.8,0123*69\r\n
$GPGGA,082911.10,5703.3858831,N,00952.1852876,E,2,10,1.0,-1.749,M,40.593,M,3.8,0123*61\r\n
$GPGGA,082911.15,5703.3858294,N,00952.1852463,E,2,10,1.0,-1.751,M,40.593,M,3.8,0123*60\r\n
$GPGGA,082911.20,5703.3857764,N,00952.1852064,E,2,10,1.0,-1.750,M,40.593,M,3.8,0123*61\r\n
$GPGGA,082911.25,5703.3857250,N,00952.1851661,E,2,10,1.0,-1.753,M,40.593,M,4.0,0123*6A\r\n
$GPGGA,082911.30,5703.3856709,N,00952.1851281,E,2,10,1.0,-1.749,M,40.593,M,4.0,0123*67\r\n
$GPGGA,082911.35,5703.3856174,N,00952.1850921,E,2,10,1.0,-1.748,M,40.593,M,4.0,0123*6F\r\n
$GPGGA,082911.40,5703.3855655,N,00952.1850560,E,2,10,1.0,-1.747,M,40.593,M,4.0,0123*6C\r\n
$GPGGA,082911.45,5703.3855128,N,00952.1850213,E,2,10,1.0,-1.744,M,40.593,M,2.4,0123*66\r\n
$GPGGA,082911.50,5703.3854590,N,00952.1849874,E,2,10,1.0,-1.743,M,40.593,M,2.4,0123*60\r\n
$GPGGA,082911.55,5703.3854048,N,00952.1849552,E,2,10,1.0,-1.742,M,40.593,M,2.4,0123*6D\r\n
$GPGGA,082911.60,5703.3853507,N,00952.1849242,E,2,10,1.0,-1.741,M,40.593,M,2.4,0123*67\r\n
$GPGGA,082911.65,5703.3852967,N,00952.1848932,E,2,10,1.0,-1.743,M,40.593,M,2.7,0123*65\r\n
$GPGGA,082911.70,5703.3852450,N,00952.1848613,E,2,10,1.0,-1.742,M,40.593,M,2.7,0123*65\r\n
$GPGGA,082911.75,5703.3851909,N,00952.1848318,E,2,10,1.0,-1.741,M,40.593,M,2.7,0123*6F\r\n
$GPGGA,082911.80,5703.3851363,N,00952.1848029,E,2,10,1.0,-1.744,M,40.593,M,2.7,0123*67\r\n
$GPGGA,082911.85,5703.3850804,N,00952.1847755,E,2,10,1.0,-1.742,M,40.593,M,2.9,0123*62\r\n
$GPGGA,082911.90,5703.3850257,N,00952.1847503,E,2,10,1.0,-1.746,M,40.593,M,2.9,0123*6F\r\n
$GPGGA,082911.95,5703.3849705,N,00952.1847258,E,2,10,1.0,-1.746,M,40.593,M,2.9,0123*69\r\n
$GPGGA,082912.00,5703.3849160,N,00952.1847013,E,2,10,1.0,-1.746,M,40.593,M,2.9,0123*6E\r\n
$GPGGA,082912.05,5703.3848598,N,00952.1846772,E,2,10,1.0,-1.747,M,40.593,M,3.2,0123*63\r\n
$GPGGA,082912.10,5703.3848043,N,00952.1846565,E,2,10,1.0,-1.750,M,40.593,M,3.2,0123*66\r\n
$GPGGA,082912.15,5703.3847500,N,00952.1846364,E,2,10,1.0,-1.751,M,40.593,M,3.2,0123*68\r\n
$GPGGA,082912.20,5703.3846952,N,00952.1846187,E,2,10,1.0,-1.756,M,40.593,M,3.2,0123*6C\r\n
$GPGGA,082912.25,5703.3846402,N,00952.1846021,E,2,10,1.0,-1.753,M,40.593,M,3.4,0123*6F\r\n
$GPGGA,082912.30,5703.3845832,N,00952.1845867,E,2,10,1.0,-1.756,M,40.593,M,3.4,0123*6B\r\n
$GPGGA,082912.35,5703.3845268,N,00952.1845720,E,2,10,1.0,-1.759,M,40.593,M,3.4,0123*68\r\n
$GPGGA,082912.40,5703.3844717,N,00952.1845604,E,2,10,1.0,-1.763,M,40.593,M,3.4,0123*68\r\n
$GPGGA,082912.45,5703.3844168,N,00952.1845476,E,2,10,1.0,-1.764,M,40.593,M,2.2,0123*64\r\n
$GPGGA,082912.50,5703.3843596,N,00952.1845358,E,2,10,1.0,-1.766,M,40.593,M,2.2,0123*6B\r\n
$GPGGA,082912.55,5703.3843039,N,00952.1845241,E,2,10,1.0,-1.766,M,40.593,M,2.2,0123*67\r\n
$GPGGA,082912.60,5703.3842465,N,00952.1845153,E,2,10,1.0,-1.768,M,40.593,M,2.2,0123*63\r\n
$GPGGA,082912.65,5703.3841905,N,00952.1845063,E,2,10,1.0,-1.764,M,40.593,M,2.4,0123*66\r\n
$GPGGA,082912.70,5703.3841334,N,00952.1844991,E,2,10,1.0,-1.762,M,40.593,M,2.4,0123*69\r\n
$GPGGA,082912.75,5703.3840776,N,00952.1844921,E,2,10,1.0,-1.761,M,40.593,M,2.4,0123*67\r\n
$GPGGA,082912.80,5703.3840225,N,00952.1844874,E,2,10,1.0,-1.761,M,40.593,M,2.4,0123*6F\r\n
$GPGGA,082912.85,5703.3839672,N,00952.1844832,E,2,10,1.0,-1.757,M,40.593,M,2.7,0123*66\r\n
$GPGGA,082912.90,5703.3839110,N,00952.1844805,E,2,10,1.0,-1.756,M,40.593,M,2.7,0123*64\r\n
$GPGGA,082912.95,5703.3838554,N,00952.1844777,E,2,10,1.0,-1.755,M,40.593,M,2.7,0123*6D\r\n
$GPGGA,082913.00,5703.3837986,N,00952.1844737,E,2,10,1.0,-1.752,M,40.593,M,2.7,0123*6F\r\n
$GPGGA,082913.05,5703.3837419,N,00952.1844702,E,2,10,1.0,-1.750,M,40.593,M,2.9,0123*6B\r\n
$GPGGA,082913.10,5703.3836842,N,00952.1844701,E,2,10,1.0,-1.750,M,40.593,M,2.9,0123*6F\r\n
$GPGGA,082913.15,5703.3836302,N,00952.1844696,E,2,10,1.0,-1.749,M,40.593,M,2.9,0123*62\r\n
$GPGGA,082913.20,5703.3835739,N,00952.1844703,E,2,10,1.0,-1.749,M,40.593,M,2.9,0123*66\r\n
$GPGGA,082913.25,5703.3835174,N,00952.1844702,E,2,10,1.0,-1.742,M,40.593,M,3.1,0123*6F\r\n
$GPGGA,082913.30,5703.3834610,N,00952.1844739,E,2,10,1.0,-1.742,M,40.593,M,3.1,0123*67\r\n
$GPGGA,082913.35,5703.3834040,N,00952.1844788,E,2,10,1.0,-1.743,M,40.593,M,3.1,0123*6A\r\n
$GPGGA,082913.40,5703.3833493,N,00952.1844846,E,2,10,1.0,-1.743,M,40.593,M,3.1,0123*68\r\n
$GPGGA,082913.45,5703.3832965,N,00952.1844904,E,2,10,1.0,-1.732,M,40.593,M,2.1,0123*68\r\n
$GPGGA,082913.50,5703.3832405,N,00952.1844974,E,2,10,1.0,-1.733,M,40.593,M,2.1,0123*61\r\n
$GPGGA,082913.55,5703.3831843,N,00952.1845052,E,2,10,1.0,-1.736,M,40.593,M,2.1,0123*60\r\n
$GPGGA,082913.60,5703.3831306,N,00952.1845144,E,2,10,1.0,-1.737,M,40.593,M,2.1,0123*6B\r\n
$GPGGA,082913.65,5703.3830743,N,00952.1845260,E,2,10,1.0,-1.743,M,40.593,M,2.3,0123*6E\r\n
$GPGGA,082913.70,5703.3830184,N,00952.1845369,E,2,10,1.0,-1.745,M,40.593,M,2.3,0123*69\r\n
$GPGGA,082913.75,5703.3829635,N,00952.1845500,E,2,10,1.0,-1.749,M,40.593,M,2.3,0123*6C\r\n
$GPGGA,082913.80,5703.3829090,N,00952.1845644,E,2,10,1.0,-1.751,M,40.593,M,2.3,0123*65\r\n
$GPGGA,082913.85,5703.3828555,N,00952.1845779,E,2,10,1.0,-1.743,M,40.593,M,2.6,0123*64\r\n
$GPGGA,082913.90,5703.3828018,N,00952.1845947,E,2,10,1.0,-1.746,M,40.593,M,2.6,0123*6A\r\n
$GPGGA,082913.95,5703.3827485,N,00952.1846103,E,2,10,1.0,-1.749,M,40.593,M,2.6,0123*64\r\n
$GPGGA,082914.00,5703.3826947,N,00952.1846291,E,2,10,1.0,-1.752,M,40.593,M,2.6,0123*6F\r\n
$GPGGA,082914.05,5703.3826423,N,00952.1846467,E,2,10,1.0,-1.751,M,40.593,M,2.8,0123*67\r\n
$GPGGA,082914.10,5703.3825904,N,00952.1846666,E,2,10,1.0,-1.754,M,40.593,M,2.8,0123*6E\r\n
$GPGGA,082914.15,5703.3825376,N,00952.1846873,E,2,10,1.0,-1.757,M,40.593,M,2.8,0123*6D\r\n
$GPGGA,082914.20,5703.3824851,N,00952.1847096,E,2,10,1.0,-1.757,M,40.593,M,2.8,0123*66\r\n
$GPGGA,082914.25,5703.3824337,N,00952.1847316,E,2,10,1.0,-1.756,M,40.593,M,3.0,0123*6B\r\n
$GPGGA,082914.30,5703.3823806,N,00952.1847560,E,2,10,1.0,-1.758,M,40.593,M,3.0,0123*68\r\n
$GPGGA,082914.35,5703.3823279,N,00952.1847792,E,2,10,1.0,-1.760,M,40.593,M,3.0,0123*6B\r\n
$GPGGA,082914.40,5703.3822760,N,00952.1848034,E,2,10,1.0,-1.762,M,40.593,M,3.0,0123*63\r\n
$GPGGA,082914.45,5703.3822238,N,00952.1848292,E,2,10,1.0,-1.767,M,40.593,M,3.2,0123*67\r\n
$GPGGA,082914.50,5703.3821717,N,00952.1848555,E,2,10,1.0,-1.770,M,40.593,M,3.2,0123*62\r\n
$GPGGA,082914.55,5703.3821204,N,00952.1848846,E,2,10,1.0,-1.768,M,40.593,M,3.2,0123*66\r\n
$GPGGA,082914.60,5703.3820699,N,00952.1849148,E,2,10,1.0,-1.765,M,40.593,M,3.2,0123*6A\r\n
$GPGGA,082914.65,5703.3820204,N,00952.1849456,E,2,10,1.0,-1.758,M,40.593,M,3.4,0123*6D\r\n
$GPGGA,082914.70,5703.3819706,N,00952.1849760,E,2,10,1.0,-1.758,M,40.593,M,3.4,0123*62\r\n
$GPGGA,082914.75,5703.3819198,N,00952.1850069,E,2,10,1.0,-1.756,M,40.593,M,3.4,0123*6E\r\n
$GPGGA,082914.80,5703.3818694,N,00952.1850386,E,2,10,1.0,-1.753,M,40.593,M,3.4,0123*69\r\n
$GPGGA,082914.85,5703.3818185,N,00952.1850734,E,2,10,1.0,-1.760,M,40.593,M,3.6,0123*64\r\n
$GPGGA,082914.90,5703.3817696,N,00952.1851086,E,2,10,1.0,-1.758,M,40.593,M,3.6,0123*6E\r\n
$GPGGA,082914.95,5703.3817198,N,00952.1851432,E,2,10,1.0,-1.758,M,40.593,M,3.6,0123*69\r\n
$GPGGA,082915.00,5703.3816693,N,00952.1851786,E,2,10,1.0,-1.756,M,40.593,M,3.6,0123*6B\r\n
$GPGGA,082915.05,5703.3816210,N,00952.1852129,E,2,10,1.0,-1.751,M,40.593,M,3.8,0123*68\r\n
$GPGGA,082915.10,5703.3815722,N,00952.1852512,E,2,10,1.0,-1.750,M,40.593,M,3.8,0123*66\r\n
$GPGGA,082915.15,5703.3815224,N,00952.1852906,E,2,10,1.0,-1.750,M,40.593,M,3.8,0123*69\r\n
$GPGGA,082915.20,5703.3814736,N,00952.1853315,E,2,10,1.0,-1.749,M,40.593,M,3.8,0123*69\r\n
$GPGGA,082915.25,5703.3814259,N,00952.1853722,E,2,10,1.0,-1.751,M,40.593,M,4.0,0123*66\r\n
$GPGGA,082915.30,5703.3813791,N,00952.1854148,E,2,10,1.0,-1.751,M,40.593,M,4.0,0123*69\r\n
$GPGGA,082915.35,5703.3813332,N,00952.1854589,E,2,10,1.0,-1.750,M,40.593,M,4.0,0123*69\r\n
$GPGGA,082915.40,5703.3812864,N,00952.1855026,E,2,10,1.0,-1.749,M,40.593,M,4.0,0123*6B\r\n
$GPGGA,082915.45,5703.3812393,N,00952.1855481,E,2,10,1.0,-1.754,M,40.593,M,2.4,0123*6A\r\n
$GPGGA,082915.50,5703.3811928,N,00952.1855931,E,2,10,1.0,-1.755,M,40.593,M,2.4,0123*60\r\n
$GPGGA,082915.55,5703.3811470,N,00952.1856391,E,2,10,1.0,-1.758,M,40.593,M,2.4,0123*6B\r\n
$GPGGA,082915.60,5703.3811001,N,00952.1856854,E,2,10,1.0,-1.758,M,40.593,M,2.4,0123*6D\r\n
$GPGGA,082915.65,5703.3810554,N,00952.1857330,E,2,10,1.0,-1.757,M,40.593,M,2.7,0123*68\r\n
$GPGGA,082915.70,5703.3810094,N,00952.1857818,E,2,10,1.0,-1.758,M,40.593,M,2.7,0123*6B\r\n
$GPGGA,082915.75,5703.3809638,N,00952.1858299,E,2,10,1.0,-1.759,M,40.593,M,2.7,0123*6B\r\n
$GPGGA,082915.80,5703.3809185,N,00952.1858796,E,2,10,1.0,-1.759,M,40.593,M,2.7,0123*6A\r\n
$GPGGA,082915.85,5703.3808730,N,00952.1859307,E,2,10,1.0,-1.768,M,40.593,M,2.9,0123*67\r\n
$GPGGA,082915.90,5703.3808266,N,00952.1859801,E,2,10,1.0,-1.769,M,40.593,M,2.9,0123*69\r\n
$GPGGA,082915.95,5703.3807813,N,00952.1860306,E,2,10,1.0,-1.771,M,40.593,M,2.9,0123*64\r\n
$GPGGA,082916.00,5703.3807371,N,00952.1860835,E,2,10,1.0,-1.770,M,40.593,M,2.9,0123*6E\r\n
$GPGGA,082916.05,5703.3806924,N,00952.1861358,E,2,10,1.0,-1.769,M,40.593,M,3.2,0123*63\r\n
$GPGGA,082916.10,5703.3806484,N,00952.1861889,E,2,10,1.0,-1.769,M,40.593,M,3.2,0123*67\r\n
$GPGGA,082916.15,5703.3806042,N,00952.1862442,E,2,10,1.0,-1.771,M,40.593,M,3.2,0123*6D\r\n
$GPGGA,082916.20,5703.3805613,N,00952.1863002,E,2,10,1.0,-1.770,M,40.593,M,3.2,0123*6A\r\n
$GPGGA,082916.25,5703.3805178,N,00952.1863559,E,2,10,1.0,-1.770,M,40.593,M,3.4,0123*68\r\n
$GPGGA,082916.30,5703.3804745,N,00952.1864107,E,2,10,1.0,-1.766,M,40.593,M,3.4,0123*6A\r\n
$GPGGA,082916.35,5703.3804312,N,00952.1864671,E,2,10,1.0,-1.767,M,40.593,M,3.4,0123*6E\r\n
$GPGGA,082916.40,5703.3803880,N,00952.1865248,E,2,10,1.0,-1.768,M,40.593,M,3.4,0123*6B\r\n
$GPGGA,082916.45,5703.3803451,N,00952.1865833,E,2,10,1.0,-1.772,M,40.593,M,2.2,0123*64\r\n
$GPGGA,082916.50,5703.3803024,N,00952.1866414,E,2,10,1.0,-1.770,M,40.593,M,2.2,0123*6E\r\n
$GPGGA,082916.55,5703.3802597,N,00952.1866995,E,2,10,1.0,-1.768,M,40.593,M,2.2,0123*6A\r\n
$GPGGA,082916.60,5703.3802162,N,00952.1867592,E,2,10,1.0,-1.767,M,40.593,M,2.2,0123*67\r\n
$GPGGA,082916.65,5703.3801751,N,00952.1868182,E,2,10,1.0,-1.765,M,40.593,M,2.4,0123*69\r\n
$GPGGA,082916.70,5703.3801337,N,00952.1868781,E,2,10,1.0,-1.763,M,40.593,M,2.4,0123*6A\r\n
$GPGGA,082916.75,5703.3800920,N,00952.1869384,E,2,10,1.0,-1.764,M,40.593,M,2.4,0123*65\r\n
$GPGGA,082916.80,5703.3800500,N,00952.1869990,E,2,10,1.0,-1.763,M,40.593,M,2.4,0123*69\r\n
$GPGGA,082916.85,5703.3800085,N,00952.1870608,E,2,10,1.0,-1.760,M,40.593,M,2.7,0123*62\r\n
$GPGGA,082916.90,5703.3799669,N,00952.1871243,E,2,10,1.0,-1.759,M,40.593,M,2.7,0123*6D\r\n
$GPGGA,082916.95,5703.3799255,N,00952.1871878,E,2,10,1.0,-1.759,M,40.593,M,2.7,0123*61\r\n
$GPGGA,082917.00,5703.3798858,N,00952.1872518,E,2,10,1.0,-1.758,M,40.593,M,2.7,0123*63\r\n
$GPGGA,082917.05,5703.3798448,N,00952.1873147,E,2,10,1.0,-1.760,M,40.593,M,2.9,0123*61\r\n
$GPGGA,082917.10,5703.3798047,N,00952.1873800,E,2,10,1.0,-1.759,M,40.593,M,2.9,0123*6E\r\n
$GPGGA,082917.15,5703.3797657,N,00952.1874473,E,2,10,1.0,-1.760,M,40.593,M,2.9,0123*66\r\n
$GPGGA,082917.20,5703.3797260,N,00952.1875133,E,2,10,1.0,-1.759,M,40.593,M,2.9,0123*6A\r\n
$GPGGA,082917.25,5703.3796860,N,00952.1875791,E,2,10,1.0,-1.758,M,40.593,M,3.1,0123*62\r\n
$GPGGA,082917.30,5703.3796463,N,00952.1876462,E,2,10,1.0,-1.758,M,40.593,M,3.1,0123*65\r\n
$GPGGA,082917.35,5703.3796074,N,00952.1877134,E,2,10,1.0,-1.760,M,40.593,M,3.1,0123*6E\r\n
$GPGGA,082917.40,5703.3795665,N,00952.1877805,E,2,10,1.0,-1.760,M,40.593,M,3.1,0123*62\r\n
$GPGGA,082917.45,5703.3795271,N,00952.1878480,E,2,10,1.0,-1.763,M,40.593,M,2.1,0123*6A\r\n
$GPGGA,082917.50,5703.3794886,N,00952.1879157,E,2,10,1.0,-1.762,M,40.593,M,2.1,0123*62\r\n
$GPGGA,082917.55,5703.3794488,N,00952.1879842,E,2,10,1.0,-1.761,M,40.593,M,2.1,0123*6B\r\n
$GPGGA,082917.60,5703.3794100,N,00952.1880542,E,2,10,1.0,-1.765,M,40.593,M,2.1,0123*67\r\n
$GPGGA,082917.65,5703.3793724,N,00952.1881236,E,2,10,1.0,-1.764,M,40.593,M,2.3,0123*63\r\n
$GPGGA,082917.70,5703.3793348,N,00952.1881933,E,2,10,1.0,-1.762,M,40.593,M,2.3,0123*61\r\n
$GPGGA,082917.75,5703.3792989,N,00952.1882628,E,2,10,1.0,-1.760,M,40.593,M,2.3,0123*66\r\n
$GPGGA,082917.80,5703.3792593,N,00952.1883324,E,2,10,1.0,-1.760,M,40.593,M,2.3,0123*63\r\n
$GPGGA,082917.85,5703.3792220,N,00952.1884032,E,2,10,1.0,-1.758,M,40.593,M,2.6,0123*64\r\n
$GPGGA,082917.90,5703.3791838,N,00952.1884747,E,2,10,1.0,-1.760,M,40.593,M,2.6,0123*6E\r\n
$GPGGA,082917.95,5703.3791466,N,00952.1885465,E,2,10,1.0,-1.761,M,40.593,M,2.6,0123*6F\r\n
$GPGGA,082918.00,5703.3791095,N,00952.1886181,E,2,10,1.0,-1.761,M,40.593,M,2.6,0123*68\r\n
$GPGGA,082918.05,5703.3790726,N,00952.1886899,E,2,10,1.0,-1.762,M,40.593,M,2.8,0123*6E\r\n
$GPGGA,082918.10,5703.3790351,N,00952.1887626,E,2,10,1.0,-1.762,M,40.593,M,2.8,0123*65\r\n
$GPGGA,082918.15,5703.3789991,N,00952.1888353,E,2,10,1.0,-1.761,M,40.593,M,2.8,0123*65\r\n
$GPGGA,082918.20,5703.3789639,N,00952.1889084,E,2,10,1.0,-1.762,M,40.593,M,2.8,0123*65\r\n
$GPGGA,082918.25,5703.3789280,N,00952.1889827,E,2,10,1.0,-1.764,M,40.593,M,3.0,0123*68\r\n
$GPGGA,082918.30,5703.3788923,N,00952.1890575,E,2,10,1.0,-1.762,M,40.593,M,3.0,0123*6B\r\n
$GPGGA,082918.35,5703.3788567,N,00952.1891307,E,2,10,1.0,-1.761,M,40.593,M,3.0,0123*63\r\n
$GPGGA,082918.40,5703.3788211,N,00952.1892053,E,2,10,1.0,-1.761,M,40.593,M,3.0,0123*66\r\n
$GPGGA,082918.45,5703.3787842,N,00952.1892791,E,2,10,1.0,-1.759,M,40.593,M,0.9,0123*68\r\n
$GPGGA,082918.50,5703.3787470,N,00952.1893532,E,2,10,1.0,-1.759,M,40.593,M,0.9,0123*6B\r\n
$GPGGA,082918.55,5703.3787111,N,00952.1894270,E,2,10,1.0,-1.760,M,40.593,M,0.9,0123*60\r\n
$GPGGA,082918.60,5703.3786760,N,00952.1895031,E,2,10,1.0,-1.760,M,40.593,M,0.9,0123*61\r\n
$GPGGA,082918.65,5703.3786410,N,00952.1895775,E,2,10,1.0,-1.757,M,40.593,M,1.3,0123*68\r\n
$GPGGA,082918.70,5703.3786040,N,00952.1896541,E,2,10,1.0,-1.759,M,40.593,M,1.3,0123*65\r\n
$GPGGA,082918.75,5703.3785688,N,00952.1897309,E,2,10,1.0,-1.760,M,40.593,M,1.3,0123*60\r\n
$GPGGA,082918.80,5703.3785329,N,00952.1898071,E,2,10,1.0,-1.759,M,40.593,M,1.3,0123*6D\r\n
$GPGGA,082918.85,5703.3784979,N,00952.1898832,E,2,10,1.0,-1.761,M,40.593,M,1.6,0123*67\r\n
$GPGGA,082918.90,5703.3784628,N,00952.1899597,E,2,10,1.0,-1.762,M,40.593,M,1.6,0123*68\r\n
$GPGGA,082918.95,5703.3784273,N,00952.1900367,E,2,10,1.0,-1.764,M,40.593,M,1.6,0123*69\r\n
$GPGGA,082919.00,5703.3783925,N,00952.1901136,E,2,10,1.0,-1.765,M,40.593,M,1.6,0123*6D\r\n
$GPGGA,082919.05,5703.3783568,N,00952.1901901,E,2,10,1.0,-1.767,M,40.593,M,1.9,0123*6C\r\n
$GPGGA,082919.10,5703.3783213,N,00952.1902663,E,2,10,1.0,-1.767,M,40.593,M,1.9,0123*6B\r\n
$GPGGA,082919.15,5703.3782854,N,00952.1903424,E,2,10,1.0,-1.769,M,40.593,M,1.9,0123*68\r\n
$GPGGA,082919.20,5703.3782505,N,00952.1904173,E,2,10,1.0,-1.767,M,40.593,M,1.9,0123*69\r\n
$GPGGA,082919.25,5703.3782149,N,00952.1904929,E,2,10,1.0,-1.763,M,40.593,M,2.2,0123*6B\r\n
$GPGGA,082919.30,5703.3781793,N,00952.1905688,E,2,10,1.0,-1.764,M,40.593,M,2.2,0123*6F\r\n
$GPGGA,082919.35,5703.3781431,N,00952.1906464,E,2,10,1.0,-1.763,M,40.593,M,2.2,0123*65\r\n
$GPGGA,082919.40,5703.3781066,N,00952.1907224,E,2,10,1.0,-1.764,M,40.593,M,2.2,0123*65\r\n
$GPGGA,082919.45,5703.3780703,N,00952.1907998,E,2,10,1.0,-1.762,M,40.593,M,0.9,0123*66\r\n
$GPGGA,082919.50,5703.3780358,N,00952.1908778,E,2,10,1.0,-1.764,M,40.593,M,0.9,0123*61\r\n
$GPGGA,082919.55,5703.3780001,N,00952.1909565,E,2,10,1.0,-1.765,M,40.593,M,0.9,0123*65\r\n
$GPGGA,082919.60,5703.3779641,N,00952.1910341,E,2,10,1.0,-1.766,M,40.593,M,0.9,0123*6C\r\n
$GPGGA,082919.65,5703.3779285,N,00952.1911123,E,2,10,1.0,-1.762,M,40.593,M,1.2,0123*6C\r\n
$GPGGA,082919.70,5703.3778924,N,00952.1911890,E,2,10,1.0,-1.763,M,40.593,M,1.2,0123*69\r\n
$GPGGA,082919.75,5703.3778553,N,00952.1912670,E,2,10,1.0,-1.764,M,40.593,M,1.2,0123*64\r\n
$GPGGA,082919.80,5703.3778190,N,00952.1913463,E,2,10,1.0,-1.765,M,40.593,M,1.2,0123*65\r\n
$GPGGA,082919.85,5703.3777832,N,00952.1914231,E,2,10,1.0,-1.768,M,40.593,M,1.5,0123*62\r\n
$GPGGA,082919.90,5703.3777469,N,00952.1915002,E,2,10,1.0,-1.769,M,40.593,M,1.5,0123*66\r\n
$GPGGA,082919.95,5703.3777104,N,00952.1915774,E,2,10,1.0,-1.768,M,40.593,M,1.5,0123*6A\r\n
$GPGGA,082920.00,5703.3776728,N,00952.1916539,E,2,10,1.0,-1.766,M,40.593,M,1.5,0123*63\r\n
$GPGGA,082920.05,5703.3776370,N,00952.1917294,E,2,10,1.0,-1.763,M,40.593,M,1.7,0123*69\r\n
$GPGGA,082920.10,5703.3776003,N,00952.1918063,E,2,10,1.0,-1.762,M,40.593,M,1.7,0123*6E\r\n
$GPGGA,082920.15,5703.3775618,N,00952.1918827,E,2,10,1.0,-1.763,M,40.593,M,1.7,0123*6D\r\n
$GPGGA,082920.20,5703.3775230,N,00952.1919588,E,2,10,1.0,-1.761,M,40.593,M,1.7,0123*6E\r\n
$GPGGA,082920.25,5703.3774850,N,00952.1920349,E,2,10,1.0,-1.762,M,40.593,M,2.0,0123*60\r\n
$GPGGA,082920.30,5703.3774467,N,00952.1921108,E,2,10,1.0,-1.759,M,40.593,M,2.0,0123*62\r\n
$GPGGA,082920.35,5703.3774098,N,00952.1921876,E,2,10,1.0,-1.758,M,40.593,M,2.0,0123*62\r\n
$GPGGA,082920.40,5703.3773722,N,00952.1922643,E,2,10,1.0,-1.754,M,40.593,M,2.0,0123*66\r\n
$GPGGA,082920.45,5703.3773350,N,00952.1923397,E,2,10,1.0,-1.751,M,40.593,M,0.8,0123*60\r\n
$GPGGA,082920.50,5703.3772981,N,00952.1924151,E,2,10,1.0,-1.752,M,40.593,M,0.8,0123*6F\r\n
$GPGGA,082920.55,5703.3772587,N,00952.1924908,E,2,10,1.0,-1.752,M,40.593,M,0.8,0123*64\r\n
$GPGGA,082920.60,5703.3772196,N,00952.1925682,E,2,10,1.0,-1.754,M,40.593,M,0.8,0123*6C\r\n
$GPGGA,082920.65,5703.3771805,N,00952.1926446,E,2,10,1.0,-1.755,M,40.593,M,1.1,0123*69\r\n
$GPGGA,082920.70,5703.3771420,N,00952.1927206,E,2,10,1.0,-1.754,M,40.593,M,1.1,0123*64\r\n
$GPGGA,082920.75,5703.3771045,N,00952.1927963,E,2,10,1.0,-1.754,M,40.593,M,1.1,0123*6E\r\n
$GPGGA,082920.80,5703.3770643,N,00952.1928725,E,2,10,1.0,-1.758,M,40.593,M,1.1,0123*6A\r\n
$GPGGA,082920.85,5703.3770255,N,00952.1929477,E,2,10,1.0,-1.758,M,40.593,M,1.4,0123*6C\r\n
$GPGGA,082920.90,5703.3769856,N,00952.1930235,E,2,10,1.0,-1.759,M,40.593,M,1.4,0123*60\r\n
$GPGGA,082920.95,5703.3769458,N,00952.1930981,E,2,10,1.0,-1.762,M,40.593,M,1.4,0123*6B\r\n
$GPGGA,082921.00,5703.3769054,N,00952.1931729,E,2,10,1.0,-1.764,M,40.593,M,1.4,0123*65\r\n
$GPGGA,082921.05,5703.3768660,N,00952.1932467,E,2,10,1.0,-1.763,M,40.593,M,1.6,0123*6F\r\n
$GPGGA,082921.10,5703.3768256,N,00952.1933205,E,2,10,1.0,-1.765,M,40.593,M,1.6,0123*6F\r\n
$GPGGA,082921.15,5703.3767865,N,00952.1933939,E,2,10,1.0,-1.768,M,40.593,M,1.6,0123*66\r\n
$GPGGA,082921.20,5703.3767461,N,00952.1934676,E,2,10,1.0,-1.772,M,40.593,M,1.6,0123*60\r\n
$GPGGA,082921.25,5703.3767068,N,00952.1935409,E,2,10,1.0,-1.773,M,40.593,M,1.9,0123*6D\r\n
$GPGGA,082921.30,5703.3766662,N,00952.1936154,E,2,10,1.0,-1.775,M,40.593,M,1.9,0123*6C\r\n
$GPGGA,082921.35,5703.3766256,N,00952.1936877,E,2,10,1.0,-1.776,M,40.593,M,1.9,0123*61\r\n
$GPGGA,082921.40,5703.3765852,N,00952.1937606,E,2,10,1.0,-1.777,M,40.593,M,1.9,0123*66\r\n
$GPGGA,082921.45,5703.3765466,N,00952.1938325,E,2,10,1.0,-1.772,M,40.593,M,2.1,0123*6D\r\n
$GPGGA,082921.50,5703.3765069,N,00952.1939049,E,2,10,1.0,-1.772,M,40.593,M,2.1,0123*6A\r\n
$GPGGA,082921.55,5703.3764656,N,00952.1939774,E,2,10,1.0,-1.773,M,40.593,M,2.1,0123*6C\r\n
$GPGGA,082921.60,5703.3764246,N,00952.1940514,E,2,10,1.0,-1.774,M,40.593,M,2.1,0123*62\r\n
$GPGGA,082921.65,5703.3763848,N,00952.1941237,E,2,10,1.0,-1.771,M,40.593,M,2.3,0123*64\r\n
$GPGGA,082921.70,5703.3763436,N,00952.1941948,E,2,10,1.0,-1.769,M,40.593,M,2.3,0123*6F\r\n
$GPGGA,082921.75,5703.3763022,N,00952.1942650,E,2,10,1.0,-1.768,M,40.593,M,2.3,0123*6F\r\n
$GPGGA,082921.80,5703.3762606,N,00952.1943356,E,2,10,1.0,-1.767,M,40.593,M,2.3,0123*69\r\n
$GPGGA,082921.85,5703.3762188,N,00952.1944064,E,2,10,1.0,-1.764,M,40.593,M,2.6,0123*6E\r\n
$GPGGA,082921.90,5703.3761762,N,00952.1944774,E,2,10,1.0,-1.766,M,40.593,M,2.6,0123*6F\r\n
$GPGGA,082921.95,5703.3761350,N,00952.1945494,E,2,10,1.0,-1.767,M,40.593,M,2.6,0123*62\r\n
$GPGGA,082922.00,5703.3760927,N,00952.1946213,E,2,10,1.0,-1.768,M,40.593,M,2.6,0123*63\r\n
$GPGGA,082922.05,5703.3760502,N,00952.1946930,E,2,10,1.0,-1.772,M,40.593,M,2.8,0123*62\r\n
$GPGGA,082922.10,5703.3760085,N,00952.1947645,E,2,10,1.0,-1.776,M,40.593,M,2.8,0123*64\r\n
$GPGGA,082922.15,5703.3759671,N,00952.1948370,E,2,10,1.0,-1.776,M,40.593,M,2.8,0123*6A\r\n
$GPGGA,082922.20,5703.3759249,N,00952.1949090,E,2,10,1.0,-1.778,M,40.593,M,2.8,0123*61\r\n
$GPGGA,082922.25,5703.3758830,N,00952.1949806,E,2,10,1.0,-1.775,M,40.593,M,3.0,0123*62\r\n
$GPGGA,082922.30,5703.3758409,N,00952.1950528,E,2,10,1.0,-1.776,M,40.593,M,3.0,0123*6A\r\n
$GPGGA,082922.35,5703.3757980,N,00952.1951258,E,2,10,1.0,-1.775,M,40.593,M,3.0,0123*6E\r\n
$GPGGA,082922.40,5703.3757548,N,00952.1951976,E,2,10,1.0,-1.775,M,40.593,M,3.0,0123*63\r\n
$GPGGA,082922.45,5703.3757114,N,00952.1952686,E,2,10,1.0,-1.777,M,40.593,M,3.2,0123*68\r\n
$GPGGA,082922.50,5703.3756694,N,00952.1953386,E,2,10,1.0,-1.776,M,40.593,M,3.2,0123*67\r\n
$GPGGA,082922.55,5703.3756266,N,00952.1954091,E,2,10,1.0,-1.776,M,40.593,M,3.2,0123*69\r\n
$GPGGA,082922.60,5703.3755832,N,00952.1954797,E,2,10,1.0,-1.775,M,40.593,M,3.2,0123*65\r\n
$GPGGA,082922.65,5703.3755398,N,00952.1955493,E,2,10,1.0,-1.768,M,40.593,M,3.4,0123*67\r\n
$GPGGA,082922.70,5703.3754965,N,00952.1956185,E,2,10,1.0,-1.765,M,40.593,M,3.4,0123*66\r\n
$GPGGA,082922.75,5703.3754550,N,00952.1956888,E,2,10,1.0,-1.764,M,40.593,M,3.4,0123*6C\r\n
$GPGGA,082922.80,5703.3754114,N,00952.1957582,E,2,10,1.0,-1.763,M,40.593,M,3.4,0123*63\r\n
$GPGGA,082922.85,5703.3753678,N,00952.1958296,E,2,10,1.0,-1.765,M,40.593,M,3.6,0123*65\r\n
$GPGGA,082922.90,5703.3753247,N,00952.1959005,E,2,10,1.0,-1.766,M,40.593,M,3.6,0123*63\r\n
$GPGGA,082922.95,5703.3752816,N,00952.1959715,E,2,10,1.0,-1.764,M,40.593,M,3.6,0123*6D\r\n
$GPGGA,082923.00,5703.3752379,N,00952.1960418,E,2,10,1.0,-1.765,M,40.593,M,3.6,0123*67\r\n
$GPGGA,082923.05,5703.3751954,N,00952.1961123,E,2,10,1.0,-1.767,M,40.593,M,3.8,0123*64\r\n
$GPGGA,082923.10,5703.3751519,N,00952.1961832,E,2,10,1.0,-1.769,M,40.593,M,3.8,0123*62\r\n
$GPGGA,082923.15,5703.3751075,N,00952.1962557,E,2,10,1.0,-1.771,M,40.593,M,3.8,0123*6C\r\n
$GPGGA,082923.20,5703.3750644,N,00952.1963276,E,2,10,1.0,-1.773,M,40.593,M,3.8,0123*68\r\n
$GPGGA,082923.25,5703.3750204,N,00952.1963984,E,2,10,1.0,-1.779,M,40.593,M,4.0,0123*6E\r\n
$GPGGA,082923.30,5703.3749783,N,00952.1964699,E,2,10,1.0,-1.781,M,40.593,M,4.0,0123*6B\r\n
$GPGGA,082923.35,5703.3749336,N,00952.1965412,E,2,10,1.0,-1.779,M,40.593,M,4.0,0123*63\r\n
$GPGGA,082923.40,5703.3748903,N,00952.1966123,E,2,10,1.0,-1.779,M,40.593,M,4.0,0123*68\r\n
$GPGGA,082923.45,5703.3748471,N,00952.1966848,E,2,10,1.0,-1.784,M,40.593,M,2.4,0123*61\r\n
$GPGGA,082923.50,5703.3748034,N,00952.1967559,E,2,10,1.0,-1.784,M,40.593,M,2.4,0123*6C\r\n
$GPGGA,082923.55,5703.3747594,N,00952.1968252,E,2,10,1.0,-1.782,M,40.593,M,2.4,0123*6C\r\n
$GPGGA,082923.60,5703.3747164,N,00952.1968959,E,2,10,1.0,-1.780,M,40.593,M,2.4,0123*63\r\n
$GPGGA,082923.65,5703.3746737,N,00952.1969671,E,2,10,1.0,-1.778,M,40.593,M,2.7,0123*67\r\n
$GPGGA,082923.70,5703.3746308,N,00952.1970380,E,2,10,1.0,-1.775,M,40.593,M,2.7,0123*65\r\n
$GPGGA,082923.75,5703.3745872,N,00952.1971094,E,2,10,1.0,-1.771,M,40.593,M,2.7,0123*66\r\n
$GPGGA,082923.80,5703.3745448,N,00952.1971812,E,2,10,1.0,-1.769,M,40.593,M,2.7,0123*66\r\n
$GPGGA,082923.85,5703.3745031,N,00952.1972535,E,2,10,1.0,-1.769,M,40.593,M,2.9,0123*6C\r\n
$GPGGA,082923.90,5703.3744605,N,00952.1973263,E,2,10,1.0,-1.766,M,40.593,M,2.9,0123*62\r\n
$GPGGA,082923.95,5703.3744183,N,00952.1973987,E,2,10,1.0,-1.764,M,40.593,M,2.9,0123*6D\r\n
$GPGGA,082924.00,5703.3743770,N,00952.1974710,E,2,10,1.0,-1.764,M,40.593,M,2.9,0123*6C\r\n
$GPGGA,082924.05,5703.3743334,N,00952.1975434,E,2,10,1.0,-1.769,M,40.593,M,3.2,0123*6E\r\n
$GPGGA,082924.10,5703.3742899,N,00952.1976159,E,2,10,1.0,-1.766,M,40.593,M,3.2,0123*65\r\n
$GPGGA,082924.15,5703.3742493,N,00952.1976879,E,2,10,1.0,-1.764,M,40.593,M,3.2,0123*6F\r\n
$GPGGA,082924.20,5703.3742066,N,00952.1977597,E,2,10,1.0,-1.764,M,40.593,M,3.2,0123*6B\r\n
$GPGGA,082924.25,5703.3741666,N,00952.1978332,E,2,10,1.0,-1.766,M,40.593,M,2.0,0123*6C\r\n
$GPGGA,082924.30,5703.3741255,N,00952.1979063,E,2,10,1.0,-1.765,M,40.593,M,2.0,0123*69\r\n
$GPGGA,082924.35,5703.3740835,N,00952.1979803,E,2,10,1.0,-1.763,M,40.593,M,2.0,0123*69\r\n
$GPGGA,082924.40,5703.3740437,N,00952.1980532,E,2,10,1.0,-1.763,M,40.593,M,2.0,0123*6C\r\n
$GPGGA,082924.45,5703.3740025,N,00952.1981258,E,2,10,1.0,-1.764,M,40.593,M,2.2,0123*61\r\n
$GPGGA,082924.50,5703.3739633,N,00952.1981987,E,2,10,1.0,-1.766,M,40.593,M,2.2,0123*61\r\n
$GPGGA,082924.55,5703.3739236,N,00952.1982727,E,2,10,1.0,-1.764,M,40.593,M,2.2,0123*60\r\n
$GPGGA,082924.60,5703.3738841,N,00952.1983470,E,2,10,1.0,-1.763,M,40.593,M,2.2,0123*6A\r\n
$GPGGA,082924.65,5703.3738457,N,00952.1984214,E,2,10,1.0,-1.763,M,40.593,M,2.4,0123*61\r\n
$GPGGA,082924.70,5703.3738071,N,00952.1984947,E,2,10,1.0,-1.765,M,40.593,M,2.4,0123*6E\r\n
$GPGGA,082924.75,5703.3737683,N,00952.1985681,E,2,10,1.0,-1.765,M,40.593,M,2.4,0123*6B\r\n
$GPGGA,082924.80,5703.3737296,N,00952.1986423,E,2,10,1.0,-1.765,M,40.593,M,2.4,0123*68\r\n
$GPGGA,082924.85,5703.3736918,N,00952.1987167,E,2,10,1.0,-1.768,M,40.593,M,2.7,0123*6B\r\n
$GPGGA,082924.90,5703.3736536,N,00952.1987920,E,2,10,1.0,-1.770,M,40.593,M,2.7,0123*6D\r\n
$GPGGA,082924.95,5703.3736159,N,00952.1988671,E,2,10,1.0,-1.772,M,40.593,M,2.7,0123*63\r\n
$GPGGA,082925.00,5703.3735798,N,00952.1989422,E,2,10,1.0,-1.772,M,40.593,M,2.7,0123*63\r\n
$GPGGA,082925.05,5703.3735428,N,00952.1990166,E,2,10,1.0,-1.772,M,40.593,M,2.9,0123*6D\r\n
$GPGGA,082925.10,5703.3735071,N,00952.1990907,E,2,10,1.0,-1.767,M,40.593,M,2.9,0123*6A\r\n
$GPGGA,082925.15,5703.3734718,N,00952.1991664,E,2,10,1.0,-1.767,M,40.593,M,2.9,0123*6D\r\n
$GPGGA,082925.20,5703.3734359,N,00952.1992410,E,2,10,1.0,-1.762,M,40.593,M,2.9,0123*6D\r\n
$GPGGA,082925.25,5703.3733980,N,00952.1993163,E,2,10,1.0,-1.765,M,40.593,M,1.9,0123*65\r\n
$GPGGA,082925.30,5703.3733625,N,00952.1993937,E,2,10,1.0,-1.766,M,40.593,M,1.9,0123*6B\r\n
$GPGGA,082925.35,5703.3733282,N,00952.1994708,E,2,10,1.0,-1.766,M,40.593,M,1.9,0123*62\r\n
$GPGGA,082925.40,5703.3732943,N,00952.1995456,E,2,10,1.0,-1.763,M,40.593,M,1.9,0123*6B\r\n
$GPGGA,082925.45,5703.3732600,N,00952.1996227,E,2,10,1.0,-1.763,M,40.593,M,2.1,0123*6E\r\n
$GPGGA,082925.50,5703.3732245,N,00952.1996995,E,2,10,1.0,-1.764,M,40.593,M,2.1,0123*6A\r\n
$GPGGA,082925.55,5703.3731928,N,00952.1997772,E,2,10,1.0,-1.766,M,40.593,M,2.1,0123*68\r\n
$GPGGA,082925.60,5703.3731596,N,00952.1998544,E,2,10,1.0,-1.763,M,40.593,M,2.1,0123*6A\r\n
$GPGGA,082925.65,5703.3731266,N,00952.1999334,E,2,10,1.0,-1.771,M,40.593,M,2.3,0123*66\r\n
$GPGGA,082925.70,5703.3730948,N,00952.2000131,E,2,10,1.0,-1.770,M,40.593,M,2.3,0123*68\r\n
$GPGGA,082925.75,5703.3730641,N,00952.2000927,E,2,10,1.0,-1.771,M,40.593,M,2.3,0123*65\r\n
$GPGGA,082925.80,5703.3730338,N,00952.2001732,E,2,10,1.0,-1.769,M,40.593,M,2.3,0123*66\r\n
$GPGGA,082925.85,5703.3730035,N,00952.2002540,E,2,10,1.0,-1.775,M,40.593,M,2.6,0123*61\r\n
$GPGGA,082925.90,5703.3729736,N,00952.2003332,E,2,10,1.0,-1.775,M,40.593,M,2.6,0123*6B\r\n
$GPGGA,082925.95,5703.3729448,N,00952.2004129,E,2,10,1.0,-1.774,M,40.593,M,2.6,0123*6A\r\n
$GPGGA,082926.00,5703.3729152,N,00952.2004929,E,2,10,1.0,-1.770,M,40.593,M,2.6,0123*67\r\n
$GPGGA,082926.05,5703.3728845,N,00952.2005731,E,2,10,1.0,-1.772,M,40.593,M,2.8,0123*66\r\n
$GPGGA,082926.10,5703.3728553,N,00952.2006527,E,2,10,1.0,-1.771,M,40.593,M,2.8,0123*6D\r\n
$GPGGA,082926.15,5703.3728279,N,00952.2007326,E,2,10,1.0,-1.767,M,40.593,M,2.8,0123*66\r\n
$GPGGA,082926.20,5703.3728021,N,00952.2008133,E,2,10,1.0,-1.764,M,40.593,M,2.8,0123*65\r\n
$GPGGA,082926.25,5703.3727740,N,00952.2008944,E,2,10,1.0,-1.768,M,40.593,M,3.0,0123*62\r\n
