$GPGGA,100205.00,5703.4405855,N,00952.4114960,E,2,11,0.8,-1.729,M,40.593,M,1.7,0123*6F\r\n
$GPGGA,100205.05,5703.4405733,N,00952.4114801,E,2,11,0.8,-1.731,M,40.593,M,1.9,0123*64\r\n
$GPGGA,100205.10,5703.4405631,N,00952.4114655,E,2,11,0.8,-1.730,M,40.593,M,1.9,0123*6D\r\n
$GPGGA,100205.15,5703.4405525,N,00952.4114513,E,2,11,0.8,-1.732,M,40.593,M,1.9,0123*6D\r\n
$GPGGA,100205.20,5703.4405423,N,00952.4114368,E,2,11,0.8,-1.733,M,40.593,M,1.9,0123*67\r\n
$GPGGA,100205.25,5703.4405322,N,00952.4114201,E,2,11,0.8,-1.736,M,40.593,M,2.2,0123*67\r\n
$GPGGA,100205.30,5703.4405225,N,00952.4114044,E,2,11,0.8,-1.739,M,40.593,M,2.2,0123*69\r\n
$GPGGA,100205.35,5703.4405117,N,00952.4113895,E,2,11,0.8,-1.739,M,40.593,M,2.2,0123*6D\r\n
$GPGGA,100205.40,5703.4405011,N,00952.4113737,E,2,11,0.8,-1.742,M,40.593,M,2.2,0123*63\r\n
$GPGGA,100205.45,5703.4404905,N,00952.4113595,E,2,11,0.8,-1.744,M,40.593,M,2.4,0123*61\r\n
$GPGGA,100205.50,5703.4404797,N,00952.4113448,E,2,11,0.8,-1.747,M,40.593,M,2.4,0123*62\r\n
$GPGGA,100205.55,5703.4404695,N,00952.4113296,E,2,11,0.8,-1.749,M,40.593,M,2.4,0123*6F\r\n
$GPGGA,100205.60,5703.4404596,N,00952.4113155,E,2,11,0.8,-1.746,M,40.593,M,2.4,0123*6A\r\n
$GPGGA,100205.65,5703.4404488,N,00952.4113020,E,2,11,0.8,-1.745,M,40.593,M,2.6,0123*63\r\n
$GPGGA,100205.70,5703.4404387,N,00952.4112865,E,2,11,0.8,-1.746,M,40.593,M,2.6,0123*64\r\n
$GPGGA,100205.75,5703.4404289,N,00952.4112720,E,2,11,0.8,-1.746,M,40.593,M,2.6,0123*60\r\n
$GPGGA,100205.80,5703.4404185,N,00952.4112572,E,2,11,0.8,-1.747,M,40.593,M,2.6,0123*61\r\n
$GPGGA,100205.85,5703.4404087,N,00952.4112419,E,2,11,0.8,-1.749,M,40.593,M,2.9,0123*6A\r\n
$GPGGA,100205.90,5703.4403976,N,00952.4112276,E,2,11,0.8,-1.749,M,40.593,M,2.9,0123*61\r\n
$GPGGA,100205.95,5703.4403875,N,00952.4112126,E,2,11,0.8,-1.752,M,40.593,M,2.9,0123*6A\r\n
$GPGGA,100206.00,5703.4403773,N,00952.4111971,E,2,11,0.8,-1.751,M,40.593,M,2.9,0123*66\r\n
$GPGGA,100206.05,5703.4403669,N,00952.4111799,E,2,11,0.8,-1.750,M,40.593,M,3.1,0123*69\r\n
$GPGGA,100206.10,5703.4403570,N,00952.4111637,E,2,11,0.8,-1.748,M,40.593,M,3.1,0123*6A\r\n
$GPGGA,100206.15,5703.4403468,N,00952.4111502,E,2,11,0.8,-1.746,M,40.593,M,3.1,0123*6C\r\n
$GPGGA,100206.20,5703.4403357,N,00952.4111352,E,2,11,0.8,-1.746,M,40.593,M,3.1,0123*62\r\n
$GPGGA,100206.25,5703.4403266,N,00952.4111202,E,2,11,0.8,-1.745,M,40.593,M,3.3,0123*61\r\n
$GPGGA,100206.30,5703.4403153,N,00952.4111041,E,2,11,0.8,-1.746,M,40.593,M,3.3,0123*66\r\n
$GPGGA,100206.35,5703.4403051,N,00952.4110885,E,2,11,0.8,-1.745,M,40.593,M,3.3,0123*62\r\n
$GPGGA,100206.40,5703.4402954,N,00952.4110729,E,2,11,0.8,-1.744,M,40.593,M,3.3,0123*65\r\n
$GPGGA,100206.45,5703.4402850,N,00952.4110563,E,2,11,0.8,-1.745,M,40.593,M,0.7,0123*6F\r\n
$GPGGA,100206.50,5703.4402747,N,00952.4110409,E,2,11,0.8,-1.745,M,40.593,M,0.7,0123*6F\r\n
$GPGGA,100206.55,5703.4402653,N,00952.4110246,E,2,11,0.8,-1.744,M,40.593,M,0.7,0123*62\r\n
$GPGGA,100206.60,5703.4402550,N,00952.4110089,E,2,11,0.8,-1.742,M,40.593,M,0.7,0123*63\r\n
$GPGGA,100206.65,5703.4402455,N,00952.4109920,E,2,11,0.8,-1.745,M,40.593,M,1.0,0123*61\r\n
$GPGGA,100206.70,5703.4402362,N,00952.4109757,E,2,11,0.8,-1.744,M,40.593,M,1.0,0123*69\r\n
$GPGGA,100206.75,5703.4402258,N,00952.4109600,E,2,11,0.8,-1.744,M,40.593,M,1.0,0123*67\r\n
$GPGGA,100206.80,5703.4402151,N,00952.4109453,E,2,11,0.8,-1.742,M,40.593,M,1.0,0123*65\r\n
$GPGGA,100206.85,5703.4402048,N,00952.4109294,E,2,11,0.8,-1.742,M,40.593,M,1.3,0123*67\r\n
$GPGGA,100206.90,5703.4401941,N,00952.4109115,E,2,11,0.8,-1.744,M,40.593,M,1.3,0123*6C\r\n
$GPGGA,100206.95,5703.4401850,N,00952.4108940,E,2,11,0.8,-1.743,M,40.593,M,1.3,0123*66\r\n
$GPGGA,100207.00,5703.4401752,N,00952.4108768,E,2,11,0.8,-1.742,M,40.593,M,1.3,0123*63\r\n
$GPGGA,100207.05,5703.4401651,N,00952.4108599,E,2,11,0.8,-1.744,M,40.593,M,1.6,0123*6B\r\n
$GPGGA,100207.10,5703.4401549,N,00952.4108450,E,2,11,0.8,-1.745,M,40.593,M,1.6,0123*60\r\n
$GPGGA,100207.15,5703.4401448,N,00952.4108292,E,2,11,0.8,-1.744,M,40.593,M,1.6,0123*6C\r\n
$GPGGA,100207.20,5703.4401352,N,00952.4108122,E,2,11,0.8,-1.744,M,40.593,M,1.6,0123*6E\r\n
$GPGGA,100207.25,5703.4401262,N,00952.4107954,E,2,11,0.8,-1.743,M,40.593,M,1.8,0123*66\r\n
$GPGGA,100207.30,5703.4401173,N,00952.4107784,E,2,11,0.8,-1.742,M,40.593,M,1.8,0123*63\r\n
$GPGGA,100207.35,5703.4401073,N,00952.4107629,E,2,11,0.8,-1.743,M,40.593,M,1.8,0123*60\r\n
$GPGGA,100207.40,5703.4400968,N,00952.4107470,E,2,11,0.8,-1.746,M,40.593,M,1.8,0123*6B\r\n
$GPGGA,100207.45,5703.4400873,N,00952.4107310,E,2,11,0.8,-1.742,M,40.593,M,2.1,0123*6A\r\n
$GPGGA,100207.50,5703.4400783,N,00952.4107139,E,2,11,0.8,-1.740,M,40.593,M,2.1,0123*65\r\n
$GPGGA,100207.55,5703.4400688,N,00952.4106974,E,2,11,0.8,-1.738,M,40.593,M,2.1,0123*65\r\n
$GPGGA,100207.60,5703.4400596,N,00952.4106808,E,2,11,0.8,-1.737,M,40.593,M,2.1,0123*6A\r\n
$GPGGA,100207.65,5703.4400504,N,00952.4106647,E,2,11,0.8,-1.740,M,40.593,M,2.3,0123*63\r\n
$GPGGA,100207.70,5703.4400408,N,00952.4106486,E,2,11,0.8,-1.739,M,40.593,M,2.3,0123*6B\r\n
$GPGGA,100207.75,5703.4400310,N,00952.4106319,E,2,11,0.8,-1.741,M,40.593,M,2.3,0123*6E\r\n
$GPGGA,100207.80,5703.4400220,N,00952.4106150,E,2,11,0.8,-1.742,M,40.593,M,2.3,0123*6A\r\n
$GPGGA,100207.85,5703.4400124,N,00952.4105995,E,2,11,0.8,-1.742,M,40.593,M,2.5,0123*6C\r\n
$GPGGA,100207.90,5703.4400030,N,00952.4105834,E,2,11,0.8,-1.741,M,40.593,M,2.5,0123*65\r\n
$GPGGA,100207.95,5703.4399945,N,00952.4105653,E,2,11,0.8,-1.741,M,40.593,M,2.5,0123*63\r\n
$GPGGA,100208.00,5703.4399861,N,00952.4105490,E,2,11,0.8,-1.741,M,40.593,M,2.5,0123*6A\r\n
$GPGGA,100208.05,5703.4399763,N,00952.4105306,E,2,11,0.8,-1.748,M,40.593,M,2.8,0123*6E\r\n
$GPGGA,100208.10,5703.4399674,N,00952.4105129,E,2,11,0.8,-1.750,M,40.593,M,2.8,0123*6B\r\n
$GPGGA,100208.15,5703.4399576,N,00952.4104962,E,2,11,0.8,-1.750,M,40.593,M,2.8,0123*69\r\n
$GPGGA,100208.20,5703.4399491,N,00952.4104795,E,2,11,0.8,-1.749,M,40.593,M,2.8,0123*69\r\n
$GPGGA,100208.25,5703.4399408,N,00952.4104634,E,2,11,0.8,-1.746,M,40.593,M,3.0,0123*60\r\n
$GPGGA,100208.30,5703.4399325,N,00952.4104463,E,2,11,0.8,-1.750,M,40.593,M,3.0,0123*6B\r\n
$GPGGA,100208.35,5703.4399233,N,00952.4104293,E,2,11,0.8,-1.752,M,40.593,M,3.0,0123*63\r\n
$GPGGA,100208.40,5703.4399148,N,00952.4104124,E,2,11,0.8,-1.752,M,40.593,M,3.0,0123*61\r\n
$GPGGA,100208.45,5703.4399059,N,00952.4103946,E,2,11,0.8,-1.752,M,40.593,M,2.1,0123*6E\r\n
$GPGGA,100208.50,5703.4398965,N,00952.4103780,E,2,11,0.8,-1.753,M,40.593,M,2.1,0123*68\r\n
$GPGGA,100208.55,5703.4398887,N,00952.4103599,E,2,11,0.8,-1.754,M,40.593,M,2.1,0123*6D\r\n
$GPGGA,100208.60,5703.4398795,N,00952.4103426,E,2,11,0.8,-1.758,M,40.593,M,2.1,0123*6E\r\n
$GPGGA,100208.65,5703.4398706,N,00952.4103263,E,2,11,0.8,-1.761,M,40.593,M,2.4,0123*69\r\n
$GPGGA,100208.70,5703.4398615,N,00952.4103088,E,2,11,0.8,-1.762,M,40.593,M,2.4,0123*6A\r\n
$GPGGA,100208.75,5703.4398525,N,00952.4102910,E,2,11,0.8,-1.762,M,40.593,M,2.4,0123*66\r\n
$GPGGA,100208.80,5703.4398436,N,00952.4102734,E,2,11,0.8,-1.762,M,40.593,M,2.4,0123*67\r\n
$GPGGA,100208.85,5703.4398349,N,00952.4102574,E,2,11,0.8,-1.760,M,40.593,M,2.6,0123*6B\r\n
$GPGGA,100208.90,5703.4398254,N,00952.4102405,E,2,11,0.8,-1.759,M,40.593,M,2.6,0123*6F\r\n
$GPGGA,100208.95,5703.4398165,N,00952.4102237,E,2,11,0.8,-1.759,M,40.593,M,2.6,0123*6C\r\n
$GPGGA,100209.00,5703.4398075,N,00952.4102073,E,2,11,0.8,-1.757,M,40.593,M,2.6,0123*6D\r\n
$GPGGA,100209.05,5703.4397976,N,00952.4101885,E,2,11,0.8,-1.761,M,40.593,M,2.8,0123*64\r\n
$GPGGA,100209.10,5703.4397885,N,00952.4101696,E,2,11,0.8,-1.759,M,40.593,M,2.8,0123*6A\r\n
$GPGGA,100209.15,5703.4397791,N,00952.4101513,E,2,11,0.8,-1.759,M,40.593,M,2.8,0123*6B\r\n
$GPGGA,100209.20,5703.4397698,N,00952.4101342,E,2,11,0.8,-1.756,M,40.593,M,2.8,0123*68\r\n
$GPGGA,100209.25,5703.4397602,N,00952.4101177,E,2,11,0.8,-1.754,M,40.593,M,3.0,0123*61\r\n
$GPGGA,100209.30,5703.4397511,N,00952.4101012,E,2,11,0.8,-1.753,M,40.593,M,3.0,0123*61\r\n
$GPGGA,100209.35,5703.4397413,N,00952.4100836,E,2,11,0.8,-1.753,M,40.593,M,3.0,0123*68\r\n
$GPGGA,100209.40,5703.4397321,N,00952.4100664,E,2,11,0.8,-1.754,M,40.593,M,3.0,0123*62\r\n
$GPGGA,100209.45,5703.4397223,N,00952.4100485,E,2,11,0.8,-1.754,M,40.593,M,2.4,0123*6C\r\n
$GPGGA,100209.50,5703.4397131,N,00952.4100317,E,2,11,0.8,-1.748,M,40.593,M,2.4,0123*69\r\n
$GPGGA,100209.55,5703.4397030,N,00952.4100142,E,2,11,0.8,-1.746,M,40.593,M,2.4,0123*60\r\n
$GPGGA,100209.60,5703.4396933,N,00952.4099961,E,2,11,0.8,-1.747,M,40.593,M,2.4,0123*64\r\n
$GPGGA,100209.65,5703.4396835,N,00952.4099783,E,2,11,0.8,-1.747,M,40.593,M,2.6,0123*66\r\n
$GPGGA,100209.70,5703.4396738,N,00952.4099617,E,2,11,0.8,-1.747,M,40.593,M,2.6,0123*6C\r\n
$GPGGA,100209.75,5703.4396648,N,00952.4099442,E,2,11,0.8,-1.744,M,40.593,M,2.6,0123*6E\r\n
$GPGGA,100209.80,5703.4396548,N,00952.4099264,E,2,11,0.8,-1.741,M,40.593,M,2.6,0123*60\r\n
$GPGGA,100209.85,5703.4396457,N,00952.4099093,E,2,11,0.8,-1.738,M,40.593,M,2.9,0123*61\r\n
$GPGGA,100209.90,5703.4396365,N,00952.4098917,E,2,11,0.8,-1.739,M,40.593,M,2.9,0123*66\r\n
$GPGGA,100209.95,5703.4396274,N,00952.4098743,E,2,11,0.8,-1.739,M,40.593,M,2.9,0123*6D\r\n
$GPGGA,100210.00,5703.4396183,N,00952.4098549,E,2,11,0.8,-1.740,M,40.593,M,2.9,0123*64\r\n
$GPGGA,100210.05,5703.4396069,N,00952.4098343,E,2,11,0.8,-1.745,M,40.593,M,3.1,0123*64\r\n
$GPGGA,100210.10,5703.4395984,N,00952.4098163,E,2,11,0.8,-1.745,M,40.593,M,3.1,0123*69\r\n
$GPGGA,100210.15,5703.4395901,N,00952.4097998,E,2,11,0.8,-1.745,M,40.593,M,3.1,0123*62\r\n
$GPGGA,100210.20,5703.4395826,N,00952.4097814,E,2,11,0.8,-1.744,M,40.593,M,3.1,0123*64\r\n
$GPGGA,100210.25,5703.4395730,N,00952.4097635,E,2,11,0.8,-1.743,M,40.593,M,3.3,0123*61\r\n
$GPGGA,100210.30,5703.4395639,N,00952.4097458,E,2,11,0.8,-1.743,M,40.593,M,3.3,0123*64\r\n
$GPGGA,100210.35,5703.4395556,N,00952.4097286,E,2,11,0.8,-1.742,M,40.593,M,3.3,0123*6F\r\n
$GPGGA,100210.40,5703.4395469,N,00952.4097113,E,2,11,0.8,-1.742,M,40.593,M,3.3,0123*6F\r\n
$GPGGA,100210.45,5703.4395381,N,00952.4096935,E,2,11,0.8,-1.743,M,40.593,M,3.5,0123*61\r\n
$GPGGA,100210.50,5703.4395289,N,00952.4096762,E,2,11,0.8,-1.741,M,40.593,M,3.5,0123*62\r\n
$GPGGA,100210.55,5703.4395197,N,00952.4096582,E,2,11,0.8,-1.743,M,40.593,M,3.5,0123*65\r\n
$GPGGA,100210.60,5703.4395112,N,00952.4096403,E,2,11,0.8,-1.742,M,40.593,M,3.5,0123*67\r\n
$GPGGA,100210.65,5703.4395031,N,00952.4096216,E,2,11,0.8,-1.745,M,40.593,M,3.7,0123*65\r\n
$GPGGA,100210.70,5703.4394935,N,00952.4096020,E,2,11,0.8,-1.746,M,40.593,M,3.7,0123*69\r\n
$GPGGA,100210.75,5703.4394835,N,00952.4095825,E,2,11,0.8,-1.748,M,40.593,M,3.7,0123*6D\r\n
$GPGGA,100210.80,5703.4394735,N,00952.4095629,E,2,11,0.8,-1.750,M,40.593,M,3.7,0123*63\r\n
$GPGGA,100210.85,5703.4394641,N,00952.4095456,E,2,11,0.8,-1.747,M,40.593,M,3.9,0123*66\r\n
$GPGGA,100210.90,5703.4394533,N,00952.4095274,E,2,11,0.8,-1.746,M,40.593,M,3.9,0123*63\r\n
$GPGGA,100210.95,5703.4394434,N,00952.4095064,E,2,11,0.8,-1.745,M,40.593,M,3.9,0123*60\r\n
$GPGGA,100211.00,5703.4394327,N,00952.4094859,E,2,11,0.8,-1.746,M,40.593,M,3.9,0123*6C\r\n
$GPGGA,100211.05,5703.4394198,N,00952.4094626,E,2,11,0.8,-1.748,M,40.593,M,4.1,0123*68\r\n
$GPGGA,100211.10,5703.4394083,N,00952.4094413,E,2,11,0.8,-1.746,M,40.593,M,4.1,0123*6D\r\n
$GPGGA,100211.15,5703.4393966,N,00952.4094187,E,2,11,0.8,-1.746,M,40.593,M,4.1,0123*65\r\n
$GPGGA,100211.20,5703.4393849,N,00952.4093951,E,2,11,0.8,-1.747,M,40.593,M,4.1,0123*6A\r\n
$GPGGA,100211.25,5703.4393728,N,00952.4093714,E,2,11,0.8,-1.744,M,40.593,M,4.3,0123*69\r\n
$GPGGA,100211.30,5703.4393587,N,00952.4093463,E,2,11,0.8,-1.743,M,40.593,M,4.3,0123*6E\r\n
$GPGGA,100211.35,5703.4393444,N,00952.4093215,E,2,11,0.8,-1.740,M,40.593,M,4.3,0123*61\r\n
$GPGGA,100211.40,5703.4393311,N,00952.4092957,E,2,11,0.8,-1.739,M,40.593,M,4.3,0123*66\r\n
$GPGGA,100211.45,5703.4393169,N,00952.4092687,E,2,11,0.8,-1.737,M,40.593,M,2.1,0123*66\r\n
$GPGGA,100211.50,5703.4393016,N,00952.4092422,E,2,11,0.8,-1.734,M,40.593,M,2.1,0123*65\r\n
$GPGGA,100211.55,5703.4392854,N,00952.4092139,E,2,11,0.8,-1.732,M,40.593,M,2.1,0123*66\r\n
$GPGGA,100211.60,5703.4392689,N,00952.4091829,E,2,11,0.8,-1.730,M,40.593,M,2.1,0123*67\r\n
$GPGGA,100211.65,5703.4392527,N,00952.4091503,E,2,11,0.8,-1.730,M,40.593,M,2.3,0123*62\r\n
$GPGGA,100211.70,5703.4392365,N,00952.4091174,E,2,11,0.8,-1.726,M,40.593,M,2.3,0123*65\r\n
$GPGGA,100211.75,5703.4392198,N,00952.4090840,E,2,11,0.8,-1.726,M,40.593,M,2.3,0123*6F\r\n
$GPGGA,100211.80,5703.4392008,N,00952.4090503,E,2,11,0.8,-1.725,M,40.593,M,2.3,0123*64\r\n
$GPGGA,100211.85,5703.4391817,N,00952.4090163,E,2,11,0.8,-1.721,M,40.593,M,2.5,0123*64\r\n
$GPGGA,100211.90,5703.4391633,N,00952.4089804,E,2,11,0.8,-1.719,M,40.593,M,2.5,0123*63\r\n
$GPGGA,100211.95,5703.4391440,N,00952.4089431,E,2,11,0.8,-1.720,M,40.593,M,2.5,0123*60\r\n
$GPGGA,100212.00,5703.4391239,N,00952.4089040,E,2,11,0.8,-1.718,M,40.593,M,2.5,0123*6E\r\n
$GPGGA,100212.05,5703.4391028,N,00952.4088631,E,2,11,0.8,-1.718,M,40.593,M,2.8,0123*65\r\n
$GPGGA,100212.10,5703.4390826,N,00952.4088245,E,2,11,0.8,-1.714,M,40.593,M,2.8,0123*6D\r\n
$GPGGA,100212.15,5703.4390616,N,00952.4087837,E,2,11,0.8,-1.713,M,40.593,M,2.8,0123*62\r\n
$GPGGA,100212.20,5703.4390401,N,00952.4087411,E,2,11,0.8,-1.714,M,40.593,M,2.8,0123*6F\r\n
$GPGGA,100212.25,5703.4390186,N,00952.4086980,E,2,11,0.8,-1.714,M,40.593,M,3.0,0123*6D\r\n
$GPGGA,100212.30,5703.4389965,N,00952.4086540,E,2,11,0.8,-1.714,M,40.593,M,3.0,0123*64\r\n
$GPGGA,100212.35,5703.4389733,N,00952.4086099,E,2,11,0.8,-1.713,M,40.593,M,3.0,0123*6A\r\n
$GPGGA,100212.40,5703.4389494,N,00952.4085652,E,2,11,0.8,-1.714,M,40.593,M,3.0,0123*63\r\n
$GPGGA,100212.45,5703.4389260,N,00952.4085181,E,2,11,0.8,-1.715,M,40.593,M,2.1,0123*63\r\n
$GPGGA,100212.50,5703.4389033,N,00952.4084729,E,2,11,0.8,-1.714,M,40.593,M,2.1,0123*67\r\n
$GPGGA,100212.55,5703.4388798,N,00952.4084271,E,2,11,0.8,-1.713,M,40.593,M,2.1,0123*6A\r\n
$GPGGA,100212.60,5703.4388549,N,00952.4083782,E,2,11,0.8,-1.714,M,40.593,M,2.1,0123*6B\r\n
$GPGGA,100212.65,5703.4388297,N,00952.4083301,E,2,11,0.8,-1.715,M,40.593,M,2.4,0123*61\r\n
$GPGGA,100212.70,5703.4388055,N,00952.4082821,E,2,11,0.8,-1.713,M,40.593,M,2.4,0123*67\r\n
$GPGGA,100212.75,5703.4387809,N,00952.4082336,E,2,11,0.8,-1.711,M,40.593,M,2.4,0123*63\r\n
$GPGGA,100212.80,5703.4387554,N,00952.4081830,E,2,11,0.8,-1.710,M,40.593,M,2.4,0123*63\r\n
$GPGGA,100212.85,5703.4387296,N,00952.4081335,E,2,11,0.8,-1.710,M,40.593,M,2.6,0123*63\r\n
$GPGGA,100212.90,5703.4387035,N,00952.4080836,E,2,11,0.8,-1.710,M,40.593,M,2.6,0123*65\r\n
$GPGGA,100212.95,5703.4386772,N,00952.4080325,E,2,11,0.8,-1.711,M,40.593,M,2.6,0123*6D\r\n
$GPGGA,100213.00,5703.4386501,N,00952.4079807,E,2,11,0.8,-1.711,M,40.593,M,2.6,0123*6B\r\n
$GPGGA,100213.05,5703.4386230,N,00952.4079270,E,2,11,0.8,-1.714,M,40.593,M,2.8,0123*6A\r\n
$GPGGA,100213.10,5703.4385953,N,00952.4078746,E,2,11,0.8,-1.713,M,40.593,M,2.8,0123*65\r\n
$GPGGA,100213.15,5703.4385685,N,00952.4078214,E,2,11,0.8,-1.712,M,40.593,M,2.8,0123*67\r\n
$GPGGA,100213.20,5703.4385415,N,00952.4077688,E,2,11,0.8,-1.712,M,40.593,M,2.8,0123*64\r\n
$GPGGA,100213.25,5703.4385141,N,00952.4077154,E,2,11,0.8,-1.716,M,40.593,M,3.0,0123*6E\r\n
$GPGGA,100213.30,5703.4384856,N,00952.4076609,E,2,11,0.8,-1.716,M,40.593,M,3.0,0123*6A\r\n
$GPGGA,100213.35,5703.4384582,N,00952.4076065,E,2,11,0.8,-1.717,M,40.593,M,3.0,0123*66\r\n
$GPGGA,100213.40,5703.4384299,N,00952.4075522,E,2,11,0.8,-1.717,M,40.593,M,3.0,0123*6C\r\n
$GPGGA,100213.45,5703.4384015,N,00952.4074968,E,2,11,0.8,-1.717,M,40.593,M,2.4,0123*69\r\n
$GPGGA,100213.50,5703.4383726,N,00952.4074432,E,2,11,0.8,-1.716,M,40.593,M,2.4,0123*6E\r\n
$GPGGA,100213.55,5703.4383450,N,00952.4073868,E,2,11,0.8,-1.718,M,40.593,M,2.4,0123*63\r\n
$GPGGA,100213.60,5703.4383163,N,00952.4073308,E,2,11,0.8,-1.719,M,40.593,M,2.4,0123*6C\r\n
$GPGGA,100213.65,5703.4382870,N,00952.4072750,E,2,11,0.8,-1.719,M,40.593,M,2.6,0123*69\r\n
$GPGGA,100213.70,5703.4382578,N,00952.4072186,E,2,11,0.8,-1.720,M,40.593,M,2.6,0123*6F\r\n
$GPGGA,100213.75,5703.4382280,N,00952.4071628,E,2,11,0.8,-1.721,M,40.593,M,2.6,0123*6B\r\n
$GPGGA,100213.80,5703.4381980,N,00952.4071074,E,2,11,0.8,-1.720,M,40.593,M,2.6,0123*67\r\n
$GPGGA,100213.85,5703.4381680,N,00952.4070516,E,2,11,0.8,-1.720,M,40.593,M,2.9,0123*62\r\n
$GPGGA,100213.90,5703.4381378,N,00952.4069944,E,2,11,0.8,-1.723,M,40.593,M,2.9,0123*64\r\n
$GPGGA,100213.95,5703.4381072,N,00952.4069359,E,2,11,0.8,-1.727,M,40.593,M,2.9,0123*6A\r\n
$GPGGA,100214.00,5703.4380754,N,00952.4068783,E,2,11,0.8,-1.728,M,40.593,M,2.9,0123*6E\r\n
$GPGGA,100214.05,5703.4380438,N,00952.4068190,E,2,11,0.8,-1.726,M,40.593,M,3.1,0123*61\r\n
$GPGGA,100214.10,5703.4380136,N,00952.4067603,E,2,11,0.8,-1.727,M,40.593,M,3.1,0123*6D\r\n
$GPGGA,100214.15,5703.4379824,N,00952.4067027,E,2,11,0.8,-1.725,M,40.593,M,3.1,0123*66\r\n
$GPGGA,100214.20,5703.4379504,N,00952.4066435,E,2,11,0.8,-1.727,M,40.593,M,3.1,0123*6B\r\n
$GPGGA,100214.25,5703.4379192,N,00952.4065833,E,2,11,0.8,-1.730,M,40.593,M,3.3,0123*68\r\n
$GPGGA,100214.30,5703.4378869,N,00952.4065233,E,2,11,0.8,-1.731,M,40.593,M,3.3,0123*6B\r\n
$GPGGA,100214.35,5703.4378548,N,00952.4064640,E,2,11,0.8,-1.731,M,40.593,M,3.3,0123*61\r\n
$GPGGA,100214.40,5703.4378225,N,00952.4064041,E,2,11,0.8,-1.733,M,40.593,M,3.3,0123*6A\r\n
$GPGGA,100214.45,5703.4377903,N,00952.4063453,E,2,11,0.8,-1.733,M,40.593,M,0.7,0123*68\r\n
$GPGGA,100214.50,5703.4377579,N,00952.4062852,E,2,11,0.8,-1.734,M,40.593,M,0.7,0123*66\r\n
$GPGGA,100214.55,5703.4377255,N,00952.4062243,E,2,11,0.8,-1.734,M,40.593,M,0.7,0123*60\r\n
$GPGGA,100214.60,5703.4376924,N,00952.4061632,E,2,11,0.8,-1.735,M,40.593,M,0.7,0123*6A\r\n
$GPGGA,100214.65,5703.4376594,N,00952.4061034,E,2,11,0.8,-1.735,M,40.593,M,1.0,0123*6E\r\n
$GPGGA,100214.70,5703.4376263,N,00952.4060420,E,2,11,0.8,-1.734,M,40.593,M,1.0,0123*64\r\n
$GPGGA,100214.75,5703.4375931,N,00952.4059791,E,2,11,0.8,-1.735,M,40.593,M,1.0,0123*6C\r\n
$GPGGA,100214.80,5703.4375599,N,00952.4059172,E,2,11,0.8,-1.734,M,40.593,M,1.0,0123*62\r\n
$GPGGA,100214.85,5703.4375266,N,00952.4058560,E,2,11,0.8,-1.734,M,40.593,M,1.3,0123*65\r\n
$GPGGA,100214.90,5703.4374931,N,00952.4057946,E,2,11,0.8,-1.734,M,40.593,M,1.3,0123*6E\r\n
$GPGGA,100214.95,5703.4374596,N,00952.4057318,E,2,11,0.8,-1.734,M,40.593,M,1.3,0123*6B\r\n
$GPGGA,100215.00,5703.4374255,N,00952.4056702,E,2,11,0.8,-1.733,M,40.593,M,1.3,0123*67\r\n
$GPGGA,100215.05,5703.4373908,N,00952.4056060,E,2,11,0.8,-1.736,M,40.593,M,1.6,0123*65\r\n
$GPGGA,100215.10,5703.4373562,N,00952.4055429,E,2,11,0.8,-1.736,M,40.593,M,1.6,0123*6B\r\n
$GPGGA,100215.15,5703.4373225,N,00952.4054803,E,2,11,0.8,-1.735,M,40.593,M,1.6,0123*6C\r\n
$GPGGA,100215.20,5703.4372877,N,00952.4054175,E,2,11,0.8,-1.735,M,40.593,M,1.6,0123*6E\r\n
$GPGGA,100215.25,5703.4372523,N,00952.4053540,E,2,11,0.8,-1.738,M,40.593,M,1.8,0123*61\r\n
$GPGGA,100215.30,5703.4372171,N,00952.4052912,E,2,11,0.8,-1.738,M,40.593,M,1.8,0123*6C\r\n
$GPGGA,100215.35,5703.4371824,N,00952.4052274,E,2,11,0.8,-1.740,M,40.593,M,1.8,0123*67\r\n
$GPGGA,100215.40,5703.4371472,N,00952.4051634,E,2,11,0.8,-1.740,M,40.593,M,1.8,0123*69\r\n
$GPGGA,100215.45,5703.4371111,N,00952.4051003,E,2,11,0.8,-1.740,M,40.593,M,0.9,0123*6E\r\n
$GPGGA,100215.50,5703.4370748,N,00952.4050373,E,2,11,0.8,-1.740,M,40.593,M,0.9,0123*64\r\n
$GPGGA,100215.55,5703.4370400,N,00952.4049722,E,2,11,0.8,-1.742,M,40.593,M,0.9,0123*64\r\n
$GPGGA,100215.60,5703.4370051,N,00952.4049073,E,2,11,0.8,-1.741,M,40.593,M,0.9,0123*62\r\n
$GPGGA,100215.65,5703.4369699,N,00952.4048432,E,2,11,0.8,-1.739,M,40.593,M,1.2,0123*68\r\n
$GPGGA,100215.70,5703.4369331,N,00952.4047785,E,2,11,0.8,-1.738,M,40.593,M,1.2,0123*6A\r\n
$GPGGA,100215.75,5703.4368963,N,00952.4047137,E,2,11,0.8,-1.736,M,40.593,M,1.2,0123*62\r\n
$GPGGA,100215.80,5703.4368608,N,00952.4046493,E,2,11,0.8,-1.734,M,40.593,M,1.2,0123*62\r\n
$GPGGA,100215.85,5703.4368251,N,00952.4045830,E,2,11,0.8,-1.739,M,40.593,M,1.4,0123*62\r\n
$GPGGA,100215.90,5703.4367886,N,00952.4045171,E,2,11,0.8,-1.740,M,40.593,M,1.4,0123*6B\r\n
$GPGGA,100215.95,5703.4367513,N,00952.4044529,E,2,11,0.8,-1.740,M,40.593,M,1.4,0123*67\r\n
$GPGGA,100216.00,5703.4367146,N,00952.4043867,E,2,11,0.8,-1.740,M,40.593,M,1.4,0123*6C\r\n
$GPGGA,100216.05,5703.4366776,N,00952.4043189,E,2,11,0.8,-1.739,M,40.593,M,1.7,0123*69\r\n
$GPGGA,100216.10,5703.4366403,N,00952.4042519,E,2,11,0.8,-1.740,M,40.593,M,1.7,0123*6E\r\n
$GPGGA,100216.15,5703.4366023,N,00952.4041869,E,2,11,0.8,-1.742,M,40.593,M,1.7,0123*66\r\n
$GPGGA,100216.20,5703.4365655,N,00952.4041209,E,2,11,0.8,-1.740,M,40.593,M,1.7,0123*6A\r\n
$GPGGA,100216.25,5703.4365294,N,00952.4040545,E,2,11,0.8,-1.737,M,40.593,M,1.9,0123*66\r\n
$GPGGA,100216.30,5703.4364913,N,00952.4039879,E,2,11,0.8,-1.734,M,40.593,M,1.9,0123*68\r\n
$GPGGA,100216.35,5703.4364531,N,00952.4039212,E,2,11,0.8,-1.735,M,40.593,M,1.9,0123*67\r\n
$GPGGA,100216.40,5703.4364152,N,00952.4038541,E,2,11,0.8,-1.735,M,40.593,M,1.9,0123*64\r\n
$GPGGA,100216.45,5703.4363780,N,00952.4037869,E,2,11,0.8,-1.738,M,40.593,M,1.1,0123*62\r\n
$GPGGA,100216.50,5703.4363407,N,00952.4037197,E,2,11,0.8,-1.734,M,40.593,M,1.1,0123*6E\r\n
$GPGGA,100216.55,5703.4363027,N,00952.4036517,E,2,11,0.8,-1.732,M,40.593,M,1.1,0123*66\r\n
$GPGGA,100216.60,5703.4362643,N,00952.4035841,E,2,11,0.8,-1.731,M,40.593,M,1.1,0123*6B\r\n
$GPGGA,100216.65,5703.4362264,N,00952.4035155,E,2,11,0.8,-1.730,M,40.593,M,1.4,0123*67\r\n
$GPGGA,100216.70,5703.4361871,N,00952.4034474,E,2,11,0.8,-1.730,M,40.593,M,1.4,0123*69\r\n
$GPGGA,100216.75,5703.4361489,N,00952.4033804,E,2,11,0.8,-1.729,M,40.593,M,1.4,0123*63\r\n
$GPGGA,100216.80,5703.4361110,N,00952.4033143,E,2,11,0.8,-1.728,M,40.593,M,1.4,0123*67\r\n
$GPGGA,100216.85,5703.4360724,N,00952.4032467,E,2,11,0.8,-1.728,M,40.593,M,1.7,0123*63\r\n
$GPGGA,100216.90,5703.4360336,N,00952.4031803,E,2,11,0.8,-1.727,M,40.593,M,1.7,0123*62\r\n
$GPGGA,100216.95,5703.4359950,N,00952.4031118,E,2,11,0.8,-1.728,M,40.593,M,1.7,0123*6B\r\n
$GPGGA,100217.00,5703.4359562,N,00952.4030444,E,2,11,0.8,-1.727,M,40.593,M,1.7,0123*69\r\n
$GPGGA,100217.05,5703.4359157,N,00952.4029755,E,2,11,0.8,-1.730,M,40.593,M,1.9,0123*6D\r\n
$GPGGA,100217.10,5703.4358767,N,00952.4029068,E,2,11,0.8,-1.730,M,40.593,M,1.9,0123*64\r\n
$GPGGA,100217.15,5703.4358373,N,00952.4028383,E,2,11,0.8,-1.731,M,40.593,M,1.9,0123*66\r\n
$GPGGA,100217.20,5703.4357981,N,00952.4027715,E,2,11,0.8,-1.730,M,40.593,M,1.9,0123*6D\r\n
$GPGGA,100217.25,5703.4357590,N,00952.4027044,E,2,11,0.8,-1.731,M,40.593,M,2.2,0123*6E\r\n
$GPGGA,100217.30,5703.4357194,N,00952.4026352,E,2,11,0.8,-1.730,M,40.593,M,2.2,0123*6E\r\n
$GPGGA,100217.35,5703.4356798,N,00952.4025678,E,2,11,0.8,-1.729,M,40.593,M,2.2,0123*66\r\n
$GPGGA,100217.40,5703.4356408,N,00952.4025012,E,2,11,0.8,-1.728,M,40.593,M,2.2,0123*65\r\n
$GPGGA,100217.45,5703.4356008,N,00952.4024343,E,2,11,0.8,-1.728,M,40.593,M,2.4,0123*64\r\n
$GPGGA,100217.50,5703.4355617,N,00952.4023662,E,2,11,0.8,-1.728,M,40.593,M,2.4,0123*6A\r\n
$GPGGA,100217.55,5703.4355209,N,00952.4022985,E,2,11,0.8,-1.729,M,40.593,M,2.4,0123*62\r\n
$GPGGA,100217.60,5703.4354811,N,00952.4022314,E,2,11,0.8,-1.728,M,40.593,M,2.4,0123*65\r\n
$GPGGA,100217.65,5703.4354412,N,00952.4021646,E,2,11,0.8,-1.724,M,40.593,M,2.6,0123*60\r\n
$GPGGA,100217.70,5703.4354020,N,00952.4020983,E,2,11,0.8,-1.724,M,40.593,M,2.6,0123*66\r\n
$GPGGA,100217.75,5703.4353614,N,00952.4020321,E,2,11,0.8,-1.723,M,40.593,M,2.6,0123*60\r\n
$GPGGA,100217.80,5703.4353204,N,00952.4019652,E,2,11,0.8,-1.722,M,40.593,M,2.6,0123*65\r\n
$GPGGA,100217.85,5703.4352801,N,00952.4018974,E,2,11,0.8,-1.724,M,40.593,M,2.9,0123*6D\r\n
$GPGGA,100217.90,5703.4352397,N,00952.4018316,E,2,11,0.8,-1.725,M,40.593,M,2.9,0123*62\r\n
$GPGGA,100217.95,5703.4351994,N,00952.4017648,E,2,11,0.8,-1.727,M,40.593,M,2.9,0123*6E\r\n
$GPGGA,100218.00,5703.4351599,N,00952.4016982,E,2,11,0.8,-1.726,M,40.593,M,2.9,0123*65\r\n
$GPGGA,100218.05,5703.4351196,N,00952.4016292,E,2,11,0.8,-1.727,M,40.593,M,3.1,0123*69\r\n
$GPGGA,100218.10,5703.4350792,N,00952.4015619,E,2,11,0.8,-1.728,M,40.593,M,3.1,0123*65\r\n
$GPGGA,100218.15,5703.4350380,N,00952.4014958,E,2,11,0.8,-1.728,M,40.593,M,3.1,0123*6C\r\n
$GPGGA,100218.20,5703.4349967,N,00952.4014294,E,2,11,0.8,-1.729,M,40.593,M,3.1,0123*6B\r\n
$GPGGA,100218.25,5703.4349560,N,00952.4013634,E,2,11,0.8,-1.729,M,40.593,M,3.3,0123*6E\r\n
$GPGGA,100218.30,5703.4349157,N,00952.4012979,E,2,11,0.8,-1.729,M,40.593,M,3.3,0123*6D\r\n
$GPGGA,100218.35,5703.4348754,N,00952.4012315,E,2,11,0.8,-1.729,M,40.593,M,3.3,0123*6C\r\n
$GPGGA,100218.40,5703.4348340,N,00952.4011670,E,2,11,0.8,-1.730,M,40.593,M,3.3,0123*62\r\n
$GPGGA,100218.45,5703.4347933,N,00952.4011022,E,2,11,0.8,-1.725,M,40.593,M,0.7,0123*64\r\n
$GPGGA,100218.50,5703.4347523,N,00952.4010360,E,2,11,0.8,-1.725,M,40.593,M,0.7,0123*69\r\n
$GPGGA,100218.55,5703.4347111,N,00952.4009697,E,2,11,0.8,-1.727,M,40.593,M,0.7,0123*6E\r\n
$GPGGA,100218.60,5703.4346697,N,00952.4009038,E,2,11,0.8,-1.729,M,40.593,M,0.7,0123*6D\r\n
$GPGGA,100218.65,5703.4346282,N,00952.4008370,E,2,11,0.8,-1.726,M,40.593,M,1.0,0123*6F\r\n
$GPGGA,100218.70,5703.4345864,N,00952.4007706,E,2,11,0.8,-1.726,M,40.593,M,1.0,0123*60\r\n
$GPGGA,100218.75,5703.4345444,N,00952.4007051,E,2,11,0.8,-1.729,M,40.593,M,1.0,0123*61\r\n
$GPGGA,100218.80,5703.4345029,N,00952.4006389,E,2,11,0.8,-1.729,M,40.593,M,1.0,0123*63\r\n
$GPGGA,100218.85,5703.4344613,N,00952.4005745,E,2,11,0.8,-1.729,M,40.593,M,1.3,0123*6C\r\n
$GPGGA,100218.90,5703.4344185,N,00952.4005096,E,2,11,0.8,-1.729,M,40.593,M,1.3,0123*69\r\n
$GPGGA,100218.95,5703.4343760,N,00952.4004442,E,2,11,0.8,-1.727,M,40.593,M,1.3,0123*64\r\n
$GPGGA,100219.00,5703.4343341,N,00952.4003783,E,2,11,0.8,-1.725,M,40.593,M,1.3,0123*65\r\n
$GPGGA,100219.05,5703.4342905,N,00952.4003109,E,2,11,0.8,-1.727,M,40.593,M,1.6,0123*68\r\n
$GPGGA,100219.10,5703.4342477,N,00952.4002447,E,2,11,0.8,-1.728,M,40.593,M,1.6,0123*65\r\n
$GPGGA,100219.15,5703.4342049,N,00952.4001778,E,2,11,0.8,-1.728,M,40.593,M,1.6,0123*65\r\n
$GPGGA,100219.20,5703.4341616,N,00952.4001114,E,2,11,0.8,-1.728,M,40.593,M,1.6,0123*60\r\n
$GPGGA,100219.25,5703.4341180,N,00952.4000459,E,2,11,0.8,-1.727,M,40.593,M,1.8,0123*61\r\n
$GPGGA,100219.30,5703.4340742,N,00952.3999803,E,2,11,0.8,-1.725,M,40.593,M,1.8,0123*63\r\n
$GPGGA,100219.35,5703.4340321,N,00952.3999150,E,2,11,0.8,-1.726,M,40.593,M,1.8,0123*6B\r\n
$GPGGA,100219.40,5703.4339888,N,00952.3998491,E,2,11,0.8,-1.725,M,40.593,M,1.8,0123*65\r\n
$GPGGA,100219.45,5703.4339451,N,00952.3997821,E,2,11,0.8,-1.723,M,40.593,M,2.1,0123*6C\r\n
$GPGGA,100219.50,5703.4339014,N,00952.3997158,E,2,11,0.8,-1.723,M,40.593,M,2.1,0123*6A\r\n
$GPGGA,100219.55,5703.4338586,N,00952.3996501,E,2,11,0.8,-1.723,M,40.593,M,2.1,0123*69\r\n
$GPGGA,100219.60,5703.4338152,N,00952.3995841,E,2,11,0.8,-1.722,M,40.593,M,2.1,0123*69\r\n
$GPGGA,100219.65,5703.4337712,N,00952.3995185,E,2,11,0.8,-1.722,M,40.593,M,2.3,0123*62\r\n
$GPGGA,100219.70,5703.4337273,N,00952.3994534,E,2,11,0.8,-1.721,M,40.593,M,2.3,0123*68\r\n
$GPGGA,100219.75,5703.4336849,N,00952.3993870,E,2,11,0.8,-1.719,M,40.593,M,2.3,0123*6E\r\n
$GPGGA,100219.80,5703.4336409,N,00952.3993211,E,2,11,0.8,-1.719,M,40.593,M,2.3,0123*61\r\n
$GPGGA,100219.85,5703.4335974,N,00952.3992555,E,2,11,0.8,-1.723,M,40.593,M,2.5,0123*69\r\n
$GPGGA,100219.90,5703.4335522,N,00952.3991917,E,2,11,0.8,-1.723,M,40.593,M,2.5,0123*6B\r\n
$GPGGA,100219.95,5703.4335083,N,00952.3991262,E,2,11,0.8,-1.725,M,40.593,M,2.5,0123*6F\r\n
$GPGGA,100220.00,5703.4334645,N,00952.3990600,E,2,11,0.8,-1.725,M,40.593,M,2.5,0123*65\r\n
$GPGGA,100220.05,5703.4334197,N,00952.3989934,E,2,11,0.8,-1.724,M,40.593,M,2.8,0123*64\r\n
$GPGGA,100220.10,5703.4333754,N,00952.3989285,E,2,11,0.8,-1.724,M,40.593,M,2.8,0123*6F\r\n
$GPGGA,100220.15,5703.4333308,N,00952.3988646,E,2,11,0.8,-1.724,M,40.593,M,2.8,0123*6D\r\n
$GPGGA,100220.20,5703.4332869,N,00952.3988003,E,2,11,0.8,-1.723,M,40.593,M,2.8,0123*66\r\n
$GPGGA,100220.25,5703.4332439,N,00952.3987358,E,2,11,0.8,-1.720,M,40.593,M,3.0,0123*62\r\n
$GPGGA,100220.30,5703.4331992,N,00952.3986711,E,2,11,0.8,-1.719,M,40.593,M,3.0,0123*6B\r\n
$GPGGA,100220.35,5703.4331550,N,00952.3986066,E,2,11,0.8,-1.720,M,40.593,M,3.0,0123*61\r\n
$GPGGA,100220.40,5703.4331088,N,00952.3985412,E,2,11,0.8,-1.722,M,40.593,M,3.0,0123*65\r\n
$GPGGA,100220.45,5703.4330645,N,00952.3984759,E,2,11,0.8,-1.726,M,40.593,M,2.1,0123*6F\r\n
$GPGGA,100220.50,5703.4330191,N,00952.3984115,E,2,11,0.8,-1.726,M,40.593,M,2.1,0123*6B\r\n
$GPGGA,100220.55,5703.4329747,N,00952.3983484,E,2,11,0.8,-1.725,M,40.593,M,2.1,0123*62\r\n
$GPGGA,100220.60,5703.4329298,N,00952.3982846,E,2,11,0.8,-1.724,M,40.593,M,2.1,0123*61\r\n
$GPGGA,100220.65,5703.4328845,N,00952.3982205,E,2,11,0.8,-1.721,M,40.593,M,2.4,0123*62\r\n
$GPGGA,100220.70,5703.4328399,N,00952.3981559,E,2,11,0.8,-1.721,M,40.593,M,2.4,0123*61\r\n
$GPGGA,100220.75,5703.4327937,N,00952.3980914,E,2,11,0.8,-1.721,M,40.593,M,2.4,0123*61\r\n
$GPGGA,100220.80,5703.4327474,N,00952.3980284,E,2,11,0.8,-1.721,M,40.593,M,2.4,0123*63\r\n
$GPGGA,100220.85,5703.4327014,N,00952.3979639,E,2,11,0.8,-1.726,M,40.593,M,2.6,0123*65\r\n
$GPGGA,100220.90,5703.4326569,N,00952.3978991,E,2,11,0.8,-1.727,M,40.593,M,2.6,0123*62\r\n
$GPGGA,100220.95,5703.4326114,N,00952.3978336,E,2,11,0.8,-1.728,M,40.593,M,2.6,0123*61\r\n
$GPGGA,100221.00,5703.4325661,N,00952.3977691,E,2,11,0.8,-1.729,M,40.593,M,2.6,0123*6C\r\n
$GPGGA,100221.05,5703.4325199,N,00952.3977046,E,2,11,0.8,-1.727,M,40.593,M,2.8,0123*65\r\n
$GPGGA,100221.10,5703.4324751,N,00952.3976390,E,2,11,0.8,-1.725,M,40.593,M,2.8,0123*69\r\n
$GPGGA,100221.15,5703.4324298,N,00952.3975745,E,2,11,0.8,-1.723,M,40.593,M,2.8,0123*65\r\n
$GPGGA,100221.20,5703.4323846,N,00952.3975098,E,2,11,0.8,-1.721,M,40.593,M,2.8,0123*68\r\n
$GPGGA,100221.25,5703.4323386,N,00952.3974442,E,2,11,0.8,-1.726,M,40.593,M,3.0,0123*66\r\n
$GPGGA,100221.30,5703.4322931,N,00952.3973799,E,2,11,0.8,-1.726,M,40.593,M,3.0,0123*67\r\n
$GPGGA,100221.35,5703.4322478,N,00952.3973163,E,2,11,0.8,-1.726,M,40.593,M,3.0,0123*61\r\n
$GPGGA,100221.40,5703.4322021,N,00952.3972521,E,2,11,0.8,-1.729,M,40.593,M,3.0,0123*67\r\n
$GPGGA,100221.45,5703.4321573,N,00952.3971886,E,2,11,0.8,-1.723,M,40.593,M,2.4,0123*6F\r\n
$GPGGA,100221.50,5703.4321117,N,00952.3971254,E,2,11,0.8,-1.721,M,40.593,M,2.4,0123*6A\r\n
$GPGGA,100221.55,5703.4320650,N,00952.3970627,E,2,11,0.8,-1.722,M,40.593,M,2.4,0123*68\r\n
$GPGGA,100221.60,5703.4320192,N,00952.3969983,E,2,11,0.8,-1.722,M,40.593,M,2.4,0123*6E\r\n
$GPGGA,100221.65,5703.4319730,N,00952.3969354,E,2,11,0.8,-1.722,M,40.593,M,2.6,0123*6D\r\n
$GPGGA,100221.70,5703.4319277,N,00952.3968728,E,2,11,0.8,-1.721,M,40.593,M,2.6,0123*62\r\n
$GPGGA,100221.75,5703.4318815,N,00952.3968107,E,2,11,0.8,-1.723,M,40.593,M,2.6,0123*61\r\n
$GPGGA,100221.80,5703.4318351,N,00952.3967480,E,2,11,0.8,-1.723,M,40.593,M,2.6,0123*65\r\n
$GPGGA,100221.85,5703.4317886,N,00952.3966859,E,2,11,0.8,-1.723,M,40.593,M,2.9,0123*68\r\n
$GPGGA,100221.90,5703.4317415,N,00952.3966252,E,2,11,0.8,-1.723,M,40.593,M,2.9,0123*6B\r\n
$GPGGA,100221.95,5703.4316942,N,00952.3965635,E,2,11,0.8,-1.725,M,40.593,M,2.9,0123*60\r\n
$GPGGA,100222.00,5703.4316469,N,00952.3965008,E,2,11,0.8,-1.725,M,40.593,M,2.9,0123*63\r\n
$GPGGA,100222.05,5703.4316007,N,00952.3964396,E,2,11,0.8,-1.729,M,40.593,M,3.1,0123*6A\r\n
$GPGGA,100222.10,5703.4315531,N,00952.3963754,E,2,11,0.8,-1.730,M,40.593,M,3.1,0123*68\r\n
$GPGGA,100222.15,5703.4315062,N,00952.3963140,E,2,11,0.8,-1.732,M,40.593,M,3.1,0123*6F\r\n
$GPGGA,100222.20,5703.4314607,N,00952.3962522,E,2,11,0.8,-1.732,M,40.593,M,3.1,0123*6C\r\n
$GPGGA,100222.25,5703.4314132,N,00952.3961890,E,2,11,0.8,-1.732,M,40.593,M,3.3,0123*6D\r\n
$GPGGA,100222.30,5703.4313663,N,00952.3961257,E,2,11,0.8,-1.732,M,40.593,M,3.3,0123*6C\r\n
$GPGGA,100222.35,5703.4313200,N,00952.3960623,E,2,11,0.8,-1.729,M,40.593,M,3.3,0123*64\r\n
$GPGGA,100222.40,5703.4312738,N,00952.3960005,E,2,11,0.8,-1.729,M,40.593,M,3.3,0123*6B\r\n
$GPGGA,100222.45,5703.4312283,N,00952.3959384,E,2,11,0.8,-1.730,M,40.593,M,3.5,0123*65\r\n
$GPGGA,100222.50,5703.4311816,N,00952.3958776,E,2,11,0.8,-1.730,M,40.593,M,3.5,0123*6C\r\n
$GPGGA,100222.55,5703.4311341,N,00952.3958151,E,2,11,0.8,-1.728,M,40.593,M,3.5,0123*6A\r\n
$GPGGA,100222.60,5703.4310865,N,00952.3957527,E,2,11,0.8,-1.726,M,40.593,M,3.5,0123*64\r\n
$GPGGA,100222.65,5703.4310392,N,00952.3956925,E,2,11,0.8,-1.726,M,40.593,M,3.7,0123*6F\r\n
$GPGGA,100222.70,5703.4309923,N,00952.3956315,E,2,11,0.8,-1.724,M,40.593,M,3.7,0123*68\r\n
$GPGGA,100222.75,5703.4309460,N,00952.3955704,E,2,11,0.8,-1.724,M,40.593,M,3.7,0123*60\r\n
$GPGGA,100222.80,5703.4308982,N,00952.3955086,E,2,11,0.8,-1.726,M,40.593,M,3.7,0123*65\r\n
$GPGGA,100222.85,5703.4308499,N,00952.3954470,E,2,11,0.8,-1.726,M,40.593,M,3.9,0123*65\r\n
$GPGGA,100222.90,5703.4308023,N,00952.3953851,E,2,11,0.8,-1.725,M,40.593,M,3.9,0123*6F\r\n
$GPGGA,100222.95,5703.4307542,N,00952.3953245,E,2,11,0.8,-1.723,M,40.593,M,3.9,0123*6E\r\n
$GPGGA,100223.00,5703.4307067,N,00952.3952620,E,2,11,0.8,-1.721,M,40.593,M,3.9,0123*65\r\n
$GPGGA,100223.05,5703.4306593,N,00952.3952007,E,2,11,0.8,-1.723,M,40.593,M,4.1,0123*61\r\n
$GPGGA,100223.10,5703.4306115,N,00952.3951377,E,2,11,0.8,-1.725,M,40.593,M,4.1,0123*6E\r\n
$GPGGA,100223.15,5703.4305632,N,00952.3950769,E,2,11,0.8,-1.725,M,40.593,M,4.1,0123*60\r\n
$GPGGA,100223.20,5703.4305154,N,00952.3950146,E,2,11,0.8,-1.724,M,40.593,M,4.1,0123*6B\r\n
$GPGGA,100223.25,5703.4304677,N,00952.3949538,E,2,11,0.8,-1.722,M,40.593,M,4.3,0123*68\r\n
$GPGGA,100223.30,5703.4304196,N,00952.3948927,E,2,11,0.8,-1.721,M,40.593,M,4.3,0123*64\r\n
$GPGGA,100223.35,5703.4303721,N,00952.3948316,E,2,11,0.8,-1.719,M,40.593,M,4.3,0123*6F\r\n
$GPGGA,100223.40,5703.4303235,N,00952.3947693,E,2,11,0.8,-1.719,M,40.593,M,4.3,0123*6A\r\n
$GPGGA,100223.45,5703.4302750,N,00952.3947082,E,2,11,0.8,-1.717,M,40.593,M,0.9,0123*6E\r\n
$GPGGA,100223.50,5703.4302271,N,00952.3946480,E,2,11,0.8,-1.716,M,40.593,M,0.9,0123*6A\r\n
$GPGGA,100223.55,5703.4301796,N,00952.3945863,E,2,11,0.8,-1.717,M,40.593,M,0.9,0123*63\r\n
$GPGGA,100223.60,5703.4301316,N,00952.3945249,E,2,11,0.8,-1.717,M,40.593,M,0.9,0123*6B\r\n
$GPGGA,100223.65,5703.4300827,N,00952.3944654,E,2,11,0.8,-1.715,M,40.593,M,1.2,0123*67\r\n
$GPGGA,100223.70,5703.4300341,N,00952.3944033,E,2,11,0.8,-1.714,M,40.593,M,1.2,0123*6E\r\n
$GPGGA,100223.75,5703.4299856,N,00952.3943425,E,2,11,0.8,-1.713,M,40.593,M,1.2,0123*64\r\n
$GPGGA,100223.80,5703.4299374,N,00952.3942814,E,2,11,0.8,-1.712,M,40.593,M,1.2,0123*6B\r\n
$GPGGA,100223.85,5703.4298893,N,00952.3942217,E,2,11,0.8,-1.714,M,40.593,M,1.4,0123*64\r\n
$GPGGA,100223.90,5703.4298409,N,00952.3941627,E,2,11,0.8,-1.714,M,40.593,M,1.4,0123*6B\r\n
$GPGGA,100223.95,5703.4297926,N,00952.3941025,E,2,11,0.8,-1.713,M,40.593,M,1.4,0123*62\r\n
$GPGGA,100224.00,5703.4297429,N,00952.3940431,E,2,11,0.8,-1.711,M,40.593,M,1.4,0123*69\r\n
$GPGGA,100224.05,5703.4296944,N,00952.3939840,E,2,11,0.8,-1.712,M,40.593,M,1.7,0123*6F\r\n
$GPGGA,100224.10,5703.4296464,N,00952.3939246,E,2,11,0.8,-1.712,M,40.593,M,1.7,0123*68\r\n
$GPGGA,100224.15,5703.4295984,N,00952.3938647,E,2,11,0.8,-1.712,M,40.593,M,1.7,0123*69\r\n
$GPGGA,100224.20,5703.4295502,N,00952.3938049,E,2,11,0.8,-1.712,M,40.593,M,1.7,0123*65\r\n
$GPGGA,100224.25,5703.4295025,N,00952.3937433,E,2,11,0.8,-1.712,M,40.593,M,1.9,0123*68\r\n
$GPGGA,100224.30,5703.4294549,N,00952.3936827,E,2,11,0.8,-1.711,M,40.593,M,1.9,0123*69\r\n
$GPGGA,100224.35,5703.4294068,N,00952.3936245,E,2,11,0.8,-1.711,M,40.593,M,1.9,0123*64\r\n
$GPGGA,100224.40,5703.4293590,N,00952.3935651,E,2,11,0.8,-1.711,M,40.593,M,1.9,0123*61\r\n
$GPGGA,100224.45,5703.4293112,N,00952.3935067,E,2,11,0.8,-1.710,M,40.593,M,1.1,0123*60\r\n
$GPGGA,100224.50,5703.4292627,N,00952.3934479,E,2,11,0.8,-1.708,M,40.593,M,1.1,0123*67\r\n
$GPGGA,100224.55,5703.4292144,N,00952.3933888,E,2,11,0.8,-1.711,M,40.593,M,1.1,0123*6D\r\n
$GPGGA,100224.60,5703.4291660,N,00952.3933302,E,2,11,0.8,-1.712,M,40.593,M,1.1,0123*63\r\n
$GPGGA,100224.65,5703.4291180,N,00952.3932719,E,2,11,0.8,-1.711,M,40.593,M,1.4,0123*66\r\n
$GPGGA,100224.70,5703.4290702,N,00952.3932152,E,2,11,0.8,-1.711,M,40.593,M,1.4,0123*66\r\n
$GPGGA,100224.75,5703.4290201,N,00952.3931582,E,2,11,0.8,-1.711,M,40.593,M,1.4,0123*6F\r\n
$GPGGA,100224.80,5703.4289715,N,00952.3931008,E,2,11,0.8,-1.713,M,40.593,M,1.4,0123*68\r\n
$GPGGA,100224.85,5703.4289232,N,00952.3930435,E,2,11,0.8,-1.714,M,40.593,M,1.7,0123*62\r\n
$GPGGA,100224.90,5703.4288742,N,00952.3929860,E,2,11,0.8,-1.715,M,40.593,M,1.7,0123*60\r\n
$GPGGA,100224.95,5703.4288261,N,00952.3929293,E,2,11,0.8,-1.717,M,40.593,M,1.7,0123*65\r\n
$GPGGA,100225.00,5703.4287792,N,00952.3928715,E,2,11,0.8,-1.716,M,40.593,M,1.7,0123*65\r\n
$GPGGA,100225.05,5703.4287309,N,00952.3928163,E,2,11,0.8,-1.716,M,40.593,M,1.9,0123*6F\r\n
$GPGGA,100225.10,5703.4286822,N,00952.3927595,E,2,11,0.8,-1.716,M,40.593,M,1.9,0123*6A\r\n
$GPGGA,100225.15,5703.4286347,N,00952.3927014,E,2,11,0.8,-1.717,M,40.593,M,1.9,0123*6A\r\n
$GPGGA,100225.20,5703.4285857,N,00952.3926445,E,2,11,0.8,-1.718,M,40.593,M,1.9,0123*6B\r\n
$GPGGA,100225.25,5703.4285382,N,00952.3925874,E,2,11,0.8,-1.717,M,40.593,M,2.2,0123*67\r\n
$GPGGA,100225.30,5703.4284903,N,00952.3925304,E,2,11,0.8,-1.718,M,40.593,M,2.2,0123*62\r\n
$GPGGA,100225.35,5703.4284422,N,00952.3924742,E,2,11,0.8,-1.717,M,40.593,M,2.2,0123*61\r\n
$GPGGA,100225.40,5703.4283941,N,00952.3924170,E,2,11,0.8,-1.718,M,40.593,M,2.2,0123*64\r\n
$GPGGA,100225.45,5703.4283450,N,00952.3923622,E,2,11,0.8,-1.719,M,40.593,M,2.4,0123*6C\r\n
$GPGGA,100225.50,5703.4282949,N,00952.3923057,E,2,11,0.8,-1.720,M,40.593,M,2.4,0123*62\r\n
$GPGGA,100225.55,5703.4282456,N,00952.3922500,E,2,11,0.8,-1.721,M,40.593,M,2.4,0123*63\r\n
$GPGGA,100225.60,5703.4281964,N,00952.3921952,E,2,11,0.8,-1.723,M,40.593,M,2.4,0123*60\r\n
$GPGGA,100225.65,5703.4281470,N,00952.3921399,E,2,11,0.8,-1.726,M,40.593,M,2.6,0123*67\r\n
$GPGGA,100225.70,5703.4280971,N,00952.3920851,E,2,11,0.8,-1.726,M,40.593,M,2.6,0123*60\r\n
$GPGGA,100225.75,5703.4280482,N,00952.3920288,E,2,11,0.8,-1.725,M,40.593,M,2.6,0123*69\r\n
$GPGGA,100225.80,5703.4279993,N,00952.3919736,E,2,11,0.8,-1.726,M,40.593,M,2.6,0123*61\r\n
$GPGGA,100225.85,5703.4279491,N,00952.3919192,E,2,11,0.8,-1.727,M,40.593,M,2.9,0123*6D\r\n
$GPGGA,100225.90,5703.4278987,N,00952.3918652,E,2,11,0.8,-1.727,M,40.593,M,2.9,0123*68\r\n
$GPGGA,100225.95,5703.4278494,N,00952.3918098,E,2,11,0.8,-1.730,M,40.593,M,2.9,0123*64\r\n
$GPGGA,100226.00,5703.4277998,N,00952.3917558,E,2,11,0.8,-1.728,M,40.593,M,2.9,0123*6A\r\n
$GPGGA,100226.05,5703.4277488,N,00952.3917030,E,2,11,0.8,-1.724,M,40.593,M,3.1,0123*6D\r\n
$GPGGA,100226.10,5703.4276987,N,00952.3916490,E,2,11,0.8,-1.723,M,40.593,M,3.1,0123*62\r\n
$GPGGA,100226.15,5703.4276495,N,00952.3915943,E,2,11,0.8,-1.722,M,40.593,M,3.1,0123*68\r\n
$GPGGA,100226.20,5703.4276005,N,00952.3915400,E,2,11,0.8,-1.722,M,40.593,M,3.1,0123*69\r\n
$GPGGA,100226.25,5703.4275509,N,00952.3914857,E,2,11,0.8,-1.723,M,40.593,M,3.3,0123*6A\r\n
$GPGGA,100226.30,5703.4275005,N,00952.3914311,E,2,11,0.8,-1.722,M,40.593,M,3.3,0123*6F\r\n
$GPGGA,100226.35,5703.4274507,N,00952.3913781,E,2,11,0.8,-1.722,M,40.593,M,3.3,0123*66\r\n
$GPGGA,100226.40,5703.4274014,N,00952.3913258,E,2,11,0.8,-1.721,M,40.593,M,3.3,0123*61\r\n
$GPGGA,100226.45,5703.4273512,N,00952.3912736,E,2,11,0.8,-1.719,M,40.593,M,0.7,0123*60\r\n
$GPGGA,100226.50,5703.4273007,N,00952.3912196,E,2,11,0.8,-1.719,M,40.593,M,0.7,0123*69\r\n
$GPGGA,100226.55,5703.4272501,N,00952.3911665,E,2,11,0.8,-1.719,M,40.593,M,0.7,0123*66\r\n
$GPGGA,100226.60,5703.4272001,N,00952.3911145,E,2,11,0.8,-1.720,M,40.593,M,0.7,0123*6A\r\n
$GPGGA,100226.65,5703.4271510,N,00952.3910617,E,2,11,0.8,-1.720,M,40.593,M,1.0,0123*6E\r\n
$GPGGA,100226.70,5703.4271004,N,00952.3910089,E,2,11,0.8,-1.720,M,40.593,M,1.0,0123*6B\r\n
$GPGGA,100226.75,5703.4270491,N,00952.3909585,E,2,11,0.8,-1.718,M,40.593,M,1.0,0123*6D\r\n
$GPGGA,100226.80,5703.4269988,N,00952.3909062,E,2,11,0.8,-1.718,M,40.593,M,1.0,0123*66\r\n
$GPGGA,100226.85,5703.4269492,N,00952.3908524,E,2,11,0.8,-1.721,M,40.593,M,1.3,0123*6A\r\n
$GPGGA,100226.90,5703.4268985,N,00952.3908009,E,2,11,0.8,-1.721,M,40.593,M,1.3,0123*6E\r\n
$GPGGA,100226.95,5703.4268468,N,00952.3907493,E,2,11,0.8,-1.723,M,40.593,M,1.3,0123*6F\r\n
$GPGGA,100227.00,5703.4267964,N,00952.3906979,E,2,11,0.8,-1.724,M,40.593,M,1.3,0123*63\r\n
$GPGGA,100227.05,5703.4267458,N,00952.3906471,E,2,11,0.8,-1.727,M,40.593,M,1.6,0123*67\r\n
$GPGGA,100227.10,5703.4266955,N,00952.3905954,E,2,11,0.8,-1.727,M,40.593,M,1.6,0123*6B\r\n
$GPGGA,100227.15,5703.4266444,N,00952.3905430,E,2,11,0.8,-1.729,M,40.593,M,1.6,0123*62\r\n
$GPGGA,100227.20,5703.4265939,N,00952.3904901,E,2,11,0.8,-1.731,M,40.593,M,1.6,0123*67\r\n
$GPGGA,100227.25,5703.4265428,N,00952.3904392,E,2,11,0.8,-1.729,M,40.593,M,1.8,0123*68\r\n
$GPGGA,100227.30,5703.4264926,N,00952.3903855,E,2,11,0.8,-1.729,M,40.593,M,1.8,0123*69\r\n
$GPGGA,100227.35,5703.4264421,N,00952.3903325,E,2,11,0.8,-1.731,M,40.593,M,1.8,0123*63\r\n
$GPGGA,100227.40,5703.4263922,N,00952.3902800,E,2,11,0.8,-1.731,M,40.593,M,1.8,0123*65\r\n
$GPGGA,100227.45,5703.4263416,N,00952.3902304,E,2,11,0.8,-1.728,M,40.593,M,0.9,0123*6D\r\n
$GPGGA,100227.50,5703.4262919,N,00952.3901780,E,2,11,0.8,-1.728,M,40.593,M,0.9,0123*61\r\n
$GPGGA,100227.55,5703.4262409,N,00952.3901258,E,2,11,0.8,-1.728,M,40.593,M,0.9,0123*68\r\n
$GPGGA,100227.60,5703.4261899,N,00952.3900739,E,2,11,0.8,-1.728,M,40.593,M,0.9,0123*6B\r\n
$GPGGA,100227.65,5703.4261386,N,00952.3900228,E,2,11,0.8,-1.728,M,40.593,M,1.2,0123*64\r\n
$GPGGA,100227.70,5703.4260888,N,00952.3899713,E,2,11,0.8,-1.727,M,40.593,M,1.2,0123*67\r\n
$GPGGA,100227.75,5703.4260376,N,00952.3899209,E,2,11,0.8,-1.726,M,40.593,M,1.2,0123*67\r\n
$GPGGA,100227.80,5703.4259866,N,00952.3898699,E,2,11,0.8,-1.725,M,40.593,M,1.2,0123*62\r\n
$GPGGA,100227.85,5703.4259350,N,00952.3898189,E,2,11,0.8,-1.728,M,40.593,M,1.4,0123*64\r\n
$GPGGA,100227.90,5703.4258839,N,00952.3897685,E,2,11,0.8,-1.730,M,40.593,M,1.4,0123*68\r\n
$GPGGA,100227.95,5703.4258332,N,00952.3897182,E,2,11,0.8,-1.729,M,40.593,M,1.4,0123*65\r\n
$GPGGA,100228.00,5703.4257815,N,00952.3896685,E,2,11,0.8,-1.728,M,40.593,M,1.4,0123*67\r\n
$GPGGA,100228.05,5703.4257292,N,00952.3896200,E,2,11,0.8,-1.733,M,40.593,M,1.7,0123*67\r\n
$GPGGA,100228.10,5703.4256770,N,00952.3895704,E,2,11,0.8,-1.734,M,40.593,M,1.7,0123*6E\r\n
$GPGGA,100228.15,5703.4256261,N,00952.3895209,E,2,11,0.8,-1.734,M,40.593,M,1.7,0123*66\r\n
$GPGGA,100228.20,5703.4255750,N,00952.3894721,E,2,11,0.8,-1.734,M,40.593,M,1.7,0123*6A\r\n
$GPGGA,100228.25,5703.4255229,N,00952.3894235,E,2,11,0.8,-1.734,M,40.593,M,1.9,0123*6A\r\n
$GPGGA,100228.30,5703.4254720,N,00952.3893740,E,2,11,0.8,-1.734,M,40.593,M,1.9,0123*63\r\n
$GPGGA,100228.35,5703.4254217,N,00952.3893240,E,2,11,0.8,-1.734,M,40.593,M,1.9,0123*62\r\n
$GPGGA,100228.40,5703.4253700,N,00952.3892743,E,2,11,0.8,-1.732,M,40.593,M,1.9,0123*65\r\n
$GPGGA,100228.45,5703.4253181,N,00952.3892234,E,2,11,0.8,-1.734,M,40.593,M,1.1,0123*64\r\n
$GPGGA,100228.50,5703.4252667,N,00952.3891738,E,2,11,0.8,-1.736,M,40.593,M,1.1,0123*66\r\n
$GPGGA,100228.55,5703.4252151,N,00952.3891235,E,2,11,0.8,-1.738,M,40.593,M,1.1,0123*67\r\n
$GPGGA,100228.60,5703.4251630,N,00952.3890746,E,2,11,0.8,-1.737,M,40.593,M,1.1,0123*6D\r\n
$GPGGA,100228.65,5703.4251104,N,00952.3890264,E,2,11,0.8,-1.738,M,40.593,M,1.4,0123*67\r\n
$GPGGA,100228.70,5703.4250589,N,00952.3889785,E,2,11,0.8,-1.737,M,40.593,M,1.4,0123*6E\r\n
$GPGGA,100228.75,5703.4250071,N,00952.3889309,E,2,11,0.8,-1.738,M,40.593,M,1.4,0123*66\r\n
$GPGGA,100228.80,5703.4249545,N,00952.3888816,E,2,11,0.8,-1.740,M,40.593,M,1.4,0123*6D\r\n
$GPGGA,100228.85,5703.4249019,N,00952.3888347,E,2,11,0.8,-1.740,M,40.593,M,1.7,0123*68\r\n
$GPGGA,100228.90,5703.4248507,N,00952.3887878,E,2,11,0.8,-1.738,M,40.593,M,1.7,0123*60\r\n
$GPGGA,100228.95,5703.4247990,N,00952.3887388,E,2,11,0.8,-1.739,M,40.593,M,1.7,0123*6D\r\n
$GPGGA,100229.00,5703.4247463,N,00952.3886913,E,2,11,0.8,-1.740,M,40.593,M,1.7,0123*66\r\n
$GPGGA,100229.05,5703.4246935,N,00952.3886455,E,2,11,0.8,-1.739,M,40.593,M,1.9,0123*63\r\n
$GPGGA,100229.10,5703.4246407,N,00952.3885969,E,2,11,0.8,-1.739,M,40.593,M,1.9,0123*6A\r\n
$GPGGA,100229.15,5703.4245873,N,00952.3885488,E,2,11,0.8,-1.740,M,40.593,M,1.9,0123*6F\r\n
$GPGGA,100229.20,5703.4245349,N,00952.3885026,E,2,11,0.8,-1.740,M,40.593,M,1.9,0123*6B\r\n
$GPGGA,100229.25,5703.4244827,N,00952.3884560,E,2,11,0.8,-1.739,M,40.593,M,2.2,0123*6C\r\n
$GPGGA,100229.30,5703.4244300,N,00952.3884089,E,2,11,0.8,-1.738,M,40.593,M,2.2,0123*65\r\n
$GPGGA,100229.35,5703.4243767,N,00952.3883599,E,2,11,0.8,-1.738,M,40.593,M,2.2,0123*61\r\n
$GPGGA,100229.40,5703.4243234,N,00952.3883127,E,2,11,0.8,-1.736,M,40.593,M,2.2,0123*6F\r\n
$GPGGA,100229.45,5703.4242700,N,00952.3882663,E,2,11,0.8,-1.738,M,40.593,M,2.4,0123*67\r\n
$GPGGA,100229.50,5703.4242161,N,00952.3882192,E,2,11,0.8,-1.738,M,40.593,M,2.4,0123*6B\r\n
$GPGGA,100229.55,5703.4241627,N,00952.3881725,E,2,11,0.8,-1.739,M,40.593,M,2.4,0123*60\r\n
$GPGGA,100229.60,5703.4241088,N,00952.3881262,E,2,11,0.8,-1.738,M,40.593,M,2.4,0123*62\r\n
$GPGGA,100229.65,5703.4240559,N,00952.3880797,E,2,11,0.8,-1.737,M,40.593,M,2.6,0123*6C\r\n
$GPGGA,100229.70,5703.4240024,N,00952.3880327,E,2,11,0.8,-1.737,M,40.593,M,2.6,0123*68\r\n
$GPGGA,100229.75,5703.4239482,N,00952.3879864,E,2,11,0.8,-1.737,M,40.593,M,2.6,0123*61\r\n
$GPGGA,100229.80,5703.4238934,N,00952.3879403,E,2,11,0.8,-1.740,M,40.593,M,2.6,0123*67\r\n
$GPGGA,100229.85,5703.4238393,N,00952.3878940,E,2,11,0.8,-1.739,M,40.593,M,2.9,0123*6F\r\n
$GPGGA,100229.90,5703.4237862,N,00952.3878484,E,2,11,0.8,-1.737,M,40.593,M,2.9,0123*6A\r\n
$GPGGA,100229.95,5703.4237322,N,00952.3878024,E,2,11,0.8,-1.738,M,40.593,M,2.9,0123*61\r\n
$GPGGA,100230.00,5703.4236778,N,00952.3877559,E,2,11,0.8,-1.737,M,40.593,M,2.9,0123*60\r\n
$GPGGA,100230.05,5703.4236244,N,00952.3877106,E,2,11,0.8,-1.735,M,40.593,M,3.1,0123*6A\r\n
$GPGGA,100230.10,5703.4235715,N,00952.3876636,E,2,11,0.8,-1.734,M,40.593,M,3.1,0123*68\r\n
$GPGGA,100230.15,5703.4235175,N,00952.3876182,E,2,11,0.8,-1.732,M,40.593,M,3.1,0123*63\r\n
$GPGGA,100230.20,5703.4234635,N,00952.3875732,E,2,11,0.8,-1.730,M,40.593,M,3.1,0123*6B\r\n
$GPGGA,100230.25,5703.4234095,N,00952.3875261,E,2,11,0.8,-1.736,M,40.593,M,3.3,0123*65\r\n
$GPGGA,100230.30,5703.4233560,N,00952.3874809,E,2,11,0.8,-1.737,M,40.593,M,3.3,0123*6D\r\n
$GPGGA,100230.35,5703.4233016,N,00952.3874350,E,2,11,0.8,-1.736,M,40.593,M,3.3,0123*6A\r\n
$GPGGA,100230.40,5703.4232471,N,00952.3873901,E,2,11,0.8,-1.738,M,40.593,M,3.3,0123*6B\r\n
$GPGGA,100230.45,5703.4231927,N,00952.3873452,E,2,11,0.8,-1.738,M,40.593,M,0.7,0123*6F\r\n
$GPGGA,100230.50,5703.4231378,N,00952.3873009,E,2,11,0.8,-1.738,M,40.593,M,0.7,0123*61\r\n
$GPGGA,100230.55,5703.4230826,N,00952.3872558,E,2,11,0.8,-1.738,M,40.593,M,0.7,0123*65\r\n
$GPGGA,100230.60,5703.4230271,N,00952.3872104,E,2,11,0.8,-1.740,M,40.593,M,0.7,0123*69\r\n
$GPGGA,100230.65,5703.4229745,N,00952.3871655,E,2,11,0.8,-1.742,M,40.593,M,1.0,0123*62\r\n
$GPGGA,100230.70,5703.4229188,N,00952.3871214,E,2,11,0.8,-1.742,M,40.593,M,1.0,0123*60\r\n
$GPGGA,100230.75,5703.4228638,N,00952.3870778,E,2,11,0.8,-1.742,M,40.593,M,1.0,0123*66\r\n
$GPGGA,100230.80,5703.4228089,N,00952.3870332,E,2,11,0.8,-1.741,M,40.593,M,1.0,0123*69\r\n
$GPGGA,100230.85,5703.4227545,N,00952.3869892,E,2,11,0.8,-1.738,M,40.593,M,1.3,0123*62\r\n
$GPGGA,100230.90,5703.4227011,N,00952.3869458,E,2,11,0.8,-1.737,M,40.593,M,1.3,0123*67\r\n
$GPGGA,100230.95,5703.4226467,N,00952.3869016,E,2,11,0.8,-1.736,M,40.593,M,1.3,0123*69\r\n
$GPGGA,100231.00,5703.4225921,N,00952.3868603,E,2,11,0.8,-1.736,M,40.593,M,1.3,0123*6B\r\n
$GPGGA,100231.05,5703.4225367,N,00952.3868180,E,2,11,0.8,-1.739,M,40.593,M,1.6,0123*60\r\n
$GPGGA,100231.10,5703.4224809,N,00952.3867726,E,2,11,0.8,-1.740,M,40.593,M,1.6,0123*6D\r\n
$GPGGA,100231.15,5703.4224271,N,00952.3867295,E,2,11,0.8,-1.739,M,40.593,M,1.6,0123*6E\r\n
$GPGGA,100231.20,5703.4223722,N,00952.3866868,E,2,11,0.8,-1.738,M,40.593,M,1.6,0123*64\r\n
$GPGGA,100231.25,5703.4223178,N,00952.3866453,E,2,11,0.8,-1.739,M,40.593,M,1.8,0123*63\r\n
$GPGGA,100231.30,5703.4222640,N,00952.3866034,E,2,11,0.8,-1.741,M,40.593,M,1.8,0123*60\r\n
$GPGGA,100231.35,5703.4222105,N,00952.3865624,E,2,11,0.8,-1.742,M,40.593,M,1.8,0123*64\r\n
$GPGGA,100231.40,5703.4221583,N,00952.3865217,E,2,11,0.8,-1.745,M,40.593,M,1.8,0123*6C\r\n
$GPGGA,100231.45,5703.4221066,N,00952.3864828,E,2,11,0.8,-1.753,M,40.593,M,0.9,0123*67\r\n
$GPGGA,100231.50,5703.4220556,N,00952.3864440,E,2,11,0.8,-1.760,M,40.593,M,0.9,0123*66\r\n
$GPGGA,100231.55,5703.4220054,N,00952.3864047,E,2,11,0.8,-1.768,M,40.593,M,0.9,0123*6F\r\n
$GPGGA,100231.60,5703.4219553,N,00952.3863674,E,2,11,0.8,-1.774,M,40.593,M,0.9,0123*6D\r\n
$GPGGA,100231.65,5703.4219061,N,00952.3863316,E,2,11,0.8,-1.779,M,40.593,M,1.2,0123*6A\r\n
$GPGGA,100231.70,5703.4218583,N,00952.3862966,E,2,11,0.8,-1.786,M,40.593,M,1.2,0123*6A\r\n
$GPGGA,100231.75,5703.4218115,N,00952.3862617,E,2,11,0.8,-1.790,M,40.593,M,1.2,0123*6A\r\n
$GPGGA,100231.80,5703.4217650,N,00952.3862266,E,2,11,0.8,-1.795,M,40.593,M,1.2,0123*6E\r\n
$GPGGA,100231.85,5703.4217182,N,00952.3861925,E,2,11,0.8,-1.804,M,40.593,M,1.4,0123*6D\r\n
$GPGGA,100231.90,5703.4216724,N,00952.3861590,E,2,11,0.8,-1.812,M,40.593,M,1.4,0123*67\r\n
$GPGGA,100231.95,5703.4216275,N,00952.3861257,E,2,11,0.8,-1.818,M,40.593,M,1.4,0123*65\r\n
$GPGGA,100232.00,5703.4215835,N,00952.3860935,E,2,11,0.8,-1.825,M,40.593,M,1.4,0123*67\r\n
$GPGGA,100232.05,5703.4215389,N,00952.3860647,E,2,11,0.8,-1.827,M,40.593,M,1.7,0123*65\r\n
$GPGGA,100232.10,5703.4214947,N,00952.3860327,E,2,11,0.8,-1.831,M,40.593,M,1.7,0123*6C\r\n
$GPGGA,100232.15,5703.4214504,N,00952.3860005,E,2,11,0.8,-1.836,M,40.593,M,1.7,0123*66\r\n
$GPGGA,100232.20,5703.4214075,N,00952.3859697,E,2,11,0.8,-1.840,M,40.593,M,1.7,0123*65\r\n
$GPGGA,100232.25,5703.4213646,N,00952.3859405,E,2,11,0.8,-1.840,M,40.593,M,1.9,0123*66\r\n
$GPGGA,100232.30,5703.4213221,N,00952.3859123,E,2,11,0.8,-1.843,M,40.593,M,1.9,0123*65\r\n
$GPGGA,100232.35,5703.4212793,N,00952.3858825,E,2,11,0.8,-1.845,M,40.593,M,1.9,0123*65\r\n
$GPGGA,100232.40,5703.4212380,N,00952.3858529,E,2,11,0.8,-1.848,M,40.593,M,1.9,0123*6D\r\n
$GPGGA,100232.45,5703.4211973,N,00952.3858236,E,2,11,0.8,-1.849,M,40.593,M,2.1,0123*6E\r\n
$GPGGA,100232.50,5703.4211556,N,00952.3857944,E,2,11,0.8,-1.850,M,40.593,M,2.1,0123*68\r\n
$GPGGA,100232.55,5703.4211142,N,00952.3857638,E,2,11,0.8,-1.852,M,40.593,M,2.1,0123*6A\r\n
$GPGGA,100232.60,5703.4210729,N,00952.3857346,E,2,11,0.8,-1.852,M,40.593,M,2.1,0123*6A\r\n
$GPGGA,100232.65,5703.4210317,N,00952.3857038,E,2,11,0.8,-1.852,M,40.593,M,2.4,0123*69\r\n
$GPGGA,100232.70,5703.4209920,N,00952.3856734,E,2,11,0.8,-1.852,M,40.593,M,2.4,0123*61\r\n
$GPGGA,100232.75,5703.4209520,N,00952.3856420,E,2,11,0.8,-1.852,M,40.593,M,2.4,0123*6E\r\n
$GPGGA,100232.80,5703.4209126,N,00952.3856107,E,2,11,0.8,-1.855,M,40.593,M,2.4,0123*61\r\n
$GPGGA,100232.85,5703.4208727,N,00952.3855820,E,2,11,0.8,-1.851,M,40.593,M,2.6,0123*6B\r\n
$GPGGA,100232.90,5703.4208321,N,00952.3855525,E,2,11,0.8,-1.850,M,40.593,M,2.6,0123*64\r\n
$GPGGA,100232.95,5703.4207924,N,00952.3855232,E,2,11,0.8,-1.848,M,40.593,M,2.6,0123*69\r\n
$GPGGA,100233.00,5703.4207533,N,00952.3854926,E,2,11,0.8,-1.849,M,40.593,M,2.6,0123*60\r\n
$GPGGA,100233.05,5703.4207132,N,00952.3854629,E,2,11,0.8,-1.850,M,40.593,M,2.8,0123*66\r\n
$GPGGA,100233.10,5703.4206737,N,00952.3854320,E,2,11,0.8,-1.851,M,40.593,M,2.8,0123*6D\r\n
$GPGGA,100233.15,5703.4206348,N,00952.3854009,E,2,11,0.8,-1.851,M,40.593,M,2.8,0123*6C\r\n
$GPGGA,100233.20,5703.4205961,N,00952.3853714,E,2,11,0.8,-1.849,M,40.593,M,2.8,0123*6D\r\n
$GPGGA,100233.25,5703.4205576,N,00952.3853394,E,2,11,0.8,-1.847,M,40.593,M,2.2,0123*6A\r\n
$GPGGA,100233.30,5703.4205183,N,00952.3853082,E,2,11,0.8,-1.845,M,40.593,M,2.2,0123*66\r\n
$GPGGA,100233.35,5703.4204802,N,00952.3852762,E,2,11,0.8,-1.845,M,40.593,M,2.2,0123*6A\r\n
$GPGGA,100233.40,5703.4204423,N,00952.3852443,E,2,11,0.8,-1.844,M,40.593,M,2.2,0123*66\r\n
$GPGGA,100233.45,5703.4204047,N,00952.3852139,E,2,11,0.8,-1.844,M,40.593,M,2.4,0123*6B\r\n
$GPGGA,100233.50,5703.4203669,N,00952.3851826,E,2,11,0.8,-1.843,M,40.593,M,2.4,0123*61\r\n
$GPGGA,100233.55,5703.4203294,N,00952.3851510,E,2,11,0.8,-1.842,M,40.593,M,2.4,0123*6B\r\n
$GPGGA,100233.60,5703.4202917,N,00952.3851188,E,2,11,0.8,-1.842,M,40.593,M,2.4,0123*69\r\n
$GPGGA,100233.65,5703.4202549,N,00952.3850872,E,2,11,0.8,-1.837,M,40.593,M,2.6,0123*66\r\n
$GPGGA,100233.70,5703.4202179,N,00952.3850534,E,2,11,0.8,-1.835,M,40.593,M,2.6,0123*68\r\n
$GPGGA,100233.75,5703.4201816,N,00952.3850206,E,2,11,0.8,-1.834,M,40.593,M,2.6,0123*69\r\n
$GPGGA,100233.80,5703.4201454,N,00952.3849868,E,2,11,0.8,-1.833,M,40.593,M,2.6,0123*64\r\n
$GPGGA,100233.85,5703.4201096,N,00952.3849529,E,2,11,0.8,-1.830,M,40.593,M,2.9,0123*6F\r\n
$GPGGA,100233.90,5703.4200750,N,00952.3849190,E,2,11,0.8,-1.828,M,40.593,M,2.9,0123*68\r\n
$GPGGA,100233.95,5703.4200399,N,00952.3848840,E,2,11,0.8,-1.827,M,40.593,M,2.9,0123*66\r\n
$GPGGA,100234.00,5703.4200054,N,00952.3848512,E,2,11,0.8,-1.824,M,40.593,M,2.9,0123*66\r\n
$GPGGA,100234.05,5703.4199700,N,00952.3848182,E,2,11,0.8,-1.824,M,40.593,M,3.1,0123*62\r\n
$GPGGA,100234.10,5703.4199356,N,00952.3847846,E,2,11,0.8,-1.822,M,40.593,M,3.1,0123*69\r\n
$GPGGA,100234.15,5703.4199026,N,00952.3847504,E,2,11,0.8,-1.823,M,40.593,M,3.1,0123*62\r\n
$GPGGA,100234.20,5703.4198685,N,00952.3847162,E,2,11,0.8,-1.822,M,40.593,M,3.1,0123*6F\r\n
$GPGGA,100234.25,5703.4198350,N,00952.3846832,E,2,11,0.8,-1.819,M,40.593,M,3.3,0123*60\r\n
$GPGGA,100234.30,5703.4198022,N,00952.3846487,E,2,11,0.8,-1.818,M,40.593,M,3.3,0123*61\r\n
$GPGGA,100234.35,5703.4197686,N,00952.3846143,E,2,11,0.8,-1.817,M,40.593,M,3.3,0123*61\r\n
$GPGGA,100234.40,5703.4197368,N,00952.3845805,E,2,11,0.8,-1.816,M,40.593,M,3.3,0123*6F\r\n
$GPGGA,100234.45,5703.4197048,N,00952.3845463,E,2,11,0.8,-1.813,M,40.593,M,3.5,0123*64\r\n
$GPGGA,100234.50,5703.4196723,N,00952.3845122,E,2,11,0.8,-1.811,M,40.593,M,3.5,0123*69\r\n
$GPGGA,100234.55,5703.4196408,N,00952.3844786,E,2,11,0.8,-1.809,M,40.593,M,3.5,0123*66\r\n
$GPGGA,100234.60,5703.4196101,N,00952.3844434,E,2,11,0.8,-1.808,M,40.593,M,3.5,0123*67\r\n
$GPGGA,100234.65,5703.4195795,N,00952.3844085,E,2,11,0.8,-1.807,M,40.593,M,3.7,0123*69\r\n
$GPGGA,100234.70,5703.4195488,N,00952.3843735,E,2,11,0.8,-1.804,M,40.593,M,3.7,0123*6A\r\n
$GPGGA,100234.75,5703.4195195,N,00952.3843388,E,2,11,0.8,-1.803,M,40.593,M,3.7,0123*63\r\n
$GPGGA,100234.80,5703.4194900,N,00952.3843049,E,2,11,0.8,-1.800,M,40.593,M,3.7,0123*61\r\n
$GPGGA,100234.85,5703.4194610,N,00952.3842700,E,2,11,0.8,-1.802,M,40.593,M,3.9,0123*6D\r\n
$GPGGA,100234.90,5703.4194311,N,00952.3842348,E,2,11,0.8,-1.805,M,40.593,M,3.9,0123*62\r\n
$GPGGA,100234.95,5703.4194022,N,00952.3842000,E,2,11,0.8,-1.806,M,40.593,M,3.9,0123*68\r\n
$GPGGA,100235.00,5703.4193741,N,00952.3841651,E,2,11,0.8,-1.807,M,40.593,M,3.9,0123*60\r\n
$GPGGA,100235.05,5703.4193461,N,00952.3841329,E,2,11,0.8,-1.803,M,40.593,M,4.1,0123*65\r\n
$GPGGA,100235.10,5703.4193191,N,00952.3840981,E,2,11,0.8,-1.800,M,40.593,M,4.1,0123*61\r\n
$GPGGA,100235.15,5703.4192922,N,00952.3840625,E,2,11,0.8,-1.801,M,40.593,M,4.1,0123*65\r\n
$GPGGA,100235.20,5703.4192648,N,00952.3840271,E,2,11,0.8,-1.802,M,40.593,M,4.1,0123*66\r\n
$GPGGA,100235.25,5703.4192382,N,00952.3839929,E,2,11,0.8,-1.803,M,40.593,M,1.8,0123*65\r\n
$GPGGA,100235.30,5703.4192119,N,00952.3839584,E,2,11,0.8,-1.803,M,40.593,M,1.8,0123*6A\r\n
$GPGGA,100235.35,5703.4191870,N,00952.3839245,E,2,11,0.8,-1.801,M,40.593,M,1.8,0123*62\r\n
$GPGGA,100235.40,5703.4191618,N,00952.3838887,E,2,11,0.8,-1.802,M,40.593,M,1.8,0123*66\r\n
$GPGGA,100235.45,5703.4191379,N,00952.3838550,E,2,11,0.8,-1.799,M,40.593,M,2.1,0123*61\r\n
$GPGGA,100235.50,5703.4191131,N,00952.3838206,E,2,11,0.8,-1.798,M,40.593,M,2.1,0123*6E\r\n
$GPGGA,100235.55,5703.4190893,N,00952.3837862,E,2,11,0.8,-1.798,M,40.593,M,2.1,0123*6C\r\n
$GPGGA,100235.60,5703.4190653,N,00952.3837520,E,2,11,0.8,-1.796,M,40.593,M,2.1,0123*6D\r\n
$GPGGA,100235.65,5703.4190419,N,00952.3837176,E,2,11,0.8,-1.796,M,40.593,M,2.3,0123*61\r\n
$GPGGA,100235.70,5703.4190185,N,00952.3836829,E,2,11,0.8,-1.796,M,40.593,M,2.3,0123*67\r\n
$GPGGA,100235.75,5703.4189956,N,00952.3836481,E,2,11,0.8,-1.797,M,40.593,M,2.3,0123*63\r\n
$GPGGA,100235.80,5703.4189726,N,00952.3836141,E,2,11,0.8,-1.798,M,40.593,M,2.3,0123*66\r\n
$GPGGA,100235.85,5703.4189500,N,00952.3835814,E,2,11,0.8,-1.797,M,40.593,M,2.5,0123*66\r\n
$GPGGA,100235.90,5703.4189289,N,00952.3835469,E,2,11,0.8,-1.796,M,40.593,M,2.5,0123*63\r\n
$GPGGA,100235.95,5703.4189075,N,00952.3835124,E,2,11,0.8,-1.798,M,40.593,M,2.5,0123*65\r\n
$GPGGA,100236.00,5703.4188868,N,00952.3834772,E,2,11,0.8,-1.797,M,40.593,M,2.5,0123*64\r\n
$GPGGA,100236.05,5703.4188654,N,00952.3834440,E,2,11,0.8,-1.797,M,40.593,M,2.8,0123*6F\r\n
$GPGGA,100236.10,5703.4188445,N,00952.3834119,E,2,11,0.8,-1.799,M,40.593,M,2.8,0123*6E\r\n
$GPGGA,100236.15,5703.4188241,N,00952.3833791,E,2,11,0.8,-1.797,M,40.593,M,2.8,0123*66\r\n
$GPGGA,100236.20,5703.4188046,N,00952.3833456,E,2,11,0.8,-1.798,M,40.593,M,2.8,0123*62\r\n
$GPGGA,100236.25,5703.4187843,N,00952.3833110,E,2,11,0.8,-1.804,M,40.593,M,3.0,0123*61\r\n
$GPGGA,100236.30,5703.4187641,N,00952.3832778,E,2,11,0.8,-1.805,M,40.593,M,3.0,0123*61\r\n
$GPGGA,100236.35,5703.4187456,N,00952.3832450,E,2,11,0.8,-1.808,M,40.593,M,3.0,0123*64\r\n
$GPGGA,100236.40,5703.4187257,N,00952.3832105,E,2,11,0.8,-1.809,M,40.593,M,3.0,0123*65\r\n
$GPGGA,100236.45,5703.4187078,N,00952.3831765,E,2,11,0.8,-1.808,M,40.593,M,2.1,0123*6D\r\n
$GPGGA,100236.50,5703.4186897,N,00952.3831417,E,2,11,0.8,-1.811,M,40.593,M,2.1,0123*6F\r\n
$GPGGA,100236.55,5703.4186714,N,00952.3831078,E,2,11,0.8,-1.812,M,40.593,M,2.1,0123*60\r\n
$GPGGA,100236.60,5703.4186525,N,00952.3830735,E,2,11,0.8,-1.813,M,40.593,M,2.1,0123*68\r\n
$GPGGA,100236.65,5703.4186349,N,00952.3830385,E,2,11,0.8,-1.817,M,40.593,M,2.4,0123*6F\r\n
$GPGGA,100236.70,5703.4186177,N,00952.3830056,E,2,11,0.8,-1.817,M,40.593,M,2.4,0123*69\r\n
$GPGGA,100236.75,5703.4185995,N,00952.3829732,E,2,11,0.8,-1.816,M,40.593,M,2.4,0123*67\r\n
$GPGGA,100236.80,5703.4185817,N,00952.3829394,E,2,11,0.8,-1.818,M,40.593,M,2.4,0123*60\r\n
$GPGGA,100236.85,5703.4185644,N,00952.3829052,E,2,11,0.8,-1.817,M,40.593,M,2.6,0123*69\r\n
$GPGGA,100236.90,5703.4185480,N,00952.3828718,E,2,11,0.8,-1.816,M,40.593,M,2.6,0123*6E\r\n
$GPGGA,100236.95,5703.4185318,N,00952.3828376,E,2,11,0.8,-1.818,M,40.593,M,2.6,0123*6F\r\n
$GPGGA,100237.00,5703.4185157,N,00952.3828034,E,2,11,0.8,-1.819,M,40.593,M,2.6,0123*6F\r\n
$GPGGA,100237.05,5703.4184995,N,00952.3827696,E,2,11,0.8,-1.819,M,40.593,M,2.8,0123*62\r\n
$GPGGA,100237.10,5703.4184830,N,00952.3827354,E,2,11,0.8,-1.818,M,40.593,M,2.8,0123*62\r\n
$GPGGA,100237.15,5703.4184676,N,00952.3827013,E,2,11,0.8,-1.816,M,40.593,M,2.8,0123*65\r\n
$GPGGA,100237.20,5703.4184529,N,00952.3826672,E,2,11,0.8,-1.815,M,40.593,M,2.8,0123*69\r\n
$GPGGA,100237.25,5703.4184378,N,00952.3826317,E,2,11,0.8,-1.817,M,40.593,M,3.0,0123*63\r\n
$GPGGA,100237.30,5703.4184227,N,00952.3825964,E,2,11,0.8,-1.816,M,40.593,M,3.0,0123*60\r\n
$GPGGA,100237.35,5703.4184081,N,00952.3825623,E,2,11,0.8,-1.814,M,40.593,M,3.0,0123*65\r\n
$GPGGA,100237.40,5703.4183938,N,00952.3825264,E,2,11,0.8,-1.812,M,40.593,M,3.0,0123*6A\r\n
$GPGGA,100237.45,5703.4183802,N,00952.3824912,E,2,11,0.8,-1.808,M,40.593,M,2.4,0123*62\r\n
$GPGGA,100237.50,5703.4183661,N,00952.3824571,E,2,11,0.8,-1.808,M,40.593,M,2.4,0123*64\r\n
$GPGGA,100237.55,5703.4183523,N,00952.3824212,E,2,11,0.8,-1.808,M,40.593,M,2.4,0123*66\r\n
$GPGGA,100237.60,5703.4183389,N,00952.3823870,E,2,11,0.8,-1.807,M,40.593,M,2.4,0123*60\r\n
$GPGGA,100237.65,5703.4183251,N,00952.3823518,E,2,11,0.8,-1.808,M,40.593,M,2.6,0123*6F\r\n
$GPGGA,100237.70,5703.4183116,N,00952.3823161,E,2,11,0.8,-1.806,M,40.593,M,2.6,0123*6F\r\n
$GPGGA,100237.75,5703.4182986,N,00952.3822816,E,2,11,0.8,-1.805,M,40.593,M,2.6,0123*61\r\n
$GPGGA,100237.80,5703.4182856,N,00952.3822481,E,2,11,0.8,-1.805,M,40.593,M,2.6,0123*65\r\n
$GPGGA,100237.85,5703.4182729,N,00952.3822139,E,2,11,0.8,-1.804,M,40.593,M,2.9,0123*6F\r\n
$GPGGA,100237.90,5703.4182607,N,00952.3821771,E,2,11,0.8,-1.803,M,40.593,M,2.9,0123*68\r\n
