$GPGGA,070718.00,5703.3498226,N,00952.1615039,E,2,11,0.8,-1.882,M,40.592,M,1.3,0123*60\r\n
$GPGGA,070718.05,5703.3497914,N,00952.1614956,E,2,11,0.8,-1.882,M,40.592,M,1.6,0123*64\r\n
$GPGGA,070718.10,5703.3497609,N,00952.1614882,E,2,11,0.8,-1.882,M,40.592,M,1.6,0123*6B\r\n
$GPGGA,070718.15,5703.3497300,N,00952.1614813,E,2,11,0.8,-1.880,M,40.592,M,1.6,0123*68\r\n
$GPGGA,070718.20,5703.3496983,N,00952.1614755,E,2,11,0.8,-1.881,M,40.592,M,1.6,0123*62\r\n
$GPGGA,070718.25,5703.3496681,N,00952.1614693,E,2,11,0.8,-1.881,M,40.592,M,1.8,0123*6F\r\n
$GPGGA,070718.30,5703.3496377,N,00952.1614627,E,2,11,0.8,-1.880,M,40.592,M,1.8,0123*69\r\n
$GPGGA,070718.35,5703.3496065,N,00952.1614556,E,2,11,0.8,-1.877,M,40.592,M,1.8,0123*61\r\n
$GPGGA,070718.40,5703.3495751,N,00952.1614493,E,2,11,0.8,-1.876,M,40.592,M,1.8,0123*69\r\n
$GPGGA,070718.45,5703.3495447,N,00952.1614409,E,2,11,0.8,-1.873,M,40.592,M,2.0,0123*65\r\n
$GPGGA,070718.50,5703.3495138,N,00952.1614317,E,2,11,0.8,-1.873,M,40.592,M,2.0,0123*64\r\n
$GPGGA,070718.55,5703.3494826,N,00952.1614241,E,2,11,0.8,-1.868,M,40.592,M,2.0,0123*6E\r\n
$GPGGA,070718.60,5703.3494512,N,00952.1614160,E,2,11,0.8,-1.862,M,40.592,M,2.0,0123*68\r\n
$GPGGA,070718.65,5703.3494202,N,00952.1614066,E,2,11,0.8,-1.859,M,40.592,M,2.3,0123*67\r\n
$GPGGA,070718.70,5703.3493891,N,00952.1613966,E,2,11,0.8,-1.857,M,40.592,M,2.3,0123*64\r\n
$GPGGA,070718.75,5703.3493574,N,00952.1613879,E,2,11,0.8,-1.856,M,40.592,M,2.3,0123*69\r\n
$GPGGA,070718.80,5703.3493252,N,00952.1613794,E,2,11,0.8,-1.857,M,40.592,M,2.3,0123*6D\r\n
$GPGGA,070718.85,5703.3492942,N,00952.1613724,E,2,11,0.8,-1.857,M,40.592,M,2.5,0123*6E\r\n
$GPGGA,070718.90,5703.3492633,N,00952.1613661,E,2,11,0.8,-1.858,M,40.592,M,2.5,0123*6C\r\n
$GPGGA,070718.95,5703.3492318,N,00952.1613586,E,2,11,0.8,-1.862,M,40.592,M,2.5,0123*66\r\n
$GPGGA,070719.00,5703.3491998,N,00952.1613502,E,2,11,0.8,-1.867,M,40.592,M,2.5,0123*63\r\n
$GPGGA,070719.05,5703.3491679,N,00952.1613394,E,2,11,0.8,-1.871,M,40.592,M,2.7,0123*6A\r\n
$GPGGA,070719.10,5703.3491362,N,00952.1613297,E,2,11,0.8,-1.873,M,40.592,M,2.7,0123*61\r\n
$GPGGA,070719.15,5703.3491050,N,00952.1613188,E,2,11,0.8,-1.872,M,40.592,M,2.7,0123*6A\r\n
$GPGGA,070719.20,5703.3490729,N,00952.1613073,E,2,11,0.8,-1.871,M,40.592,M,2.7,0123*62\r\n
$GPGGA,070719.25,5703.3490410,N,00952.1612951,E,2,11,0.8,-1.870,M,40.592,M,2.9,0123*69\r\n
$GPGGA,070719.30,5703.3490076,N,00952.1612826,E,2,11,0.8,-1.873,M,40.592,M,2.9,0123*6B\r\n
$GPGGA,070719.35,5703.3489743,N,00952.1612702,E,2,11,0.8,-1.872,M,40.592,M,2.9,0123*6F\r\n
$GPGGA,070719.40,5703.3489430,N,00952.1612597,E,2,11,0.8,-1.873,M,40.592,M,2.9,0123*65\r\n
$GPGGA,070719.45,5703.3489116,N,00952.1612503,E,2,11,0.8,-1.880,M,40.592,M,3.1,0123*69\r\n
$GPGGA,070719.50,5703.3488807,N,00952.1612425,E,2,11,0.8,-1.883,M,40.592,M,3.1,0123*63\r\n
$GPGGA,070719.55,5703.3488494,N,00952.1612345,E,2,11,0.8,-1.882,M,40.592,M,3.1,0123*60\r\n
$GPGGA,070719.60,5703.3488189,N,00952.1612275,E,2,11,0.8,-1.880,M,40.592,M,3.1,0123*6F\r\n
$GPGGA,070719.65,5703.3487893,N,00952.1612204,E,2,11,0.8,-1.875,M,40.592,M,1.4,0123*6C\r\n
$GPGGA,070719.70,5703.3487592,N,00952.1612133,E,2,11,0.8,-1.874,M,40.592,M,1.4,0123*62\r\n
$GPGGA,070719.75,5703.3487280,N,00952.1612067,E,2,11,0.8,-1.875,M,40.592,M,1.4,0123*62\r\n
$GPGGA,070719.80,5703.3486964,N,00952.1611989,E,2,11,0.8,-1.877,M,40.592,M,1.4,0123*60\r\n
$GPGGA,070719.85,5703.3486655,N,00952.1611915,E,2,11,0.8,-1.880,M,40.592,M,1.8,0123*69\r\n
$GPGGA,070719.90,5703.3486345,N,00952.1611842,E,2,11,0.8,-1.881,M,40.592,M,1.8,0123*6B\r\n
$GPGGA,070719.95,5703.3486043,N,00952.1611771,E,2,11,0.8,-1.881,M,40.592,M,1.8,0123*64\r\n
$GPGGA,070720.00,5703.3485721,N,00952.1611695,E,2,11,0.8,-1.881,M,40.592,M,1.8,0123*69\r\n
$GPGGA,070720.05,5703.3485406,N,00952.1611593,E,2,11,0.8,-1.881,M,40.592,M,2.1,0123*65\r\n
$GPGGA,070720.10,5703.3485090,N,00952.1611510,E,2,11,0.8,-1.881,M,40.592,M,2.1,0123*61\r\n
$GPGGA,070720.15,5703.3484777,N,00952.1611421,E,2,11,0.8,-1.881,M,40.592,M,2.1,0123*68\r\n
$GPGGA,070720.20,5703.3484467,N,00952.1611339,E,2,11,0.8,-1.879,M,40.592,M,2.1,0123*65\r\n
$GPGGA,070720.25,5703.3484161,N,00952.1611273,E,2,11,0.8,-1.874,M,40.592,M,2.3,0123*63\r\n
$GPGGA,070720.30,5703.3483855,N,00952.1611196,E,2,11,0.8,-1.874,M,40.592,M,2.3,0123*66\r\n
$GPGGA,070720.35,5703.3483537,N,00952.1611116,E,2,11,0.8,-1.874,M,40.592,M,2.3,0123*62\r\n
$GPGGA,070720.40,5703.3483216,N,00952.1611029,E,2,11,0.8,-1.873,M,40.592,M,2.3,0123*6E\r\n
$GPGGA,070720.45,5703.3482902,N,00952.1610946,E,2,11,0.8,-1.876,M,40.592,M,2.6,0123*65\r\n
$GPGGA,070720.50,5703.3482585,N,00952.1610858,E,2,11,0.8,-1.877,M,40.592,M,2.6,0123*6D\r\n
$GPGGA,070720.55,5703.3482273,N,00952.1610774,E,2,11,0.8,-1.881,M,40.592,M,2.6,0123*6E\r\n
$GPGGA,070720.60,5703.3481950,N,00952.1610673,E,2,11,0.8,-1.882,M,40.592,M,2.6,0123*64\r\n
$GPGGA,070720.65,5703.3481625,N,00952.1610558,E,2,11,0.8,-1.881,M,40.592,M,1.1,0123*61\r\n
$GPGGA,070720.70,5703.3481299,N,00952.1610448,E,2,11,0.8,-1.881,M,40.592,M,1.1,0123*66\r\n
$GPGGA,070720.75,5703.3480976,N,00952.1610349,E,2,11,0.8,-1.882,M,40.592,M,1.1,0123*6D\r\n
$GPGGA,070720.80,5703.3480659,N,00952.1610253,E,2,11,0.8,-1.884,M,40.592,M,1.1,0123*69\r\n
$GPGGA,070720.85,5703.3480334,N,00952.1610129,E,2,11,0.8,-1.886,M,40.592,M,1.4,0123*6B\r\n
$GPGGA,070720.90,5703.3480006,N,00952.1610011,E,2,11,0.8,-1.884,M,40.592,M,1.4,0123*65\r\n
$GPGGA,070720.95,5703.3479673,N,00952.1609890,E,2,11,0.8,-1.882,M,40.592,M,1.4,0123*6D\r\n
$GPGGA,070721.00,5703.3479347,N,00952.1609757,E,2,11,0.8,-1.883,M,40.592,M,1.4,0123*67\r\n
$GPGGA,070721.05,5703.3479027,N,00952.1609631,E,2,11,0.8,-1.882,M,40.592,M,1.7,0123*64\r\n
$GPGGA,070721.10,5703.3478702,N,00952.1609524,E,2,11,0.8,-1.881,M,40.592,M,1.7,0123*65\r\n
$GPGGA,070721.15,5703.3478376,N,00952.1609425,E,2,11,0.8,-1.880,M,40.592,M,1.7,0123*66\r\n
$GPGGA,070721.20,5703.3478047,N,00952.1609315,E,2,11,0.8,-1.880,M,40.592,M,1.7,0123*65\r\n
$GPGGA,070721.25,5703.3477731,N,00952.1609217,E,2,11,0.8,-1.880,M,40.592,M,1.9,0123*64\r\n
$GPGGA,070721.30,5703.3477415,N,00952.1609118,E,2,11,0.8,-1.881,M,40.592,M,1.9,0123*68\r\n
$GPGGA,070721.35,5703.3477092,N,00952.1609020,E,2,11,0.8,-1.880,M,40.592,M,1.9,0123*6D\r\n
$GPGGA,070721.40,5703.3476765,N,00952.1608916,E,2,11,0.8,-1.881,M,40.592,M,1.9,0123*6D\r\n
$GPGGA,070721.45,5703.3476442,N,00952.1608806,E,2,11,0.8,-1.876,M,40.592,M,2.2,0123*6E\r\n
$GPGGA,070721.50,5703.3476108,N,00952.1608697,E,2,11,0.8,-1.875,M,40.592,M,2.2,0123*64\r\n
$GPGGA,070721.55,5703.3475785,N,00952.1608575,E,2,11,0.8,-1.874,M,40.592,M,2.2,0123*6F\r\n
$GPGGA,070721.60,5703.3475460,N,00952.1608471,E,2,11,0.8,-1.875,M,40.592,M,2.2,0123*65\r\n
$GPGGA,070721.65,5703.3475131,N,00952.1608364,E,2,11,0.8,-1.877,M,40.592,M,1.1,0123*60\r\n
$GPGGA,070721.70,5703.3474805,N,00952.1608251,E,2,11,0.8,-1.875,M,40.592,M,1.1,0123*6E\r\n
$GPGGA,070721.75,5703.3474481,N,00952.1608150,E,2,11,0.8,-1.871,M,40.592,M,1.1,0123*6D\r\n
$GPGGA,070721.80,5703.3474152,N,00952.1608044,E,2,11,0.8,-1.872,M,40.592,M,1.1,0123*6B\r\n
$GPGGA,070721.85,5703.3473826,N,00952.1607955,E,2,11,0.8,-1.872,M,40.592,M,1.3,0123*67\r\n
$GPGGA,070721.90,5703.3473506,N,00952.1607850,E,2,11,0.8,-1.870,M,40.592,M,1.3,0123*6A\r\n
$GPGGA,070721.95,5703.3473179,N,00952.1607733,E,2,11,0.8,-1.869,M,40.592,M,1.3,0123*61\r\n
$GPGGA,070722.00,5703.3472861,N,00952.1607619,E,2,11,0.8,-1.870,M,40.592,M,1.3,0123*6E\r\n
$GPGGA,070722.05,5703.3472539,N,00952.1607491,E,2,11,0.8,-1.867,M,40.592,M,1.6,0123*6A\r\n
$GPGGA,070722.10,5703.3472217,N,00952.1607376,E,2,11,0.8,-1.863,M,40.592,M,1.6,0123*6F\r\n
$GPGGA,070722.15,5703.3471893,N,00952.1607247,E,2,11,0.8,-1.864,M,40.592,M,1.6,0123*6B\r\n
$GPGGA,070722.20,5703.3471561,N,00952.1607130,E,2,11,0.8,-1.865,M,40.592,M,1.6,0123*6F\r\n
$GPGGA,070722.25,5703.3471236,N,00952.1606995,E,2,11,0.8,-1.864,M,40.592,M,1.8,0123*66\r\n
$GPGGA,070722.30,5703.3470908,N,00952.1606877,E,2,11,0.8,-1.864,M,40.592,M,1.8,0123*68\r\n
$GPGGA,070722.35,5703.3470579,N,00952.1606746,E,2,11,0.8,-1.863,M,40.592,M,1.8,0123*6D\r\n
$GPGGA,070722.40,5703.3470252,N,00952.1606595,E,2,11,0.8,-1.862,M,40.592,M,1.8,0123*6C\r\n
$GPGGA,070722.45,5703.3469924,N,00952.1606459,E,2,11,0.8,-1.864,M,40.592,M,2.0,0123*67\r\n
$GPGGA,070722.50,5703.3469590,N,00952.1606323,E,2,11,0.8,-1.863,M,40.592,M,2.0,0123*6D\r\n
$GPGGA,070722.55,5703.3469261,N,00952.1606191,E,2,11,0.8,-1.862,M,40.592,M,2.0,0123*6B\r\n
$GPGGA,070722.60,5703.3468936,N,00952.1606056,E,2,11,0.8,-1.862,M,40.592,M,2.0,0123*6F\r\n
$GPGGA,070722.65,5703.3468609,N,00952.1605919,E,2,11,0.8,-1.865,M,40.592,M,2.3,0123*6C\r\n
$GPGGA,070722.70,5703.3468271,N,00952.1605774,E,2,11,0.8,-1.868,M,40.592,M,2.3,0123*6B\r\n
$GPGGA,070722.75,5703.3467942,N,00952.1605629,E,2,11,0.8,-1.870,M,40.592,M,2.3,0123*6A\r\n
$GPGGA,070722.80,5703.3467611,N,00952.1605489,E,2,11,0.8,-1.871,M,40.592,M,2.3,0123*60\r\n
$GPGGA,070722.85,5703.3467282,N,00952.1605344,E,2,11,0.8,-1.877,M,40.592,M,2.5,0123*6D\r\n
$GPGGA,070722.90,5703.3466950,N,00952.1605198,E,2,11,0.8,-1.876,M,40.592,M,2.5,0123*6E\r\n
$GPGGA,070722.95,5703.3466616,N,00952.1605050,E,2,11,0.8,-1.877,M,40.592,M,2.5,0123*62\r\n
$GPGGA,070723.00,5703.3466282,N,00952.1604909,E,2,11,0.8,-1.879,M,40.592,M,2.5,0123*6C\r\n
$GPGGA,070723.05,5703.3465948,N,00952.1604749,E,2,11,0.8,-1.880,M,40.592,M,2.7,0123*69\r\n
$GPGGA,070723.10,5703.3465610,N,00952.1604586,E,2,11,0.8,-1.881,M,40.592,M,2.7,0123*6F\r\n
$GPGGA,070723.15,5703.3465277,N,00952.1604440,E,2,11,0.8,-1.878,M,40.592,M,2.7,0123*62\r\n
$GPGGA,070723.20,5703.3464943,N,00952.1604291,E,2,11,0.8,-1.877,M,40.592,M,2.7,0123*6C\r\n
$GPGGA,070723.25,5703.3464608,N,00952.1604138,E,2,11,0.8,-1.880,M,40.592,M,2.9,0123*6F\r\n
$GPGGA,070723.30,5703.3464270,N,00952.1603985,E,2,11,0.8,-1.882,M,40.592,M,2.9,0123*6B\r\n
$GPGGA,070723.35,5703.3463930,N,00952.1603836,E,2,11,0.8,-1.881,M,40.592,M,2.9,0123*6C\r\n
$GPGGA,070723.40,5703.3463590,N,00952.1603686,E,2,11,0.8,-1.878,M,40.592,M,2.9,0123*6B\r\n
$GPGGA,070723.45,5703.3463256,N,00952.1603528,E,2,11,0.8,-1.876,M,40.592,M,3.1,0123*63\r\n
$GPGGA,070723.50,5703.3462927,N,00952.1603373,E,2,11,0.8,-1.876,M,40.592,M,3.1,0123*63\r\n
$GPGGA,070723.55,5703.3462591,N,00952.1603235,E,2,11,0.8,-1.876,M,40.592,M,3.1,0123*64\r\n
$GPGGA,070723.60,5703.3462258,N,00952.1603104,E,2,11,0.8,-1.877,M,40.592,M,3.1,0123*60\r\n
$GPGGA,070723.65,5703.3461919,N,00952.1602969,E,2,11,0.8,-1.878,M,40.592,M,1.4,0123*62\r\n
$GPGGA,070723.70,5703.3461583,N,00952.1602829,E,2,11,0.8,-1.878,M,40.592,M,1.4,0123*6C\r\n
$GPGGA,070723.75,5703.3461257,N,00952.1602688,E,2,11,0.8,-1.876,M,40.592,M,1.4,0123*6C\r\n
$GPGGA,070723.80,5703.3460920,N,00952.1602534,E,2,11,0.8,-1.875,M,40.592,M,1.4,0123*6B\r\n
$GPGGA,070723.85,5703.3460583,N,00952.1602388,E,2,11,0.8,-1.869,M,40.592,M,1.8,0123*6B\r\n
$GPGGA,070723.90,5703.3460251,N,00952.1602236,E,2,11,0.8,-1.867,M,40.592,M,1.8,0123*6D\r\n
$GPGGA,070723.95,5703.3459911,N,00952.1602079,E,2,11,0.8,-1.865,M,40.592,M,1.8,0123*66\r\n
$GPGGA,070724.00,5703.3459574,N,00952.1601919,E,2,11,0.8,-1.861,M,40.592,M,1.8,0123*6A\r\n
$GPGGA,070724.05,5703.3459236,N,00952.1601738,E,2,11,0.8,-1.863,M,40.592,M,2.1,0123*6B\r\n
$GPGGA,070724.10,5703.3458900,N,00952.1601581,E,2,11,0.8,-1.864,M,40.592,M,2.1,0123*67\r\n
$GPGGA,070724.15,5703.3458561,N,00952.1601443,E,2,11,0.8,-1.863,M,40.592,M,2.1,0123*61\r\n
$GPGGA,070724.20,5703.3458229,N,00952.1601312,E,2,11,0.8,-1.862,M,40.592,M,2.1,0123*6E\r\n
$GPGGA,070724.25,5703.3457898,N,00952.1601157,E,2,11,0.8,-1.858,M,40.592,M,2.3,0123*6C\r\n
$GPGGA,070724.30,5703.3457564,N,00952.1600996,E,2,11,0.8,-1.860,M,40.592,M,2.3,0123*69\r\n
$GPGGA,070724.35,5703.3457217,N,00952.1600834,E,2,11,0.8,-1.863,M,40.592,M,2.3,0123*65\r\n
$GPGGA,070724.40,5703.3456877,N,00952.1600660,E,2,11,0.8,-1.865,M,40.592,M,2.3,0123*63\r\n
$GPGGA,070724.45,5703.3456540,N,00952.1600473,E,2,11,0.8,-1.869,M,40.592,M,2.6,0123*66\r\n
$GPGGA,070724.50,5703.3456202,N,00952.1600304,E,2,11,0.8,-1.871,M,40.592,M,2.6,0123*6D\r\n
$GPGGA,070724.55,5703.3455863,N,00952.1600148,E,2,11,0.8,-1.871,M,40.592,M,2.6,0123*6C\r\n
$GPGGA,070724.60,5703.3455522,N,00952.1599977,E,2,11,0.8,-1.872,M,40.592,M,2.6,0123*66\r\n
$GPGGA,070724.65,5703.3455186,N,00952.1599814,E,2,11,0.8,-1.873,M,40.592,M,1.1,0123*68\r\n
$GPGGA,070724.70,5703.3454849,N,00952.1599643,E,2,11,0.8,-1.875,M,40.592,M,1.1,0123*6D\r\n
$GPGGA,070724.75,5703.3454513,N,00952.1599465,E,2,11,0.8,-1.876,M,40.592,M,1.1,0123*6F\r\n
$GPGGA,070724.80,5703.3454173,N,00952.1599294,E,2,11,0.8,-1.876,M,40.592,M,1.1,0123*6F\r\n
$GPGGA,070724.85,5703.3453836,N,00952.1599133,E,2,11,0.8,-1.874,M,40.592,M,1.4,0123*6C\r\n
$GPGGA,070724.90,5703.3453505,N,00952.1598970,E,2,11,0.8,-1.872,M,40.592,M,1.4,0123*6D\r\n
$GPGGA,070724.95,5703.3453169,N,00952.1598789,E,2,11,0.8,-1.873,M,40.592,M,1.4,0123*6F\r\n
$GPGGA,070725.00,5703.3452833,N,00952.1598620,E,2,11,0.8,-1.874,M,40.592,M,1.4,0123*60\r\n
$GPGGA,070725.05,5703.3452486,N,00952.1598426,E,2,11,0.8,-1.876,M,40.592,M,1.7,0123*62\r\n
$GPGGA,070725.10,5703.3452145,N,00952.1598252,E,2,11,0.8,-1.876,M,40.592,M,1.7,0123*69\r\n
$GPGGA,070725.15,5703.3451801,N,00952.1598073,E,2,11,0.8,-1.878,M,40.592,M,1.7,0123*69\r\n
$GPGGA,070725.20,5703.3451470,N,00952.1597899,E,2,11,0.8,-1.878,M,40.592,M,1.7,0123*66\r\n
$GPGGA,070725.25,5703.3451117,N,00952.1597697,E,2,11,0.8,-1.882,M,40.592,M,1.9,0123*6C\r\n
$GPGGA,070725.30,5703.3450780,N,00952.1597519,E,2,11,0.8,-1.880,M,40.592,M,1.9,0123*66\r\n
$GPGGA,070725.35,5703.3450434,N,00952.1597346,E,2,11,0.8,-1.882,M,40.592,M,1.9,0123*61\r\n
$GPGGA,070725.40,5703.3450092,N,00952.1597178,E,2,11,0.8,-1.884,M,40.592,M,1.9,0123*62\r\n
$GPGGA,070725.45,5703.3449750,N,00952.1596999,E,2,11,0.8,-1.879,M,40.592,M,2.2,0123*6A\r\n
$GPGGA,070725.50,5703.3449419,N,00952.1596847,E,2,11,0.8,-1.878,M,40.592,M,2.2,0123*63\r\n
$GPGGA,070725.55,5703.3449081,N,00952.1596688,E,2,11,0.8,-1.879,M,40.592,M,2.2,0123*6F\r\n
$GPGGA,070725.60,5703.3448737,N,00952.1596518,E,2,11,0.8,-1.880,M,40.592,M,2.2,0123*6E\r\n
$GPGGA,070725.65,5703.3448397,N,00952.1596362,E,2,11,0.8,-1.875,M,40.592,M,1.1,0123*64\r\n
$GPGGA,070725.70,5703.3448057,N,00952.1596190,E,2,11,0.8,-1.874,M,40.592,M,1.1,0123*61\r\n
$GPGGA,070725.75,5703.3447725,N,00952.1596010,E,2,11,0.8,-1.872,M,40.592,M,1.1,0123*66\r\n
$GPGGA,070725.80,5703.3447386,N,00952.1595817,E,2,11,0.8,-1.870,M,40.592,M,1.1,0123*6F\r\n
$GPGGA,070725.85,5703.3447038,N,00952.1595642,E,2,11,0.8,-1.875,M,40.592,M,1.3,0123*65\r\n
$GPGGA,070725.90,5703.3446694,N,00952.1595471,E,2,11,0.8,-1.874,M,40.592,M,1.3,0123*63\r\n
$GPGGA,070725.95,5703.3446352,N,00952.1595289,E,2,11,0.8,-1.872,M,40.592,M,1.3,0123*6E\r\n
$GPGGA,070726.00,5703.3446011,N,00952.1595110,E,2,11,0.8,-1.871,M,40.592,M,1.3,0123*65\r\n
$GPGGA,070726.05,5703.3445671,N,00952.1594927,E,2,11,0.8,-1.867,M,40.592,M,1.6,0123*6C\r\n
$GPGGA,070726.10,5703.3445325,N,00952.1594774,E,2,11,0.8,-1.869,M,40.592,M,1.6,0123*6A\r\n
$GPGGA,070726.15,5703.3444983,N,00952.1594606,E,2,11,0.8,-1.870,M,40.592,M,1.6,0123*64\r\n
$GPGGA,070726.20,5703.3444649,N,00952.1594437,E,2,11,0.8,-1.868,M,40.592,M,1.6,0123*62\r\n
$GPGGA,070726.25,5703.3444315,N,00952.1594266,E,2,11,0.8,-1.870,M,40.592,M,1.8,0123*6E\r\n
$GPGGA,070726.30,5703.3443981,N,00952.1594104,E,2,11,0.8,-1.871,M,40.592,M,1.8,0123*6C\r\n
$GPGGA,070726.35,5703.3443638,N,00952.1593917,E,2,11,0.8,-1.871,M,40.592,M,1.8,0123*69\r\n
$GPGGA,070726.40,5703.3443290,N,00952.1593704,E,2,11,0.8,-1.868,M,40.592,M,1.8,0123*69\r\n
$GPGGA,070726.45,5703.3442942,N,00952.1593496,E,2,11,0.8,-1.864,M,40.592,M,2.0,0123*66\r\n
$GPGGA,070726.50,5703.3442603,N,00952.1593298,E,2,11,0.8,-1.865,M,40.592,M,2.0,0123*61\r\n
$GPGGA,070726.55,5703.3442259,N,00952.1593084,E,2,11,0.8,-1.866,M,40.592,M,2.0,0123*63\r\n
$GPGGA,070726.60,5703.3441916,N,00952.1592886,E,2,11,0.8,-1.866,M,40.592,M,2.0,0123*6D\r\n
$GPGGA,070726.65,5703.3441571,N,00952.1592703,E,2,11,0.8,-1.869,M,40.592,M,2.3,0123*6B\r\n
$GPGGA,070726.70,5703.3441224,N,00952.1592532,E,2,11,0.8,-1.870,M,40.592,M,2.3,0123*60\r\n
$GPGGA,070726.75,5703.3440884,N,00952.1592344,E,2,11,0.8,-1.872,M,40.592,M,2.3,0123*61\r\n
$GPGGA,070726.80,5703.3440540,N,00952.1592164,E,2,11,0.8,-1.874,M,40.592,M,2.3,0123*68\r\n
$GPGGA,070726.85,5703.3440199,N,00952.1591984,E,2,11,0.8,-1.874,M,40.592,M,2.5,0123*6E\r\n
$GPGGA,070726.90,5703.3439855,N,00952.1591797,E,2,11,0.8,-1.877,M,40.592,M,2.5,0123*62\r\n
$GPGGA,070726.95,5703.3439518,N,00952.1591606,E,2,11,0.8,-1.878,M,40.592,M,2.5,0123*65\r\n
$GPGGA,070727.00,5703.3439165,N,00952.1591386,E,2,11,0.8,-1.878,M,40.592,M,2.5,0123*6B\r\n
$GPGGA,070727.05,5703.3438816,N,00952.1591147,E,2,11,0.8,-1.880,M,40.592,M,2.7,0123*68\r\n
$GPGGA,070727.10,5703.3438472,N,00952.1590940,E,2,11,0.8,-1.880,M,40.592,M,2.7,0123*6C\r\n
$GPGGA,070727.15,5703.3438136,N,00952.1590728,E,2,11,0.8,-1.879,M,40.592,M,2.7,0123*6A\r\n
$GPGGA,070727.20,5703.3437800,N,00952.1590522,E,2,11,0.8,-1.879,M,40.592,M,2.7,0123*67\r\n
$GPGGA,070727.25,5703.3437450,N,00952.1590309,E,2,11,0.8,-1.880,M,40.592,M,2.9,0123*6C\r\n
$GPGGA,070727.30,5703.3437102,N,00952.1590114,E,2,11,0.8,-1.882,M,40.592,M,2.9,0123*66\r\n
$GPGGA,070727.35,5703.3436749,N,00952.1589918,E,2,11,0.8,-1.882,M,40.592,M,2.9,0123*67\r\n
$GPGGA,070727.40,5703.3436399,N,00952.1589747,E,2,11,0.8,-1.881,M,40.592,M,2.9,0123*6B\r\n
$GPGGA,070727.45,5703.3436058,N,00952.1589571,E,2,11,0.8,-1.882,M,40.592,M,3.1,0123*6D\r\n
$GPGGA,070727.50,5703.3435716,N,00952.1589382,E,2,11,0.8,-1.884,M,40.592,M,3.1,0123*6B\r\n
$GPGGA,070727.55,5703.3435371,N,00952.1589184,E,2,11,0.8,-1.886,M,40.592,M,3.1,0123*6D\r\n
$GPGGA,070727.60,5703.3435020,N,00952.1588999,E,2,11,0.8,-1.889,M,40.592,M,3.1,0123*66\r\n
$GPGGA,070727.65,5703.3434675,N,00952.1588790,E,2,11,0.8,-1.888,M,40.592,M,1.4,0123*65\r\n
$GPGGA,070727.70,5703.3434326,N,00952.1588584,E,2,11,0.8,-1.885,M,40.592,M,1.4,0123*68\r\n
$GPGGA,070727.75,5703.3433991,N,00952.1588372,E,2,11,0.8,-1.884,M,40.592,M,1.4,0123*62\r\n
$GPGGA,070727.80,5703.3433650,N,00952.1588170,E,2,11,0.8,-1.882,M,40.592,M,1.4,0123*6C\r\n
$GPGGA,070727.85,5703.3433313,N,00952.1587960,E,2,11,0.8,-1.881,M,40.592,M,1.8,0123*62\r\n
$GPGGA,070727.90,5703.3432960,N,00952.1587739,E,2,11,0.8,-1.881,M,40.592,M,1.8,0123*6B\r\n
$GPGGA,070727.95,5703.3432609,N,00952.1587519,E,2,11,0.8,-1.882,M,40.592,M,1.8,0123*6D\r\n
$GPGGA,070728.00,5703.3432263,N,00952.1587313,E,2,11,0.8,-1.881,M,40.592,M,1.8,0123*69\r\n
$GPGGA,070728.05,5703.3431920,N,00952.1587096,E,2,11,0.8,-1.879,M,40.592,M,2.1,0123*60\r\n
$GPGGA,070728.10,5703.3431577,N,00952.1586884,E,2,11,0.8,-1.878,M,40.592,M,2.1,0123*61\r\n
$GPGGA,070728.15,5703.3431228,N,00952.1586673,E,2,11,0.8,-1.877,M,40.592,M,2.1,0123*60\r\n
$GPGGA,070728.20,5703.3430880,N,00952.1586470,E,2,11,0.8,-1.877,M,40.592,M,2.1,0123*6E\r\n
$GPGGA,070728.25,5703.3430533,N,00952.1586266,E,2,11,0.8,-1.876,M,40.592,M,2.3,0123*6C\r\n
$GPGGA,070728.30,5703.3430192,N,00952.1586067,E,2,11,0.8,-1.876,M,40.592,M,2.3,0123*64\r\n
$GPGGA,070728.35,5703.3429840,N,00952.1585856,E,2,11,0.8,-1.876,M,40.592,M,2.3,0123*66\r\n
$GPGGA,070728.40,5703.3429486,N,00952.1585643,E,2,11,0.8,-1.878,M,40.592,M,2.3,0123*66\r\n
$GPGGA,070728.45,5703.3429142,N,00952.1585416,E,2,11,0.8,-1.880,M,40.592,M,2.6,0123*6E\r\n
$GPGGA,070728.50,5703.3428791,N,00952.1585209,E,2,11,0.8,-1.878,M,40.592,M,2.6,0123*6C\r\n
$GPGGA,070728.55,5703.3428441,N,00952.1584998,E,2,11,0.8,-1.876,M,40.592,M,2.6,0123*6B\r\n
$GPGGA,070728.60,5703.3428087,N,00952.1584770,E,2,11,0.8,-1.875,M,40.592,M,2.6,0123*68\r\n
$GPGGA,070728.65,5703.3427743,N,00952.1584545,E,2,11,0.8,-1.878,M,40.592,M,1.1,0123*60\r\n
$GPGGA,070728.70,5703.3427400,N,00952.1584332,E,2,11,0.8,-1.881,M,40.592,M,1.1,0123*60\r\n
$GPGGA,070728.75,5703.3427049,N,00952.1584132,E,2,11,0.8,-1.881,M,40.592,M,1.1,0123*6E\r\n
$GPGGA,070728.80,5703.3426705,N,00952.1583927,E,2,11,0.8,-1.883,M,40.592,M,1.1,0123*63\r\n
$GPGGA,070728.85,5703.3426360,N,00952.1583714,E,2,11,0.8,-1.883,M,40.592,M,1.4,0123*6A\r\n
$GPGGA,070728.90,5703.3426009,N,00952.1583484,E,2,11,0.8,-1.884,M,40.592,M,1.4,0123*6F\r\n
$GPGGA,070728.95,5703.3425666,N,00952.1583265,E,2,11,0.8,-1.884,M,40.592,M,1.4,0123*6F\r\n
$GPGGA,070729.00,5703.3425320,N,00952.1583056,E,2,11,0.8,-1.886,M,40.592,M,1.4,0123*65\r\n
$GPGGA,070729.05,5703.3424981,N,00952.1582838,E,2,11,0.8,-1.886,M,40.592,M,1.7,0123*62\r\n
$GPGGA,070729.10,5703.3424633,N,00952.1582624,E,2,11,0.8,-1.884,M,40.592,M,1.7,0123*61\r\n
$GPGGA,070729.15,5703.3424282,N,00952.1582400,E,2,11,0.8,-1.882,M,40.592,M,1.7,0123*68\r\n
$GPGGA,070729.20,5703.3423929,N,00952.1582182,E,2,11,0.8,-1.883,M,40.592,M,1.7,0123*6D\r\n
$GPGGA,070729.25,5703.3423580,N,00952.1581965,E,2,11,0.8,-1.887,M,40.592,M,1.9,0123*6F\r\n
$GPGGA,070729.30,5703.3423231,N,00952.1581754,E,2,11,0.8,-1.889,M,40.592,M,1.9,0123*64\r\n
$GPGGA,070729.35,5703.3422878,N,00952.1581534,E,2,11,0.8,-1.891,M,40.592,M,1.9,0123*6A\r\n
$GPGGA,070729.40,5703.3422532,N,00952.1581306,E,2,11,0.8,-1.892,M,40.592,M,1.9,0123*6F\r\n
$GPGGA,070729.45,5703.3422179,N,00952.1581076,E,2,11,0.8,-1.897,M,40.592,M,2.2,0123*68\r\n
$GPGGA,070729.50,5703.3421820,N,00952.1580842,E,2,11,0.8,-1.895,M,40.592,M,2.2,0123*66\r\n
$GPGGA,070729.55,5703.3421468,N,00952.1580607,E,2,11,0.8,-1.896,M,40.592,M,2.2,0123*6F\r\n
$GPGGA,070729.60,5703.3421132,N,00952.1580363,E,2,11,0.8,-1.899,M,40.592,M,2.2,0123*6B\r\n
$GPGGA,070729.65,5703.3420785,N,00952.1580140,E,2,11,0.8,-1.895,M,40.592,M,1.1,0123*6A\r\n
$GPGGA,070729.70,5703.3420437,N,00952.1579919,E,2,11,0.8,-1.894,M,40.592,M,1.1,0123*67\r\n
$GPGGA,070729.75,5703.3420087,N,00952.1579698,E,2,11,0.8,-1.895,M,40.592,M,1.1,0123*6A\r\n
$GPGGA,070729.80,5703.3419734,N,00952.1579472,E,2,11,0.8,-1.893,M,40.592,M,1.1,0123*65\r\n
$GPGGA,070729.85,5703.3419384,N,00952.1579237,E,2,11,0.8,-1.888,M,40.592,M,1.3,0123*60\r\n
$GPGGA,070729.90,5703.3419032,N,00952.1579004,E,2,11,0.8,-1.888,M,40.592,M,1.3,0123*68\r\n
$GPGGA,070729.95,5703.3418685,N,00952.1578771,E,2,11,0.8,-1.889,M,40.592,M,1.3,0123*63\r\n
$GPGGA,070730.00,5703.3418330,N,00952.1578549,E,2,11,0.8,-1.889,M,40.592,M,1.3,0123*65\r\n
$GPGGA,070730.05,5703.3417971,N,00952.1578318,E,2,11,0.8,-1.891,M,40.592,M,1.6,0123*6E\r\n
$GPGGA,070730.10,5703.3417616,N,00952.1578106,E,2,11,0.8,-1.889,M,40.592,M,1.6,0123*60\r\n
$GPGGA,070730.15,5703.3417262,N,00952.1577900,E,2,11,0.8,-1.888,M,40.592,M,1.6,0123*62\r\n
$GPGGA,070730.20,5703.3416917,N,00952.1577686,E,2,11,0.8,-1.888,M,40.592,M,1.6,0123*6D\r\n
$GPGGA,070730.25,5703.3416566,N,00952.1577475,E,2,11,0.8,-1.886,M,40.592,M,1.8,0123*6C\r\n
$GPGGA,070730.30,5703.3416209,N,00952.1577250,E,2,11,0.8,-1.884,M,40.592,M,1.8,0123*65\r\n
$GPGGA,070730.35,5703.3415851,N,00952.1577030,E,2,11,0.8,-1.885,M,40.592,M,1.8,0123*61\r\n
$GPGGA,070730.40,5703.3415489,N,00952.1576813,E,2,11,0.8,-1.885,M,40.592,M,1.8,0123*62\r\n
$GPGGA,070730.45,5703.3415133,N,00952.1576579,E,2,11,0.8,-1.884,M,40.592,M,2.0,0123*68\r\n
$GPGGA,070730.50,5703.3414786,N,00952.1576329,E,2,11,0.8,-1.885,M,40.592,M,2.0,0123*67\r\n
$GPGGA,070730.55,5703.3414442,N,00952.1576079,E,2,11,0.8,-1.887,M,40.592,M,2.0,0123*6D\r\n
$GPGGA,070730.60,5703.3414092,N,00952.1575829,E,2,11,0.8,-1.886,M,40.592,M,2.0,0123*6D\r\n
$GPGGA,070730.65,5703.3413742,N,00952.1575594,E,2,11,0.8,-1.882,M,40.592,M,2.3,0123*69\r\n
$GPGGA,070730.70,5703.3413389,N,00952.1575368,E,2,11,0.8,-1.880,M,40.592,M,2.3,0123*69\r\n
$GPGGA,070730.75,5703.3413045,N,00952.1575134,E,2,11,0.8,-1.876,M,40.592,M,2.3,0123*6D\r\n
$GPGGA,070730.80,5703.3412695,N,00952.1574898,E,2,11,0.8,-1.874,M,40.592,M,2.3,0123*61\r\n
$GPGGA,070730.85,5703.3412350,N,00952.1574683,E,2,11,0.8,-1.873,M,40.592,M,2.5,0123*6D\r\n
$GPGGA,070730.90,5703.3412003,N,00952.1574478,E,2,11,0.8,-1.871,M,40.592,M,2.5,0123*68\r\n
$GPGGA,070730.95,5703.3411650,N,00952.1574269,E,2,11,0.8,-1.871,M,40.592,M,2.5,0123*68\r\n
$GPGGA,070731.00,5703.3411290,N,00952.1574061,E,2,11,0.8,-1.872,M,40.592,M,2.5,0123*64\r\n
$GPGGA,070731.05,5703.3410928,N,00952.1573848,E,2,11,0.8,-1.874,M,40.592,M,2.7,0123*68\r\n
$GPGGA,070731.10,5703.3410560,N,00952.1573637,E,2,11,0.8,-1.875,M,40.592,M,2.7,0123*6B\r\n
$GPGGA,070731.15,5703.3410193,N,00952.1573428,E,2,11,0.8,-1.874,M,40.592,M,2.7,0123*6B\r\n
$GPGGA,070731.20,5703.3409819,N,00952.1573212,E,2,11,0.8,-1.874,M,40.592,M,2.7,0123*61\r\n
$GPGGA,070731.25,5703.3409443,N,00952.1572996,E,2,11,0.8,-1.874,M,40.592,M,2.9,0123*6F\r\n
$GPGGA,070731.30,5703.3409072,N,00952.1572798,E,2,11,0.8,-1.874,M,40.592,M,2.9,0123*6D\r\n
$GPGGA,070731.35,5703.3408692,N,00952.1572588,E,2,11,0.8,-1.872,M,40.592,M,2.9,0123*64\r\n
$GPGGA,070731.40,5703.3408313,N,00952.1572371,E,2,11,0.8,-1.872,M,40.592,M,2.9,0123*6A\r\n
$GPGGA,070731.45,5703.3407920,N,00952.1572166,E,2,11,0.8,-1.871,M,40.592,M,3.1,0123*64\r\n
$GPGGA,070731.50,5703.3407512,N,00952.1571978,E,2,11,0.8,-1.869,M,40.592,M,3.1,0123*60\r\n
$GPGGA,070731.55,5703.3407099,N,00952.1571778,E,2,11,0.8,-1.870,M,40.592,M,3.1,0123*65\r\n
$GPGGA,070731.60,5703.3406682,N,00952.1571577,E,2,11,0.8,-1.869,M,40.592,M,3.1,0123*6B\r\n
$GPGGA,070731.65,5703.3406258,N,00952.1571385,E,2,11,0.8,-1.868,M,40.592,M,1.4,0123*60\r\n
$GPGGA,070731.70,5703.3405827,N,00952.1571206,E,2,11,0.8,-1.863,M,40.592,M,1.4,0123*64\r\n
$GPGGA,070731.75,5703.3405388,N,00952.1571016,E,2,11,0.8,-1.858,M,40.592,M,1.4,0123*64\r\n
$GPGGA,070731.80,5703.3404934,N,00952.1570839,E,2,11,0.8,-1.852,M,40.592,M,1.4,0123*6C\r\n
$GPGGA,070731.85,5703.3404474,N,00952.1570700,E,2,11,0.8,-1.844,M,40.592,M,1.8,0123*6E\r\n
$GPGGA,070731.90,5703.3403999,N,00952.1570560,E,2,11,0.8,-1.837,M,40.592,M,1.8,0123*63\r\n
$GPGGA,070731.95,5703.3403521,N,00952.1570429,E,2,11,0.8,-1.831,M,40.592,M,1.8,0123*63\r\n
$GPGGA,070732.00,5703.3403024,N,00952.1570310,E,2,11,0.8,-1.827,M,40.592,M,1.8,0123*66\r\n
$GPGGA,070732.05,5703.3402512,N,00952.1570195,E,2,11,0.8,-1.823,M,40.592,M,2.1,0123*63\r\n
$GPGGA,070732.10,5703.3401995,N,00952.1570093,E,2,11,0.8,-1.817,M,40.592,M,2.1,0123*67\r\n
$GPGGA,070732.15,5703.3401469,N,00952.1569988,E,2,11,0.8,-1.808,M,40.592,M,2.1,0123*69\r\n
$GPGGA,070732.20,5703.3400936,N,00952.1569904,E,2,11,0.8,-1.801,M,40.592,M,2.1,0123*64\r\n
$GPGGA,070732.25,5703.3400391,N,00952.1569821,E,2,11,0.8,-1.801,M,40.592,M,2.3,0123*62\r\n
$GPGGA,070732.30,5703.3399826,N,00952.1569745,E,2,11,0.8,-1.796,M,40.592,M,2.3,0123*6A\r\n
$GPGGA,070732.35,5703.3399253,N,00952.1569683,E,2,11,0.8,-1.790,M,40.592,M,2.3,0123*6A\r\n
$GPGGA,070732.40,5703.3398673,N,00952.1569640,E,2,11,0.8,-1.787,M,40.592,M,2.3,0123*66\r\n
$GPGGA,070732.45,5703.3398086,N,00952.1569627,E,2,11,0.8,-1.783,M,40.592,M,2.6,0123*6F\r\n
$GPGGA,070732.50,5703.3397484,N,00952.1569622,E,2,11,0.8,-1.781,M,40.592,M,2.6,0123*65\r\n
$GPGGA,070732.55,5703.3396876,N,00952.1569613,E,2,11,0.8,-1.778,M,40.592,M,2.6,0123*64\r\n
$GPGGA,070732.60,5703.3396268,N,00952.1569603,E,2,11,0.8,-1.774,M,40.592,M,2.6,0123*6A\r\n
$GPGGA,070732.65,5703.3395655,N,00952.1569613,E,2,11,0.8,-1.773,M,40.592,M,1.1,0123*64\r\n
$GPGGA,070732.70,5703.3395022,N,00952.1569627,E,2,11,0.8,-1.772,M,40.592,M,1.1,0123*60\r\n
$GPGGA,070732.75,5703.3394383,N,00952.1569648,E,2,11,0.8,-1.769,M,40.592,M,1.1,0123*6F\r\n
$GPGGA,070732.80,5703.3393746,N,00952.1569666,E,2,11,0.8,-1.768,M,40.592,M,1.1,0123*62\r\n
$GPGGA,070732.85,5703.3393100,N,00952.1569690,E,2,11,0.8,-1.767,M,40.592,M,1.4,0123*60\r\n
$GPGGA,070732.90,5703.3392454,N,00952.1569741,E,2,11,0.8,-1.767,M,40.592,M,1.4,0123*6C\r\n
$GPGGA,070732.95,5703.3391812,N,00952.1569811,E,2,11,0.8,-1.765,M,40.592,M,1.4,0123*6C\r\n
$GPGGA,070733.00,5703.3391167,N,00952.1569905,E,2,11,0.8,-1.765,M,40.592,M,1.4,0123*6E\r\n
$GPGGA,070733.05,5703.3390504,N,00952.1569968,E,2,11,0.8,-1.766,M,40.592,M,1.7,0123*60\r\n
$GPGGA,070733.10,5703.3389845,N,00952.1570039,E,2,11,0.8,-1.768,M,40.592,M,1.7,0123*6F\r\n
$GPGGA,070733.15,5703.3389186,N,00952.1570125,E,2,11,0.8,-1.768,M,40.592,M,1.7,0123*60\r\n
$GPGGA,070733.20,5703.3388521,N,00952.1570240,E,2,11,0.8,-1.768,M,40.592,M,1.7,0123*6E\r\n
$GPGGA,070733.25,5703.3387858,N,00952.1570360,E,2,11,0.8,-1.768,M,40.592,M,1.9,0123*6A\r\n
$GPGGA,070733.30,5703.3387202,N,00952.1570478,E,2,11,0.8,-1.766,M,40.592,M,1.9,0123*6B\r\n
$GPGGA,070733.35,5703.3386534,N,00952.1570607,E,2,11,0.8,-1.766,M,40.592,M,1.9,0123*67\r\n
$GPGGA,070733.40,5703.3385866,N,00952.1570750,E,2,11,0.8,-1.766,M,40.592,M,1.9,0123*6F\r\n
$GPGGA,070733.45,5703.3385199,N,00952.1570895,E,2,11,0.8,-1.763,M,40.592,M,2.2,0123*68\r\n
$GPGGA,070733.50,5703.3384528,N,00952.1571046,E,2,11,0.8,-1.762,M,40.592,M,2.2,0123*65\r\n
$GPGGA,070733.55,5703.3383863,N,00952.1571214,E,2,11,0.8,-1.762,M,40.592,M,2.2,0123*60\r\n
$GPGGA,070733.60,5703.3383184,N,00952.1571374,E,2,11,0.8,-1.761,M,40.592,M,2.2,0123*62\r\n
$GPGGA,070733.65,5703.3382510,N,00952.1571550,E,2,11,0.8,-1.763,M,40.592,M,1.1,0123*6D\r\n
$GPGGA,070733.70,5703.3381838,N,00952.1571737,E,2,11,0.8,-1.766,M,40.592,M,1.1,0123*6B\r\n
$GPGGA,070733.75,5703.3381163,N,00952.1571932,E,2,11,0.8,-1.769,M,40.592,M,1.1,0123*6D\r\n
$GPGGA,070733.80,5703.3380478,N,00952.1572134,E,2,11,0.8,-1.768,M,40.592,M,1.1,0123*65\r\n
$GPGGA,070733.85,5703.3379803,N,00952.1572349,E,2,11,0.8,-1.768,M,40.592,M,1.3,0123*6C\r\n
$GPGGA,070733.90,5703.3379116,N,00952.1572556,E,2,11,0.8,-1.769,M,40.592,M,1.3,0123*6C\r\n
$GPGGA,070733.95,5703.3378434,N,00952.1572780,E,2,11,0.8,-1.772,M,40.592,M,1.3,0123*6E\r\n
$GPGGA,070734.00,5703.3377763,N,00952.1573030,E,2,11,0.8,-1.772,M,40.592,M,1.3,0123*66\r\n
$GPGGA,070734.05,5703.3377088,N,00952.1573284,E,2,11,0.8,-1.773,M,40.592,M,1.6,0123*68\r\n
$GPGGA,070734.10,5703.3376415,N,00952.1573558,E,2,11,0.8,-1.773,M,40.592,M,1.6,0123*6B\r\n
$GPGGA,070734.15,5703.3375740,N,00952.1573826,E,2,11,0.8,-1.773,M,40.592,M,1.6,0123*6A\r\n
$GPGGA,070734.20,5703.3375063,N,00952.1574115,E,2,11,0.8,-1.776,M,40.592,M,1.6,0123*61\r\n
$GPGGA,070734.25,5703.3374390,N,00952.1574422,E,2,11,0.8,-1.778,M,40.592,M,1.8,0123*6B\r\n
$GPGGA,070734.30,5703.3373716,N,00952.1574739,E,2,11,0.8,-1.780,M,40.592,M,1.8,0123*6C\r\n
$GPGGA,070734.35,5703.3373040,N,00952.1575078,E,2,11,0.8,-1.781,M,40.592,M,1.8,0123*6F\r\n
$GPGGA,070734.40,5703.3372372,N,00952.1575427,E,2,11,0.8,-1.783,M,40.592,M,1.8,0123*62\r\n
$GPGGA,070734.45,5703.3371711,N,00952.1575773,E,2,11,0.8,-1.781,M,40.592,M,2.0,0123*6E\r\n
$GPGGA,070734.50,5703.3371049,N,00952.1576132,E,2,11,0.8,-1.782,M,40.592,M,2.0,0123*63\r\n
$GPGGA,070734.55,5703.3370384,N,00952.1576488,E,2,11,0.8,-1.784,M,40.592,M,2.0,0123*67\r\n
$GPGGA,070734.60,5703.3369713,N,00952.1576847,E,2,11,0.8,-1.786,M,40.592,M,2.0,0123*6E\r\n
$GPGGA,070734.65,5703.3369052,N,00952.1577213,E,2,11,0.8,-1.781,M,40.592,M,2.3,0123*67\r\n
$GPGGA,070734.70,5703.3368380,N,00952.1577586,E,2,11,0.8,-1.781,M,40.592,M,2.3,0123*65\r\n
$GPGGA,070734.75,5703.3367713,N,00952.1577976,E,2,11,0.8,-1.780,M,40.592,M,2.3,0123*63\r\n
$GPGGA,070734.80,5703.3367033,N,00952.1578368,E,2,11,0.8,-1.781,M,40.592,M,2.3,0123*67\r\n
$GPGGA,070734.85,5703.3366359,N,00952.1578780,E,2,11,0.8,-1.782,M,40.592,M,2.5,0123*6B\r\n
$GPGGA,070734.90,5703.3365692,N,00952.1579201,E,2,11,0.8,-1.782,M,40.592,M,2.5,0123*63\r\n
$GPGGA,070734.95,5703.3365029,N,00952.1579645,E,2,11,0.8,-1.783,M,40.592,M,2.5,0123*65\r\n
$GPGGA,070735.00,5703.3364385,N,00952.1580114,E,2,11,0.8,-1.781,M,40.592,M,2.5,0123*6B\r\n
$GPGGA,070735.05,5703.3363729,N,00952.1580568,E,2,11,0.8,-1.783,M,40.592,M,2.7,0123*64\r\n
$GPGGA,070735.10,5703.3363072,N,00952.1581020,E,2,11,0.8,-1.786,M,40.592,M,2.7,0123*64\r\n
$GPGGA,070735.15,5703.3362407,N,00952.1581476,E,2,11,0.8,-1.786,M,40.592,M,2.7,0123*61\r\n
$GPGGA,070735.20,5703.3361750,N,00952.1581956,E,2,11,0.8,-1.787,M,40.592,M,2.7,0123*6B\r\n
$GPGGA,070735.25,5703.3361110,N,00952.1582458,E,2,11,0.8,-1.783,M,40.592,M,2.9,0123*66\r\n
$GPGGA,070735.30,5703.3360465,N,00952.1582966,E,2,11,0.8,-1.781,M,40.592,M,2.9,0123*66\r\n
$GPGGA,070735.35,5703.3359824,N,00952.1583482,E,2,11,0.8,-1.780,M,40.592,M,2.9,0123*67\r\n
$GPGGA,070735.40,5703.3359185,N,00952.1584008,E,2,11,0.8,-1.781,M,40.592,M,2.9,0123*67\r\n
$GPGGA,070735.45,5703.3358552,N,00952.1584540,E,2,11,0.8,-1.780,M,40.592,M,3.1,0123*6C\r\n
$GPGGA,070735.50,5703.3357923,N,00952.1585097,E,2,11,0.8,-1.778,M,40.592,M,3.1,0123*64\r\n
$GPGGA,070735.55,5703.3357303,N,00952.1585660,E,2,11,0.8,-1.777,M,40.592,M,3.1,0123*68\r\n
$GPGGA,070735.60,5703.3356675,N,00952.1586221,E,2,11,0.8,-1.777,M,40.592,M,3.1,0123*69\r\n
$GPGGA,070735.65,5703.3356037,N,00952.1586789,E,2,11,0.8,-1.773,M,40.592,M,1.4,0123*68\r\n
$GPGGA,070735.70,5703.3355405,N,00952.1587358,E,2,11,0.8,-1.771,M,40.592,M,1.4,0123*61\r\n
$GPGGA,070735.75,5703.3354776,N,00952.1587941,E,2,11,0.8,-1.771,M,40.592,M,1.4,0123*60\r\n
$GPGGA,070735.80,5703.3354164,N,00952.1588548,E,2,11,0.8,-1.772,M,40.592,M,1.4,0123*66\r\n
$GPGGA,070735.85,5703.3353560,N,00952.1589170,E,2,11,0.8,-1.771,M,40.592,M,1.8,0123*65\r\n
$GPGGA,070735.90,5703.3352966,N,00952.1589809,E,2,11,0.8,-1.769,M,40.592,M,1.8,0123*64\r\n
$GPGGA,070735.95,5703.3352375,N,00952.1590448,E,2,11,0.8,-1.766,M,40.592,M,1.8,0123*67\r\n
$GPGGA,070736.00,5703.3351778,N,00952.1591097,E,2,11,0.8,-1.766,M,40.592,M,1.8,0123*65\r\n
$GPGGA,070736.05,5703.3351192,N,00952.1591750,E,2,11,0.8,-1.765,M,40.592,M,2.1,0123*67\r\n
$GPGGA,070736.10,5703.3350624,N,00952.1592435,E,2,11,0.8,-1.765,M,40.592,M,2.1,0123*6B\r\n
$GPGGA,070736.15,5703.3350049,N,00952.1593122,E,2,11,0.8,-1.766,M,40.592,M,2.1,0123*62\r\n
$GPGGA,070736.20,5703.3349481,N,00952.1593816,E,2,11,0.8,-1.763,M,40.592,M,2.1,0123*67\r\n
$GPGGA,070736.25,5703.3348920,N,00952.1594517,E,2,11,0.8,-1.759,M,40.592,M,2.3,0123*65\r\n
$GPGGA,070736.30,5703.3348356,N,00952.1595209,E,2,11,0.8,-1.758,M,40.592,M,2.3,0123*62\r\n
$GPGGA,070736.35,5703.3347799,N,00952.1595925,E,2,11,0.8,-1.759,M,40.592,M,2.3,0123*6B\r\n
$GPGGA,070736.40,5703.3347263,N,00952.1596660,E,2,11,0.8,-1.757,M,40.592,M,2.3,0123*6A\r\n
$GPGGA,070736.45,5703.3346733,N,00952.1597419,E,2,11,0.8,-1.753,M,40.592,M,2.6,0123*62\r\n
$GPGGA,070736.50,5703.3346193,N,00952.1598169,E,2,11,0.8,-1.749,M,40.592,M,2.6,0123*6C\r\n
$GPGGA,070736.55,5703.3345663,N,00952.1598923,E,2,11,0.8,-1.747,M,40.592,M,2.6,0123*6A\r\n
$GPGGA,070736.60,5703.3345139,N,00952.1599672,E,2,11,0.8,-1.747,M,40.592,M,2.6,0123*6E\r\n
$GPGGA,070736.65,5703.3344614,N,00952.1600441,E,2,11,0.8,-1.746,M,40.592,M,1.1,0123*66\r\n
$GPGGA,070736.70,5703.3344101,N,00952.1601210,E,2,11,0.8,-1.743,M,40.592,M,1.1,0123*67\r\n
$GPGGA,070736.75,5703.3343592,N,00952.1601993,E,2,11,0.8,-1.741,M,40.592,M,1.1,0123*69\r\n
$GPGGA,070736.80,5703.3343101,N,00952.1602802,E,2,11,0.8,-1.741,M,40.592,M,1.1,0123*67\r\n
$GPGGA,070736.85,5703.3342619,N,00952.1603606,E,2,11,0.8,-1.743,M,40.592,M,1.4,0123*61\r\n
$GPGGA,070736.90,5703.3342154,N,00952.1604419,E,2,11,0.8,-1.743,M,40.592,M,1.4,0123*60\r\n
$GPGGA,070736.95,5703.3341687,N,00952.1605247,E,2,11,0.8,-1.743,M,40.592,M,1.4,0123*63\r\n
$GPGGA,070737.00,5703.3341228,N,00952.1606074,E,2,11,0.8,-1.745,M,40.592,M,1.4,0123*68\r\n
$GPGGA,070737.05,5703.3340780,N,00952.1606895,E,2,11,0.8,-1.746,M,40.592,M,1.7,0123*6C\r\n
$GPGGA,070737.10,5703.3340316,N,00952.1607740,E,2,11,0.8,-1.748,M,40.592,M,1.7,0123*6B\r\n
$GPGGA,070737.15,5703.3339882,N,00952.1608613,E,2,11,0.8,-1.748,M,40.592,M,1.7,0123*6E\r\n
$GPGGA,070737.20,5703.3339458,N,00952.1609482,E,2,11,0.8,-1.749,M,40.592,M,1.7,0123*69\r\n
$GPGGA,070737.25,5703.3339032,N,00952.1610345,E,2,11,0.8,-1.748,M,40.592,M,1.9,0123*6F\r\n
$GPGGA,070737.30,5703.3338617,N,00952.1611219,E,2,11,0.8,-1.748,M,40.592,M,1.9,0123*62\r\n
$GPGGA,070737.35,5703.3338200,N,00952.1612086,E,2,11,0.8,-1.749,M,40.592,M,1.9,0123*63\r\n
$GPGGA,070737.40,5703.3337797,N,00952.1612945,E,2,11,0.8,-1.750,M,40.592,M,1.9,0123*6B\r\n
$GPGGA,070737.45,5703.3337407,N,00952.1613830,E,2,11,0.8,-1.754,M,40.592,M,2.2,0123*6A\r\n
$GPGGA,070737.50,5703.3337026,N,00952.1614717,E,2,11,0.8,-1.754,M,40.592,M,2.2,0123*64\r\n
$GPGGA,070737.55,5703.3336643,N,00952.1615603,E,2,11,0.8,-1.755,M,40.592,M,2.2,0123*61\r\n
$GPGGA,070737.60,5703.3336275,N,00952.1616507,E,2,11,0.8,-1.755,M,40.592,M,2.2,0123*62\r\n
$GPGGA,070737.65,5703.3335925,N,00952.1617419,E,2,11,0.8,-1.745,M,40.592,M,1.1,0123*64\r\n
$GPGGA,070737.70,5703.3335572,N,00952.1618324,E,2,11,0.8,-1.745,M,40.592,M,1.1,0123*68\r\n
$GPGGA,070737.75,5703.3335213,N,00952.1619234,E,2,11,0.8,-1.744,M,40.592,M,1.1,0123*6D\r\n
$GPGGA,070737.80,5703.3334867,N,00952.1620156,E,2,11,0.8,-1.742,M,40.592,M,1.1,0123*64\r\n
$GPGGA,070737.85,5703.3334533,N,00952.1621077,E,2,11,0.8,-1.745,M,40.592,M,1.3,0123*6B\r\n
$GPGGA,070737.90,5703.3334221,N,00952.1622010,E,2,11,0.8,-1.746,M,40.592,M,1.3,0123*6A\r\n
$GPGGA,070737.95,5703.3333908,N,00952.1622949,E,2,11,0.8,-1.746,M,40.592,M,1.3,0123*6D\r\n
$GPGGA,070738.00,5703.3333611,N,00952.1623907,E,2,11,0.8,-1.746,M,40.592,M,1.3,0123*62\r\n
$GPGGA,070738.05,5703.3333327,N,00952.1624852,E,2,11,0.8,-1.745,M,40.592,M,1.6,0123*67\r\n
$GPGGA,070738.10,5703.3333056,N,00952.1625814,E,2,11,0.8,-1.747,M,40.592,M,1.6,0123*67\r\n
$GPGGA,070738.15,5703.3332794,N,00952.1626781,E,2,11,0.8,-1.748,M,40.592,M,1.6,0123*65\r\n
$GPGGA,070738.20,5703.3332529,N,00952.1627748,E,2,11,0.8,-1.751,M,40.592,M,1.6,0123*6B\r\n
$GPGGA,070738.25,5703.3332265,N,00952.1628724,E,2,11,0.8,-1.754,M,40.592,M,1.8,0123*6F\r\n
$GPGGA,070738.30,5703.3332021,N,00952.1629713,E,2,11,0.8,-1.756,M,40.592,M,1.8,0123*6E\r\n
$GPGGA,070738.35,5703.3331784,N,00952.1630705,E,2,11,0.8,-1.759,M,40.592,M,1.8,0123*60\r\n
$GPGGA,070738.40,5703.3331563,N,00952.1631695,E,2,11,0.8,-1.764,M,40.592,M,1.8,0123*6E\r\n
$GPGGA,070738.45,5703.3331363,N,00952.1632672,E,2,11,0.8,-1.768,M,40.592,M,2.0,0123*60\r\n
$GPGGA,070738.50,5703.3331168,N,00952.1633661,E,2,11,0.8,-1.770,M,40.592,M,2.0,0123*67\r\n
$GPGGA,070738.55,5703.3330979,N,00952.1634655,E,2,11,0.8,-1.767,M,40.592,M,2.0,0123*6D\r\n
$GPGGA,070738.60,5703.3330802,N,00952.1635647,E,2,11,0.8,-1.763,M,40.592,M,2.0,0123*60\r\n
$GPGGA,070738.65,5703.3330621,N,00952.1636624,E,2,11,0.8,-1.760,M,40.592,M,2.3,0123*6C\r\n
$GPGGA,070738.70,5703.3330438,N,00952.1637601,E,2,11,0.8,-1.759,M,40.592,M,2.3,0123*6E\r\n
$GPGGA,070738.75,5703.3330286,N,00952.1638589,E,2,11,0.8,-1.756,M,40.592,M,2.3,0123*6B\r\n
$GPGGA,070738.80,5703.3330144,N,00952.1639599,E,2,11,0.8,-1.751,M,40.592,M,2.3,0123*6B\r\n
$GPGGA,070738.85,5703.3330004,N,00952.1640599,E,2,11,0.8,-1.749,M,40.592,M,2.5,0123*6A\r\n
$GPGGA,070738.90,5703.3329875,N,00952.1641567,E,2,11,0.8,-1.747,M,40.592,M,2.5,0123*66\r\n
$GPGGA,070738.95,5703.3329765,N,00952.1642549,E,2,11,0.8,-1.744,M,40.592,M,2.5,0123*61\r\n
$GPGGA,070739.00,5703.3329659,N,00952.1643546,E,2,11,0.8,-1.741,M,40.592,M,2.5,0123*69\r\n
$GPGGA,070739.05,5703.3329554,N,00952.1644523,E,2,11,0.8,-1.739,M,40.592,M,2.7,0123*6B\r\n
$GPGGA,070739.10,5703.3329469,N,00952.1645522,E,2,11,0.8,-1.738,M,40.592,M,2.7,0123*61\r\n
$GPGGA,070739.15,5703.3329410,N,00952.1646532,E,2,11,0.8,-1.739,M,40.592,M,2.7,0123*69\r\n
$GPGGA,070739.20,5703.3329373,N,00952.1647533,E,2,11,0.8,-1.739,M,40.592,M,2.7,0123*6D\r\n
$GPGGA,070739.25,5703.3329357,N,00952.1648547,E,2,11,0.8,-1.740,M,40.592,M,2.9,0123*62\r\n
$GPGGA,070739.30,5703.3329340,N,00952.1649559,E,2,11,0.8,-1.742,M,40.592,M,2.9,0123*6C\r\n
$GPGGA,070739.35,5703.3329312,N,00952.1650555,E,2,11,0.8,-1.744,M,40.592,M,2.9,0123*6C\r\n
$GPGGA,070739.40,5703.3329303,N,00952.1651550,E,2,11,0.8,-1.747,M,40.592,M,2.9,0123*69\r\n
$GPGGA,070739.45,5703.3329316,N,00952.1652547,E,2,11,0.8,-1.750,M,40.592,M,3.1,0123*62\r\n
$GPGGA,070739.50,5703.3329349,N,00952.1653528,E,2,11,0.8,-1.749,M,40.592,M,3.1,0123*6C\r\n
$GPGGA,070739.55,5703.3329380,N,00952.1654506,E,2,11,0.8,-1.749,M,40.592,M,3.1,0123*67\r\n
$GPGGA,070739.60,5703.3329426,N,00952.1655477,E,2,11,0.8,-1.749,M,40.592,M,3.1,0123*6C\r\n
$GPGGA,070739.65,5703.3329486,N,00952.1656474,E,2,11,0.8,-1.747,M,40.592,M,1.4,0123*6A\r\n
$GPGGA,070739.70,5703.3329571,N,00952.1657453,E,2,11,0.8,-1.746,M,40.592,M,1.4,0123*62\r\n
$GPGGA,070739.75,5703.3329647,N,00952.1658394,E,2,11,0.8,-1.748,M,40.592,M,1.4,0123*6C\r\n
$GPGGA,070739.80,5703.3329745,N,00952.1659331,E,2,11,0.8,-1.747,M,40.592,M,1.4,0123*64\r\n
$GPGGA,070739.85,5703.3329856,N,00952.1660283,E,2,11,0.8,-1.741,M,40.592,M,1.8,0123*64\r\n
$GPGGA,070739.90,5703.3329959,N,00952.1661229,E,2,11,0.8,-1.736,M,40.592,M,1.8,0123*6F\r\n
$GPGGA,070739.95,5703.3330068,N,00952.1662169,E,2,11,0.8,-1.736,M,40.592,M,1.8,0123*6D\r\n
$GPGGA,070740.00,5703.3330211,N,00952.1663098,E,2,11,0.8,-1.735,M,40.592,M,1.8,0123*6E\r\n
$GPGGA,070740.05,5703.3330374,N,00952.1664021,E,2,11,0.8,-1.732,M,40.592,M,2.1,0123*61\r\n
$GPGGA,070740.10,5703.3330522,N,00952.1664959,E,2,11,0.8,-1.732,M,40.592,M,2.1,0123*66\r\n
$GPGGA,070740.15,5703.3330668,N,00952.1665877,E,2,11,0.8,-1.734,M,40.592,M,2.1,0123*64\r\n
$GPGGA,070740.20,5703.3330843,N,00952.1666773,E,2,11,0.8,-1.735,M,40.592,M,2.1,0123*6C\r\n
$GPGGA,070740.25,5703.3331044,N,00952.1667659,E,2,11,0.8,-1.734,M,40.592,M,2.3,0123*6C\r\n
$GPGGA,070740.30,5703.3331246,N,00952.1668567,E,2,11,0.8,-1.733,M,40.592,M,2.3,0123*6E\r\n
$GPGGA,070740.35,5703.3331441,N,00952.1669454,E,2,11,0.8,-1.731,M,40.592,M,2.3,0123*68\r\n
$GPGGA,070740.40,5703.3331666,N,00952.1670283,E,2,11,0.8,-1.728,M,40.592,M,2.3,0123*61\r\n
$GPGGA,070740.45,5703.3331900,N,00952.1671109,E,2,11,0.8,-1.727,M,40.592,M,2.6,0123*61\r\n
$GPGGA,070740.50,5703.3332142,N,00952.1671946,E,2,11,0.8,-1.726,M,40.592,M,2.6,0123*6A\r\n
$GPGGA,070740.55,5703.3332407,N,00952.1672759,E,2,11,0.8,-1.726,M,40.592,M,2.6,0123*68\r\n
$GPGGA,070740.60,5703.3332683,N,00952.1673590,E,2,11,0.8,-1.724,M,40.592,M,2.6,0123*64\r\n
$GPGGA,070740.65,5703.3332965,N,00952.1674409,E,2,11,0.8,-1.728,M,40.592,M,1.1,0123*68\r\n
$GPGGA,070740.70,5703.3333225,N,00952.1675225,E,2,11,0.8,-1.732,M,40.592,M,1.1,0123*60\r\n
$GPGGA,070740.75,5703.3333520,N,00952.1676007,E,2,11,0.8,-1.733,M,40.592,M,1.1,0123*67\r\n
$GPGGA,070740.80,5703.3333846,N,00952.1676752,E,2,11,0.8,-1.732,M,40.592,M,1.1,0123*66\r\n
$GPGGA,070740.85,5703.3334157,N,00952.1677492,E,2,11,0.8,-1.735,M,40.592,M,1.4,0123*61\r\n
$GPGGA,070740.90,5703.3334463,N,00952.1678225,E,2,11,0.8,-1.736,M,40.592,M,1.4,0123*61\r\n
$GPGGA,070740.95,5703.3334788,N,00952.1678933,E,2,11,0.8,-1.737,M,40.592,M,1.4,0123*6F\r\n
$GPGGA,070741.00,5703.3335123,N,00952.1679610,E,2,11,0.8,-1.736,M,40.592,M,1.4,0123*6A\r\n
$GPGGA,070741.05,5703.3335467,N,00952.1680252,E,2,11,0.8,-1.732,M,40.592,M,1.7,0123*69\r\n
$GPGGA,070741.10,5703.3335835,N,00952.1680885,E,2,11,0.8,-1.727,M,40.592,M,1.7,0123*62\r\n
$GPGGA,070741.15,5703.3336213,N,00952.1681521,E,2,11,0.8,-1.728,M,40.592,M,1.7,0123*67\r\n
$GPGGA,070741.20,5703.3336590,N,00952.1682154,E,2,11,0.8,-1.729,M,40.592,M,1.7,0123*69\r\n
$GPGGA,070741.25,5703.3336978,N,00952.1682772,E,2,11,0.8,-1.730,M,40.592,M,1.9,0123*62\r\n
$GPGGA,070741.30,5703.3337367,N,00952.1683367,E,2,11,0.8,-1.731,M,40.592,M,1.9,0123*63\r\n
$GPGGA,070741.35,5703.3337771,N,00952.1683957,E,2,11,0.8,-1.731,M,40.592,M,1.9,0123*6C\r\n
$GPGGA,070741.40,5703.3338185,N,00952.1684510,E,2,11,0.8,-1.736,M,40.592,M,1.9,0123*63\r\n
$GPGGA,070741.45,5703.3338614,N,00952.1685039,E,2,11,0.8,-1.739,M,40.592,M,2.2,0123*61\r\n
$GPGGA,070741.50,5703.3339059,N,00952.1685550,E,2,11,0.8,-1.739,M,40.592,M,2.2,0123*61\r\n
$GPGGA,070741.55,5703.3339506,N,00952.1686054,E,2,11,0.8,-1.740,M,40.592,M,2.2,0123*67\r\n
$GPGGA,070741.60,5703.3339948,N,00952.1686527,E,2,11,0.8,-1.742,M,40.592,M,2.2,0123*64\r\n
$GPGGA,070741.65,5703.3340404,N,00952.1686951,E,2,11,0.8,-1.743,M,40.592,M,1.1,0123*66\r\n
$GPGGA,070741.70,5703.3340859,N,00952.1687373,E,2,11,0.8,-1.743,M,40.592,M,1.1,0123*6D\r\n
$GPGGA,070741.75,5703.3341343,N,00952.1687781,E,2,11,0.8,-1.744,M,40.592,M,1.1,0123*67\r\n
$GPGGA,070741.80,5703.3341823,N,00952.1688160,E,2,11,0.8,-1.747,M,40.592,M,1.1,0123*65\r\n
$GPGGA,070741.85,5703.3342305,N,00952.1688544,E,2,11,0.8,-1.745,M,40.592,M,1.3,0123*6E\r\n
$GPGGA,070741.90,5703.3342798,N,00952.1688880,E,2,11,0.8,-1.749,M,40.592,M,1.3,0123*63\r\n
$GPGGA,070741.95,5703.3343294,N,00952.1689210,E,2,11,0.8,-1.750,M,40.592,M,1.3,0123*64\r\n
$GPGGA,070742.00,5703.3343805,N,00952.1689508,E,2,11,0.8,-1.748,M,40.592,M,1.3,0123*6E\r\n
$GPGGA,070742.05,5703.3344293,N,00952.1689751,E,2,11,0.8,-1.752,M,40.592,M,1.6,0123*69\r\n
$GPGGA,070742.10,5703.3344795,N,00952.1689987,E,2,11,0.8,-1.752,M,40.592,M,1.6,0123*6B\r\n
$GPGGA,070742.15,5703.3345307,N,00952.1690193,E,2,11,0.8,-1.754,M,40.592,M,1.6,0123*63\r\n
$GPGGA,070742.20,5703.3345823,N,00952.1690399,E,2,11,0.8,-1.754,M,40.592,M,1.6,0123*60\r\n
$GPGGA,070742.25,5703.3346344,N,00952.1690587,E,2,11,0.8,-1.750,M,40.592,M,1.8,0123*6F\r\n
$GPGGA,070742.30,5703.3346869,N,00952.1690738,E,2,11,0.8,-1.748,M,40.592,M,1.8,0123*60\r\n
$GPGGA,070742.35,5703.3347400,N,00952.1690886,E,2,11,0.8,-1.749,M,40.592,M,1.8,0123*6C\r\n
$GPGGA,070742.40,5703.3347932,N,00952.1691020,E,2,11,0.8,-1.746,M,40.592,M,1.8,0123*68\r\n
$GPGGA,070742.45,5703.3348482,N,00952.1691112,E,2,11,0.8,-1.743,M,40.592,M,2.0,0123*6A\r\n
$GPGGA,070742.50,5703.3349038,N,00952.1691182,E,2,11,0.8,-1.740,M,40.592,M,2.0,0123*60\r\n
$GPGGA,070742.55,5703.3349579,N,00952.1691261,E,2,11,0.8,-1.738,M,40.592,M,2.0,0123*64\r\n
$GPGGA,070742.60,5703.3350122,N,00952.1691314,E,2,11,0.8,-1.738,M,40.592,M,2.0,0123*63\r\n
$GPGGA,070742.65,5703.3350672,N,00952.1691342,E,2,11,0.8,-1.731,M,40.592,M,2.3,0123*6D\r\n
$GPGGA,070742.70,5703.3351227,N,00952.1691343,E,2,11,0.8,-1.731,M,40.592,M,2.3,0123*6D\r\n
$GPGGA,070742.75,5703.3351794,N,00952.1691320,E,2,11,0.8,-1.732,M,40.592,M,2.3,0123*63\r\n
$GPGGA,070742.80,5703.3352365,N,00952.1691273,E,2,11,0.8,-1.732,M,40.592,M,2.3,0123*67\r\n
$GPGGA,070742.85,5703.3352928,N,00952.1691192,E,2,11,0.8,-1.739,M,40.592,M,2.5,0123*60\r\n
$GPGGA,070742.90,5703.3353492,N,00952.1691064,E,2,11,0.8,-1.738,M,40.592,M,2.5,0123*60\r\n
$GPGGA,070742.95,5703.3354057,N,00952.1690921,E,2,11,0.8,-1.739,M,40.592,M,2.5,0123*67\r\n
$GPGGA,070743.00,5703.3354627,N,00952.1690775,E,2,11,0.8,-1.742,M,40.592,M,2.5,0123*68\r\n
$GPGGA,070743.05,5703.3355192,N,00952.1690595,E,2,11,0.8,-1.740,M,40.592,M,2.7,0123*69\r\n
$GPGGA,070743.10,5703.3355765,N,00952.1690399,E,2,11,0.8,-1.740,M,40.592,M,2.7,0123*69\r\n
$GPGGA,070743.15,5703.3356338,N,00952.1690202,E,2,11,0.8,-1.741,M,40.592,M,2.7,0123*61\r\n
$GPGGA,070743.20,5703.3356913,N,00952.1689951,E,2,11,0.8,-1.744,M,40.592,M,2.7,0123*64\r\n
$GPGGA,070743.25,5703.3357487,N,00952.1689681,E,2,11,0.8,-1.749,M,40.592,M,2.9,0123*61\r\n
$GPGGA,070743.30,5703.3358054,N,00952.1689395,E,2,11,0.8,-1.750,M,40.592,M,2.9,0123*68\r\n
$GPGGA,070743.35,5703.3358624,N,00952.1689089,E,2,11,0.8,-1.751,M,40.592,M,2.9,0123*63\r\n
$GPGGA,070743.40,5703.3359193,N,00952.1688767,E,2,11,0.8,-1.750,M,40.592,M,2.9,0123*6C\r\n
$GPGGA,070743.45,5703.3359744,N,00952.1688407,E,2,11,0.8,-1.752,M,40.592,M,3.1,0123*6B\r\n
$GPGGA,070743.50,5703.3360294,N,00952.1688012,E,2,11,0.8,-1.753,M,40.592,M,3.1,0123*6C\r\n
$GPGGA,070743.55,5703.3360844,N,00952.1687589,E,2,11,0.8,-1.752,M,40.592,M,3.1,0123*67\r\n
$GPGGA,070743.60,5703.3361398,N,00952.1687156,E,2,11,0.8,-1.749,M,40.592,M,3.1,0123*66\r\n
$GPGGA,070743.65,5703.3361955,N,00952.1686714,E,2,11,0.8,-1.745,M,40.592,M,1.4,0123*62\r\n
$GPGGA,070743.70,5703.3362514,N,00952.1686259,E,2,11,0.8,-1.744,M,40.592,M,1.4,0123*61\r\n
$GPGGA,070743.75,5703.3363063,N,00952.1685762,E,2,11,0.8,-1.744,M,40.592,M,1.4,0123*6E\r\n
$GPGGA,070743.80,5703.3363612,N,00952.1685249,E,2,11,0.8,-1.746,M,40.592,M,1.4,0123*6A\r\n
$GPGGA,070743.85,5703.3364155,N,00952.1684721,E,2,11,0.8,-1.747,M,40.592,M,1.8,0123*6B\r\n
$GPGGA,070743.90,5703.3364695,N,00952.1684164,E,2,11,0.8,-1.748,M,40.592,M,1.8,0123*6C\r\n
$GPGGA,070743.95,5703.3365229,N,00952.1683577,E,2,11,0.8,-1.746,M,40.592,M,1.8,0123*64\r\n
$GPGGA,070744.00,5703.3365767,N,00952.1682969,E,2,11,0.8,-1.744,M,40.592,M,1.8,0123*60\r\n
$GPGGA,070744.05,5703.3366302,N,00952.1682309,E,2,11,0.8,-1.745,M,40.592,M,2.1,0123*66\r\n
$GPGGA,070744.10,5703.3366828,N,00952.1681637,E,2,11,0.8,-1.744,M,40.592,M,2.1,0123*6B\r\n
$GPGGA,070744.15,5703.3367347,N,00952.1680961,E,2,11,0.8,-1.743,M,40.592,M,2.1,0123*67\r\n
$GPGGA,070744.20,5703.3367840,N,00952.1680253,E,2,11,0.8,-1.744,M,40.592,M,2.1,0123*60\r\n
$GPGGA,070744.25,5703.3368338,N,00952.1679520,E,2,11,0.8,-1.740,M,40.592,M,2.3,0123*6D\r\n
$GPGGA,070744.30,5703.3368834,N,00952.1678768,E,2,11,0.8,-1.739,M,40.592,M,2.3,0123*6F\r\n
$GPGGA,070744.35,5703.3369330,N,00952.1678004,E,2,11,0.8,-1.740,M,40.592,M,2.3,0123*67\r\n
$GPGGA,070744.40,5703.3369814,N,00952.1677232,E,2,11,0.8,-1.740,M,40.592,M,2.3,0123*60\r\n
$GPGGA,070744.45,5703.3370286,N,00952.1676424,E,2,11,0.8,-1.744,M,40.592,M,2.6,0123*6D\r\n
$GPGGA,070744.50,5703.3370766,N,00952.1675608,E,2,11,0.8,-1.742,M,40.592,M,2.6,0123*6B\r\n
$GPGGA,070744.55,5703.3371232,N,00952.1674758,E,2,11,0.8,-1.739,M,40.592,M,2.6,0123*62\r\n
$GPGGA,070744.60,5703.3371690,N,00952.1673898,E,2,11,0.8,-1.741,M,40.592,M,2.6,0123*63\r\n
$GPGGA,070744.65,5703.3372139,N,00952.1673014,E,2,11,0.8,-1.743,M,40.592,M,1.1,0123*6B\r\n
$GPGGA,070744.70,5703.3372586,N,00952.1672116,E,2,11,0.8,-1.744,M,40.592,M,1.1,0123*6A\r\n
$GPGGA,070744.75,5703.3373020,N,00952.1671181,E,2,11,0.8,-1.744,M,40.592,M,1.1,0123*6A\r\n
$GPGGA,070744.80,5703.3373444,N,00952.1670229,E,2,11,0.8,-1.742,M,40.592,M,1.1,0123*60\r\n
$GPGGA,070744.85,5703.3373846,N,00952.1669270,E,2,11,0.8,-1.744,M,40.592,M,1.4,0123*6C\r\n
$GPGGA,070744.90,5703.3374264,N,00952.1668320,E,2,11,0.8,-1.743,M,40.592,M,1.4,0123*67\r\n
$GPGGA,070744.95,5703.3374679,N,00952.1667351,E,2,11,0.8,-1.745,M,40.592,M,1.4,0123*65\r\n
$GPGGA,070745.00,5703.3375087,N,00952.1666356,E,2,11,0.8,-1.746,M,40.592,M,1.4,0123*6B\r\n
$GPGGA,070745.05,5703.3375477,N,00952.1665328,E,2,11,0.8,-1.747,M,40.592,M,1.7,0123*6D\r\n
$GPGGA,070745.10,5703.3375863,N,00952.1664295,E,2,11,0.8,-1.751,M,40.592,M,1.7,0123*61\r\n
$GPGGA,070745.15,5703.3376242,N,00952.1663222,E,2,11,0.8,-1.755,M,40.592,M,1.7,0123*61\r\n
$GPGGA,070745.20,5703.3376621,N,00952.1662148,E,2,11,0.8,-1.757,M,40.592,M,1.7,0123*6A\r\n
$GPGGA,070745.25,5703.3376990,N,00952.1661062,E,2,11,0.8,-1.756,M,40.592,M,1.9,0123*6F\r\n
$GPGGA,070745.30,5703.3377319,N,00952.1659977,E,2,11,0.8,-1.755,M,40.592,M,1.9,0123*64\r\n
$GPGGA,070745.35,5703.3377631,N,00952.1658868,E,2,11,0.8,-1.753,M,40.592,M,1.9,0123*66\r\n
$GPGGA,070745.40,5703.3377937,N,00952.1657723,E,2,11,0.8,-1.753,M,40.592,M,1.9,0123*62\r\n
$GPGGA,070745.45,5703.3378234,N,00952.1656563,E,2,11,0.8,-1.755,M,40.592,M,2.2,0123*69\r\n
$GPGGA,070745.50,5703.3378541,N,00952.1655392,E,2,11,0.8,-1.753,M,40.592,M,2.2,0123*65\r\n
$GPGGA,070745.55,5703.3378839,N,00952.1654222,E,2,11,0.8,-1.751,M,40.592,M,2.2,0123*6B\r\n
$GPGGA,070745.60,5703.3379140,N,00952.1653043,E,2,11,0.8,-1.751,M,40.592,M,2.2,0123*69\r\n
$GPGGA,070745.65,5703.3379448,N,00952.1651862,E,2,11,0.8,-1.745,M,40.592,M,1.1,0123*6D\r\n
$GPGGA,070745.70,5703.3379742,N,00952.1650660,E,2,11,0.8,-1.746,M,40.592,M,1.1,0123*6E\r\n
$GPGGA,070745.75,5703.3380013,N,00952.1649425,E,2,11,0.8,-1.747,M,40.592,M,1.1,0123*64\r\n
$GPGGA,070745.80,5703.3380259,N,00952.1648178,E,2,11,0.8,-1.751,M,40.592,M,1.1,0123*69\r\n
$GPGGA,070745.85,5703.3380506,N,00952.1646925,E,2,11,0.8,-1.754,M,40.592,M,1.3,0123*68\r\n
$GPGGA,070745.90,5703.3380739,N,00952.1645654,E,2,11,0.8,-1.753,M,40.592,M,1.3,0123*6F\r\n
$GPGGA,070745.95,5703.3380955,N,00952.1644363,E,2,11,0.8,-1.754,M,40.592,M,1.3,0123*69\r\n
$GPGGA,070746.00,5703.3381138,N,00952.1643050,E,2,11,0.8,-1.754,M,40.592,M,1.3,0123*60\r\n
$GPGGA,070746.05,5703.3381322,N,00952.1641731,E,2,11,0.8,-1.760,M,40.592,M,1.6,0123*6C\r\n
$GPGGA,070746.10,5703.3381481,N,00952.1640417,E,2,11,0.8,-1.758,M,40.592,M,1.6,0123*6B\r\n
$GPGGA,070746.15,5703.3381635,N,00952.1639115,E,2,11,0.8,-1.756,M,40.592,M,1.6,0123*64\r\n
$GPGGA,070746.20,5703.3381767,N,00952.1637782,E,2,11,0.8,-1.751,M,40.592,M,1.6,0123*65\r\n
$GPGGA,070746.25,5703.3381909,N,00952.1636452,E,2,11,0.8,-1.746,M,40.592,M,1.8,0123*61\r\n
$GPGGA,070746.30,5703.3382029,N,00952.1635115,E,2,11,0.8,-1.743,M,40.592,M,1.8,0123*6D\r\n
$GPGGA,070746.35,5703.3382144,N,00952.1633778,E,2,11,0.8,-1.741,M,40.592,M,1.8,0123*6B\r\n
$GPGGA,070746.40,5703.3382257,N,00952.1632419,E,2,11,0.8,-1.738,M,40.592,M,1.8,0123*63\r\n
$GPGGA,070746.45,5703.3382362,N,00952.1631065,E,2,11,0.8,-1.737,M,40.592,M,2.0,0123*69\r\n
$GPGGA,070746.50,5703.3382460,N,00952.1629694,E,2,11,0.8,-1.737,M,40.592,M,2.0,0123*69\r\n
$GPGGA,070746.55,5703.3382535,N,00952.1628309,E,2,11,0.8,-1.736,M,40.592,M,2.0,0123*6C\r\n
$GPGGA,070746.60,5703.3382594,N,00952.1626930,E,2,11,0.8,-1.736,M,40.592,M,2.0,0123*6F\r\n
$GPGGA,070746.65,5703.3382632,N,00952.1625548,E,2,11,0.8,-1.739,M,40.592,M,2.3,0123*69\r\n
$GPGGA,070746.70,5703.3382667,N,00952.1624153,E,2,11,0.8,-1.740,M,40.592,M,2.3,0123*6C\r\n
$GPGGA,070746.75,5703.3382684,N,00952.1622741,E,2,11,0.8,-1.741,M,40.592,M,2.3,0123*66\r\n
$GPGGA,070746.80,5703.3382686,N,00952.1621337,E,2,11,0.8,-1.741,M,40.592,M,2.3,0123*68\r\n
$GPGGA,070746.85,5703.3382674,N,00952.1619929,E,2,11,0.8,-1.744,M,40.592,M,2.5,0123*6D\r\n
$GPGGA,070746.90,5703.3382661,N,00952.1618518,E,2,11,0.8,-1.747,M,40.592,M,2.5,0123*61\r\n
$GPGGA,070746.95,5703.3382633,N,00952.1617117,E,2,11,0.8,-1.749,M,40.592,M,2.5,0123*69\r\n
$GPGGA,070747.00,5703.3382592,N,00952.1615708,E,2,11,0.8,-1.751,M,40.592,M,2.5,0123*6F\r\n
$GPGGA,070747.05,5703.3382527,N,00952.1614286,E,2,11,0.8,-1.757,M,40.592,M,2.7,0123*62\r\n
$GPGGA,070747.10,5703.3382446,N,00952.1612882,E,2,11,0.8,-1.757,M,40.592,M,2.7,0123*68\r\n
$GPGGA,070747.15,5703.3382357,N,00952.1611478,E,2,11,0.8,-1.758,M,40.592,M,2.7,0123*6F\r\n
$GPGGA,070747.20,5703.3382252,N,00952.1610061,E,2,11,0.8,-1.759,M,40.592,M,2.7,0123*61\r\n
$GPGGA,070747.25,5703.3382137,N,00952.1608655,E,2,11,0.8,-1.755,M,40.592,M,2.9,0123*6E\r\n
$GPGGA,070747.30,5703.3382007,N,00952.1607257,E,2,11,0.8,-1.753,M,40.592,M,2.9,0123*67\r\n
$GPGGA,070747.35,5703.3381871,N,00952.1605861,E,2,11,0.8,-1.753,M,40.592,M,2.9,0123*65\r\n
$GPGGA,070747.40,5703.3381703,N,00952.1604469,E,2,11,0.8,-1.750,M,40.592,M,2.9,0123*6B\r\n
$GPGGA,070747.45,5703.3381540,N,00952.1603086,E,2,11,0.8,-1.746,M,40.592,M,3.1,0123*67\r\n
$GPGGA,070747.50,5703.3381361,N,00952.1601713,E,2,11,0.8,-1.747,M,40.592,M,3.1,0123*6E\r\n
$GPGGA,070747.55,5703.3381168,N,00952.1600327,E,2,11,0.8,-1.748,M,40.592,M,3.1,0123*6D\r\n
$GPGGA,070747.60,5703.3380967,N,00952.1598953,E,2,11,0.8,-1.746,M,40.592,M,3.1,0123*68\r\n
$GPGGA,070747.65,5703.3380747,N,00952.1597581,E,2,11,0.8,-1.745,M,40.592,M,1.4,0123*69\r\n
$GPGGA,070747.70,5703.3380498,N,00952.1596205,E,2,11,0.8,-1.746,M,40.592,M,1.4,0123*65\r\n
$GPGGA,070747.75,5703.3380240,N,00952.1594860,E,2,11,0.8,-1.746,M,40.592,M,1.4,0123*68\r\n
$GPGGA,070747.80,5703.3379971,N,00952.1593521,E,2,11,0.8,-1.745,M,40.592,M,1.4,0123*61\r\n
$GPGGA,070747.85,5703.3379710,N,00952.1592206,E,2,11,0.8,-1.744,M,40.592,M,1.8,0123*63\r\n
$GPGGA,070747.90,5703.3379433,N,00952.1590884,E,2,11,0.8,-1.744,M,40.592,M,1.8,0123*67\r\n
$GPGGA,070747.95,5703.3379142,N,00952.1589559,E,2,11,0.8,-1.741,M,40.592,M,1.8,0123*61\r\n
$GPGGA,070748.00,5703.3378836,N,00952.1588242,E,2,11,0.8,-1.739,M,40.592,M,1.8,0123*6A\r\n
$GPGGA,070748.05,5703.3378515,N,00952.1586936,E,2,11,0.8,-1.738,M,40.592,M,2.1,0123*6E\r\n
$GPGGA,070748.10,5703.3378185,N,00952.1585634,E,2,11,0.8,-1.741,M,40.592,M,2.1,0123*67\r\n
$GPGGA,070748.15,5703.3377844,N,00952.1584351,E,2,11,0.8,-1.745,M,40.592,M,2.1,0123*6A\r\n
$GPGGA,070748.20,5703.3377497,N,00952.1583061,E,2,11,0.8,-1.747,M,40.592,M,2.1,0123*6B\r\n
$GPGGA,070748.25,5703.3377140,N,00952.1581785,E,2,11,0.8,-1.751,M,40.592,M,2.3,0123*6B\r\n
$GPGGA,070748.30,5703.3376767,N,00952.1580529,E,2,11,0.8,-1.753,M,40.592,M,2.3,0123*6A\r\n
$GPGGA,070748.35,5703.3376399,N,00952.1579280,E,2,11,0.8,-1.755,M,40.592,M,2.3,0123*6E\r\n
$GPGGA,070748.40,5703.3375996,N,00952.1578047,E,2,11,0.8,-1.758,M,40.592,M,2.3,0123*6F\r\n
$GPGGA,070748.45,5703.3375593,N,00952.1576815,E,2,11,0.8,-1.754,M,40.592,M,2.6,0123*6B\r\n
$GPGGA,070748.50,5703.3375176,N,00952.1575600,E,2,11,0.8,-1.754,M,40.592,M,2.6,0123*69\r\n
$GPGGA,070748.55,5703.3374747,N,00952.1574398,E,2,11,0.8,-1.755,M,40.592,M,2.6,0123*6D\r\n
$GPGGA,070748.60,5703.3374321,N,00952.1573210,E,2,11,0.8,-1.758,M,40.592,M,2.6,0123*64\r\n
$GPGGA,070748.65,5703.3373881,N,00952.1572048,E,2,11,0.8,-1.759,M,40.592,M,1.1,0123*6C\r\n
$GPGGA,070748.70,5703.3373433,N,00952.1570883,E,2,11,0.8,-1.759,M,40.592,M,1.1,0123*60\r\n
$GPGGA,070748.75,5703.3372966,N,00952.1569719,E,2,11,0.8,-1.761,M,40.592,M,1.1,0123*66\r\n
$GPGGA,070748.80,5703.3372496,N,00952.1568564,E,2,11,0.8,-1.763,M,40.592,M,1.1,0123*65\r\n
$GPGGA,070748.85,5703.3372025,N,00952.1567416,E,2,11,0.8,-1.765,M,40.592,M,1.4,0123*64\r\n
$GPGGA,070748.90,5703.3371534,N,00952.1566293,E,2,11,0.8,-1.767,M,40.592,M,1.4,0123*6E\r\n
$GPGGA,070748.95,5703.3371031,N,00952.1565171,E,2,11,0.8,-1.769,M,40.592,M,1.4,0123*69\r\n
$GPGGA,070749.00,5703.3370517,N,00952.1564074,E,2,11,0.8,-1.772,M,40.592,M,1.4,0123*6B\r\n
$GPGGA,070749.05,5703.3369989,N,00952.1562963,E,2,11,0.8,-1.773,M,40.592,M,1.7,0123*66\r\n
$GPGGA,070749.10,5703.3369453,N,00952.1561872,E,2,11,0.8,-1.775,M,40.592,M,1.7,0123*6C\r\n
$GPGGA,070749.15,5703.3368916,N,00952.1560839,E,2,11,0.8,-1.776,M,40.592,M,1.7,0123*69\r\n
$GPGGA,070749.20,5703.3368371,N,00952.1559818,E,2,11,0.8,-1.776,M,40.592,M,1.7,0123*6D\r\n
$GPGGA,070749.25,5703.3367805,N,00952.1558819,E,2,11,0.8,-1.777,M,40.592,M,1.9,0123*60\r\n
$GPGGA,070749.30,5703.3367244,N,00952.1557840,E,2,11,0.8,-1.775,M,40.592,M,1.9,0123*6A\r\n
$GPGGA,070749.35,5703.3366671,N,00952.1556849,E,2,11,0.8,-1.771,M,40.592,M,1.9,0123*60\r\n
$GPGGA,070749.40,5703.3366080,N,00952.1555873,E,2,11,0.8,-1.771,M,40.592,M,1.9,0123*60\r\n
$GPGGA,070749.45,5703.3365503,N,00952.1554931,E,2,11,0.8,-1.771,M,40.592,M,2.2,0123*66\r\n
$GPGGA,070749.50,5703.3364902,N,00952.1553991,E,2,11,0.8,-1.771,M,40.592,M,2.2,0123*63\r\n
$GPGGA,070749.55,5703.3364303,N,00952.1553028,E,2,11,0.8,-1.772,M,40.592,M,2.2,0123*65\r\n
$GPGGA,070749.60,5703.3363700,N,00952.1552106,E,2,11,0.8,-1.769,M,40.592,M,2.2,0123*65\r\n
$GPGGA,070749.65,5703.3363076,N,00952.1551204,E,2,11,0.8,-1.768,M,40.592,M,1.1,0123*65\r\n
$GPGGA,070749.70,5703.3362444,N,00952.1550333,E,2,11,0.8,-1.768,M,40.592,M,1.1,0123*61\r\n
$GPGGA,070749.75,5703.3361808,N,00952.1549490,E,2,11,0.8,-1.768,M,40.592,M,1.1,0123*65\r\n
$GPGGA,070749.80,5703.3361155,N,00952.1548653,E,2,11,0.8,-1.769,M,40.592,M,1.1,0123*63\r\n
$GPGGA,070749.85,5703.3360512,N,00952.1547857,E,2,11,0.8,-1.775,M,40.592,M,1.3,0123*6A\r\n
$GPGGA,070749.90,5703.3359858,N,00952.1547090,E,2,11,0.8,-1.773,M,40.592,M,1.3,0123*62\r\n
$GPGGA,070749.95,5703.3359202,N,00952.1546348,E,2,11,0.8,-1.772,M,40.592,M,1.3,0123*64\r\n
$GPGGA,070750.00,5703.3358556,N,00952.1545617,E,2,11,0.8,-1.768,M,40.592,M,1.3,0123*60\r\n
$GPGGA,070750.05,5703.3357902,N,00952.1544905,E,2,11,0.8,-1.761,M,40.592,M,1.6,0123*66\r\n
$GPGGA,070750.10,5703.3357232,N,00952.1544225,E,2,11,0.8,-1.759,M,40.592,M,1.6,0123*68\r\n
$GPGGA,070750.15,5703.3356563,N,00952.1543551,E,2,11,0.8,-1.756,M,40.592,M,1.6,0123*63\r\n
$GPGGA,070750.20,5703.3355895,N,00952.1542895,E,2,11,0.8,-1.751,M,40.592,M,1.6,0123*61\r\n
$GPGGA,070750.25,5703.3355196,N,00952.1542266,E,2,11,0.8,-1.755,M,40.592,M,1.8,0123*62\r\n
$GPGGA,070750.30,5703.3354512,N,00952.1541657,E,2,11,0.8,-1.755,M,40.592,M,1.8,0123*6A\r\n
$GPGGA,070750.35,5703.3353831,N,00952.1541070,E,2,11,0.8,-1.758,M,40.592,M,1.8,0123*6A\r\n
$GPGGA,070750.40,5703.3353144,N,00952.1540501,E,2,11,0.8,-1.760,M,40.592,M,1.8,0123*6A\r\n
$GPGGA,070750.45,5703.3352466,N,00952.1539949,E,2,11,0.8,-1.757,M,40.592,M,2.0,0123*6A\r\n
$GPGGA,070750.50,5703.3351773,N,00952.1539421,E,2,11,0.8,-1.759,M,40.592,M,2.0,0123*67\r\n
$GPGGA,070750.55,5703.3351070,N,00952.1538922,E,2,11,0.8,-1.761,M,40.592,M,2.0,0123*62\r\n
$GPGGA,070750.60,5703.3350370,N,00952.1538449,E,2,11,0.8,-1.761,M,40.592,M,2.0,0123*66\r\n
$GPGGA,070750.65,5703.3349670,N,00952.1537984,E,2,11,0.8,-1.766,M,40.592,M,2.3,0123*69\r\n
$GPGGA,070750.70,5703.3348963,N,00952.1537557,E,2,11,0.8,-1.769,M,40.592,M,2.3,0123*6C\r\n
$GPGGA,070750.75,5703.3348247,N,00952.1537153,E,2,11,0.8,-1.771,M,40.592,M,2.3,0123*6D\r\n
$GPGGA,070750.80,5703.3347554,N,00952.1536768,E,2,11,0.8,-1.769,M,40.592,M,2.3,0123*6B\r\n
$GPGGA,070750.85,5703.3346861,N,00952.1536398,E,2,11,0.8,-1.766,M,40.592,M,2.5,0123*66\r\n
$GPGGA,070750.90,5703.3346144,N,00952.1536063,E,2,11,0.8,-1.767,M,40.592,M,2.5,0123*6A\r\n
