$GPGGA,092804.35,5700.9256126,N,00959.1766120,E,1,9,0.8,11.982,M,40.582,M,,*6B\r\n
$GPGGA,092804.40,5700.9256123,N,00959.1766212,E,1,9,0.8,12.002,M,40.582,M,,*6C\r\n
$GPGGA,092804.45,5700.9256101,N,00959.1766313,E,1,9,0.8,12.021,M,40.582,M,,*68\r\n
$GPGGA,092804.50,5700.9256062,N,00959.1766421,E,1,9,0.8,12.036,M,40.582,M,,*68\r\n
$GPGGA,092804.55,5700.9256022,N,00959.1766500,E,1,9,0.8,12.049,M,40.582,M,,*63\r\n
$GPGGA,092804.60,5700.9256022,N,00959.1766547,E,1,9,0.8,12.062,M,40.582,M,,*6F\r\n
$GPGGA,092804.65,5700.9256053,N,00959.1766585,E,1,9,0.8,12.065,M,40.582,M,,*65\r\n
$GPGGA,092804.70,5700.9256084,N,00959.1766638,E,1,9,0.8,12.077,M,40.582,M,,*6D\r\n
$GPGGA,092804.75,5700.9256111,N,00959.1766697,E,1,9,0.8,12.091,M,40.582,M,,*68\r\n
$GPGGA,092804.80,5700.9256122,N,00959.1766757,E,1,9,0.8,12.101,M,40.582,M,,*67\r\n
$GPGGA,092804.85,5700.9256130,N,00959.1766797,E,1,9,0.8,12.102,M,40.582,M,,*6E\r\n
$GPGGA,092804.90,5700.9256141,N,00959.1766830,E,1,9,0.8,12.110,M,40.582,M,,*6D\r\n
$GPGGA,092804.95,5700.9256141,N,00959.1766875,E,1,9,0.8,12.119,M,40.582,M,,*60\r\n
$GPGGA,092805.00,5700.9256140,N,00959.1766914,E,1,9,0.8,12.127,M,40.582,M,,*67\r\n
$GPGGA,092805.05,5700.9256288,N,00959.1767037,E,1,9,0.8,12.119,M,40.582,M,,*61\r\n
$GPGGA,092805.10,5700.9256286,N,00959.1767086,E,1,9,0.8,12.127,M,40.582,M,,*6C\r\n
$GPGGA,092805.15,5700.9256282,N,00959.1767119,E,1,9,0.8,12.134,M,40.582,M,,*68\r\n
$GPGGA,092805.20,5700.9256302,N,00959.1767147,E,1,9,0.8,12.141,M,40.582,M,,*6E\r\n
$GPGGA,092805.25,5700.9256315,N,00959.1767161,E,1,9,0.8,12.137,M,40.582,M,,*68\r\n
$GPGGA,092805.30,5700.9256333,N,00959.1767169,E,1,9,0.8,12.140,M,40.582,M,,*60\r\n
$GPGGA,092805.35,5700.9256353,N,00959.1767180,E,1,8,0.8,12.142,M,40.582,M,,*67\r\n
$GPGGA,092805.40,5700.9256377,N,00959.1767196,E,1,8,0.8,12.144,M,40.582,M,,*62\r\n
$GPGGA,092805.45,5700.9256415,N,00959.1767211,E,1,8,0.8,12.145,M,40.582,M,,*69\r\n
$GPGGA,092805.50,5700.9256446,N,00959.1767232,E,1,8,0.8,12.149,M,40.582,M,,*66\r\n
$GPGGA,092805.55,5700.9256474,N,00959.1767251,E,1,8,0.8,12.155,M,40.582,M,,*6A\r\n
$GPGGA,092805.60,5700.9256488,N,00959.1767277,E,1,8,0.8,12.159,M,40.582,M,,*67\r\n
$GPGGA,092805.65,5700.9256498,N,00959.1767304,E,1,10,0.8,12.158,M,40.582,M,,*5E\r\n
$GPGGA,092805.70,5700.9256510,N,00959.1767322,E,1,10,0.8,12.163,M,40.582,M,,*57\r\n
$GPGGA,092805.75,5700.9256527,N,00959.1767331,E,1,10,0.8,12.168,M,40.582,M,,*5F\r\n
$GPGGA,092805.80,5700.9256528,N,00959.1767340,E,1,10,0.8,12.170,M,40.582,M,,*55\r\n
$GPGGA,092805.85,5700.9256516,N,00959.1767331,E,1,10,0.8,12.164,M,40.582,M,,*5E\r\n
$GPGGA,092805.90,5700.9256520,N,00959.1767327,E,1,10,0.8,12.165,M,40.582,M,,*59\r\n
$GPGGA,092805.95,5700.9256528,N,00959.1767325,E,1,10,0.8,12.167,M,40.582,M,,*54\r\n
$GPGGA,092806.00,5700.9256536,N,00959.1767327,E,1,10,0.8,12.172,M,40.582,M,,*52\r\n
$GPGGA,092806.05,5700.9256665,N,00959.1767396,E,1,10,0.8,12.159,M,40.582,M,,*51\r\n
$GPGGA,092806.10,5700.9256668,N,00959.1767385,E,1,10,0.8,12.160,M,40.582,M,,*50\r\n
$GPGGA,092806.15,5700.9256670,N,00959.1767374,E,1,10,0.8,12.161,M,40.582,M,,*53\r\n
$GPGGA,092806.20,5700.9256671,N,00959.1767357,E,1,10,0.8,12.162,M,40.582,M,,*56\r\n
$GPGGA,092806.25,5700.9256641,N,00959.1767331,E,1,10,0.8,12.166,M,40.582,M,,*54\r\n
$GPGGA,092806.30,5700.9256638,N,00959.1767302,E,1,10,0.8,12.167,M,40.582,M,,*5F\r\n
$GPGGA,092806.35,5700.9256631,N,00959.1767273,E,1,10,0.8,12.167,M,40.582,M,,*54\r\n
$GPGGA,092806.40,5700.9256626,N,00959.1767241,E,1,10,0.8,12.168,M,40.582,M,,*5E\r\n
$GPGGA,092806.45,5700.9256598,N,00959.1767159,E,1,10,0.8,12.172,M,40.582,M,,*5C\r\n
$GPGGA,092806.50,5700.9256576,N,00959.1767101,E,1,10,0.8,12.169,M,40.582,M,,*5F\r\n
$GPGGA,092806.55,5700.9256570,N,00959.1767037,E,1,10,0.8,12.168,M,40.582,M,,*59\r\n
$GPGGA,092806.60,5700.9256570,N,00959.1766960,E,1,10,0.8,12.169,M,40.582,M,,*54\r\n
$GPGGA,092806.65,5700.9256570,N,00959.1766888,E,1,10,0.8,12.174,M,40.582,M,,*5A\r\n
$GPGGA,092806.70,5700.9256542,N,00959.1766804,E,1,10,0.8,12.173,M,40.582,M,,*5C\r\n
$GPGGA,092806.75,5700.9256534,N,00959.1766700,E,1,10,0.8,12.172,M,40.582,M,,*52\r\n
$GPGGA,092806.80,5700.9256531,N,00959.1766590,E,1,10,0.8,12.171,M,40.582,M,,*55\r\n
$GPGGA,092806.85,5700.9256512,N,00959.1766475,E,1,10,0.8,12.172,M,40.582,M,,*58\r\n
$GPGGA,092806.90,5700.9256486,N,00959.1766366,E,1,10,0.8,12.171,M,40.582,M,,*56\r\n
$GPGGA,092806.95,5700.9256484,N,00959.1766261,E,1,10,0.8,12.171,M,40.582,M,,*57\r\n
$GPGGA,092807.00,5700.9256465,N,00959.1766150,E,1,10,0.8,12.173,M,40.582,M,,*56\r\n
$GPGGA,092807.05,5700.9256300,N,00959.1766127,E,1,10,0.8,12.163,M,40.582,M,,*56\r\n
$GPGGA,092807.10,5700.9256308,N,00959.1765999,E,1,10,0.8,12.164,M,40.582,M,,*53\r\n
$GPGGA,092807.15,5700.9256298,N,00959.1765846,E,1,10,0.8,12.161,M,40.582,M,,*58\r\n
$GPGGA,092807.20,5700.9256278,N,00959.1765689,E,1,10,0.8,12.162,M,40.582,M,,*5E\r\n
$GPGGA,092807.25,5700.9256245,N,00959.1765526,E,1,10,0.8,12.158,M,40.582,M,,*5A\r\n
$GPGGA,092807.30,5700.9256211,N,00959.1765380,E,1,10,0.8,12.154,M,40.582,M,,*59\r\n
$GPGGA,092807.35,5700.9256195,N,00959.1765256,E,1,10,0.8,12.152,M,40.582,M,,*5F\r\n
$GPGGA,092807.40,5700.9256199,N,00959.1765131,E,1,10,0.8,12.150,M,40.582,M,,*51\r\n
$GPGGA,092807.45,5700.9256239,N,00959.1765016,E,1,10,0.8,12.156,M,40.582,M,,*5F\r\n
$GPGGA,092807.50,5700.9256279,N,00959.1764871,E,1,10,0.8,12.155,M,40.582,M,,*54\r\n
$GPGGA,092807.55,5700.9256316,N,00959.1764715,E,1,10,0.8,12.153,M,40.582,M,,*52\r\n
$GPGGA,092807.60,5700.9256320,N,00959.1764581,E,1,10,0.8,12.150,M,40.582,M,,*5D\r\n
$GPGGA,092807.65,5700.9256308,N,00959.1764446,E,1,10,0.8,12.141,M,40.582,M,,*58\r\n
$GPGGA,092807.70,5700.9256317,N,00959.1764329,E,1,10,0.8,12.140,M,40.582,M,,*5D\r\n
$GPGGA,092807.75,5700.9256333,N,00959.1764214,E,1,10,0.8,12.139,M,40.582,M,,*5F\r\n
$GPGGA,092807.80,5700.9256352,N,00959.1764102,E,1,10,0.8,12.137,M,40.582,M,,*58\r\n
$GPGGA,092807.85,5700.9256377,N,00959.1764005,E,1,10,0.8,12.144,M,40.582,M,,*58\r\n
$GPGGA,092807.90,5700.9256408,N,00959.1763908,E,1,10,0.8,12.145,M,40.582,M,,*51\r\n
$GPGGA,092807.95,5700.9256446,N,00959.1763800,E,1,10,0.8,12.145,M,40.582,M,,*57\r\n
$GPGGA,092808.00,5700.9256476,N,00959.1763691,E,1,10,0.8,12.145,M,40.582,M,,*51\r\n
$GPGGA,092808.05,5700.9256239,N,00959.1763694,E,1,10,0.8,12.130,M,40.582,M,,*5E\r\n
$GPGGA,092808.10,5700.9256214,N,00959.1763606,E,1,10,0.8,12.128,M,40.582,M,,*57\r\n
$GPGGA,092808.15,5700.9256204,N,00959.1763531,E,1,10,0.8,12.126,M,40.582,M,,*5A\r\n
$GPGGA,092808.20,5700.9256201,N,00959.1763455,E,1,10,0.8,12.127,M,40.582,M,,*5B\r\n
$GPGGA,092808.25,5700.9256178,N,00959.1763397,E,1,10,0.8,12.126,M,40.582,M,,*5B\r\n
$GPGGA,092808.30,5700.9256185,N,00959.1763331,E,1,10,0.8,12.127,M,40.582,M,,*50\r\n
$GPGGA,092808.35,5700.9256193,N,00959.1763282,E,1,10,0.8,12.126,M,40.582,M,,*5A\r\n
$GPGGA,092808.40,5700.9256183,N,00959.1763246,E,1,10,0.8,12.124,M,40.582,M,,*53\r\n
$GPGGA,092808.45,5700.9256186,N,00959.1763209,E,1,10,0.8,12.126,M,40.582,M,,*5A\r\n
$GPGGA,092808.50,5700.9256189,N,00959.1763173,E,1,10,0.8,12.126,M,40.582,M,,*5F\r\n
$GPGGA,092808.55,5700.9256192,N,00959.1763139,E,1,10,0.8,12.126,M,40.582,M,,*5E\r\n
$GPGGA,092808.60,5700.9256194,N,00959.1763118,E,1,10,0.8,12.127,M,40.582,M,,*5C\r\n
$GPGGA,092808.65,5700.9256210,N,00959.1763111,E,1,10,0.8,12.128,M,40.582,M,,*50\r\n
$GPGGA,092808.70,5700.9256211,N,00959.1763103,E,1,10,0.8,12.129,M,40.582,M,,*57\r\n
$GPGGA,092808.75,5700.9256211,N,00959.1763101,E,1,10,0.8,12.129,M,40.582,M,,*50\r\n
$GPGGA,092808.80,5700.9256210,N,00959.1763102,E,1,10,0.8,12.130,M,40.582,M,,*50\r\n
$GPGGA,092808.85,5700.9256122,N,00959.1763148,E,1,10,0.8,12.131,M,40.582,M,,*58\r\n
$GPGGA,092808.90,5700.9256116,N,00959.1763165,E,1,10,0.8,12.131,M,40.582,M,,*54\r\n
$GPGGA,092808.95,5700.9256106,N,00959.1763181,E,1,10,0.8,12.132,M,40.582,M,,*59\r\n
$GPGGA,092809.00,5700.9256092,N,00959.1763195,E,1,10,0.8,12.133,M,40.582,M,,*5C\r\n
$GPGGA,092809.05,5700.9255889,N,00959.1763269,E,1,10,0.8,12.118,M,40.582,M,,*51\r\n
$GPGGA,092809.10,5700.9255883,N,00959.1763291,E,1,10,0.8,12.119,M,40.582,M,,*59\r\n
$GPGGA,092809.15,5700.9255876,N,00959.1763315,E,1,10,0.8,12.120,M,40.582,M,,*51\r\n
$GPGGA,092809.20,5700.9255867,N,00959.1763339,E,1,10,0.8,12.120,M,40.582,M,,*59\r\n
$GPGGA,092809.25,5700.9255888,N,00959.1763337,E,1,10,0.8,12.116,M,40.582,M,,*56\r\n
$GPGGA,092809.30,5700.9255881,N,00959.1763361,E,1,10,0.8,12.116,M,40.582,M,,*58\r\n
$GPGGA,092809.35,5700.9255878,N,00959.1763396,E,1,10,0.8,12.116,M,40.582,M,,*53\r\n
$GPGGA,092809.40,5700.9255876,N,00959.1763434,E,1,10,0.8,12.116,M,40.582,M,,*50\r\n
$GPGGA,092809.45,5700.9255903,N,00959.1763472,E,1,10,0.8,12.117,M,40.582,M,,*55\r\n
$GPGGA,092809.50,5700.9255899,N,00959.1763494,E,1,10,0.8,12.117,M,40.582,M,,*5B\r\n
$GPGGA,092809.55,5700.9255896,N,00959.1763516,E,1,10,0.8,12.117,M,40.582,M,,*5A\r\n
$GPGGA,092809.60,5700.9255895,N,00959.1763548,E,1,10,0.8,12.116,M,40.582,M,,*55\r\n
$GPGGA,092809.65,5700.9255864,N,00959.1763498,E,1,10,0.8,12.114,M,40.582,M,,*50\r\n
$GPGGA,092809.70,5700.9255862,N,00959.1763520,E,1,10,0.8,12.114,M,40.582,M,,*50\r\n
$GPGGA,092809.75,5700.9255858,N,00959.1763538,E,1,10,0.8,12.113,M,40.582,M,,*52\r\n
$GPGGA,092809.80,5700.9255853,N,00959.1763552,E,1,10,0.8,12.112,M,40.582,M,,*5E\r\n
$GPGGA,092809.85,5700.9255858,N,00959.1763549,E,1,9,0.8,12.112,M,40.582,M,,*62\r\n
$GPGGA,092809.90,5700.9255856,N,00959.1763566,E,1,9,0.8,12.111,M,40.582,M,,*66\r\n
$GPGGA,092809.95,5700.9255855,N,00959.1763585,E,1,9,0.8,12.110,M,40.582,M,,*6C\r\n
$GPGGA,092810.00,5700.9255852,N,00959.1763596,E,1,9,0.8,12.110,M,40.582,M,,*6D\r\n
$GPGGA,092810.05,5700.9255648,N,00959.1763722,E,1,9,0.8,12.103,M,40.582,M,,*62\r\n
$GPGGA,092810.10,5700.9255649,N,00959.1763734,E,1,9,0.8,12.103,M,40.582,M,,*60\r\n
$GPGGA,092810.15,5700.9255652,N,00959.1763747,E,1,9,0.8,12.102,M,40.582,M,,*6A\r\n
$GPGGA,092810.20,5700.9255654,N,00959.1763759,E,1,9,0.8,12.101,M,40.582,M,,*66\r\n
$GPGGA,092810.25,5700.9255662,N,00959.1763762,E,1,9,0.8,12.105,M,40.582,M,,*6A\r\n
$GPGGA,092810.30,5700.9255664,N,00959.1763764,E,1,9,0.8,12.105,M,40.582,M,,*6E\r\n
$GPGGA,092810.35,5700.9255668,N,00959.1763763,E,1,9,0.8,12.105,M,40.582,M,,*60\r\n
$GPGGA,092810.40,5700.9255672,N,00959.1763764,E,1,9,0.8,12.105,M,40.582,M,,*6E\r\n
$GPGGA,092810.45,5700.9255664,N,00959.1763732,E,1,9,0.8,12.105,M,40.582,M,,*6F\r\n
$GPGGA,092810.50,5700.9255666,N,00959.1763730,E,1,9,0.8,12.105,M,40.582,M,,*6B\r\n
$GPGGA,092810.55,5700.9255667,N,00959.1763725,E,1,9,0.8,12.105,M,40.582,M,,*6B\r\n
$GPGGA,092810.60,5700.9255666,N,00959.1763721,E,1,9,0.8,12.106,M,40.582,M,,*6B\r\n
$GPGGA,092810.65,5700.9255625,N,00959.1763742,E,1,9,0.8,12.108,M,40.582,M,,*62\r\n
$GPGGA,092810.70,5700.9255623,N,00959.1763743,E,1,9,0.8,12.109,M,40.582,M,,*60\r\n
$GPGGA,092810.75,5700.9255619,N,00959.1763741,E,1,9,0.8,12.110,M,40.582,M,,*66\r\n
$GPGGA,092810.80,5700.9255616,N,00959.1763742,E,1,9,0.8,12.111,M,40.582,M,,*61\r\n
$GPGGA,092810.85,5700.9255621,N,00959.1763761,E,1,9,0.8,12.112,M,40.582,M,,*62\r\n
$GPGGA,092810.90,5700.9255619,N,00959.1763762,E,1,9,0.8,12.113,M,40.582,M,,*6F\r\n
$GPGGA,092810.95,5700.9255616,N,00959.1763763,E,1,9,0.8,12.114,M,40.582,M,,*63\r\n
$GPGGA,092811.00,5700.9255614,N,00959.1763761,E,1,9,0.8,12.115,M,40.582,M,,*6F\r\n
$GPGGA,092811.05,5700.9255408,N,00959.1763856,E,1,9,0.8,12.104,M,40.582,M,,*6E\r\n
$GPGGA,092811.10,5700.9255408,N,00959.1763849,E,1,9,0.8,12.104,M,40.582,M,,*64\r\n
$GPGGA,092811.15,5700.9255410,N,00959.1763842,E,1,9,0.8,12.105,M,40.582,M,,*62\r\n
$GPGGA,092811.20,5700.9255407,N,00959.1763840,E,1,9,0.8,12.106,M,40.582,M,,*63\r\n
$GPGGA,092811.25,5700.9255398,N,00959.1763826,E,1,9,0.8,12.105,M,40.582,M,,*64\r\n
$GPGGA,092811.30,5700.9255397,N,00959.1763822,E,1,9,0.8,12.105,M,40.582,M,,*6B\r\n
$GPGGA,092811.35,5700.9255396,N,00959.1763818,E,1,9,0.8,12.105,M,40.582,M,,*66\r\n
$GPGGA,092811.40,5700.9255396,N,00959.1763806,E,1,9,0.8,12.106,M,40.582,M,,*68\r\n
$GPGGA,092811.45,5700.9255390,N,00959.1763807,E,1,9,0.8,12.106,M,40.582,M,,*6A\r\n
$GPGGA,092811.50,5700.9255390,N,00959.1763803,E,1,9,0.8,12.106,M,40.582,M,,*6A\r\n
$GPGGA,092811.55,5700.9255391,N,00959.1763793,E,1,9,0.8,12.106,M,40.582,M,,*68\r\n
$GPGGA,092811.60,5700.9255390,N,00959.1763789,E,1,9,0.8,12.106,M,40.582,M,,*64\r\n
$GPGGA,092811.65,5700.9255403,N,00959.1763784,E,1,9,0.8,12.104,M,40.582,M,,*63\r\n
$GPGGA,092811.70,5700.9255403,N,00959.1763775,E,1,9,0.8,12.103,M,40.582,M,,*6E\r\n
$GPGGA,092811.75,5700.9255403,N,00959.1763773,E,1,9,0.8,12.103,M,40.582,M,,*6D\r\n
$GPGGA,092811.80,5700.9255404,N,00959.1763771,E,1,9,0.8,12.103,M,40.582,M,,*62\r\n
$GPGGA,092811.85,5700.9255396,N,00959.1763780,E,1,9,0.8,12.105,M,40.582,M,,*63\r\n
$GPGGA,092811.90,5700.9255397,N,00959.1763783,E,1,9,0.8,12.105,M,40.582,M,,*65\r\n
$GPGGA,092811.95,5700.9255400,N,00959.1763783,E,1,9,0.8,12.105,M,40.582,M,,*69\r\n
$GPGGA,092812.00,5700.9255403,N,00959.1763779,E,1,9,0.8,12.105,M,40.582,M,,*60\r\n
$GPGGA,092812.05,5700.9255202,N,00959.1763899,E,1,9,0.8,12.097,M,40.582,M,,*69\r\n
$GPGGA,092812.10,5700.9255208,N,00959.1763897,E,1,9,0.8,12.097,M,40.582,M,,*69\r\n
$GPGGA,092812.15,5700.9255212,N,00959.1763896,E,1,9,0.8,12.096,M,40.582,M,,*67\r\n
$GPGGA,092812.20,5700.9255217,N,00959.1763892,E,1,9,0.8,12.096,M,40.582,M,,*60\r\n
$GPGGA,092812.25,5700.9255208,N,00959.1763855,E,1,9,0.8,12.095,M,40.582,M,,*63\r\n
$GPGGA,092812.30,5700.9255210,N,00959.1763852,E,1,9,0.8,12.095,M,40.582,M,,*69\r\n
$GPGGA,092812.35,5700.9255213,N,00959.1763851,E,1,9,0.8,12.094,M,40.582,M,,*6D\r\n
$GPGGA,092812.40,5700.9255217,N,00959.1763850,E,1,9,0.8,12.094,M,40.582,M,,*6A\r\n
$GPGGA,092812.45,5700.9255169,N,00959.1763872,E,1,9,0.8,12.096,M,40.582,M,,*67\r\n
$GPGGA,092812.50,5700.9255167,N,00959.1763870,E,1,9,0.8,12.096,M,40.582,M,,*6F\r\n
$GPGGA,092812.55,5700.9255166,N,00959.1763868,E,1,9,0.8,12.096,M,40.582,M,,*62\r\n
$GPGGA,092812.60,5700.9255162,N,00959.1763870,E,1,9,0.8,12.096,M,40.582,M,,*69\r\n
$GPGGA,092812.65,5700.9255152,N,00959.1763867,E,1,9,0.8,12.095,M,40.582,M,,*6A\r\n
$GPGGA,092812.70,5700.9255145,N,00959.1763864,E,1,9,0.8,12.095,M,40.582,M,,*6B\r\n
$GPGGA,092812.75,5700.9255138,N,00959.1763865,E,1,9,0.8,12.095,M,40.582,M,,*65\r\n
$GPGGA,092812.80,5700.9255135,N,00959.1763866,E,1,9,0.8,12.095,M,40.582,M,,*61\r\n
$GPGGA,092812.85,5700.9255147,N,00959.1763866,E,1,9,0.8,12.095,M,40.582,M,,*61\r\n
$GPGGA,092812.90,5700.9255141,N,00959.1763867,E,1,9,0.8,12.095,M,40.582,M,,*62\r\n
$GPGGA,092812.95,5700.9255138,N,00959.1763870,E,1,9,0.8,12.095,M,40.582,M,,*6F\r\n
$GPGGA,092813.00,5700.9255138,N,00959.1763873,E,1,9,0.8,12.095,M,40.582,M,,*61\r\n
$GPGGA,092813.05,5700.9254946,N,00959.1763990,E,1,9,0.8,12.087,M,40.582,M,,*6B\r\n
$GPGGA,092813.10,5700.9254947,N,00959.1763992,E,1,9,0.8,12.087,M,40.582,M,,*6C\r\n
$GPGGA,092813.15,5700.9254946,N,00959.1763989,E,1,9,0.8,12.087,M,40.582,M,,*62\r\n
$GPGGA,092813.20,5700.9254950,N,00959.1763988,E,1,9,0.8,12.087,M,40.582,M,,*62\r\n
$GPGGA,092813.25,5700.9254949,N,00959.1763970,E,1,9,0.8,12.086,M,40.582,M,,*69\r\n
$GPGGA,092813.30,5700.9254951,N,00959.1763972,E,1,9,0.8,12.086,M,40.582,M,,*66\r\n
$GPGGA,092813.35,5700.9254951,N,00959.1763967,E,1,9,0.8,12.086,M,40.582,M,,*67\r\n
$GPGGA,092813.40,5700.9254955,N,00959.1763968,E,1,9,0.8,12.087,M,40.582,M,,*6F\r\n
$GPGGA,092813.45,5700.9254948,N,00959.1763986,E,1,9,0.8,12.087,M,40.582,M,,*66\r\n
$GPGGA,092813.50,5700.9254952,N,00959.1763987,E,1,9,0.8,12.087,M,40.582,M,,*68\r\n
$GPGGA,092813.55,5700.9254954,N,00959.1763980,E,1,9,0.8,12.087,M,40.582,M,,*6C\r\n
$GPGGA,092813.60,5700.9254957,N,00959.1763975,E,1,9,0.8,12.087,M,40.582,M,,*63\r\n
$GPGGA,092813.65,5700.9254965,N,00959.1763954,E,1,9,0.8,12.086,M,40.582,M,,*65\r\n
$GPGGA,092813.70,5700.9254967,N,00959.1763951,E,1,9,0.8,12.086,M,40.582,M,,*66\r\n
$GPGGA,092813.75,5700.9254965,N,00959.1763946,E,1,9,0.8,12.086,M,40.582,M,,*67\r\n
$GPGGA,092813.80,5700.9254966,N,00959.1763936,E,1,9,0.8,12.086,M,40.582,M,,*69\r\n
$GPGGA,092813.85,5700.9254911,N,00959.1763929,E,1,9,0.8,12.085,M,40.582,M,,*61\r\n
$GPGGA,092813.90,5700.9254910,N,00959.1763921,E,1,9,0.8,12.085,M,40.582,M,,*6C\r\n
$GPGGA,092813.95,5700.9254907,N,00959.1763910,E,1,9,0.8,12.085,M,40.582,M,,*6D\r\n
$GPGGA,092814.00,5700.9254904,N,00959.1763899,E,1,9,0.8,12.085,M,40.582,M,,*65\r\n
$GPGGA,092814.05,5700.9254702,N,00959.1763993,E,1,9,0.8,12.075,M,40.582,M,,*6C\r\n
$GPGGA,092814.10,5700.9254701,N,00959.1763990,E,1,9,0.8,12.075,M,40.582,M,,*68\r\n
$GPGGA,092814.15,5700.9254698,N,00959.1763982,E,1,9,0.8,12.075,M,40.582,M,,*6F\r\n
$GPGGA,092814.20,5700.9254694,N,00959.1763971,E,1,9,0.8,12.074,M,40.582,M,,*68\r\n
$GPGGA,092814.25,5700.9254682,N,00959.1763988,E,1,9,0.8,12.075,M,40.582,M,,*6D\r\n
$GPGGA,092814.30,5700.9254682,N,00959.1763986,E,1,9,0.8,12.075,M,40.582,M,,*67\r\n
$GPGGA,092814.35,5700.9254681,N,00959.1763983,E,1,9,0.8,12.075,M,40.582,M,,*64\r\n
$GPGGA,092814.40,5700.9254677,N,00959.1763979,E,1,9,0.8,12.075,M,40.582,M,,*6A\r\n
$GPGGA,092814.45,5700.9254705,N,00959.1763998,E,1,9,0.8,12.075,M,40.582,M,,*64\r\n
$GPGGA,092814.50,5700.9254705,N,00959.1764002,E,1,9,0.8,12.075,M,40.582,M,,*6D\r\n
$GPGGA,092814.55,5700.9254709,N,00959.1764007,E,1,9,0.8,12.074,M,40.582,M,,*60\r\n
$GPGGA,092814.60,5700.9254709,N,00959.1764004,E,1,9,0.8,12.074,M,40.582,M,,*65\r\n
$GPGGA,092814.65,5700.9254729,N,00959.1764029,E,1,9,0.8,12.075,M,40.582,M,,*6C\r\n
$GPGGA,092814.70,5700.9254728,N,00959.1764024,E,1,9,0.8,12.074,M,40.582,M,,*65\r\n
$GPGGA,092814.75,5700.9254727,N,00959.1764026,E,1,9,0.8,12.074,M,40.582,M,,*6D\r\n
$GPGGA,092814.80,5700.9254729,N,00959.1764024,E,1,9,0.8,12.074,M,40.582,M,,*6B\r\n
$GPGGA,092814.85,5700.9254701,N,00959.1763997,E,1,9,0.8,12.071,M,40.582,M,,*67\r\n
$GPGGA,092814.90,5700.9254699,N,00959.1763986,E,1,9,0.8,12.071,M,40.582,M,,*63\r\n
$GPGGA,092814.95,5700.9254701,N,00959.1763984,E,1,9,0.8,12.070,M,40.582,M,,*65\r\n
$GPGGA,092815.00,5700.9254704,N,00959.1763980,E,1,9,0.8,12.070,M,40.582,M,,*69\r\n
$GPGGA,092815.05,5700.9254513,N,00959.1764049,E,1,9,0.8,12.061,M,40.582,M,,*63\r\n
$GPGGA,092815.10,5700.9254512,N,00959.1764041,E,1,9,0.8,12.061,M,40.582,M,,*6E\r\n
$GPGGA,092815.15,5700.9254514,N,00959.1764033,E,1,9,0.8,12.060,M,40.582,M,,*69\r\n
$GPGGA,092815.20,5700.9254516,N,00959.1764029,E,1,9,0.8,12.060,M,40.582,M,,*66\r\n
$GPGGA,092815.25,5700.9254494,N,00959.1764020,E,1,9,0.8,12.062,M,40.582,M,,*63\r\n
$GPGGA,092815.30,5700.9254495,N,00959.1764012,E,1,9,0.8,12.062,M,40.582,M,,*67\r\n
$GPGGA,092815.35,5700.9254495,N,00959.1764006,E,1,9,0.8,12.062,M,40.582,M,,*67\r\n
$GPGGA,092815.40,5700.9254494,N,00959.1764000,E,1,9,0.8,12.062,M,40.582,M,,*62\r\n
$GPGGA,092815.45,5700.9254486,N,00959.1763999,E,1,9,0.8,12.062,M,40.582,M,,*6A\r\n
$GPGGA,092815.50,5700.9254485,N,00959.1763996,E,1,9,0.8,12.062,M,40.582,M,,*62\r\n
$GPGGA,092815.55,5700.9254486,N,00959.1763991,E,1,9,0.8,12.062,M,40.582,M,,*63\r\n
$GPGGA,092815.60,5700.9254487,N,00959.1763985,E,1,9,0.8,12.061,M,40.582,M,,*62\r\n
$GPGGA,092815.65,5700.9254503,N,00959.1763994,E,1,9,0.8,12.061,M,40.582,M,,*6A\r\n
$GPGGA,092815.70,5700.9254506,N,00959.1763990,E,1,9,0.8,12.061,M,40.582,M,,*6F\r\n
$GPGGA,092815.75,5700.9254507,N,00959.1763996,E,1,9,0.8,12.061,M,40.582,M,,*6D\r\n
$GPGGA,092815.80,5700.9254508,N,00959.1763992,E,1,9,0.8,12.061,M,40.582,M,,*6C\r\n
$GPGGA,092815.85,5700.9254506,N,00959.1764007,E,1,9,0.8,12.061,M,40.582,M,,*65\r\n
$GPGGA,092815.90,5700.9254506,N,00959.1764003,E,1,9,0.8,12.061,M,40.582,M,,*65\r\n
$GPGGA,092815.95,5700.9254507,N,00959.1764004,E,1,9,0.8,12.061,M,40.582,M,,*66\r\n
$GPGGA,092816.00,5700.9254506,N,00959.1764012,E,1,9,0.8,12.061,M,40.582,M,,*6F\r\n
$GPGGA,092816.05,5700.9254249,N,00959.1764133,E,1,9,0.8,12.051,M,40.582,M,,*67\r\n
$GPGGA,092816.10,5700.9254248,N,00959.1764136,E,1,9,0.8,12.051,M,40.582,M,,*67\r\n
$GPGGA,092816.15,5700.9254248,N,00959.1764140,E,1,9,0.8,12.051,M,40.582,M,,*63\r\n
$GPGGA,092816.20,5700.9254249,N,00959.1764147,E,1,9,0.8,12.051,M,40.582,M,,*63\r\n
$GPGGA,092816.25,5700.9254260,N,00959.1764160,E,1,9,0.8,12.052,M,40.582,M,,*6B\r\n
$GPGGA,092816.30,5700.9254259,N,00959.1764160,E,1,9,0.8,12.052,M,40.582,M,,*65\r\n
$GPGGA,092816.35,5700.9254260,N,00959.1764167,E,1,9,0.8,12.052,M,40.582,M,,*6D\r\n
$GPGGA,092816.40,5700.9254260,N,00959.1764172,E,1,9,0.8,12.052,M,40.582,M,,*6B\r\n
$GPGGA,092816.45,5700.9254264,N,00959.1764159,E,1,9,0.8,12.052,M,40.582,M,,*63\r\n
$GPGGA,092816.50,5700.9254262,N,00959.1764160,E,1,9,0.8,12.052,M,40.582,M,,*6B\r\n
$GPGGA,092816.55,5700.9254260,N,00959.1764164,E,1,9,0.8,12.053,M,40.582,M,,*69\r\n
$GPGGA,092816.60,5700.9254261,N,00959.1764172,E,1,9,0.8,12.053,M,40.582,M,,*69\r\n
$GPGGA,092816.65,5700.9254256,N,00959.1764182,E,1,9,0.8,12.053,M,40.582,M,,*67\r\n
$GPGGA,092816.70,5700.9254254,N,00959.1764187,E,1,9,0.8,12.053,M,40.582,M,,*64\r\n
$GPGGA,092816.75,5700.9254254,N,00959.1764189,E,1,9,0.8,12.053,M,40.582,M,,*6F\r\n
$GPGGA,092816.80,5700.9254254,N,00959.1764189,E,1,9,0.8,12.053,M,40.582,M,,*65\r\n
$GPGGA,092816.85,5700.9254250,N,00959.1764176,E,1,9,0.8,12.053,M,40.582,M,,*64\r\n
$GPGGA,092816.90,5700.9254248,N,00959.1764174,E,1,9,0.8,12.053,M,40.582,M,,*6B\r\n
$GPGGA,092816.95,5700.9254248,N,00959.1764173,E,1,9,0.8,12.054,M,40.582,M,,*6E\r\n
$GPGGA,092817.00,5700.9254249,N,00959.1764171,E,1,9,0.8,12.054,M,40.582,M,,*60\r\n
$GPGGA,092817.05,5700.9254028,N,00959.1764242,E,1,9,0.8,12.042,M,40.582,M,,*64\r\n
$GPGGA,092817.10,5700.9254027,N,00959.1764239,E,1,9,0.8,12.042,M,40.582,M,,*63\r\n
$GPGGA,092817.15,5700.9254029,N,00959.1764231,E,1,9,0.8,12.042,M,40.582,M,,*60\r\n
$GPGGA,092817.20,5700.9254030,N,00959.1764222,E,1,9,0.8,12.042,M,40.582,M,,*6C\r\n
$GPGGA,092817.25,5700.9254021,N,00959.1764184,E,1,9,0.8,12.039,M,40.582,M,,*6A\r\n
$GPGGA,092817.30,5700.9254022,N,00959.1764170,E,1,9,0.8,12.039,M,40.582,M,,*66\r\n
$GPGGA,092817.35,5700.9254022,N,00959.1764159,E,1,9,0.8,12.039,M,40.582,M,,*68\r\n
$GPGGA,092817.40,5700.9254024,N,00959.1764146,E,1,9,0.8,12.038,M,40.582,M,,*63\r\n
$GPGGA,092817.45,5700.9254033,N,00959.1764106,E,1,9,0.8,12.034,M,40.582,M,,*68\r\n
$GPGGA,092817.50,5700.9254034,N,00959.1764087,E,1,9,0.8,12.033,M,40.582,M,,*64\r\n
$GPGGA,092817.55,5700.9254035,N,00959.1764064,E,1,9,0.8,12.032,M,40.582,M,,*6C\r\n
$GPGGA,092817.60,5700.9254033,N,00959.1764040,E,1,9,0.8,12.032,M,40.582,M,,*6A\r\n
$GPGGA,092817.65,5700.9254024,N,00959.1763977,E,1,9,0.8,12.027,M,40.582,M,,*67\r\n
$GPGGA,092817.70,5700.9254025,N,00959.1763956,E,1,9,0.8,12.026,M,40.582,M,,*60\r\n
$GPGGA,092817.75,5700.9254026,N,00959.1763935,E,1,9,0.8,12.025,M,40.582,M,,*60\r\n
$GPGGA,092817.80,5700.9254027,N,00959.1763917,E,1,8,0.8,12.023,M,40.582,M,,*6C\r\n
$GPGGA,092817.85,5700.9254050,N,00959.1763926,E,1,8,0.8,12.021,M,40.582,M,,*69\r\n
$GPGGA,092817.90,5700.9254052,N,00959.1763909,E,1,8,0.8,12.020,M,40.582,M,,*63\r\n
$GPGGA,092817.95,5700.9254055,N,00959.1763896,E,1,8,0.8,12.018,M,40.582,M,,*6D\r\n
$GPGGA,092818.00,5700.9254058,N,00959.1763884,E,1,8,0.8,12.017,M,40.582,M,,*6F\r\n
$GPGGA,092818.05,5700.9254167,N,00959.1764012,E,1,8,0.8,12.009,M,40.582,M,,*68\r\n
$GPGGA,092818.10,5700.9254169,N,00959.1764016,E,1,8,0.8,12.008,M,40.582,M,,*67\r\n
$GPGGA,092818.15,5700.9254170,N,00959.1764022,E,1,8,0.8,12.008,M,40.582,M,,*6D\r\n
$GPGGA,092818.20,5700.9254171,N,00959.1764035,E,1,8,0.8,12.007,M,40.582,M,,*63\r\n
$GPGGA,092818.25,5700.9254141,N,00959.1764192,E,1,9,0.8,12.028,M,40.582,M,,*65\r\n
$GPGGA,092818.30,5700.9254133,N,00959.1764229,E,1,9,0.8,12.029,M,40.582,M,,*66\r\n
$GPGGA,092818.35,5700.9254126,N,00959.1764253,E,1,9,0.8,12.031,M,40.582,M,,*63\r\n
$GPGGA,092818.40,5700.9254119,N,00959.1764274,E,1,9,0.8,12.031,M,40.582,M,,*68\r\n
$GPGGA,092818.45,5700.9254113,N,00959.1764308,E,1,9,0.8,12.034,M,40.582,M,,*68\r\n
$GPGGA,092818.50,5700.9254111,N,00959.1764328,E,1,9,0.8,12.034,M,40.582,M,,*6C\r\n
$GPGGA,092818.55,5700.9254109,N,00959.1764351,E,1,9,0.8,12.035,M,40.582,M,,*6F\r\n
$GPGGA,092818.60,5700.9254105,N,00959.1764375,E,1,9,0.8,12.036,M,40.582,M,,*60\r\n
$GPGGA,092818.65,5700.9254079,N,00959.1764401,E,1,9,0.8,12.033,M,40.582,M,,*6E\r\n
$GPGGA,092818.70,5700.9254073,N,00959.1764430,E,1,9,0.8,12.034,M,40.582,M,,*65\r\n
$GPGGA,092818.75,5700.9254066,N,00959.1764462,E,1,9,0.8,12.035,M,40.582,M,,*62\r\n
$GPGGA,092818.80,5700.9254062,N,00959.1764495,E,1,9,0.8,12.036,M,40.582,M,,*67\r\n
$GPGGA,092818.85,5700.9254064,N,00959.1764539,E,1,9,0.8,12.032,M,40.582,M,,*67\r\n
$GPGGA,092818.90,5700.9254059,N,00959.1764576,E,1,9,0.8,12.033,M,40.582,M,,*67\r\n
$GPGGA,092818.95,5700.9254056,N,00959.1764611,E,1,9,0.8,12.033,M,40.582,M,,*6F\r\n
$GPGGA,092819.00,5700.9254054,N,00959.1764643,E,1,9,0.8,12.034,M,40.582,M,,*60\r\n
$GPGGA,092819.05,5700.9253885,N,00959.1764758,E,1,9,0.8,12.025,M,40.582,M,,*6D\r\n
$GPGGA,092819.10,5700.9253885,N,00959.1764787,E,1,9,0.8,12.025,M,40.582,M,,*6B\r\n
$GPGGA,092819.15,5700.9253888,N,00959.1764819,E,1,9,0.8,12.025,M,40.582,M,,*6B\r\n
$GPGGA,092819.20,5700.9253891,N,00959.1764849,E,1,9,0.8,12.025,M,40.582,M,,*60\r\n
$GPGGA,092819.25,5700.9253903,N,00959.1764820,E,1,9,0.8,12.024,M,40.582,M,,*61\r\n
$GPGGA,092819.30,5700.9253906,N,00959.1764838,E,1,9,0.8,12.024,M,40.582,M,,*69\r\n
$GPGGA,092819.35,5700.9253913,N,00959.1764858,E,1,9,0.8,12.024,M,40.582,M,,*6E\r\n
$GPGGA,092819.40,5700.9253920,N,00959.1764873,E,1,9,0.8,12.023,M,40.582,M,,*62\r\n
$GPGGA,092819.45,5700.9253915,N,00959.1764836,E,1,9,0.8,12.024,M,40.582,M,,*67\r\n
$GPGGA,092819.50,5700.9253921,N,00959.1764843,E,1,9,0.8,12.024,M,40.582,M,,*66\r\n
$GPGGA,092819.55,5700.9253929,N,00959.1764848,E,1,9,0.8,12.023,M,40.582,M,,*67\r\n
$GPGGA,092819.60,5700.9253935,N,00959.1764852,E,1,9,0.8,12.023,M,40.582,M,,*67\r\n
$GPGGA,092819.65,5700.9253931,N,00959.1764843,E,1,9,0.8,12.023,M,40.582,M,,*66\r\n
$GPGGA,092819.70,5700.9253941,N,00959.1764850,E,1,9,0.8,12.023,M,40.582,M,,*67\r\n
$GPGGA,092819.75,5700.9253949,N,00959.1764858,E,1,9,0.8,12.023,M,40.582,M,,*62\r\n
$GPGGA,092819.80,5700.9253955,N,00959.1764860,E,1,9,0.8,12.022,M,40.582,M,,*6F\r\n
$GPGGA,092819.85,5700.9253976,N,00959.1764910,E,1,9,0.8,12.022,M,40.582,M,,*6D\r\n
$GPGGA,092819.90,5700.9253984,N,00959.1764910,E,1,9,0.8,12.022,M,40.582,M,,*64\r\n
$GPGGA,092819.95,5700.9253990,N,00959.1764912,E,1,9,0.8,12.022,M,40.582,M,,*66\r\n
$GPGGA,092820.00,5700.9253993,N,00959.1764917,E,1,9,0.8,12.022,M,40.582,M,,*66\r\n
$GPGGA,092820.05,5700.9253757,N,00959.1765027,E,1,9,0.8,12.016,M,40.582,M,,*69\r\n
$GPGGA,092820.10,5700.9253762,N,00959.1765039,E,1,9,0.8,12.016,M,40.582,M,,*64\r\n
$GPGGA,092820.15,5700.9253767,N,00959.1765048,E,1,9,0.8,12.016,M,40.582,M,,*62\r\n
$GPGGA,092820.20,5700.9253773,N,00959.1765055,E,1,9,0.8,12.016,M,40.582,M,,*6D\r\n
$GPGGA,092820.25,5700.9253801,N,00959.1765093,E,1,9,0.8,12.017,M,40.582,M,,*69\r\n
$GPGGA,092820.30,5700.9253806,N,00959.1765107,E,1,9,0.8,12.018,M,40.582,M,,*69\r\n
$GPGGA,092820.35,5700.9253812,N,00959.1765133,E,1,9,0.8,12.018,M,40.582,M,,*6E\r\n
$GPGGA,092820.40,5700.9253820,N,00959.1765157,E,1,9,0.8,12.019,M,40.582,M,,*6E\r\n
$GPGGA,092820.45,5700.9253835,N,00959.1765217,E,1,10,0.8,12.023,M,40.582,M,,*59\r\n
$GPGGA,092820.50,5700.9253847,N,00959.1765239,E,1,10,0.8,12.024,M,40.582,M,,*53\r\n
$GPGGA,092820.55,5700.9253871,N,00959.1765256,E,1,10,0.8,12.024,M,40.582,M,,*5A\r\n
$GPGGA,092820.60,5700.9253890,N,00959.1765274,E,1,10,0.8,12.025,M,40.582,M,,*52\r\n
$GPGGA,092820.65,5700.9253929,N,00959.1765253,E,1,10,0.8,12.022,M,40.582,M,,*56\r\n
$GPGGA,092820.70,5700.9253920,N,00959.1765250,E,1,10,0.8,12.022,M,40.582,M,,*58\r\n
$GPGGA,092820.75,5700.9253922,N,00959.1765265,E,1,10,0.8,12.023,M,40.582,M,,*58\r\n
$GPGGA,092820.80,5700.9253929,N,00959.1765287,E,1,10,0.8,12.026,M,40.582,M,,*50\r\n
$GPGGA,092820.85,5700.9253917,N,00959.1765294,E,1,10,0.8,12.025,M,40.582,M,,*59\r\n
$GPGGA,092820.90,5700.9253917,N,00959.1765310,E,1,10,0.8,12.025,M,40.582,M,,*50\r\n
$GPGGA,092820.95,5700.9253916,N,00959.1765323,E,1,10,0.8,12.026,M,40.582,M,,*57\r\n
$GPGGA,092821.00,5700.9253914,N,00959.1765335,E,1,10,0.8,12.026,M,40.582,M,,*5F\r\n
$GPGGA,092821.05,5700.9253667,N,00959.1765465,E,1,10,0.8,12.020,M,40.582,M,,*55\r\n
$GPGGA,092821.10,5700.9253657,N,00959.1765470,E,1,10,0.8,12.020,M,40.582,M,,*56\r\n
$GPGGA,092821.15,5700.9253647,N,00959.1765472,E,1,10,0.8,12.021,M,40.582,M,,*51\r\n
$GPGGA,092821.20,5700.9253635,N,00959.1765472,E,1,9,0.8,12.021,M,40.582,M,,*6A\r\n
$GPGGA,092821.25,5700.9253656,N,00959.1765420,E,1,9,0.8,12.020,M,40.582,M,,*6C\r\n
$GPGGA,092821.30,5700.9253643,N,00959.1765416,E,1,9,0.8,12.020,M,40.582,M,,*69\r\n
$GPGGA,092821.35,5700.9253631,N,00959.1765409,E,1,9,0.8,12.019,M,40.582,M,,*6D\r\n
$GPGGA,092821.40,5700.9253617,N,00959.1765406,E,1,9,0.8,12.019,M,40.582,M,,*64\r\n
$GPGGA,092821.45,5700.9253607,N,00959.1765416,E,1,10,0.8,12.019,M,40.582,M,,*59\r\n
$GPGGA,092821.50,5700.9253593,N,00959.1765416,E,1,10,0.8,12.019,M,40.582,M,,*53\r\n
$GPGGA,092821.55,5700.9253577,N,00959.1765415,E,1,10,0.8,12.019,M,40.582,M,,*5F\r\n
$GPGGA,092821.60,5700.9253562,N,00959.1765416,E,1,10,0.8,12.019,M,40.582,M,,*5E\r\n
$GPGGA,092821.65,5700.9253559,N,00959.1765466,E,1,10,0.8,12.022,M,40.582,M,,*5C\r\n
$GPGGA,092821.70,5700.9253543,N,00959.1765463,E,1,10,0.8,12.022,M,40.582,M,,*56\r\n
$GPGGA,092821.75,5700.9253528,N,00959.1765462,E,1,10,0.8,12.022,M,40.582,M,,*5F\r\n
$GPGGA,092821.80,5700.9253512,N,00959.1765458,E,1,10,0.8,12.022,M,40.582,M,,*55\r\n
$GPGGA,092821.85,5700.9253516,N,00959.1765431,E,1,10,0.8,12.023,M,40.582,M,,*5A\r\n
$GPGGA,092821.90,5700.9253503,N,00959.1765434,E,1,10,0.8,12.023,M,40.582,M,,*5F\r\n
$GPGGA,092821.95,5700.9253493,N,00959.1765435,E,1,10,0.8,12.023,M,40.582,M,,*53\r\n
$GPGGA,092822.00,5700.9253482,N,00959.1765439,E,1,10,0.8,12.023,M,40.582,M,,*50\r\n
$GPGGA,092822.05,5700.9253328,N,00959.1765566,E,1,10,0.8,12.009,M,40.582,M,,*51\r\n
$GPGGA,092822.10,5700.9253323,N,00959.1765571,E,1,10,0.8,12.009,M,40.582,M,,*58\r\n
$GPGGA,092822.15,5700.9253323,N,00959.1765571,E,1,10,0.8,12.009,M,40.582,M,,*5D\r\n
$GPGGA,092822.20,5700.9253328,N,00959.1765571,E,1,10,0.8,12.009,M,40.582,M,,*50\r\n
$GPGGA,092822.25,5700.9253358,N,00959.1765561,E,1,10,0.8,12.007,M,40.582,M,,*5D\r\n
$GPGGA,092822.30,5700.9253365,N,00959.1765558,E,1,10,0.8,12.007,M,40.582,M,,*5D\r\n
$GPGGA,092822.35,5700.9253373,N,00959.1765549,E,1,10,0.8,12.006,M,40.582,M,,*5E\r\n
$GPGGA,092822.40,5700.9253381,N,00959.1765542,E,1,10,0.8,12.006,M,40.582,M,,*5A\r\n
$GPGGA,092822.45,5700.9253373,N,00959.1765496,E,1,10,0.8,12.004,M,40.582,M,,*58\r\n
$GPGGA,092822.50,5700.9253379,N,00959.1765489,E,1,10,0.8,12.004,M,40.582,M,,*58\r\n
$GPGGA,092822.55,5700.9253386,N,00959.1765483,E,1,10,0.8,12.003,M,40.582,M,,*50\r\n
$GPGGA,092822.60,5700.9253395,N,00959.1765474,E,1,10,0.8,12.003,M,40.582,M,,*5C\r\n
$GPGGA,092822.65,5700.9253335,N,00959.1765492,E,1,10,0.8,12.006,M,40.582,M,,*5E\r\n
$GPGGA,092822.70,5700.9253338,N,00959.1765486,E,1,10,0.8,12.005,M,40.582,M,,*51\r\n
$GPGGA,092822.75,5700.9253341,N,00959.1765478,E,1,10,0.8,12.005,M,40.582,M,,*5B\r\n
$GPGGA,092822.80,5700.9253342,N,00959.1765469,E,1,10,0.8,12.005,M,40.582,M,,*52\r\n
$GPGGA,092822.85,5700.9253338,N,00959.1765459,E,1,10,0.8,12.006,M,40.582,M,,*5A\r\n
$GPGGA,092822.90,5700.9253337,N,00959.1765452,E,1,10,0.8,12.006,M,40.582,M,,*5A\r\n
$GPGGA,092822.95,5700.9253334,N,00959.1765444,E,1,10,0.8,12.006,M,40.582,M,,*5B\r\n
$GPGGA,092823.00,5700.9253332,N,00959.1765433,E,1,10,0.8,12.006,M,40.582,M,,*50\r\n
$GPGGA,092823.05,5700.9253070,N,00959.1765526,E,1,10,0.8,11.990,M,40.582,M,,*50\r\n
$GPGGA,092823.10,5700.9253064,N,00959.1765513,E,1,10,0.8,11.990,M,40.582,M,,*57\r\n
$GPGGA,092823.15,5700.9253058,N,00959.1765503,E,1,10,0.8,11.990,M,40.582,M,,*5C\r\n
$GPGGA,092823.20,5700.9253052,N,00959.1765496,E,1,10,0.8,11.989,M,40.582,M,,*55\r\n
$GPGGA,092823.25,5700.9253055,N,00959.1765489,E,1,10,0.8,11.989,M,40.582,M,,*59\r\n
$GPGGA,092823.30,5700.9253048,N,00959.1765483,E,1,10,0.8,11.989,M,40.582,M,,*5B\r\n
$GPGGA,092823.35,5700.9253041,N,00959.1765475,E,1,10,0.8,11.989,M,40.582,M,,*5E\r\n
$GPGGA,092823.40,5700.9253033,N,00959.1765468,E,1,10,0.8,11.989,M,40.582,M,,*55\r\n
$GPGGA,092823.45,5700.9253045,N,00959.1765482,E,1,10,0.8,11.991,M,40.582,M,,*5C\r\n
$GPGGA,092823.50,5700.9253041,N,00959.1765486,E,1,10,0.8,11.991,M,40.582,M,,*58\r\n
$GPGGA,092823.55,5700.9253037,N,00959.1765486,E,1,10,0.8,11.991,M,40.582,M,,*5C\r\n
$GPGGA,092823.60,5700.9253031,N,00959.1765487,E,1,10,0.8,11.991,M,40.582,M,,*5D\r\n
$GPGGA,092823.65,5700.9253061,N,00959.1765519,E,1,10,0.8,11.991,M,40.582,M,,*5B\r\n
$GPGGA,092823.70,5700.9253061,N,00959.1765527,E,1,10,0.8,11.992,M,40.582,M,,*51\r\n
$GPGGA,092823.75,5700.9253062,N,00959.1765535,E,1,10,0.8,11.992,M,40.582,M,,*54\r\n
$GPGGA,092823.80,5700.9253065,N,00959.1765544,E,1,10,0.8,11.992,M,40.582,M,,*5F\r\n
