$GPGGA,095402.35,5703.3636802,N,00952.1760392,E,2,11,0.9,-1.305,M,40.593,M,2.2,0123*68\r\n
$GPGGA,095402.40,5703.3636952,N,00952.1760288,E,2,11,0.9,-1.304,M,40.593,M,2.2,0123*65\r\n
$GPGGA,095402.45,5703.3637094,N,00952.1760184,E,2,11,0.9,-1.300,M,40.593,M,2.4,0123*6F\r\n
$GPGGA,095402.50,5703.3637239,N,00952.1760079,E,2,11,0.9,-1.301,M,40.593,M,2.4,0123*6C\r\n
$GPGGA,095402.55,5703.3637396,N,00952.1759979,E,2,11,0.9,-1.300,M,40.593,M,2.4,0123*6F\r\n
$GPGGA,095402.60,5703.3637551,N,00952.1759874,E,2,11,0.9,-1.298,M,40.593,M,2.4,0123*68\r\n
$GPGGA,095402.65,5703.3637701,N,00952.1759779,E,2,11,0.9,-1.296,M,40.593,M,2.6,0123*64\r\n
$GPGGA,095402.70,5703.3637854,N,00952.1759683,E,2,11,0.9,-1.296,M,40.593,M,2.6,0123*6B\r\n
$GPGGA,095402.75,5703.3638008,N,00952.1759589,E,2,11,0.9,-1.296,M,40.593,M,2.6,0123*69\r\n
$GPGGA,095402.80,5703.3638158,N,00952.1759498,E,2,11,0.9,-1.297,M,40.593,M,2.6,0123*67\r\n
$GPGGA,095402.85,5703.3638314,N,00952.1759409,E,2,11,0.9,-1.300,M,40.593,M,2.9,0123*60\r\n
$GPGGA,095402.90,5703.3638452,N,00952.1759324,E,2,11,0.9,-1.303,M,40.593,M,2.9,0123*6A\r\n
$GPGGA,095402.95,5703.3638591,N,00952.1759240,E,2,11,0.9,-1.306,M,40.593,M,2.9,0123*67\r\n
$GPGGA,095403.00,5703.3638744,N,00952.1759153,E,2,11,0.9,-1.306,M,40.593,M,2.9,0123*61\r\n
$GPGGA,095403.05,5703.3638889,N,00952.1759057,E,2,11,0.9,-1.309,M,40.593,M,3.1,0123*69\r\n
$GPGGA,095403.10,5703.3639039,N,00952.1758967,E,2,11,0.9,-1.306,M,40.593,M,3.1,0123*6B\r\n
$GPGGA,095403.15,5703.3639182,N,00952.1758875,E,2,11,0.9,-1.306,M,40.593,M,3.1,0123*6D\r\n
$GPGGA,095403.20,5703.3639327,N,00952.1758776,E,2,11,0.9,-1.307,M,40.593,M,3.1,0123*6B\r\n
$GPGGA,095403.25,5703.3639475,N,00952.1758687,E,2,11,0.9,-1.306,M,40.593,M,3.3,0123*62\r\n
$GPGGA,095403.30,5703.3639616,N,00952.1758594,E,2,11,0.9,-1.306,M,40.593,M,3.3,0123*60\r\n
$GPGGA,095403.35,5703.3639771,N,00952.1758501,E,2,11,0.9,-1.302,M,40.593,M,3.3,0123*6D\r\n
$GPGGA,095403.40,5703.3639911,N,00952.1758413,E,2,11,0.9,-1.302,M,40.593,M,3.3,0123*65\r\n
$GPGGA,095403.45,5703.3640052,N,00952.1758306,E,2,11,0.9,-1.302,M,40.593,M,3.5,0123*65\r\n
$GPGGA,095403.50,5703.3640199,N,00952.1758202,E,2,11,0.9,-1.301,M,40.593,M,3.5,0123*61\r\n
$GPGGA,095403.55,5703.3640342,N,00952.1758094,E,2,11,0.9,-1.303,M,40.593,M,3.5,0123*6F\r\n
$GPGGA,095403.60,5703.3640491,N,00952.1757987,E,2,11,0.9,-1.304,M,40.593,M,3.5,0123*63\r\n
$GPGGA,095403.65,5703.3640649,N,00952.1757888,E,2,11,0.9,-1.299,M,40.593,M,3.7,0123*68\r\n
$GPGGA,095403.70,5703.3640807,N,00952.1757784,E,2,11,0.9,-1.300,M,40.593,M,3.7,0123*6A\r\n
$GPGGA,095403.75,5703.3640953,N,00952.1757683,E,2,11,0.9,-1.300,M,40.593,M,3.7,0123*69\r\n
$GPGGA,095403.80,5703.3641105,N,00952.1757598,E,2,11,0.9,-1.300,M,40.593,M,3.7,0123*60\r\n
$GPGGA,095403.85,5703.3641257,N,00952.1757512,E,2,11,0.9,-1.304,M,40.593,M,3.9,0123*69\r\n
$GPGGA,095403.90,5703.3641416,N,00952.1757422,E,2,11,0.9,-1.305,M,40.593,M,3.9,0123*6D\r\n
$GPGGA,095403.95,5703.3641567,N,00952.1757337,E,2,11,0.9,-1.306,M,40.593,M,3.9,0123*6F\r\n
$GPGGA,095404.00,5703.3641712,N,00952.1757257,E,2,11,0.9,-1.307,M,40.593,M,3.9,0123*62\r\n
$GPGGA,095404.05,5703.3641854,N,00952.1757183,E,2,11,0.9,-1.312,M,40.593,M,4.1,0123*6B\r\n
$GPGGA,095404.10,5703.3642003,N,00952.1757098,E,2,11,0.9,-1.315,M,40.593,M,4.1,0123*6A\r\n
$GPGGA,095404.15,5703.3642154,N,00952.1757004,E,2,11,0.9,-1.318,M,40.593,M,4.1,0123*64\r\n
$GPGGA,095404.20,5703.3642309,N,00952.1756899,E,2,11,0.9,-1.320,M,40.593,M,4.1,0123*6E\r\n
$GPGGA,095404.25,5703.3642469,N,00952.1756799,E,2,11,0.9,-1.320,M,40.593,M,1.9,0123*68\r\n
$GPGGA,095404.30,5703.3642621,N,00952.1756695,E,2,11,0.9,-1.322,M,40.593,M,1.9,0123*6D\r\n
$GPGGA,095404.35,5703.3642784,N,00952.1756581,E,2,11,0.9,-1.323,M,40.593,M,1.9,0123*61\r\n
$GPGGA,095404.40,5703.3642941,N,00952.1756461,E,2,11,0.9,-1.325,M,40.593,M,1.9,0123*6D\r\n
$GPGGA,095404.45,5703.3643098,N,00952.1756341,E,2,11,0.9,-1.323,M,40.593,M,2.2,0123*6F\r\n
$GPGGA,095404.50,5703.3643255,N,00952.1756235,E,2,11,0.9,-1.320,M,40.593,M,2.2,0123*69\r\n
$GPGGA,095404.55,5703.3643413,N,00952.1756128,E,2,11,0.9,-1.318,M,40.593,M,2.2,0123*6C\r\n
$GPGGA,095404.60,5703.3643564,N,00952.1756015,E,2,11,0.9,-1.316,M,40.593,M,2.2,0123*6A\r\n
$GPGGA,095404.65,5703.3643718,N,00952.1755911,E,2,11,0.9,-1.310,M,40.593,M,2.4,0123*68\r\n
$GPGGA,095404.70,5703.3643873,N,00952.1755810,E,2,11,0.9,-1.304,M,40.593,M,2.4,0123*6B\r\n
$GPGGA,095404.75,5703.3644024,N,00952.1755720,E,2,11,0.9,-1.299,M,40.593,M,2.4,0123*6A\r\n
$GPGGA,095404.80,5703.3644176,N,00952.1755635,E,2,11,0.9,-1.296,M,40.593,M,2.4,0123*6C\r\n
$GPGGA,095404.85,5703.3644322,N,00952.1755554,E,2,11,0.9,-1.291,M,40.593,M,2.7,0123*6A\r\n
$GPGGA,095404.90,5703.3644469,N,00952.1755462,E,2,11,0.9,-1.290,M,40.593,M,2.7,0123*63\r\n
$GPGGA,095404.95,5703.3644630,N,00952.1755364,E,2,11,0.9,-1.287,M,40.593,M,2.7,0123*6F\r\n
$GPGGA,095405.00,5703.3644784,N,00952.1755278,E,2,11,0.9,-1.285,M,40.593,M,2.7,0123*62\r\n
$GPGGA,095405.05,5703.3644939,N,00952.1755200,E,2,11,0.9,-1.288,M,40.593,M,2.9,0123*63\r\n
$GPGGA,095405.10,5703.3645093,N,00952.1755114,E,2,11,0.9,-1.291,M,40.593,M,2.9,0123*61\r\n
$GPGGA,095405.15,5703.3645254,N,00952.1755024,E,2,11,0.9,-1.290,M,40.593,M,2.9,0123*6E\r\n
$GPGGA,095405.20,5703.3645411,N,00952.1754926,E,2,11,0.9,-1.292,M,40.593,M,2.9,0123*67\r\n
$GPGGA,095405.25,5703.3645569,N,00952.1754821,E,2,11,0.9,-1.294,M,40.593,M,1.8,0123*6E\r\n
$GPGGA,095405.30,5703.3645725,N,00952.1754707,E,2,11,0.9,-1.296,M,40.593,M,1.8,0123*69\r\n
$GPGGA,095405.35,5703.3645880,N,00952.1754609,E,2,11,0.9,-1.298,M,40.593,M,1.8,0123*6D\r\n
$GPGGA,095405.40,5703.3646041,N,00952.1754517,E,2,11,0.9,-1.300,M,40.593,M,1.8,0123*65\r\n
$GPGGA,095405.45,5703.3646196,N,00952.1754412,E,2,11,0.9,-1.308,M,40.593,M,2.0,0123*6C\r\n
$GPGGA,095405.50,5703.3646346,N,00952.1754303,E,2,11,0.9,-1.311,M,40.593,M,2.0,0123*68\r\n
$GPGGA,095405.55,5703.3646496,N,00952.1754193,E,2,11,0.9,-1.315,M,40.593,M,2.0,0123*68\r\n
$GPGGA,095405.60,5703.3646653,N,00952.1754088,E,2,11,0.9,-1.316,M,40.593,M,2.0,0123*6D\r\n
$GPGGA,095405.65,5703.3646807,N,00952.1753990,E,2,11,0.9,-1.317,M,40.593,M,2.3,0123*62\r\n
$GPGGA,095405.70,5703.3646957,N,00952.1753882,E,2,11,0.9,-1.321,M,40.593,M,2.3,0123*65\r\n
$GPGGA,095405.75,5703.3647108,N,00952.1753767,E,2,11,0.9,-1.321,M,40.593,M,2.3,0123*67\r\n
$GPGGA,095405.80,5703.3647264,N,00952.1753657,E,2,11,0.9,-1.320,M,40.593,M,2.3,0123*67\r\n
$GPGGA,095405.85,5703.3647426,N,00952.1753546,E,2,11,0.9,-1.319,M,40.593,M,2.5,0123*6D\r\n
$GPGGA,095405.90,5703.3647594,N,00952.1753434,E,2,11,0.9,-1.317,M,40.593,M,2.5,0123*6B\r\n
$GPGGA,095405.95,5703.3647748,N,00952.1753297,E,2,11,0.9,-1.318,M,40.593,M,2.5,0123*6D\r\n
$GPGGA,095406.00,5703.3647905,N,00952.1753172,E,2,11,0.9,-1.320,M,40.593,M,2.5,0123*66\r\n
$GPGGA,095406.05,5703.3648068,N,00952.1753057,E,2,11,0.9,-1.321,M,40.593,M,2.7,0123*6B\r\n
$GPGGA,095406.10,5703.3648235,N,00952.1752927,E,2,11,0.9,-1.319,M,40.593,M,2.7,0123*61\r\n
$GPGGA,095406.15,5703.3648392,N,00952.1752781,E,2,11,0.9,-1.319,M,40.593,M,2.7,0123*6A\r\n
$GPGGA,095406.20,5703.3648555,N,00952.1752662,E,2,11,0.9,-1.319,M,40.593,M,2.7,0123*6D\r\n
$GPGGA,095406.25,5703.3648717,N,00952.1752530,E,2,11,0.9,-1.318,M,40.593,M,2.2,0123*6C\r\n
$GPGGA,095406.30,5703.3648881,N,00952.1752402,E,2,11,0.9,-1.315,M,40.593,M,2.2,0123*65\r\n
$GPGGA,095406.35,5703.3649049,N,00952.1752280,E,2,11,0.9,-1.313,M,40.593,M,2.2,0123*67\r\n
$GPGGA,095406.40,5703.3649210,N,00952.1752152,E,2,11,0.9,-1.312,M,40.593,M,2.2,0123*66\r\n
$GPGGA,095406.45,5703.3649368,N,00952.1752034,E,2,11,0.9,-1.315,M,40.593,M,2.4,0123*6D\r\n
$GPGGA,095406.50,5703.3649536,N,00952.1751917,E,2,11,0.9,-1.314,M,40.593,M,2.4,0123*6E\r\n
$GPGGA,095406.55,5703.3649702,N,00952.1751797,E,2,11,0.9,-1.313,M,40.593,M,2.4,0123*6F\r\n
$GPGGA,095406.60,5703.3649861,N,00952.1751673,E,2,11,0.9,-1.314,M,40.593,M,2.4,0123*6F\r\n
$GPGGA,095406.65,5703.3650028,N,00952.1751555,E,2,11,0.9,-1.315,M,40.593,M,2.6,0123*63\r\n
$GPGGA,095406.70,5703.3650192,N,00952.1751422,E,2,11,0.9,-1.316,M,40.593,M,2.6,0123*65\r\n
$GPGGA,095406.75,5703.3650355,N,00952.1751288,E,2,11,0.9,-1.316,M,40.593,M,2.6,0123*6F\r\n
$GPGGA,095406.80,5703.3650524,N,00952.1751162,E,2,11,0.9,-1.315,M,40.593,M,2.6,0123*61\r\n
$GPGGA,095406.85,5703.3650694,N,00952.1751035,E,2,11,0.9,-1.314,M,40.593,M,2.9,0123*61\r\n
$GPGGA,095406.90,5703.3650855,N,00952.1750900,E,2,11,0.9,-1.313,M,40.593,M,2.9,0123*6F\r\n
$GPGGA,095406.95,5703.3651019,N,00952.1750772,E,2,11,0.9,-1.311,M,40.593,M,2.9,0123*62\r\n
$GPGGA,095407.00,5703.3651180,N,00952.1750630,E,2,11,0.9,-1.310,M,40.593,M,2.9,0123*68\r\n
$GPGGA,095407.05,5703.3651343,N,00952.1750485,E,2,11,0.9,-1.306,M,40.593,M,3.1,0123*62\r\n
$GPGGA,095407.10,5703.3651503,N,00952.1750333,E,2,11,0.9,-1.303,M,40.593,M,3.1,0123*6B\r\n
$GPGGA,095407.15,5703.3651669,N,00952.1750188,E,2,11,0.9,-1.302,M,40.593,M,3.1,0123*62\r\n
$GPGGA,095407.20,5703.3651837,N,00952.1750039,E,2,11,0.9,-1.300,M,40.593,M,3.1,0123*68\r\n
$GPGGA,095407.25,5703.3652004,N,00952.1749895,E,2,11,0.9,-1.301,M,40.593,M,3.3,0123*63\r\n
$GPGGA,095407.30,5703.3652176,N,00952.1749736,E,2,11,0.9,-1.300,M,40.593,M,3.3,0123*64\r\n
$GPGGA,095407.35,5703.3652358,N,00952.1749581,E,2,11,0.9,-1.299,M,40.593,M,3.3,0123*60\r\n
$GPGGA,095407.40,5703.3652534,N,00952.1749432,E,2,11,0.9,-1.299,M,40.593,M,3.3,0123*67\r\n
$GPGGA,095407.45,5703.3652703,N,00952.1749276,E,2,11,0.9,-1.301,M,40.593,M,3.5,0123*64\r\n
$GPGGA,095407.50,5703.3652887,N,00952.1749131,E,2,11,0.9,-1.301,M,40.593,M,3.5,0123*63\r\n
$GPGGA,095407.55,5703.3653076,N,00952.1748982,E,2,11,0.9,-1.301,M,40.593,M,3.5,0123*60\r\n
$GPGGA,095407.60,5703.3653258,N,00952.1748832,E,2,11,0.9,-1.301,M,40.593,M,3.5,0123*62\r\n
$GPGGA,095407.65,5703.3653434,N,00952.1748683,E,2,11,0.9,-1.306,M,40.593,M,3.7,0123*6A\r\n
$GPGGA,095407.70,5703.3653628,N,00952.1748543,E,2,11,0.9,-1.307,M,40.593,M,3.7,0123*6F\r\n
$GPGGA,095407.75,5703.3653819,N,00952.1748393,E,2,11,0.9,-1.309,M,40.593,M,3.7,0123*63\r\n
$GPGGA,095407.80,5703.3654019,N,00952.1748242,E,2,11,0.9,-1.309,M,40.593,M,3.7,0123*6B\r\n
$GPGGA,095407.85,5703.3654217,N,00952.1748085,E,2,11,0.9,-1.308,M,40.593,M,3.9,0123*64\r\n
$GPGGA,095407.90,5703.3654429,N,00952.1747923,E,2,11,0.9,-1.308,M,40.593,M,3.9,0123*61\r\n
$GPGGA,095407.95,5703.3654639,N,00952.1747758,E,2,11,0.9,-1.308,M,40.593,M,3.9,0123*65\r\n
$GPGGA,095408.00,5703.3654851,N,00952.1747589,E,2,11,0.9,-1.305,M,40.593,M,3.9,0123*65\r\n
$GPGGA,095408.05,5703.3655063,N,00952.1747431,E,2,11,0.9,-1.303,M,40.593,M,4.1,0123*63\r\n
$GPGGA,095408.10,5703.3655285,N,00952.1747268,E,2,11,0.9,-1.301,M,40.593,M,4.1,0123*65\r\n
$GPGGA,095408.15,5703.3655506,N,00952.1747087,E,2,11,0.9,-1.297,M,40.593,M,4.1,0123*61\r\n
$GPGGA,095408.20,5703.3655730,N,00952.1746915,E,2,11,0.9,-1.293,M,40.593,M,4.1,0123*67\r\n
$GPGGA,095408.25,5703.3655968,N,00952.1746750,E,2,11,0.9,-1.285,M,40.593,M,1.9,0123*64\r\n
$GPGGA,095408.30,5703.3656211,N,00952.1746591,E,2,11,0.9,-1.282,M,40.593,M,1.9,0123*6E\r\n
$GPGGA,095408.35,5703.3656452,N,00952.1746425,E,2,11,0.9,-1.278,M,40.593,M,1.9,0123*61\r\n
$GPGGA,095408.40,5703.3656698,N,00952.1746265,E,2,11,0.9,-1.275,M,40.593,M,1.9,0123*68\r\n
$GPGGA,095408.45,5703.3656956,N,00952.1746103,E,2,11,0.9,-1.276,M,40.593,M,2.2,0123*68\r\n
$GPGGA,095408.50,5703.3657219,N,00952.1745949,E,2,11,0.9,-1.274,M,40.593,M,2.2,0123*6A\r\n
$GPGGA,095408.55,5703.3657490,N,00952.1745792,E,2,11,0.9,-1.273,M,40.593,M,2.2,0123*67\r\n
$GPGGA,095408.60,5703.3657765,N,00952.1745631,E,2,11,0.9,-1.275,M,40.593,M,2.2,0123*66\r\n
$GPGGA,095408.65,5703.3658055,N,00952.1745470,E,2,11,0.9,-1.276,M,40.593,M,2.4,0123*6A\r\n
$GPGGA,095408.70,5703.3658349,N,00952.1745299,E,2,11,0.9,-1.278,M,40.593,M,2.4,0123*6F\r\n
$GPGGA,095408.75,5703.3658647,N,00952.1745135,E,2,11,0.9,-1.277,M,40.593,M,2.4,0123*6B\r\n
$GPGGA,095408.80,5703.3658954,N,00952.1744959,E,2,11,0.9,-1.278,M,40.593,M,2.4,0123*60\r\n
$GPGGA,095408.85,5703.3659266,N,00952.1744777,E,2,11,0.9,-1.281,M,40.593,M,2.7,0123*69\r\n
$GPGGA,095408.90,5703.3659576,N,00952.1744588,E,2,11,0.9,-1.283,M,40.593,M,2.7,0123*6B\r\n
$GPGGA,095408.95,5703.3659890,N,00952.1744387,E,2,11,0.9,-1.283,M,40.593,M,2.7,0123*62\r\n
$GPGGA,095409.00,5703.3660209,N,00952.1744179,E,2,11,0.9,-1.284,M,40.593,M,2.7,0123*6B\r\n
$GPGGA,095409.05,5703.3660533,N,00952.1743973,E,2,11,0.9,-1.285,M,40.593,M,2.9,0123*6A\r\n
$GPGGA,095409.10,5703.3660870,N,00952.1743752,E,2,11,0.9,-1.284,M,40.593,M,2.9,0123*68\r\n
$GPGGA,095409.15,5703.3661210,N,00952.1743527,E,2,11,0.9,-1.281,M,40.593,M,2.9,0123*65\r\n
$GPGGA,095409.20,5703.3661549,N,00952.1743302,E,2,11,0.9,-1.280,M,40.593,M,2.9,0123*68\r\n
$GPGGA,095409.25,5703.3661899,N,00952.1743066,E,2,11,0.9,-1.279,M,40.593,M,1.8,0123*68\r\n
$GPGGA,095409.30,5703.3662242,N,00952.1742815,E,2,11,0.9,-1.279,M,40.593,M,1.8,0123*6E\r\n
$GPGGA,095409.35,5703.3662598,N,00952.1742558,E,2,11,0.9,-1.276,M,40.593,M,1.8,0123*60\r\n
$GPGGA,095409.40,5703.3662963,N,00952.1742296,E,2,11,0.9,-1.272,M,40.593,M,1.8,0123*6B\r\n
$GPGGA,095409.45,5703.3663321,N,00952.1742051,E,2,11,0.9,-1.270,M,40.593,M,2.0,0123*63\r\n
$GPGGA,095409.50,5703.3663680,N,00952.1741789,E,2,11,0.9,-1.270,M,40.593,M,2.0,0123*68\r\n
$GPGGA,095409.55,5703.3664039,N,00952.1741527,E,2,11,0.9,-1.270,M,40.593,M,2.0,0123*68\r\n
$GPGGA,095409.60,5703.3664406,N,00952.1741244,E,2,11,0.9,-1.270,M,40.593,M,2.0,0123*64\r\n
$GPGGA,095409.65,5703.3664778,N,00952.1740950,E,2,11,0.9,-1.267,M,40.593,M,2.3,0123*61\r\n
$GPGGA,095409.70,5703.3665162,N,00952.1740658,E,2,11,0.9,-1.265,M,40.593,M,2.3,0123*6C\r\n
$GPGGA,095409.75,5703.3665541,N,00952.1740363,E,2,11,0.9,-1.266,M,40.593,M,2.3,0123*62\r\n
$GPGGA,095409.80,5703.3665928,N,00952.1740076,E,2,11,0.9,-1.267,M,40.593,M,2.3,0123*6D\r\n
$GPGGA,095409.85,5703.3666314,N,00952.1739775,E,2,11,0.9,-1.270,M,40.593,M,2.5,0123*64\r\n
$GPGGA,095409.90,5703.3666702,N,00952.1739466,E,2,11,0.9,-1.273,M,40.593,M,2.5,0123*61\r\n
$GPGGA,095409.95,5703.3667102,N,00952.1739127,E,2,11,0.9,-1.275,M,40.593,M,2.5,0123*65\r\n
$GPGGA,095410.00,5703.3667495,N,00952.1738781,E,2,11,0.9,-1.276,M,40.593,M,2.5,0123*62\r\n
$GPGGA,095410.05,5703.3667883,N,00952.1738424,E,2,11,0.9,-1.278,M,40.593,M,2.7,0123*6C\r\n
$GPGGA,095410.10,5703.3668278,N,00952.1738069,E,2,11,0.9,-1.279,M,40.593,M,2.7,0123*65\r\n
$GPGGA,095410.15,5703.3668675,N,00952.1737703,E,2,11,0.9,-1.281,M,40.593,M,2.7,0123*6A\r\n
$GPGGA,095410.20,5703.3669070,N,00952.1737311,E,2,11,0.9,-1.281,M,40.593,M,2.7,0123*69\r\n
$GPGGA,095410.25,5703.3669454,N,00952.1736897,E,2,11,0.9,-1.286,M,40.593,M,2.2,0123*68\r\n
$GPGGA,095410.30,5703.3669835,N,00952.1736471,E,2,11,0.9,-1.285,M,40.593,M,2.2,0123*60\r\n
$GPGGA,095410.35,5703.3670221,N,00952.1736052,E,2,11,0.9,-1.283,M,40.593,M,2.2,0123*61\r\n
$GPGGA,095410.40,5703.3670616,N,00952.1735636,E,2,11,0.9,-1.281,M,40.593,M,2.2,0123*66\r\n
$GPGGA,095410.45,5703.3671016,N,00952.1735203,E,2,11,0.9,-1.277,M,40.593,M,2.4,0123*69\r\n
$GPGGA,095410.50,5703.3671412,N,00952.1734756,E,2,11,0.9,-1.273,M,40.593,M,2.4,0123*6D\r\n
$GPGGA,095410.55,5703.3671796,N,00952.1734313,E,2,11,0.9,-1.271,M,40.593,M,2.4,0123*60\r\n
$GPGGA,095410.60,5703.3672182,N,00952.1733856,E,2,11,0.9,-1.270,M,40.593,M,2.4,0123*6A\r\n
$GPGGA,095410.65,5703.3672560,N,00952.1733381,E,2,11,0.9,-1.271,M,40.593,M,2.6,0123*65\r\n
$GPGGA,095410.70,5703.3672938,N,00952.1732903,E,2,11,0.9,-1.269,M,40.593,M,2.6,0123*68\r\n
$GPGGA,095410.75,5703.3673322,N,00952.1732410,E,2,11,0.9,-1.267,M,40.593,M,2.6,0123*6C\r\n
$GPGGA,095410.80,5703.3673717,N,00952.1731922,E,2,11,0.9,-1.267,M,40.593,M,2.6,0123*6B\r\n
$GPGGA,095410.85,5703.3674116,N,00952.1731426,E,2,11,0.9,-1.265,M,40.593,M,2.9,0123*6A\r\n
$GPGGA,095410.90,5703.3674503,N,00952.1730889,E,2,11,0.9,-1.266,M,40.593,M,2.9,0123*65\r\n
$GPGGA,095410.95,5703.3674877,N,00952.1730353,E,2,11,0.9,-1.266,M,40.593,M,2.9,0123*62\r\n
$GPGGA,095411.00,5703.3675269,N,00952.1729831,E,2,11,0.9,-1.264,M,40.593,M,2.9,0123*6E\r\n
$GPGGA,095411.05,5703.3675648,N,00952.1729286,E,2,11,0.9,-1.267,M,40.593,M,3.1,0123*60\r\n
$GPGGA,095411.10,5703.3676026,N,00952.1728710,E,2,11,0.9,-1.267,M,40.593,M,3.1,0123*62\r\n
$GPGGA,095411.15,5703.3676392,N,00952.1728110,E,2,11,0.9,-1.266,M,40.593,M,3.1,0123*6C\r\n
$GPGGA,095411.20,5703.3676756,N,00952.1727508,E,2,11,0.9,-1.267,M,40.593,M,3.1,0123*65\r\n
$GPGGA,095411.25,5703.3677117,N,00952.1726898,E,2,11,0.9,-1.273,M,40.593,M,3.3,0123*60\r\n
$GPGGA,095411.30,5703.3677472,N,00952.1726281,E,2,11,0.9,-1.275,M,40.593,M,3.3,0123*66\r\n
$GPGGA,095411.35,5703.3677823,N,00952.1725646,E,2,11,0.9,-1.277,M,40.593,M,3.3,0123*65\r\n
$GPGGA,095411.40,5703.3678183,N,00952.1724997,E,2,11,0.9,-1.277,M,40.593,M,3.3,0123*69\r\n
$GPGGA,095411.45,5703.3678537,N,00952.1724340,E,2,11,0.9,-1.275,M,40.593,M,3.5,0123*63\r\n
$GPGGA,095411.50,5703.3678882,N,00952.1723684,E,2,11,0.9,-1.273,M,40.593,M,3.5,0123*68\r\n
$GPGGA,095411.55,5703.3679235,N,00952.1723021,E,2,11,0.9,-1.274,M,40.593,M,3.5,0123*64\r\n
$GPGGA,095411.60,5703.3679582,N,00952.1722354,E,2,11,0.9,-1.277,M,40.593,M,3.5,0123*6A\r\n
$GPGGA,095411.65,5703.3679927,N,00952.1721677,E,2,11,0.9,-1.282,M,40.593,M,3.7,0123*63\r\n
$GPGGA,095411.70,5703.3680272,N,00952.1720981,E,2,11,0.9,-1.283,M,40.593,M,3.7,0123*6C\r\n
$GPGGA,095411.75,5703.3680600,N,00952.1720281,E,2,11,0.9,-1.285,M,40.593,M,3.7,0123*65\r\n
$GPGGA,095411.80,5703.3680921,N,00952.1719559,E,2,11,0.9,-1.285,M,40.593,M,3.7,0123*6B\r\n
$GPGGA,095411.85,5703.3681243,N,00952.1718833,E,2,11,0.9,-1.281,M,40.593,M,3.9,0123*6A\r\n
$GPGGA,095411.90,5703.3681555,N,00952.1718090,E,2,11,0.9,-1.277,M,40.593,M,3.9,0123*66\r\n
$GPGGA,095411.95,5703.3681862,N,00952.1717345,E,2,11,0.9,-1.276,M,40.593,M,3.9,0123*6F\r\n
$GPGGA,095412.00,5703.3682170,N,00952.1716579,E,2,11,0.9,-1.275,M,40.593,M,3.9,0123*62\r\n
$GPGGA,095412.05,5703.3682463,N,00952.1715796,E,2,11,0.9,-1.279,M,40.593,M,4.1,0123*63\r\n
$GPGGA,095412.10,5703.3682757,N,00952.1715035,E,2,11,0.9,-1.278,M,40.593,M,4.1,0123*6C\r\n
$GPGGA,095412.15,5703.3683052,N,00952.1714251,E,2,11,0.9,-1.276,M,40.593,M,4.1,0123*65\r\n
$GPGGA,095412.20,5703.3683335,N,00952.1713454,E,2,11,0.9,-1.275,M,40.593,M,4.1,0123*66\r\n
$GPGGA,095412.25,5703.3683622,N,00952.1712641,E,2,11,0.9,-1.268,M,40.593,M,1.9,0123*66\r\n
$GPGGA,095412.30,5703.3683895,N,00952.1711821,E,2,11,0.9,-1.267,M,40.593,M,1.9,0123*64\r\n
$GPGGA,095412.35,5703.3684164,N,00952.1710986,E,2,11,0.9,-1.267,M,40.593,M,1.9,0123*6C\r\n
$GPGGA,095412.40,5703.3684421,N,00952.1710156,E,2,11,0.9,-1.266,M,40.593,M,1.9,0123*6E\r\n
$GPGGA,095412.45,5703.3684659,N,00952.1709290,E,2,11,0.9,-1.273,M,40.593,M,2.2,0123*6B\r\n
$GPGGA,095412.50,5703.3684888,N,00952.1708412,E,2,11,0.9,-1.277,M,40.593,M,2.2,0123*64\r\n
$GPGGA,095412.55,5703.3685128,N,00952.1707550,E,2,11,0.9,-1.278,M,40.593,M,2.2,0123*64\r\n
$GPGGA,095412.60,5703.3685371,N,00952.1706676,E,2,11,0.9,-1.280,M,40.593,M,2.2,0123*6D\r\n
$GPGGA,095412.65,5703.3685607,N,00952.1705797,E,2,11,0.9,-1.284,M,40.593,M,2.4,0123*63\r\n
$GPGGA,095412.70,5703.3685838,N,00952.1704886,E,2,11,0.9,-1.286,M,40.593,M,2.4,0123*69\r\n
$GPGGA,095412.75,5703.3686050,N,00952.1703969,E,2,11,0.9,-1.289,M,40.593,M,2.4,0123*61\r\n
$GPGGA,095412.80,5703.3686274,N,00952.1703059,E,2,11,0.9,-1.293,M,40.593,M,2.4,0123*6E\r\n
$GPGGA,095412.85,5703.3686472,N,00952.1702139,E,2,11,0.9,-1.298,M,40.593,M,2.7,0123*65\r\n
$GPGGA,095412.90,5703.3686675,N,00952.1701219,E,2,11,0.9,-1.297,M,40.593,M,2.7,0123*69\r\n
$GPGGA,095412.95,5703.3686876,N,00952.1700299,E,2,11,0.9,-1.293,M,40.593,M,2.7,0123*6C\r\n
$GPGGA,095413.00,5703.3687062,N,00952.1699375,E,2,11,0.9,-1.290,M,40.593,M,2.7,0123*6C\r\n
$GPGGA,095413.05,5703.3687249,N,00952.1698450,E,2,11,0.9,-1.285,M,40.593,M,2.9,0123*69\r\n
$GPGGA,095413.10,5703.3687410,N,00952.1697510,E,2,11,0.9,-1.281,M,40.593,M,2.9,0123*69\r\n
$GPGGA,095413.15,5703.3687575,N,00952.1696550,E,2,11,0.9,-1.279,M,40.593,M,2.9,0123*6C\r\n
$GPGGA,095413.20,5703.3687731,N,00952.1695582,E,2,11,0.9,-1.277,M,40.593,M,2.9,0123*6A\r\n
$GPGGA,095413.25,5703.3687881,N,00952.1694613,E,2,11,0.9,-1.279,M,40.593,M,1.8,0123*6D\r\n
$GPGGA,095413.30,5703.3688041,N,00952.1693647,E,2,11,0.9,-1.279,M,40.593,M,1.8,0123*64\r\n
$GPGGA,095413.35,5703.3688194,N,00952.1692660,E,2,11,0.9,-1.278,M,40.593,M,1.8,0123*6D\r\n
$GPGGA,095413.40,5703.3688337,N,00952.1691667,E,2,11,0.9,-1.277,M,40.593,M,1.8,0123*6F\r\n
$GPGGA,095413.45,5703.3688480,N,00952.1690683,E,2,11,0.9,-1.278,M,40.593,M,2.0,0123*6E\r\n
$GPGGA,095413.50,5703.3688596,N,00952.1689686,E,2,11,0.9,-1.278,M,40.593,M,2.0,0123*61\r\n
$GPGGA,095413.55,5703.3688708,N,00952.1688688,E,2,11,0.9,-1.275,M,40.593,M,2.0,0123*63\r\n
$GPGGA,095413.60,5703.3688820,N,00952.1687683,E,2,11,0.9,-1.274,M,40.593,M,2.0,0123*65\r\n
$GPGGA,095413.65,5703.3688922,N,00952.1686666,E,2,11,0.9,-1.277,M,40.593,M,2.3,0123*69\r\n
$GPGGA,095413.70,5703.3689041,N,00952.1685654,E,2,11,0.9,-1.276,M,40.593,M,2.3,0123*63\r\n
$GPGGA,095413.75,5703.3689150,N,00952.1684643,E,2,11,0.9,-1.276,M,40.593,M,2.3,0123*60\r\n
$GPGGA,095413.80,5703.3689249,N,00952.1683626,E,2,11,0.9,-1.276,M,40.593,M,2.3,0123*65\r\n
$GPGGA,095413.85,5703.3689342,N,00952.1682603,E,2,11,0.9,-1.276,M,40.593,M,2.5,0123*6A\r\n
$GPGGA,095413.90,5703.3689417,N,00952.1681576,E,2,11,0.9,-1.277,M,40.593,M,2.5,0123*6A\r\n
$GPGGA,095413.95,5703.3689498,N,00952.1680551,E,2,11,0.9,-1.275,M,40.593,M,2.5,0123*6E\r\n
$GPGGA,095414.00,5703.3689567,N,00952.1679495,E,2,11,0.9,-1.273,M,40.593,M,2.5,0123*6D\r\n
$GPGGA,095414.05,5703.3689634,N,00952.1678433,E,2,11,0.9,-1.271,M,40.593,M,2.7,0123*60\r\n
$GPGGA,095414.10,5703.3689684,N,00952.1677373,E,2,11,0.9,-1.272,M,40.593,M,2.7,0123*60\r\n
$GPGGA,095414.15,5703.3689724,N,00952.1676315,E,2,11,0.9,-1.272,M,40.593,M,2.7,0123*6F\r\n
$GPGGA,095414.20,5703.3689759,N,00952.1675260,E,2,11,0.9,-1.272,M,40.593,M,2.7,0123*63\r\n
$GPGGA,095414.25,5703.3689793,N,00952.1674209,E,2,11,0.9,-1.266,M,40.593,M,2.9,0123*65\r\n
$GPGGA,095414.30,5703.3689820,N,00952.1673141,E,2,11,0.9,-1.266,M,40.593,M,2.9,0123*6E\r\n
$GPGGA,095414.35,5703.3689830,N,00952.1672070,E,2,11,0.9,-1.267,M,40.593,M,2.9,0123*69\r\n
$GPGGA,095414.40,5703.3689832,N,00952.1670989,E,2,11,0.9,-1.269,M,40.593,M,2.9,0123*6A\r\n
$GPGGA,095414.45,5703.3689825,N,00952.1669890,E,2,11,0.9,-1.277,M,40.593,M,2.4,0123*6A\r\n
$GPGGA,095414.50,5703.3689832,N,00952.1668809,E,2,11,0.9,-1.276,M,40.593,M,2.4,0123*68\r\n
$GPGGA,095414.55,5703.3689831,N,00952.1667725,E,2,11,0.9,-1.278,M,40.593,M,2.4,0123*6E\r\n
$GPGGA,095414.60,5703.3689823,N,00952.1666642,E,2,11,0.9,-1.280,M,40.593,M,2.4,0123*6D\r\n
$GPGGA,095414.65,5703.3689805,N,00952.1665568,E,2,11,0.9,-1.274,M,40.593,M,2.6,0123*6D\r\n
$GPGGA,095414.70,5703.3689779,N,00952.1664487,E,2,11,0.9,-1.274,M,40.593,M,2.6,0123*6C\r\n
$GPGGA,095414.75,5703.3689732,N,00952.1663393,E,2,11,0.9,-1.276,M,40.593,M,2.6,0123*61\r\n
$GPGGA,095414.80,5703.3689673,N,00952.1662313,E,2,11,0.9,-1.279,M,40.593,M,2.6,0123*69\r\n
$GPGGA,095414.85,5703.3689602,N,00952.1661229,E,2,11,0.9,-1.287,M,40.593,M,2.9,0123*6F\r\n
$GPGGA,095414.90,5703.3689539,N,00952.1660128,E,2,11,0.9,-1.285,M,40.593,M,2.9,0123*61\r\n
$GPGGA,095414.95,5703.3689483,N,00952.1659028,E,2,11,0.9,-1.282,M,40.593,M,2.9,0123*68\r\n
$GPGGA,095415.00,5703.3689409,N,00952.1657935,E,2,11,0.9,-1.281,M,40.593,M,2.9,0123*6F\r\n
$GPGGA,095415.05,5703.3689341,N,00952.1656831,E,2,11,0.9,-1.272,M,40.593,M,3.1,0123*60\r\n
$GPGGA,095415.10,5703.3689233,N,00952.1655729,E,2,11,0.9,-1.273,M,40.593,M,3.1,0123*64\r\n
$GPGGA,095415.15,5703.3689133,N,00952.1654629,E,2,11,0.9,-1.270,M,40.593,M,3.1,0123*61\r\n
$GPGGA,095415.20,5703.3689034,N,00952.1653526,E,2,11,0.9,-1.267,M,40.593,M,3.1,0123*6C\r\n
$GPGGA,095415.25,5703.3688926,N,00952.1652412,E,2,11,0.9,-1.270,M,40.593,M,3.3,0123*61\r\n
$GPGGA,095415.30,5703.3688815,N,00952.1651289,E,2,11,0.9,-1.268,M,40.593,M,3.3,0123*6A\r\n
$GPGGA,095415.35,5703.3688682,N,00952.1650174,E,2,11,0.9,-1.268,M,40.593,M,3.3,0123*6F\r\n
$GPGGA,095415.40,5703.3688551,N,00952.1649083,E,2,11,0.9,-1.266,M,40.593,M,3.3,0123*6F\r\n
$GPGGA,095415.45,5703.3688424,N,00952.1648004,E,2,11,0.9,-1.260,M,40.593,M,3.5,0123*67\r\n
$GPGGA,095415.50,5703.3688293,N,00952.1646919,E,2,11,0.9,-1.256,M,40.593,M,3.5,0123*67\r\n
$GPGGA,095415.55,5703.3688160,N,00952.1645823,E,2,11,0.9,-1.253,M,40.593,M,3.5,0123*63\r\n
$GPGGA,095415.60,5703.3688005,N,00952.1644708,E,2,11,0.9,-1.253,M,40.593,M,3.5,0123*60\r\n
$GPGGA,095415.65,5703.3687831,N,00952.1643612,E,2,11,0.9,-1.254,M,40.593,M,3.7,0123*6D\r\n
$GPGGA,095415.70,5703.3687649,N,00952.1642507,E,2,11,0.9,-1.255,M,40.593,M,3.7,0123*6F\r\n
$GPGGA,095415.75,5703.3687466,N,00952.1641399,E,2,11,0.9,-1.256,M,40.593,M,3.7,0123*64\r\n
$GPGGA,095415.80,5703.3687274,N,00952.1640311,E,2,11,0.9,-1.258,M,40.593,M,3.7,0123*64\r\n
$GPGGA,095415.85,5703.3687058,N,00952.1639216,E,2,11,0.9,-1.264,M,40.593,M,3.9,0123*64\r\n
$GPGGA,095415.90,5703.3686840,N,00952.1638126,E,2,11,0.9,-1.265,M,40.593,M,3.9,0123*60\r\n
$GPGGA,095415.95,5703.3686615,N,00952.1637049,E,2,11,0.9,-1.269,M,40.593,M,3.9,0123*60\r\n
$GPGGA,095416.00,5703.3686383,N,00952.1635991,E,2,11,0.9,-1.272,M,40.593,M,3.9,0123*61\r\n
$GPGGA,095416.05,5703.3686144,N,00952.1634937,E,2,11,0.9,-1.271,M,40.593,M,4.1,0123*6C\r\n
$GPGGA,095416.10,5703.3685895,N,00952.1633878,E,2,11,0.9,-1.271,M,40.593,M,4.1,0123*63\r\n
$GPGGA,095416.15,5703.3685651,N,00952.1632820,E,2,11,0.9,-1.271,M,40.593,M,4.1,0123*6C\r\n
$GPGGA,095416.20,5703.3685404,N,00952.1631770,E,2,11,0.9,-1.269,M,40.593,M,4.1,0123*68\r\n
$GPGGA,095416.25,5703.3685155,N,00952.1630722,E,2,11,0.9,-1.262,M,40.593,M,4.3,0123*63\r\n
$GPGGA,095416.30,5703.3684895,N,00952.1629667,E,2,11,0.9,-1.259,M,40.593,M,4.3,0123*63\r\n
$GPGGA,095416.35,5703.3684627,N,00952.1628617,E,2,11,0.9,-1.259,M,40.593,M,4.3,0123*67\r\n
$GPGGA,095416.40,5703.3684347,N,00952.1627584,E,2,11,0.9,-1.257,M,40.593,M,4.3,0123*6E\r\n
$GPGGA,095416.45,5703.3684060,N,00952.1626541,E,2,11,0.9,-1.256,M,40.593,M,2.2,0123*63\r\n
$GPGGA,095416.50,5703.3683761,N,00952.1625484,E,2,11,0.9,-1.258,M,40.593,M,2.2,0123*63\r\n
$GPGGA,095416.55,5703.3683461,N,00952.1624421,E,2,11,0.9,-1.261,M,40.593,M,2.2,0123*61\r\n
$GPGGA,095416.60,5703.3683160,N,00952.1623367,E,2,11,0.9,-1.260,M,40.593,M,2.2,0123*60\r\n
$GPGGA,095416.65,5703.3682852,N,00952.1622332,E,2,11,0.9,-1.262,M,40.593,M,2.4,0123*69\r\n
$GPGGA,095416.70,5703.3682537,N,00952.1621301,E,2,11,0.9,-1.263,M,40.593,M,2.4,0123*61\r\n
$GPGGA,095416.75,5703.3682212,N,00952.1620275,E,2,11,0.9,-1.264,M,40.593,M,2.4,0123*60\r\n
$GPGGA,095416.80,5703.3681875,N,00952.1619276,E,2,11,0.9,-1.264,M,40.593,M,2.4,0123*6B\r\n
$GPGGA,095416.85,5703.3681538,N,00952.1618291,E,2,11,0.9,-1.258,M,40.593,M,2.7,0123*6E\r\n
$GPGGA,095416.90,5703.3681203,N,00952.1617301,E,2,11,0.9,-1.253,M,40.593,M,2.7,0123*69\r\n
$GPGGA,095416.95,5703.3680853,N,00952.1616310,E,2,11,0.9,-1.254,M,40.593,M,2.7,0123*64\r\n
$GPGGA,095417.00,5703.3680495,N,00952.1615330,E,2,11,0.9,-1.252,M,40.593,M,2.7,0123*68\r\n
$GPGGA,095417.05,5703.3680121,N,00952.1614351,E,2,11,0.9,-1.250,M,40.593,M,2.9,0123*6D\r\n
$GPGGA,095417.10,5703.3679732,N,00952.1613394,E,2,11,0.9,-1.253,M,40.593,M,2.9,0123*66\r\n
$GPGGA,095417.15,5703.3679347,N,00952.1612428,E,2,11,0.9,-1.253,M,40.593,M,2.9,0123*64\r\n
$GPGGA,095417.20,5703.3678955,N,00952.1611461,E,2,11,0.9,-1.253,M,40.593,M,2.9,0123*64\r\n
$GPGGA,095417.25,5703.3678547,N,00952.1610513,E,2,11,0.9,-1.261,M,40.593,M,3.1,0123*63\r\n
$GPGGA,095417.30,5703.3678142,N,00952.1609595,E,2,11,0.9,-1.263,M,40.593,M,3.1,0123*62\r\n
$GPGGA,095417.35,5703.3677741,N,00952.1608694,E,2,11,0.9,-1.259,M,40.593,M,3.1,0123*67\r\n
$GPGGA,095417.40,5703.3677328,N,00952.1607792,E,2,11,0.9,-1.254,M,40.593,M,3.1,0123*6B\r\n
$GPGGA,095417.45,5703.3676913,N,00952.1606882,E,2,11,0.9,-1.248,M,40.593,M,1.1,0123*6D\r\n
$GPGGA,095417.50,5703.3676499,N,00952.1605977,E,2,11,0.9,-1.245,M,40.593,M,1.1,0123*63\r\n
$GPGGA,095417.55,5703.3676083,N,00952.1605061,E,2,11,0.9,-1.242,M,40.593,M,1.1,0123*60\r\n
$GPGGA,095417.60,5703.3675656,N,00952.1604155,E,2,11,0.9,-1.240,M,40.593,M,1.1,0123*6E\r\n
$GPGGA,095417.65,5703.3675214,N,00952.1603253,E,2,11,0.9,-1.242,M,40.593,M,1.4,0123*6C\r\n
$GPGGA,095417.70,5703.3674760,N,00952.1602347,E,2,11,0.9,-1.244,M,40.593,M,1.4,0123*6C\r\n
$GPGGA,095417.75,5703.3674319,N,00952.1601438,E,2,11,0.9,-1.244,M,40.593,M,1.4,0123*6F\r\n
$GPGGA,095417.80,5703.3673858,N,00952.1600558,E,2,11,0.9,-1.245,M,40.593,M,1.4,0123*6B\r\n
$GPGGA,095417.85,5703.3673387,N,00952.1599681,E,2,11,0.9,-1.249,M,40.593,M,1.7,0123*6C\r\n
$GPGGA,095417.90,5703.3672914,N,00952.1598827,E,2,11,0.9,-1.251,M,40.593,M,1.7,0123*63\r\n
$GPGGA,095417.95,5703.3672445,N,00952.1597992,E,2,11,0.9,-1.253,M,40.593,M,1.7,0123*6D\r\n
$GPGGA,095418.00,5703.3671974,N,00952.1597164,E,2,11,0.9,-1.254,M,40.593,M,1.7,0123*64\r\n
$GPGGA,095418.05,5703.3671510,N,00952.1596330,E,2,11,0.9,-1.254,M,40.593,M,1.9,0123*63\r\n
$GPGGA,095418.10,5703.3671028,N,00952.1595508,E,2,11,0.9,-1.254,M,40.593,M,1.9,0123*67\r\n
$GPGGA,095418.15,5703.3670539,N,00952.1594712,E,2,11,0.9,-1.253,M,40.593,M,1.9,0123*69\r\n
$GPGGA,095418.20,5703.3670050,N,00952.1593938,E,2,11,0.9,-1.250,M,40.593,M,1.9,0123*67\r\n
$GPGGA,095418.25,5703.3669555,N,00952.1593138,E,2,11,0.9,-1.248,M,40.593,M,2.2,0123*63\r\n
$GPGGA,095418.30,5703.3669048,N,00952.1592343,E,2,11,0.9,-1.249,M,40.593,M,2.2,0123*60\r\n
$GPGGA,095418.35,5703.3668540,N,00952.1591568,E,2,11,0.9,-1.247,M,40.593,M,2.2,0123*6B\r\n
$GPGGA,095418.40,5703.3668021,N,00952.1590802,E,2,11,0.9,-1.250,M,40.593,M,2.2,0123*6D\r\n
$GPGGA,095418.45,5703.3667494,N,00952.1590072,E,2,11,0.9,-1.253,M,40.593,M,2.4,0123*67\r\n
$GPGGA,095418.50,5703.3666968,N,00952.1589368,E,2,11,0.9,-1.253,M,40.593,M,2.4,0123*6C\r\n
$GPGGA,095418.55,5703.3666440,N,00952.1588668,E,2,11,0.9,-1.254,M,40.593,M,2.4,0123*6D\r\n
$GPGGA,095418.60,5703.3665910,N,00952.1587967,E,2,11,0.9,-1.253,M,40.593,M,2.4,0123*68\r\n
$GPGGA,095418.65,5703.3665381,N,00952.1587282,E,2,11,0.9,-1.246,M,40.593,M,2.6,0123*69\r\n
$GPGGA,095418.70,5703.3664843,N,00952.1586584,E,2,11,0.9,-1.247,M,40.593,M,2.6,0123*68\r\n
$GPGGA,095418.75,5703.3664298,N,00952.1585898,E,2,11,0.9,-1.251,M,40.593,M,2.6,0123*65\r\n
$GPGGA,095418.80,5703.3663750,N,00952.1585220,E,2,11,0.9,-1.252,M,40.593,M,2.6,0123*63\r\n
$GPGGA,095418.85,5703.3663191,N,00952.1584551,E,2,11,0.9,-1.253,M,40.593,M,2.9,0123*63\r\n
$GPGGA,095418.90,5703.3662630,N,00952.1583886,E,2,11,0.9,-1.253,M,40.593,M,2.9,0123*6A\r\n
$GPGGA,095418.95,5703.3662073,N,00952.1583228,E,2,11,0.9,-1.255,M,40.593,M,2.9,0123*66\r\n
$GPGGA,095419.00,5703.3661516,N,00952.1582574,E,2,11,0.9,-1.261,M,40.593,M,2.9,0123*66\r\n
$GPGGA,095419.05,5703.3660960,N,00952.1581929,E,2,11,0.9,-1.260,M,40.593,M,3.1,0123*60\r\n
$GPGGA,095419.10,5703.3660393,N,00952.1581323,E,2,11,0.9,-1.260,M,40.593,M,3.1,0123*62\r\n
$GPGGA,095419.15,5703.3659817,N,00952.1580731,E,2,11,0.9,-1.262,M,40.593,M,3.1,0123*6E\r\n
$GPGGA,095419.20,5703.3659226,N,00952.1580146,E,2,11,0.9,-1.263,M,40.593,M,3.1,0123*67\r\n
$GPGGA,095419.25,5703.3658651,N,00952.1579566,E,2,11,0.9,-1.254,M,40.593,M,3.3,0123*61\r\n
$GPGGA,095419.30,5703.3658063,N,00952.1579002,E,2,11,0.9,-1.253,M,40.593,M,3.3,0123*62\r\n
$GPGGA,095419.35,5703.3657473,N,00952.1578454,E,2,11,0.9,-1.251,M,40.593,M,3.3,0123*69\r\n
$GPGGA,095419.40,5703.3656883,N,00952.1577902,E,2,11,0.9,-1.247,M,40.593,M,3.3,0123*6F\r\n
$GPGGA,095419.45,5703.3656284,N,00952.1577346,E,2,11,0.9,-1.251,M,40.593,M,3.5,0123*6C\r\n
$GPGGA,095419.50,5703.3655686,N,00952.1576797,E,2,11,0.9,-1.250,M,40.593,M,3.5,0123*65\r\n
$GPGGA,095419.55,5703.3655087,N,00952.1576256,E,2,11,0.9,-1.248,M,40.593,M,3.5,0123*66\r\n
$GPGGA,095419.60,5703.3654480,N,00952.1575749,E,2,11,0.9,-1.249,M,40.593,M,3.5,0123*6B\r\n
$GPGGA,095419.65,5703.3653867,N,00952.1575273,E,2,11,0.9,-1.250,M,40.593,M,3.7,0123*6A\r\n
$GPGGA,095419.70,5703.3653259,N,00952.1574796,E,2,11,0.9,-1.251,M,40.593,M,3.7,0123*67\r\n
$GPGGA,095419.75,5703.3652658,N,00952.1574327,E,2,11,0.9,-1.251,M,40.593,M,3.7,0123*68\r\n
$GPGGA,095419.80,5703.3652034,N,00952.1573892,E,2,11,0.9,-1.251,M,40.593,M,3.7,0123*6C\r\n
$GPGGA,095419.85,5703.3651403,N,00952.1573478,E,2,11,0.9,-1.253,M,40.593,M,3.9,0123*6E\r\n
$GPGGA,095419.90,5703.3650774,N,00952.1573086,E,2,11,0.9,-1.253,M,40.593,M,3.9,0123*6D\r\n
$GPGGA,095419.95,5703.3650152,N,00952.1572691,E,2,11,0.9,-1.254,M,40.593,M,3.9,0123*6C\r\n
$GPGGA,095420.00,5703.3649530,N,00952.1572311,E,2,11,0.9,-1.252,M,40.593,M,3.9,0123*69\r\n
$GPGGA,095420.05,5703.3648906,N,00952.1571946,E,2,11,0.9,-1.247,M,40.593,M,4.1,0123*64\r\n
$GPGGA,095420.10,5703.3648278,N,00952.1571599,E,2,11,0.9,-1.247,M,40.593,M,4.1,0123*6C\r\n
$GPGGA,095420.15,5703.3647643,N,00952.1571252,E,2,11,0.9,-1.250,M,40.593,M,4.1,0123*6C\r\n
$GPGGA,095420.20,5703.3647001,N,00952.1570917,E,2,11,0.9,-1.253,M,40.593,M,4.1,0123*62\r\n
$GPGGA,095420.25,5703.3646369,N,00952.1570614,E,2,11,0.9,-1.258,M,40.593,M,4.3,0123*6E\r\n
$GPGGA,095420.30,5703.3645732,N,00952.1570330,E,2,11,0.9,-1.259,M,40.593,M,4.3,0123*61\r\n
$GPGGA,095420.35,5703.3645094,N,00952.1570049,E,2,11,0.9,-1.262,M,40.593,M,4.3,0123*6A\r\n
$GPGGA,095420.40,5703.3644448,N,00952.1569792,E,2,11,0.9,-1.265,M,40.593,M,4.3,0123*62\r\n
$GPGGA,095420.45,5703.3643813,N,00952.1569537,E,2,11,0.9,-1.258,M,40.593,M,2.2,0123*66\r\n
$GPGGA,095420.50,5703.3643181,N,00952.1569297,E,2,11,0.9,-1.254,M,40.593,M,2.2,0123*61\r\n
$GPGGA,095420.55,5703.3642540,N,00952.1569074,E,2,11,0.9,-1.255,M,40.593,M,2.2,0123*62\r\n
$GPGGA,095420.60,5703.3641907,N,00952.1568854,E,2,11,0.9,-1.254,M,40.593,M,2.2,0123*62\r\n
$GPGGA,095420.65,5703.3641272,N,00952.1568655,E,2,11,0.9,-1.253,M,40.593,M,2.4,0123*60\r\n
$GPGGA,095420.70,5703.3640637,N,00952.1568475,E,2,11,0.9,-1.250,M,40.593,M,2.4,0123*63\r\n
$GPGGA,095420.75,5703.3640000,N,00952.1568301,E,2,11,0.9,-1.248,M,40.593,M,2.4,0123*69\r\n
$GPGGA,095420.80,5703.3639356,N,00952.1568120,E,2,11,0.9,-1.248,M,40.593,M,2.4,0123*6C\r\n
$GPGGA,095420.85,5703.3638711,N,00952.1567971,E,2,11,0.9,-1.247,M,40.593,M,2.7,0123*60\r\n
$GPGGA,095420.90,5703.3638067,N,00952.1567828,E,2,11,0.9,-1.246,M,40.593,M,2.7,0123*6E\r\n
$GPGGA,095420.95,5703.3637427,N,00952.1567699,E,2,11,0.9,-1.244,M,40.593,M,2.7,0123*62\r\n
$GPGGA,095421.00,5703.3636781,N,00952.1567574,E,2,11,0.9,-1.244,M,40.593,M,2.7,0123*61\r\n
$GPGGA,095421.05,5703.3636146,N,00952.1567449,E,2,11,0.9,-1.243,M,40.593,M,2.9,0123*6F\r\n
$GPGGA,095421.10,5703.3635499,N,00952.1567354,E,2,11,0.9,-1.245,M,40.593,M,2.9,0123*62\r\n
$GPGGA,095421.15,5703.3634857,N,00952.1567263,E,2,11,0.9,-1.245,M,40.593,M,2.9,0123*6D\r\n
$GPGGA,095421.20,5703.3634222,N,00952.1567181,E,2,11,0.9,-1.246,M,40.593,M,2.9,0123*6F\r\n
$GPGGA,095421.25,5703.3633590,N,00952.1567153,E,2,11,0.9,-1.249,M,40.593,M,3.1,0123*6A\r\n
$GPGGA,095421.30,5703.3632950,N,00952.1567132,E,2,11,0.9,-1.252,M,40.593,M,3.1,0123*62\r\n
$GPGGA,095421.35,5703.3632313,N,00952.1567118,E,2,11,0.9,-1.251,M,40.593,M,3.1,0123*61\r\n
$GPGGA,095421.40,5703.3631680,N,00952.1567110,E,2,11,0.9,-1.249,M,40.593,M,3.1,0123*6E\r\n
$GPGGA,095421.45,5703.3631055,N,00952.1567128,E,2,11,0.9,-1.245,M,40.593,M,2.0,0123*62\r\n
$GPGGA,095421.50,5703.3630424,N,00952.1567162,E,2,11,0.9,-1.245,M,40.593,M,2.0,0123*6B\r\n
$GPGGA,095421.55,5703.3629790,N,00952.1567200,E,2,11,0.9,-1.245,M,40.593,M,2.0,0123*6D\r\n
$GPGGA,095421.60,5703.3629162,N,00952.1567247,E,2,11,0.9,-1.246,M,40.593,M,2.0,0123*60\r\n
$GPGGA,095421.65,5703.3628543,N,00952.1567308,E,2,11,0.9,-1.249,M,40.593,M,2.3,0123*65\r\n
$GPGGA,095421.70,5703.3627912,N,00952.1567385,E,2,11,0.9,-1.252,M,40.593,M,2.3,0123*69\r\n
$GPGGA,095421.75,5703.3627288,N,00952.1567468,E,2,11,0.9,-1.252,M,40.593,M,2.3,0123*60\r\n
$GPGGA,095421.80,5703.3626657,N,00952.1567571,E,2,11,0.9,-1.250,M,40.593,M,2.3,0123*66\r\n
$GPGGA,095421.85,5703.3626037,N,00952.1567681,E,2,11,0.9,-1.244,M,40.593,M,2.5,0123*6C\r\n
$GPGGA,095421.90,5703.3625420,N,00952.1567806,E,2,11,0.9,-1.243,M,40.593,M,2.5,0123*6F\r\n
$GPGGA,095421.95,5703.3624809,N,00952.1567958,E,2,11,0.9,-1.243,M,40.593,M,2.5,0123*66\r\n
$GPGGA,095422.00,5703.3624187,N,00952.1568101,E,2,11,0.9,-1.246,M,40.593,M,2.5,0123*68\r\n
$GPGGA,095422.05,5703.3623567,N,00952.1568251,E,2,11,0.9,-1.250,M,40.593,M,2.7,0123*63\r\n
$GPGGA,095422.10,5703.3622949,N,00952.1568421,E,2,11,0.9,-1.252,M,40.593,M,2.7,0123*65\r\n
$GPGGA,095422.15,5703.3622332,N,00952.1568594,E,2,11,0.9,-1.255,M,40.593,M,2.7,0123*6E\r\n
$GPGGA,095422.20,5703.3621726,N,00952.1568797,E,2,11,0.9,-1.258,M,40.593,M,2.7,0123*66\r\n
$GPGGA,095422.25,5703.3621123,N,00952.1569002,E,2,11,0.9,-1.257,M,40.593,M,2.9,0123*6B\r\n
$GPGGA,095422.30,5703.3620510,N,00952.1569211,E,2,11,0.9,-1.260,M,40.593,M,2.9,0123*6E\r\n
$GPGGA,095422.35,5703.3619898,N,00952.1569428,E,2,11,0.9,-1.260,M,40.593,M,2.9,0123*60\r\n
$GPGGA,095422.40,5703.3619300,N,00952.1569673,E,2,11,0.9,-1.261,M,40.593,M,2.9,0123*65\r\n
$GPGGA,095422.45,5703.3618702,N,00952.1569937,E,2,11,0.9,-1.263,M,40.593,M,2.4,0123*67\r\n
$GPGGA,095422.50,5703.3618107,N,00952.1570200,E,2,11,0.9,-1.262,M,40.593,M,2.4,0123*66\r\n
$GPGGA,095422.55,5703.3617513,N,00952.1570474,E,2,11,0.9,-1.262,M,40.593,M,2.4,0123*68\r\n
$GPGGA,095422.60,5703.3616924,N,00952.1570757,E,2,11,0.9,-1.262,M,40.593,M,2.4,0123*65\r\n
$GPGGA,095422.65,5703.3616341,N,00952.1571054,E,2,11,0.9,-1.255,M,40.593,M,2.6,0123*6A\r\n
$GPGGA,095422.70,5703.3615762,N,00952.1571374,E,2,11,0.9,-1.255,M,40.593,M,2.6,0123*69\r\n
$GPGGA,095422.75,5703.3615177,N,00952.1571696,E,2,11,0.9,-1.254,M,40.593,M,2.6,0123*66\r\n
$GPGGA,095422.80,5703.3614595,N,00952.1572003,E,2,11,0.9,-1.253,M,40.593,M,2.6,0123*6B\r\n
$GPGGA,095422.85,5703.3614013,N,00952.1572334,E,2,11,0.9,-1.253,M,40.593,M,2.9,0123*6D\r\n
$GPGGA,095422.90,5703.3613430,N,00952.1572679,E,2,11,0.9,-1.254,M,40.593,M,2.9,0123*60\r\n
$GPGGA,095422.95,5703.3612848,N,00952.1573024,E,2,11,0.9,-1.256,M,40.593,M,2.9,0123*6A\r\n
$GPGGA,095423.00,5703.3612260,N,00952.1573370,E,2,11,0.9,-1.257,M,40.593,M,2.9,0123*64\r\n
$GPGGA,095423.05,5703.3611688,N,00952.1573732,E,2,11,0.9,-1.254,M,40.593,M,3.1,0123*68\r\n
$GPGGA,095423.10,5703.3611117,N,00952.1574118,E,2,11,0.9,-1.252,M,40.593,M,3.1,0123*62\r\n
$GPGGA,095423.15,5703.3610555,N,00952.1574526,E,2,11,0.9,-1.252,M,40.593,M,3.1,0123*6D\r\n
$GPGGA,095423.20,5703.3609998,N,00952.1574929,E,2,11,0.9,-1.252,M,40.593,M,3.1,0123*6D\r\n
$GPGGA,095423.25,5703.3609437,N,00952.1575340,E,2,11,0.9,-1.256,M,40.593,M,3.3,0123*62\r\n
$GPGGA,095423.30,5703.3608890,N,00952.1575772,E,2,11,0.9,-1.253,M,40.593,M,3.3,0123*66\r\n
$GPGGA,095423.35,5703.3608342,N,00952.1576216,E,2,11,0.9,-1.251,M,40.593,M,3.3,0123*61\r\n
$GPGGA,095423.40,5703.3607793,N,00952.1576677,E,2,11,0.9,-1.249,M,40.593,M,3.3,0123*6E\r\n
$GPGGA,095423.45,5703.3607254,N,00952.1577120,E,2,11,0.9,-1.247,M,40.593,M,3.5,0123*69\r\n
$GPGGA,095423.50,5703.3606709,N,00952.1577592,E,2,11,0.9,-1.245,M,40.593,M,3.5,0123*6E\r\n
$GPGGA,095423.55,5703.3606161,N,00952.1578058,E,2,11,0.9,-1.245,M,40.593,M,3.5,0123*6F\r\n
$GPGGA,095423.60,5703.3605616,N,00952.1578532,E,2,11,0.9,-1.247,M,40.593,M,3.5,0123*66\r\n
$GPGGA,095423.65,5703.3605078,N,00952.1579015,E,2,11,0.9,-1.243,M,40.593,M,3.7,0123*6A\r\n
$GPGGA,095423.70,5703.3604540,N,00952.1579501,E,2,11,0.9,-1.245,M,40.593,M,3.7,0123*67\r\n
$GPGGA,095423.75,5703.3604011,N,00952.1580010,E,2,11,0.9,-1.246,M,40.593,M,3.7,0123*63\r\n
$GPGGA,095423.80,5703.3603485,N,00952.1580528,E,2,11,0.9,-1.245,M,40.593,M,3.7,0123*6A\r\n
$GPGGA,095423.85,5703.3602962,N,00952.1581041,E,2,11,0.9,-1.242,M,40.593,M,3.9,0123*68\r\n
$GPGGA,095423.90,5703.3602445,N,00952.1581558,E,2,11,0.9,-1.242,M,40.593,M,3.9,0123*69\r\n
$GPGGA,095423.95,5703.3601918,N,00952.1582076,E,2,11,0.9,-1.243,M,40.593,M,3.9,0123*61\r\n
$GPGGA,095424.00,5703.3601396,N,00952.1582599,E,2,11,0.9,-1.240,M,40.593,M,3.9,0123*61\r\n
$GPGGA,095424.05,5703.3600901,N,00952.1583133,E,2,11,0.9,-1.235,M,40.593,M,4.1,0123*69\r\n
$GPGGA,095424.10,5703.3600394,N,00952.1583683,E,2,11,0.9,-1.232,M,40.593,M,4.1,0123*60\r\n
$GPGGA,095424.15,5703.3599886,N,00952.1584246,E,2,11,0.9,-1.231,M,40.593,M,4.1,0123*67\r\n
$GPGGA,095424.20,5703.3599376,N,00952.1584820,E,2,11,0.9,-1.230,M,40.593,M,4.1,0123*6E\r\n
$GPGGA,095424.25,5703.3598862,N,00952.1585396,E,2,11,0.9,-1.233,M,40.593,M,4.3,0123*62\r\n
$GPGGA,095424.30,5703.3598353,N,00952.1585977,E,2,11,0.9,-1.235,M,40.593,M,4.3,0123*6C\r\n
$GPGGA,095424.35,5703.3597846,N,00952.1586554,E,2,11,0.9,-1.237,M,40.593,M,4.3,0123*65\r\n
$GPGGA,095424.40,5703.3597340,N,00952.1587159,E,2,11,0.9,-1.236,M,40.593,M,4.3,0123*63\r\n
$GPGGA,095424.45,5703.3596832,N,00952.1587767,E,2,11,0.9,-1.237,M,40.593,M,2.2,0123*64\r\n
$GPGGA,095424.50,5703.3596324,N,00952.1588386,E,2,11,0.9,-1.242,M,40.593,M,2.2,0123*6A\r\n
$GPGGA,095424.55,5703.3595825,N,00952.1588994,E,2,11,0.9,-1.244,M,40.593,M,2.2,0123*69\r\n
$GPGGA,095424.60,5703.3595322,N,00952.1589616,E,2,11,0.9,-1.243,M,40.593,M,2.2,0123*60\r\n
$GPGGA,095424.65,5703.3594809,N,00952.1590249,E,2,11,0.9,-1.250,M,40.593,M,2.4,0123*64\r\n
$GPGGA,095424.70,5703.3594311,N,00952.1590888,E,2,11,0.9,-1.253,M,40.593,M,2.4,0123*66\r\n
$GPGGA,095424.75,5703.3593832,N,00952.1591552,E,2,11,0.9,-1.255,M,40.593,M,2.4,0123*63\r\n
$GPGGA,095424.80,5703.3593356,N,00952.1592220,E,2,11,0.9,-1.254,M,40.593,M,2.4,0123*60\r\n
$GPGGA,095424.85,5703.3592877,N,00952.1592892,E,2,11,0.9,-1.256,M,40.593,M,2.7,0123*6E\r\n
$GPGGA,095424.90,5703.3592401,N,00952.1593577,E,2,11,0.9,-1.257,M,40.593,M,2.7,0123*61\r\n
$GPGGA,095424.95,5703.3591927,N,00952.1594279,E,2,11,0.9,-1.258,M,40.593,M,2.7,0123*6F\r\n
$GPGGA,095425.00,5703.3591460,N,00952.1594974,E,2,11,0.9,-1.259,M,40.593,M,2.7,0123*6B\r\n
$GPGGA,095425.05,5703.3590993,N,00952.1595670,E,2,11,0.9,-1.257,M,40.593,M,2.9,0123*64\r\n
$GPGGA,095425.10,5703.3590530,N,00952.1596373,E,2,11,0.9,-1.256,M,40.593,M,2.9,0123*61\r\n
$GPGGA,095425.15,5703.3590056,N,00952.1597089,E,2,11,0.9,-1.254,M,40.593,M,2.9,0123*64\r\n
$GPGGA,095425.20,5703.3589585,N,00952.1597820,E,2,11,0.9,-1.253,M,40.593,M,2.9,0123*6D\r\n
$GPGGA,095425.25,5703.3589123,N,00952.1598558,E,2,11,0.9,-1.247,M,40.593,M,3.1,0123*61\r\n
$GPGGA,095425.30,5703.3588662,N,00952.1599307,E,2,11,0.9,-1.246,M,40.593,M,3.1,0123*6A\r\n
$GPGGA,095425.35,5703.3588198,N,00952.1600047,E,2,11,0.9,-1.245,M,40.593,M,3.1,0123*6A\r\n
$GPGGA,095425.40,5703.3587751,N,00952.1600807,E,2,11,0.9,-1.243,M,40.593,M,3.1,0123*6E\r\n
$GPGGA,095425.45,5703.3587308,N,00952.1601569,E,2,11,0.9,-1.236,M,40.593,M,2.0,0123*65\r\n
$GPGGA,095425.50,5703.3586859,N,00952.1602331,E,2,11,0.9,-1.233,M,40.593,M,2.0,0123*62\r\n
$GPGGA,095425.55,5703.3586404,N,00952.1603103,E,2,11,0.9,-1.232,M,40.593,M,2.0,0123*60\r\n
$GPGGA,095425.60,5703.3585969,N,00952.1603893,E,2,11,0.9,-1.228,M,40.593,M,2.0,0123*68\r\n
$GPGGA,095425.65,5703.3585542,N,00952.1604677,E,2,11,0.9,-1.224,M,40.593,M,2.3,0123*64\r\n
$GPGGA,095425.70,5703.3585125,N,00952.1605474,E,2,11,0.9,-1.221,M,40.593,M,2.3,0123*60\r\n
$GPGGA,095425.75,5703.3584701,N,00952.1606266,E,2,11,0.9,-1.218,M,40.593,M,2.3,0123*68\r\n
$GPGGA,095425.80,5703.3584273,N,00952.1607064,E,2,11,0.9,-1.215,M,40.593,M,2.3,0123*6E\r\n
$GPGGA,095425.85,5703.3583858,N,00952.1607868,E,2,11,0.9,-1.209,M,40.593,M,2.5,0123*60\r\n
$GPGGA,095425.90,5703.3583442,N,00952.1608685,E,2,11,0.9,-1.205,M,40.593,M,2.5,0123*6D\r\n
$GPGGA,095425.95,5703.3583024,N,00952.1609478,E,2,11,0.9,-1.205,M,40.593,M,2.5,0123*6D\r\n
$GPGGA,095426.00,5703.3582601,N,00952.1610280,E,2,11,0.9,-1.203,M,40.593,M,2.5,0123*6D\r\n
$GPGGA,095426.05,5703.3582191,N,00952.1611067,E,2,11,0.9,-1.200,M,40.593,M,2.7,0123*6D\r\n
$GPGGA,095426.10,5703.3581773,N,00952.1611880,E,2,11,0.9,-1.199,M,40.593,M,2.7,0123*62\r\n
$GPGGA,095426.15,5703.3581371,N,00952.1612696,E,2,11,0.9,-1.197,M,40.593,M,2.7,0123*65\r\n
$GPGGA,095426.20,5703.3580969,N,00952.1613520,E,2,11,0.9,-1.196,M,40.593,M,2.7,0123*6F\r\n
$GPGGA,095426.25,5703.3580569,N,00952.1614352,E,2,11,0.9,-1.194,M,40.593,M,2.9,0123*6E\r\n
$GPGGA,095426.30,5703.3580170,N,00952.1615185,E,2,11,0.9,-1.195,M,40.593,M,2.9,0123*6E\r\n
$GPGGA,095426.35,5703.3579778,N,00952.1615997,E,2,11,0.9,-1.195,M,40.593,M,2.9,0123*68\r\n
$GPGGA,095426.40,5703.3579391,N,00952.1616820,E,2,11,0.9,-1.194,M,40.593,M,2.9,0123*66\r\n
$GPGGA,095426.45,5703.3578997,N,00952.1617654,E,2,11,0.9,-1.200,M,40.593,M,2.4,0123*61\r\n
$GPGGA,095426.50,5703.3578609,N,00952.1618479,E,2,11,0.9,-1.201,M,40.593,M,2.4,0123*6E\r\n
$GPGGA,095426.55,5703.3578217,N,00952.1619316,E,2,11,0.9,-1.200,M,40.593,M,2.4,0123*6E\r\n
$GPGGA,095426.60,5703.3577825,N,00952.1620155,E,2,11,0.9,-1.203,M,40.593,M,2.4,0123*60\r\n
$GPGGA,095426.65,5703.3577428,N,00952.1620995,E,2,11,0.9,-1.208,M,40.593,M,2.6,0123*69\r\n
$GPGGA,095426.70,5703.3577043,N,00952.1621837,E,2,11,0.9,-1.207,M,40.593,M,2.6,0123*63\r\n
$GPGGA,095426.75,5703.3576657,N,00952.1622671,E,2,11,0.9,-1.207,M,40.593,M,2.6,0123*6B\r\n
$GPGGA,095426.80,5703.3576279,N,00952.1623514,E,2,11,0.9,-1.208,M,40.593,M,2.6,0123*67\r\n
$GPGGA,095426.85,5703.3575898,N,00952.1624352,E,2,11,0.9,-1.214,M,40.593,M,2.9,0123*65\r\n
$GPGGA,095426.90,5703.3575516,N,00952.1625201,E,2,11,0.9,-1.214,M,40.593,M,2.9,0123*6C\r\n
$GPGGA,095426.95,5703.3575151,N,00952.1626050,E,2,11,0.9,-1.211,M,40.593,M,2.9,0123*6E\r\n
$GPGGA,095427.00,5703.3574782,N,00952.1626916,E,2,11,0.9,-1.212,M,40.593,M,2.9,0123*62\r\n
$GPGGA,095427.05,5703.3574425,N,00952.1627769,E,2,11,0.9,-1.210,M,40.593,M,3.1,0123*65\r\n
$GPGGA,095427.10,5703.3574063,N,00952.1628631,E,2,11,0.9,-1.211,M,40.593,M,3.1,0123*65\r\n
$GPGGA,095427.15,5703.3573701,N,00952.1629491,E,2,11,0.9,-1.212,M,40.593,M,3.1,0123*6E\r\n
$GPGGA,095427.20,5703.3573357,N,00952.1630349,E,2,11,0.9,-1.208,M,40.593,M,3.1,0123*6E\r\n
$GPGGA,095427.25,5703.3572991,N,00952.1631209,E,2,11,0.9,-1.212,M,40.593,M,3.3,0123*67\r\n
$GPGGA,095427.30,5703.3572625,N,00952.1632099,E,2,11,0.9,-1.214,M,40.593,M,3.3,0123*6D\r\n
$GPGGA,095427.35,5703.3572268,N,00952.1632986,E,2,11,0.9,-1.216,M,40.593,M,3.3,0123*60\r\n
$GPGGA,095427.40,5703.3571915,N,00952.1633865,E,2,11,0.9,-1.220,M,40.593,M,3.3,0123*68\r\n
$GPGGA,095427.45,5703.3571564,N,00952.1634739,E,2,11,0.9,-1.223,M,40.593,M,0.8,0123*6D\r\n
$GPGGA,095427.50,5703.3571221,N,00952.1635629,E,2,11,0.9,-1.223,M,40.593,M,0.8,0123*6E\r\n
$GPGGA,095427.55,5703.3570880,N,00952.1636514,E,2,11,0.9,-1.223,M,40.593,M,0.8,0123*65\r\n
$GPGGA,095427.60,5703.3570545,N,00952.1637407,E,2,11,0.9,-1.223,M,40.593,M,0.8,0123*65\r\n
$GPGGA,095427.65,5703.3570217,N,00952.1638292,E,2,11,0.9,-1.218,M,40.593,M,1.1,0123*65\r\n
$GPGGA,095427.70,5703.3569893,N,00952.1639194,E,2,11,0.9,-1.215,M,40.593,M,1.1,0123*66\r\n
$GPGGA,095427.75,5703.3569566,N,00952.1640083,E,2,11,0.9,-1.214,M,40.593,M,1.1,0123*6C\r\n
$GPGGA,095427.80,5703.3569237,N,00952.1640968,E,2,11,0.9,-1.214,M,40.593,M,1.1,0123*69\r\n
$GPGGA,095427.85,5703.3568925,N,00952.1641870,E,2,11,0.9,-1.210,M,40.593,M,1.4,0123*6D\r\n
$GPGGA,095427.90,5703.3568617,N,00952.1642782,E,2,11,0.9,-1.208,M,40.593,M,1.4,0123*6F\r\n
$GPGGA,095427.95,5703.3568304,N,00952.1643688,E,2,11,0.9,-1.208,M,40.593,M,1.4,0123*67\r\n
$GPGGA,095428.00,5703.3567989,N,00952.1644586,E,2,11,0.9,-1.209,M,40.593,M,1.4,0123*6F\r\n
$GPGGA,095428.05,5703.3567687,N,00952.1645476,E,2,11,0.9,-1.203,M,40.593,M,1.6,0123*6C\r\n
$GPGGA,095428.10,5703.3567381,N,00952.1646391,E,2,11,0.9,-1.199,M,40.593,M,1.6,0123*66\r\n
$GPGGA,095428.15,5703.3567081,N,00952.1647296,E,2,11,0.9,-1.198,M,40.593,M,1.6,0123*66\r\n
$GPGGA,095428.20,5703.3566776,N,00952.1648207,E,2,11,0.9,-1.201,M,40.593,M,1.6,0123*6A\r\n
$GPGGA,095428.25,5703.3566478,N,00952.1649126,E,2,11,0.9,-1.197,M,40.593,M,1.9,0123*60\r\n
$GPGGA,095428.30,5703.3566194,N,00952.1650049,E,2,11,0.9,-1.194,M,40.593,M,1.9,0123*60\r\n
$GPGGA,095428.35,5703.3565909,N,00952.1650975,E,2,11,0.9,-1.194,M,40.593,M,1.9,0123*6C\r\n
$GPGGA,095428.40,5703.3565619,N,00952.1651895,E,2,11,0.9,-1.196,M,40.593,M,1.9,0123*6C\r\n
$GPGGA,095428.45,5703.3565320,N,00952.1652806,E,2,11,0.9,-1.203,M,40.593,M,0.8,0123*60\r\n
$GPGGA,095428.50,5703.3565042,N,00952.1653736,E,2,11,0.9,-1.204,M,40.593,M,0.8,0123*69\r\n
$GPGGA,095428.55,5703.3564770,N,00952.1654675,E,2,11,0.9,-1.206,M,40.593,M,0.8,0123*68\r\n
$GPGGA,095428.60,5703.3564499,N,00952.1655610,E,2,11,0.9,-1.209,M,40.593,M,0.8,0123*67\r\n
$GPGGA,095428.65,5703.3564236,N,00952.1656554,E,2,11,0.9,-1.205,M,40.593,M,1.1,0123*65\r\n
$GPGGA,095428.70,5703.3563979,N,00952.1657497,E,2,11,0.9,-1.207,M,40.593,M,1.1,0123*6B\r\n
$GPGGA,095428.75,5703.3563723,N,00952.1658453,E,2,11,0.9,-1.210,M,40.593,M,1.1,0123*6E\r\n
$GPGGA,095428.80,5703.3563459,N,00952.1659409,E,2,11,0.9,-1.213,M,40.593,M,1.1,0123*67\r\n
$GPGGA,095428.85,5703.3563193,N,00952.1660375,E,2,11,0.9,-1.216,M,40.593,M,1.3,0123*60\r\n
$GPGGA,095428.90,5703.3562938,N,00952.1661343,E,2,11,0.9,-1.219,M,40.593,M,1.3,0123*67\r\n
$GPGGA,095428.95,5703.3562687,N,00952.1662303,E,2,11,0.9,-1.221,M,40.593,M,1.3,0123*65\r\n
$GPGGA,095429.00,5703.3562452,N,00952.1663266,E,2,11,0.9,-1.223,M,40.593,M,1.3,0123*63\r\n
$GPGGA,095429.05,5703.3562240,N,00952.1664208,E,2,11,0.9,-1.219,M,40.593,M,1.6,0123*60\r\n
$GPGGA,095429.10,5703.3562006,N,00952.1665170,E,2,11,0.9,-1.218,M,40.593,M,1.6,0123*68\r\n
$GPGGA,095429.15,5703.3561777,N,00952.1666143,E,2,11,0.9,-1.217,M,40.593,M,1.6,0123*63\r\n
$GPGGA,095429.20,5703.3561551,N,00952.1667117,E,2,11,0.9,-1.214,M,40.593,M,1.6,0123*60\r\n
$GPGGA,095429.25,5703.3561328,N,00952.1668086,E,2,11,0.9,-1.214,M,40.593,M,1.8,0123*65\r\n
$GPGGA,095429.30,5703.3561120,N,00952.1669055,E,2,11,0.9,-1.211,M,40.593,M,1.8,0123*61\r\n
$GPGGA,095429.35,5703.3560927,N,00952.1670034,E,2,11,0.9,-1.205,M,40.593,M,1.8,0123*60\r\n
$GPGGA,095429.40,5703.3560737,N,00952.1671004,E,2,11,0.9,-1.201,M,40.593,M,1.8,0123*6B\r\n
$GPGGA,095429.45,5703.3560551,N,00952.1671979,E,2,11,0.9,-1.197,M,40.593,M,1.1,0123*6A\r\n
$GPGGA,095429.50,5703.3560360,N,00952.1672975,E,2,11,0.9,-1.195,M,40.593,M,1.1,0123*67\r\n
$GPGGA,095429.55,5703.3560176,N,00952.1673968,E,2,11,0.9,-1.192,M,40.593,M,1.1,0123*6D\r\n
$GPGGA,095429.60,5703.3560004,N,00952.1674958,E,2,11,0.9,-1.187,M,40.593,M,1.1,0123*6F\r\n
$GPGGA,095429.65,5703.3559834,N,00952.1675956,E,2,11,0.9,-1.190,M,40.593,M,1.4,0123*67\r\n
$GPGGA,095429.70,5703.3559676,N,00952.1676962,E,2,11,0.9,-1.187,M,40.593,M,1.4,0123*69\r\n
$GPGGA,095429.75,5703.3559522,N,00952.1677952,E,2,11,0.9,-1.184,M,40.593,M,1.4,0123*6F\r\n
$GPGGA,095429.80,5703.3559369,N,00952.1678930,E,2,11,0.9,-1.180,M,40.593,M,1.4,0123*63\r\n
$GPGGA,095429.85,5703.3559220,N,00952.1679927,E,2,11,0.9,-1.174,M,40.593,M,1.7,0123*65\r\n
$GPGGA,095429.90,5703.3559066,N,00952.1680925,E,2,11,0.9,-1.175,M,40.593,M,1.7,0123*64\r\n
$GPGGA,095429.95,5703.3558931,N,00952.1681932,E,2,11,0.9,-1.172,M,40.593,M,1.7,0123*6B\r\n
$GPGGA,095430.00,5703.3558793,N,00952.1682934,E,2,11,0.9,-1.172,M,40.593,M,1.7,0123*6C\r\n
$GPGGA,095430.05,5703.3558668,N,00952.1683945,E,2,11,0.9,-1.169,M,40.593,M,1.9,0123*6F\r\n
$GPGGA,095430.10,5703.3558537,N,00952.1684949,E,2,11,0.9,-1.170,M,40.593,M,1.9,0123*61\r\n
$GPGGA,095430.15,5703.3558418,N,00952.1685937,E,2,11,0.9,-1.169,M,40.593,M,1.9,0123*68\r\n
$GPGGA,095430.20,5703.3558292,N,00952.1686946,E,2,11,0.9,-1.172,M,40.593,M,1.9,0123*65\r\n
$GPGGA,095430.25,5703.3558166,N,00952.1687959,E,2,11,0.9,-1.176,M,40.593,M,2.2,0123*6B\r\n
$GPGGA,095430.30,5703.3558055,N,00952.1688957,E,2,11,0.9,-1.177,M,40.593,M,2.2,0123*6E\r\n
$GPGGA,095430.35,5703.3557938,N,00952.1689964,E,2,11,0.9,-1.178,M,40.593,M,2.2,0123*68\r\n
$GPGGA,095430.40,5703.3557821,N,00952.1690967,E,2,11,0.9,-1.178,M,40.593,M,2.2,0123*68\r\n
$GPGGA,095430.45,5703.3557704,N,00952.1691964,E,2,11,0.9,-1.184,M,40.593,M,2.4,0123*62\r\n
$GPGGA,095430.50,5703.3557595,N,00952.1692978,E,2,11,0.9,-1.188,M,40.593,M,2.4,0123*6E\r\n
$GPGGA,095430.55,5703.3557491,N,00952.1693986,E,2,11,0.9,-1.191,M,40.593,M,2.4,0123*66\r\n
$GPGGA,095430.60,5703.3557395,N,00952.1694998,E,2,11,0.9,-1.192,M,40.593,M,2.4,0123*68\r\n
$GPGGA,095430.65,5703.3557294,N,00952.1696023,E,2,11,0.9,-1.191,M,40.593,M,2.6,0123*67\r\n
$GPGGA,095430.70,5703.3557197,N,00952.1697045,E,2,11,0.9,-1.192,M,40.593,M,2.6,0123*61\r\n
$GPGGA,095430.75,5703.3557092,N,00952.1698053,E,2,11,0.9,-1.194,M,40.593,M,2.6,0123*6E\r\n
$GPGGA,095430.80,5703.3556983,N,00952.1699055,E,2,11,0.9,-1.194,M,40.593,M,2.6,0123*6B\r\n
$GPGGA,095430.85,5703.3556883,N,00952.1700091,E,2,11,0.9,-1.193,M,40.593,M,2.9,0123*6E\r\n
$GPGGA,095430.90,5703.3556791,N,00952.1701130,E,2,11,0.9,-1.193,M,40.593,M,2.9,0123*6D\r\n
$GPGGA,095430.95,5703.3556699,N,00952.1702156,E,2,11,0.9,-1.191,M,40.593,M,2.9,0123*60\r\n
$GPGGA,095431.00,5703.3556607,N,00952.1703172,E,2,11,0.9,-1.191,M,40.593,M,2.9,0123*6D\r\n
$GPGGA,095431.05,5703.3556526,N,00952.1704202,E,2,11,0.9,-1.193,M,40.593,M,3.1,0123*60\r\n
$GPGGA,095431.10,5703.3556445,N,00952.1705246,E,2,11,0.9,-1.196,M,40.593,M,3.1,0123*64\r\n
$GPGGA,095431.15,5703.3556385,N,00952.1706282,E,2,11,0.9,-1.197,M,40.593,M,3.1,0123*60\r\n
$GPGGA,095431.20,5703.3556328,N,00952.1707337,E,2,11,0.9,-1.197,M,40.593,M,3.1,0123*6F\r\n
$GPGGA,095431.25,5703.3556264,N,00952.1708381,E,2,11,0.9,-1.197,M,40.593,M,3.3,0123*63\r\n
$GPGGA,095431.30,5703.3556203,N,00952.1709436,E,2,11,0.9,-1.196,M,40.593,M,3.3,0123*6D\r\n
$GPGGA,095431.35,5703.3556134,N,00952.1710487,E,2,11,0.9,-1.197,M,40.593,M,3.3,0123*6C\r\n
$GPGGA,095431.40,5703.3556075,N,00952.1711540,E,2,11,0.9,-1.196,M,40.593,M,3.3,0123*60\r\n
$GPGGA,095431.45,5703.3556013,N,00952.1712594,E,2,11,0.9,-1.197,M,40.593,M,3.5,0123*68\r\n
$GPGGA,095431.50,5703.3555954,N,00952.1713646,E,2,11,0.9,-1.196,M,40.593,M,3.5,0123*69\r\n
$GPGGA,095431.55,5703.3555887,N,00952.1714697,E,2,11,0.9,-1.196,M,40.593,M,3.5,0123*68\r\n
$GPGGA,095431.60,5703.3555817,N,00952.1715761,E,2,11,0.9,-1.198,M,40.593,M,3.5,0123*60\r\n
$GPGGA,095431.65,5703.3555749,N,00952.1716831,E,2,11,0.9,-1.194,M,40.593,M,3.7,0123*66\r\n
$GPGGA,095431.70,5703.3555681,N,00952.1717891,E,2,11,0.9,-1.190,M,40.593,M,3.7,0123*68\r\n
$GPGGA,095431.75,5703.3555614,N,00952.1718949,E,2,11,0.9,-1.184,M,40.593,M,3.7,0123*6F\r\n
$GPGGA,095431.80,5703.3555551,N,00952.1720020,E,2,11,0.9,-1.184,M,40.593,M,3.7,0123*6A\r\n
$GPGGA,095431.85,5703.3555512,N,00952.1721100,E,2,11,0.9,-1.176,M,40.593,M,3.9,0123*69\r\n
$GPGGA,095431.90,5703.3555460,N,00952.1722174,E,2,11,0.9,-1.174,M,40.593,M,3.9,0123*6B\r\n
$GPGGA,095431.95,5703.3555406,N,00952.1723234,E,2,11,0.9,-1.171,M,40.593,M,3.9,0123*6D\r\n
$GPGGA,095432.00,5703.3555372,N,00952.1724292,E,2,11,0.9,-1.168,M,40.593,M,3.9,0123*65\r\n
$GPGGA,095432.05,5703.3555340,N,00952.1725344,E,2,11,0.9,-1.168,M,40.593,M,4.1,0123*65\r\n
$GPGGA,095432.10,5703.3555293,N,00952.1726398,E,2,11,0.9,-1.166,M,40.593,M,4.1,0123*62\r\n
$GPGGA,095432.15,5703.3555239,N,00952.1727468,E,2,11,0.9,-1.166,M,40.593,M,4.1,0123*6E\r\n
$GPGGA,095432.20,5703.3555198,N,00952.1728528,E,2,11,0.9,-1.164,M,40.593,M,4.1,0123*68\r\n
$GPGGA,095432.25,5703.3555168,N,00952.1729591,E,2,11,0.9,-1.161,M,40.593,M,1.9,0123*69\r\n
$GPGGA,095432.30,5703.3555138,N,00952.1730651,E,2,11,0.9,-1.161,M,40.593,M,1.9,0123*6F\r\n
$GPGGA,095432.35,5703.3555110,N,00952.1731718,E,2,11,0.9,-1.159,M,40.593,M,1.9,0123*66\r\n
$GPGGA,095432.40,5703.3555084,N,00952.1732791,E,2,11,0.9,-1.156,M,40.593,M,1.9,0123*65\r\n
$GPGGA,095432.45,5703.3555062,N,00952.1733852,E,2,11,0.9,-1.156,M,40.593,M,2.2,0123*61\r\n
$GPGGA,095432.50,5703.3555044,N,00952.1734906,E,2,11,0.9,-1.157,M,40.593,M,2.2,0123*67\r\n
$GPGGA,095432.55,5703.3555013,N,00952.1735964,E,2,11,0.9,-1.158,M,40.593,M,2.2,0123*6A\r\n
$GPGGA,095432.60,5703.3554989,N,00952.1737021,E,2,11,0.9,-1.159,M,40.593,M,2.2,0123*6C\r\n
$GPGGA,095432.65,5703.3554961,N,00952.1738081,E,2,11,0.9,-1.158,M,40.593,M,2.4,0123*6D\r\n
$GPGGA,095432.70,5703.3554939,N,00952.1739139,E,2,11,0.9,-1.157,M,40.593,M,2.4,0123*68\r\n
$GPGGA,095432.75,5703.3554924,N,00952.1740190,E,2,11,0.9,-1.157,M,40.593,M,2.4,0123*6C\r\n
$GPGGA,095432.80,5703.3554901,N,00952.1741241,E,2,11,0.9,-1.156,M,40.593,M,2.4,0123*6E\r\n
$GPGGA,095432.85,5703.3554888,N,00952.1742300,E,2,11,0.9,-1.152,M,40.593,M,2.7,0123*6B\r\n
$GPGGA,095432.90,5703.3554874,N,00952.1743355,E,2,11,0.9,-1.151,M,40.593,M,2.7,0123*6E\r\n
$GPGGA,095432.95,5703.3554858,N,00952.1744407,E,2,11,0.9,-1.148,M,40.593,M,2.7,0123*6A\r\n
$GPGGA,095433.00,5703.3554841,N,00952.1745461,E,2,11,0.9,-1.146,M,40.593,M,2.7,0123*60\r\n
$GPGGA,095433.05,5703.3554833,N,00952.1746516,E,2,11,0.9,-1.149,M,40.593,M,2.9,0123*63\r\n
$GPGGA,095433.10,5703.3554823,N,00952.1747567,E,2,11,0.9,-1.148,M,40.593,M,2.9,0123*60\r\n
$GPGGA,095433.15,5703.3554822,N,00952.1748611,E,2,11,0.9,-1.150,M,40.593,M,2.9,0123*60\r\n
$GPGGA,095433.20,5703.3554819,N,00952.1749663,E,2,11,0.9,-1.150,M,40.593,M,2.9,0123*6A\r\n
$GPGGA,095433.25,5703.3554821,N,00952.1750731,E,2,11,0.9,-1.147,M,40.593,M,1.8,0123*6E\r\n
$GPGGA,095433.30,5703.3554823,N,00952.1751782,E,2,11,0.9,-1.146,M,40.593,M,1.8,0123*60\r\n
$GPGGA,095433.35,5703.3554819,N,00952.1752846,E,2,11,0.9,-1.146,M,40.593,M,1.8,0123*68\r\n
$GPGGA,095433.40,5703.3554818,N,00952.1753875,E,2,11,0.9,-1.147,M,40.593,M,1.8,0123*6B\r\n
$GPGGA,095433.45,5703.3554818,N,00952.1754922,E,2,11,0.9,-1.150,M,40.593,M,2.0,0123*67\r\n
$GPGGA,095433.50,5703.3554831,N,00952.1755974,E,2,11,0.9,-1.148,M,40.593,M,2.0,0123*63\r\n
$GPGGA,095433.55,5703.3554837,N,00952.1757008,E,2,11,0.9,-1.147,M,40.593,M,2.0,0123*6F\r\n
$GPGGA,095433.60,5703.3554861,N,00952.1758052,E,2,11,0.9,-1.144,M,40.593,M,2.0,0123*69\r\n
$GPGGA,095433.65,5703.3554869,N,00952.1759113,E,2,11,0.9,-1.147,M,40.593,M,2.3,0123*61\r\n
$GPGGA,095433.70,5703.3554877,N,00952.1760174,E,2,11,0.9,-1.146,M,40.593,M,2.3,0123*60\r\n
$GPGGA,095433.75,5703.3554894,N,00952.1761221,E,2,11,0.9,-1.146,M,40.593,M,2.3,0123*6A\r\n
$GPGGA,095433.80,5703.3554913,N,00952.1762271,E,2,11,0.9,-1.145,M,40.593,M,2.3,0123*6B\r\n
$GPGGA,095433.85,5703.3554940,N,00952.1763325,E,2,11,0.9,-1.143,M,40.593,M,2.5,0123*69\r\n
$GPGGA,095433.90,5703.3554964,N,00952.1764381,E,2,11,0.9,-1.143,M,40.593,M,2.5,0123*62\r\n
$GPGGA,095433.95,5703.3554998,N,00952.1765441,E,2,11,0.9,-1.144,M,40.593,M,2.5,0123*69\r\n
$GPGGA,095434.00,5703.3555027,N,00952.1766493,E,2,11,0.9,-1.142,M,40.593,M,2.5,0123*64\r\n
$GPGGA,095434.05,5703.3555074,N,00952.1767537,E,2,11,0.9,-1.141,M,40.593,M,2.7,0123*68\r\n
$GPGGA,095434.10,5703.3555115,N,00952.1768590,E,2,11,0.9,-1.140,M,40.593,M,2.7,0123*69\r\n
$GPGGA,095434.15,5703.3555160,N,00952.1769640,E,2,11,0.9,-1.139,M,40.593,M,2.7,0123*6F\r\n
$GPGGA,095434.20,5703.3555202,N,00952.1770699,E,2,11,0.9,-1.139,M,40.593,M,2.7,0123*62\r\n
$GPGGA,095434.25,5703.3555239,N,00952.1771746,E,2,11,0.9,-1.139,M,40.593,M,2.2,0123*68\r\n
$GPGGA,095434.30,5703.3555285,N,00952.1772791,E,2,11,0.9,-1.137,M,40.593,M,2.2,0123*6C\r\n
$GPGGA,095434.35,5703.3555333,N,00952.1773849,E,2,11,0.9,-1.138,M,40.593,M,2.2,0123*61\r\n
$GPGGA,095434.40,5703.3555376,N,00952.1774921,E,2,11,0.9,-1.141,M,40.593,M,2.2,0123*64\r\n
$GPGGA,095434.45,5703.3555429,N,00952.1775995,E,2,11,0.9,-1.133,M,40.593,M,2.4,0123*61\r\n
$GPGGA,095434.50,5703.3555482,N,00952.1777055,E,2,11,0.9,-1.132,M,40.593,M,2.4,0123*62\r\n
$GPGGA,095434.55,5703.3555537,N,00952.1778116,E,2,11,0.9,-1.136,M,40.593,M,2.4,0123*65\r\n
$GPGGA,095434.60,5703.3555602,N,00952.1779173,E,2,11,0.9,-1.137,M,40.593,M,2.4,0123*65\r\n
$GPGGA,095434.65,5703.3555666,N,00952.1780231,E,2,11,0.9,-1.139,M,40.593,M,2.6,0123*6D\r\n
$GPGGA,095434.70,5703.3555735,N,00952.1781288,E,2,11,0.9,-1.138,M,40.593,M,2.6,0123*6C\r\n
$GPGGA,095434.75,5703.3555797,N,00952.1782338,E,2,11,0.9,-1.140,M,40.593,M,2.6,0123*67\r\n
$GPGGA,095434.80,5703.3555877,N,00952.1783398,E,2,11,0.9,-1.137,M,40.593,M,2.6,0123*67\r\n
$GPGGA,095434.85,5703.3555956,N,00952.1784463,E,2,11,0.9,-1.135,M,40.593,M,2.9,0123*69\r\n
$GPGGA,095434.90,5703.3556039,N,00952.1785528,E,2,11,0.9,-1.137,M,40.593,M,2.9,0123*63\r\n
$GPGGA,095434.95,5703.3556116,N,00952.1786600,E,2,11,0.9,-1.139,M,40.593,M,2.9,0123*6E\r\n
$GPGGA,095435.00,5703.3556203,N,00952.1787649,E,2,11,0.9,-1.139,M,40.593,M,2.9,0123*68\r\n
$GPGGA,095435.05,5703.3556298,N,00952.1788685,E,2,11,0.9,-1.138,M,40.593,M,3.1,0123*68\r\n
$GPGGA,095435.10,5703.3556397,N,00952.1789747,E,2,11,0.9,-1.134,M,40.593,M,3.1,0123*60\r\n
$GPGGA,095435.15,5703.3556494,N,00952.1790807,E,2,11,0.9,-1.133,M,40.593,M,3.1,0123*65\r\n
$GPGGA,095435.20,5703.3556593,N,00952.1791866,E,2,11,0.9,-1.136,M,40.593,M,3.1,0123*66\r\n
$GPGGA,095435.25,5703.3556703,N,00952.1792929,E,2,11,0.9,-1.135,M,40.593,M,3.3,0123*60\r\n
