$GPGGA,154811.90,5700.7945527,N,00959.0057554,E,2,9,1.0,13.443,M,40.582,M,1.2,0123*4F\r\n
$GPGGA,154811.95,5700.7945526,N,00959.0057557,E,2,9,1.0,13.443,M,40.582,M,1.2,0123*48\r\n
$GPGGA,154812.00,5700.7945525,N,00959.0057558,E,2,9,1.0,13.444,M,40.582,M,1.2,0123*4C\r\n
$GPGGA,154812.05,5700.7945532,N,00959.0057561,E,2,9,1.0,13.445,M,40.582,M,1.4,0123*42\r\n
$GPGGA,154812.10,5700.7945533,N,00959.0057559,E,2,9,1.0,13.445,M,40.582,M,1.4,0123*4C\r\n
$GPGGA,154812.15,5700.7945534,N,00959.0057559,E,2,9,1.0,13.446,M,40.582,M,1.4,0123*4D\r\n
$GPGGA,154812.20,5700.7945535,N,00959.0057557,E,2,9,1.0,13.446,M,40.582,M,1.4,0123*44\r\n
$GPGGA,154812.25,5700.7945542,N,00959.0057541,E,2,9,1.0,13.441,M,40.582,M,1.6,0123*43\r\n
$GPGGA,154812.30,5700.7945540,N,00959.0057544,E,2,9,1.0,13.441,M,40.582,M,1.6,0123*40\r\n
$GPGGA,154812.35,5700.7945538,N,00959.0057542,E,2,9,1.0,13.442,M,40.582,M,1.6,0123*4F\r\n
$GPGGA,154812.40,5700.7945538,N,00959.0057539,E,2,9,1.0,13.442,M,40.582,M,1.6,0123*41\r\n
$GPGGA,154812.45,5700.7945524,N,00959.0057552,E,2,9,1.0,13.447,M,40.582,M,1.9,0123*4E\r\n
$GPGGA,154812.50,5700.7945525,N,00959.0057552,E,2,9,1.0,13.447,M,40.582,M,1.9,0123*4B\r\n
$GPGGA,154812.55,5700.7945523,N,00959.0057557,E,2,9,1.0,13.448,M,40.582,M,1.9,0123*42\r\n
$GPGGA,154812.60,5700.7945524,N,00959.0057555,E,2,9,1.0,13.448,M,40.582,M,1.9,0123*41\r\n
$GPGGA,154812.65,5700.7945541,N,00959.0057563,E,2,9,1.0,13.448,M,40.582,M,2.1,0123*49\r\n
$GPGGA,154812.70,5700.7945541,N,00959.0057563,E,2,9,1.0,13.449,M,40.582,M,2.1,0123*4C\r\n
$GPGGA,154812.75,5700.7945540,N,00959.0057566,E,2,9,1.0,13.449,M,40.582,M,2.1,0123*4D\r\n
$GPGGA,154812.80,5700.7945537,N,00959.0057570,E,2,9,1.0,13.450,M,40.582,M,2.1,0123*48\r\n
$GPGGA,154812.85,5700.7945522,N,00959.0057574,E,2,9,1.0,13.454,M,40.582,M,2.3,0123*4B\r\n
$GPGGA,154812.90,5700.7945520,N,00959.0057575,E,2,9,1.0,13.455,M,40.582,M,2.3,0123*4D\r\n
$GPGGA,154812.95,5700.7945519,N,00959.0057578,E,2,9,1.0,13.456,M,40.582,M,2.3,0123*4C\r\n
$GPGGA,154813.00,5700.7945518,N,00959.0057578,E,2,9,1.0,13.456,M,40.582,M,2.3,0123*40\r\n
$GPGGA,154813.05,5700.7945512,N,00959.0057568,E,2,9,1.0,13.450,M,40.582,M,2.5,0123*4E\r\n
$GPGGA,154813.10,5700.7945510,N,00959.0057571,E,2,9,1.0,13.450,M,40.582,M,2.5,0123*40\r\n
$GPGGA,154813.15,5700.7945512,N,00959.0057574,E,2,9,1.0,13.451,M,40.582,M,2.5,0123*43\r\n
$GPGGA,154813.20,5700.7945511,N,00959.0057577,E,2,9,1.0,13.451,M,40.582,M,2.5,0123*45\r\n
$GPGGA,154813.25,5700.7945517,N,00959.0057580,E,2,9,1.0,13.446,M,40.582,M,2.7,0123*4A\r\n
$GPGGA,154813.30,5700.7945513,N,00959.0057580,E,2,9,1.0,13.447,M,40.582,M,2.7,0123*4B\r\n
$GPGGA,154813.35,5700.7945510,N,00959.0057585,E,2,9,1.0,13.447,M,40.582,M,2.7,0123*48\r\n
$GPGGA,154813.40,5700.7945510,N,00959.0057590,E,2,9,1.0,13.447,M,40.582,M,2.7,0123*4E\r\n
$GPGGA,154813.45,5700.7945514,N,00959.0057607,E,2,9,1.0,13.455,M,40.582,M,2.9,0123*4F\r\n
$GPGGA,154813.50,5700.7945511,N,00959.0057609,E,2,9,1.0,13.456,M,40.582,M,2.9,0123*43\r\n
$GPGGA,154813.55,5700.7945513,N,00959.0057610,E,2,9,1.0,13.456,M,40.582,M,2.9,0123*4C\r\n
$GPGGA,154813.60,5700.7945512,N,00959.0057611,E,2,9,1.0,13.456,M,40.582,M,2.9,0123*4A\r\n
$GPGGA,154813.65,5700.7945524,N,00959.0057586,E,2,9,1.0,13.453,M,40.582,M,3.1,0123*4B\r\n
$GPGGA,154813.70,5700.7945521,N,00959.0057591,E,2,9,1.0,13.452,M,40.582,M,3.1,0123*4D\r\n
$GPGGA,154813.75,5700.7945516,N,00959.0057591,E,2,9,1.0,13.452,M,40.582,M,3.1,0123*4C\r\n
$GPGGA,154813.80,5700.7945514,N,00959.0057591,E,2,9,1.0,13.452,M,40.582,M,3.1,0123*44\r\n
$GPGGA,154813.85,5700.7945499,N,00959.0057592,E,2,9,1.0,13.451,M,40.582,M,2.4,0123*41\r\n
$GPGGA,154813.90,5700.7945500,N,00959.0057585,E,2,9,1.0,13.451,M,40.582,M,2.4,0123*42\r\n
$GPGGA,154813.95,5700.7945498,N,00959.0057587,E,2,9,1.0,13.450,M,40.582,M,2.4,0123*44\r\n
$GPGGA,154814.00,5700.7945497,N,00959.0057584,E,2,9,1.0,13.450,M,40.582,M,2.4,0123*43\r\n
$GPGGA,154814.05,5700.7945525,N,00959.0057585,E,2,9,1.0,13.455,M,40.582,M,2.7,0123*49\r\n
$GPGGA,154814.10,5700.7945526,N,00959.0057586,E,2,9,1.0,13.455,M,40.582,M,2.7,0123*4D\r\n
$GPGGA,154814.15,5700.7945524,N,00959.0057585,E,2,9,1.0,13.454,M,40.582,M,2.7,0123*48\r\n
$GPGGA,154814.20,5700.7945524,N,00959.0057584,E,2,9,1.0,13.454,M,40.582,M,2.7,0123*4F\r\n
$GPGGA,154814.25,5700.7945527,N,00959.0057610,E,2,9,1.0,13.460,M,40.582,M,3.0,0123*46\r\n
$GPGGA,154814.30,5700.7945526,N,00959.0057609,E,2,9,1.0,13.460,M,40.582,M,3.0,0123*4B\r\n
$GPGGA,154814.35,5700.7945528,N,00959.0057604,E,2,9,1.0,13.460,M,40.582,M,3.0,0123*4D\r\n
$GPGGA,154814.40,5700.7945528,N,00959.0057604,E,2,9,1.0,13.460,M,40.582,M,3.0,0123*4F\r\n
$GPGGA,154814.45,5700.7945521,N,00959.0057594,E,2,9,1.0,13.458,M,40.582,M,3.2,0123*40\r\n
$GPGGA,154814.50,5700.7945521,N,00959.0057590,E,2,9,1.0,13.458,M,40.582,M,3.2,0123*40\r\n
$GPGGA,154814.55,5700.7945521,N,00959.0057594,E,2,9,1.0,13.458,M,40.582,M,3.2,0123*41\r\n
$GPGGA,154814.60,5700.7945523,N,00959.0057598,E,2,9,1.0,13.458,M,40.582,M,3.2,0123*49\r\n
$GPGGA,154814.65,5700.7945530,N,00959.0057602,E,2,9,1.0,13.454,M,40.582,M,3.5,0123*45\r\n
$GPGGA,154814.70,5700.7945530,N,00959.0057600,E,2,9,1.0,13.454,M,40.582,M,3.5,0123*43\r\n
$GPGGA,154814.75,5700.7945531,N,00959.0057602,E,2,9,1.0,13.454,M,40.582,M,3.5,0123*45\r\n
$GPGGA,154814.80,5700.7945532,N,00959.0057601,E,2,9,1.0,13.453,M,40.582,M,3.5,0123*48\r\n
$GPGGA,154814.85,5700.7945526,N,00959.0057603,E,2,9,1.0,13.458,M,40.582,M,1.4,0123*42\r\n
$GPGGA,154814.90,5700.7945526,N,00959.0057603,E,2,9,1.0,13.458,M,40.582,M,1.4,0123*46\r\n
$GPGGA,154814.95,5700.7945525,N,00959.0057607,E,2,9,1.0,13.458,M,40.582,M,1.4,0123*44\r\n
$GPGGA,154815.00,5700.7945525,N,00959.0057604,E,2,9,1.0,13.458,M,40.582,M,1.4,0123*4A\r\n
$GPGGA,154815.05,5700.7945522,N,00959.0057614,E,2,9,1.0,13.461,M,40.582,M,1.6,0123*41\r\n
$GPGGA,154815.10,5700.7945521,N,00959.0057614,E,2,9,1.0,13.461,M,40.582,M,1.6,0123*46\r\n
$GPGGA,154815.15,5700.7945523,N,00959.0057611,E,2,9,1.0,13.461,M,40.582,M,1.6,0123*44\r\n
$GPGGA,154815.20,5700.7945524,N,00959.0057612,E,2,9,1.0,13.461,M,40.582,M,1.6,0123*46\r\n
$GPGGA,154815.25,5700.7945534,N,00959.0057604,E,2,9,1.0,13.459,M,40.582,M,1.9,0123*41\r\n
$GPGGA,154815.30,5700.7945535,N,00959.0057602,E,2,9,1.0,13.459,M,40.582,M,1.9,0123*42\r\n
$GPGGA,154815.35,5700.7945535,N,00959.0057603,E,2,9,1.0,13.459,M,40.582,M,1.9,0123*46\r\n
$GPGGA,154815.40,5700.7945534,N,00959.0057607,E,2,9,1.0,13.459,M,40.582,M,1.9,0123*41\r\n
$GPGGA,154815.45,5700.7945528,N,00959.0057616,E,2,9,1.0,13.461,M,40.582,M,2.2,0123*4A\r\n
$GPGGA,154815.50,5700.7945528,N,00959.0057616,E,2,9,1.0,13.461,M,40.582,M,2.2,0123*4E\r\n
$GPGGA,154815.55,5700.7945523,N,00959.0057619,E,2,9,1.0,13.461,M,40.582,M,2.2,0123*4F\r\n
$GPGGA,154815.60,5700.7945521,N,00959.0057616,E,2,9,1.0,13.462,M,40.582,M,2.2,0123*47\r\n
$GPGGA,154815.65,5700.7945508,N,00959.0057625,E,2,9,1.0,13.487,M,40.582,M,2.4,0123*44\r\n
$GPGGA,154815.70,5700.7945501,N,00959.0057602,E,2,9,1.0,13.497,M,40.582,M,2.4,0123*4D\r\n
$GPGGA,154815.75,5700.7945490,N,00959.0057571,E,2,9,1.0,13.512,M,40.582,M,2.4,0123*4A\r\n
$GPGGA,154815.80,5700.7945482,N,00959.0057521,E,2,9,1.0,13.529,M,40.582,M,2.4,0123*4E\r\n
$GPGGA,154815.85,5700.7945475,N,00959.0057476,E,2,9,1.0,13.541,M,40.582,M,1.2,0123*4B\r\n
$GPGGA,154815.90,5700.7945462,N,00959.0057419,E,2,9,1.0,13.556,M,40.582,M,1.2,0123*46\r\n
$GPGGA,154815.95,5700.7945461,N,00959.0057382,E,2,9,1.0,13.572,M,40.582,M,1.2,0123*43\r\n
$GPGGA,154816.00,5700.7945452,N,00959.0057346,E,2,9,1.0,13.587,M,40.582,M,1.2,0123*4E\r\n
$GPGGA,154816.05,5700.7945449,N,00959.0057334,E,2,9,1.0,13.611,M,40.582,M,1.4,0123*4E\r\n
$GPGGA,154816.10,5700.7945439,N,00959.0057324,E,2,9,1.0,13.630,M,40.582,M,1.4,0123*4F\r\n
$GPGGA,154816.15,5700.7945439,N,00959.0057308,E,2,9,1.0,13.647,M,40.582,M,1.4,0123*44\r\n
$GPGGA,154816.20,5700.7945431,N,00959.0057293,E,2,9,1.0,13.662,M,40.582,M,1.4,0123*4E\r\n
$GPGGA,154816.25,5700.7945414,N,00959.0057287,E,2,9,1.0,13.678,M,40.582,M,1.6,0123*40\r\n
$GPGGA,154816.30,5700.7945407,N,00959.0057285,E,2,9,1.0,13.692,M,40.582,M,1.6,0123*40\r\n
$GPGGA,154816.35,5700.7945402,N,00959.0057290,E,2,9,1.0,13.705,M,40.582,M,1.6,0123*4B\r\n
$GPGGA,154816.40,5700.7945390,N,00959.0057298,E,2,9,1.0,13.717,M,40.582,M,1.6,0123*4E\r\n
$GPGGA,154816.45,5700.7945381,N,00959.0057307,E,2,9,1.0,13.715,M,40.582,M,1.9,0123*41\r\n
$GPGGA,154816.50,5700.7945370,N,00959.0057341,E,2,9,1.0,13.723,M,40.582,M,1.9,0123*4C\r\n
$GPGGA,154816.55,5700.7945363,N,00959.0057389,E,2,9,1.0,13.728,M,40.582,M,1.9,0123*44\r\n
$GPGGA,154816.60,5700.7945372,N,00959.0057462,E,2,9,1.0,13.735,M,40.582,M,1.9,0123*4C\r\n
$GPGGA,154816.65,5700.7945369,N,00959.0057550,E,2,9,1.0,13.741,M,40.582,M,2.1,0123*4B\r\n
$GPGGA,154816.70,5700.7945357,N,00959.0057630,E,2,9,1.0,13.742,M,40.582,M,2.1,0123*44\r\n
$GPGGA,154816.75,5700.7945359,N,00959.0057719,E,2,9,1.0,13.742,M,40.582,M,2.1,0123*45\r\n
$GPGGA,154816.80,5700.7945360,N,00959.0057830,E,2,9,1.0,13.743,M,40.582,M,2.1,0123*40\r\n
$GPGGA,154816.85,5700.7945351,N,00959.0057934,E,2,9,1.0,13.739,M,40.582,M,2.3,0123*4D\r\n
$GPGGA,154816.90,5700.7945347,N,00959.0058054,E,2,9,1.0,13.739,M,40.582,M,2.3,0123*4E\r\n
$GPGGA,154816.95,5700.7945354,N,00959.0058169,E,2,9,1.0,13.742,M,40.582,M,2.3,0123*4A\r\n
$GPGGA,154817.00,5700.7945366,N,00959.0058280,E,2,9,1.0,13.742,M,40.582,M,2.3,0123*42\r\n
$GPGGA,154817.05,5700.7945377,N,00959.0058410,E,2,9,1.0,13.742,M,40.582,M,2.5,0123*4E\r\n
$GPGGA,154817.10,5700.7945384,N,00959.0058539,E,2,9,1.0,13.745,M,40.582,M,2.5,0123*4B\r\n
$GPGGA,154817.15,5700.7945383,N,00959.0058658,E,2,9,1.0,13.745,M,40.582,M,2.5,0123*4D\r\n
$GPGGA,154817.20,5700.7945385,N,00959.0058769,E,2,9,1.0,13.747,M,40.582,M,2.5,0123*4C\r\n
$GPGGA,154817.25,5700.7945377,N,00959.0058894,E,2,9,1.0,13.750,M,40.582,M,2.7,0123*4D\r\n
$GPGGA,154817.30,5700.7945372,N,00959.0059031,E,2,9,1.0,13.753,M,40.582,M,2.7,0123*49\r\n
$GPGGA,154817.35,5700.7945384,N,00959.0059188,E,2,9,1.0,13.756,M,40.582,M,2.7,0123*43\r\n
$GPGGA,154817.40,5700.7945389,N,00959.0059345,E,2,9,1.0,13.756,M,40.582,M,2.7,0123*4F\r\n
$GPGGA,154817.45,5700.7945394,N,00959.0059520,E,2,9,1.0,13.755,M,40.582,M,2.9,0123*4E\r\n
$GPGGA,154817.50,5700.7945395,N,00959.0059690,E,2,9,1.0,13.755,M,40.582,M,2.9,0123*43\r\n
$GPGGA,154817.55,5700.7945397,N,00959.0059871,E,2,9,1.0,13.753,M,40.582,M,2.9,0123*43\r\n
$GPGGA,154817.60,5700.7945396,N,00959.0060051,E,2,9,1.0,13.754,M,40.582,M,2.9,0123*43\r\n
$GPGGA,154817.65,5700.7945394,N,00959.0060222,E,2,9,1.0,13.754,M,40.582,M,3.1,0123*4B\r\n
$GPGGA,154817.70,5700.7945395,N,00959.0060413,E,2,9,1.0,13.757,M,40.582,M,3.1,0123*49\r\n
$GPGGA,154817.75,5700.7945409,N,00959.0060598,E,2,9,1.0,13.759,M,40.582,M,3.1,0123*42\r\n
$GPGGA,154817.80,5700.7945424,N,00959.0060791,E,2,9,1.0,13.760,M,40.582,M,3.1,0123*46\r\n
$GPGGA,154817.85,5700.7945429,N,00959.0060988,E,2,9,1.0,13.758,M,40.582,M,2.4,0123*47\r\n
$GPGGA,154817.90,5700.7945421,N,00959.0061197,E,2,9,1.0,13.758,M,40.582,M,2.4,0123*4C\r\n
$GPGGA,154817.95,5700.7945405,N,00959.0061424,E,2,9,1.0,13.759,M,40.582,M,2.4,0123*43\r\n
$GPGGA,154818.00,5700.7945384,N,00959.0061647,E,2,9,1.0,13.760,M,40.582,M,2.4,0123*43\r\n
$GPGGA,154818.05,5700.7945378,N,00959.0061871,E,2,9,1.0,13.761,M,40.582,M,2.7,0123*4C\r\n
$GPGGA,154818.10,5700.7945380,N,00959.0062097,E,2,9,1.0,13.763,M,40.582,M,2.7,0123*4E\r\n
$GPGGA,154818.15,5700.7945378,N,00959.0062315,E,2,9,1.0,13.764,M,40.582,M,2.7,0123*42\r\n
$GPGGA,154818.20,5700.7945360,N,00959.0062539,E,2,9,1.0,13.764,M,40.582,M,2.7,0123*45\r\n
$GPGGA,154818.25,5700.7945344,N,00959.0062774,E,2,9,1.0,13.768,M,40.582,M,3.0,0123*47\r\n
$GPGGA,154818.30,5700.7945346,N,00959.0063017,E,2,9,1.0,13.768,M,40.582,M,3.0,0123*42\r\n
$GPGGA,154818.35,5700.7945368,N,00959.0063294,E,2,9,1.0,13.765,M,40.582,M,3.0,0123*4F\r\n
$GPGGA,154818.40,5700.7945378,N,00959.0063561,E,2,9,1.0,13.763,M,40.582,M,3.0,0123*47\r\n
$GPGGA,154818.45,5700.7945376,N,00959.0063813,E,2,9,1.0,13.761,M,40.582,M,3.2,0123*44\r\n
$GPGGA,154818.50,5700.7945372,N,00959.0064080,E,2,9,1.0,13.760,M,40.582,M,3.2,0123*40\r\n
$GPGGA,154818.55,5700.7945391,N,00959.0064370,E,2,9,1.0,13.762,M,40.582,M,3.2,0123*46\r\n
$GPGGA,154818.60,5700.7945399,N,00959.0064650,E,2,9,1.0,13.763,M,40.582,M,3.2,0123*4E\r\n
$GPGGA,154818.65,5700.7945400,N,00959.0064886,E,2,9,1.0,13.765,M,40.582,M,3.5,0123*48\r\n
$GPGGA,154818.70,5700.7945401,N,00959.0065138,E,2,9,1.0,13.767,M,40.582,M,3.5,0123*42\r\n
$GPGGA,154818.75,5700.7945413,N,00959.0065432,E,2,9,1.0,13.771,M,40.582,M,3.5,0123*4C\r\n
$GPGGA,154818.80,5700.7945427,N,00959.0065752,E,2,9,1.0,13.771,M,40.582,M,3.5,0123*44\r\n
$GPGGA,154818.85,5700.7945418,N,00959.0066064,E,2,9,1.0,13.768,M,40.582,M,1.4,0123*47\r\n
$GPGGA,154818.90,5700.7945400,N,00959.0066374,E,2,9,1.0,13.762,M,40.582,M,1.4,0123*42\r\n
$GPGGA,154818.95,5700.7945408,N,00959.0066708,E,2,9,1.0,13.765,M,40.582,M,1.4,0123*47\r\n
$GPGGA,154819.00,5700.7945410,N,00959.0067027,E,2,9,1.0,13.771,M,40.582,M,1.4,0123*4D\r\n
$GPGGA,154819.05,5700.7945390,N,00959.0067302,E,2,9,1.0,13.767,M,40.582,M,1.6,0123*46\r\n
$GPGGA,154819.10,5700.7945371,N,00959.0067595,E,2,9,1.0,13.768,M,40.582,M,1.6,0123*4A\r\n
$GPGGA,154819.15,5700.7945360,N,00959.0067935,E,2,9,1.0,13.770,M,40.582,M,1.6,0123*40\r\n
$GPGGA,154819.20,5700.7945362,N,00959.0068270,E,2,9,1.0,13.769,M,40.582,M,1.6,0123*49\r\n
$GPGGA,154819.25,5700.7945359,N,00959.0068593,E,2,9,1.0,13.773,M,40.582,M,1.9,0123*4A\r\n
$GPGGA,154819.30,5700.7945352,N,00959.0068927,E,2,9,1.0,13.771,M,40.582,M,1.9,0123*44\r\n
$GPGGA,154819.35,5700.7945347,N,00959.0069277,E,2,9,1.0,13.768,M,40.582,M,1.9,0123*42\r\n
$GPGGA,154819.40,5700.7945343,N,00959.0069614,E,2,9,1.0,13.766,M,40.582,M,1.9,0123*4B\r\n
$GPGGA,154819.45,5700.7945338,N,00959.0069943,E,2,9,1.0,13.762,M,40.582,M,2.2,0123*43\r\n
$GPGGA,154819.50,5700.7945332,N,00959.0070291,E,2,9,1.0,13.763,M,40.582,M,2.2,0123*40\r\n
$GPGGA,154819.55,5700.7945330,N,00959.0070647,E,2,9,1.0,13.767,M,40.582,M,2.2,0123*4C\r\n
$GPGGA,154819.60,5700.7945328,N,00959.0070994,E,2,9,1.0,13.770,M,40.582,M,2.2,0123*44\r\n
$GPGGA,154819.65,5700.7945329,N,00959.0071362,E,2,9,1.0,13.782,M,40.582,M,2.4,0123*49\r\n
$GPGGA,154819.70,5700.7945318,N,00959.0071736,E,2,9,1.0,13.780,M,40.582,M,2.4,0123*48\r\n
$GPGGA,154819.75,5700.7945309,N,00959.0072145,E,2,9,1.0,13.780,M,40.582,M,2.4,0123*4C\r\n
$GPGGA,154819.80,5700.7945314,N,00959.0072537,E,2,9,1.0,13.782,M,40.582,M,2.4,0123*49\r\n
$GPGGA,154819.85,5700.7945314,N,00959.0072899,E,2,9,1.0,13.776,M,40.582,M,1.2,0123*4B\r\n
$GPGGA,154819.90,5700.7945298,N,00959.0073272,E,2,9,1.0,13.777,M,40.582,M,1.2,0123*45\r\n
$GPGGA,154819.95,5700.7945283,N,00959.0073642,E,2,9,1.0,13.775,M,40.582,M,1.2,0123*4F\r\n
$GPGGA,154820.00,5700.7945286,N,00959.0074020,E,2,9,1.0,13.774,M,40.582,M,1.2,0123*48\r\n
$GPGGA,154820.05,5700.7945304,N,00959.0074437,E,2,9,1.0,13.782,M,40.582,M,1.4,0123*4B\r\n
$GPGGA,154820.10,5700.7945302,N,00959.0074832,E,2,9,1.0,13.780,M,40.582,M,1.4,0123*42\r\n
$GPGGA,154820.15,5700.7945296,N,00959.0075256,E,2,9,1.0,13.778,M,40.582,M,1.4,0123*45\r\n
$GPGGA,154820.20,5700.7945286,N,00959.0075677,E,2,9,1.0,13.777,M,40.582,M,1.4,0123*4A\r\n
$GPGGA,154820.25,5700.7945286,N,00959.0076101,E,2,9,1.0,13.778,M,40.582,M,1.6,0123*47\r\n
$GPGGA,154820.30,5700.7945282,N,00959.0076521,E,2,9,1.0,13.777,M,40.582,M,1.6,0123*4E\r\n
$GPGGA,154820.35,5700.7945277,N,00959.0076927,E,2,9,1.0,13.777,M,40.582,M,1.6,0123*4B\r\n
$GPGGA,154820.40,5700.7945281,N,00959.0077334,E,2,9,1.0,13.778,M,40.582,M,1.6,0123*46\r\n
$GPGGA,154820.45,5700.7945273,N,00959.0077727,E,2,9,1.0,13.770,M,40.582,M,1.9,0123*4F\r\n
$GPGGA,154820.50,5700.7945267,N,00959.0078115,E,2,9,1.0,13.770,M,40.582,M,1.9,0123*46\r\n
$GPGGA,154820.55,5700.7945259,N,00959.0078525,E,2,9,1.0,13.773,M,40.582,M,1.9,0123*4A\r\n
$GPGGA,154820.60,5700.7945259,N,00959.0078977,E,2,9,1.0,13.779,M,40.582,M,1.9,0123*4D\r\n
$GPGGA,154820.65,5700.7945259,N,00959.0079436,E,2,9,1.0,13.792,M,40.582,M,2.1,0123*4F\r\n
$GPGGA,154820.70,5700.7945253,N,00959.0079870,E,2,9,1.0,13.792,M,40.582,M,2.1,0123*4F\r\n
$GPGGA,154820.75,5700.7945236,N,00959.0080308,E,2,9,1.0,13.791,M,40.582,M,2.1,0123*48\r\n
$GPGGA,154820.80,5700.7945214,N,00959.0080715,E,2,9,1.0,13.785,M,40.582,M,2.1,0123*4F\r\n
$GPGGA,154820.85,5700.7945189,N,00959.0081116,E,2,9,1.0,13.772,M,40.582,M,2.3,0123*43\r\n
$GPGGA,154820.90,5700.7945189,N,00959.0081527,E,2,9,1.0,13.775,M,40.582,M,2.3,0123*46\r\n
$GPGGA,154820.95,5700.7945187,N,00959.0081950,E,2,9,1.0,13.777,M,40.582,M,2.3,0123*43\r\n
$GPGGA,154821.00,5700.7945178,N,00959.0082378,E,2,9,1.0,13.778,M,40.582,M,2.3,0123*42\r\n
$GPGGA,154821.05,5700.7945178,N,00959.0082813,E,2,9,1.0,13.782,M,40.582,M,2.5,0123*42\r\n
$GPGGA,154821.10,5700.7945171,N,00959.0083255,E,2,9,1.0,13.782,M,40.582,M,2.5,0123*46\r\n
$GPGGA,154821.15,5700.7945168,N,00959.0083696,E,2,9,1.0,13.783,M,40.582,M,2.5,0123*41\r\n
$GPGGA,154821.20,5700.7945159,N,00959.0084110,E,2,9,1.0,13.779,M,40.582,M,2.5,0123*4E\r\n
$GPGGA,154821.25,5700.7945159,N,00959.0084558,E,2,9,1.0,13.776,M,40.582,M,2.7,0123*4E\r\n
$GPGGA,154821.30,5700.7945160,N,00959.0084963,E,2,9,1.0,13.778,M,40.582,M,2.7,0123*4A\r\n
$GPGGA,154821.35,5700.7945141,N,00959.0085332,E,2,9,1.0,13.780,M,40.582,M,2.7,0123*44\r\n
$GPGGA,154821.40,5700.7945130,N,00959.0085741,E,2,9,1.0,13.782,M,40.582,M,2.7,0123*42\r\n
$GPGGA,154821.45,5700.7945128,N,00959.0086158,E,2,9,1.0,13.789,M,40.582,M,2.9,0123*46\r\n
$GPGGA,154821.50,5700.7945145,N,00959.0086574,E,2,9,1.0,13.790,M,40.582,M,2.9,0123*4B\r\n
$GPGGA,154821.55,5700.7945142,N,00959.0087000,E,2,9,1.0,13.791,M,40.582,M,2.9,0123*4F\r\n
$GPGGA,154821.60,5700.7945105,N,00959.0087406,E,2,9,1.0,13.791,M,40.582,M,2.9,0123*48\r\n
$GPGGA,154821.65,5700.7945078,N,00959.0087815,E,2,9,1.0,13.789,M,40.582,M,3.1,0123*48\r\n
$GPGGA,154821.70,5700.7945076,N,00959.0088224,E,2,9,1.0,13.788,M,40.582,M,3.1,0123*44\r\n
$GPGGA,154821.75,5700.7945061,N,00959.0088623,E,2,9,1.0,13.790,M,40.582,M,3.1,0123*4D\r\n
$GPGGA,154821.80,5700.7945055,N,00959.0089031,E,2,9,1.0,13.791,M,40.582,M,3.1,0123*45\r\n
$GPGGA,154821.85,5700.7945048,N,00959.0089423,E,2,9,1.0,13.792,M,40.582,M,2.4,0123*4C\r\n
$GPGGA,154821.90,5700.7945018,N,00959.0089793,E,2,9,1.0,13.794,M,40.582,M,2.4,0123*43\r\n
$GPGGA,154821.95,5700.7944996,N,00959.0090187,E,2,9,1.0,13.799,M,40.582,M,2.4,0123*4E\r\n
$GPGGA,154822.00,5700.7945003,N,00959.0090585,E,2,9,1.0,13.803,M,40.582,M,2.4,0123*4F\r\n
$GPGGA,154822.05,5700.7945003,N,00959.0091013,E,2,9,1.0,13.804,M,40.582,M,2.7,0123*45\r\n
$GPGGA,154822.10,5700.7944990,N,00959.0091427,E,2,9,1.0,13.802,M,40.582,M,2.7,0123*46\r\n
$GPGGA,154822.15,5700.7945001,N,00959.0091842,E,2,9,1.0,13.801,M,40.582,M,2.7,0123*4F\r\n
$GPGGA,154822.20,5700.7945000,N,00959.0092246,E,2,9,1.0,13.801,M,40.582,M,2.7,0123*45\r\n
$GPGGA,154822.25,5700.7945004,N,00959.0092638,E,2,9,1.0,13.800,M,40.582,M,3.0,0123*4E\r\n
$GPGGA,154822.30,5700.7945008,N,00959.0093031,E,2,9,1.0,13.800,M,40.582,M,3.0,0123*48\r\n
$GPGGA,154822.35,5700.7945004,N,00959.0093406,E,2,9,1.0,13.802,M,40.582,M,3.0,0123*43\r\n
$GPGGA,154822.40,5700.7944993,N,00959.0093793,E,2,9,1.0,13.806,M,40.582,M,3.0,0123*4C\r\n
$GPGGA,154822.45,5700.7944983,N,00959.0094184,E,2,9,1.0,13.805,M,40.582,M,3.2,0123*4E\r\n
$GPGGA,154822.50,5700.7944980,N,00959.0094558,E,2,9,1.0,13.805,M,40.582,M,3.2,0123*4C\r\n
$GPGGA,154822.55,5700.7944978,N,00959.0094941,E,2,9,1.0,13.803,M,40.582,M,3.2,0123*4C\r\n
$GPGGA,154822.60,5700.7944973,N,00959.0095367,E,2,9,1.0,13.803,M,40.582,M,3.2,0123*4E\r\n
$GPGGA,154822.65,5700.7944949,N,00959.0095759,E,2,9,1.0,13.800,M,40.582,M,3.5,0123*4F\r\n
$GPGGA,154822.70,5700.7944936,N,00959.0096149,E,2,9,1.0,13.799,M,40.582,M,3.5,0123*48\r\n
$GPGGA,154822.75,5700.7944923,N,00959.0096558,E,2,9,1.0,13.801,M,40.582,M,3.5,0123*43\r\n
$GPGGA,154822.80,5700.7944906,N,00959.0096948,E,2,9,1.0,13.798,M,40.582,M,3.5,0123*4C\r\n
$GPGGA,154822.85,5700.7944889,N,00959.0097377,E,2,9,1.0,13.802,M,40.582,M,1.4,0123*47\r\n
$GPGGA,154822.90,5700.7944877,N,00959.0097789,E,2,9,1.0,13.803,M,40.582,M,1.4,0123*46\r\n
$GPGGA,154822.95,5700.7944868,N,00959.0098172,E,2,9,1.0,13.809,M,40.582,M,1.4,0123*4A\r\n
$GPGGA,154823.00,5700.7944859,N,00959.0098580,E,2,9,1.0,13.813,M,40.582,M,1.4,0123*47\r\n
$GPGGA,154823.05,5700.7944851,N,00959.0098994,E,2,9,1.0,13.806,M,40.582,M,1.6,0123*45\r\n
$GPGGA,154823.10,5700.7944854,N,00959.0099424,E,2,9,1.0,13.804,M,40.582,M,1.6,0123*41\r\n
$GPGGA,154823.15,5700.7944860,N,00959.0099830,E,2,9,1.0,13.803,M,40.582,M,1.6,0123*4D\r\n
$GPGGA,154823.20,5700.7944856,N,00959.0100224,E,2,9,1.0,13.802,M,40.582,M,1.6,0123*41\r\n
$GPGGA,154823.25,5700.7944843,N,00959.0100641,E,2,9,1.0,13.805,M,40.582,M,1.9,0123*4F\r\n
$GPGGA,154823.30,5700.7944831,N,00959.0101048,E,2,9,1.0,13.809,M,40.582,M,1.9,0123*4C\r\n
$GPGGA,154823.35,5700.7944836,N,00959.0101442,E,2,9,1.0,13.811,M,40.582,M,1.9,0123*49\r\n
$GPGGA,154823.40,5700.7944846,N,00959.0101839,E,2,9,1.0,13.814,M,40.582,M,1.9,0123*49\r\n
$GPGGA,154823.45,5700.7944831,N,00959.0102252,E,2,9,1.0,13.808,M,40.582,M,2.2,0123*4D\r\n
$GPGGA,154823.50,5700.7944824,N,00959.0102659,E,2,9,1.0,13.805,M,40.582,M,2.2,0123*4F\r\n
$GPGGA,154823.55,5700.7944824,N,00959.0103089,E,2,9,1.0,13.805,M,40.582,M,2.2,0123*40\r\n
$GPGGA,154823.60,5700.7944795,N,00959.0103556,E,2,9,1.0,13.808,M,40.582,M,2.2,0123*49\r\n
$GPGGA,154823.65,5700.7944779,N,00959.0104001,E,2,9,1.0,13.812,M,40.582,M,2.4,0123*43\r\n
$GPGGA,154823.70,5700.7944776,N,00959.0104444,E,2,9,1.0,13.812,M,40.582,M,2.4,0123*4D\r\n
$GPGGA,154823.75,5700.7944771,N,00959.0104871,E,2,9,1.0,13.813,M,40.582,M,2.4,0123*44\r\n
$GPGGA,154823.80,5700.7944766,N,00959.0105285,E,2,9,1.0,13.812,M,40.582,M,2.4,0123*49\r\n
$GPGGA,154823.85,5700.7944752,N,00959.0105705,E,2,9,1.0,13.803,M,40.582,M,1.2,0123*43\r\n
$GPGGA,154823.90,5700.7944741,N,00959.0106129,E,2,9,1.0,13.807,M,40.582,M,1.2,0123*4A\r\n
$GPGGA,154823.95,5700.7944739,N,00959.0106542,E,2,9,1.0,13.810,M,40.582,M,1.2,0123*4F\r\n
$GPGGA,154824.00,5700.7944747,N,00959.0106964,E,2,9,1.0,13.811,M,40.582,M,1.2,0123*44\r\n
$GPGGA,154824.05,5700.7944773,N,00959.0107399,E,2,9,1.0,13.816,M,40.582,M,1.4,0123*4E\r\n
$GPGGA,154824.10,5700.7944793,N,00959.0107829,E,2,9,1.0,13.816,M,40.582,M,1.4,0123*44\r\n
$GPGGA,154824.15,5700.7944812,N,00959.0108276,E,2,9,1.0,13.815,M,40.582,M,1.4,0123*4B\r\n
$GPGGA,154824.20,5700.7944822,N,00959.0108725,E,2,9,1.0,13.816,M,40.582,M,1.4,0123*4E\r\n
$GPGGA,154824.25,5700.7944832,N,00959.0109142,E,2,9,1.0,13.811,M,40.582,M,1.6,0123*49\r\n
$GPGGA,154824.30,5700.7944849,N,00959.0109545,E,2,9,1.0,13.814,M,40.582,M,1.6,0123*47\r\n
$GPGGA,154824.35,5700.7944861,N,00959.0109960,E,2,9,1.0,13.820,M,40.582,M,1.6,0123*44\r\n
$GPGGA,154824.40,5700.7944872,N,00959.0110378,E,2,9,1.0,13.824,M,40.582,M,1.6,0123*4B\r\n
$GPGGA,154824.45,5700.7944879,N,00959.0110828,E,2,9,1.0,13.834,M,40.582,M,1.9,0123*45\r\n
$GPGGA,154824.50,5700.7944875,N,00959.0111265,E,2,9,1.0,13.834,M,40.582,M,1.9,0123*4F\r\n
$GPGGA,154824.55,5700.7944873,N,00959.0111706,E,2,9,1.0,13.830,M,40.582,M,1.9,0123*48\r\n
$GPGGA,154824.60,5700.7944877,N,00959.0112148,E,2,9,1.0,13.828,M,40.582,M,1.9,0123*4C\r\n
$GPGGA,154824.65,5700.7944867,N,00959.0112552,E,2,9,1.0,13.821,M,40.582,M,2.1,0123*45\r\n
$GPGGA,154824.70,5700.7944852,N,00959.0113017,E,2,9,1.0,13.819,M,40.582,M,2.1,0123*49\r\n
$GPGGA,154824.75,5700.7944857,N,00959.0113465,E,2,9,1.0,13.818,M,40.582,M,2.1,0123*49\r\n
$GPGGA,154824.80,5700.7944850,N,00959.0113885,E,2,9,1.0,13.816,M,40.582,M,2.1,0123*48\r\n
$GPGGA,154824.85,5700.7944826,N,00959.0114342,E,2,9,1.0,13.822,M,40.582,M,2.3,0123*4E\r\n
$GPGGA,154824.90,5700.7944816,N,00959.0114735,E,2,9,1.0,13.825,M,40.582,M,2.3,0123*4A\r\n
$GPGGA,154824.95,5700.7944814,N,00959.0115123,E,2,9,1.0,13.827,M,40.582,M,2.3,0123*4F\r\n
$GPGGA,154825.00,5700.7944806,N,00959.0115546,E,2,9,1.0,13.829,M,40.582,M,2.3,0123*48\r\n
$GPGGA,154825.05,5700.7944805,N,00959.0115967,E,2,9,1.0,13.827,M,40.582,M,2.5,0123*49\r\n
$GPGGA,154825.10,5700.7944806,N,00959.0116420,E,2,9,1.0,13.826,M,40.582,M,2.5,0123*42\r\n
$GPGGA,154825.15,5700.7944821,N,00959.0116847,E,2,9,1.0,13.822,M,40.582,M,2.5,0123*4B\r\n
$GPGGA,154825.20,5700.7944843,N,00959.0117291,E,2,9,1.0,13.818,M,40.582,M,2.5,0123*40\r\n
$GPGGA,154825.25,5700.7944865,N,00959.0117716,E,2,9,1.0,13.817,M,40.582,M,2.7,0123*46\r\n
$GPGGA,154825.30,5700.7944882,N,00959.0118080,E,2,9,1.0,13.821,M,40.582,M,2.7,0123*49\r\n
$GPGGA,154825.35,5700.7944895,N,00959.0118473,E,2,9,1.0,13.826,M,40.582,M,2.7,0123*45\r\n
$GPGGA,154825.40,5700.7944911,N,00959.0118883,E,2,9,1.0,13.828,M,40.582,M,2.7,0123*47\r\n
$GPGGA,154825.45,5700.7944917,N,00959.0119299,E,2,9,1.0,13.834,M,40.582,M,2.9,0123*47\r\n
$GPGGA,154825.50,5700.7944894,N,00959.0119719,E,2,9,1.0,13.834,M,40.582,M,2.9,0123*44\r\n
$GPGGA,154825.55,5700.7944885,N,00959.0120178,E,2,9,1.0,13.835,M,40.582,M,2.9,0123*4B\r\n
$GPGGA,154825.60,5700.7944872,N,00959.0120631,E,2,9,1.0,13.832,M,40.582,M,2.9,0123*48\r\n
$GPGGA,154825.65,5700.7944874,N,00959.0121068,E,2,9,1.0,13.824,M,40.582,M,3.1,0123*4E\r\n
$GPGGA,154825.70,5700.7944864,N,00959.0121493,E,2,9,1.0,13.822,M,40.582,M,3.1,0123*4D\r\n
$GPGGA,154825.75,5700.7944841,N,00959.0121894,E,2,9,1.0,13.825,M,40.582,M,3.1,0123*43\r\n
$GPGGA,154825.80,5700.7944830,N,00959.0122291,E,2,9,1.0,13.828,M,40.582,M,3.1,0123*4E\r\n
$GPGGA,154825.85,5700.7944826,N,00959.0122702,E,2,9,1.0,13.832,M,40.582,M,2.4,0123*4C\r\n
$GPGGA,154825.90,5700.7944813,N,00959.0123102,E,2,9,1.0,13.836,M,40.582,M,2.4,0123*4D\r\n
$GPGGA,154825.95,5700.7944817,N,00959.0123507,E,2,9,1.0,13.836,M,40.582,M,2.4,0123*4D\r\n
$GPGGA,154826.00,5700.7944818,N,00959.0123926,E,2,9,1.0,13.834,M,40.582,M,2.4,0123*40\r\n
$GPGGA,154826.05,5700.7944836,N,00959.0124355,E,2,9,1.0,13.831,M,40.582,M,2.7,0123*46\r\n
$GPGGA,154826.10,5700.7944852,N,00959.0124784,E,2,9,1.0,13.829,M,40.582,M,2.7,0123*41\r\n
$GPGGA,154826.15,5700.7944846,N,00959.0125205,E,2,9,1.0,13.826,M,40.582,M,2.7,0123*43\r\n
$GPGGA,154826.20,5700.7944853,N,00959.0125638,E,2,9,1.0,13.827,M,40.582,M,2.7,0123*4A\r\n
$GPGGA,154826.25,5700.7944862,N,00959.0126044,E,2,9,1.0,13.827,M,40.582,M,3.0,0123*45\r\n
$GPGGA,154826.30,5700.7944862,N,00959.0126417,E,2,9,1.0,13.829,M,40.582,M,3.0,0123*4D\r\n
$GPGGA,154826.35,5700.7944856,N,00959.0126805,E,2,9,1.0,13.834,M,40.582,M,3.0,0123*4C\r\n
$GPGGA,154826.40,5700.7944853,N,00959.0127221,E,2,9,1.0,13.838,M,40.582,M,3.0,0123*4A\r\n
$GPGGA,154826.45,5700.7944857,N,00959.0127614,E,2,9,1.0,13.845,M,40.582,M,3.2,0123*41\r\n
$GPGGA,154826.50,5700.7944855,N,00959.0128029,E,2,9,1.0,13.844,M,40.582,M,3.2,0123*41\r\n
$GPGGA,154826.55,5700.7944847,N,00959.0128469,E,2,9,1.0,13.840,M,40.582,M,3.2,0123*43\r\n
$GPGGA,154826.60,5700.7944837,N,00959.0128904,E,2,9,1.0,13.837,M,40.582,M,3.2,0123*44\r\n
$GPGGA,154826.65,5700.7944809,N,00959.0129346,E,2,9,1.0,13.828,M,40.582,M,3.5,0123*48\r\n
$GPGGA,154826.70,5700.7944783,N,00959.0129798,E,2,9,1.0,13.826,M,40.582,M,3.5,0123*48\r\n
$GPGGA,154826.75,5700.7944755,N,00959.0130202,E,2,9,1.0,13.823,M,40.582,M,3.5,0123*4D\r\n
$GPGGA,154826.80,5700.7944727,N,00959.0130579,E,2,9,1.0,13.824,M,40.582,M,3.5,0123*4E\r\n
$GPGGA,154826.85,5700.7944704,N,00959.0130978,E,2,9,1.0,13.832,M,40.582,M,1.4,0123*43\r\n
$GPGGA,154826.90,5700.7944707,N,00959.0131377,E,2,9,1.0,13.834,M,40.582,M,1.4,0123*46\r\n
$GPGGA,154826.95,5700.7944706,N,00959.0131768,E,2,9,1.0,13.832,M,40.582,M,1.4,0123*4E\r\n
$GPGGA,154827.00,5700.7944700,N,00959.0132184,E,2,9,1.0,13.829,M,40.582,M,1.4,0123*48\r\n
$GPGGA,154827.05,5700.7944720,N,00959.0132619,E,2,9,1.0,13.829,M,40.582,M,1.6,0123*4E\r\n
$GPGGA,154827.10,5700.7944730,N,00959.0133049,E,2,9,1.0,13.829,M,40.582,M,1.6,0123*49\r\n
$GPGGA,154827.15,5700.7944734,N,00959.0133478,E,2,9,1.0,13.827,M,40.582,M,1.6,0123*40\r\n
$GPGGA,154827.20,5700.7944749,N,00959.0133865,E,2,9,1.0,13.821,M,40.582,M,1.6,0123*4A\r\n
$GPGGA,154827.25,5700.7944772,N,00959.0134243,E,2,9,1.0,13.823,M,40.582,M,1.9,0123*43\r\n
$GPGGA,154827.30,5700.7944814,N,00959.0134606,E,2,9,1.0,13.828,M,40.582,M,1.9,0123*46\r\n
$GPGGA,154827.35,5700.7944849,N,00959.0134969,E,2,9,1.0,13.836,M,40.582,M,1.9,0123*42\r\n
$GPGGA,154827.40,5700.7944889,N,00959.0135346,E,2,9,1.0,13.843,M,40.582,M,1.9,0123*48\r\n
$GPGGA,154827.45,5700.7944928,N,00959.0135706,E,2,9,1.0,13.842,M,40.582,M,2.2,0123*4E\r\n
$GPGGA,154827.50,5700.7944960,N,00959.0136050,E,2,9,1.0,13.843,M,40.582,M,2.2,0123*40\r\n
$GPGGA,154827.55,5700.7944982,N,00959.0136442,E,2,9,1.0,13.839,M,40.582,M,2.2,0123*43\r\n
$GPGGA,154827.60,5700.7945007,N,00959.0136843,E,2,9,1.0,13.831,M,40.582,M,2.2,0123*45\r\n
$GPGGA,154827.65,5700.7945033,N,00959.0137252,E,2,9,1.0,13.824,M,40.582,M,2.4,0123*4E\r\n
$GPGGA,154827.70,5700.7945066,N,00959.0137666,E,2,9,1.0,13.826,M,40.582,M,2.4,0123*4B\r\n
$GPGGA,154827.75,5700.7945123,N,00959.0138020,E,2,9,1.0,13.821,M,40.582,M,2.4,0123*42\r\n
$GPGGA,154827.80,5700.7945175,N,00959.0138361,E,2,9,1.0,13.815,M,40.582,M,2.4,0123*4A\r\n
$GPGGA,154827.85,5700.7945233,N,00959.0138745,E,2,9,1.0,13.827,M,40.582,M,1.2,0123*48\r\n
$GPGGA,154827.90,5700.7945289,N,00959.0139123,E,2,9,1.0,13.832,M,40.582,M,1.2,0123*4E\r\n
$GPGGA,154827.95,5700.7945368,N,00959.0139501,E,2,9,1.0,13.837,M,40.582,M,1.2,0123*44\r\n
$GPGGA,154828.00,5700.7945451,N,00959.0139875,E,2,9,1.0,13.840,M,40.582,M,1.2,0123*44\r\n
$GPGGA,154828.05,5700.7945535,N,00959.0140255,E,2,9,1.0,13.842,M,40.582,M,1.4,0123*40\r\n
$GPGGA,154828.10,5700.7945609,N,00959.0140656,E,2,9,1.0,13.839,M,40.582,M,1.4,0123*43\r\n
$GPGGA,154828.15,5700.7945695,N,00959.0141047,E,2,9,1.0,13.837,M,40.582,M,1.4,0123*4A\r\n
$GPGGA,154828.20,5700.7945769,N,00959.0141424,E,2,9,1.0,13.837,M,40.582,M,1.4,0123*4F\r\n
$GPGGA,154828.25,5700.7945830,N,00959.0141788,E,2,9,1.0,13.827,M,40.582,M,1.6,0123*4F\r\n
$GPGGA,154828.30,5700.7945900,N,00959.0142115,E,2,9,1.0,13.829,M,40.582,M,1.6,0123*46\r\n
$GPGGA,154828.35,5700.7945979,N,00959.0142433,E,2,9,1.0,13.834,M,40.582,M,1.6,0123*40\r\n
$GPGGA,154828.40,5700.7946051,N,00959.0142764,E,2,9,1.0,13.836,M,40.582,M,1.6,0123*41\r\n
$GPGGA,154828.45,5700.7946112,N,00959.0143135,E,2,9,1.0,13.846,M,40.582,M,1.9,0123*49\r\n
$GPGGA,154828.50,5700.7946173,N,00959.0143505,E,2,9,1.0,13.845,M,40.582,M,1.9,0123*4E\r\n
$GPGGA,154828.55,5700.7946226,N,00959.0143870,E,2,9,1.0,13.842,M,40.582,M,1.9,0123*40\r\n
$GPGGA,154828.60,5700.7946237,N,00959.0144254,E,2,9,1.0,13.836,M,40.582,M,1.9,0123*4E\r\n
$GPGGA,154828.65,5700.7946235,N,00959.0144590,E,2,9,1.0,13.822,M,40.582,M,2.1,0123*48\r\n
$GPGGA,154828.70,5700.7946279,N,00959.0144954,E,2,9,1.0,13.823,M,40.582,M,2.1,0123*41\r\n
$GPGGA,154828.75,5700.7946334,N,00959.0145329,E,2,9,1.0,13.826,M,40.582,M,2.1,0123*48\r\n
$GPGGA,154828.80,5700.7946351,N,00959.0145707,E,2,9,1.0,13.828,M,40.582,M,2.1,0123*47\r\n
$GPGGA,154828.85,5700.7946374,N,00959.0146042,E,2,9,1.0,13.842,M,40.582,M,2.3,0123*4E\r\n
$GPGGA,154828.90,5700.7946409,N,00959.0146365,E,2,9,1.0,13.849,M,40.582,M,2.3,0123*4A\r\n
$GPGGA,154828.95,5700.7946430,N,00959.0146723,E,2,9,1.0,13.853,M,40.582,M,2.3,0123*48\r\n
$GPGGA,154829.00,5700.7946427,N,00959.0147087,E,2,9,1.0,13.856,M,40.582,M,2.3,0123*4E\r\n
$GPGGA,154829.05,5700.7946446,N,00959.0147445,E,2,9,1.0,13.854,M,40.582,M,2.5,0123*42\r\n
$GPGGA,154829.10,5700.7946458,N,00959.0147840,E,2,9,1.0,13.852,M,40.582,M,2.5,0123*46\r\n
$GPGGA,154829.15,5700.7946455,N,00959.0148228,E,2,9,1.0,13.851,M,40.582,M,2.5,0123*46\r\n
$GPGGA,154829.20,5700.7946451,N,00959.0148592,E,2,9,1.0,13.851,M,40.582,M,2.5,0123*42\r\n
$GPGGA,154829.25,5700.7946446,N,00959.0148941,E,2,9,1.0,13.845,M,40.582,M,2.7,0123*44\r\n
$GPGGA,154829.30,5700.7946434,N,00959.0149305,E,2,9,1.0,13.848,M,40.582,M,2.7,0123*43\r\n
$GPGGA,154829.35,5700.7946398,N,00959.0149682,E,2,9,1.0,13.849,M,40.582,M,2.7,0123*4C\r\n
$GPGGA,154829.40,5700.7946369,N,00959.0150050,E,2,9,1.0,13.845,M,40.582,M,2.7,0123*4D\r\n
$GPGGA,154829.45,5700.7946327,N,00959.0150442,E,2,9,1.0,13.848,M,40.582,M,2.9,0123*46\r\n
$GPGGA,154829.50,5700.7946275,N,00959.0150858,E,2,9,1.0,13.850,M,40.582,M,2.9,0123*4A\r\n
$GPGGA,154829.55,5700.7946247,N,00959.0151273,E,2,9,1.0,13.853,M,40.582,M,2.9,0123*4F\r\n
$GPGGA,154829.60,5700.7946216,N,00959.0151644,E,2,9,1.0,13.853,M,40.582,M,2.9,0123*4D\r\n
$GPGGA,154829.65,5700.7946168,N,00959.0152001,E,2,9,1.0,13.847,M,40.582,M,3.1,0123*4A\r\n
$GPGGA,154829.70,5700.7946113,N,00959.0152397,E,2,9,1.0,13.851,M,40.582,M,3.1,0123*49\r\n
$GPGGA,154829.75,5700.7946060,N,00959.0152775,E,2,9,1.0,13.854,M,40.582,M,3.1,0123*44\r\n
$GPGGA,154829.80,5700.7946025,N,00959.0153132,E,2,9,1.0,13.855,M,40.582,M,3.1,0123*4A\r\n
$GPGGA,154829.85,5700.7945983,N,00959.0153492,E,2,9,1.0,13.857,M,40.582,M,2.4,0123*40\r\n
$GPGGA,154829.90,5700.7945929,N,00959.0153862,E,2,9,1.0,13.859,M,40.582,M,2.4,0123*49\r\n
$GPGGA,154829.95,5700.7945895,N,00959.0154223,E,2,9,1.0,13.861,M,40.582,M,2.4,0123*49\r\n
$GPGGA,154830.00,5700.7945880,N,00959.0154615,E,2,9,1.0,13.862,M,40.582,M,2.4,0123*4B\r\n
$GPGGA,154830.05,5700.7945853,N,00959.0155004,E,2,9,1.0,13.858,M,40.582,M,2.7,0123*4D\r\n
$GPGGA,154830.10,5700.7945793,N,00959.0155387,E,2,9,1.0,13.856,M,40.582,M,2.7,0123*4C\r\n
$GPGGA,154830.15,5700.7945741,N,00959.0155747,E,2,9,1.0,13.858,M,40.582,M,2.7,0123*40\r\n
$GPGGA,154830.20,5700.7945695,N,00959.0156100,E,2,9,1.0,13.864,M,40.582,M,2.7,0123*47\r\n
$GPGGA,154830.25,5700.7945639,N,00959.0156442,E,2,9,1.0,13.867,M,40.582,M,3.0,0123*42\r\n
$GPGGA,154830.30,5700.7945584,N,00959.0156808,E,2,9,1.0,13.867,M,40.582,M,3.0,0123*41\r\n
$GPGGA,154830.35,5700.7945553,N,00959.0157188,E,2,9,1.0,13.863,M,40.582,M,3.0,0123*4A\r\n
$GPGGA,154830.40,5700.7945515,N,00959.0157569,E,2,9,1.0,13.858,M,40.582,M,3.0,0123*49\r\n
$GPGGA,154830.45,5700.7945452,N,00959.0157974,E,2,9,1.0,13.844,M,40.582,M,3.2,0123*41\r\n
$GPGGA,154830.50,5700.7945393,N,00959.0158407,E,2,9,1.0,13.847,M,40.582,M,3.2,0123*4A\r\n
$GPGGA,154830.55,5700.7945337,N,00959.0158776,E,2,9,1.0,13.846,M,40.582,M,3.2,0123*45\r\n
$GPGGA,154830.60,5700.7945271,N,00959.0159089,E,2,9,1.0,13.842,M,40.582,M,3.2,0123*42\r\n
$GPGGA,154830.65,5700.7945208,N,00959.0159435,E,2,9,1.0,13.858,M,40.582,M,3.5,0123*46\r\n
$GPGGA,154830.70,5700.7945142,N,00959.0159774,E,2,9,1.0,13.864,M,40.582,M,3.5,0123*46\r\n
$GPGGA,154830.75,5700.7945083,N,00959.0160113,E,2,9,1.0,13.868,M,40.582,M,3.5,0123*4E\r\n
$GPGGA,154830.80,5700.7945032,N,00959.0160482,E,2,9,1.0,13.869,M,40.582,M,3.5,0123*42\r\n
$GPGGA,154830.85,5700.7944992,N,00959.0160858,E,2,9,1.0,13.865,M,40.582,M,1.4,0123*41\r\n
$GPGGA,154830.90,5700.7944954,N,00959.0161231,E,2,9,1.0,13.861,M,40.582,M,1.4,0123*4F\r\n
$GPGGA,154830.95,5700.7944910,N,00959.0161625,E,2,9,1.0,13.856,M,40.582,M,1.4,0123*4F\r\n
$GPGGA,154831.00,5700.7944870,N,00959.0162006,E,2,9,1.0,13.851,M,40.582,M,1.4,0123*46\r\n
$GPGGA,154831.05,5700.7944830,N,00959.0162348,E,2,9,1.0,13.849,M,40.582,M,1.6,0123*45\r\n
$GPGGA,154831.10,5700.7944782,N,00959.0162664,E,2,9,1.0,13.854,M,40.582,M,1.6,0123*40\r\n
$GPGGA,154831.15,5700.7944733,N,00959.0163014,E,2,9,1.0,13.861,M,40.582,M,1.6,0123*49\r\n
$GPGGA,154831.20,5700.7944683,N,00959.0163401,E,2,9,1.0,13.863,M,40.582,M,1.6,0123*47\r\n
$GPGGA,154831.25,5700.7944628,N,00959.0163774,E,2,9,1.0,13.868,M,40.582,M,1.9,0123*46\r\n
$GPGGA,154831.30,5700.7944565,N,00959.0164123,E,2,9,1.0,13.863,M,40.582,M,1.9,0123*40\r\n
$GPGGA,154831.35,5700.7944501,N,00959.0164504,E,2,9,1.0,13.861,M,40.582,M,1.9,0123*44\r\n
$GPGGA,154831.40,5700.7944442,N,00959.0164885,E,2,9,1.0,13.860,M,40.582,M,1.9,0123*45\r\n
$GPGGA,154831.45,5700.7944373,N,00959.0165232,E,2,9,1.0,13.854,M,40.582,M,2.2,0123*4D\r\n
$GPGGA,154831.50,5700.7944289,N,00959.0165561,E,2,9,1.0,13.859,M,40.582,M,2.2,0123*41\r\n
$GPGGA,154831.55,5700.7944217,N,00959.0165859,E,2,9,1.0,13.865,M,40.582,M,2.2,0123*4A\r\n
$GPGGA,154831.60,5700.7944164,N,00959.0166170,E,2,9,1.0,13.869,M,40.582,M,2.2,0123*46\r\n
$GPGGA,154831.65,5700.7944121,N,00959.0166541,E,2,9,1.0,13.879,M,40.582,M,2.4,0123*43\r\n
$GPGGA,154831.70,5700.7944059,N,00959.0166911,E,2,9,1.0,13.879,M,40.582,M,2.4,0123*40\r\n
$GPGGA,154831.75,5700.7943999,N,00959.0167272,E,2,9,1.0,13.874,M,40.582,M,2.4,0123*45\r\n
$GPGGA,154831.80,5700.7943944,N,00959.0167638,E,2,9,1.0,13.871,M,40.582,M,2.4,0123*40\r\n
$GPGGA,154831.85,5700.7943879,N,00959.0167999,E,2,9,1.0,13.859,M,40.582,M,1.2,0123*41\r\n
$GPGGA,154831.90,5700.7943827,N,00959.0168360,E,2,9,1.0,13.856,M,40.582,M,1.2,0123*42\r\n
$GPGGA,154831.95,5700.7943783,N,00959.0168720,E,2,9,1.0,13.859,M,40.582,M,1.2,0123*49\r\n
$GPGGA,154832.00,5700.7943739,N,00959.0169081,E,2,9,1.0,13.864,M,40.582,M,1.2,0123*44\r\n
$GPGGA,154832.05,5700.7943697,N,00959.0169435,E,2,9,1.0,13.873,M,40.582,M,1.4,0123*4F\r\n
$GPGGA,154832.10,5700.7943636,N,00959.0169754,E,2,9,1.0,13.874,M,40.582,M,1.4,0123*43\r\n
$GPGGA,154832.15,5700.7943579,N,00959.0170073,E,2,9,1.0,13.875,M,40.582,M,1.4,0123*45\r\n
$GPGGA,154832.20,5700.7943526,N,00959.0170450,E,2,9,1.0,13.877,M,40.582,M,1.4,0123*4E\r\n
$GPGGA,154832.25,5700.7943466,N,00959.0170837,E,2,9,1.0,13.872,M,40.582,M,1.6,0123*44\r\n
$GPGGA,154832.30,5700.7943411,N,00959.0171194,E,2,9,1.0,13.868,M,40.582,M,1.6,0123*4A\r\n
$GPGGA,154832.35,5700.7943345,N,00959.0171555,E,2,9,1.0,13.865,M,40.582,M,1.6,0123*4D\r\n
$GPGGA,154832.40,5700.7943269,N,00959.0171921,E,2,9,1.0,13.867,M,40.582,M,1.6,0123*4D\r\n
$GPGGA,154832.45,5700.7943207,N,00959.0172269,E,2,9,1.0,13.873,M,40.582,M,1.9,0123*4E\r\n
$GPGGA,154832.50,5700.7943158,N,00959.0172618,E,2,9,1.0,13.880,M,40.582,M,1.9,0123*4D\r\n
$GPGGA,154832.55,5700.7943110,N,00959.0172954,E,2,9,1.0,13.886,M,40.582,M,1.9,0123*45\r\n
$GPGGA,154832.60,5700.7943066,N,00959.0173281,E,2,9,1.0,13.887,M,40.582,M,1.9,0123*40\r\n
$GPGGA,154832.65,5700.7943018,N,00959.0173628,E,2,9,1.0,13.889,M,40.582,M,2.1,0123*4E\r\n
$GPGGA,154832.70,5700.7942960,N,00959.0174013,E,2,9,1.0,13.887,M,40.582,M,2.1,0123*4A\r\n
$GPGGA,154832.75,5700.7942912,N,00959.0174386,E,2,9,1.0,13.883,M,40.582,M,2.1,0123*41\r\n
$GPGGA,154832.80,5700.7942877,N,00959.0174750,E,2,9,1.0,13.877,M,40.582,M,2.1,0123*4D\r\n
$GPGGA,154832.85,5700.7942833,N,00959.0175114,E,2,9,1.0,13.870,M,40.582,M,2.3,0123*4A\r\n
$GPGGA,154832.90,5700.7942807,N,00959.0175484,E,2,9,1.0,13.872,M,40.582,M,2.3,0123*47\r\n
$GPGGA,154832.95,5700.7942787,N,00959.0175845,E,2,9,1.0,13.875,M,40.582,M,2.3,0123*43\r\n
$GPGGA,154833.00,5700.7942778,N,00959.0176187,E,2,9,1.0,13.877,M,40.582,M,2.3,0123*48\r\n
$GPGGA,154833.05,5700.7942773,N,00959.0176550,E,2,9,1.0,13.881,M,40.582,M,2.5,0123*47\r\n
$GPGGA,154833.10,5700.7942753,N,00959.0176912,E,2,9,1.0,13.887,M,40.582,M,2.5,0123*4D\r\n
$GPGGA,154833.15,5700.7942708,N,00959.0177242,E,2,9,1.0,13.888,M,40.582,M,2.5,0123*46\r\n
$GPGGA,154833.20,5700.7942661,N,00959.0177598,E,2,9,1.0,13.888,M,40.582,M,2.5,0123*4E\r\n
$GPGGA,154833.25,5700.7942626,N,00959.0178001,E,2,9,1.0,13.888,M,40.582,M,2.7,0123*40\r\n
$GPGGA,154833.30,5700.7942587,N,00959.0178413,E,2,9,1.0,13.882,M,40.582,M,2.7,0123*41\r\n
$GPGGA,154833.35,5700.7942541,N,00959.0178817,E,2,9,1.0,13.878,M,40.582,M,2.7,0123*43\r\n
$GPGGA,154833.40,5700.7942491,N,00959.0179213,E,2,9,1.0,13.878,M,40.582,M,2.7,0123*42\r\n
$GPGGA,154833.45,5700.7942436,N,00959.0179593,E,2,9,1.0,13.879,M,40.582,M,2.9,0123*4A\r\n
$GPGGA,154833.50,5700.7942377,N,00959.0179964,E,2,9,1.0,13.880,M,40.582,M,2.9,0123*4E\r\n
$GPGGA,154833.55,5700.7942336,N,00959.0180321,E,2,9,1.0,13.882,M,40.582,M,2.9,0123*41\r\n
$GPGGA,154833.60,5700.7942291,N,00959.0180693,E,2,9,1.0,13.885,M,40.582,M,2.9,0123*40\r\n
$GPGGA,154833.65,5700.7942251,N,00959.0181057,E,2,9,1.0,13.890,M,40.582,M,3.1,0123*4B\r\n
$GPGGA,154833.70,5700.7942210,N,00959.0181438,E,2,9,1.0,13.892,M,40.582,M,3.1,0123*45\r\n
$GPGGA,154833.75,5700.7942185,N,00959.0181849,E,2,9,1.0,13.889,M,40.582,M,3.1,0123*4F\r\n
$GPGGA,154833.80,5700.7942142,N,00959.0182271,E,2,9,1.0,13.887,M,40.582,M,3.1,0123*42\r\n
$GPGGA,154833.85,5700.7942102,N,00959.0182682,E,2,9,1.0,13.879,M,40.582,M,2.4,0123*4E\r\n
$GPGGA,154833.90,5700.7942075,N,00959.0183084,E,2,9,1.0,13.880,M,40.582,M,2.4,0123*4C\r\n
$GPGGA,154833.95,5700.7942057,N,00959.0183456,E,2,9,1.0,13.879,M,40.582,M,2.4,0123*44\r\n
$GPGGA,154834.00,5700.7942042,N,00959.0183839,E,2,9,1.0,13.885,M,40.582,M,2.4,0123*4D\r\n
$GPGGA,154834.05,5700.7942044,N,00959.0184234,E,2,9,1.0,13.895,M,40.582,M,2.7,0123*4C\r\n
$GPGGA,154834.10,5700.7942027,N,00959.0184630,E,2,9,1.0,13.897,M,40.582,M,2.7,0123*4F\r\n
$GPGGA,154834.15,5700.7941996,N,00959.0185067,E,2,9,1.0,13.896,M,40.582,M,2.7,0123*4E\r\n
$GPGGA,154834.20,5700.7941961,N,00959.0185506,E,2,9,1.0,13.893,M,40.582,M,2.7,0123*47\r\n
$GPGGA,154834.25,5700.7941922,N,00959.0185929,E,2,9,1.0,13.883,M,40.582,M,3.0,0123*43\r\n
$GPGGA,154834.30,5700.7941885,N,00959.0186353,E,2,9,1.0,13.877,M,40.582,M,3.0,0123*44\r\n
$GPGGA,154834.35,5700.7941847,N,00959.0186751,E,2,9,1.0,13.874,M,40.582,M,3.0,0123*4A\r\n
$GPGGA,154834.40,5700.7941815,N,00959.0187138,E,2,9,1.0,13.878,M,40.582,M,3.0,0123*4B\r\n
$GPGGA,154834.45,5700.7941798,N,00959.0187536,E,2,9,1.0,13.886,M,40.582,M,3.2,0123*4D\r\n
$GPGGA,154834.50,5700.7941790,N,00959.0187945,E,2,9,1.0,13.891,M,40.582,M,3.2,0123*4F\r\n
$GPGGA,154834.55,5700.7941775,N,00959.0188348,E,2,9,1.0,13.893,M,40.582,M,3.2,0123*4B\r\n
$GPGGA,154834.60,5700.7941766,N,00959.0188777,E,2,9,1.0,13.890,M,40.582,M,3.2,0123*44\r\n
$GPGGA,154834.65,5700.7941760,N,00959.0189235,E,2,9,1.0,13.886,M,40.582,M,1.1,0123*43\r\n
$GPGGA,154834.70,5700.7941758,N,00959.0189687,E,2,9,1.0,13.881,M,40.582,M,1.1,0123*46\r\n
$GPGGA,154834.75,5700.7941760,N,00959.0190135,E,2,9,1.0,13.879,M,40.582,M,1.1,0123*49\r\n
$GPGGA,154834.80,5700.7941751,N,00959.0190550,E,2,9,1.0,13.878,M,40.582,M,1.1,0123*47\r\n
$GPGGA,154834.85,5700.7941752,N,00959.0190968,E,2,9,1.0,13.881,M,40.582,M,1.4,0123*45\r\n
$GPGGA,154834.90,5700.7941748,N,00959.0191354,E,2,9,1.0,13.885,M,40.582,M,1.4,0123*4A\r\n
$GPGGA,154834.95,5700.7941727,N,00959.0191739,E,2,9,1.0,13.889,M,40.582,M,1.4,0123*45\r\n
$GPGGA,154835.00,5700.7941701,N,00959.0192134,E,2,9,1.0,13.891,M,40.582,M,1.4,0123*4D\r\n
$GPGGA,154835.05,5700.7941677,N,00959.0192541,E,2,9,1.0,13.893,M,40.582,M,1.6,0123*4E\r\n
$GPGGA,154835.10,5700.7941657,N,00959.0192974,E,2,9,1.0,13.890,M,40.582,M,1.6,0123*41\r\n
$GPGGA,154835.15,5700.7941638,N,00959.0193428,E,2,9,1.0,13.884,M,40.582,M,1.6,0123*4D\r\n
$GPGGA,154835.20,5700.7941595,N,00959.0193844,E,2,9,1.0,13.875,M,40.582,M,1.6,0123*47\r\n
$GPGGA,154835.25,5700.7941556,N,00959.0194258,E,2,9,1.0,13.872,M,40.582,M,1.9,0123*45\r\n
$GPGGA,154835.30,5700.7941527,N,00959.0194678,E,2,9,1.0,13.877,M,40.582,M,1.9,0123*44\r\n
$GPGGA,154835.35,5700.7941510,N,00959.0195060,E,2,9,1.0,13.879,M,40.582,M,1.9,0123*45\r\n
$GPGGA,154835.40,5700.7941508,N,00959.0195430,E,2,9,1.0,13.882,M,40.582,M,1.9,0123*4B\r\n
$GPGGA,154835.45,5700.7941500,N,00959.0195827,E,2,9,1.0,13.892,M,40.582,M,2.2,0123*45\r\n
$GPGGA,154835.50,5700.7941488,N,00959.0196216,E,2,9,1.0,13.897,M,40.582,M,2.2,0123*4E\r\n
$GPGGA,154835.55,5700.7941496,N,00959.0196614,E,2,9,1.0,13.904,M,40.582,M,2.2,0123*49\r\n
$GPGGA,154835.60,5700.7941515,N,00959.0197020,E,2,9,1.0,13.911,M,40.582,M,2.2,0123*41\r\n
$GPGGA,154835.65,5700.7941534,N,00959.0197435,E,2,9,1.0,13.912,M,40.582,M,0.9,0123*4D\r\n
$GPGGA,154835.70,5700.7941554,N,00959.0197854,E,2,9,1.0,13.910,M,40.582,M,0.9,0123*46\r\n
$GPGGA,154835.75,5700.7941583,N,00959.0198265,E,2,9,1.0,13.910,M,40.582,M,0.9,0123*4E\r\n
$GPGGA,154835.80,5700.7941607,N,00959.0198661,E,2,9,1.0,13.912,M,40.582,M,0.9,0123*49\r\n
$GPGGA,154835.85,5700.7941624,N,00959.0199050,E,2,9,1.0,13.906,M,40.582,M,1.2,0123*47\r\n
$GPGGA,154835.90,5700.7941621,N,00959.0199444,E,2,9,1.0,13.912,M,40.582,M,1.2,0123*42\r\n
$GPGGA,154835.95,5700.7941615,N,00959.0199811,E,2,9,1.0,13.913,M,40.582,M,1.2,0123*4D\r\n
$GPGGA,154836.00,5700.7941619,N,00959.0200188,E,2,9,1.0,13.909,M,40.582,M,1.2,0123*4F\r\n
$GPGGA,154836.05,5700.7941608,N,00959.0200590,E,2,9,1.0,13.909,M,40.582,M,1.4,0123*41\r\n
$GPGGA,154836.10,5700.7941588,N,00959.0201004,E,2,9,1.0,13.907,M,40.582,M,1.4,0123*49\r\n
$GPGGA,154836.15,5700.7941584,N,00959.0201440,E,2,9,1.0,13.911,M,40.582,M,1.4,0123*43\r\n
$GPGGA,154836.20,5700.7941566,N,00959.0201862,E,2,9,1.0,13.910,M,40.582,M,1.4,0123*44\r\n
$GPGGA,154836.25,5700.7941551,N,00959.0202239,E,2,9,1.0,13.898,M,40.582,M,1.6,0123*41\r\n
$GPGGA,154836.30,5700.7941551,N,00959.0202641,E,2,9,1.0,13.898,M,40.582,M,1.6,0123*4E\r\n
$GPGGA,154836.35,5700.7941532,N,00959.0203029,E,2,9,1.0,13.902,M,40.582,M,1.6,0123*45\r\n
$GPGGA,154836.40,5700.7941510,N,00959.0203407,E,2,9,1.0,13.905,M,40.582,M,1.6,0123*48\r\n
$GPGGA,154836.45,5700.7941499,N,00959.0203799,E,2,9,1.0,13.911,M,40.582,M,1.9,0123*43\r\n
$GPGGA,154836.50,5700.7941487,N,00959.0204207,E,2,9,1.0,13.907,M,40.582,M,1.9,0123*4A\r\n
$GPGGA,154836.55,5700.7941474,N,00959.0204637,E,2,9,1.0,13.905,M,40.582,M,1.9,0123*46\r\n
$GPGGA,154836.60,5700.7941464,N,00959.0205086,E,2,9,1.0,13.905,M,40.582,M,1.9,0123*4C\r\n
$GPGGA,154836.65,5700.7941472,N,00959.0205516,E,2,9,1.0,13.899,M,40.582,M,2.1,0123*4D\r\n
$GPGGA,154836.70,5700.7941481,N,00959.0205919,E,2,9,1.0,13.896,M,40.582,M,2.1,0123*49\r\n
$GPGGA,154836.75,5700.7941483,N,00959.0206312,E,2,9,1.0,13.895,M,40.582,M,2.1,0123*4F\r\n
$GPGGA,154836.80,5700.7941490,N,00959.0206688,E,2,9,1.0,13.900,M,40.582,M,2.1,0123*4C\r\n
$GPGGA,154836.85,5700.7941500,N,00959.0207058,E,2,9,1.0,13.906,M,40.582,M,2.3,0123*4F\r\n
$GPGGA,154836.90,5700.7941484,N,00959.0207433,E,2,9,1.0,13.909,M,40.582,M,2.3,0123*40\r\n
$GPGGA,154836.95,5700.7941469,N,00959.0207794,E,2,9,1.0,13.914,M,40.582,M,2.3,0123*44\r\n
$GPGGA,154837.00,5700.7941467,N,00959.0208160,E,2,9,1.0,13.918,M,40.582,M,2.3,0123*49\r\n
$GPGGA,154837.05,5700.7941459,N,00959.0208581,E,2,9,1.0,13.916,M,40.582,M,2.5,0123*42\r\n
$GPGGA,154837.10,5700.7941441,N,00959.0209013,E,2,9,1.0,13.911,M,40.582,M,2.5,0123*47\r\n
$GPGGA,154837.15,5700.7941420,N,00959.0209427,E,2,9,1.0,13.906,M,40.582,M,2.5,0123*40\r\n
$GPGGA,154837.20,5700.7941395,N,00959.0209838,E,2,9,1.0,13.905,M,40.582,M,2.5,0123*4E\r\n
$GPGGA,154837.25,5700.7941382,N,00959.0210237,E,2,9,1.0,13.908,M,40.582,M,2.7,0123*4F\r\n
$GPGGA,154837.30,5700.7941372,N,00959.0210626,E,2,9,1.0,13.912,M,40.582,M,2.7,0123*4B\r\n
$GPGGA,154837.35,5700.7941363,N,00959.0210997,E,2,9,1.0,13.916,M,40.582,M,2.7,0123*4F\r\n
$GPGGA,154837.40,5700.7941348,N,00959.0211338,E,2,9,1.0,13.922,M,40.582,M,2.7,0123*4D\r\n
$GPGGA,154837.45,5700.7941333,N,00959.0211711,E,2,9,1.0,13.925,M,40.582,M,2.9,0123*42\r\n
$GPGGA,154837.50,5700.7941320,N,00959.0212127,E,2,9,1.0,13.929,M,40.582,M,2.9,0123*48\r\n
$GPGGA,154837.55,5700.7941316,N,00959.0212535,E,2,9,1.0,13.928,M,40.582,M,2.9,0123*4E\r\n
$GPGGA,154837.60,5700.7941313,N,00959.0212962,E,2,9,1.0,13.923,M,40.582,M,2.9,0123*48\r\n
$GPGGA,154837.65,5700.7941306,N,00959.0213405,E,2,9,1.0,13.915,M,40.582,M,2.1,0123*49\r\n
$GPGGA,154837.70,5700.7941315,N,00959.0213825,E,2,9,1.0,13.912,M,40.582,M,2.1,0123*46\r\n
$GPGGA,154837.75,5700.7941338,N,00959.0214253,E,2,9,1.0,13.910,M,40.582,M,2.1,0123*42\r\n
$GPGGA,154837.80,5700.7941343,N,00959.0214646,E,2,9,1.0,13.912,M,40.582,M,2.1,0123*46\r\n
$GPGGA,154837.85,5700.7941338,N,00959.0215016,E,2,9,1.0,13.915,M,40.582,M,2.4,0123*4F\r\n
$GPGGA,154837.90,5700.7941334,N,00959.0215394,E,2,9,1.0,13.921,M,40.582,M,2.4,0123*49\r\n
$GPGGA,154837.95,5700.7941325,N,00959.0215759,E,2,9,1.0,13.923,M,40.582,M,2.4,0123*4B\r\n
$GPGGA,154838.00,5700.7941315,N,00959.0216154,E,2,9,1.0,13.921,M,40.582,M,2.4,0123*41\r\n
$GPGGA,154838.05,5700.7941310,N,00959.0216583,E,2,9,1.0,13.915,M,40.582,M,2.7,0123*4B\r\n
$GPGGA,154838.10,5700.7941295,N,00959.0217027,E,2,9,1.0,13.913,M,40.582,M,2.7,0123*4F\r\n
$GPGGA,154838.15,5700.7941271,N,00959.0217478,E,2,9,1.0,13.909,M,40.582,M,2.7,0123*45\r\n
$GPGGA,154838.20,5700.7941255,N,00959.0217877,E,2,9,1.0,13.906,M,40.582,M,2.7,0123*49\r\n
$GPGGA,154838.25,5700.7941243,N,00959.0218254,E,2,9,1.0,13.907,M,40.582,M,3.0,0123*48\r\n
$GPGGA,154838.30,5700.7941246,N,00959.0218645,E,2,9,1.0,13.915,M,40.582,M,3.0,0123*4E\r\n
$GPGGA,154838.35,5700.7941240,N,00959.0219017,E,2,9,1.0,13.918,M,40.582,M,3.0,0123*40\r\n
$GPGGA,154838.40,5700.7941209,N,00959.0219400,E,2,9,1.0,13.921,M,40.582,M,3.0,0123*47\r\n
$GPGGA,154838.45,5700.7941195,N,00959.0219797,E,2,9,1.0,13.924,M,40.582,M,3.2,0123*4E\r\n
$GPGGA,154838.50,5700.7941202,N,00959.0220220,E,2,9,1.0,13.923,M,40.582,M,3.2,0123*43\r\n
$GPGGA,154838.55,5700.7941184,N,00959.0220643,E,2,9,1.0,13.918,M,40.582,M,3.2,0123*42\r\n
$GPGGA,154838.60,5700.7941173,N,00959.0221060,E,2,9,1.0,13.914,M,40.582,M,3.2,0123*46\r\n
$GPGGA,154838.65,5700.7941186,N,00959.0221503,E,2,9,1.0,13.910,M,40.582,M,1.1,0123*4C\r\n
$GPGGA,154838.70,5700.7941205,N,00959.0221920,E,2,9,1.0,13.908,M,40.582,M,1.1,0123*44\r\n
$GPGGA,154838.75,5700.7941213,N,00959.0222292,E,2,9,1.0,13.909,M,40.582,M,1.1,0123*46\r\n
$GPGGA,154838.80,5700.7941208,N,00959.0222645,E,2,9,1.0,13.914,M,40.582,M,1.1,0123*44\r\n
$GPGGA,154838.85,5700.7941215,N,00959.0223008,E,2,9,1.0,13.919,M,40.582,M,1.4,0123*4B\r\n
$GPGGA,154838.90,5700.7941221,N,00959.0223377,E,2,9,1.0,13.923,M,40.582,M,1.4,0123*4A\r\n
$GPGGA,154838.95,5700.7941206,N,00959.0223777,E,2,9,1.0,13.927,M,40.582,M,1.4,0123*4A\r\n
$GPGGA,154839.00,5700.7941180,N,00959.0224175,E,2,9,1.0,13.927,M,40.582,M,1.4,0123*49\r\n
$GPGGA,154839.05,5700.7941175,N,00959.0224584,E,2,9,1.0,13.923,M,40.582,M,1.6,0123*4A\r\n
$GPGGA,154839.10,5700.7941156,N,00959.0224996,E,2,9,1.0,13.922,M,40.582,M,1.6,0123*41\r\n
$GPGGA,154839.15,5700.7941115,N,00959.0225389,E,2,9,1.0,13.916,M,40.582,M,1.6,0123*41\r\n
$GPGGA,154839.20,5700.7941089,N,00959.0225780,E,2,9,1.0,13.914,M,40.582,M,1.6,0123*4C\r\n
$GPGGA,154839.25,5700.7941073,N,00959.0226158,E,2,9,1.0,13.913,M,40.582,M,1.9,0123*44\r\n
$GPGGA,154839.30,5700.7941040,N,00959.0226519,E,2,9,1.0,13.917,M,40.582,M,1.9,0123*45\r\n
$GPGGA,154839.35,5700.7941008,N,00959.0226847,E,2,9,1.0,13.920,M,40.582,M,1.9,0123*4E\r\n
$GPGGA,154839.40,5700.7941006,N,00959.0227186,E,2,9,1.0,13.921,M,40.582,M,1.9,0123*46\r\n
$GPGGA,154839.45,5700.7941003,N,00959.0227550,E,2,9,1.0,13.923,M,40.582,M,2.2,0123*43\r\n
$GPGGA,154839.50,5700.7940994,N,00959.0227939,E,2,9,1.0,13.926,M,40.582,M,2.2,0123*47\r\n
$GPGGA,154839.55,5700.7940975,N,00959.0228332,E,2,9,1.0,13.920,M,40.582,M,2.2,0123*45\r\n
$GPGGA,154839.60,5700.7940977,N,00959.0228740,E,2,9,1.0,13.915,M,40.582,M,2.2,0123*46\r\n
$GPGGA,154839.65,5700.7940984,N,00959.0229158,E,2,9,1.0,13.918,M,40.582,M,0.9,0123*45\r\n
$GPGGA,154839.70,5700.7940981,N,00959.0229537,E,2,9,1.0,13.914,M,40.582,M,0.9,0123*45\r\n
$GPGGA,154839.75,5700.7940977,N,00959.0229913,E,2,9,1.0,13.919,M,40.582,M,0.9,0123*4E\r\n
$GPGGA,154839.80,5700.7940968,N,00959.0230258,E,2,9,1.0,13.926,M,40.582,M,0.9,0123*4A\r\n
$GPGGA,154839.85,5700.7940957,N,00959.0230580,E,2,9,1.0,13.927,M,40.582,M,1.2,0123*4A\r\n
$GPGGA,154839.90,5700.7940939,N,00959.0230924,E,2,9,1.0,13.930,M,40.582,M,1.2,0123*42\r\n
$GPGGA,154839.95,5700.7940922,N,00959.0231266,E,2,9,1.0,13.930,M,40.582,M,1.2,0123*41\r\n
$GPGGA,154840.00,5700.7940907,N,00959.0231628,E,2,9,1.0,13.933,M,40.582,M,1.2,0123*49\r\n
$GPGGA,154840.05,5700.7940885,N,00959.0232008,E,2,9,1.0,13.929,M,40.582,M,1.4,0123*4D\r\n
$GPGGA,154840.10,5700.7940839,N,00959.0232400,E,2,9,1.0,13.927,M,40.582,M,1.4,0123*4C\r\n
$GPGGA,154840.15,5700.7940779,N,00959.0232793,E,2,9,1.0,13.923,M,40.582,M,1.4,0123*4F\r\n
$GPGGA,154840.20,5700.7940733,N,00959.0233159,E,2,9,1.0,13.920,M,40.582,M,1.4,0123*45\r\n
$GPGGA,154840.25,5700.7940686,N,00959.0233505,E,2,9,1.0,13.923,M,40.582,M,1.6,0123*43\r\n
$GPGGA,154840.30,5700.7940616,N,00959.0233839,E,2,9,1.0,13.929,M,40.582,M,1.6,0123*46\r\n
$GPGGA,154840.35,5700.7940551,N,00959.0234180,E,2,9,1.0,13.938,M,40.582,M,1.6,0123*4F\r\n
$GPGGA,154840.40,5700.7940493,N,00959.0234520,E,2,9,1.0,13.942,M,40.582,M,1.6,0123*41\r\n
$GPGGA,154840.45,5700.7940436,N,00959.0234865,E,2,9,1.0,13.943,M,40.582,M,1.9,0123*49\r\n
$GPGGA,154840.50,5700.7940381,N,00959.0235231,E,2,9,1.0,13.942,M,40.582,M,1.9,0123*4D\r\n
$GPGGA,154840.55,5700.7940334,N,00959.0235613,E,2,9,1.0,13.941,M,40.582,M,1.9,0123*41\r\n
$GPGGA,154840.60,5700.7940284,N,00959.0235990,E,2,9,1.0,13.936,M,40.582,M,1.9,0123*49\r\n
$GPGGA,154840.65,5700.7940226,N,00959.0236380,E,2,9,1.0,13.931,M,40.582,M,2.1,0123*40\r\n
$GPGGA,154840.70,5700.7940166,N,00959.0236800,E,2,9,1.0,13.930,M,40.582,M,2.1,0123*41\r\n
$GPGGA,154840.75,5700.7940114,N,00959.0237167,E,2,9,1.0,13.928,M,40.582,M,2.1,0123*41\r\n
$GPGGA,154840.80,5700.7940067,N,00959.0237514,E,2,9,1.0,13.927,M,40.582,M,2.1,0123*41\r\n
$GPGGA,154840.85,5700.7940017,N,00959.0237882,E,2,9,1.0,13.933,M,40.582,M,2.3,0123*46\r\n
$GPGGA,154840.90,5700.7939946,N,00959.0238236,E,2,9,1.0,13.937,M,40.582,M,2.3,0123*4F\r\n
$GPGGA,154840.95,5700.7939879,N,00959.0238584,E,2,9,1.0,13.941,M,40.582,M,2.3,0123*48\r\n
$GPGGA,154841.00,5700.7939804,N,00959.0238957,E,2,9,1.0,13.942,M,40.582,M,2.3,0123*4E\r\n
$GPGGA,154841.05,5700.7939740,N,00959.0239326,E,2,9,1.0,13.937,M,40.582,M,2.5,0123*4D\r\n
$GPGGA,154841.10,5700.7939661,N,00959.0239700,E,2,9,1.0,13.933,M,40.582,M,2.5,0123*4F\r\n
$GPGGA,154841.15,5700.7939578,N,00959.0240080,E,2,9,1.0,13.931,M,40.582,M,2.5,0123*42\r\n
$GPGGA,154841.20,5700.7939491,N,00959.0240441,E,2,9,1.0,13.928,M,40.582,M,2.5,0123*43\r\n
$GPGGA,154841.25,5700.7939398,N,00959.0240786,E,2,9,1.0,13.925,M,40.582,M,2.7,0123*4F\r\n
$GPGGA,154841.30,5700.7939330,N,00959.0241129,E,2,9,1.0,13.930,M,40.582,M,2.7,0123*4F\r\n
$GPGGA,154841.35,5700.7939274,N,00959.0241468,E,2,9,1.0,13.934,M,40.582,M,2.7,0123*4F\r\n
$GPGGA,154841.40,5700.7939208,N,00959.0241817,E,2,9,1.0,13.936,M,40.582,M,2.7,0123*40\r\n
$GPGGA,154841.45,5700.7939177,N,00959.0242187,E,2,9,1.0,13.947,M,40.582,M,2.9,0123*45\r\n
$GPGGA,154841.50,5700.7939142,N,00959.0242546,E,2,9,1.0,13.945,M,40.582,M,2.9,0123*4C\r\n
$GPGGA,154841.55,5700.7939097,N,00959.0242940,E,2,9,1.0,13.943,M,40.582,M,2.9,0123*4C\r\n
$GPGGA,154841.60,5700.7939056,N,00959.0243340,E,2,9,1.0,13.942,M,40.582,M,2.9,0123*4D\r\n
$GPGGA,154841.65,5700.7939015,N,00959.0243714,E,2,9,1.0,13.936,M,40.582,M,2.1,0123*41\r\n
$GPGGA,154841.70,5700.7938983,N,00959.0244077,E,2,9,1.0,13.938,M,40.582,M,2.1,0123*49\r\n
$GPGGA,154841.75,5700.7938949,N,00959.0244417,E,2,9,1.0,13.943,M,40.582,M,2.1,0123*44\r\n
$GPGGA,154841.80,5700.7938920,N,00959.0244732,E,2,9,1.0,13.948,M,40.582,M,2.1,0123*4E\r\n
$GPGGA,154841.85,5700.7938886,N,00959.0245060,E,2,9,1.0,13.956,M,40.582,M,2.4,0123*4D\r\n
$GPGGA,154841.90,5700.7938840,N,00959.0245405,E,2,9,1.0,13.960,M,40.582,M,2.4,0123*41\r\n
$GPGGA,154841.95,5700.7938816,N,00959.0245758,E,2,9,1.0,13.960,M,40.582,M,2.4,0123*4C\r\n
$GPGGA,154842.00,5700.7938779,N,00959.0246151,E,2,9,1.0,13.962,M,40.582,M,2.4,0123*4B\r\n
$GPGGA,154842.05,5700.7938743,N,00959.0246540,E,2,9,1.0,13.962,M,40.582,M,2.7,0123*40\r\n
$GPGGA,154842.10,5700.7938702,N,00959.0246909,E,2,9,1.0,13.958,M,40.582,M,2.7,0123*49\r\n
$GPGGA,154842.15,5700.7938673,N,00959.0247285,E,2,9,1.0,13.960,M,40.582,M,2.7,0123*4E\r\n
$GPGGA,154842.20,5700.7938624,N,00959.0247636,E,2,9,1.0,13.964,M,40.582,M,2.7,0123*42\r\n
$GPGGA,154842.25,5700.7938561,N,00959.0247999,E,2,9,1.0,13.966,M,40.582,M,3.0,0123*4B\r\n
$GPGGA,154842.30,5700.7938527,N,00959.0248378,E,2,9,1.0,13.970,M,40.582,M,3.0,0123*40\r\n
$GPGGA,154842.35,5700.7938496,N,00959.0248759,E,2,9,1.0,13.970,M,40.582,M,3.0,0123*49\r\n
$GPGGA,154842.40,5700.7938449,N,00959.0249161,E,2,9,1.0,13.970,M,40.582,M,3.0,0123*45\r\n
$GPGGA,154842.45,5700.7938405,N,00959.0249573,E,2,9,1.0,13.965,M,40.582,M,3.2,0123*49\r\n
$GPGGA,154842.50,5700.7938380,N,00959.0249980,E,2,9,1.0,13.960,M,40.582,M,3.2,0123*42\r\n
$GPGGA,154842.55,5700.7938366,N,00959.0250408,E,2,9,1.0,13.952,M,40.582,M,3.2,0123*4B\r\n
$GPGGA,154842.60,5700.7938362,N,00959.0250846,E,2,9,1.0,13.950,M,40.582,M,3.2,0123*4D\r\n
$GPGGA,154842.65,5700.7938363,N,00959.0251269,E,2,9,1.0,13.956,M,40.582,M,1.1,0123*48\r\n
$GPGGA,154842.70,5700.7938351,N,00959.0251624,E,2,9,1.0,13.959,M,40.582,M,1.1,0123*4F\r\n
$GPGGA,154842.75,5700.7938326,N,00959.0251981,E,2,9,1.0,13.963,M,40.582,M,1.1,0123*43\r\n
$GPGGA,154842.80,5700.7938310,N,00959.0252377,E,2,9,1.0,13.968,M,40.582,M,1.1,0123*47\r\n
$GPGGA,154842.85,5700.7938292,N,00959.0252758,E,2,9,1.0,13.973,M,40.582,M,1.4,0123*4F\r\n
$GPGGA,154842.90,5700.7938263,N,00959.0253166,E,2,9,1.0,13.977,M,40.582,M,1.4,0123*4B\r\n
$GPGGA,154842.95,5700.7938228,N,00959.0253593,E,2,9,1.0,13.969,M,40.582,M,1.4,0123*40\r\n
$GPGGA,154843.00,5700.7938189,N,00959.0254036,E,2,9,1.0,13.960,M,40.582,M,1.4,0123*41\r\n
$GPGGA,154843.05,5700.7938175,N,00959.0254487,E,2,9,1.0,13.957,M,40.582,M,1.6,0123*4F\r\n
$GPGGA,154843.10,5700.7938144,N,00959.0254897,E,2,9,1.0,13.953,M,40.582,M,1.6,0123*40\r\n
$GPGGA,154843.15,5700.7938104,N,00959.0255299,E,2,9,1.0,13.951,M,40.582,M,1.6,0123*46\r\n
$GPGGA,154843.20,5700.7938075,N,00959.0255694,E,2,9,1.0,13.955,M,40.582,M,1.6,0123*4A\r\n
$GPGGA,154843.25,5700.7938055,N,00959.0256065,E,2,9,1.0,13.964,M,40.582,M,1.9,0123*4B\r\n
$GPGGA,154843.30,5700.7938024,N,00959.0256444,E,2,9,1.0,13.968,M,40.582,M,1.9,0123*42\r\n
$GPGGA,154843.35,5700.7937997,N,00959.0256875,E,2,9,1.0,13.972,M,40.582,M,1.9,0123*4C\r\n
$GPGGA,154843.40,5700.7937987,N,00959.0257317,E,2,9,1.0,13.969,M,40.582,M,1.9,0123*4B\r\n
$GPGGA,154843.45,5700.7937978,N,00959.0257743,E,2,9,1.0,13.964,M,40.582,M,2.2,0123*4E\r\n
$GPGGA,154843.50,5700.7937978,N,00959.0258177,E,2,9,1.0,13.962,M,40.582,M,2.2,0123*42\r\n
$GPGGA,154843.55,5700.7937982,N,00959.0258597,E,2,9,1.0,13.962,M,40.582,M,2.2,0123*48\r\n
$GPGGA,154843.60,5700.7937975,N,00959.0258999,E,2,9,1.0,13.961,M,40.582,M,2.2,0123*47\r\n
$GPGGA,154843.65,5700.7937976,N,00959.0259401,E,2,9,1.0,13.960,M,40.582,M,0.9,0123*44\r\n
$GPGGA,154843.70,5700.7937987,N,00959.0259790,E,2,9,1.0,13.962,M,40.582,M,0.9,0123*47\r\n
$GPGGA,154843.75,5700.7937976,N,00959.0260165,E,2,9,1.0,13.966,M,40.582,M,0.9,0123*4E\r\n
$GPGGA,154843.80,5700.7937951,N,00959.0260553,E,2,9,1.0,13.970,M,40.582,M,0.9,0123*47\r\n
$GPGGA,154843.85,5700.7937930,N,00959.0260963,E,2,9,1.0,13.970,M,40.582,M,1.2,0123*40\r\n
$GPGGA,154843.90,5700.7937921,N,00959.0261415,E,2,9,1.0,13.970,M,40.582,M,1.2,0123*49\r\n
$GPGGA,154843.95,5700.7937881,N,00959.0261833,E,2,9,1.0,13.969,M,40.582,M,1.2,0123*47\r\n
$GPGGA,154844.00,5700.7937848,N,00959.0262209,E,2,9,1.0,13.966,M,40.582,M,1.2,0123*46\r\n
$GPGGA,154844.05,5700.7937848,N,00959.0262637,E,2,9,1.0,13.961,M,40.582,M,1.4,0123*4B\r\n
$GPGGA,154844.10,5700.7937837,N,00959.0263048,E,2,9,1.0,13.962,M,40.582,M,1.4,0123*4B\r\n
$GPGGA,154844.15,5700.7937808,N,00959.0263444,E,2,9,1.0,13.964,M,40.582,M,1.4,0123*4C\r\n
$GPGGA,154844.20,5700.7937784,N,00959.0263856,E,2,9,1.0,13.967,M,40.582,M,1.4,0123*4D\r\n
$GPGGA,154844.25,5700.7937765,N,00959.0264241,E,2,9,1.0,13.973,M,40.582,M,1.6,0123*4B\r\n
$GPGGA,154844.30,5700.7937746,N,00959.0264650,E,2,9,1.0,13.978,M,40.582,M,1.6,0123*41\r\n
$GPGGA,154844.35,5700.7937745,N,00959.0265087,E,2,9,1.0,13.982,M,40.582,M,1.6,0123*4F\r\n
$GPGGA,154844.40,5700.7937735,N,00959.0265520,E,2,9,1.0,13.979,M,40.582,M,1.6,0123*46\r\n
$GPGGA,154844.45,5700.7937729,N,00959.0265982,E,2,9,1.0,13.974,M,40.582,M,1.9,0123*48\r\n
$GPGGA,154844.50,5700.7937728,N,00959.0266443,E,2,9,1.0,13.975,M,40.582,M,1.9,0123*4F\r\n
$GPGGA,154844.55,5700.7937712,N,00959.0266878,E,2,9,1.0,13.976,M,40.582,M,1.9,0123*44\r\n
$GPGGA,154844.60,5700.7937701,N,00959.0267301,E,2,9,1.0,13.975,M,40.582,M,1.9,0123*47\r\n
$GPGGA,154844.65,5700.7937703,N,00959.0267725,E,2,9,1.0,13.974,M,40.582,M,2.1,0123*48\r\n
$GPGGA,154844.70,5700.7937698,N,00959.0268130,E,2,9,1.0,13.978,M,40.582,M,2.1,0123*4E\r\n
$GPGGA,154844.75,5700.7937670,N,00959.0268551,E,2,9,1.0,13.981,M,40.582,M,2.1,0123*48\r\n
$GPGGA,154844.80,5700.7937642,N,00959.0268963,E,2,9,1.0,13.979,M,40.582,M,2.1,0123*49\r\n
$GPGGA,154844.85,5700.7937625,N,00959.0269378,E,2,9,1.0,13.981,M,40.582,M,2.3,0123*49\r\n
$GPGGA,154844.90,5700.7937602,N,00959.0269839,E,2,9,1.0,13.984,M,40.582,M,2.3,0123*43\r\n
$GPGGA,154844.95,5700.7937573,N,00959.0270297,E,2,9,1.0,13.977,M,40.582,M,2.3,0123*49\r\n
$GPGGA,154845.00,5700.7937547,N,00959.0270754,E,2,9,1.0,13.974,M,40.582,M,2.3,0123*4A\r\n
$GPGGA,154845.05,5700.7937532,N,00959.0271205,E,2,9,1.0,13.971,M,40.582,M,2.5,0123*4E\r\n
$GPGGA,154845.10,5700.7937511,N,00959.0271649,E,2,9,1.0,13.973,M,40.582,M,2.5,0123*45\r\n
$GPGGA,154845.15,5700.7937494,N,00959.0272068,E,2,9,1.0,13.974,M,40.582,M,2.5,0123*4D\r\n
