$GPGGA,090314.00,5703.2966992,N,00952.3658012,E,2,9,1.2,-2.161,M,40.593,M,2.6,0123*5F\r\n
$GPGGA,090314.05,5703.2967148,N,00952.3657671,E,2,9,1.2,-2.161,M,40.593,M,2.8,0123*56\r\n
$GPGGA,090314.10,5703.2967319,N,00952.3657329,E,2,9,1.2,-2.164,M,40.593,M,2.8,0123*59\r\n
$GPGGA,090314.15,5703.2967500,N,00952.3656991,E,2,9,1.2,-2.167,M,40.593,M,2.8,0123*59\r\n
$GPGGA,090314.20,5703.2967682,N,00952.3656638,E,2,9,1.2,-2.165,M,40.593,M,2.8,0123*58\r\n
$GPGGA,090314.25,5703.2967870,N,00952.3656267,E,2,9,1.2,-2.156,M,40.593,M,3.0,0123*59\r\n
$GPGGA,090314.30,5703.2968041,N,00952.3655919,E,2,9,1.2,-2.155,M,40.593,M,3.0,0123*5A\r\n
$GPGGA,090314.35,5703.2968202,N,00952.3655577,E,2,9,1.2,-2.157,M,40.593,M,3.0,0123*5C\r\n
$GPGGA,090314.40,5703.2968378,N,00952.3655229,E,2,9,1.2,-2.158,M,40.593,M,3.0,0123*51\r\n
$GPGGA,090314.45,5703.2968563,N,00952.3654875,E,2,9,1.2,-2.164,M,40.593,M,3.2,0123*57\r\n
$GPGGA,090314.50,5703.2968745,N,00952.3654522,E,2,9,1.2,-2.165,M,40.593,M,3.2,0123*5B\r\n
$GPGGA,090314.55,5703.2968909,N,00952.3654178,E,2,9,1.2,-2.164,M,40.593,M,3.2,0123*52\r\n
$GPGGA,090314.60,5703.2969077,N,00952.3653815,E,2,9,1.2,-2.159,M,40.593,M,3.2,0123*5E\r\n
$GPGGA,090314.65,5703.2969249,N,00952.3653452,E,2,9,1.2,-2.159,M,40.593,M,3.4,0123*5D\r\n
$GPGGA,090314.70,5703.2969414,N,00952.3653104,E,2,9,1.2,-2.163,M,40.593,M,3.4,0123*58\r\n
$GPGGA,090314.75,5703.2969575,N,00952.3652738,E,2,9,1.2,-2.161,M,40.593,M,3.4,0123*51\r\n
$GPGGA,090314.80,5703.2969751,N,00952.3652385,E,2,9,1.2,-2.159,M,40.593,M,3.4,0123*56\r\n
$GPGGA,090314.85,5703.2969934,N,00952.3652028,E,2,9,1.2,-2.160,M,40.593,M,3.6,0123*52\r\n
$GPGGA,090314.90,5703.2970113,N,00952.3651679,E,2,9,1.2,-2.160,M,40.593,M,3.6,0123*52\r\n
$GPGGA,090314.95,5703.2970291,N,00952.3651330,E,2,9,1.2,-2.158,M,40.593,M,3.6,0123*5D\r\n
$GPGGA,090315.00,5703.2970473,N,00952.3650966,E,2,9,1.2,-2.156,M,40.593,M,3.6,0123*5C\r\n
$GPGGA,090315.05,5703.2970634,N,00952.3650592,E,2,9,1.2,-2.151,M,40.593,M,3.8,0123*56\r\n
$GPGGA,090315.10,5703.2970797,N,00952.3650234,E,2,9,1.2,-2.152,M,40.593,M,3.8,0123*52\r\n
$GPGGA,090315.15,5703.2970974,N,00952.3649855,E,2,9,1.2,-2.151,M,40.593,M,3.8,0123*52\r\n
$GPGGA,090315.20,5703.2971150,N,00952.3649493,E,2,9,1.2,-2.150,M,40.593,M,3.8,0123*5C\r\n
$GPGGA,090315.25,5703.2971317,N,00952.3649152,E,2,9,1.2,-2.159,M,40.593,M,4.0,0123*56\r\n
$GPGGA,090315.30,5703.2971493,N,00952.3648781,E,2,9,1.2,-2.158,M,40.593,M,4.0,0123*51\r\n
$GPGGA,090315.35,5703.2971649,N,00952.3648417,E,2,9,1.2,-2.157,M,40.593,M,4.0,0123*52\r\n
$GPGGA,090315.40,5703.2971819,N,00952.3648046,E,2,9,1.2,-2.157,M,40.593,M,4.0,0123*5B\r\n
$GPGGA,090315.45,5703.2971995,N,00952.3647693,E,2,9,1.2,-2.153,M,40.593,M,2.4,0123*5C\r\n
$GPGGA,090315.50,5703.2972175,N,00952.3647335,E,2,9,1.2,-2.154,M,40.593,M,2.4,0123*53\r\n
$GPGGA,090315.55,5703.2972373,N,00952.3646945,E,2,9,1.2,-2.153,M,40.593,M,2.4,0123*59\r\n
$GPGGA,090315.60,5703.2972554,N,00952.3646579,E,2,9,1.2,-2.154,M,40.593,M,2.4,0123*58\r\n
$GPGGA,090315.65,5703.2972712,N,00952.3646206,E,2,9,1.2,-2.162,M,40.593,M,2.7,0123*54\r\n
$GPGGA,090315.70,5703.2972876,N,00952.3645832,E,2,9,1.2,-2.162,M,40.593,M,2.7,0123*53\r\n
$GPGGA,090315.75,5703.2973043,N,00952.3645474,E,2,9,1.2,-2.162,M,40.593,M,2.7,0123*57\r\n
$GPGGA,090315.80,5703.2973223,N,00952.3645114,E,2,9,1.2,-2.163,M,40.593,M,2.7,0123*5B\r\n
$GPGGA,090315.85,5703.2973399,N,00952.3644734,E,2,9,1.2,-2.158,M,40.593,M,2.9,0123*5D\r\n
$GPGGA,090315.90,5703.2973581,N,00952.3644333,E,2,9,1.2,-2.157,M,40.593,M,2.9,0123*5A\r\n
$GPGGA,090315.95,5703.2973741,N,00952.3643954,E,2,9,1.2,-2.156,M,40.593,M,2.9,0123*5C\r\n
$GPGGA,090316.00,5703.2973922,N,00952.3643574,E,2,9,1.2,-2.154,M,40.593,M,2.9,0123*54\r\n
$GPGGA,090316.05,5703.2974102,N,00952.3643201,E,2,9,1.2,-2.152,M,40.593,M,3.2,0123*55\r\n
$GPGGA,090316.10,5703.2974295,N,00952.3642843,E,2,9,1.2,-2.155,M,40.593,M,3.2,0123*56\r\n
$GPGGA,090316.15,5703.2974478,N,00952.3642454,E,2,9,1.2,-2.151,M,40.593,M,3.2,0123*58\r\n
$GPGGA,090316.20,5703.2974643,N,00952.3642068,E,2,9,1.2,-2.148,M,40.593,M,3.2,0123*57\r\n
$GPGGA,090316.25,5703.2974798,N,00952.3641705,E,2,9,1.2,-2.152,M,40.593,M,3.4,0123*57\r\n
$GPGGA,090316.30,5703.2974973,N,00952.3641325,E,2,9,1.2,-2.152,M,40.593,M,3.4,0123*5E\r\n
$GPGGA,090316.35,5703.2975145,N,00952.3640949,E,2,9,1.2,-2.154,M,40.593,M,3.4,0123*50\r\n
$GPGGA,090316.40,5703.2975330,N,00952.3640561,E,2,9,1.2,-2.152,M,40.593,M,3.4,0123*52\r\n
$GPGGA,090316.45,5703.2975497,N,00952.3640195,E,2,9,1.2,-2.153,M,40.593,M,2.2,0123*54\r\n
$GPGGA,090316.50,5703.2975674,N,00952.3639842,E,2,9,1.2,-2.154,M,40.593,M,2.2,0123*55\r\n
$GPGGA,090316.55,5703.2975868,N,00952.3639464,E,2,9,1.2,-2.155,M,40.593,M,2.2,0123*5A\r\n
$GPGGA,090316.60,5703.2976048,N,00952.3639079,E,2,9,1.2,-2.154,M,40.593,M,2.2,0123*5C\r\n
$GPGGA,090316.65,5703.2976205,N,00952.3638707,E,2,9,1.2,-2.156,M,40.593,M,2.4,0123*59\r\n
$GPGGA,090316.70,5703.2976370,N,00952.3638341,E,2,9,1.2,-2.159,M,40.593,M,2.4,0123*57\r\n
$GPGGA,090316.75,5703.2976573,N,00952.3637948,E,2,9,1.2,-2.158,M,40.593,M,2.4,0123*5A\r\n
$GPGGA,090316.80,5703.2976766,N,00952.3637539,E,2,9,1.2,-2.156,M,40.593,M,2.4,0123*52\r\n
$GPGGA,090316.85,5703.2976952,N,00952.3637161,E,2,9,1.2,-2.157,M,40.593,M,2.7,0123*55\r\n
$GPGGA,090316.90,5703.2977125,N,00952.3636783,E,2,9,1.2,-2.157,M,40.593,M,2.7,0123*53\r\n
$GPGGA,090316.95,5703.2977301,N,00952.3636393,E,2,9,1.2,-2.160,M,40.593,M,2.7,0123*53\r\n
$GPGGA,090317.00,5703.2977488,N,00952.3636016,E,2,9,1.2,-2.162,M,40.593,M,2.7,0123*54\r\n
$GPGGA,090317.05,5703.2977661,N,00952.3635633,E,2,9,1.2,-2.166,M,40.593,M,2.9,0123*5C\r\n
$GPGGA,090317.10,5703.2977851,N,00952.3635245,E,2,9,1.2,-2.167,M,40.593,M,2.9,0123*51\r\n
$GPGGA,090317.15,5703.2978019,N,00952.3634874,E,2,9,1.2,-2.167,M,40.593,M,2.9,0123*56\r\n
$GPGGA,090317.20,5703.2978168,N,00952.3634488,E,2,9,1.2,-2.166,M,40.593,M,2.9,0123*59\r\n
$GPGGA,090317.25,5703.2978340,N,00952.3634092,E,2,9,1.2,-2.158,M,40.593,M,3.1,0123*5F\r\n
$GPGGA,090317.30,5703.2978529,N,00952.3633692,E,2,9,1.2,-2.158,M,40.593,M,3.1,0123*53\r\n
$GPGGA,090317.35,5703.2978721,N,00952.3633290,E,2,9,1.2,-2.160,M,40.593,M,3.1,0123*51\r\n
$GPGGA,090317.40,5703.2978898,N,00952.3632895,E,2,9,1.2,-2.159,M,40.593,M,3.1,0123*5A\r\n
$GPGGA,090317.45,5703.2979094,N,00952.3632505,E,2,9,1.2,-2.159,M,40.593,M,2.1,0123*5F\r\n
$GPGGA,090317.50,5703.2979290,N,00952.3632116,E,2,9,1.2,-2.161,M,40.593,M,2.1,0123*50\r\n
$GPGGA,090317.55,5703.2979468,N,00952.3631732,E,2,9,1.2,-2.160,M,40.593,M,2.1,0123*56\r\n
$GPGGA,090317.60,5703.2979661,N,00952.3631330,E,2,9,1.2,-2.158,M,40.593,M,2.1,0123*56\r\n
$GPGGA,090317.65,5703.2979841,N,00952.3630953,E,2,9,1.2,-2.157,M,40.593,M,2.3,0123*5C\r\n
$GPGGA,090317.70,5703.2980010,N,00952.3630554,E,2,9,1.2,-2.156,M,40.593,M,2.3,0123*58\r\n
$GPGGA,090317.75,5703.2980187,N,00952.3630163,E,2,9,1.2,-2.152,M,40.593,M,2.3,0123*56\r\n
$GPGGA,090317.80,5703.2980376,N,00952.3629775,E,2,9,1.2,-2.153,M,40.593,M,2.3,0123*58\r\n
$GPGGA,090317.85,5703.2980569,N,00952.3629378,E,2,9,1.2,-2.155,M,40.593,M,2.6,0123*5F\r\n
$GPGGA,090317.90,5703.2980751,N,00952.3629005,E,2,9,1.2,-2.155,M,40.593,M,2.6,0123*5B\r\n
$GPGGA,090317.95,5703.2980907,N,00952.3628609,E,2,9,1.2,-2.153,M,40.593,M,2.6,0123*5E\r\n
$GPGGA,090318.00,5703.2981073,N,00952.3628214,E,2,9,1.2,-2.152,M,40.593,M,2.6,0123*5F\r\n
$GPGGA,090318.05,5703.2981241,N,00952.3627837,E,2,9,1.2,-2.149,M,40.593,M,2.8,0123*59\r\n
$GPGGA,090318.10,5703.2981428,N,00952.3627438,E,2,9,1.2,-2.148,M,40.593,M,2.8,0123*56\r\n
$GPGGA,090318.15,5703.2981625,N,00952.3627042,E,2,9,1.2,-2.150,M,40.593,M,2.8,0123*5C\r\n
$GPGGA,090318.20,5703.2981829,N,00952.3626661,E,2,9,1.2,-2.153,M,40.593,M,2.8,0123*5D\r\n
$GPGGA,090318.25,5703.2982025,N,00952.3626281,E,2,9,1.2,-2.158,M,40.593,M,3.0,0123*57\r\n
$GPGGA,090318.30,5703.2982194,N,00952.3625883,E,2,9,1.2,-2.161,M,40.593,M,3.0,0123*59\r\n
$GPGGA,090318.35,5703.2982344,N,00952.3625491,E,2,9,1.2,-2.162,M,40.593,M,3.0,0123*5F\r\n
$GPGGA,090318.40,5703.2982531,N,00952.3625089,E,2,9,1.2,-2.164,M,40.593,M,3.0,0123*52\r\n
$GPGGA,090318.45,5703.2982732,N,00952.3624684,E,2,9,1.2,-2.157,M,40.593,M,3.2,0123*5E\r\n
$GPGGA,090318.50,5703.2982948,N,00952.3624308,E,2,9,1.2,-2.158,M,40.593,M,3.2,0123*57\r\n
$GPGGA,090318.55,5703.2983137,N,00952.3623922,E,2,9,1.2,-2.156,M,40.593,M,3.2,0123*58\r\n
$GPGGA,090318.60,5703.2983305,N,00952.3623515,E,2,9,1.2,-2.153,M,40.593,M,3.2,0123*50\r\n
$GPGGA,090318.65,5703.2983466,N,00952.3623134,E,2,9,1.2,-2.157,M,40.593,M,3.4,0123*52\r\n
$GPGGA,090318.70,5703.2983649,N,00952.3622730,E,2,9,1.2,-2.159,M,40.593,M,3.4,0123*54\r\n
$GPGGA,090318.75,5703.2983859,N,00952.3622333,E,2,9,1.2,-2.162,M,40.593,M,3.4,0123*51\r\n
$GPGGA,090318.80,5703.2984049,N,00952.3621939,E,2,9,1.2,-2.162,M,40.593,M,3.4,0123*56\r\n
$GPGGA,090318.85,5703.2984232,N,00952.3621552,E,2,9,1.2,-2.158,M,40.593,M,3.6,0123*57\r\n
$GPGGA,090318.90,5703.2984411,N,00952.3621174,E,2,9,1.2,-2.162,M,40.593,M,3.6,0123*5D\r\n
$GPGGA,090318.95,5703.2984611,N,00952.3620770,E,2,9,1.2,-2.163,M,40.593,M,3.6,0123*58\r\n
$GPGGA,090319.00,5703.2984797,N,00952.3620360,E,2,9,1.2,-2.163,M,40.593,M,3.6,0123*5F\r\n
$GPGGA,090319.05,5703.2984957,N,00952.3619971,E,2,9,1.2,-2.160,M,40.593,M,3.8,0123*55\r\n
$GPGGA,090319.10,5703.2985155,N,00952.3619581,E,2,9,1.2,-2.157,M,40.593,M,3.8,0123*5D\r\n
$GPGGA,090319.15,5703.2985370,N,00952.3619194,E,2,9,1.2,-2.158,M,40.593,M,3.8,0123*52\r\n
$GPGGA,090319.20,5703.2985561,N,00952.3618793,E,2,9,1.2,-2.160,M,40.593,M,3.8,0123*59\r\n
$GPGGA,090319.25,5703.2985744,N,00952.3618373,E,2,9,1.2,-2.157,M,40.593,M,4.0,0123*58\r\n
$GPGGA,090319.30,5703.2985930,N,00952.3617974,E,2,9,1.2,-2.156,M,40.593,M,4.0,0123*52\r\n
$GPGGA,090319.35,5703.2986107,N,00952.3617599,E,2,9,1.2,-2.158,M,40.593,M,4.0,0123*59\r\n
$GPGGA,090319.40,5703.2986293,N,00952.3617193,E,2,9,1.2,-2.158,M,40.593,M,4.0,0123*5B\r\n
$GPGGA,090319.45,5703.2986498,N,00952.3616794,E,2,9,1.2,-2.152,M,40.593,M,2.4,0123*5B\r\n
$GPGGA,090319.50,5703.2986712,N,00952.3616399,E,2,9,1.2,-2.153,M,40.593,M,2.4,0123*56\r\n
$GPGGA,090319.55,5703.2986901,N,00952.3616005,E,2,9,1.2,-2.151,M,40.593,M,2.4,0123*5B\r\n
$GPGGA,090319.60,5703.2987080,N,00952.3615629,E,2,9,1.2,-2.150,M,40.593,M,2.4,0123*56\r\n
$GPGGA,090319.65,5703.2987268,N,00952.3615214,E,2,9,1.2,-2.152,M,40.593,M,2.7,0123*5C\r\n
$GPGGA,090319.70,5703.2987465,N,00952.3614797,E,2,9,1.2,-2.154,M,40.593,M,2.7,0123*5A\r\n
$GPGGA,090319.75,5703.2987670,N,00952.3614397,E,2,9,1.2,-2.153,M,40.593,M,2.7,0123*5A\r\n
$GPGGA,090319.80,5703.2987859,N,00952.3614009,E,2,9,1.2,-2.152,M,40.593,M,2.7,0123*50\r\n
$GPGGA,090319.85,5703.2988034,N,00952.3613593,E,2,9,1.2,-2.152,M,40.593,M,2.9,0123*56\r\n
$GPGGA,090319.90,5703.2988225,N,00952.3613190,E,2,9,1.2,-2.150,M,40.593,M,2.9,0123*55\r\n
$GPGGA,090319.95,5703.2988432,N,00952.3612784,E,2,9,1.2,-2.151,M,40.593,M,2.9,0123*53\r\n
$GPGGA,090320.00,5703.2988635,N,00952.3612364,E,2,9,1.2,-2.151,M,40.593,M,2.9,0123*5A\r\n
$GPGGA,090320.05,5703.2988828,N,00952.3611952,E,2,9,1.2,-2.144,M,40.593,M,3.2,0123*5F\r\n
$GPGGA,090320.10,5703.2989040,N,00952.3611534,E,2,9,1.2,-2.143,M,40.593,M,3.2,0123*57\r\n
$GPGGA,090320.15,5703.2989231,N,00952.3611116,E,2,9,1.2,-2.141,M,40.593,M,3.2,0123*50\r\n
$GPGGA,090320.20,5703.2989421,N,00952.3610687,E,2,9,1.2,-2.138,M,40.593,M,3.2,0123*51\r\n
$GPGGA,090320.25,5703.2989628,N,00952.3610235,E,2,9,1.2,-2.134,M,40.593,M,3.4,0123*58\r\n
$GPGGA,090320.30,5703.2989847,N,00952.3609805,E,2,9,1.2,-2.129,M,40.593,M,3.4,0123*56\r\n
$GPGGA,090320.35,5703.2990089,N,00952.3609364,E,2,9,1.2,-2.127,M,40.593,M,3.4,0123*53\r\n
$GPGGA,090320.40,5703.2990322,N,00952.3608907,E,2,9,1.2,-2.128,M,40.593,M,3.4,0123*52\r\n
$GPGGA,090320.45,5703.2990521,N,00952.3608441,E,2,9,1.2,-2.131,M,40.593,M,2.2,0123*52\r\n
$GPGGA,090320.50,5703.2990710,N,00952.3607974,E,2,9,1.2,-2.126,M,40.593,M,2.2,0123*54\r\n
$GPGGA,090320.55,5703.2990924,N,00952.3607498,E,2,9,1.2,-2.127,M,40.593,M,2.2,0123*56\r\n
$GPGGA,090320.60,5703.2991160,N,00952.3606994,E,2,9,1.2,-2.126,M,40.593,M,2.2,0123*58\r\n
$GPGGA,090320.65,5703.2991427,N,00952.3606517,E,2,9,1.2,-2.122,M,40.593,M,2.4,0123*5E\r\n
$GPGGA,090320.70,5703.2991688,N,00952.3606035,E,2,9,1.2,-2.123,M,40.593,M,2.4,0123*59\r\n
$GPGGA,090320.75,5703.2991907,N,00952.3605525,E,2,9,1.2,-2.122,M,40.593,M,2.4,0123*52\r\n
$GPGGA,090320.80,5703.2992135,N,00952.3605013,E,2,9,1.2,-2.121,M,40.593,M,2.4,0123*51\r\n
$GPGGA,090320.85,5703.2992383,N,00952.3604519,E,2,9,1.2,-2.125,M,40.593,M,2.7,0123*52\r\n
$GPGGA,090320.90,5703.2992643,N,00952.3604015,E,2,9,1.2,-2.128,M,40.593,M,2.7,0123*5B\r\n
$GPGGA,090320.95,5703.2992909,N,00952.3603495,E,2,9,1.2,-2.129,M,40.593,M,2.7,0123*55\r\n
$GPGGA,090321.00,5703.2993144,N,00952.3602974,E,2,9,1.2,-2.132,M,40.593,M,2.7,0123*51\r\n
$GPGGA,090321.05,5703.2993370,N,00952.3602453,E,2,9,1.2,-2.127,M,40.593,M,2.9,0123*53\r\n
$GPGGA,090321.10,5703.2993636,N,00952.3601924,E,2,9,1.2,-2.128,M,40.593,M,2.9,0123*51\r\n
$GPGGA,090321.15,5703.2993904,N,00952.3601396,E,2,9,1.2,-2.128,M,40.593,M,2.9,0123*59\r\n
$GPGGA,090321.20,5703.2994159,N,00952.3600862,E,2,9,1.2,-2.126,M,40.593,M,2.9,0123*57\r\n
$GPGGA,090321.25,5703.2994438,N,00952.3600312,E,2,9,1.2,-2.119,M,40.593,M,3.1,0123*59\r\n
$GPGGA,090321.30,5703.2994735,N,00952.3599772,E,2,9,1.2,-2.119,M,40.593,M,3.1,0123*52\r\n
$GPGGA,090321.35,5703.2995003,N,00952.3599226,E,2,9,1.2,-2.121,M,40.593,M,3.1,0123*5B\r\n
$GPGGA,090321.40,5703.2995252,N,00952.3598664,E,2,9,1.2,-2.120,M,40.593,M,3.1,0123*5D\r\n
$GPGGA,090321.45,5703.2995508,N,00952.3598126,E,2,9,1.2,-2.129,M,40.593,M,2.1,0123*59\r\n
$GPGGA,090321.50,5703.2995804,N,00952.3597575,E,2,9,1.2,-2.126,M,40.593,M,2.1,0123*5E\r\n
$GPGGA,090321.55,5703.2996089,N,00952.3597009,E,2,9,1.2,-2.125,M,40.593,M,2.1,0123*58\r\n
$GPGGA,090321.60,5703.2996391,N,00952.3596447,E,2,9,1.2,-2.125,M,40.593,M,2.1,0123*5B\r\n
$GPGGA,090321.65,5703.2996690,N,00952.3595888,E,2,9,1.2,-2.121,M,40.593,M,2.3,0123*50\r\n
$GPGGA,090321.70,5703.2996958,N,00952.3595311,E,2,9,1.2,-2.117,M,40.593,M,2.3,0123*51\r\n
$GPGGA,090321.75,5703.2997214,N,00952.3594734,E,2,9,1.2,-2.119,M,40.593,M,2.3,0123*5A\r\n
$GPGGA,090321.80,5703.2997517,N,00952.3594151,E,2,9,1.2,-2.123,M,40.593,M,2.3,0123*58\r\n
$GPGGA,090321.85,5703.2997817,N,00952.3593571,E,2,9,1.2,-2.126,M,40.593,M,2.6,0123*51\r\n
$GPGGA,090321.90,5703.2998142,N,00952.3592995,E,2,9,1.2,-2.127,M,40.593,M,2.6,0123*55\r\n
$GPGGA,090321.95,5703.2998432,N,00952.3592398,E,2,9,1.2,-2.126,M,40.593,M,2.6,0123*54\r\n
$GPGGA,090322.00,5703.2998709,N,00952.3591816,E,2,9,1.2,-2.129,M,40.593,M,2.6,0123*51\r\n
$GPGGA,090322.05,5703.2998984,N,00952.3591197,E,2,9,1.2,-2.125,M,40.593,M,2.8,0123*5D\r\n
$GPGGA,090322.10,5703.2999315,N,00952.3590605,E,2,9,1.2,-2.125,M,40.593,M,2.8,0123*57\r\n
$GPGGA,090322.15,5703.2999637,N,00952.3590006,E,2,9,1.2,-2.127,M,40.593,M,2.8,0123*50\r\n
$GPGGA,090322.20,5703.2999942,N,00952.3589407,E,2,9,1.2,-2.129,M,40.593,M,2.8,0123*58\r\n
$GPGGA,090322.25,5703.3000238,N,00952.3588793,E,2,9,1.2,-2.129,M,40.593,M,3.0,0123*55\r\n
$GPGGA,090322.30,5703.3000532,N,00952.3588174,E,2,9,1.2,-2.128,M,40.593,M,3.0,0123*52\r\n
$GPGGA,090322.35,5703.3000832,N,00952.3587569,E,2,9,1.2,-2.128,M,40.593,M,3.0,0123*5D\r\n
$GPGGA,090322.40,5703.3001177,N,00952.3586958,E,2,9,1.2,-2.128,M,40.593,M,3.0,0123*59\r\n
$GPGGA,090322.45,5703.3001504,N,00952.3586325,E,2,9,1.2,-2.129,M,40.593,M,0.9,0123*57\r\n
$GPGGA,090322.50,5703.3001797,N,00952.3585700,E,2,9,1.2,-2.129,M,40.593,M,0.9,0123*5B\r\n
$GPGGA,090322.55,5703.3002117,N,00952.3585065,E,2,9,1.2,-2.132,M,40.593,M,0.9,0123*5D\r\n
$GPGGA,090322.60,5703.3002466,N,00952.3584447,E,2,9,1.2,-2.132,M,40.593,M,0.9,0123*5D\r\n
$GPGGA,090322.65,5703.3002798,N,00952.3583804,E,2,9,1.2,-2.140,M,40.593,M,1.3,0123*58\r\n
$GPGGA,090322.70,5703.3003103,N,00952.3583181,E,2,9,1.2,-2.142,M,40.593,M,1.3,0123*5F\r\n
$GPGGA,090322.75,5703.3003429,N,00952.3582560,E,2,9,1.2,-2.139,M,40.593,M,1.3,0123*51\r\n
$GPGGA,090322.80,5703.3003767,N,00952.3581929,E,2,9,1.2,-2.139,M,40.593,M,1.3,0123*50\r\n
$GPGGA,090322.85,5703.3004117,N,00952.3581269,E,2,9,1.2,-2.131,M,40.593,M,1.6,0123*51\r\n
$GPGGA,090322.90,5703.3004425,N,00952.3580613,E,2,9,1.2,-2.132,M,40.593,M,1.6,0123*5A\r\n
$GPGGA,090322.95,5703.3004774,N,00952.3579964,E,2,9,1.2,-2.130,M,40.593,M,1.6,0123*53\r\n
$GPGGA,090323.00,5703.3005127,N,00952.3579331,E,2,9,1.2,-2.128,M,40.593,M,1.6,0123*5C\r\n
$GPGGA,090323.05,5703.3005439,N,00952.3578713,E,2,9,1.2,-2.139,M,40.593,M,1.9,0123*59\r\n
$GPGGA,090323.10,5703.3005779,N,00952.3578051,E,2,9,1.2,-2.141,M,40.593,M,1.9,0123*54\r\n
$GPGGA,090323.15,5703.3006101,N,00952.3577401,E,2,9,1.2,-2.143,M,40.593,M,1.9,0123*57\r\n
$GPGGA,090323.20,5703.3006439,N,00952.3576740,E,2,9,1.2,-2.144,M,40.593,M,1.9,0123*5F\r\n
$GPGGA,090323.25,5703.3006792,N,00952.3576085,E,2,9,1.2,-2.138,M,40.593,M,2.2,0123*55\r\n
$GPGGA,090323.30,5703.3007120,N,00952.3575422,E,2,9,1.2,-2.133,M,40.593,M,2.2,0123*5E\r\n
$GPGGA,090323.35,5703.3007464,N,00952.3574770,E,2,9,1.2,-2.137,M,40.593,M,2.2,0123*5F\r\n
$GPGGA,090323.40,5703.3007847,N,00952.3574105,E,2,9,1.2,-2.140,M,40.593,M,2.2,0123*54\r\n
$GPGGA,090323.45,5703.3008203,N,00952.3573433,E,2,9,1.2,-2.135,M,40.593,M,0.9,0123*58\r\n
$GPGGA,090323.50,5703.3008522,N,00952.3572769,E,2,9,1.2,-2.136,M,40.593,M,0.9,0123*56\r\n
$GPGGA,090323.55,5703.3008872,N,00952.3572103,E,2,9,1.2,-2.136,M,40.593,M,0.9,0123*51\r\n
$GPGGA,090323.60,5703.3009235,N,00952.3571423,E,2,9,1.2,-2.134,M,40.593,M,0.9,0123*59\r\n
$GPGGA,090323.65,5703.3009590,N,00952.3570740,E,2,9,1.2,-2.132,M,40.593,M,1.2,0123*5F\r\n
$GPGGA,090323.70,5703.3009950,N,00952.3570070,E,2,9,1.2,-2.133,M,40.593,M,1.2,0123*5E\r\n
$GPGGA,090323.75,5703.3010334,N,00952.3569374,E,2,9,1.2,-2.132,M,40.593,M,1.2,0123*55\r\n
$GPGGA,090323.80,5703.3010700,N,00952.3568688,E,2,9,1.2,-2.132,M,40.593,M,1.2,0123*5B\r\n
$GPGGA,090323.85,5703.3011038,N,00952.3568014,E,2,9,1.2,-2.137,M,40.593,M,1.5,0123*52\r\n
$GPGGA,090323.90,5703.3011377,N,00952.3567331,E,2,9,1.2,-2.138,M,40.593,M,1.5,0123*5A\r\n
$GPGGA,090323.95,5703.3011753,N,00952.3566649,E,2,9,1.2,-2.138,M,40.593,M,1.5,0123*56\r\n
$GPGGA,090324.00,5703.3012110,N,00952.3565964,E,2,9,1.2,-2.137,M,40.593,M,1.5,0123*53\r\n
$GPGGA,090324.05,5703.3012472,N,00952.3565280,E,2,9,1.2,-2.128,M,40.593,M,1.7,0123*5A\r\n
$GPGGA,090324.10,5703.3012838,N,00952.3564596,E,2,9,1.2,-2.130,M,40.593,M,1.7,0123*54\r\n
$GPGGA,090324.15,5703.3013208,N,00952.3563919,E,2,9,1.2,-2.137,M,40.593,M,1.7,0123*52\r\n
$GPGGA,090324.20,5703.3013591,N,00952.3563239,E,2,9,1.2,-2.134,M,40.593,M,1.7,0123*59\r\n
$GPGGA,090324.25,5703.3013938,N,00952.3562538,E,2,9,1.2,-2.132,M,40.593,M,2.0,0123*56\r\n
$GPGGA,090324.30,5703.3014311,N,00952.3561824,E,2,9,1.2,-2.134,M,40.593,M,2.0,0123*51\r\n
$GPGGA,090324.35,5703.3014679,N,00952.3561118,E,2,9,1.2,-2.132,M,40.593,M,2.0,0123*5F\r\n
$GPGGA,090324.40,5703.3015057,N,00952.3560448,E,2,9,1.2,-2.130,M,40.593,M,2.0,0123*55\r\n
$GPGGA,090324.45,5703.3015405,N,00952.3559742,E,2,9,1.2,-2.126,M,40.593,M,0.8,0123*5D\r\n
$GPGGA,090324.50,5703.3015772,N,00952.3559057,E,2,9,1.2,-2.129,M,40.593,M,0.8,0123*56\r\n
$GPGGA,090324.55,5703.3016190,N,00952.3558367,E,2,9,1.2,-2.134,M,40.593,M,0.8,0123*57\r\n
$GPGGA,090324.60,5703.3016586,N,00952.3557673,E,2,9,1.2,-2.138,M,40.593,M,0.8,0123*51\r\n
$GPGGA,090324.65,5703.3016952,N,00952.3556988,E,2,9,1.2,-2.143,M,40.593,M,1.1,0123*5F\r\n
$GPGGA,090324.70,5703.3017321,N,00952.3556292,E,2,9,1.2,-2.141,M,40.593,M,1.1,0123*56\r\n
$GPGGA,090324.75,5703.3017682,N,00952.3555592,E,2,9,1.2,-2.142,M,40.593,M,1.1,0123*58\r\n
$GPGGA,090324.80,5703.3018046,N,00952.3554888,E,2,9,1.2,-2.141,M,40.593,M,1.1,0123*57\r\n
$GPGGA,090324.85,5703.3018453,N,00952.3554182,E,2,9,1.2,-2.129,M,40.593,M,1.4,0123*5A\r\n
$GPGGA,090324.90,5703.3018847,N,00952.3553467,E,2,9,1.2,-2.132,M,40.593,M,1.4,0123*54\r\n
$GPGGA,090324.95,5703.3019214,N,00952.3552766,E,2,9,1.2,-2.132,M,40.593,M,1.4,0123*5F\r\n
$GPGGA,090325.00,5703.3019584,N,00952.3552060,E,2,9,1.2,-2.130,M,40.593,M,1.4,0123*5F\r\n
$GPGGA,090325.05,5703.3019953,N,00952.3551356,E,2,9,1.2,-2.130,M,40.593,M,1.6,0123*5B\r\n
$GPGGA,090325.10,5703.3020368,N,00952.3550625,E,2,9,1.2,-2.128,M,40.593,M,1.6,0123*5E\r\n
$GPGGA,090325.15,5703.3020759,N,00952.3549944,E,2,9,1.2,-2.129,M,40.593,M,1.6,0123*5C\r\n
$GPGGA,090325.20,5703.3021151,N,00952.3549240,E,2,9,1.2,-2.132,M,40.593,M,1.6,0123*50\r\n
$GPGGA,090325.25,5703.3021556,N,00952.3548550,E,2,9,1.2,-2.130,M,40.593,M,1.9,0123*5C\r\n
$GPGGA,090325.30,5703.3021935,N,00952.3547833,E,2,9,1.2,-2.126,M,40.593,M,1.9,0123*51\r\n
$GPGGA,090325.35,5703.3022321,N,00952.3547108,E,2,9,1.2,-2.128,M,40.593,M,1.9,0123*57\r\n
$GPGGA,090325.40,5703.3022697,N,00952.3546394,E,2,9,1.2,-2.131,M,40.593,M,1.9,0123*53\r\n
$GPGGA,090325.45,5703.3023057,N,00952.3545704,E,2,9,1.2,-2.131,M,40.593,M,2.1,0123*58\r\n
$GPGGA,090325.50,5703.3023412,N,00952.3545009,E,2,9,1.2,-2.129,M,40.593,M,2.1,0123*5A\r\n
$GPGGA,090325.55,5703.3023837,N,00952.3544303,E,2,9,1.2,-2.128,M,40.593,M,2.1,0123*5D\r\n
$GPGGA,090325.60,5703.3024227,N,00952.3543593,E,2,9,1.2,-2.129,M,40.593,M,2.1,0123*5E\r\n
$GPGGA,090325.65,5703.3024601,N,00952.3542883,E,2,9,1.2,-2.126,M,40.593,M,2.3,0123*5B\r\n
$GPGGA,090325.70,5703.3024983,N,00952.3542168,E,2,9,1.2,-2.126,M,40.593,M,2.3,0123*56\r\n
$GPGGA,090325.75,5703.3025413,N,00952.3541459,E,2,9,1.2,-2.120,M,40.593,M,2.3,0123*54\r\n
$GPGGA,090325.80,5703.3025798,N,00952.3540760,E,2,9,1.2,-2.120,M,40.593,M,2.3,0123*56\r\n
$GPGGA,090325.85,5703.3026175,N,00952.3540055,E,2,9,1.2,-2.125,M,40.593,M,2.6,0123*54\r\n
$GPGGA,090325.90,5703.3026546,N,00952.3539346,E,2,9,1.2,-2.128,M,40.593,M,2.6,0123*56\r\n
$GPGGA,090325.95,5703.3026936,N,00952.3538634,E,2,9,1.2,-2.127,M,40.593,M,2.6,0123*56\r\n
$GPGGA,090326.00,5703.3027332,N,00952.3537936,E,2,9,1.2,-2.130,M,40.593,M,2.6,0123*52\r\n
$GPGGA,090326.05,5703.3027704,N,00952.3537209,E,2,9,1.2,-2.131,M,40.593,M,2.8,0123*5E\r\n
$GPGGA,090326.10,5703.3028071,N,00952.3536491,E,2,9,1.2,-2.136,M,40.593,M,2.8,0123*51\r\n
$GPGGA,090326.15,5703.3028440,N,00952.3535762,E,2,9,1.2,-2.137,M,40.593,M,2.8,0123*5F\r\n
$GPGGA,090326.20,5703.3028837,N,00952.3535089,E,2,9,1.2,-2.135,M,40.593,M,2.8,0123*55\r\n
$GPGGA,090326.25,5703.3029256,N,00952.3534369,E,2,9,1.2,-2.127,M,40.593,M,3.0,0123*5A\r\n
$GPGGA,090326.30,5703.3029656,N,00952.3533659,E,2,9,1.2,-2.128,M,40.593,M,3.0,0123*54\r\n
$GPGGA,090326.35,5703.3030069,N,00952.3532942,E,2,9,1.2,-2.127,M,40.593,M,3.0,0123*58\r\n
$GPGGA,090326.40,5703.3030462,N,00952.3532230,E,2,9,1.2,-2.129,M,40.593,M,3.0,0123*55\r\n
$GPGGA,090326.45,5703.3030849,N,00952.3531516,E,2,9,1.2,-2.132,M,40.593,M,3.2,0123*5D\r\n
$GPGGA,090326.50,5703.3031239,N,00952.3530802,E,2,9,1.2,-2.134,M,40.593,M,3.2,0123*5A\r\n
$GPGGA,090326.55,5703.3031642,N,00952.3530076,E,2,9,1.2,-2.130,M,40.593,M,3.2,0123*58\r\n
$GPGGA,090326.60,5703.3032022,N,00952.3529348,E,2,9,1.2,-2.127,M,40.593,M,3.2,0123*5D\r\n
$GPGGA,090326.65,5703.3032428,N,00952.3528633,E,2,9,1.2,-2.124,M,40.593,M,3.4,0123*5B\r\n
$GPGGA,090326.70,5703.3032851,N,00952.3527934,E,2,9,1.2,-2.126,M,40.593,M,3.4,0123*58\r\n
$GPGGA,090326.75,5703.3033240,N,00952.3527225,E,2,9,1.2,-2.123,M,40.593,M,3.4,0123*58\r\n
$GPGGA,090326.80,5703.3033647,N,00952.3526503,E,2,9,1.2,-2.120,M,40.593,M,3.4,0123*50\r\n
$GPGGA,090326.85,5703.3034050,N,00952.3525795,E,2,9,1.2,-2.126,M,40.593,M,3.6,0123*58\r\n
$GPGGA,090326.90,5703.3034450,N,00952.3525059,E,2,9,1.2,-2.129,M,40.593,M,3.6,0123*50\r\n
$GPGGA,090326.95,5703.3034829,N,00952.3524342,E,2,9,1.2,-2.127,M,40.593,M,3.6,0123*51\r\n
$GPGGA,090327.00,5703.3035211,N,00952.3523634,E,2,9,1.2,-2.127,M,40.593,M,3.6,0123*5F\r\n
$GPGGA,090327.05,5703.3035604,N,00952.3522926,E,2,9,1.2,-2.125,M,40.593,M,3.8,0123*5B\r\n
$GPGGA,090327.10,5703.3036015,N,00952.3522206,E,2,9,1.2,-2.126,M,40.593,M,3.8,0123*50\r\n
$GPGGA,090327.15,5703.3036418,N,00952.3521474,E,2,9,1.2,-2.129,M,40.593,M,3.8,0123*53\r\n
$GPGGA,090327.20,5703.3036813,N,00952.3520786,E,2,9,1.2,-2.132,M,40.593,M,3.8,0123*57\r\n
$GPGGA,090327.25,5703.3037225,N,00952.3520077,E,2,9,1.2,-2.131,M,40.593,M,4.0,0123*59\r\n
$GPGGA,090327.30,5703.3037620,N,00952.3519355,E,2,9,1.2,-2.130,M,40.593,M,4.0,0123*54\r\n
$GPGGA,090327.35,5703.3038004,N,00952.3518641,E,2,9,1.2,-2.130,M,40.593,M,4.0,0123*5F\r\n
$GPGGA,090327.40,5703.3038438,N,00952.3517940,E,2,9,1.2,-2.129,M,40.593,M,4.0,0123*5F\r\n
$GPGGA,090327.45,5703.3038874,N,00952.3517222,E,2,9,1.2,-2.124,M,40.593,M,2.4,0123*5E\r\n
$GPGGA,090327.50,5703.3039277,N,00952.3516506,E,2,9,1.2,-2.127,M,40.593,M,2.4,0123*51\r\n
$GPGGA,090327.55,5703.3039658,N,00952.3515793,E,2,9,1.2,-2.128,M,40.593,M,2.4,0123*5F\r\n
$GPGGA,090327.60,5703.3040071,N,00952.3515069,E,2,9,1.2,-2.128,M,40.593,M,2.4,0123*58\r\n
$GPGGA,090327.65,5703.3040437,N,00952.3514351,E,2,9,1.2,-2.134,M,40.593,M,2.7,0123*5C\r\n
$GPGGA,090327.70,5703.3040860,N,00952.3513651,E,2,9,1.2,-2.135,M,40.593,M,2.7,0123*55\r\n
$GPGGA,090327.75,5703.3041297,N,00952.3512948,E,2,9,1.2,-2.133,M,40.593,M,2.7,0123*53\r\n
$GPGGA,090327.80,5703.3041687,N,00952.3512242,E,2,9,1.2,-2.136,M,40.593,M,2.7,0123*58\r\n
$GPGGA,090327.85,5703.3042119,N,00952.3511516,E,2,9,1.2,-2.132,M,40.593,M,2.9,0123*51\r\n
$GPGGA,090327.90,5703.3042566,N,00952.3510797,E,2,9,1.2,-2.135,M,40.593,M,2.9,0123*54\r\n
$GPGGA,090327.95,5703.3042993,N,00952.3510061,E,2,9,1.2,-2.132,M,40.593,M,2.9,0123*5E\r\n
$GPGGA,090328.00,5703.3043346,N,00952.3509368,E,2,9,1.2,-2.129,M,40.593,M,2.9,0123*56\r\n
$GPGGA,090328.05,5703.3043727,N,00952.3508670,E,2,9,1.2,-2.126,M,40.593,M,3.2,0123*58\r\n
$GPGGA,090328.10,5703.3044153,N,00952.3507971,E,2,9,1.2,-2.128,M,40.593,M,3.2,0123*51\r\n
$GPGGA,090328.15,5703.3044574,N,00952.3507243,E,2,9,1.2,-2.129,M,40.593,M,3.2,0123*5E\r\n
$GPGGA,090328.20,5703.3044979,N,00952.3506515,E,2,9,1.2,-2.136,M,40.593,M,3.2,0123*52\r\n
$GPGGA,090328.25,5703.3045384,N,00952.3505815,E,2,9,1.2,-2.135,M,40.593,M,3.4,0123*55\r\n
$GPGGA,090328.30,5703.3045809,N,00952.3505112,E,2,9,1.2,-2.135,M,40.593,M,3.4,0123*51\r\n
$GPGGA,090328.35,5703.3046227,N,00952.3504401,E,2,9,1.2,-2.133,M,40.593,M,3.4,0123*51\r\n
$GPGGA,090328.40,5703.3046632,N,00952.3503695,E,2,9,1.2,-2.132,M,40.593,M,3.4,0123*5A\r\n
$GPGGA,090328.45,5703.3047031,N,00952.3502960,E,2,9,1.2,-2.128,M,40.593,M,2.2,0123*53\r\n
$GPGGA,090328.50,5703.3047456,N,00952.3502238,E,2,9,1.2,-2.129,M,40.593,M,2.2,0123*55\r\n
$GPGGA,090328.55,5703.3047916,N,00952.3501541,E,2,9,1.2,-2.130,M,40.593,M,2.2,0123*5B\r\n
$GPGGA,090328.60,5703.3048312,N,00952.3500853,E,2,9,1.2,-2.136,M,40.593,M,2.2,0123*55\r\n
$GPGGA,090328.65,5703.3048711,N,00952.3500132,E,2,9,1.2,-2.141,M,40.593,M,2.4,0123*5F\r\n
$GPGGA,090328.70,5703.3049148,N,00952.3499426,E,2,9,1.2,-2.139,M,40.593,M,2.4,0123*5E\r\n
$GPGGA,090328.75,5703.3049570,N,00952.3498697,E,2,9,1.2,-2.139,M,40.593,M,2.4,0123*5D\r\n
$GPGGA,090328.80,5703.3050011,N,00952.3497970,E,2,9,1.2,-2.139,M,40.593,M,2.4,0123*54\r\n
$GPGGA,090328.85,5703.3050428,N,00952.3497260,E,2,9,1.2,-2.132,M,40.593,M,2.7,0123*5D\r\n
$GPGGA,090328.90,5703.3050800,N,00952.3496550,E,2,9,1.2,-2.132,M,40.593,M,2.7,0123*5A\r\n
$GPGGA,090328.95,5703.3051197,N,00952.3495812,E,2,9,1.2,-2.129,M,40.593,M,2.7,0123*5B\r\n
$GPGGA,090329.00,5703.3051634,N,00952.3495081,E,2,9,1.2,-2.133,M,40.593,M,2.7,0123*51\r\n
$GPGGA,090329.05,5703.3052044,N,00952.3494367,E,2,9,1.2,-2.135,M,40.593,M,2.9,0123*54\r\n
$GPGGA,090329.10,5703.3052464,N,00952.3493661,E,2,9,1.2,-2.135,M,40.593,M,2.9,0123*52\r\n
$GPGGA,090329.15,5703.3052863,N,00952.3492925,E,2,9,1.2,-2.132,M,40.593,M,2.9,0123*55\r\n
$GPGGA,090329.20,5703.3053253,N,00952.3492206,E,2,9,1.2,-2.130,M,40.593,M,2.9,0123*53\r\n
$GPGGA,090329.25,5703.3053681,N,00952.3491494,E,2,9,1.2,-2.127,M,40.593,M,3.1,0123*5C\r\n
$GPGGA,090329.30,5703.3054125,N,00952.3490753,E,2,9,1.2,-2.122,M,40.593,M,3.1,0123*5A\r\n
$GPGGA,090329.35,5703.3054538,N,00952.3490013,E,2,9,1.2,-2.118,M,40.593,M,3.1,0123*5D\r\n
$GPGGA,090329.40,5703.3054941,N,00952.3489302,E,2,9,1.2,-2.118,M,40.593,M,3.1,0123*56\r\n
$GPGGA,090329.45,5703.3055355,N,00952.3488598,E,2,9,1.2,-2.121,M,40.593,M,2.1,0123*52\r\n
$GPGGA,090329.50,5703.3055797,N,00952.3487845,E,2,9,1.2,-2.121,M,40.593,M,2.1,0123*5E\r\n
$GPGGA,090329.55,5703.3056205,N,00952.3487123,E,2,9,1.2,-2.122,M,40.593,M,2.1,0123*5C\r\n
$GPGGA,090329.60,5703.3056628,N,00952.3486406,E,2,9,1.2,-2.122,M,40.593,M,2.1,0123*52\r\n
$GPGGA,090329.65,5703.3057036,N,00952.3485690,E,2,9,1.2,-2.133,M,40.593,M,2.3,0123*53\r\n
$GPGGA,090329.70,5703.3057450,N,00952.3484926,E,2,9,1.2,-2.137,M,40.593,M,2.3,0123*54\r\n
$GPGGA,090329.75,5703.3057875,N,00952.3484188,E,2,9,1.2,-2.133,M,40.593,M,2.3,0123*52\r\n
$GPGGA,090329.80,5703.3058270,N,00952.3483498,E,2,9,1.2,-2.134,M,40.593,M,2.3,0123*5C\r\n
$GPGGA,090329.85,5703.3058651,N,00952.3482792,E,2,9,1.2,-2.131,M,40.593,M,2.6,0123*56\r\n
$GPGGA,090329.90,5703.3059061,N,00952.3482090,E,2,9,1.2,-2.134,M,40.593,M,2.6,0123*56\r\n
$GPGGA,090329.95,5703.3059479,N,00952.3481393,E,2,9,1.2,-2.131,M,40.593,M,2.6,0123*58\r\n
$GPGGA,090330.00,5703.3059867,N,00952.3480716,E,2,9,1.2,-2.137,M,40.593,M,2.6,0123*51\r\n
$GPGGA,090330.05,5703.3060231,N,00952.3480030,E,2,9,1.2,-2.145,M,40.593,M,2.8,0123*5F\r\n
$GPGGA,090330.10,5703.3060626,N,00952.3479323,E,2,9,1.2,-2.148,M,40.593,M,2.8,0123*53\r\n
$GPGGA,090330.15,5703.3061043,N,00952.3478618,E,2,9,1.2,-2.144,M,40.593,M,2.8,0123*52\r\n
$GPGGA,090330.20,5703.3061416,N,00952.3477959,E,2,9,1.2,-2.150,M,40.593,M,2.8,0123*50\r\n
$GPGGA,090330.25,5703.3061774,N,00952.3477300,E,2,9,1.2,-2.157,M,40.593,M,3.0,0123*5A\r\n
$GPGGA,090330.30,5703.3062121,N,00952.3476663,E,2,9,1.2,-2.163,M,40.593,M,3.0,0123*5D\r\n
$GPGGA,090330.35,5703.3062497,N,00952.3476011,E,2,9,1.2,-2.160,M,40.593,M,3.0,0123*50\r\n
$GPGGA,090330.40,5703.3062868,N,00952.3475356,E,2,9,1.2,-2.160,M,40.593,M,3.0,0123*5D\r\n
$GPGGA,090330.45,5703.3063232,N,00952.3474679,E,2,9,1.2,-2.165,M,40.593,M,3.2,0123*52\r\n
$GPGGA,090330.50,5703.3063587,N,00952.3474036,E,2,9,1.2,-2.170,M,40.593,M,3.2,0123*56\r\n
$GPGGA,090330.55,5703.3063944,N,00952.3473395,E,2,9,1.2,-2.177,M,40.593,M,3.2,0123*5A\r\n
$GPGGA,090330.60,5703.3064277,N,00952.3472750,E,2,9,1.2,-2.180,M,40.593,M,3.2,0123*54\r\n
$GPGGA,090330.65,5703.3064642,N,00952.3472096,E,2,9,1.2,-2.174,M,40.593,M,3.4,0123*53\r\n
$GPGGA,090330.70,5703.3065017,N,00952.3471466,E,2,9,1.2,-2.173,M,40.593,M,3.4,0123*5F\r\n
$GPGGA,090330.75,5703.3065361,N,00952.3470836,E,2,9,1.2,-2.175,M,40.593,M,3.4,0123*56\r\n
$GPGGA,090330.80,5703.3065665,N,00952.3470211,E,2,9,1.2,-2.179,M,40.593,M,3.4,0123*5E\r\n
$GPGGA,090330.85,5703.3065988,N,00952.3469617,E,2,9,1.2,-2.178,M,40.593,M,3.6,0123*5E\r\n
$GPGGA,090330.90,5703.3066339,N,00952.3468999,E,2,9,1.2,-2.179,M,40.593,M,3.6,0123*50\r\n
$GPGGA,090330.95,5703.3066718,N,00952.3468320,E,2,9,1.2,-2.180,M,40.593,M,3.6,0123*5C\r\n
$GPGGA,090331.00,5703.3067082,N,00952.3467672,E,2,9,1.2,-2.180,M,40.593,M,3.6,0123*59\r\n
$GPGGA,090331.05,5703.3067391,N,00952.3467060,E,2,9,1.2,-2.186,M,40.593,M,3.8,0123*50\r\n
$GPGGA,090331.10,5703.3067708,N,00952.3466453,E,2,9,1.2,-2.185,M,40.593,M,3.8,0123*56\r\n
$GPGGA,090331.15,5703.3068040,N,00952.3465874,E,2,9,1.2,-2.189,M,40.593,M,3.8,0123*51\r\n
$GPGGA,090331.20,5703.3068409,N,00952.3465254,E,2,9,1.2,-2.191,M,40.593,M,3.8,0123*5F\r\n
$GPGGA,090331.25,5703.3068766,N,00952.3464579,E,2,9,1.2,-2.184,M,40.593,M,4.0,0123*52\r\n
$GPGGA,090331.30,5703.3069077,N,00952.3463954,E,2,9,1.2,-2.183,M,40.593,M,4.0,0123*53\r\n
$GPGGA,090331.35,5703.3069378,N,00952.3463357,E,2,9,1.2,-2.180,M,40.593,M,4.0,0123*50\r\n
$GPGGA,090331.40,5703.3069708,N,00952.3462745,E,2,9,1.2,-2.177,M,40.593,M,4.0,0123*5F\r\n
$GPGGA,090331.45,5703.3070081,N,00952.3462129,E,2,9,1.2,-2.166,M,40.593,M,2.4,0123*5A\r\n
$GPGGA,090331.50,5703.3070425,N,00952.3461522,E,2,9,1.2,-2.169,M,40.593,M,2.4,0123*57\r\n
$GPGGA,090331.55,5703.3070734,N,00952.3460902,E,2,9,1.2,-2.171,M,40.593,M,2.4,0123*57\r\n
$GPGGA,090331.60,5703.3071044,N,00952.3460270,E,2,9,1.2,-2.169,M,40.593,M,2.4,0123*57\r\n
$GPGGA,090331.65,5703.3071337,N,00952.3459652,E,2,9,1.2,-2.182,M,40.593,M,2.7,0123*5D\r\n
$GPGGA,090331.70,5703.3071690,N,00952.3459065,E,2,9,1.2,-2.182,M,40.593,M,2.7,0123*53\r\n
$GPGGA,090331.75,5703.3072027,N,00952.3458447,E,2,9,1.2,-2.179,M,40.593,M,2.7,0123*5E\r\n
$GPGGA,090331.80,5703.3072345,N,00952.3457864,E,2,9,1.2,-2.179,M,40.593,M,2.7,0123*51\r\n
$GPGGA,090331.85,5703.3072666,N,00952.3457250,E,2,9,1.2,-2.166,M,40.593,M,2.9,0123*5D\r\n
$GPGGA,090331.90,5703.3072990,N,00952.3456649,E,2,9,1.2,-2.164,M,40.593,M,2.9,0123*50\r\n
$GPGGA,090331.95,5703.3073296,N,00952.3456027,E,2,9,1.2,-2.166,M,40.593,M,2.9,0123*55\r\n
$GPGGA,090332.00,5703.3073625,N,00952.3455431,E,2,9,1.2,-2.165,M,40.593,M,2.9,0123*55\r\n
$GPGGA,090332.05,5703.3073946,N,00952.3454843,E,2,9,1.2,-2.162,M,40.593,M,3.2,0123*5F\r\n
$GPGGA,090332.10,5703.3074262,N,00952.3454257,E,2,9,1.2,-2.159,M,40.593,M,3.2,0123*56\r\n
$GPGGA,090332.15,5703.3074573,N,00952.3453636,E,2,9,1.2,-2.157,M,40.593,M,3.2,0123*5E\r\n
$GPGGA,090332.20,5703.3074875,N,00952.3453031,E,2,9,1.2,-2.154,M,40.593,M,3.2,0123*51\r\n
$GPGGA,090332.25,5703.3075181,N,00952.3452446,E,2,9,1.2,-2.150,M,40.593,M,3.4,0123*50\r\n
$GPGGA,090332.30,5703.3075521,N,00952.3451840,E,2,9,1.2,-2.151,M,40.593,M,3.4,0123*52\r\n
$GPGGA,090332.35,5703.3075852,N,00952.3451258,E,2,9,1.2,-2.152,M,40.593,M,3.4,0123*5E\r\n
$GPGGA,090332.40,5703.3076151,N,00952.3450670,E,2,9,1.2,-2.146,M,40.593,M,3.4,0123*5F\r\n
$GPGGA,090332.45,5703.3076425,N,00952.3450086,E,2,9,1.2,-2.147,M,40.593,M,2.2,0123*55\r\n
$GPGGA,090332.50,5703.3076705,N,00952.3449511,E,2,9,1.2,-2.146,M,40.593,M,2.2,0123*52\r\n
$GPGGA,090332.55,5703.3077035,N,00952.3448930,E,2,9,1.2,-2.146,M,40.593,M,2.2,0123*5C\r\n
$GPGGA,090332.60,5703.3077383,N,00952.3448359,E,2,9,1.2,-2.144,M,40.593,M,2.2,0123*53\r\n
$GPGGA,090332.65,5703.3077698,N,00952.3447806,E,2,9,1.2,-2.149,M,40.593,M,2.4,0123*5C\r\n
$GPGGA,090332.70,5703.3077999,N,00952.3447214,E,2,9,1.2,-2.151,M,40.593,M,2.4,0123*56\r\n
$GPGGA,090332.75,5703.3078271,N,00952.3446622,E,2,9,1.2,-2.146,M,40.593,M,2.4,0123*57\r\n
$GPGGA,090332.80,5703.3078537,N,00952.3446053,E,2,9,1.2,-2.143,M,40.593,M,2.4,0123*5D\r\n
$GPGGA,090332.85,5703.3078831,N,00952.3445512,E,2,9,1.2,-2.144,M,40.593,M,2.7,0123*54\r\n
$GPGGA,090332.90,5703.3079166,N,00952.3444961,E,2,9,1.2,-2.143,M,40.593,M,2.7,0123*54\r\n
$GPGGA,090332.95,5703.3079491,N,00952.3444393,E,2,9,1.2,-2.144,M,40.593,M,2.7,0123*5C\r\n
$GPGGA,090333.00,5703.3079803,N,00952.3443806,E,2,9,1.2,-2.146,M,40.593,M,2.7,0123*54\r\n
$GPGGA,090333.05,5703.3080074,N,00952.3443271,E,2,9,1.2,-2.143,M,40.593,M,2.9,0123*5E\r\n
$GPGGA,090333.10,5703.3080344,N,00952.3442731,E,2,9,1.2,-2.142,M,40.593,M,2.9,0123*5B\r\n
$GPGGA,090333.15,5703.3080603,N,00952.3442195,E,2,9,1.2,-2.143,M,40.593,M,2.9,0123*51\r\n
$GPGGA,090333.20,5703.3080916,N,00952.3441640,E,2,9,1.2,-2.146,M,40.593,M,2.9,0123*55\r\n
$GPGGA,090333.25,5703.3081229,N,00952.3441076,E,2,9,1.2,-2.145,M,40.593,M,3.1,0123*5F\r\n
$GPGGA,090333.30,5703.3081532,N,00952.3440536,E,2,9,1.2,-2.145,M,40.593,M,3.1,0123*56\r\n
$GPGGA,090333.35,5703.3081787,N,00952.3440009,E,2,9,1.2,-2.146,M,40.593,M,3.1,0123*55\r\n
$GPGGA,090333.40,5703.3082050,N,00952.3439469,E,2,9,1.2,-2.145,M,40.593,M,3.1,0123*56\r\n
$GPGGA,090333.45,5703.3082363,N,00952.3438901,E,2,9,1.2,-2.139,M,40.593,M,2.1,0123*58\r\n
$GPGGA,090333.50,5703.3082675,N,00952.3438354,E,2,9,1.2,-2.138,M,40.593,M,2.1,0123*55\r\n
$GPGGA,090333.55,5703.3082941,N,00952.3437811,E,2,9,1.2,-2.143,M,40.593,M,2.1,0123*51\r\n
$GPGGA,090333.60,5703.3083212,N,00952.3437300,E,2,9,1.2,-2.145,M,40.593,M,2.1,0123*56\r\n
$GPGGA,090333.65,5703.3083480,N,00952.3436808,E,2,9,1.2,-2.144,M,40.593,M,2.3,0123*5F\r\n
$GPGGA,090333.70,5703.3083743,N,00952.3436279,E,2,9,1.2,-2.147,M,40.593,M,2.3,0123*58\r\n
$GPGGA,090333.75,5703.3084062,N,00952.3435729,E,2,9,1.2,-2.148,M,40.593,M,2.3,0123*52\r\n
$GPGGA,090333.80,5703.3084392,N,00952.3435189,E,2,9,1.2,-2.145,M,40.593,M,2.3,0123*55\r\n
$GPGGA,090333.85,5703.3084658,N,00952.3434701,E,2,9,1.2,-2.144,M,40.593,M,2.6,0123*50\r\n
$GPGGA,090333.90,5703.3084923,N,00952.3434221,E,2,9,1.2,-2.144,M,40.593,M,2.6,0123*50\r\n
$GPGGA,090333.95,5703.3085204,N,00952.3433729,E,2,9,1.2,-2.145,M,40.593,M,2.6,0123*51\r\n
$GPGGA,090334.00,5703.3085495,N,00952.3433207,E,2,9,1.2,-2.146,M,40.593,M,2.6,0123*5E\r\n
$GPGGA,090334.05,5703.3085776,N,00952.3432667,E,2,9,1.2,-2.144,M,40.593,M,2.8,0123*5A\r\n
$GPGGA,090334.10,5703.3086050,N,00952.3432136,E,2,9,1.2,-2.144,M,40.593,M,2.8,0123*5D\r\n
$GPGGA,090334.15,5703.3086305,N,00952.3431641,E,2,9,1.2,-2.143,M,40.593,M,2.8,0123*58\r\n
$GPGGA,090334.20,5703.3086563,N,00952.3431136,E,2,9,1.2,-2.146,M,40.593,M,2.8,0123*5A\r\n
$GPGGA,090334.25,5703.3086834,N,00952.3430635,E,2,9,1.2,-2.149,M,40.593,M,3.0,0123*53\r\n
$GPGGA,090334.30,5703.3087097,N,00952.3430139,E,2,9,1.2,-2.149,M,40.593,M,3.0,0123*5C\r\n
$GPGGA,090334.35,5703.3087373,N,00952.3429618,E,2,9,1.2,-2.148,M,40.593,M,3.0,0123*5D\r\n
$GPGGA,090334.40,5703.3087638,N,00952.3429105,E,2,9,1.2,-2.149,M,40.593,M,3.0,0123*5F\r\n
$GPGGA,090334.45,5703.3087904,N,00952.3428600,E,2,9,1.2,-2.146,M,40.593,M,0.9,0123*5C\r\n
$GPGGA,090334.50,5703.3088169,N,00952.3428107,E,2,9,1.2,-2.146,M,40.593,M,0.9,0123*54\r\n
$GPGGA,090334.55,5703.3088466,N,00952.3427619,E,2,9,1.2,-2.148,M,40.593,M,0.9,0123*52\r\n
$GPGGA,090334.60,5703.3088734,N,00952.3427124,E,2,9,1.2,-2.148,M,40.593,M,0.9,0123*59\r\n
$GPGGA,090334.65,5703.3089007,N,00952.3426621,E,2,9,1.2,-2.150,M,40.593,M,1.3,0123*5B\r\n
$GPGGA,090334.70,5703.3089285,N,00952.3426124,E,2,9,1.2,-2.153,M,40.593,M,1.3,0123*56\r\n
$GPGGA,090334.75,5703.3089549,N,00952.3425604,E,2,9,1.2,-2.155,M,40.593,M,1.3,0123*54\r\n
$GPGGA,090334.80,5703.3089800,N,00952.3425120,E,2,9,1.2,-2.153,M,40.593,M,1.3,0123*59\r\n
$GPGGA,090334.85,5703.3090075,N,00952.3424632,E,2,9,1.2,-2.147,M,40.593,M,1.6,0123*5B\r\n
$GPGGA,090334.90,5703.3090355,N,00952.3424126,E,2,9,1.2,-2.146,M,40.593,M,1.6,0123*5D\r\n
$GPGGA,090334.95,5703.3090609,N,00952.3423615,E,2,9,1.2,-2.150,M,40.593,M,1.6,0123*53\r\n
$GPGGA,090335.00,5703.3090888,N,00952.3423101,E,2,9,1.2,-2.151,M,40.593,M,1.6,0123*5A\r\n
$GPGGA,090335.05,5703.3091139,N,00952.3422610,E,2,9,1.2,-2.152,M,40.593,M,1.9,0123*57\r\n
$GPGGA,090335.10,5703.3091392,N,00952.3422098,E,2,9,1.2,-2.152,M,40.593,M,1.9,0123*56\r\n
$GPGGA,090335.15,5703.3091661,N,00952.3421585,E,2,9,1.2,-2.152,M,40.593,M,1.9,0123*50\r\n
$GPGGA,090335.20,5703.3091922,N,00952.3421125,E,2,9,1.2,-2.153,M,40.593,M,1.9,0123*51\r\n
$GPGGA,090335.25,5703.3092174,N,00952.3420643,E,2,9,1.2,-2.150,M,40.593,M,2.2,0123*51\r\n
$GPGGA,090335.30,5703.3092430,N,00952.3420165,E,2,9,1.2,-2.150,M,40.593,M,2.2,0123*53\r\n
$GPGGA,090335.35,5703.3092710,N,00952.3419687,E,2,9,1.2,-2.152,M,40.593,M,2.2,0123*54\r\n
$GPGGA,090335.40,5703.3092974,N,00952.3419171,E,2,9,1.2,-2.152,M,40.593,M,2.2,0123*54\r\n
$GPGGA,090335.45,5703.3093213,N,00952.3418683,E,2,9,1.2,-2.155,M,40.593,M,0.9,0123*5F\r\n
$GPGGA,090335.50,5703.3093473,N,00952.3418193,E,2,9,1.2,-2.154,M,40.593,M,0.9,0123*5C\r\n
$GPGGA,090335.55,5703.3093749,N,00952.3417693,E,2,9,1.2,-2.155,M,40.593,M,0.9,0123*5A\r\n
$GPGGA,090335.60,5703.3094022,N,00952.3417199,E,2,9,1.2,-2.155,M,40.593,M,0.9,0123*5C\r\n
$GPGGA,090335.65,5703.3094285,N,00952.3416696,E,2,9,1.2,-2.144,M,40.593,M,1.2,0123*55\r\n
$GPGGA,090335.70,5703.3094552,N,00952.3416209,E,2,9,1.2,-2.143,M,40.593,M,1.2,0123*59\r\n
$GPGGA,090335.75,5703.3094811,N,00952.3415701,E,2,9,1.2,-2.143,M,40.593,M,1.2,0123*58\r\n
$GPGGA,090335.80,5703.3095046,N,00952.3415220,E,2,9,1.2,-2.143,M,40.593,M,1.2,0123*5F\r\n
$GPGGA,090335.85,5703.3095294,N,00952.3414756,E,2,9,1.2,-2.154,M,40.593,M,1.5,0123*53\r\n
$GPGGA,090335.90,5703.3095575,N,00952.3414283,E,2,9,1.2,-2.151,M,40.593,M,1.5,0123*57\r\n
$GPGGA,090335.95,5703.3095841,N,00952.3413815,E,2,9,1.2,-2.151,M,40.593,M,1.5,0123*5A\r\n
$GPGGA,090336.00,5703.3096112,N,00952.3413320,E,2,9,1.2,-2.156,M,40.593,M,1.5,0123*53\r\n
$GPGGA,090336.05,5703.3096376,N,00952.3412806,E,2,9,1.2,-2.141,M,40.593,M,1.7,0123*5C\r\n
$GPGGA,090336.10,5703.3096613,N,00952.3412327,E,2,9,1.2,-2.134,M,40.593,M,1.7,0123*54\r\n
$GPGGA,090336.15,5703.3096861,N,00952.3411846,E,2,9,1.2,-2.131,M,40.593,M,1.7,0123*50\r\n
$GPGGA,090336.20,5703.3097129,N,00952.3411362,E,2,9,1.2,-2.133,M,40.593,M,1.7,0123*5D\r\n
$GPGGA,090336.25,5703.3097381,N,00952.3410889,E,2,9,1.2,-2.138,M,40.593,M,2.0,0123*58\r\n
$GPGGA,090336.30,5703.3097627,N,00952.3410431,E,2,9,1.2,-2.140,M,40.593,M,2.0,0123*55\r\n
$GPGGA,090336.35,5703.3097891,N,00952.3409961,E,2,9,1.2,-2.140,M,40.593,M,2.0,0123*53\r\n
$GPGGA,090336.40,5703.3098141,N,00952.3409452,E,2,9,1.2,-2.140,M,40.593,M,2.0,0123*57\r\n
$GPGGA,090336.45,5703.3098365,N,00952.3408972,E,2,9,1.2,-2.148,M,40.593,M,0.8,0123*5A\r\n
$GPGGA,090336.50,5703.3098638,N,00952.3408485,E,2,9,1.2,-2.145,M,40.593,M,0.8,0123*5B\r\n
$GPGGA,090336.55,5703.3098924,N,00952.3408047,E,2,9,1.2,-2.143,M,40.593,M,0.8,0123*50\r\n
$GPGGA,090336.60,5703.3099174,N,00952.3407588,E,2,9,1.2,-2.144,M,40.593,M,0.8,0123*54\r\n
$GPGGA,090336.65,5703.3099433,N,00952.3407116,E,2,9,1.2,-2.133,M,40.593,M,1.1,0123*5C\r\n
$GPGGA,090336.70,5703.3099670,N,00952.3406645,E,2,9,1.2,-2.136,M,40.593,M,1.1,0123*58\r\n
$GPGGA,090336.75,5703.3099912,N,00952.3406163,E,2,9,1.2,-2.137,M,40.593,M,1.1,0123*54\r\n
$GPGGA,090336.80,5703.3100147,N,00952.3405686,E,2,9,1.2,-2.138,M,40.593,M,1.1,0123*57\r\n
$GPGGA,090336.85,5703.3100375,N,00952.3405199,E,2,9,1.2,-2.141,M,40.593,M,1.4,0123*53\r\n
$GPGGA,090336.90,5703.3100632,N,00952.3404734,E,2,9,1.2,-2.138,M,40.593,M,1.4,0123*5F\r\n
$GPGGA,090336.95,5703.3100895,N,00952.3404292,E,2,9,1.2,-2.138,M,40.593,M,1.4,0123*50\r\n
$GPGGA,090337.00,5703.3101166,N,00952.3403822,E,2,9,1.2,-2.139,M,40.593,M,1.4,0123*5E\r\n
$GPGGA,090337.05,5703.3101405,N,00952.3403340,E,2,9,1.2,-2.140,M,40.593,M,1.6,0123*58\r\n
$GPGGA,090337.10,5703.3101640,N,00952.3402885,E,2,9,1.2,-2.138,M,40.593,M,1.6,0123*53\r\n
$GPGGA,090337.15,5703.3101888,N,00952.3402447,E,2,9,1.2,-2.139,M,40.593,M,1.6,0123*5F\r\n
$GPGGA,090337.20,5703.3102133,N,00952.3401989,E,2,9,1.2,-2.142,M,40.593,M,1.6,0123*53\r\n
$GPGGA,090337.25,5703.3102381,N,00952.3401522,E,2,9,1.2,-2.144,M,40.593,M,1.9,0123*59\r\n
$GPGGA,090337.30,5703.3102641,N,00952.3401035,E,2,9,1.2,-2.143,M,40.593,M,1.9,0123*50\r\n
$GPGGA,090337.35,5703.3102883,N,00952.3400584,E,2,9,1.2,-2.144,M,40.593,M,1.9,0123*5C\r\n
$GPGGA,090337.40,5703.3103111,N,00952.3400141,E,2,9,1.2,-2.144,M,40.593,M,1.9,0123*50\r\n
$GPGGA,090337.45,5703.3103357,N,00952.3399673,E,2,9,1.2,-2.144,M,40.593,M,2.1,0123*5F\r\n
$GPGGA,090337.50,5703.3103598,N,00952.3399226,E,2,9,1.2,-2.144,M,40.593,M,2.1,0123*5A\r\n
$GPGGA,090337.55,5703.3103861,N,00952.3398771,E,2,9,1.2,-2.140,M,40.593,M,2.1,0123*56\r\n
$GPGGA,090337.60,5703.3104103,N,00952.3398304,E,2,9,1.2,-2.141,M,40.593,M,2.1,0123*5D\r\n
$GPGGA,090337.65,5703.3104330,N,00952.3397839,E,2,9,1.2,-2.140,M,40.593,M,2.3,0123*53\r\n
$GPGGA,090337.70,5703.3104554,N,00952.3397396,E,2,9,1.2,-2.141,M,40.593,M,2.3,0123*5C\r\n
$GPGGA,090337.75,5703.3104809,N,00952.3396920,E,2,9,1.2,-2.142,M,40.593,M,2.3,0123*59\r\n
$GPGGA,090337.80,5703.3105037,N,00952.3396447,E,2,9,1.2,-2.143,M,40.593,M,2.3,0123*5A\r\n
$GPGGA,090337.85,5703.3105287,N,00952.3396030,E,2,9,1.2,-2.152,M,40.593,M,2.6,0123*57\r\n
$GPGGA,090337.90,5703.3105526,N,00952.3395602,E,2,9,1.2,-2.154,M,40.593,M,2.6,0123*5D\r\n
$GPGGA,090337.95,5703.3105741,N,00952.3395148,E,2,9,1.2,-2.157,M,40.593,M,2.6,0123*51\r\n
$GPGGA,090338.00,5703.3105981,N,00952.3394689,E,2,9,1.2,-2.156,M,40.593,M,2.6,0123*5A\r\n
$GPGGA,090338.05,5703.3106227,N,00952.3394224,E,2,9,1.2,-2.152,M,40.593,M,2.8,0123*52\r\n
$GPGGA,090338.10,5703.3106465,N,00952.3393790,E,2,9,1.2,-2.151,M,40.593,M,2.8,0123*58\r\n
$GPGGA,090338.15,5703.3106701,N,00952.3393340,E,2,9,1.2,-2.151,M,40.593,M,2.8,0123*55\r\n
$GPGGA,090338.20,5703.3106941,N,00952.3392900,E,2,9,1.2,-2.151,M,40.593,M,2.8,0123*56\r\n
$GPGGA,090338.25,5703.3107197,N,00952.3392454,E,2,9,1.2,-2.146,M,40.593,M,3.0,0123*52\r\n
$GPGGA,090338.30,5703.3107455,N,00952.3392011,E,2,9,1.2,-2.148,M,40.593,M,3.0,0123*56\r\n
$GPGGA,090338.35,5703.3107693,N,00952.3391551,E,2,9,1.2,-2.147,M,40.593,M,3.0,0123*56\r\n
$GPGGA,090338.40,5703.3107921,N,00952.3391093,E,2,9,1.2,-2.144,M,40.593,M,3.0,0123*5A\r\n
$GPGGA,090338.45,5703.3108141,N,00952.3390670,E,2,9,1.2,-2.151,M,40.593,M,3.2,0123*52\r\n
$GPGGA,090338.50,5703.3108377,N,00952.3390209,E,2,9,1.2,-2.153,M,40.593,M,3.2,0123*59\r\n
$GPGGA,090338.55,5703.3108604,N,00952.3389761,E,2,9,1.2,-2.153,M,40.593,M,3.2,0123*5E\r\n
$GPGGA,090338.60,5703.3108840,N,00952.3389333,E,2,9,1.2,-2.154,M,40.593,M,3.2,0123*52\r\n
$GPGGA,090338.65,5703.3109097,N,00952.3388886,E,2,9,1.2,-2.153,M,40.593,M,3.4,0123*51\r\n
$GPGGA,090338.70,5703.3109334,N,00952.3388451,E,2,9,1.2,-2.154,M,40.593,M,3.4,0123*5E\r\n
$GPGGA,090338.75,5703.3109568,N,00952.3388009,E,2,9,1.2,-2.154,M,40.593,M,3.4,0123*5D\r\n
$GPGGA,090338.80,5703.3109803,N,00952.3387552,E,2,9,1.2,-2.154,M,40.593,M,3.4,0123*53\r\n
$GPGGA,090338.85,5703.3110023,N,00952.3387097,E,2,9,1.2,-2.149,M,40.593,M,3.6,0123*56\r\n
$GPGGA,090338.90,5703.3110255,N,00952.3386633,E,2,9,1.2,-2.147,M,40.593,M,3.6,0123*56\r\n
$GPGGA,090338.95,5703.3110498,N,00952.3386189,E,2,9,1.2,-2.146,M,40.593,M,3.6,0123*53\r\n
$GPGGA,090339.00,5703.3110729,N,00952.3385762,E,2,9,1.2,-2.149,M,40.593,M,3.6,0123*58\r\n
$GPGGA,090339.05,5703.3110949,N,00952.3385314,E,2,9,1.2,-2.149,M,40.593,M,3.8,0123*5E\r\n
$GPGGA,090339.10,5703.3111190,N,00952.3384869,E,2,9,1.2,-2.145,M,40.593,M,3.8,0123*5B\r\n
$GPGGA,090339.15,5703.3111437,N,00952.3384414,E,2,9,1.2,-2.140,M,40.593,M,3.8,0123*55\r\n
$GPGGA,090339.20,5703.3111666,N,00952.3383965,E,2,9,1.2,-2.139,M,40.593,M,3.8,0123*57\r\n
$GPGGA,090339.25,5703.3111889,N,00952.3383531,E,2,9,1.2,-2.149,M,40.593,M,4.0,0123*58\r\n
$GPGGA,090339.30,5703.3112104,N,00952.3383096,E,2,9,1.2,-2.148,M,40.593,M,4.0,0123*5A\r\n
$GPGGA,090339.35,5703.3112325,N,00952.3382659,E,2,9,1.2,-2.147,M,40.593,M,4.0,0123*55\r\n
$GPGGA,090339.40,5703.3112548,N,00952.3382221,E,2,9,1.2,-2.147,M,40.593,M,4.0,0123*51\r\n
$GPGGA,090339.45,5703.3112769,N,00952.3381789,E,2,9,1.2,-2.146,M,40.593,M,2.4,0123*52\r\n
$GPGGA,090339.50,5703.3113014,N,00952.3381341,E,2,9,1.2,-2.144,M,40.593,M,2.4,0123*58\r\n
$GPGGA,090339.55,5703.3113245,N,00952.3380908,E,2,9,1.2,-2.147,M,40.593,M,2.4,0123*5E\r\n
$GPGGA,090339.60,5703.3113457,N,00952.3380472,E,2,9,1.2,-2.148,M,40.593,M,2.4,0123*52\r\n
$GPGGA,090339.65,5703.3113678,N,00952.3380019,E,2,9,1.2,-2.151,M,40.593,M,2.7,0123*5A\r\n
$GPGGA,090339.70,5703.3113915,N,00952.3379578,E,2,9,1.2,-2.150,M,40.593,M,2.7,0123*5F\r\n
$GPGGA,090339.75,5703.3114155,N,00952.3379159,E,2,9,1.2,-2.148,M,40.593,M,2.7,0123*5F\r\n
$GPGGA,090339.80,5703.3114408,N,00952.3378709,E,2,9,1.2,-2.146,M,40.593,M,2.7,0123*54\r\n
$GPGGA,090339.85,5703.3114637,N,00952.3378292,E,2,9,1.2,-2.146,M,40.593,M,2.9,0123*56\r\n
$GPGGA,090339.90,5703.3114854,N,00952.3377858,E,2,9,1.2,-2.149,M,40.593,M,2.9,0123*55\r\n
$GPGGA,090339.95,5703.3115067,N,00952.3377416,E,2,9,1.2,-2.147,M,40.593,M,2.9,0123*51\r\n
$GPGGA,090340.00,5703.3115293,N,00952.3376980,E,2,9,1.2,-2.146,M,40.593,M,2.9,0123*58\r\n
$GPGGA,090340.05,5703.3115497,N,00952.3376550,E,2,9,1.2,-2.148,M,40.593,M,3.2,0123*5A\r\n
$GPGGA,090340.10,5703.3115732,N,00952.3376103,E,2,9,1.2,-2.147,M,40.593,M,3.2,0123*5F\r\n
$GPGGA,090340.15,5703.3115961,N,00952.3375651,E,2,9,1.2,-2.144,M,40.593,M,3.2,0123*52\r\n
$GPGGA,090340.20,5703.3116195,N,00952.3375228,E,2,9,1.2,-2.144,M,40.593,M,3.2,0123*5E\r\n
$GPGGA,090340.25,5703.3116444,N,00952.3374804,E,2,9,1.2,-2.148,M,40.593,M,3.4,0123*5D\r\n
$GPGGA,090340.30,5703.3116670,N,00952.3374356,E,2,9,1.2,-2.150,M,40.593,M,3.4,0123*59\r\n
$GPGGA,090340.35,5703.3116866,N,00952.3373924,E,2,9,1.2,-2.151,M,40.593,M,3.4,0123*5C\r\n
$GPGGA,090340.40,5703.3117083,N,00952.3373504,E,2,9,1.2,-2.151,M,40.593,M,3.4,0123*52\r\n
$GPGGA,090340.45,5703.3117316,N,00952.3373090,E,2,9,1.2,-2.147,M,40.593,M,2.2,0123*50\r\n
$GPGGA,090340.50,5703.3117516,N,00952.3372660,E,2,9,1.2,-2.146,M,40.593,M,2.2,0123*5B\r\n
$GPGGA,090340.55,5703.3117752,N,00952.3372218,E,2,9,1.2,-2.145,M,40.593,M,2.2,0123*54\r\n
$GPGGA,090340.60,5703.3118002,N,00952.3371800,E,2,9,1.2,-2.145,M,40.593,M,2.2,0123*5F\r\n
$GPGGA,090340.65,5703.3118244,N,00952.3371366,E,2,9,1.2,-2.143,M,40.593,M,2.4,0123*51\r\n
$GPGGA,090340.70,5703.3118467,N,00952.3370926,E,2,9,1.2,-2.142,M,40.593,M,2.4,0123*5C\r\n
$GPGGA,090340.75,5703.3118676,N,00952.3370510,E,2,9,1.2,-2.145,M,40.593,M,2.4,0123*55\r\n
$GPGGA,090340.80,5703.3118888,N,00952.3370105,E,2,9,1.2,-2.146,M,40.593,M,2.4,0123*53\r\n
$GPGGA,090340.85,5703.3119117,N,00952.3369696,E,2,9,1.2,-2.152,M,40.593,M,2.7,0123*5B\r\n
$GPGGA,090340.90,5703.3119358,N,00952.3369272,E,2,9,1.2,-2.156,M,40.593,M,2.7,0123*5C\r\n
$GPGGA,090340.95,5703.3119567,N,00952.3368833,E,2,9,1.2,-2.156,M,40.593,M,2.7,0123*5D\r\n
$GPGGA,090341.00,5703.3119773,N,00952.3368403,E,2,9,1.2,-2.155,M,40.593,M,2.7,0123*5B\r\n
$GPGGA,090341.05,5703.3119989,N,00952.3367983,E,2,9,1.2,-2.155,M,40.593,M,2.9,0123*51\r\n
$GPGGA,090341.10,5703.3120211,N,00952.3367574,E,2,9,1.2,-2.158,M,40.593,M,2.9,0123*5C\r\n
$GPGGA,090341.15,5703.3120421,N,00952.3367141,E,2,9,1.2,-2.157,M,40.593,M,2.9,0123*51\r\n
$GPGGA,090341.20,5703.3120652,N,00952.3366702,E,2,9,1.2,-2.154,M,40.593,M,2.9,0123*52\r\n
$GPGGA,090341.25,5703.3120889,N,00952.3366299,E,2,9,1.2,-2.156,M,40.593,M,3.1,0123*53\r\n
$GPGGA,090341.30,5703.3121107,N,00952.3365895,E,2,9,1.2,-2.159,M,40.593,M,3.1,0123*53\r\n
$GPGGA,090341.35,5703.3121325,N,00952.3365465,E,2,9,1.2,-2.162,M,40.593,M,3.1,0123*5F\r\n
$GPGGA,090341.40,5703.3121544,N,00952.3365057,E,2,9,1.2,-2.161,M,40.593,M,3.1,0123*5A\r\n
$GPGGA,090341.45,5703.3121765,N,00952.3364656,E,2,9,1.2,-2.155,M,40.593,M,2.1,0123*5E\r\n
$GPGGA,090341.50,5703.3121996,N,00952.3364236,E,2,9,1.2,-2.153,M,40.593,M,2.1,0123*5C\r\n
$GPGGA,090341.55,5703.3122217,N,00952.3363805,E,2,9,1.2,-2.156,M,40.593,M,2.1,0123*50\r\n
$GPGGA,090341.60,5703.3122451,N,00952.3363377,E,2,9,1.2,-2.159,M,40.593,M,2.1,0123*53\r\n
$GPGGA,090341.65,5703.3122666,N,00952.3362967,E,2,9,1.2,-2.160,M,40.593,M,2.3,0123*52\r\n
$GPGGA,090341.70,5703.3122881,N,00952.3362559,E,2,9,1.2,-2.160,M,40.593,M,2.3,0123*50\r\n
$GPGGA,090341.75,5703.3123107,N,00952.3362141,E,2,9,1.2,-2.158,M,40.593,M,2.3,0123*55\r\n
$GPGGA,090341.80,5703.3123322,N,00952.3361749,E,2,9,1.2,-2.156,M,40.593,M,2.3,0123*59\r\n
$GPGGA,090341.85,5703.3123557,N,00952.3361327,E,2,9,1.2,-2.152,M,40.593,M,2.6,0123*55\r\n
$GPGGA,090341.90,5703.3123790,N,00952.3360899,E,2,9,1.2,-2.150,M,40.593,M,2.6,0123*55\r\n
$GPGGA,090341.95,5703.3124017,N,00952.3360474,E,2,9,1.2,-2.149,M,40.593,M,2.6,0123*58\r\n
$GPGGA,090342.00,5703.3124231,N,00952.3360074,E,2,9,1.2,-2.148,M,40.593,M,2.6,0123*54\r\n
$GPGGA,090342.05,5703.3124457,N,00952.3359671,E,2,9,1.2,-2.148,M,40.593,M,2.8,0123*50\r\n
$GPGGA,090342.10,5703.3124684,N,00952.3359272,E,2,9,1.2,-2.147,M,40.593,M,2.8,0123*50\r\n
$GPGGA,090342.15,5703.3124893,N,00952.3358851,E,2,9,1.2,-2.148,M,40.593,M,2.8,0123*58\r\n
$GPGGA,090342.20,5703.3125107,N,00952.3358436,E,2,9,1.2,-2.152,M,40.593,M,2.8,0123*5D\r\n
$GPGGA,090342.25,5703.3125327,N,00952.3358015,E,2,9,1.2,-2.150,M,40.593,M,3.0,0123*56\r\n
$GPGGA,090342.30,5703.3125552,N,00952.3357587,E,2,9,1.2,-2.150,M,40.593,M,3.0,0123*57\r\n
$GPGGA,090342.35,5703.3125781,N,00952.3357170,E,2,9,1.2,-2.151,M,40.593,M,3.0,0123*53\r\n
$GPGGA,090342.40,5703.3126018,N,00952.3356774,E,2,9,1.2,-2.152,M,40.593,M,3.0,0123*55\r\n
$GPGGA,090342.45,5703.3126251,N,00952.3356364,E,2,9,1.2,-2.148,M,40.593,M,3.2,0123*53\r\n
$GPGGA,090342.50,5703.3126457,N,00952.3355970,E,2,9,1.2,-2.149,M,40.593,M,3.2,0123*5A\r\n
$GPGGA,090342.55,5703.3126687,N,00952.3355576,E,2,9,1.2,-2.148,M,40.593,M,3.2,0123*5B\r\n
$GPGGA,090342.60,5703.3126924,N,00952.3355170,E,2,9,1.2,-2.146,M,40.593,M,3.2,0123*57\r\n
$GPGGA,090342.65,5703.3127145,N,00952.3354762,E,2,9,1.2,-2.145,M,40.593,M,3.4,0123*5D\r\n
$GPGGA,090342.70,5703.3127353,N,00952.3354342,E,2,9,1.2,-2.147,M,40.593,M,3.4,0123*58\r\n
$GPGGA,090342.75,5703.3127585,N,00952.3353907,E,2,9,1.2,-2.146,M,40.593,M,3.4,0123*5D\r\n
$GPGGA,090342.80,5703.3127821,N,00952.3353500,E,2,9,1.2,-2.141,M,40.593,M,3.4,0123*58\r\n
$GPGGA,090342.85,5703.3128047,N,00952.3353110,E,2,9,1.2,-2.143,M,40.593,M,3.6,0123*5F\r\n
$GPGGA,090342.90,5703.3128254,N,00952.3352735,E,2,9,1.2,-2.146,M,40.593,M,3.6,0123*5E\r\n
$GPGGA,090342.95,5703.3128476,N,00952.3352329,E,2,9,1.2,-2.149,M,40.593,M,3.6,0123*5B\r\n
$GPGGA,090343.00,5703.3128716,N,00952.3351923,E,2,9,1.2,-2.151,M,40.593,M,3.6,0123*59\r\n
$GPGGA,090343.05,5703.3128921,N,00952.3351524,E,2,9,1.2,-2.154,M,40.593,M,3.8,0123*56\r\n
$GPGGA,090343.10,5703.3129116,N,00952.3351103,E,2,9,1.2,-2.155,M,40.593,M,3.8,0123*5F\r\n
$GPGGA,090343.15,5703.3129346,N,00952.3350692,E,2,9,1.2,-2.154,M,40.593,M,3.8,0123*52\r\n
$GPGGA,090343.20,5703.3129584,N,00952.3350304,E,2,9,1.2,-2.155,M,40.593,M,3.8,0123*57\r\n
$GPGGA,090343.25,5703.3129820,N,00952.3349915,E,2,9,1.2,-2.147,M,40.593,M,4.0,0123*5F\r\n
$GPGGA,090343.30,5703.3130045,N,00952.3349515,E,2,9,1.2,-2.147,M,40.593,M,4.0,0123*54\r\n
$GPGGA,090343.35,5703.3130264,N,00952.3349098,E,2,9,1.2,-2.145,M,40.593,M,4.0,0123*52\r\n
$GPGGA,090343.40,5703.3130467,N,00952.3348695,E,2,9,1.2,-2.144,M,40.593,M,4.0,0123*5E\r\n
$GPGGA,090343.45,5703.3130669,N,00952.3348302,E,2,9,1.2,-2.153,M,40.593,M,0.9,0123*57\r\n
$GPGGA,090343.50,5703.3130901,N,00952.3347901,E,2,9,1.2,-2.152,M,40.593,M,0.9,0123*55\r\n
$GPGGA,090343.55,5703.3131157,N,00952.3347504,E,2,9,1.2,-2.149,M,40.593,M,0.9,0123*59\r\n
$GPGGA,090343.60,5703.3131390,N,00952.3347105,E,2,9,1.2,-2.148,M,40.593,M,0.9,0123*52\r\n
$GPGGA,090343.65,5703.3131610,N,00952.3346708,E,2,9,1.2,-2.149,M,40.593,M,1.2,0123*5B\r\n
$GPGGA,090343.70,5703.3131850,N,00952.3346302,E,2,9,1.2,-2.149,M,40.593,M,1.2,0123*5B\r\n
$GPGGA,090343.75,5703.3132064,N,00952.3345907,E,2,9,1.2,-2.151,M,40.593,M,1.2,0123*57\r\n
$GPGGA,090343.80,5703.3132267,N,00952.3345527,E,2,9,1.2,-2.151,M,40.593,M,1.2,0123*52\r\n
$GPGGA,090343.85,5703.3132493,N,00952.3345121,E,2,9,1.2,-2.155,M,40.593,M,1.5,0123*5B\r\n
$GPGGA,090343.90,5703.3132720,N,00952.3344731,E,2,9,1.2,-2.158,M,40.593,M,1.5,0123*5F\r\n
$GPGGA,090343.95,5703.3132940,N,00952.3344339,E,2,9,1.2,-2.156,M,40.593,M,1.5,0123*50\r\n
$GPGGA,090344.00,5703.3133185,N,00952.3343940,E,2,9,1.2,-2.158,M,40.593,M,1.5,0123*56\r\n
$GPGGA,090344.05,5703.3133409,N,00952.3343563,E,2,9,1.2,-2.158,M,40.593,M,1.7,0123*5D\r\n
$GPGGA,090344.10,5703.3133633,N,00952.3343186,E,2,9,1.2,-2.157,M,40.593,M,1.7,0123*52\r\n
$GPGGA,090344.15,5703.3133862,N,00952.3342796,E,2,9,1.2,-2.155,M,40.593,M,1.7,0123*59\r\n
$GPGGA,090344.20,5703.3134083,N,00952.3342390,E,2,9,1.2,-2.156,M,40.593,M,1.7,0123*5E\r\n
$GPGGA,090344.25,5703.3134311,N,00952.3341976,E,2,9,1.2,-2.147,M,40.593,M,2.0,0123*56\r\n
$GPGGA,090344.30,5703.3134549,N,00952.3341586,E,2,9,1.2,-2.145,M,40.593,M,2.0,0123*58\r\n
$GPGGA,090344.35,5703.3134761,N,00952.3341193,E,2,9,1.2,-2.145,M,40.593,M,2.0,0123*55\r\n
$GPGGA,090344.40,5703.3134976,N,00952.3340805,E,2,9,1.2,-2.143,M,40.593,M,2.0,0123*5E\r\n
$GPGGA,090344.45,5703.3135205,N,00952.3340417,E,2,9,1.2,-2.146,M,40.593,M,0.8,0123*55\r\n
$GPGGA,090344.50,5703.3135440,N,00952.3340028,E,2,9,1.2,-2.143,M,40.593,M,0.8,0123*5B\r\n
$GPGGA,090344.55,5703.3135673,N,00952.3339640,E,2,9,1.2,-2.142,M,40.593,M,0.8,0123*5B\r\n
$GPGGA,090344.60,5703.3135901,N,00952.3339238,E,2,9,1.2,-2.144,M,40.593,M,0.8,0123*5A\r\n
$GPGGA,090344.65,5703.3136129,N,00952.3338838,E,2,9,1.2,-2.144,M,40.593,M,1.1,0123*5D\r\n
$GPGGA,090344.70,5703.3136346,N,00952.3338460,E,2,9,1.2,-2.145,M,40.593,M,1.1,0123*52\r\n
$GPGGA,090344.75,5703.3136558,N,00952.3338107,E,2,9,1.2,-2.145,M,40.593,M,1.1,0123*5A\r\n
$GPGGA,090344.80,5703.3136783,N,00952.3337746,E,2,9,1.2,-2.144,M,40.593,M,1.1,0123*59\r\n
$GPGGA,090344.85,5703.3137013,N,00952.3337373,E,2,9,1.2,-2.147,M,40.593,M,1.4,0123*57\r\n
$GPGGA,090344.90,5703.3137245,N,00952.3336984,E,2,9,1.2,-2.144,M,40.593,M,1.4,0123*52\r\n
$GPGGA,090344.95,5703.3137457,N,00952.3336602,E,2,9,1.2,-2.144,M,40.593,M,1.4,0123*53\r\n
$GPGGA,090345.00,5703.3137671,N,00952.3336231,E,2,9,1.2,-2.149,M,40.593,M,1.4,0123*51\r\n
$GPGGA,090345.05,5703.3137889,N,00952.3335859,E,2,9,1.2,-2.149,M,40.593,M,1.6,0123*58\r\n
$GPGGA,090345.10,5703.3138119,N,00952.3335488,E,2,9,1.2,-2.149,M,40.593,M,1.6,0123*53\r\n
$GPGGA,090345.15,5703.3138362,N,00952.3335103,E,2,9,1.2,-2.153,M,40.593,M,1.6,0123*55\r\n
$GPGGA,090345.20,5703.3138578,N,00952.3334725,E,2,9,1.2,-2.155,M,40.593,M,1.6,0123*5B\r\n
$GPGGA,090345.25,5703.3138790,N,00952.3334346,E,2,9,1.2,-2.152,M,40.593,M,1.9,0123*53\r\n
$GPGGA,090345.30,5703.3139027,N,00952.3333984,E,2,9,1.2,-2.153,M,40.593,M,1.9,0123*5F\r\n
$GPGGA,090345.35,5703.3139262,N,00952.3333602,E,2,9,1.2,-2.156,M,40.593,M,1.9,0123*5D\r\n
$GPGGA,090345.40,5703.3139481,N,00952.3333213,E,2,9,1.2,-2.158,M,40.593,M,1.9,0123*5E\r\n
$GPGGA,090345.45,5703.3139709,N,00952.3332821,E,2,9,1.2,-2.159,M,40.593,M,2.1,0123*58\r\n
$GPGGA,090345.50,5703.3139945,N,00952.3332443,E,2,9,1.2,-2.160,M,40.593,M,2.1,0123*58\r\n
$GPGGA,090345.55,5703.3140196,N,00952.3332043,E,2,9,1.2,-2.160,M,40.593,M,2.1,0123*51\r\n
$GPGGA,090345.60,5703.3140414,N,00952.3331686,E,2,9,1.2,-2.160,M,40.593,M,2.1,0123*54\r\n
$GPGGA,090345.65,5703.3140633,N,00952.3331340,E,2,9,1.2,-2.160,M,40.593,M,2.3,0123*5B\r\n
$GPGGA,090345.70,5703.3140858,N,00952.3330954,E,2,9,1.2,-2.158,M,40.593,M,2.3,0123*59\r\n
$GPGGA,090345.75,5703.3141091,N,00952.3330559,E,2,9,1.2,-2.155,M,40.593,M,2.3,0123*5C\r\n
$GPGGA,090345.80,5703.3141343,N,00952.3330151,E,2,9,1.2,-2.152,M,40.593,M,2.3,0123*51\r\n
$GPGGA,090345.85,5703.3141573,N,00952.3329779,E,2,9,1.2,-2.153,M,40.593,M,2.6,0123*51\r\n
$GPGGA,090345.90,5703.3141773,N,00952.3329428,E,2,9,1.2,-2.153,M,40.593,M,2.6,0123*50\r\n
$GPGGA,090345.95,5703.3141996,N,00952.3329067,E,2,9,1.2,-2.155,M,40.593,M,2.6,0123*59\r\n
$GPGGA,090346.00,5703.3142223,N,00952.3328693,E,2,9,1.2,-2.157,M,40.593,M,2.6,0123*5E\r\n
$GPGGA,090346.05,5703.3142445,N,00952.3328320,E,2,9,1.2,-2.157,M,40.593,M,2.8,0123*5E\r\n
$GPGGA,090346.10,5703.3142684,N,00952.3327937,E,2,9,1.2,-2.154,M,40.593,M,2.8,0123*55\r\n
$GPGGA,090346.15,5703.3142901,N,00952.3327548,E,2,9,1.2,-2.152,M,40.593,M,2.8,0123*50\r\n
$GPGGA,090346.20,5703.3143117,N,00952.3327168,E,2,9,1.2,-2.154,M,40.593,M,2.8,0123*58\r\n
$GPGGA,090346.25,5703.3143351,N,00952.3326786,E,2,9,1.2,-2.151,M,40.593,M,3.0,0123*56\r\n
$GPGGA,090346.30,5703.3143595,N,00952.3326401,E,2,9,1.2,-2.151,M,40.593,M,3.0,0123*50\r\n
$GPGGA,090346.35,5703.3143813,N,00952.3326004,E,2,9,1.2,-2.152,M,40.593,M,3.0,0123*54\r\n
$GPGGA,090346.40,5703.3144026,N,00952.3325626,E,2,9,1.2,-2.150,M,40.593,M,3.0,0123*58\r\n
$GPGGA,090346.45,5703.3144254,N,00952.3325255,E,2,9,1.2,-2.152,M,40.593,M,0.9,0123*52\r\n
$GPGGA,090346.50,5703.3144496,N,00952.3324871,E,2,9,1.2,-2.155,M,40.593,M,0.9,0123*54\r\n
$GPGGA,090346.55,5703.3144726,N,00952.3324492,E,2,9,1.2,-2.157,M,40.593,M,0.9,0123*5A\r\n
$GPGGA,090346.60,5703.3144957,N,00952.3324101,E,2,9,1.2,-2.160,M,40.593,M,0.9,0123*5F\r\n
$GPGGA,090346.65,5703.3145189,N,00952.3323719,E,2,9,1.2,-2.158,M,40.593,M,1.3,0123*58\r\n
$GPGGA,090346.70,5703.3145418,N,00952.3323336,E,2,9,1.2,-2.156,M,40.593,M,1.3,0123*56\r\n
$GPGGA,090346.75,5703.3145649,N,00952.3322951,E,2,9,1.2,-2.152,M,40.593,M,1.3,0123*5B\r\n
$GPGGA,090346.80,5703.3145870,N,00952.3322602,E,2,9,1.2,-2.155,M,40.593,M,1.3,0123*5B\r\n
$GPGGA,090346.85,5703.3146100,N,00952.3322224,E,2,9,1.2,-2.151,M,40.593,M,1.6,0123*52\r\n
$GPGGA,090346.90,5703.3146341,N,00952.3321850,E,2,9,1.2,-2.149,M,40.593,M,1.6,0123*52\r\n
$GPGGA,090346.95,5703.3146582,N,00952.3321481,E,2,9,1.2,-2.143,M,40.593,M,1.6,0123*54\r\n
$GPGGA,090347.00,5703.3146817,N,00952.3321099,E,2,9,1.2,-2.140,M,40.593,M,1.6,0123*56\r\n
$GPGGA,090347.05,5703.3147057,N,00952.3320726,E,2,9,1.2,-2.140,M,40.593,M,1.9,0123*53\r\n
$GPGGA,090347.10,5703.3147291,N,00952.3320348,E,2,9,1.2,-2.139,M,40.593,M,1.9,0123*5D\r\n
$GPGGA,090347.15,5703.3147512,N,00952.3319982,E,2,9,1.2,-2.139,M,40.593,M,1.9,0123*52\r\n
$GPGGA,090347.20,5703.3147730,N,00952.3319609,E,2,9,1.2,-2.142,M,40.593,M,1.9,0123*56\r\n
$GPGGA,090347.25,5703.3147952,N,00952.3319224,E,2,9,1.2,-2.145,M,40.593,M,2.2,0123*5D\r\n
