$GPGGA,115000.70,5703.4527980,N,00952.1557049,E,2,8,1.0,-0.913,M,40.593,M,2.9,0123*5D\r\n
$GPGGA,115000.75,5703.4527858,N,00952.1556808,E,2,8,1.0,-0.914,M,40.593,M,2.9,0123*57\r\n
$GPGGA,115000.80,5703.4527730,N,00952.1556560,E,2,8,1.0,-0.919,M,40.593,M,2.9,0123*52\r\n
$GPGGA,115000.85,5703.4527609,N,00952.1556299,E,2,8,1.0,-0.923,M,40.593,M,3.1,0123*5D\r\n
$GPGGA,115000.90,5703.4527500,N,00952.1556044,E,2,8,1.0,-0.927,M,40.593,M,3.1,0123*55\r\n
$GPGGA,115000.95,5703.4527379,N,00952.1555801,E,2,8,1.0,-0.927,M,40.593,M,3.1,0123*52\r\n
$GPGGA,115001.00,5703.4527260,N,00952.1555566,E,2,8,1.0,-0.928,M,40.593,M,3.1,0123*55\r\n
$GPGGA,115001.05,5703.4527168,N,00952.1555305,E,2,8,1.0,-0.926,M,40.593,M,3.3,0123*54\r\n
$GPGGA,115001.10,5703.4527053,N,00952.1555034,E,2,8,1.0,-0.926,M,40.593,M,3.3,0123*58\r\n
$GPGGA,115001.15,5703.4526925,N,00952.1554764,E,2,8,1.0,-0.929,M,40.593,M,3.3,0123*58\r\n
$GPGGA,115001.20,5703.4526802,N,00952.1554494,E,2,8,1.0,-0.935,M,40.593,M,3.3,0123*5B\r\n
$GPGGA,115001.25,5703.4526690,N,00952.1554226,E,2,8,1.0,-0.943,M,40.593,M,3.6,0123*50\r\n
$GPGGA,115001.30,5703.4526569,N,00952.1553949,E,2,8,1.0,-0.947,M,40.593,M,3.6,0123*50\r\n
$GPGGA,115001.35,5703.4526458,N,00952.1553670,E,2,8,1.0,-0.949,M,40.593,M,3.6,0123*5D\r\n
$GPGGA,115001.40,5703.4526336,N,00952.1553388,E,2,8,1.0,-0.951,M,40.593,M,3.6,0123*5B\r\n
$GPGGA,115001.45,5703.4526213,N,00952.1553112,E,2,8,1.0,-0.953,M,40.593,M,1.9,0123*56\r\n
$GPGGA,115001.50,5703.4526083,N,00952.1552826,E,2,8,1.0,-0.955,M,40.593,M,1.9,0123*50\r\n
$GPGGA,115001.55,5703.4525962,N,00952.1552535,E,2,8,1.0,-0.959,M,40.593,M,1.9,0123*53\r\n
$GPGGA,115001.60,5703.4525855,N,00952.1552246,E,2,8,1.0,-0.963,M,40.593,M,1.9,0123*5A\r\n
$GPGGA,115001.65,5703.4525739,N,00952.1551936,E,2,8,1.0,-0.965,M,40.593,M,2.1,0123*58\r\n
$GPGGA,115001.70,5703.4525632,N,00952.1551638,E,2,8,1.0,-0.964,M,40.593,M,2.1,0123*56\r\n
$GPGGA,115001.75,5703.4525524,N,00952.1551349,E,2,8,1.0,-0.966,M,40.593,M,2.1,0123*56\r\n
$GPGGA,115001.80,5703.4525404,N,00952.1551051,E,2,8,1.0,-0.969,M,40.593,M,2.1,0123*5A\r\n
$GPGGA,115001.85,5703.4525290,N,00952.1550755,E,2,8,1.0,-0.965,M,40.593,M,2.3,0123*58\r\n
$GPGGA,115001.90,5703.4525173,N,00952.1550436,E,2,8,1.0,-0.965,M,40.593,M,2.3,0123*54\r\n
$GPGGA,115001.95,5703.4525052,N,00952.1550115,E,2,8,1.0,-0.962,M,40.593,M,2.3,0123*50\r\n
$GPGGA,115002.00,5703.4524933,N,00952.1549793,E,2,8,1.0,-0.959,M,40.593,M,2.3,0123*58\r\n
$GPGGA,115002.05,5703.4524822,N,00952.1549472,E,2,8,1.0,-0.956,M,40.593,M,2.6,0123*5A\r\n
$GPGGA,115002.10,5703.4524708,N,00952.1549156,E,2,8,1.0,-0.953,M,40.593,M,2.6,0123*5F\r\n
$GPGGA,115002.15,5703.4524605,N,00952.1548839,E,2,8,1.0,-0.950,M,40.593,M,2.6,0123*54\r\n
$GPGGA,115002.20,5703.4524500,N,00952.1548521,E,2,8,1.0,-0.949,M,40.593,M,2.6,0123*58\r\n
$GPGGA,115002.25,5703.4524396,N,00952.1548205,E,2,8,1.0,-0.941,M,40.593,M,2.8,0123*53\r\n
$GPGGA,115002.30,5703.4524282,N,00952.1547891,E,2,8,1.0,-0.939,M,40.593,M,2.8,0123*54\r\n
$GPGGA,115002.35,5703.4524171,N,00952.1547599,E,2,8,1.0,-0.935,M,40.593,M,2.8,0123*57\r\n
$GPGGA,115002.40,5703.4524045,N,00952.1547298,E,2,8,1.0,-0.930,M,40.593,M,2.8,0123*50\r\n
$GPGGA,115002.45,5703.4523923,N,00952.1546976,E,2,8,1.0,-0.927,M,40.593,M,3.0,0123*5E\r\n
$GPGGA,115002.50,5703.4523805,N,00952.1546670,E,2,8,1.0,-0.925,M,40.593,M,3.0,0123*54\r\n
$GPGGA,115002.55,5703.4523685,N,00952.1546365,E,2,8,1.0,-0.926,M,40.593,M,3.0,0123*55\r\n
$GPGGA,115002.60,5703.4523568,N,00952.1546056,E,2,8,1.0,-0.924,M,40.593,M,3.0,0123*52\r\n
$GPGGA,115002.65,5703.4523450,N,00952.1545737,E,2,8,1.0,-0.926,M,40.593,M,3.2,0123*5E\r\n
$GPGGA,115002.70,5703.4523343,N,00952.1545413,E,2,8,1.0,-0.926,M,40.593,M,3.2,0123*5A\r\n
$GPGGA,115002.75,5703.4523230,N,00952.1545095,E,2,8,1.0,-0.926,M,40.593,M,3.2,0123*50\r\n
$GPGGA,115002.80,5703.4523118,N,00952.1544789,E,2,8,1.0,-0.928,M,40.593,M,3.2,0123*56\r\n
$GPGGA,115002.85,5703.4523006,N,00952.1544479,E,2,8,1.0,-0.934,M,40.593,M,3.4,0123*5A\r\n
$GPGGA,115002.90,5703.4522883,N,00952.1544190,E,2,8,1.0,-0.936,M,40.593,M,3.4,0123*5A\r\n
$GPGGA,115002.95,5703.4522763,N,00952.1543885,E,2,8,1.0,-0.936,M,40.593,M,3.4,0123*54\r\n
$GPGGA,115003.00,5703.4522660,N,00952.1543587,E,2,8,1.0,-0.937,M,40.593,M,3.4,0123*55\r\n
$GPGGA,115003.05,5703.4522570,N,00952.1543294,E,2,8,1.0,-0.934,M,40.593,M,3.6,0123*56\r\n
$GPGGA,115003.10,5703.4522450,N,00952.1543011,E,2,8,1.0,-0.936,M,40.593,M,3.6,0123*5C\r\n
$GPGGA,115003.15,5703.4522345,N,00952.1542753,E,2,8,1.0,-0.938,M,40.593,M,3.6,0123*54\r\n
$GPGGA,115003.20,5703.4522239,N,00952.1542492,E,2,8,1.0,-0.939,M,40.593,M,3.6,0123*57\r\n
$GPGGA,115003.25,5703.4522123,N,00952.1542214,E,2,8,1.0,-0.945,M,40.593,M,3.8,0123*57\r\n
$GPGGA,115003.30,5703.4522012,N,00952.1541961,E,2,8,1.0,-0.945,M,40.593,M,3.8,0123*5A\r\n
$GPGGA,115003.35,5703.4521913,N,00952.1541726,E,2,8,1.0,-0.944,M,40.593,M,3.8,0123*58\r\n
$GPGGA,115003.40,5703.4521807,N,00952.1541489,E,2,8,1.0,-0.943,M,40.593,M,3.8,0123*5F\r\n
$GPGGA,115003.45,5703.4521696,N,00952.1541252,E,2,8,1.0,-0.938,M,40.593,M,2.5,0123*5C\r\n
$GPGGA,115003.50,5703.4521584,N,00952.1541022,E,2,8,1.0,-0.936,M,40.593,M,2.5,0123*53\r\n
$GPGGA,115003.55,5703.4521479,N,00952.1540793,E,2,8,1.0,-0.935,M,40.593,M,2.5,0123*5A\r\n
$GPGGA,115003.60,5703.4521372,N,00952.1540546,E,2,8,1.0,-0.934,M,40.593,M,2.5,0123*5B\r\n
$GPGGA,115003.65,5703.4521273,N,00952.1540304,E,2,8,1.0,-0.934,M,40.593,M,2.7,0123*5C\r\n
$GPGGA,115003.70,5703.4521158,N,00952.1540072,E,2,8,1.0,-0.932,M,40.593,M,2.7,0123*56\r\n
$GPGGA,115003.75,5703.4521057,N,00952.1539839,E,2,8,1.0,-0.929,M,40.593,M,2.7,0123*5E\r\n
$GPGGA,115003.80,5703.4520949,N,00952.1539593,E,2,8,1.0,-0.929,M,40.593,M,2.7,0123*5E\r\n
$GPGGA,115003.85,5703.4520853,N,00952.1539352,E,2,8,1.0,-0.927,M,40.593,M,2.9,0123*5A\r\n
$GPGGA,115003.90,5703.4520751,N,00952.1539111,E,2,8,1.0,-0.924,M,40.593,M,2.9,0123*55\r\n
$GPGGA,115003.95,5703.4520646,N,00952.1538869,E,2,8,1.0,-0.923,M,40.593,M,2.9,0123*57\r\n
$GPGGA,115004.00,5703.4520531,N,00952.1538620,E,2,8,1.0,-0.923,M,40.593,M,2.9,0123*5C\r\n
$GPGGA,115004.05,5703.4520433,N,00952.1538357,E,2,8,1.0,-0.923,M,40.593,M,3.2,0123*55\r\n
$GPGGA,115004.10,5703.4520333,N,00952.1538102,E,2,8,1.0,-0.924,M,40.593,M,3.2,0123*53\r\n
$GPGGA,115004.15,5703.4520234,N,00952.1537824,E,2,8,1.0,-0.924,M,40.593,M,3.2,0123*52\r\n
$GPGGA,115004.20,5703.4520127,N,00952.1537534,E,2,8,1.0,-0.926,M,40.593,M,3.2,0123*5B\r\n
$GPGGA,115004.25,5703.4520012,N,00952.1537246,E,2,8,1.0,-0.937,M,40.593,M,3.4,0123*5D\r\n
$GPGGA,115004.30,5703.4519891,N,00952.1536963,E,2,8,1.0,-0.940,M,40.593,M,3.4,0123*5D\r\n
$GPGGA,115004.35,5703.4519787,N,00952.1536690,E,2,8,1.0,-0.943,M,40.593,M,3.4,0123*50\r\n
$GPGGA,115004.40,5703.4519679,N,00952.1536402,E,2,8,1.0,-0.948,M,40.593,M,3.4,0123*50\r\n
$GPGGA,115004.45,5703.4519577,N,00952.1536106,E,2,8,1.0,-0.960,M,40.593,M,2.6,0123*50\r\n
$GPGGA,115004.50,5703.4519471,N,00952.1535823,E,2,8,1.0,-0.966,M,40.593,M,2.6,0123*58\r\n
$GPGGA,115004.55,5703.4519353,N,00952.1535530,E,2,8,1.0,-0.971,M,40.593,M,2.6,0123*53\r\n
$GPGGA,115004.60,5703.4519238,N,00952.1535259,E,2,8,1.0,-0.974,M,40.593,M,2.6,0123*54\r\n
$GPGGA,115004.65,5703.4519129,N,00952.1534990,E,2,8,1.0,-0.970,M,40.593,M,2.9,0123*56\r\n
$GPGGA,115004.70,5703.4519024,N,00952.1534717,E,2,8,1.0,-0.967,M,40.593,M,2.9,0123*59\r\n
$GPGGA,115004.75,5703.4518919,N,00952.1534446,E,2,8,1.0,-0.966,M,40.593,M,2.9,0123*5C\r\n
$GPGGA,115004.80,5703.4518819,N,00952.1534174,E,2,8,1.0,-0.964,M,40.593,M,2.9,0123*51\r\n
$GPGGA,115004.85,5703.4518721,N,00952.1533913,E,2,8,1.0,-0.960,M,40.593,M,3.1,0123*53\r\n
$GPGGA,115004.90,5703.4518614,N,00952.1533649,E,2,8,1.0,-0.959,M,40.593,M,3.1,0123*5A\r\n
$GPGGA,115004.95,5703.4518494,N,00952.1533369,E,2,8,1.0,-0.957,M,40.593,M,3.1,0123*5C\r\n
$GPGGA,115005.00,5703.4518383,N,00952.1533081,E,2,8,1.0,-0.956,M,40.593,M,3.1,0123*54\r\n
$GPGGA,115005.05,5703.4518280,N,00952.1532792,E,2,8,1.0,-0.952,M,40.593,M,3.3,0123*51\r\n
$GPGGA,115005.10,5703.4518171,N,00952.1532523,E,2,8,1.0,-0.948,M,40.593,M,3.3,0123*5B\r\n
$GPGGA,115005.15,5703.4518059,N,00952.1532248,E,2,8,1.0,-0.942,M,40.593,M,3.3,0123*55\r\n
$GPGGA,115005.20,5703.4517950,N,00952.1531973,E,2,8,1.0,-0.934,M,40.593,M,3.3,0123*5D\r\n
$GPGGA,115005.25,5703.4517850,N,00952.1531701,E,2,8,1.0,-0.923,M,40.593,M,3.6,0123*51\r\n
$GPGGA,115005.30,5703.4517732,N,00952.1531415,E,2,8,1.0,-0.917,M,40.593,M,3.6,0123*5F\r\n
$GPGGA,115005.35,5703.4517622,N,00952.1531120,E,2,8,1.0,-0.911,M,40.593,M,3.6,0123*5F\r\n
$GPGGA,115005.40,5703.4517511,N,00952.1530841,E,2,8,1.0,-0.906,M,40.593,M,3.6,0123*57\r\n
$GPGGA,115005.45,5703.4517410,N,00952.1530575,E,2,8,1.0,-0.899,M,40.593,M,1.9,0123*52\r\n
$GPGGA,115005.50,5703.4517309,N,00952.1530320,E,2,8,1.0,-0.891,M,40.593,M,1.9,0123*57\r\n
$GPGGA,115005.55,5703.4517195,N,00952.1530066,E,2,8,1.0,-0.888,M,40.593,M,1.9,0123*5C\r\n
$GPGGA,115005.60,5703.4517085,N,00952.1529825,E,2,8,1.0,-0.884,M,40.593,M,1.9,0123*51\r\n
$GPGGA,115005.65,5703.4516974,N,00952.1529586,E,2,8,1.0,-0.882,M,40.593,M,2.1,0123*5B\r\n
$GPGGA,115005.70,5703.4516857,N,00952.1529355,E,2,8,1.0,-0.882,M,40.593,M,2.1,0123*57\r\n
$GPGGA,115005.75,5703.4516747,N,00952.1529134,E,2,8,1.0,-0.885,M,40.593,M,2.1,0123*5E\r\n
$GPGGA,115005.80,5703.4516641,N,00952.1528915,E,2,8,1.0,-0.889,M,40.593,M,2.1,0123*55\r\n
$GPGGA,115005.85,5703.4516536,N,00952.1528691,E,2,8,1.0,-0.897,M,40.593,M,2.3,0123*5D\r\n
$GPGGA,115005.90,5703.4516441,N,00952.1528480,E,2,8,1.0,-0.898,M,40.593,M,2.3,0123*55\r\n
$GPGGA,115005.95,5703.4516349,N,00952.1528280,E,2,8,1.0,-0.900,M,40.593,M,2.3,0123*59\r\n
$GPGGA,115006.00,5703.4516257,N,00952.1528083,E,2,8,1.0,-0.905,M,40.593,M,2.3,0123*5C\r\n
$GPGGA,115006.05,5703.4516161,N,00952.1527896,E,2,8,1.0,-0.916,M,40.593,M,2.6,0123*5B\r\n
$GPGGA,115006.10,5703.4516061,N,00952.1527740,E,2,8,1.0,-0.920,M,40.593,M,2.6,0123*5F\r\n
$GPGGA,115006.15,5703.4515964,N,00952.1527557,E,2,8,1.0,-0.924,M,40.593,M,2.6,0123*55\r\n
$GPGGA,115006.20,5703.4515873,N,00952.1527369,E,2,8,1.0,-0.931,M,40.593,M,2.6,0123*5B\r\n
$GPGGA,115006.25,5703.4515788,N,00952.1527193,E,2,8,1.0,-0.933,M,40.593,M,2.8,0123*5E\r\n
$GPGGA,115006.30,5703.4515690,N,00952.1527023,E,2,8,1.0,-0.937,M,40.593,M,2.8,0123*5C\r\n
$GPGGA,115006.35,5703.4515596,N,00952.1526853,E,2,8,1.0,-0.941,M,40.593,M,2.8,0123*53\r\n
$GPGGA,115006.40,5703.4515514,N,00952.1526684,E,2,8,1.0,-0.947,M,40.593,M,2.8,0123*59\r\n
$GPGGA,115006.45,5703.4515421,N,00952.1526501,E,2,8,1.0,-0.958,M,40.593,M,3.0,0123*52\r\n
$GPGGA,115006.50,5703.4515337,N,00952.1526343,E,2,8,1.0,-0.959,M,40.593,M,3.0,0123*57\r\n
$GPGGA,115006.55,5703.4515252,N,00952.1526186,E,2,8,1.0,-0.961,M,40.593,M,3.0,0123*50\r\n
$GPGGA,115006.60,5703.4515158,N,00952.1526014,E,2,8,1.0,-0.963,M,40.593,M,3.0,0123*57\r\n
$GPGGA,115006.65,5703.4515062,N,00952.1525839,E,2,8,1.0,-0.962,M,40.593,M,3.2,0123*5D\r\n
$GPGGA,115006.70,5703.4514966,N,00952.1525654,E,2,8,1.0,-0.963,M,40.593,M,3.2,0123*51\r\n
$GPGGA,115006.75,5703.4514879,N,00952.1525486,E,2,8,1.0,-0.968,M,40.593,M,3.2,0123*5D\r\n
$GPGGA,115006.80,5703.4514781,N,00952.1525298,E,2,8,1.0,-0.973,M,40.593,M,3.2,0123*5C\r\n
$GPGGA,115006.85,5703.4514669,N,00952.1525106,E,2,8,1.0,-0.979,M,40.593,M,3.4,0123*56\r\n
$GPGGA,115006.90,5703.4514570,N,00952.1524916,E,2,8,1.0,-0.980,M,40.593,M,3.4,0123*57\r\n
$GPGGA,115006.95,5703.4514474,N,00952.1524748,E,2,8,1.0,-0.977,M,40.593,M,3.4,0123*5A\r\n
$GPGGA,115007.00,5703.4514370,N,00952.1524569,E,2,8,1.0,-0.975,M,40.593,M,3.4,0123*57\r\n
$GPGGA,115007.05,5703.4514287,N,00952.1524373,E,2,8,1.0,-0.972,M,40.593,M,3.6,0123*53\r\n
$GPGGA,115007.10,5703.4514182,N,00952.1524166,E,2,8,1.0,-0.973,M,40.593,M,3.6,0123*56\r\n
$GPGGA,115007.15,5703.4514077,N,00952.1523970,E,2,8,1.0,-0.972,M,40.593,M,3.6,0123*51\r\n
$GPGGA,115007.20,5703.4513975,N,00952.1523762,E,2,8,1.0,-0.969,M,40.593,M,3.6,0123*5C\r\n
$GPGGA,115007.25,5703.4513875,N,00952.1523559,E,2,8,1.0,-0.962,M,40.593,M,3.8,0123*57\r\n
$GPGGA,115007.30,5703.4513778,N,00952.1523357,E,2,8,1.0,-0.958,M,40.593,M,3.8,0123*50\r\n
$GPGGA,115007.35,5703.4513668,N,00952.1523162,E,2,8,1.0,-0.954,M,40.593,M,3.8,0123*5D\r\n
$GPGGA,115007.40,5703.4513557,N,00952.1522944,E,2,8,1.0,-0.950,M,40.593,M,3.8,0123*59\r\n
$GPGGA,115007.45,5703.4513437,N,00952.1522712,E,2,8,1.0,-0.950,M,40.593,M,2.5,0123*5A\r\n
$GPGGA,115007.50,5703.4513312,N,00952.1522479,E,2,8,1.0,-0.948,M,40.593,M,2.5,0123*59\r\n
$GPGGA,115007.55,5703.4513193,N,00952.1522241,E,2,8,1.0,-0.947,M,40.593,M,2.5,0123*55\r\n
$GPGGA,115007.60,5703.4513072,N,00952.1522032,E,2,8,1.0,-0.944,M,40.593,M,2.5,0123*58\r\n
$GPGGA,115007.65,5703.4512957,N,00952.1521824,E,2,8,1.0,-0.946,M,40.593,M,2.7,0123*5E\r\n
$GPGGA,115007.70,5703.4512850,N,00952.1521632,E,2,8,1.0,-0.942,M,40.593,M,2.7,0123*51\r\n
$GPGGA,115007.75,5703.4512756,N,00952.1521442,E,2,8,1.0,-0.940,M,40.593,M,2.7,0123*5A\r\n
$GPGGA,115007.80,5703.4512668,N,00952.1521248,E,2,8,1.0,-0.935,M,40.593,M,2.7,0123*52\r\n
$GPGGA,115007.85,5703.4512572,N,00952.1521091,E,2,8,1.0,-0.931,M,40.593,M,2.9,0123*53\r\n
$GPGGA,115007.90,5703.4512489,N,00952.1520935,E,2,8,1.0,-0.927,M,40.593,M,2.9,0123*53\r\n
$GPGGA,115007.95,5703.4512401,N,00952.1520791,E,2,8,1.0,-0.924,M,40.593,M,2.9,0123*55\r\n
$GPGGA,115008.00,5703.4512309,N,00952.1520652,E,2,8,1.0,-0.919,M,40.593,M,2.9,0123*59\r\n
$GPGGA,115008.05,5703.4512232,N,00952.1520536,E,2,8,1.0,-0.909,M,40.593,M,3.2,0123*5F\r\n
$GPGGA,115008.10,5703.4512155,N,00952.1520435,E,2,8,1.0,-0.902,M,40.593,M,3.2,0123*50\r\n
$GPGGA,115008.15,5703.4512079,N,00952.1520341,E,2,8,1.0,-0.897,M,40.593,M,3.2,0123*53\r\n
$GPGGA,115008.20,5703.4512001,N,00952.1520256,E,2,8,1.0,-0.897,M,40.593,M,3.2,0123*5D\r\n
$GPGGA,115008.25,5703.4511934,N,00952.1520182,E,2,8,1.0,-0.891,M,40.593,M,3.4,0123*5E\r\n
$GPGGA,115008.30,5703.4511858,N,00952.1520090,E,2,8,1.0,-0.891,M,40.593,M,3.4,0123*53\r\n
$GPGGA,115008.35,5703.4511774,N,00952.1519973,E,2,8,1.0,-0.892,M,40.593,M,3.4,0123*5A\r\n
$GPGGA,115008.40,5703.4511692,N,00952.1519851,E,2,8,1.0,-0.893,M,40.593,M,3.4,0123*51\r\n
$GPGGA,115008.45,5703.4511612,N,00952.1519730,E,2,8,1.0,-0.898,M,40.593,M,2.6,0123*5C\r\n
$GPGGA,115008.50,5703.4511539,N,00952.1519614,E,2,8,1.0,-0.899,M,40.593,M,2.6,0123*54\r\n
$GPGGA,115008.55,5703.4511476,N,00952.1519501,E,2,8,1.0,-0.900,M,40.593,M,2.6,0123*5D\r\n
$GPGGA,115008.60,5703.4511408,N,00952.1519374,E,2,8,1.0,-0.904,M,40.593,M,2.6,0123*52\r\n
$GPGGA,115008.65,5703.4511334,N,00952.1519229,E,2,8,1.0,-0.906,M,40.593,M,2.9,0123*5B\r\n
$GPGGA,115008.70,5703.4511265,N,00952.1519100,E,2,8,1.0,-0.908,M,40.593,M,2.9,0123*5C\r\n
$GPGGA,115008.75,5703.4511196,N,00952.1518969,E,2,8,1.0,-0.908,M,40.593,M,2.9,0123*50\r\n
$GPGGA,115008.80,5703.4511129,N,00952.1518839,E,2,8,1.0,-0.909,M,40.593,M,2.9,0123*5B\r\n
$GPGGA,115008.85,5703.4511059,N,00952.1518705,E,2,8,1.0,-0.910,M,40.593,M,3.1,0123*59\r\n
$GPGGA,115008.90,5703.4510994,N,00952.1518564,E,2,8,1.0,-0.912,M,40.593,M,3.1,0123*53\r\n
$GPGGA,115008.95,5703.4510930,N,00952.1518437,E,2,8,1.0,-0.913,M,40.593,M,3.1,0123*5E\r\n
$GPGGA,115009.00,5703.4510859,N,00952.1518331,E,2,8,1.0,-0.912,M,40.593,M,3.1,0123*5D\r\n
$GPGGA,115009.05,5703.4510791,N,00952.1518207,E,2,8,1.0,-0.914,M,40.593,M,3.3,0123*53\r\n
$GPGGA,115009.10,5703.4510733,N,00952.1518101,E,2,8,1.0,-0.915,M,40.593,M,3.3,0123*5B\r\n
$GPGGA,115009.15,5703.4510667,N,00952.1517982,E,2,8,1.0,-0.916,M,40.593,M,3.3,0123*51\r\n
$GPGGA,115009.20,5703.4510598,N,00952.1517864,E,2,8,1.0,-0.917,M,40.593,M,3.3,0123*5C\r\n
$GPGGA,115009.25,5703.4510533,N,00952.1517745,E,2,8,1.0,-0.917,M,40.593,M,3.6,0123*51\r\n
$GPGGA,115009.30,5703.4510469,N,00952.1517603,E,2,8,1.0,-0.919,M,40.593,M,3.6,0123*56\r\n
$GPGGA,115009.35,5703.4510410,N,00952.1517465,E,2,8,1.0,-0.922,M,40.593,M,3.6,0123*57\r\n
$GPGGA,115009.40,5703.4510334,N,00952.1517309,E,2,8,1.0,-0.922,M,40.593,M,3.6,0123*59\r\n
$GPGGA,115009.45,5703.4510259,N,00952.1517138,E,2,8,1.0,-0.929,M,40.593,M,1.9,0123*50\r\n
$GPGGA,115009.50,5703.4510172,N,00952.1516956,E,2,8,1.0,-0.931,M,40.593,M,1.9,0123*56\r\n
$GPGGA,115009.55,5703.4510073,N,00952.1516794,E,2,8,1.0,-0.933,M,40.593,M,1.9,0123*51\r\n
$GPGGA,115009.60,5703.4509966,N,00952.1516611,E,2,8,1.0,-0.938,M,40.593,M,1.9,0123*55\r\n
$GPGGA,115009.65,5703.4509861,N,00952.1516421,E,2,7,1.0,-0.936,M,40.593,M,2.1,0123*5D\r\n
$GPGGA,115009.70,5703.4509762,N,00952.1516244,E,2,7,1.0,-0.935,M,40.593,M,2.1,0123*53\r\n
$GPGGA,115009.75,5703.4509659,N,00952.1516059,E,2,7,1.0,-0.934,M,40.593,M,2.1,0123*50\r\n
$GPGGA,115009.80,5703.4509560,N,00952.1515880,E,2,7,1.0,-0.929,M,40.593,M,2.1,0123*50\r\n
$GPGGA,115009.85,5703.4509425,N,00952.1515713,E,2,7,1.0,-0.928,M,40.593,M,2.3,0123*53\r\n
$GPGGA,115009.90,5703.4509283,N,00952.1515527,E,2,7,1.0,-0.925,M,40.593,M,2.3,0123*55\r\n
$GPGGA,115009.95,5703.4509145,N,00952.1515356,E,2,7,1.0,-0.922,M,40.593,M,2.3,0123*5E\r\n
$GPGGA,115010.00,5703.4509012,N,00952.1515199,E,2,7,1.0,-0.919,M,40.593,M,2.3,0123*50\r\n
$GPGGA,115010.05,5703.4508855,N,00952.1515041,E,2,7,1.0,-0.920,M,40.593,M,2.6,0123*54\r\n
$GPGGA,115010.10,5703.4508692,N,00952.1514878,E,2,7,1.0,-0.918,M,40.593,M,2.6,0123*5D\r\n
$GPGGA,115010.15,5703.4508513,N,00952.1514735,E,2,7,1.0,-0.910,M,40.593,M,2.6,0123*5C\r\n
$GPGGA,115010.20,5703.4508325,N,00952.1514605,E,2,7,1.0,-0.901,M,40.593,M,2.6,0123*5B\r\n
$GPGGA,115010.25,5703.4508126,N,00952.1514466,E,2,8,1.0,-0.894,M,40.593,M,2.8,0123*54\r\n
$GPGGA,115010.30,5703.4507910,N,00952.1514303,E,2,8,1.0,-0.888,M,40.593,M,2.8,0123*5B\r\n
$GPGGA,115010.35,5703.4507680,N,00952.1514144,E,2,8,1.0,-0.883,M,40.593,M,2.8,0123*52\r\n
$GPGGA,115010.40,5703.4507439,N,00952.1513979,E,2,8,1.0,-0.877,M,40.593,M,2.8,0123*5A\r\n
$GPGGA,115010.45,5703.4507174,N,00952.1513814,E,2,8,1.0,-0.878,M,40.593,M,3.0,0123*5F\r\n
$GPGGA,115010.50,5703.4506886,N,00952.1513685,E,2,8,1.0,-0.873,M,40.593,M,3.0,0123*53\r\n
$GPGGA,115010.55,5703.4506588,N,00952.1513564,E,2,8,1.0,-0.871,M,40.593,M,3.0,0123*5B\r\n
$GPGGA,115010.60,5703.4506281,N,00952.1513438,E,2,8,1.0,-0.869,M,40.593,M,3.0,0123*52\r\n
$GPGGA,115010.65,5703.4505952,N,00952.1513292,E,2,8,1.0,-0.865,M,40.593,M,3.2,0123*59\r\n
$GPGGA,115010.70,5703.4505622,N,00952.1513154,E,2,8,1.0,-0.861,M,40.593,M,3.2,0123*58\r\n
$GPGGA,115010.75,5703.4505261,N,00952.1513035,E,2,8,1.0,-0.858,M,40.593,M,3.2,0123*52\r\n
$GPGGA,115010.80,5703.4504885,N,00952.1512933,E,2,8,1.0,-0.856,M,40.593,M,3.2,0123*59\r\n
$GPGGA,115010.85,5703.4504503,N,00952.1512834,E,2,8,1.0,-0.852,M,40.593,M,3.4,0123*5B\r\n
$GPGGA,115010.90,5703.4504114,N,00952.1512733,E,2,8,1.0,-0.850,M,40.593,M,3.4,0123*57\r\n
$GPGGA,115010.95,5703.4503722,N,00952.1512648,E,2,8,1.0,-0.848,M,40.593,M,3.4,0123*52\r\n
$GPGGA,115011.00,5703.4503312,N,00952.1512572,E,2,8,1.0,-0.846,M,40.593,M,3.4,0123*5C\r\n
$GPGGA,115011.05,5703.4502874,N,00952.1512487,E,2,8,1.0,-0.844,M,40.593,M,3.6,0123*58\r\n
$GPGGA,115011.10,5703.4502432,N,00952.1512416,E,2,8,1.0,-0.842,M,40.593,M,3.6,0123*5C\r\n
$GPGGA,115011.15,5703.4501973,N,00952.1512333,E,2,8,1.0,-0.842,M,40.593,M,3.6,0123*52\r\n
$GPGGA,115011.20,5703.4501511,N,00952.1512243,E,2,8,1.0,-0.840,M,40.593,M,3.6,0123*58\r\n
$GPGGA,115011.25,5703.4501033,N,00952.1512155,E,2,8,1.0,-0.835,M,40.593,M,3.8,0123*50\r\n
$GPGGA,115011.30,5703.4500554,N,00952.1512089,E,2,8,1.0,-0.832,M,40.593,M,3.8,0123*56\r\n
$GPGGA,115011.35,5703.4500074,N,00952.1512022,E,2,8,1.0,-0.827,M,40.593,M,3.8,0123*51\r\n
$GPGGA,115011.40,5703.4499581,N,00952.1511964,E,2,8,1.0,-0.822,M,40.593,M,3.8,0123*50\r\n
$GPGGA,115011.45,5703.4499057,N,00952.1511893,E,2,8,1.0,-0.826,M,40.593,M,1.2,0123*5E\r\n
$GPGGA,115011.50,5703.4498525,N,00952.1511806,E,2,8,1.0,-0.826,M,40.593,M,1.2,0123*57\r\n
$GPGGA,115011.55,5703.4497994,N,00952.1511761,E,2,8,1.0,-0.823,M,40.593,M,1.2,0123*50\r\n
$GPGGA,115011.60,5703.4497451,N,00952.1511713,E,2,8,1.0,-0.821,M,40.593,M,1.2,0123*55\r\n
$GPGGA,115011.65,5703.4496913,N,00952.1511664,E,2,8,1.0,-0.824,M,40.593,M,1.5,0123*59\r\n
$GPGGA,115011.70,5703.4496355,N,00952.1511613,E,2,8,1.0,-0.822,M,40.593,M,1.5,0123*53\r\n
$GPGGA,115011.75,5703.4495789,N,00952.1511556,E,2,8,1.0,-0.824,M,40.593,M,1.5,0123*54\r\n
$GPGGA,115011.80,5703.4495221,N,00952.1511502,E,2,8,1.0,-0.826,M,40.593,M,1.5,0123*5A\r\n
$GPGGA,115011.85,5703.4494640,N,00952.1511459,E,2,8,1.0,-0.820,M,40.593,M,1.8,0123*59\r\n
$GPGGA,115011.90,5703.4494039,N,00952.1511408,E,2,8,1.0,-0.820,M,40.593,M,1.8,0123*51\r\n
$GPGGA,115011.95,5703.4493436,N,00952.1511340,E,2,8,1.0,-0.822,M,40.593,M,1.8,0123*51\r\n
$GPGGA,115012.00,5703.4492828,N,00952.1511260,E,2,8,1.0,-0.827,M,40.593,M,1.8,0123*5A\r\n
$GPGGA,115012.05,5703.4492204,N,00952.1511185,E,2,8,1.0,-0.830,M,40.593,M,2.1,0123*5F\r\n
$GPGGA,115012.10,5703.4491588,N,00952.1511104,E,2,8,1.0,-0.833,M,40.593,M,2.1,0123*51\r\n
$GPGGA,115012.15,5703.4490959,N,00952.1511026,E,2,8,1.0,-0.835,M,40.593,M,2.1,0123*52\r\n
$GPGGA,115012.20,5703.4490345,N,00952.1510962,E,2,8,1.0,-0.835,M,40.593,M,2.1,0123*5B\r\n
$GPGGA,115012.25,5703.4489709,N,00952.1510894,E,2,8,1.0,-0.829,M,40.593,M,2.4,0123*5A\r\n
$GPGGA,115012.30,5703.4489064,N,00952.1510816,E,2,8,1.0,-0.833,M,40.593,M,2.4,0123*53\r\n
$GPGGA,115012.35,5703.4488429,N,00952.1510726,E,2,8,1.0,-0.838,M,40.593,M,2.4,0123*5D\r\n
$GPGGA,115012.40,5703.4487775,N,00952.1510656,E,2,8,1.0,-0.842,M,40.593,M,2.4,0123*51\r\n
$GPGGA,115012.45,5703.4487129,N,00952.1510584,E,2,8,1.0,-0.842,M,40.593,M,0.7,0123*56\r\n
$GPGGA,115012.50,5703.4486481,N,00952.1510512,E,2,8,1.0,-0.840,M,40.593,M,0.7,0123*59\r\n
$GPGGA,115012.55,5703.4485835,N,00952.1510448,E,2,8,1.0,-0.838,M,40.593,M,0.7,0123*5D\r\n
$GPGGA,115012.60,5703.4485165,N,00952.1510341,E,2,8,1.0,-0.841,M,40.593,M,0.7,0123*57\r\n
$GPGGA,115012.65,5703.4484496,N,00952.1510249,E,2,8,1.0,-0.842,M,40.593,M,0.9,0123*5E\r\n
$GPGGA,115012.70,5703.4483836,N,00952.1510162,E,2,8,1.0,-0.844,M,40.593,M,0.9,0123*57\r\n
$GPGGA,115012.75,5703.4483158,N,00952.1510078,E,2,8,1.0,-0.844,M,40.593,M,0.9,0123*59\r\n
$GPGGA,115012.80,5703.4482457,N,00952.1510012,E,2,8,1.0,-0.842,M,40.593,M,0.9,0123*52\r\n
$GPGGA,115012.85,5703.4481778,N,00952.1509922,E,2,8,1.0,-0.844,M,40.593,M,1.2,0123*54\r\n
$GPGGA,115012.90,5703.4481094,N,00952.1509814,E,2,8,1.0,-0.846,M,40.593,M,1.2,0123*53\r\n
$GPGGA,115012.95,5703.4480422,N,00952.1509713,E,2,8,1.0,-0.847,M,40.593,M,1.2,0123*57\r\n
$GPGGA,115013.00,5703.4479740,N,00952.1509593,E,2,8,1.0,-0.848,M,40.593,M,1.2,0123*5E\r\n
$GPGGA,115013.05,5703.4479028,N,00952.1509485,E,2,8,1.0,-0.842,M,40.593,M,1.4,0123*58\r\n
$GPGGA,115013.10,5703.4478328,N,00952.1509358,E,2,8,1.0,-0.843,M,40.593,M,1.4,0123*58\r\n
$GPGGA,115013.15,5703.4477617,N,00952.1509221,E,2,8,1.0,-0.847,M,40.593,M,1.4,0123*50\r\n
$GPGGA,115013.20,5703.4476935,N,00952.1509094,E,2,8,1.0,-0.845,M,40.593,M,1.4,0123*56\r\n
$GPGGA,115013.25,5703.4476241,N,00952.1508965,E,2,8,1.0,-0.837,M,40.593,M,1.7,0123*5B\r\n
$GPGGA,115013.30,5703.4475541,N,00952.1508836,E,2,8,1.0,-0.834,M,40.593,M,1.7,0123*5F\r\n
$GPGGA,115013.35,5703.4474835,N,00952.1508728,E,2,8,1.0,-0.831,M,40.593,M,1.7,0123*50\r\n
$GPGGA,115013.40,5703.4474136,N,00952.1508595,E,2,8,1.0,-0.829,M,40.593,M,1.7,0123*55\r\n
$GPGGA,115013.45,5703.4473442,N,00952.1508453,E,2,8,1.0,-0.824,M,40.593,M,1.9,0123*59\r\n
$GPGGA,115013.50,5703.4472738,N,00952.1508327,E,2,8,1.0,-0.818,M,40.593,M,1.9,0123*59\r\n
$GPGGA,115013.55,5703.4472031,N,00952.1508199,E,2,8,1.0,-0.812,M,40.593,M,1.9,0123*5F\r\n
$GPGGA,115013.60,5703.4471323,N,00952.1508066,E,2,8,1.0,-0.805,M,40.593,M,1.9,0123*5D\r\n
$GPGGA,115013.65,5703.4470617,N,00952.1507926,E,2,8,1.0,-0.799,M,40.593,M,2.1,0123*58\r\n
$GPGGA,115013.70,5703.4469908,N,00952.1507802,E,2,8,1.0,-0.794,M,40.593,M,2.1,0123*5F\r\n
$GPGGA,115013.75,5703.4469199,N,00952.1507679,E,2,8,1.0,-0.787,M,40.593,M,2.1,0123*5A\r\n
$GPGGA,115013.80,5703.4468485,N,00952.1507540,E,2,8,1.0,-0.782,M,40.593,M,2.1,0123*55\r\n
$GPGGA,115013.85,5703.4467772,N,00952.1507396,E,2,8,1.0,-0.772,M,40.593,M,2.3,0123*54\r\n
$GPGGA,115013.90,5703.4467060,N,00952.1507255,E,2,8,1.0,-0.768,M,40.593,M,2.3,0123*51\r\n
$GPGGA,115013.95,5703.4466341,N,00952.1507136,E,2,8,1.0,-0.767,M,40.593,M,2.3,0123*5C\r\n
$GPGGA,115014.00,5703.4465607,N,00952.1507024,E,2,8,1.0,-0.764,M,40.593,M,2.3,0123*52\r\n
$GPGGA,115014.05,5703.4464860,N,00952.1506898,E,2,8,1.0,-0.762,M,40.593,M,2.6,0123*54\r\n
$GPGGA,115014.10,5703.4464137,N,00952.1506741,E,2,8,1.0,-0.762,M,40.593,M,2.6,0123*50\r\n
$GPGGA,115014.15,5703.4463421,N,00952.1506584,E,2,8,1.0,-0.761,M,40.593,M,2.6,0123*58\r\n
$GPGGA,115014.20,5703.4462696,N,00952.1506434,E,2,8,1.0,-0.761,M,40.593,M,2.6,0123*5B\r\n
$GPGGA,115014.25,5703.4461955,N,00952.1506276,E,2,8,1.0,-0.762,M,40.593,M,2.8,0123*50\r\n
$GPGGA,115014.30,5703.4461206,N,00952.1506109,E,2,8,1.0,-0.766,M,40.593,M,2.8,0123*56\r\n
$GPGGA,115014.35,5703.4460455,N,00952.1505977,E,2,8,1.0,-0.767,M,40.593,M,2.8,0123*51\r\n
$GPGGA,115014.40,5703.4459718,N,00952.1505834,E,2,8,1.0,-0.770,M,40.593,M,2.8,0123*53\r\n
$GPGGA,115014.45,5703.4458975,N,00952.1505676,E,2,8,1.0,-0.778,M,40.593,M,3.0,0123*5B\r\n
$GPGGA,115014.50,5703.4458239,N,00952.1505493,E,2,8,1.0,-0.783,M,40.593,M,3.0,0123*51\r\n
$GPGGA,115014.55,5703.4457491,N,00952.1505330,E,2,8,1.0,-0.788,M,40.593,M,3.0,0123*5A\r\n
$GPGGA,115014.60,5703.4456747,N,00952.1505167,E,2,8,1.0,-0.791,M,40.593,M,3.0,0123*5D\r\n
$GPGGA,115014.65,5703.4455986,N,00952.1505028,E,2,8,1.0,-0.795,M,40.593,M,3.2,0123*54\r\n
$GPGGA,115014.70,5703.4455229,N,00952.1504890,E,2,8,1.0,-0.802,M,40.593,M,3.2,0123*55\r\n
$GPGGA,115014.75,5703.4454479,N,00952.1504755,E,2,8,1.0,-0.806,M,40.593,M,3.2,0123*50\r\n
$GPGGA,115014.80,5703.4453738,N,00952.1504607,E,2,8,1.0,-0.809,M,40.593,M,3.2,0123*52\r\n
$GPGGA,115014.85,5703.4453001,N,00952.1504456,E,2,8,1.0,-0.812,M,40.593,M,3.4,0123*50\r\n
$GPGGA,115014.90,5703.4452258,N,00952.1504310,E,2,8,1.0,-0.814,M,40.593,M,3.4,0123*58\r\n
$GPGGA,115014.95,5703.4451506,N,00952.1504157,E,2,8,1.0,-0.816,M,40.593,M,3.4,0123*51\r\n
$GPGGA,115015.00,5703.4450744,N,00952.1504011,E,2,8,1.0,-0.819,M,40.593,M,3.4,0123*55\r\n
$GPGGA,115015.05,5703.4449966,N,00952.1503873,E,2,8,1.0,-0.823,M,40.593,M,3.6,0123*56\r\n
$GPGGA,115015.10,5703.4449219,N,00952.1503756,E,2,8,1.0,-0.821,M,40.593,M,3.6,0123*5B\r\n
$GPGGA,115015.15,5703.4448475,N,00952.1503630,E,2,8,1.0,-0.821,M,40.593,M,3.6,0123*52\r\n
$GPGGA,115015.20,5703.4447734,N,00952.1503489,E,2,8,1.0,-0.821,M,40.593,M,3.6,0123*5D\r\n
$GPGGA,115015.25,5703.4446993,N,00952.1503374,E,2,8,1.0,-0.814,M,40.593,M,3.8,0123*57\r\n
$GPGGA,115015.30,5703.4446241,N,00952.1503249,E,2,8,1.0,-0.813,M,40.593,M,3.8,0123*5F\r\n
$GPGGA,115015.35,5703.4445486,N,00952.1503109,E,2,8,1.0,-0.813,M,40.593,M,3.8,0123*53\r\n
$GPGGA,115015.40,5703.4444739,N,00952.1502991,E,2,8,1.0,-0.806,M,40.593,M,3.8,0123*5B\r\n
$GPGGA,115015.45,5703.4443997,N,00952.1502880,E,2,8,1.0,-0.803,M,40.593,M,2.5,0123*5B\r\n
$GPGGA,115015.50,5703.4443262,N,00952.1502759,E,2,8,1.0,-0.800,M,40.593,M,2.5,0123*56\r\n
$GPGGA,115015.55,5703.4442515,N,00952.1502632,E,2,8,1.0,-0.800,M,40.593,M,2.5,0123*59\r\n
$GPGGA,115015.60,5703.4441760,N,00952.1502526,E,2,8,1.0,-0.798,M,40.593,M,2.5,0123*54\r\n
$GPGGA,115015.65,5703.4441020,N,00952.1502450,E,2,8,1.0,-0.789,M,40.593,M,2.7,0123*50\r\n
$GPGGA,115015.70,5703.4440269,N,00952.1502372,E,2,8,1.0,-0.785,M,40.593,M,2.7,0123*51\r\n
$GPGGA,115015.75,5703.4439534,N,00952.1502311,E,2,8,1.0,-0.778,M,40.593,M,2.7,0123*52\r\n
$GPGGA,115015.80,5703.4438803,N,00952.1502259,E,2,8,1.0,-0.770,M,40.593,M,2.7,0123*55\r\n
$GPGGA,115015.85,5703.4438077,N,00952.1502187,E,2,8,1.0,-0.767,M,40.593,M,2.9,0123*53\r\n
$GPGGA,115015.90,5703.4437350,N,00952.1502131,E,2,8,1.0,-0.761,M,40.593,M,2.9,0123*55\r\n
$GPGGA,115015.95,5703.4436612,N,00952.1502096,E,2,8,1.0,-0.755,M,40.593,M,2.9,0123*59\r\n
$GPGGA,115016.00,5703.4435871,N,00952.1502082,E,2,8,1.0,-0.751,M,40.593,M,2.9,0123*5F\r\n
$GPGGA,115016.05,5703.4435103,N,00952.1502055,E,2,8,1.0,-0.756,M,40.593,M,3.2,0123*51\r\n
$GPGGA,115016.10,5703.4434368,N,00952.1502026,E,2,8,1.0,-0.753,M,40.593,M,3.2,0123*5A\r\n
$GPGGA,115016.15,5703.4433644,N,00952.1501987,E,2,8,1.0,-0.750,M,40.593,M,3.2,0123*51\r\n
$GPGGA,115016.20,5703.4432912,N,00952.1501976,E,2,8,1.0,-0.749,M,40.593,M,3.2,0123*5C\r\n
$GPGGA,115016.25,5703.4432182,N,00952.1501995,E,2,8,1.0,-0.747,M,40.593,M,3.4,0123*5D\r\n
$GPGGA,115016.30,5703.4431447,N,00952.1502024,E,2,8,1.0,-0.747,M,40.593,M,3.4,0123*56\r\n
$GPGGA,115016.35,5703.4430726,N,00952.1502057,E,2,8,1.0,-0.749,M,40.593,M,3.4,0123*5C\r\n
$GPGGA,115016.40,5703.4429983,N,00952.1502101,E,2,8,1.0,-0.752,M,40.593,M,3.4,0123*5F\r\n
$GPGGA,115016.45,5703.4429241,N,00952.1502125,E,2,8,1.0,-0.761,M,40.593,M,2.6,0123*5A\r\n
$GPGGA,115016.50,5703.4428509,N,00952.1502178,E,2,8,1.0,-0.764,M,40.593,M,2.6,0123*59\r\n
$GPGGA,115016.55,5703.4427781,N,00952.1502230,E,2,8,1.0,-0.767,M,40.593,M,2.6,0123*5D\r\n
$GPGGA,115016.60,5703.4427050,N,00952.1502286,E,2,8,1.0,-0.770,M,40.593,M,2.6,0123*5B\r\n
$GPGGA,115016.65,5703.4426315,N,00952.1502351,E,2,8,1.0,-0.773,M,40.593,M,2.9,0123*5A\r\n
$GPGGA,115016.70,5703.4425582,N,00952.1502433,E,2,8,1.0,-0.775,M,40.593,M,2.9,0123*50\r\n
$GPGGA,115016.75,5703.4424837,N,00952.1502518,E,2,8,1.0,-0.778,M,40.593,M,2.9,0123*52\r\n
$GPGGA,115016.80,5703.4424103,N,00952.1502601,E,2,8,1.0,-0.783,M,40.593,M,2.9,0123*59\r\n
$GPGGA,115016.85,5703.4423363,N,00952.1502688,E,2,8,1.0,-0.791,M,40.593,M,3.1,0123*54\r\n
$GPGGA,115016.90,5703.4422628,N,00952.1502791,E,2,8,1.0,-0.798,M,40.593,M,3.1,0123*5B\r\n
$GPGGA,115016.95,5703.4421901,N,00952.1502918,E,2,8,1.0,-0.799,M,40.593,M,3.1,0123*57\r\n
$GPGGA,115017.00,5703.4421171,N,00952.1503047,E,2,8,1.0,-0.798,M,40.593,M,3.1,0123*56\r\n
$GPGGA,115017.05,5703.4420423,N,00952.1503148,E,2,8,1.0,-0.805,M,40.593,M,3.3,0123*57\r\n
$GPGGA,115017.10,5703.4419675,N,00952.1503269,E,2,8,1.0,-0.808,M,40.593,M,3.3,0123*55\r\n
$GPGGA,115017.15,5703.4418941,N,00952.1503390,E,2,8,1.0,-0.809,M,40.593,M,3.3,0123*5F\r\n
$GPGGA,115017.20,5703.4418210,N,00952.1503552,E,2,8,1.0,-0.809,M,40.593,M,3.3,0123*5E\r\n
$GPGGA,115017.25,5703.4417482,N,00952.1503700,E,2,8,1.0,-0.819,M,40.593,M,3.6,0123*58\r\n
$GPGGA,115017.30,5703.4416756,N,00952.1503847,E,2,8,1.0,-0.819,M,40.593,M,3.6,0123*5B\r\n
$GPGGA,115017.35,5703.4416019,N,00952.1503998,E,2,8,1.0,-0.819,M,40.593,M,3.6,0123*51\r\n
$GPGGA,115017.40,5703.4415291,N,00952.1504181,E,2,8,1.0,-0.817,M,40.593,M,3.6,0123*5B\r\n
$GPGGA,115017.45,5703.4414581,N,00952.1504381,E,2,8,1.0,-0.805,M,40.593,M,1.9,0123*55\r\n
$GPGGA,115017.50,5703.4413870,N,00952.1504601,E,2,8,1.0,-0.799,M,40.593,M,1.9,0123*52\r\n
$GPGGA,115017.55,5703.4413158,N,00952.1504802,E,2,8,1.0,-0.794,M,40.593,M,1.9,0123*54\r\n
$GPGGA,115017.60,5703.4412432,N,00952.1505007,E,2,8,1.0,-0.788,M,40.593,M,1.9,0123*5B\r\n
$GPGGA,115017.65,5703.4411709,N,00952.1505215,E,2,8,1.0,-0.784,M,40.593,M,2.1,0123*50\r\n
$GPGGA,115017.70,5703.4410988,N,00952.1505434,E,2,8,1.0,-0.778,M,40.593,M,2.1,0123*54\r\n
$GPGGA,115017.75,5703.4410275,N,00952.1505673,E,2,8,1.0,-0.774,M,40.593,M,2.1,0123*55\r\n
$GPGGA,115017.80,5703.4409554,N,00952.1505903,E,2,8,1.0,-0.771,M,40.593,M,2.1,0123*5E\r\n
$GPGGA,115017.85,5703.4408828,N,00952.1506126,E,2,8,1.0,-0.766,M,40.593,M,2.3,0123*54\r\n
$GPGGA,115017.90,5703.4408099,N,00952.1506342,E,2,8,1.0,-0.763,M,40.593,M,2.3,0123*57\r\n
$GPGGA,115017.95,5703.4407380,N,00952.1506570,E,2,8,1.0,-0.762,M,40.593,M,2.3,0123*50\r\n
$GPGGA,115018.00,5703.4406662,N,00952.1506804,E,2,8,1.0,-0.762,M,40.593,M,2.3,0123*55\r\n
$GPGGA,115018.05,5703.4405936,N,00952.1507026,E,2,8,1.0,-0.759,M,40.593,M,2.6,0123*59\r\n
$GPGGA,115018.10,5703.4405211,N,00952.1507289,E,2,8,1.0,-0.760,M,40.593,M,2.6,0123*5E\r\n
$GPGGA,115018.15,5703.4404489,N,00952.1507573,E,2,8,1.0,-0.762,M,40.593,M,2.6,0123*5D\r\n
$GPGGA,115018.20,5703.4403786,N,00952.1507841,E,2,8,1.0,-0.760,M,40.593,M,2.6,0123*5E\r\n
$GPGGA,115018.25,5703.4403062,N,00952.1508120,E,2,8,1.0,-0.766,M,40.593,M,2.8,0123*5F\r\n
$GPGGA,115018.30,5703.4402341,N,00952.1508434,E,2,8,1.0,-0.769,M,40.593,M,2.8,0123*57\r\n
$GPGGA,115018.35,5703.4401645,N,00952.1508752,E,2,8,1.0,-0.766,M,40.593,M,2.8,0123*5C\r\n
$GPGGA,115018.40,5703.4400950,N,00952.1509055,E,2,8,1.0,-0.767,M,40.593,M,2.8,0123*54\r\n
$GPGGA,115018.45,5703.4400237,N,00952.1509318,E,2,8,1.0,-0.769,M,40.593,M,3.0,0123*56\r\n
$GPGGA,115018.50,5703.4399526,N,00952.1509627,E,2,8,1.0,-0.769,M,40.593,M,3.0,0123*5B\r\n
$GPGGA,115018.55,5703.4398824,N,00952.1509962,E,2,8,1.0,-0.767,M,40.593,M,3.0,0123*50\r\n
$GPGGA,115018.60,5703.4398115,N,00952.1510285,E,2,8,1.0,-0.771,M,40.593,M,3.0,0123*50\r\n
$GPGGA,115018.65,5703.4397412,N,00952.1510604,E,2,8,1.0,-0.774,M,40.593,M,3.2,0123*52\r\n
$GPGGA,115018.70,5703.4396710,N,00952.1510924,E,2,8,1.0,-0.776,M,40.593,M,3.2,0123*59\r\n
$GPGGA,115018.75,5703.4395987,N,00952.1511244,E,2,8,1.0,-0.776,M,40.593,M,3.2,0123*53\r\n
$GPGGA,115018.80,5703.4395278,N,00952.1511566,E,2,8,1.0,-0.778,M,40.593,M,3.2,0123*5B\r\n
$GPGGA,115018.85,5703.4394564,N,00952.1511887,E,2,8,1.0,-0.782,M,40.593,M,3.4,0123*54\r\n
$GPGGA,115018.90,5703.4393846,N,00952.1512206,E,2,8,1.0,-0.783,M,40.593,M,3.4,0123*5B\r\n
$GPGGA,115018.95,5703.4393147,N,00952.1512532,E,2,8,1.0,-0.783,M,40.593,M,3.4,0123*56\r\n
$GPGGA,115019.00,5703.4392437,N,00952.1512875,E,2,8,1.0,-0.784,M,40.593,M,3.4,0123*51\r\n
$GPGGA,115019.05,5703.4391721,N,00952.1513221,E,2,8,1.0,-0.783,M,40.593,M,3.6,0123*5C\r\n
$GPGGA,115019.10,5703.4391012,N,00952.1513567,E,2,8,1.0,-0.783,M,40.593,M,3.6,0123*5A\r\n
$GPGGA,115019.15,5703.4390294,N,00952.1513893,E,2,8,1.0,-0.785,M,40.593,M,3.6,0123*52\r\n
$GPGGA,115019.20,5703.4389585,N,00952.1514241,E,2,8,1.0,-0.784,M,40.593,M,3.6,0123*58\r\n
$GPGGA,115019.25,5703.4388878,N,00952.1514588,E,2,8,1.0,-0.784,M,40.593,M,2.2,0123*54\r\n
$GPGGA,115019.30,5703.4388177,N,00952.1514951,E,2,8,1.0,-0.785,M,40.593,M,2.2,0123*5F\r\n
$GPGGA,115019.35,5703.4387452,N,00952.1515301,E,2,8,1.0,-0.787,M,40.593,M,2.2,0123*5B\r\n
$GPGGA,115019.40,5703.4386748,N,00952.1515623,E,2,8,1.0,-0.788,M,40.593,M,2.2,0123*5A\r\n
$GPGGA,115019.45,5703.4386041,N,00952.1515958,E,2,8,1.0,-0.785,M,40.593,M,2.5,0123*58\r\n
$GPGGA,115019.50,5703.4385322,N,00952.1516326,E,2,8,1.0,-0.785,M,40.593,M,2.5,0123*59\r\n
$GPGGA,115019.55,5703.4384602,N,00952.1516690,E,2,8,1.0,-0.789,M,40.593,M,2.5,0123*5E\r\n
$GPGGA,115019.60,5703.4383889,N,00952.1517024,E,2,8,1.0,-0.788,M,40.593,M,2.5,0123*5B\r\n
$GPGGA,115019.65,5703.4383192,N,00952.1517371,E,2,8,1.0,-0.781,M,40.593,M,2.7,0123*55\r\n
$GPGGA,115019.70,5703.4382471,N,00952.1517722,E,2,8,1.0,-0.782,M,40.593,M,2.7,0123*59\r\n
$GPGGA,115019.75,5703.4381751,N,00952.1518061,E,2,8,1.0,-0.783,M,40.593,M,2.7,0123*50\r\n
$GPGGA,115019.80,5703.4381035,N,00952.1518407,E,2,8,1.0,-0.782,M,40.593,M,2.7,0123*5A\r\n
$GPGGA,115019.85,5703.4380319,N,00952.1518742,E,2,8,1.0,-0.785,M,40.593,M,2.9,0123*58\r\n
$GPGGA,115019.90,5703.4379607,N,00952.1519083,E,2,8,1.0,-0.785,M,40.593,M,2.9,0123*5B\r\n
$GPGGA,115019.95,5703.4378887,N,00952.1519425,E,2,8,1.0,-0.787,M,40.593,M,2.9,0123*53\r\n
$GPGGA,115020.00,5703.4378179,N,00952.1519767,E,2,8,1.0,-0.784,M,40.593,M,2.9,0123*5B\r\n
$GPGGA,115020.05,5703.4377459,N,00952.1520082,E,2,8,1.0,-0.784,M,40.593,M,3.2,0123*5A\r\n
$GPGGA,115020.10,5703.4376734,N,00952.1520403,E,2,8,1.0,-0.787,M,40.593,M,3.2,0123*59\r\n
$GPGGA,115020.15,5703.4376022,N,00952.1520744,E,2,8,1.0,-0.785,M,40.593,M,3.2,0123*5E\r\n
$GPGGA,115020.20,5703.4375309,N,00952.1521082,E,2,8,1.0,-0.783,M,40.593,M,3.2,0123*5B\r\n
$GPGGA,115020.25,5703.4374599,N,00952.1521406,E,2,8,1.0,-0.781,M,40.593,M,2.4,0123*5D\r\n
$GPGGA,115020.30,5703.4373882,N,00952.1521716,E,2,8,1.0,-0.782,M,40.593,M,2.4,0123*58\r\n
$GPGGA,115020.35,5703.4373170,N,00952.1522034,E,2,8,1.0,-0.780,M,40.593,M,2.4,0123*5F\r\n
$GPGGA,115020.40,5703.4372448,N,00952.1522373,E,2,8,1.0,-0.776,M,40.593,M,2.4,0123*5B\r\n
$GPGGA,115020.45,5703.4371728,N,00952.1522697,E,2,8,1.0,-0.775,M,40.593,M,2.6,0123*56\r\n
$GPGGA,115020.50,5703.4371015,N,00952.1523017,E,2,8,1.0,-0.774,M,40.593,M,2.6,0123*55\r\n
$GPGGA,115020.55,5703.4370306,N,00952.1523315,E,2,8,1.0,-0.772,M,40.593,M,2.6,0123*57\r\n
$GPGGA,115020.60,5703.4369581,N,00952.1523595,E,2,8,1.0,-0.772,M,40.593,M,2.6,0123*5E\r\n
$GPGGA,115020.65,5703.4368868,N,00952.1523900,E,2,8,1.0,-0.772,M,40.593,M,2.9,0123*5F\r\n
$GPGGA,115020.70,5703.4368150,N,00952.1524208,E,2,8,1.0,-0.773,M,40.593,M,2.9,0123*5C\r\n
$GPGGA,115020.75,5703.4367432,N,00952.1524530,E,2,8,1.0,-0.773,M,40.593,M,2.9,0123*5B\r\n
$GPGGA,115020.80,5703.4366713,N,00952.1524829,E,2,8,1.0,-0.773,M,40.593,M,2.9,0123*55\r\n
$GPGGA,115020.85,5703.4366005,N,00952.1525124,E,2,8,1.0,-0.768,M,40.593,M,3.1,0123*56\r\n
$GPGGA,115020.90,5703.4365291,N,00952.1525390,E,2,8,1.0,-0.770,M,40.593,M,3.1,0123*5A\r\n
$GPGGA,115020.95,5703.4364571,N,00952.1525700,E,2,8,1.0,-0.772,M,40.593,M,3.1,0123*58\r\n
$GPGGA,115021.00,5703.4363859,N,00952.1526009,E,2,8,1.0,-0.772,M,40.593,M,3.1,0123*58\r\n
$GPGGA,115021.05,5703.4363136,N,00952.1526285,E,2,8,1.0,-0.777,M,40.593,M,3.3,0123*5C\r\n
$GPGGA,115021.10,5703.4362418,N,00952.1526574,E,2,8,1.0,-0.781,M,40.593,M,3.3,0123*50\r\n
$GPGGA,115021.15,5703.4361702,N,00952.1526849,E,2,8,1.0,-0.785,M,40.593,M,3.3,0123*59\r\n
$GPGGA,115021.20,5703.4360991,N,00952.1527138,E,2,8,1.0,-0.786,M,40.593,M,3.3,0123*57\r\n
$GPGGA,115021.25,5703.4360282,N,00952.1527424,E,2,8,1.0,-0.786,M,40.593,M,1.7,0123*55\r\n
$GPGGA,115021.30,5703.4359557,N,00952.1527693,E,2,8,1.0,-0.793,M,40.593,M,1.7,0123*5E\r\n
$GPGGA,115021.35,5703.4358845,N,00952.1527996,E,2,8,1.0,-0.793,M,40.593,M,1.7,0123*5E\r\n
$GPGGA,115021.40,5703.4358125,N,00952.1528301,E,2,8,1.0,-0.794,M,40.593,M,1.7,0123*5F\r\n
$GPGGA,115021.45,5703.4357416,N,00952.1528591,E,2,8,1.0,-0.795,M,40.593,M,1.9,0123*50\r\n
$GPGGA,115021.50,5703.4356711,N,00952.1528867,E,2,8,1.0,-0.797,M,40.593,M,1.9,0123*57\r\n
$GPGGA,115021.55,5703.4356004,N,00952.1529122,E,2,8,1.0,-0.795,M,40.593,M,1.9,0123*5A\r\n
$GPGGA,115021.60,5703.4355285,N,00952.1529391,E,2,8,1.0,-0.794,M,40.593,M,1.9,0123*5F\r\n
$GPGGA,115021.65,5703.4354568,N,00952.1529663,E,2,8,1.0,-0.799,M,40.593,M,2.1,0123*51\r\n
$GPGGA,115021.70,5703.4353862,N,00952.1529954,E,2,8,1.0,-0.799,M,40.593,M,2.1,0123*5E\r\n
$GPGGA,115021.75,5703.4353149,N,00952.1530230,E,2,8,1.0,-0.802,M,40.593,M,2.1,0123*57\r\n
$GPGGA,115021.80,5703.4352448,N,00952.1530482,E,2,8,1.0,-0.803,M,40.593,M,2.1,0123*56\r\n
$GPGGA,115021.85,5703.4351739,N,00952.1530735,E,2,8,1.0,-0.802,M,40.593,M,2.3,0123*59\r\n
$GPGGA,115021.90,5703.4351018,N,00952.1531004,E,2,8,1.0,-0.799,M,40.593,M,2.3,0123*50\r\n
$GPGGA,115021.95,5703.4350302,N,00952.1531287,E,2,8,1.0,-0.797,M,40.593,M,2.3,0123*5B\r\n
$GPGGA,115022.00,5703.4349597,N,00952.1531565,E,2,8,1.0,-0.797,M,40.593,M,2.3,0123*5D\r\n
$GPGGA,115022.05,5703.4348885,N,00952.1531819,E,2,8,1.0,-0.802,M,40.593,M,2.6,0123*57\r\n
$GPGGA,115022.10,5703.4348162,N,00952.1532095,E,2,8,1.0,-0.803,M,40.593,M,2.6,0123*5D\r\n
$GPGGA,115022.15,5703.4347450,N,00952.1532344,E,2,8,1.0,-0.805,M,40.593,M,2.6,0123*5A\r\n
$GPGGA,115022.20,5703.4346741,N,00952.1532596,E,2,8,1.0,-0.803,M,40.593,M,2.6,0123*51\r\n
$GPGGA,115022.25,5703.4346019,N,00952.1532822,E,2,8,1.0,-0.805,M,40.593,M,2.8,0123*54\r\n
$GPGGA,115022.30,5703.4345302,N,00952.1533081,E,2,8,1.0,-0.805,M,40.593,M,2.8,0123*5A\r\n
$GPGGA,115022.35,5703.4344583,N,00952.1533353,E,2,8,1.0,-0.809,M,40.593,M,2.8,0123*51\r\n
$GPGGA,115022.40,5703.4343870,N,00952.1533619,E,2,8,1.0,-0.809,M,40.593,M,2.8,0123*5E\r\n
$GPGGA,115022.45,5703.4343153,N,00952.1533881,E,2,8,1.0,-0.811,M,40.593,M,3.0,0123*5C\r\n
$GPGGA,115022.50,5703.4342444,N,00952.1534136,E,2,8,1.0,-0.811,M,40.593,M,3.0,0123*58\r\n
$GPGGA,115022.55,5703.4341760,N,00952.1534402,E,2,8,1.0,-0.807,M,40.593,M,3.0,0123*5E\r\n
$GPGGA,115022.60,5703.4341049,N,00952.1534699,E,2,8,1.0,-0.804,M,40.593,M,3.0,0123*57\r\n
$GPGGA,115022.65,5703.4340327,N,00952.1534974,E,2,8,1.0,-0.811,M,40.593,M,3.2,0123*52\r\n
$GPGGA,115022.70,5703.4339628,N,00952.1535282,E,2,8,1.0,-0.810,M,40.593,M,3.2,0123*50\r\n
$GPGGA,115022.75,5703.4338924,N,00952.1535574,E,2,8,1.0,-0.811,M,40.593,M,3.2,0123*58\r\n
$GPGGA,115022.80,5703.4338218,N,00952.1535868,E,2,8,1.0,-0.810,M,40.593,M,3.2,0123*57\r\n
$GPGGA,115022.85,5703.4337518,N,00952.1536180,E,2,8,1.0,-0.806,M,40.593,M,3.4,0123*57\r\n
$GPGGA,115022.90,5703.4336823,N,00952.1536492,E,2,8,1.0,-0.805,M,40.593,M,3.4,0123*52\r\n
$GPGGA,115022.95,5703.4336114,N,00952.1536784,E,2,8,1.0,-0.804,M,40.593,M,3.4,0123*5F\r\n
$GPGGA,115023.00,5703.4335402,N,00952.1537083,E,2,8,1.0,-0.802,M,40.593,M,3.4,0123*54\r\n
$GPGGA,115023.05,5703.4334702,N,00952.1537389,E,2,8,1.0,-0.801,M,40.593,M,3.6,0123*5B\r\n
$GPGGA,115023.10,5703.4333997,N,00952.1537728,E,2,8,1.0,-0.798,M,40.593,M,3.6,0123*5A\r\n
$GPGGA,115023.15,5703.4333305,N,00952.1538048,E,2,8,1.0,-0.797,M,40.593,M,3.6,0123*5F\r\n
$GPGGA,115023.20,5703.4332603,N,00952.1538363,E,2,8,1.0,-0.796,M,40.593,M,3.6,0123*50\r\n
$GPGGA,115023.25,5703.4331907,N,00952.1538688,E,2,8,1.0,-0.791,M,40.593,M,2.2,0123*5F\r\n
$GPGGA,115023.30,5703.4331194,N,00952.1539004,E,2,8,1.0,-0.790,M,40.593,M,2.2,0123*5B\r\n
$GPGGA,115023.35,5703.4330486,N,00952.1539320,E,2,8,1.0,-0.788,M,40.593,M,2.2,0123*55\r\n
$GPGGA,115023.40,5703.4329787,N,00952.1539648,E,2,8,1.0,-0.787,M,40.593,M,2.2,0123*59\r\n
$GPGGA,115023.45,5703.4329092,N,00952.1539949,E,2,8,1.0,-0.787,M,40.593,M,2.5,0123*56\r\n
$GPGGA,115023.50,5703.4328389,N,00952.1540263,E,2,8,1.0,-0.787,M,40.593,M,2.5,0123*57\r\n
$GPGGA,115023.55,5703.4327679,N,00952.1540589,E,2,8,1.0,-0.783,M,40.593,M,2.5,0123*50\r\n
$GPGGA,115023.60,5703.4326985,N,00952.1540927,E,2,8,1.0,-0.779,M,40.593,M,2.5,0123*56\r\n
$GPGGA,115023.65,5703.4326281,N,00952.1541259,E,2,8,1.0,-0.784,M,40.593,M,2.7,0123*5F\r\n
$GPGGA,115023.70,5703.4325588,N,00952.1541587,E,2,8,1.0,-0.786,M,40.593,M,2.7,0123*50\r\n
$GPGGA,115023.75,5703.4324898,N,00952.1541916,E,2,8,1.0,-0.787,M,40.593,M,2.7,0123*5D\r\n
$GPGGA,115023.80,5703.4324200,N,00952.1542260,E,2,8,1.0,-0.784,M,40.593,M,2.7,0123*56\r\n
$GPGGA,115023.85,5703.4323485,N,00952.1542611,E,2,8,1.0,-0.783,M,40.593,M,2.9,0123*54\r\n
$GPGGA,115023.90,5703.4322781,N,00952.1542949,E,2,8,1.0,-0.787,M,40.593,M,2.9,0123*50\r\n
$GPGGA,115023.95,5703.4322066,N,00952.1543287,E,2,8,1.0,-0.793,M,40.593,M,2.9,0123*56\r\n
$GPGGA,115024.00,5703.4321356,N,00952.1543624,E,2,8,1.0,-0.800,M,40.593,M,2.9,0123*56\r\n
$GPGGA,115024.05,5703.4320632,N,00952.1543949,E,2,8,1.0,-0.812,M,40.593,M,3.2,0123*58\r\n
$GPGGA,115024.10,5703.4319914,N,00952.1544301,E,2,8,1.0,-0.817,M,40.593,M,3.2,0123*59\r\n
$GPGGA,115024.15,5703.4319209,N,00952.1544651,E,2,8,1.0,-0.823,M,40.593,M,3.2,0123*5C\r\n
$GPGGA,115024.20,5703.4318493,N,00952.1544979,E,2,8,1.0,-0.831,M,40.593,M,3.2,0123*58\r\n
$GPGGA,115024.25,5703.4317786,N,00952.1545354,E,2,8,1.0,-0.830,M,40.593,M,2.4,0123*57\r\n
$GPGGA,115024.30,5703.4317078,N,00952.1545726,E,2,8,1.0,-0.831,M,40.593,M,2.4,0123*55\r\n
$GPGGA,115024.35,5703.4316377,N,00952.1546058,E,2,8,1.0,-0.835,M,40.593,M,2.4,0123*54\r\n
$GPGGA,115024.40,5703.4315688,N,00952.1546412,E,2,8,1.0,-0.834,M,40.593,M,2.4,0123*5B\r\n
$GPGGA,115024.45,5703.4314981,N,00952.1546759,E,2,8,1.0,-0.832,M,40.593,M,2.6,0123*51\r\n
$GPGGA,115024.50,5703.4314268,N,00952.1547110,E,2,8,1.0,-0.831,M,40.593,M,2.6,0123*50\r\n
$GPGGA,115024.55,5703.4313559,N,00952.1547463,E,2,8,1.0,-0.831,M,40.593,M,2.6,0123*56\r\n
$GPGGA,115024.60,5703.4312860,N,00952.1547800,E,2,8,1.0,-0.831,M,40.593,M,2.6,0123*5F\r\n
$GPGGA,115024.65,5703.4312160,N,00952.1548137,E,2,8,1.0,-0.835,M,40.593,M,2.9,0123*5A\r\n
$GPGGA,115024.70,5703.4311450,N,00952.1548464,E,2,8,1.0,-0.833,M,40.593,M,2.9,0123*5E\r\n
$GPGGA,115024.75,5703.4310738,N,00952.1548791,E,2,8,1.0,-0.831,M,40.593,M,2.9,0123*5C\r\n
$GPGGA,115024.80,5703.4310035,N,00952.1549147,E,2,8,1.0,-0.830,M,40.593,M,2.9,0123*51\r\n
$GPGGA,115024.85,5703.4309326,N,00952.1549494,E,2,8,1.0,-0.824,M,40.593,M,3.1,0123*5A\r\n
$GPGGA,115024.90,5703.4308615,N,00952.1549829,E,2,8,1.0,-0.823,M,40.593,M,3.1,0123*57\r\n
$GPGGA,115024.95,5703.4307907,N,00952.1550184,E,2,8,1.0,-0.817,M,40.593,M,3.1,0123*50\r\n
$GPGGA,115025.00,5703.4307199,N,00952.1550525,E,2,8,1.0,-0.813,M,40.593,M,3.1,0123*59\r\n
$GPGGA,115025.05,5703.4306505,N,00952.1550872,E,2,8,1.0,-0.807,M,40.593,M,3.3,0123*54\r\n
$GPGGA,115025.10,5703.4305812,N,00952.1551245,E,2,8,1.0,-0.804,M,40.593,M,3.3,0123*54\r\n
$GPGGA,115025.15,5703.4305114,N,00952.1551622,E,2,8,1.0,-0.798,M,40.593,M,3.3,0123*51\r\n
$GPGGA,115025.20,5703.4304406,N,00952.1551995,E,2,8,1.0,-0.795,M,40.593,M,3.3,0123*5E\r\n
$GPGGA,115025.25,5703.4303700,N,00952.1552351,E,2,8,1.0,-0.792,M,40.593,M,1.7,0123*59\r\n
$GPGGA,115025.30,5703.4302997,N,00952.1552723,E,2,8,1.0,-0.791,M,40.593,M,1.7,0123*5E\r\n
$GPGGA,115025.35,5703.4302298,N,00952.1553100,E,2,8,1.0,-0.789,M,40.593,M,1.7,0123*50\r\n
$GPGGA,115025.40,5703.4301590,N,00952.1553471,E,2,8,1.0,-0.788,M,40.593,M,1.7,0123*5C\r\n
$GPGGA,115025.45,5703.4300871,N,00952.1553844,E,2,8,1.0,-0.784,M,40.593,M,1.9,0123*52\r\n
$GPGGA,115025.50,5703.4300160,N,00952.1554221,E,2,8,1.0,-0.782,M,40.593,M,1.9,0123*57\r\n
$GPGGA,115025.55,5703.4299465,N,00952.1554578,E,2,8,1.0,-0.783,M,40.593,M,1.9,0123*59\r\n
$GPGGA,115025.60,5703.4298757,N,00952.1554943,E,2,8,1.0,-0.785,M,40.593,M,1.9,0123*5E\r\n
$GPGGA,115025.65,5703.4298046,N,00952.1555299,E,2,8,1.0,-0.790,M,40.593,M,2.1,0123*5E\r\n
$GPGGA,115025.70,5703.4297327,N,00952.1555669,E,2,8,1.0,-0.792,M,40.593,M,2.1,0123*58\r\n
$GPGGA,115025.75,5703.4296605,N,00952.1556058,E,2,8,1.0,-0.795,M,40.593,M,2.1,0123*59\r\n
$GPGGA,115025.80,5703.4295913,N,00952.1556420,E,2,8,1.0,-0.799,M,40.593,M,2.1,0123*5F\r\n
$GPGGA,115025.85,5703.4295230,N,00952.1556781,E,2,8,1.0,-0.798,M,40.593,M,2.3,0123*5B\r\n
$GPGGA,115025.90,5703.4294540,N,00952.1557141,E,2,8,1.0,-0.797,M,40.593,M,2.3,0123*5A\r\n
$GPGGA,115025.95,5703.4293812,N,00952.1557495,E,2,8,1.0,-0.797,M,40.593,M,2.3,0123*5E\r\n
$GPGGA,115026.00,5703.4293103,N,00952.1557862,E,2,8,1.0,-0.796,M,40.593,M,2.3,0123*5D\r\n
$GPGGA,115026.05,5703.4292399,N,00952.1558205,E,2,8,1.0,-0.800,M,40.593,M,2.6,0123*59\r\n
$GPGGA,115026.10,5703.4291705,N,00952.1558576,E,2,8,1.0,-0.800,M,40.593,M,2.6,0123*5C\r\n
$GPGGA,115026.15,5703.4290995,N,00952.1558944,E,2,8,1.0,-0.800,M,40.593,M,2.6,0123*52\r\n
$GPGGA,115026.20,5703.4290285,N,00952.1559299,E,2,8,1.0,-0.800,M,40.593,M,2.6,0123*54\r\n
$GPGGA,115026.25,5703.4289577,N,00952.1559642,E,2,8,1.0,-0.807,M,40.593,M,2.8,0123*58\r\n
$GPGGA,115026.30,5703.4288876,N,00952.1559997,E,2,8,1.0,-0.808,M,40.593,M,2.8,0123*59\r\n
$GPGGA,115026.35,5703.4288167,N,00952.1560345,E,2,8,1.0,-0.809,M,40.593,M,2.8,0123*5B\r\n
$GPGGA,115026.40,5703.4287444,N,00952.1560699,E,2,8,1.0,-0.810,M,40.593,M,2.8,0123*5E\r\n
$GPGGA,115026.45,5703.4286721,N,00952.1561060,E,2,8,1.0,-0.814,M,40.593,M,3.0,0123*56\r\n
$GPGGA,115026.50,5703.4286014,N,00952.1561431,E,2,8,1.0,-0.817,M,40.593,M,3.0,0123*50\r\n
$GPGGA,115026.55,5703.4285308,N,00952.1561765,E,2,8,1.0,-0.820,M,40.593,M,3.0,0123*5E\r\n
$GPGGA,115026.60,5703.4284612,N,00952.1562105,E,2,8,1.0,-0.822,M,40.593,M,3.0,0123*56\r\n
$GPGGA,115026.65,5703.4283895,N,00952.1562463,E,2,8,1.0,-0.819,M,40.593,M,3.2,0123*5A\r\n
$GPGGA,115026.70,5703.4283177,N,00952.1562831,E,2,8,1.0,-0.820,M,40.593,M,3.2,0123*5A\r\n
$GPGGA,115026.75,5703.4282461,N,00952.1563177,E,2,8,1.0,-0.824,M,40.593,M,3.2,0123*52\r\n
$GPGGA,115026.80,5703.4281750,N,00952.1563527,E,2,8,1.0,-0.824,M,40.593,M,3.2,0123*5B\r\n
$GPGGA,115026.85,5703.4281060,N,00952.1563891,E,2,8,1.0,-0.818,M,40.593,M,3.4,0123*53\r\n
$GPGGA,115026.90,5703.4280364,N,00952.1564252,E,2,8,1.0,-0.817,M,40.593,M,3.4,0123*5C\r\n
$GPGGA,115026.95,5703.4279641,N,00952.1564613,E,2,8,1.0,-0.816,M,40.593,M,3.4,0123*5D\r\n
$GPGGA,115027.00,5703.4278933,N,00952.1564969,E,2,8,1.0,-0.816,M,40.593,M,3.4,0123*59\r\n
$GPGGA,115027.05,5703.4278232,N,00952.1565308,E,2,8,1.0,-0.815,M,40.593,M,3.6,0123*5B\r\n
$GPGGA,115027.10,5703.4277528,N,00952.1565659,E,2,8,1.0,-0.814,M,40.593,M,3.6,0123*5C\r\n
$GPGGA,115027.15,5703.4276815,N,00952.1566034,E,2,8,1.0,-0.814,M,40.593,M,3.6,0123*55\r\n
$GPGGA,115027.20,5703.4276103,N,00952.1566399,E,2,8,1.0,-0.815,M,40.593,M,3.6,0123*58\r\n
$GPGGA,115027.25,5703.4275403,N,00952.1566753,E,2,8,1.0,-0.813,M,40.593,M,2.2,0123*5A\r\n
$GPGGA,115027.30,5703.4274687,N,00952.1567096,E,2,8,1.0,-0.812,M,40.593,M,2.2,0123*5F\r\n
$GPGGA,115027.35,5703.4273990,N,00952.1567435,E,2,8,1.0,-0.811,M,40.593,M,2.2,0123*5A\r\n
$GPGGA,115027.40,5703.4273274,N,00952.1567792,E,2,8,1.0,-0.811,M,40.593,M,2.2,0123*57\r\n
$GPGGA,115027.45,5703.4272558,N,00952.1568146,E,2,8,1.0,-0.812,M,40.593,M,2.5,0123*5E\r\n
$GPGGA,115027.50,5703.4271864,N,00952.1568500,E,2,8,1.0,-0.811,M,40.593,M,2.5,0123*5E\r\n
$GPGGA,115027.55,5703.4271174,N,00952.1568853,E,2,8,1.0,-0.810,M,40.593,M,2.5,0123*59\r\n
$GPGGA,115027.60,5703.4270462,N,00952.1569200,E,2,8,1.0,-0.810,M,40.593,M,2.5,0123*51\r\n
$GPGGA,115027.65,5703.4269753,N,00952.1569531,E,2,8,1.0,-0.804,M,40.593,M,2.7,0123*5F\r\n
$GPGGA,115027.70,5703.4269046,N,00952.1569850,E,2,8,1.0,-0.806,M,40.593,M,2.7,0123*50\r\n
$GPGGA,115027.75,5703.4268345,N,00952.1570196,E,2,8,1.0,-0.805,M,40.593,M,2.7,0123*5C\r\n
$GPGGA,115027.80,5703.4267636,N,00952.1570527,E,2,8,1.0,-0.805,M,40.593,M,2.7,0123*56\r\n
$GPGGA,115027.85,5703.4266930,N,00952.1570849,E,2,8,1.0,-0.803,M,40.593,M,2.9,0123*56\r\n
$GPGGA,115027.90,5703.4266246,N,00952.1571189,E,2,8,1.0,-0.800,M,40.593,M,2.9,0123*5F\r\n
$GPGGA,115027.95,5703.4265535,N,00952.1571528,E,2,8,1.0,-0.800,M,40.593,M,2.9,0123*55\r\n
$GPGGA,115028.00,5703.4264840,N,00952.1571868,E,2,8,1.0,-0.797,M,40.593,M,2.9,0123*50\r\n
$GPGGA,115028.05,5703.4264145,N,00952.1572177,E,2,8,1.0,-0.797,M,40.593,M,3.2,0123*57\r\n
$GPGGA,115028.10,5703.4263458,N,00952.1572537,E,2,8,1.0,-0.796,M,40.593,M,3.2,0123*5C\r\n
$GPGGA,115028.15,5703.4262753,N,00952.1572876,E,2,8,1.0,-0.798,M,40.593,M,3.2,0123*56\r\n
$GPGGA,115028.20,5703.4262063,N,00952.1573198,E,2,8,1.0,-0.799,M,40.593,M,3.2,0123*5D\r\n
$GPGGA,115028.25,5703.4261372,N,00952.1573526,E,2,8,1.0,-0.799,M,40.593,M,2.4,0123*5E\r\n
$GPGGA,115028.30,5703.4260673,N,00952.1573866,E,2,8,1.0,-0.799,M,40.593,M,2.4,0123*56\r\n
$GPGGA,115028.35,5703.4259992,N,00952.1574227,E,2,8,1.0,-0.798,M,40.593,M,2.4,0123*50\r\n
$GPGGA,115028.40,5703.4259304,N,00952.1574565,E,2,8,1.0,-0.801,M,40.593,M,2.4,0123*59\r\n
$GPGGA,115028.45,5703.4258608,N,00952.1574887,E,2,8,1.0,-0.807,M,40.593,M,2.6,0123*51\r\n
$GPGGA,115028.50,5703.4257909,N,00952.1575213,E,2,8,1.0,-0.808,M,40.593,M,2.6,0123*5D\r\n
$GPGGA,115028.55,5703.4257221,N,00952.1575541,E,2,8,1.0,-0.810,M,40.593,M,2.6,0123*50\r\n
$GPGGA,115028.60,5703.4256531,N,00952.1575877,E,2,8,1.0,-0.810,M,40.593,M,2.6,0123*59\r\n
$GPGGA,115028.65,5703.4255839,N,00952.1576203,E,2,8,1.0,-0.809,M,40.593,M,2.9,0123*57\r\n
$GPGGA,115028.70,5703.4255143,N,00952.1576517,E,2,8,1.0,-0.811,M,40.593,M,2.9,0123*5C\r\n
$GPGGA,115028.75,5703.4254445,N,00952.1576852,E,2,8,1.0,-0.816,M,40.593,M,2.9,0123*50\r\n
$GPGGA,115028.80,5703.4253751,N,00952.1577200,E,2,8,1.0,-0.821,M,40.593,M,2.9,0123*53\r\n
$GPGGA,115028.85,5703.4253059,N,00952.1577546,E,2,8,1.0,-0.825,M,40.593,M,3.1,0123*51\r\n
$GPGGA,115028.90,5703.4252363,N,00952.1577898,E,2,8,1.0,-0.829,M,40.593,M,3.1,0123*5C\r\n
$GPGGA,115028.95,5703.4251672,N,00952.1578235,E,2,8,1.0,-0.831,M,40.593,M,3.1,0123*54\r\n
$GPGGA,115029.00,5703.4250991,N,00952.1578553,E,2,8,1.0,-0.836,M,40.593,M,3.1,0123*5A\r\n
$GPGGA,115029.05,5703.4250302,N,00952.1578890,E,2,8,1.0,-0.834,M,40.593,M,3.3,0123*5D\r\n
$GPGGA,115029.10,5703.4249614,N,00952.1579240,E,2,8,1.0,-0.833,M,40.593,M,3.3,0123*52\r\n
$GPGGA,115029.15,5703.4248935,N,00952.1579587,E,2,8,1.0,-0.833,M,40.593,M,3.3,0123*56\r\n
$GPGGA,115029.20,5703.4248253,N,00952.1579943,E,2,8,1.0,-0.834,M,40.593,M,3.3,0123*58\r\n
$GPGGA,115029.25,5703.4247569,N,00952.1580278,E,2,8,1.0,-0.839,M,40.593,M,1.7,0123*52\r\n
$GPGGA,115029.30,5703.4246889,N,00952.1580641,E,2,8,1.0,-0.838,M,40.593,M,1.7,0123*5B\r\n
$GPGGA,115029.35,5703.4246227,N,00952.1581012,E,2,8,1.0,-0.835,M,40.593,M,1.7,0123*5C\r\n
$GPGGA,115029.40,5703.4245546,N,00952.1581366,E,2,8,1.0,-0.837,M,40.593,M,1.7,0123*5F\r\n
$GPGGA,115029.45,5703.4244854,N,00952.1581712,E,2,8,1.0,-0.838,M,40.593,M,1.9,0123*53\r\n
$GPGGA,115029.50,5703.4244162,N,00952.1582072,E,2,8,1.0,-0.837,M,40.593,M,1.9,0123*56\r\n
$GPGGA,115029.55,5703.4243486,N,00952.1582446,E,2,8,1.0,-0.838,M,40.593,M,1.9,0123*57\r\n
$GPGGA,115029.60,5703.4242800,N,00952.1582802,E,2,8,1.0,-0.839,M,40.593,M,1.9,0123*5F\r\n
$GPGGA,115029.65,5703.4242102,N,00952.1583133,E,2,8,1.0,-0.845,M,40.593,M,2.1,0123*5B\r\n
$GPGGA,115029.70,5703.4241413,N,00952.1583487,E,2,8,1.0,-0.846,M,40.593,M,2.1,0123*50\r\n
$GPGGA,115029.75,5703.4240729,N,00952.1583857,E,2,8,1.0,-0.850,M,40.593,M,2.1,0123*58\r\n
$GPGGA,115029.80,5703.4240047,N,00952.1584202,E,2,8,1.0,-0.853,M,40.593,M,2.1,0123*53\r\n
$GPGGA,115029.85,5703.4239336,N,00952.1584541,E,2,8,1.0,-0.857,M,40.593,M,2.3,0123*5B\r\n
$GPGGA,115029.90,5703.4238651,N,00952.1584914,E,2,8,1.0,-0.860,M,40.593,M,2.3,0123*52\r\n
$GPGGA,115029.95,5703.4237974,N,00952.1585294,E,2,8,1.0,-0.859,M,40.593,M,2.3,0123*58\r\n
$GPGGA,115030.00,5703.4237284,N,00952.1585663,E,2,8,1.0,-0.860,M,40.593,M,2.3,0123*5E\r\n
$GPGGA,115030.05,5703.4236623,N,00952.1586041,E,2,8,1.0,-0.859,M,40.593,M,2.6,0123*59\r\n
$GPGGA,115030.10,5703.4235942,N,00952.1586423,E,2,8,1.0,-0.858,M,40.593,M,2.6,0123*57\r\n
$GPGGA,115030.15,5703.4235272,N,00952.1586813,E,2,8,1.0,-0.858,M,40.593,M,2.6,0123*55\r\n
$GPGGA,115030.20,5703.4234604,N,00952.1587207,E,2,8,1.0,-0.856,M,40.593,M,2.6,0123*57\r\n
$GPGGA,115030.25,5703.4233941,N,00952.1587592,E,2,8,1.0,-0.852,M,40.593,M,2.8,0123*5A\r\n
$GPGGA,115030.30,5703.4233274,N,00952.1587988,E,2,8,1.0,-0.849,M,40.593,M,2.8,0123*5E\r\n
$GPGGA,115030.35,5703.4232596,N,00952.1588391,E,2,8,1.0,-0.848,M,40.593,M,2.8,0123*5D\r\n
$GPGGA,115030.40,5703.4231938,N,00952.1588792,E,2,8,1.0,-0.843,M,40.593,M,2.8,0123*58\r\n
$GPGGA,115030.45,5703.4231279,N,00952.1589186,E,2,8,1.0,-0.842,M,40.593,M,3.0,0123*59\r\n
$GPGGA,115030.50,5703.4230619,N,00952.1589586,E,2,8,1.0,-0.841,M,40.593,M,3.0,0123*59\r\n
$GPGGA,115030.55,5703.4229949,N,00952.1589986,E,2,8,1.0,-0.838,M,40.593,M,3.0,0123*5C\r\n
$GPGGA,115030.60,5703.4229283,N,00952.1590372,E,2,8,1.0,-0.835,M,40.593,M,3.0,0123*53\r\n
$GPGGA,115030.65,5703.4228622,N,00952.1590762,E,2,8,1.0,-0.829,M,40.593,M,3.2,0123*52\r\n
$GPGGA,115030.70,5703.4227956,N,00952.1591148,E,2,8,1.0,-0.828,M,40.593,M,3.2,0123*5B\r\n
$GPGGA,115030.75,5703.4227289,N,00952.1591532,E,2,8,1.0,-0.826,M,40.593,M,3.2,0123*50\r\n
$GPGGA,115030.80,5703.4226623,N,00952.1591953,E,2,8,1.0,-0.824,M,40.593,M,3.2,0123*56\r\n
$GPGGA,115030.85,5703.4225957,N,00952.1592347,E,2,8,1.0,-0.829,M,40.593,M,3.4,0123*5B\r\n
$GPGGA,115030.90,5703.4225297,N,00952.1592734,E,2,8,1.0,-0.831,M,40.593,M,3.4,0123*51\r\n
$GPGGA,115030.95,5703.4224644,N,00952.1593144,E,2,8,1.0,-0.830,M,40.593,M,3.4,0123*5E\r\n
$GPGGA,115031.00,5703.4223979,N,00952.1593573,E,2,8,1.0,-0.830,M,40.593,M,3.4,0123*55\r\n
$GPGGA,115031.05,5703.4223327,N,00952.1593996,E,2,8,1.0,-0.825,M,40.593,M,3.6,0123*50\r\n
$GPGGA,115031.10,5703.4222667,N,00952.1594402,E,2,8,1.0,-0.823,M,40.593,M,3.6,0123*55\r\n
$GPGGA,115031.15,5703.4222009,N,00952.1594817,E,2,8,1.0,-0.826,M,40.593,M,3.6,0123*53\r\n
$GPGGA,115031.20,5703.4221362,N,00952.1595240,E,2,8,1.0,-0.828,M,40.593,M,3.6,0123*5F\r\n
$GPGGA,115031.25,5703.4220713,N,00952.1595673,E,2,8,1.0,-0.834,M,40.593,M,2.2,0123*55\r\n
$GPGGA,115031.30,5703.4220049,N,00952.1596092,E,2,8,1.0,-0.836,M,40.593,M,2.2,0123*51\r\n
$GPGGA,115031.35,5703.4219393,N,00952.1596509,E,2,8,1.0,-0.835,M,40.593,M,2.2,0123*5E\r\n
$GPGGA,115031.40,5703.4218737,N,00952.1596914,E,2,8,1.0,-0.837,M,40.593,M,2.2,0123*55\r\n
$GPGGA,115031.45,5703.4218074,N,00952.1597319,E,2,8,1.0,-0.839,M,40.593,M,2.5,0123*5F\r\n
$GPGGA,115031.50,5703.4217418,N,00952.1597742,E,2,8,1.0,-0.840,M,40.593,M,2.5,0123*5E\r\n
$GPGGA,115031.55,5703.4216760,N,00952.1598159,E,2,8,1.0,-0.844,M,40.593,M,2.5,0123*51\r\n
$GPGGA,115031.60,5703.4216101,N,00952.1598576,E,2,8,1.0,-0.847,M,40.593,M,2.5,0123*5C\r\n
$GPGGA,115031.65,5703.4215443,N,00952.1598976,E,2,8,1.0,-0.853,M,40.593,M,2.7,0123*52\r\n
$GPGGA,115031.70,5703.4214786,N,00952.1599379,E,2,8,1.0,-0.855,M,40.593,M,2.7,0123*5F\r\n
$GPGGA,115031.75,5703.4214116,N,00952.1599793,E,2,8,1.0,-0.859,M,40.593,M,2.7,0123*59\r\n
$GPGGA,115031.80,5703.4213449,N,00952.1600199,E,2,8,1.0,-0.862,M,40.593,M,2.7,0123*5C\r\n
$GPGGA,115031.85,5703.4212782,N,00952.1600604,E,2,8,1.0,-0.866,M,40.593,M,2.9,0123*55\r\n
$GPGGA,115031.90,5703.4212128,N,00952.1601010,E,2,8,1.0,-0.869,M,40.593,M,2.9,0123*5A\r\n
$GPGGA,115031.95,5703.4211480,N,00952.1601408,E,2,8,1.0,-0.869,M,40.593,M,2.9,0123*56\r\n
$GPGGA,115032.00,5703.4210829,N,00952.1601810,E,2,8,1.0,-0.872,M,40.593,M,2.9,0123*58\r\n
$GPGGA,115032.05,5703.4210182,N,00952.1602206,E,2,8,1.0,-0.870,M,40.593,M,3.2,0123*53\r\n
$GPGGA,115032.10,5703.4209528,N,00952.1602611,E,2,8,1.0,-0.872,M,40.593,M,3.2,0123*5B\r\n
$GPGGA,115032.15,5703.4208892,N,00952.1603032,E,2,8,1.0,-0.872,M,40.593,M,3.2,0123*55\r\n
$GPGGA,115032.20,5703.4208234,N,00952.1603433,E,2,8,1.0,-0.874,M,40.593,M,3.2,0123*56\r\n
$GPGGA,115032.25,5703.4207589,N,00952.1603838,E,2,8,1.0,-0.875,M,40.593,M,2.4,0123*5C\r\n
$GPGGA,115032.30,5703.4206938,N,00952.1604216,E,2,8,1.0,-0.876,M,40.593,M,2.4,0123*5D\r\n
$GPGGA,115032.35,5703.4206295,N,00952.1604594,E,2,8,1.0,-0.874,M,40.593,M,2.4,0123*5B\r\n
$GPGGA,115032.40,5703.4205636,N,00952.1604985,E,2,8,1.0,-0.877,M,40.593,M,2.4,0123*58\r\n
$GPGGA,115032.45,5703.4204989,N,00952.1605368,E,2,8,1.0,-0.875,M,40.593,M,2.6,0123*5F\r\n
$GPGGA,115032.50,5703.4204342,N,00952.1605760,E,2,8,1.0,-0.875,M,40.593,M,2.6,0123*5A\r\n
$GPGGA,115032.55,5703.4203694,N,00952.1606162,E,2,8,1.0,-0.875,M,40.593,M,2.6,0123*51\r\n
$GPGGA,115032.60,5703.4203042,N,00952.1606556,E,2,8,1.0,-0.876,M,40.593,M,2.6,0123*5A\r\n
$GPGGA,115032.65,5703.4202376,N,00952.1606924,E,2,8,1.0,-0.878,M,40.593,M,2.9,0123*52\r\n
$GPGGA,115032.70,5703.4201742,N,00952.1607279,E,2,8,1.0,-0.880,M,40.593,M,2.9,0123*53\r\n
$GPGGA,115032.75,5703.4201105,N,00952.1607658,E,2,8,1.0,-0.883,M,40.593,M,2.9,0123*57\r\n
$GPGGA,115032.80,5703.4200458,N,00952.1608076,E,2,8,1.0,-0.883,M,40.593,M,2.9,0123*54\r\n
$GPGGA,115032.85,5703.4199804,N,00952.1608433,E,2,8,1.0,-0.885,M,40.593,M,3.1,0123*5D\r\n
$GPGGA,115032.90,5703.4199154,N,00952.1608773,E,2,8,1.0,-0.889,M,40.593,M,3.1,0123*5E\r\n
$GPGGA,115032.95,5703.4198517,N,00952.1609144,E,2,8,1.0,-0.890,M,40.593,M,3.1,0123*52\r\n
$GPGGA,115033.00,5703.4197879,N,00952.1609514,E,2,8,1.0,-0.892,M,40.593,M,3.1,0123*56\r\n
$GPGGA,115033.05,5703.4197271,N,00952.1609887,E,2,8,1.0,-0.886,M,40.593,M,3.3,0123*51\r\n
$GPGGA,115033.10,5703.4196641,N,00952.1610252,E,2,8,1.0,-0.887,M,40.593,M,3.3,0123*58\r\n
$GPGGA,115033.15,5703.4196003,N,00952.1610601,E,2,8,1.0,-0.886,M,40.593,M,3.3,0123*5E\r\n
$GPGGA,115033.20,5703.4195362,N,00952.1610977,E,2,8,1.0,-0.885,M,40.593,M,3.3,0123*52\r\n
$GPGGA,115033.25,5703.4194736,N,00952.1611360,E,2,8,1.0,-0.884,M,40.593,M,1.7,0123*59\r\n
$GPGGA,115033.30,5703.4194106,N,00952.1611712,E,2,8,1.0,-0.885,M,40.593,M,1.7,0123*58\r\n
$GPGGA,115033.35,5703.4193463,N,00952.1612063,E,2,8,1.0,-0.883,M,40.593,M,1.7,0123*58\r\n
$GPGGA,115033.40,5703.4192829,N,00952.1612405,E,2,8,1.0,-0.881,M,40.593,M,1.7,0123*5F\r\n
$GPGGA,115033.45,5703.4192210,N,00952.1612792,E,2,8,1.0,-0.880,M,40.593,M,1.9,0123*58\r\n
$GPGGA,115033.50,5703.4191599,N,00952.1613166,E,2,8,1.0,-0.880,M,40.593,M,1.9,0123*55\r\n
$GPGGA,115033.55,5703.4190979,N,00952.1613530,E,2,8,1.0,-0.879,M,40.593,M,1.9,0123*52\r\n
$GPGGA,115033.60,5703.4190351,N,00952.1613893,E,2,8,1.0,-0.880,M,40.593,M,1.9,0123*56\r\n
$GPGGA,115033.65,5703.4189711,N,00952.1614275,E,2,8,1.0,-0.881,M,40.593,M,2.1,0123*54\r\n
$GPGGA,115033.70,5703.4189093,N,00952.1614643,E,2,8,1.0,-0.880,M,40.593,M,2.1,0123*5D\r\n
$GPGGA,115033.75,5703.4188488,N,00952.1615017,E,2,8,1.0,-0.880,M,40.593,M,2.1,0123*51\r\n
$GPGGA,115033.80,5703.4187879,N,00952.1615397,E,2,8,1.0,-0.880,M,40.593,M,2.1,0123*5D\r\n
$GPGGA,115033.85,5703.4187249,N,00952.1615764,E,2,8,1.0,-0.878,M,40.593,M,2.3,0123*5C\r\n
$GPGGA,115033.90,5703.4186623,N,00952.1616142,E,2,8,1.0,-0.879,M,40.593,M,2.3,0123*51\r\n
$GPGGA,115033.95,5703.4186017,N,00952.1616531,E,2,8,1.0,-0.878,M,40.593,M,2.3,0123*54\r\n
