$GPGGA,092413.50,5700.9324410,N,00959.1804256,E,1,4,8.3,15.167,M,40.582,M,,*66\r\n
$GPGGA,092413.55,5700.9324414,N,00959.1804256,E,1,4,8.3,15.168,M,40.582,M,,*68\r\n
$GPGGA,092413.60,5700.9324418,N,00959.1804259,E,1,4,8.3,15.168,M,40.582,M,,*6D\r\n
$GPGGA,092413.65,5700.9324448,N,00959.1804195,E,1,4,8.3,15.159,M,40.582,M,,*6C\r\n
$GPGGA,092413.70,5700.9324461,N,00959.1804196,E,1,4,8.3,15.159,M,40.582,M,,*60\r\n
$GPGGA,092413.75,5700.9324472,N,00959.1804192,E,1,4,8.3,15.160,M,40.582,M,,*69\r\n
$GPGGA,092413.80,5700.9324476,N,00959.1804198,E,1,4,8.3,15.160,M,40.582,M,,*6D\r\n
$GPGGA,092413.85,5700.9324437,N,00959.1804212,E,1,4,8.3,15.148,M,40.582,M,,*66\r\n
$GPGGA,092413.90,5700.9324442,N,00959.1804213,E,1,4,8.3,15.149,M,40.582,M,,*60\r\n
$GPGGA,092413.95,5700.9324452,N,00959.1804213,E,1,4,8.3,15.149,M,40.582,M,,*64\r\n
$GPGGA,092414.00,5700.9324461,N,00959.1804216,E,1,4,8.3,15.149,M,40.582,M,,*6A\r\n
$GPGGA,092414.05,5700.9324252,N,00959.1804150,E,1,4,8.3,15.135,M,40.582,M,,*63\r\n
$GPGGA,092414.10,5700.9324251,N,00959.1804160,E,1,4,8.3,15.138,M,40.582,M,,*6A\r\n
$GPGGA,092414.15,5700.9324289,N,00959.1804149,E,1,4,8.3,15.141,M,40.582,M,,*6F\r\n
$GPGGA,092414.20,5700.9324308,N,00959.1804126,E,1,4,8.3,15.142,M,40.582,M,,*6B\r\n
$GPGGA,092414.25,5700.9324316,N,00959.1804119,E,1,4,8.3,15.123,M,40.582,M,,*6A\r\n
$GPGGA,092414.30,5700.9324343,N,00959.1804130,E,1,4,8.3,15.124,M,40.582,M,,*62\r\n
$GPGGA,092414.35,5700.9324315,N,00959.1804118,E,1,4,8.3,15.124,M,40.582,M,,*6E\r\n
$GPGGA,092414.40,5700.9324328,N,00959.1804135,E,1,4,8.3,15.123,M,40.582,M,,*6A\r\n
$GPGGA,092414.45,5700.9324235,N,00959.1804106,E,1,4,8.3,15.111,M,40.582,M,,*63\r\n
$GPGGA,092414.50,5700.9324241,N,00959.1804111,E,1,4,8.3,15.112,M,40.582,M,,*61\r\n
$GPGGA,092414.55,5700.9324247,N,00959.1804112,E,1,4,8.3,15.112,M,40.582,M,,*61\r\n
$GPGGA,092414.60,5700.9324249,N,00959.1804114,E,1,4,8.3,15.112,M,40.582,M,,*6F\r\n
$GPGGA,092414.65,5700.9324110,N,00959.1804079,E,1,4,8.3,15.096,M,40.582,M,,*62\r\n
$GPGGA,092414.70,5700.9324113,N,00959.1804077,E,1,4,8.3,15.097,M,40.582,M,,*6A\r\n
$GPGGA,092414.75,5700.9324115,N,00959.1804073,E,1,4,8.3,15.097,M,40.582,M,,*6D\r\n
$GPGGA,092414.80,5700.9324115,N,00959.1804081,E,1,4,8.3,15.097,M,40.582,M,,*6A\r\n
$GPGGA,092414.85,5700.9324172,N,00959.1804059,E,1,4,8.3,15.089,M,40.582,M,,*64\r\n
$GPGGA,092414.90,5700.9324178,N,00959.1804057,E,1,4,8.3,15.090,M,40.582,M,,*6C\r\n
$GPGGA,092414.95,5700.9324177,N,00959.1804060,E,1,4,8.3,15.090,M,40.582,M,,*62\r\n
$GPGGA,092415.00,5700.9324177,N,00959.1804059,E,1,4,8.3,15.089,M,40.582,M,,*6D\r\n
$GPGGA,092415.05,5700.9324022,N,00959.1804010,E,1,4,8.3,15.074,M,40.582,M,,*66\r\n
$GPGGA,092415.10,5700.9324021,N,00959.1804009,E,1,4,8.3,15.074,M,40.582,M,,*69\r\n
$GPGGA,092415.15,5700.9324026,N,00959.1804005,E,1,4,8.3,15.074,M,40.582,M,,*67\r\n
$GPGGA,092415.20,5700.9324029,N,00959.1804001,E,1,4,8.3,15.074,M,40.582,M,,*6A\r\n
$GPGGA,092415.25,5700.9324158,N,00959.1804029,E,1,4,8.3,15.068,M,40.582,M,,*6F\r\n
$GPGGA,092415.30,5700.9324125,N,00959.1804021,E,1,4,8.3,15.066,M,40.582,M,,*67\r\n
$GPGGA,092415.35,5700.9324137,N,00959.1804047,E,1,4,8.3,15.066,M,40.582,M,,*61\r\n
$GPGGA,092415.40,5700.9324163,N,00959.1804059,E,1,4,8.3,15.064,M,40.582,M,,*6F\r\n
$GPGGA,092415.45,5700.9324065,N,00959.1804045,E,1,4,8.3,15.056,M,40.582,M,,*61\r\n
$GPGGA,092415.50,5700.9324068,N,00959.1804050,E,1,4,8.3,15.056,M,40.582,M,,*6C\r\n
$GPGGA,092415.55,5700.9324064,N,00959.1804052,E,1,4,8.3,15.056,M,40.582,M,,*67\r\n
$GPGGA,092415.60,5700.9324063,N,00959.1804059,E,1,4,8.3,15.055,M,40.582,M,,*6E\r\n
$GPGGA,092415.65,5700.9324013,N,00959.1803992,E,1,4,8.3,15.043,M,40.582,M,,*62\r\n
$GPGGA,092415.70,5700.9324010,N,00959.1803994,E,1,4,8.3,15.043,M,40.582,M,,*63\r\n
$GPGGA,092415.75,5700.9324010,N,00959.1803994,E,1,4,8.3,15.043,M,40.582,M,,*66\r\n
$GPGGA,092415.80,5700.9324004,N,00959.1804002,E,1,4,8.3,15.042,M,40.582,M,,*69\r\n
$GPGGA,092415.85,5700.9323941,N,00959.1804025,E,1,4,8.3,15.031,M,40.582,M,,*62\r\n
$GPGGA,092415.90,5700.9323938,N,00959.1804023,E,1,4,8.3,15.030,M,40.582,M,,*6F\r\n
$GPGGA,092415.95,5700.9323932,N,00959.1804027,E,1,4,8.3,15.030,M,40.582,M,,*64\r\n
$GPGGA,092416.00,5700.9323930,N,00959.1804029,E,1,4,8.3,15.029,M,40.582,M,,*6F\r\n
$GPGGA,092416.05,5700.9323898,N,00959.1803912,E,1,4,8.3,15.018,M,40.582,M,,*6D\r\n
$GPGGA,092416.10,5700.9323896,N,00959.1803908,E,1,4,8.3,15.018,M,40.582,M,,*6C\r\n
$GPGGA,092416.15,5700.9323892,N,00959.1803905,E,1,4,8.3,15.018,M,40.582,M,,*60\r\n
$GPGGA,092416.20,5700.9323890,N,00959.1803902,E,1,4,8.3,15.017,M,40.582,M,,*6C\r\n
$GPGGA,092416.25,5700.9323866,N,00959.1803960,E,1,4,8.3,15.007,M,40.582,M,,*65\r\n
$GPGGA,092416.30,5700.9323862,N,00959.1803962,E,1,4,8.3,15.007,M,40.582,M,,*67\r\n
$GPGGA,092416.35,5700.9323859,N,00959.1803964,E,1,4,8.3,15.007,M,40.582,M,,*6C\r\n
$GPGGA,092416.40,5700.9323861,N,00959.1803964,E,1,4,8.3,15.007,M,40.582,M,,*65\r\n
$GPGGA,092416.45,5700.9323881,N,00959.1803943,E,1,4,8.3,14.999,M,40.582,M,,*64\r\n
$GPGGA,092416.50,5700.9323871,N,00959.1803931,E,1,4,8.3,14.998,M,40.582,M,,*6B\r\n
$GPGGA,092416.55,5700.9323852,N,00959.1803936,E,1,4,8.3,14.998,M,40.582,M,,*68\r\n
$GPGGA,092416.60,5700.9323871,N,00959.1803970,E,1,4,8.3,14.997,M,40.582,M,,*62\r\n
$GPGGA,092416.65,5700.9323732,N,00959.1803930,E,1,4,8.3,14.981,M,40.582,M,,*6C\r\n
$GPGGA,092416.70,5700.9323727,N,00959.1803930,E,1,4,8.3,14.981,M,40.582,M,,*6C\r\n
$GPGGA,092416.75,5700.9323722,N,00959.1803930,E,1,4,8.3,14.981,M,40.582,M,,*6C\r\n
$GPGGA,092416.80,5700.9323716,N,00959.1803931,E,1,4,8.3,14.980,M,40.582,M,,*61\r\n
$GPGGA,092416.85,5700.9323750,N,00959.1803888,E,1,4,8.3,14.972,M,40.582,M,,*68\r\n
$GPGGA,092416.90,5700.9323750,N,00959.1803886,E,1,4,8.3,14.972,M,40.582,M,,*62\r\n
$GPGGA,092416.95,5700.9323747,N,00959.1803885,E,1,4,8.3,14.972,M,40.582,M,,*62\r\n
$GPGGA,092417.00,5700.9323744,N,00959.1803885,E,1,4,8.3,14.972,M,40.582,M,,*6C\r\n
$GPGGA,092417.05,5700.9323699,N,00959.1803894,E,1,4,8.3,14.961,M,40.582,M,,*6A\r\n
$GPGGA,092417.10,5700.9323696,N,00959.1803894,E,1,4,8.3,14.961,M,40.582,M,,*61\r\n
$GPGGA,092417.15,5700.9323695,N,00959.1803896,E,1,4,8.3,14.961,M,40.582,M,,*65\r\n
$GPGGA,092417.20,5700.9323691,N,00959.1803892,E,1,4,8.3,14.961,M,40.582,M,,*63\r\n
$GPGGA,092417.25,5700.9323614,N,00959.1803835,E,1,4,8.3,14.948,M,40.582,M,,*6D\r\n
$GPGGA,092417.30,5700.9323616,N,00959.1803832,E,1,4,8.3,14.948,M,40.582,M,,*6C\r\n
$GPGGA,092417.35,5700.9323611,N,00959.1803830,E,1,4,8.3,14.948,M,40.582,M,,*6C\r\n
$GPGGA,092417.40,5700.9323612,N,00959.1803825,E,1,4,8.3,14.948,M,40.582,M,,*69\r\n
$GPGGA,092417.45,5700.9323672,N,00959.1803824,E,1,4,8.3,14.942,M,40.582,M,,*61\r\n
$GPGGA,092417.50,5700.9323671,N,00959.1803822,E,1,4,8.3,14.942,M,40.582,M,,*60\r\n
$GPGGA,092417.55,5700.9323672,N,00959.1803823,E,1,4,8.3,14.943,M,40.582,M,,*66\r\n
$GPGGA,092417.60,5700.9323674,N,00959.1803822,E,1,4,8.3,14.943,M,40.582,M,,*67\r\n
$GPGGA,092417.65,5700.9323572,N,00959.1803817,E,1,4,8.3,14.931,M,40.582,M,,*64\r\n
$GPGGA,092417.70,5700.9323575,N,00959.1803812,E,1,4,8.3,14.931,M,40.582,M,,*62\r\n
$GPGGA,092417.75,5700.9323574,N,00959.1803808,E,1,4,8.3,14.931,M,40.582,M,,*6D\r\n
$GPGGA,092417.80,5700.9323577,N,00959.1803812,E,1,4,8.3,14.931,M,40.582,M,,*6F\r\n
$GPGGA,092417.85,5700.9323557,N,00959.1803756,E,1,4,8.3,14.923,M,40.582,M,,*64\r\n
$GPGGA,092417.90,5700.9323558,N,00959.1803755,E,1,4,8.3,14.923,M,40.582,M,,*6C\r\n
$GPGGA,092417.95,5700.9323557,N,00959.1803750,E,1,4,8.3,14.923,M,40.582,M,,*63\r\n
$GPGGA,092418.00,5700.9323563,N,00959.1803749,E,1,4,8.3,14.924,M,40.582,M,,*68\r\n
$GPGGA,092418.05,5700.9323519,N,00959.1803742,E,1,4,8.3,14.916,M,40.582,M,,*6A\r\n
$GPGGA,092418.10,5700.9323517,N,00959.1803743,E,1,4,8.3,14.916,M,40.582,M,,*61\r\n
$GPGGA,092418.15,5700.9323523,N,00959.1803737,E,1,4,8.3,14.916,M,40.582,M,,*60\r\n
$GPGGA,092418.20,5700.9323531,N,00959.1803736,E,1,4,8.3,14.917,M,40.582,M,,*65\r\n
$GPGGA,092418.25,5700.9323560,N,00959.1803710,E,1,4,8.3,14.912,M,40.582,M,,*65\r\n
$GPGGA,092418.30,5700.9323536,N,00959.1803736,E,1,4,8.3,14.910,M,40.582,M,,*64\r\n
$GPGGA,092418.35,5700.9323568,N,00959.1803750,E,1,4,8.3,14.911,M,40.582,M,,*6B\r\n
$GPGGA,092418.40,5700.9323556,N,00959.1803716,E,1,4,8.3,14.911,M,40.582,M,,*66\r\n
$GPGGA,092418.45,5700.9323402,N,00959.1803656,E,1,4,8.3,14.902,M,40.582,M,,*64\r\n
$GPGGA,092418.50,5700.9323412,N,00959.1803692,E,1,4,8.3,14.903,M,40.582,M,,*68\r\n
$GPGGA,092418.55,5700.9323392,N,00959.1803722,E,1,4,8.3,14.903,M,40.582,M,,*68\r\n
$GPGGA,092418.60,5700.9323388,N,00959.1803693,E,1,4,8.3,14.901,M,40.582,M,,*6C\r\n
$GPGGA,092418.65,5700.9323408,N,00959.1803705,E,1,4,8.3,14.895,M,40.582,M,,*64\r\n
$GPGGA,092418.70,5700.9323414,N,00959.1803717,E,1,4,8.3,14.895,M,40.582,M,,*6E\r\n
$GPGGA,092418.75,5700.9323420,N,00959.1803727,E,1,4,8.3,14.896,M,40.582,M,,*6C\r\n
$GPGGA,092418.80,5700.9323423,N,00959.1803736,E,1,4,8.3,14.896,M,40.582,M,,*65\r\n
$GPGGA,092418.85,5700.9323373,N,00959.1803620,E,1,4,8.3,14.888,M,40.582,M,,*6B\r\n
$GPGGA,092418.90,5700.9323381,N,00959.1803625,E,1,4,8.3,14.888,M,40.582,M,,*67\r\n
$GPGGA,092418.95,5700.9323390,N,00959.1803633,E,1,4,8.3,14.888,M,40.582,M,,*65\r\n
$GPGGA,092419.00,5700.9323395,N,00959.1803638,E,1,4,8.3,14.889,M,40.582,M,,*67\r\n
$GPGGA,092419.05,5700.9323339,N,00959.1803634,E,1,4,8.3,14.880,M,40.582,M,,*61\r\n
$GPGGA,092419.10,5700.9323344,N,00959.1803636,E,1,4,8.3,14.880,M,40.582,M,,*6D\r\n
$GPGGA,092419.15,5700.9323350,N,00959.1803642,E,1,4,8.3,14.880,M,40.582,M,,*6E\r\n
$GPGGA,092419.20,5700.9323360,N,00959.1803648,E,1,4,8.3,14.881,M,40.582,M,,*60\r\n
$GPGGA,092419.25,5700.9323367,N,00959.1803609,E,1,4,8.3,14.874,M,40.582,M,,*6D\r\n
$GPGGA,092419.30,5700.9323377,N,00959.1803614,E,1,4,8.3,14.874,M,40.582,M,,*64\r\n
$GPGGA,092419.35,5700.9323386,N,00959.1803617,E,1,4,8.3,14.875,M,40.582,M,,*6D\r\n
$GPGGA,092419.40,5700.9323394,N,00959.1803619,E,1,4,8.3,14.875,M,40.582,M,,*62\r\n
$GPGGA,092419.45,5700.9323244,N,00959.1803563,E,1,4,8.3,14.862,M,40.582,M,,*63\r\n
$GPGGA,092419.50,5700.9323250,N,00959.1803566,E,1,4,8.3,14.862,M,40.582,M,,*67\r\n
$GPGGA,092419.55,5700.9323257,N,00959.1803570,E,1,4,8.3,14.862,M,40.582,M,,*62\r\n
$GPGGA,092419.60,5700.9323263,N,00959.1803568,E,1,4,8.3,14.863,M,40.582,M,,*6B\r\n
$GPGGA,092419.65,5700.9323289,N,00959.1803566,E,1,4,8.3,14.856,M,40.582,M,,*62\r\n
$GPGGA,092419.70,5700.9323296,N,00959.1803571,E,1,4,8.3,14.856,M,40.582,M,,*6E\r\n
$GPGGA,092419.75,5700.9323305,N,00959.1803570,E,1,4,8.3,14.857,M,40.582,M,,*60\r\n
$GPGGA,092419.80,5700.9323312,N,00959.1803568,E,1,4,8.3,14.857,M,40.582,M,,*65\r\n
$GPGGA,092419.85,5700.9323215,N,00959.1803524,E,1,4,8.3,14.846,M,40.582,M,,*6E\r\n
$GPGGA,092419.90,5700.9323222,N,00959.1803527,E,1,4,8.3,14.846,M,40.582,M,,*6D\r\n
$GPGGA,092419.95,5700.9323227,N,00959.1803521,E,1,4,8.3,14.846,M,40.582,M,,*6B\r\n
$GPGGA,092420.00,5700.9323235,N,00959.1803521,E,1,4,8.3,14.846,M,40.582,M,,*6E\r\n
$GPGGA,092420.05,5700.9323157,N,00959.1803517,E,1,4,8.3,14.836,M,40.582,M,,*6E\r\n
$GPGGA,092420.10,5700.9323163,N,00959.1803516,E,1,4,8.3,14.836,M,40.582,M,,*6C\r\n
$GPGGA,092420.15,5700.9323170,N,00959.1803518,E,1,4,8.3,14.836,M,40.582,M,,*65\r\n
$GPGGA,092420.20,5700.9323173,N,00959.1803519,E,1,4,8.3,14.836,M,40.582,M,,*61\r\n
$GPGGA,092420.25,5700.9323174,N,00959.1803508,E,1,4,8.3,14.829,M,40.582,M,,*6D\r\n
$GPGGA,092420.30,5700.9323178,N,00959.1803506,E,1,4,8.3,14.829,M,40.582,M,,*6B\r\n
$GPGGA,092420.35,5700.9323184,N,00959.1803506,E,1,4,8.3,14.829,M,40.582,M,,*6D\r\n
$GPGGA,092420.40,5700.9323193,N,00959.1803508,E,1,4,8.3,14.829,M,40.582,M,,*67\r\n
$GPGGA,092420.45,5700.9323107,N,00959.1803448,E,1,4,8.3,14.819,M,40.582,M,,*69\r\n
$GPGGA,092420.50,5700.9323114,N,00959.1803450,E,1,4,8.3,14.819,M,40.582,M,,*66\r\n
$GPGGA,092420.55,5700.9323119,N,00959.1803450,E,1,4,8.3,14.819,M,40.582,M,,*6E\r\n
$GPGGA,092420.60,5700.9323124,N,00959.1803445,E,1,4,8.3,14.819,M,40.582,M,,*62\r\n
$GPGGA,092420.65,5700.9323093,N,00959.1803442,E,1,4,8.3,14.810,M,40.582,M,,*64\r\n
$GPGGA,092420.70,5700.9323099,N,00959.1803439,E,1,4,8.3,14.810,M,40.582,M,,*66\r\n
$GPGGA,092420.75,5700.9323107,N,00959.1803445,E,1,4,8.3,14.811,M,40.582,M,,*6F\r\n
$GPGGA,092420.80,5700.9323115,N,00959.1803443,E,1,4,8.3,14.811,M,40.582,M,,*60\r\n
$GPGGA,092420.85,5700.9323120,N,00959.1803458,E,1,4,8.3,14.803,M,40.582,M,,*6A\r\n
$GPGGA,092420.90,5700.9323088,N,00959.1803410,E,1,4,8.3,14.802,M,40.582,M,,*60\r\n
$GPGGA,092420.95,5700.9323137,N,00959.1803398,E,1,4,8.3,14.802,M,40.582,M,,*67\r\n
$GPGGA,092421.00,5700.9323131,N,00959.1803420,E,1,4,8.3,14.800,M,40.582,M,,*6A\r\n
$GPGGA,092421.05,5700.9322963,N,00959.1803359,E,1,4,8.3,14.790,M,40.582,M,,*6E\r\n
$GPGGA,092421.10,5700.9322984,N,00959.1803372,E,1,4,8.3,14.792,M,40.582,M,,*68\r\n
$GPGGA,092421.15,5700.9323009,N,00959.1803381,E,1,4,8.3,14.793,M,40.582,M,,*6D\r\n
$GPGGA,092421.20,5700.9323003,N,00959.1803368,E,1,4,8.3,14.794,M,40.582,M,,*61\r\n
$GPGGA,092421.25,5700.9322979,N,00959.1803355,E,1,4,8.3,14.784,M,40.582,M,,*6E\r\n
$GPGGA,092421.30,5700.9322978,N,00959.1803359,E,1,4,8.3,14.784,M,40.582,M,,*67\r\n
$GPGGA,092421.35,5700.9322978,N,00959.1803369,E,1,4,8.3,14.784,M,40.582,M,,*61\r\n
$GPGGA,092421.40,5700.9322981,N,00959.1803370,E,1,4,8.3,14.784,M,40.582,M,,*6D\r\n
$GPGGA,092421.45,5700.9322842,N,00959.1803356,E,1,4,8.3,14.772,M,40.582,M,,*6B\r\n
$GPGGA,092421.50,5700.9322845,N,00959.1803359,E,1,4,8.3,14.772,M,40.582,M,,*67\r\n
$GPGGA,092421.55,5700.9322839,N,00959.1803365,E,1,4,8.3,14.772,M,40.582,M,,*66\r\n
$GPGGA,092421.60,5700.9322833,N,00959.1803366,E,1,4,8.3,14.772,M,40.582,M,,*69\r\n
$GPGGA,092421.65,5700.9322739,N,00959.1803223,E,1,4,8.3,14.762,M,40.582,M,,*68\r\n
$GPGGA,092421.70,5700.9322733,N,00959.1803227,E,1,4,8.3,14.761,M,40.582,M,,*61\r\n
$GPGGA,092421.75,5700.9322730,N,00959.1803224,E,1,4,8.3,14.761,M,40.582,M,,*64\r\n
$GPGGA,092421.80,5700.9322724,N,00959.1803215,E,1,4,8.3,14.761,M,40.582,M,,*69\r\n
$GPGGA,092421.85,5700.9322836,N,00959.1803264,E,1,4,8.4,14.763,M,40.582,M,,*63\r\n
$GPGGA,092421.90,5700.9322806,N,00959.1803249,E,1,4,8.4,14.761,M,40.582,M,,*69\r\n
$GPGGA,092421.95,5700.9322829,N,00959.1803231,E,1,4,8.4,14.761,M,40.582,M,,*6E\r\n
$GPGGA,092422.00,5700.9322830,N,00959.1803269,E,1,4,8.4,14.760,M,40.582,M,,*65\r\n
$GPGGA,092422.05,5700.9322797,N,00959.1803242,E,1,4,8.4,14.755,M,40.582,M,,*6D\r\n
$GPGGA,092422.10,5700.9322794,N,00959.1803238,E,1,4,8.4,14.755,M,40.582,M,,*67\r\n
$GPGGA,092422.15,5700.9322789,N,00959.1803236,E,1,4,8.4,14.755,M,40.582,M,,*60\r\n
$GPGGA,092422.20,5700.9322786,N,00959.1803239,E,1,4,8.4,14.755,M,40.582,M,,*66\r\n
$GPGGA,092422.25,5700.9322788,N,00959.1803205,E,1,4,8.4,14.751,M,40.582,M,,*66\r\n
$GPGGA,092422.30,5700.9322786,N,00959.1803202,E,1,4,8.4,14.751,M,40.582,M,,*6B\r\n
$GPGGA,092422.35,5700.9322777,N,00959.1803197,E,1,4,8.4,14.750,M,40.582,M,,*6E\r\n
$GPGGA,092422.40,5700.9322774,N,00959.1803193,E,1,4,8.4,14.750,M,40.582,M,,*6B\r\n
$GPGGA,092422.45,5700.9322670,N,00959.1803116,E,1,4,8.4,14.744,M,40.582,M,,*63\r\n
$GPGGA,092422.50,5700.9322672,N,00959.1803111,E,1,4,8.4,14.747,M,40.582,M,,*61\r\n
$GPGGA,092422.55,5700.9322656,N,00959.1803107,E,1,4,8.4,14.746,M,40.582,M,,*64\r\n
$GPGGA,092422.60,5700.9322631,N,00959.1803099,E,1,4,8.4,14.745,M,40.582,M,,*66\r\n
$GPGGA,092422.65,5700.9322652,N,00959.1803091,E,1,4,8.4,14.736,M,40.582,M,,*6A\r\n
$GPGGA,092422.70,5700.9322648,N,00959.1803087,E,1,4,8.4,14.736,M,40.582,M,,*62\r\n
$GPGGA,092422.75,5700.9322649,N,00959.1803088,E,1,4,8.4,14.737,M,40.582,M,,*68\r\n
$GPGGA,092422.80,5700.9322647,N,00959.1803090,E,1,4,8.4,14.737,M,40.582,M,,*65\r\n
$GPGGA,092422.85,5700.9322672,N,00959.1803081,E,1,4,8.4,14.732,M,40.582,M,,*63\r\n
$GPGGA,092422.90,5700.9322676,N,00959.1803090,E,1,4,8.4,14.731,M,40.582,M,,*60\r\n
$GPGGA,092422.95,5700.9322677,N,00959.1803088,E,1,4,8.4,14.731,M,40.582,M,,*6D\r\n
$GPGGA,092423.00,5700.9322684,N,00959.1803079,E,1,4,8.4,14.732,M,40.582,M,,*61\r\n
$GPGGA,092423.05,5700.9322569,N,00959.1803014,E,1,4,8.4,14.722,M,40.582,M,,*6E\r\n
$GPGGA,092423.10,5700.9322568,N,00959.1803011,E,1,4,8.4,14.722,M,40.582,M,,*6E\r\n
$GPGGA,092423.15,5700.9322560,N,00959.1803004,E,1,4,8.4,14.722,M,40.582,M,,*67\r\n
$GPGGA,092423.20,5700.9322556,N,00959.1803000,E,1,4,8.4,14.722,M,40.582,M,,*60\r\n
$GPGGA,092423.25,5700.9322575,N,00959.1802995,E,1,4,8.4,14.715,M,40.582,M,,*64\r\n
$GPGGA,092423.30,5700.9322574,N,00959.1802992,E,1,4,8.4,14.715,M,40.582,M,,*66\r\n
$GPGGA,092423.35,5700.9322569,N,00959.1802991,E,1,4,8.4,14.715,M,40.582,M,,*6C\r\n
$GPGGA,092423.40,5700.9322569,N,00959.1802983,E,1,4,8.4,14.715,M,40.582,M,,*6D\r\n
$GPGGA,092423.45,5700.9322483,N,00959.1802969,E,1,4,8.4,14.703,M,40.582,M,,*6E\r\n
$GPGGA,092423.50,5700.9322483,N,00959.1802964,E,1,4,8.4,14.703,M,40.582,M,,*67\r\n
$GPGGA,092423.55,5700.9322482,N,00959.1802962,E,1,4,8.4,14.703,M,40.582,M,,*65\r\n
$GPGGA,092423.60,5700.9322478,N,00959.1802964,E,1,4,8.4,14.703,M,40.582,M,,*60\r\n
$GPGGA,092423.65,5700.9322534,N,00959.1802981,E,1,4,8.4,14.697,M,40.582,M,,*6B\r\n
$GPGGA,092423.70,5700.9322534,N,00959.1802982,E,1,4,8.4,14.697,M,40.582,M,,*6C\r\n
$GPGGA,092423.75,5700.9322535,N,00959.1802977,E,1,4,8.4,14.697,M,40.582,M,,*62\r\n
$GPGGA,092423.80,5700.9322531,N,00959.1802981,E,1,4,8.4,14.697,M,40.582,M,,*65\r\n
$GPGGA,092423.85,5700.9322428,N,00959.1802933,E,1,4,8.4,14.683,M,40.582,M,,*65\r\n
$GPGGA,092423.90,5700.9322429,N,00959.1802931,E,1,4,8.4,14.683,M,40.582,M,,*62\r\n
$GPGGA,092423.95,5700.9322426,N,00959.1802935,E,1,4,8.4,14.684,M,40.582,M,,*6B\r\n
$GPGGA,092424.00,5700.9322427,N,00959.1802938,E,1,4,8.4,14.684,M,40.582,M,,*6C\r\n
$GPGGA,092424.05,5700.9322363,N,00959.1802895,E,1,4,8.4,14.671,M,40.582,M,,*62\r\n
$GPGGA,092424.10,5700.9322364,N,00959.1802895,E,1,4,8.4,14.672,M,40.582,M,,*62\r\n
$GPGGA,092424.15,5700.9322365,N,00959.1802895,E,1,4,8.4,14.672,M,40.582,M,,*66\r\n
$GPGGA,092424.20,5700.9322363,N,00959.1802897,E,1,4,8.4,14.672,M,40.582,M,,*64\r\n
$GPGGA,092424.25,5700.9322316,N,00959.1802882,E,1,4,8.4,14.660,M,40.582,M,,*64\r\n
$GPGGA,092424.30,5700.9322316,N,00959.1802884,E,1,4,8.4,14.660,M,40.582,M,,*66\r\n
$GPGGA,092424.35,5700.9322316,N,00959.1802886,E,1,4,8.4,14.660,M,40.582,M,,*61\r\n
$GPGGA,092424.40,5700.9322322,N,00959.1802884,E,1,4,8.4,14.660,M,40.582,M,,*66\r\n
$GPGGA,092424.45,5700.9322334,N,00959.1802866,E,1,4,8.4,14.650,M,40.582,M,,*6B\r\n
$GPGGA,092424.50,5700.9322332,N,00959.1802872,E,1,4,8.4,14.650,M,40.582,M,,*6C\r\n
$GPGGA,092424.55,5700.9322339,N,00959.1802871,E,1,4,8.4,14.650,M,40.582,M,,*61\r\n
$GPGGA,092424.60,5700.9322344,N,00959.1802872,E,1,4,8.4,14.651,M,40.582,M,,*6F\r\n
$GPGGA,092424.65,5700.9322235,N,00959.1802843,E,1,4,8.4,14.636,M,40.582,M,,*6E\r\n
$GPGGA,092424.70,5700.9322239,N,00959.1802841,E,1,4,8.4,14.636,M,40.582,M,,*64\r\n
$GPGGA,092424.75,5700.9322240,N,00959.1802844,E,1,4,8.4,14.636,M,40.582,M,,*6A\r\n
$GPGGA,092424.80,5700.9322244,N,00959.1802842,E,1,4,8.4,14.636,M,40.582,M,,*62\r\n
$GPGGA,092424.85,5700.9322150,N,00959.1802770,E,1,4,8.4,14.621,M,40.582,M,,*69\r\n
$GPGGA,092424.90,5700.9322154,N,00959.1802769,E,1,4,8.4,14.621,M,40.582,M,,*61\r\n
$GPGGA,092424.95,5700.9322156,N,00959.1802773,E,1,4,8.4,14.621,M,40.582,M,,*6D\r\n
$GPGGA,092425.00,5700.9322164,N,00959.1802767,E,1,4,8.4,14.621,M,40.582,M,,*64\r\n
$GPGGA,092425.05,5700.9322192,N,00959.1802815,E,1,4,8.4,14.611,M,40.582,M,,*61\r\n
$GPGGA,092425.10,5700.9322200,N,00959.1802820,E,1,4,8.4,14.612,M,40.582,M,,*68\r\n
$GPGGA,092425.15,5700.9322204,N,00959.1802820,E,1,4,8.4,14.612,M,40.582,M,,*69\r\n
$GPGGA,092425.20,5700.9322212,N,00959.1802825,E,1,4,8.4,14.612,M,40.582,M,,*6D\r\n
$GPGGA,092425.25,5700.9322109,N,00959.1802825,E,1,4,8.4,14.597,M,40.582,M,,*6F\r\n
$GPGGA,092425.30,5700.9322113,N,00959.1802825,E,1,4,8.4,14.597,M,40.582,M,,*60\r\n
$GPGGA,092425.35,5700.9322118,N,00959.1802825,E,1,4,8.4,14.597,M,40.582,M,,*6E\r\n
$GPGGA,092425.40,5700.9322124,N,00959.1802828,E,1,4,8.4,14.597,M,40.582,M,,*6E\r\n
$GPGGA,092425.45,5700.9321933,N,00959.1802697,E,1,4,8.4,14.577,M,40.582,M,,*62\r\n
$GPGGA,092425.50,5700.9321942,N,00959.1802697,E,1,4,8.4,14.577,M,40.582,M,,*60\r\n
$GPGGA,092425.55,5700.9321946,N,00959.1802695,E,1,4,8.4,14.577,M,40.582,M,,*63\r\n
$GPGGA,092425.60,5700.9321950,N,00959.1802694,E,1,4,8.4,14.577,M,40.582,M,,*63\r\n
$GPGGA,092425.65,5700.9322001,N,00959.1802766,E,1,4,8.4,14.568,M,40.582,M,,*6A\r\n
$GPGGA,092425.70,5700.9322005,N,00959.1802765,E,1,4,8.4,14.568,M,40.582,M,,*69\r\n
$GPGGA,092425.75,5700.9322010,N,00959.1802765,E,1,4,8.4,14.568,M,40.582,M,,*68\r\n
$GPGGA,092425.80,5700.9322014,N,00959.1802766,E,1,4,8.4,14.569,M,40.582,M,,*64\r\n
$GPGGA,092425.85,5700.9321850,N,00959.1802712,E,1,4,8.4,14.551,M,40.582,M,,*62\r\n
$GPGGA,092425.90,5700.9321851,N,00959.1802709,E,1,4,8.4,14.551,M,40.582,M,,*6D\r\n
$GPGGA,092425.95,5700.9321850,N,00959.1802707,E,1,4,8.4,14.550,M,40.582,M,,*66\r\n
$GPGGA,092426.00,5700.9321851,N,00959.1802701,E,1,4,8.4,14.550,M,40.582,M,,*6E\r\n
$GPGGA,092426.05,5700.9321722,N,00959.1802661,E,1,4,8.4,14.534,M,40.582,M,,*65\r\n
$GPGGA,092426.10,5700.9321723,N,00959.1802653,E,1,4,8.4,14.534,M,40.582,M,,*61\r\n
$GPGGA,092426.15,5700.9321716,N,00959.1802649,E,1,4,8.4,14.533,M,40.582,M,,*6E\r\n
$GPGGA,092426.20,5700.9321718,N,00959.1802640,E,1,4,8.4,14.533,M,40.582,M,,*6F\r\n
$GPGGA,092426.25,5700.9321751,N,00959.1802661,E,1,4,8.4,14.523,M,40.582,M,,*65\r\n
$GPGGA,092426.30,5700.9321767,N,00959.1802657,E,1,4,8.4,14.522,M,40.582,M,,*60\r\n
$GPGGA,092426.35,5700.9321746,N,00959.1802662,E,1,4,8.4,14.522,M,40.582,M,,*60\r\n
$GPGGA,092426.40,5700.9321753,N,00959.1802673,E,1,4,8.4,14.523,M,40.582,M,,*67\r\n
$GPGGA,092426.45,5700.9321674,N,00959.1802658,E,1,4,8.4,14.508,M,40.582,M,,*66\r\n
$GPGGA,092426.50,5700.9321668,N,00959.1802658,E,1,4,8.4,14.508,M,40.582,M,,*6F\r\n
$GPGGA,092426.55,5700.9321668,N,00959.1802662,E,1,4,8.4,14.508,M,40.582,M,,*63\r\n
$GPGGA,092426.60,5700.9321666,N,00959.1802663,E,1,4,8.4,14.508,M,40.582,M,,*6A\r\n
$GPGGA,092426.65,5700.9321641,N,00959.1802636,E,1,4,8.4,14.496,M,40.582,M,,*6C\r\n
$GPGGA,092426.70,5700.9321639,N,00959.1802636,E,1,4,8.4,14.496,M,40.582,M,,*67\r\n
$GPGGA,092426.75,5700.9321635,N,00959.1802635,E,1,4,8.4,14.495,M,40.582,M,,*6E\r\n
$GPGGA,092426.80,5700.9321633,N,00959.1802638,E,1,4,8.4,14.495,M,40.582,M,,*6F\r\n
$GPGGA,092426.85,5700.9321496,N,00959.1802581,E,1,4,8.4,14.479,M,40.582,M,,*64\r\n
$GPGGA,092426.90,5700.9321491,N,00959.1802580,E,1,4,8.4,14.479,M,40.582,M,,*66\r\n
$GPGGA,092426.95,5700.9321487,N,00959.1802578,E,1,4,8.4,14.479,M,40.582,M,,*63\r\n
$GPGGA,092427.00,5700.9321485,N,00959.1802574,E,1,4,8.4,14.479,M,40.582,M,,*60\r\n
$GPGGA,092427.05,5700.9321581,N,00959.1802598,E,1,4,8.4,14.471,M,40.582,M,,*6A\r\n
$GPGGA,092427.10,5700.9321569,N,00959.1802611,E,1,4,8.4,14.469,M,40.582,M,,*63\r\n
$GPGGA,092427.15,5700.9321537,N,00959.1802605,E,1,4,8.4,14.467,M,40.582,M,,*66\r\n
$GPGGA,092427.20,5700.9321508,N,00959.1802575,E,1,4,8.4,14.464,M,40.582,M,,*6B\r\n
$GPGGA,092427.25,5700.9321375,N,00959.1802548,E,1,4,8.4,14.455,M,40.582,M,,*6E\r\n
$GPGGA,092427.30,5700.9321344,N,00959.1802556,E,1,4,8.4,14.456,M,40.582,M,,*64\r\n
$GPGGA,092427.35,5700.9321348,N,00959.1802526,E,1,4,8.4,14.457,M,40.582,M,,*6B\r\n
$GPGGA,092427.40,5700.9321343,N,00959.1802512,E,1,4,8.4,14.456,M,40.582,M,,*64\r\n
$GPGGA,092427.45,5700.9321373,N,00959.1802522,E,1,4,8.4,14.443,M,40.582,M,,*65\r\n
$GPGGA,092427.50,5700.9321376,N,00959.1802522,E,1,4,8.4,14.444,M,40.582,M,,*63\r\n
$GPGGA,092427.55,5700.9321379,N,00959.1802519,E,1,4,8.4,14.444,M,40.582,M,,*61\r\n
$GPGGA,092427.60,5700.9321382,N,00959.1802521,E,1,4,8.4,14.444,M,40.582,M,,*68\r\n
$GPGGA,092427.65,5700.9321378,N,00959.1802513,E,1,4,8.4,14.438,M,40.582,M,,*62\r\n
$GPGGA,092427.70,5700.9321344,N,00959.1802530,E,1,4,8.4,14.439,M,40.582,M,,*69\r\n
$GPGGA,092427.75,5700.9321352,N,00959.1802520,E,1,4,8.4,14.440,M,40.582,M,,*64\r\n
$GPGGA,092427.80,5700.9321391,N,00959.1802517,E,1,4,8.4,14.445,M,40.582,M,,*60\r\n
$GPGGA,092427.85,5700.9321258,N,00959.1802483,E,1,4,8.4,14.420,M,40.582,M,,*6E\r\n
$GPGGA,092427.90,5700.9321256,N,00959.1802487,E,1,4,8.4,14.420,M,40.582,M,,*60\r\n
$GPGGA,092427.95,5700.9321252,N,00959.1802487,E,1,4,8.4,14.421,M,40.582,M,,*60\r\n
$GPGGA,092428.00,5700.9321247,N,00959.1802492,E,1,4,8.4,14.421,M,40.582,M,,*63\r\n
$GPGGA,092428.05,5700.9321147,N,00959.1802463,E,1,4,8.4,14.407,M,40.582,M,,*6F\r\n
$GPGGA,092428.10,5700.9321144,N,00959.1802467,E,1,4,8.4,14.407,M,40.582,M,,*6C\r\n
$GPGGA,092428.15,5700.9321141,N,00959.1802469,E,1,4,8.4,14.407,M,40.582,M,,*62\r\n
