$GPGGA,082538.75,5703.3043555,N,00951.8554691,E,2,10,1.0,-1.198,M,40.593,M,2.3,0123*6E
$GPVTG,022.65,T,-617.25,M,002.911,N,005.391,K,D*0A
$GPGGA,082538.80,5703.3043924,N,00951.8554980,E,2,10,1.0,-1.198,M,40.593,M,2.3,0123*61
$GPVTG,023.17,T,-616.73,M,002.911,N,005.390,K,D*0D
$GPGGA,082538.85,5703.3044301,N,00951.8555277,E,2,10,1.0,-1.198,M,40.593,M,2.6,0123*69
$GPVTG,023.62,T,-616.28,M,002.925,N,005.418,K,D*01
$GPGGA,082538.90,5703.3044671,N,00951.8555591,E,2,10,1.0,-1.197,M,40.593,M,2.6,0123*6F
$GPVTG,024.32,T,-615.58,M,002.932,N,005.430,K,D*0B
$GPGGA,082538.95,5703.3045040,N,00951.8555908,E,2,10,1.0,-1.198,M,40.593,M,2.6,0123*6C
$GPVTG,024.95,T,-614.95,M,002.939,N,005.442,K,D*08
$GPGGA,082539.00,5703.3045415,N,00951.8556242,E,2,10,1.0,-1.197,M,40.593,M,2.6,0123*6C
$GPVTG,025.64,T,-614.26,M,002.958,N,005.478,K,D*01
$GPGGA,082539.05,5703.3045784,N,00951.8556567,E,2,10,1.0,-1.185,M,40.593,M,1.5,0123*61
$GPVTG,026.36,T,-613.54,M,002.954,N,005.472,K,D*01
$GPGGA,082539.10,5703.3046143,N,00951.8556898,E,2,10,1.0,-1.185,M,40.593,M,1.5,0123*66
$GPVTG,026.90,T,-613.00,M,002.949,N,005.461,K,D*02
$GPGGA,082539.15,5703.3046515,N,00951.8557239,E,2,10,1.0,-1.183,M,40.593,M,1.5,0123*62
$GPVTG,027.31,T,-612.59,M,002.964,N,005.489,K,D*0C
$GPGGA,082539.20,5703.3046867,N,00951.8557581,E,2,10,1.0,-1.181,M,40.593,M,1.5,0123*6A
$GPVTG,027.88,T,-612.02,M,002.952,N,005.468,K,D*0A
$GPGGA,082539.25,5703.3047208,N,00951.8557929,E,2,10,1.0,-1.187,M,40.593,M,1.7,0123*67
$GPVTG,028.45,T,-611.45,M,002.941,N,005.447,K,D*0B
$GPGGA,082539.30,5703.3047558,N,00951.8558289,E,2,10,1.0,-1.190,M,40.593,M,1.7,0123*69
$GPVTG,029.08,T,-610.82,M,002.936,N,005.437,K,D*0E
$GPGGA,082539.35,5703.3047901,N,00951.8558662,E,2,10,1.0,-1.194,M,40.593,M,1.7,0123*69
$GPVTG,029.89,T,-610.01,M,002.928,N,005.422,K,D*07
$GPGGA,082539.40,5703.3048247,N,00951.8559035,E,2,10,1.0,-1.195,M,40.593,M,1.7,0123*69
$GPVTG,030.50,T,-609.40,M,002.924,N,005.415,K,D*0E
$GPGGA,082539.45,5703.3048590,N,00951.8559410,E,2,10,1.0,-1.197,M,40.593,M,1.9,0123*6E
$GPVTG,031.05,T,-608.85,M,002.917,N,005.402,K,D*01
$GPGGA,082539.50,5703.3048940,N,00951.8559787,E,2,10,1.0,-1.198,M,40.593,M,1.9,0123*69
$GPVTG,031.43,T,-608.47,M,002.920,N,005.407,K,D*0C
$GPGGA,082539.55,5703.3049288,N,00951.8560179,E,2,10,1.0,-1.198,M,40.593,M,1.9,0123*6F
$GPVTG,031.95,T,-607.96,M,002.927,N,005.421,K,D*07
$GPGGA,082539.60,5703.3049623,N,00951.8560575,E,2,10,1.0,-1.198,M,40.593,M,1.9,0123*64
$GPVTG,032.58,T,-607.32,M,002.919,N,005.406,K,D*03
$GPGGA,082539.65,5703.3049968,N,00951.8560975,E,2,10,1.0,-1.194,M,40.593,M,2.1,0123*6A
$GPVTG,033.19,T,-606.71,M,002.911,N,005.392,K,D*03
$GPGGA,082539.70,5703.3050299,N,00951.8561381,E,2,10,1.0,-1.194,M,40.593,M,2.1,0123*63
$GPVTG,033.80,T,-606.10,M,002.905,N,005.380,K,D*02
$GPGGA,082539.75,5703.3050626,N,00951.8561802,E,2,10,1.0,-1.192,M,40.593,M,2.1,0123*60
$GPVTG,034.56,T,-605.34,M,002.902,N,005.375,K,D*06
$GPGGA,082539.80,5703.3050955,N,00951.8562239,E,2,10,1.0,-1.190,M,40.593,M,2.1,0123*62
$GPVTG,035.39,T,-604.51,M,002.910,N,005.389,K,D*0C
$GPGGA,082539.85,5703.3051287,N,00951.8562679,E,2,10,1.0,-1.186,M,40.593,M,2.3,0123*67
$GPVTG,035.99,T,-603.91,M,002.922,N,005.411,K,D*0A
$GPGGA,082539.90,5703.3051613,N,00951.8563112,E,2,10,1.0,-1.182,M,40.593,M,2.3,0123*65
$GPVTG,036.50,T,-603.40,M,002.919,N,005.406,K,D*0E
$GPGGA,082539.95,5703.3051933,N,00951.8563551,E,2,10,1.0,-1.178,M,40.593,M,2.3,0123*6B
$GPVTG,037.08,T,-602.82,M,002.915,N,005.398,K,D*01
$GPGGA,082540.00,5703.3052251,N,00951.8563997,E,2,10,1.0,-1.177,M,40.593,M,2.3,0123*6C
$GPVTG,037.66,T,-602.24,M,002.912,N,005.394,K,D*0E
$GPGGA,082540.05,5703.3052548,N,00951.8564429,E,2,10,1.0,-1.180,M,40.593,M,2.2,0123*60
$GPVTG,038.09,T,-601.81,M,002.908,N,005.385,K,D*0F
$GPGGA,082540.10,5703.3052855,N,00951.8564895,E,2,10,1.0,-1.179,M,40.593,M,2.2,0123*68
$GPVTG,038.92,T,-600.98,M,002.905,N,005.379,K,D*0A
$GPGGA,082540.15,5703.3053155,N,00951.8565375,E,2,10,1.0,-1.179,M,40.593,M,2.2,0123*61
$GPVTG,039.89,T,-600.01,M,002.902,N,005.374,K,D*0B
$GPGGA,082540.20,5703.3053461,N,00951.8565852,E,2,10,1.0,-1.179,M,40.593,M,2.2,0123*6B
$GPVTG,040.55,T,-599.35,M,002.902,N,005.375,K,D*01
$GPGGA,082540.25,5703.3053756,N,00951.8566328,E,2,10,1.0,-1.181,M,40.593,M,2.4,0123*6D
$GPVTG,041.26,T,-598.64,M,002.891,N,005.353,K,D*0E
$GPGGA,082540.30,5703.3054065,N,00951.8566800,E,2,10,1.0,-1.181,M,40.593,M,2.4,0123*68
$GPVTG,041.52,T,-598.38,M,002.892,N,005.356,K,D*02
$GPGGA,082540.35,5703.3054355,N,00951.8567280,E,2,10,1.0,-1.179,M,40.593,M,2.4,0123*69
$GPVTG,042.13,T,-597.77,M,002.878,N,005.330,K,D*04
$GPGGA,082540.40,5703.3054652,N,00951.8567774,E,2,10,1.0,-1.175,M,40.593,M,2.4,0123*6B
$GPVTG,042.68,T,-597.22,M,002.880,N,005.334,K,D*0B
$GPGGA,082540.45,5703.3054942,N,00951.8568272,E,2,10,1.0,-1.173,M,40.593,M,2.6,0123*68
$GPVTG,043.36,T,-596.54,M,002.874,N,005.323,K,D*0C
$GPGGA,082540.50,5703.3055214,N,00951.8568753,E,2,10,1.0,-1.173,M,40.593,M,2.6,0123*63
$GPVTG,043.94,T,-595.96,M,002.844,N,005.267,K,D*0B
$GPGGA,082540.55,5703.3055492,N,00951.8569259,E,2,10,1.0,-1.172,M,40.593,M,2.6,0123*61
$GPVTG,044.65,T,-595.25,M,002.838,N,005.256,K,D*03
$GPGGA,082540.60,5703.3055769,N,00951.8569776,E,2,10,1.0,-1.172,M,40.593,M,2.6,0123*68
$GPVTG,045.39,T,-594.51,M,002.838,N,005.257,K,D*08
$GPGGA,082540.65,5703.3056038,N,00951.8570290,E,2,10,1.0,-1.175,M,40.593,M,2.8,0123*61
$GPVTG,045.99,T,-593.91,M,002.837,N,005.253,K,D*02
$GPGGA,082540.70,5703.3056305,N,00951.8570797,E,2,10,1.0,-1.178,M,40.593,M,2.8,0123*67
$GPVTG,046.51,T,-593.39,M,002.821,N,005.224,K,D*00
$GPGGA,082540.75,5703.3056580,N,00951.8571320,E,2,10,1.0,-1.179,M,40.593,M,2.8,0123*61
$GPVTG,046.97,T,-592.93,M,002.825,N,005.232,K,D*08
$GPGGA,082540.80,5703.3056857,N,00951.8571846,E,2,10,1.0,-1.177,M,40.593,M,2.8,0123*69
$GPVTG,047.34,T,-592.56,M,002.831,N,005.244,K,D*0D
$GPGGA,082540.85,5703.3057139,N,00951.8572380,E,2,10,1.0,-1.172,M,40.593,M,3.1,0123*63
$GPVTG,047.72,T,-592.18,M,002.840,N,005.260,K,D*05
$GPGGA,082540.90,5703.3057408,N,00951.8572898,E,2,10,1.0,-1.171,M,40.593,M,3.1,0123*61
$GPVTG,047.92,T,-591.98,M,002.832,N,005.245,K,D*02
$GPGGA,082540.95,5703.3057671,N,00951.8573426,E,2,10,1.0,-1.173,M,40.593,M,3.1,0123*62
$GPVTG,048.31,T,-591.59,M,002.826,N,005.234,K,D*0A
$GPGGA,082541.00,5703.3057910,N,00951.8573963,E,2,10,1.0,-1.174,M,40.593,M,3.1,0123*6C
$GPVTG,049.20,T,-590.70,M,002.806,N,005.197,K,D*09
$GPGGA,082541.05,5703.3058119,N,00951.8574504,E,2,10,1.0,-1.176,M,40.593,M,3.3,0123*6D
$GPVTG,050.34,T,-589.56,M,002.795,N,005.176,K,D*02
$GPGGA,082541.10,5703.3058352,N,00951.8575048,E,2,10,1.0,-1.176,M,40.593,M,3.3,0123*68
$GPVTG,051.13,T,-588.77,M,002.777,N,005.144,K,D*09
$GPGGA,082541.15,5703.3058594,N,00951.8575606,E,2,9,1.0,-1.178,M,40.593,M,3.3,0123*5B
$GPVTG,051.79,T,-588.11,M,002.780,N,005.149,K,D*00
$GPGGA,082541.20,5703.3058820,N,00951.8576154,E,2,9,1.0,-1.182,M,40.593,M,3.3,0123*59
$GPVTG,052.54,T,-587.36,M,002.762,N,005.115,K,D*03
$GPGGA,082541.25,5703.3059064,N,00951.8576712,E,2,9,1.0,-1.181,M,40.593,M,3.5,0123*54
$GPVTG,053.10,T,-586.80,M,002.756,N,005.103,K,D*0E
$GPGGA,082541.30,5703.3059301,N,00951.8577272,E,2,9,1.0,-1.182,M,40.593,M,3.5,0123*51
$GPVTG,053.48,T,-586.42,M,002.758,N,005.107,K,D*07
$GPGGA,082541.35,5703.3059524,N,00951.8577831,E,2,9,1.0,-1.184,M,40.593,M,3.5,0123*5E
$GPVTG,054.09,T,-585.81,M,002.747,N,005.088,K,D*01
$GPGGA,082541.40,5703.3059734,N,00951.8578397,E,2,9,1.0,-1.187,M,40.593,M,3.5,0123*54
$GPVTG,054.94,T,-584.96,M,002.734,N,005.063,K,D*03
$GPGGA,082541.45,5703.3059953,N,00951.8578978,E,2,9,1.0,-1.186,M,40.593,M,3.7,0123*56
$GPVTG,055.81,T,-584.09,M,002.732,N,005.060,K,D*05
$GPGGA,082541.50,5703.3060173,N,00951.8579557,E,2,9,1.0,-1.186,M,40.593,M,3.7,0123*52
$GPVTG,056.28,T,-583.62,M,002.737,N,005.069,K,D*03
$GPGGA,082541.55,5703.3060394,N,00951.8580123,E,2,9,1.0,-1.187,M,40.593,M,3.7,0123*5C
$GPVTG,056.49,T,-583.41,M,002.732,N,005.059,K,D*03
$GPGGA,082541.60,5703.3060605,N,00951.8580700,E,2,9,1.0,-1.187,M,40.593,M,3.7,0123*50
$GPVTG,056.97,T,-582.93,M,002.729,N,005.054,K,D*09
$GPGGA,082541.65,5703.3060802,N,00951.8581285,E,2,9,1.0,-1.189,M,40.593,M,3.9,0123*55
$GPVTG,057.81,T,-582.09,M,002.719,N,005.036,K,D*0B
$GPGGA,082541.70,5703.3060985,N,00951.8581873,E,2,9,1.0,-1.194,M,40.593,M,3.9,0123*50
$GPVTG,058.82,T,-581.08,M,002.707,N,005.013,K,D*0D
$GPGGA,082541.75,5703.3061184,N,00951.8582461,E,2,9,1.0,-1.195,M,40.593,M,3.9,0123*50
$GPVTG,059.31,T,-580.59,M,002.705,N,005.010,K,D*00
$GPGGA,082541.80,5703.3061377,N,00951.8583051,E,2,9,1.0,-1.194,M,40.593,M,3.9,0123*53
$GPVTG,059.83,T,-580.07,M,002.702,N,005.005,K,D*01
$GPGGA,082541.85,5703.3061559,N,00951.8583629,E,2,9,1.0,-1.194,M,40.593,M,4.1,0123*5A
$GPVTG,060.30,T,-579.60,M,002.686,N,004.974,K,D*07
$GPGGA,082541.90,5703.3061741,N,00951.8584227,E,2,9,1.0,-1.194,M,40.593,M,4.1,0123*58
$GPVTG,060.97,T,-578.93,M,002.684,N,004.970,K,D*01
$GPGGA,082541.95,5703.3061920,N,00951.8584822,E,2,9,1.0,-1.192,M,40.593,M,4.1,0123*5D
$GPVTG,061.55,T,-578.35,M,002.677,N,004.958,K,D*04
$GPGGA,082542.00,5703.3062081,N,00951.8585422,E,2,9,1.0,-1.194,M,40.593,M,4.1,0123*58
$GPVTG,062.52,T,-577.38,M,002.665,N,004.936,K,D*09
$GPGGA,082542.05,5703.3062263,N,00951.8586010,E,2,9,1.0,-1.187,M,40.593,M,1.6,0123*55
$GPVTG,062.81,T,-577.09,M,002.663,N,004.932,K,D*07
$GPGGA,082542.10,5703.3062448,N,00951.8586604,E,2,9,1.0,-1.186,M,40.593,M,1.6,0123*5C
$GPVTG,062.86,T,-577.04,M,002.663,N,004.931,K,D*0E
$GPGGA,082542.15,5703.3062626,N,00951.8587209,E,2,9,1.0,-1.187,M,40.593,M,1.6,0123*5A
$GPVTG,063.15,T,-576.75,M,002.667,N,004.939,K,D*0E
$GPGGA,082542.20,5703.3062796,N,00951.8587833,E,2,9,1.0,-1.188,M,40.593,M,1.6,0123*5A
$GPVTG,063.74,T,-576.16,M,002.682,N,004.967,K,D*0C
$GPGGA,082542.25,5703.3062938,N,00951.8588450,E,2,9,1.0,-1.194,M,40.593,M,1.8,0123*50
$GPVTG,064.64,T,-575.26,M,002.680,N,004.964,K,D*0B
$GPGGA,082542.30,5703.3063093,N,00951.8589067,E,2,9,1.0,-1.194,M,40.593,M,1.8,0123*5C
$GPVTG,065.28,T,-574.62,M,002.678,N,004.960,K,D*00
$GPGGA,082542.35,5703.3063242,N,00951.8589675,E,2,9,1.0,-1.194,M,40.593,M,1.8,0123*52
$GPVTG,065.89,T,-574.01,M,002.665,N,004.936,K,D*01
$GPGGA,082542.40,5703.3063383,N,00951.8590286,E,2,9,1.0,-1.194,M,40.593,M,1.8,0123*5C
$GPVTG,066.62,T,-573.28,M,002.652,N,004.911,K,D*0A
$GPGGA,082542.45,5703.3063545,N,00951.8590901,E,2,9,1.0,-1.185,M,40.593,M,2.1,0123*5B
$GPVTG,067.05,T,-572.85,M,002.645,N,004.898,K,D*0A
$GPGGA,082542.50,5703.3063670,N,00951.8591520,E,2,9,1.0,-1.184,M,40.593,M,2.1,0123*55
$GPVTG,068.06,T,-571.84,M,002.633,N,004.877,K,D*04
$GPGGA,082542.55,5703.3063808,N,00951.8592148,E,2,9,1.0,-1.182,M,40.593,M,2.1,0123*5E
$GPVTG,068.66,T,-571.24,M,002.637,N,004.883,K,D*07
$GPGGA,082542.60,5703.3063935,N,00951.8592776,E,2,9,1.0,-1.184,M,40.593,M,2.1,0123*5A
$GPVTG,069.41,T,-570.49,M,002.635,N,004.881,K,D*09
$GPGGA,082542.65,5703.3064072,N,00951.8593398,E,2,9,1.0,-1.185,M,40.593,M,2.3,0123*54
$GPVTG,069.68,T,-570.22,M,002.634,N,004.877,K,D*07
$GPGGA,082542.70,5703.3064202,N,00951.8594030,E,2,9,1.0,-1.186,M,40.593,M,2.3,0123*50
$GPVTG,070.16,T,-569.74,M,002.637,N,004.883,K,D*05
$GPGGA,082542.75,5703.3064333,N,00951.8594666,E,2,9,1.0,-1.185,M,40.593,M,2.3,0123*50
$GPVTG,070.53,T,-569.37,M,002.643,N,004.896,K,D*04
$GPGGA,082542.80,5703.3064468,N,00951.8595293,E,2,9,1.0,-1.184,M,40.593,M,2.3,0123*5D
$GPVTG,070.64,T,-569.26,M,002.643,N,004.896,K,D*00
$GPGGA,082542.85,5703.3064581,N,00951.8595932,E,2,9,1.0,-1.186,M,40.593,M,2.6,0123*59
$GPVTG,071.28,T,-568.62,M,002.646,N,004.901,K,D*02
$GPGGA,082542.90,5703.3064680,N,00951.8596571,E,2,9,1.0,-1.188,M,40.593,M,2.6,0123*59
$GPVTG,072.29,T,-567.61,M,002.640,N,004.889,K,D*0B
$GPGGA,082542.95,5703.3064776,N,00951.8597212,E,2,9,1.0,-1.188,M,40.593,M,2.6,0123*57
$GPVTG,073.26,T,-566.64,M,002.635,N,004.881,K,D*0B
$GPGGA,082543.00,5703.3064867,N,00951.8597844,E,2,9,1.0,-1.189,M,40.593,M,2.6,0123*5D
$GPVTG,074.17,T,-565.73,M,002.621,N,004.854,K,D*06
$GPGGA,082543.05,5703.3064957,N,00951.8598467,E,2,9,1.0,-1.180,M,40.593,M,1.5,0123*51
$GPVTG,075.07,T,-564.83,M,002.605,N,004.824,K,D*09
$GPGGA,082543.10,5703.3065049,N,00951.8599099,E,2,9,1.0,-1.178,M,40.593,M,1.5,0123*51
$GPVTG,075.67,T,-564.23,M,002.595,N,004.806,K,D*0F
$GPGGA,082543.15,5703.3065147,N,00951.8599722,E,2,9,1.0,-1.178,M,40.593,M,1.5,0123*5C
$GPVTG,075.92,T,-563.98,M,002.580,N,004.779,K,D*01
$GPGGA,082543.20,5703.3065239,N,00951.8600355,E,2,9,1.0,-1.177,M,40.593,M,1.5,0123*58
$GPVTG,076.35,T,-563.55,M,002.575,N,004.768,K,D*04
$GPGGA,082543.25,5703.3065310,N,00951.8601003,E,2,9,1.0,-1.181,M,40.593,M,1.7,0123*5D
$GPVTG,077.10,T,-562.80,M,002.581,N,004.781,K,D*07
$GPGGA,082543.30,5703.3065385,N,00951.8601649,E,2,9,1.0,-1.181,M,40.593,M,1.7,0123*5D
$GPVTG,077.85,T,-562.05,M,002.583,N,004.785,K,D*00
$GPGGA,082543.35,5703.3065463,N,00951.8602273,E,2,9,1.0,-1.180,M,40.593,M,1.7,0123*58
$GPVTG,078.28,T,-561.62,M,002.565,N,004.751,K,D*0B
$GPGGA,082543.40,5703.3065533,N,00951.8602910,E,2,9,1.0,-1.181,M,40.593,M,1.7,0123*51
$GPVTG,078.91,T,-560.99,M,002.561,N,004.742,K,D*0A
$GPGGA,082543.45,5703.3065613,N,00951.8603559,E,2,9,1.0,-1.175,M,40.593,M,1.9,0123*50
$GPVTG,079.48,T,-560.42,M,002.568,N,004.756,K,D*05
$GPGGA,082543.50,5703.3065676,N,00951.8604202,E,2,9,1.0,-1.176,M,40.593,M,1.9,0123*5A
$GPVTG,080.11,T,-559.79,M,002.567,N,004.754,K,D*00
$GPGGA,082543.55,5703.3065743,N,00951.8604840,E,2,9,1.0,-1.175,M,40.593,M,1.9,0123*57
$GPVTG,080.48,T,-559.42,M,002.562,N,004.745,K,D*01
$GPGGA,082543.60,5703.3065789,N,00951.8605474,E,2,9,1.0,-1.177,M,40.593,M,1.9,0123*5F
$GPVTG,081.38,T,-558.52,M,002.550,N,004.723,K,D*06
$GPGGA,082543.65,5703.3065819,N,00951.8606122,E,2,9,1.0,-1.182,M,40.593,M,2.1,0123*58
$GPVTG,082.41,T,-557.49,M,002.552,N,004.726,K,D*09
$GPGGA,082543.70,5703.3065866,N,00951.8606756,E,2,9,1.0,-1.184,M,40.593,M,2.1,0123*57
$GPVTG,083.01,T,-556.89,M,002.542,N,004.707,K,D*03
$GPGGA,082543.75,5703.3065918,N,00951.8607397,E,2,9,1.0,-1.184,M,40.593,M,2.1,0123*52
$GPVTG,083.31,T,-556.59,M,002.541,N,004.705,K,D*0C
$GPGGA,082543.80,5703.3065960,N,00951.8608033,E,2,9,1.0,-1.183,M,40.593,M,2.1,0123*52
$GPVTG,083.85,T,-556.05,M,002.534,N,004.693,K,D*06
$GPGGA,082543.85,5703.3066006,N,00951.8608669,E,2,9,1.0,-1.175,M,40.593,M,2.3,0123*5F
$GPVTG,084.58,T,-555.32,M,002.524,N,004.674,K,D*0E
$GPGGA,082543.90,5703.3066037,N,00951.8609300,E,2,9,1.0,-1.175,M,40.593,M,2.3,0123*52
$GPVTG,085.21,T,-554.69,M,002.514,N,004.655,K,D*0E
$GPGGA,082543.95,5703.3066062,N,00951.8609929,E,2,9,1.0,-1.177,M,40.593,M,2.3,0123*54
$GPVTG,085.89,T,-554.01,M,002.502,N,004.634,K,D*02
$GPGGA,082544.00,5703.3066092,N,00951.8610560,E,2,9,1.0,-1.177,M,40.593,M,2.3,0123*59
$GPVTG,086.31,T,-553.59,M,002.497,N,004.624,K,D*04
$GPGGA,082544.05,5703.3066105,N,00951.8611181,E,2,9,1.0,-1.171,M,40.593,M,2.2,0123*5E
$GPVTG,087.13,T,-552.77,M,002.487,N,004.606,K,D*09
$GPGGA,082544.10,5703.3066116,N,00951.8611816,E,2,9,1.0,-1.172,M,40.593,M,2.2,0123*5C
$GPVTG,087.91,T,-551.99,M,002.486,N,004.605,K,D*02
$GPGGA,082544.15,5703.3066120,N,00951.8612448,E,2,9,1.0,-1.173,M,40.593,M,2.2,0123*59
$GPVTG,088.77,T,-551.13,M,002.482,N,004.597,K,D*0B
$GPGGA,082544.20,5703.3066129,N,00951.8613069,E,2,9,1.0,-1.174,M,40.593,M,2.2,0123*57
$GPVTG,089.34,T,-550.56,M,002.470,N,004.575,K,D*0C
$GPGGA,082544.25,5703.3066144,N,00951.8613695,E,2,9,1.0,-1.170,M,40.593,M,2.4,0123*5E
$GPVTG,089.79,T,-550.11,M,002.465,N,004.565,K,D*03
$GPGGA,082544.30,5703.3066135,N,00951.8614330,E,2,9,1.0,-1.170,M,40.593,M,2.4,0123*51
$GPVTG,090.69,T,-549.21,M,002.469,N,004.572,K,D*0B
$GPGGA,082544.35,5703.3066119,N,00951.8614958,E,2,9,1.0,-1.171,M,40.593,M,2.4,0123*5F
$GPVTG,091.70,T,-548.20,M,002.467,N,004.569,K,D*06
$GPGGA,082544.40,5703.3066111,N,00951.8615593,E,2,9,1.0,-1.170,M,40.593,M,2.4,0123*5E
$GPVTG,092.27,T,-547.63,M,002.473,N,004.579,K,D*0B
$GPGGA,082544.45,5703.3066100,N,00951.8616205,E,2,9,1.0,-1.168,M,40.593,M,2.6,0123*5B
$GPVTG,092.89,T,-547.01,M,002.457,N,004.551,K,D*07
$GPGGA,082544.50,5703.3066081,N,00951.8616827,E,2,9,1.0,-1.168,M,40.593,M,2.6,0123*5D
$GPVTG,093.56,T,-546.34,M,002.453,N,004.542,K,D*05
$GPGGA,082544.55,5703.3066049,N,00951.8617441,E,2,9,1.0,-1.171,M,40.593,M,2.6,0123*59
$GPVTG,094.55,T,-545.35,M,002.444,N,004.527,K,D*06
$GPGGA,082544.60,5703.3066019,N,00951.8618054,E,2,9,1.0,-1.172,M,40.593,M,2.6,0123*56
$GPVTG,095.33,T,-544.57,M,002.437,N,004.513,K,D*01
$GPGGA,082544.65,5703.3065970,N,00951.8618677,E,2,9,1.0,-1.180,M,40.593,M,2.8,0123*52
$GPVTG,096.19,T,-543.71,M,002.443,N,004.524,K,D*0E
$GPGGA,082544.70,5703.3065903,N,00951.8619312,E,2,9,1.0,-1.181,M,40.593,M,2.8,0123*54
$GPVTG,097.79,T,-542.11,M,002.463,N,004.561,K,D*0D
$GPGGA,082544.75,5703.3065854,N,00951.8619942,E,2,9,1.0,-1.181,M,40.593,M,2.8,0123*5D
$GPVTG,098.58,T,-541.32,M,002.475,N,004.583,K,D*08
$GPGGA,082544.80,5703.3065807,N,00951.8620549,E,2,9,1.0,-1.182,M,40.593,M,2.8,0123*5F
$GPVTG,099.25,T,-540.65,M,002.463,N,004.562,K,D*08
$GPGGA,082544.85,5703.3065779,N,00951.8621117,E,2,10,1.0,-1.182,M,40.593,M,3.1,0123*62
$GPVTG,099.91,T,-539.99,M,002.439,N,004.517,K,D*07
$GPGGA,082544.90,5703.3065724,N,00951.8621698,E,2,10,1.0,-1.184,M,40.593,M,3.1,0123*68
$GPVTG,100.67,T,-539.23,M,002.413,N,004.469,K,D*0E
$GPGGA,082544.95,5703.3065663,N,00951.8622306,E,2,10,1.0,-1.184,M,40.593,M,3.1,0123*6E
$GPVTG,101.34,T,-538.56,M,002.414,N,004.472,K,D*07
$GPGGA,082545.00,5703.3065606,N,00951.8622913,E,2,10,1.0,-1.185,M,40.593,M,3.1,0123*6F
$GPVTG,101.79,T,-538.11,M,002.415,N,004.472,K,D*0C
$GPGGA,082545.05,5703.3065545,N,00951.8623517,E,2,10,1.0,-1.176,M,40.593,M,3.3,0123*69
$GPVTG,102.41,T,-537.49,M,002.421,N,004.484,K,D*08
$GPGGA,082545.10,5703.3065483,N,00951.8624105,E,2,10,1.0,-1.176,M,40.593,M,3.3,0123*66
$GPVTG,102.84,T,-537.06,M,002.405,N,004.455,K,D*00
$GPGGA,082545.15,5703.3065407,N,00951.8624707,E,2,10,1.0,-1.176,M,40.593,M,3.3,0123*6B
$GPVTG,103.52,T,-536.38,M,002.410,N,004.464,K,D*00
$GPGGA,082545.20,5703.3065336,N,00951.8625294,E,2,10,1.0,-1.176,M,40.593,M,3.3,0123*66
$GPVTG,104.01,T,-535.89,M,002.400,N,004.445,K,D*0A
$GPGGA,082545.25,5703.3065289,N,00951.8625861,E,2,9,1.1,-1.163,M,40.593,M,3.5,0123*5D
$GPVTG,104.39,T,-535.51,M,002.366,N,004.381,K,D*0C
$GPGGA,082545.30,5703.3065215,N,00951.8626432,E,2,9,1.1,-1.162,M,40.593,M,3.5,0123*54
$GPVTG,104.82,T,-535.08,M,002.349,N,004.350,K,D*01
$GPGGA,082545.35,5703.3065143,N,00951.8627013,E,2,9,1.1,-1.159,M,40.593,M,3.5,0123*5F
$GPVTG,105.08,T,-534.82,M,002.344,N,004.340,K,D*0D
$GPGGA,082545.40,5703.3065069,N,00951.8627593,E,2,9,1.1,-1.155,M,40.593,M,3.5,0123*55
$GPVTG,105.28,T,-534.62,M,002.339,N,004.331,K,D*0D
$GPGGA,082545.45,5703.3064974,N,00951.8628171,E,2,9,1.1,-1.163,M,40.593,M,3.7,0123*54
$GPVTG,105.37,T,-534.53,M,002.340,N,004.333,K,D*0D
$GPGGA,082545.50,5703.3064884,N,00951.8628730,E,2,9,1.1,-1.164,M,40.593,M,3.7,0123*5A
$GPVTG,106.08,T,-533.82,M,002.325,N,004.306,K,D*0C
$GPGGA,082545.55,5703.3064788,N,00951.8629293,E,2,9,1.1,-1.164,M,40.593,M,3.7,0123*51
$GPVTG,106.86,T,-533.04,M,002.319,N,004.294,K,D*01
$GPGGA,082545.60,5703.3064675,N,00951.8629848,E,2,9,1.1,-1.165,M,40.593,M,3.7,0123*59
$GPVTG,108.08,T,-531.82,M,002.314,N,004.285,K,D*08
$GPGGA,082545.65,5703.3064569,N,00951.8630411,E,2,9,1.1,-1.159,M,40.593,M,3.9,0123*5B
$GPVTG,109.13,T,-530.77,M,002.307,N,004.273,K,D*03
$GPGGA,082545.70,5703.3064469,N,00951.8630960,E,2,9,1.1,-1.160,M,40.593,M,3.9,0123*5F
$GPVTG,109.64,T,-530.26,M,002.296,N,004.253,K,D*0C
$GPGGA,082545.75,5703.3064375,N,00951.8631499,E,2,9,1.1,-1.161,M,40.593,M,3.9,0123*5B
$GPVTG,109.91,T,-529.99,M,002.275,N,004.214,K,D*04
$GPGGA,082545.80,5703.3064256,N,00951.8632046,E,2,9,1.1,-1.164,M,40.593,M,3.9,0123*51
$GPVTG,110.87,T,-529.03,M,002.278,N,004.219,K,D*08
$GPGGA,082545.85,5703.3064129,N,00951.8632571,E,2,9,1.1,-1.167,M,40.593,M,4.1,0123*52
$GPVTG,111.94,T,-527.96,M,002.265,N,004.195,K,D*02
$GPGGA,082545.90,5703.3064004,N,00951.8633092,E,2,9,1.1,-1.168,M,40.593,M,4.1,0123*5E
$GPVTG,112.97,T,-526.93,M,002.254,N,004.174,K,D*0B
$GPGGA,082545.95,5703.3063870,N,00951.8633627,E,2,9,1.1,-1.172,M,40.593,M,4.1,0123*54
$GPVTG,113.98,T,-525.92,M,002.261,N,004.188,K,D*02
$GPGGA,082546.00,5703.3063740,N,00951.8634146,E,2,9,1.1,-1.174,M,40.593,M,4.1,0123*56
$GPVTG,114.85,T,-525.05,M,002.254,N,004.175,K,D*03
$GPGGA,082546.05,5703.3063620,N,00951.8634654,E,2,9,1.1,-1.162,M,40.593,M,1.6,0123*55
$GPVTG,115.55,T,-524.35,M,002.247,N,004.161,K,D*0A
$GPGGA,082546.10,5703.3063471,N,00951.8635158,E,2,9,1.1,-1.164,M,40.593,M,1.6,0123*5B
$GPVTG,116.84,T,-523.06,M,002.242,N,004.153,K,D*06
$GPGGA,082546.15,5703.3063316,N,00951.8635662,E,2,9,1.1,-1.166,M,40.593,M,1.6,0123*54
$GPVTG,118.11,T,-521.79,M,002.245,N,004.158,K,D*02
$GPGGA,082546.20,5703.3063180,N,00951.8636141,E,2,9,1.1,-1.164,M,40.593,M,1.6,0123*58
$GPVTG,118.88,T,-521.02,M,002.217,N,004.106,K,D*02
$GPGGA,082546.25,5703.3063032,N,00951.8636608,E,2,9,1.1,-1.170,M,40.593,M,1.8,0123*54
$GPVTG,119.58,T,-520.32,M,002.198,N,004.071,K,D*09
$GPGGA,082546.30,5703.3062879,N,00951.8637113,E,2,9,1.1,-1.170,M,40.593,M,1.8,0123*5A
$GPVTG,120.26,T,-519.64,M,002.210,N,004.093,K,D*0C
$GPGGA,082546.35,5703.3062710,N,00951.8637613,E,2,9,1.1,-1.171,M,40.593,M,1.8,0123*59
$GPVTG,121.27,T,-518.63,M,002.228,N,004.126,K,D*0E
$GPGGA,082546.40,5703.3062561,N,00951.8638080,E,2,9,1.1,-1.170,M,40.593,M,1.8,0123*5D
$GPVTG,121.95,T,-517.95,M,002.207,N,004.088,K,D*09
$GPGGA,082546.45,5703.3062410,N,00951.8638526,E,2,9,1.1,-1.164,M,40.593,M,2.1,0123*59
$GPVTG,123.12,T,-516.78,M,002.178,N,004.034,K,D*0A
$GPGGA,082546.50,5703.3062235,N,00951.8638974,E,2,9,1.1,-1.165,M,40.593,M,2.1,0123*56
$GPVTG,124.46,T,-515.44,M,002.170,N,004.019,K,D*07
$GPGGA,082546.55,5703.3062054,N,00951.8639424,E,2,9,1.1,-1.163,M,40.593,M,2.1,0123*59
$GPVTG,125.70,T,-514.20,M,002.171,N,004.020,K,D*0B
$GPGGA,082546.60,5703.3061882,N,00951.8639871,E,2,9,1.1,-1.159,M,40.593,M,2.1,0123*5A
$GPVTG,126.53,T,-513.37,M,002.165,N,004.010,K,D*0E
$GPGGA,082546.65,5703.3061727,N,00951.8640321,E,2,9,1.1,-1.153,M,40.593,M,2.3,0123*57
$GPVTG,126.73,T,-513.17,M,002.152,N,003.985,K,D*08
$GPGGA,082546.70,5703.3061570,N,00951.8640775,E,2,9,1.1,-1.148,M,40.593,M,2.3,0123*5C
$GPVTG,126.69,T,-513.21,M,002.144,N,003.970,K,D*0B
$GPGGA,082546.75,5703.3061402,N,00951.8641207,E,2,9,1.1,-1.146,M,40.593,M,2.3,0123*52
$GPVTG,127.25,T,-512.65,M,002.130,N,003.944,K,D*07
$GPGGA,082546.80,5703.3061224,N,00951.8641651,E,2,9,1.1,-1.146,M,40.593,M,2.3,0123*5D
$GPVTG,127.75,T,-512.15,M,002.135,N,003.954,K,D*01
$GPGGA,082546.85,5703.3061032,N,00951.8642070,E,2,9,1.1,-1.148,M,40.593,M,2.6,0123*50
$GPVTG,128.88,T,-511.02,M,002.133,N,003.951,K,D*0A
$GPGGA,082546.90,5703.3060825,N,00951.8642484,E,2,9,1.1,-1.149,M,40.593,M,2.6,0123*55
$GPVTG,130.32,T,-509.58,M,002.145,N,003.972,K,D*04
$GPGGA,082546.95,5703.3060635,N,00951.8642870,E,2,9,1.1,-1.149,M,40.593,M,2.6,0123*58
$GPVTG,131.54,T,-508.36,M,002.122,N,003.930,K,D*0B
$GPGGA,082547.00,5703.3060450,N,00951.8643273,E,2,9,1.1,-1.148,M,40.593,M,2.6,0123*5D
$GPVTG,132.11,T,-507.79,M,002.112,N,003.911,K,D*0D
$GPGGA,082547.05,5703.3060240,N,00951.8643661,E,2,9,1.1,-1.148,M,40.593,M,1.5,0123*58
$GPVTG,132.86,T,-507.04,M,002.110,N,003.908,K,D*03
$GPGGA,082547.10,5703.3060044,N,00951.8644059,E,2,9,1.1,-1.148,M,40.593,M,1.5,0123*50
$GPVTG,133.48,T,-506.42,M,002.109,N,003.905,K,D*06
$GPGGA,082547.15,5703.3059848,N,00951.8644428,E,2,9,1.1,-1.147,M,40.593,M,1.5,0123*56
$GPVTG,134.46,T,-505.44,M,002.090,N,003.870,K,D*08
$GPGGA,082547.20,5703.3059636,N,00951.8644788,E,2,9,1.1,-1.148,M,40.593,M,1.5,0123*51
$GPVTG,135.82,T,-504.08,M,002.084,N,003.860,K,D*0C
$GPGGA,082547.25,5703.3059429,N,00951.8645154,E,2,9,1.1,-1.149,M,40.593,M,1.7,0123*5D
$GPVTG,136.77,T,-503.13,M,002.081,N,003.853,K,D*0D
$GPGGA,082547.30,5703.3059207,N,00951.8645498,E,2,9,1.1,-1.151,M,40.593,M,1.7,0123*5F
$GPVTG,138.30,T,-501.60,M,002.080,N,003.852,K,D*06
$GPGGA,082547.35,5703.3059009,N,00951.8645838,E,2,9,1.1,-1.149,M,40.593,M,1.7,0123*59
$GPVTG,138.99,T,-500.91,M,002.053,N,003.803,K,D*00
$GPGGA,082547.40,5703.3058821,N,00951.8646188,E,2,9,1.1,-1.146,M,40.593,M,1.7,0123*56
$GPVTG,139.06,T,-500.84,M,002.028,N,003.757,K,D*01
$GPGGA,082547.45,5703.3058606,N,00951.8646522,E,2,9,1.1,-1.148,M,40.593,M,1.9,0123*5C
$GPVTG,139.82,T,-500.08,M,002.018,N,003.737,K,D*0C
$GPGGA,082547.50,5703.3058388,N,00951.8646845,E,2,9,1.1,-1.148,M,40.593,M,1.9,0123*57
$GPVTG,140.92,T,-498.98,M,002.014,N,003.730,K,D*01
$GPGGA,082547.55,5703.3058167,N,00951.8647148,E,2,9,1.1,-1.149,M,40.593,M,1.9,0123*55
$GPVTG,142.26,T,-497.64,M,002.002,N,003.708,K,D*0C
$GPGGA,082547.60,5703.3057940,N,00951.8647441,E,2,9,1.1,-1.152,M,40.593,M,1.9,0123*57
$GPVTG,143.73,T,-496.17,M,001.997,N,003.699,K,D*07
$GPGGA,082547.65,5703.3057706,N,00951.8647761,E,2,9,1.1,-1.157,M,40.593,M,2.1,0123*51
$GPVTG,144.23,T,-495.67,M,002.008,N,003.718,K,D*05
$GPGGA,082547.70,5703.3057486,N,00951.8648044,E,2,9,1.1,-1.156,M,40.593,M,2.1,0123*50
$GPVTG,145.28,T,-494.62,M,001.991,N,003.688,K,D*09
$GPGGA,082547.75,5703.3057268,N,00951.8648318,E,2,9,1.1,-1.156,M,40.593,M,2.1,0123*59
$GPVTG,146.32,T,-493.58,M,001.971,N,003.651,K,D*05
$GPGGA,082547.80,5703.3057057,N,00951.8648582,E,2,9,1.1,-1.154,M,40.593,M,2.1,0123*5A
$GPVTG,147.20,T,-492.70,M,001.942,N,003.597,K,D*05
$GPGGA,082547.85,5703.3056850,N,00951.8648849,E,2,9,1.1,-1.148,M,40.593,M,2.3,0123*54
$GPVTG,147.92,T,-491.98,M,001.927,N,003.569,K,D*0B
$GPGGA,082547.90,5703.3056624,N,00951.8649117,E,2,9,1.1,-1.150,M,40.593,M,2.3,0123*57
$GPVTG,148.62,T,-491.28,M,001.924,N,003.563,K,D*09
$GPGGA,082547.95,5703.3056381,N,00951.8649377,E,2,9,1.1,-1.152,M,40.593,M,2.3,0123*5E
$GPVTG,149.68,T,-490.22,M,001.940,N,003.594,K,D*03
$GPGGA,082548.00,5703.3056144,N,00951.8649624,E,2,9,1.1,-1.154,M,40.593,M,2.3,0123*53
$GPVTG,150.68,T,-489.22,M,001.943,N,003.598,K,D*0C
$GPGGA,082548.05,5703.3055901,N,00951.8649861,E,2,9,1.1,-1.150,M,40.593,M,2.2,0123*56
$GPVTG,151.46,T,-488.44,M,001.945,N,003.602,K,D*06
$GPGGA,082548.10,5703.3055665,N,00951.8650100,E,2,9,1.1,-1.153,M,40.593,M,2.2,0123*5A
$GPVTG,152.21,T,-487.69,M,001.945,N,003.602,K,D*04
$GPGGA,082548.15,5703.3055434,N,00951.8650337,E,2,9,1.1,-1.152,M,40.593,M,2.2,0123*5E
$GPVTG,152.72,T,-487.18,M,001.938,N,003.590,K,D*06
$GPGGA,082548.20,5703.3055199,N,00951.8650554,E,2,9,1.1,-1.152,M,40.593,M,2.2,0123*59
$GPVTG,153.68,T,-486.22,M,001.930,N,003.575,K,D*07
$GPGGA,082548.25,5703.3054952,N,00951.8650766,E,2,9,1.1,-1.154,M,40.593,M,2.4,0123*51
$GPVTG,154.75,T,-485.15,M,001.937,N,003.587,K,D*01
$GPGGA,082548.30,5703.3054721,N,00951.8650973,E,2,9,1.1,-1.153,M,40.593,M,2.4,0123*52
$GPVTG,155.45,T,-484.45,M,001.922,N,003.559,K,D*00
$GPGGA,082548.35,5703.3054482,N,00951.8651156,E,2,9,1.1,-1.153,M,40.593,M,2.4,0123*53
$GPVTG,156.71,T,-483.19,M,001.909,N,003.536,K,D*0A
$GPGGA,082548.40,5703.3054238,N,00951.8651344,E,2,9,1.1,-1.155,M,40.593,M,2.4,0123*51
$GPVTG,157.67,T,-482.23,M,001.909,N,003.535,K,D*07
$GPGGA,082548.45,5703.3053997,N,00951.8651534,E,2,9,1.1,-1.154,M,40.593,M,2.6,0123*5F
$GPVTG,158.26,T,-481.64,M,001.904,N,003.527,K,D*03
$GPGGA,082548.50,5703.3053753,N,00951.8651713,E,2,9,1.1,-1.153,M,40.593,M,2.6,0123*5D
$GPVTG,159.07,T,-480.83,M,001.902,N,003.523,K,D*0B
$GPGGA,082548.55,5703.3053504,N,00951.8651876,E,2,9,1.1,-1.155,M,40.593,M,2.6,0123*52
$GPVTG,160.17,T,-479.73,M,001.904,N,003.526,K,D*0A
$GPGGA,082548.60,5703.3053262,N,00951.8652030,E,2,9,1.1,-1.156,M,40.593,M,2.6,0123*59
$GPVTG,161.18,T,-478.72,M,001.893,N,003.506,K,D*09
$GPGGA,082548.65,5703.3053031,N,00951.8652180,E,2,9,1.1,-1.150,M,40.593,M,2.8,0123*5A
$GPVTG,162.02,T,-477.88,M,001.878,N,003.479,K,D*07
$GPGGA,082548.70,5703.3052788,N,00951.8652328,E,2,9,1.1,-1.147,M,40.593,M,2.8,0123*5C
$GPVTG,162.79,T,-477.11,M,001.871,N,003.466,K,D*0C
$GPGGA,082548.75,5703.3052536,N,00951.8652458,E,2,9,1.1,-1.147,M,40.593,M,2.8,0123*5E
$GPVTG,163.96,T,-475.94,M,001.874,N,003.470,K,D*01
$GPGGA,082548.80,5703.3052283,N,00951.8652595,E,2,9,1.1,-1.148,M,40.593,M,2.8,0123*52
$GPVTG,164.68,T,-475.22,M,001.880,N,003.481,K,D*0F
$GPGGA,082548.85,5703.3052035,N,00951.8652708,E,2,9,1.1,-1.146,M,40.593,M,3.1,0123*58
$GPVTG,165.64,T,-474.26,M,001.867,N,003.457,K,D*05
$GPGGA,082548.90,5703.3051780,N,00951.8652821,E,2,9,1.1,-1.147,M,40.593,M,3.1,0123*53
$GPVTG,166.63,T,-473.27,M,001.871,N,003.465,K,D*01
$GPGGA,082548.95,5703.3051542,N,00951.8652912,E,2,9,1.1,-1.145,M,40.593,M,3.1,0123*59
$GPVTG,167.88,T,-472.02,M,001.850,N,003.426,K,D*07
$GPGGA,082549.00,5703.3051301,N,00951.8653000,E,2,9,1.1,-1.145,M,40.593,M,3.1,0123*5E
$GPVTG,169.00,T,-470.90,M,001.834,N,003.396,K,D*0E
$GPGGA,082549.05,5703.3051053,N,00951.8653084,E,2,9,1.1,-1.135,M,40.593,M,3.3,0123*56
$GPVTG,169.75,T,-470.15,M,001.835,N,003.398,K,D*0E
$GPGGA,082549.10,5703.3050800,N,00951.8653180,E,2,9,1.1,-1.135,M,40.593,M,3.3,0123*58
$GPVTG,170.24,T,-469.66,M,001.840,N,003.407,K,D*0D
$GPGGA,082549.15,5703.3050557,N,00951.8653253,E,2,9,1.1,-1.136,M,40.593,M,3.3,0123*5C
$GPVTG,171.20,T,-468.70,M,001.828,N,003.386,K,D*0E
$GPGGA,082549.20,5703.3050310,N,00951.8653306,E,2,9,1.1,-1.137,M,40.593,M,3.3,0123*5F
$GPVTG,172.52,T,-467.38,M,001.821,N,003.372,K,D*09
$GPGGA,082549.25,5703.3050059,N,00951.8653355,E,2,9,1.1,-1.143,M,40.593,M,3.5,0123*57
$GPVTG,173.70,T,-466.20,M,001.809,N,003.350,K,D*0A
$GPGGA,082549.30,5703.3049816,N,00951.8653391,E,2,9,1.1,-1.145,M,40.593,M,3.5,0123*56
$GPVTG,175.01,T,-464.89,M,001.798,N,003.330,K,D*0A
$GPGGA,082549.35,5703.3049566,N,00951.8653417,E,2,9,1.1,-1.146,M,40.593,M,3.5,0123*53
$GPVTG,176.36,T,-463.54,M,001.799,N,003.332,K,D*09
$GPGGA,082549.40,5703.3049306,N,00951.8653449,E,2,9,1.1,-1.147,M,40.593,M,3.5,0123*5B
$GPVTG,177.27,T,-462.63,M,001.813,N,003.357,K,D*03
$GPGGA,082549.45,5703.3049070,N,00951.8653469,E,2,9,1.1,-1.136,M,40.593,M,3.7,0123*5A
$GPVTG,178.25,T,-461.65,M,001.821,N,003.373,K,D*0C
$GPGGA,082549.50,5703.3048813,N,00951.8653497,E,2,9,1.1,-1.134,M,40.593,M,3.7,0123*51
$GPVTG,178.76,T,-461.14,M,001.831,N,003.391,K,D*01
$GPGGA,082549.55,5703.3048560,N,00951.8653511,E,2,9,1.1,-1.134,M,40.593,M,3.7,0123*52
$GPVTG,179.53,T,-460.37,M,001.834,N,003.396,K,D*05
$GPGGA,082549.60,5703.3048313,N,00951.8653514,E,2,9,1.1,-1.137,M,40.593,M,3.7,0123*50
$GPVTG,180.39,T,-459.51,M,001.828,N,003.385,K,D*0A
$GPGGA,082549.65,5703.3048057,N,00951.8653497,E,2,9,1.1,-1.145,M,40.593,M,3.9,0123*57
$GPVTG,181.64,T,-458.26,M,001.816,N,003.364,K,D*00
$GPGGA,082549.70,5703.3047806,N,00951.8653462,E,2,9,1.1,-1.144,M,40.593,M,3.9,0123*5B
$GPVTG,183.14,T,-456.76,M,001.819,N,003.369,K,D*0C
$GPGGA,082549.75,5703.3047567,N,00951.8653405,E,2,9,1.1,-1.140,M,40.593,M,3.9,0123*51
$GPVTG,185.03,T,-454.87,M,001.807,N,003.346,K,D*02
$GPGGA,082549.80,5703.3047328,N,00951.8653350,E,2,9,1.1,-1.138,M,40.593,M,3.9,0123*5E
$GPVTG,186.54,T,-453.36,M,001.798,N,003.330,K,D*06
$GPGGA,082549.85,5703.3047077,N,00951.8653303,E,2,9,1.1,-1.137,M,40.593,M,4.1,0123*54
$GPVTG,187.40,T,-452.50,M,001.810,N,003.352,K,D*08
$GPGGA,082549.90,5703.3046831,N,00951.8653236,E,2,9,1.1,-1.139,M,40.593,M,4.1,0123*52
$GPVTG,188.63,T,-451.27,M,001.811,N,003.353,K,D*05
$GPGGA,082549.95,5703.3046599,N,00951.8653163,E,2,9,1.1,-1.138,M,40.593,M,4.1,0123*5A
$GPVTG,189.87,T,-450.03,M,001.795,N,003.324,K,D*0A
$GPGGA,082550.00,5703.3046349,N,00951.8653090,E,2,9,1.1,-1.136,M,40.593,M,4.1,0123*56
$GPVTG,190.71,T,-449.19,M,001.803,N,003.339,K,D*04
$GPGGA,082550.05,5703.3046100,N,00951.8652989,E,2,9,1.1,-1.129,M,40.593,M,1.6,0123*50
$GPVTG,191.92,T,-447.98,M,001.812,N,003.356,K,D*06
$GPGGA,082550.10,5703.3045849,N,00951.8652872,E,2,8,1.1,-1.130,M,40.593,M,1.6,0123*5F
$GPVTG,193.46,T,-446.44,M,001.829,N,003.388,K,D*06
$GPGGA,082550.15,5703.3045615,N,00951.8652754,E,2,8,1.1,-1.131,M,40.593,M,1.6,0123*57
$GPVTG,194.90,T,-445.00,M,001.822,N,003.374,K,D*01
$GPGGA,082550.20,5703.3045367,N,00951.8652640,E,2,8,1.1,-1.132,M,40.593,M,1.6,0123*56
$GPVTG,195.74,T,-444.16,M,001.833,N,003.394,K,D*02
$GPGGA,082550.25,5703.3045139,N,00951.8652519,E,2,8,1.1,-1.130,M,40.593,M,1.8,0123*59
$GPVTG,196.75,T,-443.15,M,001.825,N,003.379,K,D*00
$GPGGA,082550.30,5703.3044897,N,00951.8652393,E,2,8,1.1,-1.128,M,40.593,M,1.8,0123*5C
$GPVTG,197.53,T,-442.37,M,001.828,N,003.385,K,D*0A
$GPGGA,082550.35,5703.3044671,N,00951.8652241,E,2,8,1.1,-1.128,M,40.593,M,1.8,0123*51
$GPVTG,199.00,T,-440.90,M,001.819,N,003.368,K,D*0C
$GPGGA,082550.40,5703.3044446,N,00951.8652092,E,2,8,1.1,-1.127,M,40.593,M,1.8,0123*56
$GPVTG,200.14,T,-439.76,M,001.807,N,003.347,K,D*0E
$GPGGA,082550.45,5703.3044219,N,00951.8651948,E,2,8,1.1,-1.127,M,40.593,M,2.1,0123*58
$GPVTG,200.97,T,-438.93,M,001.793,N,003.320,K,D*0C
$GPGGA,082550.50,5703.3043998,N,00951.8651787,E,2,8,1.1,-1.125,M,40.593,M,2.1,0123*56
$GPVTG,202.06,T,-437.84,M,001.782,N,003.300,K,D*0D
$GPGGA,082550.55,5703.3043767,N,00951.8651608,E,2,8,1.1,-1.123,M,40.593,M,2.1,0123*5D
$GPVTG,203.22,T,-436.68,M,001.790,N,003.314,K,D*0F
$GPGGA,082550.60,5703.3043552,N,00951.8651424,E,2,8,1.1,-1.121,M,40.593,M,2.1,0123*51
$GPVTG,204.54,T,-435.36,M,001.779,N,003.295,K,D*0E
$GPGGA,082550.65,5703.3043338,N,00951.8651226,E,2,8,1.1,-1.119,M,40.593,M,2.3,0123*53
$GPVTG,205.98,T,-433.92,M,001.774,N,003.285,K,D*0B
$GPGGA,082550.70,5703.3043120,N,00951.8651030,E,2,8,1.1,-1.118,M,40.593,M,2.3,0123*58
$GPVTG,207.01,T,-432.89,M,001.773,N,003.284,K,D*04
$GPGGA,082550.75,5703.3042903,N,00951.8650837,E,2,8,1.1,-1.118,M,40.593,M,2.3,0123*5B
$GPVTG,207.71,T,-432.19,M,001.769,N,003.276,K,D*0C
$GPGGA,082550.80,5703.3042690,N,00951.8650637,E,2,8,1.1,-1.116,M,40.593,M,2.3,0123*54
$GPVTG,208.53,T,-431.37,M,001.762,N,003.263,K,D*03
$GPGGA,082550.85,5703.3042456,N,00951.8650418,E,2,8,1.1,-1.122,M,40.593,M,2.6,0123*54
$GPVTG,209.43,T,-430.47,M,001.777,N,003.290,K,D*0D
$GPGGA,082550.90,5703.3042239,N,00951.8650198,E,2,8,1.1,-1.122,M,40.593,M,2.6,0123*52
$GPVTG,210.23,T,-429.67,M,001.782,N,003.300,K,D*0B
$GPGGA,082550.95,5703.3042017,N,00951.8649984,E,2,8,1.1,-1.124,M,40.593,M,2.6,0123*52
$GPVTG,210.57,T,-429.33,M,001.789,N,003.314,K,D*07
$GPGGA,082551.00,5703.3041797,N,00951.8649747,E,2,8,1.1,-1.125,M,40.593,M,2.6,0123*53
$GPVTG,211.37,T,-428.53,M,001.803,N,003.340,K,D*0B
$GPGGA,082551.05,5703.3041571,N,00951.8649496,E,2,8,1.1,-1.123,M,40.593,M,1.5,0123*55
$GPVTG,212.37,T,-427.53,M,001.818,N,003.368,K,D*07
$GPGGA,082551.10,5703.3041377,N,00951.8649235,E,2,8,1.1,-1.123,M,40.593,M,1.5,0123*5E
$GPVTG,213.91,T,-425.99,M,001.811,N,003.353,K,D*0F
$GPGGA,082551.15,5703.3041173,N,00951.8648982,E,2,8,1.1,-1.124,M,40.593,M,1.5,0123*5C
$GPVTG,214.79,T,-425.11,M,001.809,N,003.351,K,D*05
$GPGGA,082551.20,5703.3040982,N,00951.8648724,E,2,8,1.1,-1.123,M,40.593,M,1.5,0123*58
$GPVTG,215.92,T,-423.98,M,001.796,N,003.326,K,D*0F
$GPGGA,082551.25,5703.3040795,N,00951.8648470,E,2,8,1.1,-1.121,M,40.593,M,1.7,0123*57
$GPVTG,216.74,T,-423.16,M,001.779,N,003.295,K,D*0A
$GPGGA,082551.30,5703.3040595,N,00951.8648207,E,2,8,1.1,-1.124,M,40.593,M,1.7,0123*52
$GPVTG,217.30,T,-422.60,M,001.781,N,003.298,K,D*01
$GPGGA,082551.35,5703.3040395,N,00951.8647920,E,2,8,1.1,-1.126,M,40.593,M,1.7,0123*52
$GPVTG,218.34,T,-421.56,M,001.794,N,003.323,K,D*09
$GPGGA,082551.40,5703.3040206,N,00951.8647617,E,2,8,1.1,-1.127,M,40.593,M,1.7,0123*51
$GPVTG,219.76,T,-420.14,M,001.804,N,003.341,K,D*0B
$GPGGA,082551.45,5703.3040027,N,00951.8647317,E,2,8,1.1,-1.127,M,40.593,M,1.9,0123*5E
$GPVTG,221.17,T,-418.73,M,001.798,N,003.329,K,D*09
$GPGGA,082551.50,5703.3039841,N,00951.8647020,E,2,8,1.1,-1.125,M,40.593,M,1.9,0123*59
$GPVTG,222.02,T,-417.88,M,001.799,N,003.331,K,D*0D
$GPGGA,082551.55,5703.3039658,N,00951.8646737,E,2,8,1.1,-1.126,M,40.593,M,1.9,0123*59
$GPVTG,222.45,T,-417.45,M,001.786,N,003.308,K,D*0B
$GPGGA,082551.60,5703.3039479,N,00951.8646433,E,2,8,1.1,-1.127,M,40.593,M,1.9,0123*58
$GPVTG,223.34,T,-416.56,M,001.783,N,003.303,K,D*01
$GPGGA,082551.65,5703.3039289,N,00951.8646121,E,2,8,1.1,-1.127,M,40.593,M,2.1,0123*59
$GPVTG,223.77,T,-416.13,M,001.798,N,003.329,K,D*05
$GPGGA,082551.70,5703.3039108,N,00951.8645806,E,2,8,1.1,-1.130,M,40.593,M,2.1,0123*5E
$GPVTG,224.48,T,-415.42,M,001.802,N,003.337,K,D*0A
$GPGGA,082551.75,5703.3038933,N,00951.8645492,E,2,8,1.1,-1.131,M,40.593,M,2.1,0123*5A
$GPVTG,225.20,T,-414.70,M,001.798,N,003.330,K,D*0E
$GPGGA,082551.80,5703.3038756,N,00951.8645168,E,2,8,1.1,-1.133,M,40.593,M,2.1,0123*5F
$GPVTG,225.87,T,-414.03,M,001.802,N,003.337,K,D*0C
$GPGGA,082551.85,5703.3038597,N,00951.8644829,E,2,8,1.1,-1.131,M,40.593,M,2.3,0123*58
$GPVTG,227.23,T,-412.67,M,001.796,N,003.327,K,D*07
$GPGGA,082551.90,5703.3038431,N,00951.8644462,E,2,8,1.1,-1.134,M,40.593,M,2.3,0123*57
$GPVTG,228.71,T,-411.19,M,001.819,N,003.370,K,D*0F
$GPGGA,082551.95,5703.3038278,N,00951.8644094,E,2,8,1.1,-1.133,M,40.593,M,2.3,0123*53
$GPVTG,230.32,T,-409.58,M,001.829,N,003.387,K,D*06
$GPGGA,082552.00,5703.3038132,N,00951.8643712,E,2,8,1.1,-1.133,M,40.593,M,2.3,0123*5F
$GPVTG,232.14,T,-407.76,M,001.841,N,003.409,K,D*0D
$GPGGA,082552.05,5703.3037985,N,00951.8643329,E,2,8,1.1,-1.126,M,40.593,M,2.2,0123*58
$GPVTG,233.67,T,-406.23,M,001.845,N,003.417,K,D*02
$GPGGA,082552.10,5703.3037827,N,00951.8642961,E,2,8,1.1,-1.127,M,40.593,M,2.2,0123*53
$GPVTG,234.25,T,-405.65,M,001.852,N,003.431,K,D*00
$GPGGA,082552.15,5703.3037676,N,00951.8642589,E,2,8,1.1,-1.127,M,40.593,M,2.2,0123*56
$GPVTG,234.96,T,-404.94,M,001.854,N,003.434,K,D*04
$GPGGA,082552.20,5703.3037524,N,00951.8642204,E,2,8,1.1,-1.130,M,40.593,M,2.2,0123*50
$GPVTG,235.67,T,-404.23,M,001.865,N,003.454,K,D*03
$GPGGA,082552.25,5703.3037390,N,00951.8641802,E,2,8,1.1,-1.131,M,40.593,M,2.4,0123*54
$GPVTG,237.21,T,-402.69,M,001.871,N,003.465,K,D*0C
$GPGGA,082552.30,5703.3037260,N,00951.8641406,E,2,8,1.1,-1.131,M,40.593,M,2.4,0123*56
$GPVTG,238.37,T,-401.53,M,001.870,N,003.462,K,D*08
$GPGGA,082552.35,5703.3037121,N,00951.8641007,E,2,8,1.1,-1.134,M,40.593,M,2.4,0123*55
$GPVTG,239.08,T,-400.82,M,001.876,N,003.474,K,D*09
$GPGGA,082552.40,5703.3036998,N,00951.8640598,E,2,8,1.1,-1.132,M,40.593,M,2.4,0123*58
$GPVTG,240.34,T,-399.56,M,001.877,N,003.476,K,D*05
$GPGGA,082552.45,5703.3036877,N,00951.8640182,E,2,8,1.1,-1.123,M,40.593,M,2.6,0123*50
$GPVTG,241.14,T,-398.76,M,001.883,N,003.487,K,D*00
$GPGGA,082552.50,5703.3036742,N,00951.8639785,E,2,8,1.1,-1.121,M,40.593,M,2.6,0123*50
$GPVTG,241.39,T,-398.51,M,001.879,N,003.481,K,D*09
$GPGGA,082552.55,5703.3036625,N,00951.8639362,E,2,8,1.1,-1.117,M,40.593,M,2.6,0123*5D
$GPVTG,242.52,T,-397.38,M,001.884,N,003.489,K,D*0D
$GPGGA,082552.60,5703.3036511,N,00951.8638938,E,2,8,1.1,-1.115,M,40.593,M,2.6,0123*59
$GPVTG,243.53,T,-396.37,M,001.887,N,003.495,K,D*0D
$GPGGA,082552.65,5703.3036379,N,00951.8638505,E,2,9,1.1,-1.127,M,40.593,M,2.8,0123*58
$GPVTG,244.40,T,-395.50,M,001.898,N,003.516,K,D*0E
$GPGGA,082552.70,5703.3036256,N,00951.8638067,E,2,9,1.1,-1.129,M,40.593,M,2.8,0123*5F
$GPVTG,244.91,T,-394.99,M,001.914,N,003.545,K,D*05
$GPGGA,082552.75,5703.3036137,N,00951.8637633,E,2,9,1.1,-1.128,M,40.593,M,2.8,0123*57
$GPVTG,245.36,T,-394.54,M,001.920,N,003.556,K,D*0D
$GPGGA,082552.80,5703.3036022,N,00951.8637213,E,2,9,1.1,-1.128,M,40.593,M,2.8,0123*5E
$GPVTG,245.67,T,-394.23,M,001.911,N,003.538,K,D*03
$GPGGA,082552.85,5703.3035922,N,00951.8636761,E,2,9,1.1,-1.120,M,40.593,M,3.1,0123*50
$GPVTG,246.56,T,-393.34,M,001.918,N,003.553,K,D*07
$GPGGA,082552.90,5703.3035809,N,00951.8636304,E,2,9,1.1,-1.120,M,40.593,M,3.1,0123*5B
$GPVTG,247.10,T,-392.80,M,001.937,N,003.587,K,D*0E
$GPGGA,082552.95,5703.3035700,N,00951.8635845,E,2,9,1.1,-1.121,M,40.593,M,3.1,0123*54
$GPVTG,247.61,T,-392.29,M,001.952,N,003.614,K,D*01
$GPGGA,082553.00,5703.3035609,N,00951.8635370,E,2,9,1.1,-1.119,M,40.593,M,3.1,0123*57
$GPVTG,248.86,T,-391.04,M,001.969,N,003.646,K,D*04
$GPGGA,082553.05,5703.3035522,N,00951.8634890,E,2,9,1.1,-1.110,M,40.593,M,3.3,0123*57
$GPVTG,250.14,T,-389.76,M,001.982,N,003.670,K,D*0A
$GPGGA,082553.10,5703.3035430,N,00951.8634428,E,2,9,1.1,-1.109,M,40.593,M,3.3,0123*56
$GPVTG,250.81,T,-389.09,M,001.982,N,003.670,K,D*0E
$GPGGA,082553.15,5703.3035345,N,00951.8633954,E,2,9,1.1,-1.108,M,40.593,M,3.3,0123*56
$GPVTG,251.66,T,-388.24,M,001.988,N,003.681,K,D*0C
$GPGGA,082553.20,5703.3035284,N,00951.8633449,E,2,9,1.1,-1.100,M,40.593,M,3.3,0123*55
$GPVTG,253.49,T,-386.41,M,002.009,N,003.721,K,D*06
$GPGGA,082553.25,5703.3035201,N,00951.8632989,E,2,9,1.1,-1.101,M,40.593,M,3.5,0123*5A
$GPVTG,254.33,T,-385.57,M,002.010,N,003.722,K,D*03
$GPGGA,082553.30,5703.3035135,N,00951.8632481,E,2,9,1.1,-1.098,M,40.593,M,3.5,0123*5E
$GPVTG,255.49,T,-384.41,M,002.031,N,003.761,K,D*0D
$GPGGA,082553.35,5703.3035071,N,00951.8631986,E,2,9,1.1,-1.096,M,40.593,M,3.5,0123*5D
$GPVTG,256.49,T,-383.41,M,002.037,N,003.773,K,D*0C
$GPGGA,082553.40,5703.3035009,N,00951.8631478,E,2,9,1.1,-1.092,M,40.593,M,3.5,0123*58
$GPVTG,257.43,T,-382.47,M,002.051,N,003.799,K,D*04
$GPGGA,082553.45,5703.3034911,N,00951.8630993,E,2,9,1.1,-1.100,M,40.593,M,3.7,0123*5D
$GPVTG,257.62,T,-382.28,M,002.055,N,003.805,K,D*00
$GPGGA,082553.50,5703.3034850,N,00951.8630495,E,2,9,1.1,-1.100,M,40.593,M,3.7,0123*56
$GPVTG,258.26,T,-381.64,M,002.056,N,003.808,K,D*0A
$GPGGA,082553.55,5703.3034797,N,00951.8629978,E,2,9,1.1,-1.101,M,40.593,M,3.7,0123*50
$GPVTG,259.16,T,-380.74,M,002.069,N,003.833,K,D*0C
$GPGGA,082553.60,5703.3034743,N,00951.8629462,E,2,9,1.1,-1.101,M,40.593,M,3.7,0123*59
$GPVTG,259.86,T,-380.04,M,002.079,N,003.851,K,D*07
$GPGGA,082553.65,5703.3034681,N,00951.8628954,E,2,9,1.1,-1.110,M,40.593,M,3.9,0123*54
$GPVTG,260.53,T,-379.37,M,002.085,N,003.862,K,D*00
$GPGGA,082553.70,5703.3034633,N,00951.8628433,E,2,9,1.1,-1.113,M,40.593,M,3.9,0123*56
$GPVTG,261.17,T,-378.73,M,002.094,N,003.879,K,D*0A
$GPGGA,082553.75,5703.3034596,N,00951.8627913,E,2,9,1.1,-1.115,M,40.593,M,3.9,0123*59
$GPVTG,262.07,T,-377.83,M,002.098,N,003.886,K,D*04
$GPGGA,082553.80,5703.3034559,N,00951.8627381,E,2,9,1.1,-1.115,M,40.593,M,3.9,0123*51
$GPVTG,262.85,T,-377.05,M,002.111,N,003.910,K,D*0E
$GPGGA,082553.85,5703.3034557,N,00951.8626832,E,2,9,1.1,-1.109,M,40.593,M,4.1,0123*5A
$GPVTG,264.27,T,-375.63,M,002.130,N,003.944,K,D*00
$GPGGA,082553.90,5703.3034552,N,00951.8626295,E,2,9,1.1,-1.108,M,40.593,M,4.1,0123*5D
$GPVTG,265.84,T,-374.06,M,002.137,N,003.958,K,D*00
$GPGGA,082553.95,5703.3034537,N,00951.8625756,E,2,9,1.1,-1.109,M,40.593,M,4.1,0123*53
$GPVTG,266.83,T,-373.07,M,002.146,N,003.974,K,D*0A
$GPGGA,082554.00,5703.3034521,N,00951.8625220,E,2,9,1.1,-1.112,M,40.593,M,4.1,0123*51
$GPVTG,267.61,T,-372.29,M,002.150,N,003.982,K,D*04
$GPGGA,082554.05,5703.3034504,N,00951.8624679,E,2,9,1.1,-1.113,M,40.593,M,1.6,0123*59
$GPVTG,268.32,T,-371.58,M,002.151,N,003.985,K,D*0E
$GPGGA,082554.10,5703.3034502,N,00951.8624147,E,2,9,1.1,-1.114,M,40.593,M,1.6,0123*56
$GPVTG,269.29,T,-370.61,M,002.147,N,003.976,K,D*05
$GPGGA,082554.15,5703.3034503,N,00951.8623603,E,2,9,1.1,-1.114,M,40.593,M,1.6,0123*52
$GPVTG,270.22,T,-369.68,M,002.155,N,003.990,K,D*0C
$GPGGA,082554.20,5703.3034509,N,00951.8623061,E,2,9,1.1,-1.114,M,40.593,M,1.6,0123*5C
$GPVTG,271.15,T,-368.75,M,002.159,N,003.998,K,D*00
$GPGGA,082554.25,5703.3034506,N,00951.8622516,E,2,9,1.1,-1.120,M,40.593,M,1.8,0123*5B
$GPVTG,272.04,T,-367.86,M,002.166,N,004.012,K,D*00
$GPGGA,082554.30,5703.3034526,N,00951.8621990,E,2,9,1.1,-1.120,M,40.593,M,1.8,0123*5C
$GPVTG,273.16,T,-366.74,M,002.153,N,003.988,K,D*05
$GPGGA,082554.35,5703.3034546,N,00951.8621458,E,2,9,1.1,-1.122,M,40.593,M,1.8,0123*54
$GPVTG,274.09,T,-365.81,M,002.147,N,003.976,K,D*01
$GPGGA,082554.40,5703.3034570,N,00951.8620921,E,2,9,1.1,-1.124,M,40.593,M,1.8,0123*57
$GPVTG,275.00,T,-364.90,M,002.146,N,003.975,K,D*0A
$GPGGA,082554.45,5703.3034587,N,00951.8620389,E,2,9,1.1,-1.128,M,40.593,M,2.1,0123*54
$GPVTG,275.44,T,-364.46,M,002.141,N,003.965,K,D*07
$GPGGA,082554.50,5703.3034603,N,00951.8619859,E,2,9,1.1,-1.131,M,40.593,M,2.1,0123*5B
$GPVTG,275.78,T,-364.12,M,002.133,N,003.950,K,D*0A
$GPGGA,082554.55,5703.3034631,N,00951.8619325,E,2,9,1.1,-1.133,M,40.593,M,2.1,0123*5D
$GPVTG,276.44,T,-363.46,M,002.132,N,003.948,K,D*08
$GPGGA,082554.60,5703.3034664,N,00951.8618789,E,2,9,1.1,-1.137,M,40.593,M,2.1,0123*5C
$GPVTG,277.17,T,-362.73,M,002.133,N,003.950,K,D*00
$GPGGA,082554.65,5703.3034696,N,00951.8618246,E,2,9,1.1,-1.143,M,40.593,M,2.3,0123*53
$GPVTG,277.71,T,-362.19,M,002.139,N,003.961,K,D*04
$GPGGA,082554.70,5703.3034732,N,00951.8617696,E,2,9,1.1,-1.149,M,40.593,M,2.3,0123*54
$GPVTG,278.20,T,-361.70,M,002.152,N,003.985,K,D*04
$GPGGA,082554.75,5703.3034772,N,00951.8617160,E,2,9,1.1,-1.156,M,40.593,M,2.3,0123*55
$GPVTG,278.80,T,-361.10,M,002.152,N,003.986,K,D*0B
$GPGGA,082554.80,5703.3034820,N,00951.8616630,E,2,9,1.1,-1.159,M,40.593,M,2.3,0123*5B
$GPVTG,279.55,T,-360.35,M,002.147,N,003.976,K,D*0F
$GPGGA,082554.85,5703.3034939,N,00951.8616056,E,2,9,1.1,-1.137,M,40.593,M,2.6,0123*5C
$GPVTG,280.87,T,-359.03,M,002.156,N,003.993,K,D*02
$GPGGA,082554.90,5703.3035004,N,00951.8615503,E,2,9,1.1,-1.137,M,40.593,M,2.6,0123*58
$GPVTG,281.78,T,-358.12,M,002.175,N,004.029,K,D*0C
$GPGGA,082554.95,5703.3035075,N,00951.8614954,E,2,9,1.1,-1.136,M,40.593,M,2.6,0123*55
$GPVTG,282.74,T,-357.16,M,002.192,N,004.059,K,D*06
$GPGGA,082555.00,5703.3035142,N,00951.8614393,E,2,9,1.1,-1.138,M,40.593,M,2.6,0123*52
$GPVTG,283.33,T,-356.57,M,002.214,N,004.100,K,D*00
$GPGGA,082555.05,5703.3035202,N,00951.8613862,E,2,9,1.1,-1.143,M,40.593,M,1.5,0123*5E
$GPVTG,284.21,T,-355.69,M,002.210,N,004.093,K,D*05
$GPGGA,082555.10,5703.3035286,N,00951.8613325,E,2,9,1.1,-1.143,M,40.593,M,1.5,0123*5E
$GPVTG,285.23,T,-354.67,M,002.215,N,004.103,K,D*04
$GPGGA,082555.15,5703.3035371,N,00951.8612787,E,2,9,1.1,-1.146,M,40.593,M,1.5,0123*5A
$GPVTG,286.11,T,-353.79,M,002.221,N,004.113,K,D*08
$GPGGA,082555.20,5703.3035466,N,00951.8612237,E,2,9,1.1,-1.147,M,40.593,M,1.5,0123*52
$GPVTG,287.07,T,-352.83,M,002.239,N,004.147,K,D*02
$GPGGA,082555.25,5703.3035587,N,00951.8611690,E,2,9,1.1,-1.142,M,40.593,M,1.7,0123*54
$GPVTG,288.35,T,-351.55,M,002.252,N,004.171,K,D*0C
$GPGGA,082555.30,5703.3035681,N,00951.8611159,E,2,9,1.1,-1.144,M,40.593,M,1.7,0123*51
$GPVTG,289.06,T,-350.84,M,002.249,N,004.166,K,D*0C
$GPGGA,082555.35,5703.3035772,N,00951.8610625,E,2,9,1.1,-1.146,M,40.593,M,1.7,0123*56
$GPVTG,289.48,T,-350.42,M,002.248,N,004.163,K,D*08
$GPGGA,082555.40,5703.3035870,N,00951.8610076,E,2,9,1.1,-1.146,M,40.593,M,1.7,0123*59
$GPVTG,289.90,T,-350.00,M,002.262,N,004.190,K,D*0F
$GPGGA,082555.45,5703.3035980,N,00951.8609524,E,2,9,1.1,-1.144,M,40.593,M,1.9,0123*54
$GPVTG,290.56,T,-349.34,M,002.283,N,004.229,K,D*0C
$GPGGA,082555.50,5703.3036089,N,00951.8609002,E,2,9,1.1,-1.145,M,40.593,M,1.9,0123*53
$GPVTG,291.30,T,-348.60,M,002.274,N,004.211,K,D*0E
$GPGGA,082555.55,5703.3036206,N,00951.8608468,E,2,9,1.1,-1.145,M,40.593,M,1.9,0123*5A
$GPVTG,292.08,T,-347.82,M,002.280,N,004.222,K,D*0E
$GPGGA,082555.60,5703.3036322,N,00951.8607920,E,2,9,1.1,-1.144,M,40.593,M,1.9,0123*54
$GPVTG,292.54,T,-347.36,M,002.296,N,004.253,K,D*09
$GPGGA,082555.65,5703.3036453,N,00951.8607385,E,2,9,1.1,-1.139,M,40.593,M,2.1,0123*54
$GPVTG,293.24,T,-346.66,M,002.303,N,004.265,K,D*03
$GPGGA,082555.70,5703.3036578,N,00951.8606860,E,2,9,1.1,-1.139,M,40.593,M,2.1,0123*59
$GPVTG,293.95,T,-345.95,M,002.301,N,004.261,K,D*00
$GPGGA,082555.75,5703.3036711,N,00951.8606327,E,2,9,1.1,-1.139,M,40.593,M,2.1,0123*59
$GPVTG,294.71,T,-345.19,M,002.309,N,004.277,K,D*06
$GPGGA,082555.80,5703.3036847,N,00951.8605798,E,2,9,1.1,-1.141,M,40.593,M,2.1,0123*53
$GPVTG,295.43,T,-344.47,M,002.316,N,004.289,K,D*03
$GPGGA,082555.85,5703.3036974,N,00951.8605274,E,2,9,1.1,-1.150,M,40.593,M,2.3,0123*52
$GPVTG,296.23,T,-343.67,M,002.321,N,004.298,K,D*07
$GPGGA,082555.90,5703.3037125,N,00951.8604741,E,2,9,1.1,-1.151,M,40.593,M,2.3,0123*58
$GPVTG,297.07,T,-342.83,M,002.338,N,004.329,K,D*08
$GPGGA,082555.95,5703.3037273,N,00951.8604217,E,2,9,1.1,-1.153,M,40.593,M,2.3,0123*59
$GPVTG,297.79,T,-342.11,M,002.343,N,004.340,K,D*09
$GPGGA,082556.00,5703.3037424,N,00951.8603699,E,2,9,1.1,-1.155,M,40.593,M,2.3,0123*51
$GPVTG,298.51,T,-341.39,M,002.345,N,004.343,K,D*00
$GPGGA,082556.05,5703.3037605,N,00951.8603188,E,2,9,1.1,-1.148,M,40.593,M,2.2,0123*5F
$GPVTG,299.78,T,-340.12,M,002.349,N,004.351,K,D*0D
$GPGGA,082556.10,5703.3037775,N,00951.8602667,E,2,9,1.1,-1.150,M,40.593,M,2.2,0123*53
$GPVTG,300.68,T,-339.22,M,002.365,N,004.381,K,D*03
$GPGGA,082556.15,5703.3037956,N,00951.8602151,E,2,9,1.1,-1.149,M,40.593,M,2.2,0123*53
$GPVTG,301.75,T,-338.15,M,002.384,N,004.415,K,D*0E
$GPGGA,082556.20,5703.3038140,N,00951.8601629,E,2,9,1.1,-1.148,M,40.593,M,2.2,0123*5F
$GPVTG,302.64,T,-337.26,M,002.408,N,004.459,K,D*09
$GPGGA,082556.25,5703.3038304,N,00951.8601111,E,2,9,1.1,-1.153,M,40.593,M,2.4,0123*58
$GPVTG,303.15,T,-336.75,M,002.417,N,004.477,K,D*0B
$GPGGA,082556.30,5703.3038483,N,00951.8600600,E,2,9,1.1,-1.154,M,40.593,M,2.4,0123*55
$GPVTG,303.72,T,-336.18,M,002.424,N,004.489,K,D*00
$GPGGA,082556.35,5703.3038678,N,00951.8600089,E,2,9,1.1,-1.152,M,40.593,M,2.4,0123*57
$GPVTG,304.62,T,-335.28,M,002.441,N,004.520,K,D*07
$GPGGA,082556.40,5703.3038860,N,00951.8599588,E,2,9,1.1,-1.153,M,40.593,M,2.4,0123*54
$GPVTG,305.13,T,-334.77,M,002.438,N,004.516,K,D*00
$GPGGA,082556.45,5703.3039055,N,00951.8599087,E,2,9,1.1,-1.152,M,40.593,M,2.6,0123*57
$GPVTG,305.79,T,-334.11,M,002.443,N,004.524,K,D*01
$GPGGA,082556.50,5703.3039259,N,00951.8598580,E,2,9,1.1,-1.151,M,40.593,M,2.6,0123*5D
$GPVTG,306.53,T,-333.37,M,002.462,N,004.559,K,D*00
$GPGGA,082556.55,5703.3039476,N,00951.8598087,E,2,9,1.1,-1.147,M,40.593,M,2.6,0123*56
$GPVTG,307.64,T,-332.26,M,002.477,N,004.588,K,D*0C
$GPGGA,082556.60,5703.3039688,N,00951.8597595,E,2,9,1.1,-1.145,M,40.593,M,2.6,0123*58
$GPVTG,308.43,T,-331.47,M,002.487,N,004.605,K,D*0B
$GPGGA,082556.65,5703.3039903,N,00951.8597104,E,2,9,1.1,-1.139,M,40.593,M,2.8,0123*58
$GPVTG,309.02,T,-330.88,M,002.493,N,004.616,K,D*0A
$GPGGA,082556.70,5703.3040110,N,00951.8596609,E,2,9,1.1,-1.139,M,40.593,M,2.8,0123*53
$GPVTG,309.40,T,-330.50,M,002.498,N,004.626,K,D*01
$GPGGA,082556.75,5703.3040330,N,00951.8596124,E,2,9,1.1,-1.135,M,40.593,M,2.8,0123*52
$GPVTG,310.09,T,-329.81,M,002.506,N,004.641,K,D*07
$GPGGA,082556.80,5703.3040548,N,00951.8595632,E,2,9,1.1,-1.131,M,40.593,M,2.8,0123*56
$GPVTG,310.51,T,-329.39,M,002.515,N,004.658,K,D*03
$GPGGA,082556.85,5703.3040774,N,00951.8595150,E,2,9,1.1,-1.128,M,40.593,M,3.1,0123*5D
$GPVTG,311.00,T,-328.90,M,002.522,N,004.672,K,D*08
$GPGGA,082556.90,5703.3041011,N,00951.8594674,E,2,9,1.1,-1.125,M,40.593,M,3.1,0123*51
$GPVTG,311.86,T,-328.04,M,002.536,N,004.697,K,D*05
$GPGGA,082556.95,5703.3041253,N,00951.8594196,E,2,9,1.1,-1.123,M,40.593,M,3.1,0123*5D
$GPVTG,312.63,T,-327.27,M,002.553,N,004.728,K,D*05
$GPGGA,082557.00,5703.3041482,N,00951.8593715,E,2,9,1.1,-1.125,M,40.593,M,3.1,0123*56
$GPVTG,312.92,T,-326.98,M,002.557,N,004.736,K,D*05
$GPGGA,082557.05,5703.3041699,N,00951.8593246,E,2,9,1.1,-1.128,M,40.593,M,3.3,0123*57
$GPVTG,313.47,T,-326.43,M,002.552,N,004.725,K,D*0D
$GPGGA,082557.10,5703.3041951,N,00951.8592786,E,2,9,1.1,-1.129,M,40.593,M,3.3,0123*51
$GPVTG,314.37,T,-325.53,M,002.562,N,004.744,K,D*0B
$GPGGA,082557.15,5703.3042209,N,00951.8592326,E,2,9,1.1,-1.128,M,40.593,M,3.3,0123*5E
$GPVTG,315.21,T,-324.69,M,002.578,N,004.774,K,D*0D
$GPGGA,082557.20,5703.3042469,N,00951.8591867,E,2,9,1.1,-1.127,M,40.593,M,3.3,0123*5A
$GPVTG,315.98,T,-323.92,M,002.593,N,004.803,K,D*06
$GPGGA,082557.25,5703.3042741,N,00951.8591435,E,2,9,1.1,-1.123,M,40.593,M,3.5,0123*5F
$GPVTG,316.95,T,-322.95,M,002.589,N,004.796,K,D*06
$GPGGA,082557.30,5703.3043012,N,00951.8590993,E,2,9,1.1,-1.123,M,40.593,M,3.5,0123*5B
$GPVTG,317.86,T,-322.04,M,002.604,N,004.822,K,D*0B
$GPGGA,082557.35,5703.3043276,N,00951.8590553,E,2,9,1.1,-1.125,M,40.593,M,3.5,0123*58
$GPVTG,318.48,T,-321.42,M,002.609,N,004.831,K,D*08
$GPGGA,082557.40,5703.3043545,N,00951.8590119,E,2,9,1.1,-1.126,M,40.593,M,3.5,0123*54
$GPVTG,319.16,T,-320.74,M,002.614,N,004.841,K,D*0D
$GPGGA,082557.45,5703.3043799,N,00951.8589701,E,2,9,1.1,-1.135,M,40.593,M,3.7,0123*55
$GPVTG,319.94,T,-319.96,M,002.609,N,004.832,K,D*09
$GPGGA,082557.50,5703.3044080,N,00951.8589280,E,2,9,1.1,-1.137,M,40.593,M,3.7,0123*57
$GPVTG,320.73,T,-319.17,M,002.619,N,004.850,K,D*06
$GPGGA,082557.55,5703.3044357,N,00951.8588865,E,2,9,1.1,-1.138,M,40.593,M,3.7,0123*54
$GPVTG,321.41,T,-318.49,M,002.621,N,004.854,K,D*03
$GPGGA,082557.60,5703.3044637,N,00951.8588457,E,2,9,1.1,-1.138,M,40.593,M,3.7,0123*5C
$GPVTG,322.09,T,-317.81,M,002.622,N,004.855,K,D*05
$GPGGA,082557.65,5703.3044913,N,00951.8588047,E,2,9,1.1,-1.140,M,40.593,M,3.9,0123*54
$GPVTG,322.58,T,-317.32,M,002.624,N,004.860,K,D*09
$GPGGA,082557.70,5703.3045189,N,00951.8587655,E,2,9,1.1,-1.141,M,40.593,M,3.9,0123*51
$GPVTG,323.16,T,-316.74,M,002.610,N,004.834,K,D*07
$GPGGA,082557.75,5703.3045471,N,00951.8587265,E,2,9,1.1,-1.142,M,40.593,M,3.9,0123*52
$GPVTG,323.79,T,-316.11,M,002.604,N,004.823,K,D*0E
$GPGGA,082557.80,5703.3045771,N,00951.8586884,E,2,9,1.1,-1.141,M,40.593,M,3.9,0123*5C
$GPVTG,324.70,T,-315.20,M,002.614,N,004.841,K,D*04
$GPGGA,082557.85,5703.3046077,N,00951.8586501,E,2,9,1.1,-1.132,M,40.593,M,4.1,0123*50
$GPVTG,325.39,T,-314.51,M,002.620,N,004.852,K,D*0A
$GPGGA,082557.90,5703.3046374,N,00951.8586123,E,2,9,1.1,-1.133,M,40.593,M,4.1,0123*51
$GPVTG,325.99,T,-313.91,M,002.624,N,004.860,K,D*0E
$GPGGA,082557.95,5703.3046671,N,00951.8585754,E,2,9,1.1,-1.136,M,40.593,M,4.1,0123*54
$GPVTG,326.59,T,-313.31,M,002.624,N,004.860,K,D*0B
$GPGGA,082558.00,5703.3046974,N,00951.8585395,E,2,9,1.1,-1.138,M,40.593,M,4.1,0123*5A
$GPVTG,327.35,T,-312.55,M,002.626,N,004.863,K,D*02
$GPGGA,082558.05,5703.3047276,N,00951.8585033,E,2,9,1.1,-1.138,M,40.593,M,1.6,0123*5A
$GPVTG,328.04,T,-311.86,M,002.637,N,004.883,K,D*0C
$GPGGA,082558.10,5703.3047601,N,00951.8584686,E,2,9,1.1,-1.140,M,40.593,M,1.6,0123*5C
$GPVTG,329.00,T,-310.90,M,002.657,N,004.921,K,D*00
$GPGGA,082558.15,5703.3047916,N,00951.8584349,E,2,9,1.1,-1.141,M,40.593,M,1.6,0123*57
$GPVTG,329.79,T,-310.11,M,002.660,N,004.926,K,D*04
$GPGGA,082558.20,5703.3048231,N,00951.8584009,E,2,9,1.1,-1.145,M,40.593,M,1.6,0123*53
$GPVTG,330.38,T,-309.52,M,002.664,N,004.934,K,D*01
$GPGGA,082558.25,5703.3048582,N,00951.8583682,E,2,9,1.1,-1.135,M,40.593,M,1.8,0123*52
$GPVTG,331.24,T,-308.66,M,002.680,N,004.963,K,D*03
$GPGGA,082558.30,5703.3048920,N,00951.8583359,E,2,9,1.1,-1.134,M,40.593,M,1.8,0123*50
$GPVTG,332.13,T,-307.77,M,002.701,N,005.002,K,D*0C
$GPGGA,082558.35,5703.3049249,N,00951.8583045,E,2,9,1.1,-1.133,M,40.593,M,1.8,0123*59
$GPVTG,332.85,T,-307.05,M,002.707,N,005.013,K,D*00
$GPGGA,082558.40,5703.3049580,N,00951.8582732,E,2,9,1.1,-1.132,M,40.593,M,1.8,0123*5E
$GPVTG,333.48,T,-306.42,M,002.714,N,005.026,K,D*06
$GPGGA,082558.45,5703.3049909,N,00951.8582433,E,2,9,1.1,-1.134,M,40.593,M,2.1,0123*58
$GPVTG,334.22,T,-305.68,M,002.717,N,005.032,K,D*00
$GPGGA,082558.50,5703.3050248,N,00951.8582129,E,2,9,1.1,-1.133,M,40.593,M,2.1,0123*53
$GPVTG,334.78,T,-305.12,M,002.729,N,005.055,K,D*0E
$GPGGA,082558.55,5703.3050592,N,00951.8581830,E,2,9,1.1,-1.131,M,40.593,M,2.1,0123*56
$GPVTG,335.34,T,-304.56,M,002.743,N,005.080,K,D*02
$GPGGA,082558.60,5703.3050930,N,00951.8581547,E,2,9,1.1,-1.131,M,40.593,M,2.1,0123*59
$GPVTG,335.98,T,-303.92,M,002.742,N,005.077,K,D*02
$GPGGA,082558.65,5703.3051255,N,00951.8581274,E,2,9,1.1,-1.137,M,40.593,M,2.3,0123*56
$GPVTG,336.69,T,-303.21,M,002.738,N,005.070,K,D*0D
$GPGGA,082558.70,5703.3051592,N,00951.8581016,E,2,9,1.1,-1.139,M,40.593,M,2.3,0123*56
$GPVTG,337.48,T,-302.42,M,002.726,N,005.049,K,D*0E
$GPGGA,082558.75,5703.3051927,N,00951.8580762,E,2,9,1.1,-1.143,M,40.593,M,2.3,0123*59
$GPVTG,338.15,T,-301.75,M,002.711,N,005.022,K,D*07
$GPGGA,082558.80,5703.3052266,N,00951.8580520,E,2,9,1.1,-1.145,M,40.593,M,2.3,0123*5C
$GPVTG,338.91,T,-300.99,M,002.700,N,005.001,K,D*09
$GPGGA,082558.85,5703.3052627,N,00951.8580275,E,2,9,1.1,-1.139,M,40.593,M,2.6,0123*51
$GPVTG,339.58,T,-300.32,M,002.708,N,005.015,K,D*01
$GPGGA,082558.90,5703.3052986,N,00951.8580031,E,2,9,1.1,-1.139,M,40.593,M,2.6,0123*53
$GPVTG,340.20,T,-299.70,M,002.724,N,005.044,K,D*0D
$GPGGA,082558.95,5703.3053346,N,00951.8579792,E,2,9,1.1,-1.138,M,40.593,M,2.6,0123*58
$GPVTG,340.76,T,-299.14,M,002.739,N,005.073,K,D*04
$GPGGA,082559.00,5703.3053706,N,00951.8579572,E,2,9,1.1,-1.138,M,40.593,M,2.6,0123*59
$GPVTG,341.54,T,-298.36,M,002.745,N,005.084,K,D*07
$GPGGA,082559.05,5703.3054059,N,00951.8579341,E,2,9,1.1,-1.135,M,40.593,M,1.5,0123*5D
$GPVTG,342.03,T,-297.87,M,002.752,N,005.097,K,D*07
$GPGGA,082559.10,5703.3054423,N,00951.8579134,E,2,9,1.1,-1.133,M,40.593,M,1.5,0123*56
$GPVTG,342.76,T,-297.14,M,002.759,N,005.110,K,D*0A
$GPGGA,082559.15,5703.3054789,N,00951.8578929,E,2,9,1.1,-1.132,M,40.593,M,1.5,0123*54
$GPVTG,343.41,T,-296.49,M,002.768,N,005.126,K,D*01
$GPGGA,082559.20,5703.3055148,N,00951.8578723,E,2,9,1.1,-1.135,M,40.593,M,1.5,0123*5B
$GPVTG,343.82,T,-296.08,M,002.767,N,005.124,K,D*06
$GPGGA,082559.25,5703.3055515,N,00951.8578510,E,2,9,1.1,-1.137,M,40.593,M,1.7,0123*50
$GPVTG,344.08,T,-295.82,M,002.784,N,005.156,K,D*0A
$GPGGA,082559.30,5703.3055881,N,00951.8578323,E,2,9,1.1,-1.136,M,40.593,M,1.7,0123*53
$GPVTG,344.68,T,-295.22,M,002.785,N,005.157,K,D*06
$GPGGA,082559.35,5703.3056253,N,00951.8578145,E,2,9,1.1,-1.134,M,40.593,M,1.7,0123*50
$GPVTG,345.35,T,-294.55,M,002.790,N,005.167,K,D*09
$GPGGA,082559.40,5703.3056624,N,00951.8577973,E,2,9,1.1,-1.135,M,40.593,M,1.7,0123*55
$GPVTG,345.99,T,-293.91,M,002.792,N,005.171,K,D*05
$GPGGA,082559.45,5703.3056995,N,00951.8577813,E,2,9,1.1,-1.137,M,40.593,M,1.9,0123*5E
$GPVTG,346.71,T,-293.19,M,002.794,N,005.174,K,D*03
$GPGGA,082559.50,5703.3057370,N,00951.8577659,E,2,9,1.1,-1.139,M,40.593,M,1.9,0123*54
$GPVTG,347.42,T,-292.48,M,002.797,N,005.180,K,D*0F
$GPGGA,082559.55,5703.3057746,N,00951.8577511,E,2,9,1.1,-1.143,M,40.593,M,1.9,0123*52
$GPVTG,348.06,T,-291.84,M,002.800,N,005.186,K,D*04
$GPGGA,082559.60,5703.3058123,N,00951.8577367,E,2,9,1.1,-1.144,M,40.593,M,1.9,0123*5E
$GPVTG,348.65,T,-291.25,M,002.804,N,005.193,K,D*0A
$GPGGA,082559.65,5703.3058518,N,00951.8577244,E,2,9,1.1,-1.141,M,40.593,M,2.1,0123*59
$GPVTG,349.58,T,-290.32,M,002.823,N,005.227,K,D*0B
$GPGGA,082559.70,5703.3058899,N,00951.8577131,E,2,9,1.1,-1.143,M,40.593,M,2.1,0123*5A
$GPVTG,350.44,T,-289.46,M,002.823,N,005.228,K,D*0A
$GPGGA,082559.75,5703.3059278,N,00951.8577043,E,2,9,1.1,-1.145,M,40.593,M,2.1,0123*59
$GPVTG,351.59,T,-288.31,M,002.817,N,005.217,K,D*0D
$GPGGA,082559.80,5703.3059655,N,00951.8576962,E,2,9,1.1,-1.147,M,40.593,M,2.1,0123*51
$GPVTG,352.64,T,-287.26,M,002.809,N,005.203,K,D*03
$GPGGA,082559.85,5703.3060027,N,00951.8576881,E,2,9,1.1,-1.153,M,40.593,M,2.3,0123*56
$GPVTG,353.46,T,-286.44,M,002.801,N,005.188,K,D*0F
$GPGGA,082559.90,5703.3060405,N,00951.8576790,E,2,9,1.1,-1.153,M,40.593,M,2.3,0123*59
$GPVTG,353.92,T,-285.98,M,002.798,N,005.181,K,D*02
$GPGGA,082559.95,5703.3060784,N,00951.8576704,E,2,9,1.1,-1.154,M,40.593,M,2.3,0123*5C
$GPVTG,354.35,T,-285.55,M,002.794,N,005.175,K,D*0E
$GPGGA,082600.00,5703.3061172,N,00951.8576627,E,2,9,1.1,-1.155,M,40.593,M,2.3,0123*50
$GPVTG,354.83,T,-285.07,M,002.803,N,005.192,K,D*0C
$GPGGA,082600.05,5703.3061551,N,00951.8576569,E,2,9,1.1,-1.160,M,40.593,M,2.2,0123*5E
$GPVTG,355.61,T,-284.29,M,002.812,N,005.207,K,D*03
$GPGGA,082600.10,5703.3061938,N,00951.8576515,E,2,9,1.1,-1.160,M,40.593,M,2.2,0123*52
$GPVTG,356.21,T,-283.69,M,002.815,N,005.214,K,D*02
$GPGGA,082600.15,5703.3062315,N,00951.8576475,E,2,9,1.1,-1.161,M,40.593,M,2.2,0123*57
$GPVTG,356.92,T,-282.98,M,002.804,N,005.193,K,D*09
$GPGGA,082600.20,5703.3062689,N,00951.8576429,E,2,9,1.1,-1.163,M,40.593,M,2.2,0123*5A
$GPVTG,357.34,T,-282.56,M,002.790,N,005.167,K,D*0F
$GPGGA,082600.25,5703.3063087,N,00951.8576402,E,2,9,1.1,-1.154,M,40.593,M,2.4,0123*5D
$GPVTG,358.05,T,-281.85,M,002.791,N,005.168,K,D*01
