$GPGGA,082325.35,5703.2800847,N,00951.8377313,E,2,11,0.7,-1.078,M,40.593,M,3.5,0123*67
$GPVTG,343.67,T,-296.23,M,005.103,N,009.450,K,D*0D
$GPGGA,082325.40,5703.2801515,N,00951.8376947,E,2,11,0.7,-1.079,M,40.593,M,3.5,0123*65
$GPVTG,343.88,T,-296.02,M,005.076,N,009.401,K,D*08
$GPGGA,082325.45,5703.2802190,N,00951.8376608,E,2,11,0.7,-1.081,M,40.593,M,3.7,0123*6B
$GPVTG,344.58,T,-295.32,M,005.067,N,009.385,K,D*09
$GPGGA,082325.50,5703.2802880,N,00951.8376268,E,2,11,0.7,-1.081,M,40.593,M,3.7,0123*65
$GPVTG,345.10,T,-294.80,M,005.100,N,009.445,K,D*07
$GPGGA,082325.55,5703.2803558,N,00951.8375961,E,2,11,0.7,-1.083,M,40.593,M,3.7,0123*6A
$GPVTG,345.99,T,-293.91,M,005.074,N,009.397,K,D*0B
$GPGGA,082325.60,5703.2804241,N,00951.8375669,E,2,11,0.7,-1.087,M,40.593,M,3.7,0123*67
$GPVTG,346.87,T,-293.03,M,005.066,N,009.382,K,D*0B
$GPGGA,082325.65,5703.2804942,N,00951.8375355,E,2,11,0.7,-1.088,M,40.593,M,3.9,0123*61
$GPVTG,347.03,T,-292.87,M,005.124,N,009.490,K,D*08
$GPGGA,082325.70,5703.2805644,N,00951.8375046,E,2,11,0.7,-1.088,M,40.593,M,3.9,0123*6C
$GPVTG,347.16,T,-292.74,M,005.168,N,009.572,K,D*05
$GPGGA,082325.75,5703.2806341,N,00951.8374756,E,2,11,0.7,-1.085,M,40.593,M,3.9,0123*60
$GPVTG,347.51,T,-292.39,M,005.178,N,009.590,K,D*02
$GPGGA,082325.80,5703.2807038,N,00951.8374502,E,2,11,0.7,-1.085,M,40.593,M,3.9,0123*65
$GPVTG,348.43,T,-291.47,M,005.168,N,009.571,K,D*0A
$GPGGA,082325.85,5703.2807752,N,00951.8374269,E,2,11,0.7,-1.082,M,40.593,M,4.1,0123*69
$GPVTG,349.56,T,-290.34,M,005.178,N,009.589,K,D*0C
$GPGGA,082325.90,5703.2808466,N,00951.8374049,E,2,11,0.7,-1.082,M,40.593,M,4.1,0123*66
$GPVTG,350.52,T,-289.38,M,005.207,N,009.643,K,D*0A
$GPGGA,082325.95,5703.2809180,N,00951.8373827,E,2,11,0.7,-1.083,M,40.593,M,4.1,0123*69
$GPVTG,350.99,T,-288.91,M,005.225,N,009.677,K,D*08
$GPGGA,082326.00,5703.2809890,N,00951.8373599,E,2,11,0.7,-1.084,M,40.593,M,4.1,0123*61
$GPVTG,351.05,T,-288.85,M,005.233,N,009.691,K,D*06
$GPGGA,082326.05,5703.2810595,N,00951.8373403,E,2,11,0.7,-1.079,M,40.593,M,1.6,0123*66
$GPVTG,351.57,T,-288.33,M,005.221,N,009.670,K,D*00
$GPGGA,082326.10,5703.2811300,N,00951.8373203,E,2,11,0.7,-1.077,M,40.593,M,1.6,0123*61
$GPVTG,351.81,T,-288.09,M,005.201,N,009.633,K,D*07
$GPGGA,082326.15,5703.2812008,N,00951.8373005,E,2,11,0.7,-1.075,M,40.593,M,1.6,0123*6A
$GPVTG,351.93,T,-287.97,M,005.191,N,009.614,K,D*03
$GPGGA,082326.20,5703.2812724,N,00951.8372832,E,2,11,0.7,-1.070,M,40.593,M,1.6,0123*6D
$GPVTG,352.47,T,-287.43,M,005.201,N,009.632,K,D*0E
$GPGGA,082326.25,5703.2813443,N,00951.8372675,E,2,11,0.7,-1.065,M,40.593,M,1.8,0123*6C
$GPVTG,353.16,T,-286.74,M,005.202,N,009.634,K,D*0B
$GPGGA,082326.30,5703.2814159,N,00951.8372526,E,2,11,0.7,-1.063,M,40.593,M,1.8,0123*62
$GPVTG,353.70,T,-286.20,M,005.206,N,009.641,K,D*0C
$GPGGA,082326.35,5703.2814888,N,00951.8372378,E,2,11,0.7,-1.060,M,40.593,M,1.8,0123*6C
$GPVTG,354.06,T,-285.84,M,005.242,N,009.708,K,D*0B
$GPGGA,082326.40,5703.2815603,N,00951.8372245,E,2,11,0.7,-1.058,M,40.593,M,1.8,0123*66
$GPVTG,354.49,T,-285.41,M,005.229,N,009.685,K,D*00
$GPGGA,082326.45,5703.2816298,N,00951.8372117,E,2,11,0.7,-1.067,M,40.593,M,2.1,0123*64
$GPVTG,354.74,T,-285.16,M,005.197,N,009.624,K,D*01
$GPGGA,082326.50,5703.2817003,N,00951.8372009,E,2,10,0.7,-1.068,M,40.593,M,2.1,0123*61
$GPVTG,355.30,T,-284.60,M,005.159,N,009.555,K,D*07
$GPGGA,082326.55,5703.2817730,N,00951.8371904,E,2,10,0.7,-1.065,M,40.593,M,2.1,0123*69
$GPVTG,355.72,T,-284.18,M,005.192,N,009.616,K,D*0D
$GPGGA,082326.60,5703.2818450,N,00951.8371808,E,2,10,0.7,-1.064,M,40.593,M,2.1,0123*69
$GPVTG,356.10,T,-283.80,M,005.201,N,009.633,K,D*02
$GPGGA,082326.65,5703.2819158,N,00951.8371732,E,2,10,0.7,-1.067,M,40.593,M,2.3,0123*67
$GPVTG,356.71,T,-283.19,M,005.174,N,009.583,K,D*0C
$GPGGA,082326.70,5703.2819861,N,00951.8371666,E,2,10,0.7,-1.069,M,40.593,M,2.3,0123*6E
$GPVTG,357.25,T,-282.65,M,005.132,N,009.505,K,D*0A
$GPGGA,082326.75,5703.2820576,N,00951.8371605,E,2,10,0.7,-1.071,M,40.593,M,2.3,0123*66
$GPVTG,357.66,T,-282.24,M,005.138,N,009.516,K,D*00
$GPGGA,082326.80,5703.2821293,N,00951.8371566,E,2,10,0.7,-1.072,M,40.593,M,2.3,0123*64
$GPVTG,358.33,T,-281.57,M,005.147,N,009.532,K,D*06
$GPGGA,082326.85,5703.2822004,N,00951.8371540,E,2,10,0.7,-1.076,M,40.593,M,2.6,0123*6B
$GPVTG,358.97,T,-280.93,M,005.160,N,009.557,K,D*07
$GPGGA,082326.90,5703.2822718,N,00951.8371518,E,2,10,0.7,-1.077,M,40.593,M,2.6,0123*69
$GPVTG,359.41,T,-280.49,M,005.157,N,009.551,K,D*08
$GPGGA,082326.95,5703.2823436,N,00951.8371511,E,2,10,0.7,-1.077,M,40.593,M,2.6,0123*6B
$GPVTG,359.95,T,-279.95,M,005.167,N,009.570,K,D*06
$GPGGA,082327.00,5703.2824164,N,00951.8371511,E,2,10,0.7,-1.077,M,40.593,M,2.6,0123*63
$GPVTG,000.37,T,-639.53,M,005.205,N,009.640,K,D*0C
$GPGGA,082327.05,5703.2824895,N,00951.8371524,E,2,10,0.7,-1.070,M,40.593,M,1.5,0123*60
$GPVTG,000.79,T,-639.11,M,005.236,N,009.698,K,D*05
$GPGGA,082327.10,5703.2825598,N,00951.8371555,E,2,10,0.7,-1.072,M,40.593,M,1.5,0123*61
$GPVTG,001.43,T,-638.47,M,005.184,N,009.600,K,D*04
$GPGGA,082327.15,5703.2826311,N,00951.8371579,E,2,10,0.7,-1.071,M,40.593,M,1.5,0123*6D
$GPVTG,001.64,T,-638.26,M,005.169,N,009.572,K,D*03
$GPGGA,082327.20,5703.2827030,N,00951.8371618,E,2,10,0.7,-1.069,M,40.593,M,1.5,0123*67
$GPVTG,001.99,T,-637.91,M,005.178,N,009.589,K,D*06
$GPGGA,082327.25,5703.2827753,N,00951.8371678,E,2,10,0.7,-1.067,M,40.593,M,1.7,0123*6A
$GPVTG,002.64,T,-637.26,M,005.196,N,009.624,K,D*0F
$GPGGA,082327.30,5703.2828482,N,00951.8371756,E,2,10,0.7,-1.069,M,40.593,M,1.7,0123*6D
$GPVTG,003.36,T,-636.54,M,005.230,N,009.685,K,D*09
$GPGGA,082327.35,5703.2829198,N,00951.8371845,E,2,10,0.7,-1.067,M,40.593,M,1.7,0123*64
$GPVTG,004.00,T,-635.90,M,005.219,N,009.666,K,D*06
$GPGGA,082327.40,5703.2829897,N,00951.8371939,E,2,10,0.7,-1.066,M,40.593,M,1.7,0123*6B
$GPVTG,004.50,T,-635.40,M,005.159,N,009.554,K,D*0B
$GPGGA,082327.45,5703.2830612,N,00951.8372035,E,2,10,0.7,-1.067,M,40.593,M,1.9,0123*6C
$GPVTG,004.69,T,-635.21,M,005.158,N,009.553,K,D*00
$GPGGA,082327.50,5703.2831316,N,00951.8372157,E,2,10,0.7,-1.068,M,40.593,M,1.9,0123*62
$GPVTG,005.40,T,-634.50,M,005.132,N,009.505,K,D*02
$GPGGA,082327.55,5703.2832025,N,00951.8372294,E,2,10,0.7,-1.070,M,40.593,M,1.9,0123*62
$GPVTG,006.09,T,-633.82,M,005.131,N,009.503,K,D*01
$GPGGA,082327.60,5703.2832728,N,00951.8372448,E,2,10,0.7,-1.071,M,40.593,M,1.9,0123*68
$GPVTG,006.86,T,-633.04,M,005.119,N,009.481,K,D*09
$GPGGA,082327.65,5703.2833458,N,00951.8372603,E,2,10,0.7,-1.063,M,40.593,M,2.1,0123*6D
$GPVTG,007.29,T,-632.61,M,005.153,N,009.543,K,D*0E
$GPGGA,082327.70,5703.2834178,N,00951.8372771,E,2,10,0.7,-1.064,M,40.593,M,2.1,0123*6A
$GPVTG,007.72,T,-632.18,M,005.188,N,009.608,K,D*04
$GPGGA,082327.75,5703.2834888,N,00951.8372948,E,2,10,0.7,-1.062,M,40.593,M,2.1,0123*6B
$GPVTG,008.12,T,-631.78,M,005.188,N,009.608,K,D*08
$GPGGA,082327.80,5703.2835593,N,00951.8373130,E,2,10,0.7,-1.061,M,40.593,M,2.1,0123*62
$GPVTG,008.43,T,-631.47,M,005.172,N,009.578,K,D*01
$GPGGA,082327.85,5703.2836285,N,00951.8373322,E,2,10,0.7,-1.064,M,40.593,M,2.3,0123*62
$GPVTG,008.76,T,-631.14,M,005.149,N,009.535,K,D*00
$GPGGA,082327.90,5703.2836989,N,00951.8373532,E,2,10,0.7,-1.064,M,40.593,M,2.3,0123*66
$GPVTG,009.32,T,-630.58,M,005.146,N,009.530,K,D*02
$GPGGA,082327.95,5703.2837697,N,00951.8373764,E,2,10,0.7,-1.065,M,40.593,M,2.3,0123*62
$GPVTG,010.08,T,-629.82,M,005.164,N,009.564,K,D*0D
$GPGGA,082328.00,5703.2838401,N,00951.8374010,E,2,10,0.7,-1.069,M,40.593,M,2.3,0123*6C
$GPVTG,010.82,T,-629.08,M,005.170,N,009.575,K,D*08
$GPGGA,082328.05,5703.2839100,N,00951.8374261,E,2,10,0.7,-1.068,M,40.593,M,2.2,0123*68
$GPVTG,011.27,T,-628.63,M,005.178,N,009.589,K,D*01
$GPGGA,082328.10,5703.2839807,N,00951.8374514,E,2,10,0.7,-1.067,M,40.593,M,2.2,0123*68
$GPVTG,011.56,T,-628.34,M,005.190,N,009.611,K,D*01
$GPGGA,082328.15,5703.2840512,N,00951.8374777,E,2,10,0.7,-1.068,M,40.593,M,2.2,0123*62
$GPVTG,011.89,T,-628.01,M,005.195,N,009.622,K,D*00
$GPGGA,082328.20,5703.2841207,N,00951.8375059,E,2,10,0.7,-1.070,M,40.593,M,2.2,0123*65
$GPVTG,012.49,T,-627.41,M,005.177,N,009.589,K,D*0A
$GPGGA,082328.25,5703.2841906,N,00951.8375350,E,2,10,0.7,-1.070,M,40.593,M,2.4,0123*66
$GPVTG,013.03,T,-626.87,M,005.167,N,009.570,K,D*09
$GPGGA,082328.30,5703.2842602,N,00951.8375646,E,2,10,0.7,-1.072,M,40.593,M,2.4,0123*6A
$GPVTG,013.40,T,-626.50,M,005.163,N,009.561,K,D*00
$GPGGA,082328.35,5703.2843312,N,00951.8375948,E,2,10,0.7,-1.073,M,40.593,M,2.4,0123*6A
$GPVTG,013.60,T,-626.30,M,005.200,N,009.631,K,D*04
$GPGGA,082328.40,5703.2844017,N,00951.8376274,E,2,10,0.7,-1.074,M,40.593,M,2.4,0123*69
$GPVTG,014.17,T,-625.73,M,005.226,N,009.678,K,D*0E
$GPGGA,082328.45,5703.2844695,N,00951.8376628,E,2,10,0.7,-1.081,M,40.593,M,2.6,0123*65
$GPVTG,015.20,T,-624.70,M,005.211,N,009.650,K,D*07
$GPGGA,082328.50,5703.2845387,N,00951.8376987,E,2,10,0.7,-1.083,M,40.593,M,2.6,0123*6E
$GPVTG,015.92,T,-623.98,M,005.211,N,009.650,K,D*0F
$GPGGA,082328.55,5703.2846080,N,00951.8377340,E,2,10,0.7,-1.086,M,40.593,M,2.6,0123*69
$GPVTG,016.17,T,-623.73,M,005.204,N,009.639,K,D*0F
$GPGGA,082328.60,5703.2846773,N,00951.8377702,E,2,10,0.7,-1.088,M,40.593,M,2.6,0123*68
$GPVTG,016.43,T,-623.47,M,005.203,N,009.635,K,D*02
$GPGGA,082328.65,5703.2847487,N,00951.8378084,E,2,10,0.7,-1.080,M,40.593,M,2.8,0123*64
$GPVTG,016.89,T,-623.01,M,005.231,N,009.689,K,D*00
$GPGGA,082328.70,5703.2848176,N,00951.8378481,E,2,10,0.7,-1.079,M,40.593,M,2.8,0123*63
$GPVTG,017.49,T,-622.41,M,005.231,N,009.687,K,D*06
$GPGGA,082328.75,5703.2848864,N,00951.8378886,E,2,10,0.7,-1.079,M,40.593,M,2.8,0123*67
$GPVTG,017.99,T,-621.91,M,005.230,N,009.687,K,D*04
$GPGGA,082328.80,5703.2849560,N,00951.8379301,E,2,10,0.7,-1.078,M,40.593,M,2.8,0123*61
$GPVTG,018.38,T,-621.52,M,005.255,N,009.732,K,D*03
$GPGGA,082328.85,5703.2850251,N,00951.8379723,E,2,10,0.7,-1.078,M,40.593,M,3.1,0123*65
$GPVTG,018.65,T,-621.25,M,005.283,N,009.785,K,D*0C
$GPGGA,082328.90,5703.2850940,N,00951.8380156,E,2,10,0.7,-1.077,M,40.593,M,3.1,0123*67
$GPVTG,019.09,T,-620.81,M,005.283,N,009.784,K,D*09
$GPGGA,082328.95,5703.2851625,N,00951.8380585,E,2,10,0.7,-1.078,M,40.593,M,3.1,0123*6A
$GPVTG,019.26,T,-620.64,M,005.264,N,009.748,K,D*06
$GPGGA,082329.00,5703.2852312,N,00951.8381043,E,2,10,0.7,-1.077,M,40.593,M,3.1,0123*64
$GPVTG,019.89,T,-620.01,M,005.274,N,009.768,K,D*03
$GPGGA,082329.05,5703.2852986,N,00951.8381513,E,2,10,0.7,-1.076,M,40.593,M,3.3,0123*65
$GPVTG,020.46,T,-619.44,M,005.273,N,009.766,K,D*08
$GPGGA,082329.10,5703.2853670,N,00951.8381994,E,2,10,0.7,-1.075,M,40.593,M,3.3,0123*66
$GPVTG,021.05,T,-618.85,M,005.283,N,009.785,K,D*00
$GPGGA,082329.15,5703.2854350,N,00951.8382481,E,2,10,0.7,-1.075,M,40.593,M,3.3,0123*69
$GPVTG,021.56,T,-618.34,M,005.281,N,009.780,K,D*0B
$GPGGA,082329.20,5703.2855025,N,00951.8382978,E,2,10,0.7,-1.072,M,40.593,M,3.3,0123*63
$GPVTG,022.05,T,-617.85,M,005.274,N,009.768,K,D*07
$GPGGA,082329.25,5703.2855706,N,00951.8383474,E,2,10,0.7,-1.070,M,40.593,M,3.5,0123*64
$GPVTG,022.25,T,-617.65,M,005.277,N,009.773,K,D*02
$GPGGA,082329.30,5703.2856375,N,00951.8383982,E,2,10,0.7,-1.072,M,40.593,M,3.5,0123*65
$GPVTG,022.65,T,-617.25,M,005.258,N,009.737,K,D*0F
$GPGGA,082329.35,5703.2857039,N,00951.8384518,E,2,10,0.7,-1.075,M,40.593,M,3.5,0123*65
$GPVTG,023.49,T,-616.41,M,005.248,N,009.719,K,D*0E
$GPGGA,082329.40,5703.2857701,N,00951.8385084,E,2,10,0.7,-1.079,M,40.593,M,3.5,0123*66
$GPVTG,024.62,T,-615.28,M,005.261,N,009.743,K,D*08
$GPGGA,082329.45,5703.2858370,N,00951.8385654,E,2,10,0.7,-1.077,M,40.593,M,3.7,0123*69
$GPVTG,025.37,T,-614.53,M,005.272,N,009.764,K,D*03
$GPGGA,082329.50,5703.2859029,N,00951.8386229,E,2,10,0.7,-1.077,M,40.593,M,3.7,0123*6E
$GPVTG,025.92,T,-613.98,M,005.273,N,009.766,K,D*0F
$GPGGA,082329.55,5703.2859690,N,00951.8386807,E,2,10,0.7,-1.078,M,40.593,M,3.7,0123*66
$GPVTG,026.19,T,-613.71,M,005.278,N,009.776,K,D*02
$GPGGA,082329.60,5703.2860347,N,00951.8387389,E,2,10,0.7,-1.076,M,40.593,M,3.7,0123*67
$GPVTG,026.41,T,-613.49,M,005.274,N,009.767,K,D*08
$GPGGA,082329.65,5703.2860992,N,00951.8387962,E,2,10,0.7,-1.078,M,40.593,M,3.9,0123*6F
$GPVTG,026.42,T,-613.48,M,005.231,N,009.688,K,D*0B
$GPGGA,082329.70,5703.2861633,N,00951.8388554,E,2,10,0.7,-1.078,M,40.593,M,3.9,0123*68
$GPVTG,026.81,T,-613.09,M,005.203,N,009.637,K,D*04
$GPGGA,082329.75,5703.2862281,N,00951.8389163,E,2,10,0.7,-1.080,M,40.593,M,3.9,0123*65
$GPVTG,027.28,T,-612.62,M,005.215,N,009.658,K,D*04
$GPGGA,082329.80,5703.2862925,N,00951.8389785,E,2,10,0.7,-1.079,M,40.593,M,3.9,0123*62
$GPVTG,027.80,T,-612.10,M,005.228,N,009.682,K,D*0A
$GPGGA,082329.85,5703.2863562,N,00951.8390410,E,2,10,0.7,-1.081,M,40.593,M,4.1,0123*66
$GPVTG,028.22,T,-611.68,M,005.233,N,009.692,K,D*0A
$GPGGA,082329.90,5703.2864201,N,00951.8391042,E,2,10,0.7,-1.078,M,40.593,M,4.1,0123*63
$GPVTG,028.60,T,-611.30,M,005.233,N,009.692,K,D*01
$GPGGA,082329.95,5703.2864832,N,00951.8391677,E,2,10,0.7,-1.077,M,40.593,M,4.1,0123*63
$GPVTG,028.95,T,-610.95,M,005.217,N,009.663,K,D*0D
$GPGGA,082330.00,5703.2865456,N,00951.8392337,E,2,10,0.7,-1.077,M,40.593,M,4.1,0123*6A
$GPVTG,029.71,T,-610.19,M,005.209,N,009.646,K,D*0A
$GPGGA,082330.05,5703.2866066,N,00951.8392997,E,2,11,0.7,-1.079,M,40.593,M,1.6,0123*66
$GPVTG,030.07,T,-609.83,M,005.218,N,009.664,K,D*08
$GPGGA,082330.10,5703.2866692,N,00951.8393677,E,2,11,0.7,-1.079,M,40.593,M,1.6,0123*6F
$GPVTG,030.67,T,-609.23,M,005.232,N,009.690,K,D*07
$GPGGA,082330.15,5703.2867315,N,00951.8394357,E,2,11,0.7,-1.077,M,40.593,M,1.6,0123*6F
$GPVTG,031.09,T,-608.81,M,005.233,N,009.691,K,D*07
$GPGGA,082330.20,5703.2867928,N,00951.8395046,E,2,11,0.7,-1.079,M,40.593,M,1.6,0123*61
$GPVTG,031.62,T,-608.28,M,005.215,N,009.658,K,D*08
$GPGGA,082330.25,5703.2868551,N,00951.8395743,E,2,11,0.7,-1.081,M,40.593,M,1.8,0123*62
$GPVTG,031.94,T,-607.96,M,005.231,N,009.687,K,D*0F
$GPGGA,082330.30,5703.2869166,N,00951.8396443,E,2,11,0.7,-1.083,M,40.593,M,1.8,0123*65
$GPVTG,032.22,T,-607.68,M,005.226,N,009.679,K,D*07
$GPGGA,082330.35,5703.2869771,N,00951.8397170,E,2,11,0.7,-1.085,M,40.593,M,1.8,0123*62
$GPVTG,033.00,T,-606.90,M,005.225,N,009.678,K,D*02
$GPGGA,082330.40,5703.2870376,N,00951.8397911,E,2,11,0.7,-1.085,M,40.593,M,1.8,0123*64
$GPVTG,033.72,T,-606.18,M,005.239,N,009.703,K,D*07
$GPGGA,082330.45,5703.2870973,N,00951.8398648,E,2,11,0.7,-1.085,M,40.593,M,2.1,0123*68
$GPVTG,034.23,T,-605.67,M,005.214,N,009.657,K,D*00
$GPGGA,082330.50,5703.2871575,N,00951.8399391,E,2,11,0.7,-1.083,M,40.593,M,2.1,0123*61
$GPVTG,034.51,T,-605.39,M,005.221,N,009.669,K,D*05
$GPGGA,082330.55,5703.2872177,N,00951.8400132,E,2,11,0.7,-1.083,M,40.593,M,2.1,0123*6D
$GPVTG,034.57,T,-605.33,M,005.220,N,009.667,K,D*06
$GPGGA,082330.60,5703.2872767,N,00951.8400888,E,2,11,0.7,-1.085,M,40.593,M,2.1,0123*62
$GPVTG,035.01,T,-604.89,M,005.208,N,009.645,K,D*0E
$GPGGA,082330.65,5703.2873351,N,00951.8401665,E,2,11,0.7,-1.085,M,40.593,M,2.3,0123*69
$GPVTG,035.79,T,-604.11,M,005.208,N,009.645,K,D*00
$GPGGA,082330.70,5703.2873939,N,00951.8402449,E,2,11,0.7,-1.085,M,40.593,M,2.3,0123*66
$GPVTG,036.26,T,-603.64,M,005.222,N,009.672,K,D*00
$GPGGA,082330.75,5703.2874524,N,00951.8403240,E,2,11,0.7,-1.084,M,40.593,M,2.3,0123*6B
$GPVTG,036.72,T,-603.18,M,005.233,N,009.691,K,D*07
$GPGGA,082330.80,5703.2875087,N,00951.8404034,E,2,11,0.7,-1.087,M,40.593,M,2.3,0123*69
$GPVTG,037.40,T,-602.50,M,005.191,N,009.614,K,D*0C
$GPGGA,082330.85,5703.2875668,N,00951.8404833,E,2,11,0.7,-1.081,M,40.593,M,2.6,0123*67
$GPVTG,037.76,T,-602.14,M,005.183,N,009.598,K,D*0D
$GPGGA,082330.90,5703.2876235,N,00951.8405636,E,2,11,0.7,-1.079,M,40.593,M,2.6,0123*61
$GPVTG,038.09,T,-601.81,M,005.170,N,009.575,K,D*0A
$GPGGA,082330.95,5703.2876796,N,00951.8406443,E,2,11,0.7,-1.077,M,40.593,M,2.6,0123*65
$GPVTG,038.42,T,-601.48,M,005.150,N,009.538,K,D*0B
$GPGGA,082331.00,5703.2877345,N,00951.8407263,E,2,11,0.7,-1.075,M,40.593,M,2.6,0123*64
$GPVTG,039.08,T,-600.82,M,005.125,N,009.492,K,D*00
$GPGGA,082331.05,5703.2877893,N,00951.8408113,E,2,11,0.7,-1.071,M,40.593,M,1.5,0123*6E
$GPVTG,039.68,T,-600.22,M,005.161,N,009.558,K,D*0B
$GPGGA,082331.10,5703.2878451,N,00951.8408976,E,2,11,0.7,-1.071,M,40.593,M,1.5,0123*6C
$GPVTG,040.31,T,-599.59,M,005.210,N,009.648,K,D*01
$GPGGA,082331.15,5703.2879003,N,00951.8409833,E,2,11,0.7,-1.072,M,40.593,M,1.5,0123*69
$GPVTG,040.70,T,-599.20,M,005.218,N,009.664,K,D*0C
$GPGGA,082331.20,5703.2879548,N,00951.8410699,E,2,11,0.7,-1.072,M,40.593,M,1.5,0123*63
$GPVTG,041.16,T,-598.74,M,005.219,N,009.665,K,D*0D
$GPGGA,082331.25,5703.2880077,N,00951.8411576,E,2,11,0.7,-1.076,M,40.593,M,1.7,0123*6C
$GPVTG,041.81,T,-598.09,M,005.206,N,009.641,K,D*01
$GPGGA,082331.30,5703.2880607,N,00951.8412450,E,2,11,0.7,-1.078,M,40.593,M,1.7,0123*61
$GPVTG,042.26,T,-597.64,M,005.180,N,009.594,K,D*0D
$GPGGA,082331.35,5703.2881139,N,00951.8413352,E,2,11,0.7,-1.080,M,40.593,M,1.7,0123*6C
$GPVTG,042.88,T,-597.02,M,005.201,N,009.632,K,D*0C
$GPGGA,082331.40,5703.2881665,N,00951.8414249,E,2,11,0.7,-1.084,M,40.593,M,1.7,0123*68
$GPVTG,043.27,T,-596.63,M,005.194,N,009.620,K,D*02
$GPGGA,082331.45,5703.2882190,N,00951.8415143,E,2,11,0.7,-1.083,M,40.593,M,1.9,0123*62
$GPVTG,043.58,T,-596.32,M,005.169,N,009.573,K,D*09
$GPGGA,082331.50,5703.2882703,N,00951.8416056,E,2,11,0.7,-1.083,M,40.593,M,1.9,0123*6C
$GPVTG,044.17,T,-595.73,M,005.161,N,009.558,K,D*02
$GPGGA,082331.55,5703.2883213,N,00951.8416979,E,2,11,0.7,-1.081,M,40.593,M,1.9,0123*6A
$GPVTG,044.77,T,-595.13,M,005.160,N,009.556,K,D*0D
$GPGGA,082331.60,5703.2883720,N,00951.8417897,E,2,11,0.7,-1.083,M,40.593,M,1.9,0123*6B
$GPVTG,045.07,T,-594.83,M,005.147,N,009.533,K,D*05
$GPGGA,082331.65,5703.2884214,N,00951.8418836,E,2,11,0.7,-1.085,M,40.593,M,2.1,0123*62
$GPVTG,045.85,T,-594.05,M,005.139,N,009.518,K,D*01
$GPGGA,082331.70,5703.2884710,N,00951.8419781,E,2,11,0.7,-1.084,M,40.593,M,2.1,0123*64
$GPVTG,046.36,T,-593.54,M,005.146,N,009.531,K,D*0A
$GPGGA,082331.75,5703.2885189,N,00951.8420735,E,2,11,0.7,-1.087,M,40.593,M,2.1,0123*60
$GPVTG,047.21,T,-592.69,M,005.124,N,009.490,K,D*0C
$GPGGA,082331.80,5703.2885674,N,00951.8421705,E,2,11,0.7,-1.089,M,40.593,M,2.1,0123*63
$GPVTG,047.80,T,-592.10,M,005.146,N,009.530,K,D*06
$GPGGA,082331.85,5703.2886160,N,00951.8422685,E,2,11,0.7,-1.088,M,40.593,M,2.3,0123*6E
$GPVTG,048.43,T,-591.47,M,005.159,N,009.555,K,D*0A
$GPGGA,082331.90,5703.2886643,N,00951.8423670,E,2,11,0.7,-1.088,M,40.593,M,2.3,0123*67
$GPVTG,048.73,T,-591.17,M,005.185,N,009.603,K,D*0D
$GPGGA,082331.95,5703.2887113,N,00951.8424671,E,2,11,0.7,-1.091,M,40.593,M,2.3,0123*6F
$GPVTG,049.38,T,-590.52,M,005.196,N,009.623,K,D*03
$GPGGA,082332.00,5703.2887580,N,00951.8425664,E,2,11,0.7,-1.093,M,40.593,M,2.3,0123*69
$GPVTG,049.74,T,-590.16,M,005.185,N,009.602,K,D*0A
$GPGGA,082332.05,5703.2888038,N,00951.8426681,E,2,11,0.7,-1.089,M,40.593,M,2.2,0123*67
$GPVTG,050.34,T,-589.56,M,005.196,N,009.623,K,D*0B
$GPGGA,082332.10,5703.2888496,N,00951.8427700,E,2,11,0.7,-1.093,M,40.593,M,2.2,0123*61
$GPVTG,050.82,T,-589.08,M,005.200,N,009.630,K,D*03
$GPGGA,082332.15,5703.2888942,N,00951.8428724,E,2,11,0.7,-1.095,M,40.593,M,2.2,0123*6F
$GPVTG,051.44,T,-588.46,M,005.184,N,009.601,K,D*0E
$GPGGA,082332.20,5703.2889394,N,00951.8429746,E,2,11,0.7,-1.094,M,40.593,M,2.2,0123*6D
$GPVTG,051.61,T,-588.29,M,005.181,N,009.594,K,D*0A
$GPGGA,082332.25,5703.2889839,N,00951.8430772,E,2,11,0.7,-1.092,M,40.593,M,2.4,0123*6B
$GPVTG,052.10,T,-587.80,M,005.154,N,009.546,K,D*04
$GPGGA,082332.30,5703.2890272,N,00951.8431812,E,2,11,0.7,-1.093,M,40.593,M,2.4,0123*6B
$GPVTG,052.67,T,-587.23,M,005.147,N,009.533,K,D*0D
$GPGGA,082332.35,5703.2890710,N,00951.8432857,E,2,11,0.7,-1.093,M,40.593,M,2.4,0123*6D
$GPVTG,053.00,T,-586.90,M,005.157,N,009.551,K,D*01
$GPGGA,082332.40,5703.2891150,N,00951.8433929,E,2,11,0.7,-1.092,M,40.593,M,2.4,0123*64
$GPVTG,053.39,T,-586.51,M,005.212,N,009.653,K,D*05
$GPGGA,082332.45,5703.2891566,N,00951.8434998,E,2,11,0.7,-1.093,M,40.593,M,2.6,0123*6E
$GPVTG,054.05,T,-585.85,M,005.211,N,009.651,K,D*06
$GPGGA,082332.50,5703.2891987,N,00951.8436069,E,2,11,0.7,-1.091,M,40.593,M,2.6,0123*6E
$GPVTG,054.49,T,-585.41,M,005.209,N,009.647,K,D*08
$GPGGA,082332.55,5703.2892393,N,00951.8437148,E,2,11,0.7,-1.089,M,40.593,M,2.6,0123*6D
$GPVTG,055.20,T,-584.70,M,005.192,N,009.616,K,D*00
$GPGGA,082332.60,5703.2892796,N,00951.8438236,E,2,11,0.7,-1.090,M,40.593,M,2.6,0123*67
$GPVTG,055.87,T,-584.03,M,005.185,N,009.603,K,D*0B
$GPGGA,082332.65,5703.2893211,N,00951.8439313,E,2,11,0.7,-1.087,M,40.593,M,2.8,0123*66
$GPVTG,055.94,T,-583.96,M,005.182,N,009.596,K,D*0A
$GPGGA,082332.70,5703.2893602,N,00951.8440408,E,2,11,0.7,-1.087,M,40.593,M,2.8,0123*67
$GPVTG,056.63,T,-583.27,M,005.169,N,009.572,K,D*04
$GPGGA,082332.75,5703.2893990,N,00951.8441518,E,2,11,0.7,-1.085,M,40.593,M,2.8,0123*65
$GPVTG,057.33,T,-582.57,M,005.175,N,009.585,K,D*03
$GPGGA,082332.80,5703.2894382,N,00951.8442606,E,2,11,0.7,-1.083,M,40.593,M,2.8,0123*68
$GPVTG,057.38,T,-582.52,M,005.151,N,009.540,K,D*02
$GPGGA,082332.85,5703.2894764,N,00951.8443690,E,2,11,0.7,-1.080,M,40.593,M,3.1,0123*64
$GPVTG,057.66,T,-582.24,M,005.103,N,009.451,K,D*0E
$GPGGA,082332.90,5703.2895126,N,00951.8444791,E,2,11,0.7,-1.079,M,40.593,M,3.1,0123*60
$GPVTG,058.47,T,-581.43,M,005.074,N,009.397,K,D*0C
$GPGGA,082332.95,5703.2895502,N,00951.8445903,E,2,11,0.7,-1.076,M,40.593,M,3.1,0123*6C
$GPVTG,058.77,T,-581.13,M,005.091,N,009.429,K,D*03
$GPGGA,082333.00,5703.2895880,N,00951.8447016,E,2,11,0.7,-1.072,M,40.593,M,3.1,0123*6D
$GPVTG,058.87,T,-581.03,M,005.110,N,009.463,K,D*0B
$GPGGA,082333.05,5703.2896237,N,00951.8448129,E,2,11,0.7,-1.066,M,40.593,M,3.3,0123*68
$GPVTG,059.25,T,-580.65,M,005.090,N,009.427,K,D*0A
$GPGGA,082333.10,5703.2896596,N,00951.8449241,E,2,11,0.7,-1.062,M,40.593,M,3.3,0123*68
$GPVTG,059.59,T,-580.31,M,005.080,N,009.408,K,D*0C
$GPGGA,082333.15,5703.2896954,N,00951.8450361,E,2,11,0.7,-1.058,M,40.593,M,3.3,0123*6D
$GPVTG,059.90,T,-580.00,M,005.086,N,009.419,K,D*0D
$GPGGA,082333.20,5703.2897300,N,00951.8451500,E,2,11,0.7,-1.058,M,40.593,M,3.3,0123*61
$GPVTG,060.59,T,-579.31,M,005.105,N,009.454,K,D*05
$GPGGA,082333.25,5703.2897616,N,00951.8452636,E,2,11,0.7,-1.069,M,40.593,M,3.5,0123*67
$GPVTG,061.22,T,-578.68,M,005.113,N,009.469,K,D*0C
$GPGGA,082333.30,5703.2897957,N,00951.8453766,E,2,11,0.7,-1.071,M,40.593,M,3.5,0123*65
$GPVTG,061.51,T,-578.39,M,005.098,N,009.442,K,D*07
$GPGGA,082333.35,5703.2898289,N,00951.8454915,E,2,11,0.7,-1.070,M,40.593,M,3.5,0123*6B
$GPVTG,062.07,T,-577.83,M,005.107,N,009.458,K,D*05
$GPGGA,082333.40,5703.2898605,N,00951.8456072,E,2,11,0.7,-1.070,M,40.593,M,3.5,0123*63
$GPVTG,063.00,T,-576.90,M,005.102,N,009.450,K,D*0D
$GPGGA,082333.45,5703.2898919,N,00951.8457223,E,2,11,0.7,-1.067,M,40.593,M,3.7,0123*67
$GPVTG,063.82,T,-576.08,M,005.071,N,009.392,K,D*0A
$GPGGA,082333.50,5703.2899213,N,00951.8458370,E,2,11,0.7,-1.068,M,40.593,M,3.7,0123*64
$GPVTG,064.67,T,-575.23,M,005.029,N,009.314,K,D*0F
$GPGGA,082333.55,5703.2899509,N,00951.8459522,E,2,11,0.7,-1.068,M,40.593,M,3.7,0123*6D
$GPVTG,065.24,T,-574.66,M,005.009,N,009.276,K,D*0E
$GPGGA,082333.60,5703.2899806,N,00951.8460690,E,2,11,0.7,-1.067,M,40.593,M,3.7,0123*66
$GPVTG,065.66,T,-574.24,M,005.025,N,009.306,K,D*06
$GPGGA,082333.65,5703.2900094,N,00951.8461877,E,2,11,0.7,-1.069,M,40.593,M,3.9,0123*67
$GPVTG,066.23,T,-573.67,M,005.065,N,009.381,K,D*0F
$GPGGA,082333.70,5703.2900385,N,00951.8463046,E,2,11,0.7,-1.069,M,40.593,M,3.9,0123*68
$GPVTG,066.36,T,-573.54,M,005.059,N,009.369,K,D*02
$GPGGA,082333.75,5703.2900666,N,00951.8464229,E,2,11,0.7,-1.070,M,40.593,M,3.9,0123*61
$GPVTG,066.80,T,-573.10,M,005.067,N,009.384,K,D*01
$GPGGA,082333.80,5703.2900926,N,00951.8465405,E,2,11,0.7,-1.072,M,40.593,M,3.9,0123*6B
$GPVTG,067.62,T,-572.28,M,005.034,N,009.324,K,D*0A
$GPGGA,082333.85,5703.2901192,N,00951.8466566,E,2,11,0.7,-1.072,M,40.593,M,4.1,0123*60
$GPVTG,068.09,T,-571.81,M,004.980,N,009.222,K,D*08
$GPGGA,082333.90,5703.2901459,N,00951.8467746,E,2,11,0.7,-1.068,M,40.593,M,4.1,0123*6C
$GPVTG,068.27,T,-571.63,M,004.985,N,009.233,K,D*0D
$GPGGA,082333.95,5703.2901713,N,00951.8468931,E,2,11,0.7,-1.068,M,40.593,M,4.1,0123*65
$GPVTG,068.75,T,-571.15,M,004.987,N,009.237,K,D*0D
$GPGGA,082334.00,5703.2901956,N,00951.8470110,E,2,11,0.7,-1.069,M,40.593,M,4.1,0123*62
$GPVTG,069.33,T,-570.57,M,004.967,N,009.200,K,D*03
$GPGGA,082334.05,5703.2902160,N,00951.8471313,E,2,11,0.7,-1.076,M,40.593,M,1.6,0123*65
$GPVTG,070.30,T,-569.60,M,004.979,N,009.222,K,D*0B
$GPGGA,082334.10,5703.2902374,N,00951.8472513,E,2,11,0.7,-1.078,M,40.593,M,1.6,0123*6D
$GPVTG,071.41,T,-568.49,M,004.973,N,009.210,K,D*0D
$GPGGA,082334.15,5703.2902592,N,00951.8473708,E,2,10,0.7,-1.081,M,40.593,M,1.6,0123*68
$GPVTG,071.99,T,-567.91,M,004.961,N,009.188,K,D*03
$GPGGA,082334.20,5703.2902817,N,00951.8474908,E,2,10,0.7,-1.081,M,40.593,M,1.6,0123*67
$GPVTG,072.16,T,-567.74,M,004.968,N,009.201,K,D*07
$GPGGA,082334.25,5703.2903032,N,00951.8476105,E,2,10,0.7,-1.080,M,40.593,M,1.8,0123*64
$GPVTG,072.46,T,-567.44,M,004.959,N,009.184,K,D*0D
$GPGGA,082334.30,5703.2903244,N,00951.8477296,E,2,10,0.7,-1.080,M,40.593,M,1.8,0123*6B
$GPVTG,072.63,T,-567.27,M,004.939,N,009.148,K,D*09
$GPGGA,082334.35,5703.2903454,N,00951.8478481,E,2,10,0.7,-1.079,M,40.593,M,1.8,0123*60
$GPVTG,072.72,T,-567.18,M,004.912,N,009.097,K,D*0F
$GPGGA,082334.40,5703.2903648,N,00951.8479684,E,2,10,0.7,-1.077,M,40.593,M,1.8,0123*65
$GPVTG,073.34,T,-566.56,M,004.913,N,009.100,K,D*09
$GPGGA,082334.45,5703.2903850,N,00951.8480894,E,2,10,0.7,-1.074,M,40.593,M,2.1,0123*67
$GPVTG,073.69,T,-566.21,M,004.932,N,009.133,K,D*02
$GPGGA,082334.50,5703.2904030,N,00951.8482080,E,2,10,0.7,-1.078,M,40.593,M,2.1,0123*69
$GPVTG,074.30,T,-565.60,M,004.886,N,009.049,K,D*0D
$GPGGA,082334.55,5703.2904207,N,00951.8483300,E,2,10,0.7,-1.077,M,40.593,M,2.1,0123*6F
$GPVTG,075.00,T,-564.90,M,004.915,N,009.103,K,D*05
$GPGGA,082334.60,5703.2904385,N,00951.8484517,E,2,10,0.7,-1.077,M,40.593,M,2.1,0123*65
$GPVTG,075.41,T,-564.49,M,004.934,N,009.137,K,D*00
$GPGGA,082334.65,5703.2904534,N,00951.8485745,E,2,10,0.7,-1.081,M,40.593,M,2.3,0123*63
$GPVTG,076.38,T,-563.52,M,004.953,N,009.173,K,D*01
$GPGGA,082334.70,5703.2904681,N,00951.8486955,E,2,10,0.7,-1.082,M,40.593,M,2.3,0123*65
$GPVTG,077.28,T,-562.62,M,004.923,N,009.117,K,D*06
$GPGGA,082334.75,5703.2904832,N,00951.8488168,E,2,10,0.7,-1.080,M,40.593,M,2.3,0123*6C
$GPVTG,077.73,T,-562.17,M,004.907,N,009.088,K,D*0B
$GPGGA,082334.80,5703.2904976,N,00951.8489385,E,2,10,0.7,-1.080,M,40.593,M,2.3,0123*67
$GPVTG,078.22,T,-561.68,M,004.898,N,009.071,K,D*0A
$GPGGA,082334.85,5703.2905113,N,00951.8490606,E,2,11,0.7,-1.082,M,40.593,M,2.6,0123*68
$GPVTG,078.67,T,-561.23,M,004.899,N,009.073,K,D*07
$GPGGA,082334.90,5703.2905231,N,00951.8491843,E,2,11,0.7,-1.087,M,40.593,M,2.6,0123*64
$GPVTG,079.68,T,-560.22,M,004.917,N,009.106,K,D*0D
$GPGGA,082334.95,5703.2905359,N,00951.8493083,E,2,11,0.7,-1.088,M,40.593,M,2.6,0123*67
$GPVTG,080.03,T,-559.87,M,004.941,N,009.151,K,D*02
$GPGGA,082335.00,5703.2905476,N,00951.8494305,E,2,11,0.7,-1.090,M,40.593,M,2.6,0123*63
$GPVTG,080.50,T,-559.40,M,004.916,N,009.104,K,D*0D
$GPGGA,082335.05,5703.2905573,N,00951.8495537,E,2,11,0.7,-1.089,M,40.593,M,1.5,0123*6C
$GPVTG,081.12,T,-558.78,M,004.902,N,009.079,K,D*0E
$GPGGA,082335.10,5703.2905672,N,00951.8496752,E,2,11,0.7,-1.088,M,40.593,M,1.5,0123*69
$GPVTG,081.72,T,-558.18,M,004.865,N,009.010,K,D*01
$GPGGA,082335.15,5703.2905768,N,00951.8497971,E,2,11,0.7,-1.090,M,40.593,M,1.5,0123*61
$GPVTG,082.20,T,-557.70,M,004.847,N,008.976,K,D*0C
$GPGGA,082335.20,5703.2905872,N,00951.8499199,E,2,11,0.7,-1.086,M,40.593,M,1.5,0123*64
$GPVTG,082.24,T,-557.66,M,004.856,N,008.992,K,D*05
$GPGGA,082335.25,5703.2905953,N,00951.8500424,E,2,11,0.7,-1.089,M,40.593,M,1.7,0123*6C
$GPVTG,082.61,T,-557.29,M,004.855,N,008.991,K,D*0F
$GPGGA,082335.30,5703.2906041,N,00951.8501636,E,2,11,0.7,-1.091,M,40.593,M,1.7,0123*68
$GPVTG,082.89,T,-557.01,M,004.826,N,008.939,K,D*05
$GPGGA,082335.35,5703.2906113,N,00951.8502854,E,2,11,0.7,-1.091,M,40.593,M,1.7,0123*62
$GPVTG,083.59,T,-556.31,M,004.815,N,008.917,K,D*07
$GPGGA,082335.40,5703.2906183,N,00951.8504089,E,2,11,0.7,-1.093,M,40.593,M,1.7,0123*65
$GPVTG,084.16,T,-555.74,M,004.840,N,008.963,K,D*0A
$GPGGA,082335.45,5703.2906253,N,00951.8505322,E,2,11,0.7,-1.093,M,40.593,M,1.9,0123*63
$GPVTG,084.59,T,-555.31,M,004.856,N,008.993,K,D*08
$GPGGA,082335.50,5703.2906306,N,00951.8506559,E,2,11,0.7,-1.095,M,40.593,M,1.9,0123*69
$GPVTG,085.36,T,-554.54,M,004.869,N,009.018,K,D*05
$GPGGA,082335.55,5703.2906345,N,00951.8507790,E,2,11,0.7,-1.096,M,40.593,M,1.9,0123*6E
$GPVTG,086.31,T,-553.59,M,004.863,N,009.007,K,D*0F
$GPGGA,082335.60,5703.2906379,N,00951.8509030,E,2,11,0.7,-1.096,M,40.593,M,1.9,0123*64
$GPVTG,087.11,T,-552.79,M,004.876,N,009.030,K,D*0F
$GPGGA,082335.65,5703.2906413,N,00951.8510264,E,2,11,0.7,-1.093,M,40.593,M,2.1,0123*6F
$GPVTG,087.90,T,-552.00,M,004.870,N,009.019,K,D*05
$GPGGA,082335.70,5703.2906434,N,00951.8511494,E,2,11,0.7,-1.091,M,40.593,M,2.1,0123*64
$GPVTG,088.56,T,-551.34,M,004.859,N,008.999,K,D*0F
$GPGGA,082335.75,5703.2906453,N,00951.8512715,E,2,11,0.7,-1.088,M,40.593,M,2.1,0123*61
$GPVTG,089.01,T,-550.89,M,004.831,N,008.948,K,D*09
$GPGGA,082335.80,5703.2906467,N,00951.8513939,E,2,10,0.7,-1.085,M,40.593,M,2.1,0123*61
$GPVTG,089.44,T,-550.46,M,004.817,N,008.921,K,D*00
$GPGGA,082335.85,5703.2906473,N,00951.8515163,E,2,10,0.7,-1.084,M,40.593,M,2.3,0123*63
$GPVTG,089.92,T,-549.98,M,004.812,N,008.911,K,D*06
$GPGGA,082335.90,5703.2906468,N,00951.8516392,E,2,10,0.7,-1.083,M,40.593,M,2.3,0123*65
$GPVTG,090.55,T,-549.35,M,004.816,N,008.919,K,D*0E
$GPGGA,082335.95,5703.2906469,N,00951.8517600,E,2,10,0.7,-1.080,M,40.593,M,2.3,0123*6D
$GPVTG,090.77,T,-549.13,M,004.780,N,008.852,K,D*04
$GPGGA,082336.00,5703.2906454,N,00951.8518813,E,2,10,0.7,-1.079,M,40.593,M,2.3,0123*69
$GPVTG,091.43,T,-548.47,M,004.767,N,008.829,K,D*07
$GPGGA,082336.05,5703.2906407,N,00951.8520047,E,2,10,0.7,-1.084,M,40.593,M,2.2,0123*6B
$GPVTG,092.11,T,-547.79,M,004.793,N,008.877,K,D*01
$GPGGA,082336.10,5703.2906386,N,00951.8521287,E,2,10,0.7,-1.084,M,40.593,M,2.2,0123*6E
$GPVTG,092.42,T,-547.48,M,004.835,N,008.954,K,D*06
$GPGGA,082336.15,5703.2906358,N,00951.8522529,E,2,10,0.7,-1.085,M,40.593,M,2.2,0123*69
$GPVTG,092.78,T,-547.12,M,004.867,N,009.013,K,D*0C
$GPGGA,082336.20,5703.2906309,N,00951.8523742,E,2,10,0.7,-1.088,M,40.593,M,2.2,0123*68
$GPVTG,093.76,T,-546.14,M,004.836,N,008.956,K,D*09
$GPGGA,082336.25,5703.2906257,N,00951.8524958,E,2,10,0.7,-1.092,M,40.593,M,2.4,0123*68
$GPVTG,094.28,T,-545.62,M,004.819,N,008.926,K,D*0D
$GPGGA,082336.30,5703.2906218,N,00951.8526168,E,2,10,0.7,-1.089,M,40.593,M,2.4,0123*64
$GPVTG,094.39,T,-545.51,M,004.791,N,008.874,K,D*04
$GPGGA,082336.35,5703.2906145,N,00951.8527400,E,2,10,0.7,-1.090,M,40.593,M,2.4,0123*68
$GPVTG,095.53,T,-544.37,M,004.825,N,008.937,K,D*0E
$GPGGA,082336.40,5703.2906068,N,00951.8528604,E,2,10,0.7,-1.092,M,40.593,M,2.4,0123*6F
$GPVTG,096.47,T,-543.43,M,004.799,N,008.888,K,D*01
$GPGGA,082336.45,5703.2905998,N,00951.8529803,E,2,10,0.7,-1.089,M,40.593,M,2.6,0123*6F
$GPVTG,097.06,T,-542.84,M,004.770,N,008.834,K,D*0F
$GPGGA,082336.50,5703.2905911,N,00951.8531015,E,2,10,0.7,-1.088,M,40.593,M,2.6,0123*6D
$GPVTG,097.79,T,-542.11,M,004.781,N,008.854,K,D*03
$GPGGA,082336.55,5703.2905817,N,00951.8532217,E,2,10,0.7,-1.089,M,40.593,M,2.6,0123*6D
$GPVTG,098.46,T,-541.44,M,004.776,N,008.846,K,D*08
$GPGGA,082336.60,5703.2905715,N,00951.8533430,E,2,10,0.7,-1.092,M,40.593,M,2.6,0123*6E
$GPVTG,099.13,T,-540.77,M,004.798,N,008.886,K,D*04
$GPGGA,082336.65,5703.2905612,N,00951.8534629,E,2,10,0.7,-1.092,M,40.593,M,2.8,0123*6E
$GPVTG,099.59,T,-540.31,M,004.788,N,008.868,K,D*09
$GPGGA,082336.70,5703.2905505,N,00951.8535825,E,2,10,0.7,-1.089,M,40.593,M,2.8,0123*66
$GPVTG,099.98,T,-539.92,M,004.779,N,008.851,K,D*07
$GPGGA,082336.75,5703.2905379,N,00951.8537013,E,2,10,0.7,-1.087,M,40.593,M,2.8,0123*6F
$GPVTG,100.85,T,-539.05,M,004.767,N,008.828,K,D*05
$GPGGA,082336.80,5703.2905255,N,00951.8538207,E,2,10,0.7,-1.086,M,40.593,M,2.8,0123*63
$GPVTG,101.35,T,-538.55,M,004.772,N,008.838,K,D*0E
$GPGGA,082336.85,5703.2905130,N,00951.8539379,E,2,11,0.7,-1.086,M,40.593,M,3.1,0123*66
$GPVTG,101.61,T,-538.29,M,004.733,N,008.766,K,D*05
$GPGGA,082336.90,5703.2904992,N,00951.8540552,E,2,11,0.7,-1.086,M,40.593,M,3.1,0123*62
$GPVTG,102.29,T,-537.61,M,004.718,N,008.738,K,D*0B
$GPGGA,082336.95,5703.2904859,N,00951.8541730,E,2,11,0.7,-1.084,M,40.593,M,3.1,0123*64
$GPVTG,102.52,T,-537.38,M,004.718,N,008.737,K,D*04
$GPGGA,082337.00,5703.2904714,N,00951.8542927,E,2,11,0.7,-1.083,M,40.593,M,3.1,0123*63
$GPVTG,102.90,T,-537.00,M,004.762,N,008.819,K,D*0F
$GPGGA,082337.05,5703.2904543,N,00951.8544121,E,2,11,0.7,-1.085,M,40.593,M,3.3,0123*6A
$GPVTG,103.43,T,-536.47,M,004.790,N,008.871,K,D*01
$GPGGA,082337.10,5703.2904378,N,00951.8545305,E,2,11,0.7,-1.087,M,40.593,M,3.3,0123*67
$GPVTG,104.19,T,-535.71,M,004.806,N,008.901,K,D*09
$GPGGA,082337.15,5703.2904209,N,00951.8546468,E,2,11,0.7,-1.091,M,40.593,M,3.3,0123*6D
$GPVTG,104.97,T,-534.93,M,004.779,N,008.850,K,D*00
$GPGGA,082337.20,5703.2904028,N,00951.8547619,E,2,11,0.7,-1.092,M,40.593,M,3.3,0123*6C
$GPVTG,105.90,T,-534.00,M,004.747,N,008.791,K,D*03
$GPGGA,082337.25,5703.2903863,N,00951.8548770,E,2,11,0.7,-1.086,M,40.593,M,3.5,0123*6B
$GPVTG,106.16,T,-533.74,M,004.716,N,008.734,K,D*01
$GPGGA,082337.30,5703.2903689,N,00951.8549944,E,2,11,0.7,-1.087,M,40.593,M,3.5,0123*6C
$GPVTG,106.20,T,-533.70,M,004.742,N,008.783,K,D*0D
$GPGGA,082337.35,5703.2903492,N,00951.8551105,E,2,11,0.7,-1.089,M,40.593,M,3.5,0123*6B
$GPVTG,107.05,T,-532.85,M,004.759,N,008.814,K,D*0B
$GPGGA,082337.40,5703.2903293,N,00951.8552236,E,2,11,0.7,-1.089,M,40.593,M,3.5,0123*6E
$GPVTG,107.85,T,-532.05,M,004.719,N,008.740,K,D*01
$GPGGA,082337.45,5703.2903089,N,00951.8553371,E,2,11,0.7,-1.089,M,40.593,M,3.7,0123*63
$GPVTG,108.49,T,-531.41,M,004.705,N,008.714,K,D*01
$GPGGA,082337.50,5703.2902881,N,00951.8554485,E,2,11,0.7,-1.087,M,40.593,M,3.7,0123*63
$GPVTG,109.18,T,-530.72,M,004.663,N,008.636,K,D*05
$GPGGA,082337.55,5703.2902666,N,00951.8555601,E,2,11,0.7,-1.088,M,40.593,M,3.7,0123*61
$GPVTG,109.83,T,-530.07,M,004.646,N,008.605,K,D*02
$GPGGA,082337.60,5703.2902449,N,00951.8556710,E,2,11,0.7,-1.087,M,40.593,M,3.7,0123*65
$GPVTG,110.29,T,-529.61,M,004.630,N,008.575,K,D*07
$GPGGA,082337.65,5703.2902223,N,00951.8557828,E,2,11,0.7,-1.088,M,40.593,M,3.9,0123*6E
$GPVTG,110.63,T,-529.27,M,004.641,N,008.595,K,D*03
$GPGGA,082337.70,5703.2901987,N,00951.8558938,E,2,11,0.7,-1.087,M,40.593,M,3.9,0123*6C
$GPVTG,111.36,T,-528.54,M,004.656,N,008.622,K,D*0E
$GPGGA,082337.75,5703.2901750,N,00951.8560048,E,2,11,0.7,-1.086,M,40.593,M,3.9,0123*69
$GPVTG,111.81,T,-528.09,M,004.669,N,008.648,K,D*0A
$GPGGA,082337.80,5703.2901521,N,00951.8561142,E,2,11,0.7,-1.085,M,40.593,M,3.9,0123*6E
$GPVTG,111.95,T,-527.95,M,004.644,N,008.601,K,D*07
$GPGGA,082337.85,5703.2901286,N,00951.8562230,E,2,11,0.7,-1.084,M,40.593,M,4.1,0123*6A
$GPVTG,112.37,T,-527.53,M,004.620,N,008.557,K,D*04
$GPGGA,082337.90,5703.2901036,N,00951.8563313,E,2,11,0.7,-1.085,M,40.593,M,4.1,0123*67
$GPVTG,112.99,T,-526.91,M,004.615,N,008.547,K,D*08
$GPGGA,082337.95,5703.2900776,N,00951.8564398,E,2,11,0.7,-1.083,M,40.593,M,4.1,0123*62
$GPVTG,113.70,T,-526.20,M,004.631,N,008.576,K,D*00
$GPGGA,082338.00,5703.2900509,N,00951.8565470,E,2,11,0.7,-1.083,M,40.593,M,4.1,0123*6B
$GPVTG,114.49,T,-525.41,M,004.629,N,008.574,K,D*02
$GPGGA,082338.05,5703.2900245,N,00951.8566524,E,2,11,0.7,-1.082,M,40.593,M,1.6,0123*61
$GPVTG,114.65,T,-525.25,M,004.573,N,008.469,K,D*0F
$GPGGA,082338.10,5703.2899985,N,00951.8567599,E,2,11,0.7,-1.084,M,40.593,M,1.6,0123*62
$GPVTG,114.74,T,-525.16,M,004.590,N,008.500,K,D*0C
$GPGGA,082338.15,5703.2899703,N,00951.8568670,E,2,11,0.7,-1.085,M,40.593,M,1.6,0123*6D
$GPVTG,115.50,T,-524.40,M,004.625,N,008.565,K,D*07
$GPGGA,082338.20,5703.2899421,N,00951.8569729,E,2,11,0.7,-1.088,M,40.593,M,1.6,0123*69
$GPVTG,116.11,T,-523.79,M,004.632,N,008.578,K,D*06
$GPGGA,082338.25,5703.2899128,N,00951.8570782,E,2,11,0.7,-1.087,M,40.593,M,1.8,0123*68
$GPVTG,117.08,T,-522.82,M,004.650,N,008.612,K,D*01
$GPGGA,082338.30,5703.2898834,N,00951.8571798,E,2,11,0.7,-1.088,M,40.593,M,1.8,0123*6C
$GPVTG,118.02,T,-521.88,M,004.593,N,008.506,K,D*07
$GPGGA,082338.35,5703.2898525,N,00951.8572836,E,2,11,0.7,-1.087,M,40.593,M,1.8,0123*63
$GPVTG,118.80,T,-521.10,M,004.615,N,008.546,K,D*05
$GPGGA,082338.40,5703.2898211,N,00951.8573869,E,2,11,0.7,-1.088,M,40.593,M,1.8,0123*65
$GPVTG,119.48,T,-520.42,M,004.633,N,008.580,K,D*08
$GPGGA,082338.45,5703.2897894,N,00951.8574891,E,2,11,0.7,-1.088,M,40.593,M,2.1,0123*62
$GPVTG,120.22,T,-519.68,M,004.640,N,008.593,K,D*0A
$GPGGA,082338.50,5703.2897565,N,00951.8575894,E,2,11,0.7,-1.088,M,40.593,M,2.1,0123*61
$GPVTG,121.13,T,-518.77,M,004.625,N,008.565,K,D*0C
$GPGGA,082338.55,5703.2897238,N,00951.8576899,E,2,11,0.7,-1.091,M,40.593,M,2.1,0123*6D
$GPVTG,121.61,T,-518.29,M,004.618,N,008.552,K,D*08
$GPGGA,082338.60,5703.2896903,N,00951.8577908,E,2,11,0.7,-1.093,M,40.593,M,2.1,0123*63
$GPVTG,122.02,T,-517.88,M,004.633,N,008.580,K,D*0C
$GPGGA,082338.65,5703.2896561,N,00951.8578912,E,2,11,0.7,-1.093,M,40.593,M,2.3,0123*68
$GPVTG,122.61,T,-517.29,M,004.659,N,008.629,K,D*0E
$GPGGA,082338.70,5703.2896192,N,00951.8579918,E,2,11,0.7,-1.093,M,40.593,M,2.3,0123*6F
$GPVTG,123.64,T,-516.26,M,004.715,N,008.733,K,D*07
$GPGGA,082338.75,5703.2895835,N,00951.8580898,E,2,11,0.7,-1.095,M,40.593,M,2.3,0123*64
$GPVTG,124.28,T,-515.62,M,004.695,N,008.695,K,D*0F
$GPGGA,082338.80,5703.2895475,N,00951.8581838,E,2,11,0.7,-1.095,M,40.593,M,2.3,0123*6D
$GPVTG,125.26,T,-514.64,M,004.619,N,008.554,K,D*0D
$GPGGA,082338.85,5703.2895137,N,00951.8582749,E,2,11,0.7,-1.094,M,40.593,M,2.6,0123*65
$GPVTG,125.88,T,-514.02,M,004.559,N,008.444,K,D*0E
$GPGGA,082338.90,5703.2894783,N,00951.8583687,E,2,11,0.7,-1.090,M,40.593,M,2.6,0123*6F
$GPVTG,126.08,T,-513.82,M,004.519,N,008.368,K,D*07
$GPGGA,082338.95,5703.2894417,N,00951.8584617,E,2,11,0.7,-1.091,M,40.593,M,2.6,0123*6B
$GPVTG,126.50,T,-513.40,M,004.499,N,008.331,K,D*01
$GPGGA,082339.00,5703.2894027,N,00951.8585553,E,2,11,0.7,-1.092,M,40.593,M,2.6,0123*60
$GPVTG,127.27,T,-512.63,M,004.540,N,008.408,K,D*08
$GPGGA,082339.05,5703.2893640,N,00951.8586464,E,2,11,0.7,-1.089,M,40.593,M,1.5,0123*69
$GPVTG,127.92,T,-511.98,M,004.518,N,008.368,K,D*0D
$GPGGA,082339.10,5703.2893253,N,00951.8587354,E,2,11,0.7,-1.090,M,40.593,M,1.5,0123*66
$GPVTG,128.73,T,-511.17,M,004.491,N,008.317,K,D*02
$GPGGA,082339.15,5703.2892879,N,00951.8588257,E,2,11,0.7,-1.088,M,40.593,M,1.5,0123*64
$GPVTG,128.67,T,-511.23,M,004.473,N,008.284,K,D*07
$GPGGA,082339.20,5703.2892497,N,00951.8589153,E,2,11,0.7,-1.085,M,40.593,M,1.5,0123*65
$GPVTG,128.81,T,-511.09,M,004.467,N,008.272,K,D*0B
$GPGGA,082339.25,5703.2892092,N,00951.8590026,E,2,11,0.7,-1.090,M,40.593,M,1.7,0123*6C
$GPVTG,129.48,T,-510.42,M,004.452,N,008.246,K,D*00
$GPGGA,082339.30,5703.2891686,N,00951.8590895,E,2,11,0.7,-1.090,M,40.593,M,1.7,0123*68
$GPVTG,130.31,T,-509.59,M,004.459,N,008.258,K,D*00
$GPGGA,082339.35,5703.2891284,N,00951.8591756,E,2,11,0.7,-1.090,M,40.593,M,1.7,0123*6A
$GPVTG,130.88,T,-509.02,M,004.455,N,008.250,K,D*08
$GPGGA,082339.40,5703.2890881,N,00951.8592614,E,2,11,0.7,-1.091,M,40.593,M,1.7,0123*63
$GPVTG,131.29,T,-508.61,M,004.450,N,008.242,K,D*00
$GPGGA,082339.45,5703.2890480,N,00951.8593460,E,2,11,0.7,-1.088,M,40.593,M,1.9,0123*6D
$GPVTG,131.90,T,-508.00,M,004.429,N,008.203,K,D*0E
$GPGGA,082339.50,5703.2890055,N,00951.8594261,E,2,11,0.7,-1.088,M,40.593,M,1.9,0123*65
$GPVTG,133.33,T,-506.57,M,004.401,N,008.150,K,D*06
$GPGGA,082339.55,5703.2889627,N,00951.8595059,E,2,11,0.7,-1.086,M,40.593,M,1.9,0123*6D
$GPVTG,134.47,T,-505.43,M,004.388,N,008.127,K,D*02
$GPGGA,082339.60,5703.2889204,N,00951.8595840,E,2,11,0.7,-1.085,M,40.593,M,1.9,0123*6D
$GPVTG,135.31,T,-504.59,M,004.355,N,008.065,K,D*0F
$GPGGA,082339.65,5703.2888762,N,00951.8596639,E,2,11,0.7,-1.085,M,40.593,M,2.1,0123*64
$GPVTG,135.86,T,-504.04,M,004.385,N,008.120,K,D*06
$GPGGA,082339.70,5703.2888316,N,00951.8597420,E,2,11,0.7,-1.086,M,40.593,M,2.1,0123*6F
$GPVTG,136.62,T,-503.28,M,004.408,N,008.164,K,D*04
$GPGGA,082339.75,5703.2887877,N,00951.8598184,E,2,11,0.7,-1.086,M,40.593,M,2.1,0123*6D
$GPVTG,137.20,T,-502.70,M,004.392,N,008.134,K,D*0E
$GPGGA,082339.80,5703.2887440,N,00951.8598942,E,2,11,0.7,-1.086,M,40.593,M,2.1,0123*6D
$GPVTG,137.57,T,-502.33,M,004.371,N,008.096,K,D*0D
$GPGGA,082339.85,5703.2886984,N,00951.8599689,E,2,11,0.7,-1.088,M,40.593,M,2.3,0123*69
$GPVTG,138.15,T,-501.75,M,004.369,N,008.091,K,D*0B
$GPGGA,082339.90,5703.2886526,N,00951.8600423,E,2,11,0.7,-1.087,M,40.593,M,2.3,0123*67
$GPVTG,138.95,T,-500.95,M,004.373,N,008.100,K,D*0E
$GPGGA,082339.95,5703.2886076,N,00951.8601139,E,2,11,0.7,-1.086,M,40.593,M,2.3,0123*6C
$GPVTG,139.58,T,-500.32,M,004.340,N,008.037,K,D*06
$GPGGA,082340.00,5703.2885623,N,00951.8601864,E,2,11,0.7,-1.085,M,40.593,M,2.3,0123*69
$GPVTG,139.80,T,-500.10,M,004.335,N,008.028,K,D*0F
$GPGGA,082340.05,5703.2885138,N,00951.8602576,E,2,11,0.7,-1.091,M,40.593,M,2.2,0123*68
$GPVTG,140.40,T,-499.50,M,004.337,N,008.032,K,D*01
$GPGGA,082340.10,5703.2884668,N,00951.8603269,E,2,11,0.7,-1.093,M,40.593,M,2.2,0123*65
$GPVTG,141.20,T,-498.70,M,004.336,N,008.030,K,D*06
$GPGGA,082340.15,5703.2884180,N,00951.8603932,E,2,11,0.7,-1.095,M,40.593,M,2.2,0123*62
$GPVTG,142.70,T,-497.20,M,004.346,N,008.049,K,D*03
$GPGGA,082340.20,5703.2883691,N,00951.8604597,E,2,11,0.7,-1.096,M,40.593,M,2.2,0123*63
$GPVTG,143.67,T,-496.23,M,004.365,N,008.083,K,D*01
$GPGGA,082340.25,5703.2883202,N,00951.8605260,E,2,11,0.7,-1.099,M,40.593,M,2.4,0123*6F
$GPVTG,144.13,T,-495.77,M,004.369,N,008.091,K,D*08
$GPGGA,082340.30,5703.2882715,N,00951.8605918,E,2,11,0.7,-1.099,M,40.593,M,2.4,0123*6D
$GPVTG,144.51,T,-495.39,M,004.375,N,008.103,K,D*03
$GPGGA,082340.35,5703.2882227,N,00951.8606544,E,2,11,0.7,-1.099,M,40.593,M,2.4,0123*6A
$GPVTG,145.31,T,-494.59,M,004.346,N,008.050,K,D*04
$GPGGA,082340.40,5703.2881739,N,00951.8607165,E,2,11,0.7,-1.099,M,40.593,M,2.4,0123*67
$GPVTG,145.88,T,-494.02,M,004.322,N,008.005,K,D*0A
$GPGGA,082340.45,5703.2881251,N,00951.8607797,E,2,11,0.7,-1.096,M,40.593,M,2.6,0123*6F
$GPVTG,146.17,T,-493.73,M,004.336,N,008.030,K,D*0D
$GPGGA,082340.50,5703.2880746,N,00951.8608398,E,2,11,0.7,-1.097,M,40.593,M,2.6,0123*6C
$GPVTG,147.04,T,-492.86,M,004.337,N,008.032,K,D*06
$GPGGA,082340.55,5703.2880249,N,00951.8608989,E,2,11,0.7,-1.097,M,40.593,M,2.6,0123*69
$GPVTG,147.59,T,-492.31,M,004.313,N,007.988,K,D*03
$GPGGA,082340.60,5703.2879745,N,00951.8609574,E,2,11,0.7,-1.097,M,40.593,M,2.6,0123*6F
$GPVTG,148.13,T,-491.77,M,004.304,N,007.972,K,D*00
$GPGGA,082340.65,5703.2879214,N,00951.8610174,E,2,11,0.7,-1.099,M,40.593,M,2.8,0123*67
$GPVTG,148.61,T,-491.29,M,004.300,N,007.963,K,D*0A
$GPGGA,082340.70,5703.2878702,N,00951.8610749,E,2,11,0.7,-1.098,M,40.593,M,2.8,0123*69
$GPVTG,149.02,T,-490.88,M,004.310,N,007.983,K,D*0B
$GPGGA,082340.75,5703.2878197,N,00951.8611312,E,2,11,0.7,-1.098,M,40.593,M,2.8,0123*6D
$GPVTG,149.31,T,-490.59,M,004.292,N,007.948,K,D*0B
$GPGGA,082340.80,5703.2877673,N,00951.8611862,E,2,11,0.7,-1.098,M,40.593,M,2.8,0123*69
$GPVTG,150.10,T,-489.80,M,004.313,N,007.987,K,D*07
$GPGGA,082340.85,5703.2877150,N,00951.8612403,E,2,11,0.7,-1.097,M,40.593,M,3.1,0123*65
$GPVTG,150.89,T,-489.01,M,004.327,N,008.014,K,D*05
$GPGGA,082340.90,5703.2876631,N,00951.8612922,E,2,11,0.7,-1.098,M,40.593,M,3.1,0123*61
$GPVTG,151.64,T,-488.26,M,004.306,N,007.975,K,D*01
$GPGGA,082340.95,5703.2876108,N,00951.8613411,E,2,11,0.7,-1.096,M,40.593,M,3.1,0123*6B
$GPVTG,152.78,T,-487.12,M,004.274,N,007.915,K,D*05
$GPGGA,082341.00,5703.2875589,N,00951.8613901,E,2,11,0.7,-1.092,M,40.593,M,3.1,0123*60
$GPVTG,153.41,T,-486.49,M,004.246,N,007.863,K,D*00
$GPGGA,082341.05,5703.2875066,N,00951.8614415,E,2,10,1.0,-1.084,M,40.593,M,3.3,0123*6C
$GPVTG,153.35,T,-486.55,M,004.260,N,007.890,K,D*06
$GPGGA,082341.10,5703.2874525,N,00951.8614899,E,2,10,1.0,-1.082,M,40.593,M,3.3,0123*65
$GPVTG,154.03,T,-485.87,M,004.288,N,007.941,K,D*03
$GPGGA,082341.15,5703.2873981,N,00951.8615356,E,2,10,1.0,-1.081,M,40.593,M,3.3,0123*6F
$GPVTG,155.11,T,-484.79,M,004.300,N,007.963,K,D*00
$GPGGA,082341.20,5703.2873435,N,00951.8615799,E,2,10,1.0,-1.082,M,40.593,M,3.3,0123*6F
$GPVTG,156.12,T,-483.78,M,004.304,N,007.971,K,D*01
$GPGGA,082341.25,5703.2872864,N,00951.8616229,E,2,10,1.0,-1.092,M,40.593,M,3.5,0123*69
$GPVTG,157.08,T,-482.82,M,004.323,N,008.006,K,D*0C
$GPGGA,082341.30,5703.2872303,N,00951.8616661,E,2,10,1.0,-1.093,M,40.593,M,3.5,0123*6E
$GPVTG,157.73,T,-482.17,M,004.359,N,008.074,K,D*04
$GPGGA,082341.35,5703.2871755,N,00951.8617079,E,2,10,1.0,-1.097,M,40.593,M,3.5,0123*65
$GPVTG,158.21,T,-481.69,M,004.342,N,008.041,K,D*0A
$GPGGA,082341.40,5703.2871209,N,00951.8617480,E,2,10,1.0,-1.097,M,40.593,M,3.5,0123*69
$GPVTG,158.77,T,-481.13,M,004.310,N,007.983,K,D*0B
$GPGGA,082341.45,5703.2870670,N,00951.8617884,E,2,10,1.0,-1.094,M,40.593,M,3.7,0123*6E
$GPVTG,159.02,T,-480.88,M,004.297,N,007.958,K,D*03
$GPGGA,082341.50,5703.2870121,N,00951.8618265,E,2,10,1.0,-1.093,M,40.593,M,3.7,0123*64
$GPVTG,159.63,T,-480.27,M,004.272,N,007.911,K,D*07
$GPGGA,082341.55,5703.2869561,N,00951.8618635,E,2,10,1.0,-1.093,M,40.593,M,3.7,0123*68
$GPVTG,160.34,T,-479.56,M,004.275,N,007.918,K,D*01
$GPGGA,082341.60,5703.2868999,N,00951.8619008,E,2,10,1.0,-1.093,M,40.593,M,3.7,0123*6D
$GPVTG,160.68,T,-479.22,M,004.289,N,007.943,K,D*06
$GPGGA,082341.65,5703.2868431,N,00951.8619363,E,2,10,1.0,-1.094,M,40.593,M,3.9,0123*60
$GPVTG,161.39,T,-478.51,M,004.310,N,007.981,K,D*09
$GPGGA,082341.70,5703.2867866,N,00951.8619693,E,2,10,1.0,-1.096,M,40.593,M,3.9,0123*6D
$GPVTG,162.30,T,-477.60,M,004.301,N,007.965,K,D*04
$GPGGA,082341.75,5703.2867297,N,00951.8619991,E,2,10,1.0,-1.097,M,40.593,M,3.9,0123*60
$GPVTG,163.68,T,-476.22,M,004.286,N,007.937,K,D*06
$GPGGA,082341.80,5703.2866735,N,00951.8620283,E,2,10,1.0,-1.093,M,40.593,M,3.9,0123*60
$GPVTG,164.59,T,-475.31,M,004.259,N,007.888,K,D*05
$GPGGA,082341.85,5703.2866167,N,00951.8620571,E,2,10,1.0,-1.096,M,40.593,M,1.3,0123*63
$GPVTG,165.17,T,-474.73,M,004.219,N,007.813,K,D*0F
$GPGGA,082341.90,5703.2865606,N,00951.8620851,E,2,10,1.0,-1.095,M,40.593,M,1.3,0123*68
$GPVTG,165.59,T,-474.31,M,004.201,N,007.780,K,D*0F
$GPGGA,082341.95,5703.2865028,N,00951.8621104,E,2,10,1.0,-1.095,M,40.593,M,1.3,0123*6F
$GPVTG,166.60,T,-473.30,M,004.228,N,007.830,K,D*0F
$GPGGA,082342.00,5703.2864447,N,00951.8621334,E,2,10,1.0,-1.094,M,40.593,M,1.3,0123*6C
$GPVTG,167.79,T,-472.11,M,004.247,N,007.865,K,D*0D
$GPGGA,082342.05,5703.2863855,N,00951.8621555,E,2,10,1.0,-1.097,M,40.593,M,1.6,0123*66
$GPVTG,168.72,T,-471.18,M,004.249,N,007.869,K,D*01
$GPGGA,082342.10,5703.2863269,N,00951.8621765,E,2,10,1.0,-1.098,M,40.593,M,1.6,0123*69
$GPVTG,169.50,T,-470.40,M,004.275,N,007.917,K,D*0B
$GPGGA,082342.15,5703.2862673,N,00951.8621944,E,2,10,1.0,-1.100,M,40.593,M,1.6,0123*6F
$GPVTG,170.73,T,-469.17,M,004.315,N,007.992,K,D*02
$GPGGA,082342.20,5703.2862081,N,00951.8622118,E,2,10,1.0,-1.101,M,40.593,M,1.6,0123*61
$GPVTG,171.49,T,-468.41,M,004.334,N,008.026,K,D*02
$GPGGA,082342.25,5703.2861516,N,00951.8622297,E,2,10,1.0,-1.096,M,40.593,M,1.8,0123*69
$GPVTG,171.64,T,-468.26,M,004.313,N,007.988,K,D*0B
$GPGGA,082342.30,5703.2860935,N,00951.8622456,E,2,10,1.0,-1.095,M,40.593,M,1.8,0123*69
$GPVTG,172.11,T,-467.79,M,004.293,N,007.950,K,D*03
$GPGGA,082342.35,5703.2860348,N,00951.8622593,E,2,10,1.0,-1.094,M,40.593,M,1.8,0123*65
$GPVTG,172.94,T,-466.96,M,004.286,N,007.938,K,D*04
$GPGGA,082342.40,5703.2859761,N,00951.8622705,E,2,10,1.0,-1.093,M,40.593,M,1.8,0123*68
$GPVTG,174.02,T,-465.88,M,004.278,N,007.922,K,D*0B
$GPGGA,082342.45,5703.2859168,N,00951.8622805,E,2,10,1.0,-1.095,M,40.593,M,2.1,0123*61
$GPVTG,174.99,T,-464.91,M,004.266,N,007.901,K,D*0E
$GPGGA,082342.50,5703.2858577,N,00951.8622892,E,2,10,1.0,-1.095,M,40.593,M,2.1,0123*60
$GPVTG,175.83,T,-464.07,M,004.272,N,007.912,K,D*0C
$GPGGA,082342.55,5703.2857992,N,00951.8622959,E,2,10,1.0,-1.094,M,40.593,M,2.1,0123*6A
$GPVTG,176.76,T,-463.14,M,004.256,N,007.882,K,D*0E
$GPGGA,082342.60,5703.2857407,N,00951.8623023,E,2,10,1.0,-1.092,M,40.593,M,2.1,0123*6E
$GPVTG,177.32,T,-462.58,M,004.244,N,007.859,K,D*03
$GPGGA,082342.65,5703.2856809,N,00951.8623085,E,2,10,1.0,-1.094,M,40.593,M,2.3,0123*60
$GPVTG,177.62,T,-462.28,M,004.258,N,007.887,K,D*0F
$GPGGA,082342.70,5703.2856213,N,00951.8623121,E,2,10,1.0,-1.093,M,40.593,M,2.3,0123*6D
$GPVTG,178.38,T,-461.52,M,004.276,N,007.919,K,D*0B
$GPGGA,082342.75,5703.2855616,N,00951.8623144,E,2,10,1.0,-1.093,M,40.593,M,2.3,0123*69
$GPVTG,179.10,T,-460.80,M,004.295,N,007.954,K,D*0A
$GPGGA,082342.80,5703.2855024,N,00951.8623159,E,2,10,1.0,-1.092,M,40.593,M,2.3,0123*69
$GPVTG,179.68,T,-460.22,M,004.291,N,007.948,K,D*04
$GPGGA,082342.85,5703.2854441,N,00951.8623166,E,2,10,1.0,-1.095,M,40.593,M,1.2,0123*63
$GPVTG,180.18,T,-459.72,M,004.254,N,007.878,K,D*01
$GPGGA,082342.90,5703.2853834,N,00951.8623158,E,2,10,1.0,-1.094,M,40.593,M,1.2,0123*62
$GPVTG,180.78,T,-459.12,M,004.301,N,007.966,K,D*0E
$GPGGA,082342.95,5703.2853248,N,00951.8623124,E,2,10,1.0,-1.092,M,40.593,M,1.2,0123*6B
$GPVTG,181.73,T,-458.17,M,004.282,N,007.930,K,D*09
$GPGGA,082343.00,5703.2852664,N,00951.8623079,E,2,10,1.0,-1.093,M,40.593,M,1.2,0123*65
$GPVTG,182.60,T,-457.30,M,004.257,N,007.884,K,D*04
$GPGGA,082343.05,5703.2852064,N,00951.8623018,E,2,10,1.0,-1.092,M,40.593,M,1.5,0123*67
$GPVTG,183.47,T,-456.43,M,004.253,N,007.877,K,D*0D
$GPGGA,082343.10,5703.2851462,N,00951.8622939,E,2,10,1.0,-1.094,M,40.593,M,1.5,0123*6F
$GPVTG,184.38,T,-455.52,M,004.292,N,007.949,K,D*00
$GPGGA,082343.15,5703.2850864,N,00951.8622847,E,2,10,1.0,-1.097,M,40.593,M,1.5,0123*6A
$GPVTG,185.18,T,-454.72,M,004.314,N,007.990,K,D*0B
$GPGGA,082343.20,5703.2850276,N,00951.8622734,E,2,10,1.0,-1.098,M,40.593,M,1.5,0123*61
$GPVTG,186.18,T,-453.72,M,004.305,N,007.972,K,D*03
$GPGGA,082343.25,5703.2849708,N,00951.8622612,E,2,10,1.0,-1.096,M,40.593,M,1.7,0123*69
$GPVTG,187.00,T,-452.90,M,004.256,N,007.882,K,D*0F
$GPGGA,082343.30,5703.2849137,N,00951.8622475,E,2,10,1.0,-1.094,M,40.593,M,1.7,0123*66
$GPVTG,187.84,T,-452.06,M,004.213,N,007.803,K,D*04
$GPGGA,082343.35,5703.2848546,N,00951.8622345,E,2,10,1.0,-1.092,M,40.593,M,1.7,0123*62
$GPVTG,187.97,T,-451.93,M,004.236,N,007.845,K,D*0C
$GPGGA,082343.40,5703.2847963,N,00951.8622187,E,2,10,1.0,-1.093,M,40.593,M,1.7,0123*69
$GPVTG,188.70,T,-451.20,M,004.243,N,007.858,K,D*0C
$GPGGA,082343.45,5703.2847391,N,00951.8622006,E,2,10,1.0,-1.095,M,40.593,M,1.9,0123*6B
$GPVTG,189.78,T,-450.12,M,004.207,N,007.790,K,D*0E
$GPGGA,082343.50,5703.2846837,N,00951.8621798,E,2,10,1.0,-1.093,M,40.593,M,1.9,0123*6C
$GPVTG,191.21,T,-448.69,M,004.152,N,007.689,K,D*04
$GPGGA,082343.55,5703.2846280,N,00951.8621592,E,2,10,1.0,-1.093,M,40.593,M,1.9,0123*67
$GPVTG,192.01,T,-447.89,M,004.118,N,007.627,K,D*0E
$GPGGA,082343.60,5703.2845719,N,00951.8621374,E,2,10,1.0,-1.093,M,40.593,M,1.9,0123*69
$GPVTG,192.67,T,-447.23,M,004.113,N,007.618,K,D*09
$GPGGA,082343.65,5703.2845166,N,00951.8621147,E,2,10,1.0,-1.087,M,40.593,M,2.1,0123*6E
$GPVTG,193.17,T,-446.73,M,004.119,N,007.628,K,D*02
$GPGGA,082343.70,5703.2844615,N,00951.8620907,E,2,10,1.0,-1.085,M,40.593,M,2.1,0123*67
$GPVTG,193.83,T,-446.07,M,004.098,N,007.589,K,D*0C
$GPGGA,082343.75,5703.2844061,N,00951.8620652,E,2,10,1.0,-1.082,M,40.593,M,2.1,0123*6F
$GPVTG,194.54,T,-445.36,M,004.098,N,007.590,K,D*08
$GPGGA,082343.80,5703.2843517,N,00951.8620385,E,2,10,1.0,-1.079,M,40.593,M,2.1,0123*6D
$GPVTG,195.31,T,-444.59,M,004.076,N,007.549,K,D*06
$GPGGA,082343.85,5703.2842966,N,00951.8620125,E,2,10,1.0,-1.080,M,40.593,M,1.9,0123*66
$GPVTG,195.50,T,-444.40,M,004.068,N,007.533,K,D*0B
$GPGGA,082343.90,5703.2842417,N,00951.8619829,E,2,10,1.0,-1.080,M,40.593,M,1.9,0123*66
$GPVTG,196.41,T,-443.49,M,004.085,N,007.566,K,D*05
$GPGGA,082343.95,5703.2841860,N,00951.8619511,E,2,10,1.0,-1.083,M,40.593,M,1.9,0123*69
$GPVTG,197.43,T,-442.47,M,004.133,N,007.654,K,D*07
$GPGGA,082344.00,5703.2841321,N,00951.8619185,E,2,10,1.0,-1.083,M,40.593,M,1.9,0123*65
$GPVTG,198.39,T,-441.51,M,004.127,N,007.643,K,D*02
$GPGGA,082344.05,5703.2840775,N,00951.8618838,E,2,10,1.0,-1.083,M,40.593,M,2.2,0123*62
$GPVTG,199.50,T,-440.40,M,004.135,N,007.659,K,D*05
$GPGGA,082344.10,5703.2840227,N,00951.8618499,E,2,10,1.0,-1.085,M,40.593,M,2.2,0123*65
$GPVTG,199.75,T,-440.15,M,004.153,N,007.691,K,D*06
$GPGGA,082344.15,5703.2839682,N,00951.8618125,E,2,10,1.0,-1.084,M,40.593,M,2.2,0123*66
$GPVTG,200.70,T,-439.20,M,004.179,N,007.740,K,D*0D
$GPGGA,082344.20,5703.2839160,N,00951.8617737,E,2,10,1.0,-1.086,M,40.593,M,2.2,0123*63
$GPVTG,201.86,T,-438.04,M,004.144,N,007.675,K,D*0B
$GPGGA,082344.25,5703.2838637,N,00951.8617332,E,2,10,1.0,-1.092,M,40.593,M,2.4,0123*60
$GPVTG,203.07,T,-436.83,M,004.122,N,007.635,K,D*05
$GPGGA,082344.30,5703.2838112,N,00951.8616914,E,2,10,1.0,-1.096,M,40.593,M,2.4,0123*6F
$GPVTG,203.97,T,-435.93,M,004.124,N,007.638,K,D*05
$GPGGA,082344.35,5703.2837581,N,00951.8616485,E,2,10,1.0,-1.098,M,40.593,M,2.4,0123*60
$GPVTG,204.61,T,-435.29,M,004.152,N,007.690,K,D*09
$GPGGA,082344.40,5703.2837056,N,00951.8616054,E,2,10,1.0,-1.098,M,40.593,M,2.4,0123*65
$GPVTG,205.01,T,-434.89,M,004.155,N,007.694,K,D*06
$GPGGA,082344.45,5703.2836548,N,00951.8615617,E,2,10,1.0,-1.095,M,40.593,M,2.6,0123*66
$GPVTG,205.46,T,-434.44,M,004.132,N,007.653,K,D*0E
$GPGGA,082344.50,5703.2836055,N,00951.8615155,E,2,10,1.0,-1.096,M,40.593,M,2.6,0123*69
$GPVTG,206.64,T,-433.26,M,004.080,N,007.557,K,D*01
$GPGGA,082344.55,5703.2835549,N,00951.8614677,E,2,10,1.0,-1.096,M,40.593,M,2.6,0123*61
$GPVTG,207.55,T,-432.35,M,004.083,N,007.561,K,D*07
$GPGGA,082344.60,5703.2835047,N,00951.8614182,E,2,10,1.0,-1.097,M,40.593,M,2.6,0123*60
$GPVTG,208.54,T,-431.36,M,004.094,N,007.582,K,D*02
$GPGGA,082344.65,5703.2834546,N,00951.8613680,E,2,10,1.0,-1.101,M,40.593,M,2.8,0123*62
$GPVTG,209.43,T,-430.47,M,004.090,N,007.575,K,D*0E
$GPGGA,082344.70,5703.2834046,N,00951.8613155,E,2,10,1.0,-1.102,M,40.593,M,2.8,0123*6F
$GPVTG,210.30,T,-429.60,M,004.117,N,007.625,K,D*07
$GPGGA,082344.75,5703.2833543,N,00951.8612622,E,2,10,1.0,-1.102,M,40.593,M,2.8,0123*6B
$GPVTG,210.86,T,-429.04,M,004.150,N,007.686,K,D*02
$GPGGA,082344.80,5703.2833040,N,00951.8612068,E,2,10,1.0,-1.102,M,40.593,M,2.8,0123*6F
$GPVTG,211.55,T,-428.35,M,004.195,N,007.769,K,D*07
$GPGGA,082344.85,5703.2832545,N,00951.8611506,E,2,10,1.0,-1.102,M,40.593,M,3.1,0123*6D
$GPVTG,212.16,T,-427.74,M,004.225,N,007.824,K,D*07
$GPGGA,082344.90,5703.2832062,N,00951.8610942,E,2,10,1.0,-1.102,M,40.593,M,3.1,0123*64
$GPVTG,212.79,T,-427.11,M,004.202,N,007.782,K,D*0B
$GPGGA,082344.95,5703.2831589,N,00951.8610354,E,2,10,1.0,-1.101,M,40.593,M,3.1,0123*6C
$GPVTG,213.87,T,-426.03,M,004.180,N,007.742,K,D*0C
$GPGGA,082345.00,5703.2831121,N,00951.8609762,E,2,10,1.0,-1.101,M,40.593,M,3.1,0123*6E
$GPVTG,214.73,T,-425.17,M,004.155,N,007.695,K,D*05
$GPGGA,082345.05,5703.2830642,N,00951.8609163,E,2,10,1.0,-1.093,M,40.593,M,3.3,0123*67
$GPVTG,215.15,T,-424.75,M,004.174,N,007.730,K,D*0C
$GPGGA,082345.10,5703.2830163,N,00951.8608555,E,2,10,1.0,-1.090,M,40.593,M,3.3,0123*64
$GPVTG,215.50,T,-424.40,M,004.186,N,007.753,K,D*03
$GPGGA,082345.15,5703.2829694,N,00951.8607933,E,2,10,1.0,-1.089,M,40.593,M,3.3,0123*6D
$GPVTG,216.11,T,-423.79,M,004.186,N,007.752,K,D*09
$GPGGA,082345.20,5703.2829238,N,00951.8607309,E,2,10,1.0,-1.085,M,40.593,M,3.3,0123*66
$GPVTG,216.82,T,-423.08,M,004.157,N,007.699,K,D*0F
$GPGGA,082345.25,5703.2828778,N,00951.8606648,E,2,10,1.0,-1.089,M,40.593,M,3.5,0123*68
$GPVTG,218.12,T,-421.78,M,004.170,N,007.722,K,D*09
$GPGGA,082345.30,5703.2828334,N,00951.8605979,E,2,10,1.0,-1.086,M,40.593,M,3.5,0123*61
$GPVTG,219.30,T,-420.60,M,004.164,N,007.711,K,D*05
$GPGGA,082345.35,5703.2827878,N,00951.8605281,E,2,10,1.0,-1.086,M,40.593,M,3.5,0123*64
$GPVTG,220.30,T,-419.60,M,004.220,N,007.815,K,D*0D
$GPGGA,082345.40,5703.2827437,N,00951.8604586,E,2,10,1.0,-1.087,M,40.593,M,3.5,0123*61
$GPVTG,221.14,T,-418.76,M,004.220,N,007.816,K,D*0F
$GPGGA,082345.45,5703.2827005,N,00951.8603895,E,2,10,1.0,-1.085,M,40.593,M,3.7,0123*69
$GPVTG,221.62,T,-418.28,M,004.198,N,007.776,K,D*0C
$GPGGA,082345.50,5703.2826572,N,00951.8603205,E,2,10,1.0,-1.086,M,40.593,M,3.7,0123*69
$GPVTG,221.90,T,-418.00,M,004.173,N,007.728,K,D*05
$GPGGA,082345.55,5703.2826152,N,00951.8602476,E,2,10,1.0,-1.085,M,40.593,M,3.7,0123*6A
$GPVTG,223.10,T,-416.80,M,004.175,N,007.732,K,D*04
$GPGGA,082345.60,5703.2825730,N,00951.8601745,E,2,10,1.0,-1.084,M,40.593,M,3.7,0123*6C
$GPVTG,223.82,T,-416.08,M,004.181,N,007.744,K,D*05
$GPGGA,082345.65,5703.2825292,N,00951.8601003,E,2,10,1.0,-1.090,M,40.593,M,3.9,0123*6A
$GPVTG,224.17,T,-415.73,M,004.221,N,007.817,K,D*01
$GPGGA,082345.70,5703.2824860,N,00951.8600253,E,2,10,1.0,-1.090,M,40.593,M,3.9,0123*6E
$GPVTG,224.37,T,-415.53,M,004.256,N,007.881,K,D*0E
$GPGGA,082345.75,5703.2824448,N,00951.8599497,E,2,10,1.0,-1.091,M,40.593,M,3.9,0123*61
$GPVTG,225.07,T,-414.83,M,004.245,N,007.861,K,D*0C
$GPGGA,082345.80,5703.2824043,N,00951.8598736,E,2,10,1.0,-1.091,M,40.593,M,3.9,0123*6D
$GPVTG,225.75,T,-414.15,M,004.227,N,007.828,K,D*0F
$GPGGA,082345.85,5703.2823640,N,00951.8597968,E,2,10,1.0,-1.094,M,40.593,M,4.1,0123*6A
$GPVTG,226.45,T,-413.45,M,004.210,N,007.797,K,D*02
$GPGGA,082345.90,5703.2823240,N,00951.8597189,E,2,10,1.0,-1.096,M,40.593,M,4.1,0123*6F
$GPVTG,227.04,T,-412.86,M,004.211,N,007.799,K,D*07
$GPGGA,082345.95,5703.2822845,N,00951.8596404,E,2,10,1.0,-1.098,M,40.593,M,4.1,0123*6B
$GPVTG,227.62,T,-412.28,M,004.207,N,007.791,K,D*0C
$GPGGA,082346.00,5703.2822449,N,00951.8595590,E,2,10,1.0,-1.100,M,40.593,M,4.1,0123*6B
$GPVTG,228.42,T,-411.48,M,004.245,N,007.861,K,D*02
$GPGGA,082346.05,5703.2822072,N,00951.8594760,E,2,10,1.0,-1.094,M,40.593,M,1.6,0123*60
$GPVTG,229.61,T,-410.29,M,004.266,N,007.901,K,D*02
$GPGGA,082346.10,5703.2821698,N,00951.8593915,E,2,10,1.0,-1.094,M,40.593,M,1.6,0123*6E
$GPVTG,230.81,T,-409.09,M,004.286,N,007.937,K,D*05
$GPGGA,082346.15,5703.2821338,N,00951.8593060,E,2,10,1.0,-1.091,M,40.593,M,1.6,0123*6A
$GPVTG,232.09,T,-407.81,M,004.286,N,007.938,K,D*06
$GPGGA,082346.20,5703.2820975,N,00951.8592195,E,2,10,1.0,-1.089,M,40.593,M,1.6,0123*6D
$GPVTG,232.95,T,-406.95,M,004.300,N,007.964,K,D*01
$GPGGA,082346.25,5703.2820624,N,00951.8591334,E,2,10,1.0,-1.093,M,40.593,M,1.8,0123*6C
$GPVTG,234.01,T,-405.89,M,004.276,N,007.919,K,D*0E
$GPGGA,082346.30,5703.2820271,N,00951.8590472,E,2,10,1.0,-1.092,M,40.593,M,1.8,0123*69
$GPVTG,234.31,T,-405.59,M,004.260,N,007.889,K,D*0F
$GPGGA,082346.35,5703.2819920,N,00951.8589596,E,2,10,1.0,-1.093,M,40.593,M,1.8,0123*6B
$GPVTG,234.66,T,-405.24,M,004.266,N,007.900,K,D*01
$GPGGA,082346.40,5703.2819596,N,00951.8588711,E,2,10,1.0,-1.095,M,40.593,M,1.8,0123*62
$GPVTG,235.79,T,-404.11,M,004.237,N,007.846,K,D*0E
$GPGGA,082346.45,5703.2819278,N,00951.8587811,E,2,10,1.0,-1.090,M,40.593,M,2.1,0123*6F
$GPVTG,236.68,T,-403.22,M,004.238,N,007.848,K,D*0B
$GPGGA,082346.50,5703.2818952,N,00951.8586904,E,2,10,1.0,-1.087,M,40.593,M,2.1,0123*6B
$GPVTG,237.28,T,-402.62,M,004.252,N,007.874,K,D*08
$GPGGA,082346.55,5703.2818628,N,00951.8585984,E,2,10,1.0,-1.085,M,40.593,M,2.1,0123*65
$GPVTG,237.86,T,-402.04,M,004.278,N,007.923,K,D*07
$GPGGA,082346.60,5703.2818316,N,00951.8585066,E,2,10,1.0,-1.084,M,40.593,M,2.1,0123*6F
$GPVTG,238.49,T,-401.41,M,004.272,N,007.912,K,D*01
$GPGGA,082346.65,5703.2818011,N,00951.8584138,E,2,10,1.0,-1.087,M,40.593,M,2.3,0123*64
$GPVTG,239.48,T,-400.42,M,004.261,N,007.891,K,D*0B
$GPGGA,082346.70,5703.2817718,N,00951.8583215,E,2,10,1.0,-1.086,M,40.593,M,2.3,0123*6B
$GPVTG,240.16,T,-399.74,M,004.236,N,007.845,K,D*07
