Qš²Šª‚b*Å’bŠ‚b‚rÊbjŠr²¢ºbjÅ¢‚rªÊšbjÅŠrªb‚Š’šR²²j¤Dé
                                                   •Õ   Ó&ÉÓ‰©ÉÓ““IÓ©Š  S&©²ŠbrÅ‚‚’rÂÊŠbZÅ"¥‚
             Õ¤ø$GPGGA,083330.25,5703.2762208,N,00951.8436173,E,2,10,0.9,-1.648,M,40.593,M,1.8,0123*6A
$GPVTG,004.14,T,-635.76,M,001.559,N,002.887,K,D*06
$GPGGA,083330.30,5703.2762417,N,00951.8436218,E,2,10,0.9,-1.648,M,40.593,M,1.8,0123*68
$GPVTG,005.28,T,-634.62,M,001.559,N,002.887,K,D*0C
$GPGGA,083330.35,5703.2762629,N,00951.8436273,E,2,10,0.9,-1.649,M,40.593,M,1.8,0123*6E
$GPVTG,006.50,T,-633.40,M,001.564,N,002.896,K,D*09
$GPGGA,083330.40,5703.2762844,N,00951.8436325,E,2,10,0.9,-1.650,M,40.593,M,1.8,0123*63
$GPVTG,007.37,T,-632.53,M,001.571,N,002.910,K,D*01
$GPGGA,083330.45,5703.2763066,N,00951.8436383,E,2,10,0.9,-1.646,M,40.593,M,2.0,0123*6F
$GPVTG,008.14,T,-631.76,M,001.580,N,002.926,K,D*00
$GPGGA,083330.50,5703.2763278,N,00951.8436446,E,2,10,0.9,-1.646,M,40.593,M,2.0,0123*68
$GPVTG,009.02,T,-630.88,M,001.583,N,002.931,K,D*03
$GPGGA,083330.55,5703.2763499,N,00951.8436513,E,2,10,0.9,-1.644,M,40.593,M,2.0,0123*67
$GPVTG,009.77,T,-630.13,M,001.597,N,002.957,K,D*06
$GPGGA,083330.60,5703.2763712,N,00951.8436586,E,2,10,0.9,-1.643,M,40.593,M,2.0,0123*6A
$GPVTG,010.58,T,-629.32,M,001.598,N,002.959,K,D*09
$GPGGA,083330.65,5703.2763910,N,00951.8436653,E,2,10,0.9,-1.653,M,40.593,M,2.2,0123*6B
$GPVTG,011.21,T,-628.69,M,001.599,N,002.960,K,D*02
$GPGGA,083330.70,5703.2764118,N,00951.8436734,E,2,10,0.9,-1.653,M,40.593,M,2.2,0123*68
$GPVTG,011.99,T,-627.91,M,001.594,N,002.951,K,D*06
$GPGGA,083330.75,5703.2764323,N,00951.8436826,E,2,10,0.9,-1.656,M,40.593,M,2.2,0123*6E
$GPVTG,013.01,T,-626.89,M,001.587,N,002.938,K,D*00
$GPGGA,083330.80,5703.2764532,N,00951.8436921,E,2,10,0.9,-1.656,M,40.593,M,2.2,0123*64
$GPVTG,013.86,T,-626.04,M,001.585,N,002.935,K,D*05
$GPGGA,083330.85,5703.2764738,N,00951.8437032,E,2,10,0.9,-1.655,M,40.593,M,2.5,0123*67
$GPVTG,015.09,T,-624.81,M,001.578,N,002.923,K,D*0E
$GPGGA,083330.90,5703.2764939,N,00951.8437132,E,2,10,0.9,-1.656,M,40.593,M,2.5,0123*6E
$GPVTG,015.81,T,-624.09,M,001.567,N,002.903,K,D*02
$GPGGA,083330.95,5703.2765151,N,00951.8437239,E,2,10,0.9,-1.656,M,40.593,M,2.5,0123*64
$GPVTG,016.43,T,-623.47,M,001.574,N,002.916,K,D*04
$GPGGA,083331.00,5703.2765358,N,00951.8437342,E,2,10,0.9,-1.656,M,40.593,M,2.5,0123*6F
$GPVTG,016.80,T,-623.10,M,001.572,N,002.912,K,D*0B
$GPGGA,083331.05,5703.2765552,N,00951.8437446,E,2,10,0.9,-1.656,M,40.593,M,1.5,0123*66
$GPVTG,017.43,T,-622.47,M,001.566,N,002.900,K,D*00
$GPGGA,083331.10,5703.2765748,N,00951.8437559,E,2,10,0.9,-1.657,M,40.593,M,1.5,0123*65
$GPVTG,018.02,T,-621.88,M,001.552,N,002.875,K,D*0E
$GPGGA,083331.15,5703.2765945,N,00951.8437680,E,2,10,0.9,-1.659,M,40.593,M,1.5,0123*6A
$GPVTG,018.75,T,-621.15,M,001.543,N,002.857,K,D*0A
$GPGGA,083331.20,5703.2766154,N,00951.8437801,E,2,10,0.9,-1.659,M,40.593,M,1.5,0123*60
$GPVTG,019.08,T,-620.82,M,001.550,N,002.871,K,D*08
$GPGGA,083331.25,5703.2766366,N,00951.8437922,E,2,10,0.9,-1.661,M,40.593,M,1.7,0123*6F
$GPVTG,019.22,T,-620.68,M,001.565,N,002.898,K,D*05
$GPGGA,083331.30,5703.2766573,N,00951.8438057,E,2,10,0.9,-1.661,M,40.593,M,1.7,0123*6D
$GPVTG,019.84,T,-620.06,M,001.571,N,002.910,K,D*05
$GPGGA,083331.35,5703.2766767,N,00951.8438192,E,2,10,0.9,-1.661,M,40.593,M,1.7,0123*67
$GPVTG,020.53,T,-619.37,M,001.559,N,002.887,K,D*08
$GPGGA,083331.40,5703.2766962,N,00951.8438320,E,2,10,0.9,-1.663,M,40.593,M,1.7,0123*67
$GPVTG,020.83,T,-619.07,M,001.546,N,002.864,K,D*05
$GPGGA,083331.45,5703.2767171,N,00951.8438465,E,2,10,0.9,-1.660,M,40.593,M,2.0,0123*68
$GPVTG,021.37,T,-618.53,M,001.549,N,002.868,K,D*08
$GPGGA,083331.50,5703.2767365,N,00951.8438613,E,2,10,0.9,-1.661,M,40.593,M,2.0,0123*69
$GPVTG,022.15,T,-617.75,M,001.542,N,002.857,K,D*07
$GPGGA,083331.55,5703.2767567,N,00951.8438753,E,2,10,0.9,-1.659,M,40.593,M,2.0,0123*66
$GPVTG,022.34,T,-617.56,M,001.545,N,002.861,K,D*07
$GPGGA,083331.60,5703.2767769,N,00951.8438901,E,2,10,0.9,-1.655,M,40.593,M,2.0,0123*69
$GPVTG,022.70,T,-617.20,M,001.550,N,002.871,K,D*03
$GPGGA,083331.65,5703.2767960,N,00951.8439063,E,2,10,0.9,-1.652,M,40.593,M,2.2,0123*62
$GPVTG,023.66,T,-616.24,M,001.540,N,002.853,K,D*01
$GPGGA,083331.70,5703.2768150,N,00951.8439226,E,2,10,0.9,-1.650,M,40.593,M,2.2,0123*63
$GPVTG,024.49,T,-615.41,M,001.536,N,002.844,K,D*0C
$GPGGA,083331.75,5703.2768343,N,00951.8439386,E,2,10,0.9,-1.647,M,40.593,M,2.2,0123*6B
$GPVTG,024.99,T,-614.91,M,001.534,N,002.841,K,D*0A
$GPGGA,083331.80,5703.2768548,N,00951.8439544,E,2,10,0.9,-1.649,M,40.593,M,2.2,0123*6A
$GPVTG,025.02,T,-614.88,M,001.546,N,002.864,K,D*03
$GPGGA,083331.85,5703.2768746,N,00951.8439701,E,2,10,0.9,-1.652,M,40.593,M,2.4,0123*6C
$GPVTG,025.01,T,-614.89,M,001.557,N,002.883,K,D*08
$GPGGA,083331.90,5703.2768950,N,00951.8439870,E,2,10,0.9,-1.653,M,40.593,M,2.4,0123*69
$GPVTG,025.25,T,-614.65,M,001.570,N,002.908,K,D*0B
$GPGGA,083331.95,5703.2769148,N,00951.8440043,E,2,10,0.9,-1.656,M,40.593,M,2.4,0123*6F
$GPVTG,025.72,T,-614.18,M,001.575,N,002.917,K,D*08
$GPGGA,083332.00,5703.2769341,N,00951.8440222,E,2,10,0.9,-1.657,M,40.593,M,2.4,0123*6F
$GPVTG,026.32,T,-613.58,M,001.576,N,002.919,K,D*01
$GPGGA,083332.05,5703.2769542,N,00951.8440416,E,2,10,0.9,-1.651,M,40.593,M,2.2,0123*6E
$GPVTG,027.25,T,-612.65,M,001.596,N,002.955,K,D*0F
$GPGGA,083332.10,5703.2769740,N,00951.8440610,E,2,10,0.9,-1.651,M,40.593,M,2.2,0123*6E
$GPVTG,027.94,T,-611.96,M,001.606,N,002.974,K,D*03
$GPGGA,083332.15,5703.2769928,N,00951.8440814,E,2,10,0.9,-1.653,M,40.593,M,2.2,0123*63
$GPVTG,028.97,T,-610.93,M,001.606,N,002.974,K,D*0B
$GPGGA,083332.20,5703.2770116,N,00951.8441005,E,2,10,0.9,-1.657,M,40.593,M,2.2,0123*65
$GPVTG,029.45,T,-610.45,M,001.600,N,002.963,K,D*0E
$GPGGA,083332.25,5703.2770302,N,00951.8441201,E,2,10,0.9,-1.661,M,40.593,M,2.4,0123*62
$GPVTG,029.95,T,-609.95,M,001.596,N,002.955,K,D*0F
$GPGGA,083332.30,5703.2770481,N,00951.8441406,E,2,10,0.9,-1.663,M,40.593,M,2.4,0123*69
$GPVTG,030.84,T,-609.06,M,001.585,N,002.935,K,D*09
$GPGGA,083332.35,5703.2770661,N,00951.8441622,E,2,10,0.9,-1.664,M,40.593,M,2.4,0123*63
$GPVTG,031.87,T,-608.03,M,001.582,N,002.930,K,D*0D
$GPGGA,083332.40,5703.2770852,N,00951.8441840,E,2,10,0.9,-1.663,M,40.593,M,2.4,0123*62
$GPVTG,032.45,T,-607.45,M,001.593,N,002.951,K,D*0A
$GPGGA,083332.45,5703.2771041,N,00951.8442054,E,2,10,0.9,-1.660,M,40.593,M,2.7,0123*62
$GPVTG,032.86,T,-607.04,M,001.594,N,002.952,K,D*04
$GPGGA,083332.50,5703.2771229,N,00951.8442278,E,2,10,0.9,-1.659,M,40.593,M,2.7,0123*6C
$GPVTG,033.44,T,-606.46,M,001.602,N,002.966,K,D*07
$GPGGA,083332.55,5703.2771408,N,00951.8442492,E,2,10,0.9,-1.658,M,40.593,M,2.7,0123*6F
$GPVTG,033.85,T,-606.05,M,001.593,N,002.950,K,D*03
$GPGGA,083332.60,5703.2771594,N,00951.8442716,E,2,10,0.9,-1.656,M,40.593,M,2.7,0123*6C
$GPVTG,034.23,T,-605.67,M,001.597,N,002.958,K,D*03
$GPGGA,083332.65,5703.2771783,N,00951.8442944,E,2,10,0.9,-1.655,M,40.593,M,2.9,0123*69
$GPVTG,034.45,T,-605.45,M,001.613,N,002.987,K,D*0E
$GPGGA,083332.70,5703.2771967,N,00951.8443190,E,2,10,0.9,-1.656,M,40.593,M,2.9,0123*6A
$GPVTG,035.31,T,-604.59,M,001.624,N,003.007,K,D*04
$GPGGA,083332.75,5703.2772156,N,00951.8443434,E,2,10,0.9,-1.654,M,40.593,M,2.9,0123*6F
$GPVTG,035.77,T,-604.13,M,001.637,N,003.031,K,D*0F
$GPGGA,083332.80,5703.2772346,N,00951.8443673,E,2,10,0.9,-1.656,M,40.593,M,2.9,0123*65
$GPVTG,035.96,T,-603.94,M,001.646,N,003.049,K,D*01
$GPGGA,083332.85,5703.2772533,N,00951.8443921,E,2,10,0.9,-1.660,M,40.593,M,3.1,0123*60
$GPVTG,036.30,T,-603.60,M,001.660,N,003.074,K,D*0F
$GPGGA,083332.90,5703.2772713,N,00951.8444174,E,2,10,0.9,-1.662,M,40.593,M,3.1,0123*69
$GPVTG,036.97,T,-602.93,M,001.661,N,003.077,K,D*0D
$GPGGA,083332.95,5703.2772890,N,00951.8444443,E,2,10,0.9,-1.662,M,40.593,M,3.1,0123*69
$GPVTG,037.98,T,-601.92,M,001.669,N,003.091,K,D*01
$GPGGA,083333.00,5703.2773073,N,00951.8444710,E,2,10,0.9,-1.661,M,40.593,M,3.1,0123*66
$GPVTG,038.60,T,-601.30,M,001.680,N,003.112,K,D*0C
$GPGGA,083333.05,5703.2773257,N,00951.8444974,E,2,10,0.9,-1.653,M,40.593,M,3.3,0123*68
$GPVTG,039.12,T,-600.78,M,001.686,N,003.122,K,D*00
$GPGGA,083333.10,5703.2773432,N,00951.8445240,E,2,10,0.9,-1.652,M,40.593,M,3.3,0123*65
$GPVTG,039.66,T,-600.24,M,001.684,N,003.118,K,D*01
$GPGGA,083333.15,5703.2773599,N,00951.8445521,E,2,10,0.9,-1.653,M,40.593,M,3.3,0123*61
$GPVTG,040.75,T,-599.15,M,001.680,N,003.112,K,D*02
$GPGGA,083333.20,5703.2773771,N,00951.8445808,E,2,10,0.9,-1.654,M,40.593,M,3.3,0123*62
$GPVTG,041.59,T,-598.31,M,001.687,N,003.124,K,D*08
$GPGGA,083333.25,5703.2773926,N,00951.8446091,E,2,10,0.9,-1.660,M,40.593,M,3.5,0123*61
$GPVTG,042.47,T,-597.43,M,001.685,N,003.121,K,D*09
$GPGGA,083333.30,5703.2774074,N,00951.8446387,E,2,10,0.9,-1.662,M,40.593,M,3.5,0123*6A
$GPVTG,043.99,T,-595.91,M,001.670,N,003.094,K,D*03
$GPGGA,083333.35,5703.2774224,N,00951.8446684,E,2,10,0.9,-1.662,M,40.593,M,3.5,0123*6E
$GPVTG,045.30,T,-594.60,M,001.658,N,003.071,K,D*08
$GPGGA,083333.40,5703.2774377,N,00951.8446981,E,2,10,0.9,-1.662,M,40.593,M,3.5,0123*61
$GPVTG,046.20,T,-593.70,M,001.651,N,003.058,K,D*0E
$GPGGA,083333.45,5703.2774534,N,00951.8447284,E,2,10,0.9,-1.661,M,40.593,M,3.7,0123*6B
$GPVTG,047.07,T,-592.83,M,001.647,N,003.051,K,D*09
$GPGGA,083333.50,5703.2774687,N,00951.8447601,E,2,10,0.9,-1.662,M,40.593,M,3.7,0123*6E
$GPVTG,048.08,T,-591.82,M,001.654,N,003.063,K,D*08
$GPGGA,083333.55,5703.2774835,N,00951.8447908,E,2,10,0.9,-1.662,M,40.593,M,3.7,0123*6A
$GPVTG,048.87,T,-591.03,M,001.647,N,003.051,K,D*05
$GPGGA,083333.60,5703.2774979,N,00951.8448216,E,2,10,0.9,-1.665,M,40.593,M,3.7,0123*69
$GPVTG,049.67,T,-590.23,M,001.639,N,003.035,K,D*02
$GPGGA,083333.65,5703.2775139,N,00951.8448522,E,2,10,0.9,-1.663,M,40.593,M,3.9,0123*69
$GPVTG,049.77,T,-590.13,M,001.637,N,003.032,K,D*09
$GPGGA,083333.70,5703.2775291,N,00951.8448849,E,2,10,0.9,-1.660,M,40.593,M,3.9,0123*6F
$GPVTG,050.39,T,-589.51,M,001.650,N,003.056,K,D*06
$GPGGA,083333.75,5703.2775435,N,00951.8449181,E,2,10,0.9,-1.660,M,40.593,M,3.9,0123*6E
$GPVTG,051.31,T,-588.59,M,001.657,N,003.070,K,D*05
$GPGGA,083333.80,5703.2775578,N,00951.8449519,E,2,10,0.9,-1.660,M,40.593,M,3.9,0123*69
$GPVTG,052.17,T,-587.73,M,001.666,N,003.086,K,D*0E
$GPGGA,083333.85,5703.2775718,N,00951.8449840,E,2,10,0.9,-1.659,M,40.593,M,4.1,0123*6C
$GPVTG,052.65,T,-587.25,M,001.657,N,003.069,K,D*0B
$GPGGA,083333.90,5703.2775846,N,00951.8450161,E,2,10,0.9,-1.659,M,40.593,M,4.1,0123*6E
$GPVTG,053.47,T,-586.43,M,001.639,N,003.035,K,D*0A
$GPGGA,083333.95,5703.2775965,N,00951.8450493,E,2,10,0.9,-1.662,M,40.593,M,4.1,0123*6B
$GPVTG,054.71,T,-585.19,M,001.624,N,003.008,K,D*06
$GPGGA,083334.00,5703.2776078,N,00951.8450827,E,2,10,0.9,-1.663,M,40.593,M,4.1,0123*64
$GPVTG,056.08,T,-583.82,M,001.608,N,002.978,K,D*0F
$GPGGA,083334.05,5703.2776194,N,00951.8451150,E,2,10,0.9,-1.660,M,40.593,M,1.5,0123*68
$GPVTG,056.77,T,-583.13,M,001.597,N,002.957,K,D*07
$GPGGA,083334.10,5703.2776316,N,00951.8451493,E,2,10,0.9,-1.659,M,40.593,M,1.5,0123*64
$GPVTG,057.52,T,-582.38,M,001.598,N,002.959,K,D*08
$GPGGA,083334.15,5703.2776435,N,00951.8451834,E,2,10,0.9,-1.660,M,40.593,M,1.5,0123*6C
$GPVTG,058.27,T,-581.63,M,001.595,N,002.954,K,D*08
$GPGGA,083334.20,5703.2776538,N,00951.8452158,E,2,10,0.9,-1.660,M,40.593,M,1.5,0123*66
$GPVTG,059.20,T,-580.70,M,001.567,N,002.902,K,D*03
$GPGGA,083334.25,5703.2776641,N,00951.8452493,E,2,10,0.9,-1.662,M,40.593,M,1.8,0123*63
$GPVTG,060.11,T,-579.79,M,001.553,N,002.876,K,D*01
$GPGGA,083334.30,5703.2776751,N,00951.8452841,E,2,10,0.9,-1.660,M,40.593,M,1.8,0123*66
$GPVTG,060.86,T,-579.04,M,001.555,N,002.881,K,D*0B
$GPGGA,083334.35,5703.2776856,N,00951.8453189,E,2,10,0.9,-1.660,M,40.593,M,1.8,0123*67
$GPVTG,061.68,T,-578.22,M,001.554,N,002.878,K,D*08
$GPGGA,083334.40,5703.2776957,N,00951.8453545,E,2,10,0.9,-1.661,M,40.593,M,1.8,0123*60
$GPVTG,062.61,T,-577.29,M,001.557,N,002.884,K,D*06
$GPGGA,083334.45,5703.2777042,N,00951.8453899,E,2,10,0.9,-1.665,M,40.593,M,2.0,0123*6A
$GPVTG,063.94,T,-575.96,M,001.552,N,002.875,K,D*00
$GPGGA,083334.50,5703.2777136,N,00951.8454241,E,2,10,0.9,-1.666,M,40.593,M,2.0,0123*67
$GPVTG,064.57,T,-575.33,M,001.539,N,002.850,K,D*0D
$GPGGA,083334.55,5703.2777235,N,00951.8454599,E,2,10,0.9,-1.666,M,40.593,M,2.0,0123*60
$GPVTG,065.09,T,-574.81,M,001.545,N,002.861,K,D*06
$GPGGA,083334.60,5703.2777320,N,00951.8454949,E,2,10,0.9,-1.666,M,40.593,M,2.0,0123*62
$GPVTG,066.01,T,-573.89,M,001.534,N,002.841,K,D*06
$GPGGA,083334.65,5703.2777406,N,00951.8455302,E,2,10,0.9,-1.668,M,40.593,M,2.2,0123*6C
$GPVTG,066.77,T,-573.13,M,001.529,N,002.831,K,D*0F
$GPGGA,083334.70,5703.2777490,N,00951.8455646,E,2,10,0.9,-1.670,M,40.593,M,2.2,0123*6B
$GPVTG,067.36,T,-572.54,M,001.515,N,002.805,K,D*01
$GPGGA,083334.75,5703.2777567,N,00951.8456003,E,2,10,0.9,-1.671,M,40.593,M,2.2,0123*62
$GPVTG,068.31,T,-571.59,M,001.511,N,002.798,K,D*08
$GPGGA,083334.80,5703.2777647,N,00951.8456355,E,2,10,0.9,-1.673,M,40.593,M,2.2,0123*6B
$GPVTG,068.88,T,-571.02,M,001.504,N,002.786,K,D*0F
$GPGGA,083334.85,5703.2777727,N,00951.8456720,E,2,10,0.9,-1.667,M,40.593,M,2.5,0123*6D
$GPVTG,069.70,T,-570.20,M,001.507,N,002.791,K,D*0D
$GPGGA,083334.90,5703.2777792,N,00951.8457078,E,2,10,0.9,-1.666,M,40.593,M,2.5,0123*6D
$GPVTG,070.79,T,-569.11,M,001.499,N,002.777,K,D*08
$GPGGA,083334.95,5703.2777859,N,00951.8457429,E,2,10,0.9,-1.666,M,40.593,M,2.5,0123*60
$GPVTG,071.54,T,-568.36,M,001.489,N,002.757,K,D*01
$GPGGA,083335.00,5703.2777927,N,00951.8457779,E,2,10,0.9,-1.665,M,40.593,M,2.5,0123*60
$GPVTG,072.05,T,-567.85,M,001.479,N,002.738,K,D*07
$GPGGA,083335.05,5703.2777982,N,00951.8458122,E,2,10,0.9,-1.662,M,40.593,M,1.5,0123*69
$GPVTG,072.71,T,-567.19,M,001.468,N,002.719,K,D*02
$GPGGA,083335.10,5703.2778041,N,00951.8458468,E,2,10,0.9,-1.660,M,40.593,M,1.5,0123*6D
$GPVTG,073.39,T,-566.51,M,001.454,N,002.693,K,D*0E
$GPGGA,083335.15,5703.2778102,N,00951.8458807,E,2,10,0.9,-1.656,M,40.593,M,1.5,0123*6E
$GPVTG,073.77,T,-566.13,M,001.436,N,002.659,K,D*00
$GPGGA,083335.20,5703.2778158,N,00951.8459160,E,2,10,0.9,-1.655,M,40.593,M,1.5,0123*6D
$GPVTG,074.52,T,-565.38,M,001.432,N,002.652,K,D*05
$GPGGA,083335.25,5703.2778194,N,00951.8459512,E,2,10,0.9,-1.659,M,40.593,M,1.7,0123*67
$GPVTG,075.86,T,-564.04,M,001.427,N,002.642,K,D*06
$GPGGA,083335.30,5703.2778236,N,00951.8459862,E,2,10,0.9,-1.660,M,40.593,M,1.7,0123*68
$GPVTG,076.95,T,-562.95,M,001.417,N,002.625,K,D*0B
$GPGGA,083335.35,5703.2778282,N,00951.8460214,E,2,10,0.9,-1.661,M,40.593,M,1.7,0123*62
$GPVTG,077.66,T,-562.24,M,001.414,N,002.618,K,D*01
$GPGGA,083335.40,5703.2778332,N,00951.8460570,E,2,10,0.9,-1.661,M,40.593,M,1.7,0123*6F
$GPVTG,078.01,T,-561.89,M,001.416,N,002.623,K,D*01
$GPGGA,083335.45,5703.2778388,N,00951.8460924,E,2,10,0.9,-1.654,M,40.593,M,2.0,0123*64
$GPVTG,078.26,T,-561.64,M,001.413,N,002.617,K,D*05
$GPGGA,083335.50,5703.2778435,N,00951.8461264,E,2,10,0.9,-1.652,M,40.593,M,2.0,0123*69
$GPVTG,078.48,T,-561.42,M,001.401,N,002.594,K,D*02
$GPGGA,083335.55,5703.2778478,N,00951.8461610,E,2,10,0.9,-1.650,M,40.593,M,2.0,0123*60
$GPVTG,078.87,T,-561.03,M,001.394,N,002.582,K,D*08
$GPGGA,083335.60,5703.2778515,N,00951.8461956,E,2,10,0.9,-1.648,M,40.593,M,2.0,0123*68
$GPVTG,079.44,T,-560.46,M,001.387,N,002.569,K,D*01
$GPGGA,083335.65,5703.2778531,N,00951.8462286,E,2,10,0.9,-1.653,M,40.593,M,2.2,0123*66
$GPVTG,080.68,T,-559.22,M,001.368,N,002.533,K,D*0F
$GPGGA,083335.70,5703.2778556,N,00951.8462616,E,2,10,0.9,-1.655,M,40.593,M,2.2,0123*68
$GPVTG,081.65,T,-558.25,M,001.349,N,002.498,K,D*06
$GPGGA,083335.75,5703.2778578,N,00951.8462948,E,2,10,0.9,-1.655,M,40.593,M,2.2,0123*65
$GPVTG,082.60,T,-557.30,M,001.333,N,002.470,K,D*00
$GPGGA,083335.80,5703.2778596,N,00951.8463290,E,2,10,0.9,-1.656,M,40.593,M,2.2,0123*63
$GPVTG,083.72,T,-556.18,M,001.331,N,002.464,K,D*0E
$GPGGA,083335.85,5703.2778622,N,00951.8463646,E,2,10,0.9,-1.654,M,40.593,M,2.4,0123*61
$GPVTG,084.41,T,-555.49,M,001.343,N,002.487,K,D*06
$GPGGA,083335.90,5703.2778635,N,00951.8463997,E,2,10,0.9,-1.654,M,40.593,M,2.4,0123*60
$GPVTG,085.48,T,-554.42,M,001.348,N,002.496,K,D*0F
$GPGGA,083335.95,5703.2778648,N,00951.8464333,E,2,10,0.9,-1.657,M,40.593,M,2.4,0123*6F
$GPVTG,086.37,T,-553.53,M,001.340,N,002.481,K,D*0D
$GPGGA,083336.00,5703.2778654,N,00951.8464663,E,2,10,0.9,-1.659,M,40.593,M,2.4,0123*63
$GPVTG,087.48,T,-552.42,M,001.327,N,002.458,K,D*00
$GPGGA,083336.05,5703.2778651,N,00951.8464971,E,2,10,0.9,-1.660,M,40.593,M,2.2,0123*63
$GPVTG,088.39,T,-551.51,M,001.303,N,002.413,K,D*01
$GPGGA,083336.10,5703.2778662,N,00951.8465294,E,2,10,0.9,-1.658,M,40.593,M,2.2,0123*6D
$GPVTG,088.85,T,-551.05,M,001.290,N,002.390,K,D*00
$GPGGA,083336.15,5703.2778662,N,00951.8465609,E,2,10,0.9,-1.658,M,40.593,M,2.2,0123*68
$GPVTG,089.87,T,-550.03,M,001.272,N,002.355,K,D*01
$GPGGA,083336.20,5703.2778644,N,00951.8465927,E,2,10,0.9,-1.660,M,40.593,M,2.2,0123*62
$GPVTG,091.89,T,-548.01,M,001.260,N,002.334,K,D*09
$GPGGA,083336.25,5703.2778640,N,00951.8466257,E,2,10,0.9,-1.660,M,40.593,M,2.4,0123*6A
$GPVTG,092.76,T,-547.14,M,001.263,N,002.339,K,D*0F
$GPGGA,083336.30,5703.2778651,N,00951.8466564,E,2,10,0.9,-1.661,M,40.593,M,2.4,0123*68
$GPVTG,092.43,T,-547.47,M,001.243,N,002.302,K,D*05
$GPGGA,083336.35,5703.2778647,N,00951.8466867,E,2,10,0.9,-1.660,M,40.593,M,2.4,0123*65
$GPVTG,093.07,T,-546.83,M,001.224,N,002.267,K,D*0E
$GPGGA,083336.40,5703.2778638,N,00951.8467177,E,2,10,0.9,-1.663,M,40.593,M,2.4,0123*65
$GPVTG,093.87,T,-546.03,M,001.215,N,002.251,K,D*09
$GPGGA,083336.45,5703.2778622,N,00951.8467501,E,2,10,0.9,-1.665,M,40.593,M,2.7,0123*6B
$GPVTG,094.95,T,-544.95,M,001.224,N,002.267,K,D*07
$GPGGA,083336.50,5703.2778600,N,00951.8467811,E,2,10,0.9,-1.667,M,40.593,M,2.7,0123*61
$GPVTG,096.29,T,-543.61,M,001.219,N,002.258,K,D*0C
$GPGGA,083336.55,5703.2778581,N,00951.8468097,E,2,10,0.9,-1.670,M,40.593,M,2.7,0123*61
$GPVTG,097.36,T,-542.54,M,001.194,N,002.211,K,D*0F
$GPGGA,083336.60,5703.2778557,N,00951.8468396,E,2,10,0.9,-1.671,M,40.593,M,2.7,0123*6F
$GPVTG,098.48,T,-541.42,M,001.186,N,002.197,K,D*03
$GPGGA,083336.65,5703.2778526,N,00951.8468685,E,2,10,0.9,-1.674,M,40.593,M,2.9,0123*60
$GPVTG,099.75,T,-540.15,M,001.173,N,002.173,K,D*0F
$GPGGA,083336.70,5703.2778499,N,00951.8468976,E,2,10,0.9,-1.675,M,40.593,M,2.9,0123*63
$GPVTG,100.67,T,-539.23,M,001.163,N,002.155,K,D*03
$GPGGA,083336.75,5703.2778477,N,00951.8469259,E,2,10,0.9,-1.675,M,40.593,M,2.9,0123*61
$GPVTG,101.20,T,-538.70,M,001.147,N,002.125,K,D*07
$GPGGA,083336.80,5703.2778454,N,00951.8469535,E,2,10,0.9,-1.674,M,40.593,M,2.9,0123*66
$GPVTG,101.64,T,-538.26,M,001.129,N,002.090,K,D*03
$GPGGA,083336.85,5703.2778426,N,00951.8469811,E,2,10,0.9,-1.668,M,40.593,M,3.1,0123*69
$GPVTG,102.81,T,-537.09,M,001.115,N,002.064,K,D*0D
$GPGGA,083336.90,5703.2778390,N,00951.8470090,E,2,10,0.9,-1.666,M,40.593,M,3.1,0123*60
$GPVTG,103.80,T,-536.10,M,001.109,N,002.055,K,D*0B
$GPGGA,083336.95,5703.2778360,N,00951.8470351,E,2,10,0.9,-1.663,M,40.593,M,3.1,0123*61
$GPVTG,104.45,T,-535.45,M,001.088,N,002.015,K,D*0A
$GPGGA,083337.00,5703.2778331,N,00951.8470600,E,2,10,0.9,-1.658,M,40.593,M,3.1,0123*61
$GPVTG,104.98,T,-534.92,M,001.059,N,001.961,K,D*04
$GPGGA,083337.05,5703.2778274,N,00951.8470821,E,2,10,0.9,-1.656,M,40.593,M,3.3,0123*65
$GPVTG,106.80,T,-533.10,M,001.025,N,001.898,K,D*0E
$GPGGA,083337.10,5703.2778229,N,00951.8471071,E,2,10,0.9,-1.654,M,40.593,M,3.3,0123*67
$GPVTG,108.19,T,-531.71,M,001.015,N,001.880,K,D*0F
$GPGGA,083337.15,5703.2778185,N,00951.8471318,E,2,10,0.9,-1.651,M,40.593,M,3.3,0123*6E
$GPVTG,109.27,T,-530.63,M,001.005,N,001.862,K,D*0C
$GPGGA,083337.20,5703.2778140,N,00951.8471550,E,2,10,0.9,-1.647,M,40.593,M,3.3,0123*6C
$GPVTG,110.41,T,-529.49,M,000.986,N,001.826,K,D*07
$GPGGA,083337.25,5703.2778091,N,00951.8471762,E,2,10,0.9,-1.649,M,40.593,M,3.5,0123*6F
$GPVTG,111.18,T,-528.72,M,000.954,N,001.767,K,D*06
$GPGGA,083337.30,5703.2778042,N,00951.8471988,E,2,10,0.9,-1.646,M,40.593,M,3.5,0123*60
$GPVTG,112.39,T,-527.51,M,000.942,N,001.745,K,D*0F
$GPGGA,083337.35,5703.2777991,N,00951.8472204,E,2,10,0.9,-1.646,M,40.593,M,3.5,0123*61
$GPVTG,113.83,T,-526.07,M,000.926,N,001.715,K,D*0A
$GPGGA,083337.40,5703.2777932,N,00951.8472424,E,2,10,0.9,-1.647,M,40.593,M,3.5,0123*6F
$GPVTG,115.46,T,-524.44,M,000.922,N,001.708,K,D*08
$GPGGA,083337.45,5703.2777873,N,00951.8472637,E,2,10,0.9,-1.645,M,40.593,M,3.7,0123*6E
$GPVTG,116.85,T,-523.05,M,000.915,N,001.695,K,D*07
$GPGGA,083337.50,5703.2777829,N,00951.8472824,E,2,10,0.9,-1.642,M,40.593,M,3.7,0123*6E
$GPVTG,117.69,T,-522.21,M,000.881,N,001.631,K,D*01
$GPGGA,083337.55,5703.2777769,N,00951.8473018,E,2,10,0.9,-1.641,M,40.593,M,3.7,0123*65
$GPVTG,119.36,T,-520.54,M,000.868,N,001.607,K,D*07
$GPGGA,083337.60,5703.2777709,N,00951.8473223,E,2,10,0.9,-1.639,M,40.593,M,3.7,0123*60
$GPVTG,120.40,T,-519.50,M,000.868,N,001.608,K,D*0D
$GPGGA,083337.65,5703.2777653,N,00951.8473422,E,2,10,0.9,-1.637,M,40.593,M,3.9,0123*6C
$GPVTG,121.45,T,-518.45,M,000.864,N,001.601,K,D*09
$GPGGA,083337.70,5703.2777599,N,00951.8473611,E,2,10,0.9,-1.638,M,40.593,M,3.9,0123*60
$GPVTG,121.99,T,-517.91,M,000.851,N,001.577,K,D*0A
$GPGGA,083337.75,5703.2777545,N,00951.8473804,E,2,10,0.9,-1.639,M,40.593,M,3.9,0123*6F
$GPVTG,122.22,T,-517.68,M,000.844,N,001.563,K,D*0E
$GPGGA,083337.80,5703.2777488,N,00951.8473988,E,2,10,0.9,-1.640,M,40.593,M,3.9,0123*6E
$GPVTG,122.86,T,-517.04,M,000.834,N,001.545,K,D*09
$GPGGA,083337.85,5703.2777419,N,00951.8474145,E,2,10,0.9,-1.645,M,40.593,M,4.1,0123*67
$GPVTG,124.75,T,-515.15,M,000.813,N,001.505,K,D*00
$GPGGA,083337.90,5703.2777358,N,00951.8474293,E,2,10,0.9,-1.647,M,40.593,M,4.1,0123*6B
$GPVTG,126.50,T,-513.40,M,000.784,N,001.453,K,D*00
$GPGGA,083337.95,5703.2777301,N,00951.8474428,E,2,10,0.9,-1.652,M,40.593,M,4.1,0123*60
$GPVTG,128.31,T,-511.59,M,000.750,N,001.388,K,D*0B
$GPGGA,083338.00,5703.2777237,N,00951.8474570,E,2,10,0.9,-1.656,M,40.593,M,4.1,0123*6F
$GPVTG,130.15,T,-509.75,M,000.733,N,001.357,K,D*04
$GPGGA,083338.05,5703.2777175,N,00951.8474711,E,2,10,0.9,-1.652,M,40.593,M,1.5,0123*6F
$GPVTG,131.05,T,-508.85,M,000.719,N,001.332,K,D*01
$GPGGA,083338.10,5703.2777121,N,00951.8474842,E,2,10,0.9,-1.652,M,40.593,M,1.5,0123*63
$GPVTG,131.97,T,-507.93,M,000.693,N,001.283,K,D*0A
$GPGGA,083338.15,5703.2777071,N,00951.8474960,E,2,10,0.9,-1.651,M,40.593,M,1.5,0123*60
$GPVTG,132.88,T,-507.02,M,000.658,N,001.219,K,D*0B
$GPGGA,083338.20,5703.2777007,N,00951.8475071,E,2,10,0.9,-1.653,M,40.593,M,1.5,0123*6D
$GPVTG,135.36,T,-504.54,M,000.639,N,001.184,K,D*09
$GPGGA,083338.25,5703.2776949,N,00951.8475190,E,2,10,0.9,-1.652,M,40.593,M,1.8,0123*68
$GPVTG,136.77,T,-503.13,M,000.627,N,001.161,K,D*0F
$GPGGA,083338.30,5703.2776878,N,00951.8475310,E,2,10,0.9,-1.653,M,40.593,M,1.8,0123*64
$GPVTG,138.43,T,-501.47,M,000.629,N,001.165,K,D*0F
$GPGGA,083338.35,5703.2776826,N,00951.8475434,E,2,10,0.9,-1.652,M,40.593,M,1.8,0123*6A
$GPVTG,137.81,T,-502.09,M,000.616,N,001.141,K,D*0D
$GPGGA,083338.40,5703.2776769,N,00951.8475558,E,2,10,0.9,-1.653,M,40.593,M,1.8,0123*66
$GPVTG,137.41,T,-502.49,M,000.611,N,001.131,K,D*05
$GPGGA,083338.45,5703.2776708,N,00951.8475669,E,2,10,0.9,-1.658,M,40.593,M,2.0,0123*65
$GPVTG,136.97,T,-502.93,M,000.594,N,001.101,K,D*05
$GPGGA,083338.50,5703.2776643,N,00951.8475775,E,2,10,0.9,-1.657,M,40.593,M,2.0,0123*6C
$GPVTG,138.23,T,-501.67,M,000.591,N,001.095,K,D*05
$GPGGA,083338.55,5703.2776579,N,00951.8475857,E,2,10,0.9,-1.659,M,40.593,M,2.0,0123*62
$GPVTG,140.96,T,-498.94,M,000.575,N,001.064,K,D*0D
$GPGGA,083338.60,5703.2776521,N,00951.8475946,E,2,10,0.9,-1.660,M,40.593,M,2.0,0123*62
$GPVTG,142.18,T,-497.72,M,000.559,N,001.035,K,D*04
$GPGGA,083338.65,5703.2776468,N,00951.8476049,E,2,10,0.9,-1.656,M,40.593,M,2.2,0123*69
$GPVTG,142.31,T,-497.59,M,000.555,N,001.027,K,D*09
$GPGGA,083338.70,5703.2776408,N,00951.8476134,E,2,10,0.9,-1.655,M,40.593,M,2.2,0123*63
$GPVTG,143.55,T,-496.35,M,000.544,N,001.007,K,D*03
$GPGGA,083338.75,5703.2776346,N,00951.8476201,E,2,10,0.9,-1.657,M,40.593,M,2.2,0123*6C
$GPVTG,146.16,T,-493.74,M,000.529,N,000.980,K,D*0D
$GPGGA,083338.80,5703.2776297,N,00951.8476269,E,2,10,0.9,-1.657,M,40.593,M,2.2,0123*65
$GPVTG,147.30,T,-492.60,M,000.503,N,000.932,K,D*0D
$GPGGA,083338.85,5703.2776235,N,00951.8476336,E,2,10,0.9,-1.655,M,40.593,M,2.5,0123*66
$GPVTG,149.36,T,-490.54,M,000.497,N,000.920,K,D*0F
$GPGGA,083338.90,5703.2776181,N,00951.8476395,E,2,10,0.9,-1.651,M,40.593,M,2.5,0123*63
$GPVTG,151.03,T,-488.87,M,000.479,N,000.887,K,D*0B
$GPGGA,083338.95,5703.2776139,N,00951.8476445,E,2,10,0.9,-1.649,M,40.593,M,2.5,0123*66
$GPVTG,152.42,T,-487.48,M,000.446,N,000.825,K,D*05
$GPGGA,083339.00,5703.2776088,N,00951.8476500,E,2,10,0.9,-1.646,M,40.593,M,2.5,0123*6F
$GPVTG,153.59,T,-486.31,M,000.431,N,000.798,K,D*08
$GPGGA,083339.05,5703.2776033,N,00951.8476529,E,2,10,0.9,-1.639,M,40.593,M,1.5,0123*6A
$GPVTG,157.42,T,-482.48,M,000.417,N,000.772,K,D*0C
$GPGGA,083339.10,5703.2775979,N,00951.8476556,E,2,10,0.9,-1.638,M,40.593,M,1.5,0123*63
$GPVTG,161.42,T,-478.48,M,000.404,N,000.748,K,D*07
$GPGGA,083339.15,5703.2775926,N,00951.8476583,E,2,10,0.9,-1.638,M,40.593,M,1.5,0123*64
$GPVTG,164.63,T,-475.27,M,000.393,N,000.728,K,D*0A
$GPGGA,083339.20,5703.2775881,N,00951.8476594,E,2,10,0.9,-1.636,M,40.593,M,1.5,0123*66
$GPVTG,169.25,T,-470.65,M,000.371,N,000.687,K,D*0E
$GPGGA,083339.25,5703.2775827,N,00951.8476618,E,2,10,0.9,-1.635,M,40.593,M,1.7,0123*69
$GPVTG,171.18,T,-468.72,M,000.366,N,000.679,K,D*01
$GPGGA,083339.30,5703.2775783,N,00951.8476644,E,2,10,0.9,-1.634,M,40.593,M,1.7,0123*64
$GPVTG,172.27,T,-467.63,M,000.352,N,000.652,K,D*0F
$GPGGA,083339.35,5703.2775733,N,00951.8476653,E,2,10,0.9,-1.635,M,40.593,M,1.7,0123*6D
$GPVTG,175.63,T,-464.27,M,000.347,N,000.643,K,D*0F
$GPGGA,083339.40,5703.2775686,N,00951.8476654,E,2,10,0.9,-1.635,M,40.593,M,1.7,0123*67
$GPVTG,179.58,T,-460.32,M,000.340,N,000.630,K,D*08
$GPGGA,083339.45,5703.2775641,N,00951.8476677,E,2,10,0.9,-1.633,M,40.593,M,2.0,0123*6A
$GPVTG,179.28,T,-460.62,M,000.337,N,000.624,K,D*0F
$GPGGA,083339.50,5703.2775592,N,00951.8476688,E,2,10,0.9,-1.633,M,40.593,M,2.0,0123*63
$GPVTG,180.40,T,-459.50,M,000.336,N,000.622,K,D*0B
$GPGGA,083339.55,5703.2775528,N,00951.8476697,E,2,10,0.9,-1.634,M,40.593,M,2.0,0123*6E
$GPVTG,181.36,T,-458.54,M,000.356,N,000.659,K,D*04
$GPGGA,083339.60,5703.2775485,N,00951.8476687,E,2,10,0.9,-1.634,M,40.593,M,2.0,0123*6F
$GPVTG,184.94,T,-454.96,M,000.347,N,000.643,K,D*00
$GPGGA,083339.65,5703.2775446,N,00951.8476645,E,2,10,0.9,-1.637,M,40.593,M,2.2,0123*6A
$GPVTG,193.18,T,-446.72,M,000.337,N,000.624,K,D*0D
$GPGGA,083339.70,5703.2775409,N,00951.8476598,E,2,10,0.9,-1.641,M,40.593,M,2.2,0123*67
$GPVTG,201.24,T,-438.66,M,000.333,N,000.617,K,D*02
$GPGGA,083339.75,5703.2775364,N,00951.8476565,E,2,10,0.9,-1.644,M,40.593,M,2.2,0123*69
$GPVTG,204.80,T,-435.10,M,000.341,N,000.631,K,D*04
$GPGGA,083339.80,5703.2775310,N,00951.8476535,E,2,10,0.9,-1.646,M,40.593,M,2.2,0123*67
$GPVTG,206.17,T,-433.73,M,000.357,N,000.661,K,D*09
$GPGGA,083339.85,5703.2775262,N,00951.8476505,E,2,10,0.9,-1.649,M,40.593,M,2.4,0123*6C
$GPVTG,207.33,T,-432.57,M,000.363,N,000.673,K,D*0D
$GPGGA,083339.90,5703.2775223,N,00951.8476483,E,2,10,0.9,-1.650,M,40.593,M,2.4,0123*6A
$GPVTG,207.93,T,-431.97,M,000.353,N,000.654,K,D*0E
$GPGGA,083339.95,5703.2775179,N,00951.8476450,E,2,10,0.9,-1.649,M,40.593,M,2.4,0123*65
$GPVTG,209.04,T,-430.86,M,000.355,N,000.657,K,D*0A
$GPGGA,083340.00,5703.2775137,N,00951.8476404,E,2,10,0.9,-1.651,M,40.593,M,2.4,0123*65
$GPVTG,211.71,T,-428.19,M,000.359,N,000.665,K,D*03
$GPGGA,083340.05,5703.2775103,N,00951.8476349,E,2,10,0.9,-1.647,M,40.593,M,2.2,0123*68
$GPVTG,215.62,T,-424.28,M,000.356,N,000.659,K,D*0B
$GPGGA,083340.10,5703.2775075,N,00951.8476303,E,2,10,0.9,-1.646,M,40.593,M,2.2,0123*63
$GPVTG,218.73,T,-421.17,M,000.344,N,000.637,K,D*04
$GPGGA,083340.15,5703.2775037,N,00951.8476262,E,2,10,0.9,-1.645,M,40.593,M,2.2,0123*65
$GPVTG,219.32,T,-420.58,M,000.340,N,000.629,K,D*01
$GPGGA,083340.20,5703.2775004,N,00951.8476214,E,2,10,0.9,-1.642,M,40.593,M,2.2,0123*65
$GPVTG,221.33,T,-418.57,M,000.336,N,000.621,K,D*06
$GPGGA,083340.25,5703.2774974,N,00951.8476145,E,2,10,0.9,-1.645,M,40.593,M,2.4,0123*69
$GPVTG,226.44,T,-413.46,M,000.335,N,000.621,K,D*09
$GPGGA,083340.30,5703.2774950,N,00951.8476088,E,2,10,0.9,-1.646,M,40.593,M,2.4,0123*68
$GPVTG,229.75,T,-410.15,M,000.328,N,000.607,K,D*09
$GPGGA,083340.35,5703.2774926,N,00951.8476034,E,2,10,0.9,-1.646,M,40.593,M,2.4,0123*6B
$GPVTG,232.25,T,-407.65,M,000.320,N,000.593,K,D*01
$GPGGA,083340.40,5703.2774913,N,00951.8475951,E,2,10,0.9,-1.643,M,40.593,M,2.4,0123*63
$GPVTG,239.44,T,-400.46,M,000.326,N,000.604,K,D*00
$GPGGA,083340.45,5703.2774900,N,00951.8475864,E,2,10,0.9,-1.642,M,40.593,M,2.7,0123*61
$GPVTG,245.06,T,-394.84,M,000.339,N,000.629,K,D*08
$GPGGA,083340.50,5703.2774881,N,00951.8475786,E,2,10,0.9,-1.643,M,40.593,M,2.7,0123*6F
$GPVTG,247.96,T,-391.94,M,000.346,N,000.641,K,D*01
$GPGGA,083340.55,5703.2774874,N,00951.8475706,E,2,10,0.9,-1.641,M,40.593,M,2.7,0123*6A
$GPVTG,252.99,T,-386.91,M,000.349,N,000.646,K,D*01
$GPGGA,083340.60,5703.2774849,N,00951.8475604,E,2,10,0.9,-1.641,M,40.593,M,2.7,0123*61
$GPVTG,253.91,T,-385.99,M,000.378,N,000.699,K,D*03
$GPGGA,083340.65,5703.2774808,N,00951.8475506,E,2,10,0.9,-1.648,M,40.593,M,2.9,0123*67
$GPVTG,253.14,T,-386.76,M,000.395,N,000.731,K,D*0C
$GPGGA,083340.70,5703.2774774,N,00951.8475425,E,2,10,0.9,-1.649,M,40.593,M,2.9,0123*66
$GPVTG,250.92,T,-388.98,M,000.400,N,000.741,K,D*03
$GPGGA,083340.75,5703.2774749,N,00951.8475340,E,2,10,0.9,-1.649,M,40.593,M,2.9,0123*69
$GPVTG,250.64,T,-389.26,M,000.403,N,000.746,K,D*0A
$GPGGA,083340.80,5703.2774732,N,00951.8475245,E,2,10,0.9,-1.650,M,40.593,M,2.9,0123*63
$GPVTG,252.16,T,-387.74,M,000.409,N,000.757,K,D*0E
$GPGGA,083340.85,5703.2774722,N,00951.8475133,E,2,10,0.9,-1.647,M,40.593,M,3.1,0123*6A
$GPVTG,254.91,T,-384.99,M,000.430,N,000.796,K,D*00
$GPGGA,083340.90,5703.2774704,N,00951.8475023,E,2,10,0.9,-1.647,M,40.593,M,3.1,0123*6A
$GPVTG,255.95,T,-383.95,M,000.445,N,000.824,K,D*0A
$GPGGA,083340.95,5703.2774697,N,00951.8474911,E,2,10,0.9,-1.647,M,40.593,M,3.1,0123*6D
$GPVTG,258.54,T,-381.36,M,000.455,N,000.843,K,D*01
$GPGGA,083341.00,5703.2774702,N,00951.8474806,E,2,10,0.9,-1.644,M,40.593,M,3.1,0123*69
$GPVTG,262.67,T,-377.23,M,000.455,N,000.842,K,D*04
$GPGGA,083341.05,5703.2774700,N,00951.8474684,E,2,10,0.9,-1.643,M,40.593,M,3.3,0123*6F
$GPVTG,266.27,T,-373.63,M,000.464,N,000.860,K,D*06
$GPGGA,083341.10,5703.2774697,N,00951.8474556,E,2,10,0.9,-1.644,M,40.593,M,3.3,0123*6F
$GPVTG,268.04,T,-371.86,M,000.485,N,000.898,K,D*08
$GPGGA,083341.15,5703.2774703,N,00951.8474425,E,2,10,0.9,-1.643,M,40.593,M,3.3,0123*64
$GPVTG,270.65,T,-369.25,M,000.504,N,000.934,K,D*09
$GPGGA,083341.20,5703.2774711,N,00951.8474298,E,2,10,0.9,-1.641,M,40.593,M,3.3,0123*63
$GPVTG,273.06,T,-366.84,M,000.517,N,000.957,K,D*0C
$GPGGA,083341.25,5703.2774726,N,00951.8474181,E,2,10,0.9,-1.637,M,40.593,M,3.5,0123*6E
$GPVTG,276.06,T,-363.84,M,000.518,N,000.960,K,D*07
$GPGGA,083341.30,5703.2774743,N,00951.8474063,E,2,10,0.9,-1.635,M,40.593,M,3.5,0123*66
$GPVTG,279.18,T,-360.72,M,000.521,N,000.964,K,D*03
$GPGGA,083341.35,5703.2774752,N,00951.8473931,E,2,10,0.9,-1.637,M,40.593,M,3.5,0123*68
$GPVTG,280.14,T,-359.76,M,000.533,N,000.988,K,D*06
$GPGGA,083341.40,5703.2774771,N,00951.8473797,E,2,10,0.9,-1.636,M,40.593,M,3.5,0123*68
$GPVTG,282.33,T,-357.57,M,000.547,N,001.014,K,D*02
$GPGGA,083341.45,5703.2774785,N,00951.8473661,E,2,10,0.9,-1.638,M,40.593,M,3.7,0123*62
$GPVTG,284.50,T,-355.40,M,000.560,N,001.038,K,D*0E
$GPGGA,083341.50,5703.2774812,N,00951.8473530,E,2,10,0.9,-1.636,M,40.593,M,3.7,0123*6E
$GPVTG,287.04,T,-352.86,M,000.570,N,001.055,K,D*0B
$GPGGA,083341.55,5703.2774826,N,00951.8473390,E,2,10,0.9,-1.636,M,40.593,M,3.7,0123*60
$GPVTG,287.05,T,-352.85,M,000.580,N,001.075,K,D*04
$GPGGA,083341.60,5703.2774840,N,00951.8473247,E,2,10,0.9,-1.636,M,40.593,M,3.7,0123*6D
$GPVTG,286.92,T,-352.98,M,000.590,N,001.092,K,D*0F
$GPGGA,083341.65,5703.2774848,N,00951.8473103,E,2,10,0.9,-1.637,M,40.593,M,3.9,0123*6C
$GPVTG,285.75,T,-354.15,M,000.596,N,001.104,K,D*0E
$GPGGA,083341.70,5703.2774862,N,00951.8472963,E,2,10,0.9,-1.638,M,40.593,M,3.9,0123*60
$GPVTG,285.59,T,-354.31,M,000.598,N,001.108,K,D*04
$GPGGA,083341.75,5703.2774896,N,00951.8472810,E,2,10,0.9,-1.638,M,40.593,M,3.9,0123*6B
$GPVTG,287.64,T,-352.26,M,000.619,N,001.146,K,D*08
$GPGGA,083341.80,5703.2774925,N,00951.8472642,E,2,10,0.9,-1.638,M,40.593,M,3.9,0123*61
$GPVTG,288.29,T,-351.61,M,000.648,N,001.201,K,D*0A
$GPGGA,083341.85,5703.2774956,N,00951.8472479,E,2,10,0.9,-1.639,M,40.593,M,4.1,0123*64
$GPVTG,289.45,T,-350.45,M,000.669,N,001.238,K,D*0F
$GPGGA,083341.90,5703.2774983,N,00951.8472311,E,2,10,0.9,-1.643,M,40.593,M,4.1,0123*6C
$GPVTG,289.53,T,-350.37,M,000.688,N,001.274,K,D*0A
$GPGGA,083341.95,5703.2775012,N,00951.8472142,E,2,10,0.9,-1.645,M,40.593,M,4.1,0123*6B
$GPVTG,289.64,T,-350.26,M,000.704,N,001.304,K,D*0D
$GPGGA,083342.00,5703.2775056,N,00951.8471977,E,2,10,0.9,-1.644,M,40.593,M,4.1,0123*68
$GPVTG,291.47,T,-348.43,M,000.721,N,001.335,K,D*0A
$GPGGA,083342.05,5703.2775080,N,00951.8471794,E,2,10,0.9,-1.645,M,40.593,M,1.5,0123*65
$GPVTG,292.50,T,-347.40,M,000.737,N,001.365,K,D*01
$GPGGA,083342.10,5703.2775128,N,00951.8471631,E,2,10,0.9,-1.645,M,40.593,M,1.5,0123*6C
$GPVTG,294.25,T,-345.65,M,000.748,N,001.385,K,D*06
$GPGGA,083342.15,5703.2775173,N,00951.8471465,E,2,10,0.9,-1.649,M,40.593,M,1.5,0123*68
$GPVTG,295.40,T,-344.50,M,000.757,N,001.402,K,D*05
$GPGGA,083342.20,5703.2775221,N,00951.8471297,E,2,10,0.9,-1.649,M,40.593,M,1.5,0123*61
$GPVTG,296.59,T,-343.31,M,000.767,N,001.421,K,D*0C
$GPGGA,083342.25,5703.2775283,N,00951.8471139,E,2,10,0.9,-1.646,M,40.593,M,1.8,0123*69
$GPVTG,298.23,T,-341.67,M,000.773,N,001.432,K,D*09
$GPGGA,083342.30,5703.2775335,N,00951.8470964,E,2,10,0.9,-1.645,M,40.593,M,1.8,0123*63
$GPVTG,299.05,T,-340.85,M,000.788,N,001.459,K,D*08
$GPGGA,083342.35,5703.2775400,N,00951.8470805,E,2,10,0.9,-1.644,M,40.593,M,1.8,0123*60
$GPVTG,301.43,T,-338.47,M,000.797,N,001.475,K,D*0B
$GPGGA,083342.40,5703.2775470,N,00951.8470658,E,2,10,0.9,-1.643,M,40.593,M,1.8,0123*64
$GPVTG,304.21,T,-335.69,M,000.798,N,001.477,K,D*06
$GPGGA,083342.45,5703.2775515,N,00951.8470485,E,2,10,0.9,-1.651,M,40.593,M,2.0,0123*69
$GPVTG,304.58,T,-335.32,M,000.806,N,001.492,K,D*05
$GPGGA,083342.50,5703.2775588,N,00951.8470330,E,2,10,0.9,-1.650,M,40.593,M,2.0,0123*61
$GPVTG,306.84,T,-333.06,M,000.815,N,001.509,K,D*06
$GPGGA,083342.55,5703.2775663,N,00951.8470168,E,2,10,0.9,-1.650,M,40.593,M,2.0,0123*6D
$GPVTG,308.51,T,-331.39,M,000.830,N,001.537,K,D*04
$GPGGA,083342.60,5703.2775740,N,00951.8469999,E,2,10,0.9,-1.648,M,40.593,M,2.0,0123*6C
$GPVTG,309.70,T,-330.20,M,000.849,N,001.573,K,D*01
$GPGGA,083342.65,5703.2775821,N,00951.8469831,E,2,10,0.9,-1.647,M,40.593,M,2.2,0123*6F
$GPVTG,311.04,T,-328.86,M,000.869,N,001.610,K,D*0A
$GPGGA,083342.70,5703.2775893,N,00951.8469665,E,2,10,0.9,-1.645,M,40.593,M,2.2,0123*6F
$GPVTG,311.55,T,-328.35,M,000.876,N,001.622,K,D*09
$GPGGA,083342.75,5703.2775961,N,00951.8469493,E,2,10,0.9,-1.646,M,40.593,M,2.2,0123*6E
$GPVTG,311.38,T,-328.52,M,000.881,N,001.631,K,D*09
$GPGGA,083342.80,5703.2776037,N,00951.8469322,E,2,10,0.9,-1.646,M,40.593,M,2.2,0123*60
$GPVTG,311.68,T,-328.22,M,000.891,N,001.650,K,D*0D
$GPGGA,083342.85,5703.2776117,N,00951.8469158,E,2,10,0.9,-1.643,M,40.593,M,2.5,0123*6B
$GPVTG,312.24,T,-327.66,M,000.899,N,001.665,K,D*07
$GPGGA,083342.90,5703.2776189,N,00951.8468994,E,2,10,0.9,-1.643,M,40.593,M,2.5,0123*61
$GPVTG,312.41,T,-327.50,M,000.896,N,001.659,K,D*01
$GPGGA,083342.95,5703.2776272,N,00951.8468835,E,2,10,0.9,-1.643,M,40.593,M,2.5,0123*69
$GPVTG,313.40,T,-326.50,M,000.900,N,001.666,K,D*02
$GPGGA,083343.00,5703.2776363,N,00951.8468662,E,2,10,0.9,-1.642,M,40.593,M,2.5,0123*68
$GPVTG,314.05,T,-325.85,M,000.918,N,001.701,K,D*06
$GPGGA,083343.05,5703.2776448,N,00951.8468495,E,2,10,0.9,-1.635,M,40.593,M,1.5,0123*6A
$GPVTG,315.32,T,-324.59,M,000.924,N,001.712,K,D*0E
$GPGGA,083343.10,5703.2776545,N,00951.8468335,E,2,10,0.9,-1.634,M,40.593,M,1.5,0123*6E
$GPVTG,316.56,T,-323.34,M,000.937,N,001.735,K,D*04
$GPGGA,083343.15,5703.2776645,N,00951.8468154,E,2,10,0.9,-1.632,M,40.593,M,1.5,0123*6B
$GPVTG,316.81,T,-323.09,M,000.964,N,001.785,K,D*0D
$GPGGA,083343.20,5703.2776743,N,00951.8467980,E,2,10,0.9,-1.630,M,40.593,M,1.5,0123*66
$GPVTG,317.17,T,-322.73,M,000.981,N,001.816,K,D*01
$GPGGA,083343.25,5703.2776851,N,00951.8467817,E,2,10,0.9,-1.630,M,40.593,M,1.7,0123*62
$GPVTG,318.67,T,-321.23,M,000.998,N,001.849,K,D*0D
$GPGGA,083343.30,5703.2776956,N,00951.8467654,E,2,10,0.9,-1.629,M,40.593,M,1.7,0123*61
$GPVTG,319.58,T,-320.32,M,001.010,N,001.870,K,D*03
$GPGGA,083343.35,5703.2777061,N,00951.8467490,E,2,10,0.9,-1.630,M,40.593,M,1.7,0123*6A
$GPVTG,320.19,T,-319.71,M,001.019,N,001.887,K,D*00
$GPGGA,083343.40,5703.2777181,N,00951.8467338,E,2,10,0.9,-1.629,M,40.593,M,1.7,0123*6A
$GPVTG,321.93,T,-317.97,M,001.036,N,001.919,K,D*0E
$GPGGA,083343.45,5703.2777282,N,00951.8467177,E,2,10,0.9,-1.634,M,40.593,M,2.0,0123*6E
$GPVTG,322.54,T,-317.36,M,001.049,N,001.943,K,D*0A
$GPGGA,083343.50,5703.2777401,N,00951.8467017,E,2,10,0.9,-1.636,M,40.593,M,2.0,0123*62
$GPVTG,323.44,T,-316.46,M,001.065,N,001.972,K,D*00
$GPGGA,083343.55,5703.2777523,N,00951.8466868,E,2,10,0.9,-1.637,M,40.593,M,2.0,0123*66
$GPVTG,324.71,T,-315.19,M,001.074,N,001.989,K,D*0C
$GPGGA,083343.60,5703.2777657,N,00951.8466722,E,2,10,0.9,-1.635,M,40.593,M,2.0,0123*63
$GPVTG,326.37,T,-313.53,M,001.095,N,002.028,K,D*0A
$GPGGA,083343.65,5703.2777780,N,00951.8466568,E,2,10,0.9,-1.637,M,40.593,M,2.2,0123*61
$GPVTG,327.45,T,-312.45,M,001.113,N,002.061,K,D*0A
$GPGGA,083343.70,5703.2777907,N,00951.8466420,E,2,10,0.9,-1.636,M,40.593,M,2.2,0123*68
$GPVTG,328.25,T,-311.65,M,001.121,N,002.076,K,D*05
$GPGGA,083343.75,5703.2778040,N,00951.8466282,E,2,10,0.9,-1.635,M,40.593,M,2.2,0123*65
$GPVTG,329.49,T,-310.41,M,001.131,N,002.094,K,D*04
$GPGGA,083343.80,5703.2778167,N,00951.8466147,E,2,10,0.9,-1.636,M,40.593,M,2.2,0123*62
$GPVTG,330.44,T,-309.46,M,001.130,N,002.092,K,D*09
$GPGGA,083343.85,5703.2778309,N,00951.8466010,E,2,10,0.9,-1.631,M,40.593,M,2.4,0123*6F
$GPVTG,331.11,T,-308.79,M,001.135,N,002.103,K,D*09
$GPGGA,083343.90,5703.2778443,N,00951.8465881,E,2,10,0.9,-1.631,M,40.593,M,2.4,0123*61
$GPVTG,332.15,T,-307.75,M,001.137,N,002.105,K,D*09
$GPGGA,083343.95,5703.2778577,N,00951.8465742,E,2,10,0.9,-1.628,M,40.593,M,2.4,0123*6A
$GPVTG,332.60,T,-307.30,M,001.144,N,002.118,K,D*02
$GPGGA,083344.00,5703.2778718,N,00951.8465602,E,2,10,0.9,-1.628,M,40.593,M,2.4,0123*6F
$GPVTG,333.04,T,-306.86,M,001.158,N,002.144,K,D*09
$GPGGA,083344.05,5703.2778834,N,00951.8465448,E,2,10,0.9,-1.634,M,40.593,M,2.2,0123*6C
$GPVTG,333.34,T,-306.56,M,001.171,N,002.168,K,D*02
$GPGGA,083344.10,5703.2778969,N,00951.8465303,E,2,10,0.9,-1.636,M,40.593,M,2.2,0123*6B
$GPVTG,333.17,T,-306.73,M,001.175,N,002.177,K,D*0E
$GPGGA,083344.15,5703.2779121,N,00951.8465166,E,2,10,0.9,-1.637,M,40.593,M,2.2,0123*6B
$GPVTG,333.78,T,-306.12,M,001.194,N,002.212,K,D*0F
$GPGGA,083344.20,5703.2779267,N,00951.8465035,E,2,10,0.9,-1.639,M,40.593,M,2.2,0123*65
$GPVTG,334.37,T,-305.53,M,001.202,N,002.226,K,D*0E
$GPGGA,083344.25,5703.2779425,N,00951.8464903,E,2,10,0.9,-1.635,M,40.593,M,2.4,0123*67
$GPVTG,334.70,T,-305.20,M,001.210,N,002.240,K,D*0A
$GPGGA,083344.30,5703.2779579,N,00951.8464790,E,2,10,0.9,-1.638,M,40.593,M,2.4,0123*62
$GPVTG,335.96,T,-303.94,M,001.216,N,002.252,K,D*0F
$GPGGA,083344.35,5703.2779732,N,00951.8464658,E,2,10,0.9,-1.639,M,40.593,M,2.4,0123*6E
$GPVTG,336.26,T,-303.64,M,001.228,N,002.274,K,D*01
$GPGGA,083344.40,5703.2779886,N,00951.8464525,E,2,10,0.9,-1.638,M,40.593,M,2.4,0123*64
$GPVTG,336.42,T,-303.48,M,001.239,N,002.295,K,D*02
$GPGGA,083344.45,5703.2780046,N,00951.8464410,E,2,10,0.9,-1.641,M,40.593,M,2.7,0123*69
$GPVTG,337.57,T,-302.33,M,001.256,N,002.327,K,D*0B
$GPGGA,083344.50,5703.2780214,N,00951.8464305,E,2,10,0.9,-1.641,M,40.593,M,2.7,0123*6B
$GPVTG,338.90,T,-301.00,M,001.272,N,002.355,K,D*0F
$GPGGA,083344.55,5703.2780376,N,00951.8464194,E,2,10,0.9,-1.642,M,40.593,M,2.7,0123*62
$GPVTG,339.59,T,-300.31,M,001.278,N,002.366,K,D*02
$GPGGA,083344.60,5703.2780541,N,00951.8464088,E,2,10,0.9,-1.641,M,40.593,M,2.7,0123*69
$GPVTG,340.46,T,-299.44,M,001.286,N,002.381,K,D*09
$GPGGA,083344.65,5703.2780712,N,00951.8463977,E,2,10,0.9,-1.639,M,40.593,M,2.9,0123*67
$GPVTG,340.95,T,-298.95,M,001.298,N,002.403,K,D*08
$GPGGA,083344.70,5703.2780875,N,00951.8463878,E,2,10,0.9,-1.640,M,40.593,M,2.9,0123*6D
$GPVTG,341.69,T,-298.21,M,001.296,N,002.400,K,D*08
$GPGGA,083344.75,5703.2781042,N,00951.8463788,E,2,10,0.9,-1.642,M,40.593,M,2.9,0123*67
$GPVTG,342.70,T,-297.20,M,001.296,N,002.401,K,D*0C
$GPGGA,083344.80,5703.2781215,N,00951.8463694,E,2,10,0.9,-1.641,M,40.593,M,2.9,0123*62
$GPVTG,343.47,T,-296.43,M,001.306,N,002.419,K,D*0C
$GPGGA,083344.85,5703.2781397,N,00951.8463601,E,2,10,0.9,-1.640,M,40.593,M,3.1,0123*68
$GPVTG,344.29,T,-295.61,M,001.328,N,002.459,K,D*08
$GPGGA,083344.90,5703.2781578,N,00951.8463515,E,2,10,0.9,-1.637,M,40.593,M,3.1,0123*6D
$GPVTG,345.13,T,-294.77,M,001.343,N,002.487,K,D*08
$GPGGA,083344.95,5703.2781751,N,00951.8463428,E,2,10,0.9,-1.637,M,40.593,M,3.1,0123*6E
$GPVTG,345.66,T,-294.24,M,001.344,N,002.489,K,D*05
$GPGGA,083345.00,5703.2781919,N,00951.8463355,E,2,10,0.9,-1.639,M,40.593,M,3.1,0123*62
$GPVTG,346.54,T,-293.36,M,001.334,N,002.471,K,D*03
$GPGGA,083345.05,5703.2782090,N,00951.8463268,E,2,10,0.9,-1.633,M,40.593,M,3.3,0123*6B
$GPVTG,347.01,T,-292.89,M,001.334,N,002.471,K,D*07
$GPGGA,083345.10,5703.2782272,N,00951.8463196,E,2,10,0.9,-1.631,M,40.593,M,3.3,0123*61
$GPVTG,347.79,T,-292.11,M,001.344,N,002.489,K,D*09
$GPGGA,083345.15,5703.2782460,N,00951.8463143,E,2,10,0.9,-1.630,M,40.593,M,3.3,0123*68
$GPVTG,349.21,T,-290.69,M,001.357,N,002.512,K,D*06
$GPGGA,083345.20,5703.2782652,N,00951.8463088,E,2,10,0.9,-1.628,M,40.593,M,3.3,0123*62
$GPVTG,350.31,T,-289.59,M,001.373,N,002.543,K,D*06
$GPGGA,083345.25,5703.2782831,N,00951.8463011,E,2,10,0.9,-1.632,M,40.593,M,3.5,0123*61
$GPVTG,350.36,T,-289.54,M,001.384,N,002.564,K,D*01
$GPGGA,083345.30,5703.2783012,N,00951.8462940,E,2,10,0.9,-1.632,M,40.593,M,3.5,0123*61
$GPVTG,350.38,T,-289.52,M,001.384,N,002.564,K,D*09
$GPGGA,083345.35,5703.2783190,N,00951.8462869,E,2,10,0.9,-1.635,M,40.593,M,3.5,0123*62
$GPVTG,350.33,T,-289.57,M,001.380,N,002.556,K,D*02
$GPGGA,083345.40,5703.2783380,N,00951.8462817,E,2,10,0.9,-1.636,M,40.593,M,3.5,0123*69
$GPVTG,351.07,T,-288.83,M,001.389,N,002.572,K,D*03
$GPGGA,083345.45,5703.2783580,N,00951.8462776,E,2,10,0.9,-1.633,M,40.593,M,3.7,0123*65
$GPVTG,352.06,T,-287.84,M,001.400,N,002.593,K,D*00
$GPGGA,083345.50,5703.2783771,N,00951.8462733,E,2,10,0.9,-1.631,M,40.593,M,3.7,0123*6E
$GPVTG,352.81,T,-287.09,M,001.407,N,002.606,K,D*02
$GPGGA,083345.55,5703.2783962,N,00951.8462696,E,2,10,0.9,-1.631,M,40.593,M,3.7,0123*69
$GPVTG,353.62,T,-286.28,M,001.410,N,002.611,K,D*0C
$GPGGA,083345.60,5703.2784158,N,00951.8462664,E,2,10,0.9,-1.632,M,40.593,M,3.7,0123*67
$GPVTG,354.46,T,-285.44,M,001.420,N,002.630,K,D*04
$GPGGA,083345.65,5703.2784346,N,00951.8462631,E,2,10,0.9,-1.634,M,40.593,M,3.9,0123*67
$GPVTG,355.07,T,-284.83,M,001.418,N,002.626,K,D*06
$GPGGA,083345.70,5703.2784551,N,00951.8462596,E,2,10,0.9,-1.634,M,40.593,M,3.9,0123*6D
$GPVTG,355.50,T,-284.40,M,001.438,N,002.663,K,D*08
$GPGGA,083345.75,5703.2784746,N,00951.8462569,E,2,10,0.9,-1.636,M,40.593,M,3.9,0123*6E
$GPVTG,356.09,T,-283.81,M,001.442,N,002.670,K,D*02
$GPGGA,083345.80,5703.2784943,N,00951.8462555,E,2,10,0.9,-1.636,M,40.593,M,3.9,0123*60
$GPVTG,357.02,T,-282.89,M,001.445,N,002.677,K,D*01
$GPGGA,083345.85,5703.2785150,N,00951.8462552,E,2,10,0.9,-1.633,M,40.593,M,4.1,0123*63
$GPVTG,358.08,T,-281.82,M,001.455,N,002.694,K,D*00
$GPGGA,083345.90,5703.2785363,N,00951.8462545,E,2,10,0.9,-1.633,M,40.593,M,4.1,0123*63
$GPVTG,358.87,T,-281.03,M,001.479,N,002.739,K,D*06
$GPGGA,083345.95,5703.2785568,N,00951.8462550,E,2,10,0.9,-1.631,M,40.593,M,4.1,0123*6D
$GPVTG,359.90,T,-280.00,M,001.490,N,002.759,K,D*02
$GPGGA,083346.00,5703.2785771,N,00951.8462556,E,2,10,0.9,-1.632,M,40.593,M,4.1,0123*6D
$GPVTG,000.77,T,-639.13,M,001.494,N,002.767,K,D*09
$GPGGA,083346.05,5703.2785958,N,00951.8462554,E,2,10,0.9,-1.632,M,40.593,M,1.5,0123*6E
$GPVTG,001.25,T,-638.65,M,001.481,N,002.743,K,D*0D
$GPGGA,083346.10,5703.2786158,N,00951.8462563,E,2,10,0.9,-1.632,M,40.593,M,1.5,0123*65
$GPVTG,001.90,T,-638.00,M,001.480,N,002.742,K,D*00
$GPGGA,083346.15,5703.2786363,N,00951.8462575,E,2,10,0.9,-1.632,M,40.593,M,1.5,0123*6D
$GPVTG,002.46,T,-637.44,M,001.488,N,002.756,K,D*0A
$GPGGA,083346.20,5703.2786570,N,00951.8462599,E,2,10,0.9,-1.632,M,40.593,M,1.5,0123*6D
$GPVTG,003.35,T,-636.55,M,001.496,N,002.771,K,D*04
$GPGGA,083346.25,5703.2786784,N,00951.8462642,E,2,10,0.9,-1.631,M,40.593,M,1.8,0123*6A
$GPVTG,004.59,T,-635.31,M,001.511,N,002.797,K,D*0E
$GPGGA,083346.30,5703.2786989,N,00951.8462688,E,2,10,0.9,-1.629,M,40.593,M,1.8,0123*62
$GPVTG,005.80,T,-634.10,M,001.515,N,002.806,K,D*0A
$GPGGA,083346.35,5703.2787193,N,00951.8462732,E,2,10,0.9,-1.628,M,40.593,M,1.8,0123*64
$GPVTG,006.70,T,-633.20,M,001.517,N,002.810,K,D*07
$GPGGA,083346.40,5703.2787406,N,00951.8462779,E,2,10,0.9,-1.625,M,40.593,M,1.8,0123*6D
$GPVTG,007.42,T,-632.48,M,001.531,N,002.835,K,D*0B
$GPGGA,083346.45,5703.2787606,N,00951.8462838,E,2,10,0.9,-1.625,M,40.593,M,2.0,0123*6B
$GPVTG,008.52,T,-631.38,M,001.531,N,002.835,K,D*01
$GPGGA,083346.50,5703.2787808,N,00951.8462900,E,2,10,0.9,-1.626,M,40.593,M,2.0,0123*66
$GPVTG,009.41,T,-630.49,M,001.529,N,002.831,K,D*08
$GPGGA,083346.55,5703.2788013,N,00951.8462972,E,2,10,0.9,-1.628,M,40.593,M,2.0,0123*65
$GPVTG,010.48,T,-629.42,M,001.532,N,002.837,K,D*06
$GPGGA,083346.60,5703.2788219,N,00951.8463035,E,2,10,0.9,-1.629,M,40.593,M,2.0,0123*61
$GPVTG,010.94,T,-628.96,M,001.533,N,002.839,K,D*00
$GPGGA,083346.65,5703.2788418,N,00951.8463081,E,2,10,0.9,-1.634,M,40.593,M,2.2,0123*62
$GPVTG,010.77,T,-629.13,M,001.534,N,002.842,K,D*0A
$GPGGA,083346.70,5703.2788621,N,00951.8463156,E,2,10,0.9,-1.635,M,40.593,M,2.2,0123*64
$GPVTG,011.48,T,-628.42,M,001.533,N,002.839,K,D*09
$GPGGA,083346.75,5703.2788829,N,00951.8463235,E,2,10,0.9,-1.635,M,40.593,M,2.2,0123*61
$GPVTG,012.11,T,-627.79,M,001.539,N,002.849,K,D*0C
$GPGGA,083346.80,5703.2789031,N,00951.8463326,E,2,10,0.9,-1.637,M,40.593,M,2.2,0123*6A
$GPVTG,013.08,T,-626.82,M,001.536,N,002.845,K,D*03
$GPGGA,083346.85,5703.2789242,N,00951.8463421,E,2,10,0.9,-1.634,M,40.593,M,2.5,0123*6D
$GPVTG,013.87,T,-626.03,M,001.539,N,002.850,K,D*06
$GPGGA,083346.90,5703.2789449,N,00951.8463521,E,2,10,0.9,-1.635,M,40.593,M,2.5,0123*64
$GPVTG,014.70,T,-625.20,M,001.545,N,002.860,K,D*03
$GPGGA,083346.95,5703.2789657,N,00951.8463618,E,2,10,0.9,-1.635,M,40.593,M,2.5,0123*65
$GPVTG,015.24,T,-624.66,M,001.551,N,002.872,K,D*06
$GPGGA,083347.00,5703.2789861,N,00951.8463722,E,2,10,0.9,-1.633,M,40.593,M,2.5,0123*6D
$GPVTG,015.89,T,-624.01,M,001.552,N,002.875,K,D*04
$GPGGA,083347.05,5703.2790054,N,00951.8463820,E,2,10,0.9,-1.633,M,40.593,M,1.5,0123*60
$GPVTG,016.36,T,-623.54,M,001.554,N,002.879,K,D*0E
$GPGGA,083347.10,5703.2790260,N,00951.8463935,E,2,10,0.9,-1.633,M,40.593,M,1.5,0123*64
$GPVTG,017.04,T,-622.86,M,001.559,N,002.888,K,D*03
$GPGGA,083347.15,5703.2790464,N,00951.8464057,E,2,10,0.9,-1.635,M,40.593,M,1.5,0123*6F
$GPVTG,017.84,T,-622.06,M,001.563,N,002.894,K,D*07
$GPGGA,083347.20,5703.2790666,N,00951.8464183,E,2,10,0.9,-1.636,M,40.593,M,1.5,0123*62
$GPVTG,018.66,T,-621.24,M,001.563,N,002.895,K,D*06
$GPGGA,083347.25,5703.2790874,N,00951.8464298,E,2,10,0.9,-1.638,M,40.593,M,1.7,0123*6F
$GPVTG,018.79,T,-621.11,M,001.568,N,002.905,K,D*0D
$GPGGA,083347.30,5703.2791077,N,00951.8464408,E,2,10,0.9,-1.637,M,40.593,M,1.7,0123*61
$GPVTG,018.73,T,-621.17,M,001.564,N,002.896,K,D*06
$GPGGA,083347.35,5703.2791284,N,00951.8464539,E,2,10,0.9,-1.636,M,40.593,M,1.7,0123*68
$GPVTG,019.30,T,-620.60,M,001.571,N,002.909,K,D*02
$GPGGA,083347.40,5703.2791489,N,00951.8464689,E,2,10,0.9,-1.637,M,40.593,M,1.7,0123*68
$GPVTG,020.33,T,-619.57,M,001.581,N,002.928,K,D*09
$GPGGA,083347.45,5703.2791698,N,00951.8464831,E,2,10,0.9,-1.633,M,40.593,M,2.0,0123*62
$GPVTG,020.94,T,-618.96,M,001.578,N,002.923,K,D*05
$GPGGA,083347.50,5703.2791904,N,00951.8464985,E,2,10,0.9,-1.631,M,40.593,M,2.0,0123*60
$GPVTG,021.74,T,-618.16,M,001.588,N,002.940,K,D*08
$GPGGA,083347.55,5703.2792111,N,00951.8465128,E,2,10,0.9,-1.630,M,40.593,M,2.0,0123*65
$GPVTG,022.01,T,-617.89,M,001.594,N,002.952,K,D*0E
$GPGGA,083347.60,5703.2792316,N,00951.8465280,E,2,10,0.9,-1.631,M,40.593,M,2.0,0123*66
$GPVTG,022.49,T,-617.41,M,001.600,N,002.963,K,D*0A
$GPGGA,083347.65,5703.2792519,N,00951.8465428,E,2,10,0.9,-1.634,M,40.593,M,2.2,0123*69
$GPVTG,022.74,T,-617.16,M,001.608,N,002.977,K,D*0B
$GPGGA,083347.70,5703.2792721,N,00951.8465584,E,2,10,0.9,-1.634,M,40.593,M,2.2,0123*63
$GPVTG,023.19,T,-616.71,M,001.607,N,002.977,K,D*0E
$GPGGA,083347.75,5703.2792918,N,00951.8465759,E,2,10,0.9,-1.634,M,40.593,M,2.2,0123*60
$GPVTG,024.23,T,-615.67,M,001.608,N,002.979,K,D*05
$GPGGA,083347.80,5703.2793114,N,00951.8465946,E,2,10,0.9,-1.633,M,40.593,M,2.2,0123*68
$GPVTG,025.48,T,-614.42,M,001.611,N,002.984,K,D*05
$GPGGA,083347.85,5703.2793319,N,00951.8466124,E,2,10,0.9,-1.630,M,40.593,M,2.4,0123*68
$GPVTG,026.05,T,-613.85,M,001.616,N,002.992,K,D*03
$GPGGA,083347.90,5703.2793511,N,00951.8466309,E,2,10,0.9,-1.631,M,40.593,M,2.4,0123*6E
$GPVTG,026.92,T,-612.98,M,001.612,N,002.985,K,D*02
$GPGGA,083347.95,5703.2793702,N,00951.8466505,E,2,10,0.9,-1.630,M,40.593,M,2.4,0123*60
$GPVTG,027.99,T,-611.91,M,001.611,N,002.983,K,D*07
$GPGGA,083348.00,5703.2793882,N,00951.8466712,E,2,10,0.9,-1.630,M,40.593,M,2.4,0123*60
$GPVTG,029.48,T,-610.42,M,001.600,N,002.963,K,D*04
$GPGGA,083348.05,5703.2794061,N,00951.8466928,E,2,10,0.9,-1.629,M,40.593,M,2.2,0123*6E
$GPVTG,030.85,T,-609.05,M,001.608,N,002.979,K,D*05
$GPGGA,083348.10,5703.2794248,N,00951.8467141,E,2,10,0.9,-1.627,M,40.593,M,2.2,0123*6B
$GPVTG,031.78,T,-608.12,M,001.610,N,002.981,K,D*0F
$GPGGA,083348.15,5703.2794434,N,00951.8467337,E,2,10,0.9,-1.627,M,40.593,M,2.2,0123*60
$GPVTG,032.08,T,-607.82,M,001.599,N,002.962,K,D*02
$GPGGA,083348.20,5703.2794620,N,00951.8467537,E,2,10,0.9,-1.627,M,40.593,M,2.2,0123*67
$GPVTG,032.36,T,-607.54,M,001.592,N,002.948,K,D*07
$GPGGA,083348.25,5703.2794795,N,00951.8467742,E,2,10,0.9,-1.629,M,40.593,M,2.4,0123*65
$GPVTG,032.94,T,-606.96,M,001.579,N,002.924,K,D*0F
$GPGGA,083348.30,5703.2794970,N,00951.8467957,E,2,10,0.9,-1.629,M,40.593,M,2.4,0123*6E
$GPVTG,033.73,T,-606.17,M,001.568,N,002.904,K,D*0C
$GPGGA,083348.35,5703.2795148,N,00951.8468182,E,2,10,0.9,-1.629,M,40.593,M,2.4,0123*66
$GPVTG,034.53,T,-605.37,M,001.567,N,002.902,K,D*01
$GPGGA,083348.40,5703.2795323,N,00951.8468407,E,2,10,0.9,-1.630,M,40.593,M,2.4,0123*6B
$GPVTG,035.28,T,-604.62,M,001.562,N,002.892,K,D*00
$GPGGA,083348.45,5703.2795495,N,00951.8468639,E,2,10,0.9,-1.630,M,40.593,M,2.7,0123*68
$GPVTG,036.16,T,-603.74,M,001.556,N,002.881,K,D*0B
$GPGGA,083348.50,5703.2795667,N,00951.8468864,E,2,10,0.9,-1.633,M,40.593,M,2.7,0123*66
$GPVTG,036.66,T,-603.24,M,001.547,N,002.865,K,D*03
$GPGGA,083348.55,5703.2795842,N,00951.8469084,E,2,10,0.9,-1.635,M,40.593,M,2.7,0123*6B
$GPVTG,036.78,T,-603.12,M,001.541,N,002.854,K,D*0D
$GPGGA,083348.60,5703.2796029,N,00951.8469314,E,2,10,0.9,-1.635,M,40.593,M,2.7,0123*61
$GPVTG,036.72,T,-603.18,M,001.555,N,002.879,K,D*07
$GPGGA,083348.65,5703.2796216,N,00951.8469572,E,2,10,0.9,-1.631,M,40.593,M,2.9,0123*66
$GPVTG,037.53,T,-602.37,M,001.573,N,002.914,K,D*07
$GPGGA,083348.70,5703.2796380,N,00951.8469824,E,2,10,0.9,-1.632,M,40.593,M,2.9,0123*61
$GPVTG,038.56,T,-601.34,M,001.570,N,002.907,K,D*0C
$GPGGA,083348.75,5703.2796547,N,00951.8470073,E,2,10,0.9,-1.633,M,40.593,M,2.9,0123*6A
$GPVTG,039.26,T,-600.64,M,001.568,N,002.903,K,D*03
$GPGGA,083348.80,5703.2796710,N,00951.8470324,E,2,10,0.9,-1.635,M,40.593,M,2.9,0123*67
$GPVTG,039.95,T,-599.95,M,001.562,N,002.894,K,D*03
$GPGGA,083348.85,5703.2796864,N,00951.8470582,E,2,10,0.9,-1.641,M,40.593,M,3.1,0123*6E
$GPVTG,040.79,T,-599.11,M,001.566,N,002.900,K,D*0B
$GPGGA,083348.90,5703.2797017,N,00951.8470836,E,2,10,0.9,-1.643,M,40.593,M,3.1,0123*67
$GPVTG,041.58,T,-598.32,M,001.552,N,002.874,K,D*0C
$GPGGA,083348.95,5703.2797166,N,00951.8471098,E,2,10,0.9,-1.646,M,40.593,M,3.1,0123*6D
$GPVTG,042.63,T,-597.27,M,001.539,N,002.850,K,D*07
$GPGGA,083349.00,5703.2797316,N,00951.8471361,E,2,10,0.9,-1.648,M,40.593,M,3.1,0123*6E
$GPVTG,043.48,T,-596.42,M,001.530,N,002.833,K,D*01
$GPGGA,083349.05,5703.2797460,N,00951.8471632,E,2,10,0.9,-1.644,M,40.593,M,3.3,0123*60
$GPVTG,044.64,T,-595.26,M,001.521,N,002.816,K,D*0E
$GPGGA,083349.10,5703.2797603,N,00951.8471912,E,2,10,0.9,-1.645,M,40.593,M,3.3,0123*6F
$GPVTG,045.80,T,-594.10,M,001.518,N,002.811,K,D*0C
$GPGGA,083349.15,5703.2797755,N,00951.8472181,E,2,10,0.9,-1.645,M,40.593,M,3.3,0123*69
$GPVTG,046.12,T,-593.78,M,001.516,N,002.808,K,D*0B
$GPGGA,083349.20,5703.2797902,N,00951.8472444,E,2,10,0.9,-1.644,M,40.593,M,3.3,0123*6E
$GPVTG,046.41,T,-593.49,M,001.505,N,002.788,K,D*0A
$GPGGA,083349.25,5703.2798021,N,00951.8472713,E,2,10,0.9,-1.645,M,40.593,M,3.5,0123*6A
$GPVTG,047.82,T,-592.08,M,001.477,N,002.735,K,D*02
$GPGGA,083349.30,5703.2798133,N,00951.8472984,E,2,10,0.9,-1.646,M,40.593,M,3.5,0123*6F
$GPVTG,049.43,T,-590.47,M,001.444,N,002.674,K,D*0C
$GPGGA,083349.35,5703.2798260,N,00951.8473253,E,2,10,0.9,-1.644,M,40.593,M,3.5,0123*6D
$GPVTG,050.14,T,-589.76,M,001.427,N,002.642,K,D*0C
$GPGGA,083349.40,5703.2798395,N,00951.8473518,E,2,10,0.9,-1.642,M,40.593,M,3.5,0123*6A
$GPVTG,050.26,T,-589.64,M,001.417,N,002.625,K,D*0C
$GPGGA,083349.45,5703.2798532,N,00951.8473794,E,2,10,0.9,-1.639,M,40.593,M,3.7,0123*6C
$GPVTG,050.41,T,-589.49,M,001.419,N,002.628,K,D*01
$GPGGA,083349.50,5703.2798661,N,00951.8474064,E,2,10,0.9,-1.637,M,40.593,M,3.7,0123*6C
$GPVTG,050.73,T,-589.17,M,001.411,N,002.613,K,D*0B
$GPGGA,083349.55,5703.2798787,N,00951.8474340,E,2,10,0.9,-1.637,M,40.593,M,3.7,0123*65
$GPVTG,051.23,T,-588.67,M,001.404,N,002.600,K,D*0F
$GPGGA,083349.60,5703.2798913,N,00951.8474618,E,2,10,0.9,-1.636,M,40.593,M,3.7,0123*69
$GPVTG,051.65,T,-588.25,M,001.401,N,002.595,K,D*01
$GPGGA,083349.65,5703.2799049,N,00951.8474897,E,2,10,0.9,-1.634,M,40.593,M,3.9,0123*6E
$GPVTG,051.63,T,-588.27,M,001.405,N,002.603,K,D*0D
$GPGGA,083349.70,5703.2799177,N,00951.8475188,E,2,10,0.9,-1.632,M,40.593,M,3.9,0123*66
$GPVTG,052.07,T,-587.83,M,001.415,N,002.620,K,D*0D
$GPGGA,083349.75,5703.2799302,N,00951.8475480,E,2,10,0.9,-1.632,M,40.593,M,3.9,0123*6E
$GPVTG,052.62,T,-587.28,M,001.421,N,002.631,K,D*08
$GPGGA,083349.80,5703.2799420,N,00951.8475773,E,2,10,0.9,-1.630,M,40.593,M,3.9,0123*6E
$GPVTG,053.32,T,-586.58,M,001.422,N,002.634,K,D*0C
$GPGGA,083349.85,5703.2799532,N,00951.8476063,E,2,10,0.9,-1.630,M,40.593,M,4.1,0123*63
$GPVTG,053.96,T,-585.94,M,001.419,N,002.629,K,D*05
$GPGGA,083349.90,5703.2799646,N,00951.8476368,E,2,10,0.9,-1.628,M,40.593,M,4.1,0123*66
$GPVTG,054.90,T,-585.00,M,001.427,N,002.642,K,D*09
$GPGGA,083349.95,5703.2799760,N,00951.8476666,E,2,10,0.9,-1.629,M,40.593,M,4.1,0123*6C
$GPVTG,055.48,T,-584.42,M,001.427,N,002.643,K,D*0B
$GPGGA,083350.00,5703.2799877,N,00951.8476963,E,2,10,0.9,-1.628,M,40.593,M,4.1,0123*6A
$GPVTG,055.76,T,-584.14,M,001.429,N,002.647,K,D*0F
$GPGGA,083350.05,5703.2799987,N,00951.8477264,E,2,10,0.9,-1.625,M,40.593,M,1.5,0123*60
$GPVTG,056.27,T,-583.63,M,001.432,N,002.652,K,D*01
$GPGGA,083350.10,5703.2800087,N,00951.8477557,E,2,10,0.9,-1.628,M,40.593,M,1.5,0123*68
$GPVTG,057.07,T,-582.83,M,001.416,N,002.623,K,D*0D
$GPGGA,083350.15,5703.2800190,N,00951.8477852,E,2,10,0.9,-1.630,M,40.593,M,1.5,0123*6B
$GPVTG,057.64,T,-582.26,M,001.407,N,002.605,K,D*03
$GPGGA,083350.20,5703.2800295,N,00951.8478168,E,2,10,0.9,-1.633,M,40.593,M,1.5,0123*67
$GPVTG,058.43,T,-581.47,M,001.416,N,002.622,K,D*08
$GPGGA,083350.25,5703.2800402,N,00951.8478484,E,2,10,0.9,-1.635,M,40.593,M,1.8,0123*66
$GPVTG,058.86,T,-581.04,M,001.429,N,002.646,K,D*08
$GPGGA,083350.30,5703.2800502,N,00951.8478790,E,2,10,0.9,-1.637,M,40.593,M,1.8,0123*67
$GPVTG,059.48,T,-580.42,M,001.423,N,002.636,K,D*05
$GPGGA,083350.35,5703.2800591,N,00951.8479091,E,2,10,0.9,-1.637,M,40.593,M,1.8,0123*6F
$GPVTG,060.33,T,-579.57,M,001.407,N,002.606,K,D*04
$GPGGA,083350.40,5703.2800665,N,00951.8479393,E,2,10,0.9,-1.640,M,40.593,M,1.8,0123*64
$GPVTG,061.92,T,-577.98,M,001.383,N,002.562,K,D*09
$GPGGA,083350.45,5703.2800739,N,00951.8479690,E,2,10,0.9,-1.643,M,40.593,M,2.0,0123*67
$GPVTG,063.05,T,-576.85,M,001.361,N,002.521,K,D*03
$GPGGA,083350.50,5703.2800812,N,00951.8479993,E,2,10,0.9,-1.643,M,40.593,M,2.0,0123*69
$GPVTG,064.37,T,-575.53,M,001.344,N,002.489,K,D*09
$GPGGA,083350.55,5703.2800889,N,00951.8480291,E,2,10,0.9,-1.642,M,40.593,M,2.0,0123*60
$GPVTG,065.13,T,-574.77,M,001.328,N,002.459,K,D*0E
$GPGGA,083350.60,5703.2800963,N,00951.8480583,E,2,10,0.9,-1.641,M,40.593,M,2.0,0123*64
$GPVTG,065.84,T,-574.06,M,001.307,N,002.421,K,D*04
$GPGGA,083350.65,5703.2801024,N,00951.8480876,E,2,10,0.9,-1.645,M,40.593,M,2.2,0123*6B
$GPVTG,066.77,T,-573.13,M,001.292,N,002.393,K,D*0B
$GPGGA,083350.70,5703.2801084,N,00951.8481178,E,2,10,0.9,-1.647,M,40.593,M,2.2,0123*61
$GPVTG,068.16,T,-571.74,M,001.280,N,002.370,K,D*0F
$GPGGA,083350.75,5703.2801143,N,00951.8481480,E,2,10,0.9,-1.648,M,40.593,M,2.2,0123*63
$GPVTG,069.48,T,-570.42,M,001.268,N,002.348,K,D*0C
$GPGGA,083350.80,5703.2801201,N,00951.8481788,E,2,10,0.9,-1.648,M,40.593,M,2.2,0123*67
$GPVTG,070.70,T,-569.20,M,001.265,N,002.342,K,D*04
$GPGGA,083350.85,5703.2801279,N,00951.8482101,E,2,10,0.9,-1.640,M,40.593,M,2.5,0123*66
$GPVTG,071.24,T,-568.66,M,001.263,N,002.339,K,D*0D
$GPGGA,083350.90,5703.2801338,N,00951.8482398,E,2,10,0.9,-1.641,M,40.593,M,2.5,0123*65
$GPVTG,071.85,T,-568.05,M,001.253,N,002.320,K,D*08
$GPGGA,083350.95,5703.2801398,N,00951.8482697,E,2,10,0.9,-1.642,M,40.593,M,2.5,0123*63
$GPVTG,072.32,T,-567.58,M,001.245,N,002.306,K,D*03
$GPGGA,083351.00,5703.2801463,N,00951.8482996,E,2,10,0.9,-1.642,M,40.593,M,2.5,0123*63
$GPVTG,072.33,T,-567.57,M,001.243,N,002.301,K,D*0C
$GPGGA,083351.05,5703.2801518,N,00951.8483298,E,2,10,0.9,-1.637,M,40.593,M,1.5,0123*6E
$GPVTG,072.73,T,-567.17,M,001.243,N,002.302,K,D*0F
$GPGGA,083351.10,5703.2801569,N,00951.8483595,E,2,10,0.9,-1.637,M,40.593,M,1.5,0123*66
$GPVTG,073.36,T,-566.54,M,001.233,N,002.284,K,D*01
$GPGGA,083351.15,5703.2801602,N,00951.8483900,E,2,10,0.9,-1.636,M,40.593,M,1.5,0123*6C
$GPVTG,075.15,T,-564.75,M,001.227,N,002.272,K,D*0B
$GPGGA,083351.20,5703.2801642,N,00951.8484193,E,2,10,0.9,-1.633,M,40.593,M,1.5,0123*6E
$GPVTG,076.15,T,-563.75,M,001.213,N,002.246,K,D*0F
$GPGGA,083351.25,5703.2801680,N,00951.8484477,E,2,10,0.9,-1.633,M,40.593,M,1.7,0123*68
$GPVTG,076.69,T,-563.21,M,001.195,N,002.213,K,D*08
$GPGGA,083351.30,5703.2801718,N,00951.8484763,E,2,10,0.9,-1.635,M,40.593,M,1.7,0123*6C
$GPVTG,077.39,T,-562.51,M,001.180,N,002.184,K,D*03
$GPGGA,083351.35,5703.2801750,N,00951.8485046,E,2,10,0.9,-1.636,M,40.593,M,1.7,0123*67
$GPVTG,078.32,T,-561.58,M,001.162,N,002.152,K,D*0A
$GPGGA,083351.40,5703.2801789,N,00951.8485331,E,2,10,0.9,-1.635,M,40.593,M,1.7,0123*61
$GPVTG,078.66,T,-561.24,M,001.152,N,002.134,K,D*03
$GPGGA,083351.45,5703.2801838,N,00951.8485622,E,2,10,0.9,-1.632,M,40.593,M,2.0,0123*65
$GPVTG,078.57,T,-561.33,M,001.149,N,002.128,K,D*00
$GPGGA,083351.50,5703.2801864,N,00951.8485896,E,2,10,0.9,-1.632,M,40.593,M,2.0,0123*69
$GPVTG,079.54,T,-560.36,M,001.129,N,002.091,K,D*03
$GPGGA,083351.55,5703.2801890,N,00951.8486171,E,2,10,0.9,-1.631,M,40.593,M,2.0,0123*67
$GPVTG,080.40,T,-559.50,M,001.113,N,002.062,K,D*0F
