71,N,00951.8090384,E,2,11,0.7,-1.177,M,40.593,M,1.5,0123*6D
$GPVTG,078.08,T,-561.82,M,002.155,N,003.990,K,D*04
$GPGGA,081749.25,5703.2754916,N,00951.8090928,E,2,11,0.7,-1.178,M,40.593,M,1.7,0123*69
$GPVTG,079.98,T,-559.92,M,002.158,N,003.996,K,D*0D
$GPGGA,081749.30,5703.2754948,N,00951.8091447,E,2,11,0.7,-1.182,M,40.593,M,1.7,0123*66
$GPVTG,081.91,T,-557.99,M,002.135,N,003.954,K,D*03
$GPGGA,081749.35,5703.2754988,N,00951.8091973,E,2,11,0.7,-1.185,M,40.593,M,1.7,0123*62
$GPVTG,083.24,T,-556.66,M,002.125,N,003.935,K,D*08
$GPGGA,081749.40,5703.2755022,N,00951.8092477,E,2,11,0.7,-1.186,M,40.593,M,1.7,0123*61
$GPVTG,084.46,T,-555.44,M,002.096,N,003.881,K,D*0F
$GPGGA,081749.45,5703.2755039,N,00951.8092994,E,2,11,0.7,-1.188,M,40.593,M,2.0,0123*64
$GPVTG,086.07,T,-553.83,M,002.083,N,003.857,K,D*0A
$GPGGA,081749.50,5703.2755058,N,00951.8093503,E,2,11,0.7,-1.187,M,40.593,M,2.0,0123*6B
$GPVTG,087.40,T,-552.50,M,002.064,N,003.822,K,D*0C
$GPGGA,081749.55,5703.2755069,N,00951.8094019,E,2,11,0.7,-1.187,M,40.593,M,2.0,0123*65
$GPVTG,088.79,T,-551.11,M,002.053,N,003.803,K,D*08
$GPGGA,081749.60,5703.2755084,N,00951.8094532,E,2,11,0.7,-1.185,M,40.593,M,2.0,0123*6E
$GPVTG,089.72,T,-550.18,M,002.043,N,003.784,K,D*0B
$GPGGA,081749.65,5703.2755090,N,00951.8095020,E,2,11,0.7,-1.177,M,40.593,M,2.2,0123*66
$GPVTG,091.03,T,-548.87,M,002.019,N,003.739,K,D*02
$GPGGA,081749.70,5703.2755087,N,00951.8095519,E,2,11,0.7,-1.174,M,40.593,M,2.2,0123*68
$GPVTG,092.25,T,-547.65,M,002.002,N,003.707,K,D*01
$GPGGA,081749.75,5703.2755090,N,00951.8096000,E,2,11,0.7,-1.174,M,40.593,M,2.2,0123*65
$GPVTG,092.93,T,-546.97,M,001.970,N,003.649,K,D*04
$GPGGA,081749.80,5703.2755079,N,00951.8096470,E,2,11,0.7,-1.175,M,40.593,M,2.2,0123*6A
$GPVTG,094.09,T,-545.81,M,001.935,N,003.584,K,D*06
$GPGGA,081749.85,5703.2755065,N,00951.8096959,E,2,11,0.7,-1.174,M,40.593,M,2.4,0123*63
$GPVTG,095.18,T,-544.72,M,001.925,N,003.565,K,D*04
$GPGGA,081749.90,5703.2755049,N,00951.8097468,E,2,11,0.7,-1.170,M,40.593,M,2.4,0123*63
$GPVTG,095.95,T,-543.95,M,001.937,N,003.587,K,D*00
$GPGGA,081749.95,5703.2755025,N,00951.8097953,E,2,11,0.7,-1.169,M,40.593,M,2.4,0123*61
$GPVTG,096.95,T,-542.95,M,001.927,N,003.568,K,D*02
$GPGGA,081750.00,5703.2754967,N,00951.8098444,E,2,11,0.7,-1.169,M,40.593,M,2.4,0123*6F
$GPVTG,099.20,T,-540.70,M,001.932,N,003.578,K,D*0F
$GPGGA,081750.05,5703.2754904,N,00951.8098913,E,2,11,0.7,-1.169,M,40.593,M,1.5,0123*62
$GPVTG,101.16,T,-538.74,M,001.931,N,003.577,K,D*0D
$GPGGA,081750.10,5703.2754854,N,00951.8099408,E,2,11,0.7,-1.168,M,40.593,M,1.5,0123*65
$GPVTG,102.27,T,-537.63,M,001.942,N,003.597,K,D*0F
$GPGGA,081750.15,5703.2754799,N,00951.8099883,E,2,11,0.7,-1.169,M,40.593,M,1.5,0123*60
$GPVTG,103.48,T,-536.42,M,001.937,N,003.587,K,D*06
$GPGGA,081750.20,5703.2754743,N,00951.8100307,E,2,11,0.7,-1.169,M,40.593,M,1.5,0123*67
$GPVTG,104.83,T,-535.07,M,001.886,N,003.493,K,D*0B
$GPGGA,081750.25,5703.2754719,N,00951.8100703,E,2,11,0.7,-1.169,M,40.593,M,1.7,0123*6F
$GPVTG,106.02,T,-533.88,M,001.859,N,003.442,K,D*0F
$GPGGA,081750.30,5703.2754660,N,00951.8101133,E,2,11,0.7,-1.170,M,40.593,M,1.7,0123*68
$GPVTG,107.01,T,-532.89,M,001.829,N,003.388,K,D*0B
$GPGGA,081750.35,5703.2754586,N,00951.8101563,E,2,11,0.7,-1.174,M,40.593,M,1.7,0123*63
$GPVTG,108.41,T,-531.49,M,001.810,N,003.352,K,D*02
$GPGGA,081750.40,5703.2754516,N,00951.8101977,E,2,11,0.7,-1.177,M,40.593,M,1.7,0123*62
$GPVTG,109.55,T,-530.35,M,001.780,N,003.296,K,D*03
$GPGGA,081750.45,5703.2754448,N,00951.8102400,E,2,11,0.7,-1.179,M,40.593,M,1.9,0123*63
$GPVTG,110.23,T,-529.67,M,001.762,N,003.264,K,D*04
$GPGGA,081750.50,5703.2754376,N,00951.8102812,E,2,11,0.7,-1.178,M,40.593,M,1.9,0123*63
$GPVTG,111.00,T,-528.90,M,001.741,N,003.224,K,D*08
$GPGGA,081750.55,5703.2754305,N,00951.8103196,E,2,11,0.7,-1.176,M,40.593,M,1.9,0123*68
$GPVTG,111.88,T,-528.02,M,001.699,N,003.147,K,D*01
$GPGGA,081750.60,5703.2754209,N,00951.8103591,E,2,11,0.7,-1.177,M,40.593,M,1.9,0123*61
$GPVTG,113.50,T,-526.40,M,001.687,N,003.125,K,D*05
$GPGGA,081750.65,5703.2754105,N,00951.8103963,E,2,11,0.7,-1.179,M,40.593,M,2.2,0123*6C
$GPVTG,115.32,T,-524.58,M,001.655,N,003.065,K,D*06
$GPGGA,081750.70,5703.2754007,N,00951.8104321,E,2,11,0.7,-1.178,M,40.593,M,2.2,0123*61
$GPVTG,116.95,T,-522.95,M,001.624,N,003.008,K,D*02
$GPGGA,081750.75,5703.2753912,N,00951.8104684,E,2,11,0.7,-1.178,M,40.593,M,2.2,0123*64
$GPVTG,118.09,T,-521.81,M,001.603,N,002.969,K,D*05
$GPGGA,081750.80,5703.2753806,N,00951.8105049,E,2,11,0.7,-1.177,M,40.593,M,2.2,0123*63
$GPVTG,119.43,T,-520.47,M,001.597,N,002.957,K,D*02
$GPGGA,081750.85,5703.2753686,N,00951.8105410,E,2,11,0.7,-1.175,M,40.593,M,2.4,0123*6C
$GPVTG,121.24,T,-518.66,M,001.599,N,002.962,K,D*08
$GPGGA,081750.90,5703.2753558,N,00951.8105766,E,2,11,0.7,-1.174,M,40.593,M,2.4,0123*6B
$GPVTG,123.03,T,-516.87,M,001.607,N,002.977,K,D*0E
$GPGGA,081750.95,5703.2753434,N,00951.8106092,E,2,11,0.7,-1.174,M,40.593,M,2.4,0123*6A
$GPVTG,124.88,T,-515.02,M,001.592,N,002.949,K,D*06
$GPGGA,081751.00,5703.2753314,N,00951.8106415,E,2,11,0.7,-1.174,M,40.593,M,2.4,0123*69
$GPVTG,126.25,T,-513.65,M,001.576,N,002.919,K,D*0B
$GPGGA,081751.05,5703.2753179,N,00951.8106732,E,2,11,0.7,-1.165,M,40.593,M,2.6,0123*61
$GPVTG,127.81,T,-512.09,M,001.575,N,002.916,K,D*03
$GPGGA,081751.10,5703.2753042,N,00951.8107037,E,2,11,0.7,-1.164,M,40.593,M,2.6,0123*6E
$GPVTG,129.62,T,-510.28,M,001.567,N,002.901,K,D*04
$GPGGA,081751.15,5703.2752890,N,00951.8107323,E,2,11,0.7,-1.164,M,40.593,M,2.6,0123*6B
$GPVTG,132.08,T,-507.82,M,001.562,N,002.894,K,D*0C
$GPGGA,081751.20,5703.2752749,N,00951.8107591,E,2,11,0.7,-1.164,M,40.593,M,2.6,0123*69
$GPVTG,134.15,T,-505.75,M,001.540,N,002.852,K,D*06
$GPGGA,081751.25,5703.2752592,N,00951.8107854,E,2,11,0.7,-1.169,M,40.593,M,2.8,0123*6F
$GPVTG,136.34,T,-503.56,M,001.530,N,002.834,K,D*07
$GPGGA,081751.30,5703.2752438,N,00951.8108109,E,2,11,0.7,-1.169,M,40.593,M,2.8,0123*64
$GPVTG,138.39,T,-501.51,M,001.522,N,002.819,K,D*0D
$GPGGA,081751.35,5703.2752286,N,00951.8108366,E,2,11,0.7,-1.168,M,40.593,M,2.8,0123*68
$GPVTG,139.92,T,-499.98,M,001.517,N,002.809,K,D*0F
$GPGGA,081751.40,5703.2752132,N,00951.8108599,E,2,11,0.7,-1.164,M,40.593,M,2.8,0123*6C
$GPVTG,141.77,T,-498.13,M,001.502,N,002.781,K,D*02
$GPGGA,081751.45,5703.2751983,N,00951.8108810,E,2,11,0.7,-1.158,M,40.593,M,3.0,0123*62
$GPVTG,143.86,T,-496.04,M,001.477,N,002.734,K,D*0B
$GPGGA,081751.50,5703.2751819,N,00951.8109005,E,2,11,0.7,-1.158,M,40.593,M,3.0,0123*69
$GPVTG,146.39,T,-493.51,M,001.461,N,002.706,K,D*09
$GPGGA,081751.55,5703.2751655,N,00951.8109189,E,2,11,0.7,-1.158,M,40.593,M,3.0,0123*6F
$GPVTG,148.74,T,-491.16,M,001.444,N,002.675,K,D*0D
$GPGGA,081751.60,5703.2751493,N,00951.8109378,E,2,11,0.7,-1.157,M,40.593,M,3.0,0123*62
$GPVTG,150.42,T,-489.48,M,001.434,N,002.655,K,D*06
$GPGGA,081751.65,5703.2751328,N,00951.8109551,E,2,11,0.7,-1.162,M,40.593,M,3.2,0123*69
$GPVTG,152.16,T,-487.74,M,001.419,N,002.627,K,D*0E
$GPGGA,081751.70,5703.2751153,N,00951.8109726,E,2,11,0.7,-1.164,M,40.593,M,3.2,0123*67
$GPVTG,153.77,T,-486.13,M,001.425,N,002.639,K,D*08
$GPGGA,081751.75,5703.2750978,N,00951.8109896,E,2,11,0.7,-1.167,M,40.593,M,3.2,0123*65
$GPVTG,155.14,T,-484.76,M,001.429,N,002.646,K,D*0E
$GPGGA,081751.80,5703.2750800,N,00951.8110048,E,2,11,0.7,-1.168,M,40.593,M,3.2,0123*6D
$GPVTG,156.80,T,-483.10,M,001.430,N,002.648,K,D*01
$GPGGA,081751.85,5703.2750635,N,00951.8110178,E,2,11,0.7,-1.164,M,40.593,M,3.4,0123*68
$GPVTG,158.68,T,-481.22,M,001.416,N,002.623,K,D*03
$GPGGA,081751.90,5703.2750456,N,00951.8110299,E,2,11,0.7,-1.165,M,40.593,M,3.4,0123*66
$GPVTG,160.64,T,-479.26,M,001.412,N,002.616,K,D*05
$GPGGA,081751.95,5703.2750268,N,00951.8110389,E,2,11,0.7,-1.166,M,40.593,M,3.4,0123*6B
$GPVTG,163.44,T,-476.46,M,001.413,N,002.618,K,D*02
$GPGGA,081752.00,5703.2750086,N,00951.8110470,E,2,11,0.7,-1.168,M,40.593,M,3.4,0123*69
$GPVTG,165.88,T,-474.02,M,001.407,N,002.606,K,D*0C
$GPGGA,081752.05,5703.2749898,N,00951.8110534,E,2,11,0.7,-1.171,M,40.593,M,2.9,0123*66
$GPVTG,168.02,T,-471.88,M,001.395,N,002.584,K,D*01
$GPGGA,081752.10,5703.2749720,N,00951.8110592,E,2,11,0.7,-1.172,M,40.593,M,2.9,0123*61
$GPVTG,170.31,T,-469.59,M,001.384,N,002.564,K,D*03
$GPGGA,081752.15,5703.2749535,N,00951.8110662,E,2,11,0.7,-1.174,M,40.593,M,2.9,0123*68
$GPVTG,171.71,T,-468.19,M,001.386,N,002.566,K,D*03
$GPGGA,081752.20,5703.2749356,N,00951.8110715,E,2,11,0.7,-1.175,M,40.593,M,2.9,0123*6D
$GPVTG,173.31,T,-466.59,M,001.377,N,002.551,K,D*05
$GPGGA,081752.25,5703.2749187,N,00951.8110738,E,2,11,0.7,-1.171,M,40.593,M,3.1,0123*64
$GPVTG,175.61,T,-464.29,M,001.360,N,002.519,K,D*09
$GPGGA,081752.30,5703.2749022,N,00951.8110747,E,2,11,0.7,-1.172,M,40.593,M,3.1,0123*65
$GPVTG,178.06,T,-461.84,M,001.332,N,002.467,K,D*08
$GPGGA,081752.35,5703.2748848,N,00951.8110754,E,2,11,0.7,-1.173,M,40.593,M,3.1,0123*66
$GPVTG,180.07,T,-459.83,M,001.320,N,002.446,K,D*02
$GPGGA,081752.40,5703.2748669,N,00951.8110757,E,2,11,0.7,-1.174,M,40.593,M,3.1,0123*6D
$GPVTG,181.78,T,-458.12,M,001.320,N,002.445,K,D*01
$GPGGA,081752.45,5703.2748493,N,00951.8110725,E,2,11,0.7,-1.173,M,40.593,M,3.4,0123*68
$GPVTG,184.48,T,-455.42,M,001.318,N,002.441,K,D*00
$GPGGA,081752.50,5703.2748322,N,00951.8110690,E,2,11,0.7,-1.170,M,40.593,M,3.4,0123*6D
$GPVTG,186.77,T,-453.13,M,001.309,N,002.425,K,D*0E
$GPGGA,081752.55,5703.2748157,N,00951.8110645,E,2,11,0.7,-1.168,M,40.593,M,3.4,0123*69
$GPVTG,189.04,T,-450.86,M,001.295,N,002.398,K,D*0F
$GPGGA,081752.60,5703.2747985,N,00951.8110602,E,2,11,0.7,-1.167,M,40.593,M,3.4,0123*6B
$GPVTG,190.64,T,-449.26,M,001.291,N,002.391,K,D*0E
$GPGGA,081752.65,5703.2747823,N,00951.8110523,E,2,11,0.7,-1.164,M,40.593,M,3.6,0123*62
$GPVTG,193.35,T,-446.55,M,001.288,N,002.385,K,D*0F
$GPGGA,081752.70,5703.2747646,N,00951.8110441,E,2,11,0.7,-1.161,M,40.593,M,3.6,0123*6B
$GPVTG,195.44,T,-444.46,M,001.302,N,002.410,K,D*07
$GPGGA,081752.75,5703.2747479,N,00951.8110333,E,2,11,0.7,-1.160,M,40.593,M,3.6,0123*63
$GPVTG,198.19,T,-441.71,M,001.307,N,002.421,K,D*04
$GPGGA,081752.80,5703.2747304,N,00951.8110229,E,2,11,0.7,-1.159,M,40.593,M,3.6,0123*64
$GPVTG,200.03,T,-439.87,M,001.322,N,002.449,K,D*02
$GPGGA,081752.85,5703.2747162,N,00951.8110133,E,2,11,0.7,-1.161,M,40.593,M,3.8,0123*6E
$GPVTG,201.99,T,-437.91,M,001.308,N,002.423,K,D*0D
$GPGGA,081752.90,5703.2747005,N,00951.8110013,E,2,11,0.7,-1.161,M,40.593,M,3.8,0123*69
$GPVTG,203.92,T,-435.98,M,001.303,N,002.413,K,D*07
$GPGGA,081752.95,5703.2746851,N,00951.8109877,E,2,11,0.7,-1.160,M,40.593,M,3.8,0123*67
$GPVTG,206.09,T,-433.81,M,001.299,N,002.406,K,D*08
$GPGGA,081753.00,5703.2746690,N,00951.8109729,E,2,11,0.7,-1.159,M,40.593,M,3.8,0123*67
$GPVTG,207.99,T,-431.91,M,001.311,N,002.427,K,D*01
$GPGGA,081753.05,5703.2746545,N,00951.8109573,E,2,11,0.7,-1.157,M,40.593,M,1.5,0123*65
$GPVTG,209.94,T,-429.96,M,001.299,N,002.405,K,D*0D
$GPGGA,081753.10,5703.2746392,N,00951.8109407,E,2,11,0.7,-1.155,M,40.593,M,1.5,0123*6D
$GPVTG,211.82,T,-428.08,M,001.307,N,002.420,K,D*04
$GPGGA,081753.15,5703.2746244,N,00951.8109254,E,2,11,0.7,-1.154,M,40.593,M,1.5,0123*63
$GPVTG,212.93,T,-426.97,M,001.300,N,002.408,K,D*02
$GPGGA,081753.20,5703.2746095,N,00951.8109093,E,2,11,0.7,-1.155,M,40.593,M,1.5,0123*63
$GPVTG,214.01,T,-425.89,M,001.298,N,002.404,K,D*0F
$GPGGA,081753.25,5703.2745954,N,00951.8108909,E,2,11,0.7,-1.156,M,40.593,M,1.7,0123*6B
$GPVTG,215.84,T,-424.06,M,001.298,N,002.404,K,D*05
$GPGGA,081753.30,5703.2745816,N,00951.8108700,E,2,11,0.7,-1.156,M,40.593,M,1.7,0123*6F
$GPVTG,218.16,T,-421.74,M,001.307,N,002.421,K,D*03
$GPGGA,081753.35,5703.2745684,N,00951.8108477,E,2,11,0.7,-1.156,M,40.593,M,1.7,0123*6C
$GPVTG,220.70,T,-419.20,M,001.316,N,002.438,K,D*0A
$GPGGA,081753.40,5703.2745565,N,00951.8108263,E,2,11,0.7,-1.155,M,40.593,M,1.7,0123*62
$GPVTG,222.99,T,-416.91,M,001.305,N,002.417,K,D*05
$GPGGA,081753.45,5703.2745452,N,00951.8108040,E,2,11,0.7,-1.158,M,40.593,M,2.0,0123*68
$GPVTG,225.51,T,-414.39,M,001.293,N,002.394,K,D*04
$GPGGA,081753.50,5703.2745342,N,00951.8107810,E,2,11,0.7,-1.159,M,40.593,M,2.0,0123*69
$GPVTG,227.81,T,-412.09,M,001.285,N,002.381,K,D*0D
$GPGGA,081753.55,5703.2745219,N,00951.8107579,E,2,11,0.7,-1.159,M,40.593,M,2.0,0123*61
$GPVTG,229.02,T,-410.88,M,001.291,N,002.392,K,D*04
$GPGGA,081753.60,5703.2745100,N,00951.8107339,E,2,11,0.7,-1.160,M,40.593,M,2.0,0123*64
$GPVTG,230.34,T,-409.56,M,001.297,N,002.402,K,D*0A
$GPGGA,081753.65,5703.2744989,N,00951.8107078,E,2,11,0.7,-1.162,M,40.593,M,2.2,0123*6F
$GPVTG,232.30,T,-407.60,M,001.309,N,002.425,K,D*04
$GPGGA,081753.70,5703.2744885,N,00951.8106816,E,2,11,0.7,-1.162,M,40.593,M,2.2,0123*67
$GPVTG,234.15,T,-405.75,M,001.314,N,002.433,K,D*08
$GPGGA,081753.75,5703.2744786,N,00951.8106543,E,2,11,0.7,-1.162,M,40.593,M,2.2,0123*63
$GPVTG,236.08,T,-403.82,M,001.321,N,002.447,K,D*0D
$GPGGA,081753.80,5703.2744699,N,00951.8106258,E,2,11,0.7,-1.162,M,40.593,M,2.2,0123*6B
$GPVTG,238.56,T,-401.34,M,001.326,N,002.457,K,D*01
$GPGGA,081753.85,5703.2744615,N,00951.8105972,E,2,11,0.7,-1.163,M,40.593,M,2.4,0123*6D
$GPVTG,240.93,T,-398.97,M,001.328,N,002.459,K,D*09
$GPGGA,081753.90,5703.2744535,N,00951.8105680,E,2,11,0.7,-1.163,M,40.593,M,2.4,0123*6A
$GPVTG,242.98,T,-396.92,M,001.332,N,002.467,K,D*0D
$GPGGA,081753.95,5703.2744457,N,00951.8105378,E,2,11,0.7,-1.164,M,40.593,M,2.4,0123*6F
$GPVTG,244.89,T,-395.01,M,001.342,N,002.485,K,D*09
$GPGGA,081754.00,5703.2744382,N,00951.8105070,E,2,11,0.7,-1.165,M,40.593,M,2.4,0123*61
$GPVTG,246.70,T,-393.20,M,001.352,N,002.505,K,D*00
$GPGGA,081754.05,5703.2744317,N,00951.8104751,E,2,11,0.7,-1.156,M,40.593,M,1.5,0123*6F
$GPVTG,248.48,T,-391.42,M,001.357,N,002.512,K,D*00
$GPGGA,081754.10,5703.2744242,N,00951.8104435,E,2,11,0.7,-1.152,M,40.593,M,1.5,0123*6F
$GPVTG,249.63,T,-390.27,M,001.369,N,002.536,K,D*01
$GPGGA,081754.15,5703.2744165,N,00951.8104120,E,2,11,0.7,-1.150,M,40.593,M,1.5,0123*6F
$GPVTG,250.25,T,-389.65,M,001.380,N,002.556,K,D*04
$GPGGA,081754.20,5703.2744094,N,00951.8103796,E,2,11,0.7,-1.150,M,40.593,M,1.5,0123*6A
$GPVTG,251.16,T,-388.74,M,001.391,N,002.576,K,D*06
$GPGGA,081754.25,5703.2744016,N,00951.8103472,E,2,11,0.7,-1.152,M,40.593,M,1.7,0123*6C
$GPVTG,251.71,T,-388.19,M,001.399,N,002.590,K,D*0C
$GPGGA,081754.30,5703.2743957,N,00951.8103114,E,2,11,0.7,-1.153,M,40.593,M,1.7,0123*67
$GPVTG,253.26,T,-386.64,M,001.429,N,002.647,K,D*0D
$GPGGA,081754.35,5703.2743920,N,00951.8102738,E,2,11,0.7,-1.153,M,40.593,M,1.7,0123*6B
$GPVTG,255.78,T,-384.12,M,001.463,N,002.710,K,D*0E
$GPGGA,081754.40,5703.2743876,N,00951.8102352,E,2,11,0.7,-1.152,M,40.593,M,1.7,0123*62
$GPVTG,257.53,T,-382.37,M,001.503,N,002.784,K,D*0E
$GPGGA,081754.45,5703.2743827,N,00951.8101983,E,2,11,0.7,-1.149,M,40.593,M,1.9,0123*62
$GPVTG,258.17,T,-381.73,M,001.520,N,002.815,K,D*04
$GPGGA,081754.50,5703.2743781,N,00951.8101578,E,2,11,0.7,-1.146,M,40.593,M,1.9,0123*62
$GPVTG,259.26,T,-380.64,M,001.567,N,002.902,K,D*04
$GPGGA,081754.55,5703.2743757,N,00951.8101162,E,2,11,0.7,-1.142,M,40.593,M,1.9,0123*67
$GPVTG,261.33,T,-378.57,M,001.610,N,002.981,K,D*04
$GPGGA,081754.60,5703.2743731,N,00951.8100730,E,2,11,0.7,-1.138,M,40.593,M,1.9,0123*6C
$GPVTG,262.90,T,-377.00,M,001.661,N,003.076,K,D*05
$GPGGA,081754.65,5703.2743666,N,00951.8100396,E,2,11,0.7,-1.156,M,40.593,M,2.2,0123*62
$GPVTG,263.81,T,-376.09,M,001.681,N,003.114,K,D*07
$GPGGA,081754.70,5703.2743642,N,00951.8099995,E,2,11,0.7,-1.159,M,40.593,M,2.2,0123*67
$GPVTG,264.82,T,-375.08,M,001.690,N,003.130,K,D*07
$GPGGA,081754.75,5703.2743632,N,00951.8099566,E,2,11,0.7,-1.163,M,40.593,M,2.2,0123*6C
$GPVTG,266.30,T,-373.60,M,001.717,N,003.181,K,D*00
$GPGGA,081754.80,5703.2743636,N,00951.8099117,E,2,11,0.7,-1.163,M,40.593,M,2.2,0123*60
$GPVTG,268.20,T,-371.70,M,001.755,N,003.250,K,D*05
$GPGGA,081754.85,5703.2743637,N,00951.8098692,E,2,11,0.7,-1.162,M,40.593,M,2.4,0123*68
$GPVTG,269.58,T,-370.32,M,001.765,N,003.269,K,D*05
$GPGGA,081754.90,5703.2743649,N,00951.8098267,E,2,11,0.7,-1.161,M,40.593,M,2.4,0123*68
$GPVTG,271.22,T,-368.68,M,001.771,N,003.280,K,D*05
$GPGGA,081754.95,5703.2743663,N,00951.8097835,E,2,11,0.7,-1.161,M,40.593,M,2.4,0123*67
$GPVTG,272.67,T,-367.23,M,001.781,N,003.299,K,D*00
$GPGGA,081755.00,5703.2743681,N,00951.8097406,E,2,11,0.7,-1.160,M,40.593,M,2.4,0123*6B
$GPVTG,274.02,T,-365.88,M,001.786,N,003.308,K,D*08
$GPGGA,081755.05,5703.2743710,N,00951.8096967,E,2,11,0.7,-1.156,M,40.593,M,2.6,0123*6B
$GPVTG,275.67,T,-364.23,M,001.787,N,003.309,K,D*0A
$GPGGA,081755.10,5703.2743753,N,00951.8096540,E,2,11,0.7,-1.155,M,40.593,M,2.6,0123*62
$GPVTG,277.62,T,-362.28,M,001.789,N,003.314,K,D*02
$GPGGA,081755.15,5703.2743798,N,00951.8096105,E,2,11,0.7,-1.154,M,40.593,M,2.6,0123*64
$GPVTG,279.37,T,-360.53,M,001.798,N,003.330,K,D*04
$GPGGA,081755.20,5703.2743862,N,00951.8095663,E,2,11,0.7,-1.152,M,40.593,M,2.6,0123*6A
$GPVTG,281.59,T,-358.31,M,001.816,N,003.363,K,D*0B
$GPGGA,081755.25,5703.2743911,N,00951.8095235,E,2,11,0.7,-1.155,M,40.593,M,2.8,0123*64
$GPVTG,283.22,T,-356.68,M,001.826,N,003.382,K,D*0B
$GPGGA,081755.30,5703.2743984,N,00951.8094811,E,2,11,0.7,-1.154,M,40.593,M,2.8,0123*60
$GPVTG,285.25,T,-354.65,M,001.828,N,003.385,K,D*0C
$GPGGA,081755.35,5703.2744046,N,00951.8094401,E,2,11,0.7,-1.154,M,40.593,M,2.8,0123*68
$GPVTG,286.56,T,-353.34,M,001.813,N,003.357,K,D*0F
$GPGGA,081755.40,5703.2744110,N,00951.8093975,E,2,11,0.7,-1.154,M,40.593,M,2.8,0123*61
$GPVTG,287.60,T,-352.30,M,001.812,N,003.356,K,D*0E
$GPGGA,081755.45,5703.2744184,N,00951.8093524,E,2,11,0.7,-1.154,M,40.593,M,3.0,0123*68
$GPVTG,288.66,T,-351.24,M,001.841,N,003.409,K,D*0A
$GPGGA,081755.50,5703.2744275,N,00951.8093073,E,2,11,0.7,-1.152,M,40.593,M,3.0,0123*60
$GPVTG,290.12,T,-349.78,M,001.869,N,003.461,K,D*04
$GPGGA,081755.55,5703.2744367,N,00951.8092646,E,2,11,0.7,-1.153,M,40.593,M,3.0,0123*67
$GPVTG,291.56,T,-348.34,M,001.873,N,003.469,K,D*0F
$GPGGA,081755.60,5703.2744463,N,00951.8092202,E,2,11,0.7,-1.155,M,40.593,M,3.0,0123*60
$GPVTG,292.71,T,-347.19,M,001.893,N,003.506,K,D*0F
$GPGGA,081755.65,5703.2744574,N,00951.8091769,E,2,11,0.7,-1.156,M,40.593,M,3.2,0123*68
$GPVTG,294.33,T,-345.57,M,001.908,N,003.534,K,D*05
$GPGGA,081755.70,5703.2744702,N,00951.8091349,E,2,11,0.7,-1.157,M,40.593,M,3.2,0123*68
$GPVTG,296.46,T,-343.44,M,001.922,N,003.560,K,D*08
$GPGGA,081755.75,5703.2744837,N,00951.8090941,E,2,11,0.7,-1.156,M,40.593,M,3.2,0123*66
$GPVTG,298.62,T,-341.28,M,001.930,N,003.575,K,D*0F
$GPGGA,081755.80,5703.2744980,N,00951.8090533,E,2,11,0.7,-1.156,M,40.593,M,3.2,0123*68
$GPVTG,300.67,T,-339.23,M,001.942,N,003.597,K,D*07
$GPGGA,081755.85,5703.2745128,N,00951.8090123,E,2,11,0.7,-1.153,M,40.593,M,3.4,0123*60
$GPVTG,302.44,T,-337.46,M,001.959,N,003.627,K,D*0B
$GPGGA,081755.90,5703.2745279,N,00951.8089734,E,2,11,0.7,-1.151,M,40.593,M,3.4,0123*69
$GPVTG,304.40,T,-335.50,M,001.958,N,003.627,K,D*0D
$GPGGA,081755.95,5703.2745428,N,00951.8089330,E,2,11,0.7,-1.151,M,40.593,M,3.4,0123*6E
$GPVTG,305.65,T,-334.25,M,001.969,N,003.646,K,D*0D
$GPGGA,081756.00,5703.2745583,N,00951.8088936,E,2,11,0.7,-1.150,M,40.593,M,3.4,0123*6D
$GPVTG,306.98,T,-332.92,M,001.975,N,003.658,K,D*04
$GPGGA,081756.05,5703.2745731,N,00951.8088549,E,2,11,0.7,-1.154,M,40.593,M,2.9,0123*6F
$GPVTG,308.43,T,-331.47,M,001.983,N,003.673,K,D*07
$GPGGA,081756.10,5703.2745896,N,00951.8088152,E,2,11,0.7,-1.155,M,40.593,M,2.9,0123*66
$GPVTG,309.45,T,-330.45,M,001.999,N,003.701,K,D*0C
$GPGGA,081756.15,5703.2746062,N,00951.8087756,E,2,11,0.7,-1.155,M,40.593,M,2.9,0123*6E
$GPVTG,310.22,T,-329.68,M,002.011,N,003.724,K,D*0F
$GPGGA,081756.20,5703.2746244,N,00951.8087371,E,2,11,0.7,-1.155,M,40.593,M,2.9,0123*6F
$GPVTG,311.52,T,-328.38,M,002.028,N,003.756,K,D*02
$GPGGA,081756.25,5703.2746427,N,00951.8086997,E,2,11,0.7,-1.157,M,40.593,M,3.1,0123*61
$GPVTG,312.76,T,-327.14,M,002.039,N,003.777,K,D*05
$GPGGA,081756.30,5703.2746626,N,00951.8086604,E,2,11,0.7,-1.154,M,40.593,M,3.1,0123*60
$GPVTG,313.85,T,-326.05,M,002.075,N,003.842,K,D*08
$GPGGA,081756.35,5703.2746834,N,00951.8086233,E,2,11,0.7,-1.153,M,40.593,M,3.1,0123*6F
$GPVTG,315.32,T,-324.58,M,002.099,N,003.887,K,D*03
$GPGGA,081756.40,5703.2747044,N,00951.8085877,E,2,11,0.7,-1.152,M,40.593,M,3.1,0123*6B
$GPVTG,316.81,T,-323.09,M,002.112,N,003.911,K,D*07
$GPGGA,081756.45,5703.2747252,N,00951.8085529,E,2,11,0.7,-1.151,M,40.593,M,3.4,0123*6B
$GPVTG,318.02,T,-321.88,M,002.111,N,003.910,K,D*0B
$GPGGA,081756.50,5703.2747472,N,00951.8085183,E,2,11,0.7,-1.152,M,40.593,M,3.4,0123*6C
$GPVTG,319.40,T,-320.50,M,002.127,N,003.938,K,D*07
$GPGGA,081756.55,5703.2747681,N,00951.8084846,E,2,11,0.7,-1.154,M,40.593,M,3.4,0123*60
$GPVTG,320.35,T,-319.55,M,002.121,N,003.928,K,D*07
$GPGGA,081756.60,5703.2747895,N,00951.8084505,E,2,11,0.7,-1.157,M,40.593,M,3.4,0123*64
$GPVTG,321.13,T,-318.77,M,002.124,N,003.934,K,D*0B
$GPGGA,081756.65,5703.2748118,N,00951.8084169,E,2,11,0.7,-1.160,M,40.593,M,3.6,0123*6A
$GPVTG,322.09,T,-317.81,M,002.136,N,003.956,K,D*02
$GPGGA,081756.70,5703.2748355,N,00951.8083857,E,2,11,0.7,-1.160,M,40.593,M,3.6,0123*66
$GPVTG,323.56,T,-316.34,M,002.145,N,003.973,K,D*05
$GPGGA,081756.75,5703.2748594,N,00951.8083556,E,2,11,0.7,-1.161,M,40.593,M,3.6,0123*65
$GPVTG,325.03,T,-314.87,M,002.150,N,003.981,K,D*00
$GPGGA,081756.80,5703.2748833,N,00951.8083261,E,2,11,0.7,-1.161,M,40.593,M,3.6,0123*6C
$GPVTG,326.32,T,-313.58,M,002.150,N,003.982,K,D*07
$GPGGA,081756.85,5703.2749083,N,00951.8082970,E,2,11,0.7,-1.158,M,40.593,M,3.8,0123*65
$GPVTG,327.55,T,-312.35,M,002.158,N,003.996,K,D*00
$GPGGA,081756.90,5703.2749332,N,00951.8082687,E,2,11,0.7,-1.157,M,40.593,M,3.8,0123*60
$GPVTG,328.77,T,-311.13,M,002.164,N,004.007,K,D*01
$GPGGA,081756.95,5703.2749597,N,00951.8082413,E,2,11,0.7,-1.157,M,40.593,M,3.8,0123*63
$GPVTG,330.18,T,-309.72,M,002.183,N,004.044,K,D*01
$GPGGA,081757.00,5703.2749881,N,00951.8082158,E,2,11,0.7,-1.156,M,40.593,M,3.8,0123*6F
$GPVTG,332.06,T,-307.84,M,002.219,N,004.110,K,D*0B
$GPGGA,081757.05,5703.2750149,N,00951.8081893,E,2,11,0.7,-1.149,M,40.593,M,1.5,0123*63
$GPVTG,333.19,T,-306.71,M,002.235,N,004.140,K,D*04
$GPGGA,081757.10,5703.2750415,N,00951.8081620,E,2,11,0.7,-1.147,M,40.593,M,1.5,0123*63
$GPVTG,333.70,T,-306.20,M,002.249,N,004.164,K,D*02
$GPGGA,081757.15,5703.2750689,N,00951.8081361,E,2,11,0.7,-1.146,M,40.593,M,1.5,0123*60
$GPVTG,334.44,T,-305.46,M,002.263,N,004.191,K,D*03
$GPGGA,081757.20,5703.2750975,N,00951.8081118,E,2,11,0.7,-1.146,M,40.593,M,1.5,0123*66
$GPVTG,335.53,T,-304.37,M,002.284,N,004.230,K,D*02
$GPGGA,081757.25,5703.2751249,N,00951.8080886,E,2,11,0.7,-1.151,M,40.593,M,1.7,0123*6D
$GPVTG,336.43,T,-303.47,M,002.287,N,004.236,K,D*05
$GPGGA,081757.30,5703.2751532,N,00951.8080663,E,2,11,0.7,-1.154,M,40.593,M,1.7,0123*62
$GPVTG,337.42,T,-302.48,M,002.292,N,004.245,K,D*0B
$GPGGA,081757.35,5703.2751832,N,00951.8080445,E,2,11,0.7,-1.157,M,40.593,M,1.7,0123*6F
$GPVTG,338.53,T,-301.37,M,002.316,N,004.290,K,D*0A
$GPGGA,081757.40,5703.2752145,N,00951.8080264,E,2,11,0.7,-1.156,M,40.593,M,1.7,0123*63
$GPVTG,340.33,T,-299.57,M,002.344,N,004.342,K,D*0C
$GPGGA,081757.45,5703.2752458,N,00951.8080095,E,2,11,0.7,-1.155,M,40.593,M,2.0,0123*64
$GPVTG,342.03,T,-297.87,M,002.364,N,004.379,K,D*04
$GPGGA,081757.50,5703.2752776,N,00951.8079941,E,2,11,0.7,-1.156,M,40.593,M,2.0,0123*6A
$GPVTG,343.75,T,-296.15,M,002.386,N,004.418,K,D*02
$GPGGA,081757.55,5703.2753087,N,00951.8079793,E,2,11,0.7,-1.157,M,40.593,M,2.0,0123*67
$GPVTG,345.19,T,-294.71,M,002.395,N,004.435,K,D*03
$GPGGA,081757.60,5703.2753415,N,00951.8079649,E,2,11,0.7,-1.154,M,40.593,M,2.0,0123*6B
$GPVTG,346.53,T,-293.37,M,002.423,N,004.487,K,D*08
$GPGGA,081757.65,5703.2753735,N,00951.8079515,E,2,11,0.7,-1.153,M,40.593,M,2.2,0123*60
$GPVTG,347.68,T,-292.22,M,002.444,N,004.527,K,D*0E
$GPGGA,081757.70,5703.2754066,N,00951.8079393,E,2,11,0.7,-1.146,M,40.593,M,2.2,0123*6E
$GPVTG,348.91,T,-290.99,M,002.466,N,004.568,K,D*0E
$GPGGA,081757.75,5703.2754399,N,00951.8079281,E,2,11,0.7,-1.139,M,40.593,M,2.2,0123*62
$GPVTG,350.08,T,-289.82,M,002.484,N,004.601,K,D*05
$GPGGA,081757.80,5703.2754722,N,00951.8079181,E,2,11,0.7,-1.137,M,40.593,M,2.2,0123*61
$GPVTG,351.17,T,-288.73,M,002.484,N,004.600,K,D*04
$GPGGA,081757.85,5703.2755021,N,00951.8079086,E,2,11,0.7,-1.139,M,40.593,M,2.4,0123*6F
$GPVTG,352.01,T,-287.89,M,002.485,N,004.602,K,D*09
$GPGGA,081757.90,5703.2755345,N,00951.8079008,E,2,11,0.7,-1.141,M,40.593,M,2.4,0123*63
$GPVTG,353.08,T,-286.82,M,002.483,N,004.599,K,D*0C
$GPGGA,081757.95,5703.2755676,N,00951.8078945,E,2,11,0.7,-1.141,M,40.593,M,2.4,0123*62
$GPVTG,354.28,T,-285.62,M,002.489,N,004.609,K,D*04
$GPGGA,081758.00,5703.2756004,N,00951.8078904,E,2,11,0.7,-1.139,M,40.593,M,2.4,0123*6B
$GPVTG,355.66,T,-284.25,M,002.485,N,004.603,K,D*0B
$GPGGA,081758.05,5703.2756298,N,00951.8078869,E,2,11,0.7,-1.147,M,40.593,M,1.5,0123*68
$GPVTG,356.79,T,-283.11,M,002.473,N,004.579,K,D*01
$GPGGA,081758.10,5703.2756622,N,00951.8078853,E,2,11,0.7,-1.147,M,40.593,M,1.5,0123*60
$GPVTG,358.17,T,-281.73,M,002.463,N,004.561,K,D*09
$GPGGA,081758.15,5703.2756959,N,00951.8078846,E,2,11,0.7,-1.144,M,40.593,M,1.5,0123*61
$GPVTG,359.44,T,-280.46,M,002.471,N,004.577,K,D*0D
$GPGGA,081758.20,5703.2757297,N,00951.8078854,E,2,11,0.7,-1.143,M,40.593,M,1.5,0123*6B
$GPVTG,000.75,T,-639.15,M,002.479,N,004.592,K,D*03
$GPGGA,081758.25,5703.2757644,N,00951.8078862,E,2,11,0.7,-1.135,M,40.593,M,1.7,0123*62
$GPVTG,001.80,T,-638.10,M,002.484,N,004.601,K,D*07
$GPGGA,081758.30,5703.2757978,N,00951.8078891,E,2,11,0.7,-1.133,M,40.593,M,1.7,0123*6C
$GPVTG,003.01,T,-636.89,M,002.486,N,004.603,K,D*02
$GPGGA,081758.35,5703.2758312,N,00951.8078930,E,2,11,0.7,-1.130,M,40.593,M,1.7,0123*69
$GPVTG,004.14,T,-635.76,M,002.486,N,004.604,K,D*05
$GPGGA,081758.40,5703.2758660,N,00951.8078977,E,2,11,0.7,-1.125,M,40.593,M,1.7,0123*6C
$GPVTG,005.15,T,-634.75,M,002.505,N,004.640,K,D*0D
$GPGGA,081758.45,5703.2758971,N,00951.8079059,E,2,11,0.7,-1.135,M,40.593,M,1.9,0123*6D
$GPVTG,006.55,T,-633.35,M,002.504,N,004.637,K,D*08
$GPGGA,081758.50,5703.2759310,N,00951.8079140,E,2,11,0.7,-1.133,M,40.593,M,1.9,0123*6A
$GPVTG,007.74,T,-632.16,M,002.510,N,004.649,K,D*06
$GPGGA,081758.55,5703.2759641,N,00951.8079216,E,2,11,0.7,-1.134,M,40.593,M,1.9,0123*69
$GPVTG,008.56,T,-631.34,M,002.505,N,004.639,K,D*09
$GPGGA,081758.60,5703.2759967,N,00951.8079305,E,2,11,0.7,-1.135,M,40.593,M,1.9,0123*66
$GPVTG,009.47,T,-630.43,M,002.493,N,004.618,K,D*04
$GPGGA,081758.65,5703.2760290,N,00951.8079412,E,2,11,0.7,-1.137,M,40.593,M,2.2,0123*61
$GPVTG,010.50,T,-629.40,M,002.485,N,004.602,K,D*0D
$GPGGA,081758.70,5703.2760620,N,00951.8079532,E,2,11,0.7,-1.137,M,40.593,M,2.2,0123*69
$GPVTG,011.59,T,-628.31,M,002.485,N,004.602,K,D*02
$GPGGA,081758.75,5703.2760953,N,00951.8079664,E,2,11,0.7,-1.137,M,40.593,M,2.2,0123*67
$GPVTG,012.66,T,-627.24,M,002.489,N,004.610,K,D*09
$GPGGA,081758.80,5703.2761270,N,00951.8079806,E,2,11,0.7,-1.138,M,40.593,M,2.2,0123*63
$GPVTG,013.78,T,-626.12,M,002.475,N,004.583,K,D*09
$GPGGA,081758.85,5703.2761599,N,00951.8079961,E,2,11,0.7,-1.142,M,40.593,M,2.4,0123*6D
$GPVTG,014.75,T,-625.15,M,002.487,N,004.605,K,D*07
$GPGGA,081758.90,5703.2761932,N,00951.8080132,E,2,11,0.7,-1.142,M,40.593,M,2.4,0123*6C
$GPVTG,015.87,T,-624.03,M,002.497,N,004.625,K,D*0E
$GPGGA,081758.95,5703.2762254,N,00951.8080318,E,2,11,0.7,-1.143,M,40.593,M,2.4,0123*6A
$GPVTG,017.13,T,-622.77,M,002.497,N,004.625,K,D*04
$GPGGA,081759.00,5703.2762570,N,00951.8080524,E,2,11,0.7,-1.146,M,40.593,M,2.4,0123*6A
$GPVTG,018.60,T,-621.30,M,002.493,N,004.618,K,D*05
$GPGGA,081759.05,5703.2762857,N,00951.8080747,E,2,11,0.7,-1.153,M,40.593,M,2.6,0123*66
$GPVTG,020.13,T,-619.77,M,002.486,N,004.604,K,D*0B
$GPGGA,081759.10,5703.2763162,N,00951.8080988,E,2,11,0.7,-1.156,M,40.593,M,2.6,0123*64
$GPVTG,021.85,T,-618.05,M,002.477,N,004.587,K,D*07
$GPGGA,081759.15,5703.2763474,N,00951.8081229,E,2,11,0.7,-1.156,M,40.593,M,2.6,0123*62
$GPVTG,023.14,T,-616.76,M,002.478,N,004.589,K,D*06
$GPGGA,081759.20,5703.2763783,N,00951.8081490,E,2,11,0.7,-1.155,M,40.593,M,2.6,0123*68
$GPVTG,024.56,T,-615.34,M,002.484,N,004.600,K,D*03
$GPGGA,081759.25,5703.2764105,N,00951.8081753,E,2,11,0.7,-1.148,M,40.593,M,2.8,0123*6C
$GPVTG,025.68,T,-614.22,M,002.495,N,004.620,K,D*0B
$GPGGA,081759.30,5703.2764417,N,00951.8082014,E,2,11,0.7,-1.150,M,40.593,M,2.8,0123*60
$GPVTG,026.47,T,-613.43,M,002.499,N,004.629,K,D*00
$GPGGA,081759.35,5703.2764718,N,00951.8082313,E,2,11,0.7,-1.151,M,40.593,M,2.8,0123*6C
$GPVTG,027.91,T,-611.99,M,002.506,N,004.641,K,D*06
$GPGGA,081759.40,5703.2765014,N,00951.8082632,E,2,11,0.7,-1.154,M,40.593,M,2.8,0123*67
$GPVTG,029.51,T,-610.39,M,002.512,N,004.652,K,D*08
$GPGGA,081759.45,5703.2765281,N,00951.8082953,E,2,11,0.7,-1.159,M,40.593,M,3.0,0123*60
$GPVTG,031.19,T,-608.71,M,002.487,N,004.606,K,D*04
$GPGGA,081759.50,5703.2765567,N,00951.8083291,E,2,11,0.7,-1.156,M,40.593,M,3.0,0123*60
$GPVTG,032.67,T,-607.23,M,002.491,N,004.614,K,D*02
$GPGGA,081759.55,5703.2765854,N,00951.8083623,E,2,11,0.7,-1.153,M,40.593,M,3.0,0123*60
$GPVTG,033.67,T,-606.23,M,002.491,N,004.614,K,D*02
$GPGGA,081759.60,5703.2766140,N,00951.8083958,E,2,11,0.7,-1.150,M,40.593,M,3.0,0123*69
$GPVTG,034.47,T,-605.43,M,002.492,N,004.615,K,D*00
$GPGGA,081759.65,5703.2766418,N,00951.8084297,E,2,11,0.7,-1.142,M,40.593,M,3.2,0123*6A
$GPVTG,035.55,T,-604.35,M,002.474,N,004.583,K,D*06
$GPGGA,081759.70,5703.2766685,N,00951.8084640,E,2,11,0.7,-1.141,M,40.593,M,3.2,0123*65
$GPVTG,036.42,T,-603.48,M,002.455,N,004.546,K,D*04
$GPGGA,081759.75,5703.2766965,N,00951.8085011,E,2,11,0.7,-1.138,M,40.593,M,3.2,0123*6C
$GPVTG,037.29,T,-602.61,M,002.467,N,004.569,K,D*0E
$GPGGA,081759.80,5703.2767227,N,00951.8085393,E,2,11,0.7,-1.136,M,40.593,M,3.2,0123*6D
$GPVTG,038.50,T,-601.40,M,002.463,N,004.562,K,D*00
$GPGGA,081759.85,5703.2767488,N,00951.8085773,E,2,11,0.7,-1.135,M,40.593,M,3.4,0123*64
$GPVTG,039.41,T,-600.49,M,002.460,N,004.556,K,D*0D
$GPGGA,081759.90,5703.2767743,N,00951.8086170,E,2,11,0.7,-1.134,M,40.593,M,3.4,0123*63
$GPVTG,040.53,T,-599.37,M,002.457,N,004.550,K,D*08
$GPGGA,081759.95,5703.2768000,N,00951.8086576,E,2,11,0.7,-1.132,M,40.593,M,3.4,0123*6D
$GPVTG,041.54,T,-598.36,M,002.459,N,004.555,K,D*05
$GPGGA,081800.00,5703.2768242,N,00951.8086984,E,2,11,0.7,-1.132,M,40.593,M,3.4,0123*67
$GPVTG,042.69,T,-597.21,M,002.446,N,004.531,K,D*0D
$GPGGA,081800.05,5703.2768460,N,00951.8087402,E,2,11,0.7,-1.136,M,40.593,M,2.9,0123*6E
$GPVTG,044.22,T,-595.68,M,002.431,N,004.503,K,D*0A
$GPGGA,081800.10,5703.2768698,N,00951.8087835,E,2,11,0.7,-1.135,M,40.593,M,2.9,0123*64
$GPVTG,045.32,T,-594.58,M,002.433,N,004.506,K,D*0F
$GPGGA,081800.15,5703.2768930,N,00951.8088255,E,2,11,0.7,-1.136,M,40.593,M,2.9,0123*6C
$GPVTG,046.14,T,-593.76,M,002.419,N,004.479,K,D*02
$GPGGA,081800.20,5703.2769148,N,00951.8088695,E,2,11,0.7,-1.135,M,40.593,M,2.9,0123*67
$GPVTG,047.42,T,-592.48,M,002.404,N,004.452,K,D*09
$GPGGA,081800.25,5703.2769367,N,00951.8089141,E,2,11,0.7,-1.132,M,40.593,M,3.1,0123*6C
$GPVTG,048.66,T,-591.24,M,002.393,N,004.432,K,D*06
$GPGGA,081800.30,5703.2769577,N,00951.8089593,E,2,11,0.7,-1.131,M,40.593,M,3.1,0123*67
$GPVTG,049.84,T,-590.06,M,002.381,N,004.410,K,D*09
$GPGGA,081800.35,5703.2769784,N,00951.8090055,E,2,11,0.7,-1.134,M,40.593,M,3.1,0123*6E
$GPVTG,050.98,T,-588.92,M,002.377,N,004.402,K,D*02
$GPGGA,081800.40,5703.2769991,N,00951.8090527,E,2,11,0.7,-1.133,M,40.593,M,3.1,0123*61
$GPVTG,052.04,T,-587.86,M,002.380,N,004.408,K,D*0D
$GPGGA,081800.45,5703.2770184,N,00951.8091012,E,2,11,0.7,-1.136,M,40.593,M,3.4,0123*62
$GPVTG,053.27,T,-586.63,M,002.382,N,004.412,K,D*0E
$GPGGA,081800.50,5703.2770371,N,00951.8091497,E,2,11,0.7,-1.136,M,40.593,M,3.4,0123*67
$GPVTG,054.58,T,-585.32,M,002.376,N,004.400,K,D*0E
$GPGGA,081800.55,5703.2770548,N,00951.8091991,E,2,11,0.7,-1.136,M,40.593,M,3.4,0123*65
$GPVTG,056.06,T,-583.84,M,002.368,N,004.386,K,D*0A
$GPGGA,081800.60,5703.2770719,N,00951.8092477,E,2,11,0.7,-1.139,M,40.593,M,3.4,0123*6C
$GPVTG,057.30,T,-582.60,M,002.351,N,004.353,K,D*07
$GPGGA,081800.65,5703.2770889,N,00951.8092984,E,2,11,0.7,-1.135,M,40.593,M,3.6,0123*60
$GPVTG,058.64,T,-581.26,M,002.350,N,004.352,K,D*08
$GPGGA,081800.70,5703.2771044,N,00951.8093484,E,2,11,0.7,-1.133,M,40.593,M,3.6,0123*66
$GPVTG,060.07,T,-579.83,M,002.333,N,004.321,K,D*0F
$GPGGA,081800.75,5703.2771188,N,00951.8093984,E,2,11,0.7,-1.134,M,40.593,M,3.6,0123*68
$GPVTG,061.59,T,-578.31,M,002.310,N,004.279,K,D*00
$GPGGA,081800.80,5703.2771325,N,00951.8094491,E,2,11,0.7,-1.135,M,40.593,M,3.6,0123*68
$GPVTG,063.11,T,-576.79,M,002.293,N,004.246,K,D*0A
$GPGGA,081800.85,5703.2771444,N,00951.8094971,E,2,11,0.7,-1.142,M,40.593,M,3.8,0123*60
$GPVTG,064.71,T,-575.19,M,002.272,N,004.208,K,D*0B
$GPGGA,081800.90,5703.2771573,N,00951.8095467,E,2,11,0.7,-1.142,M,40.593,M,3.8,0123*6A
$GPVTG,065.84,T,-574.06,M,002.246,N,004.160,K,D*05
$GPGGA,081800.95,5703.2771692,N,00951.8095959,E,2,11,0.7,-1.144,M,40.593,M,3.8,0123*65
$GPVTG,067.07,T,-572.83,M,002.213,N,004.099,K,D*00
$GPGGA,081801.00,5703.2771804,N,00951.8096450,E,2,11,0.7,-1.144,M,40.593,M,3.8,0123*6E
$GPVTG,068.30,T,-571.60,M,002.181,N,004.039,K,D*07
$GPGGA,081801.05,5703.2771912,N,00951.8096927,E,2,11,0.7,-1.137,M,40.593,M,1.5,0123*6B
$GPVTG,069.35,T,-570.55,M,002.148,N,003.979,K,D*0B
$GPGGA,081801.10,5703.2772008,N,00951.8097419,E,2,11,0.7,-1.136,M,40.593,M,1.5,0123*6E
$GPVTG,070.74,T,-569.16,M,002.119,N,003.924,K,D*05
$GPGGA,081801.15,5703.2772103,N,00951.8097918,E,2,11,0.7,-1.136,M,40.593,M,1.5,0123*6D
$GPVTG,071.99,T,-567.91,M,002.099,N,003.887,K,D*07
$GPGGA,081801.20,5703.2772188,N,00951.8098424,E,2,11,0.7,-1.136,M,40.593,M,1.5,0123*65
$GPVTG,073.38,T,-566.52,M,002.086,N,003.864,K,D*03
$GPGGA,081801.25,5703.2772270,N,00951.8098923,E,2,11,0.7,-1.136,M,40.593,M,1.7,0123*6C
$GPVTG,074.50,T,-565.40,M,002.070,N,003.833,K,D*01
$GPGGA,081801.30,5703.2772344,N,00951.8099426,E,2,11,0.7,-1.135,M,40.593,M,1.7,0123*64
$GPVTG,075.82,T,-564.08,M,002.056,N,003.808,K,D*0E
$GPGGA,081801.35,5703.2772406,N,00951.8099929,E,2,11,0.7,-1.135,M,40.593,M,1.7,0123*62
$GPVTG,077.37,T,-562.53,M,002.041,N,003.780,K,D*03
$GPGGA,081801.40,5703.2772467,N,00951.8100430,E,2,11,0.7,-1.134,M,40.593,M,1.7,0123*62
$GPVTG,078.67,T,-561.23,M,002.029,N,003.758,K,D*06
$GPGGA,081801.45,5703.2772521,N,00951.8100940,E,2,11,0.7,-1.132,M,40.593,M,2.0,0123*6C
$GPVTG,080.12,T,-559.78,M,002.024,N,003.748,K,D*0A
$GPGGA,081801.50,5703.2772565,N,00951.8101439,E,2,11,0.7,-1.131,M,40.593,M,2.0,0123*69
$GPVTG,081.54,T,-558.36,M,002.010,N,003.723,K,D*08
$GPGGA,081801.55,5703.2772608,N,00951.8101957,E,2,11,0.7,-1.132,M,40.593,M,2.0,0123*62
$GPVTG,082.80,T,-557.10,M,002.017,N,003.735,K,D*09
$GPGGA,081801.60,5703.2772644,N,00951.8102475,E,2,11,0.7,-1.134,M,40.593,M,2.0,0123*64
$GPVTG,084.05,T,-555.85,M,002.022,N,003.745,K,D*0D
$GPGGA,081801.65,5703.2772664,N,00951.8102977,E,2,11,0.7,-1.135,M,40.593,M,2.2,0123*6F
$GPVTG,085.71,T,-554.19,M,002.012,N,003.725,K,D*0E
$GPGGA,081801.70,5703.2772691,N,00951.8103476,E,2,11,0.7,-1.135,M,40.593,M,2.2,0123*6C
$GPVTG,086.69,T,-553.21,M,002.001,N,003.706,K,D*0B
$GPGGA,081801.75,5703.2772709,N,00951.8103984,E,2,11,0.7,-1.134,M,40.593,M,2.2,0123*68
$GPVTG,087.89,T,-552.01,M,002.000,N,003.704,K,D*04
$GPGGA,081801.80,5703.2772718,N,00951.8104481,E,2,11,0.7,-1.134,M,40.593,M,2.2,0123*6D
$GPVTG,089.17,T,-550.73,M,001.989,N,003.684,K,D*08
$GPGGA,081801.85,5703.2772713,N,00951.8104958,E,2,11,0.7,-1.141,M,40.593,M,1.3,0123*6A
$GPVTG,090.42,T,-549.48,M,001.972,N,003.653,K,D*0E
$GPGGA,081801.90,5703.2772719,N,00951.8105439,E,2,11,0.7,-1.141,M,40.593,M,1.3,0123*6F
$GPVTG,091.32,T,-548.58,M,001.951,N,003.613,K,D*0D
$GPGGA,081801.95,5703.2772715,N,00951.8105911,E,2,11,0.7,-1.143,M,40.593,M,1.3,0123*63
$GPVTG,092.44,T,-547.46,M,001.926,N,003.567,K,D*0F
$GPGGA,081802.00,5703.2772700,N,00951.8106384,E,2,11,0.7,-1.144,M,40.593,M,1.3,0123*6A
$GPVTG,093.84,T,-546.06,M,001.906,N,003.530,K,D*07
$GPGGA,081802.05,5703.2772676,N,00951.8106827,E,2,11,0.7,-1.140,M,40.593,M,1.5,0123*6F
$GPVTG,095.71,T,-544.19,M,001.876,N,003.474,K,D*00
$GPGGA,081802.10,5703.2772650,N,00951.8107274,E,2,11,0.7,-1.140,M,40.593,M,1.5,0123*62
$GPVTG,097.13,T,-542.77,M,001.844,N,003.415,K,D*0E
$GPGGA,081802.15,5703.2772620,N,00951.8107729,E,2,11,0.7,-1.139,M,40.593,M,1.5,0123*63
$GPVTG,098.43,T,-541.47,M,001.826,N,003.382,K,D*09
$GPGGA,081802.20,5703.2772584,N,00951.8108186,E,2,11,0.7,-1.138,M,40.593,M,1.5,0123*65
$GPVTG,099.73,T,-540.17,M,001.816,N,003.363,K,D*03
$GPGGA,081802.25,5703.2772528,N,00951.8108646,E,2,11,0.7,-1.141,M,40.593,M,1.7,0123*61
$GPVTG,101.29,T,-538.61,M,001.816,N,003.362,K,D*03
$GPGGA,081802.30,5703.2772478,N,00951.8109081,E,2,11,0.7,-1.139,M,40.593,M,1.7,0123*62
$GPVTG,102.82,T,-537.08,M,001.795,N,003.323,K,D*00
$GPGGA,081802.35,5703.2772424,N,00951.8109518,E,2,11,0.7,-1.136,M,40.593,M,1.7,0123*64
$GPVTG,104.17,T,-535.73,M,001.782,N,003.300,K,D*03
$GPGGA,081802.40,5703.2772357,N,00951.8109959,E,2,11,0.7,-1.136,M,40.593,M,1.7,0123*6C
$GPVTG,105.79,T,-534.11,M,001.781,N,003.298,K,D*0C
$GPGGA,081802.45,5703.2772344,N,00951.8110316,E,2,11,0.7,-1.138,M,40.593,M,1.9,0123*62
$GPVTG,107.12,T,-532.78,M,001.756,N,003.251,K,D*05
$GPGGA,081802.50,5703.2772285,N,00951.8110719,E,2,11,0.7,-1.137,M,40.593,M,1.9,0123*6E
$GPVTG,108.18,T,-531.72,M,001.725,N,003.195,K,D*06
$GPGGA,081802.55,5703.2772222,N,00951.8111126,E,2,11,0.7,-1.136,M,40.593,M,1.9,0123*6C
$GPVTG,109.17,T,-530.73,M,001.706,N,003.159,K,D*09
$GPGGA,081802.60,5703.2772163,N,00951.8111530,E,2,11,0.7,-1.136,M,40.593,M,1.9,0123*6F
$GPVTG,109.73,T,-530.17,M,001.685,N,003.121,K,D*0C
$GPGGA,081802.65,5703.2772099,N,00951.8111916,E,2,11,0.7,-1.135,M,40.593,M,2.2,0123*6D
$GPVTG,110.68,T,-529.22,M,001.658,N,003.070,K,D*05
$GPGGA,081802.70,5703.2772034,N,00951.8112300,E,2,11,0.7,-1.136,M,40.593,M,2.2,0123*63
$GPVTG,111.35,T,-528.55,M,001.632,N,003.022,K,D*06
$GPGGA,081802.75,5703.2771960,N,00951.8112680,E,2,11,0.7,-1.136,M,40.593,M,2.2,0123*60
$GPVTG,112.26,T,-527.64,M,001.612,N,002.985,K,D*0D
$GPGGA,081802.80,5703.2771878,N,00951.8113051,E,2,11,0.7,-1.137,M,40.593,M,2.2,0123*68
$GPVTG,113.42,T,-526.48,M,001.593,N,002.951,K,D*02
$GPGGA,081802.85,5703.2771777,N,00951.8113411,E,2,11,0.7,-1.139,M,40.593,M,2.4,0123*65
$GPVTG,115.42,T,-524.48,M,001.581,N,002.928,K,D*0B
$GPGGA,081802.90,5703.2771681,N,00951.8113753,E,2,11,0.7,-1.138,M,40.593,M,2.4,0123*6D
$GPVTG,117.13,T,-522.77,M,001.555,N,002.880,K,D*0D
$GPGGA,081802.95,5703.2771598,N,00951.8114102,E,2,11,0.7,-1.140,M,40.593,M,2.4,0123*69
$GPVTG,117.77,T,-522.13,M,001.531,N,002.836,K,D*02
$GPGGA,081803.00,5703.2771508,N,00951.8114449,E,2,11,0.7,-1.142,M,40.593,M,2.4,0123*65
$GPVTG,118.58,T,-521.32,M,001.518,N,002.811,K,D*0E
$GPGGA,081803.05,5703.2771380,N,00951.8114795,E,2,11,0.7,-1.138,M,40.593,M,2.6,0123*6B
$GPVTG,120.38,T,-519.52,M,001.512,N,002.801,K,D*05
$GPGGA,081803.10,5703.2771265,N,00951.8115113,E,2,11,0.7,-1.138,M,40.593,M,2.6,0123*6C
$GPVTG,122.32,T,-517.58,M,001.500,N,002.777,K,D*04
$GPGGA,081803.15,5703.2771153,N,00951.8115434,E,2,11,0.7,-1.135,M,40.593,M,2.6,0123*62
$GPVTG,123.78,T,-516.12,M,001.492,N,002.764,K,D*0C
$GPGGA,081803.20,5703.2771034,N,00951.8115730,E,2,11,0.7,-1.134,M,40.593,M,2.6,0123*62
$GPVTG,125.73,T,-514.17,M,001.475,N,002.732,K,D*0C
$GPGGA,081803.25,5703.2770894,N,00951.8116020,E,2,11,0.7,-1.137,M,40.593,M,2.8,0123*6C
$GPVTG,128.14,T,-511.76,M,001.469,N,002.720,K,D*0C
$GPGGA,081803.30,5703.2770763,N,00951.8116303,E,2,11,0.7,-1.135,M,40.593,M,2.8,0123*6F
$GPVTG,130.15,T,-509.75,M,001.462,N,002.707,K,D*00
$GPGGA,081803.35,5703.2770620,N,00951.8116570,E,2,11,0.7,-1.136,M,40.593,M,2.8,0123*6D
$GPVTG,132.65,T,-507.25,M,001.458,N,002.701,K,D*01
$GPGGA,081803.40,5703.2770477,N,00951.8116837,E,2,11,0.7,-1.137,M,40.593,M,2.8,0123*60
$GPVTG,134.71,T,-505.19,M,001.459,N,002.702,K,D*0D
$GPGGA,081803.45,5703.2770337,N,00951.8117089,E,2,11,0.7,-1.135,M,40.593,M,3.0,0123*61
$GPVTG,136.67,T,-503.23,M,001.451,N,002.688,K,D*0C
$GPGGA,081803.50,5703.2770196,N,00951.8117327,E,2,11,0.7,-1.135,M,40.593,M,3.0,0123*6B
$GPVTG,138.54,T,-501.36,M,001.436,N,002.660,K,D*03
$GPGGA,081803.55,5703.2770047,N,00951.8117561,E,2,11,0.7,-1.132,M,40.593,M,3.0,0123*60
$GPVTG,140.47,T,-499.43,M,001.432,N,002.653,K,D*08
$GPGGA,081803.60,5703.2769893,N,00951.8117782,E,2,11,0.7,-1.131,M,40.593,M,3.0,0123*63
$GPVTG,142.53,T,-497.37,M,001.429,N,002.646,K,D*0C
$GPGGA,081803.65,5703.2769739,N,00951.8117979,E,2,11,0.7,-1.133,M,40.593,M,3.2,0123*63
$GPVTG,144.88,T,-495.02,M,001.410,N,002.612,K,D*03
$GPGGA,081803.70,5703.2769585,N,00951.8118162,E,2,11,0.7,-1.134,M,40.593,M,3.2,0123*68
$GPVTG,147.23,T,-492.67,M,001.393,N,002.580,K,D*01
$GPGGA,081803.75,5703.2769424,N,00951.8118329,E,2,11,0.7,-1.133,M,40.593,M,3.2,0123*6D
$GPVTG,149.88,T,-490.02,M,001.382,N,002.560,K,D*01
$GPGGA,081803.80,5703.2769268,N,00951.8118489,E,2,11,0.7,-1.132,M,40.593,M,3.2,0123*65
$GPVTG,152.06,T,-487.84,M,001.366,N,002.529,K,D*02
$GPGGA,081803.85,5703.2769127,N,00951.8118671,E,2,11,0.7,-1.132,M,40.593,M,2.6,0123*68
$GPVTG,152.62,T,-487.28,M,001.340,N,002.481,K,D*01
$GPGGA,081803.90,5703.2768973,N,00951.8118838,E,2,11,0.7,-1.134,M,40.593,M,2.6,0123*61
$GPVTG,153.74,T,-486.16,M,001.330,N,002.464,K,D*07
$GPGGA,081803.95,5703.2768824,N,00951.8118977,E,2,11,0.7,-1.134,M,40.593,M,2.6,0123*6D
$GPVTG,155.46,T,-484.44,M,001.305,N,002.417,K,D*07
$GPGGA,081804.00,5703.2768668,N,00951.8119104,E,2,11,0.7,-1.137,M,40.593,M,2.6,0123*6E
$GPVTG,157.40,T,-482.50,M,001.289,N,002.388,K,D*04
$GPGGA,081804.05,5703.2768503,N,00951.8119219,E,2,11,0.7,-1.132,M,40.593,M,2.9,0123*60
$GPVTG,159.19,T,-480.71,M,001.287,N,002.383,K,D*02
$GPGGA,081804.10,5703.2768333,N,00951.8119336,E,2,11,0.7,-1.134,M,40.593,M,2.9,0123*6B
$GPVTG,161.02,T,-478.88,M,001.293,N,002.394,K,D*01
$GPGGA,081804.15,5703.2768163,N,00951.8119453,E,2,11,0.7,-1.135,M,40.593,M,2.9,0123*6C
$GPVTG,162.30,T,-477.60,M,001.299,N,002.406,K,D*0C
$GPGGA,081804.20,5703.2768005,N,00951.8119555,E,2,11,0.7,-1.135,M,40.593,M,2.9,0123*6C
$GPVTG,163.64,T,-476.26,M,001.283,N,002.376,K,D*04
$GPGGA,081804.25,5703.2767850,N,00951.8119640,E,2,11,0.7,-1.135,M,40.593,M,3.1,0123*60
$GPVTG,165.24,T,-474.66,M,001.262,N,002.337,K,D*0A
$GPGGA,081804.30,5703.2767690,N,00951.8119712,E,2,11,0.7,-1.135,M,40.593,M,3.1,0123*60
$GPVTG,167.15,T,-472.75,M,001.249,N,002.314,K,D*06
$GPGGA,081804.35,5703.2767534,N,00951.8119783,E,2,11,0.7,-1.134,M,40.593,M,3.1,0123*61
$GPVTG,168.59,T,-471.32,M,001.231,N,002.280,K,D*02
$GPGGA,081804.40,5703.2767381,N,00951.8119837,E,2,11,0.7,-1.133,M,40.593,M,3.1,0123*6C
$GPVTG,170.37,T,-469.53,M,001.209,N,002.240,K,D*0A
$GPGGA,081804.45,5703.2767218,N,00951.8119888,E,2,11,0.7,-1.132,M,40.593,M,3.4,0123*68
$GPVTG,172.03,T,-467.87,M,001.207,N,002.235,K,D*04
$GPGGA,081804.50,5703.2767057,N,00951.8119927,E,2,11,0.7,-1.132,M,40.593,M,3.4,0123*61
$GPVTG,173.76,T,-466.14,M,001.200,N,002.223,K,D*0C
$GPGGA,081804.55,5703.2766899,N,00951.8119968,E,2,11,0.7,-1.132,M,40.593,M,3.4,0123*64
$GPVTG,174.98,T,-464.92,M,001.189,N,002.203,K,D*07
$GPGGA,081804.60,5703.2766731,N,00951.8119982,E,2,11,0.7,-1.132,M,40.593,M,3.4,0123*6B
$GPVTG,177.11,T,-462.79,M,001.195,N,002.214,K,D*0D
$GPGGA,081804.65,5703.2766566,N,00951.8119973,E,2,11,0.7,-1.135,M,40.593,M,3.6,0123*65
$GPVTG,179.89,T,-460.01,M,001.194,N,002.211,K,D*0B
$GPGGA,081804.70,5703.2766399,N,00951.8119969,E,2,11,0.7,-1.136,M,40.593,M,3.6,0123*6F
$GPVTG,181.78,T,-458.12,M,001.198,N,002.220,K,D*05
$GPGGA,081804.75,5703.2766236,N,00951.8119947,E,2,11,0.7,-1.137,M,40.593,M,3.6,0123*63
$GPVTG,184.00,T,-455.90,M,001.200,N,002.222,K,D*08
$GPGGA,081804.80,5703.2766070,N,00951.8119918,E,2,11,0.7,-1.140,M,40.593,M,3.6,0123*63
$GPVTG,186.07,T,-453.83,M,001.207,N,002.235,K,D*08
$GPGGA,081804.85,5703.2765911,N,00951.8119879,E,2,11,0.7,-1.132,M,40.593,M,1.2,0123*6E
$GPVTG,187.89,T,-452.01,M,001.223,N,002.265,K,D*07
$GPGGA,081804.90,5703.2765735,N,00951.8119825,E,2,11,0.7,-1.130,M,40.593,M,1.2,0123*69
$GPVTG,189.91,T,-449.99,M,001.245,N,002.305,K,D*0C
$GPGGA,081804.95,5703.2765559,N,00951.8119746,E,2,11,0.7,-1.128,M,40.593,M,1.2,0123*67
$GPVTG,192.47,T,-447.43,M,001.270,N,002.353,K,D*01
$GPGGA,081805.00,5703.2765388,N,00951.8119654,E,2,11,0.7,-1.128,M,40.593,M,1.2,0123*62
$GPVTG,195.02,T,-444.88,M,001.288,N,002.386,K,D*0C
$GPGGA,081805.05,5703.2765238,N,00951.8119558,E,2,11,0.7,-1.129,M,40.593,M,1.5,0123*64
$GPVTG,197.59,T,-442.31,M,001.298,N,002.403,K,D*0F
$GPGGA,081805.10,5703.2765088,N,00951.8119437,E,2,11,0.7,-1.130,M,40.593,M,1.5,0123*69
$GPVTG,200.55,T,-439.35,M,001.292,N,002.392,K,D*03
$GPGGA,081805.15,5703.2764931,N,00951.8119305,E,2,11,0.7,-1.132,M,40.593,M,1.5,0123*62
$GPVTG,203.21,T,-436.69,M,001.300,N,002.408,K,D*0B
$GPGGA,081805.20,5703.2764783,N,00951.8119186,E,2,11,0.7,-1.133,M,40.593,M,1.5,0123*6B
$GPVTG,205.04,T,-434.86,M,001.289,N,002.388,K,D*06
$GPGGA,081805.25,5703.2764627,N,00951.8119060,E,2,11,0.7,-1.135,M,40.593,M,1.7,0123*6C
$GPVTG,206.42,T,-433.48,M,001.295,N,002.399,K,D*0F
$GPGGA,081805.30,5703.2764462,N,00951.8118920,E,2,11,0.7,-1.134,M,40.593,M,1.7,0123*66
$GPVTG,207.69,T,-432.21,M,001.314,N,002.433,K,D*06
$GPGGA,081805.35,5703.2764301,N,00951.8118782,E,2,11,0.7,-1.134,M,40.593,M,1.7,0123*67
$GPVTG,208.65,T,-431.25,M,001.322,N,002.448,K,D*0B
$GPGGA,081805.40,5703.2764153,N,00951.8118615,E,2,11,0.7,-1.134,M,40.593,M,1.7,0123*6F
$GPVTG,210.69,T,-429.21,M,001.325,N,002.453,K,D*0E
$GPGGA,081805.45,5703.2764019,N,00951.8118436,E,2,11,0.7,-1.124,M,40.593,M,2.0,0123*63
$GPVTG,212.82,T,-427.08,M,001.322,N,002.448,K,D*01
$GPGGA,081805.50,5703.2763875,N,00951.8118269,E,2,11,0.7,-1.122,M,40.593,M,2.0,0123*68
$GPVTG,214.16,T,-425.74,M,001.316,N,002.438,K,D*03
$GPGGA,081805.55,5703.2763731,N,00951.8118058,E,2,11,0.7,-1.119,M,40.593,M,2.0,0123*6A
$GPVTG,216.60,T,-423.30,M,001.335,N,002.473,K,D*08
$GPGGA,081805.60,5703.2763600,N,00951.8117858,E,2,11,0.7,-1.119,M,40.593,M,2.0,0123*68
$GPVTG,218.66,T,-421.24,M,001.329,N,002.461,K,D*09
$GPGGA,081805.65,5703.2763462,N,00951.8117652,E,2,11,0.7,-1.123,M,40.593,M,2.2,0123*64
$GPVTG,220.60,T,-419.30,M,001.328,N,002.459,K,D*00
$GPGGA,081805.70,5703.2763316,N,00951.8117426,E,2,11,0.7,-1.122,M,40.593,M,2.2,0123*64
$GPVTG,222.00,T,-417.90,M,001.352,N,002.504,K,D*04
$GPGGA,081805.75,5703.2763175,N,00951.8117182,E,2,11,0.7,-1.121,M,40.593,M,2.2,0123*6E
$GPVTG,223.73,T,-416.17,M,001.379,N,002.555,K,D*02
$GPGGA,081805.80,5703.2763036,N,00951.8116942,E,2,11,0.7,-1.124,M,40.593,M,2.2,0123*62
$GPVTG,225.02,T,-414.88,M,001.396,N,002.586,K,D*09
$GPGGA,081805.85,5703.2762904,N,00951.8116689,E,2,11,0.7,-1.120,M,40.593,M,2.4,0123*64
$GPVTG,226.22,T,-413.68,M,001.414,N,002.619,K,D*09
$GPGGA,081805.90,5703.2762771,N,00951.8116414,E,2,11,0.7,-1.122,M,40.593,M,2.4,0123*68
$GPVTG,227.97,T,-411.93,M,001.440,N,002.668,K,D*07
$GPGGA,081805.95,5703.2762642,N,00951.8116141,E,2,11,0.7,-1.123,M,40.593,M,2.4,0123*68
$GPVTG,229.45,T,-410.45,M,001.457,N,002.698,K,D*05
$GPGGA,081806.00,5703.2762524,N,00951.8115859,E,2,11,0.7,-1.123,M,40.593,M,2.4,0123*67
$GPVTG,231.26,T,-408.64,M,001.464,N,002.712,K,D*00
$GPGGA,081806.05,5703.2762420,N,00951.8115557,E,2,11,0.7,-1.122,M,40.593,M,1.5,0123*67
$GPVTG,233.82,T,-406.08,M,001.473,N,002.728,K,D*07
$GPGGA,081806.10,5703.2762308,N,00951.8115243,E,2,11,0.7,-1.123,M,40.593,M,1.5,0123*6D
$GPVTG,235.76,T,-404.14,M,001.494,N,002.766,K,D*06
$GPGGA,081806.15,5703.2762219,N,00951.8114915,E,2,11,0.7,-1.124,M,40.593,M,1.5,0123*67
$GPVTG,238.60,T,-401.30,M,001.504,N,002.786,K,D*09
$GPGGA,081806.20,5703.2762134,N,00951.8114584,E,2,11,0.7,-1.127,M,40.593,M,1.5,0123*6A
$GPVTG,241.22,T,-398.68,M,001.512,N,002.801,K,D*0C
$GPGGA,081806.25,5703.2762060,N,00951.8114249,E,2,11,0.7,-1.127,M,40.593,M,1.7,0123*6B
$GPVTG,243.70,T,-396.20,M,001.517,N,002.810,K,D*0E
$GPGGA,081806.30,5703.2761965,N,00951.8113893,E,2,11,0.7,-1.129,M,40.593,M,1.7,0123*64
$GPVTG,245.22,T,-394.68,M,001.548,N,002.867,K,D*0B
$GPGGA,081806.35,5703.2761890,N,00951.8113519,E,2,11,0.7,-1.128,M,40.593,M,1.7,0123*64
$GPVTG,247.62,T,-392.28,M,001.577,N,002.920,K,D*01
$GPGGA,081806.40,5703.2761816,N,00951.8113162,E,2,11,0.7,-1.129,M,40.593,M,1.7,0123*61
$GPVTG,249.34,T,-390.56,M,001.585,N,002.935,K,D*0E
$GPGGA,081806.45,5703.2761741,N,00951.8112790,E,2,11,0.7,-1.133,M,40.593,M,1.9,0123*66
$GPVTG,250.95,T,-388.95,M,001.603,N,002.969,K,D*0F
$GPGGA,081806.50,5703.2761682,N,00951.8112419,E,2,11,0.7,-1.135,M,40.593,M,1.9,0123*68
$GPVTG,252.85,T,-387.05,M,001.608,N,002.978,K,D*01
$GPGGA,081806.55,5703.2761630,N,00951.8112038,E,2,11,0.7,-1.134,M,40.593,M,1.9,0123*62
$GPVTG,254.80,T,-385.10,M,001.617,N,002.995,K,D*09
$GPGGA,081806.60,5703.2761576,N,00951.8111660,E,2,11,0.7,-1.135,M,40.593,M,1.9,0123*6C
$GPVTG,256.27,T,-383.63,M,001.621,N,003.002,K,D*07
$GPGGA,081806.65,5703.2761543,N,00951.8111267,E,2,11,0.7,-1.133,M,40.593,M,2.2,0123*62
$GPVTG,258.42,T,-381.48,M,001.628,N,003.016,K,D*0D
$GPGGA,081806.70,5703.2761512,N,00951.8110873,E,2,11,0.7,-1.132,M,40.593,M,2.2,0123*6D
$GPVTG,260.42,T,-379.48,M,001.635,N,003.028,K,D*00
$GPGGA,081806.75,5703.2761484,N,00951.8110474,E,2,11,0.7,-1.131,M,40.593,M,2.2,0123*6E
$GPVTG,262.26,T,-377.64,M,001.643,N,003.043,K,D*0C
$GPGGA,081806.80,5703.2761466,N,00951.8110065,E,2,11,0.7,-1.129,M,40.593,M,2.2,0123*65
$GPVTG,264.25,T,-375.65,M,001.656,N,003.067,K,D*08
$GPGGA,081806.85,5703.2761455,N,00951.8109653,E,2,11,0.7,-1.130,M,40.593,M,2.4,0123*65
$GPVTG,266.64,T,-373.26,M,001.670,N,003.093,K,D*01
$GPGGA,081806.90,5703.2761475,N,00951.8109194,E,2,11,0.7,-1.120,M,40.593,M,2.4,0123*6E
$GPVTG,269.78,T,-370.12,M,001.724,N,003.192,K,D*07
$GPGGA,081806.95,5703.2761508,N,00951.8108705,E,2,11,0.7,-1.109,M,40.593,M,2.4,0123*64
$GPVTG,272.83,T,-367.07,M,001.799,N,003.333,K,D*04
$GPGGA,081807.00,5703.2761530,N,00951.8108267,E,2,10,0.7,-1.106,M,40.593,M,2.4,0123*6D
$GPVTG,274.79,T,-365.11,M,001.820,N,003.371,K,D*09
$GPGGA,081807.05,5703.2761487,N,00951.8107984,E,2,10,0.7,-1.125,M,40.593,M,2.6,0123*6F
$GPVTG,276.03,T,-363.87,M,001.819,N,003.368,K,D*0D
$GPGGA,081807.10,5703.2761507,N,00951.8107566,E,2,10,0.7,-1.123,M,40.593,M,2.6,0123*64
$GPVTG,277.30,T,-362.60,M,001.813,N,003.358,K,D*0D
$GPGGA,081807.15,5703.2761523,N,00951.8107151,E,2,10,0.7,-1.122,M,40.593,M,2.6,0123*66
$GPVTG,278.10,T,-361.80,M,001.801,N,003.336,K,D*06
$GPGGA,081807.20,5703.2761548,N,00951.8106717,E,2,10,0.7,-1.122,M,40.593,M,2.6,0123*68
$GPVTG,279.06,T,-360.84,M,001.805,N,003.344,K,D*04
$GPGGA,081807.25,5703.2761571,N,00951.8106290,E,2,11,0.7,-1.124,M,40.593,M,2.8,0123*64
$GPVTG,279.76,T,-360.14,M,001.804,N,003.341,K,D*0E
$GPGGA,081807.30,5703.2761610,N,00951.8105867,E,2,11,0.7,-1.123,M,40.593,M,2.8,0123*62
$GPVTG,280.94,T,-358.96,M,001.797,N,003.328,K,D*0F
$GPGGA,081807.35,5703.2761656,N,00951.8105437,E,2,11,0.7,-1.125,M,40.593,M,2.8,0123*6A
$GPVTG,282.17,T,-357.73,M,001.798,N,003.330,K,D*04
$GPGGA,081807.40,5703.2761709,N,00951.8105008,E,2,11,0.7,-1.125,M,40.593,M,2.8,0123*6B
$GPVTG,283.44,T,-356.46,M,001.798,N,003.331,K,D*05
$GPGGA,081807.45,5703.2761775,N,00951.8104588,E,2,11,0.7,-1.128,M,40.593,M,3.0,0123*6D
$GPVTG,285.32,T,-354.58,M,001.809,N,003.349,K,D*07
$GPGGA,081807.50,5703.2761843,N,00951.8104162,E,2,11,0.7,-1.131,M,40.593,M,3.0,0123*6B
$GPVTG,286.75,T,-353.15,M,001.809,N,003.350,K,D*01
$GPGGA,081807.55,5703.2761909,N,00951.8103748,E,2,11,0.7,-1.134,M,40.593,M,3.0,0123*6D
$GPVTG,287.87,T,-352.03,M,001.796,N,003.325,K,D*00
$GPGGA,081807.60,5703.2761979,N,00951.8103338,E,2,11,0.7,-1.135,M,40.593,M,3.0,0123*6E
$GPVTG,288.98,T,-350.92,M,001.783,N,003.302,K,D*0A
$GPGGA,081807.65,5703.2762072,N,00951.8102867,E,2,11,0.7,-1.134,M,40.593,M,3.2,0123*69
$GPVTG,290.18,T,-349.72,M,001.795,N,003.323,K,D*09
$GPGGA,081807.70,5703.2762166,N,00951.8102435,E,2,11,0.7,-1.133,M,40.593,M,3.2,0123*65
$GPVTG,291.64,T,-348.26,M,001.814,N,003.360,K,D*02
$GPGGA,081807.75,5703.2762258,N,00951.8102005,E,2,11,0.7,-1.133,M,40.593,M,3.2,0123*69
$GPVTG,292.73,T,-347.17,M,001.827,N,003.384,K,D*00
$GPGGA,081807.80,5703.2762351,N,00951.8101582,E,2,11,0.7,-1.135,M,40.593,M,3.2,0123*64
$GPVTG,293.68,T,-346.22,M,001.834,N,003.396,K,D*0D
$GPGGA,081807.85,5703.2762458,N,00951.8101156,E,2,11,0.7,-1.135,M,40.593,M,3.4,0123*64
$GPVTG,294.89,T,-345.01,M,001.846,N,003.420,K,D*08
$GPGGA,081807.90,5703.2762579,N,00951.8100736,E,2,11,0.7,-1.137,M,40.593,M,3.4,0123*61
$GPVTG,296.54,T,-343.36,M,001.864,N,003.451,K,D*0E
$GPGGA,081807.95,5703.2762709,N,00951.8100319,E,2,11,0.7,-1.137,M,40.593,M,3.4,0123*68
$GPVTG,298.27,T,-341.63,M,001.883,N,003.487,K,D*04
$GPGGA,081808.00,5703.2762838,N,00951.8099907,E,2,11,0.7,-1.138,M,40.593,M,3.4,0123*6D
$GPVTG,299.69,T,-340.21,M,001.895,N,003.509,K,D*08
$GPGGA,081808.05,5703.2762964,N,00951.8099493,E,2,11,0.7,-1.136,M,40.593,M,2.9,0123*62
$GPVTG,300.58,T,-339.32,M,001.909,N,003.535,K,D*0C
$GPGGA,081808.10,5703.2763106,N,00951.8099073,E,2,11,0.7,-1.136,M,40.593,M,2.9,0123*61
$GPVTG,301.89,T,-338.01,M,001.933,N,003.580,K,D*07
$GPGGA,081808.15,5703.2763260,N,00951.8098666,E,2,11,0.7,-1.136,M,40.593,M,2.9,0123*64
$GPVTG,303.53,T,-336.37,M,001.953,N,003.616,K,D*03
$GPGGA,081808.20,5703.2763416,N,00951.8098257,E,2,11,0.7,-1.137,M,40.593,M,2.9,0123*62
$GPVTG,304.90,T,-335.00,M,001.974,N,003.655,K,D*0E
$GPGGA,081808.25,5703.2763580,N,00951.8097858,E,2,11,0.7,-1.141,M,40.593,M,3.1,0123*6B
$GPVTG,306.65,T,-333.25,M,002.000,N,003.704,K,D*0B
$GPGGA,081808.30,5703.2763749,N,00951.8097459,E,2,11,0.7,-1.141,M,40.593,M,3.1,0123*65
$GPVTG,307.98,T,-331.92,M,002.017,N,003.736,K,D*01
$GPGGA,081808.35,5703.2763916,N,00951.8097071,E,2,11,0.7,-1.141,M,40.593,M,3.1,0123*6A
$GPVTG,309.17,T,-330.73,M,002.022,N,003.746,K,D*07
$GPGGA,081808.40,5703.2764090,N,00951.8096695,E,2,11,0.7,-1.142,M,40.593,M,3.1,0123*66
$GPVTG,310.53,T,-329.37,M,002.023,N,003.747,K,D*07
$GPGGA,081808.45,5703.2764287,N,00951.8096325,E,2,11,0.7,-1.139,M,40.593,M,3.4,0123*60
$GPVTG,312.41,T,-327.49,M,002.042,N,003.781,K,D*0C
$GPGGA,081808.50,5703.2764476,N,00951.8095938,E,2,11,0.7,-1.137,M,40.593,M,3.4,0123*67
$GPVTG,313.40,T,-326.50,M,002.063,N,003.821,K,D*03
$GPGGA,081808.55,5703.2764676,N,00951.8095572,E,2,11,0.7,-1.137,M,40.593,M,3.4,0123*62
$GPVTG,314.84,T,-325.06,M,002.077,N,003.846,K,D*08
$GPGGA,081808.60,5703.2764880,N,00951.8095219,E,2,11,0.7,-1.136,M,40.593,M,3.4,0123*68
$GPVTG,316.35,T,-323.55,M,002.084,N,003.859,K,D*02
$GPGGA,081808.65,5703.2765088,N,00951.8094848,E,2,11,0.7,-1.133,M,40.593,M,3.6,0123*64
$GPVTG,317.26,T,-322.64,M,002.106,N,003.900,K,D*04
$GPGGA,081808.70,5703.2765307,N,00951.8094498,E,2,11,0.7,-1.132,M,40.593,M,3.6,0123*64
$GPVTG,318.69,T,-321.21,M,002.123,N,003.932,K,D*04
$GPGGA,081808.75,5703.2765535,N,00951.8094168,E,2,11,0.7,-1.130,M,40.593,M,3.6,0123*6E
$GPVTG,320.42,T,-319.48,M,002.136,N,003.955,K,D*07
$GPGGA,081808.80,5703.2765766,N,00951.8093849,E,2,11,0.7,-1.128,M,40.593,M,3.6,0123*64
$GPVTG,322.10,T,-317.80,M,002.144,N,003.971,K,D*0B
$GPGGA,081808.85,5703.2765986,N,00951.8093522,E,2,11,0.7,-1.131,M,40.593,M,3.8,0123*67
$GPVTG,323.11,T,-316.79,M,002.151,N,003.983,K,D*05
$GPGGA,081808.90,5703.2766214,N,00951.8093187,E,2,11,0.7,-1.131,M,40.593,M,3.8,0123*6B
$GPVTG,323.78,T,-316.12,M,002.162,N,004.004,K,D*06
$GPGGA,081808.95,5703.2766453,N,00951.8092864,E,2,11,0.7,-1.131,M,40.593,M,3.8,0123*6E
$GPVTG,324.77,T,-315.13,M,002.177,N,004.032,K,D*0D
$GPGGA,081809.00,5703.2766689,N,00951.8092551,E,2,11,0.7,-1.131,M,40.593,M,3.8,0123*6D
$GPVTG,325.65,T,-314.25,M,002.180,N,004.036,K,D*07
$GPGGA,081809.05,5703.2766914,N,00951.8092276,E,2,11,0.7,-1.139,M,40.593,M,1.5,0123*66
$GPVTG,327.08,T,-312.82,M,002.172,N,004.023,K,D*0C
$GPGGA,081809.10,5703.2767164,N,00951.8092001,E,2,11,0.7,-1.140,M,40.593,M,1.5,0123*60
$GPVTG,328.56,T,-311.34,M,002.173,N,004.024,K,D*00
$GPGGA,081809.15,5703.2767440,N,00951.8091732,E,2,11,0.7,-1.137,M,40.593,M,1.5,0123*62
$GPVTG,330.33,T,-309.57,M,002.203,N,004.080,K,D*0C
$GPGGA,081809.20,5703.2767712,N,00951.8091476,E,2,11,0.7,-1.136,M,40.593,M,1.5,0123*62
$GPVTG,331.98,T,-307.92,M,002.221,N,004.112,K,D*01
$GPGGA,081809.25,5703.2767983,N,00951.8091227,E,2,11,0.7,-1.136,M,40.593,M,1.7,0123*61
$GPVTG,333.39,T,-306.51,M,002.234,N,004.137,K,D*05
$GPGGA,081809.30,5703.2768258,N,00951.8090971,E,2,11,0.7,-1.136,M,40.593,M,1.7,0123*6E
$GPVTG,334.40,T,-305.50,M,002.250,N,004.168,K,D*06
$GPGGA,081809.35,5703.2768545,N,00951.8090732,E,2,11,0.7,-1.136,M,40.593,M,1.7,0123*69
$GPVTG,335.70,T,-304.20,M,002.275,N,004.213,K,D*0A
$GPGGA,081809.40,5703.2768824,N,00951.8090506,E,2,11,0.7,-1.138,M,40.593,M,1.7,0123*6A
$GPVTG,336.88,T,-303.02,M,002.279,N,004.221,K,D*04
$GPGGA,081809.45,5703.2769107,N,00951.8090283,E,2,11,0.7,-1.141,M,40.593,M,2.0,0123*66
$GPVTG,337.92,T,-301.98,M,002.294,N,004.248,K,D*03
$GPGGA,081809.50,5703.2769396,N,00951.8090089,E,2,11,0.7,-1.141,M,40.593,M,2.0,0123*60
$GPVTG,339.39,T,-300.51,M,002.297,N,004.253,K,D*01
$GPGGA,081809.55,5703.2769692,N,00951.8089909,E,2,11,0.7,-1.140,M,40.593,M,2.0,0123*6C
$GPVTG,340.97,T,-298.93,M,002.306,N,004.270,K,D*0D
$GPGGA,081809.60,5703.2769998,N,00951.8089728,E,2,11,0.7,-1.137,M,40.593,M,2.0,0123*62
$GPVTG,342.31,T,-297.59,M,002.327,N,004.310,K,D*0E
$GPGGA,081809.65,5703.2770309,N,00951.8089578,E,2,11,0.7,-1.137,M,40.593,M,2.2,0123*68
$GPVTG,344.05,T,-295.85,M,002.349,N,004.350,K,D*00
$GPGGA,081809.70,5703.2770614,N,00951.8089439,E,2,11,0.7,-1.136,M,40.593,M,2.2,0123*60
$GPVTG,345.63,T,-294.28,M,002.353,N,004.357,K,D*0B
$GPGGA,081809.75,5703.2770926,N,00951.8089309,E,2,11,0.7,-1.137,M,40.593,M,2.2,0123*6E
$GPVTG,347.10,T,-292.80,M,002.364,N,004.379,K,D*01
$GPGGA,081809.80,5703.2771245,N,00951.8089184,E,2,11,0.7,-1.135,M,40.593,M,2.2,0123*6E
$GPVTG,348.42,T,-291.48,M,002.383,N,004.413,K,D*0C
$GPGGA,081809.85,5703.2771557,N,00951.8089076,E,2,11,0.7,-1.133,M,40.593,M,2.4,0123*63
$GPVTG,349.73,T,-290.17,M,002.386,N,004.418,K,D*0A
$GPGGA,081809.90,5703.2771890,N,00951.8088977,E,2,11,0.7,-1.128,M,40.593,M,2.4,0123*62
$GPVTG,351.07,T,-288.83,M,002.416,N,004.474,K,D*00
$GPGGA,081809.95,5703.2772210,N,00951.8088887,E,2,11,0.7,-1.126,M,40.593,M,2.4,0123*66
$GPVTG,352.20,T,-287.70,M,002.421,N,004.484,K,D*0E
$GPGGA,081810.00,5703.2772521,N,00951.8088813,E,2,11,0.7,-1.126,M,40.593,M,2.4,0123*6A
$GPVTG,353.40,T,-286.50,M,002.410,N,004.463,K,D*01
$GPGGA,081810.05,5703.2772788,N,00951.8088759,E,2,11,0.7,-1.132,M,40.593,M,1.5,0123*68
$GPVTG,354.69,T,-285.21,M,002.396,N,004.438,K,D*0F
$GPGGA,081810.10,5703.2773097,N,00951.8088707,E,2,11,0.7,-1.132,M,40.593,M,1.5,0123*6F
$GPVTG,355.80,T,-284.10,M,002.387,N,004.420,K,D*03
$GPGGA,081810.15,5703.2773415,N,00951.8088663,E,2,11,0.7,-1.132,M,40.593,M,1.5,0123*67
$GPVTG,356.85,T,-283.05,M,002.386,N,004.420,K,D*07
$GPGGA,081810.20,5703.2773741,N,00951.8088637,E,2,11,0.7,-1.129,M,40.593,M,1.5,0123*68
$GPVTG,358.03,T,-281.87,M,002.394,N,004.435,K,D*08
$GPGGA,081810.25,5703.2774057,N,00951.8088630,E,2,11,0.7,-1.129,M,40.593,M,1.7,0123*6F
$GPVTG,359.30,T,-280.60,M,002.395,N,004.436,K,D*03
$GPGGA,081810.30,5703.2774377,N,00951.8088636,E,2,11,0.7,-1.128,M,40.593,M,1.7,0123*6D
$GPVTG,000.63,T,-639.27,M,002.393,N,004.432,K,D*0D
$GPGGA,081810.35,5703.2774705,N,00951.8088667,E,2,11,0.7,-1.127,M,40.593,M,1.7,0123*62
$GPVTG,002.23,T,-637.67,M,002.403,N,004.450,K,D*0B
$GPGGA,081810.40,5703.2775038,N,00951.8088705,E,2,11,0.7,-1.126,M,40.593,M,1.7,0123*6C
$GPVTG,003.60,T,-636.30,M,002.419,N,004.480,K,D*08
$GPGGA,081810.45,5703.2775347,N,00951.8088746,E,2,10,0.7,-1.133,M,40.593,M,1.9,0123*6E
$GPVTG,004.66,T,-635.24,M,002.417,N,004.477,K,D*09
$GPGGA,081810.50,5703.2775665,N,00951.8088797,E,2,10,0.7,-1.131,M,40.593,M,1.9,0123*61
$GPVTG,005.78,T,-634.12,M,002.410,N,004.463,K,D*01
$GPGGA,081810.55,5703.2775984,N,00951.8088866,E,2,10,0.7,-1.128,M,40.593,M,1.9,0123*6D
$GPVTG,007.02,T,-632.88,M,002.407,N,004.457,K,D*0A
$GPGGA,081810.60,5703.2776299,N,00951.8088945,E,2,10,0.7,-1.124,M,40.593,M,1.9,0123*63
