$GPGGA,081329.05,5703.2496828,N,00951.8149161,E,2,10,0.7,-1.401,M,40.593,M,1.5,0123*60
$GPVTG,226.52,T,-413.38,M,003.904,N,007.230,K,D*0F
$GPGGA,081329.10,5703.2496463,N,00951.8148460,E,2,10,0.7,-1.402,M,40.593,M,1.5,0123*61
$GPVTG,226.77,T,-413.13,M,003.863,N,007.155,K,D*01
$GPGGA,081329.15,5703.2496097,N,00951.8147728,E,2,10,0.7,-1.404,M,40.593,M,1.5,0123*6D
$GPVTG,227.49,T,-412.41,M,003.879,N,007.184,K,D*0C
$GPGGA,081329.20,5703.2495730,N,00951.8146994,E,2,10,0.7,-1.405,M,40.593,M,1.5,0123*6B
$GPVTG,227.88,T,-412.02,M,003.897,N,007.217,K,D*0F
$GPGGA,081329.25,5703.2495378,N,00951.8146249,E,2,10,0.7,-1.404,M,40.593,M,1.7,0123*6E
$GPVTG,228.70,T,-411.20,M,003.892,N,007.207,K,D*00
$GPGGA,081329.30,5703.2495026,N,00951.8145483,E,2,10,0.7,-1.406,M,40.593,M,1.7,0123*63
$GPVTG,229.70,T,-410.20,M,003.920,N,007.260,K,D*09
$GPGGA,081329.35,5703.2494681,N,00951.8144725,E,2,10,0.7,-1.407,M,40.593,M,1.7,0123*63
$GPVTG,230.38,T,-409.52,M,003.910,N,007.242,K,D*03
$GPGGA,081329.40,5703.2494341,N,00951.8143950,E,2,10,0.7,-1.406,M,40.593,M,1.7,0123*62
$GPVTG,231.28,T,-408.63,M,003.915,N,007.251,K,D*07
$GPGGA,081329.45,5703.2494011,N,00951.8143160,E,2,11,0.7,-1.407,M,40.593,M,2.0,0123*6E
$GPVTG,232.33,T,-407.57,M,003.923,N,007.265,K,D*04
$GPGGA,081329.50,5703.2493682,N,00951.8142352,E,2,11,0.7,-1.408,M,40.593,M,2.0,0123*6C
$GPVTG,233.36,T,-406.54,M,003.951,N,007.317,K,D*03
$GPGGA,081329.55,5703.2493364,N,00951.8141550,E,2,11,0.7,-1.408,M,40.593,M,2.0,0123*63
$GPVTG,234.24,T,-405.66,M,003.937,N,007.291,K,D*0A
$GPGGA,081329.60,5703.2493051,N,00951.8140768,E,2,11,0.7,-1.407,M,40.593,M,2.0,0123*67
$GPVTG,234.61,T,-405.29,M,003.884,N,007.192,K,D*09
$GPGGA,081329.65,5703.2492728,N,00951.8139958,E,2,11,0.7,-1.407,M,40.593,M,2.2,0123*6B
$GPVTG,234.83,T,-405.07,M,003.906,N,007.234,K,D*0D
$GPGGA,081329.70,5703.2492422,N,00951.8139146,E,2,11,0.7,-1.407,M,40.593,M,2.2,0123*61
$GPVTG,235.54,T,-404.36,M,003.894,N,007.211,K,D*08
$GPGGA,081329.75,5703.2492122,N,00951.8138322,E,2,11,0.7,-1.405,M,40.593,M,2.2,0123*62
$GPVTG,236.35,T,-403.55,M,003.895,N,007.214,K,D*0A
$GPGGA,081329.80,5703.2491824,N,00951.8137501,E,2,11,0.7,-1.404,M,40.593,M,2.2,0123*6D
$GPVTG,236.87,T,-403.03,M,003.887,N,007.198,K,D*04
$GPGGA,081329.85,5703.2491533,N,00951.8136671,E,2,11,0.7,-1.402,M,40.593,M,2.4,0123*66
$GPVTG,237.55,T,-402.35,M,003.883,N,007.190,K,D*02
$GPGGA,081329.90,5703.2491246,N,00951.8135829,E,2,11,0.7,-1.403,M,40.593,M,2.4,0123*66
$GPVTG,238.25,T,-401.65,M,003.891,N,007.206,K,D*03
$GPGGA,081329.95,5703.2490967,N,00951.8134978,E,2,11,0.7,-1.402,M,40.593,M,2.4,0123*6F
$GPVTG,239.09,T,-400.81,M,003.899,N,007.222,K,D*09
$GPGGA,081330.00,5703.2490697,N,00951.8134115,E,2,11,0.7,-1.402,M,40.593,M,2.4,0123*68
$GPVTG,240.11,T,-399.79,M,003.912,N,007.244,K,D*0C
$GPGGA,081330.05,5703.2490422,N,00951.8133236,E,2,11,0.7,-1.399,M,40.593,M,1.5,0123*63
$GPVTG,240.87,T,-399.03,M,003.922,N,007.263,K,D*08
$GPGGA,081330.10,5703.2490160,N,00951.8132374,E,2,11,0.7,-1.400,M,40.593,M,1.5,0123*65
$GPVTG,241.45,T,-398.45,M,003.906,N,007.234,K,D*00
$GPGGA,081330.15,5703.2489909,N,00951.8131495,E,2,11,0.7,-1.401,M,40.593,M,1.5,0123*65
$GPVTG,242.39,T,-397.51,M,003.909,N,007.239,K,D*00
$GPGGA,081330.20,5703.2489658,N,00951.8130610,E,2,11,0.7,-1.400,M,40.593,M,1.5,0123*67
$GPVTG,243.04,T,-396.86,M,003.918,N,007.256,K,D*0D
$GPGGA,081330.25,5703.2489407,N,00951.8129712,E,2,11,0.7,-1.401,M,40.593,M,1.7,0123*62
$GPVTG,243.57,T,-396.33,M,003.945,N,007.306,K,D*09
$GPGGA,081330.30,5703.2489170,N,00951.8128812,E,2,11,0.7,-1.401,M,40.593,M,1.7,0123*6D
$GPVTG,244.40,T,-395.50,M,003.947,N,007.309,K,D*03
$GPGGA,081330.35,5703.2488926,N,00951.8127927,E,2,11,0.7,-1.404,M,40.593,M,1.7,0123*6F
$GPVTG,244.39,T,-395.51,M,003.928,N,007.275,K,D*0F
$GPGGA,081330.40,5703.2488689,N,00951.8127029,E,2,11,0.7,-1.406,M,40.593,M,1.7,0123*62
$GPVTG,244.71,T,-395.19,M,003.926,N,007.271,K,D*05
$GPGGA,081330.45,5703.2488459,N,00951.8126103,E,2,11,0.7,-1.406,M,40.593,M,1.9,0123*6E
$GPVTG,245.32,T,-394.58,M,003.966,N,007.346,K,D*06
$GPGGA,081330.50,5703.2488233,N,00951.8125166,E,2,11,0.7,-1.404,M,40.593,M,1.9,0123*62
$GPVTG,246.11,T,-393.79,M,004.007,N,007.420,K,D*0E
$GPGGA,081330.55,5703.2488023,N,00951.8124245,E,2,11,0.7,-1.403,M,40.593,M,1.9,0123*60
$GPVTG,247.09,T,-392.81,M,003.981,N,007.372,K,D*00
$GPGGA,081330.60,5703.2487818,N,00951.8123322,E,2,11,0.7,-1.403,M,40.593,M,1.9,0123*6E
$GPVTG,247.90,T,-392.00,M,003.959,N,007.333,K,D*09
$GPGGA,081330.65,5703.2487611,N,00951.8122397,E,2,11,0.7,-1.403,M,40.593,M,2.2,0123*6B
$GPVTG,248.42,T,-391.48,M,003.948,N,007.312,K,D*05
$GPGGA,081330.70,5703.2487413,N,00951.8121449,E,2,11,0.7,-1.403,M,40.593,M,2.2,0123*68
$GPVTG,249.19,T,-390.71,M,003.971,N,007.354,K,D*09
$GPGGA,081330.75,5703.2487213,N,00951.8120495,E,2,11,0.7,-1.405,M,40.593,M,2.2,0123*6D
$GPVTG,249.65,T,-390.25,M,003.996,N,007.401,K,D*0D
$GPGGA,081330.80,5703.2487022,N,00951.8119532,E,2,11,0.7,-1.406,M,40.593,M,2.2,0123*62
$GPVTG,250.30,T,-389.60,M,004.021,N,007.446,K,D*0D
$GPGGA,081330.85,5703.2486837,N,00951.8118575,E,2,11,0.7,-1.411,M,40.593,M,2.4,0123*68
$GPVTG,251.14,T,-388.76,M,004.020,N,007.446,K,D*0D
$GPGGA,081330.90,5703.2486663,N,00951.8117618,E,2,11,0.7,-1.409,M,40.593,M,2.4,0123*6D
$GPVTG,251.81,T,-388.09,M,004.003,N,007.413,K,D*08
$GPGGA,081330.95,5703.2486499,N,00951.8116655,E,2,11,0.7,-1.410,M,40.593,M,2.4,0123*6F
$GPVTG,252.69,T,-387.21,M,003.989,N,007.389,K,D*00
$GPGGA,081331.00,5703.2486334,N,00951.8115673,E,2,11,0.7,-1.412,M,40.593,M,2.4,0123*67
$GPVTG,253.36,T,-386.54,M,004.015,N,007.436,K,D*00
$GPGGA,081331.05,5703.2486165,N,00951.8114676,E,2,11,0.7,-1.408,M,40.593,M,2.6,0123*69
$GPVTG,253.59,T,-386.31,M,004.044,N,007.490,K,D*02
$GPGGA,081331.10,5703.2486004,N,00951.8113694,E,2,11,0.7,-1.407,M,40.593,M,2.6,0123*6F
$GPVTG,253.91,T,-385.99,M,004.047,N,007.494,K,D*00
$GPGGA,081331.15,5703.2485864,N,00951.8112698,E,2,11,0.7,-1.407,M,40.593,M,2.6,0123*6A
$GPVTG,255.06,T,-384.84,M,004.053,N,007.507,K,D*0B
$GPGGA,081331.20,5703.2485717,N,00951.8111708,E,2,11,0.7,-1.408,M,40.593,M,2.6,0123*63
$GPVTG,255.43,T,-384.47,M,004.052,N,007.504,K,D*07
$GPGGA,081331.25,5703.2485574,N,00951.8110721,E,2,11,0.7,-1.410,M,40.593,M,2.8,0123*6C
$GPVTG,255.84,T,-384.06,M,004.041,N,007.483,K,D*05
$GPGGA,081331.30,5703.2485439,N,00951.8109722,E,2,11,0.7,-1.410,M,40.593,M,2.8,0123*6B
$GPVTG,256.40,T,-383.50,M,004.046,N,007.492,K,D*0D
$GPGGA,081331.35,5703.2485301,N,00951.8108736,E,2,11,0.7,-1.407,M,40.593,M,2.8,0123*60
$GPVTG,256.49,T,-383.41,M,004.028,N,007.459,K,D*0B
$GPGGA,081331.40,5703.2485173,N,00951.8107739,E,2,11,0.7,-1.407,M,40.593,M,2.8,0123*65
$GPVTG,256.95,T,-382.95,M,004.026,N,007.456,K,D*03
$GPGGA,081331.45,5703.2485053,N,00951.8106724,E,2,11,0.7,-1.406,M,40.593,M,3.0,0123*66
$GPVTG,257.63,T,-382.27,M,004.054,N,007.508,K,D*0D
$GPGGA,081331.50,5703.2484946,N,00951.8105722,E,2,11,0.7,-1.405,M,40.593,M,3.0,0123*68
$GPVTG,258.58,T,-381.32,M,004.039,N,007.481,K,D*06
$GPGGA,081331.55,5703.2484842,N,00951.8104723,E,2,11,0.7,-1.403,M,40.593,M,3.0,0123*6E
$GPVTG,259.32,T,-380.58,M,004.022,N,007.449,K,D*08
$GPGGA,081331.60,5703.2484734,N,00951.8103711,E,2,11,0.7,-1.399,M,40.593,M,3.0,0123*64
$GPVTG,259.65,T,-380.25,M,004.035,N,007.473,K,D*0F
$GPGGA,081331.65,5703.2484632,N,00951.8102706,E,2,11,0.7,-1.399,M,40.593,M,3.2,0123*63
$GPVTG,260.04,T,-379.86,M,004.029,N,007.462,K,D*00
$GPGGA,081331.70,5703.2484554,N,00951.8101689,E,2,11,0.7,-1.399,M,40.593,M,3.2,0123*61
$GPVTG,261.32,T,-378.58,M,004.035,N,007.473,K,D*0B
$GPGGA,081331.75,5703.2484468,N,00951.8100665,E,2,11,0.7,-1.400,M,40.593,M,3.2,0123*6E
$GPVTG,261.85,T,-378.05,M,004.055,N,007.509,K,D*05
$GPGGA,081331.80,5703.2484390,N,00951.8099632,E,2,11,0.7,-1.396,M,40.593,M,3.2,0123*6F
$GPVTG,262.48,T,-377.42,M,004.084,N,007.564,K,D*0C
$GPGGA,081331.85,5703.2484315,N,00951.8098612,E,2,11,0.7,-1.395,M,40.593,M,3.4,0123*61
$GPVTG,262.95,T,-376.95,M,004.077,N,007.550,K,D*0C
$GPGGA,081331.90,5703.2484259,N,00951.8097579,E,2,11,0.7,-1.396,M,40.593,M,3.4,0123*6E
$GPVTG,264.05,T,-375.85,M,004.085,N,007.566,K,D*09
$GPGGA,081331.95,5703.2484206,N,00951.8096549,E,2,11,0.7,-1.398,M,40.593,M,3.4,0123*6D
$GPVTG,264.81,T,-375.09,M,004.084,N,007.563,K,D*05
$GPGGA,081332.00,5703.2484163,N,00951.8095480,E,2,11,0.7,-1.394,M,40.593,M,3.4,0123*69
$GPVTG,265.83,T,-374.07,M,004.154,N,007.694,K,D*0E
$GPGGA,081332.05,5703.2484103,N,00951.8094467,E,2,11,0.7,-1.399,M,40.593,M,2.9,0123*63
$GPVTG,266.31,T,-373.59,M,004.136,N,007.661,K,D*06
$GPGGA,081332.10,5703.2484062,N,00951.8093433,E,2,11,0.7,-1.402,M,40.593,M,2.9,0123*62
$GPVTG,266.69,T,-373.21,M,004.119,N,007.628,K,D*04
$GPGGA,081332.15,5703.2484024,N,00951.8092392,E,2,11,0.7,-1.405,M,40.593,M,2.9,0123*6F
$GPVTG,266.96,T,-372.94,M,004.115,N,007.620,K,D*0F
$GPGGA,081332.20,5703.2484003,N,00951.8091351,E,2,11,0.7,-1.406,M,40.593,M,2.9,0123*63
$GPVTG,267.80,T,-372.10,M,004.109,N,007.611,K,D*0A
$GPGGA,081332.25,5703.2483982,N,00951.8090302,E,2,11,0.7,-1.407,M,40.593,M,3.1,0123*6E
$GPVTG,268.23,T,-371.67,M,004.117,N,007.625,K,D*07
$GPGGA,081332.30,5703.2483966,N,00951.8089248,E,2,11,0.7,-1.407,M,40.593,M,3.1,0123*67
$GPVTG,268.75,T,-371.15,M,004.133,N,007.655,K,D*00
$GPGGA,081332.35,5703.2483957,N,00951.8088206,E,2,11,0.7,-1.406,M,40.593,M,3.1,0123*6A
$GPVTG,269.37,T,-370.53,M,004.122,N,007.634,K,D*03
$GPGGA,081332.40,5703.2483946,N,00951.8087176,E,2,11,0.7,-1.407,M,40.593,M,3.1,0123*62
$GPVTG,269.62,T,-370.28,M,004.091,N,007.576,K,D*03
$GPGGA,081332.45,5703.2483941,N,00951.8086144,E,2,11,0.7,-1.406,M,40.593,M,3.4,0123*64
$GPVTG,269.96,T,-369.94,M,004.073,N,007.543,K,D*0D
$GPGGA,081332.50,5703.2483943,N,00951.8085102,E,2,11,0.7,-1.406,M,40.593,M,3.4,0123*63
$GPVTG,270.45,T,-369.45,M,004.078,N,007.553,K,D*0D
$GPGGA,081332.55,5703.2483957,N,00951.8084048,E,2,11,0.7,-1.406,M,40.593,M,3.4,0123*6D
$GPVTG,271.24,T,-368.66,M,004.108,N,007.608,K,D*00
$GPGGA,081332.60,5703.2483982,N,00951.8082978,E,2,11,0.7,-1.407,M,40.593,M,3.4,0123*6E
$GPVTG,272.19,T,-367.71,M,004.159,N,007.702,K,D*0B
$GPGGA,081332.65,5703.2484004,N,00951.8081931,E,2,11,0.7,-1.409,M,40.593,M,3.6,0123*69
$GPVTG,272.77,T,-367.13,M,004.157,N,007.698,K,D*0B
$GPGGA,081332.70,5703.2484031,N,00951.8080889,E,2,11,0.7,-1.409,M,40.593,M,3.6,0123*68
$GPVTG,273.22,T,-366.68,M,004.140,N,007.667,K,D*01
$GPGGA,081332.75,5703.2484065,N,00951.8079856,E,2,11,0.7,-1.410,M,40.593,M,3.6,0123*60
$GPVTG,273.77,T,-366.13,M,004.112,N,007.615,K,D*0F
$GPGGA,081332.80,5703.2484102,N,00951.8078799,E,2,11,0.7,-1.409,M,40.593,M,3.6,0123*6F
$GPVTG,274.18,T,-365.72,M,004.135,N,007.658,K,D*09
$GPGGA,081332.85,5703.2484149,N,00951.8077744,E,2,11,0.7,-1.407,M,40.593,M,3.8,0123*6A
$GPVTG,274.71,T,-365.19,M,004.144,N,007.674,K,D*03
$GPGGA,081332.90,5703.2484201,N,00951.8076695,E,2,11,0.7,-1.407,M,40.593,M,3.8,0123*6D
$GPVTG,275.35,T,-364.55,M,004.147,N,007.681,K,D*02
$GPGGA,081332.95,5703.2484257,N,00951.8075651,E,2,11,0.7,-1.406,M,40.593,M,3.8,0123*61
$GPVTG,275.89,T,-364.01,M,004.141,N,007.669,K,D*04
$GPGGA,081333.00,5703.2484319,N,00951.8074602,E,2,11,0.7,-1.403,M,40.593,M,3.8,0123*65
$GPVTG,276.47,T,-363.43,M,004.146,N,007.679,K,D*02
$GPGGA,081333.05,5703.2484367,N,00951.8073557,E,2,11,0.7,-1.405,M,40.593,M,1.5,0123*64
$GPVTG,276.88,T,-363.02,M,004.154,N,007.694,K,D*04
$GPGGA,081333.10,5703.2484438,N,00951.8072491,E,2,11,0.7,-1.406,M,40.593,M,1.5,0123*64
$GPVTG,277.33,T,-362.57,M,004.190,N,007.760,K,D*06
$GPGGA,081333.15,5703.2484514,N,00951.8071441,E,2,11,0.7,-1.407,M,40.593,M,1.5,0123*61
$GPVTG,277.84,T,-362.06,M,004.188,N,007.756,K,D*02
$GPGGA,081333.20,5703.2484601,N,00951.8070392,E,2,11,0.7,-1.406,M,40.593,M,1.5,0123*69
$GPVTG,278.56,T,-361.34,M,004.187,N,007.754,K,D*0D
$GPGGA,081333.25,5703.2484701,N,00951.8069340,E,2,11,0.7,-1.403,M,40.593,M,1.7,0123*6D
$GPVTG,279.46,T,-360.44,M,004.190,N,007.759,K,D*00
$GPGGA,081333.30,5703.2484796,N,00951.8068300,E,2,11,0.7,-1.403,M,40.593,M,1.7,0123*62
$GPVTG,279.99,T,-359.91,M,004.175,N,007.732,K,D*06
$GPGGA,081333.35,5703.2484888,N,00951.8067247,E,2,11,0.7,-1.403,M,40.593,M,1.7,0123*6A
$GPVTG,280.09,T,-359.81,M,004.186,N,007.752,K,D*02
$GPGGA,081333.40,5703.2484992,N,00951.8066199,E,2,11,0.7,-1.402,M,40.593,M,1.7,0123*62
$GPVTG,280.56,T,-359.34,M,004.190,N,007.760,K,D*00
$GPGGA,081333.45,5703.2485109,N,00951.8065148,E,2,11,0.7,-1.401,M,40.593,M,2.0,0123*64
$GPVTG,281.44,T,-358.46,M,004.217,N,007.810,K,D*02
$GPGGA,081333.50,5703.2485224,N,00951.8064099,E,2,11,0.7,-1.402,M,40.593,M,2.0,0123*63
$GPVTG,281.88,T,-358.02,M,004.222,N,007.819,K,D*0D
$GPGGA,081333.55,5703.2485342,N,00951.8063047,E,2,11,0.7,-1.404,M,40.593,M,2.0,0123*65
$GPVTG,282.19,T,-357.71,M,004.229,N,007.833,K,D*0E
$GPGGA,081333.60,5703.2485470,N,00951.8061997,E,2,11,0.7,-1.405,M,40.593,M,2.0,0123*62
$GPVTG,282.76,T,-357.14,M,004.237,N,007.846,K,D*09
$GPGGA,081333.65,5703.2485621,N,00951.8060932,E,2,11,0.7,-1.401,M,40.593,M,2.2,0123*69
$GPVTG,283.66,T,-356.24,M,004.246,N,007.863,K,D*0A
$GPGGA,081333.70,5703.2485765,N,00951.8059873,E,2,11,0.7,-1.401,M,40.593,M,2.2,0123*62
$GPVTG,284.25,T,-355.65,M,004.275,N,007.918,K,D*01
$GPGGA,081333.75,5703.2485913,N,00951.8058844,E,2,11,0.7,-1.402,M,40.593,M,2.2,0123*6E
$GPVTG,284.99,T,-354.91,M,004.243,N,007.858,K,D*0C
$GPGGA,081333.80,5703.2486071,N,00951.8057782,E,2,11,0.7,-1.401,M,40.593,M,2.2,0123*63
$GPVTG,285.59,T,-354.31,M,004.287,N,007.939,K,D*05
$GPGGA,081333.85,5703.2486220,N,00951.8056746,E,2,11,0.7,-1.407,M,40.593,M,2.4,0123*69
$GPVTG,285.91,T,-353.99,M,004.280,N,007.926,K,D*0D
$GPGGA,081333.90,5703.2486383,N,00951.8055709,E,2,11,0.7,-1.407,M,40.593,M,2.4,0123*6D
$GPVTG,286.44,T,-353.46,M,004.270,N,007.909,K,D*06
$GPGGA,081333.95,5703.2486544,N,00951.8054659,E,2,11,0.7,-1.406,M,40.593,M,2.4,0123*61
$GPVTG,286.56,T,-353.34,M,004.284,N,007.933,K,D*02
$GPGGA,081334.00,5703.2486713,N,00951.8053621,E,2,11,0.7,-1.405,M,40.593,M,2.4,0123*61
$GPVTG,286.94,T,-352.96,M,004.279,N,007.924,K,D*01
$GPGGA,081334.05,5703.2486872,N,00951.8052584,E,2,11,0.7,-1.403,M,40.593,M,1.5,0123*65
$GPVTG,287.35,T,-352.55,M,004.278,N,007.923,K,D*02
$GPGGA,081334.10,5703.2487056,N,00951.8051557,E,2,11,0.7,-1.403,M,40.593,M,1.5,0123*63
$GPVTG,288.08,T,-351.82,M,004.267,N,007.903,K,D*06
$GPGGA,081334.15,5703.2487245,N,00951.8050524,E,2,11,0.7,-1.404,M,40.593,M,1.5,0123*64
$GPVTG,288.65,T,-351.25,M,004.276,N,007.918,K,D*0A
$GPGGA,081334.20,5703.2487435,N,00951.8049499,E,2,11,0.7,-1.405,M,40.593,M,1.5,0123*6D
$GPVTG,289.14,T,-350.76,M,004.269,N,007.907,K,D*0A
$GPGGA,081334.25,5703.2487641,N,00951.8048481,E,2,11,0.7,-1.404,M,40.593,M,1.7,0123*62
$GPVTG,290.07,T,-349.83,M,004.269,N,007.906,K,D*03
$GPGGA,081334.30,5703.2487847,N,00951.8047468,E,2,11,0.7,-1.404,M,40.593,M,1.7,0123*66
$GPVTG,290.72,T,-349.18,M,004.261,N,007.892,K,D*07
$GPGGA,081334.35,5703.2488052,N,00951.8046451,E,2,11,0.7,-1.404,M,40.593,M,1.7,0123*6B
$GPVTG,291.01,T,-348.89,M,004.263,N,007.896,K,D*0D
$GPGGA,081334.40,5703.2488256,N,00951.8045430,E,2,11,0.7,-1.404,M,40.593,M,1.7,0123*6B
$GPVTG,291.03,T,-348.87,M,004.271,N,007.909,K,D*05
$GPGGA,081334.45,5703.2488470,N,00951.8044403,E,2,11,0.7,-1.401,M,40.593,M,1.9,0123*66
$GPVTG,291.32,T,-348.58,M,004.299,N,007.961,K,D*0D
$GPGGA,081334.50,5703.2488691,N,00951.8043402,E,2,11,0.7,-1.399,M,40.593,M,1.9,0123*6F
$GPVTG,291.96,T,-347.94,M,004.278,N,007.924,K,D*02
$GPGGA,081334.55,5703.2488917,N,00951.8042395,E,2,11,0.7,-1.400,M,40.593,M,1.9,0123*64
$GPVTG,292.48,T,-347.42,M,004.281,N,007.928,K,D*03
$GPGGA,081334.60,5703.2489148,N,00951.8041384,E,2,11,0.7,-1.401,M,40.593,M,1.9,0123*63
$GPVTG,292.96,T,-346.94,M,004.297,N,007.959,K,D*0B
$GPGGA,081334.65,5703.2489387,N,00951.8040367,E,2,11,0.7,-1.401,M,40.593,M,2.2,0123*63
$GPVTG,293.44,T,-346.46,M,004.325,N,008.010,K,D*09
$GPGGA,081334.70,5703.2489635,N,00951.8039367,E,2,11,0.7,-1.399,M,40.593,M,2.2,0123*63
$GPVTG,294.28,T,-345.62,M,004.332,N,008.022,K,D*06
$GPGGA,081334.75,5703.2489884,N,00951.8038374,E,2,11,0.7,-1.399,M,40.593,M,2.2,0123*61
$GPVTG,294.89,T,-345.01,M,004.324,N,008.008,K,D*07
$GPGGA,081334.80,5703.2490135,N,00951.8037383,E,2,11,0.7,-1.400,M,40.593,M,2.2,0123*60
$GPVTG,295.34,T,-344.56,M,004.317,N,007.994,K,D*00
$GPGGA,081334.85,5703.2490396,N,00951.8036395,E,2,11,0.7,-1.399,M,40.593,M,2.4,0123*69
$GPVTG,295.88,T,-344.02,M,004.305,N,007.973,K,D*0C
$GPGGA,081334.90,5703.2490654,N,00951.8035407,E,2,11,0.7,-1.400,M,40.593,M,2.4,0123*6E
$GPVTG,296.18,T,-343.72,M,004.308,N,007.978,K,D*00
$GPGGA,081334.95,5703.2490924,N,00951.8034412,E,2,11,0.7,-1.398,M,40.593,M,2.4,0123*60
$GPVTG,296.70,T,-343.20,M,004.339,N,008.035,K,D*04
$GPGGA,081335.00,5703.2491197,N,00951.8033420,E,2,11,0.7,-1.397,M,40.593,M,2.4,0123*65
$GPVTG,297.11,T,-342.79,M,004.360,N,008.075,K,D*07
$GPGGA,081335.05,5703.2491470,N,00951.8032455,E,2,11,0.7,-1.394,M,40.593,M,2.6,0123*6E
$GPVTG,298.17,T,-341.73,M,004.356,N,008.067,K,D*01
$GPGGA,081335.10,5703.2491755,N,00951.8031485,E,2,11,0.7,-1.394,M,40.593,M,2.6,0123*60
$GPVTG,298.74,T,-341.16,M,004.352,N,008.061,K,D*05
$GPGGA,081335.15,5703.2492043,N,00951.8030515,E,2,11,0.7,-1.394,M,40.593,M,2.6,0123*6F
$GPVTG,299.11,T,-340.79,M,004.352,N,008.060,K,D*0E
$GPGGA,081335.20,5703.2492338,N,00951.8029543,E,2,11,0.7,-1.394,M,40.593,M,2.6,0123*6D
$GPVTG,299.53,T,-340.37,M,004.369,N,008.091,K,D*04
$GPGGA,081335.25,5703.2492633,N,00951.8028582,E,2,11,0.7,-1.398,M,40.593,M,2.8,0123*68
$GPVTG,299.94,T,-339.96,M,004.366,N,008.085,K,D*00
$GPGGA,081335.30,5703.2492932,N,00951.8027633,E,2,11,0.7,-1.400,M,40.593,M,2.8,0123*62
$GPVTG,300.40,T,-339.50,M,004.343,N,008.042,K,D*0E
$GPGGA,081335.35,5703.2493239,N,00951.8026675,E,2,11,0.7,-1.402,M,40.593,M,2.8,0123*67
$GPVTG,300.81,T,-339.09,M,004.358,N,008.071,K,D*05
$GPGGA,081335.40,5703.2493550,N,00951.8025722,E,2,11,0.7,-1.404,M,40.593,M,2.8,0123*6B
$GPVTG,301.21,T,-338.69,M,004.365,N,008.084,K,D*0D
$GPGGA,081335.45,5703.2493868,N,00951.8024770,E,2,11,0.7,-1.404,M,40.593,M,3.0,0123*67
$GPVTG,301.61,T,-338.29,M,004.374,N,008.101,K,D*01
$GPGGA,081335.50,5703.2494197,N,00951.8023848,E,2,11,0.7,-1.406,M,40.593,M,3.0,0123*6C
$GPVTG,302.69,T,-337.21,M,004.355,N,008.065,K,D*0D
$GPGGA,081335.55,5703.2494539,N,00951.8022911,E,2,11,0.7,-1.406,M,40.593,M,3.0,0123*65
$GPVTG,303.64,T,-336.26,M,004.392,N,008.135,K,D*08
$GPGGA,081335.60,5703.2494869,N,00951.8021970,E,2,11,0.7,-1.405,M,40.593,M,3.0,0123*6C
$GPVTG,303.75,T,-336.15,M,004.405,N,008.157,K,D*05
$GPGGA,081335.65,5703.2495201,N,00951.8021044,E,2,11,0.7,-1.402,M,40.593,M,3.2,0123*67
$GPVTG,303.99,T,-335.91,M,004.392,N,008.134,K,D*04
$GPGGA,081335.70,5703.2495541,N,00951.8020122,E,2,11,0.7,-1.403,M,40.593,M,3.2,0123*61
$GPVTG,304.38,T,-335.52,M,004.390,N,008.131,K,D*00
$GPGGA,081335.75,5703.2495881,N,00951.8019206,E,2,11,0.7,-1.404,M,40.593,M,3.2,0123*6D
$GPVTG,304.70,T,-335.20,M,004.378,N,008.108,K,D*05
$GPGGA,081335.80,5703.2496240,N,00951.8018311,E,2,11,0.7,-1.405,M,40.593,M,3.2,0123*64
$GPVTG,305.80,T,-334.10,M,004.372,N,008.097,K,D*04
$GPGGA,081335.85,5703.2496597,N,00951.8017405,E,2,11,0.7,-1.404,M,40.593,M,3.4,0123*66
$GPVTG,306.32,T,-333.58,M,004.384,N,008.119,K,D*0B
$GPGGA,081335.90,5703.2496966,N,00951.8016491,E,2,11,0.7,-1.402,M,40.593,M,3.4,0123*6A
$GPVTG,306.83,T,-333.07,M,004.430,N,008.205,K,D*0D
$GPGGA,081335.95,5703.2497344,N,00951.8015606,E,2,11,0.7,-1.402,M,40.593,M,3.4,0123*6B
$GPVTG,307.84,T,-332.06,M,004.434,N,008.211,K,D*0A
$GPGGA,081336.00,5703.2497709,N,00951.8014719,E,2,11,0.7,-1.404,M,40.593,M,3.4,0123*61
$GPVTG,307.97,T,-331.93,M,004.414,N,008.175,K,D*04
$GPGGA,081336.05,5703.2498060,N,00951.8013851,E,2,11,0.7,-1.407,M,40.593,M,2.9,0123*68
$GPVTG,308.42,T,-331.48,M,004.384,N,008.120,K,D*0B
$GPGGA,081336.10,5703.2498447,N,00951.8012991,E,2,11,0.7,-1.406,M,40.593,M,2.9,0123*60
$GPVTG,309.34,T,-330.56,M,004.380,N,008.112,K,D*00
$GPGGA,081336.15,5703.2498839,N,00951.8012120,E,2,11,0.7,-1.405,M,40.593,M,2.9,0123*61
$GPVTG,309.90,T,-330.00,M,004.406,N,008.161,K,D*00
$GPGGA,081336.20,5703.2499246,N,00951.8011248,E,2,11,0.7,-1.405,M,40.593,M,2.9,0123*6A
$GPVTG,310.65,T,-329.25,M,004.462,N,008.264,K,D*09
$GPGGA,081336.25,5703.2499645,N,00951.8010365,E,2,11,0.7,-1.400,M,40.593,M,3.1,0123*6B
$GPVTG,310.51,T,-329.39,M,004.484,N,008.305,K,D*0D
$GPGGA,081336.30,5703.2500034,N,00951.8009490,E,2,11,0.7,-1.401,M,40.593,M,3.1,0123*6A
$GPVTG,310.26,T,-329.64,M,004.479,N,008.295,K,D*0F
$GPGGA,081336.35,5703.2500439,N,00951.8008650,E,2,11,0.7,-1.402,M,40.593,M,3.1,0123*6A
$GPVTG,311.07,T,-328.83,M,004.455,N,008.251,K,D*03
$GPGGA,081336.40,5703.2500854,N,00951.8007806,E,2,11,0.7,-1.402,M,40.593,M,3.1,0123*6D
$GPVTG,311.88,T,-328.02,M,004.465,N,008.269,K,D*05
$GPGGA,081336.45,5703.2501272,N,00951.8006978,E,2,11,0.7,-1.404,M,40.593,M,3.4,0123*6D
$GPVTG,312.73,T,-327.17,M,004.459,N,008.259,K,D*05
$GPGGA,081336.50,5703.2501695,N,00951.8006149,E,2,11,0.7,-1.405,M,40.593,M,3.4,0123*6F
$GPVTG,313.37,T,-326.53,M,004.464,N,008.267,K,D*06
$GPGGA,081336.55,5703.2502126,N,00951.8005336,E,2,11,0.7,-1.405,M,40.593,M,3.4,0123*6F
$GPVTG,314.18,T,-325.72,M,004.464,N,008.267,K,D*0C
$GPGGA,081336.60,5703.2502562,N,00951.8004516,E,2,11,0.7,-1.403,M,40.593,M,3.4,0123*6E
$GPVTG,314.74,T,-325.16,M,004.486,N,008.309,K,D*01
$GPGGA,081336.65,5703.2503003,N,00951.8003716,E,2,11,0.7,-1.403,M,40.593,M,3.6,0123*6F
$GPVTG,315.49,T,-324.41,M,004.485,N,008.307,K,D*00
$GPGGA,081336.70,5703.2503460,N,00951.8002922,E,2,11,0.7,-1.404,M,40.593,M,3.6,0123*65
$GPVTG,316.45,T,-323.45,M,004.514,N,008.361,K,D*05
$GPGGA,081336.75,5703.2503904,N,00951.8002139,E,2,11,0.7,-1.405,M,40.593,M,3.6,0123*6C
$GPVTG,316.90,T,-323.00,M,004.492,N,008.319,K,D*0C
$GPGGA,081336.80,5703.2504360,N,00951.8001361,E,2,11,0.7,-1.406,M,40.593,M,3.6,0123*66
$GPVTG,317.49,T,-322.41,M,004.497,N,008.329,K,D*0B
$GPGGA,081336.85,5703.2504814,N,00951.8000581,E,2,11,0.7,-1.406,M,40.593,M,3.8,0123*6C
$GPVTG,317.72,T,-322.18,M,004.502,N,008.337,K,D*0D
$GPGGA,081336.90,5703.2505268,N,00951.7999822,E,2,11,0.7,-1.406,M,40.593,M,3.8,0123*6A
$GPVTG,318.16,T,-321.75,M,004.475,N,008.288,K,D*0C
$GPGGA,081336.95,5703.2505734,N,00951.7999074,E,2,11,0.7,-1.405,M,40.593,M,3.8,0123*6B
$GPVTG,318.87,T,-321.03,M,004.470,N,008.278,K,D*0F
$GPGGA,081337.00,5703.2506216,N,00951.7998345,E,2,11,0.7,-1.404,M,40.593,M,3.8,0123*61
$GPVTG,320.07,T,-319.83,M,004.481,N,008.299,K,D*0E
$GPGGA,081337.05,5703.2506686,N,00951.7997599,E,2,11,0.7,-1.400,M,40.593,M,1.5,0123*6A
$GPVTG,320.51,T,-319.39,M,004.494,N,008.323,K,D*08
$GPGGA,081337.10,5703.2507163,N,00951.7996877,E,2,11,0.7,-1.401,M,40.593,M,1.5,0123*6E
$GPVTG,321.00,T,-318.90,M,004.484,N,008.304,K,D*0B
$GPGGA,081337.15,5703.2507639,N,00951.7996152,E,2,11,0.7,-1.402,M,40.593,M,1.5,0123*6E
$GPVTG,321.16,T,-318.74,M,004.478,N,008.294,K,D*0D
$GPGGA,081337.20,5703.2508138,N,00951.7995442,E,2,11,0.7,-1.402,M,40.593,M,1.5,0123*66
$GPVTG,322.02,T,-317.88,M,004.512,N,008.357,K,D*04
$GPGGA,081337.25,5703.2508631,N,00951.7994737,E,2,11,0.7,-1.401,M,40.593,M,1.7,0123*6C
$GPVTG,322.45,T,-317.45,M,004.513,N,008.358,K,D*08
$GPGGA,081337.30,5703.2509132,N,00951.7994048,E,2,11,0.7,-1.401,M,40.593,M,1.7,0123*62
$GPVTG,323.22,T,-316.68,M,004.520,N,008.371,K,D*0D
$GPGGA,081337.35,5703.2509637,N,00951.7993350,E,2,11,0.7,-1.398,M,40.593,M,1.7,0123*6F
$GPVTG,323.56,T,-316.34,M,004.546,N,008.418,K,D*0F
$GPGGA,081337.40,5703.2510139,N,00951.7992668,E,2,11,0.7,-1.399,M,40.593,M,1.7,0123*62
$GPVTG,323.95,T,-315.95,M,004.539,N,008.406,K,D*0F
$GPGGA,081337.45,5703.2510649,N,00951.7992001,E,2,11,0.7,-1.401,M,40.593,M,2.0,0123*6C
$GPVTG,324.63,T,-315.27,M,004.541,N,008.409,K,D*08
$GPGGA,081337.50,5703.2511149,N,00951.7991343,E,2,11,0.7,-1.404,M,40.593,M,2.0,0123*6D
$GPVTG,324.95,T,-314.95,M,004.499,N,008.333,K,D*03
$GPGGA,081337.55,5703.2511656,N,00951.7990687,E,2,11,0.7,-1.404,M,40.593,M,2.0,0123*6D
$GPVTG,325.28,T,-314.62,M,004.487,N,008.310,K,D*02
$GPGGA,081337.60,5703.2512177,N,00951.7990022,E,2,11,0.7,-1.404,M,40.593,M,2.0,0123*65
$GPVTG,325.55,T,-314.35,M,004.526,N,008.382,K,D*0B
$GPGGA,081337.65,5703.2512699,N,00951.7989366,E,2,11,0.7,-1.402,M,40.593,M,2.2,0123*68
$GPVTG,325.84,T,-314.06,M,004.546,N,008.420,K,D*0E
$GPGGA,081337.70,5703.2513228,N,00951.7988727,E,2,11,0.7,-1.401,M,40.593,M,2.2,0123*60
$GPVTG,326.53,T,-313.38,M,004.563,N,008.450,K,D*0D
$GPGGA,081337.75,5703.2513756,N,00951.7988104,E,2,11,0.7,-1.400,M,40.593,M,2.2,0123*6F
$GPVTG,327.23,T,-312.67,M,004.557,N,008.439,K,D*08
$GPGGA,081337.80,5703.2514280,N,00951.7987491,E,2,11,0.7,-1.402,M,40.593,M,2.2,0123*68
$GPVTG,327.78,T,-312.12,M,004.528,N,008.385,K,D*0C
$GPGGA,081337.85,5703.2514824,N,00951.7986892,E,2,11,0.7,-1.402,M,40.593,M,2.4,0123*61
$GPVTG,328.75,T,-311.15,M,004.545,N,008.417,K,D*0D
$GPGGA,081337.90,5703.2515368,N,00951.7986302,E,2,11,0.7,-1.400,M,40.593,M,2.4,0123*67
$GPVTG,329.55,T,-310.35,M,004.555,N,008.436,K,D*0F
$GPGGA,081337.95,5703.2515917,N,00951.7985719,E,2,11,0.7,-1.400,M,40.593,M,2.4,0123*6D
$GPVTG,330.24,T,-309.66,M,004.570,N,008.464,K,D*0F
$GPGGA,081338.00,5703.2516465,N,00951.7985143,E,2,11,0.7,-1.399,M,40.593,M,2.4,0123*6B
$GPVTG,330.73,T,-309.17,M,004.569,N,008.462,K,D*05
$GPGGA,081338.05,5703.2517008,N,00951.7984552,E,2,11,0.7,-1.393,M,40.593,M,1.5,0123*6D
$GPVTG,330.80,T,-309.10,M,004.570,N,008.463,K,D*07
$GPGGA,081338.10,5703.2517550,N,00951.7983981,E,2,11,0.7,-1.392,M,40.593,M,1.5,0123*65
$GPVTG,330.89,T,-309.01,M,004.550,N,008.427,K,D*0C
$GPGGA,081338.15,5703.2518105,N,00951.7983420,E,2,11,0.7,-1.392,M,40.593,M,1.5,0123*6D
$GPVTG,331.29,T,-308.61,M,004.559,N,008.443,K,D*0B
$GPGGA,081338.20,5703.2518668,N,00951.7982869,E,2,11,0.7,-1.391,M,40.593,M,1.5,0123*64
$GPVTG,331.92,T,-307.98,M,004.582,N,008.485,K,D*0E
$GPGGA,081338.25,5703.2519229,N,00951.7982338,E,2,11,0.7,-1.391,M,40.593,M,1.7,0123*6C
$GPVTG,332.65,T,-307.25,M,004.580,N,008.483,K,D*07
$GPGGA,081338.30,5703.2519800,N,00951.7981820,E,2,11,0.7,-1.390,M,40.593,M,1.7,0123*69
$GPVTG,333.54,T,-306.36,M,004.589,N,008.499,K,D*05
$GPGGA,081338.35,5703.2520366,N,00951.7981328,E,2,11,0.7,-1.391,M,40.593,M,1.7,0123*6F
$GPVTG,334.57,T,-305.33,M,004.563,N,008.450,K,D*06
$GPGGA,081338.40,5703.2520942,N,00951.7980832,E,2,11,0.7,-1.391,M,40.593,M,1.7,0123*60
$GPVTG,335.24,T,-304.66,M,004.575,N,008.473,K,D*04
$GPGGA,081338.45,5703.2521519,N,00951.7980352,E,2,11,0.7,-1.391,M,40.593,M,1.9,0123*65
$GPVTG,335.96,T,-303.94,M,004.572,N,008.468,K,D*0A
$GPGGA,081338.50,5703.2522095,N,00951.7979870,E,2,11,0.7,-1.392,M,40.593,M,1.9,0123*6D
$GPVTG,336.26,T,-303.64,M,004.575,N,008.472,K,D*01
$GPGGA,081338.55,5703.2522675,N,00951.7979397,E,2,11,0.7,-1.394,M,40.593,M,1.9,0123*64
$GPVTG,336.60,T,-303.30,M,004.580,N,008.482,K,D*07
$GPGGA,081338.60,5703.2523262,N,00951.7978945,E,2,11,0.7,-1.396,M,40.593,M,1.9,0123*67
$GPVTG,337.35,T,-302.55,M,004.590,N,008.500,K,D*0E
$GPGGA,081338.65,5703.2523830,N,00951.7978498,E,2,11,0.7,-1.402,M,40.593,M,2.2,0123*60
$GPVTG,337.56,T,-302.34,M,004.547,N,008.420,K,D*05
$GPGGA,081338.70,5703.2524403,N,00951.7978055,E,2,11,0.7,-1.404,M,40.593,M,2.2,0123*6C
$GPVTG,337.78,T,-302.12,M,004.520,N,008.370,K,D*0E
$GPGGA,081338.75,5703.2524999,N,00951.7977626,E,2,11,0.7,-1.404,M,40.593,M,2.2,0123*6A
$GPVTG,338.48,T,-301.42,M,004.554,N,008.434,K,D*00
$GPGGA,081338.80,5703.2525587,N,00951.7977206,E,2,11,0.7,-1.404,M,40.593,M,2.2,0123*64
$GPVTG,338.98,T,-300.92,M,004.556,N,008.439,K,D*0E
$GPGGA,081338.85,5703.2526178,N,00951.7976788,E,2,11,0.7,-1.402,M,40.593,M,2.4,0123*64
$GPVTG,339.32,T,-300.58,M,004.559,N,008.443,K,D*0B
$GPGGA,081338.90,5703.2526765,N,00951.7976387,E,2,11,0.7,-1.404,M,40.593,M,2.4,0123*67
$GPVTG,339.79,T,-300.11,M,004.541,N,008.411,K,D*07
$GPGGA,081338.95,5703.2527353,N,00951.7975994,E,2,11,0.7,-1.407,M,40.593,M,2.4,0123*6A
$GPVTG,340.26,T,-299.64,M,004.530,N,008.390,K,D*08
$GPGGA,081339.00,5703.2527954,N,00951.7975603,E,2,11,0.7,-1.409,M,40.593,M,2.4,0123*65
$GPVTG,340.71,T,-299.19,M,004.558,N,008.441,K,D*05
$GPGGA,081339.05,5703.2528552,N,00951.7975229,E,2,11,0.7,-1.409,M,40.593,M,2.6,0123*6B
$GPVTG,341.55,T,-298.35,M,004.580,N,008.482,K,D*07
$GPGGA,081339.10,5703.2529151,N,00951.7974871,E,2,11,0.7,-1.409,M,40.593,M,2.6,0123*6F
$GPVTG,342.18,T,-297.72,M,004.571,N,008.465,K,D*06
$GPGGA,081339.15,5703.2529748,N,00951.7974529,E,2,11,0.7,-1.410,M,40.593,M,2.6,0123*6C
$GPVTG,342.86,T,-297.04,M,004.547,N,008.420,K,D*04
$GPGGA,081339.20,5703.2530356,N,00951.7974191,E,2,11,0.7,-1.410,M,40.593,M,2.6,0123*6E
$GPVTG,343.44,T,-296.46,M,004.564,N,008.453,K,D*09
$GPGGA,081339.25,5703.2530978,N,00951.7973867,E,2,11,0.7,-1.402,M,40.593,M,2.8,0123*67
$GPVTG,344.26,T,-295.64,M,004.577,N,008.476,K,D*0C
$GPGGA,081339.30,5703.2531590,N,00951.7973548,E,2,11,0.7,-1.401,M,40.593,M,2.8,0123*6B
$GPVTG,344.68,T,-295.22,M,004.588,N,008.498,K,D*04
$GPGGA,081339.35,5703.2532207,N,00951.7973243,E,2,11,0.7,-1.400,M,40.593,M,2.8,0123*69
$GPVTG,345.24,T,-294.66,M,004.603,N,008.525,K,D*0B
$GPGGA,081339.40,5703.2532824,N,00951.7972948,E,2,11,0.7,-1.399,M,40.593,M,2.8,0123*66
$GPVTG,345.75,T,-294.15,M,004.612,N,008.542,K,D*0A
$GPGGA,081339.45,5703.2533422,N,00951.7972664,E,2,11,0.7,-1.408,M,40.593,M,3.0,0123*6F
$GPVTG,346.05,T,-293.85,M,004.583,N,008.488,K,D*0C
$GPGGA,081339.50,5703.2534039,N,00951.7972379,E,2,11,0.7,-1.407,M,40.593,M,3.0,0123*64
$GPVTG,346.32,T,-293.58,M,004.589,N,008.498,K,D*03
$GPGGA,081339.55,5703.2534659,N,00951.7972124,E,2,11,0.7,-1.406,M,40.593,M,3.0,0123*6A
$GPVTG,347.19,T,-292.71,M,004.589,N,008.499,K,D*00
$GPGGA,081339.60,5703.2535287,N,00951.7971889,E,2,11,0.7,-1.406,M,40.593,M,3.0,0123*67
$GPVTG,348.23,T,-291.67,M,004.605,N,008.529,K,D*0F
$GPGGA,081339.65,5703.2535915,N,00951.7971653,E,2,11,0.7,-1.403,M,40.593,M,3.2,0123*6C
$GPVTG,348.86,T,-291.04,M,004.608,N,008.533,K,D*03
$GPGGA,081339.70,5703.2536540,N,00951.7971433,E,2,11,0.7,-1.401,M,40.593,M,3.2,0123*61
$GPVTG,349.48,T,-290.42,M,004.604,N,008.528,K,D*05
$GPGGA,081339.75,5703.2537174,N,00951.7971226,E,2,11,0.7,-1.397,M,40.593,M,3.2,0123*6C
$GPVTG,350.19,T,-289.71,M,004.627,N,008.569,K,D*05
$GPGGA,081339.80,5703.2537802,N,00951.7971014,E,2,11,0.7,-1.395,M,40.593,M,3.2,0123*6F
$GPVTG,350.38,T,-289.52,M,004.625,N,008.566,K,D*0A
$GPGGA,081339.85,5703.2538420,N,00951.7970823,E,2,11,0.7,-1.397,M,40.593,M,3.4,0123*60
$GPVTG,350.81,T,-289.09,M,004.663,N,008.636,K,D*02
$GPGGA,081339.90,5703.2539047,N,00951.7970635,E,2,11,0.7,-1.397,M,40.593,M,3.4,0123*69
$GPVTG,351.19,T,-288.71,M,004.644,N,008.600,K,D*0C
$GPGGA,081339.95,5703.2539674,N,00951.7970465,E,2,11,0.7,-1.397,M,40.593,M,3.4,0123*6D
$GPVTG,351.75,T,-288.15,M,004.624,N,008.563,K,D*04
$GPGGA,081340.00,5703.2540301,N,00951.7970304,E,2,11,0.7,-1.398,M,40.593,M,3.4,0123*69
$GPVTG,352.27,T,-287.63,M,004.600,N,008.520,K,D*0F
$GPGGA,081340.05,5703.2540934,N,00951.7970136,E,2,11,0.7,-1.394,M,40.593,M,2.9,0123*63
$GPVTG,352.64,T,-287.26,M,004.619,N,008.554,K,D*02
$GPGGA,081340.10,5703.2541569,N,00951.7969970,E,2,11,0.7,-1.393,M,40.593,M,2.9,0123*67
$GPVTG,352.61,T,-287.29,M,004.626,N,008.567,K,D*04
$GPGGA,081340.15,5703.2542208,N,00951.7969816,E,2,11,0.7,-1.395,M,40.593,M,2.9,0123*66
$GPVTG,352.83,T,-287.07,M,004.638,N,008.590,K,D*03
$GPGGA,081340.20,5703.2542832,N,00951.7969681,E,2,11,0.7,-1.397,M,40.593,M,2.9,0123*61
$GPVTG,353.30,T,-286.60,M,004.598,N,008.515,K,D*0E
$GPGGA,081340.25,5703.2543455,N,00951.7969581,E,2,11,0.7,-1.402,M,40.593,M,3.1,0123*69
$GPVTG,354.36,T,-285.54,M,004.602,N,008.522,K,D*0F
$GPGGA,081340.30,5703.2544089,N,00951.7969480,E,2,11,0.7,-1.400,M,40.593,M,3.1,0123*6D
$GPVTG,355.10,T,-284.80,M,004.595,N,008.510,K,D*0E
$GPGGA,081340.35,5703.2544715,N,00951.7969363,E,2,11,0.7,-1.403,M,40.593,M,3.1,0123*63
$GPVTG,355.09,T,-284.81,M,004.572,N,008.467,K,D*0F
$GPGGA,081340.40,5703.2545342,N,00951.7969276,E,2,11,0.7,-1.405,M,40.593,M,3.1,0123*65
$GPVTG,355.71,T,-284.19,M,004.553,N,008.433,K,D*03
$GPGGA,081340.45,5703.2545988,N,00951.7969189,E,2,11,0.7,-1.402,M,40.593,M,3.4,0123*6D
$GPVTG,356.19,T,-283.71,M,004.567,N,008.457,K,D*02
$GPGGA,081340.50,5703.2546632,N,00951.7969115,E,2,11,0.7,-1.401,M,40.593,M,3.4,0123*62
$GPVTG,356.65,T,-283.25,M,004.598,N,008.515,K,D*0F
$GPGGA,081340.55,5703.2547273,N,00951.7969067,E,2,11,0.7,-1.400,M,40.593,M,3.4,0123*62
$GPVTG,357.52,T,-282.38,M,004.615,N,008.547,K,D*06
$GPGGA,081340.60,5703.2547912,N,00951.7969012,E,2,11,0.7,-1.401,M,40.593,M,3.4,0123*6B
$GPVTG,357.84,T,-282.06,M,004.619,N,008.555,K,D*0F
$GPGGA,081340.65,5703.2548541,N,00951.7968970,E,2,11,0.7,-1.404,M,40.593,M,3.6,0123*60
$GPVTG,358.26,T,-281.64,M,004.598,N,008.515,K,D*01
$GPGGA,081340.70,5703.2549171,N,00951.7968937,E,2,11,0.7,-1.403,M,40.593,M,3.6,0123*66
$GPVTG,358.68,T,-281.22,M,004.576,N,008.474,K,D*0F
$GPGGA,081340.75,5703.2549811,N,00951.7968921,E,2,11,0.7,-1.402,M,40.593,M,3.6,0123*6A
$GPVTG,359.30,T,-280.60,M,004.592,N,008.505,K,D*09
$GPGGA,081340.80,5703.2550446,N,00951.7968917,E,2,11,0.7,-1.402,M,40.593,M,3.6,0123*63
$GPVTG,359.94,T,-279.96,M,004.590,N,008.500,K,D*0F
$GPGGA,081340.85,5703.2551097,N,00951.7968919,E,2,11,0.7,-1.399,M,40.593,M,3.8,0123*6A
$GPVTG,000.47,T,-639.43,M,004.612,N,008.541,K,D*0A
$GPGGA,081340.90,5703.2551741,N,00951.7968925,E,2,11,0.7,-1.398,M,40.593,M,3.8,0123*6C
$GPVTG,000.80,T,-639.10,M,004.633,N,008.580,K,D*09
$GPGGA,081340.95,5703.2552384,N,00951.7968947,E,2,11,0.7,-1.397,M,40.593,M,3.8,0123*6C
$GPVTG,001.28,T,-638.62,M,004.641,N,008.596,K,D*0C
$GPGGA,081341.00,5703.2553038,N,00951.7968979,E,2,11,0.7,-1.395,M,40.593,M,3.8,0123*6B
$GPVTG,001.79,T,-638.11,M,004.683,N,008.672,K,D*0B
$GPGGA,081341.05,5703.2553665,N,00951.7969022,E,2,11,0.7,-1.395,M,40.593,M,1.5,0123*69
$GPVTG,002.47,T,-637.43,M,004.652,N,008.616,K,D*03
$GPGGA,081341.10,5703.2554297,N,00951.7969080,E,2,11,0.7,-1.397,M,40.593,M,1.5,0123*69
$GPVTG,003.07,T,-636.83,M,004.624,N,008.563,K,D*0B
$GPGGA,081341.15,5703.2554937,N,00951.7969146,E,2,11,0.7,-1.398,M,40.593,M,1.5,0123*69
$GPVTG,003.55,T,-636.35,M,004.622,N,008.560,K,D*04
$GPGGA,081341.20,5703.2555581,N,00951.7969223,E,2,11,0.7,-1.397,M,40.593,M,1.5,0123*60
$GPVTG,004.05,T,-635.85,M,004.637,N,008.587,K,D*03
$GPGGA,081341.25,5703.2556222,N,00951.7969301,E,2,11,0.7,-1.395,M,40.593,M,1.7,0123*69
$GPVTG,004.33,T,-635.57,M,004.637,N,008.589,K,D*07
$GPGGA,081341.30,5703.2556856,N,00951.7969386,E,2,11,0.7,-1.395,M,40.593,M,1.7,0123*6B
$GPVTG,004.60,T,-635.30,M,004.621,N,008.558,K,D*0B
$GPGGA,081341.35,5703.2557498,N,00951.7969499,E,2,11,0.7,-1.395,M,40.593,M,1.7,0123*68
$GPVTG,005.34,T,-634.56,M,004.632,N,008.578,K,D*0A
$GPGGA,081341.40,5703.2558129,N,00951.7969624,E,2,11,0.7,-1.397,M,40.593,M,1.7,0123*6C
$GPVTG,006.12,T,-633.78,M,004.613,N,008.543,K,D*0D
$GPGGA,081341.45,5703.2558763,N,00951.7969741,E,2,11,0.7,-1.398,M,40.593,M,2.0,0123*68
$GPVTG,006.37,T,-633.53,M,004.604,N,008.527,K,D*07
$GPGGA,081341.50,5703.2559407,N,00951.7969861,E,2,11,0.7,-1.398,M,40.593,M,2.0,0123*61
$GPVTG,006.46,T,-633.44,M,004.626,N,008.568,K,D*0C
$GPGGA,081341.55,5703.2560049,N,00951.7970009,E,2,11,0.7,-1.399,M,40.593,M,2.0,0123*6F
$GPVTG,007.09,T,-632.81,M,004.646,N,008.605,K,D*00
$GPGGA,081341.60,5703.2560688,N,00951.7970189,E,2,11,0.7,-1.398,M,40.593,M,2.0,0123*6A
$GPVTG,008.24,T,-631.66,M,004.661,N,008.633,K,D*0A
$GPGGA,081341.65,5703.2561315,N,00951.7970369,E,2,11,0.7,-1.399,M,40.593,M,2.2,0123*60
$GPVTG,009.01,T,-630.89,M,004.637,N,008.588,K,D*0C
$GPGGA,081341.70,5703.2561947,N,00951.7970550,E,2,11,0.7,-1.400,M,40.593,M,2.2,0123*62
$GPVTG,009.42,T,-630.48,M,004.630,N,008.575,K,D*03
$GPGGA,081341.75,5703.2562568,N,00951.7970737,E,2,11,0.7,-1.402,M,40.593,M,2.2,0123*64
$GPVTG,009.82,T,-630.08,M,004.593,N,008.507,K,D*04
$GPGGA,081341.80,5703.2563194,N,00951.7970933,E,2,11,0.7,-1.405,M,40.593,M,2.2,0123*65
$GPVTG,010.15,T,-629.75,M,004.584,N,008.489,K,D*01
$GPGGA,081341.85,5703.2563827,N,00951.7971130,E,2,11,0.7,-1.404,M,40.593,M,2.4,0123*6C
$GPVTG,010.24,T,-629.66,M,004.602,N,008.523,K,D*0D
$GPGGA,081341.90,5703.2564461,N,00951.7971331,E,2,11,0.7,-1.404,M,40.593,M,2.4,0123*62
$GPVTG,010.34,T,-629.56,M,004.615,N,008.548,K,D*04
$GPGGA,081341.95,5703.2565093,N,00951.7971540,E,2,11,0.7,-1.402,M,40.593,M,2.4,0123*69
$GPVTG,010.51,T,-629.39,M,004.623,N,008.561,K,D*00
$GPGGA,081342.00,5703.2565719,N,00951.7971776,E,2,11,0.7,-1.402,M,40.593,M,2.4,0123*64
$GPVTG,011.28,T,-628.62,M,004.623,N,008.561,K,D*00
$GPGGA,081342.05,5703.2566353,N,00951.7971992,E,2,11,0.7,-1.395,M,40.593,M,1.5,0123*67
$GPVTG,011.61,T,-628.29,M,004.613,N,008.544,K,D*06
$GPGGA,081342.10,5703.2566982,N,00951.7972250,E,2,11,0.7,-1.393,M,40.593,M,1.5,0123*65
$GPVTG,012.40,T,-627.50,M,004.630,N,008.574,K,D*05
$GPGGA,081342.15,5703.2567604,N,00951.7972508,E,2,11,0.7,-1.392,M,40.593,M,1.5,0123*6B
$GPVTG,012.94,T,-626.96,M,004.623,N,008.561,K,D*01
$GPGGA,081342.20,5703.2568242,N,00951.7972756,E,2,11,0.7,-1.392,M,40.593,M,1.5,0123*6D
$GPVTG,012.82,T,-627.08,M,004.656,N,008.622,K,D*06
$GPGGA,081342.25,5703.2568849,N,00951.7973040,E,2,11,0.7,-1.398,M,40.593,M,1.7,0123*60
$GPVTG,013.59,T,-626.31,M,004.641,N,008.595,K,D*03
$GPGGA,081342.30,5703.2569465,N,00951.7973340,E,2,11,0.7,-1.399,M,40.593,M,1.7,0123*65
$GPVTG,014.53,T,-625.37,M,004.629,N,008.573,K,D*0D
$GPGGA,081342.35,5703.2570083,N,00951.7973648,E,2,11,0.7,-1.401,M,40.593,M,1.7,0123*6F
$GPVTG,015.27,T,-624.63,M,004.627,N,008.569,K,D*0A
$GPGGA,081342.40,5703.2570715,N,00951.7973964,E,2,11,0.7,-1.402,M,40.593,M,1.7,0123*67
$GPVTG,015.75,T,-624.15,M,004.671,N,008.650,K,D*06
$GPGGA,081342.45,5703.2571332,N,00951.7974290,E,2,11,0.7,-1.402,M,40.593,M,1.9,0123*6B
$GPVTG,016.34,T,-623.56,M,004.659,N,008.628,K,D*05
$GPGGA,081342.50,5703.2571942,N,00951.7974618,E,2,11,0.7,-1.404,M,40.593,M,1.9,0123*60
$GPVTG,016.75,T,-623.15,M,004.634,N,008.583,K,D*0E
$GPGGA,081342.55,5703.2572561,N,00951.7974958,E,2,11,0.7,-1.404,M,40.593,M,1.9,0123*60
$GPVTG,017.12,T,-622.78,M,004.645,N,008.603,K,D*09
$GPGGA,081342.60,5703.2573164,N,00951.7975318,E,2,11,0.7,-1.406,M,40.593,M,1.9,0123*6B
$GPVTG,017.91,T,-621.99,M,004.619,N,008.555,K,D*07
$GPGGA,081342.65,5703.2573785,N,00951.7975683,E,2,11,0.7,-1.402,M,40.593,M,2.2,0123*6C
$GPVTG,018.44,T,-621.46,M,004.632,N,008.579,K,D*05
$GPGGA,081342.70,5703.2574392,N,00951.7976066,E,2,11,0.7,-1.403,M,40.593,M,2.2,0123*62
$GPVTG,019.09,T,-620.81,M,004.635,N,008.584,K,D*02
$GPGGA,081342.75,5703.2574997,N,00951.7976447,E,2,11,0.7,-1.403,M,40.593,M,2.2,0123*6F
$GPVTG,019.46,T,-620.44,M,004.626,N,008.568,K,D*00
$GPGGA,081342.80,5703.2575603,N,00951.7976831,E,2,11,0.7,-1.401,M,40.593,M,2.2,0123*69
$GPVTG,019.66,T,-620.24,M,004.626,N,008.567,K,D*0B
$GPGGA,081342.85,5703.2576202,N,00951.7977231,E,2,11,0.7,-1.401,M,40.593,M,2.4,0123*67
$GPVTG,020.12,T,-619.78,M,004.617,N,008.550,K,D*07
$GPGGA,081342.90,5703.2576792,N,00951.7977651,E,2,11,0.7,-1.400,M,40.593,M,2.4,0123*6C
$GPVTG,020.99,T,-618.91,M,004.594,N,008.508,K,D*07
$GPGGA,081342.95,5703.2577395,N,00951.7978076,E,2,11,0.7,-1.397,M,40.593,M,2.4,0123*6E
$GPVTG,021.43,T,-618.47,M,004.619,N,008.555,K,D*04
$GPGGA,081343.00,5703.2577989,N,00951.7978510,E,2,11,0.7,-1.397,M,40.593,M,2.4,0123*61
$GPVTG,021.95,T,-617.95,M,004.618,N,008.552,K,D*09
$GPGGA,081343.05,5703.2578579,N,00951.7978941,E,2,11,0.7,-1.395,M,40.593,M,2.6,0123*60
$GPVTG,022.35,T,-617.55,M,004.625,N,008.565,K,D*06
$GPGGA,081343.10,5703.2579167,N,00951.7979394,E,2,11,0.7,-1.396,M,40.593,M,2.6,0123*6E
$GPVTG,022.91,T,-616.99,M,004.618,N,008.553,K,D*02
$GPGGA,081343.15,5703.2579762,N,00951.7979845,E,2,11,0.7,-1.396,M,40.593,M,2.6,0123*6F
$GPVTG,023.09,T,-616.81,M,004.630,N,008.575,K,D*05
$GPGGA,081343.20,5703.2580344,N,00951.7980311,E,2,11,0.7,-1.399,M,40.593,M,2.6,0123*6C
$GPVTG,023.61,T,-616.29,M,004.611,N,008.540,K,D*0C
$GPGGA,081343.25,5703.2580931,N,00951.7980777,E,2,11,0.7,-1.397,M,40.593,M,2.8,0123*65
$GPVTG,023.90,T,-616.00,M,004.607,N,008.532,K,D*0B
$GPGGA,081343.30,5703.2581514,N,00951.7981266,E,2,11,0.7,-1.397,M,40.593,M,2.8,0123*6F
$GPVTG,024.55,T,-615.35,M,004.614,N,008.546,K,D*01
$GPGGA,081343.35,5703.2582095,N,00951.7981758,E,2,11,0.7,-1.397,M,40.593,M,2.8,0123*6D
$GPVTG,025.00,T,-614.90,M,004.616,N,008.549,K,D*03
$GPGGA,081343.40,5703.2582673,N,00951.7982261,E,2,11,0.7,-1.398,M,40.593,M,2.8,0123*62
$GPVTG,025.53,T,-614.37,M,004.618,N,008.553,K,D*0D
$GPGGA,081343.45,5703.2583250,N,00951.7982772,E,2,11,0.7,-1.400,M,40.593,M,3.0,0123*6B
$GPVTG,026.00,T,-613.90,M,004.621,N,008.558,K,D*03
$GPGGA,081343.50,5703.2583814,N,00951.7983303,E,2,11,0.7,-1.402,M,40.593,M,3.0,0123*64
$GPVTG,026.91,T,-612.99,M,004.603,N,008.525,K,D*09
$GPGGA,081343.55,5703.2584375,N,00951.7983836,E,2,11,0.7,-1.402,M,40.593,M,3.0,0123*67
$GPVTG,027.56,T,-612.34,M,004.583,N,008.488,K,D*09
$GPGGA,081343.60,5703.2584943,N,00951.7984371,E,2,11,0.7,-1.403,M,40.593,M,3.0,0123*60
$GPVTG,027.84,T,-612.06,M,004.589,N,008.498,K,D*0C
$GPGGA,081343.65,5703.2585510,N,00951.7984912,E,2,11,0.7,-1.398,M,40.593,M,3.2,0123*66
$GPVTG,028.17,T,-611.73,M,004.609,N,008.536,K,D*06
$GPGGA,081343.70,5703.2586068,N,00951.7985474,E,2,11,0.7,-1.399,M,40.593,M,3.2,0123*66
$GPVTG,028.82,T,-611.08,M,004.605,N,008.528,K,D*05
$GPGGA,081343.75,5703.2586621,N,00951.7986052,E,2,11,0.7,-1.399,M,40.593,M,3.2,0123*6B
$GPVTG,029.60,T,-610.30,M,004.603,N,008.525,K,D*09
$GPGGA,081343.80,5703.2587174,N,00951.7986627,E,2,11,0.7,-1.399,M,40.593,M,3.2,0123*63
$GPVTG,030.01,T,-609.89,M,004.594,N,008.508,K,D*0E
$GPGGA,081343.85,5703.2587715,N,00951.7987214,E,2,11,0.7,-1.403,M,40.593,M,3.4,0123*60
$GPVTG,030.59,T,-609.31,M,004.582,N,008.487,K,D*01
$GPGGA,081343.90,5703.2588262,N,00951.7987816,E,2,11,0.7,-1.404,M,40.593,M,3.4,0123*61
$GPVTG,031.19,T,-608.71,M,004.588,N,008.497,K,D*0A
$GPGGA,081343.95,5703.2588809,N,00951.7988429,E,2,11,0.7,-1.404,M,40.593,M,3.4,0123*6C
$GPVTG,031.74,T,-608.16,M,004.606,N,008.529,K,D*01
$GPGGA,081344.00,5703.2589354,N,00951.7989034,E,2,11,0.7,-1.404,M,40.593,M,3.4,0123*6C
$GPVTG,031.87,T,-608.03,M,004.603,N,008.525,K,D*00
$GPGGA,081344.05,5703.2589898,N,00951.7989643,E,2,11,0.7,-1.403,M,40.593,M,2.9,0123*6F
$GPVTG,032.32,T,-607.58,M,004.616,N,008.549,K,D*02
$GPGGA,081344.10,5703.2590431,N,00951.7990270,E,2,11,0.7,-1.405,M,40.593,M,2.9,0123*66
$GPVTG,032.81,T,-607.09,M,004.596,N,008.513,K,D*0A
$GPGGA,081344.15,5703.2590960,N,00951.7990921,E,2,11,0.7,-1.406,M,40.593,M,2.9,0123*66
$GPVTG,033.65,T,-606.25,M,004.600,N,008.518,K,D*09
$GPGGA,081344.20,5703.2591488,N,00951.7991569,E,2,11,0.7,-1.407,M,40.593,M,2.9,0123*6A
$GPVTG,034.13,T,-605.77,M,004.591,N,008.503,K,D*0A
$GPGGA,081344.25,5703.2592020,N,00951.7992216,E,2,11,0.7,-1.405,M,40.593,M,3.1,0123*6D
$GPVTG,034.37,T,-605.53,M,004.589,N,008.498,K,D*00
$GPGGA,081344.30,5703.2592550,N,00951.7992885,E,2,11,0.7,-1.405,M,40.593,M,3.1,0123*6B
$GPVTG,034.81,T,-605.09,M,004.612,N,008.541,K,D*06
$GPGGA,081344.35,5703.2593076,N,00951.7993566,E,2,11,0.7,-1.405,M,40.593,M,3.1,0123*6F
$GPVTG,035.33,T,-604.57,M,004.633,N,008.580,K,D*0A
$GPGGA,081344.40,5703.2593600,N,00951.7994230,E,2,11,0.7,-1.403,M,40.593,M,3.1,0123*6F
$GPVTG,035.37,T,-604.53,M,004.618,N,008.553,K,D*0D
$GPGGA,081344.45,5703.2594123,N,00951.7994906,E,2,11,0.7,-1.402,M,40.593,M,3.4,0123*61
$GPVTG,035.51,T,-604.39,M,004.620,N,008.556,K,D*0F
$GPGGA,081344.50,5703.2594645,N,00951.7995593,E,2,11,0.7,-1.402,M,40.593,M,3.4,0123*63
$GPVTG,035.85,T,-604.05,M,004.628,N,008.571,K,D*04
$GPGGA,081344.55,5703.2595149,N,00951.7996296,E,2,11,0.7,-1.403,M,40.593,M,3.4,0123*6C
$GPVTG,036.73,T,-603.17,M,004.606,N,008.529,K,D*0B
$GPGGA,081344.60,5703.2595651,N,00951.7997001,E,2,11,0.7,-1.402,M,40.593,M,3.4,0123*68
$GPVTG,037.39,T,-602.51,M,004.585,N,008.492,K,D*0E
$GPGGA,081344.65,5703.2596150,N,00951.7997711,E,2,11,0.7,-1.402,M,40.593,M,3.6,0123*6C
$GPVTG,037.94,T,-601.96,M,004.570,N,008.463,K,D*05
$GPGGA,081344.70,5703.2596655,N,00951.7998430,E,2,11,0.7,-1.401,M,40.593,M,3.6,0123*66
$GPVTG,038.28,T,-601.62,M,004.582,N,008.487,K,D*01
$GPGGA,081344.75,5703.2597150,N,00951.7999160,E,2,11,0.7,-1.402,M,40.593,M,3.6,0123*62
$GPVTG,038.87,T,-601.03,M,004.582,N,008.487,K,D*03
$GPGGA,081344.80,5703.2597647,N,00951.7999913,E,2,11,0.7,-1.402,M,40.593,M,3.6,0123*65
$GPVTG,039.62,T,-600.28,M,004.612,N,008.542,K,D*03
$GPGGA,081344.85,5703.2598140,N,00951.8000667,E,2,11,0.7,-1.402,M,40.593,M,3.8,0123*6B
$GPVTG,040.18,T,-599.72,M,004.624,N,008.564,K,D*0D
$GPGGA,081344.90,5703.2598619,N,00951.8001429,E,2,11,0.7,-1.403,M,40.593,M,3.8,0123*6C
$GPVTG,040.93,T,-598.97,M,004.609,N,008.536,K,D*0C
$GPGGA,081344.95,5703.2599086,N,00951.8002184,E,2,11,0.7,-1.404,M,40.593,M,3.8,0123*6E
$GPVTG,041.57,T,-598.33,M,004.556,N,008.437,K,D*02
$GPGGA,081345.00,5703.2599556,N,00951.8002961,E,2,11,0.7,-1.406,M,40.593,M,3.8,0123*6A
$GPVTG,042.24,T,-597.66,M,004.556,N,008.438,K,D*05
$GPGGA,081345.05,5703.2600024,N,00951.8003721,E,2,11,0.7,-1.403,M,40.593,M,1.5,0123*6D
$GPVTG,042.65,T,-597.25,M,004.545,N,008.417,K,D*08
$GPGGA,081345.10,5703.2600487,N,00951.8004499,E,2,11,0.7,-1.403,M,40.593,M,1.5,0123*63
$GPVTG,043.00,T,-596.91,M,004.533,N,008.396,K,D*0B
$GPGGA,081345.15,5703.2600948,N,00951.8005291,E,2,11,0.7,-1.402,M,40.593,M,1.5,0123*66
$GPVTG,043.45,T,-596.45,M,004.536,N,008.401,K,D*0F
$GPGGA,081345.20,5703.2601403,N,00951.8006096,E,2,11,0.7,-1.402,M,40.593,M,1.5,0123*65
$GPVTG,044.11,T,-595.79,M,004.543,N,008.414,K,D*03
$GPGGA,081345.25,5703.2601841,N,00951.8006901,E,2,11,0.7,-1.403,M,40.593,M,1.7,0123*6E
$GPVTG,044.96,T,-594.94,M,004.512,N,008.356,K,D*0B
$GPGGA,081345.30,5703.2602279,N,00951.8007723,E,2,11,0.7,-1.403,M,40.593,M,1.7,0123*67
$GPVTG,045.76,T,-594.14,M,004.511,N,008.355,K,D*0C
$GPGGA,081345.35,5703.2602713,N,00951.8008531,E,2,11,0.7,-1.401,M,40.593,M,1.7,0123*67
$GPVTG,046.09,T,-593.81,M,004.482,N,008.301,K,D*06
$GPGGA,081345.40,5703.2603153,N,00951.8009367,E,2,11,0.7,-1.400,M,40.593,M,1.7,0123*63
$GPVTG,046.51,T,-593.39,M,004.515,N,008.361,K,D*01
$GPGGA,081345.45,5703.2603587,N,00951.8010196,E,2,11,0.7,-1.399,M,40.593,M,2.0,0123*6C
$GPVTG,046.79,T,-593.11,M,004.516,N,008.363,K,D*00
$GPGGA,081345.50,5703.2604019,N,00951.8011034,E,2,11,0.7,-1.400,M,40.593,M,2.0,0123*62
$GPVTG,047.08,T,-592.82,M,004.524,N,008.378,K,D*07
$GPGGA,081345.55,5703.2604446,N,00951.8011889,E,2,11,0.7,-1.399,M,40.593,M,2.0,0123*60
$GPVTG,047.64,T,-592.26,M,004.542,N,008.413,K,D*09
$GPGGA,081345.60,5703.2604860,N,00951.8012745,E,2,11,0.7,-1.400,M,40.593,M,2.0,0123*65
$GPVTG,048.32,T,-591.58,M,004.528,N,008.386,K,D*08
$GPGGA,081345.65,5703.2605273,N,00951.8013590,E,2,11,0.7,-1.402,M,40.593,M,2.2,0123*62
$GPVTG,048.49,T,-591.41,M,004.521,N,008.372,K,D*0E
$GPGGA,081345.70,5703.2605680,N,00951.8014465,E,2,11,0.7,-1.401,M,40.593,M,2.2,0123*61
$GPVTG,049.27,T,-590.63,M,004.524,N,008.378,K,D*09
$GPGGA,081345.75,5703.2606083,N,00951.8015341,E,2,11,0.7,-1.402,M,40.593,M,2.2,0123*61
$GPVTG,049.94,T,-589.96,M,004.518,N,008.368,K,D*0D
$GPGGA,081345.80,5703.2606476,N,00951.8016213,E,2,11,0.7,-1.401,M,40.593,M,2.2,0123*63
$GPVTG,050.55,T,-589.35,M,004.485,N,008.306,K,D*0C
$GPGGA,081345.85,5703.2606876,N,00951.8017091,E,2,11,0.7,-1.397,M,40.593,M,2.4,0123*6D
$GPVTG,050.91,T,-588.99,M,004.478,N,008.294,K,D*0B
$GPGGA,081345.90,5703.2607268,N,00951.8017961,E,2,11,0.7,-1.396,M,40.593,M,2.4,0123*6A
$GPVTG,051.06,T,-588.84,M,004.454,N,008.249,K,D*06
$GPGGA,081345.95,5703.2607650,N,00951.8018829,E,2,11,0.7,-1.396,M,40.593,M,2.4,0123*62
$GPVTG,051.39,T,-588.51,M,004.414,N,008.176,K,D*09
$GPGGA,081346.00,5703.2608039,N,00951.8019702,E,2,11,0.7,-1.392,M,40.593,M,2.4,0123*68
$GPVTG,051.42,T,-588.48,M,004.408,N,008.163,K,D*04
$GPGGA,081346.05,5703.2608422,N,00951.8020588,E,2,11,0.7,-1.385,M,40.593,M,1.5,0123*6D
$GPVTG,052.04,T,-587.86,M,004.426,N,008.197,K,D*0F
$GPGGA,081346.10,5703.2608799,N,00951.8021490,E,2,11,0.7,-1.383,M,40.593,M,1.5,0123*65
$GPVTG,052.56,T,-587.34,M,004.443,N,008.228,K,D*05
$GPGGA,081346.15,5703.2609168,N,00951.8022404,E,2,11,0.7,-1.383,M,40.593,M,1.5,0123*67
$GPVTG,053.32,T,-586.58,M,004.457,N,008.254,K,D*03
$GPGGA,081346.20,5703.2609526,N,00951.8023323,E,2,11,0.7,-1.384,M,40.593,M,1.5,0123*6B
$GPVTG,054.21,T,-585.69,M,004.455,N,008.251,K,D*00
$GPGGA,081346.25,5703.2609884,N,00951.8024254,E,2,11,0.7,-1.385,M,40.593,M,1.7,0123*6E
$GPVTG,054.89,T,-585.01,M,004.472,N,008.281,K,D*04
$GPGGA,081346.30,5703.2610236,N,00951.8025185,E,2,11,0.7,-1.386,M,40.593,M,1.7,0123*6C
$GPVTG,055.52,T,-584.38,M,004.468,N,008.274,K,D*09
$GPGGA,081346.35,5703.2610590,N,00951.8026120,E,2,11,0.7,-1.388,M,40.593,M,1.7,0123*60
$GPVTG,055.87,T,-584.03,M,004.475,N,008.288,K,D*06
$GPGGA,081346.40,5703.2610935,N,00951.8027065,E,2,11,0.7,-1.391,M,40.593,M,1.7,0123*68
$GPVTG,056.42,T,-583.48,M,004.479,N,008.296,K,D*07
$GPGGA,081346.45,5703.2611267,N,00951.8028004,E,2,11,0.7,-1.400,M,40.593,M,1.9,0123*69
$GPVTG,056.83,T,-583.07,M,004.464,N,008.268,K,D*0C
$GPGGA,081346.50,5703.2611609,N,00951.8028941,E,2,11,0.7,-1.401,M,40.593,M,1.9,0123*68
$GPVTG,056.94,T,-582.96,M,004.447,N,008.236,K,D*09
$GPGGA,081346.55,5703.2611942,N,00951.8029888,E,2,11,0.7,-1.403,M,40.593,M,1.9,0123*6A
$GPVTG,057.38,T,-582.52,M,004.437,N,008.218,K,D*0D
$GPGGA,081346.60,5703.2612261,N,00951.8030843,E,2,11,0.7,-1.404,M,40.593,M,1.9,0123*6D
$GPVTG,058.20,T,-581.70,M,004.418,N,008.183,K,D*04
$GPGGA,081346.65,5703.2612578,N,00951.8031794,E,2,11,0.7,-1.402,M,40.593,M,2.2,0123*6D
$GPVTG,058.97,T,-580.93,M,004.389,N,008.128,K,D*0A
$GPGGA,081346.70,5703.2612902,N,00951.8032745,E,2,11,0.7,-1.402,M,40.593,M,2.2,0123*67
$GPVTG,058.96,T,-580.94,M,004.388,N,008.126,K,D*03
$GPGGA,081346.75,5703.2613213,N,00951.8033711,E,2,11,0.7,-1.403,M,40.593,M,2.2,0123*69
$GPVTG,059.55,T,-580.35,M,004.391,N,008.133,K,D*0A
$GPGGA,081346.80,5703.2613520,N,00951.8034671,E,2,11,0.7,-1.403,M,40.593,M,2.2,0123*64
$GPVTG,059.92,T,-579.98,M,004.379,N,008.110,K,D*07
$GPGGA,081346.85,5703.2613808,N,00951.8035646,E,2,11,0.7,-1.405,M,40.593,M,2.4,0123*63
$GPVTG,060.85,T,-579.05,M,004.372,N,008.096,K,D*0B
$GPGGA,081346.90,5703.2614094,N,00951.8036627,E,2,11,0.7,-1.404,M,40.593,M,2.4,0123*68
$GPVTG,061.73,T,-578.17,M,004.370,N,008.093,K,D*06
$GPGGA,081346.95,5703.2614374,N,00951.8037597,E,2,11,0.7,-1.406,M,40.593,M,2.4,0123*6B
$GPVTG,062.37,T,-577.53,M,004.341,N,008.040,K,D*06
$GPGGA,081347.00,5703.2614663,N,00951.8038591,E,2,11,0.7,-1.405,M,40.593,M,2.4,0123*6F
$GPVTG,062.71,T,-577.19,M,004.375,N,008.103,K,D*0B
$GPGGA,081347.05,5703.2614937,N,00951.8039573,E,2,11,0.7,-1.402,M,40.593,M,2.6,0123*6C
$GPVTG,063.31,T,-576.59,M,004.381,N,008.114,K,D*06
$GPGGA,081347.10,5703.2615203,N,00951.8040567,E,2,11,0.7,-1.403,M,40.593,M,2.6,0123*6F
$GPVTG,064.00,T,-575.90,M,004.371,N,008.095,K,D*02
$GPGGA,081347.15,5703.2615479,N,00951.8041566,E,2,11,0.7,-1.401,M,40.593,M,2.6,0123*63
$GPVTG,064.08,T,-575.82,M,004.384,N,008.119,K,D*06
$GPGGA,081347.20,5703.2615735,N,00951.8042566,E,2,11,0.7,-1.401,M,40.593,M,2.6,0123*6D
$GPVTG,064.78,T,-575.12,M,004.367,N,008.087,K,D*03
$GPGGA,081347.25,5703.2615994,N,00951.8043567,E,2,11,0.7,-1.398,M,40.593,M,2.8,0123*64
$GPVTG,065.39,T,-574.51,M,004.354,N,008.063,K,D*0B
$GPGGA,081347.30,5703.2616251,N,00951.8044575,E,2,11,0.7,-1.396,M,40.593,M,2.8,0123*6B
$GPVTG,065.61,T,-574.29,M,004.361,N,008.077,K,D*0A
$GPGGA,081347.35,5703.2616499,N,00951.8045595,E,2,11,0.7,-1.397,M,40.593,M,2.8,0123*62
$GPVTG,066.17,T,-573.73,M,004.375,N,008.103,K,D*07
$GPGGA,081347.40,5703.2616742,N,00951.8046629,E,2,11,0.7,-1.398,M,40.593,M,2.8,0123*6D
$GPVTG,066.76,T,-573.14,M,004.404,N,008.155,K,D*03
$GPGGA,081347.45,5703.2616977,N,00951.8047643,E,2,11,0.7,-1.400,M,40.593,M,3.0,0123*62
$GPVTG,067.21,T,-572.69,M,004.378,N,008.108,K,D*0F
$GPGGA,081347.50,5703.2617217,N,00951.8048667,E,2,11,0.7,-1.398,M,40.593,M,3.0,0123*65
$GPVTG,067.38,T,-572.52,M,004.380,N,008.111,K,D*00
$GPGGA,081347.55,5703.2617432,N,00951.8049703,E,2,11,0.7,-1.397,M,40.593,M,3.0,0123*6C
$GPVTG,068.49,T,-571.41,M,004.374,N,008.101,K,D*02
$GPGGA,081347.60,5703.2617642,N,00951.8050732,E,2,11,0.7,-1.397,M,40.593,M,3.0,0123*65
$GPVTG,069.38,T,-570.52,M,004.348,N,008.052,K,D*0E
$GPGGA,081347.65,5703.2617844,N,00951.8051753,E,2,11,0.7,-1.399,M,40.593,M,3.2,0123*62
$GPVTG,070.10,T,-569.80,M,004.332,N,008.024,K,D*07
$GPGGA,081347.70,5703.2618049,N,00951.8052806,E,2,11,0.7,-1.399,M,40.593,M,3.2,0123*60
$GPVTG,070.77,T,-569.13,M,004.358,N,008.071,K,D*00
$GPGGA,081347.75,5703.2618257,N,00951.8053846,E,2,11,0.7,-1.399,M,40.593,M,3.2,0123*6D
$GPVTG,070.88,T,-569.02,M,004.355,N,008.065,K,D*08
$GPGGA,081347.80,5703.2618451,N,00951.8054877,E,2,11,0.7,-1.401,M,40.593,M,3.2,0123*64
$GPVTG,071.32,T,-568.58,M,004.325,N,008.009,K,D*0B
$GPGGA,081347.85,5703.2618645,N,00951.8055926,E,2,11,0.7,-1.404,M,40.593,M,3.4,0123*61
$GPVTG,071.68,T,-568.22,M,004.336,N,008.031,K,D*00
$GPGGA,081347.90,5703.2618832,N,00951.8056990,E,2,11,0.7,-1.406,M,40.593,M,3.4,0123*67
$GPVTG,072.26,T,-567.64,M,004.363,N,008.079,K,D*08
$GPGGA,081347.95,5703.2619017,N,00951.8058042,E,2,11,0.7,-1.406,M,40.593,M,3.4,0123*64
$GPVTG,072.59,T,-567.31,M,004.358,N,008.071,K,D*00
$GPGGA,081348.00,5703.2619195,N,00951.8059092,E,2,11,0.7,-1.404,M,40.593,M,3.4,0123*62
$GPVTG,073.01,T,-566.89,M,004.344,N,008.045,K,D*04
$GPGGA,081348.05,5703.2619348,N,00951.8060131,E,2,11,0.7,-1.403,M,40.593,M,2.9,0123*6C
$GPVTG,074.10,T,-565.80,M,004.316,N,007.994,K,D*04
$GPGGA,081348.10,5703.2619501,N,00951.8061172,E,2,11,0.7,-1.398,M,40.593,M,2.9,0123*60
$GPVTG,074.93,T,-564.97,M,004.275,N,007.917,K,D*07
$GPGGA,081348.15,5703.2619634,N,00951.8062211,E,2,11,0.7,-1.396,M,40.593,M,2.9,0123*6B
$GPVTG,076.22,T,-563.68,M,004.228,N,007.830,K,D*04
$GPGGA,081348.20,5703.2619782,N,00951.8063267,E,2,11,0.7,-1.394,M,40.593,M,2.9,0123*63
$GPVTG,076.58,T,-563.32,M,004.238,N,007.849,K,D*09
$GPGGA,081348.25,5703.2619915,N,00951.8064325,E,2,11,0.7,-1.398,M,40.593,M,3.1,0123*63
$GPVTG,077.11,T,-562.79,M,004.250,N,007.870,K,D*0F
$GPGGA,081348.30,5703.2620051,N,00951.8065393,E,2,11,0.7,-1.397,M,40.593,M,3.1,0123*67
$GPVTG,077.55,T,-562.35,M,004.275,N,007.917,K,D*00
$GPGGA,081348.35,5703.2620178,N,00951.8066450,E,2,11,0.7,-1.397,M,40.593,M,3.1,0123*63
$GPVTG,078.05,T,-561.85,M,004.267,N,007.902,K,D*05
$GPGGA,081348.40,5703.2620301,N,00951.8067534,E,2,11,0.7,-1.399,M,40.593,M,3.1,0123*61
$GPVTG,078.59,T,-561.31,M,004.307,N,007.976,K,D*07
$GPGGA,081348.45,5703.2620433,N,00951.8068604,E,2,11,0.7,-1.397,M,40.593,M,3.4,0123*66
$GPVTG,078.68,T,-561.22,M,004.311,N,007.983,K,D*0A
$GPGGA,081348.50,5703.2620549,N,00951.8069672,E,2,11,0.7,-1.399,M,40.593,M,3.4,0123*60
$GPVTG,079.07,T,-560.83,M,004.304,N,007.970,K,D*00
$GPGGA,081348.55,5703.2620652,N,00951.8070739,E,2,11,0.7,-1.398,M,40.593,M,3.4,0123*6B
$GPVTG,079.81,T,-560.09,M,004.287,N,007.939,K,D*0B
$GPGGA,081348.60,5703.2620739,N,00951.8071810,E,2,11,0.7,-1.400,M,40.593,M,3.4,0123*62
$GPVTG,080.97,T,-558.93,M,004.273,N,007.914,K,D*06
$GPGGA,081348.65,5703.2620824,N,00951.8072875,E,2,11,0.7,-1.403,M,40.593,M,3.6,0123*65
$GPVTG,081.73,T,-558.17,M,004.252,N,007.875,K,D*04
$GPGGA,081348.70,5703.2620909,N,00951.8073958,E,2,11,0.7,-1.404,M,40.593,M,3.6,0123*67
$GPVTG,082.32,T,-557.58,M,004.271,N,007.910,K,D*05
$GPGGA,081348.75,5703.2620996,N,00951.8075039,E,2,11,0.7,-1.405,M,40.593,M,3.6,0123*6D
$GPVTG,082.49,T,-557.41,M,004.284,N,007.934,K,D*0D
$GPGGA,081348.80,5703.2621075,N,00951.8076124,E,2,11,0.7,-1.405,M,40.593,M,3.6,0123*6C
$GPVTG,082.89,T,-557.01,M,004.297,N,007.957,K,D*02
$GPGGA,081348.85,5703.2621155,N,00951.8077194,E,2,11,0.7,-1.402,M,40.593,M,3.8,0123*69
$GPVTG,083.18,T,-556.72,M,004.274,N,007.915,K,D*05
$GPGGA,081348.90,5703.2621224,N,00951.8078258,E,2,11,0.7,-1.402,M,40.593,M,3.8,0123*64
$GPVTG,083.55,T,-556.35,M,004.243,N,007.857,K,D*0C
$GPGGA,081348.95,5703.2621280,N,00951.8079334,E,2,11,0.7,-1.402,M,40.593,M,3.8,0123*65
$GPVTG,084.32,T,-555.58,M,004.241,N,007.854,K,D*03
$GPGGA,081349.00,5703.2621341,N,00951.8080415,E,2,11,0.7,-1.401,M,40.593,M,3.8,0123*65
$GPVTG,084.65,T,-555.25,M,004.251,N,007.873,K,D*0F
$GPGGA,081349.05,5703.2621384,N,00951.8081479,E,2,11,0.7,-1.399,M,40.593,M,1.5,0123*6B
$GPVTG,085.43,T,-554.47,M,004.248,N,007.868,K,D*0D
$GPGGA,081349.10,5703.2621424,N,00951.8082549,E,2,11,0.7,-1.400,M,40.593,M,1.5,0123*64
$GPVTG,086.12,T,-553.78,M,004.232,N,007.837,K,D*06
$GPGGA,081349.15,5703.2621462,N,00951.8083624,E,2,11,0.7,-1.399,M,40.593,M,1.5,0123*6D
$GPVTG,086.67,T,-553.23,M,004.230,N,007.835,K,D*0A
$GPGGA,081349.20,5703.2621497,N,00951.8084685,E,2,11,0.7,-1.398,M,40.593,M,1.5,0123*6C
$GPVTG,087.05,T,-552.85,M,004.203,N,007.783,K,D*00
$GPGGA,081349.25,5703.2621531,N,00951.8085761,E,2,11,0.7,-1.396,M,40.593,M,1.7,0123*62
$GPVTG,087.49,T,-552.41,M,004.211,N,007.800,K,D*07
$GPGGA,081349.30,5703.2621555,N,00951.8086830,E,2,11,0.7,-1.395,M,40.593,M,1.7,0123*6F
$GPVTG,087.94,T,-551.96,M,004.205,N,007.788,K,D*04
$GPGGA,081349.35,5703.2621579,N,00951.8087896,E,2,11,0.7,-1.394,M,40.593,M,1.7,0123*68
$GPVTG,088.22,T,-551.68,M,004.197,N,007.772,K,D*0A
$GPGGA,081349.40,5703.2621591,N,00951.8088961,E,2,11,0.7,-1.394,M,40.593,M,1.7,0123*6A
$GPVTG,088.83,T,-551.07,M,004.188,N,007.757,K,D*01
$GPGGA,081349.45,5703.2621586,N,00951.8090034,E,2,11,0.7,-1.397,M,40.593,M,2.0,0123*6E
$GPVTG,089.75,T,-550.15,M,004.198,N,007.774,K,D*0B
$GPGGA,081349.50,5703.2621578,N,00951.8091094,E,2,11,0.7,-1.397,M,40.593,M,2.0,0123*60
$GPVTG,090.64,T,-549.26,M,004.183,N,007.747,K,D*01
$GPGGA,081349.55,5703.2621576,N,00951.8092160,E,2,11,0.7,-1.399,M,40.593,M,2.0,0123*6C
$GPVTG,090.96,T,-548.94,M,004.184,N,007.748,K,D*0C
$GPGGA,081349.60,5703.2621568,N,00951.8093217,E,2,11,0.7,-1.400,M,40.593,M,2.0,0123*60
$GPVTG,091.35,T,-548.55,M,004.169,N,007.720,K,D*04
$GPGGA,081349.65,5703.2621559,N,00951.8094277,E,2,11,0.7,-1.397,M,40.593,M,2.2,0123*6D
$GPVTG,091.74,T,-548.16,M,004.165,N,007.713,K,D*0A
$GPGGA,081349.70,5703.2621543,N,00951.8095341,E,2,11,0.7,-1.398,M,40.593,M,2.2,0123*68
$GPVTG,092.05,T,-547.85,M,004.173,N,007.728,K,D*05
$GPGGA,081349.75,5703.2621519,N,00951.8096400,E,2,11,0.7,-1.399,M,40.593,M,2.2,0123*62
$GPVTG,092.56,T,-547.34,M,004.168,N,007.719,K,D*01
$GPGGA,081349.80,5703.2621482,N,00951.8097461,E,2,11,0.7,-1.402,M,40.593,M,2.2,0123*68
$GPVTG,093.43,T,-546.47,M,004.173,N,007.729,K,D*08
$GPGGA,081349.85,5703.2621433,N,00951.8098515,E,2,11,0.7,-1.402,M,40.593,M,2.4,0123*6C
$GPVTG,094.69,T,-545.21,M,004.167,N,007.717,K,D*0C
$GPGGA,081349.90,5703.2621381,N,00951.8099573,E,2,11,0.7,-1.405,M,40.593,M,2.4,0123*60
$GPVTG,095.45,T,-544.45,M,004.171,N,007.725,K,D*06
$GPGGA,081349.95,5703.2621322,N,00951.8100633,E,2,11,0.7,-1.407,M,40.593,M,2.4,0123*68
$GPVTG,096.18,T,-543.72,M,004.181,N,007.744,K,D*06
$GPGGA,081350.00,5703.2621256,N,00951.8101695,E,2,11,0.7,-1.410,M,40.593,M,2.4,0123*65
$GPVTG,096.90,T,-543.00,M,004.194,N,007.768,K,D*09
$GPGGA,081350.05,5703.2621205,N,00951.8102724,E,2,11,0.7,-1.403,M,40.593,M,1.5,0123*6E
$GPVTG,097.07,T,-542.83,M,004.166,N,007.716,K,D*08
$GPGGA,081350.10,5703.2621134,N,00951.8103770,E,2,11,0.7,-1.403,M,40.593,M,1.5,0123*6B
$GPVTG,097.55,T,-542.35,M,004.155,N,007.695,K,D*08
$GPGGA,081350.15,5703.2621049,N,00951.8104822,E,2,11,0.7,-1.404,M,40.593,M,1.5,0123*6D
$GPVTG,098.43,T,-541.47,M,004.166,N,007.715,K,D*0F
$GPGGA,081350.20,5703.2620953,N,00951.8105870,E,2,11,0.7,-1.407,M,40.593,M,1.5,0123*6D
$GPVTG,099.40,T,-540.50,M,004.171,N,007.724,K,D*0E
$GPGGA,081350.25,5703.2620852,N,00951.8106908,E,2,11,0.7,-1.410,M,40.593,M,1.7,0123*61
$GPVTG,100.22,T,-539.68,M,004.155,N,007.696,K,D*00
$GPGGA,081350.30,5703.2620747,N,00951.8107933,E,2,11,0.7,-1.409,M,40.593,M,1.7,0123*6F
$GPVTG,100.99,T,-538.91,M,004.128,N,007.645,K,D*03
$GPGGA,081350.35,5703.2620645,N,00951.8108939,E,2,11,0.7,-1.409,M,40.593,M,1.7,0123*6C
$GPVTG,101.40,T,-538.50,M,004.070,N,007.537,K,D*01
$GPGGA,081350.40,5703.2620540,N,00951.8109960,E,2,11,0.7,-1.408,M,40.593,M,1.7,0123*64
$GPVTG,101.61,T,-538.29,M,004.065,N,007.528,K,D*06
