
$GPGGA,081531.35,5703.2610146,N,00951.8035542,E,2,11,0.7,-1.410,M,40.593,M,2.8,0123*61
$GPVTG,090.62,T,-549.28,M,003.458,N,006.404,K,D*08
$GPGGA,081531.40,5703.2610140,N,00951.8036406,E,2,11,0.7,-1.408,M,40.593,M,2.8,0123*6E
$GPVTG,091.50,T,-548.40,M,003.446,N,006.382,K,D*01
$GPGGA,081531.45,5703.2610133,N,00951.8037254,E,2,11,0.7,-1.405,M,40.593,M,3.0,0123*6B
$GPVTG,092.26,T,-547.64,M,003.422,N,006.337,K,D*06
$GPGGA,081531.50,5703.2610119,N,00951.8038102,E,2,11,0.7,-1.403,M,40.593,M,3.0,0123*6E
$GPVTG,092.99,T,-546.91,M,003.400,N,006.297,K,D*02
$GPGGA,081531.55,5703.2610089,N,00951.8038957,E,2,11,0.7,-1.403,M,40.593,M,3.0,0123*6B
$GPVTG,093.96,T,-545.94,M,003.391,N,006.280,K,D*03
$GPGGA,081531.60,5703.2610052,N,00951.8039813,E,2,11,0.7,-1.402,M,40.593,M,3.0,0123*6A
$GPVTG,094.92,T,-544.98,M,003.386,N,006.270,K,D*04
$GPGGA,081531.65,5703.2610018,N,00951.8040678,E,2,11,0.7,-1.399,M,40.593,M,3.2,0123*6B
$GPVTG,095.63,T,-544.27,M,003.389,N,006.276,K,D*06
$GPGGA,081531.70,5703.2609980,N,00951.8041543,E,2,11,0.7,-1.399,M,40.593,M,3.2,0123*65
$GPVTG,096.25,T,-543.65,M,003.395,N,006.287,K,D*05
$GPGGA,081531.75,5703.2609925,N,00951.8042415,E,2,11,0.7,-1.400,M,40.593,M,3.2,0123*69
$GPVTG,097.10,T,-542.80,M,003.409,N,006.314,K,D*01
$GPGGA,081531.80,5703.2609866,N,00951.8043282,E,2,11,0.7,-1.403,M,40.593,M,3.2,0123*6F
$GPVTG,097.87,T,-542.03,M,003.419,N,006.332,K,D*01
$GPGGA,081531.85,5703.2609803,N,00951.8044140,E,2,11,0.7,-1.402,M,40.593,M,3.4,0123*64
$GPVTG,098.71,T,-541.19,M,003.422,N,006.337,K,D*02
$GPGGA,081531.90,5703.2609726,N,00951.8044992,E,2,11,0.7,-1.404,M,40.593,M,3.4,0123*69
$GPVTG,099.62,T,-540.28,M,003.419,N,006.333,K,D*0E
$GPGGA,081531.95,5703.2609649,N,00951.8045840,E,2,11,0.7,-1.404,M,40.593,M,3.4,0123*6B
$GPVTG,100.36,T,-539.54,M,003.414,N,006.323,K,D*07
$GPGGA,081532.00,5703.2609567,N,00951.8046683,E,2,11,0.7,-1.403,M,40.593,M,3.4,0123*6E
$GPVTG,101.08,T,-538.82,M,003.407,N,006.310,K,D*03
$GPGGA,081532.05,5703.2609475,N,00951.8047521,E,2,11,0.7,-1.401,M,40.593,M,2.9,0123*6D
$GPVTG,101.89,T,-538.01,M,003.403,N,006.302,K,D*06
$GPGGA,081532.10,5703.2609377,N,00951.8048348,E,2,11,0.7,-1.401,M,40.593,M,2.9,0123*6A
$GPVTG,102.74,T,-537.16,M,003.388,N,006.275,K,D*0B
$GPGGA,081532.15,5703.2609265,N,00951.8049174,E,2,11,0.7,-1.402,M,40.593,M,2.9,0123*62
$GPVTG,103.74,T,-536.16,M,003.380,N,006.259,K,D*0D
$GPGGA,081532.20,5703.2609137,N,00951.8050001,E,2,11,0.7,-1.404,M,40.593,M,2.9,0123*6D
$GPVTG,104.95,T,-534.95,M,003.380,N,006.260,K,D*06
$GPGGA,081532.25,5703.2609010,N,00951.8050818,E,2,11,0.7,-1.403,M,40.593,M,3.1,0123*62
$GPVTG,106.04,T,-533.86,M,003.377,N,006.253,K,D*01
$GPGGA,081532.30,5703.2608870,N,00951.8051627,E,2,11,0.7,-1.408,M,40.593,M,3.1,0123*61
$GPVTG,107.19,T,-532.71,M,003.369,N,006.240,K,D*08
$GPGGA,081532.35,5703.2608736,N,00951.8052434,E,2,11,0.7,-1.409,M,40.593,M,3.1,0123*6B
$GPVTG,108.01,T,-531.89,M,003.360,N,006.223,K,D*06
$GPGGA,081532.40,5703.2608604,N,00951.8053237,E,2,11,0.7,-1.411,M,40.593,M,3.1,0123*64
$GPVTG,108.60,T,-531.30,M,003.347,N,006.198,K,D*05
$GPGGA,081532.45,5703.2608446,N,00951.8054033,E,2,11,0.7,-1.414,M,40.593,M,3.4,0123*64
$GPVTG,109.70,T,-530.20,M,003.346,N,006.196,K,D*0A
$GPGGA,081532.50,5703.2608284,N,00951.8054834,E,2,11,0.7,-1.416,M,40.593,M,3.4,0123*65
$GPVTG,110.68,T,-529.22,M,003.350,N,006.203,K,D*09
$GPGGA,081532.55,5703.2608119,N,00951.8055609,E,2,11,0.7,-1.417,M,40.593,M,3.4,0123*67
$GPVTG,111.66,T,-528.24,M,003.334,N,006.175,K,D*01
$GPGGA,081532.60,5703.2607956,N,00951.8056370,E,2,11,0.7,-1.419,M,40.593,M,3.4,0123*6B
$GPVTG,112.49,T,-527.41,M,003.308,N,006.127,K,D*0B
$GPGGA,081532.65,5703.2607781,N,00951.8057128,E,2,11,0.7,-1.421,M,40.593,M,3.6,0123*6D
$GPVTG,113.43,T,-526.47,M,003.291,N,006.095,K,D*0E
$GPGGA,081532.70,5703.2607601,N,00951.8057888,E,2,11,0.7,-1.420,M,40.593,M,3.6,0123*62
$GPVTG,114.28,T,-525.62,M,003.282,N,006.078,K,D*01
$GPGGA,081532.75,5703.2607410,N,00951.8058645,E,2,11,0.7,-1.420,M,40.593,M,3.6,0123*65
$GPVTG,115.24,T,-524.66,M,003.279,N,006.074,K,D*01
$GPGGA,081532.80,5703.2607206,N,00951.8059406,E,2,11,0.7,-1.421,M,40.593,M,3.6,0123*6B
$GPVTG,116.29,T,-523.61,M,003.291,N,006.095,K,D*06
$GPGGA,081532.85,5703.2607007,N,00951.8060141,E,2,11,0.7,-1.421,M,40.593,M,3.8,0123*6F
$GPVTG,117.26,T,-522.64,M,003.285,N,006.084,K,D*09
$GPGGA,081532.90,5703.2606784,N,00951.8060869,E,2,11,0.7,-1.420,M,40.593,M,3.8,0123*64
$GPVTG,118.58,T,-521.32,M,003.285,N,006.085,K,D*0E
$GPGGA,081532.95,5703.2606554,N,00951.8061585,E,2,11,0.7,-1.420,M,40.593,M,3.8,0123*60
$GPVTG,119.86,T,-520.04,M,003.282,N,006.079,K,D*0C
$GPGGA,081533.00,5703.2606315,N,00951.8062314,E,2,11,0.7,-1.416,M,40.593,M,3.8,0123*66
$GPVTG,121.03,T,-518.87,M,003.299,N,006.110,K,D*0E
$GPGGA,081533.05,5703.2606119,N,00951.8062984,E,2,11,0.7,-1.412,M,40.593,M,1.5,0123*65
$GPVTG,121.85,T,-518.05,M,003.282,N,006.079,K,D*0E
$GPGGA,081533.10,5703.2605888,N,00951.8063667,E,2,11,0.7,-1.409,M,40.593,M,1.5,0123*6A
$GPVTG,122.80,T,-517.10,M,003.260,N,006.038,K,D*0A
$GPGGA,081533.15,5703.2605658,N,00951.8064346,E,2,11,0.7,-1.409,M,40.593,M,1.5,0123*6D
$GPVTG,123.57,T,-516.33,M,003.238,N,005.996,K,D*02
$GPGGA,081533.20,5703.2605412,N,00951.8065027,E,2,11,0.7,-1.407,M,40.593,M,1.5,0123*6C
$GPVTG,124.48,T,-515.42,M,003.233,N,005.987,K,D*05
$GPGGA,081533.25,5703.2605171,N,00951.8065697,E,2,11,0.7,-1.404,M,40.593,M,1.7,0123*65
$GPVTG,125.21,T,-514.69,M,003.221,N,005.966,K,D*0F
$GPGGA,081533.30,5703.2604926,N,00951.8066359,E,2,11,0.7,-1.403,M,40.593,M,1.7,0123*69
$GPVTG,125.90,T,-514.00,M,003.205,N,005.936,K,D*09
$GPGGA,081533.35,5703.2604671,N,00951.8067015,E,2,11,0.7,-1.401,M,40.593,M,1.7,0123*69
$GPVTG,126.66,T,-513.24,M,003.197,N,005.920,K,D*0D
$GPGGA,081533.40,5703.2604408,N,00951.8067658,E,2,11,0.7,-1.399,M,40.593,M,1.7,0123*6E
$GPVTG,127.57,T,-512.33,M,003.188,N,005.904,K,D*01
$GPGGA,081533.45,5703.2604137,N,00951.8068307,E,2,11,0.7,-1.404,M,40.593,M,2.0,0123*65
$GPVTG,128.25,T,-511.65,M,003.188,N,005.905,K,D*0A
$GPGGA,081533.50,5703.2603879,N,00951.8068937,E,2,11,0.7,-1.406,M,40.593,M,2.0,0123*6E
$GPVTG,128.82,T,-511.08,M,003.170,N,005.870,K,D*08
$GPGGA,081533.55,5703.2603603,N,00951.8069560,E,2,11,0.7,-1.407,M,40.593,M,2.0,0123*66
$GPVTG,129.66,T,-510.24,M,003.165,N,005.862,K,D*0B
$GPGGA,081533.60,5703.2603326,N,00951.8070170,E,2,11,0.7,-1.403,M,40.593,M,2.0,0123*6B
$GPVTG,130.49,T,-509.41,M,003.155,N,005.842,K,D*04
$GPGGA,081533.65,5703.2603040,N,00951.8070778,E,2,11,0.7,-1.403,M,40.593,M,2.2,0123*61
$GPVTG,131.30,T,-508.60,M,003.153,N,005.838,K,D*02
$GPGGA,081533.70,5703.2602751,N,00951.8071362,E,2,11,0.7,-1.402,M,40.593,M,2.2,0123*6C
$GPVTG,132.30,T,-507.60,M,003.140,N,005.816,K,D*00
$GPGGA,081533.75,5703.2602454,N,00951.8071926,E,2,11,0.7,-1.400,M,40.593,M,2.2,0123*67
$GPVTG,133.46,T,-506.44,M,003.125,N,005.788,K,D*0C
$GPGGA,081533.80,5703.2602148,N,00951.8072484,E,2,11,0.7,-1.400,M,40.593,M,2.2,0123*63
$GPVTG,134.67,T,-505.23,M,003.119,N,005.777,K,D*05
$GPGGA,081533.85,5703.2601856,N,00951.8073016,E,2,11,0.7,-1.396,M,40.593,M,2.4,0123*63
$GPVTG,135.72,T,-504.18,M,003.088,N,005.719,K,D*08
$GPGGA,081533.90,5703.2601565,N,00951.8073554,E,2,11,0.7,-1.395,M,40.593,M,2.4,0123*6A
$GPVTG,136.45,T,-503.45,M,003.064,N,005.674,K,D*08
$GPGGA,081533.95,5703.2601252,N,00951.8074095,E,2,11,0.7,-1.394,M,40.593,M,2.4,0123*62
$GPVTG,137.35,T,-502.55,M,003.068,N,005.681,K,D*08
$GPGGA,081534.00,5703.2600921,N,00951.8074630,E,2,11,0.7,-1.394,M,40.593,M,2.4,0123*6E
$GPVTG,138.46,T,-501.44,M,003.088,N,005.720,K,D*04
$GPGGA,081534.05,5703.2600592,N,00951.8075167,E,2,11,0.7,-1.397,M,40.593,M,1.5,0123*6A
$GPVTG,139.18,T,-500.72,M,003.100,N,005.742,K,D*0F
$GPGGA,081534.10,5703.2600258,N,00951.8075681,E,2,11,0.7,-1.398,M,40.593,M,1.5,0123*6F
$GPVTG,140.18,T,-499.72,M,003.112,N,005.763,K,D*00
$GPGGA,081534.15,5703.2599925,N,00951.8076192,E,2,11,0.7,-1.398,M,40.593,M,1.5,0123*6E
$GPVTG,140.98,T,-498.92,M,003.120,N,005.777,K,D*03
$GPGGA,081534.20,5703.2599598,N,00951.8076700,E,2,11,0.7,-1.400,M,40.593,M,1.5,0123*69
$GPVTG,141.55,T,-498.35,M,003.119,N,005.777,K,D*04
$GPGGA,081534.25,5703.2599275,N,00951.8077196,E,2,11,0.7,-1.400,M,40.593,M,1.7,0123*62
$GPVTG,142.09,T,-497.81,M,003.110,N,005.760,K,D*01
$GPGGA,081534.30,5703.2598925,N,00951.8077664,E,2,11,0.7,-1.401,M,40.593,M,1.7,0123*62
$GPVTG,143.24,T,-496.66,M,003.115,N,005.769,K,D*0B
$GPGGA,081534.35,5703.2598573,N,00951.8078113,E,2,11,0.7,-1.403,M,40.593,M,1.7,0123*62
$GPVTG,144.46,T,-495.44,M,003.114,N,005.767,K,D*04
$GPGGA,081534.40,5703.2598219,N,00951.8078553,E,2,11,0.7,-1.404,M,40.593,M,1.7,0123*6C
$GPVTG,145.59,T,-494.31,M,003.111,N,005.762,K,D*08
$GPGGA,081534.45,5703.2597864,N,00951.8078989,E,2,11,0.7,-1.405,M,40.593,M,1.9,0123*62
$GPVTG,146.53,T,-493.37,M,003.109,N,005.759,K,D*01
$GPGGA,081534.50,5703.2597508,N,00951.8079416,E,2,11,0.7,-1.403,M,40.593,M,1.9,0123*6D
$GPVTG,147.46,T,-492.44,M,003.106,N,005.753,K,D*04
$GPGGA,081534.55,5703.2597148,N,00951.8079828,E,2,11,0.7,-1.403,M,40.593,M,1.9,0123*69
$GPVTG,148.43,T,-491.47,M,003.101,N,005.743,K,D*08
$GPGGA,081534.60,5703.2596784,N,00951.8080235,E,2,11,0.7,-1.404,M,40.593,M,1.9,0123*6F
$GPVTG,149.33,T,-490.57,M,003.100,N,005.742,K,D*0E
$GPGGA,081534.65,5703.2596414,N,00951.8080626,E,2,11,0.7,-1.406,M,40.593,M,2.2,0123*6C
$GPVTG,150.30,T,-489.60,M,003.102,N,005.744,K,D*0D
$GPGGA,081534.70,5703.2596047,N,00951.8080997,E,2,11,0.7,-1.404,M,40.593,M,2.2,0123*6D
$GPVTG,151.36,T,-488.54,M,003.089,N,005.720,K,D*0C
$GPGGA,081534.75,5703.2595678,N,00951.8081365,E,2,11,0.7,-1.404,M,40.593,M,2.2,0123*67
$GPVTG,152.26,T,-487.64,M,003.081,N,005.707,K,D*0F
$GPGGA,081534.80,5703.2595304,N,00951.8081710,E,2,11,0.7,-1.406,M,40.593,M,2.2,0123*67
$GPVTG,153.36,T,-486.54,M,003.071,N,005.688,K,D*04
$GPGGA,081534.85,5703.2594927,N,00951.8082030,E,2,11,0.7,-1.402,M,40.593,M,2.4,0123*6C
$GPVTG,154.70,T,-485.20,M,003.066,N,005.678,K,D*08
$GPGGA,081534.90,5703.2594539,N,00951.8082349,E,2,11,0.7,-1.402,M,40.593,M,2.4,0123*66
$GPVTG,155.87,T,-484.03,M,003.069,N,005.685,K,D*0C
$GPGGA,081534.95,5703.2594157,N,00951.8082671,E,2,11,0.7,-1.401,M,40.593,M,2.4,0123*62
$GPVTG,156.67,T,-483.23,M,003.067,N,005.681,K,D*0E
$GPGGA,081535.00,5703.2593773,N,00951.8082963,E,2,11,0.7,-1.401,M,40.593,M,2.4,0123*64
$GPVTG,157.78,T,-482.12,M,003.057,N,005.662,K,D*0C
$GPGGA,081535.05,5703.2593374,N,00951.8083262,E,2,11,0.7,-1.404,M,40.593,M,2.6,0123*6E
$GPVTG,158.67,T,-481.23,M,003.063,N,005.674,K,D*0C
$GPGGA,081535.10,5703.2592981,N,00951.8083539,E,2,11,0.7,-1.407,M,40.593,M,2.6,0123*61
$GPVTG,159.62,T,-480.28,M,003.062,N,005.671,K,D*06
$GPGGA,081535.15,5703.2592591,N,00951.8083795,E,2,11,0.7,-1.406,M,40.593,M,2.6,0123*6C
$GPVTG,160.68,T,-479.22,M,003.051,N,005.651,K,D*08
$GPGGA,081535.20,5703.2592200,N,00951.8084026,E,2,11,0.7,-1.406,M,40.593,M,2.6,0123*6D
$GPVTG,161.95,T,-477.95,M,003.038,N,005.626,K,D*06
$GPGGA,081535.25,5703.2591804,N,00951.8084246,E,2,11,0.7,-1.405,M,40.593,M,2.8,0123*6C
$GPVTG,163.14,T,-476.76,M,003.033,N,005.617,K,D*08
$GPGGA,081535.30,5703.2591410,N,00951.8084468,E,2,11,0.7,-1.404,M,40.593,M,2.8,0123*6A
$GPVTG,164.05,T,-475.85,M,003.025,N,005.602,K,D*03
$GPGGA,081535.35,5703.2591020,N,00951.8084669,E,2,11,0.7,-1.402,M,40.593,M,2.8,0123*6D
$GPVTG,165.05,T,-474.85,M,003.007,N,005.569,K,D*0D
$GPGGA,081535.40,5703.2590616,N,00951.8084862,E,2,11,0.7,-1.401,M,40.593,M,2.8,0123*6B
$GPVTG,166.06,T,-473.84,M,003.010,N,005.575,K,D*00
$GPGGA,081535.45,5703.2590216,N,00951.8085049,E,2,11,0.7,-1.398,M,40.593,M,3.0,0123*64
$GPVTG,166.89,T,-473.01,M,003.009,N,005.572,K,D*05
$GPGGA,081535.50,5703.2589808,N,00951.8085220,E,2,11,0.7,-1.397,M,40.593,M,3.0,0123*6F
$GPVTG,167.84,T,-472.06,M,003.015,N,005.584,K,D*0B
$GPGGA,081535.55,5703.2589403,N,00951.8085366,E,2,11,0.7,-1.396,M,40.593,M,3.0,0123*6F
$GPVTG,168.98,T,-470.92,M,003.011,N,005.577,K,D*0E
$GPGGA,081535.60,5703.2588999,N,00951.8085491,E,2,11,0.7,-1.394,M,40.593,M,3.0,0123*6B
$GPVTG,170.23,T,-469.67,M,003.005,N,005.565,K,D*03
$GPGGA,081535.65,5703.2588603,N,00951.8085619,E,2,11,0.7,-1.391,M,40.593,M,3.2,0123*67
$GPVTG,171.11,T,-468.79,M,002.989,N,005.536,K,D*07
$GPGGA,081535.70,5703.2588196,N,00951.8085744,E,2,11,0.7,-1.389,M,40.593,M,3.2,0123*68
$GPVTG,171.88,T,-468.02,M,002.990,N,005.538,K,D*0D
$GPGGA,081535.75,5703.2587786,N,00951.8085859,E,2,11,0.7,-1.388,M,40.593,M,3.2,0123*67
$GPVTG,172.61,T,-467.29,M,002.994,N,005.545,K,D*01
$GPGGA,081535.80,5703.2587371,N,00951.8085946,E,2,11,0.7,-1.387,M,40.593,M,3.2,0123*61
$GPVTG,173.67,T,-466.23,M,003.003,N,005.562,K,D*0E
$GPGGA,081535.85,5703.2586951,N,00951.8086014,E,2,11,0.7,-1.391,M,40.593,M,3.4,0123*61
$GPVTG,174.84,T,-465.06,M,003.013,N,005.581,K,D*0C
$GPGGA,081535.90,5703.2586534,N,00951.8086059,E,2,11,0.7,-1.391,M,40.593,M,3.4,0123*63
$GPVTG,176.15,T,-463.75,M,003.021,N,005.595,K,D*00
$GPGGA,081535.95,5703.2586114,N,00951.8086109,E,2,11,0.7,-1.392,M,40.593,M,3.4,0123*67
$GPVTG,177.08,T,-462.82,M,003.032,N,005.615,K,D*0D
$GPGGA,081536.00,5703.2585696,N,00951.8086119,E,2,11,0.7,-1.394,M,40.593,M,3.4,0123*61
$GPVTG,178.49,T,-461.41,M,003.037,N,005.625,K,D*0D
$GPGGA,081536.05,5703.2585280,N,00951.8086130,E,2,11,0.7,-1.394,M,40.593,M,2.9,0123*60
$GPVTG,179.61,T,-460.29,M,003.037,N,005.625,K,D*09
$GPGGA,081536.10,5703.2584868,N,00951.8086124,E,2,11,0.7,-1.395,M,40.593,M,2.9,0123*6D
$GPVTG,180.74,T,-459.16,M,003.033,N,005.617,K,D*08
$GPGGA,081536.15,5703.2584457,N,00951.8086108,E,2,11,0.7,-1.396,M,40.593,M,2.9,0123*65
$GPVTG,181.78,T,-458.12,M,003.028,N,005.609,K,D*05
$GPGGA,081536.20,5703.2584058,N,00951.8086057,E,2,11,0.7,-1.396,M,40.593,M,2.9,0123*63
$GPVTG,183.22,T,-456.68,M,003.008,N,005.570,K,D*04
$GPGGA,081536.25,5703.2583665,N,00951.8085990,E,2,11,0.7,-1.393,M,40.593,M,3.1,0123*64
$GPVTG,184.63,T,-455.27,M,002.991,N,005.539,K,D*0B
$GPGGA,081536.30,5703.2583258,N,00951.8085930,E,2,11,0.7,-1.392,M,40.593,M,3.1,0123*61
$GPVTG,185.63,T,-454.27,M,002.987,N,005.531,K,D*04
$GPGGA,081536.35,5703.2582852,N,00951.8085867,E,2,11,0.7,-1.393,M,40.593,M,3.1,0123*67
$GPVTG,186.41,T,-453.49,M,002.984,N,005.526,K,D*0D
$GPGGA,081536.40,5703.2582445,N,00951.8085776,E,2,11,0.7,-1.394,M,40.593,M,3.1,0123*67
$GPVTG,187.51,T,-452.39,M,002.984,N,005.526,K,D*0B
$GPGGA,081536.45,5703.2582031,N,00951.8085682,E,2,11,0.7,-1.400,M,40.593,M,3.4,0123*60
$GPVTG,188.40,T,-451.50,M,002.985,N,005.528,K,D*07
$GPGGA,081536.50,5703.2581630,N,00951.8085576,E,2,11,0.7,-1.401,M,40.593,M,3.4,0123*69
$GPVTG,189.30,T,-450.60,M,002.978,N,005.516,K,D*0C
$GPGGA,081536.55,5703.2581224,N,00951.8085442,E,2,11,0.7,-1.401,M,40.593,M,3.4,0123*6B
$GPVTG,190.42,T,-449.48,M,002.984,N,005.526,K,D*03
$GPGGA,081536.60,5703.2580815,N,00951.8085312,E,2,11,0.7,-1.401,M,40.593,M,3.4,0123*66
$GPVTG,191.19,T,-448.71,M,002.992,N,005.541,K,D*01
$GPGGA,081536.65,5703.2580412,N,00951.8085161,E,2,11,0.7,-1.403,M,40.593,M,3.6,0123*6E
$GPVTG,192.15,T,-447.75,M,002.995,N,005.546,K,D*05
$GPGGA,081536.70,5703.2580017,N,00951.8085007,E,2,11,0.7,-1.403,M,40.593,M,3.6,0123*6A
$GPVTG,192.98,T,-446.92,M,002.985,N,005.529,K,D*00
$GPGGA,081536.75,5703.2579636,N,00951.8084812,E,2,11,0.7,-1.404,M,40.593,M,3.6,0123*66
$GPVTG,194.43,T,-445.47,M,002.965,N,005.491,K,D*07
$GPGGA,081536.80,5703.2579236,N,00951.8084621,E,2,11,0.7,-1.404,M,40.593,M,3.6,0123*66
$GPVTG,195.38,T,-444.52,M,002.973,N,005.506,K,D*07
$GPGGA,081536.85,5703.2578851,N,00951.8084397,E,2,11,0.7,-1.402,M,40.593,M,3.8,0123*69
$GPVTG,196.79,T,-443.11,M,002.975,N,005.510,K,D*00
$GPGGA,081536.90,5703.2578461,N,00951.8084174,E,2,11,0.7,-1.400,M,40.593,M,3.8,0123*6F
$GPVTG,197.84,T,-442.06,M,002.978,N,005.515,K,D*0C
$GPGGA,081536.95,5703.2578079,N,00951.8083931,E,2,11,0.7,-1.399,M,40.593,M,3.8,0123*6E
$GPVTG,199.05,T,-440.85,M,002.972,N,005.505,K,D*09
$GPGGA,081537.00,5703.2577690,N,00951.8083689,E,2,11,0.7,-1.399,M,40.593,M,3.8,0123*61
$GPVTG,199.94,T,-439.96,M,002.977,N,005.513,K,D*0F
$GPGGA,081537.05,5703.2577303,N,00951.8083438,E,2,11,0.7,-1.396,M,40.593,M,1.5,0123*63
$GPVTG,200.63,T,-439.27,M,002.978,N,005.516,K,D*04
$GPGGA,081537.10,5703.2576918,N,00951.8083164,E,2,11,0.7,-1.395,M,40.593,M,1.5,0123*69
$GPVTG,201.65,T,-438.25,M,002.985,N,005.529,K,D*0E
$GPGGA,081537.15,5703.2576545,N,00951.8082879,E,2,11,0.7,-1.394,M,40.593,M,1.5,0123*6D
$GPVTG,202.73,T,-437.17,M,002.979,N,005.518,K,D*05
$GPGGA,081537.20,5703.2576164,N,00951.8082587,E,2,11,0.7,-1.394,M,40.593,M,1.5,0123*60
$GPVTG,203.59,T,-436.31,M,002.987,N,005.531,K,D*03
$GPGGA,081537.25,5703.2575793,N,00951.8082275,E,2,11,0.7,-1.394,M,40.593,M,1.7,0123*60
$GPVTG,204.68,T,-435.22,M,002.989,N,005.536,K,D*0E
$GPGGA,081537.30,5703.2575417,N,00951.8081945,E,2,11,0.7,-1.393,M,40.593,M,1.7,0123*67
$GPVTG,205.78,T,-434.12,M,003.002,N,005.559,K,D*0E
$GPGGA,081537.35,5703.2575051,N,00951.8081591,E,2,11,0.7,-1.394,M,40.593,M,1.7,0123*66
$GPVTG,207.11,T,-432.79,M,003.008,N,005.572,K,D*0B
$GPGGA,081537.40,5703.2574690,N,00951.8081230,E,2,11,0.7,-1.395,M,40.593,M,1.7,0123*63
$GPVTG,208.36,T,-431.54,M,003.011,N,005.576,K,D*01
$GPGGA,081537.45,5703.2574329,N,00951.8080856,E,2,11,0.7,-1.396,M,40.593,M,2.0,0123*6D
$GPVTG,209.55,T,-430.35,M,003.017,N,005.587,K,D*0B
$GPGGA,081537.50,5703.2573972,N,00951.8080486,E,2,11,0.7,-1.397,M,40.593,M,2.0,0123*6A
$GPVTG,210.44,T,-429.46,M,003.015,N,005.584,K,D*0E
$GPGGA,081537.55,5703.2573624,N,00951.8080096,E,2,11,0.7,-1.396,M,40.593,M,2.0,0123*67
$GPVTG,211.56,T,-428.34,M,003.011,N,005.576,K,D*01
$GPGGA,081537.60,5703.2573275,N,00951.8079706,E,2,11,0.7,-1.395,M,40.593,M,2.0,0123*6A
$GPVTG,212.42,T,-427.48,M,003.006,N,005.567,K,D*05
$GPGGA,081537.65,5703.2572929,N,00951.8079305,E,2,11,0.7,-1.394,M,40.593,M,2.2,0123*68
$GPVTG,213.20,T,-426.70,M,003.007,N,005.569,K,D*05
$GPGGA,081537.70,5703.2572587,N,00951.8078875,E,2,11,0.7,-1.394,M,40.593,M,2.2,0123*69
$GPVTG,214.34,T,-425.56,M,003.013,N,005.580,K,D*02
$GPGGA,081537.75,5703.2572255,N,00951.8078448,E,2,11,0.7,-1.395,M,40.593,M,2.2,0123*67
$GPVTG,215.35,T,-424.55,M,003.004,N,005.563,K,D*0B
$GPGGA,081537.80,5703.2571932,N,00951.8077991,E,2,11,0.7,-1.395,M,40.593,M,2.2,0123*62
$GPVTG,216.71,T,-423.19,M,003.000,N,005.556,K,D*05
$GPGGA,081537.85,5703.2571606,N,00951.8077524,E,2,11,0.7,-1.393,M,40.593,M,2.4,0123*6D
$GPVTG,217.89,T,-422.01,M,003.006,N,005.567,K,D*0F
$GPGGA,081537.90,5703.2571279,N,00951.8077061,E,2,11,0.7,-1.392,M,40.593,M,2.4,0123*60
$GPVTG,218.75,T,-421.15,M,003.008,N,005.572,K,D*0F
$GPGGA,081537.95,5703.2570966,N,00951.8076563,E,2,11,0.7,-1.390,M,40.593,M,2.4,0123*65
$GPVTG,220.12,T,-419.78,M,003.015,N,005.584,K,D*00
$GPGGA,081538.00,5703.2570655,N,00951.8076057,E,2,11,0.7,-1.388,M,40.593,M,2.4,0123*62
$GPVTG,221.38,T,-418.52,M,003.022,N,005.597,K,D*06
$GPGGA,081538.05,5703.2570346,N,00951.8075540,E,2,11,0.7,-1.386,M,40.593,M,1.5,0123*6C
$GPVTG,222.53,T,-417.37,M,003.022,N,005.597,K,D*04
$GPGGA,081538.10,5703.2570048,N,00951.8075020,E,2,11,0.7,-1.386,M,40.593,M,1.5,0123*66
$GPVTG,223.68,T,-416.22,M,003.020,N,005.594,K,D*09
$GPGGA,081538.15,5703.2569750,N,00951.8074491,E,2,11,0.7,-1.388,M,40.593,M,1.5,0123*64
$GPVTG,224.71,T,-415.19,M,003.024,N,005.601,K,D*06
$GPGGA,081538.20,5703.2569452,N,00951.8073946,E,2,11,0.7,-1.388,M,40.593,M,1.5,0123*63
$GPVTG,225.70,T,-414.20,M,003.037,N,005.624,K,D*08
$GPGGA,081538.25,5703.2569157,N,00951.8073398,E,2,11,0.7,-1.389,M,40.593,M,1.7,0123*6C
$GPVTG,226.54,T,-413.36,M,003.046,N,005.641,K,D*08
$GPGGA,081538.30,5703.2568876,N,00951.8072848,E,2,11,0.7,-1.387,M,40.593,M,1.7,0123*6A
$GPVTG,227.49,T,-412.41,M,003.038,N,005.627,K,D*0D
$GPGGA,081538.35,5703.2568606,N,00951.8072283,E,2,11,0.7,-1.387,M,40.593,M,1.7,0123*6B
$GPVTG,228.63,T,-411.27,M,003.030,N,005.612,K,D*07
$GPGGA,081538.40,5703.2568338,N,00951.8071682,E,2,11,0.7,-1.387,M,40.593,M,1.7,0123*67
$GPVTG,230.00,T,-409.90,M,003.046,N,005.642,K,D*0A
$GPGGA,081538.45,5703.2568077,N,00951.8071073,E,2,11,0.7,-1.387,M,40.593,M,1.9,0123*6C
$GPVTG,231.32,T,-408.58,M,003.060,N,005.666,K,D*0D
$GPGGA,081538.50,5703.2567812,N,00951.8070467,E,2,11,0.7,-1.388,M,40.593,M,1.9,0123*63
$GPVTG,232.25,T,-407.65,M,003.070,N,005.685,K,D*05
$GPGGA,081538.55,5703.2567560,N,00951.8069855,E,2,11,0.7,-1.390,M,40.593,M,1.9,0123*62
$GPVTG,233.31,T,-406.59,M,003.071,N,005.687,K,D*0C
$GPGGA,081538.60,5703.2567308,N,00951.8069248,E,2,11,0.7,-1.391,M,40.593,M,1.9,0123*6B
$GPVTG,234.10,T,-405.80,M,003.065,N,005.677,K,D*05
$GPGGA,081538.65,5703.2567058,N,00951.8068631,E,2,11,0.7,-1.393,M,40.593,M,2.2,0123*69
$GPVTG,234.81,T,-405.09,M,003.065,N,005.677,K,D*0C
$GPGGA,081538.70,5703.2566815,N,00951.8068015,E,2,11,0.7,-1.394,M,40.593,M,2.2,0123*6A
$GPVTG,235.49,T,-404.41,M,003.058,N,005.663,K,D*0F
$GPGGA,081538.75,5703.2566572,N,00951.8067384,E,2,11,0.7,-1.393,M,40.593,M,2.2,0123*60
$GPVTG,236.17,T,-403.73,M,003.060,N,005.668,K,D*01
$GPGGA,081538.80,5703.2566339,N,00951.8066739,E,2,11,0.7,-1.392,M,40.593,M,2.2,0123*61
$GPVTG,237.03,T,-402.87,M,003.064,N,005.674,K,D*06
$GPGGA,081538.85,5703.2566122,N,00951.8066089,E,2,11,0.7,-1.389,M,40.593,M,2.4,0123*6C
$GPVTG,237.99,T,-401.91,M,003.061,N,005.670,K,D*00
$GPGGA,081538.90,5703.2565900,N,00951.8065428,E,2,11,0.7,-1.387,M,40.593,M,2.4,0123*61
$GPVTG,238.85,T,-401.05,M,003.067,N,005.681,K,D*07
$GPGGA,081538.95,5703.2565686,N,00951.8064764,E,2,11,0.7,-1.386,M,40.593,M,2.4,0123*6E
$GPVTG,239.75,T,-400.15,M,003.068,N,005.682,K,D*05
$GPGGA,081539.00,5703.2565475,N,00951.8064091,E,2,11,0.7,-1.387,M,40.593,M,2.4,0123*61
$GPVTG,240.62,T,-399.28,M,003.072,N,005.689,K,D*04
$GPGGA,081539.05,5703.2565271,N,00951.8063394,E,2,11,0.7,-1.385,M,40.593,M,2.6,0123*67
$GPVTG,241.72,T,-398.18,M,003.082,N,005.708,K,D*01
$GPGGA,081539.10,5703.2565078,N,00951.8062700,E,2,11,0.7,-1.385,M,40.593,M,2.6,0123*60
$GPVTG,242.77,T,-397.13,M,003.088,N,005.719,K,D*09
$GPGGA,081539.15,5703.2564892,N,00951.8061999,E,2,11,0.7,-1.385,M,40.593,M,2.6,0123*65
$GPVTG,243.85,T,-396.05,M,003.093,N,005.727,K,D*04
$GPGGA,081539.20,5703.2564712,N,00951.8061285,E,2,11,0.7,-1.385,M,40.593,M,2.6,0123*62
$GPVTG,244.96,T,-394.94,M,003.103,N,005.747,K,D*05
$GPGGA,081539.25,5703.2564549,N,00951.8060582,E,2,11,0.7,-1.387,M,40.593,M,2.8,0123*66
$GPVTG,246.23,T,-393.67,M,003.091,N,005.725,K,D*0C
$GPGGA,081539.30,5703.2564390,N,00951.8059860,E,2,11,0.7,-1.390,M,40.593,M,2.8,0123*6D
$GPVTG,247.45,T,-392.45,M,003.094,N,005.730,K,D*0D
$GPGGA,081539.35,5703.2564219,N,00951.8059134,E,2,11,0.7,-1.392,M,40.593,M,2.8,0123*62
$GPVTG,248.17,T,-391.73,M,003.106,N,005.752,K,D*0D
$GPGGA,081539.40,5703.2564052,N,00951.8058418,E,2,11,0.7,-1.393,M,40.593,M,2.8,0123*66
$GPVTG,248.73,T,-391.17,M,003.104,N,005.748,K,D*04
$GPGGA,081539.45,5703.2563895,N,00951.8057683,E,2,11,0.7,-1.392,M,40.593,M,3.0,0123*60
$GPVTG,249.50,T,-390.40,M,003.114,N,005.767,K,D*0B
$GPGGA,081539.50,5703.2563745,N,00951.8056947,E,2,11,0.7,-1.392,M,40.593,M,3.0,0123*60
$GPVTG,250.29,T,-389.61,M,003.117,N,005.773,K,D*00
$GPGGA,081539.55,5703.2563612,N,00951.8056185,E,2,11,0.7,-1.393,M,40.593,M,3.0,0123*61
$GPVTG,251.50,T,-388.40,M,003.134,N,005.805,K,D*02
$GPGGA,081539.60,5703.2563482,N,00951.8055413,E,2,11,0.7,-1.395,M,40.593,M,3.0,0123*63
$GPVTG,252.59,T,-387.31,M,003.156,N,005.844,K,D*00
$GPGGA,081539.65,5703.2563362,N,00951.8054638,E,2,11,0.7,-1.397,M,40.593,M,3.2,0123*65
$GPVTG,253.68,T,-386.22,M,003.171,N,005.874,K,D*06
$GPGGA,081539.70,5703.2563244,N,00951.8053868,E,2,11,0.7,-1.399,M,40.593,M,3.2,0123*66
$GPVTG,254.62,T,-385.28,M,003.179,N,005.887,K,D*06
$GPGGA,081539.75,5703.2563133,N,00951.8053094,E,2,11,0.7,-1.401,M,40.593,M,3.2,0123*6D
$GPVTG,255.56,T,-384.34,M,003.185,N,005.898,K,D*01
$GPGGA,081539.80,5703.2563040,N,00951.8052299,E,2,11,0.7,-1.401,M,40.593,M,3.2,0123*6C
$GPVTG,256.86,T,-383.04,M,003.202,N,005.930,K,D*04
$GPGGA,081539.85,5703.2562954,N,00951.8051495,E,2,11,0.7,-1.404,M,40.593,M,3.4,0123*6E
$GPVTG,258.19,T,-381.71,M,003.222,N,005.967,K,D*0C
$GPGGA,081539.90,5703.2562886,N,00951.8050704,E,2,11,0.7,-1.402,M,40.593,M,3.4,0123*68
$GPVTG,259.63,T,-380.27,M,003.221,N,005.966,K,D*00
$GPGGA,081539.95,5703.2562812,N,00951.8049891,E,2,11,0.7,-1.403,M,40.593,M,3.4,0123*6A
$GPVTG,260.72,T,-379.18,M,003.241,N,006.003,K,D*0F
$GPGGA,081540.00,5703.2562742,N,00951.8049068,E,2,11,0.7,-1.403,M,40.593,M,3.4,0123*6C
$GPVTG,261.72,T,-378.18,M,003.266,N,006.048,K,D*05
$GPGGA,081540.05,5703.2562696,N,00951.8048257,E,2,11,0.7,-1.392,M,40.593,M,2.9,0123*6D
$GPVTG,262.92,T,-376.98,M,003.265,N,006.047,K,D*02
$GPGGA,081540.10,5703.2562653,N,00951.8047455,E,2,11,0.7,-1.389,M,40.593,M,2.9,0123*61
$GPVTG,264.12,T,-375.78,M,003.259,N,006.036,K,D*08
$GPGGA,081540.15,5703.2562615,N,00951.8046625,E,2,11,0.7,-1.387,M,40.593,M,2.9,0123*6C
$GPVTG,265.26,T,-374.64,M,003.278,N,006.071,K,D*02
$GPGGA,081540.20,5703.2562585,N,00951.8045802,E,2,11,0.7,-1.385,M,40.593,M,2.9,0123*6A
$GPVTG,266.37,T,-373.53,M,003.287,N,006.087,K,D*0B
$GPGGA,081540.25,5703.2562544,N,00951.8045026,E,2,11,0.7,-1.390,M,40.593,M,3.1,0123*61
$GPVTG,267.39,T,-372.51,M,003.287,N,006.088,K,D*08
$GPGGA,081540.30,5703.2562527,N,00951.8044206,E,2,11,0.7,-1.386,M,40.593,M,3.1,0123*66
$GPVTG,268.38,T,-371.52,M,003.289,N,006.092,K,D*03
$GPGGA,081540.35,5703.2562507,N,00951.8043381,E,2,11,0.7,-1.384,M,40.593,M,3.1,0123*6A
$GPVTG,269.12,T,-370.78,M,003.295,N,006.102,K,D*06
$GPGGA,081540.40,5703.2562501,N,00951.8042552,E,2,11,0.7,-1.380,M,40.593,M,3.1,0123*63
$GPVTG,270.00,T,-369.90,M,003.301,N,006.114,K,D*08
$GPGGA,081540.45,5703.2562501,N,00951.8041740,E,2,11,0.7,-1.380,M,40.593,M,3.4,0123*61
$GPVTG,270.98,T,-368.92,M,003.295,N,006.102,K,D*01
$GPGGA,081540.50,5703.2562515,N,00951.8040917,E,2,11,0.7,-1.378,M,40.593,M,3.4,0123*6A
$GPVTG,272.02,T,-367.88,M,003.295,N,006.102,K,D*04
$GPGGA,081540.55,5703.2562528,N,00951.8040096,E,2,11,0.7,-1.375,M,40.593,M,3.4,0123*6C
$GPVTG,272.81,T,-367.09,M,003.292,N,006.098,K,D*03
$GPGGA,081540.60,5703.2562546,N,00951.8039264,E,2,11,0.7,-1.373,M,40.593,M,3.4,0123*65
$GPVTG,273.54,T,-366.36,M,003.298,N,006.108,K,D*05
$GPGGA,081540.65,5703.2562575,N,00951.8038431,E,2,11,0.7,-1.376,M,40.593,M,3.6,0123*60
$GPVTG,274.50,T,-365.40,M,003.311,N,006.132,K,D*0D
$GPGGA,081540.70,5703.2562615,N,00951.8037591,E,2,11,0.7,-1.376,M,40.593,M,3.6,0123*65
$GPVTG,275.42,T,-364.48,M,003.324,N,006.157,K,D*03
$GPGGA,081540.75,5703.2562653,N,00951.8036746,E,2,11,0.7,-1.377,M,40.593,M,3.6,0123*6A
$GPVTG,276.11,T,-363.79,M,003.339,N,006.183,K,D*06
$GPGGA,081540.80,5703.2562701,N,00951.8035902,E,2,11,0.7,-1.377,M,40.593,M,3.6,0123*6B
$GPVTG,276.85,T,-363.05,M,003.352,N,006.207,K,D*02
$GPGGA,081540.85,5703.2562762,N,00951.8035061,E,2,11,0.7,-1.376,M,40.593,M,3.8,0123*68
$GPVTG,277.78,T,-362.12,M,003.360,N,006.223,K,D*01
$GPGGA,081540.90,5703.2562816,N,00951.8034216,E,2,11,0.7,-1.375,M,40.593,M,3.8,0123*60
$GPVTG,278.33,T,-361.57,M,003.371,N,006.242,K,D*04
$GPGGA,081540.95,5703.2562884,N,00951.8033386,E,2,11,0.7,-1.376,M,40.593,M,3.8,0123*62
$GPVTG,279.12,T,-360.78,M,003.368,N,006.237,K,D*00
$GPGGA,081541.00,5703.2562964,N,00951.8032564,E,2,11,0.7,-1.378,M,40.593,M,3.8,0123*65
$GPVTG,280.06,T,-359.84,M,003.360,N,006.224,K,D*00
$GPGGA,081541.05,5703.2563048,N,00951.8031711,E,2,11,0.7,-1.372,M,40.593,M,1.5,0123*60
$GPVTG,280.83,T,-359.07,M,003.373,N,006.247,K,D*01
$GPGGA,081541.10,5703.2563140,N,00951.8030873,E,2,11,0.7,-1.374,M,40.593,M,1.5,0123*61
$GPVTG,281.68,T,-358.22,M,003.381,N,006.262,K,D*09
$GPGGA,081541.15,5703.2563240,N,00951.8030045,E,2,11,0.7,-1.376,M,40.593,M,1.5,0123*68
$GPVTG,282.60,T,-357.30,M,003.382,N,006.264,K,D*0B
$GPGGA,081541.20,5703.2563344,N,00951.8029224,E,2,11,0.7,-1.378,M,40.593,M,1.5,0123*68
$GPVTG,283.43,T,-356.47,M,003.378,N,006.255,K,D*0D
$GPGGA,081541.25,5703.2563452,N,00951.8028401,E,2,11,0.7,-1.386,M,40.593,M,1.7,0123*6E
$GPVTG,284.37,T,-355.53,M,003.387,N,006.272,K,D*0A
$GPGGA,081541.30,5703.2563573,N,00951.8027578,E,2,11,0.7,-1.387,M,40.593,M,1.7,0123*69
$GPVTG,285.27,T,-354.63,M,003.389,N,006.277,K,D*03
$GPGGA,081541.35,5703.2563698,N,00951.8026757,E,2,11,0.7,-1.389,M,40.593,M,1.7,0123*6A
$GPVTG,286.10,T,-353.80,M,003.391,N,006.279,K,D*09
$GPGGA,081541.40,5703.2563836,N,00951.8025961,E,2,11,0.7,-1.393,M,40.593,M,1.7,0123*61
$GPVTG,287.18,T,-352.72,M,003.376,N,006.252,K,D*0C
$GPGGA,081541.45,5703.2563992,N,00951.8025143,E,2,11,0.7,-1.393,M,40.593,M,2.0,0123*67
$GPVTG,288.30,T,-351.60,M,003.385,N,006.270,K,D*05
$GPGGA,081541.50,5703.2564152,N,00951.8024317,E,2,11,0.7,-1.393,M,40.593,M,2.0,0123*62
$GPVTG,289.36,T,-350.54,M,003.408,N,006.311,K,D*00
$GPGGA,081541.55,5703.2564318,N,00951.8023500,E,2,11,0.7,-1.392,M,40.593,M,2.0,0123*6D
$GPVTG,290.36,T,-349.54,M,003.423,N,006.339,K,D*03
$GPGGA,081541.60,5703.2564484,N,00951.8022709,E,2,11,0.7,-1.392,M,40.593,M,2.0,0123*63
$GPVTG,291.32,T,-348.58,M,003.414,N,006.324,K,D*03
$GPGGA,081541.65,5703.2564664,N,00951.8021912,E,2,11,0.7,-1.388,M,40.593,M,2.2,0123*64
$GPVTG,292.32,T,-347.58,M,003.415,N,006.324,K,D*0E
$GPGGA,081541.70,5703.2564852,N,00951.8021113,E,2,11,0.7,-1.389,M,40.593,M,2.2,0123*63
$GPVTG,293.35,T,-346.55,M,003.426,N,006.346,K,D*00
$GPGGA,081541.75,5703.2565042,N,00951.8020324,E,2,11,0.7,-1.388,M,40.593,M,2.2,0123*68
$GPVTG,294.26,T,-345.64,M,003.430,N,006.352,K,D*06
$GPGGA,081541.80,5703.2565243,N,00951.8019530,E,2,11,0.7,-1.386,M,40.593,M,2.2,0123*66
$GPVTG,295.23,T,-344.67,M,003.443,N,006.377,K,D*03
$GPGGA,081541.85,5703.2565443,N,00951.8018732,E,2,11,0.7,-1.389,M,40.593,M,2.4,0123*6D
$GPVTG,295.97,T,-343.93,M,003.460,N,006.408,K,D*0E
$GPGGA,081541.90,5703.2565652,N,00951.8017953,E,2,11,0.7,-1.389,M,40.593,M,2.4,0123*6D
$GPVTG,296.85,T,-343.05,M,003.462,N,006.412,K,D*08
$GPGGA,081541.95,5703.2565872,N,00951.8017187,E,2,11,0.7,-1.389,M,40.593,M,2.4,0123*65
$GPVTG,297.85,T,-342.05,M,003.459,N,006.407,K,D*04
$GPGGA,081542.00,5703.2566103,N,00951.8016411,E,2,11,0.7,-1.387,M,40.593,M,2.4,0123*63
$GPVTG,298.83,T,-341.07,M,003.475,N,006.435,K,D*03
$GPGGA,081542.05,5703.2566339,N,00951.8015657,E,2,11,0.7,-1.385,M,40.593,M,1.5,0123*6E
$GPVTG,300.00,T,-339.90,M,003.474,N,006.434,K,D*09
$GPGGA,081542.10,5703.2566579,N,00951.8014903,E,2,11,0.7,-1.385,M,40.593,M,1.5,0123*67
$GPVTG,300.92,T,-338.98,M,003.476,N,006.438,K,D*05
$GPGGA,081542.15,5703.2566834,N,00951.8014151,E,2,11,0.7,-1.386,M,40.593,M,1.5,0123*6A
$GPVTG,301.94,T,-337.96,M,003.489,N,006.461,K,D*0F
$GPGGA,081542.20,5703.2567091,N,00951.8013416,E,2,11,0.7,-1.388,M,40.593,M,1.5,0123*65
$GPVTG,302.94,T,-336.96,M,003.488,N,006.460,K,D*0D
$GPGGA,081542.25,5703.2567357,N,00951.8012687,E,2,11,0.7,-1.391,M,40.593,M,1.7,0123*68
$GPVTG,304.01,T,-335.89,M,003.496,N,006.474,K,D*00
$GPGGA,081542.30,5703.2567634,N,00951.8011967,E,2,11,0.7,-1.392,M,40.593,M,1.7,0123*6D
$GPVTG,305.13,T,-334.77,M,003.500,N,006.481,K,D*06
$GPGGA,081542.35,5703.2567912,N,00951.8011245,E,2,11,0.7,-1.390,M,40.593,M,1.7,0123*6A
$GPVTG,306.01,T,-333.89,M,003.507,N,006.495,K,D*02
$GPGGA,081542.40,5703.2568193,N,00951.8010528,E,2,11,0.7,-1.390,M,40.593,M,1.7,0123*6B
$GPVTG,306.80,T,-333.10,M,003.511,N,006.503,K,D*02
$GPGGA,081542.45,5703.2568479,N,00951.8009820,E,2,11,0.7,-1.390,M,40.593,M,1.9,0123*6C
$GPVTG,307.56,T,-332.34,M,003.513,N,006.505,K,D*0B
$GPGGA,081542.50,5703.2568769,N,00951.8009114,E,2,11,0.7,-1.391,M,40.593,M,1.9,0123*65
$GPVTG,308.26,T,-331.64,M,003.516,N,006.512,K,D*06
$GPGGA,081542.55,5703.2569070,N,00951.8008424,E,2,11,0.7,-1.391,M,40.593,M,1.9,0123*69
$GPVTG,309.13,T,-330.77,M,003.518,N,006.515,K,D*0B
$GPGGA,081542.60,5703.2569383,N,00951.8007732,E,2,11,0.7,-1.389,M,40.593,M,1.9,0123*62
$GPVTG,310.05,T,-329.85,M,003.533,N,006.543,K,D*0B
$GPGGA,081542.65,5703.2569698,N,00951.8007057,E,2,11,0.7,-1.385,M,40.593,M,2.2,0123*68
$GPVTG,310.91,T,-328.99,M,003.534,N,006.545,K,D*0B
$GPGGA,081542.70,5703.2570019,N,00951.8006381,E,2,11,0.7,-1.383,M,40.593,M,2.2,0123*64
$GPVTG,311.74,T,-328.16,M,003.544,N,006.563,K,D*05
$GPGGA,081542.75,5703.2570350,N,00951.8005708,E,2,11,0.7,-1.383,M,40.593,M,2.2,0123*69
$GPVTG,312.57,T,-327.33,M,003.561,N,006.594,K,D*00
$GPGGA,081542.80,5703.2570678,N,00951.8005049,E,2,11,0.7,-1.381,M,40.593,M,2.2,0123*6C
$GPVTG,313.32,T,-326.58,M,003.562,N,006.597,K,D*0E
$GPGGA,081542.85,5703.2571007,N,00951.8004404,E,2,11,0.7,-1.382,M,40.593,M,2.4,0123*6F
$GPVTG,314.03,T,-325.87,M,003.555,N,006.584,K,D*0C
$GPGGA,081542.90,5703.2571351,N,00951.8003766,E,2,11,0.7,-1.381,M,40.593,M,2.4,0123*68
$GPVTG,314.93,T,-324.97,M,003.560,N,006.593,K,D*05
$GPGGA,081542.95,5703.2571700,N,00951.8003142,E,2,11,0.7,-1.379,M,40.593,M,2.4,0123*6A
$GPVTG,315.85,T,-324.05,M,003.560,N,006.593,K,D*08
$GPGGA,081543.00,5703.2572065,N,00951.8002526,E,2,11,0.7,-1.379,M,40.593,M,2.4,0123*67
$GPVTG,316.94,T,-322.96,M,003.573,N,006.617,K,D*0A
$GPGGA,081543.05,5703.2572417,N,00951.8001919,E,2,11,0.7,-1.376,M,40.593,M,2.6,0123*6D
$GPVTG,317.80,T,-322.10,M,003.566,N,006.605,K,D*07
$GPGGA,081543.10,5703.2572786,N,00951.8001309,E,2,11,0.7,-1.378,M,40.593,M,2.6,0123*67
$GPVTG,318.61,T,-321.29,M,003.581,N,006.632,K,D*03
$GPGGA,081543.15,5703.2573158,N,00951.8000705,E,2,11,0.7,-1.380,M,40.593,M,2.6,0123*68
$GPVTG,319.34,T,-320.56,M,003.593,N,006.654,K,D*08
$GPGGA,081543.20,5703.2573530,N,00951.8000103,E,2,11,0.7,-1.383,M,40.593,M,2.6,0123*67
$GPVTG,319.90,T,-320.00,M,003.602,N,006.672,K,D*0A
$GPGGA,081543.25,5703.2573913,N,00951.7999525,E,2,11,0.7,-1.384,M,40.593,M,2.8,0123*60
$GPVTG,320.77,T,-319.13,M,003.606,N,006.679,K,D*0E
$GPGGA,081543.30,5703.2574305,N,00951.7998963,E,2,11,0.7,-1.386,M,40.593,M,2.8,0123*63
$GPVTG,321.77,T,-318.13,M,003.614,N,006.693,K,D*09
$GPGGA,081543.35,5703.2574705,N,00951.7998414,E,2,11,0.7,-1.386,M,40.593,M,2.8,0123*6F
$GPVTG,322.82,T,-317.08,M,003.622,N,006.708,K,D*03
$GPGGA,081543.40,5703.2575099,N,00951.7997862,E,2,11,0.7,-1.387,M,40.593,M,2.8,0123*6D
$GPVTG,323.54,T,-316.36,M,003.624,N,006.712,K,D*08
$GPGGA,081543.45,5703.2575495,N,00951.7997323,E,2,11,0.7,-1.393,M,40.593,M,3.0,0123*62
$GPVTG,324.30,T,-315.60,M,003.628,N,006.719,K,D*0A
$GPGGA,081543.50,5703.2575909,N,00951.7996813,E,2,11,0.7,-1.394,M,40.593,M,3.0,0123*60
$GPVTG,325.45,T,-314.45,M,003.633,N,006.727,K,D*08
$GPGGA,081543.55,5703.2576331,N,00951.7996303,E,2,11,0.7,-1.394,M,40.593,M,3.0,0123*6D
$GPVTG,326.47,T,-313.43,M,003.645,N,006.751,K,D*08
$GPGGA,081543.60,5703.2576766,N,00951.7995815,E,2,11,0.7,-1.393,M,40.593,M,3.0,0123*65
$GPVTG,327.72,T,-312.18,M,003.663,N,006.784,K,D*0C
$GPGGA,081543.65,5703.2577201,N,00951.7995331,E,2,11,0.7,-1.388,M,40.593,M,3.2,0123*60
$GPVTG,328.69,T,-311.21,M,003.667,N,006.791,K,D*00
$GPGGA,081543.70,5703.2577636,N,00951.7994858,E,2,11,0.7,-1.387,M,40.593,M,3.2,0123*6E
$GPVTG,329.65,T,-310.25,M,003.675,N,006.807,K,D*0B
$GPGGA,081543.75,5703.2578080,N,00951.7994405,E,2,11,0.7,-1.388,M,40.593,M,3.2,0123*64
$GPVTG,330.76,T,-309.14,M,003.687,N,006.828,K,D*0B
$GPGGA,081543.80,5703.2578531,N,00951.7993948,E,2,11,0.7,-1.384,M,40.593,M,3.2,0123*6E
$GPVTG,331.64,T,-308.26,M,003.706,N,006.864,K,D*09
$GPGGA,081543.85,5703.2578978,N,00951.7993509,E,2,11,0.7,-1.381,M,40.593,M,3.4,0123*60
$GPVTG,332.50,T,-307.40,M,003.713,N,006.876,K,D*05
$GPGGA,081543.90,5703.2579426,N,00951.7993066,E,2,11,0.7,-1.380,M,40.593,M,3.4,0123*6E
$GPVTG,333.11,T,-306.79,M,003.720,N,006.889,K,D*0A
$GPGGA,081543.95,5703.2579872,N,00951.7992639,E,2,11,0.7,-1.378,M,40.593,M,3.4,0123*6C
$GPVTG,333.76,T,-306.14,M,003.715,N,006.881,K,D*0E
$GPGGA,081544.00,5703.2580325,N,00951.7992229,E,2,11,0.7,-1.378,M,40.593,M,3.4,0123*6D
$GPVTG,334.51,T,-305.39,M,003.714,N,006.877,K,D*08
$GPGGA,081544.05,5703.2580766,N,00951.7991836,E,2,11,0.7,-1.383,M,40.593,M,2.9,0123*64
$GPVTG,335.31,T,-304.59,M,003.706,N,006.864,K,D*09
$GPGGA,081544.10,5703.2581216,N,00951.7991443,E,2,11,0.7,-1.386,M,40.593,M,2.9,0123*68
$GPVTG,335.89,T,-304.01,M,003.694,N,006.842,K,D*09
$GPGGA,081544.15,5703.2581669,N,00951.7991063,E,2,11,0.7,-1.388,M,40.593,M,2.9,0123*69
$GPVTG,336.50,T,-303.40,M,003.682,N,006.819,K,D*05
$GPGGA,081544.20,5703.2582127,N,00951.7990675,E,2,11,0.7,-1.386,M,40.593,M,2.9,0123*6F
$GPVTG,336.91,T,-302.99,M,003.682,N,006.819,K,D*0D
$GPGGA,081544.25,5703.2582587,N,00951.7990304,E,2,11,0.7,-1.389,M,40.593,M,3.1,0123*61
$GPVTG,337.45,T,-302.45,M,003.690,N,006.834,K,D*08
$GPGGA,081544.30,5703.2583069,N,00951.7989945,E,2,11,0.7,-1.389,M,40.593,M,3.1,0123*66
$GPVTG,338.18,T,-301.72,M,003.712,N,006.874,K,D*07
$GPGGA,081544.35,5703.2583548,N,00951.7989602,E,2,11,0.7,-1.392,M,40.593,M,3.1,0123*63
$GPVTG,338.92,T,-300.98,M,003.720,N,006.889,K,D*03
$GPGGA,081544.40,5703.2584030,N,00951.7989282,E,2,11,0.7,-1.395,M,40.593,M,3.1,0123*67
$GPVTG,339.82,T,-300.08,M,003.725,N,006.898,K,D*0F
$GPGGA,081544.45,5703.2584535,N,00951.7988959,E,2,11,0.7,-1.390,M,40.593,M,3.4,0123*6E
$GPVTG,340.66,T,-299.24,M,003.748,N,006.942,K,D*09
$GPGGA,081544.50,5703.2585035,N,00951.7988650,E,2,11,0.7,-1.389,M,40.593,M,3.4,0123*60
$GPVTG,341.47,T,-298.43,M,003.772,N,006.986,K,D*0A
$GPGGA,081544.55,5703.2585529,N,00951.7988384,E,2,11,0.7,-1.390,M,40.593,M,3.4,0123*69
$GPVTG,342.64,T,-297.26,M,003.771,N,006.984,K,D*05
$GPGGA,081544.60,5703.2586033,N,00951.7988135,E,2,11,0.7,-1.389,M,40.593,M,3.4,0123*62
$GPVTG,343.88,T,-296.02,M,003.782,N,007.005,K,D*0C
$GPGGA,081544.65,5703.2586536,N,00951.7987887,E,2,11,0.7,-1.391,M,40.593,M,3.6,0123*63
$GPVTG,344.85,T,-295.05,M,003.793,N,007.024,K,D*01
$GPGGA,081544.70,5703.2587040,N,00951.7987652,E,2,11,0.7,-1.392,M,40.593,M,3.6,0123*67
$GPVTG,345.81,T,-294.09,M,003.797,N,007.032,K,D*0A
$GPGGA,081544.75,5703.2587552,N,00951.7987420,E,2,11,0.7,-1.391,M,40.593,M,3.6,0123*60
$GPVTG,346.64,T,-293.26,M,003.813,N,007.062,K,D*0E
$GPGGA,081544.80,5703.2588060,N,00951.7987192,E,2,11,0.7,-1.388,M,40.593,M,3.6,0123*65
$GPVTG,347.29,T,-292.61,M,003.819,N,007.073,K,D*0E
$GPGGA,081544.85,5703.2588574,N,00951.7986984,E,2,11,0.7,-1.381,M,40.593,M,3.8,0123*69
$GPVTG,348.08,T,-291.82,M,003.822,N,007.078,K,D*0F
$GPGGA,081544.90,5703.2589085,N,00951.7986800,E,2,11,0.7,-1.379,M,40.593,M,3.8,0123*6D
$GPVTG,349.00,T,-290.90,M,003.821,N,007.077,K,D*08
$GPGGA,081544.95,5703.2589598,N,00951.7986631,E,2,11,0.7,-1.379,M,40.593,M,3.8,0123*6D
$GPVTG,349.92,T,-289.98,M,003.821,N,007.077,K,D*03
$GPGGA,081545.00,5703.2590106,N,00951.7986462,E,2,11,0.7,-1.378,M,40.593,M,3.8,0123*6E
$GPVTG,350.62,T,-289.28,M,003.814,N,007.063,K,D*0C
$GPGGA,081545.05,5703.2590593,N,00951.7986302,E,2,11,0.7,-1.381,M,40.593,M,1.5,0123*6B
$GPVTG,351.28,T,-288.62,M,003.808,N,007.051,K,D*00
$GPGGA,081545.10,5703.2591107,N,00951.7986159,E,2,11,0.7,-1.382,M,40.593,M,1.5,0123*68
$GPVTG,352.00,T,-287.90,M,003.808,N,007.052,K,D*08
$GPGGA,081545.15,5703.2591623,N,00951.7986036,E,2,11,0.7,-1.383,M,40.593,M,1.5,0123*65
$GPVTG,352.85,T,-287.05,M,003.807,N,007.051,K,D*05
$GPGGA,081545.20,5703.2592131,N,00951.7985928,E,2,11,0.7,-1.385,M,40.593,M,1.5,0123*67
$GPVTG,353.69,T,-286.21,M,003.795,N,007.028,K,D*0B
$GPGGA,081545.25,5703.2592647,N,00951.7985830,E,2,11,0.7,-1.384,M,40.593,M,1.7,0123*6F
$GPVTG,354.49,T,-285.41,M,003.792,N,007.024,K,D*00
$GPGGA,081545.30,5703.2593176,N,00951.7985741,E,2,11,0.7,-1.382,M,40.593,M,1.7,0123*60
$GPVTG,355.26,T,-284.64,M,003.808,N,007.052,K,D*03
$GPGGA,081545.35,5703.2593700,N,00951.7985659,E,2,11,0.7,-1.380,M,40.593,M,1.7,0123*68
$GPVTG,355.93,T,-283.97,M,003.814,N,007.063,K,D*09
$GPGGA,081545.40,5703.2594216,N,00951.7985592,E,2,11,0.7,-1.380,M,40.593,M,1.7,0123*6B
$GPVTG,356.62,T,-283.28,M,003.808,N,007.052,K,D*0F
$GPGGA,081545.45,5703.2594748,N,00951.7985536,E,2,11,0.7,-1.377,M,40.593,M,2.0,0123*62
$GPVTG,357.30,T,-282.60,M,003.824,N,007.082,K,D*07
$GPGGA,081545.50,5703.2595275,N,00951.7985500,E,2,11,0.7,-1.375,M,40.593,M,2.0,0123*6B
$GPVTG,358.10,T,-281.80,M,003.829,N,007.092,K,D*0B
$GPGGA,081545.55,5703.2595794,N,00951.7985481,E,2,11,0.7,-1.373,M,40.593,M,2.0,0123*6A
$GPVTG,358.94,T,-280.96,M,003.823,N,007.081,K,D*09
$GPGGA,081545.60,5703.2596316,N,00951.7985483,E,2,11,0.7,-1.374,M,40.593,M,2.0,0123*64
$GPVTG,359.90,T,-280.00,M,003.821,N,007.077,K,D*08
$GPGGA,081545.65,5703.2596858,N,00951.7985481,E,2,11,0.7,-1.367,M,40.593,M,2.2,0123*62
$GPVTG,000.62,T,-639.28,M,003.841,N,007.113,K,D*03
$GPGGA,081545.70,5703.2597392,N,00951.7985495,E,2,11,0.7,-1.364,M,40.593,M,2.2,0123*6C
$GPVTG,001.34,T,-638.56,M,003.853,N,007.136,K,D*0D
$GPGGA,081545.75,5703.2597914,N,00951.7985534,E,2,11,0.7,-1.366,M,40.593,M,2.2,0123*65
$GPVTG,002.25,T,-637.65,M,003.848,N,007.126,K,D*0A
$GPGGA,081545.80,5703.2598439,N,00951.7985592,E,2,11,0.7,-1.367,M,40.593,M,2.2,0123*6F
$GPVTG,003.21,T,-636.69,M,003.847,N,007.124,K,D*0F
$GPGGA,081545.85,5703.2598960,N,00951.7985654,E,2,11,0.7,-1.372,M,40.593,M,2.4,0123*60
$GPVTG,003.93,T,-635.97,M,003.851,N,007.131,K,D*07
$GPGGA,081545.90,5703.2599485,N,00951.7985717,E,2,11,0.7,-1.372,M,40.593,M,2.4,0123*65
$GPVTG,004.57,T,-635.33,M,003.850,N,007.130,K,D*06
$GPGGA,081545.95,5703.2600003,N,00951.7985796,E,2,11,0.7,-1.373,M,40.593,M,2.4,0123*61
$GPVTG,005.28,T,-634.62,M,003.840,N,007.112,K,D*0B
$GPGGA,081546.00,5703.2600528,N,00951.7985896,E,2,11,0.7,-1.373,M,40.593,M,2.4,0123*6D
$GPVTG,006.10,T,-633.80,M,003.841,N,007.114,K,D*0F
$GPGGA,081546.05,5703.2601051,N,00951.7986008,E,2,11,0.7,-1.370,M,40.593,M,1.5,0123*6F
$GPVTG,006.97,T,-632.93,M,003.847,N,007.125,K,D*07
$GPGGA,081546.10,5703.2601560,N,00951.7986150,E,2,11,0.7,-1.372,M,40.593,M,1.5,0123*62
$GPVTG,008.03,T,-631.87,M,003.832,N,007.097,K,D*08
$GPGGA,081546.15,5703.2602071,N,00951.7986296,E,2,11,0.7,-1.372,M,40.593,M,1.5,0123*68
$GPVTG,008.93,T,-630.97,M,003.819,N,007.073,K,D*02
$GPGGA,081546.20,5703.2602578,N,00951.7986460,E,2,11,0.7,-1.371,M,40.593,M,1.5,0123*6E
$GPVTG,009.89,T,-630.01,M,003.806,N,007.049,K,D*00
$GPGGA,081546.25,5703.2603114,N,00951.7986620,E,2,11,0.7,-1.361,M,40.593,M,1.7,0123*61
$GPVTG,010.59,T,-629.31,M,003.813,N,007.061,K,D*00
$GPGGA,081546.30,5703.2603631,N,00951.7986804,E,2,11,0.7,-1.361,M,40.593,M,1.7,0123*6D
$GPVTG,011.39,T,-628.51,M,003.815,N,007.065,K,D*02
$GPGGA,081546.35,5703.2604154,N,00951.7986975,E,2,11,0.7,-1.361,M,40.593,M,1.7,0123*6C
$GPVTG,011.80,T,-628.10,M,003.824,N,007.082,K,D*0E
$GPGGA,081546.40,5703.2604677,N,00951.7987162,E,2,11,0.7,-1.362,M,40.593,M,1.7,0123*64
$GPVTG,012.29,T,-627.61,M,003.834,N,007.100,K,D*0D
$GPGGA,081546.45,5703.2605170,N,00951.7987369,E,2,11,0.7,-1.371,M,40.593,M,1.9,0123*65
$GPVTG,012.90,T,-627.00,M,003.826,N,007.085,K,D*07
$GPGGA,081546.50,5703.2605675,N,00951.7987607,E,2,11,0.7,-1.373,M,40.593,M,1.9,0123*6C
$GPVTG,013.88,T,-626.02,M,003.816,N,007.067,K,D*03
$GPGGA,081546.55,5703.2606196,N,00951.7987841,E,2,11,0.7,-1.374,M,40.593,M,1.9,0123*6B
$GPVTG,014.51,T,-625.39,M,003.833,N,007.100,K,D*0C
$GPGGA,081546.60,5703.2606711,N,00951.7988091,E,2,11,0.7,-1.377,M,40.593,M,1.9,0123*6D
$GPVTG,015.22,T,-624.68,M,003.842,N,007.116,K,D*0D
$GPGGA,081546.65,5703.2607212,N,00951.7988360,E,2,11,0.7,-1.379,M,40.593,M,2.2,0123*64
$GPVTG,016.14,T,-623.76,M,003.829,N,007.091,K,D*00
$GPGGA,081546.70,5703.2607706,N,00951.7988652,E,2,11,0.7,-1.380,M,40.593,M,2.2,0123*62
$GPVTG,017.18,T,-622.72,M,003.817,N,007.070,K,D*0A
$GPGGA,081546.75,5703.2608198,N,00951.7988962,E,2,11,0.7,-1.382,M,40.593,M,2.2,0123*67
$GPVTG,018.28,T,-621.62,M,003.811,N,007.058,K,D*08
$GPGGA,081546.80,5703.2608684,N,00951.7989286,E,2,11,0.7,-1.384,M,40.593,M,2.2,0123*61
$GPVTG,019.39,T,-620.51,M,003.800,N,007.038,K,D*0E
$GPGGA,081546.85,5703.2609165,N,00951.7989624,E,2,11,0.7,-1.389,M,40.593,M,2.4,0123*6A
$GPVTG,020.36,T,-619.54,M,003.798,N,007.034,K,D*06
$GPGGA,081546.90,5703.2609647,N,00951.7989966,E,2,11,0.7,-1.391,M,40.593,M,2.4,0123*69
$GPVTG,021.29,T,-618.61,M,003.789,N,007.017,K,D*0F
$GPGGA,081546.95,5703.2610123,N,00951.7990315,E,2,11,0.7,-1.394,M,40.593,M,2.4,0123*62
$GPVTG,022.16,T,-617.74,M,003.774,N,006.990,K,D*0E
$GPGGA,081547.00,5703.2610609,N,00951.7990677,E,2,11,0.7,-1.393,M,40.593,M,2.4,0123*66
$GPVTG,022.92,T,-616.98,M,003.779,N,006.999,K,D*05
$GPGGA,081547.05,5703.2611093,N,00951.7991044,E,2,11,0.7,-1.385,M,40.593,M,2.6,0123*65
$GPVTG,023.71,T,-616.19,M,003.781,N,007.002,K,D*0D
$GPGGA,081547.10,5703.2611569,N,00951.7991453,E,2,11,0.7,-1.386,M,40.593,M,2.6,0123*60
$GPVTG,024.77,T,-615.13,M,003.789,N,007.017,K,D*09
$GPGGA,081547.15,5703.2612043,N,00951.7991875,E,2,11,0.7,-1.386,M,40.593,M,2.6,0123*63
$GPVTG,025.80,T,-614.10,M,003.798,N,007.033,K,D*04
$GPGGA,081547.20,5703.2612510,N,00951.7992304,E,2,11,0.7,-1.386,M,40.593,M,2.6,0123*68
$GPVTG,026.77,T,-613.13,M,003.799,N,007.036,K,D*0F
$GPGGA,081547.25,5703.2612972,N,00951.7992740,E,2,11,0.7,-1.388,M,40.593,M,2.8,0123*61
$GPVTG,027.59,T,-612.31,M,003.798,N,007.034,K,D*00
$GPGGA,081547.30,5703.2613445,N,00951.7993170,E,2,11,0.7,-1.387,M,40.593,M,2.8,0123*66
$GPVTG,028.08,T,-611.82,M,003.805,N,007.047,K,D*0F
$GPGGA,081547.35,5703.2613898,N,00951.7993626,E,2,11,0.7,-1.388,M,40.593,M,2.8,0123*64
$GPVTG,028.95,T,-610.95,M,003.796,N,007.031,K,D*08
$GPGGA,081547.40,5703.2614355,N,00951.7994104,E,2,11,0.7,-1.387,M,40.593,M,2.8,0123*64
$GPVTG,029.85,T,-610.05,M,003.803,N,007.044,K,D*00
$GPGGA,081547.45,5703.2614795,N,00951.7994587,E,2,11,0.7,-1.388,M,40.593,M,3.0,0123*60
$GPVTG,030.79,T,-609.11,M,003.790,N,007.018,K,D*0A
$GPGGA,081547.50,5703.2615234,N,00951.7995070,E,2,11,0.7,-1.389,M,40.593,M,3.0,0123*66
$GPVTG,031.55,T,-608.35,M,003.775,N,006.992,K,D*03
$GPGGA,081547.55,5703.2615689,N,00951.7995549,E,2,11,0.7,-1.387,M,40.593,M,3.0,0123*60
$GPVTG,031.90,T,-608.00,M,003.778,N,006.997,K,D*04
$GPGGA,081547.60,5703.2616124,N,00951.7996065,E,2,11,0.7,-1.385,M,40.593,M,3.0,0123*6F
$GPVTG,032.81,T,-607.09,M,003.775,N,006.991,K,D*0A
$GPGGA,081547.65,5703.2616552,N,00951.7996574,E,2,11,0.7,-1.384,M,40.593,M,3.2,0123*69
$GPVTG,033.50,T,-606.40,M,003.760,N,006.963,K,D*02
$GPGGA,081547.70,5703.2616996,N,00951.7997085,E,2,11,0.7,-1.382,M,40.593,M,3.2,0123*65
$GPVTG,033.87,T,-606.03,M,003.765,N,006.973,K,D*0B
$GPGGA,081547.75,5703.2617431,N,00951.7997612,E,2,11,0.7,-1.381,M,40.593,M,3.2,0123*6A
$GPVTG,034.42,T,-605.48,M,003.767,N,006.977,K,D*0F
$GPGGA,081547.80,5703.2617852,N,00951.7998147,E,2,11,0.7,-1.380,M,40.593,M,3.2,0123*60
$GPVTG,035.09,T,-604.81,M,003.755,N,006.954,K,D*05
$GPGGA,081547.85,5703.2618267,N,00951.7998702,E,2,11,0.7,-1.377,M,40.593,M,3.4,0123*6F
$GPVTG,035.98,T,-603.92,M,003.745,N,006.937,K,D*0C
$GPGGA,081547.90,5703.2618674,N,00951.7999273,E,2,11,0.7,-1.377,M,40.593,M,3.4,0123*6F
$GPVTG,036.92,T,-602.98,M,003.738,N,006.922,K,D*00
$GPGGA,081547.95,5703.2619089,N,00951.7999857,E,2,11,0.7,-1.376,M,40.593,M,3.4,0123*62
$GPVTG,037.74,T,-602.16,M,003.747,N,006.940,K,D*03
$GPGGA,081548.00,5703.2619487,N,00951.8000448,E,2,11,0.7,-1.376,M,40.593,M,3.4,0123*6F
$GPVTG,038.68,T,-601.22,M,003.739,N,006.925,K,D*0F
$GPGGA,081548.05,5703.2619871,N,00951.8001047,E,2,11,0.7,-1.372,M,40.593,M,2.9,0123*6D
$GPVTG,039.72,T,-600.18,M,003.730,N,006.908,K,D*0B
$GPGGA,081548.10,5703.2620266,N,00951.8001662,E,2,11,0.7,-1.374,M,40.593,M,2.9,0123*68
$GPVTG,040.59,T,-599.31,M,003.735,N,006.916,K,D*0E
$GPGGA,081548.15,5703.2620661,N,00951.8002275,E,2,11,0.7,-1.373,M,40.593,M,2.9,0123*68
$GPVTG,041.21,T,-598.69,M,003.736,N,006.920,K,D*0A
$GPGGA,081548.20,5703.2621036,N,00951.8002910,E,2,11,0.7,-1.374,M,40.593,M,2.9,0123*64
$GPVTG,042.23,T,-597.67,M,003.729,N,006.906,K,D*00
$GPGGA,081548.25,5703.2621411,N,00951.8003559,E,2,11,0.7,-1.375,M,40.593,M,3.1,0123*68
$GPVTG,043.16,T,-596.74,M,003.733,N,006.913,K,D*0B
$GPGGA,081548.30,5703.2621787,N,00951.8004216,E,2,11,0.7,-1.374,M,40.593,M,3.1,0123*6A
$GPVTG,044.00,T,-595.90,M,003.739,N,006.926,K,D*0E
$GPGGA,081548.35,5703.2622156,N,00951.8004873,E,2,11,0.7,-1.374,M,40.593,M,3.1,0123*6F
$GPVTG,044.75,T,-595.15,M,003.739,N,006.924,K,D*03
$GPGGA,081548.40,5703.2622521,N,00951.8005535,E,2,11,0.7,-1.374,M,40.593,M,3.1,0123*67
$GPVTG,045.45,T,-594.45,M,003.735,N,006.917,K,D*09
$GPGGA,081548.45,5703.2622872,N,00951.8006204,E,2,11,0.7,-1.375,M,40.593,M,3.4,0123*6B
$GPVTG,046.27,T,-593.63,M,003.722,N,006.893,K,D*06
$GPGGA,081548.50,5703.2623201,N,00951.8006894,E,2,11,0.7,-1.377,M,40.593,M,3.4,0123*61
$GPVTG,047.51,T,-592.39,M,003.701,N,006.854,K,D*02
$GPGGA,081548.55,5703.2623534,N,00951.8007599,E,2,11,0.7,-1.379,M,40.593,M,3.4,0123*6A
$GPVTG,048.61,T,-591.29,M,003.696,N,006.845,K,D*03
$GPGGA,081548.60,5703.2623858,N,00951.8008303,E,2,11,0.7,-1.380,M,40.593,M,3.4,0123*67
$GPVTG,049.65,T,-590.25,M,003.683,N,006.820,K,D*0C
$GPGGA,081548.65,5703.2624173,N,00951.8009009,E,2,11,0.7,-1.384,M,40.593,M,3.6,0123*6B
$GPVTG,050.53,T,-589.37,M,003.669,N,006.794,K,D*0E
$GPGGA,081548.70,5703.2624490,N,00951.8009725,E,2,11,0.7,-1.380,M,40.593,M,3.6,0123*6A
$GPVTG,051.41,T,-588.49,M,003.660,N,006.778,K,D*0F
$GPGGA,081548.75,5703.2624795,N,00951.8010446,E,2,11,0.7,-1.379,M,40.593,M,3.6,0123*61
$GPVTG,052.36,T,-587.54,M,003.644,N,006.749,K,D*0B
$GPGGA,081548.80,5703.2625100,N,00951.8011168,E,2,11,0.7,-1.379,M,40.593,M,3.6,0123*68
$GPVTG,053.11,T,-586.79,M,003.632,N,006.727,K,D*08
$GPGGA,081548.85,5703.2625404,N,00951.8011884,E,2,11,0.7,-1.379,M,40.593,M,3.8,0123*69
$GPVTG,053.65,T,-586.25,M,003.616,N,006.696,K,D*0F
$GPGGA,081548.90,5703.2625700,N,00951.8012608,E,2,11,0.7,-1.378,M,40.593,M,3.8,0123*62
$GPVTG,054.27,T,-585.63,M,003.600,N,006.667,K,D*06
$GPGGA,081548.95,5703.2625990,N,00951.8013339,E,2,11,0.7,-1.376,M,40.593,M,3.8,0123*68
$GPVTG,054.94,T,-584.96,M,003.586,N,006.642,K,D*0F
$GPGGA,081549.00,5703.2626275,N,00951.8014078,E,2,11,0.7,-1.374,M,40.593,M,3.8,0123*65
$GPVTG,055.61,T,-584.29,M,003.575,N,006.621,K,D*09
$GPGGA,081549.05,5703.2626550,N,00951.8014806,E,2,11,0.7,-1.367,M,40.593,M,1.5,0123*6C
$GPVTG,056.28,T,-583.62,M,003.556,N,006.586,K,D*00
$GPGGA,081549.10,5703.2626817,N,00951.8015570,E,2,11,0.7,-1.365,M,40.593,M,1.5,0123*69
$GPVTG,057.22,T,-582.68,M,003.555,N,006.584,K,D*01
$GPGGA,081549.15,5703.2627088,N,00951.8016338,E,2,11,0.7,-1.362,M,40.593,M,1.5,0123*6D
$GPVTG,057.93,T,-581.97,M,003.560,N,006.594,K,D*0F
$GPGGA,081549.20,5703.2627348,N,00951.8017098,E,2,11,0.7,-1.362,M,40.593,M,1.5,0123*6C
$GPVTG,058.62,T,-581.28,M,003.550,N,006.575,K,D*06
$GPGGA,081549.25,5703.2627602,N,00951.8017868,E,2,11,0.7,-1.360,M,40.593,M,1.7,0123*65
$GPVTG,059.28,T,-580.62,M,003.547,N,006.569,K,D*0D
$GPGGA,081549.30,5703.2627849,N,00951.8018658,E,2,11,0.7,-1.358,M,40.593,M,1.7,0123*69
$GPVTG,060.18,T,-579.72,M,003.553,N,006.580,K,D*01
$GPGGA,081549.35,5703.2628091,N,00951.8019438,E,2,11,0.7,-1.357,M,40.593,M,1.7,0123*64
$GPVTG,060.91,T,-578.99,M,003.547,N,006.569,K,D*06
$GPGGA,081549.40,5703.2628320,N,00951.8020226,E,2,11,0.7,-1.357,M,40.593,M,1.7,0123*6C
$GPVTG,061.82,T,-578.08,M,003.538,N,006.553,K,D*0C
$GPGGA,081549.45,5703.2628552,N,00951.8021026,E,2,11,0.7,-1.356,M,40.593,M,2.0,0123*6C
$GPVTG,062.66,T,-577.24,M,003.544,N,006.563,K,D*0C
$GPGGA,081549.50,5703.2628772,N,00951.8021827,E,2,11,0.7,-1.356,M,40.593,M,2.0,0123*61
$GPVTG,063.48,T,-576.42,M,003.540,N,006.556,K,D*02
$GPGGA,081549.55,5703.2628997,N,00951.8022653,E,2,11,0.7,-1.356,M,40.593,M,2.0,0123*6F
$GPVTG,064.22,T,-575.68,M,003.562,N,006.598,K,D*00
$GPGGA,081549.60,5703.2629207,N,00951.8023475,E,2,11,0.7,-1.357,M,40.593,M,2.0,0123*6C
$GPVTG,065.06,T,-574.84,M,003.568,N,006.608,K,D*04
$GPGGA,081549.65,5703.2629389,N,00951.8024265,E,2,11,0.7,-1.366,M,40.593,M,2.2,0123*6E
$GPVTG,065.97,T,-573.93,M,003.560,N,006.593,K,D*04
$GPGGA,081549.70,5703.2629566,N,00951.8025078,E,2,11,0.7,-1.368,M,40.593,M,2.2,0123*6C
$GPVTG,067.14,T,-572.76,M,003.539,N,006.553,K,D*07
$GPGGA,081549.75,5703.2629740,N,00951.8025916,E,2,11,0.7,-1.371,M,40.593,M,2.2,0123*66
$GPVTG,068.31,T,-571.59,M,003.538,N,006.553,K,D*00
$GPGGA,081549.80,5703.2629912,N,00951.8026754,E,2,11,0.7,-1.372,M,40.593,M,2.2,0123*6D
$GPVTG,069.31,T,-570.59,M,003.538,N,006.553,K,D*00
$GPGGA,081549.85,5703.2630074,N,00951.8027603,E,2,11,0.7,-1.376,M,40.593,M,2.4,0123*69
$GPVTG,070.36,T,-569.54,M,003.542,N,006.560,K,D*07
$GPGGA,081549.90,5703.2630228,N,00951.8028433,E,2,11,0.7,-1.378,M,40.593,M,2.4,0123*66
$GPVTG,071.33,T,-568.57,M,003.524,N,006.526,K,D*03
$GPGGA,081549.95,5703.2630372,N,00951.8029261,E,2,11,0.7,-1.378,M,40.593,M,2.4,0123*6D
$GPVTG,072.34,T,-567.56,M,003.501,N,006.485,K,D*06
$GPGGA,081550.00,5703.2630519,N,00951.8030091,E,2,11,0.7,-1.379,M,40.593,M,2.4,0123*66
$GPVTG,073.12,T,-566.78,M,003.485,N,006.455,K,D*0E
$GPGGA,081550.05,5703.2630656,N,00951.8030908,E,2,11,0.7,-1.370,M,40.593,M,1.5,0123*69
$GPVTG,073.93,T,-565.97,M,003.462,N,006.411,K,D*0C
$GPGGA,081550.10,5703.2630786,N,00951.8031761,E,2,11,0.7,-1.366,M,40.593,M,1.5,0123*66
$GPVTG,074.84,T,-565.06,M,003.465,N,006.417,K,D*04
$GPGGA,081550.15,5703.2630914,N,00951.8032603,E,2,11,0.7,-1.365,M,40.593,M,1.5,0123*63
$GPVTG,075.58,T,-564.32,M,003.457,N,006.402,K,D*07
$GPGGA,081550.20,5703.2631033,N,00951.8033443,E,2,11,0.7,-1.363,M,40.593,M,1.5,0123*69
$GPVTG,076.33,T,-563.57,M,003.446,N,006.382,K,D*02
$GPGGA,081550.25,5703.2631149,N,00951.8034286,E,2,11,0.7,-1.360,M,40.593,M,1.7,0123*69
$GPVTG,077.04,T,-562.86,M,003.437,N,006.366,K,D*06
$GPGGA,081550.30,5703.2631256,N,00951.8035122,E,2,11,0.7,-1.359,M,40.593,M,1.7,0123*66
$GPVTG,077.76,T,-562.14,M,003.421,N,006.336,K,D*0A
$GPGGA,081550.35,5703.2631359,N,00951.8035975,E,2,11,0.7,-1.357,M,40.593,M,1.7,0123*69
$GPVTG,078.47,T,-561.43,M,003.421,N,006.336,K,D*06
$GPGGA,081550.40,5703.2631464,N,00951.8036832,E,2,11,0.7,-1.353,M,40.593,M,1.7,0123*67
$GPVTG,078.99,T,-560.91,M,003.427,N,006.347,K,D*0B
$GPGGA,081550.45,5703.2631545,N,00951.8037691,E,2,11,0.7,-1.357,M,40.593,M,1.9,0123*6C
$GPVTG,079.84,T,-560.06,M,003.428,N,006.349,K,D*09
$GPGGA,081550.50,5703.2631631,N,00951.8038551,E,2,11,0.7,-1.357,M,40.593,M,1.9,0123*68
$GPVTG,080.52,T,-559.38,M,003.431,N,006.354,K,D*07
$GPGGA,081550.55,5703.2631702,N,00951.8039414,E,2,11,0.7,-1.358,M,40.593,M,1.9,0123*62
$GPVTG,081.40,T,-558.50,M,003.433,N,006.357,K,D*0B
$GPGGA,081550.60,5703.2631773,N,00951.8040270,E,2,11,0.7,-1.359,M,40.593,M,1.9,0123*69
$GPVTG,082.12,T,-557.78,M,003.428,N,006.348,K,D*0E
$GPGGA,081550.65,5703.2631826,N,00951.8041126,E,2,11,0.7,-1.362,M,40.593,M,2.2,0123*62
$GPVTG,083.05,T,-556.85,M,003.420,N,006.333,K,D*0E
$GPGGA,081550.70,5703.2631878,N,00951.8041982,E,2,11,0.7,-1.363,M,40.593,M,2.2,0123*6A
$GPVTG,083.91,T,-555.99,M,003.413,N,006.321,K,D*0E
$GPGGA,081550.75,5703.2631930,N,00951.8042842,E,2,11,0.7,-1.364,M,40.593,M,2.2,0123*6B
$GPVTG,084.58,T,-555.32,M,003.412,N,006.319,K,D*07
$GPGGA,081550.80,5703.2631970,N,00951.8043699,E,2,11,0.7,-1.365,M,40.593,M,2.2,0123*6D
$GPVTG,085.41,T,-554.49,M,003.406,N,006.308,K,D*06
$GPGGA,081550.85,5703.2632003,N,00951.8044573,E,2,11,0.7,-1.363,M,40.593,M,2.4,0123*66
$GPVTG,086.38,T,-553.52,M,003.416,N,006.327,K,D*0A
$GPGGA,081550.90,5703.2632029,N,00951.8045444,E,2,11,0.7,-1.364,M,40.593,M,2.4,0123*69
$GPVTG,087.21,T,-552.69,M,003.422,N,006.338,K,D*03
$GPGGA,081550.95,5703.2632041,N,00951.8046297,E,2,11,0.7,-1.368,M,40.593,M,2.4,0123*65
$GPVTG,088.22,T,-551.68,M,003.410,N,006.316,K,D*00
$GPGGA,081551.00,5703.2632047,N,00951.8047141,E,2,11,0.7,-1.372,M,40.593,M,2.4,0123*6C
$GPVTG,089.21,T,-550.69,M,003.391,N,006.281,K,D*03
$GPGGA,081551.05,5703.2632037,N,00951.8047984,E,2,11,0.7,-1.369,M,40.593,M,2.6,0123*67
$GPVTG,090.33,T,-549.57,M,003.380,N,006.260,K,D*02
$GPGGA,081551.10,5703.2632024,N,00951.8048837,E,2,11,0.7,-1.370,M,40.593,M,2.6,0123*6F
$GPVTG,091.38,T,-548.52,M,003.375,N,006.251,K,D*04
$GPGGA,081551.15,5703.2632006,N,00951.8049682,E,2,11,0.7,-1.371,M,40.593,M,2.6,0123*6A
$GPVTG,092.39,T,-547.51,M,003.364,N,006.231,K,D*0C
$GPGGA,081551.20,5703.2631982,N,00951.8050531,E,2,11,0.7,-1.373,M,40.593,M,2.6,0123*6B
$GPVTG,093.33,T,-546.57,M,003.360,N,006.223,K,D*07
$GPGGA,081551.25,5703.2631952,N,00951.8051371,E,2,11,0.7,-1.375,M,40.593,M,2.8,0123*68
$GPVTG,094.26,T,-545.64,M,003.352,N,006.208,K,D*0F
$GPGGA,081551.30,5703.2631918,N,00951.8052230,E,2,11,0.7,-1.375,M,40.593,M,2.8,0123*65
$GPVTG,095.06,T,-544.84,M,003.361,N,006.225,K,D*0C
$GPGGA,081551.35,5703.2631870,N,00951.8053086,E,2,11,0.7,-1.376,M,40.593,M,2.8,0123*62
$GPVTG,096.04,T,-543.86,M,003.369,N,006.239,K,D*0D
$GPGGA,081551.40,5703.2631819,N,00951.8053933,E,2,11,0.7,-1.376,M,40.593,M,2.8,0123*68
$GPVTG,096.92,T,-542.98,M,003.368,N,006.237,K,D*03
$GPGGA,081551.45,5703.2631763,N,00951.8054772,E,2,11,0.7,-1.376,M,40.593,M,3.0,0123*6A
$GPVTG,097.79,T,-542.11,M,003.362,N,006.226,K,D*0C
$GPGGA,081551.50,5703.2631710,N,00951.8055598,E,2,11,0.7,-1.376,M,40.593,M,3.0,0123*6D
$GPVTG,098.40,T,-541.50,M,003.344,N,006.193,K,D*06
$GPGGA,081551.55,5703.2631645,N,00951.8056427,E,2,11,0.7,-1.378,M,40.593,M,3.0,0123*61
$GPVTG,099.14,T,-540.76,M,003.333,N,006.173,K,D*0D
$GPGGA,081551.60,5703.2631573,N,00951.8057258,E,2,11,0.7,-1.378,M,40.593,M,3.0,0123*6E
$GPVTG,099.91,T,-539.99,M,003.328,N,006.164,K,D*03
$GPGGA,081551.65,5703.2631491,N,00951.8058088,E,2,11,0.7,-1.380,M,40.593,M,3.2,0123*63
$GPVTG,100.72,T,-539.18,M,003.327,N,006.161,K,D*0C
$GPGGA,081551.70,5703.2631410,N,00951.8058891,E,2,11,0.7,-1.380,M,40.593,M,3.2,0123*6E
$GPVTG,101.47,T,-538.43,M,003.300,N,006.113,K,D*04
$GPGGA,081551.75,5703.2631300,N,00951.8059710,E,2,11,0.7,-1.380,M,40.593,M,3.2,0123*6A
$GPVTG,102.73,T,-537.17,M,003.302,N,006.116,K,D*09
$GPGGA,081551.80,5703.2631190,N,00951.8060517,E,2,11,0.7,-1.379,M,40.593,M,3.2,0123*62
$GPVTG,103.81,T,-536.09,M,003.294,N,006.100,K,D*02
$GPGGA,081551.85,5703.2631080,N,00951.8061306,E,2,11,0.7,-1.377,M,40.593,M,3.4,0123*68
$GPVTG,104.83,T,-535.07,M,003.275,N,006.065,K,D*07
$GPGGA,081551.90,5703.2630964,N,00951.8062093,E,2,11,0.7,-1.377,M,40.593,M,3.4,0123*62
$GPVTG,105.74,T,-534.16,M,003.257,N,006.032,K,D*0D
$GPGGA,081551.95,5703.2630843,N,00951.8062894,E,2,11,0.7,-1.376,M,40.593,M,3.4,0123*6D
$GPVTG,106.54,T,-533.36,M,003.258,N,006.034,K,D*00
$GPGGA,081552.00,5703.2630723,N,00951.8063688,E,2,11,0.7,-1.375,M,40.593,M,3.4,0123*6A
$GPVTG,107.14,T,-532.76,M,003.253,N,006.025,K,D*0B
$GPGGA,081552.05,5703.2630587,N,00951.8064485,E,2,11,0.7,-1.375,M,40.593,M,2.9,0123*67
$GPVTG,107.83,T,-532.07,M,003.263,N,006.043,K,D*00
$GPGGA,081552.10,5703.2630452,N,00951.8065278,E,2,11,0.7,-1.374,M,40.593,M,2.9,0123*6E
$GPVTG,108.52,T,-531.38,M,003.265,N,006.047,K,D*0E
$GPGGA,081552.15,5703.2630306,N,00951.8066056,E,2,11,0.7,-1.373,M,40.593,M,2.9,0123*67
$GPVTG,109.38,T,-530.52,M,003.259,N,006.036,K,D*07
$GPGGA,081552.20,5703.2630162,N,00951.8066813,E,2,11,0.7,-1.375,M,40.593,M,2.9,0123*6E
$GPVTG,110.13,T,-529.77,M,003.235,N,005.992,K,D*07
$GPGGA,081552.25,5703.2630011,N,00951.8067577,E,2,11,0.7,-1.375,M,40.593,M,3.1,0123*69
$GPVTG,110.85,T,-529.05,M,003.225,N,005.973,K,D*03
$GPGGA,081552.30,5703.2629835,N,00951.8068374,E,2,11,0.7,-1.374,M,40.593,M,3.1,0123*60
$GPVTG,111.83,T,-528.07,M,003.259,N,006.036,K,D*07
$GPGGA,081552.35,5703.2629656,N,00951.8069143,E,2,11,0.7,-1.374,M,40.593,M,3.1,0123*69
$GPVTG,112.87,T,-527.03,M,003.269,N,006.054,K,D*0C
$GPGGA,081552.40,5703.2629460,N,00951.8069909,E,2,11,0.7,-1.372,M,40.593,M,3.1,0123*6C
$GPVTG,114.11,T,-525.79,M,003.286,N,006.085,K,D*07
$GPGGA,081552.45,5703.2629317,N,00951.8070595,E,2,11,0.7,-1.372,M,40.593,M,3.4,0123*6A
$GPVTG,115.04,T,-524.86,M,003.263,N,006.044,K,D*05
$GPGGA,081552.50,5703.2629111,N,00951.8071348,E,2,11,0.7,-1.373,M,40.593,M,3.4,0123*6C
$GPVTG,116.17,T,-523.73,M,003.278,N,006.070,K,D*04
$GPGGA,081552.55,5703.2628907,N,00951.8072081,E,2,11,0.7,-1.373,M,40.593,M,3.4,0123*62
$GPVTG,117.18,T,-522.72,M,003.274,N,006.064,K,D*03
$GPGGA,081552.60,5703.2628694,N,00951.8072799,E,2,11,0.7,-1.371,M,40.593,M,3.4,0123*6D
$GPVTG,118.31,T,-521.59,M,003.266,N,006.049,K,D*01
$GPGGA,081552.65,5703.2628479,N,00951.8073496,E,2,11,0.7,-1.371,M,40.593,M,3.6,0123*66
$GPVTG,119.46,T,-520.44,M,003.247,N,006.013,K,D*01
$GPGGA,081552.70,5703.2628254,N,00951.8074199,E,2,11,0.7,-1.373,M,40.593,M,3.6,0123*64
$GPVTG,120.54,T,-519.36,M,003.241,N,006.002,K,D*01
