$GPGGA,082128.10,5703.2674153,N,00951.8246350,E,2,11,0.7,-0.973,M,40.593,M,2.2,0123*6F
$GPVTG,047.55,T,-592.35,M,004.532,N,008.393,K,D*01
$GPGGA,082128.15,5703.2674568,N,00951.8247209,E,2,11,0.7,-0.975,M,40.593,M,2.2,0123*6C
$GPVTG,048.32,T,-591.58,M,004.519,N,008.369,K,D*0B
$GPGGA,082128.20,5703.2674995,N,00951.8248081,E,2,11,0.7,-0.975,M,40.593,M,2.2,0123*69
$GPVTG,048.63,T,-591.27,M,004.555,N,008.435,K,D*01
$GPGGA,082128.25,5703.2675410,N,00951.8248976,E,2,11,0.7,-0.971,M,40.593,M,2.4,0123*6E
$GPVTG,049.61,T,-590.29,M,004.585,N,008.492,K,D*0D
$GPGGA,082128.30,5703.2675817,N,00951.8249853,E,2,11,0.7,-0.970,M,40.593,M,2.4,0123*67
$GPVTG,050.03,T,-589.87,M,004.568,N,008.460,K,D*03
$GPGGA,082128.35,5703.2676232,N,00951.8250747,E,2,11,0.7,-0.971,M,40.593,M,2.4,0123*6F
$GPVTG,050.27,T,-589.63,M,004.590,N,008.501,K,D*0E
$GPGGA,082128.40,5703.2676642,N,00951.8251634,E,2,11,0.7,-0.971,M,40.593,M,2.4,0123*6A
$GPVTG,050.39,T,-589.51,M,004.585,N,008.492,K,D*0F
$GPGGA,082128.45,5703.2677040,N,00951.8252526,E,2,11,0.7,-0.970,M,40.593,M,2.6,0123*6A
$GPVTG,050.82,T,-589.08,M,004.574,N,008.471,K,D*00
$GPGGA,082128.50,5703.2677434,N,00951.8253423,E,2,11,0.7,-0.971,M,40.593,M,2.6,0123*6D
$GPVTG,051.25,T,-588.65,M,004.555,N,008.436,K,D*06
$GPGGA,082128.55,5703.2677833,N,00951.8254328,E,2,11,0.7,-0.972,M,40.593,M,2.6,0123*6B
$GPVTG,051.48,T,-588.42,M,004.560,N,008.446,K,D*09
$GPGGA,082128.60,5703.2678222,N,00951.8255245,E,2,11,0.7,-0.970,M,40.593,M,2.6,0123*61
$GPVTG,052.04,T,-587.86,M,004.567,N,008.458,K,D*0D
$GPGGA,082128.65,5703.2678609,N,00951.8256159,E,2,11,0.7,-0.964,M,40.593,M,2.8,0123*6F
$GPVTG,052.73,T,-587.17,M,004.559,N,008.444,K,D*05
$GPGGA,082128.70,5703.2678986,N,00951.8257097,E,2,11,0.7,-0.962,M,40.593,M,2.8,0123*67
$GPVTG,053.47,T,-586.43,M,004.572,N,008.467,K,D*0B
$GPGGA,082128.75,5703.2679356,N,00951.8258039,E,2,11,0.7,-0.962,M,40.593,M,2.8,0123*6F
$GPVTG,054.21,T,-585.69,M,004.573,N,008.470,K,D*00
$GPGGA,082128.80,5703.2679725,N,00951.8258985,E,2,11,0.7,-0.962,M,40.593,M,2.8,0123*6B
$GPVTG,054.75,T,-585.15,M,004.577,N,008.477,K,D*09
$GPGGA,082128.85,5703.2680085,N,00951.8259924,E,2,11,0.7,-0.964,M,40.593,M,3.1,0123*61
$GPVTG,055.15,T,-584.75,M,004.556,N,008.437,K,D*0E
$GPGGA,082128.90,5703.2680440,N,00951.8260886,E,2,11,0.7,-0.963,M,40.593,M,3.1,0123*6C
$GPVTG,055.90,T,-584.00,M,004.561,N,008.448,K,D*0D
$GPGGA,082128.95,5703.2680785,N,00951.8261873,E,2,11,0.7,-0.965,M,40.593,M,3.1,0123*6E
$GPVTG,057.01,T,-582.89,M,004.589,N,008.498,K,D*0B
$GPGGA,082129.00,5703.2681138,N,00951.8262861,E,2,11,0.7,-0.967,M,40.593,M,3.1,0123*60
$GPVTG,057.44,T,-582.46,M,004.619,N,008.554,K,D*02
$GPGGA,082129.05,5703.2681481,N,00951.8263839,E,2,11,0.7,-0.965,M,40.593,M,3.3,0123*6E
$GPVTG,057.91,T,-581.99,M,004.602,N,008.523,K,D*01
$GPGGA,082129.10,5703.2681818,N,00951.8264817,E,2,11,0.7,-0.965,M,40.593,M,3.3,0123*6D
$GPVTG,058.25,T,-581.65,M,004.580,N,008.482,K,D*01
$GPGGA,082129.15,5703.2682150,N,00951.8265808,E,2,11,0.7,-0.967,M,40.593,M,3.3,0123*63
$GPVTG,058.75,T,-581.15,M,004.576,N,008.476,K,D*01
$GPGGA,082129.20,5703.2682481,N,00951.8266787,E,2,11,0.7,-0.966,M,40.593,M,3.3,0123*66
$GPVTG,058.90,T,-581.00,M,004.553,N,008.431,K,D*0A
$GPGGA,082129.25,5703.2682801,N,00951.8267773,E,2,11,0.7,-0.966,M,40.593,M,3.5,0123*6B
$GPVTG,059.39,T,-580.51,M,004.529,N,008.387,K,D*0A
$GPGGA,082129.30,5703.2683110,N,00951.8268777,E,2,11,0.7,-0.966,M,40.593,M,3.5,0123*6C
$GPVTG,060.23,T,-579.67,M,004.525,N,008.380,K,D*03
$GPGGA,082129.35,5703.2683423,N,00951.8269783,E,2,11,0.7,-0.967,M,40.593,M,3.5,0123*67
$GPVTG,060.70,T,-579.20,M,004.533,N,008.396,K,D*06
$GPGGA,082129.40,5703.2683734,N,00951.8270790,E,2,11,0.7,-0.967,M,40.593,M,3.5,0123*6A
$GPVTG,061.00,T,-578.90,M,004.536,N,008.401,K,D*06
$GPGGA,082129.45,5703.2684044,N,00951.8271809,E,2,11,0.7,-0.965,M,40.593,M,3.7,0123*66
$GPVTG,061.38,T,-578.52,M,004.557,N,008.439,K,D*0F
$GPGGA,082129.50,5703.2684328,N,00951.8272825,E,2,11,0.7,-0.964,M,40.593,M,3.7,0123*67
$GPVTG,062.35,T,-577.55,M,004.531,N,008.391,K,D*0C
$GPGGA,082129.55,5703.2684625,N,00951.8273849,E,2,11,0.7,-0.964,M,40.593,M,3.7,0123*61
$GPVTG,062.62,T,-577.28,M,004.542,N,008.412,K,D*0C
$GPGGA,082129.60,5703.2684910,N,00951.8274879,E,2,11,0.7,-0.967,M,40.593,M,3.7,0123*69
$GPVTG,063.23,T,-576.67,M,004.542,N,008.412,K,D*02
$GPGGA,082129.65,5703.2685187,N,00951.8275908,E,2,11,0.7,-0.968,M,40.593,M,3.9,0123*6C
$GPVTG,063.71,T,-576.19,M,004.535,N,008.399,K,D*08
$GPGGA,082129.70,5703.2685454,N,00951.8276948,E,2,11,0.7,-0.968,M,40.593,M,3.9,0123*64
$GPVTG,064.57,T,-575.33,M,004.529,N,008.388,K,D*0D
$GPGGA,082129.75,5703.2685725,N,00951.8277990,E,2,11,0.7,-0.967,M,40.593,M,3.9,0123*6F
$GPVTG,065.01,T,-574.89,M,004.533,N,008.395,K,D*08
$GPGGA,082129.80,5703.2685985,N,00951.8279040,E,2,11,0.7,-0.966,M,40.593,M,3.9,0123*6A
$GPVTG,065.70,T,-574.20,M,004.534,N,008.397,K,D*08
$GPGGA,082129.85,5703.2686240,N,00951.8280086,E,2,11,0.7,-0.967,M,40.593,M,4.1,0123*6C
$GPVTG,066.23,T,-573.67,M,004.524,N,008.379,K,D*08
$GPGGA,082129.90,5703.2686487,N,00951.8281121,E,2,11,0.7,-0.967,M,40.593,M,4.1,0123*68
$GPVTG,066.69,T,-573.21,M,004.484,N,008.304,K,D*05
$GPGGA,082129.95,5703.2686732,N,00951.8282167,E,2,11,0.7,-0.968,M,40.593,M,4.1,0123*6E
$GPVTG,067.15,T,-572.75,M,004.473,N,008.284,K,D*0E
$GPGGA,082130.00,5703.2686969,N,00951.8283219,E,2,11,0.7,-0.969,M,40.593,M,4.1,0123*60
$GPVTG,067.73,T,-572.17,M,004.466,N,008.272,K,D*07
$GPGGA,082130.05,5703.2687206,N,00951.8284277,E,2,11,0.7,-0.962,M,40.593,M,1.6,0123*60
$GPVTG,068.36,T,-571.54,M,004.467,N,008.274,K,D*0A
$GPGGA,082130.10,5703.2687433,N,00951.8285326,E,2,11,0.7,-0.963,M,40.593,M,1.6,0123*61
$GPVTG,068.79,T,-571.11,M,004.448,N,008.238,K,D*05
$GPGGA,082130.15,5703.2687653,N,00951.8286384,E,2,11,0.7,-0.963,M,40.593,M,1.6,0123*6B
$GPVTG,069.36,T,-570.54,M,004.444,N,008.229,K,D*03
$GPGGA,082130.20,5703.2687873,N,00951.8287470,E,2,10,0.7,-0.962,M,40.593,M,1.6,0123*6C
$GPVTG,069.96,T,-569.94,M,004.492,N,008.319,K,D*04
$GPGGA,082130.25,5703.2688093,N,00951.8288542,E,2,10,0.7,-0.959,M,40.593,M,1.8,0123*69
$GPVTG,070.31,T,-569.59,M,004.496,N,008.327,K,D*09
$GPGGA,082130.30,5703.2688298,N,00951.8289613,E,2,10,0.7,-0.960,M,40.593,M,1.8,0123*68
$GPVTG,070.84,T,-569.06,M,004.485,N,008.306,K,D*0C
$GPGGA,082130.35,5703.2688501,N,00951.8290688,E,2,10,0.7,-0.963,M,40.593,M,1.8,0123*63
$GPVTG,071.27,T,-568.63,M,004.481,N,008.298,K,D*04
$GPGGA,082130.40,5703.2688701,N,00951.8291763,E,2,10,0.7,-0.964,M,40.593,M,1.8,0123*61
$GPVTG,071.64,T,-568.26,M,004.471,N,008.280,K,D*04
$GPGGA,082130.45,5703.2688909,N,00951.8292847,E,2,11,0.7,-0.962,M,40.593,M,2.1,0123*65
$GPVTG,071.78,T,-568.12,M,004.484,N,008.304,K,D*09
$GPGGA,082130.50,5703.2689089,N,00951.8293925,E,2,11,0.7,-0.963,M,40.593,M,2.1,0123*64
$GPVTG,072.61,T,-567.29,M,004.463,N,008.265,K,D*0A
$GPGGA,082130.55,5703.2689271,N,00951.8295005,E,2,11,0.7,-0.964,M,40.593,M,2.1,0123*6E
$GPVTG,073.11,T,-566.79,M,004.450,N,008.241,K,D*0E
$GPGGA,082130.60,5703.2689441,N,00951.8296084,E,2,11,0.7,-0.966,M,40.593,M,2.1,0123*65
$GPVTG,073.79,T,-566.11,M,004.431,N,008.206,K,D*0A
$GPGGA,082130.65,5703.2689610,N,00951.8297152,E,2,11,0.7,-0.968,M,40.593,M,2.3,0123*61
$GPVTG,074.00,T,-565.90,M,004.405,N,008.158,K,D*06
$GPGGA,082130.70,5703.2689776,N,00951.8298227,E,2,11,0.7,-0.968,M,40.593,M,2.3,0123*6A
$GPVTG,074.45,T,-565.45,M,004.390,N,008.131,K,D*0B
$GPGGA,082130.75,5703.2689927,N,00951.8299329,E,2,11,0.7,-0.970,M,40.593,M,2.3,0123*62
$GPVTG,075.44,T,-564.46,M,004.420,N,008.185,K,D*0A
$GPGGA,082130.80,5703.2690074,N,00951.8300420,E,2,11,0.7,-0.973,M,40.593,M,2.3,0123*63
$GPVTG,076.18,T,-563.72,M,004.419,N,008.184,K,D*0B
$GPGGA,082130.85,5703.2690217,N,00951.8301511,E,2,11,0.7,-0.974,M,40.593,M,2.6,0123*61
$GPVTG,076.90,T,-563.00,M,004.410,N,008.168,K,D*05
$GPGGA,082130.90,5703.2690364,N,00951.8302611,E,2,11,0.7,-0.975,M,40.593,M,2.6,0123*61
$GPVTG,077.13,T,-562.77,M,004.428,N,008.201,K,D*09
$GPGGA,082130.95,5703.2690507,N,00951.8303721,E,2,11,0.7,-0.976,M,40.593,M,2.6,0123*67
$GPVTG,077.40,T,-562.50,M,004.458,N,008.256,K,D*0F
$GPGGA,082131.00,5703.2690631,N,00951.8304820,E,2,11,0.7,-0.980,M,40.593,M,2.6,0123*6C
$GPVTG,078.17,T,-561.73,M,004.443,N,008.228,K,D*03
$GPGGA,082131.05,5703.2690746,N,00951.8305921,E,2,11,0.7,-0.977,M,40.593,M,1.5,0123*61
$GPVTG,079.07,T,-560.83,M,004.428,N,008.201,K,D*0B
$GPGGA,082131.10,5703.2690860,N,00951.8307031,E,2,11,0.7,-0.981,M,40.593,M,1.5,0123*6D
$GPVTG,079.68,T,-560.22,M,004.435,N,008.214,K,D*01
$GPGGA,082131.15,5703.2690966,N,00951.8308143,E,2,11,0.7,-0.982,M,40.593,M,1.5,0123*67
$GPVTG,080.33,T,-559.57,M,004.439,N,008.221,K,D*0B
$GPGGA,082131.20,5703.2691062,N,00951.8309245,E,2,11,0.7,-0.985,M,40.593,M,1.5,0123*6E
$GPVTG,081.06,T,-558.84,M,004.416,N,008.178,K,D*01
$GPGGA,082131.25,5703.2691168,N,00951.8310364,E,2,11,0.7,-0.980,M,40.593,M,1.7,0123*6D
$GPVTG,081.50,T,-558.40,M,004.430,N,008.204,K,D*06
$GPGGA,082131.30,5703.2691256,N,00951.8311473,E,2,11,0.7,-0.979,M,40.593,M,1.7,0123*61
$GPVTG,082.04,T,-557.86,M,004.419,N,008.184,K,D*01
$GPGGA,082131.35,5703.2691343,N,00951.8312572,E,2,11,0.7,-0.980,M,40.593,M,1.7,0123*64
$GPVTG,082.38,T,-557.52,M,004.394,N,008.137,K,D*0D
$GPGGA,082131.40,5703.2691427,N,00951.8313683,E,2,11,0.7,-0.981,M,40.593,M,1.7,0123*6E
$GPVTG,082.71,T,-557.19,M,004.395,N,008.139,K,D*00
$GPGGA,082131.45,5703.2691501,N,00951.8314795,E,2,11,0.7,-0.982,M,40.593,M,1.9,0123*62
$GPVTG,083.19,T,-556.71,M,004.398,N,008.145,K,D*06
$GPGGA,082131.50,5703.2691579,N,00951.8315924,E,2,10,0.7,-0.981,M,40.593,M,1.9,0123*6E
$GPVTG,083.41,T,-556.49,M,004.433,N,008.210,K,D*05
$GPGGA,082131.55,5703.2691647,N,00951.8317047,E,2,10,0.7,-0.981,M,40.593,M,1.9,0123*6B
$GPVTG,083.85,T,-556.05,M,004.443,N,008.229,K,D*08
$GPGGA,082131.60,5703.2691705,N,00951.8318161,E,2,10,0.7,-0.982,M,40.593,M,1.9,0123*63
$GPVTG,084.45,T,-555.45,M,004.428,N,008.201,K,D*03
$GPGGA,082131.65,5703.2691767,N,00951.8319273,E,2,10,0.7,-0.976,M,40.593,M,2.1,0123*63
$GPVTG,085.09,T,-554.81,M,004.409,N,008.165,K,D*01
$GPGGA,082131.70,5703.2691813,N,00951.8320383,E,2,10,0.7,-0.974,M,40.593,M,2.1,0123*6D
$GPVTG,085.74,T,-554.16,M,004.391,N,008.132,K,D*01
$GPGGA,082131.75,5703.2691862,N,00951.8321495,E,2,10,0.7,-0.969,M,40.593,M,2.1,0123*63
$GPVTG,086.00,T,-553.90,M,004.384,N,008.120,K,D*0F
$GPGGA,082131.80,5703.2691908,N,00951.8322598,E,2,10,0.7,-0.966,M,40.593,M,2.1,0123*64
$GPVTG,086.25,T,-553.65,M,004.363,N,008.081,K,D*01
$GPGGA,082131.85,5703.2691953,N,00951.8323718,E,2,10,0.7,-0.964,M,40.593,M,2.3,0123*64
$GPVTG,086.25,T,-553.65,M,004.384,N,008.119,K,D*08
$GPGGA,082131.90,5703.2691978,N,00951.8324831,E,2,10,0.7,-0.963,M,40.593,M,2.3,0123*6D
$GPVTG,087.12,T,-552.78,M,004.379,N,008.110,K,D*0B
$GPGGA,082131.95,5703.2692000,N,00951.8325949,E,2,10,0.7,-0.959,M,40.593,M,2.3,0123*6B
$GPVTG,087.83,T,-552.07,M,004.388,N,008.127,K,D*01
$GPGGA,082132.00,5703.2692027,N,00951.8327070,E,2,10,0.7,-0.958,M,40.593,M,2.3,0123*61
$GPVTG,088.06,T,-551.84,M,004.400,N,008.149,K,D*04
$GPGGA,082132.05,5703.2692028,N,00951.8328205,E,2,10,0.7,-0.959,M,40.593,M,2.2,0123*64
$GPVTG,088.94,T,-550.96,M,004.435,N,008.214,K,D*00
$GPGGA,082132.10,5703.2692028,N,00951.8329337,E,2,10,0.7,-0.961,M,40.593,M,2.2,0123*6A
$GPVTG,089.80,T,-550.10,M,004.452,N,008.245,K,D*0F
$GPGGA,082132.15,5703.2692023,N,00951.8330449,E,2,10,0.7,-0.962,M,40.593,M,2.2,0123*61
$GPVTG,090.56,T,-549.34,M,004.423,N,008.192,K,D*0D
$GPGGA,082132.20,5703.2692015,N,00951.8331561,E,2,10,0.7,-0.962,M,40.593,M,2.2,0123*68
$GPVTG,091.13,T,-548.77,M,004.401,N,008.150,K,D*05
$GPGGA,082132.25,5703.2691998,N,00951.8332669,E,2,10,0.7,-0.962,M,40.593,M,2.4,0123*6C
$GPVTG,091.93,T,-547.97,M,004.377,N,008.107,K,D*08
$GPGGA,082132.30,5703.2691976,N,00951.8333765,E,2,10,0.7,-0.961,M,40.593,M,2.4,0123*67
$GPVTG,092.54,T,-547.36,M,004.340,N,008.038,K,D*02
$GPGGA,082132.35,5703.2691943,N,00951.8334871,E,2,10,0.7,-0.961,M,40.593,M,2.4,0123*69
$GPVTG,093.29,T,-546.61,M,004.338,N,008.033,K,D*0E
$GPGGA,082132.40,5703.2691911,N,00951.8335984,E,2,10,0.7,-0.963,M,40.593,M,2.4,0123*64
$GPVTG,093.70,T,-546.20,M,004.352,N,008.060,K,D*0D
$GPGGA,082132.45,5703.2691876,N,00951.8337085,E,2,11,0.7,-0.965,M,40.593,M,2.6,0123*6E
$GPVTG,094.10,T,-545.80,M,004.343,N,008.043,K,D*04
$GPGGA,082132.50,5703.2691827,N,00951.8338195,E,2,11,0.7,-0.969,M,40.593,M,2.6,0123*6D
$GPVTG,094.77,T,-545.13,M,004.357,N,008.070,K,D*0A
$GPGGA,082132.55,5703.2691777,N,00951.8339303,E,2,11,0.7,-0.970,M,40.593,M,2.6,0123*66
$GPVTG,095.20,T,-544.70,M,004.363,N,008.080,K,D*05
$GPGGA,082132.60,5703.2691726,N,00951.8340416,E,2,11,0.7,-0.973,M,40.593,M,2.6,0123*6A
$GPVTG,095.51,T,-544.39,M,004.380,N,008.111,K,D*0A
$GPGGA,082132.65,5703.2691682,N,00951.8341500,E,2,11,0.7,-0.970,M,40.593,M,2.8,0123*6A
$GPVTG,095.78,T,-544.12,M,004.333,N,008.024,K,D*07
$GPGGA,082132.70,5703.2691611,N,00951.8342600,E,2,11,0.7,-0.970,M,40.593,M,2.8,0123*64
$GPVTG,096.54,T,-543.36,M,004.339,N,008.037,K,D*03
$GPGGA,082132.75,5703.2691534,N,00951.8343703,E,2,11,0.7,-0.969,M,40.593,M,2.8,0123*6E
$GPVTG,097.27,T,-542.63,M,004.352,N,008.060,K,D*08
$GPGGA,082132.80,5703.2691464,N,00951.8344786,E,2,11,0.7,-0.970,M,40.593,M,2.8,0123*62
$GPVTG,097.52,T,-542.38,M,004.321,N,008.003,K,D*05
$GPGGA,082132.85,5703.2691375,N,00951.8345861,E,2,11,0.7,-0.968,M,40.593,M,3.1,0123*66
$GPVTG,098.45,T,-541.45,M,004.294,N,007.953,K,D*09
$GPGGA,082132.90,5703.2691281,N,00951.8346928,E,2,11,0.7,-0.967,M,40.593,M,3.1,0123*68
$GPVTG,099.27,T,-540.63,M,004.265,N,007.899,K,D*00
$GPGGA,082132.95,5703.2691182,N,00951.8348001,E,2,11,0.7,-0.964,M,40.593,M,3.1,0123*62
$GPVTG,099.91,T,-539.99,M,004.260,N,007.890,K,D*0A
$GPGGA,082133.00,5703.2691077,N,00951.8349068,E,2,11,0.7,-0.965,M,40.593,M,3.1,0123*6B
$GPVTG,100.57,T,-539.33,M,004.253,N,007.877,K,D*08
$GPGGA,082133.05,5703.2690966,N,00951.8350141,E,2,11,0.7,-0.961,M,40.593,M,3.3,0123*62
$GPVTG,101.14,T,-538.76,M,004.267,N,007.903,K,D*0B
$GPGGA,082133.10,5703.2690838,N,00951.8351224,E,2,11,0.7,-0.963,M,40.593,M,3.3,0123*6F
$GPVTG,102.08,T,-537.82,M,004.306,N,007.975,K,D*06
$GPGGA,082133.15,5703.2690726,N,00951.8352284,E,2,11,0.7,-0.961,M,40.593,M,3.3,0123*61
$GPVTG,102.17,T,-537.73,M,004.284,N,007.934,K,D*08
$GPGGA,082133.20,5703.2690613,N,00951.8353361,E,2,11,0.7,-0.962,M,40.593,M,3.3,0123*68
$GPVTG,102.08,T,-537.82,M,004.299,N,007.962,K,D*07
$GPGGA,082133.25,5703.2690500,N,00951.8354432,E,2,11,0.7,-0.964,M,40.593,M,3.5,0123*6A
$GPVTG,101.99,T,-537.91,M,004.299,N,007.962,K,D*0E
$GPGGA,082133.30,5703.2690374,N,00951.8355485,E,2,11,0.7,-0.964,M,40.593,M,3.5,0123*66
$GPVTG,102.41,T,-537.49,M,004.271,N,007.910,K,D*0E
$GPGGA,082133.35,5703.2690237,N,00951.8356537,E,2,11,0.7,-0.961,M,40.593,M,3.5,0123*6B
$GPVTG,103.15,T,-536.75,M,004.260,N,007.889,K,D*01
$GPGGA,082133.40,5703.2690098,N,00951.8357597,E,2,11,0.7,-0.960,M,40.593,M,3.5,0123*64
$GPVTG,103.65,T,-536.25,M,004.268,N,007.905,K,D*0E
$GPGGA,082133.45,5703.2689936,N,00951.8358641,E,2,11,0.7,-0.967,M,40.593,M,3.7,0123*66
$GPVTG,104.61,T,-535.29,M,004.260,N,007.889,K,D*0F
$GPGGA,082133.50,5703.2689785,N,00951.8359680,E,2,11,0.7,-0.970,M,40.593,M,3.7,0123*6E
$GPVTG,105.23,T,-534.67,M,004.242,N,007.856,K,D*01
$GPGGA,082133.55,5703.2689627,N,00951.8360726,E,2,11,0.7,-0.970,M,40.593,M,3.7,0123*65
$GPVTG,105.75,T,-534.15,M,004.249,N,007.869,K,D*00
$GPGGA,082133.60,5703.2689469,N,00951.8361767,E,2,11,0.7,-0.970,M,40.593,M,3.7,0123*6F
$GPVTG,106.15,T,-533.75,M,004.248,N,007.867,K,D*0B
$GPGGA,082133.65,5703.2689302,N,00951.8362808,E,2,11,0.7,-0.967,M,40.593,M,3.9,0123*6D
$GPVTG,106.78,T,-533.12,M,004.252,N,007.875,K,D*09
$GPGGA,082133.70,5703.2689136,N,00951.8363821,E,2,11,0.7,-0.966,M,40.593,M,3.9,0123*67
$GPVTG,107.22,T,-532.68,M,004.208,N,007.794,K,D*04
$GPGGA,082133.75,5703.2688971,N,00951.8364827,E,2,11,0.7,-0.967,M,40.593,M,3.9,0123*68
$GPVTG,107.45,T,-532.45,M,004.165,N,007.714,K,D*0A
$GPGGA,082133.80,5703.2688790,N,00951.8365835,E,2,11,0.7,-0.970,M,40.593,M,3.9,0123*67
$GPVTG,108.16,T,-531.74,M,004.154,N,007.692,K,D*0F
$GPGGA,082133.85,5703.2688593,N,00951.8366861,E,2,11,0.7,-0.971,M,40.593,M,4.1,0123*6F
$GPVTG,108.88,T,-531.02,M,004.202,N,007.782,K,D*09
$GPGGA,082133.90,5703.2688400,N,00951.8367875,E,2,11,0.7,-0.972,M,40.593,M,4.1,0123*67
$GPVTG,109.49,T,-530.41,M,004.213,N,007.802,K,D*04
$GPGGA,082133.95,5703.2688203,N,00951.8368887,E,2,11,0.7,-0.975,M,40.593,M,4.1,0123*62
$GPVTG,110.00,T,-529.90,M,004.220,N,007.816,K,D*00
$GPGGA,082134.00,5703.2688008,N,00951.8369885,E,2,11,0.7,-0.978,M,40.593,M,4.1,0123*6E
$GPVTG,110.34,T,-529.56,M,004.200,N,007.778,K,D*08
$GPGGA,082134.05,5703.2687795,N,00951.8370902,E,2,11,0.7,-0.975,M,40.593,M,1.6,0123*6E
$GPVTG,110.85,T,-529.05,M,004.237,N,007.847,K,D*03
$GPGGA,082134.10,5703.2687582,N,00951.8371895,E,2,11,0.7,-0.975,M,40.593,M,1.6,0123*60
$GPVTG,111.53,T,-528.37,M,004.223,N,007.820,K,D*0D
$GPGGA,082134.15,5703.2687364,N,00951.8372873,E,2,11,0.7,-0.977,M,40.593,M,1.6,0123*62
$GPVTG,112.32,T,-527.58,M,004.192,N,007.764,K,D*09
$GPGGA,082134.20,5703.2687137,N,00951.8373834,E,2,11,0.7,-0.980,M,40.593,M,1.6,0123*6A
$GPVTG,113.28,T,-526.62,M,004.150,N,007.686,K,D*08
$GPGGA,082134.25,5703.2686900,N,00951.8374818,E,2,11,0.7,-0.978,M,40.593,M,1.8,0123*62
$GPVTG,114.12,T,-525.78,M,004.184,N,007.748,K,D*04
$GPGGA,082134.30,5703.2686669,N,00951.8375783,E,2,11,0.7,-0.976,M,40.593,M,1.8,0123*64
$GPVTG,114.52,T,-525.38,M,004.165,N,007.713,K,D*05
$GPGGA,082134.35,5703.2686430,N,00951.8376737,E,2,11,0.7,-0.975,M,40.593,M,1.8,0123*60
$GPVTG,115.12,T,-524.78,M,004.145,N,007.676,K,D*05
$GPGGA,082134.40,5703.2686188,N,00951.8377681,E,2,11,0.7,-0.974,M,40.593,M,1.8,0123*68
$GPVTG,115.67,T,-524.23,M,004.118,N,007.627,K,D*05
$GPGGA,082134.45,5703.2685930,N,00951.8378622,E,2,11,0.7,-0.975,M,40.593,M,2.1,0123*68
$GPVTG,116.40,T,-523.50,M,004.109,N,007.610,K,D*04
$GPGGA,082134.50,5703.2685678,N,00951.8379571,E,2,11,0.7,-0.974,M,40.593,M,2.1,0123*6A
$GPVTG,116.69,T,-523.21,M,004.122,N,007.634,K,D*06
$GPGGA,082134.55,5703.2685422,N,00951.8380524,E,2,11,0.7,-0.975,M,40.593,M,2.1,0123*65
$GPVTG,116.94,T,-522.96,M,004.146,N,007.679,K,D*02
$GPGGA,082134.60,5703.2685158,N,00951.8381456,E,2,11,0.7,-0.972,M,40.593,M,2.1,0123*69
$GPVTG,117.54,T,-522.36,M,004.140,N,007.667,K,D*0C
$GPGGA,082134.65,5703.2684892,N,00951.8382379,E,2,11,0.7,-0.968,M,40.593,M,2.3,0123*62
$GPVTG,118.17,T,-521.73,M,004.129,N,007.647,K,D*0B
$GPGGA,082134.70,5703.2684618,N,00951.8383287,E,2,11,0.7,-0.965,M,40.593,M,2.3,0123*66
$GPVTG,118.99,T,-520.91,M,004.104,N,007.600,K,D*0C
$GPGGA,082134.75,5703.2684342,N,00951.8384206,E,2,11,0.7,-0.965,M,40.593,M,2.3,0123*67
$GPVTG,119.41,T,-520.49,M,004.110,N,007.611,K,D*08
$GPGGA,082134.80,5703.2684037,N,00951.8385121,E,2,11,0.7,-0.965,M,40.593,M,2.3,0123*6B
$GPVTG,120.72,T,-519.18,M,004.154,N,007.693,K,D*06
$GPGGA,082134.85,5703.2683755,N,00951.8385991,E,2,11,0.7,-0.971,M,40.593,M,2.6,0123*69
$GPVTG,121.56,T,-518.34,M,004.149,N,007.684,K,D*04
$GPGGA,082134.90,5703.2683468,N,00951.8386888,E,2,11,0.7,-0.972,M,40.593,M,2.6,0123*69
$GPVTG,121.68,T,-518.22,M,004.129,N,007.647,K,D*07
$GPGGA,082134.95,5703.2683162,N,00951.8387755,E,2,11,0.7,-0.972,M,40.593,M,2.6,0123*6D
$GPVTG,122.75,T,-517.15,M,004.095,N,007.584,K,D*09
$GPGGA,082135.00,5703.2682857,N,00951.8388614,E,2,11,0.7,-0.972,M,40.593,M,2.6,0123*65
$GPVTG,123.52,T,-516.38,M,004.062,N,007.523,K,D*06
$GPGGA,082135.05,5703.2682549,N,00951.8389467,E,2,11,0.7,-0.968,M,40.593,M,1.5,0123*6E
$GPVTG,124.13,T,-515.77,M,004.043,N,007.487,K,D*00
$GPGGA,082135.10,5703.2682230,N,00951.8390304,E,2,11,0.7,-0.969,M,40.593,M,1.5,0123*68
$GPVTG,125.08,T,-514.82,M,004.020,N,007.445,K,D*0B
$GPGGA,082135.15,5703.2681898,N,00951.8391141,E,2,11,0.7,-0.969,M,40.593,M,1.5,0123*64
$GPVTG,126.10,T,-513.80,M,004.030,N,007.463,K,D*01
$GPGGA,082135.20,5703.2681555,N,00951.8391963,E,2,11,0.7,-0.971,M,40.593,M,1.5,0123*6F
$GPVTG,127.30,T,-512.60,M,004.039,N,007.481,K,D*08
$GPGGA,082135.25,5703.2681221,N,00951.8392787,E,2,11,0.7,-0.969,M,40.593,M,1.7,0123*62
$GPVTG,127.80,T,-512.10,M,004.042,N,007.485,K,D*0C
$GPGGA,082135.30,5703.2680884,N,00951.8393602,E,2,11,0.7,-0.969,M,40.593,M,1.7,0123*6F
$GPVTG,128.17,T,-511.73,M,004.035,N,007.474,K,D*05
$GPGGA,082135.35,5703.2680543,N,00951.8394414,E,2,11,0.7,-0.968,M,40.593,M,1.7,0123*6F
$GPVTG,128.52,T,-511.38,M,004.034,N,007.471,K,D*0F
$GPGGA,082135.40,5703.2680203,N,00951.8395222,E,2,11,0.7,-0.969,M,40.593,M,1.7,0123*6D
$GPVTG,128.65,T,-511.25,M,004.028,N,007.459,K,D*00
$GPGGA,082135.45,5703.2679848,N,00951.8396023,E,2,11,0.7,-0.970,M,40.593,M,1.9,0123*6D
$GPVTG,129.08,T,-510.82,M,004.031,N,007.466,K,D*02
$GPGGA,082135.50,5703.2679498,N,00951.8396814,E,2,11,0.7,-0.967,M,40.593,M,1.9,0123*62
$GPVTG,129.50,T,-510.40,M,004.022,N,007.449,K,D*0E
$GPGGA,082135.55,5703.2679142,N,00951.8397574,E,2,11,0.7,-0.969,M,40.593,M,1.9,0123*61
$GPVTG,130.44,T,-509.46,M,003.982,N,007.374,K,D*00
$GPGGA,082135.60,5703.2678773,N,00951.8398333,E,2,11,0.7,-0.972,M,40.593,M,1.9,0123*62
$GPVTG,131.48,T,-508.42,M,003.978,N,007.367,K,D*0F
$GPGGA,082135.65,5703.2678407,N,00951.8399078,E,2,11,0.7,-0.972,M,40.593,M,2.1,0123*61
$GPVTG,132.38,T,-507.52,M,003.961,N,007.335,K,D*0A
$GPGGA,082135.70,5703.2678022,N,00951.8399844,E,2,11,0.7,-0.972,M,40.593,M,2.1,0123*61
$GPVTG,133.01,T,-506.89,M,004.015,N,007.436,K,D*0F
$GPGGA,082135.75,5703.2677659,N,00951.8400581,E,2,11,0.7,-0.970,M,40.593,M,2.1,0123*60
$GPVTG,133.23,T,-506.67,M,003.973,N,007.358,K,D*0E
$GPGGA,082135.80,5703.2677276,N,00951.8401319,E,2,11,0.7,-0.971,M,40.593,M,2.1,0123*64
$GPVTG,133.87,T,-506.03,M,003.985,N,007.381,K,D*0F
$GPGGA,082135.85,5703.2676901,N,00951.8402035,E,2,11,0.7,-0.971,M,40.593,M,2.3,0123*67
$GPVTG,134.36,T,-505.54,M,003.946,N,007.309,K,D*0C
$GPGGA,082135.90,5703.2676511,N,00951.8402746,E,2,11,0.7,-0.971,M,40.593,M,2.3,0123*6D
$GPVTG,135.19,T,-504.71,M,003.947,N,007.311,K,D*0E
$GPGGA,082135.95,5703.2676128,N,00951.8403447,E,2,11,0.7,-0.970,M,40.593,M,2.3,0123*64
$GPVTG,135.65,T,-504.25,M,003.924,N,007.267,K,D*01
$GPGGA,082136.00,5703.2675714,N,00951.8404145,E,2,11,0.7,-0.971,M,40.593,M,2.3,0123*60
$GPVTG,136.86,T,-503.04,M,003.972,N,007.357,K,D*0A
$GPGGA,082136.05,5703.2675302,N,00951.8404840,E,2,11,0.7,-0.971,M,40.593,M,2.2,0123*6B
$GPVTG,137.42,T,-502.48,M,003.994,N,007.396,K,D*0F
$GPGGA,082136.10,5703.2674903,N,00951.8405515,E,2,11,0.7,-0.970,M,40.593,M,2.2,0123*68
$GPVTG,137.96,T,-501.94,M,003.966,N,007.345,K,D*07
$GPGGA,082136.15,5703.2674496,N,00951.8406171,E,2,11,0.7,-0.969,M,40.593,M,2.2,0123*61
$GPVTG,138.84,T,-501.06,M,003.940,N,007.297,K,D*0A
$GPGGA,082136.20,5703.2674077,N,00951.8406812,E,2,11,0.7,-0.970,M,40.593,M,2.2,0123*68
$GPVTG,140.02,T,-499.88,M,003.932,N,007.282,K,D*0C
$GPGGA,082136.25,5703.2673658,N,00951.8407447,E,2,11,0.7,-0.968,M,40.593,M,2.4,0123*63
$GPVTG,140.87,T,-499.03,M,003.927,N,007.272,K,D*09
$GPGGA,082136.30,5703.2673247,N,00951.8408083,E,2,11,0.7,-0.964,M,40.593,M,2.4,0123*62
$GPVTG,141.09,T,-498.81,M,003.906,N,007.235,K,D*05
$GPGGA,082136.35,5703.2672813,N,00951.8408692,E,2,11,0.7,-0.964,M,40.593,M,2.4,0123*6B
$GPVTG,142.30,T,-497.60,M,003.913,N,007.246,K,D*0C
$GPGGA,082136.40,5703.2672392,N,00951.8409302,E,2,11,0.7,-0.964,M,40.593,M,2.4,0123*66
$GPVTG,142.71,T,-497.19,M,003.894,N,007.212,K,D*08
$GPGGA,082136.45,5703.2671945,N,00951.8409908,E,2,11,0.7,-0.965,M,40.593,M,2.6,0123*63
$GPVTG,143.33,T,-496.57,M,003.890,N,007.203,K,D*00
$GPGGA,082136.50,5703.2671513,N,00951.8410484,E,2,11,0.7,-0.962,M,40.593,M,2.6,0123*6E
$GPVTG,144.20,T,-495.70,M,003.869,N,007.165,K,D*06
$GPGGA,082136.55,5703.2671065,N,00951.8411042,E,2,11,0.7,-0.962,M,40.593,M,2.6,0123*60
$GPVTG,145.52,T,-494.38,M,003.878,N,007.182,K,D*06
$GPGGA,082136.60,5703.2670619,N,00951.8411602,E,2,11,0.7,-0.961,M,40.593,M,2.6,0123*6B
$GPVTG,146.23,T,-493.67,M,003.884,N,007.193,K,D*0D
$GPGGA,082136.65,5703.2670170,N,00951.8412140,E,2,11,0.7,-0.963,M,40.593,M,2.8,0123*68
$GPVTG,147.10,T,-492.80,M,003.866,N,007.159,K,D*0E
$GPGGA,082136.70,5703.2669717,N,00951.8412673,E,2,11,0.7,-0.962,M,40.593,M,2.8,0123*65
$GPVTG,147.89,T,-492.02,M,003.873,N,007.172,K,D*09
$GPGGA,082136.75,5703.2669247,N,00951.8413185,E,2,11,0.7,-0.962,M,40.593,M,2.8,0123*6F
$GPVTG,149.13,T,-490.77,M,003.900,N,007.222,K,D*07
$GPGGA,082136.80,5703.2668793,N,00951.8413692,E,2,11,0.7,-0.963,M,40.593,M,2.8,0123*68
$GPVTG,149.68,T,-490.22,M,003.879,N,007.184,K,D*0B
$GPGGA,082136.85,5703.2668343,N,00951.8414194,E,2,11,0.7,-0.962,M,40.593,M,3.1,0123*6B
$GPVTG,149.93,T,-489.97,M,003.849,N,007.129,K,D*0D
$GPGGA,082136.90,5703.2667874,N,00951.8414685,E,2,11,0.7,-0.960,M,40.593,M,3.1,0123*6A
$GPVTG,150.62,T,-489.28,M,003.867,N,007.162,K,D*0C
$GPGGA,082136.95,5703.2667403,N,00951.8415149,E,2,11,0.7,-0.958,M,40.593,M,3.1,0123*6E
$GPVTG,151.70,T,-488.20,M,003.860,N,007.148,K,D*08
$GPGGA,082137.00,5703.2666934,N,00951.8415605,E,2,11,0.7,-0.959,M,40.593,M,3.1,0123*65
$GPVTG,152.50,T,-487.40,M,003.847,N,007.124,K,D*0F
$GPGGA,082137.05,5703.2666477,N,00951.8416054,E,2,11,0.7,-0.954,M,40.593,M,3.3,0123*64
$GPVTG,152.77,T,-487.13,M,003.800,N,007.037,K,D*0C
$GPGGA,082137.10,5703.2666015,N,00951.8416485,E,2,11,0.7,-0.952,M,40.593,M,3.3,0123*6E
$GPVTG,153.49,T,-486.41,M,003.766,N,006.975,K,D*07
$GPGGA,082137.15,5703.2665530,N,00951.8416895,E,2,11,0.7,-0.952,M,40.593,M,3.3,0123*67
$GPVTG,154.84,T,-485.06,M,003.789,N,007.017,K,D*0C
$GPGGA,082137.20,5703.2665045,N,00951.8417299,E,2,11,0.7,-0.954,M,40.593,M,3.3,0123*67
$GPVTG,155.82,T,-484.08,M,003.806,N,007.050,K,D*0F
$GPGGA,082137.25,5703.2664577,N,00951.8417685,E,2,11,0.7,-0.951,M,40.593,M,3.5,0123*6D
$GPVTG,156.56,T,-483.34,M,003.770,N,006.982,K,D*04
$GPGGA,082137.30,5703.2664097,N,00951.8418072,E,2,11,0.7,-0.954,M,40.593,M,3.5,0123*66
$GPVTG,157.07,T,-482.83,M,003.770,N,006.983,K,D*0D
$GPGGA,082137.35,5703.2663615,N,00951.8418456,E,2,11,0.7,-0.956,M,40.593,M,3.5,0123*68
$GPVTG,157.39,T,-482.51,M,003.777,N,006.996,K,D*0C
$GPGGA,082137.40,5703.2663133,N,00951.8418814,E,2,11,0.7,-0.956,M,40.593,M,3.5,0123*63
$GPVTG,158.18,T,-481.72,M,003.762,N,006.968,K,D*07
$GPGGA,082137.45,5703.2662655,N,00951.8419170,E,2,11,0.7,-0.959,M,40.593,M,3.7,0123*67
$GPVTG,158.44,T,-481.46,M,003.718,N,006.886,K,D*05
$GPGGA,082137.50,5703.2662177,N,00951.8419521,E,2,11,0.7,-0.960,M,40.593,M,3.7,0123*6E
$GPVTG,158.79,T,-481.11,M,003.709,N,006.869,K,D*08
$GPGGA,082137.55,5703.2661692,N,00951.8419856,E,2,11,0.7,-0.960,M,40.593,M,3.7,0123*69
$GPVTG,159.50,T,-480.40,M,003.714,N,006.878,K,D*0B
$GPGGA,082137.60,5703.2661198,N,00951.8420175,E,2,11,0.7,-0.962,M,40.593,M,3.7,0123*62
$GPVTG,160.47,T,-479.43,M,003.734,N,006.915,K,D*0A
$GPGGA,082137.65,5703.2660710,N,00951.8420488,E,2,11,0.7,-0.964,M,40.593,M,3.9,0123*6F
$GPVTG,161.10,T,-478.80,M,003.728,N,006.904,K,D*0A
$GPGGA,082137.70,5703.2660224,N,00951.8420798,E,2,11,0.7,-0.966,M,40.593,M,3.9,0123*69
$GPVTG,161.46,T,-478.44,M,003.722,N,006.893,K,D*04
$GPGGA,082137.75,5703.2659732,N,00951.8421074,E,2,11,0.7,-0.966,M,40.593,M,3.9,0123*60
$GPVTG,162.68,T,-477.22,M,003.713,N,006.877,K,D*0C
$GPGGA,082137.80,5703.2659238,N,00951.8421346,E,2,11,0.7,-0.967,M,40.593,M,3.9,0123*66
$GPVTG,163.53,T,-476.37,M,003.715,N,006.880,K,D*0E
$GPGGA,082137.85,5703.2658753,N,00951.8421601,E,2,11,0.7,-0.967,M,40.593,M,4.1,0123*63
$GPVTG,164.39,T,-475.51,M,003.684,N,006.823,K,D*06
$GPGGA,082137.90,5703.2658262,N,00951.8421840,E,2,11,0.7,-0.968,M,40.593,M,4.1,0123*64
$GPVTG,165.36,T,-474.54,M,003.670,N,006.796,K,D*06
$GPGGA,082137.95,5703.2657770,N,00951.8422057,E,2,11,0.7,-0.970,M,40.593,M,4.1,0123*6C
$GPVTG,166.58,T,-473.32,M,003.656,N,006.771,K,D*07
$GPGGA,082138.00,5703.2657270,N,00951.8422272,E,2,11,0.7,-0.971,M,40.593,M,4.1,0123*6E
$GPVTG,167.38,T,-472.52,M,003.671,N,006.799,K,D*04
$GPGGA,082138.05,5703.2656775,N,00951.8422481,E,2,11,0.7,-0.967,M,40.593,M,1.6,0123*65
$GPVTG,167.80,T,-472.10,M,003.670,N,006.797,K,D*0E
$GPGGA,082138.10,5703.2656273,N,00951.8422682,E,2,11,0.7,-0.968,M,40.593,M,1.6,0123*6C
$GPVTG,168.34,T,-471.57,M,003.683,N,006.821,K,D*00
$GPGGA,082138.15,5703.2655768,N,00951.8422865,E,2,11,0.7,-0.968,M,40.593,M,1.6,0123*62
$GPVTG,169.11,T,-470.79,M,003.700,N,006.853,K,D*04
$GPGGA,082138.20,5703.2655268,N,00951.8423041,E,2,11,0.7,-0.969,M,40.593,M,1.6,0123*6F
$GPVTG,169.70,T,-470.20,M,003.693,N,006.840,K,D*06
$GPGGA,082138.25,5703.2654778,N,00951.8423206,E,2,11,0.7,-0.968,M,40.593,M,1.8,0123*61
$GPVTG,170.22,T,-469.68,M,003.662,N,006.782,K,D*02
$GPGGA,082138.30,5703.2654277,N,00951.8423361,E,2,11,0.7,-0.970,M,40.593,M,1.8,0123*66
$GPVTG,170.83,T,-469.07,M,003.662,N,006.781,K,D*03
$GPGGA,082138.35,5703.2653777,N,00951.8423490,E,2,11,0.7,-0.971,M,40.593,M,1.8,0123*69
$GPVTG,171.89,T,-468.01,M,003.652,N,006.763,K,D*00
$GPGGA,082138.40,5703.2653276,N,00951.8423625,E,2,11,0.7,-0.968,M,40.593,M,1.8,0123*6B
$GPVTG,172.35,T,-467.55,M,003.650,N,006.760,K,D*0B
$GPGGA,082138.45,5703.2652773,N,00951.8423746,E,2,11,0.7,-0.967,M,40.593,M,2.1,0123*6E
$GPVTG,172.93,T,-466.97,M,003.653,N,006.764,K,D*0F
$GPGGA,082138.50,5703.2652269,N,00951.8423857,E,2,11,0.7,-0.966,M,40.593,M,2.1,0123*6A
$GPVTG,173.52,T,-466.38,M,003.655,N,006.770,K,D*05
$GPGGA,082138.55,5703.2651762,N,00951.8423962,E,2,11,0.7,-0.967,M,40.593,M,2.1,0123*64
$GPVTG,174.03,T,-465.87,M,003.669,N,006.796,K,D*06
$GPGGA,082138.60,5703.2651254,N,00951.8424045,E,2,11,0.7,-0.967,M,40.593,M,2.1,0123*69
$GPVTG,174.92,T,-464.98,M,003.676,N,006.807,K,D*08
$GPGGA,082138.65,5703.2650747,N,00951.8424121,E,2,11,0.7,-0.968,M,40.593,M,2.3,0123*64
$GPVTG,175.64,T,-464.26,M,003.670,N,006.797,K,D*05
$GPGGA,082138.70,5703.2650240,N,00951.8424171,E,2,11,0.7,-0.966,M,40.593,M,2.3,0123*69
$GPVTG,176.79,T,-463.11,M,003.668,N,006.793,K,D*04
$GPGGA,082138.75,5703.2649736,N,00951.8424214,E,2,11,0.7,-0.968,M,40.593,M,2.3,0123*6E
$GPVTG,177.67,T,-462.23,M,003.658,N,006.775,K,D*01
$GPGGA,082138.80,5703.2649230,N,00951.8424239,E,2,11,0.7,-0.971,M,40.593,M,2.3,0123*60
$GPVTG,178.68,T,-461.22,M,003.657,N,006.773,K,D*0A
$GPGGA,082138.85,5703.2648715,N,00951.8424259,E,2,11,0.7,-0.971,M,40.593,M,2.6,0123*65
$GPVTG,179.36,T,-460.54,M,003.682,N,006.818,K,D*0A
$GPGGA,082138.90,5703.2648199,N,00951.8424250,E,2,11,0.7,-0.970,M,40.593,M,2.6,0123*6B
$GPVTG,180.56,T,-459.34,M,003.706,N,006.864,K,D*00
$GPGGA,082138.95,5703.2647681,N,00951.8424256,E,2,11,0.7,-0.971,M,40.593,M,2.6,0123*68
$GPVTG,180.76,T,-459.14,M,003.730,N,006.908,K,D*0E
$GPGGA,082139.00,5703.2647176,N,00951.8424258,E,2,11,0.7,-0.971,M,40.593,M,2.6,0123*64
$GPVTG,180.88,T,-459.02,M,003.704,N,006.860,K,D*00
$GPGGA,082139.05,5703.2646671,N,00951.8424251,E,2,11,0.7,-0.967,M,40.593,M,1.5,0123*6E
$GPVTG,181.02,T,-458.88,M,003.678,N,006.812,K,D*0F
$GPGGA,082139.10,5703.2646171,N,00951.8424211,E,2,11,0.7,-0.966,M,40.593,M,1.5,0123*68
$GPVTG,182.11,T,-457.79,M,003.647,N,006.754,K,D*0E
$GPGGA,082139.15,5703.2645669,N,00951.8424156,E,2,11,0.7,-0.964,M,40.593,M,1.5,0123*62
$GPVTG,183.24,T,-456.66,M,003.636,N,006.734,K,D*06
$GPGGA,082139.20,5703.2645167,N,00951.8424089,E,2,11,0.7,-0.962,M,40.593,M,1.5,0123*68
$GPVTG,184.28,T,-455.62,M,003.628,N,006.719,K,D*0A
$GPGGA,082139.25,5703.2644657,N,00951.8424005,E,2,11,0.7,-0.965,M,40.593,M,1.7,0123*69
$GPVTG,185.35,T,-454.55,M,003.638,N,006.737,K,D*0F
$GPGGA,082139.30,5703.2644161,N,00951.8423916,E,2,11,0.7,-0.964,M,40.593,M,1.7,0123*62
$GPVTG,186.13,T,-453.77,M,003.618,N,006.701,K,D*08
$GPGGA,082139.35,5703.2643658,N,00951.8423812,E,2,11,0.7,-0.963,M,40.593,M,1.7,0123*6F
$GPVTG,186.92,T,-452.98,M,003.629,N,006.721,K,D*01
$GPGGA,082139.40,5703.2643158,N,00951.8423706,E,2,11,0.7,-0.962,M,40.593,M,1.7,0123*61
$GPVTG,187.41,T,-452.49,M,003.630,N,006.722,K,D*09
$GPGGA,082139.45,5703.2642663,N,00951.8423587,E,2,11,0.7,-0.961,M,40.593,M,1.9,0123*6C
$GPVTG,187.96,T,-451.94,M,003.616,N,006.698,K,D*04
$GPGGA,082139.50,5703.2642164,N,00951.8423444,E,2,11,0.7,-0.960,M,40.593,M,1.9,0123*67
$GPVTG,188.97,T,-450.93,M,003.626,N,006.715,K,D*0B
$GPGGA,082139.55,5703.2641665,N,00951.8423279,E,2,11,0.7,-0.958,M,40.593,M,1.9,0123*64
$GPVTG,190.18,T,-449.72,M,003.641,N,006.744,K,D*07
$GPGGA,082139.60,5703.2641167,N,00951.8423114,E,2,11,0.7,-0.957,M,40.593,M,1.9,0123*60
$GPVTG,190.89,T,-449.01,M,003.651,N,006.762,K,D*0E
$GPGGA,082139.65,5703.2640679,N,00951.8422944,E,2,11,0.7,-0.958,M,40.593,M,2.1,0123*64
$GPVTG,191.42,T,-448.48,M,003.625,N,006.713,K,D*01
$GPGGA,082139.70,5703.2640196,N,00951.8422754,E,2,11,0.7,-0.960,M,40.593,M,2.1,0123*62
$GPVTG,192.34,T,-447.56,M,003.599,N,006.665,K,D*07
$GPGGA,082139.75,5703.2639706,N,00951.8422546,E,2,11,0.7,-0.960,M,40.593,M,2.1,0123*67
$GPVTG,193.28,T,-446.62,M,003.609,N,006.685,K,D*09
$GPGGA,082139.80,5703.2639210,N,00951.8422337,E,2,11,0.7,-0.960,M,40.593,M,2.1,0123*6F
$GPVTG,193.75,T,-446.15,M,003.634,N,006.730,K,D*00
$GPGGA,082139.85,5703.2638726,N,00951.8422110,E,2,11,0.7,-0.961,M,40.593,M,2.3,0123*6F
$GPVTG,194.62,T,-445.28,M,003.621,N,006.705,K,D*0E
$GPGGA,082139.90,5703.2638242,N,00951.8421872,E,2,11,0.7,-0.961,M,40.593,M,2.3,0123*62
$GPVTG,195.40,T,-444.50,M,003.622,N,006.708,K,D*0F
$GPGGA,082139.95,5703.2637758,N,00951.8421619,E,2,11,0.7,-0.964,M,40.593,M,2.3,0123*60
$GPVTG,196.21,T,-443.69,M,003.628,N,006.719,K,D*0C
$GPGGA,082140.00,5703.2637288,N,00951.8421344,E,2,11,0.7,-0.961,M,40.593,M,2.3,0123*62
$GPVTG,197.53,T,-442.37,M,003.602,N,006.671,K,D*05
$GPGGA,082140.05,5703.2636815,N,00951.8421072,E,2,11,0.7,-0.961,M,40.593,M,2.2,0123*6F
$GPVTG,198.23,T,-441.67,M,003.565,N,006.602,K,D*0D
$GPGGA,082140.10,5703.2636346,N,00951.8420780,E,2,11,0.7,-0.962,M,40.593,M,2.2,0123*6E
$GPVTG,199.17,T,-440.73,M,003.560,N,006.593,K,D*01
$GPGGA,082140.15,5703.2635876,N,00951.8420500,E,2,11,0.7,-0.964,M,40.593,M,2.2,0123*6C
$GPVTG,199.22,T,-440.68,M,003.556,N,006.586,K,D*0C
$GPGGA,082140.20,5703.2635405,N,00951.8420196,E,2,11,0.7,-0.965,M,40.593,M,2.2,0123*68
$GPVTG,199.84,T,-440.06,M,003.570,N,006.611,K,D*01
$GPGGA,082140.25,5703.2634939,N,00951.8419870,E,2,11,0.7,-0.962,M,40.593,M,2.4,0123*64
$GPVTG,200.81,T,-439.09,M,003.591,N,006.651,K,D*0D
$GPGGA,082140.30,5703.2634467,N,00951.8419520,E,2,11,0.7,-0.962,M,40.593,M,2.4,0123*6E
$GPVTG,201.97,T,-437.93,M,003.631,N,006.725,K,D*0D
$GPGGA,082140.35,5703.2634005,N,00951.8419169,E,2,11,0.7,-0.962,M,40.593,M,2.4,0123*62
$GPVTG,202.87,T,-437.03,M,003.633,N,006.728,K,D*09
$GPGGA,082140.40,5703.2633546,N,00951.8418813,E,2,11,0.7,-0.962,M,40.593,M,2.4,0123*60
$GPVTG,203.49,T,-436.41,M,003.624,N,006.712,K,D*02
$GPGGA,082140.45,5703.2633090,N,00951.8418457,E,2,11,0.7,-0.963,M,40.593,M,2.6,0123*64
$GPVTG,203.89,T,-436.01,M,003.616,N,006.697,K,D*07
$GPGGA,082140.50,5703.2632637,N,00951.8418080,E,2,11,0.7,-0.962,M,40.593,M,2.6,0123*65
$GPVTG,204.65,T,-435.25,M,003.607,N,006.681,K,D*00
$GPGGA,082140.55,5703.2632188,N,00951.8417673,E,2,11,0.7,-0.960,M,40.593,M,2.6,0123*64
$GPVTG,205.97,T,-433.93,M,003.614,N,006.694,K,D*01
$GPGGA,082140.60,5703.2631732,N,00951.8417251,E,2,11,0.7,-0.961,M,40.593,M,2.6,0123*63
$GPVTG,207.02,T,-432.88,M,003.648,N,006.757,K,D*03
$GPGGA,082140.65,5703.2631287,N,00951.8416835,E,2,11,0.7,-0.962,M,40.593,M,2.8,0123*69
$GPVTG,207.67,T,-432.23,M,003.639,N,006.739,K,D*0F
$GPGGA,082140.70,5703.2630853,N,00951.8416382,E,2,11,0.7,-0.962,M,40.593,M,2.8,0123*68
$GPVTG,209.21,T,-430.69,M,003.631,N,006.725,K,D*0A
$GPGGA,082140.75,5703.2630423,N,00951.8415919,E,2,11,0.7,-0.961,M,40.593,M,2.8,0123*6E
$GPVTG,210.54,T,-429.36,M,003.623,N,006.711,K,D*06
$GPGGA,082140.80,5703.2629986,N,00951.8415454,E,2,11,0.7,-0.961,M,40.593,M,2.8,0123*6A
$GPVTG,211.13,T,-428.77,M,003.636,N,006.734,K,D*03
$GPGGA,082140.85,5703.2629564,N,00951.8414997,E,2,11,0.7,-0.960,M,40.593,M,3.1,0123*65
$GPVTG,211.45,T,-428.45,M,003.603,N,006.673,K,D*05
$GPGGA,082140.90,5703.2629133,N,00951.8414508,E,2,11,0.7,-0.958,M,40.593,M,3.1,0123*66
$GPVTG,212.22,T,-427.68,M,003.625,N,006.713,K,D*04
$GPGGA,082140.95,5703.2628705,N,00951.8414005,E,2,11,0.7,-0.958,M,40.593,M,3.1,0123*69
$GPVTG,213.04,T,-426.86,M,003.647,N,006.754,K,D*07
$GPGGA,082141.00,5703.2628292,N,00951.8413498,E,2,11,0.7,-0.957,M,40.593,M,3.1,0123*67
$GPVTG,213.95,T,-425.95,M,003.627,N,006.716,K,D*0E
$GPGGA,082141.05,5703.2627855,N,00951.8412989,E,2,11,0.7,-0.960,M,40.593,M,3.3,0123*66
$GPVTG,214.33,T,-425.57,M,003.640,N,006.741,K,D*08
$GPGGA,082141.10,5703.2627436,N,00951.8412467,E,2,11,0.7,-0.956,M,40.593,M,3.3,0123*63
$GPVTG,214.84,T,-425.06,M,003.648,N,006.756,K,D*0E
$GPGGA,082141.15,5703.2627025,N,00951.8411946,E,2,11,0.7,-0.953,M,40.593,M,3.3,0123*68
$GPVTG,215.24,T,-424.66,M,003.632,N,006.727,K,D*09
$GPGGA,082141.20,5703.2626617,N,00951.8411430,E,2,11,0.7,-0.953,M,40.593,M,3.3,0123*64
$GPVTG,215.32,T,-424.58,M,003.606,N,006.678,K,D*0F
$GPGGA,082141.25,5703.2626204,N,00951.8410895,E,2,11,0.7,-0.953,M,40.593,M,3.5,0123*63
$GPVTG,215.66,T,-424.24,M,003.622,N,006.708,K,D*05
$GPGGA,082141.30,5703.2625797,N,00951.8410337,E,2,11,0.7,-0.954,M,40.593,M,3.5,0123*6F
$GPVTG,216.56,T,-423.34,M,003.644,N,006.748,K,D*07
$GPGGA,082141.35,5703.2625392,N,00951.8409775,E,2,11,0.7,-0.952,M,40.593,M,3.5,0123*67
$GPVTG,217.26,T,-422.64,M,003.656,N,006.771,K,D*0C
$GPGGA,082141.40,5703.2624995,N,00951.8409204,E,2,11,0.7,-0.951,M,40.593,M,3.5,0123*69
$GPVTG,218.08,T,-421.82,M,003.655,N,006.768,K,D*0F
$GPGGA,082141.45,5703.2624607,N,00951.8408618,E,2,11,0.7,-0.947,M,40.593,M,3.7,0123*65
$GPVTG,219.04,T,-420.86,M,003.656,N,006.771,K,D*0C
$GPGGA,082141.50,5703.2624219,N,00951.8408035,E,2,11,0.7,-0.947,M,40.593,M,3.7,0123*63
$GPVTG,219.66,T,-420.24,M,003.643,N,006.747,K,D*01
$GPGGA,082141.55,5703.2623830,N,00951.8407426,E,2,11,0.7,-0.947,M,40.593,M,3.7,0123*69
$GPVTG,220.61,T,-419.29,M,003.668,N,006.793,K,D*0B
$GPGGA,082141.60,5703.2623453,N,00951.8406811,E,2,11,0.7,-0.945,M,40.593,M,3.7,0123*6D
$GPVTG,221.64,T,-418.26,M,003.663,N,006.783,K,D*0B
$GPGGA,082141.65,5703.2623067,N,00951.8406195,E,2,11,0.7,-0.947,M,40.593,M,3.9,0123*62
$GPVTG,222.15,T,-417.75,M,003.670,N,006.797,K,D*00
$GPGGA,082141.70,5703.2622690,N,00951.8405579,E,2,11,0.7,-0.947,M,40.593,M,3.9,0123*6C
$GPVTG,222.53,T,-417.37,M,003.662,N,006.781,K,D*00
$GPGGA,082141.75,5703.2622322,N,00951.8404945,E,2,11,0.7,-0.948,M,40.593,M,3.9,0123*68
$GPVTG,223.32,T,-416.58,M,003.658,N,006.776,K,D*0F
$GPGGA,082141.80,5703.2621961,N,00951.8404287,E,2,11,0.7,-0.947,M,40.593,M,3.9,0123*66
$GPVTG,224.43,T,-415.47,M,003.668,N,006.794,K,D*0C
$GPGGA,082141.85,5703.2621587,N,00951.8403643,E,2,11,0.7,-0.950,M,40.593,M,4.1,0123*65
$GPVTG,224.78,T,-415.12,M,003.675,N,006.806,K,D*0C
$GPGGA,082141.90,5703.2621232,N,00951.8402988,E,2,11,0.7,-0.950,M,40.593,M,4.1,0123*61
$GPVTG,225.49,T,-414.41,M,003.664,N,006.786,K,D*0F
$GPGGA,082141.95,5703.2620884,N,00951.8402308,E,2,11,0.7,-0.953,M,40.593,M,4.1,0123*63
$GPVTG,226.46,T,-413.44,M,003.670,N,006.798,K,D*0B
$GPGGA,082142.00,5703.2620540,N,00951.8401619,E,2,11,0.7,-0.956,M,40.593,M,4.1,0123*6A
$GPVTG,227.40,T,-412.50,M,003.677,N,006.809,K,D*08
$GPGGA,082142.05,5703.2620192,N,00951.8400931,E,2,11,0.7,-0.960,M,40.593,M,1.6,0123*67
$GPVTG,228.07,T,-411.83,M,003.675,N,006.806,K,D*04
$GPGGA,082142.10,5703.2619853,N,00951.8400256,E,2,11,0.7,-0.963,M,40.593,M,1.6,0123*64
$GPVTG,228.50,T,-411.40,M,003.662,N,006.781,K,D*0F
$GPGGA,082142.15,5703.2619522,N,00951.8399553,E,2,11,0.7,-0.965,M,40.593,M,1.6,0123*69
$GPVTG,229.29,T,-410.61,M,003.663,N,006.784,K,D*06
$GPGGA,082142.20,5703.2619194,N,00951.8398845,E,2,11,0.7,-0.965,M,40.593,M,1.6,0123*6D
$GPVTG,230.01,T,-409.89,M,003.664,N,006.786,K,D*0F
$GPGGA,082142.25,5703.2618880,N,00951.8398122,E,2,11,0.7,-0.959,M,40.593,M,1.8,0123*6C
$GPVTG,230.83,T,-409.07,M,003.666,N,006.790,K,D*06
$GPGGA,082142.30,5703.2618562,N,00951.8397405,E,2,11,0.7,-0.957,M,40.593,M,1.8,0123*68
$GPVTG,231.48,T,-408.42,M,003.662,N,006.783,K,D*06
$GPGGA,082142.35,5703.2618242,N,00951.8396673,E,2,11,0.7,-0.959,M,40.593,M,1.8,0123*64
$GPVTG,232.06,T,-407.84,M,003.672,N,006.800,K,D*0F
$GPGGA,082142.40,5703.2617942,N,00951.8395920,E,2,11,0.7,-0.959,M,40.593,M,1.8,0123*68
$GPVTG,233.06,T,-406.84,M,003.677,N,006.810,K,D*0B
$GPGGA,082142.45,5703.2617647,N,00951.8395167,E,2,11,0.7,-0.959,M,40.593,M,2.1,0123*66
$GPVTG,234.02,T,-405.88,M,003.675,N,006.806,K,D*02
$GPGGA,082142.50,5703.2617344,N,00951.8394400,E,2,11,0.7,-0.961,M,40.593,M,2.1,0123*6A
$GPVTG,234.70,T,-405.20,M,003.691,N,006.836,K,D*0C
$GPGGA,082142.55,5703.2617042,N,00951.8393626,E,2,11,0.7,-0.960,M,40.593,M,2.1,0123*6A
$GPVTG,235.30,T,-404.60,M,003.709,N,006.870,K,D*0E
$GPGGA,082142.60,5703.2616760,N,00951.8392838,E,2,11,0.7,-0.959,M,40.593,M,2.1,0123*60
$GPVTG,236.25,T,-403.65,M,003.718,N,006.886,K,D*02
$GPGGA,082142.65,5703.2616477,N,00951.8392031,E,2,11,0.7,-0.959,M,40.593,M,2.3,0123*63
$GPVTG,237.14,T,-402.76,M,003.739,N,006.926,K,D*0A
$GPGGA,082142.70,5703.2616201,N,00951.8391231,E,2,11,0.7,-0.960,M,40.593,M,2.3,0123*6B
$GPVTG,237.93,T,-401.97,M,003.747,N,006.940,K,D*00
$GPGGA,082142.75,5703.2615933,N,00951.8390453,E,2,11,0.7,-0.960,M,40.593,M,2.3,0123*64
$GPVTG,238.52,T,-401.38,M,003.728,N,006.904,K,D*0E
$GPGGA,082142.80,5703.2615667,N,00951.8389652,E,2,11,0.7,-0.959,M,40.593,M,2.3,0123*61
$GPVTG,239.19,T,-400.71,M,003.727,N,006.902,K,D*05
$GPGGA,082142.85,5703.2615383,N,00951.8388823,E,2,11,0.7,-0.961,M,40.593,M,2.6,0123*6C
$GPVTG,239.77,T,-400.13,M,003.741,N,006.929,K,D*00
$GPGGA,082142.90,5703.2615118,N,00951.8387979,E,2,11,0.7,-0.959,M,40.593,M,2.6,0123*62
$GPVTG,240.48,T,-399.42,M,003.769,N,006.981,K,D*09
$GPGGA,082142.95,5703.2614866,N,00951.8387148,E,2,11,0.7,-0.960,M,40.593,M,2.6,0123*66
$GPVTG,241.19,T,-398.71,M,003.774,N,006.989,K,D*09
$GPGGA,082143.00,5703.2614623,N,00951.8386296,E,2,11,0.7,-0.962,M,40.593,M,2.6,0123*67
$GPVTG,242.06,T,-397.84,M,003.787,N,007.014,K,D*01
$GPGGA,082143.05,5703.2614380,N,00951.8385451,E,2,11,0.7,-0.963,M,40.593,M,1.5,0123*61
$GPVTG,242.80,T,-397.10,M,003.786,N,007.012,K,D*05
$GPGGA,082143.10,5703.2614145,N,00951.8384582,E,2,11,0.7,-0.962,M,40.593,M,1.5,0123*61
$GPVTG,243.61,T,-396.29,M,003.803,N,007.044,K,D*01
$GPGGA,082143.15,5703.2613919,N,00951.8383710,E,2,11,0.7,-0.963,M,40.593,M,1.5,0123*6D
$GPVTG,244.44,T,-395.46,M,003.814,N,007.064,K,D*0F
$GPGGA,082143.20,5703.2613693,N,00951.8382852,E,2,11,0.7,-0.963,M,40.593,M,1.5,0123*6E
$GPVTG,245.02,T,-394.88,M,003.811,N,007.058,K,D*05
$GPGGA,082143.25,5703.2613462,N,00951.8381980,E,2,11,0.7,-0.963,M,40.593,M,1.7,0123*68
$GPVTG,245.44,T,-394.46,M,003.822,N,007.078,K,D*07
$GPGGA,082143.30,5703.2613232,N,00951.8381107,E,2,11,0.7,-0.963,M,40.593,M,1.7,0123*68
$GPVTG,245.80,T,-394.10,M,003.829,N,007.091,K,D*00
$GPGGA,082143.35,5703.2613017,N,00951.8380224,E,2,11,0.7,-0.964,M,40.593,M,1.7,0123*6C
$GPVTG,246.37,T,-393.53,M,003.833,N,007.099,K,D*0C
$GPGGA,082143.40,5703.2612814,N,00951.8379315,E,2,11,0.7,-0.965,M,40.593,M,1.7,0123*60
$GPVTG,247.22,T,-392.68,M,003.851,N,007.132,K,D*04
$GPGGA,082143.45,5703.2612630,N,00951.8378440,E,2,11,0.7,-0.962,M,40.593,M,1.9,0123*62
$GPVTG,247.98,T,-391.92,M,003.830,N,007.093,K,D*0E
$GPGGA,082143.50,5703.2612427,N,00951.8377548,E,2,11,0.7,-0.959,M,40.593,M,1.9,0123*6C
$GPVTG,248.42,T,-391.48,M,003.830,N,007.093,K,D*01
$GPGGA,082143.55,5703.2612223,N,00951.8376653,E,2,11,0.7,-0.955,M,40.593,M,1.9,0123*6F
$GPVTG,248.74,T,-391.16,M,003.833,N,007.098,K,D*07
$GPGGA,082143.60,5703.2612035,N,00951.8375741,E,2,11,0.7,-0.953,M,40.593,M,1.9,0123*6B
$GPVTG,249.39,T,-390.51,M,003.839,N,007.111,K,D*07
$GPGGA,082143.65,5703.2611853,N,00951.8374822,E,2,11,0.7,-0.953,M,40.593,M,2.1,0123*65
$GPVTG,250.16,T,-389.74,M,003.848,N,007.126,K,D*0F
$GPGGA,082143.70,5703.2611669,N,00951.8373899,E,2,11,0.7,-0.955,M,40.593,M,2.1,0123*67
$GPVTG,250.66,T,-389.24,M,003.859,N,007.147,K,D*0A
$GPGGA,082143.75,5703.2611504,N,00951.8372969,E,2,11,0.7,-0.956,M,40.593,M,2.1,0123*66
$GPVTG,251.46,T,-388.44,M,003.865,N,007.158,K,D*0F
$GPGGA,082143.80,5703.2611343,N,00951.8372045,E,2,11,0.7,-0.956,M,40.593,M,2.1,0123*6E
$GPVTG,252.18,T,-387.72,M,003.862,N,007.152,K,D*00
$GPGGA,082143.85,5703.2611184,N,00951.8371112,E,2,11,0.7,-0.958,M,40.593,M,2.3,0123*6E
$GPVTG,252.83,T,-387.07,M,003.865,N,007.158,K,D*0D
$GPGGA,082143.90,5703.2611032,N,00951.8370172,E,2,11,0.7,-0.957,M,40.593,M,2.3,0123*6E
$GPVTG,253.53,T,-386.37,M,003.870,N,007.167,K,D*0B
$GPGGA,082143.95,5703.2610877,N,00951.8369222,E,2,11,0.7,-0.957,M,40.593,M,2.3,0123*6D
$GPVTG,254.06,T,-385.84,M,003.885,N,007.195,K,D*00
$GPGGA,082144.00,5703.2610735,N,00951.8368266,E,2,11,0.7,-0.957,M,40.593,M,2.3,0123*6E
$GPVTG,254.76,T,-385.14,M,003.896,N,007.216,K,D*04
$GPGGA,082144.05,5703.2610589,N,00951.8367312,E,2,11,0.7,-0.956,M,40.593,M,2.2,0123*63
$GPVTG,255.31,T,-384.59,M,003.902,N,007.226,K,D*01
$GPGGA,082144.10,5703.2610456,N,00951.8366361,E,2,11,0.7,-0.954,M,40.593,M,2.2,0123*63
$GPVTG,255.91,T,-383.99,M,003.900,N,007.222,K,D*06
$GPGGA,082144.15,5703.2610322,N,00951.8365404,E,2,11,0.7,-0.954,M,40.593,M,2.2,0123*65
$GPVTG,256.37,T,-383.53,M,003.901,N,007.224,K,D*08
$GPGGA,082144.20,5703.2610198,N,00951.8364454,E,2,11,0.7,-0.956,M,40.593,M,2.2,0123*66
$GPVTG,256.89,T,-383.01,M,003.884,N,007.193,K,D*09
$GPGGA,082144.25,5703.2610090,N,00951.8363478,E,2,11,0.7,-0.956,M,40.593,M,2.4,0123*65
$GPVTG,257.94,T,-381.96,M,003.900,N,007.223,K,D*0D
$GPGGA,082144.30,5703.2609989,N,00951.8362501,E,2,11,0.7,-0.956,M,40.593,M,2.4,0123*66
$GPVTG,258.98,T,-380.92,M,003.910,N,007.241,K,D*0E
$GPGGA,082144.35,5703.2609891,N,00951.8361526,E,2,11,0.7,-0.956,M,40.593,M,2.4,0123*6D
$GPVTG,259.83,T,-380.07,M,003.910,N,007.241,K,D*09
$GPGGA,082144.40,5703.2609801,N,00951.8360548,E,2,11,0.7,-0.955,M,40.593,M,2.4,0123*6C
$GPVTG,260.66,T,-379.24,M,003.911,N,007.242,K,D*0D
$GPGGA,082144.45,5703.2609720,N,00951.8359577,E,2,11,0.7,-0.955,M,40.593,M,2.6,0123*61
$GPVTG,261.48,T,-378.42,M,003.890,N,007.204,K,D*0B
$GPGGA,082144.50,5703.2609653,N,00951.8358573,E,2,11,0.7,-0.951,M,40.593,M,2.6,0123*61
$GPVTG,262.78,T,-377.12,M,003.933,N,007.284,K,D*01
$GPGGA,082144.55,5703.2609594,N,00951.8357563,E,2,11,0.7,-0.944,M,40.593,M,2.6,0123*66
$GPVTG,263.95,T,-375.95,M,003.973,N,007.358,K,D*0A
$GPGGA,082144.60,5703.2609549,N,00951.8356508,E,2,11,0.7,-0.937,M,40.593,M,2.6,0123*68
$GPVTG,265.38,T,-374.52,M,004.080,N,007.557,K,D*0A
$GPGGA,082144.65,5703.2609459,N,00951.8355600,E,2,11,0.7,-0.954,M,40.593,M,2.8,0123*6E
$GPVTG,265.61,T,-374.29,M,004.048,N,007.496,K,D*02
$GPGGA,082144.70,5703.2609406,N,00951.8354606,E,2,11,0.7,-0.953,M,40.593,M,2.8,0123*60
$GPVTG,265.79,T,-374.11,M,004.009,N,007.424,K,D*0C
$GPGGA,082144.75,5703.2609361,N,00951.8353608,E,2,10,0.7,-0.950,M,40.593,M,2.8,0123*68
$GPVTG,266.16,T,-373.74,M,003.984,N,007.378,K,D*07
$GPGGA,082144.80,5703.2609316,N,00951.8352621,E,2,10,0.7,-0.953,M,40.593,M,2.8,0123*6B
$GPVTG,266.28,T,-373.62,M,003.942,N,007.301,K,D*09
$GPGGA,082144.85,5703.2609277,N,00951.8351634,E,2,10,0.7,-0.954,M,40.593,M,3.1,0123*60
$GPVTG,266.81,T,-373.09,M,003.920,N,007.260,K,D*05
$GPGGA,082144.90,5703.2609257,N,00951.8350637,E,2,10,0.7,-0.950,M,40.593,M,3.1,0123*60
$GPVTG,267.70,T,-372.20,M,003.912,N,007.245,K,D*06
$GPGGA,082144.95,5703.2609235,N,00951.8349629,E,2,10,0.7,-0.950,M,40.593,M,3.1,0123*66
$GPVTG,268.18,T,-371.72,M,003.930,N,007.277,K,D*02
$GPGGA,082145.00,5703.2609233,N,00951.8348620,E,2,10,0.7,-0.949,M,40.593,M,3.1,0123*6D
$GPVTG,269.29,T,-370.61,M,003.945,N,007.306,K,D*07
$GPGGA,082145.05,5703.2609229,N,00951.8347614,E,2,11,0.7,-0.942,M,40.593,M,3.3,0123*63
$GPVTG,269.88,T,-370.02,M,003.944,N,007.304,K,D*0A
$GPGGA,082145.10,5703.2609224,N,00951.8346601,E,2,11,0.7,-0.942,M,40.593,M,3.3,0123*6F
$GPVTG,270.23,T,-369.67,M,003.963,N,007.340,K,D*0D
$GPGGA,082145.15,5703.2609217,N,00951.8345602,E,2,11,0.7,-0.943,M,40.593,M,3.3,0123*6B
$GPVTG,270.33,T,-369.57,M,003.952,N,007.320,K,D*0B
$GPGGA,082145.20,5703.2609220,N,00951.8344599,E,2,11,0.7,-0.942,M,40.593,M,3.3,0123*68
$GPVTG,270.69,T,-369.21,M,003.950,N,007.315,K,D*01
$GPGGA,082145.25,5703.2609221,N,00951.8343607,E,2,11,0.7,-0.948,M,40.593,M,3.5,0123*63
$GPVTG,271.29,T,-368.61,M,003.939,N,007.295,K,D*07
$GPGGA,082145.30,5703.2609226,N,00951.8342598,E,2,11,0.7,-0.949,M,40.593,M,3.5,0123*65
$GPVTG,271.36,T,-368.54,M,003.950,N,007.315,K,D*09
$GPGGA,082145.35,5703.2609244,N,00951.8341610,E,2,11,0.7,-0.948,M,40.593,M,3.5,0123*65
$GPVTG,271.95,T,-367.95,M,003.923,N,007.265,K,D*00
$GPGGA,082145.40,5703.2609274,N,00951.8340612,E,2,11,0.7,-0.946,M,40.593,M,3.5,0123*69
$GPVTG,272.78,T,-367.12,M,003.922,N,007.264,K,D*0F
$GPGGA,082145.45,5703.2609317,N,00951.8339609,E,2,11,0.7,-0.944,M,40.593,M,3.7,0123*6C
$GPVTG,273.86,T,-366.04,M,003.927,N,007.273,K,D*0A
$GPGGA,082145.50,5703.2609367,N,00951.8338599,E,2,11,0.7,-0.945,M,40.593,M,3.7,0123*65
$GPVTG,274.90,T,-365.00,M,003.955,N,007.324,K,D*0B
$GPGGA,082145.55,5703.2609422,N,00951.8337594,E,2,11,0.7,-0.945,M,40.593,M,3.7,0123*64
$GPVTG,275.85,T,-364.05,M,003.968,N,007.348,K,D*0E
$GPGGA,082145.60,5703.2609481,N,00951.8336573,E,2,11,0.7,-0.945,M,40.593,M,3.7,0123*63
$GPVTG,276.54,T,-363.36,M,004.008,N,007.424,K,D*03
$GPGGA,082145.65,5703.2609538,N,00951.8335568,E,2,11,0.7,-0.950,M,40.593,M,3.9,0123*66
$GPVTG,277.10,T,-362.80,M,004.022,N,007.448,K,D*0C
$GPGGA,082145.70,5703.2609607,N,00951.8334565,E,2,11,0.7,-0.951,M,40.593,M,3.9,0123*60
$GPVTG,277.72,T,-362.18,M,004.012,N,007.431,K,D*04
$GPGGA,082145.75,5703.2609695,N,00951.8333568,E,2,11,0.7,-0.952,M,40.593,M,3.9,0123*67
$GPVTG,278.90,T,-361.00,M,003.999,N,007.406,K,D*04
$GPGGA,082145.80,5703.2609790,N,00951.8332555,E,2,11,0.7,-0.954,M,40.593,M,3.9,0123*60
$GPVTG,279.87,T,-360.03,M,004.025,N,007.453,K,D*08
$GPGGA,082145.85,5703.2609880,N,00951.8331549,E,2,11,0.7,-0.957,M,40.593,M,4.1,0123*69
$GPVTG,280.42,T,-359.48,M,004.030,N,007.463,K,D*05
$GPGGA,082145.90,5703.2609986,N,00951.8330544,E,2,11,0.7,-0.958,M,40.593,M,4.1,0123*69
$GPVTG,281.22,T,-358.68,M,004.036,N,007.474,K,D*01
$GPGGA,082145.95,5703.2610098,N,00951.8329529,E,2,11,0.7,-0.960,M,40.593,M,4.1,0123*6A
$GPVTG,281.92,T,-357.98,M,004.060,N,007.520,K,D*09
$GPGGA,082146.00,5703.2610221,N,00951.8328530,E,2,11,0.7,-0.962,M,40.593,M,4.1,0123*6E
$GPVTG,282.87,T,-357.03,M,004.055,N,007.510,K,D*09
$GPGGA,082146.05,5703.2610329,N,00951.8327518,E,2,11,0.7,-0.963,M,40.593,M,1.6,0123*64
$GPVTG,283.03,T,-356.87,M,004.077,N,007.551,K,D*0C
$GPGGA,082146.10,5703.2610455,N,00951.8326530,E,2,11,0.7,-0.962,M,40.593,M,1.6,0123*66
$GPVTG,283.62,T,-356.28,M,004.045,N,007.492,K,D*01
$GPGGA,082146.15,5703.2610585,N,00951.8325554,E,2,11,0.7,-0.963,M,40.593,M,1.6,0123*6F
$GPVTG,284.19,T,-355.71,M,004.000,N,007.408,K,D*07
$GPGGA,082146.20,5703.2610726,N,00951.8324550,E,2,11,0.7,-0.964,M,40.593,M,1.6,0123*60
$GPVTG,284.81,T,-355.09,M,004.032,N,007.468,K,D*0E
$GPGGA,082146.25,5703.2610867,N,00951.8323567,E,2,11,0.7,-0.969,M,40.593,M,1.8,0123*6F
$GPVTG,285.54,T,-354.36,M,004.026,N,007.457,K,D*03
$GPGGA,082146.30,5703.2611015,N,00951.8322575,E,2,11,0.7,-0.969,M,40.593,M,1.8,0123*65
$GPVTG,285.95,T,-353.95,M,004.037,N,007.476,K,D*03
$GPGGA,082146.35,5703.2611159,N,00951.8321600,E,2,11,0.7,-0.973,M,40.593,M,1.8,0123*60
$GPVTG,286.13,T,-353.77,M,004.009,N,007.425,K,D*09
$GPGGA,082146.40,5703.2611310,N,00951.8320626,E,2,11,0.7,-0.978,M,40.593,M,1.8,0123*63
$GPVTG,286.45,T,-353.45,M,003.994,N,007.397,K,D*0F
$GPGGA,082146.45,5703.2611502,N,00951.8319601,E,2,11,0.7,-0.969,M,40.593,M,2.1,0123*66
$GPVTG,287.25,T,-352.65,M,004.021,N,007.446,K,D*00
$GPGGA,082146.50,5703.2611690,N,00951.8318615,E,2,11,0.7,-0.969,M,40.593,M,2.1,0123*6E
$GPVTG,288.50,T,-351.40,M,004.060,N,007.518,K,D*06
$GPGGA,082146.55,5703.2611879,N,00951.8317626,E,2,11,0.7,-0.970,M,40.593,M,2.1,0123*65
$GPVTG,289.38,T,-350.52,M,004.096,N,007.586,K,D*05
$GPGGA,082146.60,5703.2612079,N,00951.8316640,E,2,11,0.7,-0.973,M,40.593,M,2.1,0123*6A
$GPVTG,290.34,T,-349.56,M,004.127,N,007.642,K,D*0D
$GPGGA,082146.65,5703.2612289,N,00951.8315659,E,2,11,0.7,-0.971,M,40.593,M,2.3,0123*69
$GPVTG,291.32,T,-348.58,M,004.146,N,007.679,K,D*0A
$GPGGA,082146.70,5703.2612484,N,00951.8314706,E,2,11,0.7,-0.970,M,40.593,M,2.3,0123*6D
$GPVTG,291.68,T,-348.22,M,004.097,N,007.587,K,D*07
$GPGGA,082146.75,5703.2612685,N,00951.8313747,E,2,11,0.7,-0.971,M,40.593,M,2.3,0123*68
$GPVTG,292.02,T,-347.88,M,004.076,N,007.549,K,D*0A
$GPGGA,082146.80,5703.2612895,N,00951.8312775,E,2,11,0.7,-0.971,M,40.593,M,2.3,0123*6D
$GPVTG,292.36,T,-347.54,M,004.093,N,007.581,K,D*03
$GPGGA,082146.85,5703.2613120,N,00951.8311797,E,2,11,0.7,-0.970,M,40.593,M,2.6,0123*65
$GPVTG,292.89,T,-347.01,M,004.128,N,007.645,K,D*0D
$GPGGA,082146.90,5703.2613342,N,00951.8310822,E,2,11,0.7,-0.970,M,40.593,M,2.6,0123*67
$GPVTG,293.23,T,-346.67,M,004.150,N,007.685,K,D*0E
$GPGGA,082146.95,5703.2613568,N,00951.8309868,E,2,11,0.7,-0.969,M,40.593,M,2.6,0123*62
$GPVTG,293.77,T,-346.13,M,004.133,N,007.653,K,D*02
$GPGGA,082147.00,5703.2613805,N,00951.8308912,E,2,11,0.7,-0.968,M,40.593,M,2.6,0123*65
$GPVTG,294.51,T,-345.39,M,004.137,N,007.662,K,D*0C
$GPGGA,082147.05,5703.2614036,N,00951.8307965,E,2,11,0.7,-0.970,M,40.593,M,1.5,0123*69
$GPVTG,295.17,T,-344.73,M,004.150,N,007.685,K,D*08
$GPGGA,082147.10,5703.2614288,N,00951.8307025,E,2,11,0.7,-0.971,M,40.593,M,1.5,0123*66
$GPVTG,296.10,T,-343.80,M,004.140,N,007.668,K,D*05
$GPGGA,082147.15,5703.2614555,N,00951.8306096,E,2,11,0.7,-0.972,M,40.593,M,1.5,0123*6E
$GPVTG,297.39,T,-342.51,M,004.135,N,007.658,K,D*03
$GPGGA,082147.20,5703.2614824,N,00951.8305157,E,2,11,0.7,-0.971,M,40.593,M,1.5,0123*6F
$GPVTG,298.15,T,-341.75,M,004.155,N,007.694,K,D*01
$GPGGA,082147.25,5703.2615105,N,00951.8304229,E,2,11,0.7,-0.966,M,40.593,M,1.7,0123*6E
$GPVTG,298.94,T,-340.96,M,004.157,N,007.698,K,D*0A
$GPGGA,082147.30,5703.2615378,N,00951.8303301,E,2,11,0.7,-0.967,M,40.593,M,1.7,0123*6F
$GPVTG,299.29,T,-340.61,M,004.159,N,007.702,K,D*09
$GPGGA,082147.35,5703.2615647,N,00951.8302380,E,2,11,0.7,-0.965,M,40.593,M,1.7,0123*69
$GPVTG,299.39,T,-340.51,M,004.144,N,007.674,K,D*07
$GPGGA,082147.40,5703.2615931,N,00951.8301472,E,2,11,0.7,-0.963,M,40.593,M,1.7,0123*6A
$GPVTG,300.05,T,-339.85,M,004.131,N,007.650,K,D*0A
$GPGGA,082147.45,5703.2616233,N,00951.8300572,E,2,11,0.7,-0.961,M,40.593,M,1.9,0123*69
$GPVTG,301.10,T,-338.80,M,004.134,N,007.657,K,D*09
$GPGGA,082147.50,5703.2616531,N,00951.8299660,E,2,11,0.7,-0.960,M,40.593,M,1.9,0123*68
$GPVTG,301.56,T,-338.34,M,004.158,N,007.701,K,D*0C
$GPGGA,082147.55,5703.2616835,N,00951.8298759,E,2,11,0.7,-0.960,M,40.593,M,1.9,0123*6E
$GPVTG,302.14,T,-337.76,M,004.168,N,007.719,K,D*0A
$GPGGA,082147.60,5703.2617135,N,00951.8297850,E,2,11,0.7,-0.962,M,40.593,M,1.9,0123*6B
$GPVTG,302.22,T,-337.68,M,004.183,N,007.747,K,D*0E
$GPGGA,082147.65,5703.2617437,N,00951.8296967,E,2,11,0.7,-0.966,M,40.593,M,2.1,0123*62
$GPVTG,302.76,T,-337.14,M,004.161,N,007.707,K,D*0C
$GPGGA,082147.70,5703.2617759,N,00951.8296080,E,2,11,0.7,-0.966,M,40.593,M,2.1,0123*6D
$GPVTG,303.57,T,-336.33,M,004.176,N,007.734,K,D*0C
$GPGGA,082147.75,5703.2618087,N,00951.8295204,E,2,11,0.7,-0.968,M,40.593,M,2.1,0123*60
$GPVTG,304.44,T,-335.46,M,004.183,N,007.746,K,D*07
$GPGGA,082147.80,5703.2618429,N,00951.8294336,E,2,11,0.7,-0.967,M,40.593,M,2.1,0123*64
$GPVTG,305.54,T,-334.36,M,004.196,N,007.771,K,D*01
$GPGGA,082147.85,5703.2618772,N,00951.8293478,E,2,11,0.7,-0.967,M,40.593,M,2.3,0123*64
$GPVTG,306.45,T,-333.45,M,004.197,N,007.772,K,D*03
$GPGGA,082147.90,5703.2619113,N,00951.8292613,E,2,11,0.7,-0.970,M,40.593,M,2.3,0123*68
$GPVTG,306.82,T,-333.08,M,004.206,N,007.790,K,D*06
$GPGGA,082147.95,5703.2619461,N,00951.8291766,E,2,11,0.7,-0.972,M,40.593,M,2.3,0123*6F
$GPVTG,307.47,T,-332.43,M,004.196,N,007.771,K,D*05
$GPGGA,082148.00,5703.2619811,N,00951.8290923,E,2,11,0.7,-0.971,M,40.593,M,2.3,0123*6A
$GPVTG,307.92,T,-331.98,M,004.188,N,007.755,K,D*01
$GPGGA,082148.05,5703.2620151,N,00951.8290089,E,2,11,0.7,-0.974,M,40.593,M,2.2,0123*65
$GPVTG,308.31,T,-331.59,M,004.176,N,007.734,K,D*0C
$GPGGA,082148.10,5703.2620521,N,00951.8289255,E,2,11,0.7,-0.975,M,40.593,M,2.2,0123*68
$GPVTG,309.08,T,-330.82,M,004.199,N,007.776,K,D*07
$GPGGA,082148.15,5703.2620901,N,00951.8288425,E,2,11,0.7,-0.975,M,40.593,M,2.2,0123*63
$GPVTG,310.00,T,-329.90,M,004.231,N,007.836,K,D*06
$GPGGA,082148.20,5703.2621281,N,00951.8287596,E,2,11,0.7,-0.974,M,40.593,M,2.2,0123*60
$GPVTG,310.54,T,-329.36,M,004.255,N,007.879,K,D*02
$GPGGA,082148.25,5703.2621665,N,00951.8286782,E,2,11,0.7,-0.975,M,40.593,M,2.4,0123*6A
$GPVTG,311.18,T,-328.72,M,004.257,N,007.884,K,D*0A
$GPGGA,082148.30,5703.2622051,N,00951.8285960,E,2,11,0.7,-0.977,M,40.593,M,2.4,0123*6F
$GPVTG,311.48,T,-328.42,M,004.273,N,007.913,K,D*05
$GPGGA,082148.35,5703.2622444,N,00951.8285150,E,2,11,0.7,-0.978,M,40.593,M,2.4,0123*6E
$GPVTG,312.03,T,-327.87,M,004.281,N,007.928,K,D*0A
$GPGGA,082148.40,5703.2622848,N,00951.8284354,E,2,11,0.7,-0.976,M,40.593,M,2.4,0123*65
$GPVTG,312.89,T,-327.01,M,004.289,N,007.942,K,D*02
$GPGGA,082148.45,5703.2623250,N,00951.8283575,E,2,11,0.7,-0.980,M,40.593,M,2.6,0123*6B
$GPVTG,313.70,T,-326.20,M,004.266,N,007.901,K,D*01
$GPGGA,082148.50,5703.2623670,N,00951.8282795,E,2,11,0.7,-0.981,M,40.593,M,2.6,0123*65
$GPVTG,314.63,T,-325.27,M,004.290,N,007.945,K,D*09
$GPGGA,082148.55,5703.2624083,N,00951.8282022,E,2,11,0.7,-0.981,M,40.593,M,2.6,0123*66
$GPVTG,315.14,T,-324.76,M,004.284,N,007.934,K,D*0E
$GPGGA,082148.60,5703.2624499,N,00951.8281274,E,2,11,0.7,-0.981,M,40.593,M,2.6,0123*6D
$GPVTG,315.89,T,-324.01,M,004.249,N,007.869,K,D*02
$GPGGA,082148.65,5703.2624929,N,00951.8280518,E,2,11,0.7,-0.977,M,40.593,M,2.8,0123*65
$GPVTG,316.46,T,-323.44,M,004.257,N,007.883,K,D*0F
$GPGGA,082148.70,5703.2625361,N,00951.8279776,E,2,11,0.7,-0.974,M,40.593,M,2.8,0123*69
$GPVTG,317.17,T,-322.73,M,004.264,N,007.896,K,D*0B
$GPGGA,082148.75,5703.2625795,N,00951.8279033,E,2,11,0.7,-0.973,M,40.593,M,2.8,0123*62
$GPVTG,317.58,T,-322.32,M,004.275,N,007.917,K,D*0D
$GPGGA,082148.80,5703.2626236,N,00951.8278292,E,2,11,0.7,-0.971,M,40.593,M,2.8,0123*6D
$GPVTG,318.02,T,-321.88,M,004.299,N,007.962,K,D*0F
$GPGGA,082148.85,5703.2626693,N,00951.8277557,E,2,11,0.7,-0.969,M,40.593,M,3.1,0123*63
$GPVTG,318.74,T,-321.16,M,004.340,N,008.037,K,D*0A
$GPGGA,082148.90,5703.2627148,N,00951.8276832,E,2,11,0.7,-0.969,M,40.593,M,3.1,0123*68
$GPVTG,319.32,T,-320.58,M,004.358,N,008.070,K,D*08
$GPGGA,082148.95,5703.2627614,N,00951.8276111,E,2,11,0.7,-0.970,M,40.593,M,3.1,0123*63
$GPVTG,320.01,T,-319.89,M,004.390,N,008.129,K,D*0D
$GPGGA,082149.00,5703.2628088,N,00951.8275402,E,2,11,0.7,-0.970,M,40.593,M,3.1,0123*66
$GPVTG,320.84,T,-319.06,M,004.414,N,008.175,K,D*05
$GPGGA,082149.05,5703.2628561,N,00951.8274704,E,2,11,0.7,-0.971,M,40.593,M,3.3,0123*66
$GPVTG,321.69,T,-318.21,M,004.439,N,008.220,K,D*0F
$GPGGA,082149.10,5703.2629044,N,00951.8273997,E,2,11,0.7,-0.968,M,40.593,M,3.3,0123*6A
$GPVTG,322.06,T,-317.84,M,004.466,N,008.270,K,D*0A
$GPGGA,082149.15,5703.2629527,N,00951.8273322,E,2,11,0.7,-0.966,M,40.593,M,3.3,0123*65
$GPVTG,322.90,T,-317.00,M,004.447,N,008.235,K,D*0B
$GPGGA,082149.20,5703.2630007,N,00951.8272650,E,2,11,0.7,-0.965,M,40.593,M,3.3,0123*6E
$GPVTG,323.36,T,-316.54,M,004.419,N,008.185,K,D*05
$GPGGA,082149.25,5703.2630489,N,00951.8271993,E,2,11,0.7,-0.966,M,40.593,M,3.5,0123*6F
$GPVTG,323.97,T,-315.93,M,004.397,N,008.144,K,D*0A
$GPGGA,082149.30,5703.2630971,N,00951.8271343,E,2,11,0.7,-0.964,M,40.593,M,3.5,0123*64
$GPVTG,324.35,T,-315.55,M,004.363,N,008.080,K,D*0D
$GPGGA,082149.35,5703.2631446,N,00951.8270696,E,2,11,0.7,-0.963,M,40.593,M,3.5,0123*62
$GPVTG,324.41,T,-315.49,M,004.318,N,007.997,K,D*0F
$GPGGA,082149.40,5703.2631924,N,00951.8270054,E,2,11,0.7,-0.961,M,40.593,M,3.5,0123*63
$GPVTG,324.52,T,-315.38,M,004.290,N,007.945,K,D*05
$GPGGA,082149.45,5703.2632428,N,00951.8269417,E,2,11,0.7,-0.960,M,40.593,M,3.7,0123*6C
$GPVTG,325.12,T,-314.78,M,004.338,N,008.034,K,D*06
