$GPGGA,082713.70,5703.3149685,N,00951.8681660,E,2,9,1.2,-1.043,M,40.593,M,3.9,0123*56
$GPVTG,264.08,T,-375.82,M,003.594,N,006.656,K,D*00
$GPGGA,082713.75,5703.3149642,N,00951.8680778,E,2,9,1.2,-1.038,M,40.593,M,3.9,0123*5D
$GPVTG,265.27,T,-374.63,M,003.589,N,006.647,K,D*0E
$GPGGA,082713.80,5703.3149597,N,00951.8679887,E,2,9,1.2,-1.036,M,40.593,M,3.9,0123*5B
$GPVTG,266.20,T,-373.70,M,003.592,N,006.652,K,D*01
$GPGGA,082713.85,5703.3149561,N,00951.8679012,E,2,9,1.2,-1.038,M,40.593,M,4.1,0123*52
$GPVTG,267.37,T,-372.53,M,003.580,N,006.630,K,D*01
$GPGGA,082713.90,5703.3149530,N,00951.8678113,E,2,9,1.2,-1.041,M,40.593,M,4.1,0123*5D
$GPVTG,268.21,T,-371.69,M,003.587,N,006.644,K,D*07
$GPGGA,082713.95,5703.3149518,N,00951.8677209,E,2,9,1.2,-1.041,M,40.593,M,4.1,0123*55
$GPVTG,269.27,T,-370.63,M,003.596,N,006.659,K,D*07
$GPGGA,082714.00,5703.3149524,N,00951.8676293,E,2,9,1.2,-1.040,M,40.593,M,4.1,0123*52
$GPVTG,270.51,T,-369.39,M,003.614,N,006.693,K,D*06
$GPGGA,082714.05,5703.3149516,N,00951.8675377,E,2,9,1.2,-1.051,M,40.593,M,1.6,0123*5C
$GPVTG,271.63,T,-368.27,M,003.625,N,006.714,K,D*04
$GPGGA,082714.10,5703.3149531,N,00951.8674477,E,2,9,1.2,-1.052,M,40.593,M,1.6,0123*58
$GPVTG,272.65,T,-367.25,M,003.622,N,006.709,K,D*07
$GPGGA,082714.15,5703.3149562,N,00951.8673560,E,2,9,1.2,-1.051,M,40.593,M,1.6,0123*58
$GPVTG,273.77,T,-366.13,M,003.637,N,006.736,K,D*09
$GPGGA,082714.20,5703.3149597,N,00951.8672645,E,2,9,1.2,-1.051,M,40.593,M,1.6,0123*51
$GPVTG,274.78,T,-365.12,M,003.647,N,006.755,K,D*01
$GPGGA,082714.25,5703.3149639,N,00951.8671748,E,2,9,1.2,-1.057,M,40.593,M,1.8,0123*54
$GPVTG,275.92,T,-363.98,M,003.640,N,006.741,K,D*02
$GPGGA,082714.30,5703.3149698,N,00951.8670844,E,2,9,1.2,-1.057,M,40.593,M,1.8,0123*59
$GPVTG,277.05,T,-362.85,M,003.640,N,006.742,K,D*00
$GPGGA,082714.35,5703.3149764,N,00951.8669939,E,2,9,1.2,-1.057,M,40.593,M,1.8,0123*5D
$GPVTG,278.11,T,-361.79,M,003.643,N,006.747,K,D*0C
$GPGGA,082714.40,5703.3149850,N,00951.8669031,E,2,9,1.2,-1.056,M,40.593,M,1.8,0123*57
$GPVTG,279.42,T,-360.48,M,003.653,N,006.765,K,D*09
$GPGGA,082714.45,5703.3149974,N,00951.8668129,E,2,9,1.2,-1.048,M,40.593,M,2.1,0123*59
$GPVTG,280.93,T,-358.97,M,003.661,N,006.781,K,D*01
$GPGGA,082714.50,5703.3150079,N,00951.8667231,E,2,9,1.2,-1.049,M,40.593,M,2.1,0123*55
$GPVTG,282.16,T,-357.74,M,003.665,N,006.788,K,D*01
$GPGGA,082714.55,5703.3150183,N,00951.8666346,E,2,9,1.2,-1.053,M,40.593,M,2.1,0123*5F
$GPVTG,283.20,T,-356.70,M,003.656,N,006.770,K,D*07
$GPGGA,082714.60,5703.3150303,N,00951.8665463,E,2,9,1.2,-1.054,M,40.593,M,2.1,0123*57
$GPVTG,284.38,T,-355.52,M,003.651,N,006.761,K,D*0D
$GPGGA,082714.65,5703.3150397,N,00951.8664577,E,2,9,1.2,-1.068,M,40.593,M,2.3,0123*57
$GPVTG,285.19,T,-354.71,M,003.649,N,006.758,K,D*0C
$GPGGA,082714.70,5703.3150534,N,00951.8663688,E,2,9,1.2,-1.070,M,40.593,M,2.3,0123*51
$GPVTG,286.28,T,-353.62,M,003.657,N,006.774,K,D*09
$GPGGA,082714.75,5703.3150673,N,00951.8662805,E,2,9,1.2,-1.075,M,40.593,M,2.3,0123*5B
$GPVTG,287.25,T,-352.65,M,003.660,N,006.778,K,D*0B
$GPGGA,082714.80,5703.3150824,N,00951.8661934,E,2,9,1.2,-1.078,M,40.593,M,2.3,0123*50
$GPVTG,288.32,T,-351.58,M,003.658,N,006.774,K,D*08
$GPGGA,082714.85,5703.3150965,N,00951.8661074,E,2,9,1.2,-1.098,M,40.593,M,2.6,0123*57
$GPVTG,289.22,T,-350.68,M,003.655,N,006.769,K,D*0B
$GPGGA,082714.90,5703.3151121,N,00951.8660205,E,2,9,1.2,-1.102,M,40.593,M,2.6,0123*5D
$GPVTG,290.00,T,-349.90,M,003.654,N,006.766,K,D*02
$GPGGA,082714.95,5703.3151296,N,00951.8659333,E,2,9,1.2,-1.106,M,40.593,M,2.6,0123*5D
$GPVTG,290.97,T,-348.93,M,003.665,N,006.787,K,D*03
$GPGGA,082715.00,5703.3151493,N,00951.8658477,E,2,9,1.2,-1.109,M,40.593,M,2.6,0123*5A
$GPVTG,292.24,T,-347.66,M,003.673,N,006.802,K,D*09
$GPGGA,082715.05,5703.3151717,N,00951.8657601,E,2,9,1.2,-1.105,M,40.593,M,1.5,0123*50
$GPVTG,293.63,T,-346.27,M,003.697,N,006.846,K,D*05
$GPGGA,082715.10,5703.3151939,N,00951.8656745,E,2,9,1.2,-1.108,M,40.593,M,1.5,0123*5B
$GPVTG,294.92,T,-344.98,M,003.716,N,006.882,K,D*0A
$GPGGA,082715.15,5703.3152162,N,00951.8655889,E,2,9,1.2,-1.109,M,40.593,M,1.5,0123*56
$GPVTG,296.00,T,-343.90,M,003.735,N,006.917,K,D*00
$GPGGA,082715.20,5703.3152390,N,00951.8655037,E,2,9,1.2,-1.107,M,40.593,M,1.5,0123*5C
$GPVTG,296.99,T,-342.91,M,003.753,N,006.951,K,D*02
$GPGGA,082715.25,5703.3152660,N,00951.8654193,E,2,9,1.2,-1.095,M,40.593,M,1.7,0123*55
$GPVTG,298.27,T,-341.63,M,003.773,N,006.987,K,D*0E
$GPGGA,082715.30,5703.3152913,N,00951.8653360,E,2,9,1.2,-1.095,M,40.593,M,1.7,0123*53
$GPVTG,299.40,T,-340.50,M,003.787,N,007.013,K,D*01
$GPGGA,082715.35,5703.3153174,N,00951.8652520,E,2,9,1.2,-1.094,M,40.593,M,1.7,0123*5C
$GPVTG,300.39,T,-339.51,M,003.810,N,007.056,K,D*01
$GPGGA,082715.40,5703.3153446,N,00951.8651693,E,2,9,1.2,-1.092,M,40.593,M,1.7,0123*54
$GPVTG,301.47,T,-338.43,M,003.828,N,007.089,K,D*02
$GPGGA,082715.45,5703.3153700,N,00951.8650870,E,2,9,1.2,-1.096,M,40.593,M,1.9,0123*58
$GPVTG,302.22,T,-337.68,M,003.834,N,007.101,K,D*08
$GPGGA,082715.50,5703.3153987,N,00951.8650067,E,2,9,1.2,-1.094,M,40.593,M,1.9,0123*51
$GPVTG,303.35,T,-336.55,M,003.842,N,007.115,K,D*04
$GPGGA,082715.55,5703.3154292,N,00951.8649280,E,2,9,1.2,-1.091,M,40.593,M,1.9,0123*5A
$GPVTG,304.69,T,-335.21,M,003.848,N,007.126,K,D*00
$GPGGA,082715.60,5703.3154612,N,00951.8648508,E,2,9,1.2,-1.090,M,40.593,M,1.9,0123*57
$GPVTG,306.18,T,-333.72,M,003.857,N,007.143,K,D*09
$GPGGA,082715.65,5703.3154927,N,00951.8647734,E,2,9,1.2,-1.089,M,40.593,M,2.1,0123*5A
$GPVTG,307.33,T,-332.57,M,003.867,N,007.162,K,D*07
$GPGGA,082715.70,5703.3155240,N,00951.8646959,E,2,9,1.2,-1.089,M,40.593,M,2.1,0123*51
$GPVTG,308.16,T,-331.74,M,003.872,N,007.171,K,D*0B
$GPGGA,082715.75,5703.3155564,N,00951.8646194,E,2,9,1.2,-1.089,M,40.593,M,2.1,0123*5C
$GPVTG,309.06,T,-330.84,M,003.878,N,007.182,K,D*03
$GPGGA,082715.80,5703.3155907,N,00951.8645440,E,2,9,1.2,-1.089,M,40.593,M,2.1,0123*50
$GPVTG,310.16,T,-329.74,M,003.893,N,007.210,K,D*00
$GPGGA,082715.85,5703.3156255,N,00951.8644696,E,2,9,1.2,-1.093,M,40.593,M,2.3,0123*5B
$GPVTG,311.27,T,-328.63,M,003.909,N,007.239,K,D*0D
$GPGGA,082715.90,5703.3156611,N,00951.8643952,E,2,9,1.2,-1.094,M,40.593,M,2.3,0123*5C
$GPVTG,312.19,T,-327.71,M,003.926,N,007.272,K,D*0D
$GPGGA,082715.95,5703.3156972,N,00951.8643217,E,2,9,1.2,-1.095,M,40.593,M,2.3,0123*58
$GPVTG,313.08,T,-326.82,M,003.940,N,007.296,K,D*0B
$GPGGA,082716.00,5703.3157356,N,00951.8642493,E,2,9,1.2,-1.096,M,40.593,M,2.3,0123*52
$GPVTG,314.20,T,-325.70,M,003.968,N,007.348,K,D*00
$GPGGA,082716.05,5703.3157737,N,00951.8641762,E,2,9,1.2,-1.100,M,40.593,M,2.2,0123*55
$GPVTG,315.25,T,-324.65,M,003.997,N,007.403,K,D*09
$GPGGA,082716.10,5703.3158127,N,00951.8641059,E,2,9,1.2,-1.102,M,40.593,M,2.2,0123*54
$GPVTG,316.20,T,-323.70,M,004.009,N,007.424,K,D*00
$GPGGA,082716.15,5703.3158516,N,00951.8640360,E,2,9,1.2,-1.104,M,40.593,M,2.2,0123*59
$GPVTG,316.96,T,-322.94,M,004.012,N,007.431,K,D*08
$GPGGA,082716.20,5703.3158916,N,00951.8639687,E,2,9,1.2,-1.102,M,40.593,M,2.2,0123*57
$GPVTG,318.00,T,-321.90,M,004.000,N,007.407,K,D*08
$GPGGA,082716.25,5703.3159334,N,00951.8639018,E,2,9,1.2,-1.097,M,40.593,M,2.4,0123*52
$GPVTG,319.12,T,-320.78,M,004.001,N,007.411,K,D*0B
$GPGGA,082716.30,5703.3159770,N,00951.8638367,E,2,9,1.2,-1.095,M,40.593,M,2.4,0123*5A
$GPVTG,320.62,T,-319.28,M,004.029,N,007.461,K,D*04
$GPGGA,082716.35,5703.3160193,N,00951.8637720,E,2,9,1.2,-1.094,M,40.593,M,2.4,0123*57
$GPVTG,321.34,T,-318.56,M,004.023,N,007.451,K,D*07
$GPGGA,082716.40,5703.3160618,N,00951.8637089,E,2,9,1.2,-1.091,M,40.593,M,2.4,0123*50
$GPVTG,322.09,T,-317.81,M,004.004,N,007.416,K,D*09
$GPGGA,082716.45,5703.3161053,N,00951.8636466,E,2,9,1.2,-1.084,M,40.593,M,2.6,0123*5F
$GPVTG,322.80,T,-317.10,M,003.993,N,007.395,K,D*0C
$GPGGA,082716.50,5703.3161491,N,00951.8635855,E,2,9,1.2,-1.082,M,40.593,M,2.6,0123*58
$GPVTG,323.51,T,-316.39,M,003.988,N,007.385,K,D*00
$GPGGA,082716.55,5703.3161943,N,00951.8635262,E,2,9,1.2,-1.079,M,40.593,M,2.6,0123*55
$GPVTG,324.60,T,-315.30,M,003.999,N,007.406,K,D*03
$GPGGA,082716.60,5703.3162408,N,00951.8634661,E,2,9,1.2,-1.074,M,40.593,M,2.6,0123*59
$GPVTG,325.35,T,-314.55,M,004.049,N,007.498,K,D*04
$GPGGA,082716.65,5703.3162850,N,00951.8634098,E,2,9,1.2,-1.084,M,40.593,M,2.8,0123*5C
$GPVTG,326.61,T,-313.29,M,004.043,N,007.487,K,D*0E
$GPGGA,082716.70,5703.3163317,N,00951.8633553,E,2,9,1.2,-1.085,M,40.593,M,2.8,0123*55
$GPVTG,327.83,T,-312.07,M,004.031,N,007.465,K,D*07
$GPGGA,082716.75,5703.3163800,N,00951.8633021,E,2,9,1.2,-1.083,M,40.593,M,2.8,0123*5B
$GPVTG,329.15,T,-310.75,M,004.049,N,007.498,K,D*0C
$GPGGA,082716.80,5703.3164289,N,00951.8632512,E,2,9,1.2,-1.081,M,40.593,M,2.8,0123*5B
$GPVTG,330.58,T,-309.32,M,004.058,N,007.516,K,D*01
$GPGGA,082716.85,5703.3164797,N,00951.8632009,E,2,9,1.2,-1.080,M,40.593,M,3.1,0123*52
$GPVTG,331.80,T,-308.10,M,004.099,N,007.591,K,D*06
$GPGGA,082716.90,5703.3165300,N,00951.8631512,E,2,9,1.2,-1.082,M,40.593,M,3.1,0123*53
$GPVTG,332.61,T,-307.29,M,004.126,N,007.641,K,D*04
$GPGGA,082716.95,5703.3165804,N,00951.8631022,E,2,9,1.2,-1.085,M,40.593,M,3.1,0123*58
$GPVTG,333.16,T,-306.74,M,004.142,N,007.671,K,D*0D
$GPGGA,082717.00,5703.3166311,N,00951.8630567,E,2,9,1.2,-1.088,M,40.593,M,3.1,0123*51
$GPVTG,334.32,T,-305.58,M,004.131,N,007.651,K,D*07
$GPGGA,082717.05,5703.3166821,N,00951.8630131,E,2,9,1.2,-1.094,M,40.593,M,3.3,0123*54
$GPVTG,335.88,T,-304.02,M,004.135,N,007.657,K,D*0B
$GPGGA,082717.10,5703.3167338,N,00951.8629704,E,2,9,1.2,-1.095,M,40.593,M,3.3,0123*5B
$GPVTG,336.71,T,-303.19,M,004.131,N,007.651,K,D*01
$GPGGA,082717.15,5703.3167850,N,00951.8629302,E,2,9,1.2,-1.096,M,40.593,M,3.3,0123*5A
$GPVTG,337.66,T,-302.24,M,004.097,N,007.588,K,D*03
$GPGGA,082717.20,5703.3168366,N,00951.8628913,E,2,9,1.2,-1.099,M,40.593,M,3.3,0123*59
$GPVTG,338.49,T,-301.41,M,004.073,N,007.543,K,D*0C
$GPGGA,082717.25,5703.3168904,N,00951.8628527,E,2,9,1.2,-1.097,M,40.593,M,3.5,0123*51
$GPVTG,339.19,T,-300.71,M,004.095,N,007.584,K,D*09
$GPGGA,082717.30,5703.3169428,N,00951.8628154,E,2,9,1.2,-1.098,M,40.593,M,3.5,0123*58
$GPVTG,339.71,T,-300.19,M,004.086,N,007.567,K,D*06
$GPGGA,082717.35,5703.3169948,N,00951.8627801,E,2,9,1.2,-1.096,M,40.593,M,3.5,0123*5E
$GPVTG,340.40,T,-299.50,M,004.056,N,007.512,K,D*09
$GPGGA,082717.40,5703.3170477,N,00951.8627472,E,2,9,1.2,-1.094,M,40.593,M,3.5,0123*5F
$GPVTG,341.45,T,-298.45,M,004.042,N,007.485,K,D*02
$GPGGA,082717.45,5703.3171018,N,00951.8627155,E,2,9,1.2,-1.093,M,40.593,M,3.7,0123*53
$GPVTG,342.52,T,-297.38,M,004.067,N,007.532,K,D*08
$GPGGA,082717.50,5703.3171560,N,00951.8626831,E,2,9,1.2,-1.093,M,40.593,M,3.7,0123*57
$GPVTG,342.92,T,-296.98,M,004.090,N,007.575,K,D*04
$GPGGA,082717.55,5703.3172097,N,00951.8626526,E,2,9,1.2,-1.094,M,40.593,M,3.7,0123*50
$GPVTG,343.46,T,-296.44,M,004.083,N,007.561,K,D*0A
$GPGGA,082717.60,5703.3172640,N,00951.8626258,E,2,9,1.2,-1.092,M,40.593,M,3.7,0123*52
$GPVTG,344.75,T,-295.15,M,004.076,N,007.549,K,D*0A
$GPGGA,082717.65,5703.3173208,N,00951.8625988,E,2,9,1.2,-1.089,M,40.593,M,3.9,0123*5F
$GPVTG,345.67,T,-294.23,M,004.136,N,007.660,K,D*01
$GPGGA,082717.70,5703.3173761,N,00951.8625746,E,2,9,1.2,-1.090,M,40.593,M,3.9,0123*55
$GPVTG,346.80,T,-293.10,M,004.136,N,007.659,K,D*06
$GPGGA,082717.75,5703.3174336,N,00951.8625528,E,2,9,1.2,-1.086,M,40.593,M,3.9,0123*5C
$GPVTG,348.22,T,-291.68,M,004.185,N,007.750,K,D*0D
$GPGGA,082717.80,5703.3174898,N,00951.8625332,E,2,9,1.2,-1.084,M,40.593,M,3.9,0123*56
$GPVTG,349.52,T,-290.38,M,004.181,N,007.744,K,D*0E
$GPGGA,082717.85,5703.3175466,N,00951.8625145,E,2,9,1.2,-1.081,M,40.593,M,4.1,0123*57
$GPVTG,350.44,T,-289.46,M,004.174,N,007.731,K,D*08
$GPGGA,082717.90,5703.3176034,N,00951.8624965,E,2,9,1.2,-1.081,M,40.593,M,4.1,0123*58
$GPVTG,351.12,T,-288.78,M,004.180,N,007.741,K,D*0A
$GPGGA,082717.95,5703.3176601,N,00951.8624826,E,2,9,1.2,-1.080,M,40.593,M,4.1,0123*5A
$GPVTG,352.49,T,-287.41,M,004.172,N,007.726,K,D*0E
$GPGGA,082718.00,5703.3177169,N,00951.8624691,E,2,9,1.2,-1.082,M,40.593,M,4.1,0123*51
$GPVTG,353.36,T,-286.54,M,004.165,N,007.713,K,D*02
$GPGGA,082718.05,5703.3177730,N,00951.8624564,E,2,9,1.2,-1.088,M,40.593,M,1.6,0123*5F
$GPVTG,354.29,T,-285.61,M,004.178,N,007.738,K,D*0B
$GPGGA,082718.10,5703.3178313,N,00951.8624469,E,2,9,1.2,-1.088,M,40.593,M,1.6,0123*5D
$GPVTG,355.35,T,-284.55,M,004.204,N,007.785,K,D*0F
$GPGGA,082718.15,5703.3178885,N,00951.8624397,E,2,9,1.2,-1.089,M,40.593,M,1.6,0123*5B
$GPVTG,356.46,T,-283.44,M,004.189,N,007.758,K,D*09
$GPGGA,082718.20,5703.3179455,N,00951.8624346,E,2,9,1.2,-1.093,M,40.593,M,1.6,0123*5A
$GPVTG,357.61,T,-282.29,M,004.170,N,007.722,K,D*0C
$GPGGA,082718.25,5703.3180041,N,00951.8624318,E,2,9,1.2,-1.096,M,40.593,M,1.8,0123*58
$GPVTG,358.84,T,-281.06,M,004.203,N,007.784,K,D*0D
$GPGGA,082718.30,5703.3180612,N,00951.8624302,E,2,9,1.2,-1.103,M,40.593,M,1.8,0123*5A
$GPVTG,359.83,T,-280.07,M,004.183,N,007.747,K,D*0F
$GPGGA,082718.35,5703.3181190,N,00951.8624301,E,2,9,1.2,-1.104,M,40.593,M,1.8,0123*57
$GPVTG,000.67,T,-639.23,M,004.183,N,007.748,K,D*05
$GPGGA,082718.40,5703.3181769,N,00951.8624335,E,2,9,1.2,-1.103,M,40.593,M,1.8,0123*55
$GPVTG,002.00,T,-637.90,M,004.189,N,007.759,K,D*0A
$GPGGA,082718.45,5703.3182363,N,00951.8624385,E,2,9,1.2,-1.097,M,40.593,M,2.1,0123*50
$GPVTG,003.18,T,-636.72,M,004.215,N,007.807,K,D*0D
$GPGGA,082718.50,5703.3182951,N,00951.8624449,E,2,9,1.2,-1.098,M,40.593,M,2.1,0123*57
$GPVTG,004.11,T,-635.79,M,004.239,N,007.851,K,D*06
$GPGGA,082718.55,5703.3183558,N,00951.8624529,E,2,9,1.2,-1.098,M,40.593,M,2.1,0123*51
$GPVTG,004.89,T,-635.01,M,004.313,N,007.988,K,D*04
$GPGGA,082718.60,5703.3184149,N,00951.8624625,E,2,9,1.2,-1.095,M,40.593,M,2.1,0123*56
$GPVTG,005.71,T,-634.19,M,004.323,N,008.006,K,D*09
$GPGGA,082718.65,5703.3184728,N,00951.8624752,E,2,9,1.2,-1.094,M,40.593,M,2.3,0123*50
$GPVTG,006.93,T,-632.97,M,004.314,N,007.990,K,D*0B
$GPGGA,082718.70,5703.3185308,N,00951.8624881,E,2,9,1.2,-1.097,M,40.593,M,2.3,0123*51
$GPVTG,007.65,T,-632.25,M,004.293,N,007.951,K,D*09
$GPGGA,082718.75,5703.3185874,N,00951.8625030,E,2,9,1.2,-1.101,M,40.593,M,2.3,0123*59
$GPVTG,008.57,T,-631.33,M,004.237,N,007.848,K,D*04
$GPGGA,082718.80,5703.3186444,N,00951.8625215,E,2,9,1.2,-1.103,M,40.593,M,2.3,0123*58
$GPVTG,009.96,T,-629.94,M,004.213,N,007.803,K,D*05
$GPGGA,082718.85,5703.3187020,N,00951.8625424,E,2,9,1.2,-1.106,M,40.593,M,2.6,0123*5E
$GPVTG,011.37,T,-628.53,M,004.221,N,007.817,K,D*09
$GPGGA,082718.90,5703.3187589,N,00951.8625638,E,2,9,1.2,-1.108,M,40.593,M,2.6,0123*5D
$GPVTG,012.31,T,-627.59,M,004.210,N,007.796,K,D*0D
$GPGGA,082718.95,5703.3188153,N,00951.8625863,E,2,9,1.2,-1.110,M,40.593,M,2.6,0123*5D
$GPVTG,013.11,T,-626.79,M,004.191,N,007.761,K,D*0F
$GPGGA,082719.00,5703.3188714,N,00951.8626109,E,2,9,1.2,-1.110,M,40.593,M,2.6,0123*53
$GPVTG,014.02,T,-625.88,M,004.179,N,007.739,K,D*0C
$GPGGA,082719.05,5703.3189280,N,00951.8626377,E,2,9,1.2,-1.102,M,40.593,M,1.5,0123*57
$GPVTG,015.32,T,-624.58,M,004.181,N,007.742,K,D*09
$GPGGA,082719.10,5703.3189835,N,00951.8626672,E,2,9,1.2,-1.100,M,40.593,M,1.5,0123*55
$GPVTG,016.54,T,-623.36,M,004.176,N,007.735,K,D*0D
$GPGGA,082719.15,5703.3190391,N,00951.8626970,E,2,9,1.2,-1.099,M,40.593,M,1.5,0123*51
$GPVTG,017.23,T,-622.67,M,004.176,N,007.734,K,D*08
$GPGGA,082719.20,5703.3190939,N,00951.8627286,E,2,9,1.2,-1.098,M,40.593,M,1.5,0123*5D
$GPVTG,018.08,T,-621.82,M,004.163,N,007.711,K,D*05
$GPGGA,082719.25,5703.3191482,N,00951.8627612,E,2,9,1.2,-1.100,M,40.593,M,1.7,0123*5F
$GPVTG,018.71,T,-621.19,M,004.171,N,007.725,K,D*0D
$GPGGA,082719.30,5703.3192026,N,00951.8627949,E,2,9,1.2,-1.099,M,40.593,M,1.7,0123*52
$GPVTG,019.33,T,-620.57,M,004.159,N,007.702,K,D*0E
$GPGGA,082719.35,5703.3192565,N,00951.8628295,E,2,9,1.2,-1.098,M,40.593,M,1.7,0123*51
$GPVTG,019.91,T,-619.99,M,004.140,N,007.667,K,D*04
$GPGGA,082719.40,5703.3193104,N,00951.8628654,E,2,9,1.2,-1.098,M,40.593,M,1.7,0123*58
$GPVTG,020.51,T,-619.39,M,004.134,N,007.656,K,D*09
$GPGGA,082719.45,5703.3193652,N,00951.8629019,E,2,9,1.2,-1.091,M,40.593,M,1.9,0123*50
$GPVTG,020.95,T,-618.95,M,004.124,N,007.638,K,D*0F
$GPGGA,082719.50,5703.3194185,N,00951.8629390,E,2,9,1.2,-1.091,M,40.593,M,1.9,0123*5C
$GPVTG,021.38,T,-618.52,M,004.114,N,007.619,K,D*02
$GPGGA,082719.55,5703.3194723,N,00951.8629778,E,2,9,1.2,-1.089,M,40.593,M,1.9,0123*58
$GPVTG,021.90,T,-618.00,M,004.131,N,007.651,K,D*0C
$GPGGA,082719.60,5703.3195252,N,00951.8630198,E,2,9,1.2,-1.086,M,40.593,M,1.9,0123*53
$GPVTG,023.07,T,-616.83,M,004.146,N,007.678,K,D*0E
$GPGGA,082719.65,5703.3195774,N,00951.8630619,E,2,9,1.2,-1.089,M,40.593,M,2.1,0123*5D
$GPVTG,023.89,T,-616.01,M,004.146,N,007.679,K,D*03
$GPGGA,082719.70,5703.3196295,N,00951.8631062,E,2,9,1.2,-1.089,M,40.593,M,2.1,0123*5B
$GPVTG,024.90,T,-615.00,M,004.151,N,007.688,K,D*06
$GPGGA,082719.75,5703.3196799,N,00951.8631530,E,2,9,1.2,-1.089,M,40.593,M,2.1,0123*55
$GPVTG,026.40,T,-613.50,M,004.128,N,007.646,K,D*06
$GPGGA,082719.80,5703.3197321,N,00951.8632004,E,2,9,1.2,-1.088,M,40.593,M,2.1,0123*59
$GPVTG,027.15,T,-612.75,M,004.160,N,007.704,K,D*0A
$GPGGA,082719.85,5703.3197809,N,00951.8632494,E,2,9,1.2,-1.100,M,40.593,M,2.3,0123*53
$GPVTG,028.17,T,-611.73,M,004.154,N,007.694,K,D*0D
$GPGGA,082719.90,5703.3198317,N,00951.8632990,E,2,9,1.2,-1.102,M,40.593,M,2.3,0123*57
$GPVTG,028.79,T,-611.11,M,004.158,N,007.701,K,D*00
$GPGGA,082719.95,5703.3198819,N,00951.8633506,E,2,9,1.2,-1.105,M,40.593,M,2.3,0123*52
$GPVTG,029.68,T,-610.22,M,004.162,N,007.707,K,D*0F
$GPGGA,082720.00,5703.3199310,N,00951.8634040,E,2,9,1.2,-1.111,M,40.593,M,2.3,0123*52
$GPVTG,030.76,T,-609.14,M,004.151,N,007.687,K,D*0C
$GPGGA,082720.05,5703.3199791,N,00951.8634579,E,2,9,1.2,-1.118,M,40.593,M,2.2,0123*5D
$GPVTG,031.78,T,-608.12,M,004.151,N,007.689,K,D*0A
$GPGGA,082720.10,5703.3200284,N,00951.8635148,E,2,9,1.2,-1.119,M,40.593,M,2.2,0123*5D
$GPVTG,032.69,T,-607.21,M,004.179,N,007.739,K,D*06
$GPGGA,082720.15,5703.3200782,N,00951.8635732,E,2,9,1.2,-1.120,M,40.593,M,2.2,0123*5A
$GPVTG,033.41,T,-606.49,M,004.220,N,007.816,K,D*0F
$GPGGA,082720.20,5703.3201257,N,00951.8636339,E,2,9,1.2,-1.123,M,40.593,M,2.2,0123*5F
$GPVTG,034.70,T,-605.20,M,004.220,N,007.815,K,D*05
$GPGGA,082720.25,5703.3201737,N,00951.8636975,E,2,9,1.2,-1.116,M,40.593,M,2.4,0123*5B
$GPVTG,036.34,T,-603.56,M,004.217,N,007.811,K,D*00
$GPGGA,082720.30,5703.3202204,N,00951.8637642,E,2,9,1.2,-1.115,M,40.593,M,2.4,0123*50
$GPVTG,037.94,T,-601.97,M,004.257,N,007.883,K,D*0B
$GPGGA,082720.35,5703.3202661,N,00951.8638306,E,2,9,1.2,-1.117,M,40.593,M,2.4,0123*5A
$GPVTG,039.04,T,-600.86,M,004.252,N,007.875,K,D*01
$GPGGA,082720.40,5703.3203124,N,00951.8638985,E,2,9,1.2,-1.116,M,40.593,M,2.4,0123*5F
$GPVTG,039.76,T,-600.14,M,004.273,N,007.914,K,D*0A
$GPGGA,082720.45,5703.3203562,N,00951.8639651,E,2,9,1.2,-1.122,M,40.593,M,2.6,0123*5E
$GPVTG,040.24,T,-599.66,M,004.232,N,007.837,K,D*00
$GPGGA,082720.50,5703.3204013,N,00951.8640338,E,2,9,1.2,-1.120,M,40.593,M,2.6,0123*58
$GPVTG,040.71,T,-599.19,M,004.229,N,007.832,K,D*07
$GPGGA,082720.55,5703.3204451,N,00951.8641053,E,2,9,1.2,-1.118,M,40.593,M,2.6,0123*5B
$GPVTG,041.76,T,-598.14,M,004.237,N,007.846,K,D*01
$GPGGA,082720.60,5703.3204868,N,00951.8641782,E,2,9,1.2,-1.118,M,40.593,M,2.6,0123*50
$GPVTG,043.21,T,-596.69,M,004.209,N,007.795,K,D*09
$GPGGA,082720.65,5703.3205273,N,00951.8642529,E,2,9,1.2,-1.111,M,40.593,M,2.8,0123*53
$GPVTG,045.06,T,-594.84,M,004.167,N,007.718,K,D*05
$GPGGA,082720.70,5703.3205655,N,00951.8643308,E,2,9,1.2,-1.109,M,40.593,M,2.8,0123*5A
$GPVTG,047.22,T,-592.68,M,004.152,N,007.690,K,D*02
$GPGGA,082720.75,5703.3206029,N,00951.8644076,E,2,9,1.2,-1.107,M,40.593,M,2.8,0123*52
$GPVTG,048.70,T,-591.20,M,004.106,N,007.604,K,D*09
$GPGGA,082720.80,5703.3206405,N,00951.8644823,E,2,9,1.2,-1.106,M,40.593,M,2.8,0123*5B
$GPVTG,049.11,T,-590.79,M,004.041,N,007.484,K,D*0A
$GPGGA,082720.85,5703.3206790,N,00951.8645596,E,2,9,1.2,-1.101,M,40.593,M,3.1,0123*5C
$GPVTG,049.32,T,-590.58,M,004.058,N,007.516,K,D*0A
$GPGGA,082720.90,5703.3207157,N,00951.8646375,E,2,9,1.2,-1.098,M,40.593,M,3.1,0123*5D
$GPVTG,050.04,T,-589.86,M,004.038,N,007.478,K,D*03
$GPGGA,082720.95,5703.3207521,N,00951.8647148,E,2,9,1.2,-1.095,M,40.593,M,3.1,0123*5D
$GPVTG,050.39,T,-589.51,M,004.013,N,007.432,K,D*00
$GPGGA,082721.00,5703.3207878,N,00951.8647932,E,2,9,1.2,-1.093,M,40.593,M,3.1,0123*52
$GPVTG,050.91,T,-588.99,M,003.997,N,007.403,K,D*07
$GPGGA,082721.05,5703.3208231,N,00951.8648716,E,2,9,1.2,-1.093,M,40.593,M,3.3,0123*5A
$GPVTG,051.36,T,-588.54,M,004.005,N,007.416,K,D*0B
$GPGGA,082721.10,5703.3208571,N,00951.8649528,E,2,9,1.2,-1.094,M,40.593,M,3.3,0123*54
$GPVTG,052.39,T,-587.51,M,004.007,N,007.422,K,D*08
$GPGGA,082721.15,5703.3208924,N,00951.8650334,E,2,9,1.2,-1.089,M,40.593,M,3.3,0123*52
$GPVTG,052.55,T,-587.35,M,004.022,N,007.448,K,D*0B
$GPGGA,082721.20,5703.3209252,N,00951.8651153,E,2,9,1.2,-1.089,M,40.593,M,3.3,0123*5D
$GPVTG,053.53,T,-586.37,M,004.010,N,007.426,K,D*06
$GPGGA,082721.25,5703.3209562,N,00951.8651976,E,2,9,1.2,-1.093,M,40.593,M,3.5,0123*5E
$GPVTG,054.38,T,-585.52,M,004.008,N,007.423,K,D*00
$GPGGA,082721.30,5703.3209880,N,00951.8652814,E,2,9,1.2,-1.092,M,40.593,M,3.5,0123*5C
$GPVTG,055.30,T,-584.60,M,004.008,N,007.424,K,D*0E
$GPGGA,082721.35,5703.3210191,N,00951.8653666,E,2,9,1.2,-1.093,M,40.593,M,3.5,0123*53
$GPVTG,056.32,T,-583.58,M,004.021,N,007.448,K,D*02
$GPGGA,082721.40,5703.3210492,N,00951.8654516,E,2,9,1.2,-1.095,M,40.593,M,3.5,0123*52
$GPVTG,057.21,T,-582.69,M,004.008,N,007.423,K,D*04
$GPGGA,082721.45,5703.3210787,N,00951.8655373,E,2,9,1.2,-1.100,M,40.593,M,3.7,0123*5B
$GPVTG,058.00,T,-581.90,M,004.005,N,007.417,K,D*07
$GPGGA,082721.50,5703.3211084,N,00951.8656266,E,2,9,1.2,-1.100,M,40.593,M,3.7,0123*5C
$GPVTG,058.97,T,-580.93,M,004.058,N,007.515,K,D*00
$GPGGA,082721.55,5703.3211363,N,00951.8657160,E,2,9,1.2,-1.104,M,40.593,M,3.7,0123*53
$GPVTG,060.15,T,-579.75,M,004.067,N,007.533,K,D*07
$GPGGA,082721.60,5703.3211640,N,00951.8658058,E,2,9,1.2,-1.104,M,40.593,M,3.7,0123*54
$GPVTG,061.00,T,-578.90,M,004.072,N,007.542,K,D*0A
$GPGGA,082721.65,5703.3211927,N,00951.8658946,E,2,9,1.2,-1.096,M,40.593,M,3.9,0123*5D
$GPVTG,061.65,T,-578.25,M,004.038,N,007.479,K,D*00
$GPGGA,082721.70,5703.3212179,N,00951.8659816,E,2,9,1.2,-1.099,M,40.593,M,3.9,0123*53
$GPVTG,062.36,T,-577.54,M,003.961,N,007.336,K,D*02
$GPGGA,082721.75,5703.3212420,N,00951.8660698,E,2,9,1.2,-1.101,M,40.593,M,3.9,0123*5D
$GPVTG,063.38,T,-576.52,M,003.912,N,007.245,K,D*0B
$GPGGA,082721.80,5703.3212661,N,00951.8661608,E,2,9,1.2,-1.101,M,40.593,M,3.9,0123*58
$GPVTG,064.38,T,-575.52,M,003.928,N,007.274,K,D*04
$GPGGA,082721.85,5703.3212890,N,00951.8662508,E,2,9,1.2,-1.110,M,40.593,M,4.1,0123*52
$GPVTG,064.93,T,-574.97,M,003.928,N,007.274,K,D*0D
$GPGGA,082721.90,5703.3213124,N,00951.8663420,E,2,9,1.2,-1.113,M,40.593,M,4.1,0123*58
$GPVTG,065.55,T,-574.35,M,003.936,N,007.290,K,D*0B
$GPGGA,082721.95,5703.3213356,N,00951.8664344,E,2,9,1.2,-1.116,M,40.593,M,4.1,0123*5D
$GPVTG,066.09,T,-573.81,M,003.961,N,007.335,K,D*05
$GPGGA,082722.00,5703.3213574,N,00951.8665280,E,2,9,1.2,-1.119,M,40.593,M,4.1,0123*53
$GPVTG,067.01,T,-572.89,M,003.984,N,007.379,K,D*06
$GPGGA,082722.05,5703.3213777,N,00951.8666204,E,2,9,1.2,-1.121,M,40.593,M,1.6,0123*51
$GPVTG,068.06,T,-571.84,M,003.978,N,007.367,K,D*0C
$GPGGA,082722.10,5703.3213991,N,00951.8667154,E,2,9,1.2,-1.119,M,40.593,M,1.6,0123*5F
$GPVTG,068.55,T,-571.35,M,004.011,N,007.429,K,D*0C
$GPGGA,082722.15,5703.3214183,N,00951.8668106,E,2,9,1.2,-1.119,M,40.593,M,1.6,0123*5E
$GPVTG,069.59,T,-570.31,M,004.013,N,007.432,K,D*0C
$GPGGA,082722.20,5703.3214345,N,00951.8669062,E,2,9,1.2,-1.122,M,40.593,M,1.6,0123*5A
$GPVTG,071.48,T,-568.42,M,003.989,N,007.388,K,D*03
$GPGGA,082722.25,5703.3214503,N,00951.8670020,E,2,9,1.2,-1.119,M,40.593,M,1.8,0123*53
$GPVTG,073.08,T,-566.82,M,003.969,N,007.350,K,D*0C
$GPGGA,082722.30,5703.3214652,N,00951.8670987,E,2,9,1.2,-1.120,M,40.593,M,1.8,0123*5E
$GPVTG,074.46,T,-565.45,M,003.963,N,007.339,K,D*0C
$GPGGA,082722.35,5703.3214806,N,00951.8671969,E,2,9,1.2,-1.120,M,40.593,M,1.8,0123*55
$GPVTG,075.21,T,-564.69,M,003.989,N,007.387,K,D*02
$GPGGA,082722.40,5703.3214964,N,00951.8672945,E,2,9,1.2,-1.120,M,40.593,M,1.8,0123*5F
$GPVTG,075.39,T,-564.51,M,003.998,N,007.403,K,D*0B
$GPGGA,082722.45,5703.3215101,N,00951.8673915,E,2,9,1.2,-1.118,M,40.593,M,2.1,0123*55
$GPVTG,076.32,T,-563.58,M,003.971,N,007.354,K,D*0F
$GPGGA,082722.50,5703.3215249,N,00951.8674885,E,2,9,1.2,-1.117,M,40.593,M,2.1,0123*5E
$GPVTG,076.29,T,-563.61,M,003.960,N,007.335,K,D*08
$GPGGA,082722.55,5703.3215369,N,00951.8675865,E,2,9,1.2,-1.118,M,40.593,M,2.1,0123*58
$GPVTG,077.25,T,-562.65,M,003.954,N,007.322,K,D*01
$GPGGA,082722.60,5703.3215495,N,00951.8676864,E,2,9,1.2,-1.117,M,40.593,M,2.1,0123*57
$GPVTG,077.81,T,-562.09,M,003.988,N,007.386,K,D*0A
$GPGGA,082722.65,5703.3215597,N,00951.8677868,E,2,9,1.2,-1.115,M,40.593,M,2.3,0123*5C
$GPVTG,079.25,T,-560.65,M,004.005,N,007.416,K,D*07
$GPGGA,082722.70,5703.3215686,N,00951.8678859,E,2,9,1.2,-1.116,M,40.593,M,2.3,0123*55
$GPVTG,080.47,T,-559.43,M,003.986,N,007.381,K,D*07
$GPGGA,082722.75,5703.3215761,N,00951.8679843,E,2,9,1.2,-1.115,M,40.593,M,2.3,0123*51
$GPVTG,081.81,T,-558.09,M,003.952,N,007.319,K,D*0B
$GPGGA,082722.80,5703.3215831,N,00951.8680838,E,2,9,1.2,-1.114,M,40.593,M,2.3,0123*5A
$GPVTG,082.98,T,-556.92,M,003.945,N,007.307,K,D*05
$GPGGA,082722.85,5703.3215898,N,00951.8681825,E,2,9,1.2,-1.116,M,40.593,M,2.6,0123*56
$GPVTG,083.66,T,-556.24,M,003.928,N,007.275,K,D*07
$GPGGA,082722.90,5703.3215960,N,00951.8682818,E,2,9,1.2,-1.116,M,40.593,M,2.6,0123*59
$GPVTG,084.38,T,-555.52,M,003.925,N,007.270,K,D*01
$GPGGA,082722.95,5703.3216023,N,00951.8683820,E,2,9,1.2,-1.114,M,40.593,M,2.6,0123*59
$GPVTG,084.76,T,-555.14,M,003.942,N,007.300,K,D*0E
$GPGGA,082723.00,5703.3216066,N,00951.8684809,E,2,9,1.2,-1.117,M,40.593,M,2.6,0123*5A
$GPVTG,085.66,T,-554.24,M,003.922,N,007.264,K,D*09
$GPGGA,082723.05,5703.3216108,N,00951.8685807,E,2,9,1.2,-1.112,M,40.593,M,1.5,0123*5C
$GPVTG,086.55,T,-553.35,M,003.945,N,007.307,K,D*08
$GPGGA,082723.10,5703.3216129,N,00951.8686819,E,2,9,1.2,-1.110,M,40.593,M,1.5,0123*55
$GPVTG,087.70,T,-552.20,M,003.968,N,007.348,K,D*0F
$GPGGA,082723.15,5703.3216124,N,00951.8687824,E,2,9,1.2,-1.110,M,40.593,M,1.5,0123*52
$GPVTG,089.57,T,-550.33,M,003.966,N,007.346,K,D*04
$GPGGA,082723.20,5703.3216123,N,00951.8688834,E,2,9,1.2,-1.109,M,40.593,M,1.5,0123*55
$GPVTG,090.66,T,-549.24,M,003.976,N,007.363,K,D*06
$GPGGA,082723.25,5703.3216107,N,00951.8689844,E,2,9,1.2,-1.112,M,40.593,M,1.7,0123*58
$GPVTG,091.66,T,-548.24,M,003.985,N,007.380,K,D*07
$GPGGA,082723.30,5703.3216099,N,00951.8690838,E,2,9,1.2,-1.112,M,40.593,M,1.7,0123*59
$GPVTG,092.17,T,-547.73,M,003.955,N,007.324,K,D*0C
$GPGGA,082723.35,5703.3216084,N,00951.8691824,E,2,9,1.2,-1.112,M,40.593,M,1.7,0123*5C
$GPVTG,092.76,T,-547.14,M,003.917,N,007.255,K,D*0B
$GPGGA,082723.40,5703.3216058,N,00951.8692795,E,2,9,1.2,-1.113,M,40.593,M,1.7,0123*58
$GPVTG,093.49,T,-546.41,M,003.865,N,007.158,K,D*0D
$GPGGA,082723.45,5703.3216023,N,00951.8693769,E,2,9,1.2,-1.108,M,40.593,M,1.9,0123*57
$GPVTG,094.66,T,-545.24,M,003.840,N,007.112,K,D*0E
$GPGGA,082723.50,5703.3215981,N,00951.8694743,E,2,9,1.2,-1.104,M,40.593,M,1.9,0123*52
$GPVTG,095.35,T,-544.55,M,003.829,N,007.091,K,D*0B
$GPGGA,082723.55,5703.3215916,N,00951.8695708,E,2,9,1.2,-1.101,M,40.593,M,1.9,0123*52
$GPVTG,096.75,T,-543.15,M,003.812,N,007.060,K,D*09
$GPGGA,082723.60,5703.3215842,N,00951.8696674,E,2,9,1.2,-1.100,M,40.593,M,1.9,0123*5C
$GPVTG,098.08,T,-541.82,M,003.813,N,007.062,K,D*02
$GPGGA,082723.65,5703.3215735,N,00951.8697622,E,2,9,1.2,-1.107,M,40.593,M,2.1,0123*58
$GPVTG,100.07,T,-539.83,M,003.794,N,007.027,K,D*02
$GPGGA,082723.70,5703.3215632,N,00951.8698550,E,2,9,1.2,-1.109,M,40.593,M,2.1,0123*5D
$GPVTG,101.70,T,-538.20,M,003.752,N,006.949,K,D*01
$GPGGA,082723.75,5703.3215527,N,00951.8699471,E,2,9,1.2,-1.108,M,40.593,M,2.1,0123*5D
$GPVTG,102.85,T,-537.05,M,003.716,N,006.881,K,D*05
$GPGGA,082723.80,5703.3215415,N,00951.8700395,E,2,9,1.2,-1.106,M,40.593,M,2.1,0123*55
$GPVTG,103.83,T,-536.08,M,003.706,N,006.864,K,D*04
$GPGGA,082723.85,5703.3215296,N,00951.8701315,E,2,9,1.2,-1.108,M,40.593,M,2.3,0123*58
$GPVTG,104.26,T,-535.64,M,003.698,N,006.848,K,D*0D
$GPGGA,082723.90,5703.3215158,N,00951.8702200,E,2,9,1.2,-1.107,M,40.593,M,2.3,0123*54
$GPVTG,105.88,T,-534.02,M,003.650,N,006.759,K,D*02
$GPGGA,082723.95,5703.3215003,N,00951.8703084,E,2,9,1.2,-1.107,M,40.593,M,2.3,0123*51
$GPVTG,107.69,T,-532.21,M,003.634,N,006.730,K,D*05
$GPGGA,082724.00,5703.3214833,N,00951.8703965,E,2,9,1.2,-1.109,M,40.593,M,2.3,0123*58
$GPVTG,109.52,T,-530.38,M,003.639,N,006.740,K,D*03
$GPGGA,082724.05,5703.3214674,N,00951.8704841,E,2,9,1.2,-1.108,M,40.593,M,2.2,0123*50
$GPVTG,109.92,T,-529.98,M,003.649,N,006.758,K,D*03
$GPGGA,082724.10,5703.3214493,N,00951.8705725,E,2,9,1.2,-1.108,M,40.593,M,2.2,0123*53
$GPVTG,111.11,T,-528.79,M,003.678,N,006.811,K,D*0F
$GPGGA,082724.15,5703.3214302,N,00951.8706592,E,2,9,1.2,-1.110,M,40.593,M,2.2,0123*5D
$GPVTG,112.47,T,-527.43,M,003.682,N,006.819,K,D*04
$GPGGA,082724.20,5703.3214083,N,00951.8707468,E,2,9,1.2,-1.113,M,40.593,M,2.2,0123*57
$GPVTG,114.31,T,-525.59,M,003.735,N,006.917,K,D*08
$GPGGA,082724.25,5703.3213894,N,00951.8708291,E,2,9,1.2,-1.110,M,40.593,M,2.4,0123*51
$GPVTG,115.24,T,-524.66,M,003.665,N,006.788,K,D*0C
$GPGGA,082724.30,5703.3213688,N,00951.8709097,E,2,9,1.2,-1.109,M,40.593,M,2.4,0123*5B
$GPVTG,116.32,T,-523.58,M,003.589,N,006.647,K,D*01
$GPGGA,082724.35,5703.3213465,N,00951.8709886,E,2,9,1.2,-1.108,M,40.593,M,2.4,0123*56
$GPVTG,117.90,T,-522.00,M,003.532,N,006.540,K,D*00
$GPGGA,082724.40,5703.3213235,N,00951.8710690,E,2,9,1.2,-1.105,M,40.593,M,2.4,0123*5B
$GPVTG,118.86,T,-521.04,M,003.533,N,006.544,K,D*0A
$GPGGA,082724.45,5703.3213020,N,00951.8711456,E,2,9,1.2,-1.103,M,40.593,M,2.6,0123*55
$GPVTG,119.64,T,-520.26,M,003.509,N,006.498,K,D*0F
$GPGGA,082724.50,5703.3212789,N,00951.8712209,E,2,9,1.2,-1.101,M,40.593,M,2.6,0123*59
$GPVTG,120.59,T,-519.31,M,003.448,N,006.386,K,D*0B
$GPGGA,082724.55,5703.3212550,N,00951.8712942,E,2,9,1.2,-1.099,M,40.593,M,2.6,0123*5E
$GPVTG,121.73,T,-518.17,M,003.389,N,006.277,K,D*02
$GPGGA,082724.60,5703.3212300,N,00951.8713690,E,2,9,1.2,-1.102,M,40.593,M,2.6,0123*59
$GPVTG,122.56,T,-517.34,M,003.394,N,006.286,K,D*0A
$GPGGA,082724.65,5703.3212038,N,00951.8714427,E,2,9,1.2,-1.104,M,40.593,M,2.8,0123*55
$GPVTG,123.49,T,-516.41,M,003.405,N,006.307,K,D*01
$GPGGA,082724.70,5703.3211776,N,00951.8715166,E,2,9,1.2,-1.103,M,40.593,M,2.8,0123*59
$GPVTG,124.09,T,-515.81,M,003.425,N,006.344,K,D*08
$GPGGA,082724.75,5703.3211510,N,00951.8715869,E,2,9,1.2,-1.105,M,40.593,M,2.8,0123*5E
$GPVTG,125.20,T,-514.70,M,003.393,N,006.284,K,D*0A
$GPGGA,082724.80,5703.3211225,N,00951.8716569,E,2,9,1.2,-1.108,M,40.593,M,2.8,0123*56
$GPVTG,126.65,T,-513.25,M,003.403,N,006.302,K,D*0E
$GPGGA,082724.85,5703.3210933,N,00951.8717253,E,2,9,1.2,-1.112,M,40.593,M,3.1,0123*52
$GPVTG,128.07,T,-511.83,M,003.403,N,006.303,K,D*0B
$GPGGA,082724.90,5703.3210641,N,00951.8717929,E,2,9,1.2,-1.114,M,40.593,M,3.1,0123*5C
$GPVTG,129.11,T,-510.79,M,003.396,N,006.290,K,D*09
$GPGGA,082724.95,5703.3210343,N,00951.8718570,E,2,9,1.2,-1.118,M,40.593,M,3.1,0123*5D
$GPVTG,130.66,T,-509.24,M,003.356,N,006.215,K,D*00
$GPGGA,082725.00,5703.3210038,N,00951.8719221,E,2,9,1.2,-1.119,M,40.593,M,3.1,0123*5C
$GPVTG,131.67,T,-508.23,M,003.361,N,006.224,K,D*00
$GPGGA,082725.05,5703.3209745,N,00951.8719844,E,2,9,1.2,-1.106,M,40.593,M,3.3,0123*59
$GPVTG,132.58,T,-507.32,M,003.350,N,006.205,K,D*01
$GPGGA,082725.10,5703.3209436,N,00951.8720472,E,2,9,1.2,-1.108,M,40.593,M,3.3,0123*57
$GPVTG,133.27,T,-506.63,M,003.339,N,006.184,K,D*08
$GPGGA,082725.15,5703.3209110,N,00951.8721082,E,2,9,1.2,-1.110,M,40.593,M,3.3,0123*50
$GPVTG,134.59,T,-505.31,M,003.345,N,006.194,K,D*08
$GPGGA,082725.20,5703.3208756,N,00951.8721686,E,2,9,1.2,-1.114,M,40.593,M,3.3,0123*55
$GPVTG,136.46,T,-503.44,M,003.399,N,006.294,K,D*02
$GPGGA,082725.25,5703.3208411,N,00951.8722268,E,2,9,1.2,-1.116,M,40.593,M,3.5,0123*53
$GPVTG,138.05,T,-501.85,M,003.403,N,006.303,K,D*0F
$GPGGA,082725.30,5703.3208068,N,00951.8722834,E,2,9,1.2,-1.118,M,40.593,M,3.5,0123*50
$GPVTG,139.13,T,-500.77,M,003.384,N,006.267,K,D*0E
$GPGGA,082725.35,5703.3207719,N,00951.8723383,E,2,9,1.2,-1.119,M,40.593,M,3.5,0123*5C
$GPVTG,140.30,T,-499.60,M,003.360,N,006.224,K,D*0B
$GPGGA,082725.40,5703.3207367,N,00951.8723933,E,2,9,1.2,-1.121,M,40.593,M,3.5,0123*59
$GPVTG,141.00,T,-498.90,M,003.356,N,006.215,K,D*00
$GPGGA,082725.45,5703.3207012,N,00951.8724459,E,2,9,1.2,-1.118,M,40.593,M,3.7,0123*53
$GPVTG,142.51,T,-497.39,M,003.357,N,006.216,K,D*09
$GPGGA,082725.50,5703.3206638,N,00951.8724951,E,2,9,1.2,-1.122,M,40.593,M,3.7,0123*54
$GPVTG,144.30,T,-495.60,M,003.340,N,006.185,K,D*09
$GPGGA,082725.55,5703.3206260,N,00951.8725457,E,2,9,1.2,-1.126,M,40.593,M,3.7,0123*56
$GPVTG,145.17,T,-494.73,M,003.359,N,006.221,K,D*0B
$GPGGA,082725.60,5703.3205880,N,00951.8725945,E,2,9,1.2,-1.128,M,40.593,M,3.7,0123*57
$GPVTG,146.05,T,-493.85,M,003.361,N,006.224,K,D*0B
$GPGGA,082725.65,5703.3205491,N,00951.8726450,E,2,9,1.2,-1.120,M,40.593,M,3.9,0123*52
$GPVTG,146.94,T,-492.96,M,003.352,N,006.208,K,D*0E
$GPGGA,082725.70,5703.3205099,N,00951.8726907,E,2,9,1.2,-1.121,M,40.593,M,3.9,0123*54
$GPVTG,148.05,T,-491.85,M,003.355,N,006.213,K,D*04
$GPGGA,082725.75,5703.3204704,N,00951.8727332,E,2,9,1.2,-1.119,M,40.593,M,3.9,0123*55
$GPVTG,149.68,T,-490.22,M,003.337,N,006.180,K,D*0F
$GPGGA,082725.80,5703.3204294,N,00951.8727727,E,2,9,1.2,-1.118,M,40.593,M,3.9,0123*52
$GPVTG,151.82,T,-488.08,M,003.335,N,006.177,K,D*09
$GPGGA,082725.85,5703.3203914,N,00951.8728105,E,2,9,1.2,-1.108,M,40.593,M,4.1,0123*54
$GPVTG,153.37,T,-486.53,M,003.285,N,006.084,K,D*02
$GPGGA,082725.90,5703.3203507,N,00951.8728483,E,2,9,1.2,-1.107,M,40.593,M,4.1,0123*5A
$GPVTG,154.41,T,-485.49,M,003.284,N,006.082,K,D*0B
$GPGGA,082725.95,5703.3203102,N,00951.8728851,E,2,9,1.2,-1.105,M,40.593,M,4.1,0123*5F
$GPVTG,155.16,T,-484.74,M,003.276,N,006.068,K,D*0E
$GPGGA,082726.00,5703.3202695,N,00951.8729209,E,2,9,1.2,-1.101,M,40.593,M,4.1,0123*5A
$GPVTG,155.77,T,-484.13,M,003.268,N,006.052,K,D*0E
$GPGGA,082726.05,5703.3202284,N,00951.8729536,E,2,9,1.2,-1.100,M,40.593,M,1.6,0123*53
$GPVTG,156.68,T,-483.22,M,003.252,N,006.023,K,D*09
$GPGGA,082726.10,5703.3201864,N,00951.8729848,E,2,9,1.2,-1.099,M,40.593,M,1.6,0123*55
$GPVTG,158.12,T,-481.78,M,003.255,N,006.028,K,D*0B
$GPGGA,082726.15,5703.3201429,N,00951.8730138,E,2,9,1.2,-1.098,M,40.593,M,1.6,0123*52
$GPVTG,159.87,T,-480.03,M,003.286,N,006.086,K,D*01
$GPGGA,082726.20,5703.3201003,N,00951.8730419,E,2,9,1.2,-1.096,M,40.593,M,1.6,0123*50
$GPVTG,161.01,T,-478.89,M,003.284,N,006.081,K,D*04
$GPGGA,082726.25,5703.3200590,N,00951.8730698,E,2,9,1.2,-1.094,M,40.593,M,1.8,0123*5C
$GPVTG,161.40,T,-478.50,M,003.238,N,005.996,K,D*0E
$GPGGA,082726.30,5703.3200167,N,00951.8730967,E,2,9,1.2,-1.090,M,40.593,M,1.8,0123*5F
$GPVTG,161.99,T,-477.91,M,003.234,N,005.989,K,D*0A
$GPGGA,082726.35,5703.3199747,N,00951.8731205,E,2,9,1.2,-1.087,M,40.593,M,1.8,0123*55
$GPVTG,163.14,T,-476.76,M,003.205,N,005.935,K,D*00
$GPGGA,082726.40,5703.3199327,N,00951.8731404,E,2,9,1.2,-1.084,M,40.593,M,1.8,0123*51
$GPVTG,165.11,T,-474.79,M,003.167,N,005.864,K,D*0C
$GPGGA,082726.45,5703.3198888,N,00951.8731592,E,2,9,1.2,-1.084,M,40.593,M,2.1,0123*5F
$GPVTG,166.78,T,-473.12,M,003.176,N,005.881,K,D*01
$GPGGA,082726.50,5703.3198460,N,00951.8731762,E,2,9,1.2,-1.083,M,40.593,M,2.1,0123*5B
$GPVTG,168.30,T,-471.60,M,003.163,N,005.859,K,D*05
$GPGGA,082726.55,5703.3198029,N,00951.8731919,E,2,9,1.2,-1.081,M,40.593,M,2.1,0123*57
$GPVTG,169.60,T,-470.30,M,003.163,N,005.858,K,D*04
$GPGGA,082726.60,5703.3197600,N,00951.8732054,E,2,9,1.2,-1.081,M,40.593,M,2.1,0123*50
$GPVTG,171.00,T,-468.90,M,003.152,N,005.837,K,D*03
$GPGGA,082726.65,5703.3197160,N,00951.8732162,E,2,9,1.2,-1.084,M,40.593,M,2.3,0123*57
$GPVTG,172.67,T,-467.23,M,003.162,N,005.856,K,D*02
$GPGGA,082726.70,5703.3196714,N,00951.8732238,E,2,9,1.2,-1.089,M,40.593,M,2.3,0123*56
$GPVTG,174.74,T,-465.16,M,003.191,N,005.910,K,D*0D
$GPGGA,082726.75,5703.3196269,N,00951.8732296,E,2,9,1.2,-1.092,M,40.593,M,2.3,0123*52
$GPVTG,176.53,T,-463.37,M,003.213,N,005.951,K,D*03
$GPGGA,082726.80,5703.3195831,N,00951.8732341,E,2,9,1.2,-1.092,M,40.593,M,2.3,0123*57
$GPVTG,177.88,T,-462.02,M,003.206,N,005.938,K,D*08
$GPGGA,082726.85,5703.3195388,N,00951.8732385,E,2,9,1.2,-1.094,M,40.593,M,2.6,0123*50
$GPVTG,178.53,T,-461.37,M,003.212,N,005.948,K,D*06
$GPGGA,082726.90,5703.3194950,N,00951.8732403,E,2,9,1.2,-1.096,M,40.593,M,2.6,0123*51
$GPVTG,179.63,T,-460.27,M,003.203,N,005.933,K,D*08
$GPGGA,082726.95,5703.3194516,N,00951.8732412,E,2,9,1.2,-1.097,M,40.593,M,2.6,0123*5B
$GPVTG,180.45,T,-459.45,M,003.182,N,005.894,K,D*02
$GPGGA,082727.00,5703.3194081,N,00951.8732411,E,2,9,1.2,-1.100,M,40.593,M,2.6,0123*51
$GPVTG,181.14,T,-458.76,M,003.167,N,005.866,K,D*00
$GPGGA,082727.05,5703.3193643,N,00951.8732376,E,2,9,1.2,-1.102,M,40.593,M,1.5,0123*5F
$GPVTG,182.68,T,-457.22,M,003.162,N,005.856,K,D*00
$GPGGA,082727.10,5703.3193213,N,00951.8732326,E,2,9,1.2,-1.103,M,40.593,M,1.5,0123*5E
$GPVTG,184.00,T,-455.90,M,003.143,N,005.820,K,D*01
$GPGGA,082727.15,5703.3192788,N,00951.8732249,E,2,9,1.2,-1.103,M,40.593,M,1.5,0123*55
$GPVTG,185.72,T,-454.18,M,003.117,N,005.772,K,D*0D
$GPGGA,082727.20,5703.3192375,N,00951.8732162,E,2,9,1.2,-1.100,M,40.593,M,1.5,0123*5C
$GPVTG,187.12,T,-452.78,M,003.070,N,005.685,K,D*00
$GPGGA,082727.25,5703.3191969,N,00951.8732062,E,2,9,1.2,-1.095,M,40.593,M,1.7,0123*53
$GPVTG,188.34,T,-451.56,M,003.040,N,005.630,K,D*09
$GPGGA,082727.30,5703.3191557,N,00951.8731933,E,2,9,1.2,-1.095,M,40.593,M,1.7,0123*58
$GPVTG,190.01,T,-449.89,M,003.022,N,005.597,K,D*07
$GPGGA,082727.35,5703.3191128,N,00951.8731794,E,2,9,1.2,-1.094,M,40.593,M,1.7,0123*53
$GPVTG,191.13,T,-448.77,M,003.059,N,005.665,K,D*07
$GPGGA,082727.40,5703.3190700,N,00951.8731631,E,2,9,1.2,-1.095,M,40.593,M,1.7,0123*53
$GPVTG,192.47,T,-447.43,M,003.099,N,005.739,K,D*09
$GPGGA,082727.45,5703.3190269,N,00951.8731461,E,2,9,1.2,-1.102,M,40.593,M,1.9,0123*5A
$GPVTG,193.47,T,-446.43,M,003.100,N,005.741,K,D*07
$GPGGA,082727.50,5703.3189854,N,00951.8731261,E,2,9,1.2,-1.103,M,40.593,M,1.9,0123*55
$GPVTG,195.01,T,-444.89,M,003.107,N,005.754,K,D*04
$GPGGA,082727.55,5703.3189431,N,00951.8731038,E,2,9,1.2,-1.104,M,40.593,M,1.9,0123*56
$GPVTG,196.53,T,-443.37,M,003.141,N,005.818,K,D*07
$GPGGA,082727.60,5703.3189010,N,00951.8730803,E,2,9,1.2,-1.104,M,40.593,M,1.9,0123*56
$GPVTG,197.75,T,-442.15,M,003.171,N,005.872,K,D*0C
$GPGGA,082727.65,5703.3188609,N,00951.8730535,E,2,9,1.2,-1.101,M,40.593,M,2.1,0123*5A
$GPVTG,199.66,T,-440.24,M,003.171,N,005.872,K,D*00
$GPGGA,082727.70,5703.3188203,N,00951.8730222,E,2,9,1.2,-1.102,M,40.593,M,2.1,0123*52
$GPVTG,202.28,T,-437.62,M,003.193,N,005.913,K,D*03
$GPGGA,082727.75,5703.3187790,N,00951.8729919,E,2,9,1.2,-1.101,M,40.593,M,2.1,0123*5F
$GPVTG,203.29,T,-436.61,M,003.218,N,005.960,K,D*05
$GPGGA,082727.80,5703.3187375,N,00951.8729625,E,2,9,1.2,-1.101,M,40.593,M,2.1,0123*5A
$GPVTG,203.38,T,-436.52,M,003.225,N,005.973,K,D*09
$GPGGA,082727.85,5703.3186982,N,00951.8729323,E,2,9,1.2,-1.103,M,40.593,M,1.9,0123*56
$GPVTG,203.94,T,-435.96,M,003.217,N,005.958,K,D*0C
$GPGGA,082727.90,5703.3186577,N,00951.8728995,E,2,9,1.2,-1.103,M,40.593,M,1.9,0123*52
$GPVTG,204.62,T,-435.28,M,003.218,N,005.960,K,D*03
$GPGGA,082727.95,5703.3186172,N,00951.8728633,E,2,9,1.2,-1.102,M,40.593,M,1.9,0123*54
$GPVTG,205.96,T,-433.94,M,003.245,N,006.009,K,D*05
$GPGGA,082728.00,5703.3185785,N,00951.8728258,E,2,9,1.2,-1.097,M,40.593,M,1.9,0123*5E
$GPVTG,207.57,T,-432.33,M,003.225,N,005.973,K,D*07
$GPGGA,082728.05,5703.3185388,N,00951.8727867,E,2,9,1.2,-1.101,M,40.593,M,2.2,0123*5D
$GPVTG,209.03,T,-430.87,M,003.234,N,005.990,K,D*08
$GPGGA,082728.10,5703.3184996,N,00951.8727460,E,2,9,1.2,-1.099,M,40.593,M,2.2,0123*56
$GPVTG,210.16,T,-429.74,M,003.251,N,006.022,K,D*00
$GPGGA,082728.15,5703.3184612,N,00951.8727050,E,2,9,1.2,-1.098,M,40.593,M,2.2,0123*56
$GPVTG,211.04,T,-428.86,M,003.241,N,006.003,K,D*0C
$GPGGA,082728.20,5703.3184234,N,00951.8726623,E,2,9,1.2,-1.098,M,40.593,M,2.2,0123*53
$GPVTG,212.12,T,-427.78,M,003.233,N,005.987,K,D*05
$GPGGA,082728.25,5703.3183863,N,00951.8726178,E,2,9,1.2,-1.098,M,40.593,M,2.4,0123*56
$GPVTG,213.46,T,-426.44,M,003.220,N,005.964,K,D*04
$GPGGA,082728.30,5703.3183509,N,00951.8725708,E,2,9,1.2,-1.095,M,40.593,M,2.4,0123*5C
$GPVTG,215.39,T,-424.51,M,003.202,N,005.931,K,D*0C
$GPGGA,082728.35,5703.3183152,N,00951.8725219,E,2,9,1.2,-1.094,M,40.593,M,2.4,0123*57
$GPVTG,217.02,T,-422.88,M,003.212,N,005.948,K,D*0B
$GPGGA,082728.40,5703.3182794,N,00951.8724729,E,2,9,1.2,-1.092,M,40.593,M,2.4,0123*59
$GPVTG,217.94,T,-421.96,M,003.219,N,005.961,K,D*08
$GPGGA,082728.45,5703.3182424,N,00951.8724226,E,2,9,1.2,-1.098,M,40.593,M,2.6,0123*56
$GPVTG,218.73,T,-421.17,M,003.235,N,005.991,K,D*06
$GPGGA,082728.50,5703.3182068,N,00951.8723701,E,2,9,1.2,-1.100,M,40.593,M,2.6,0123*59
$GPVTG,219.70,T,-420.20,M,003.266,N,006.049,K,D*08
$GPGGA,082728.55,5703.3181720,N,00951.8723157,E,2,9,1.2,-1.101,M,40.593,M,2.6,0123*50
$GPVTG,220.87,T,-419.03,M,003.291,N,006.096,K,D*0B
$GPGGA,082728.60,5703.3181381,N,00951.8722595,E,2,9,1.2,-1.101,M,40.593,M,2.6,0123*52
$GPVTG,222.25,T,-417.65,M,003.308,N,006.126,K,D*04
$GPGGA,082728.65,5703.3181049,N,00951.8722022,E,2,9,1.2,-1.104,M,40.593,M,2.8,0123*52
$GPVTG,223.58,T,-416.32,M,003.317,N,006.143,K,D*01
$GPGGA,082728.70,5703.3180710,N,00951.8721441,E,2,9,1.2,-1.108,M,40.593,M,2.8,0123*52
$GPVTG,224.37,T,-415.53,M,003.342,N,006.190,K,D*05
$GPGGA,082728.75,5703.3180392,N,00951.8720853,E,2,9,1.2,-1.109,M,40.593,M,2.8,0123*56
$GPVTG,225.53,T,-414.37,M,003.334,N,006.174,K,D*0E
$GPGGA,082728.80,5703.3180088,N,00951.8720246,E,2,9,1.2,-1.109,M,40.593,M,2.8,0123*5A
$GPVTG,226.96,T,-412.94,M,003.324,N,006.155,K,D*09
$GPGGA,082728.85,5703.3179815,N,00951.8719612,E,2,9,1.2,-1.102,M,40.593,M,3.1,0123*59
$GPVTG,228.85,T,-411.05,M,003.316,N,006.141,K,D*0A
$GPGGA,082728.90,5703.3179523,N,00951.8718974,E,2,9,1.2,-1.103,M,40.593,M,3.1,0123*5A
$GPVTG,230.19,T,-409.71,M,003.320,N,006.148,K,D*00
$GPGGA,082728.95,5703.3179253,N,00951.8718331,E,2,9,1.2,-1.104,M,40.593,M,3.1,0123*53
$GPVTG,231.75,T,-408.15,M,003.303,N,006.116,K,D*02
$GPGGA,082729.00,5703.3178974,N,00951.8717669,E,2,9,1.2,-1.107,M,40.593,M,3.1,0123*55
$GPVTG,232.96,T,-406.94,M,003.314,N,006.137,K,D*0E
$GPGGA,082729.05,5703.3178716,N,00951.8716996,E,2,9,1.2,-1.111,M,40.593,M,3.3,0123*51
$GPVTG,234.65,T,-405.25,M,003.303,N,006.118,K,D*06
$GPGGA,082729.10,5703.3178466,N,00951.8716318,E,2,9,1.2,-1.112,M,40.593,M,3.3,0123*5E
$GPVTG,236.04,T,-403.86,M,003.297,N,006.106,K,D*0F
$GPGGA,082729.15,5703.3178229,N,00951.8715620,E,2,9,1.2,-1.111,M,40.593,M,3.3,0123*58
$GPVTG,237.58,T,-402.32,M,003.297,N,006.106,K,D*09
$GPGGA,082729.20,5703.3177992,N,00951.8714895,E,2,9,1.2,-1.110,M,40.593,M,3.3,0123*5A
$GPVTG,239.06,T,-400.84,M,003.318,N,006.145,K,D*02
$GPGGA,082729.25,5703.3177776,N,00951.8714173,E,2,9,1.2,-1.107,M,40.593,M,3.5,0123*5A
$GPVTG,240.66,T,-399.24,M,003.314,N,006.138,K,D*01
$GPGGA,082729.30,5703.3177561,N,00951.8713442,E,2,9,1.2,-1.106,M,40.593,M,3.5,0123*5B
$GPVTG,242.01,T,-397.89,M,003.319,N,006.147,K,D*0E
$GPGGA,082729.35,5703.3177342,N,00951.8712712,E,2,9,1.2,-1.106,M,40.593,M,3.5,0123*5E
$GPVTG,243.01,T,-396.89,M,003.324,N,006.155,K,D*03
$GPGGA,082729.40,5703.3177132,N,00951.8711948,E,2,9,1.2,-1.105,M,40.593,M,3.5,0123*58
$GPVTG,244.21,T,-395.69,M,003.348,N,006.200,K,D*02
$GPGGA,082729.45,5703.3176912,N,00951.8711189,E,2,9,1.2,-1.115,M,40.593,M,3.7,0123*50
$GPVTG,245.32,T,-394.58,M,003.357,N,006.217,K,D*0A
$GPGGA,082729.50,5703.3176712,N,00951.8710436,E,2,9,1.2,-1.116,M,40.593,M,3.7,0123*59
$GPVTG,246.17,T,-393.73,M,003.358,N,006.219,K,D*01
$GPGGA,082729.55,5703.3176517,N,00951.8709669,E,2,9,1.2,-1.118,M,40.593,M,3.7,0123*55
$GPVTG,246.99,T,-392.91,M,003.366,N,006.233,K,D*0F
$GPGGA,082729.60,5703.3176332,N,00951.8708899,E,2,9,1.2,-1.120,M,40.593,M,3.7,0123*59
$GPVTG,247.85,T,-392.05,M,003.366,N,006.234,K,D*09
$GPGGA,082729.65,5703.3176169,N,00951.8708113,E,2,9,1.2,-1.116,M,40.593,M,3.9,0123*50
$GPVTG,248.88,T,-391.02,M,003.375,N,006.251,K,D*0E
$GPGGA,082729.70,5703.3176018,N,00951.8707314,E,2,9,1.2,-1.113,M,40.593,M,3.9,0123*5C
$GPVTG,250.23,T,-389.67,M,003.380,N,006.259,K,D*0E
$GPGGA,082729.75,5703.3175865,N,00951.8706519,E,2,9,1.2,-1.112,M,40.593,M,3.9,0123*53
$GPVTG,251.27,T,-388.63,M,003.379,N,006.258,K,D*09
$GPGGA,082729.80,5703.3175727,N,00951.8705713,E,2,9,1.2,-1.112,M,40.593,M,3.9,0123*5B
$GPVTG,252.49,T,-387.41,M,003.381,N,006.261,K,D*00
$GPGGA,082729.85,5703.3175594,N,00951.8704893,E,2,9,1.2,-1.113,M,40.593,M,4.1,0123*5C
$GPVTG,253.78,T,-386.12,M,003.387,N,006.273,K,D*01
$GPGGA,082729.90,5703.3175484,N,00951.8704061,E,2,9,1.2,-1.110,M,40.593,M,4.1,0123*5E
$GPVTG,255.27,T,-384.63,M,003.398,N,006.293,K,D*09
$GPGGA,082729.95,5703.3175402,N,00951.8703201,E,2,9,1.2,-1.105,M,40.593,M,4.1,0123*52
$GPVTG,257.22,T,-382.68,M,003.424,N,006.340,K,D*0C
$GPGGA,082730.00,5703.3175316,N,00951.8702332,E,2,9,1.2,-1.103,M,40.593,M,4.1,0123*52
$GPVTG,258.78,T,-381.12,M,003.455,N,006.399,K,D*00
$GPGGA,082730.05,5703.3175232,N,00951.8701474,E,2,9,1.2,-1.105,M,40.593,M,1.6,0123*52
$GPVTG,260.24,T,-379.66,M,003.468,N,006.423,K,D*0E
$GPGGA,082730.10,5703.3175179,N,00951.8700609,E,2,9,1.2,-1.094,M,40.593,M,1.6,0123*5A
$GPVTG,261.96,T,-377.94,M,003.480,N,006.445,K,D*03
$GPGGA,082730.15,5703.3175146,N,00951.8699722,E,2,9,1.2,-1.082,M,40.593,M,1.6,0123*5D
$GPVTG,263.86,T,-376.04,M,003.506,N,006.494,K,D*0B
$GPGGA,082730.20,5703.3175102,N,00951.8698841,E,2,9,1.2,-1.080,M,40.593,M,1.6,0123*52
$GPVTG,265.18,T,-374.72,M,003.525,N,006.529,K,D*0F
$GPGGA,082730.25,5703.3175105,N,00951.8697980,E,2,9,1.2,-1.058,M,40.593,M,1.8,0123*58
$GPVTG,266.43,T,-373.47,M,003.529,N,006.536,K,D*01
$GPGGA,082730.30,5703.3175078,N,00951.8697113,E,2,9,1.2,-1.053,M,40.593,M,1.8,0123*5E
$GPVTG,267.62,T,-372.28,M,003.527,N,006.532,K,D*01
$GPGGA,082730.35,5703.3175056,N,00951.8696242,E,2,9,1.2,-1.047,M,40.593,M,1.8,0123*54
$GPVTG,268.71,T,-371.19,M,003.526,N,006.529,K,D*06
$GPGGA,082730.40,5703.3175042,N,00951.8695379,E,2,9,1.2,-1.043,M,40.593,M,1.8,0123*5D
$GPVTG,269.74,T,-370.16,M,003.516,N,006.511,K,D*04
$GPGGA,082730.45,5703.3174948,N,00951.8694516,E,2,9,1.2,-1.075,M,40.593,M,2.1,0123*5B
$GPVTG,270.22,T,-369.68,M,003.508,N,006.497,K,D*0E
$GPGGA,082730.50,5703.3174939,N,00951.8693631,E,2,9,1.2,-1.074,M,40.593,M,2.1,0123*59
$GPVTG,271.02,T,-368.88,M,003.517,N,006.514,K,D*06
$GPGGA,082730.55,5703.3174946,N,00951.8692740,E,2,9,1.2,-1.076,M,40.593,M,2.1,0123*50
$GPVTG,271.96,T,-367.94,M,003.530,N,006.537,K,D*0D
$GPGGA,082730.60,5703.3174970,N,00951.8691852,E,2,9,1.2,-1.074,M,40.593,M,2.1,0123*5E
$GPVTG,273.10,T,-366.80,M,003.538,N,006.553,K,D*0F
$GPGGA,082730.65,5703.3174985,N,00951.8690958,E,2,9,1.2,-1.076,M,40.593,M,2.3,0123*5B
$GPVTG,273.88,T,-366.02,M,003.551,N,006.577,K,D*0D
$GPGGA,082730.70,5703.3175018,N,00951.8690057,E,2,9,1.2,-1.077,M,40.593,M,2.3,0123*54
$GPVTG,274.80,T,-365.10,M,003.567,N,006.607,K,D*03
$GPGGA,082730.75,5703.3175071,N,00951.8689160,E,2,9,1.2,-1.076,M,40.593,M,2.3,0123*52
$GPVTG,275.98,T,-363.92,M,003.579,N,006.629,K,D*04
$GPGGA,082730.80,5703.3175114,N,00951.8688257,E,2,9,1.2,-1.079,M,40.593,M,2.3,0123*53
$GPVTG,276.72,T,-363.18,M,003.594,N,006.655,K,D*09
$GPGGA,082730.85,5703.3175168,N,00951.8687348,E,2,9,1.2,-1.083,M,40.593,M,2.6,0123*5D
$GPVTG,277.66,T,-362.24,M,003.614,N,006.692,K,D*03
$GPGGA,082730.90,5703.3175253,N,00951.8686460,E,2,9,1.2,-1.083,M,40.593,M,2.6,0123*5E
$GPVTG,278.99,T,-360.91,M,003.614,N,006.693,K,D*01
$GPGGA,082730.95,5703.3175355,N,00951.8685553,E,2,9,1.2,-1.083,M,40.593,M,2.6,0123*5E
$GPVTG,280.39,T,-359.51,M,003.637,N,006.735,K,D*06
$GPGGA,082731.00,5703.3175453,N,00951.8684664,E,2,9,1.2,-1.087,M,40.593,M,2.6,0123*50
$GPVTG,281.53,T,-358.37,M,003.639,N,006.740,K,D*06
$GPGGA,082731.05,5703.3175541,N,00951.8683777,E,2,9,1.2,-1.094,M,40.593,M,1.5,0123*51
$GPVTG,282.44,T,-357.46,M,003.640,N,006.741,K,D*05
$GPGGA,082731.10,5703.3175642,N,00951.8682904,E,2,9,1.2,-1.097,M,40.593,M,1.5,0123*5D
$GPVTG,283.31,T,-356.59,M,003.627,N,006.717,K,D*0B
$GPGGA,082731.15,5703.3175757,N,00951.8682025,E,2,9,1.2,-1.099,M,40.593,M,1.5,0123*59
$GPVTG,284.26,T,-355.64,M,003.624,N,006.712,K,D*01
$GPGGA,082731.20,5703.3175898,N,00951.8681143,E,2,9,1.2,-1.098,M,40.593,M,1.5,0123*50
$GPVTG,285.57,T,-354.33,M,003.635,N,006.731,K,D*04
$GPGGA,082731.25,5703.3176016,N,00951.8680271,E,2,9,1.2,-1.108,M,40.593,M,1.7,0123*51
$GPVTG,286.60,T,-353.30,M,003.632,N,006.727,K,D*07
$GPGGA,082731.30,5703.3176157,N,00951.8679392,E,2,9,1.2,-1.112,M,40.593,M,1.7,0123*50
$GPVTG,287.48,T,-352.42,M,003.639,N,006.740,K,D*02
$GPGGA,082731.35,5703.3176296,N,00951.8678523,E,2,9,1.2,-1.118,M,40.593,M,1.7,0123*5C
$GPVTG,288.21,T,-351.69,M,003.636,N,006.733,K,D*03
$GPGGA,082731.40,5703.3176448,N,00951.8677640,E,2,9,1.2,-1.119,M,40.593,M,1.7,0123*53
$GPVTG,288.97,T,-350.93,M,003.651,N,006.761,K,D*0C
$GPGGA,082731.45,5703.3176596,N,00951.8676747,E,2,9,1.2,-1.131,M,40.593,M,1.9,0123*57
$GPVTG,289.66,T,-350.24,M,003.678,N,006.811,K,D*0C
$GPGGA,082731.50,5703.3176782,N,00951.8675881,E,2,9,1.2,-1.132,M,40.593,M,1.9,0123*51
$GPVTG,290.84,T,-349.06,M,003.688,N,006.830,K,D*0C
$GPGGA,082731.55,5703.3176977,N,00951.8675000,E,2,9,1.2,-1.135,M,40.593,M,1.9,0123*56
$GPVTG,291.91,T,-347.99,M,003.714,N,006.878,K,D*09
$GPGGA,082731.60,5703.3177174,N,00951.8674131,E,2,9,1.2,-1.136,M,40.593,M,1.9,0123*5B
$GPVTG,292.88,T,-347.02,M,003.727,N,006.903,K,D*0D
$GPGGA,082731.65,5703.3177431,N,00951.8673266,E,2,9,1.2,-1.108,M,40.593,M,2.1,0123*5A
$GPVTG,294.11,T,-345.79,M,003.735,N,006.918,K,D*0C
$GPGGA,082731.70,5703.3177648,N,00951.8672393,E,2,9,1.2,-1.107,M,40.593,M,2.1,0123*57
$GPVTG,295.05,T,-344.85,M,003.762,N,006.966,K,D*01
$GPGGA,082731.75,5703.3177877,N,00951.8671551,E,2,9,1.2,-1.106,M,40.593,M,2.1,0123*5A
$GPVTG,296.21,T,-343.69,M,003.765,N,006.973,K,D*02
$GPGGA,082731.80,5703.3178124,N,00951.8670697,E,2,9,1.2,-1.103,M,40.593,M,2.1,0123*5D
$GPVTG,297.39,T,-342.51,M,003.789,N,007.018,K,D*07
$GPGGA,082731.85,5703.3178361,N,00951.8669850,E,2,9,1.2,-1.112,M,40.593,M,2.3,0123*54
$GPVTG,298.58,T,-341.32,M,003.811,N,007.059,K,D*02
$GPGGA,082731.90,5703.3178638,N,00951.8669023,E,2,9,1.2,-1.110,M,40.593,M,2.3,0123*57
$GPVTG,300.07,T,-339.83,M,003.829,N,007.092,K,D*01
$GPGGA,082731.95,5703.3178914,N,00951.8668202,E,2,9,1.2,-1.111,M,40.593,M,2.3,0123*52
$GPVTG,301.32,T,-338.58,M,003.841,N,007.114,K,D*00
$GPGGA,082732.00,5703.3179205,N,00951.8667406,E,2,9,1.2,-1.112,M,40.593,M,2.3,0123*59
$GPVTG,302.78,T,-337.12,M,003.842,N,007.116,K,D*0D
$GPGGA,082732.05,5703.3179512,N,00951.8666603,E,2,9,1.2,-1.112,M,40.593,M,2.2,0123*5A
$GPVTG,304.12,T,-335.78,M,003.863,N,007.154,K,D*0C
$GPGGA,082732.10,5703.3179824,N,00951.8665820,E,2,9,1.2,-1.111,M,40.593,M,2.2,0123*59
$GPVTG,305.53,T,-334.37,M,003.871,N,007.169,K,D*0F
$GPGGA,082732.15,5703.3180143,N,00951.8665024,E,2,9,1.2,-1.113,M,40.593,M,2.2,0123*5C
$GPVTG,306.69,T,-333.21,M,003.895,N,007.214,K,D*06
$GPGGA,082732.20,5703.3180474,N,00951.8664249,E,2,9,1.2,-1.116,M,40.593,M,2.2,0123*56
$GPVTG,307.98,T,-331.92,M,003.911,N,007.244,K,D*0B
$GPGGA,082732.25,5703.3180810,N,00951.8663490,E,2,9,1.2,-1.115,M,40.593,M,2.4,0123*5D
$GPVTG,309.29,T,-330.61,M,003.919,N,007.257,K,D*08
$GPGGA,082732.30,5703.3181136,N,00951.8662731,E,2,9,1.2,-1.117,M,40.593,M,2.4,0123*5E
$GPVTG,310.12,T,-329.78,M,003.915,N,007.251,K,D*02
$GPGGA,082732.35,5703.3181488,N,00951.8661989,E,2,9,1.2,-1.116,M,40.593,M,2.4,0123*54
$GPVTG,311.36,T,-328.54,M,003.920,N,007.261,K,D*0F
$GPGGA,082732.40,5703.3181839,N,00951.8661257,E,2,9,1.2,-1.119,M,40.593,M,2.4,0123*57
$GPVTG,312.39,T,-327.51,M,003.911,N,007.244,K,D*0C
$GPGGA,082732.45,5703.3182189,N,00951.8660549,E,2,9,1.2,-1.122,M,40.593,M,2.6,0123*50
$GPVTG,313.59,T,-326.31,M,003.878,N,007.183,K,D*0A
$GPGGA,082732.50,5703.3182556,N,00951.8659841,E,2,9,1.2,-1.121,M,40.593,M,2.6,0123*5E
$GPVTG,314.53,T,-325.37,M,003.869,N,007.165,K,D*0A
$GPGGA,082732.55,5703.3182931,N,00951.8659150,E,2,9,1.2,-1.121,M,40.593,M,2.6,0123*5F
$GPVTG,315.57,T,-324.33,M,003.857,N,007.143,K,D*03
$GPGGA,082732.60,5703.3183313,N,00951.8658464,E,2,9,1.2,-1.121,M,40.593,M,2.6,0123*51
$GPVTG,316.48,T,-323.42,M,003.860,N,007.148,K,D*00
$GPGGA,082732.65,5703.3183719,N,00951.8657764,E,2,9,1.2,-1.114,M,40.593,M,2.8,0123*5E
$GPVTG,316.83,T,-323.07,M,003.905,N,007.231,K,D*09
$GPGGA,082732.70,5703.3184117,N,00951.8657086,E,2,9,1.2,-1.112,M,40.593,M,2.8,0123*58
$GPVTG,317.62,T,-322.28,M,003.921,N,007.263,K,D*0A
$GPGGA,082732.75,5703.3184524,N,00951.8656435,E,2,9,1.2,-1.110,M,40.593,M,2.8,0123*56
$GPVTG,318.92,T,-320.98,M,003.918,N,007.257,K,D*0E
$GPGGA,082732.80,5703.3184942,N,00951.8655791,E,2,9,1.2,-1.108,M,40.593,M,2.8,0123*57
$GPVTG,320.12,T,-319.78,M,003.934,N,007.286,K,D*0B
$GPGGA,082732.85,5703.3185362,N,00951.8655164,E,2,9,1.2,-1.109,M,40.593,M,3.1,0123*5E
$GPVTG,321.37,T,-318.53,M,003.945,N,007.306,K,D*0A
$GPGGA,082732.90,5703.3185788,N,00951.8654539,E,2,9,1.2,-1.109,M,40.593,M,3.1,0123*57
$GPVTG,322.20,T,-317.70,M,003.955,N,007.325,K,D*01
$GPGGA,082732.95,5703.3186238,N,00951.8653923,E,2,9,1.2,-1.106,M,40.593,M,3.1,0123*50
$GPVTG,323.39,T,-316.51,M,004.005,N,007.418,K,D*08
$GPGGA,082733.00,5703.3186690,N,00951.8653335,E,2,9,1.2,-1.106,M,40.593,M,3.1,0123*56
$GPVTG,324.78,T,-315.12,M,004.018,N,007.441,K,D*0E
$GPGGA,082733.05,5703.3187136,N,00951.8652770,E,2,9,1.2,-1.107,M,40.593,M,3.3,0123*5E
$GPVTG,325.96,T,-313.94,M,003.997,N,007.403,K,D*08
$GPGGA,082733.10,5703.3187584,N,00951.8652208,E,2,9,1.2,-1.109,M,40.593,M,3.3,0123*53
$GPVTG,326.75,T,-313.15,M,003.976,N,007.364,K,D*06
$GPGGA,082733.15,5703.3188043,N,00951.8651651,E,2,9,1.2,-1.108,M,40.593,M,3.3,0123*5D
$GPVTG,327.45,T,-312.45,M,003.983,N,007.377,K,D*08
$GPGGA,082733.20,5703.3188511,N,00951.8651114,E,2,9,1.2,-1.107,M,40.593,M,3.3,0123*50
$GPVTG,328.46,T,-311.44,M,003.990,N,007.390,K,D*0D
$GPGGA,082733.25,5703.3188985,N,00951.8650599,E,2,9,1.2,-1.109,M,40.593,M,3.5,0123*5C
$GPVTG,329.86,T,-310.04,M,004.013,N,007.433,K,D*0E
$GPGGA,082733.30,5703.3189468,N,00951.8650098,E,2,9,1.2,-1.109,M,40.593,M,3.5,0123*53
$GPVTG,331.00,T,-308.90,M,004.019,N,007.444,K,D*07
$GPGGA,082733.35,5703.3189952,N,00951.8649609,E,2,9,1.2,-1.111,M,40.593,M,3.5,0123*5D
$GPVTG,331.93,T,-307.97,M,004.016,N,007.437,K,D*0E
$GPGGA,082733.40,5703.3190443,N,00951.8649138,E,2,9,1.2,-1.112,M,40.593,M,3.5,0123*5C
$GPVTG,332.97,T,-306.93,M,004.018,N,007.441,K,D*03
$GPGGA,082733.45,5703.3190914,N,00951.8648684,E,2,9,1.2,-1.120,M,40.593,M,3.7,0123*54
$GPVTG,333.77,T,-306.13,M,003.982,N,007.374,K,D*08
$GPGGA,082733.50,5703.3191411,N,00951.8648237,E,2,9,1.2,-1.123,M,40.593,M,3.7,0123*56
$GPVTG,334.59,T,-305.31,M,003.987,N,007.384,K,D*0A
$GPGGA,082733.55,5703.3191914,N,00951.8647801,E,2,9,1.2,-1.124,M,40.593,M,3.7,0123*5C
$GPVTG,335.38,T,-304.52,M,004.005,N,007.417,K,D*01
$GPGGA,082733.60,5703.3192430,N,00951.8647381,E,2,9,1.2,-1.123,M,40.593,M,3.7,0123*56
$GPVTG,336.36,T,-303.54,M,004.037,N,007.476,K,D*0B
$GPGGA,082733.65,5703.3192942,N,00951.8647004,E,2,9,1.2,-1.122,M,40.593,M,3.9,0123*5A
$GPVTG,337.81,T,-302.09,M,004.005,N,007.417,K,D*09
$GPGGA,082733.70,5703.3193457,N,00951.8646621,E,2,9,1.2,-1.124,M,40.593,M,3.9,0123*50
$GPVTG,338.70,T,-301.20,M,004.011,N,007.429,K,D*08
$GPGGA,082733.75,5703.3193974,N,00951.8646263,E,2,9,1.2,-1.126,M,40.593,M,3.9,0123*59
$GPVTG,339.79,T,-300.11,M,004.008,N,007.422,K,D*00
$GPGGA,082733.80,5703.3194492,N,00951.8645916,E,2,9,1.2,-1.128,M,40.593,M,3.9,0123*55
$GPVTG,340.66,T,-299.24,M,004.002,N,007.412,K,D*0E
$GPGGA,082733.85,5703.3195003,N,00951.8645584,E,2,9,1.2,-1.138,M,40.593,M,4.1,0123*54
$GPVTG,341.62,T,-298.28,M,004.017,N,007.440,K,D*05
$GPGGA,082733.90,5703.3195528,N,00951.8645274,E,2,9,1.2,-1.142,M,40.593,M,4.1,0123*59
$GPVTG,342.66,T,-297.24,M,004.007,N,007.420,K,D*06
$GPGGA,082733.95,5703.3196074,N,00951.8644965,E,2,9,1.2,-1.143,M,40.593,M,4.1,0123*58
$GPVTG,343.45,T,-296.45,M,004.059,N,007.517,K,D*0E
$GPGGA,082734.00,5703.3196621,N,00951.8644676,E,2,9,1.2,-1.143,M,40.593,M,4.1,0123*58
$GPVTG,344.38,T,-295.52,M,004.091,N,007.577,K,D*04
$GPGGA,082734.05,5703.3197184,N,00951.8644397,E,2,9,1.2,-1.140,M,40.593,M,1.6,0123*5F
$GPVTG,345.17,T,-294.73,M,004.142,N,007.671,K,D*00
$GPGGA,082734.10,5703.3197745,N,00951.8644144,E,2,9,1.2,-1.141,M,40.593,M,1.6,0123*5D
$GPVTG,346.32,T,-293.58,M,004.173,N,007.728,K,D*05
$GPGGA,082734.15,5703.3198309,N,00951.8643919,E,2,9,1.2,-1.141,M,40.593,M,1.6,0123*5C
$GPVTG,347.71,T,-292.19,M,004.193,N,007.766,K,D*03
$GPGGA,082734.20,5703.3198867,N,00951.8643712,E,2,9,1.2,-1.144,M,40.593,M,1.6,0123*59
$GPVTG,348.94,T,-290.96,M,004.180,N,007.741,K,D*05
$GPGGA,082734.25,5703.3199443,N,00951.8643523,E,2,9,1.2,-1.138,M,40.593,M,1.8,0123*52
$GPVTG,350.13,T,-289.77,M,004.191,N,007.762,K,D*05
$GPGGA,082734.30,5703.3200009,N,00951.8643339,E,2,9,1.2,-1.136,M,40.593,M,1.8,0123*5C
$GPVTG,350.89,T,-289.01,M,004.191,N,007.762,K,D*07
$GPGGA,082734.35,5703.3200585,N,00951.8643184,E,2,9,1.2,-1.134,M,40.593,M,1.8,0123*5E
$GPVTG,352.02,T,-287.88,M,004.209,N,007.795,K,D*03
$GPGGA,082734.40,5703.3201159,N,00951.8643053,E,2,9,1.2,-1.132,M,40.593,M,1.8,0123*55
$GPVTG,353.24,T,-286.66,M,004.209,N,007.796,K,D*04
$GPGGA,082734.45,5703.3201725,N,00951.8642937,E,2,9,1.2,-1.132,M,40.593,M,2.1,0123*5D
$GPVTG,354.28,T,-285.62,M,004.198,N,007.774,K,D*0F
$GPGGA,082734.50,5703.3202291,N,00951.8642834,E,2,9,1.2,-1.133,M,40.593,M,2.1,0123*53
$GPVTG,355.15,T,-284.75,M,004.172,N,007.727,K,D*05
$GPGGA,082734.55,5703.3202866,N,00951.8642734,E,2,9,1.2,-1.134,M,40.593,M,2.1,0123*5C
$GPVTG,355.63,T,-284.27,M,004.176,N,007.733,K,D*02
$GPGGA,082734.60,5703.3203438,N,00951.8642649,E,2,9,1.2,-1.133,M,40.593,M,2.1,0123*50
$GPVTG,356.17,T,-283.73,M,004.166,N,007.715,K,D*01
$GPGGA,082734.65,5703.3203987,N,00951.8642602,E,2,9,1.2,-1.140,M,40.593,M,2.3,0123*55
$GPVTG,357.45,T,-282.45,M,004.150,N,007.686,K,D*0D
$GPGGA,082734.70,5703.3204553,N,00951.8642575,E,2,9,1.2,-1.142,M,40.593,M,2.3,0123*52
$GPVTG,358.68,T,-281.22,M,004.124,N,007.637,K,D*06
$GPGGA,082734.75,5703.3205129,N,00951.8642557,E,2,9,1.2,-1.146,M,40.593,M,2.3,0123*5B
$GPVTG,359.60,T,-280.30,M,004.135,N,007.659,K,D*05
$GPGGA,082734.80,5703.3205703,N,00951.8642547,E,2,9,1.2,-1.149,M,40.593,M,2.3,0123*51
$GPVTG,000.26,T,-639.64,M,004.138,N,007.663,K,D*0B
$GPGGA,082734.85,5703.3206312,N,00951.8642562,E,2,9,1.2,-1.138,M,40.593,M,2.6,0123*57
$GPVTG,001.17,T,-638.73,M,004.183,N,007.746,K,D*09
$GPGGA,082734.90,5703.3206905,N,00951.8642578,E,2,9,1.2,-1.136,M,40.593,M,2.6,0123*5A
$GPVTG,001.66,T,-638.24,M,004.232,N,007.837,K,D*0D
$GPGGA,082734.95,5703.3207490,N,00951.8642605,E,2,9,1.2,-1.134,M,40.593,M,2.6,0123*54
$GPVTG,002.16,T,-637.74,M,004.244,N,007.860,K,D*00
$GPGGA,082735.00,5703.3208074,N,00951.8642658,E,2,9,1.2,-1.133,M,40.593,M,2.6,0123*57
$GPVTG,003.03,T,-636.87,M,004.248,N,007.867,K,D*03
$GPGGA,082735.05,5703.3208667,N,00951.8642723,E,2,9,1.2,-1.128,M,40.593,M,1.5,0123*51
$GPVTG,003.73,T,-636.17,M,004.263,N,007.895,K,D*09
$GPGGA,082735.10,5703.3209268,N,00951.8642804,E,2,9,1.2,-1.125,M,40.593,M,1.5,0123*58
$GPVTG,004.53,T,-635.37,M,004.310,N,007.982,K,D*0F
$GPGGA,082735.15,5703.3209867,N,00951.8642914,E,2,9,1.2,-1.124,M,40.593,M,1.5,0123*59
$GPVTG,005.69,T,-634.21,M,004.344,N,008.045,K,D*0D
$GPGGA,082735.20,5703.3210459,N,00951.8643048,E,2,9,1.2,-1.122,M,40.593,M,1.5,0123*51
$GPVTG,006.96,T,-632.94,M,004.351,N,008.057,K,D*01
$GPGGA,082735.25,5703.3211015,N,00951.8643191,E,2,9,1.2,-1.130,M,40.593,M,1.7,0123*5D
