$GPGGA,083508.35,5703.2909029,N,00951.8583588,E,2,10,0.9,-1.299,M,40.593,M,2.4,0123*6C
$GPVTG,019.84,T,-620.06,M,002.385,N,004.418,K,D*08
$GPGGA,083508.40,5703.2909331,N,00951.8583821,E,2,10,0.9,-1.297,M,40.593,M,2.4,0123*64
$GPVTG,021.62,T,-618.28,M,002.402,N,004.449,K,D*00
$GPGGA,083508.45,5703.2909627,N,00951.8584066,E,2,10,0.9,-1.301,M,40.593,M,2.7,0123*62
$GPVTG,023.30,T,-616.60,M,002.421,N,004.483,K,D*00
$GPGGA,083508.50,5703.2909921,N,00951.8584303,E,2,10,0.9,-1.300,M,40.593,M,2.7,0123*6E
$GPVTG,024.51,T,-615.39,M,002.420,N,004.483,K,D*0E
$GPGGA,083508.55,5703.2910197,N,00951.8584563,E,2,10,0.9,-1.299,M,40.593,M,2.7,0123*67
$GPVTG,026.16,T,-613.74,M,002.404,N,004.452,K,D*0A
$GPGGA,083508.60,5703.2910480,N,00951.8584840,E,2,10,0.9,-1.300,M,40.593,M,2.7,0123*6F
$GPVTG,027.72,T,-612.18,M,002.404,N,004.451,K,D*01
$GPGGA,083508.65,5703.2910764,N,00951.8585121,E,2,10,0.9,-1.302,M,40.593,M,2.9,0123*60
$GPVTG,028.93,T,-610.97,M,002.413,N,004.469,K,D*09
$GPGGA,083508.70,5703.2911054,N,00951.8585418,E,2,10,0.9,-1.303,M,40.593,M,2.9,0123*6F
$GPVTG,030.11,T,-609.79,M,002.427,N,004.494,K,D*07
$GPGGA,083508.75,5703.2911340,N,00951.8585728,E,2,10,0.9,-1.304,M,40.593,M,2.9,0123*6B
$GPVTG,031.34,T,-608.56,M,002.438,N,004.515,K,D*0B
$GPGGA,083508.80,5703.2911621,N,00951.8586045,E,2,10,0.9,-1.305,M,40.593,M,2.9,0123*6D
$GPVTG,032.45,T,-607.45,M,002.444,N,004.526,K,D*08
$GPGGA,083508.85,5703.2911887,N,00951.8586379,E,2,10,0.9,-1.307,M,40.593,M,3.1,0123*6D
$GPVTG,033.89,T,-606.01,M,002.439,N,004.516,K,D*01
$GPGGA,083508.90,5703.2912145,N,00951.8586745,E,2,10,0.9,-1.309,M,40.593,M,3.1,0123*68
$GPVTG,035.77,T,-604.13,M,002.440,N,004.519,K,D*06
$GPGGA,083508.95,5703.2912402,N,00951.8587109,E,2,10,0.9,-1.310,M,40.593,M,3.1,0123*6C
$GPVTG,037.29,T,-602.61,M,002.437,N,004.513,K,D*06
$GPGGA,083509.00,5703.2912663,N,00951.8587486,E,2,10,0.9,-1.311,M,40.593,M,3.1,0123*67
$GPVTG,038.62,T,-601.28,M,002.444,N,004.526,K,D*0A
$GPGGA,083509.05,5703.2912897,N,00951.8587887,E,2,10,0.9,-1.316,M,40.593,M,3.3,0123*6F
$GPVTG,040.07,T,-599.83,M,002.457,N,004.551,K,D*07
$GPGGA,083509.10,5703.2913140,N,00951.8588292,E,2,10,0.9,-1.317,M,40.593,M,3.3,0123*69
$GPVTG,041.66,T,-598.24,M,002.456,N,004.548,K,D*04
$GPGGA,083509.15,5703.2913365,N,00951.8588722,E,2,10,0.9,-1.318,M,40.593,M,3.3,0123*68
$GPVTG,043.71,T,-596.19,M,002.452,N,004.540,K,D*0C
$GPGGA,083509.20,5703.2913593,N,00951.8589152,E,2,10,0.9,-1.320,M,40.593,M,3.3,0123*6A
$GPVTG,045.32,T,-594.58,M,002.449,N,004.535,K,D*02
$GPGGA,083509.25,5703.2913810,N,00951.8589582,E,2,10,0.9,-1.318,M,40.593,M,3.5,0123*6D
$GPVTG,046.91,T,-592.99,M,002.429,N,004.498,K,D*03
$GPGGA,083509.30,5703.2914022,N,00951.8590006,E,2,10,0.9,-1.316,M,40.593,M,3.5,0123*68
$GPVTG,048.19,T,-591.71,M,002.405,N,004.455,K,D*07
$GPGGA,083509.35,5703.2914228,N,00951.8590457,E,2,10,0.9,-1.314,M,40.593,M,3.5,0123*67
$GPVTG,049.76,T,-590.14,M,002.397,N,004.439,K,D*0B
$GPGGA,083509.40,5703.2914430,N,00951.8590925,E,2,10,0.9,-1.314,M,40.593,M,3.5,0123*62
$GPVTG,051.37,T,-588.53,M,002.397,N,004.440,K,D*03
$GPGGA,083509.45,5703.2914602,N,00951.8591374,E,2,10,0.9,-1.323,M,40.593,M,3.7,0123*6D
$GPVTG,052.98,T,-586.92,M,002.370,N,004.388,K,D*0C
$GPGGA,083509.50,5703.2914789,N,00951.8591838,E,2,10,0.9,-1.322,M,40.593,M,3.7,0123*69
$GPVTG,054.33,T,-585.57,M,002.355,N,004.361,K,D*01
$GPGGA,083509.55,5703.2914972,N,00951.8592308,E,2,10,0.9,-1.320,M,40.593,M,3.7,0123*6F
$GPVTG,055.58,T,-584.32,M,002.343,N,004.338,K,D*04
$GPGGA,083509.60,5703.2915144,N,00951.8592783,E,2,10,0.9,-1.318,M,40.593,M,3.7,0123*69
$GPVTG,056.96,T,-582.94,M,002.325,N,004.306,K,D*02
$GPGGA,083509.65,5703.2915326,N,00951.8593266,E,2,10,0.9,-1.308,M,40.593,M,3.9,0123*6A
$GPVTG,058.06,T,-581.84,M,002.317,N,004.290,K,D*08
$GPGGA,083509.70,5703.2915489,N,00951.8593760,E,2,10,0.9,-1.308,M,40.593,M,3.9,0123*6F
$GPVTG,059.43,T,-580.47,M,002.310,N,004.278,K,D*07
$GPGGA,083509.75,5703.2915639,N,00951.8594261,E,2,10,0.9,-1.308,M,40.593,M,3.9,0123*60
$GPVTG,060.98,T,-578.92,M,002.301,N,004.261,K,D*0C
$GPGGA,083509.80,5703.2915789,N,00951.8594764,E,2,10,0.9,-1.309,M,40.593,M,3.9,0123*61
$GPVTG,062.28,T,-577.62,M,002.294,N,004.248,K,D*03
$GPGGA,083509.85,5703.2915930,N,00951.8595278,E,2,10,0.9,-1.311,M,40.593,M,4.1,0123*67
$GPVTG,063.54,T,-576.36,M,002.297,N,004.253,K,D*00
$GPGGA,083509.90,5703.2916063,N,00951.8595804,E,2,10,0.9,-1.312,M,40.593,M,4.1,0123*6D
$GPVTG,065.09,T,-574.81,M,002.298,N,004.256,K,D*0A
$GPGGA,083509.95,5703.2916194,N,00951.8596331,E,2,10,0.9,-1.311,M,40.593,M,4.1,0123*6C
$GPVTG,066.39,T,-573.51,M,002.299,N,004.258,K,D*0F
$GPGGA,083510.00,5703.2916311,N,00951.8596841,E,2,10,0.9,-1.314,M,40.593,M,4.1,0123*6E
$GPVTG,067.71,T,-572.19,M,002.277,N,004.216,K,D*05
$GPGGA,083510.05,5703.2916410,N,00951.8597369,E,2,10,0.9,-1.311,M,40.593,M,1.5,0123*69
$GPVTG,069.11,T,-570.79,M,002.264,N,004.194,K,D*02
$GPGGA,083510.10,5703.2916517,N,00951.8597915,E,2,10,0.9,-1.311,M,40.593,M,1.5,0123*6A
$GPVTG,070.55,T,-569.35,M,002.273,N,004.210,K,D*03
$GPGGA,083510.15,5703.2916602,N,00951.8598457,E,2,10,0.9,-1.313,M,40.593,M,1.5,0123*6E
$GPVTG,072.46,T,-567.44,M,002.267,N,004.198,K,D*0D
$GPGGA,083510.20,5703.2916671,N,00951.8598994,E,2,10,0.9,-1.316,M,40.593,M,1.5,0123*6B
$GPVTG,074.55,T,-565.35,M,002.250,N,004.167,K,D*09
$GPGGA,083510.25,5703.2916738,N,00951.8599516,E,2,10,0.9,-1.317,M,40.593,M,1.8,0123*69
$GPVTG,076.16,T,-563.74,M,002.224,N,004.119,K,D*05
$GPGGA,083510.30,5703.2916806,N,00951.8600043,E,2,10,0.9,-1.316,M,40.593,M,1.8,0123*68
$GPVTG,077.59,T,-562.31,M,002.206,N,004.085,K,D*0B
$GPGGA,083510.35,5703.2916869,N,00951.8600582,E,2,10,0.9,-1.314,M,40.593,M,1.8,0123*6E
$GPVTG,079.02,T,-560.88,M,002.199,N,004.072,K,D*06
$GPGGA,083510.40,5703.2916925,N,00951.8601115,E,2,10,0.9,-1.313,M,40.593,M,1.8,0123*69
$GPVTG,080.38,T,-559.52,M,002.185,N,004.046,K,D*0E
$GPGGA,083510.45,5703.2916981,N,00951.8601646,E,2,10,0.9,-1.307,M,40.593,M,2.0,0123*6D
$GPVTG,081.64,T,-558.26,M,002.170,N,004.019,K,D*04
$GPGGA,083510.50,5703.2917021,N,00951.8602173,E,2,10,0.9,-1.304,M,40.593,M,2.0,0123*6A
$GPVTG,083.04,T,-556.86,M,002.152,N,003.986,K,D*0C
$GPGGA,083510.55,5703.2917065,N,00951.8602700,E,2,10,0.9,-1.301,M,40.593,M,2.0,0123*68
$GPVTG,084.04,T,-555.86,M,002.138,N,003.959,K,D*06
$GPGGA,083510.60,5703.2917097,N,00951.8603236,E,2,10,0.9,-1.299,M,40.593,M,2.0,0123*62
$GPVTG,085.25,T,-554.65,M,002.133,N,003.950,K,D*0A
$GPGGA,083510.65,5703.2917106,N,00951.8603778,E,2,10,0.9,-1.305,M,40.593,M,2.2,0123*67
$GPVTG,086.77,T,-553.13,M,002.139,N,003.961,K,D*00
$GPGGA,083510.70,5703.2917119,N,00951.8604308,E,2,10,0.9,-1.305,M,40.593,M,2.2,0123*69
$GPVTG,088.20,T,-551.70,M,002.129,N,003.943,K,D*0A
$GPGGA,083510.75,5703.2917126,N,00951.8604838,E,2,10,0.9,-1.304,M,40.593,M,2.2,0123*69
$GPVTG,089.57,T,-550.33,M,002.120,N,003.926,K,D*07
$GPGGA,083510.80,5703.2917124,N,00951.8605363,E,2,10,0.9,-1.305,M,40.593,M,2.2,0123*64
$GPVTG,091.01,T,-548.89,M,002.109,N,003.905,K,D*0F
$GPGGA,083510.85,5703.2917111,N,00951.8605896,E,2,10,0.9,-1.304,M,40.593,M,2.5,0123*60
$GPVTG,092.79,T,-547.11,M,002.106,N,003.900,K,D*07
$GPGGA,083510.90,5703.2917093,N,00951.8606422,E,2,10,0.9,-1.304,M,40.593,M,2.5,0123*6F
$GPVTG,094.26,T,-545.64,M,002.100,N,003.889,K,D*0D
$GPGGA,083510.95,5703.2917070,N,00951.8606932,E,2,10,0.9,-1.304,M,40.593,M,2.5,0123*6B
$GPVTG,095.70,T,-544.20,M,002.082,N,003.856,K,D*07
$GPGGA,083511.00,5703.2917035,N,00951.8607436,E,2,10,0.9,-1.309,M,40.593,M,2.5,0123*62
$GPVTG,097.38,T,-542.52,M,002.063,N,003.821,K,D*05
$GPGGA,083511.05,5703.2916984,N,00951.8607961,E,2,10,0.9,-1.306,M,40.593,M,1.5,0123*66
$GPVTG,098.93,T,-540.97,M,002.064,N,003.823,K,D*05
$GPGGA,083511.10,5703.2916936,N,00951.8608468,E,2,10,0.9,-1.306,M,40.593,M,1.5,0123*60
$GPVTG,100.48,T,-539.42,M,002.056,N,003.808,K,D*0D
$GPGGA,083511.15,5703.2916882,N,00951.8608952,E,2,10,0.9,-1.305,M,40.593,M,1.5,0123*6C
$GPVTG,102.11,T,-537.79,M,002.032,N,003.763,K,D*05
$GPGGA,083511.20,5703.2916807,N,00951.8609427,E,2,10,0.9,-1.307,M,40.593,M,1.5,0123*6B
$GPVTG,104.31,T,-535.59,M,002.010,N,003.723,K,D*05
$GPGGA,083511.25,5703.2916720,N,00951.8609894,E,2,10,0.9,-1.307,M,40.593,M,1.7,0123*62
$GPVTG,106.83,T,-533.07,M,001.992,N,003.690,K,D*0A
$GPGGA,083511.30,5703.2916637,N,00951.8610364,E,2,10,0.9,-1.308,M,40.593,M,1.7,0123*62
$GPVTG,108.64,T,-531.26,M,001.981,N,003.669,K,D*08
$GPGGA,083511.35,5703.2916554,N,00951.8610823,E,2,10,0.9,-1.307,M,40.593,M,1.7,0123*66
$GPVTG,110.22,T,-529.68,M,001.964,N,003.638,K,D*0F
$GPGGA,083511.40,5703.2916461,N,00951.8611271,E,2,10,0.9,-1.308,M,40.593,M,1.7,0123*60
$GPVTG,111.98,T,-527.92,M,001.946,N,003.603,K,D*0C
$GPGGA,083511.45,5703.2916362,N,00951.8611694,E,2,10,0.9,-1.310,M,40.593,M,2.0,0123*63
$GPVTG,113.73,T,-526.17,M,001.915,N,003.546,K,D*03
$GPGGA,083511.50,5703.2916258,N,00951.8612114,E,2,10,0.9,-1.307,M,40.593,M,2.0,0123*65
$GPVTG,115.54,T,-524.36,M,001.889,N,003.499,K,D*06
$GPGGA,083511.55,5703.2916142,N,00951.8612512,E,2,10,0.9,-1.305,M,40.593,M,2.0,0123*68
$GPVTG,117.81,T,-522.09,M,001.860,N,003.444,K,D*01
$GPGGA,083511.60,5703.2916022,N,00951.8612899,E,2,10,0.9,-1.304,M,40.593,M,2.0,0123*66
$GPVTG,120.00,T,-519.90,M,001.832,N,003.392,K,D*0F
$GPGGA,083511.65,5703.2915906,N,00951.8613273,E,2,10,0.9,-1.305,M,40.593,M,2.2,0123*63
$GPVTG,121.77,T,-518.13,M,001.798,N,003.330,K,D*03
$GPGGA,083511.70,5703.2915779,N,00951.8613616,E,2,10,0.9,-1.304,M,40.593,M,2.2,0123*67
$GPVTG,124.20,T,-515.70,M,001.754,N,003.249,K,D*03
$GPGGA,083511.75,5703.2915645,N,00951.8613944,E,2,10,0.9,-1.302,M,40.593,M,2.2,0123*62
$GPVTG,126.78,T,-513.12,M,001.715,N,003.175,K,D*07
$GPGGA,083511.80,5703.2915515,N,00951.8614268,E,2,10,0.9,-1.300,M,40.593,M,2.2,0123*6E
$GPVTG,128.84,T,-511.06,M,001.679,N,003.109,K,D*0D
$GPGGA,083511.85,5703.2915387,N,00951.8614602,E,2,10,0.9,-1.295,M,40.593,M,2.4,0123*65
$GPVTG,130.41,T,-509.49,M,001.660,N,003.075,K,D*0D
$GPGGA,083511.90,5703.2915247,N,00951.8614915,E,2,10,0.9,-1.296,M,40.593,M,2.4,0123*66
$GPVTG,132.23,T,-507.67,M,001.639,N,003.035,K,D*01
$GPGGA,083511.95,5703.2915099,N,00951.8615210,E,2,10,0.9,-1.297,M,40.593,M,2.4,0123*6C
$GPVTG,134.41,T,-505.49,M,001.620,N,003.001,K,D*02
$GPGGA,083512.00,5703.2914944,N,00951.8615506,E,2,10,0.9,-1.300,M,40.593,M,2.4,0123*64
$GPVTG,136.33,T,-503.57,M,001.615,N,002.990,K,D*0A
$GPGGA,083512.05,5703.2914777,N,00951.8615789,E,2,10,0.9,-1.298,M,40.593,M,2.2,0123*6C
$GPVTG,138.41,T,-501.49,M,001.608,N,002.977,K,D*09
$GPGGA,083512.10,5703.2914618,N,00951.8616055,E,2,10,0.9,-1.300,M,40.593,M,2.2,0123*65
$GPVTG,140.28,T,-499.62,M,001.595,N,002.955,K,D*07
$GPGGA,083512.15,5703.2914463,N,00951.8616302,E,2,10,0.9,-1.300,M,40.593,M,2.2,0123*6F
$GPVTG,142.12,T,-497.78,M,001.572,N,002.911,K,D*00
$GPGGA,083512.20,5703.2914300,N,00951.8616548,E,2,10,0.9,-1.302,M,40.593,M,2.2,0123*61
$GPVTG,143.81,T,-496.09,M,001.561,N,002.891,K,D*07
$GPGGA,083512.25,5703.2914136,N,00951.8616774,E,2,10,0.9,-1.303,M,40.593,M,2.4,0123*69
$GPVTG,145.82,T,-494.08,M,001.548,N,002.867,K,D*03
$GPGGA,083512.30,5703.2913973,N,00951.8616997,E,2,10,0.9,-1.305,M,40.593,M,2.4,0123*66
$GPVTG,147.27,T,-492.63,M,001.532,N,002.837,K,D*0D
$GPGGA,083512.35,5703.2913813,N,00951.8617210,E,2,10,0.9,-1.305,M,40.593,M,2.4,0123*61
$GPVTG,148.57,T,-491.33,M,001.511,N,002.799,K,D*09
$GPGGA,083512.40,5703.2913649,N,00951.8617389,E,2,10,0.9,-1.304,M,40.593,M,2.4,0123*62
$GPVTG,150.69,T,-489.21,M,001.483,N,002.747,K,D*0E
$GPGGA,083512.45,5703.2913471,N,00951.8617549,E,2,10,0.9,-1.305,M,40.593,M,2.7,0123*66
$GPVTG,153.32,T,-486.58,M,001.471,N,002.725,K,D*0B
$GPGGA,083512.50,5703.2913280,N,00951.8617700,E,2,10,0.9,-1.308,M,40.593,M,2.7,0123*68
$GPVTG,156.06,T,-483.84,M,001.477,N,002.735,K,D*0A
$GPGGA,083512.55,5703.2913107,N,00951.8617842,E,2,10,0.9,-1.308,M,40.593,M,2.7,0123*68
$GPVTG,158.10,T,-481.80,M,001.457,N,002.699,K,D*00
$GPGGA,083512.60,5703.2912928,N,00951.8617984,E,2,10,0.9,-1.308,M,40.593,M,2.7,0123*61
$GPVTG,159.80,T,-480.10,M,001.450,N,002.686,K,D*09
$GPGGA,083512.65,5703.2912761,N,00951.8618106,E,2,10,0.9,-1.302,M,40.593,M,2.9,0123*6E
$GPVTG,161.78,T,-478.12,M,001.432,N,002.652,K,D*0D
$GPGGA,083512.70,5703.2912587,N,00951.8618210,E,2,10,0.9,-1.301,M,40.593,M,2.9,0123*67
$GPVTG,163.87,T,-476.03,M,001.413,N,002.617,K,D*03
$GPGGA,083512.75,5703.2912417,N,00951.8618300,E,2,10,0.9,-1.301,M,40.593,M,2.9,0123*6A
$GPVTG,165.90,T,-474.00,M,001.388,N,002.570,K,D*05
$GPGGA,083512.80,5703.2912241,N,00951.8618375,E,2,10,0.9,-1.302,M,40.593,M,2.9,0123*64
$GPVTG,168.20,T,-471.70,M,001.373,N,002.544,K,D*02
$GPGGA,083512.85,5703.2912073,N,00951.8618441,E,2,10,0.9,-1.297,M,40.593,M,3.1,0123*66
$GPVTG,170.35,T,-469.55,M,001.359,N,002.516,K,D*0E
$GPGGA,083512.90,5703.2911901,N,00951.8618488,E,2,10,0.9,-1.296,M,40.593,M,3.1,0123*69
$GPVTG,172.68,T,-467.22,M,001.340,N,002.481,K,D*0D
$GPGGA,083512.95,5703.2911732,N,00951.8618517,E,2,10,0.9,-1.294,M,40.593,M,3.1,0123*67
$GPVTG,175.22,T,-464.68,M,001.320,N,002.445,K,D*07
$GPGGA,083513.00,5703.2911561,N,00951.8618530,E,2,10,0.9,-1.293,M,40.593,M,3.1,0123*6C
$GPVTG,177.89,T,-462.01,M,001.307,N,002.421,K,D*0A
$GPGGA,083513.05,5703.2911386,N,00951.8618547,E,2,10,0.9,-1.285,M,40.593,M,3.3,0123*63
$GPVTG,180.13,T,-459.77,M,001.302,N,002.411,K,D*0E
$GPGGA,083513.10,5703.2911212,N,00951.8618536,E,2,10,0.9,-1.287,M,40.593,M,3.3,0123*6F
$GPVTG,182.68,T,-457.22,M,001.297,N,002.402,K,D*01
$GPGGA,083513.15,5703.2911052,N,00951.8618509,E,2,10,0.9,-1.287,M,40.593,M,3.3,0123*60
$GPVTG,185.42,T,-454.48,M,001.277,N,002.365,K,D*09
$GPGGA,083513.20,5703.2910884,N,00951.8618476,E,2,10,0.9,-1.287,M,40.593,M,3.3,0123*6D
$GPVTG,187.75,T,-452.15,M,001.272,N,002.355,K,D*07
$GPGGA,083513.25,5703.2910730,N,00951.8618426,E,2,10,0.9,-1.284,M,40.593,M,3.5,0123*68
$GPVTG,190.41,T,-449.49,M,001.256,N,002.326,K,D*07
$GPGGA,083513.30,5703.2910567,N,00951.8618378,E,2,10,0.9,-1.286,M,40.593,M,3.5,0123*62
$GPVTG,192.30,T,-447.60,M,001.249,N,002.313,K,D*0E
$GPGGA,083513.35,5703.2910393,N,00951.8618317,E,2,10,0.9,-1.288,M,40.593,M,3.5,0123*6D
$GPVTG,194.09,T,-445.81,M,001.260,N,002.334,K,D*01
$GPGGA,083513.40,5703.2910227,N,00951.8618234,E,2,10,0.9,-1.289,M,40.593,M,3.5,0123*60
$GPVTG,196.38,T,-443.52,M,001.266,N,002.344,K,D*08
$GPGGA,083513.45,5703.2910078,N,00951.8618141,E,2,10,0.9,-1.290,M,40.593,M,3.7,0123*66
$GPVTG,198.87,T,-441.03,M,001.256,N,002.326,K,D*03
$GPGGA,083513.50,5703.2909918,N,00951.8618037,E,2,10,0.9,-1.295,M,40.593,M,3.7,0123*60
$GPVTG,201.03,T,-438.87,M,001.260,N,002.334,K,D*08
$GPGGA,083513.55,5703.2909758,N,00951.8617916,E,2,10,0.9,-1.296,M,40.593,M,3.7,0123*69
$GPVTG,203.30,T,-436.60,M,001.269,N,002.351,K,D*07
$GPGGA,083513.60,5703.2909612,N,00951.8617753,E,2,10,0.9,-1.298,M,40.593,M,3.7,0123*61
$GPVTG,207.04,T,-432.86,M,001.277,N,002.364,K,D*01
$GPGGA,083513.65,5703.2909490,N,00951.8617592,E,2,10,0.9,-1.293,M,40.593,M,3.9,0123*66
$GPVTG,210.58,T,-429.32,M,001.265,N,002.342,K,D*0C
$GPGGA,083513.70,5703.2909352,N,00951.8617423,E,2,10,0.9,-1.293,M,40.593,M,3.9,0123*60
$GPVTG,213.36,T,-426.54,M,001.267,N,002.346,K,D*0E
$GPGGA,083513.75,5703.2909224,N,00951.8617240,E,2,10,0.9,-1.296,M,40.593,M,3.9,0123*63
$GPVTG,216.43,T,-423.47,M,001.264,N,002.341,K,D*0A
$GPGGA,083513.80,5703.2909111,N,00951.8617057,E,2,10,0.9,-1.297,M,40.593,M,3.9,0123*69
$GPVTG,219.45,T,-420.45,M,001.245,N,002.305,K,D*01
$GPGGA,083513.85,5703.2909002,N,00951.8616874,E,2,10,0.9,-1.292,M,40.593,M,4.1,0123*6D
$GPVTG,221.92,T,-417.98,M,001.230,N,002.279,K,D*0C
$GPGGA,083513.90,5703.2908892,N,00951.8616653,E,2,10,0.9,-1.291,M,40.593,M,4.1,0123*61
$GPVTG,225.27,T,-414.63,M,001.235,N,002.288,K,D*0A
$GPGGA,083513.95,5703.2908783,N,00951.8616418,E,2,10,0.9,-1.293,M,40.593,M,4.1,0123*64
$GPVTG,228.37,T,-411.53,M,001.248,N,002.312,K,D*08
$GPGGA,083514.00,5703.2908685,N,00951.8616189,E,2,10,0.9,-1.294,M,40.593,M,4.1,0123*62
$GPVTG,231.20,T,-408.70,M,001.246,N,002.308,K,D*0A
$GPGGA,083514.05,5703.2908589,N,00951.8615958,E,2,10,0.9,-1.293,M,40.593,M,1.5,0123*69
$GPVTG,233.99,T,-405.91,M,001.239,N,002.294,K,D*04
$GPGGA,083514.10,5703.2908504,N,00951.8615717,E,2,10,0.9,-1.292,M,40.593,M,1.5,0123*6C
$GPVTG,236.77,T,-403.13,M,001.232,N,002.283,K,D*00
$GPGGA,083514.15,5703.2908427,N,00951.8615464,E,2,10,0.9,-1.290,M,40.593,M,1.5,0123*6C
$GPVTG,239.65,T,-400.25,M,001.231,N,002.279,K,D*0C
$GPGGA,083514.20,5703.2908350,N,00951.8615207,E,2,10,0.9,-1.290,M,40.593,M,1.5,0123*6E
$GPVTG,242.11,T,-397.79,M,001.231,N,002.280,K,D*05
$GPGGA,083514.25,5703.2908284,N,00951.8614939,E,2,10,0.9,-1.284,M,40.593,M,1.8,0123*6C
$GPVTG,244.39,T,-395.51,M,001.242,N,002.301,K,D*0D
$GPGGA,083514.30,5703.2908210,N,00951.8614666,E,2,10,0.9,-1.282,M,40.593,M,1.8,0123*66
$GPVTG,246.22,T,-393.68,M,001.250,N,002.316,K,D*0C
$GPGGA,083514.35,5703.2908145,N,00951.8614393,E,2,10,0.9,-1.279,M,40.593,M,1.8,0123*6B
$GPVTG,248.25,T,-391.65,M,001.250,N,002.315,K,D*09
$GPGGA,083514.40,5703.2908087,N,00951.8614119,E,2,10,0.9,-1.277,M,40.593,M,1.8,0123*68
$GPVTG,250.20,T,-389.70,M,001.245,N,002.307,K,D*0F
$GPGGA,083514.45,5703.2908040,N,00951.8613840,E,2,10,0.9,-1.275,M,40.593,M,2.0,0123*6D
$GPVTG,252.63,T,-387.27,M,001.240,N,002.296,K,D*0A
$GPGGA,083514.50,5703.2907995,N,00951.8613529,E,2,10,0.9,-1.273,M,40.593,M,2.0,0123*63
$GPVTG,254.99,T,-384.91,M,001.262,N,002.337,K,D*0D
$GPGGA,083514.55,5703.2907957,N,00951.8613197,E,2,10,0.9,-1.270,M,40.593,M,2.0,0123*6A
$GPVTG,257.52,T,-382.38,M,001.297,N,002.403,K,D*06
$GPGGA,083514.60,5703.2907914,N,00951.8612875,E,2,10,0.9,-1.271,M,40.593,M,2.0,0123*6E
$GPVTG,259.06,T,-380.84,M,001.320,N,002.445,K,D*03
$GPGGA,083514.65,5703.2907877,N,00951.8612546,E,2,10,0.9,-1.271,M,40.593,M,2.2,0123*60
$GPVTG,260.64,T,-379.26,M,001.341,N,002.484,K,D*09
$GPGGA,083514.70,5703.2907848,N,00951.8612216,E,2,10,0.9,-1.272,M,40.593,M,2.2,0123*69
$GPVTG,262.28,T,-377.62,M,001.357,N,002.514,K,D*02
$GPGGA,083514.75,5703.2907819,N,00951.8611872,E,2,10,0.9,-1.276,M,40.593,M,2.2,0123*67
$GPVTG,263.63,T,-376.27,M,001.382,N,002.560,K,D*07
$GPGGA,083514.80,5703.2907810,N,00951.8611520,E,2,10,0.9,-1.277,M,40.593,M,2.2,0123*6F
$GPVTG,265.85,T,-374.05,M,001.406,N,002.605,K,D*00
$GPGGA,083514.85,5703.2907813,N,00951.8611165,E,2,10,0.9,-1.278,M,40.593,M,2.5,0123*64
$GPVTG,268.33,T,-371.57,M,001.429,N,002.646,K,D*08
$GPGGA,083514.90,5703.2907817,N,00951.8610808,E,2,10,0.9,-1.279,M,40.593,M,2.5,0123*66
$GPVTG,270.38,T,-369.52,M,001.448,N,002.681,K,D*0A
$GPGGA,083514.95,5703.2907820,N,00951.8610453,E,2,10,0.9,-1.281,M,40.593,M,2.5,0123*62
$GPVTG,271.94,T,-367.96,M,001.461,N,002.706,K,D*0E
$GPGGA,083515.00,5703.2907832,N,00951.8610094,E,2,10,0.9,-1.284,M,40.593,M,2.5,0123*66
$GPVTG,273.62,T,-366.28,M,001.475,N,002.732,K,D*03
$GPGGA,083515.05,5703.2907857,N,00951.8609726,E,2,10,0.9,-1.280,M,40.593,M,1.5,0123*61
$GPVTG,275.71,T,-364.19,M,001.500,N,002.778,K,D*0A
$GPGGA,083515.10,5703.2907892,N,00951.8609360,E,2,10,0.9,-1.280,M,40.593,M,1.5,0123*6A
$GPVTG,277.87,T,-362.03,M,001.515,N,002.806,K,D*0E
$GPGGA,083515.15,5703.2907933,N,00951.8608984,E,2,10,0.9,-1.279,M,40.593,M,1.5,0123*62
$GPVTG,279.97,T,-359.93,M,001.538,N,002.849,K,D*04
$GPGGA,083515.20,5703.2907982,N,00951.8608605,E,2,10,0.9,-1.278,M,40.593,M,1.5,0123*69
$GPVTG,281.99,T,-357.91,M,001.563,N,002.894,K,D*0F
$GPGGA,083515.25,5703.2908035,N,00951.8608230,E,2,10,0.9,-1.278,M,40.593,M,1.7,0123*66
$GPVTG,283.88,T,-356.02,M,001.579,N,002.925,K,D*06
$GPGGA,083515.30,5703.2908106,N,00951.8607865,E,2,10,0.9,-1.278,M,40.593,M,1.7,0123*66
$GPVTG,286.39,T,-353.51,M,001.589,N,002.944,K,D*02
$GPGGA,083515.35,5703.2908190,N,00951.8607492,E,2,10,0.9,-1.276,M,40.593,M,1.7,0123*66
$GPVTG,289.01,T,-350.89,M,001.612,N,002.985,K,D*0C
$GPGGA,083515.40,5703.2908282,N,00951.8607121,E,2,10,0.9,-1.274,M,40.593,M,1.7,0123*6B
$GPVTG,291.53,T,-348.37,M,001.634,N,003.027,K,D*0A
$GPGGA,083515.45,5703.2908357,N,00951.8606754,E,2,10,0.9,-1.282,M,40.593,M,2.0,0123*6F
$GPVTG,293.37,T,-346.53,M,001.642,N,003.042,K,D*04
$GPGGA,083515.50,5703.2908443,N,00951.8606389,E,2,10,0.9,-1.283,M,40.593,M,2.0,0123*6C
$GPVTG,294.88,T,-345.02,M,001.650,N,003.056,K,D*06
$GPGGA,083515.55,5703.2908543,N,00951.8606028,E,2,10,0.9,-1.284,M,40.593,M,2.0,0123*67
$GPVTG,296.74,T,-343.16,M,001.661,N,003.076,K,D*04
$GPGGA,083515.60,5703.2908653,N,00951.8605662,E,2,10,0.9,-1.284,M,40.593,M,2.0,0123*68
$GPVTG,298.63,T,-341.27,M,001.681,N,003.114,K,D*07
$GPGGA,083515.65,5703.2908770,N,00951.8605299,E,2,10,0.9,-1.287,M,40.593,M,2.2,0123*6C
$GPVTG,300.74,T,-339.16,M,001.704,N,003.155,K,D*05
$GPGGA,083515.70,5703.2908913,N,00951.8604941,E,2,10,0.9,-1.287,M,40.593,M,2.2,0123*6C
$GPVTG,303.25,T,-336.65,M,001.735,N,003.214,K,D*0D
$GPGGA,083515.75,5703.2909053,N,00951.8604579,E,2,10,0.9,-1.289,M,40.593,M,2.2,0123*6C
$GPVTG,305.13,T,-334.77,M,001.765,N,003.269,K,D*00
$GPGGA,083515.80,5703.2909198,N,00951.8604226,E,2,10,0.9,-1.290,M,40.593,M,2.2,0123*65
$GPVTG,306.91,T,-332.99,M,001.787,N,003.310,K,D*0C
$GPGGA,083515.85,5703.2909360,N,00951.8603888,E,2,10,0.9,-1.285,M,40.593,M,2.4,0123*6E
$GPVTG,308.84,T,-331.06,M,001.805,N,003.342,K,D*01
$GPGGA,083515.90,5703.2909527,N,00951.8603544,E,2,10,0.9,-1.285,M,40.593,M,2.4,0123*62
$GPVTG,310.80,T,-329.10,M,001.834,N,003.396,K,D*09
$GPGGA,083515.95,5703.2909691,N,00951.8603208,E,2,10,0.9,-1.288,M,40.593,M,2.4,0123*6B
$GPVTG,312.44,T,-327.46,M,001.849,N,003.425,K,D*0B
$GPGGA,083516.00,5703.2909869,N,00951.8602885,E,2,10,0.9,-1.290,M,40.593,M,2.4,0123*6A
$GPVTG,314.45,T,-325.45,M,001.868,N,003.460,K,D*0F
$GPGGA,083516.05,5703.2910033,N,00951.8602559,E,2,10,0.9,-1.294,M,40.593,M,2.2,0123*6E
$GPVTG,316.19,T,-323.71,M,001.891,N,003.502,K,D*06
$GPGGA,083516.10,5703.2910224,N,00951.8602232,E,2,10,0.9,-1.295,M,40.593,M,2.2,0123*65
$GPVTG,317.70,T,-322.20,M,001.919,N,003.554,K,D*0F
$GPGGA,083516.15,5703.2910428,N,00951.8601937,E,2,10,0.9,-1.296,M,40.593,M,2.2,0123*64
$GPVTG,319.90,T,-320.00,M,001.937,N,003.587,K,D*0D
$GPGGA,083516.20,5703.2910627,N,00951.8601652,E,2,10,0.9,-1.295,M,40.593,M,2.2,0123*60
$GPVTG,321.79,T,-318.11,M,001.941,N,003.595,K,D*08
$GPGGA,083516.25,5703.2910841,N,00951.8601368,E,2,10,0.9,-1.288,M,40.593,M,2.4,0123*6D
$GPVTG,323.50,T,-316.40,M,001.958,N,003.626,K,D*08
$GPGGA,083516.30,5703.2911050,N,00951.8601097,E,2,10,0.9,-1.286,M,40.593,M,2.4,0123*6D
$GPVTG,325.18,T,-314.72,M,001.962,N,003.634,K,D*0B
$GPGGA,083516.35,5703.2911271,N,00951.8600850,E,2,10,0.9,-1.281,M,40.593,M,2.4,0123*6C
$GPVTG,327.33,T,-312.57,M,001.967,N,003.643,K,D*04
$GPGGA,083516.40,5703.2911493,N,00951.8600602,E,2,10,0.9,-1.277,M,40.593,M,2.4,0123*64
$GPVTG,329.05,T,-310.85,M,001.974,N,003.655,K,D*07
$GPGGA,083516.45,5703.2911721,N,00951.8600363,E,2,10,0.9,-1.280,M,40.593,M,2.7,0123*62
$GPVTG,331.14,T,-308.76,M,001.999,N,003.702,K,D*0B
$GPGGA,083516.50,5703.2911962,N,00951.8600148,E,2,10,0.9,-1.275,M,40.593,M,2.7,0123*6E
$GPVTG,333.20,T,-306.70,M,002.010,N,003.723,K,D*0E
$GPGGA,083516.55,5703.2912207,N,00951.8599918,E,2,10,0.9,-1.271,M,40.593,M,2.7,0123*6A
$GPVTG,334.54,T,-305.36,M,002.033,N,003.764,K,D*09
$GPGGA,083516.60,5703.2912458,N,00951.8599711,E,2,10,0.9,-1.268,M,40.593,M,2.7,0123*6F
$GPVTG,336.22,T,-303.68,M,002.050,N,003.796,K,D*0F
$GPGGA,083516.65,5703.2912706,N,00951.8599499,E,2,10,0.9,-1.265,M,40.593,M,2.9,0123*62
$GPVTG,337.31,T,-302.59,M,002.064,N,003.823,K,D*09
$GPGGA,083516.70,5703.2912958,N,00951.8599301,E,2,10,0.9,-1.263,M,40.593,M,2.9,0123*63
$GPVTG,338.53,T,-301.37,M,002.073,N,003.840,K,D*0A
$GPGGA,083516.75,5703.2913223,N,00951.8599110,E,2,10,0.9,-1.261,M,40.593,M,2.9,0123*60
$GPVTG,339.76,T,-300.14,M,002.096,N,003.881,K,D*0A
$GPGGA,083516.80,5703.2913484,N,00951.8598925,E,2,10,0.9,-1.261,M,40.593,M,2.9,0123*6E
$GPVTG,340.77,T,-299.13,M,002.106,N,003.901,K,D*02
$GPGGA,083516.85,5703.2913736,N,00951.8598738,E,2,10,0.9,-1.270,M,40.593,M,3.1,0123*6A
$GPVTG,341.70,T,-298.20,M,002.125,N,003.935,K,D*03
$GPGGA,083516.90,5703.2914011,N,00951.8598563,E,2,10,0.9,-1.267,M,40.593,M,3.1,0123*61
$GPVTG,342.59,T,-297.31,M,002.145,N,003.972,K,D*01
$GPGGA,083516.95,5703.2914289,N,00951.8598411,E,2,10,0.9,-1.267,M,40.593,M,3.1,0123*63
$GPVTG,343.83,T,-296.07,M,002.160,N,004.000,K,D*0F
$GPGGA,083517.00,5703.2914570,N,00951.8598261,E,2,10,0.9,-1.269,M,40.593,M,3.1,0123*60
$GPVTG,344.85,T,-295.06,M,002.175,N,004.028,K,D*02
$GPGGA,083517.05,5703.2914856,N,00951.8598133,E,2,10,0.9,-1.270,M,40.593,M,3.3,0123*62
$GPVTG,346.12,T,-293.78,M,002.196,N,004.067,K,D*07
$GPGGA,083517.10,5703.2915147,N,00951.8598014,E,2,10,0.9,-1.272,M,40.593,M,3.3,0123*68
$GPVTG,347.43,T,-292.47,M,002.212,N,004.096,K,D*0E
$GPGGA,083517.15,5703.2915437,N,00951.8597916,E,2,10,0.9,-1.276,M,40.593,M,3.3,0123*6F
$GPVTG,348.92,T,-290.98,M,002.219,N,004.110,K,D*09
$GPGGA,083517.20,5703.2915730,N,00951.8597832,E,2,10,0.9,-1.278,M,40.593,M,3.3,0123*64
$GPVTG,350.47,T,-289.43,M,002.227,N,004.124,K,D*0C
$GPGGA,083517.25,5703.2916027,N,00951.8597760,E,2,10,0.9,-1.285,M,40.593,M,3.5,0123*6F
$GPVTG,352.10,T,-287.80,M,002.249,N,004.165,K,D*00
$GPGGA,083517.30,5703.2916338,N,00951.8597701,E,2,10,0.9,-1.285,M,40.593,M,3.5,0123*61
$GPVTG,353.62,T,-286.28,M,002.274,N,004.212,K,D*0A
$GPGGA,083517.35,5703.2916638,N,00951.8597656,E,2,10,0.9,-1.284,M,40.593,M,3.5,0123*63
$GPVTG,355.09,T,-284.81,M,002.279,N,004.220,K,D*0C
$GPGGA,083517.40,5703.2916944,N,00951.8597631,E,2,10,0.9,-1.284,M,40.593,M,3.5,0123*64
$GPVTG,356.72,T,-283.18,M,002.289,N,004.239,K,D*03
$GPGGA,083517.45,5703.2917258,N,00951.8597625,E,2,10,0.9,-1.286,M,40.593,M,3.7,0123*63
$GPVTG,358.47,T,-281.43,M,002.310,N,004.279,K,D*02
$GPGGA,083517.50,5703.2917568,N,00951.8597629,E,2,10,0.9,-1.286,M,40.593,M,3.7,0123*6F
$GPVTG,000.05,T,-639.85,M,002.321,N,004.298,K,D*0A
$GPGGA,083517.55,5703.2917877,N,00951.8597643,E,2,10,0.9,-1.286,M,40.593,M,3.7,0123*65
$GPVTG,001.50,T,-638.40,M,002.327,N,004.309,K,D*0C
$GPGGA,083517.60,5703.2918193,N,00951.8597674,E,2,10,0.9,-1.284,M,40.593,M,3.7,0123*69
$GPVTG,003.00,T,-636.90,M,002.342,N,004.338,K,D*09
$GPGGA,083517.65,5703.2918501,N,00951.8597724,E,2,10,0.9,-1.286,M,40.593,M,3.9,0123*6B
$GPVTG,004.63,T,-635.27,M,002.352,N,004.357,K,D*0C
$GPGGA,083517.70,5703.2918806,N,00951.8597782,E,2,10,0.9,-1.285,M,40.593,M,3.9,0123*6A
$GPVTG,006.08,T,-633.82,M,002.348,N,004.348,K,D*0F
$GPGGA,083517.75,5703.2919125,N,00951.8597857,E,2,10,0.9,-1.284,M,40.593,M,3.9,0123*60
$GPVTG,007.51,T,-632.39,M,002.366,N,004.381,K,D*0A
$GPGGA,083517.80,5703.2919435,N,00951.8597938,E,2,10,0.9,-1.280,M,40.593,M,3.9,0123*62
$GPVTG,008.78,T,-631.12,M,002.368,N,004.385,K,D*0E
$GPGGA,083517.85,5703.2919741,N,00951.8598031,E,2,10,0.9,-1.280,M,40.593,M,4.1,0123*67
$GPVTG,010.03,T,-629.87,M,002.368,N,004.385,K,D*0E

