$GPGGA,081852.25,5703.4283162,N,00952.1205934,E,2,9,1.2,-2.020,M,40.593,M,1.9,0123*5B\r\n
$GPGGA,081852.30,5703.4282888,N,00952.1205935,E,2,9,1.2,-2.025,M,40.593,M,1.9,0123*57\r\n
$GPGGA,081852.35,5703.4282618,N,00952.1205927,E,2,9,1.2,-2.029,M,40.593,M,1.9,0123*5A\r\n
$GPGGA,081852.40,5703.4282360,N,00952.1205916,E,2,9,1.2,-2.029,M,40.593,M,1.9,0123*50\r\n
$GPGGA,081852.45,5703.4282101,N,00952.1205901,E,2,9,1.2,-2.033,M,40.593,M,2.1,0123*56\r\n
$GPGGA,081852.50,5703.4281833,N,00952.1205878,E,2,9,1.2,-2.035,M,40.593,M,2.1,0123*50\r\n
$GPGGA,081852.55,5703.4281567,N,00952.1205870,E,2,9,1.2,-2.039,M,40.593,M,2.1,0123*5D\r\n
$GPGGA,081852.60,5703.4281306,N,00952.1205858,E,2,9,1.2,-2.038,M,40.593,M,2.1,0123*51\r\n
$GPGGA,081852.65,5703.4281043,N,00952.1205822,E,2,9,1.2,-2.031,M,40.593,M,2.3,0123*50\r\n
$GPGGA,081852.70,5703.4280776,N,00952.1205790,E,2,9,1.2,-2.027,M,40.593,M,2.3,0123*55\r\n
$GPGGA,081852.75,5703.4280512,N,00952.1205759,E,2,9,1.2,-2.022,M,40.593,M,2.3,0123*50\r\n
$GPGGA,081852.80,5703.4280244,N,00952.1205751,E,2,9,1.2,-2.017,M,40.593,M,2.3,0123*50\r\n
$GPGGA,081852.85,5703.4279978,N,00952.1205720,E,2,9,1.2,-2.019,M,40.593,M,2.6,0123*5A\r\n
$GPGGA,081852.90,5703.4279709,N,00952.1205691,E,2,9,1.2,-2.015,M,40.593,M,2.6,0123*51\r\n
$GPGGA,081852.95,5703.4279437,N,00952.1205670,E,2,9,1.2,-2.014,M,40.593,M,2.6,0123*54\r\n
$GPGGA,081853.00,5703.4279173,N,00952.1205652,E,2,9,1.2,-2.016,M,40.593,M,2.6,0123*5E\r\n
$GPGGA,081853.05,5703.4278925,N,00952.1205638,E,2,9,1.2,-2.010,M,40.593,M,2.8,0123*55\r\n
$GPGGA,081853.10,5703.4278668,N,00952.1205623,E,2,9,1.2,-2.009,M,40.593,M,2.8,0123*55\r\n
$GPGGA,081853.15,5703.4278388,N,00952.1205627,E,2,9,1.2,-2.011,M,40.593,M,2.8,0123*56\r\n
$GPGGA,081853.20,5703.4278135,N,00952.1205638,E,2,9,1.2,-2.010,M,40.593,M,2.8,0123*5B\r\n
$GPGGA,081853.25,5703.4277875,N,00952.1205633,E,2,9,1.2,-2.004,M,40.593,M,2.0,0123*5A\r\n
$GPGGA,081853.30,5703.4277621,N,00952.1205638,E,2,9,1.2,-2.004,M,40.593,M,2.0,0123*5A\r\n
$GPGGA,081853.35,5703.4277365,N,00952.1205636,E,2,9,1.2,-2.003,M,40.593,M,2.0,0123*53\r\n
$GPGGA,081853.40,5703.4277113,N,00952.1205639,E,2,9,1.2,-2.004,M,40.593,M,2.0,0123*5A\r\n
$GPGGA,081853.45,5703.4276839,N,00952.1205654,E,2,9,1.2,-2.016,M,40.593,M,2.2,0123*55\r\n
$GPGGA,081853.50,5703.4276558,N,00952.1205639,E,2,9,1.2,-2.020,M,40.593,M,2.2,0123*55\r\n
$GPGGA,081853.55,5703.4276284,N,00952.1205629,E,2,9,1.2,-2.022,M,40.593,M,2.2,0123*55\r\n
$GPGGA,081853.60,5703.4276009,N,00952.1205614,E,2,9,1.2,-2.024,M,40.593,M,2.2,0123*5C\r\n
$GPGGA,081853.65,5703.4275727,N,00952.1205604,E,2,9,1.2,-2.027,M,40.593,M,2.4,0123*55\r\n
$GPGGA,081853.70,5703.4275453,N,00952.1205588,E,2,9,1.2,-2.029,M,40.593,M,2.4,0123*58\r\n
$GPGGA,081853.75,5703.4275193,N,00952.1205555,E,2,9,1.2,-2.028,M,40.593,M,2.4,0123*55\r\n
$GPGGA,081853.80,5703.4274926,N,00952.1205523,E,2,9,1.2,-2.024,M,40.593,M,2.4,0123*55\r\n
$GPGGA,081853.85,5703.4274680,N,00952.1205526,E,2,9,1.2,-2.029,M,40.593,M,2.7,0123*58\r\n
$GPGGA,081853.90,5703.4274420,N,00952.1205532,E,2,9,1.2,-2.027,M,40.593,M,2.7,0123*5F\r\n
$GPGGA,081853.95,5703.4274139,N,00952.1205539,E,2,9,1.2,-2.026,M,40.593,M,2.7,0123*5D\r\n
$GPGGA,081854.00,5703.4273885,N,00952.1205534,E,2,9,1.2,-2.025,M,40.593,M,2.7,0123*51\r\n
$GPGGA,081854.05,5703.4273642,N,00952.1205523,E,2,9,1.2,-2.016,M,40.593,M,2.9,0123*59\r\n
$GPGGA,081854.10,5703.4273385,N,00952.1205529,E,2,9,1.2,-2.017,M,40.593,M,2.9,0123*58\r\n
$GPGGA,081854.15,5703.4273134,N,00952.1205534,E,2,9,1.2,-2.016,M,40.593,M,2.9,0123*58\r\n
$GPGGA,081854.20,5703.4272865,N,00952.1205523,E,2,9,1.2,-2.012,M,40.593,M,2.9,0123*50\r\n
$GPGGA,081854.25,5703.4272592,N,00952.1205527,E,2,9,1.2,-2.011,M,40.593,M,3.1,0123*5E\r\n
$GPGGA,081854.30,5703.4272319,N,00952.1205537,E,2,9,1.2,-2.012,M,40.593,M,3.1,0123*5D\r\n
$GPGGA,081854.35,5703.4272055,N,00952.1205516,E,2,9,1.2,-2.012,M,40.593,M,3.1,0123*50\r\n
$GPGGA,081854.40,5703.4271772,N,00952.1205516,E,2,9,1.2,-2.015,M,40.593,M,3.1,0123*54\r\n
$GPGGA,081854.45,5703.4271505,N,00952.1205516,E,2,9,1.2,-2.020,M,40.593,M,3.3,0123*57\r\n
$GPGGA,081854.50,5703.4271241,N,00952.1205490,E,2,9,1.2,-2.018,M,40.593,M,3.3,0123*50\r\n
$GPGGA,081854.55,5703.4270971,N,00952.1205456,E,2,9,1.2,-2.016,M,40.593,M,3.3,0123*58\r\n
$GPGGA,081854.60,5703.4270705,N,00952.1205426,E,2,9,1.2,-2.014,M,40.593,M,3.3,0123*56\r\n
$GPGGA,081854.65,5703.4270436,N,00952.1205384,E,2,9,1.2,-2.004,M,40.593,M,3.5,0123*58\r\n
$GPGGA,081854.70,5703.4270147,N,00952.1205364,E,2,9,1.2,-2.004,M,40.593,M,3.5,0123*51\r\n
$GPGGA,081854.75,5703.4269862,N,00952.1205350,E,2,9,1.2,-2.009,M,40.593,M,3.5,0123*58\r\n
$GPGGA,081854.80,5703.4269611,N,00952.1205348,E,2,9,1.2,-2.009,M,40.593,M,3.5,0123*51\r\n
$GPGGA,081854.85,5703.4269336,N,00952.1205358,E,2,9,1.2,-2.021,M,40.593,M,3.7,0123*5D\r\n
$GPGGA,081854.90,5703.4269069,N,00952.1205354,E,2,9,1.2,-2.023,M,40.593,M,3.7,0123*5E\r\n
$GPGGA,081854.95,5703.4268817,N,00952.1205368,E,2,9,1.2,-2.023,M,40.593,M,3.7,0123*54\r\n
$GPGGA,081855.00,5703.4268556,N,00952.1205373,E,2,9,1.2,-2.024,M,40.593,M,3.7,0123*5C\r\n
$GPGGA,081855.05,5703.4268303,N,00952.1205359,E,2,9,1.2,-2.009,M,40.593,M,3.9,0123*56\r\n
$GPGGA,081855.10,5703.4268030,N,00952.1205383,E,2,9,1.2,-2.009,M,40.593,M,3.9,0123*56\r\n
$GPGGA,081855.15,5703.4267757,N,00952.1205391,E,2,9,1.2,-2.011,M,40.593,M,3.9,0123*50\r\n
$GPGGA,081855.20,5703.4267493,N,00952.1205392,E,2,9,1.2,-2.011,M,40.593,M,3.9,0123*5E\r\n
$GPGGA,081855.25,5703.4267241,N,00952.1205395,E,2,9,1.2,-2.013,M,40.593,M,2.1,0123*5E\r\n
$GPGGA,081855.30,5703.4266987,N,00952.1205395,E,2,9,1.2,-2.011,M,40.593,M,2.1,0123*58\r\n
$GPGGA,081855.35,5703.4266727,N,00952.1205379,E,2,9,1.2,-2.010,M,40.593,M,2.1,0123*5A\r\n
$GPGGA,081855.40,5703.4266456,N,00952.1205362,E,2,9,1.2,-2.009,M,40.593,M,2.1,0123*5F\r\n
$GPGGA,081855.45,5703.4266178,N,00952.1205352,E,2,9,1.2,-2.011,M,40.593,M,2.4,0123*5C\r\n
$GPGGA,081855.50,5703.4265908,N,00952.1205353,E,2,9,1.2,-2.010,M,40.593,M,2.4,0123*54\r\n
$GPGGA,081855.55,5703.4265644,N,00952.1205346,E,2,9,1.2,-2.009,M,40.593,M,2.4,0123*5A\r\n
$GPGGA,081855.60,5703.4265366,N,00952.1205341,E,2,9,1.2,-2.007,M,40.593,M,2.4,0123*50\r\n
$GPGGA,081855.65,5703.4265090,N,00952.1205330,E,2,9,1.2,-2.008,M,40.593,M,2.6,0123*54\r\n
$GPGGA,081855.70,5703.4264829,N,00952.1205318,E,2,9,1.2,-2.010,M,40.593,M,2.6,0123*58\r\n
$GPGGA,081855.75,5703.4264567,N,00952.1205317,E,2,9,1.2,-2.010,M,40.593,M,2.6,0123*55\r\n
$GPGGA,081855.80,5703.4264295,N,00952.1205324,E,2,9,1.2,-2.012,M,40.593,M,2.6,0123*57\r\n
$GPGGA,081855.85,5703.4264042,N,00952.1205304,E,2,9,1.2,-2.010,M,40.593,M,2.9,0123*55\r\n
$GPGGA,081855.90,5703.4263761,N,00952.1205301,E,2,9,1.2,-2.010,M,40.593,M,2.9,0123*55\r\n
$GPGGA,081855.95,5703.4263489,N,00952.1205301,E,2,9,1.2,-2.009,M,40.593,M,2.9,0123*5D\r\n
$GPGGA,081856.00,5703.4263222,N,00952.1205300,E,2,9,1.2,-2.008,M,40.593,M,2.9,0123*55\r\n
$GPGGA,081856.05,5703.4262947,N,00952.1205309,E,2,9,1.2,-2.010,M,40.593,M,3.1,0123*50\r\n
$GPGGA,081856.10,5703.4262680,N,00952.1205329,E,2,9,1.2,-2.014,M,40.593,M,3.1,0123*56\r\n
$GPGGA,081856.15,5703.4262423,N,00952.1205325,E,2,9,1.2,-2.016,M,40.593,M,3.1,0123*56\r\n
$GPGGA,081856.20,5703.4262165,N,00952.1205320,E,2,9,1.2,-2.015,M,40.593,M,3.1,0123*51\r\n
$GPGGA,081856.25,5703.4261911,N,00952.1205315,E,2,9,1.2,-2.013,M,40.593,M,1.9,0123*56\r\n
$GPGGA,081856.30,5703.4261634,N,00952.1205316,E,2,9,1.2,-2.015,M,40.593,M,1.9,0123*5F\r\n
$GPGGA,081856.35,5703.4261361,N,00952.1205318,E,2,9,1.2,-2.012,M,40.593,M,1.9,0123*56\r\n
$GPGGA,081856.40,5703.4261088,N,00952.1205332,E,2,9,1.2,-2.011,M,40.593,M,1.9,0123*5B\r\n
$GPGGA,081856.45,5703.4260819,N,00952.1205333,E,2,9,1.2,-2.013,M,40.593,M,2.1,0123*57\r\n
$GPGGA,081856.50,5703.4260549,N,00952.1205346,E,2,9,1.2,-2.012,M,40.593,M,2.1,0123*58\r\n
$GPGGA,081856.55,5703.4260279,N,00952.1205367,E,2,9,1.2,-2.012,M,40.593,M,2.1,0123*5A\r\n
$GPGGA,081856.60,5703.4259992,N,00952.1205340,E,2,9,1.2,-2.013,M,40.593,M,2.1,0123*5C\r\n
$GPGGA,081856.65,5703.4259710,N,00952.1205321,E,2,9,1.2,-2.009,M,40.593,M,2.3,0123*53\r\n
$GPGGA,081856.70,5703.4259436,N,00952.1205312,E,2,9,1.2,-2.009,M,40.593,M,2.3,0123*50\r\n
$GPGGA,081856.75,5703.4259156,N,00952.1205315,E,2,9,1.2,-2.008,M,40.593,M,2.3,0123*50\r\n
$GPGGA,081856.80,5703.4258899,N,00952.1205320,E,2,9,1.2,-2.003,M,40.593,M,2.3,0123*5C\r\n
$GPGGA,081856.85,5703.4258642,N,00952.1205333,E,2,9,1.2,-2.004,M,40.593,M,2.6,0123*51\r\n
$GPGGA,081856.90,5703.4258365,N,00952.1205329,E,2,9,1.2,-2.005,M,40.593,M,2.6,0123*5F\r\n
$GPGGA,081856.95,5703.4258080,N,00952.1205326,E,2,9,1.2,-2.007,M,40.593,M,2.6,0123*5F\r\n
$GPGGA,081857.00,5703.4257789,N,00952.1205334,E,2,9,1.2,-2.009,M,40.593,M,2.6,0123*5E\r\n
$GPGGA,081857.05,5703.4257507,N,00952.1205320,E,2,9,1.2,-2.011,M,40.593,M,2.8,0123*5D\r\n
$GPGGA,081857.10,5703.4257239,N,00952.1205313,E,2,9,1.2,-2.010,M,40.593,M,2.8,0123*52\r\n
$GPGGA,081857.15,5703.4256960,N,00952.1205320,E,2,9,1.2,-2.009,M,40.593,M,2.8,0123*59\r\n
$GPGGA,081857.20,5703.4256683,N,00952.1205332,E,2,9,1.2,-2.009,M,40.593,M,2.8,0123*5E\r\n
$GPGGA,081857.25,5703.4256435,N,00952.1205334,E,2,9,1.2,-2.001,M,40.593,M,2.0,0123*52\r\n
$GPGGA,081857.30,5703.4256172,N,00952.1205326,E,2,9,1.2,-2.000,M,40.593,M,2.0,0123*52\r\n
$GPGGA,081857.35,5703.4255904,N,00952.1205323,E,2,9,1.2,-1.999,M,40.593,M,2.0,0123*52\r\n
$GPGGA,081857.40,5703.4255623,N,00952.1205317,E,2,9,1.2,-2.000,M,40.593,M,2.0,0123*57\r\n
$GPGGA,081857.45,5703.4255351,N,00952.1205330,E,2,9,1.2,-2.003,M,40.593,M,2.2,0123*56\r\n
$GPGGA,081857.50,5703.4255069,N,00952.1205342,E,2,9,1.2,-2.003,M,40.593,M,2.2,0123*5F\r\n
$GPGGA,081857.55,5703.4254808,N,00952.1205335,E,2,9,1.2,-2.001,M,40.593,M,2.2,0123*56\r\n
$GPGGA,081857.60,5703.4254522,N,00952.1205318,E,2,9,1.2,-2.001,M,40.593,M,2.2,0123*5A\r\n
$GPGGA,081857.65,5703.4254226,N,00952.1205308,E,2,9,1.2,-2.002,M,40.593,M,2.4,0123*58\r\n
$GPGGA,081857.70,5703.4253949,N,00952.1205296,E,2,9,1.2,-2.004,M,40.593,M,2.4,0123*59\r\n
$GPGGA,081857.75,5703.4253670,N,00952.1205279,E,2,9,1.2,-2.005,M,40.593,M,2.4,0123*59\r\n
$GPGGA,081857.80,5703.4253382,N,00952.1205267,E,2,9,1.2,-2.005,M,40.593,M,2.4,0123*54\r\n
$GPGGA,081857.85,5703.4253109,N,00952.1205241,E,2,9,1.2,-2.003,M,40.593,M,2.7,0123*51\r\n
$GPGGA,081857.90,5703.4252844,N,00952.1205234,E,2,9,1.2,-2.000,M,40.593,M,2.7,0123*55\r\n
$GPGGA,081857.95,5703.4252571,N,00952.1205231,E,2,9,1.2,-2.000,M,40.593,M,2.7,0123*5E\r\n
$GPGGA,081858.00,5703.4252282,N,00952.1205243,E,2,9,1.2,-2.001,M,40.593,M,2.7,0123*52\r\n
$GPGGA,081858.05,5703.4252004,N,00952.1205248,E,2,9,1.2,-2.005,M,40.593,M,2.9,0123*5A\r\n
$GPGGA,081858.10,5703.4251714,N,00952.1205247,E,2,9,1.2,-2.009,M,40.593,M,2.9,0123*58\r\n
$GPGGA,081858.15,5703.4251443,N,00952.1205226,E,2,9,1.2,-2.010,M,40.593,M,2.9,0123*53\r\n
$GPGGA,081858.20,5703.4251173,N,00952.1205208,E,2,9,1.2,-2.008,M,40.593,M,2.9,0123*56\r\n
$GPGGA,081858.25,5703.4250914,N,00952.1205178,E,2,9,1.2,-2.001,M,40.593,M,3.1,0123*5F\r\n
$GPGGA,081858.30,5703.4250634,N,00952.1205171,E,2,9,1.2,-2.002,M,40.593,M,3.1,0123*5C\r\n
$GPGGA,081858.35,5703.4250337,N,00952.1205156,E,2,9,1.2,-2.002,M,40.593,M,3.1,0123*5A\r\n
$GPGGA,081858.40,5703.4250054,N,00952.1205145,E,2,9,1.2,-2.001,M,40.593,M,3.1,0123*5F\r\n
$GPGGA,081858.45,5703.4249778,N,00952.1205143,E,2,9,1.2,-2.004,M,40.593,M,3.3,0123*5A\r\n
$GPGGA,081858.50,5703.4249488,N,00952.1205142,E,2,9,1.2,-2.005,M,40.593,M,3.3,0123*52\r\n
$GPGGA,081858.55,5703.4249201,N,00952.1205119,E,2,9,1.2,-2.003,M,40.593,M,3.3,0123*58\r\n
$GPGGA,081858.60,5703.4248900,N,00952.1205094,E,2,9,1.2,-2.002,M,40.593,M,3.3,0123*50\r\n
$GPGGA,081858.65,5703.4248606,N,00952.1205076,E,2,9,1.2,-1.998,M,40.593,M,3.5,0123*5F\r\n
$GPGGA,081858.70,5703.4248310,N,00952.1205041,E,2,9,1.2,-1.997,M,40.593,M,3.5,0123*52\r\n
$GPGGA,081858.75,5703.4248011,N,00952.1205017,E,2,9,1.2,-1.993,M,40.593,M,3.5,0123*52\r\n
$GPGGA,081858.80,5703.4247702,N,00952.1204993,E,2,9,1.2,-1.990,M,40.593,M,3.5,0123*55\r\n
$GPGGA,081858.85,5703.4247406,N,00952.1204969,E,2,9,1.2,-1.990,M,40.593,M,3.7,0123*50\r\n
$GPGGA,081858.90,5703.4247098,N,00952.1204939,E,2,9,1.2,-1.988,M,40.593,M,3.7,0123*5B\r\n
$GPGGA,081858.95,5703.4246775,N,00952.1204913,E,2,9,1.2,-1.988,M,40.593,M,3.7,0123*53\r\n
$GPGGA,081859.00,5703.4246456,N,00952.1204889,E,2,9,1.2,-1.987,M,40.593,M,3.7,0123*51\r\n
$GPGGA,081859.05,5703.4246144,N,00952.1204856,E,2,9,1.2,-1.980,M,40.593,M,3.9,0123*59\r\n
$GPGGA,081859.10,5703.4245817,N,00952.1204851,E,2,9,1.2,-1.978,M,40.593,M,3.9,0123*51\r\n
$GPGGA,081859.15,5703.4245488,N,00952.1204844,E,2,9,1.2,-1.976,M,40.593,M,3.9,0123*54\r\n
$GPGGA,081859.20,5703.4245139,N,00952.1204853,E,2,9,1.2,-1.972,M,40.593,M,3.9,0123*5F\r\n
$GPGGA,081859.25,5703.4244803,N,00952.1204862,E,2,9,1.2,-1.968,M,40.593,M,2.0,0123*5A\r\n
$GPGGA,081859.30,5703.4244459,N,00952.1204870,E,2,9,1.2,-1.967,M,40.593,M,2.0,0123*51\r\n
$GPGGA,081859.35,5703.4244109,N,00952.1204871,E,2,9,1.2,-1.964,M,40.593,M,2.0,0123*56\r\n
$GPGGA,081859.40,5703.4243742,N,00952.1204907,E,2,9,1.2,-1.961,M,40.593,M,2.0,0123*5F\r\n
$GPGGA,081859.45,5703.4243359,N,00952.1204951,E,2,9,1.2,-1.961,M,40.593,M,2.3,0123*54\r\n
$GPGGA,081859.50,5703.4242981,N,00952.1204962,E,2,9,1.2,-1.957,M,40.593,M,2.3,0123*5B\r\n
$GPGGA,081859.55,5703.4242597,N,00952.1204985,E,2,9,1.2,-1.957,M,40.593,M,2.3,0123*5C\r\n
$GPGGA,081859.60,5703.4242200,N,00952.1204999,E,2,9,1.2,-1.953,M,40.593,M,2.3,0123*5A\r\n
$GPGGA,081859.65,5703.4241790,N,00952.1205009,E,2,9,1.2,-1.950,M,40.593,M,2.5,0123*54\r\n
$GPGGA,081859.70,5703.4241376,N,00952.1205030,E,2,9,1.2,-1.948,M,40.593,M,2.5,0123*5F\r\n
$GPGGA,081859.75,5703.4240948,N,00952.1205044,E,2,9,1.2,-1.948,M,40.593,M,2.5,0123*5F\r\n
$GPGGA,081859.80,5703.4240516,N,00952.1205052,E,2,9,1.2,-1.944,M,40.593,M,2.5,0123*59\r\n
$GPGGA,081859.85,5703.4240066,N,00952.1205057,E,2,9,1.2,-1.944,M,40.593,M,2.7,0123*59\r\n
$GPGGA,081859.90,5703.4239615,N,00952.1205070,E,2,9,1.2,-1.947,M,40.593,M,2.7,0123*57\r\n
$GPGGA,081859.95,5703.4239166,N,00952.1205084,E,2,9,1.2,-1.947,M,40.593,M,2.7,0123*5A\r\n
$GPGGA,081900.00,5703.4238702,N,00952.1205112,E,2,9,1.2,-1.949,M,40.593,M,2.7,0123*5E\r\n
$GPGGA,081900.05,5703.4238230,N,00952.1205149,E,2,9,1.2,-1.949,M,40.593,M,3.0,0123*57\r\n
$GPGGA,081900.10,5703.4237757,N,00952.1205174,E,2,9,1.2,-1.948,M,40.593,M,3.0,0123*57\r\n
$GPGGA,081900.15,5703.4237275,N,00952.1205202,E,2,9,1.2,-1.946,M,40.593,M,3.0,0123*5B\r\n
$GPGGA,081900.20,5703.4236792,N,00952.1205218,E,2,9,1.2,-1.948,M,40.593,M,3.0,0123*55\r\n
$GPGGA,081900.25,5703.4236313,N,00952.1205230,E,2,9,1.2,-1.942,M,40.593,M,2.0,0123*5C\r\n
$GPGGA,081900.30,5703.4235814,N,00952.1205260,E,2,9,1.2,-1.941,M,40.593,M,2.0,0123*51\r\n
$GPGGA,081900.35,5703.4235292,N,00952.1205281,E,2,9,1.2,-1.940,M,40.593,M,2.0,0123*5E\r\n
$GPGGA,081900.40,5703.4234766,N,00952.1205308,E,2,9,1.2,-1.941,M,40.593,M,2.0,0123*52\r\n
$GPGGA,081900.45,5703.4234253,N,00952.1205327,E,2,9,1.2,-1.934,M,40.593,M,2.2,0123*59\r\n
$GPGGA,081900.50,5703.4233732,N,00952.1205353,E,2,9,1.2,-1.931,M,40.593,M,2.2,0123*5E\r\n
$GPGGA,081900.55,5703.4233205,N,00952.1205376,E,2,9,1.2,-1.930,M,40.593,M,2.2,0123*5C\r\n
$GPGGA,081900.60,5703.4232669,N,00952.1205401,E,2,9,1.2,-1.934,M,40.593,M,2.2,0123*56\r\n
$GPGGA,081900.65,5703.4232128,N,00952.1205422,E,2,9,1.2,-1.933,M,40.593,M,2.5,0123*50\r\n
$GPGGA,081900.70,5703.4231568,N,00952.1205447,E,2,9,1.2,-1.935,M,40.593,M,2.5,0123*52\r\n
$GPGGA,081900.75,5703.4230999,N,00952.1205469,E,2,9,1.2,-1.937,M,40.593,M,2.5,0123*5A\r\n
$GPGGA,081900.80,5703.4230435,N,00952.1205461,E,2,9,1.2,-1.938,M,40.593,M,2.5,0123*5C\r\n
$GPGGA,081900.85,5703.4229883,N,00952.1205435,E,2,9,1.2,-1.935,M,40.593,M,2.7,0123*5E\r\n
$GPGGA,081900.90,5703.4229328,N,00952.1205395,E,2,9,1.2,-1.937,M,40.593,M,2.7,0123*5F\r\n
$GPGGA,081900.95,5703.4228761,N,00952.1205355,E,2,9,1.2,-1.939,M,40.593,M,2.7,0123*50\r\n
$GPGGA,081901.00,5703.4228165,N,00952.1205324,E,2,9,1.2,-1.943,M,40.593,M,2.7,0123*54\r\n
$GPGGA,081901.05,5703.4227579,N,00952.1205273,E,2,9,1.2,-1.934,M,40.593,M,2.9,0123*5A\r\n
$GPGGA,081901.10,5703.4226986,N,00952.1205220,E,2,9,1.2,-1.937,M,40.593,M,2.9,0123*56\r\n
$GPGGA,081901.15,5703.4226399,N,00952.1205144,E,2,9,1.2,-1.940,M,40.593,M,2.9,0123*56\r\n
$GPGGA,081901.20,5703.4225814,N,00952.1205056,E,2,9,1.2,-1.941,M,40.593,M,2.9,0123*5E\r\n
$GPGGA,081901.25,5703.4225217,N,00952.1204966,E,2,9,1.2,-1.935,M,40.593,M,2.0,0123*53\r\n
$GPGGA,081901.30,5703.4224630,N,00952.1204898,E,2,9,1.2,-1.936,M,40.593,M,2.0,0123*54\r\n
$GPGGA,081901.35,5703.4224028,N,00952.1204835,E,2,9,1.2,-1.938,M,40.593,M,2.0,0123*57\r\n
$GPGGA,081901.40,5703.4223436,N,00952.1204749,E,2,9,1.2,-1.942,M,40.593,M,2.0,0123*50\r\n
$GPGGA,081901.45,5703.4222832,N,00952.1204655,E,2,9,1.2,-1.941,M,40.593,M,2.2,0123*51\r\n
$GPGGA,081901.50,5703.4222228,N,00952.1204557,E,2,9,1.2,-1.941,M,40.593,M,2.2,0123*55\r\n
$GPGGA,081901.55,5703.4221626,N,00952.1204418,E,2,9,1.2,-1.942,M,40.593,M,2.2,0123*50\r\n
$GPGGA,081901.60,5703.4221012,N,00952.1204282,E,2,9,1.2,-1.946,M,40.593,M,2.2,0123*56\r\n
$GPGGA,081901.65,5703.4220392,N,00952.1204133,E,2,9,1.2,-1.941,M,40.593,M,2.4,0123*51\r\n
$GPGGA,081901.70,5703.4219757,N,00952.1203987,E,2,9,1.2,-1.944,M,40.593,M,2.4,0123*57\r\n
$GPGGA,081901.75,5703.4219144,N,00952.1203821,E,2,9,1.2,-1.946,M,40.593,M,2.4,0123*59\r\n
$GPGGA,081901.80,5703.4218514,N,00952.1203647,E,2,9,1.2,-1.952,M,40.593,M,2.4,0123*58\r\n
$GPGGA,081901.85,5703.4217899,N,00952.1203457,E,2,9,1.2,-1.954,M,40.593,M,2.6,0123*5D\r\n
$GPGGA,081901.90,5703.4217273,N,00952.1203267,E,2,9,1.2,-1.958,M,40.593,M,2.6,0123*5E\r\n
$GPGGA,081901.95,5703.4216648,N,00952.1203091,E,2,9,1.2,-1.961,M,40.593,M,2.6,0123*57\r\n
$GPGGA,081902.00,5703.4215997,N,00952.1202888,E,2,9,1.2,-1.966,M,40.593,M,2.6,0123*50\r\n
$GPGGA,081902.05,5703.4215379,N,00952.1202635,E,2,9,1.2,-1.963,M,40.593,M,2.9,0123*5D\r\n
$GPGGA,081902.10,5703.4214753,N,00952.1202352,E,2,9,1.2,-1.962,M,40.593,M,2.9,0123*51\r\n
$GPGGA,081902.15,5703.4214128,N,00952.1202091,E,2,9,1.2,-1.964,M,40.593,M,2.9,0123*54\r\n
$GPGGA,081902.20,5703.4213485,N,00952.1201837,E,2,9,1.2,-1.969,M,40.593,M,2.9,0123*5D\r\n
$GPGGA,081902.25,5703.4212856,N,00952.1201537,E,2,9,1.2,-1.962,M,40.593,M,3.1,0123*54\r\n
$GPGGA,081902.30,5703.4212230,N,00952.1201222,E,2,9,1.2,-1.961,M,40.593,M,3.1,0123*5A\r\n
$GPGGA,081902.35,5703.4211582,N,00952.1200914,E,2,9,1.2,-1.957,M,40.593,M,3.1,0123*58\r\n
$GPGGA,081902.40,5703.4210943,N,00952.1200598,E,2,9,1.2,-1.954,M,40.593,M,3.1,0123*51\r\n
$GPGGA,081902.45,5703.4210302,N,00952.1200262,E,2,9,1.2,-1.958,M,40.593,M,3.3,0123*57\r\n
$GPGGA,081902.50,5703.4209661,N,00952.1199886,E,2,9,1.2,-1.958,M,40.593,M,3.3,0123*58\r\n
$GPGGA,081902.55,5703.4209023,N,00952.1199504,E,2,9,1.2,-1.956,M,40.593,M,3.3,0123*54\r\n
$GPGGA,081902.60,5703.4208375,N,00952.1199119,E,2,9,1.2,-1.956,M,40.593,M,3.3,0123*5B\r\n
$GPGGA,081902.65,5703.4207742,N,00952.1198736,E,2,9,1.2,-1.954,M,40.593,M,3.5,0123*5F\r\n
$GPGGA,081902.70,5703.4207127,N,00952.1198330,E,2,9,1.2,-1.951,M,40.593,M,3.5,0123*59\r\n
$GPGGA,081902.75,5703.4206510,N,00952.1197894,E,2,9,1.2,-1.950,M,40.593,M,3.5,0123*56\r\n
$GPGGA,081902.80,5703.4205889,N,00952.1197401,E,2,9,1.2,-1.947,M,40.593,M,3.5,0123*54\r\n
$GPGGA,081902.85,5703.4205255,N,00952.1196911,E,2,9,1.2,-1.945,M,40.593,M,3.7,0123*57\r\n
$GPGGA,081902.90,5703.4204628,N,00952.1196413,E,2,9,1.2,-1.942,M,40.593,M,3.7,0123*54\r\n
$GPGGA,081902.95,5703.4204015,N,00952.1195921,E,2,9,1.2,-1.942,M,40.593,M,3.7,0123*56\r\n
$GPGGA,081903.00,5703.4203397,N,00952.1195418,E,2,9,1.2,-1.942,M,40.593,M,3.7,0123*52\r\n
$GPGGA,081903.05,5703.4202804,N,00952.1194866,E,2,9,1.2,-1.937,M,40.593,M,3.9,0123*5F\r\n
$GPGGA,081903.10,5703.4202195,N,00952.1194318,E,2,9,1.2,-1.938,M,40.593,M,3.9,0123*57\r\n
$GPGGA,081903.15,5703.4201591,N,00952.1193757,E,2,9,1.2,-1.937,M,40.593,M,3.9,0123*56\r\n
$GPGGA,081903.20,5703.4200986,N,00952.1193176,E,2,9,1.2,-1.938,M,40.593,M,3.9,0123*51\r\n
$GPGGA,081903.25,5703.4200404,N,00952.1192565,E,2,9,1.2,-1.934,M,40.593,M,2.0,0123*50\r\n
$GPGGA,081903.30,5703.4199833,N,00952.1191944,E,2,9,1.2,-1.931,M,40.593,M,2.0,0123*56\r\n
$GPGGA,081903.35,5703.4199258,N,00952.1191333,E,2,9,1.2,-1.931,M,40.593,M,2.0,0123*5E\r\n
$GPGGA,081903.40,5703.4198694,N,00952.1190714,E,2,9,1.2,-1.929,M,40.593,M,2.0,0123*50\r\n
$GPGGA,081903.45,5703.4198125,N,00952.1190081,E,2,9,1.2,-1.922,M,40.593,M,2.3,0123*5B\r\n
$GPGGA,081903.50,5703.4197548,N,00952.1189442,E,2,9,1.2,-1.921,M,40.593,M,2.3,0123*5F\r\n
$GPGGA,081903.55,5703.4196988,N,00952.1188790,E,2,9,1.2,-1.922,M,40.593,M,2.3,0123*55\r\n
$GPGGA,081903.60,5703.4196437,N,00952.1188114,E,2,9,1.2,-1.923,M,40.593,M,2.3,0123*51\r\n
$GPGGA,081903.65,5703.4195873,N,00952.1187427,E,2,9,1.2,-1.929,M,40.593,M,2.5,0123*5D\r\n
$GPGGA,081903.70,5703.4195338,N,00952.1186744,E,2,9,1.2,-1.931,M,40.593,M,2.5,0123*53\r\n
$GPGGA,081903.75,5703.4194809,N,00952.1186038,E,2,9,1.2,-1.935,M,40.593,M,2.5,0123*56\r\n
$GPGGA,081903.80,5703.4194295,N,00952.1185303,E,2,9,1.2,-1.936,M,40.593,M,2.5,0123*58\r\n
$GPGGA,081903.85,5703.4193774,N,00952.1184559,E,2,9,1.2,-1.933,M,40.593,M,2.7,0123*5F\r\n
$GPGGA,081903.90,5703.4193245,N,00952.1183809,E,2,9,1.2,-1.935,M,40.593,M,2.7,0123*55\r\n
$GPGGA,081903.95,5703.4192726,N,00952.1183056,E,2,9,1.2,-1.934,M,40.593,M,2.7,0123*52\r\n
$GPGGA,081904.00,5703.4192228,N,00952.1182298,E,2,9,1.2,-1.934,M,40.593,M,2.7,0123*53\r\n
$GPGGA,081904.05,5703.4191734,N,00952.1181534,E,2,9,1.2,-1.944,M,40.593,M,3.0,0123*5E\r\n
$GPGGA,081904.10,5703.4191248,N,00952.1180747,E,2,9,1.2,-1.945,M,40.593,M,3.0,0123*52\r\n
$GPGGA,081904.15,5703.4190763,N,00952.1179940,E,2,9,1.2,-1.945,M,40.593,M,3.0,0123*55\r\n
$GPGGA,081904.20,5703.4190287,N,00952.1179143,E,2,9,1.2,-1.945,M,40.593,M,3.0,0123*57\r\n
$GPGGA,081904.25,5703.4189805,N,00952.1178334,E,2,9,1.2,-1.951,M,40.593,M,2.0,0123*5D\r\n
$GPGGA,081904.30,5703.4189341,N,00952.1177481,E,2,9,1.2,-1.952,M,40.593,M,2.0,0123*57\r\n
$GPGGA,081904.35,5703.4188868,N,00952.1176649,E,2,9,1.2,-1.955,M,40.593,M,2.0,0123*53\r\n
$GPGGA,081904.40,5703.4188400,N,00952.1175794,E,2,9,1.2,-1.955,M,40.593,M,2.0,0123*51\r\n
$GPGGA,081904.45,5703.4187965,N,00952.1174913,E,2,9,1.2,-1.952,M,40.593,M,2.2,0123*50\r\n
$GPGGA,081904.50,5703.4187534,N,00952.1174029,E,2,9,1.2,-1.953,M,40.593,M,2.2,0123*5D\r\n
$GPGGA,081904.55,5703.4187090,N,00952.1173123,E,2,9,1.2,-1.953,M,40.593,M,2.2,0123*5F\r\n
$GPGGA,081904.60,5703.4186660,N,00952.1172209,E,2,9,1.2,-1.954,M,40.593,M,2.2,0123*5C\r\n
$GPGGA,081904.65,5703.4186236,N,00952.1171290,E,2,9,1.2,-1.957,M,40.593,M,2.5,0123*59\r\n
$GPGGA,081904.70,5703.4185809,N,00952.1170372,E,2,9,1.2,-1.955,M,40.593,M,2.5,0123*56\r\n
$GPGGA,081904.75,5703.4185375,N,00952.1169432,E,2,9,1.2,-1.954,M,40.593,M,2.5,0123*59\r\n
$GPGGA,081904.80,5703.4184960,N,00952.1168486,E,2,9,1.2,-1.953,M,40.593,M,2.5,0123*55\r\n
$GPGGA,081904.85,5703.4184558,N,00952.1167531,E,2,9,1.2,-1.956,M,40.593,M,2.7,0123*52\r\n
$GPGGA,081904.90,5703.4184159,N,00952.1166563,E,2,9,1.2,-1.953,M,40.593,M,2.7,0123*50\r\n
$GPGGA,081904.95,5703.4183765,N,00952.1165581,E,2,9,1.2,-1.952,M,40.593,M,2.7,0123*55\r\n
$GPGGA,081905.00,5703.4183387,N,00952.1164584,E,2,9,1.2,-1.949,M,40.593,M,2.7,0123*5E\r\n
$GPGGA,081905.05,5703.4183011,N,00952.1163586,E,2,9,1.2,-1.948,M,40.593,M,2.9,0123*5D\r\n
$GPGGA,081905.10,5703.4182630,N,00952.1162609,E,2,9,1.2,-1.947,M,40.593,M,2.9,0123*57\r\n
$GPGGA,081905.15,5703.4182258,N,00952.1161595,E,2,9,1.2,-1.943,M,40.593,M,2.9,0123*59\r\n
$GPGGA,081905.20,5703.4181911,N,00952.1160559,E,2,9,1.2,-1.935,M,40.593,M,2.9,0123*5A\r\n
$GPGGA,081905.25,5703.4181574,N,00952.1159522,E,2,9,1.2,-1.933,M,40.593,M,2.0,0123*59\r\n
$GPGGA,081905.30,5703.4181235,N,00952.1158483,E,2,9,1.2,-1.930,M,40.593,M,2.0,0123*57\r\n
$GPGGA,081905.35,5703.4180889,N,00952.1157452,E,2,9,1.2,-1.929,M,40.593,M,2.0,0123*55\r\n
$GPGGA,081905.40,5703.4180555,N,00952.1156407,E,2,9,1.2,-1.929,M,40.593,M,2.0,0123*5A\r\n
$GPGGA,081905.45,5703.4180220,N,00952.1155359,E,2,9,1.2,-1.937,M,40.593,M,2.2,0123*58\r\n
$GPGGA,081905.50,5703.4179902,N,00952.1154283,E,2,9,1.2,-1.937,M,40.593,M,2.2,0123*56\r\n
$GPGGA,081905.55,5703.4179599,N,00952.1153218,E,2,9,1.2,-1.935,M,40.593,M,2.2,0123*5A\r\n
$GPGGA,081905.60,5703.4179310,N,00952.1152142,E,2,9,1.2,-1.935,M,40.593,M,2.2,0123*56\r\n
$GPGGA,081905.65,5703.4179035,N,00952.1151062,E,2,9,1.2,-1.931,M,40.593,M,2.4,0123*55\r\n
$GPGGA,081905.70,5703.4178743,N,00952.1149989,E,2,9,1.2,-1.930,M,40.593,M,2.4,0123*52\r\n
$GPGGA,081905.75,5703.4178468,N,00952.1148898,E,2,9,1.2,-1.930,M,40.593,M,2.4,0123*5D\r\n
$GPGGA,081905.80,5703.4178197,N,00952.1147793,E,2,9,1.2,-1.930,M,40.593,M,2.4,0123*59\r\n
$GPGGA,081905.85,5703.4177923,N,00952.1146696,E,2,9,1.2,-1.938,M,40.593,M,2.6,0123*5B\r\n
$GPGGA,081905.90,5703.4177678,N,00952.1145586,E,2,9,1.2,-1.938,M,40.593,M,2.6,0123*5F\r\n
$GPGGA,081905.95,5703.4177443,N,00952.1144482,E,2,9,1.2,-1.940,M,40.593,M,2.6,0123*5B\r\n
$GPGGA,081906.00,5703.4177229,N,00952.1143358,E,2,9,1.2,-1.940,M,40.593,M,2.6,0123*59\r\n
$GPGGA,081906.05,5703.4177034,N,00952.1142205,E,2,9,1.2,-1.938,M,40.593,M,2.9,0123*5A\r\n
$GPGGA,081906.10,5703.4176827,N,00952.1141074,E,2,9,1.2,-1.938,M,40.593,M,2.9,0123*52\r\n
$GPGGA,081906.15,5703.4176623,N,00952.1139947,E,2,9,1.2,-1.938,M,40.593,M,2.9,0123*5B\r\n
$GPGGA,081906.20,5703.4176422,N,00952.1138830,E,2,9,1.2,-1.937,M,40.593,M,2.9,0123*51\r\n
$GPGGA,081906.25,5703.4176249,N,00952.1137709,E,2,9,1.2,-1.938,M,40.593,M,3.1,0123*53\r\n
$GPGGA,081906.30,5703.4176087,N,00952.1136576,E,2,9,1.2,-1.938,M,40.593,M,3.1,0123*5C\r\n
$GPGGA,081906.35,5703.4175934,N,00952.1135443,E,2,9,1.2,-1.937,M,40.593,M,3.1,0123*50\r\n
$GPGGA,081906.40,5703.4175785,N,00952.1134298,E,2,9,1.2,-1.935,M,40.593,M,3.1,0123*55\r\n
$GPGGA,081906.45,5703.4175640,N,00952.1133157,E,2,9,1.2,-1.938,M,40.593,M,3.3,0123*50\r\n
$GPGGA,081906.50,5703.4175510,N,00952.1132009,E,2,9,1.2,-1.935,M,40.593,M,3.3,0123*54\r\n
$GPGGA,081906.55,5703.4175398,N,00952.1130882,E,2,9,1.2,-1.933,M,40.593,M,3.3,0123*58\r\n
$GPGGA,081906.60,5703.4175306,N,00952.1129742,E,2,9,1.2,-1.931,M,40.593,M,3.3,0123*50\r\n
$GPGGA,081906.65,5703.4175211,N,00952.1128627,E,2,9,1.2,-1.932,M,40.593,M,3.5,0123*54\r\n
$GPGGA,081906.70,5703.4175123,N,00952.1127495,E,2,9,1.2,-1.931,M,40.593,M,3.5,0123*55\r\n
$GPGGA,081906.75,5703.4175035,N,00952.1126369,E,2,9,1.2,-1.934,M,40.593,M,3.5,0123*56\r\n
$GPGGA,081906.80,5703.4174971,N,00952.1125248,E,2,9,1.2,-1.933,M,40.593,M,3.5,0123*52\r\n
$GPGGA,081906.85,5703.4174911,N,00952.1124140,E,2,9,1.2,-1.933,M,40.593,M,3.7,0123*59\r\n
$GPGGA,081906.90,5703.4174844,N,00952.1123015,E,2,9,1.2,-1.929,M,40.593,M,3.7,0123*51\r\n
$GPGGA,081906.95,5703.4174780,N,00952.1121887,E,2,9,1.2,-1.927,M,40.593,M,3.7,0123*5C\r\n
$GPGGA,081907.00,5703.4174741,N,00952.1120777,E,2,9,1.2,-1.927,M,40.593,M,3.7,0123*5D\r\n
$GPGGA,081907.05,5703.4174714,N,00952.1119664,E,2,9,1.2,-1.933,M,40.593,M,3.9,0123*5A\r\n
$GPGGA,081907.10,5703.4174707,N,00952.1118545,E,2,9,1.2,-1.934,M,40.593,M,3.9,0123*5A\r\n
$GPGGA,081907.15,5703.4174693,N,00952.1117439,E,2,9,1.2,-1.935,M,40.593,M,3.9,0123*57\r\n
$GPGGA,081907.20,5703.4174692,N,00952.1116327,E,2,9,1.2,-1.935,M,40.593,M,3.9,0123*59\r\n
$GPGGA,081907.25,5703.4174703,N,00952.1115216,E,2,9,1.2,-1.931,M,40.593,M,2.0,0123*59\r\n
$GPGGA,081907.30,5703.4174716,N,00952.1114112,E,2,9,1.2,-1.931,M,40.593,M,2.0,0123*5F\r\n
$GPGGA,081907.35,5703.4174720,N,00952.1113008,E,2,9,1.2,-1.933,M,40.593,M,2.0,0123*50\r\n
$GPGGA,081907.40,5703.4174743,N,00952.1111916,E,2,9,1.2,-1.935,M,40.593,M,2.0,0123*55\r\n
$GPGGA,081907.45,5703.4174775,N,00952.1110833,E,2,9,1.2,-1.938,M,40.593,M,2.3,0123*5C\r\n
$GPGGA,081907.50,5703.4174828,N,00952.1109737,E,2,9,1.2,-1.936,M,40.593,M,2.3,0123*52\r\n
$GPGGA,081907.55,5703.4174878,N,00952.1108648,E,2,9,1.2,-1.936,M,40.593,M,2.3,0123*5A\r\n
$GPGGA,081907.60,5703.4174939,N,00952.1107559,E,2,9,1.2,-1.935,M,40.593,M,2.3,0123*57\r\n
$GPGGA,081907.65,5703.4175002,N,00952.1106485,E,2,9,1.2,-1.937,M,40.593,M,2.5,0123*57\r\n
$GPGGA,081907.70,5703.4175078,N,00952.1105426,E,2,9,1.2,-1.938,M,40.593,M,2.5,0123*5B\r\n
$GPGGA,081907.75,5703.4175153,N,00952.1104354,E,2,9,1.2,-1.939,M,40.593,M,2.5,0123*54\r\n
$GPGGA,081907.80,5703.4175240,N,00952.1103291,E,2,9,1.2,-1.935,M,40.593,M,2.5,0123*5C\r\n
$GPGGA,081907.85,5703.4175344,N,00952.1102243,E,2,9,1.2,-1.940,M,40.593,M,2.7,0123*52\r\n
$GPGGA,081907.90,5703.4175450,N,00952.1101199,E,2,9,1.2,-1.939,M,40.593,M,2.7,0123*5D\r\n
$GPGGA,081907.95,5703.4175566,N,00952.1100158,E,2,9,1.2,-1.936,M,40.593,M,2.7,0123*5F\r\n
$GPGGA,081908.00,5703.4175688,N,00952.1099123,E,2,9,1.2,-1.935,M,40.593,M,2.7,0123*51\r\n
$GPGGA,081908.05,5703.4175816,N,00952.1098085,E,2,9,1.2,-1.932,M,40.593,M,3.0,0123*50\r\n
$GPGGA,081908.10,5703.4175953,N,00952.1097061,E,2,9,1.2,-1.928,M,40.593,M,3.0,0123*5A\r\n
$GPGGA,081908.15,5703.4176093,N,00952.1096043,E,2,9,1.2,-1.926,M,40.593,M,3.0,0123*56\r\n
$GPGGA,081908.20,5703.4176251,N,00952.1095033,E,2,9,1.2,-1.926,M,40.593,M,3.0,0123*58\r\n
$GPGGA,081908.25,5703.4176397,N,00952.1094021,E,2,9,1.2,-1.928,M,40.593,M,2.0,0123*5B\r\n
$GPGGA,081908.30,5703.4176562,N,00952.1093011,E,2,9,1.2,-1.928,M,40.593,M,2.0,0123*57\r\n
$GPGGA,081908.35,5703.4176744,N,00952.1092029,E,2,9,1.2,-1.926,M,40.593,M,2.0,0123*50\r\n
$GPGGA,081908.40,5703.4176938,N,00952.1091064,E,2,9,1.2,-1.926,M,40.593,M,2.0,0123*5D\r\n
$GPGGA,081908.45,5703.4177142,N,00952.1090117,E,2,9,1.2,-1.932,M,40.593,M,2.2,0123*5F\r\n
$GPGGA,081908.50,5703.4177338,N,00952.1089159,E,2,9,1.2,-1.934,M,40.593,M,2.2,0123*50\r\n
$GPGGA,081908.55,5703.4177552,N,00952.1088228,E,2,9,1.2,-1.932,M,40.593,M,2.2,0123*5D\r\n
$GPGGA,081908.60,5703.4177782,N,00952.1087296,E,2,9,1.2,-1.929,M,40.593,M,2.2,0123*54\r\n
$GPGGA,081908.65,5703.4177983,N,00952.1086398,E,2,9,1.2,-1.935,M,40.593,M,2.5,0123*5A\r\n
$GPGGA,081908.70,5703.4178214,N,00952.1085497,E,2,9,1.2,-1.935,M,40.593,M,2.5,0123*5F\r\n
$GPGGA,081908.75,5703.4178444,N,00952.1084607,E,2,9,1.2,-1.934,M,40.593,M,2.5,0123*52\r\n
$GPGGA,081908.80,5703.4178686,N,00952.1083708,E,2,9,1.2,-1.933,M,40.593,M,2.5,0123*5A\r\n
$GPGGA,081908.85,5703.4178941,N,00952.1082819,E,2,9,1.2,-1.933,M,40.593,M,2.7,0123*57\r\n
$GPGGA,081908.90,5703.4179203,N,00952.1081930,E,2,9,1.2,-1.932,M,40.593,M,2.7,0123*57\r\n
$GPGGA,081908.95,5703.4179467,N,00952.1081061,E,2,9,1.2,-1.930,M,40.593,M,2.7,0123*59\r\n
$GPGGA,081909.00,5703.4179729,N,00952.1080212,E,2,9,1.2,-1.927,M,40.593,M,2.7,0123*5C\r\n
$GPGGA,081909.05,5703.4180001,N,00952.1079360,E,2,9,1.2,-1.925,M,40.593,M,2.9,0123*5C\r\n
$GPGGA,081909.10,5703.4180273,N,00952.1078521,E,2,9,1.2,-1.924,M,40.593,M,2.9,0123*5C\r\n
$GPGGA,081909.15,5703.4180557,N,00952.1077684,E,2,9,1.2,-1.921,M,40.593,M,2.9,0123*5E\r\n
$GPGGA,081909.20,5703.4180842,N,00952.1076863,E,2,9,1.2,-1.918,M,40.593,M,2.9,0123*5D\r\n
$GPGGA,081909.25,5703.4181120,N,00952.1076067,E,2,9,1.2,-1.915,M,40.593,M,2.0,0123*5C\r\n
$GPGGA,081909.30,5703.4181408,N,00952.1075296,E,2,9,1.2,-1.914,M,40.593,M,2.0,0123*59\r\n
$GPGGA,081909.35,5703.4181709,N,00952.1074523,E,2,9,1.2,-1.912,M,40.593,M,2.0,0123*50\r\n
$GPGGA,081909.40,5703.4182013,N,00952.1073758,E,2,9,1.2,-1.911,M,40.593,M,2.0,0123*57\r\n
$GPGGA,081909.45,5703.4182315,N,00952.1073007,E,2,9,1.2,-1.911,M,40.593,M,2.2,0123*58\r\n
$GPGGA,081909.50,5703.4182624,N,00952.1072278,E,2,9,1.2,-1.910,M,40.593,M,2.2,0123*51\r\n
$GPGGA,081909.55,5703.4182961,N,00952.1071554,E,2,9,1.2,-1.907,M,40.593,M,2.2,0123*56\r\n
$GPGGA,081909.60,5703.4183312,N,00952.1070837,E,2,9,1.2,-1.905,M,40.593,M,2.2,0123*54\r\n
$GPGGA,081909.65,5703.4183636,N,00952.1070151,E,2,9,1.2,-1.904,M,40.593,M,2.4,0123*5C\r\n
$GPGGA,081909.70,5703.4183954,N,00952.1069505,E,2,9,1.2,-1.905,M,40.593,M,2.4,0123*5F\r\n
$GPGGA,081909.75,5703.4184285,N,00952.1068850,E,2,9,1.2,-1.905,M,40.593,M,2.4,0123*56\r\n
$GPGGA,081909.80,5703.4184630,N,00952.1068201,E,2,9,1.2,-1.905,M,40.593,M,2.4,0123*58\r\n
$GPGGA,081909.85,5703.4184967,N,00952.1067577,E,2,9,1.2,-1.915,M,40.593,M,2.6,0123*5A\r\n
$GPGGA,081909.90,5703.4185314,N,00952.1066950,E,2,9,1.2,-1.917,M,40.593,M,2.6,0123*5B\r\n
$GPGGA,081909.95,5703.4185685,N,00952.1066352,E,2,9,1.2,-1.918,M,40.593,M,2.6,0123*54\r\n
$GPGGA,081910.00,5703.4186056,N,00952.1065748,E,2,9,1.2,-1.918,M,40.593,M,2.6,0123*57\r\n
$GPGGA,081910.05,5703.4186432,N,00952.1065129,E,2,9,1.2,-1.910,M,40.593,M,2.9,0123*52\r\n
$GPGGA,081910.10,5703.4186811,N,00952.1064548,E,2,9,1.2,-1.911,M,40.593,M,2.9,0123*58\r\n
$GPGGA,081910.15,5703.4187188,N,00952.1063981,E,2,9,1.2,-1.912,M,40.593,M,2.9,0123*58\r\n
$GPGGA,081910.20,5703.4187580,N,00952.1063458,E,2,9,1.2,-1.910,M,40.593,M,2.9,0123*59\r\n
$GPGGA,081910.25,5703.4187960,N,00952.1062940,E,2,9,1.2,-1.910,M,40.593,M,3.1,0123*52\r\n
$GPGGA,081910.30,5703.4188344,N,00952.1062424,E,2,9,1.2,-1.910,M,40.593,M,3.1,0123*5A\r\n
$GPGGA,081910.35,5703.4188739,N,00952.1061932,E,2,9,1.2,-1.911,M,40.593,M,3.1,0123*59\r\n
$GPGGA,081910.40,5703.4189145,N,00952.1061442,E,2,9,1.2,-1.916,M,40.593,M,3.1,0123*5A\r\n
$GPGGA,081910.45,5703.4189556,N,00952.1061001,E,2,9,1.2,-1.920,M,40.593,M,3.3,0123*5D\r\n
$GPGGA,081910.50,5703.4189975,N,00952.1060567,E,2,9,1.2,-1.919,M,40.593,M,3.3,0123*5A\r\n
$GPGGA,081910.55,5703.4190394,N,00952.1060153,E,2,9,1.2,-1.921,M,40.593,M,3.3,0123*5A\r\n
$GPGGA,081910.60,5703.4190812,N,00952.1059737,E,2,9,1.2,-1.923,M,40.593,M,3.3,0123*55\r\n
$GPGGA,081910.65,5703.4191240,N,00952.1059329,E,2,9,1.2,-1.919,M,40.593,M,3.5,0123*58\r\n
$GPGGA,081910.70,5703.4191657,N,00952.1058950,E,2,9,1.2,-1.918,M,40.593,M,3.5,0123*5A\r\n
$GPGGA,081910.75,5703.4192088,N,00952.1058575,E,2,9,1.2,-1.916,M,40.593,M,3.5,0123*5D\r\n
$GPGGA,081910.80,5703.4192520,N,00952.1058202,E,2,9,1.2,-1.913,M,40.593,M,3.5,0123*52\r\n
$GPGGA,081910.85,5703.4192960,N,00952.1057859,E,2,9,1.2,-1.916,M,40.593,M,3.7,0123*53\r\n
$GPGGA,081910.90,5703.4193409,N,00952.1057532,E,2,9,1.2,-1.914,M,40.593,M,3.7,0123*56\r\n
$GPGGA,081910.95,5703.4193836,N,00952.1057213,E,2,9,1.2,-1.912,M,40.593,M,3.7,0123*51\r\n
$GPGGA,081911.00,5703.4194270,N,00952.1056917,E,2,9,1.2,-1.912,M,40.593,M,3.7,0123*5D\r\n
$GPGGA,081911.05,5703.4194716,N,00952.1056606,E,2,9,1.2,-1.905,M,40.593,M,3.9,0123*5A\r\n
$GPGGA,081911.10,5703.4195172,N,00952.1056319,E,2,9,1.2,-1.900,M,40.593,M,3.9,0123*55\r\n
$GPGGA,081911.15,5703.4195623,N,00952.1056054,E,2,9,1.2,-1.896,M,40.593,M,3.9,0123*57\r\n
$GPGGA,081911.20,5703.4196081,N,00952.1055794,E,2,9,1.2,-1.895,M,40.593,M,3.9,0123*57\r\n
$GPGGA,081911.25,5703.4196539,N,00952.1055551,E,2,9,1.2,-1.895,M,40.593,M,2.0,0123*57\r\n
$GPGGA,081911.30,5703.4197001,N,00952.1055324,E,2,9,1.2,-1.890,M,40.593,M,2.0,0123*5D\r\n
$GPGGA,081911.35,5703.4197473,N,00952.1055115,E,2,9,1.2,-1.885,M,40.593,M,2.0,0123*5D\r\n
$GPGGA,081911.40,5703.4197936,N,00952.1054940,E,2,9,1.2,-1.885,M,40.593,M,2.0,0123*5A\r\n
$GPGGA,081911.45,5703.4198404,N,00952.1054766,E,2,9,1.2,-1.881,M,40.593,M,2.3,0123*51\r\n
$GPGGA,081911.50,5703.4198872,N,00952.1054613,E,2,9,1.2,-1.880,M,40.593,M,2.3,0123*5A\r\n
$GPGGA,081911.55,5703.4199354,N,00952.1054470,E,2,9,1.2,-1.878,M,40.593,M,2.3,0123*51\r\n
$GPGGA,081911.60,5703.4199833,N,00952.1054365,E,2,9,1.2,-1.879,M,40.593,M,2.3,0123*5F\r\n
$GPGGA,081911.65,5703.4200297,N,00952.1054295,E,2,9,1.2,-1.885,M,40.593,M,2.5,0123*56\r\n
$GPGGA,081911.70,5703.4200759,N,00952.1054232,E,2,9,1.2,-1.889,M,40.593,M,2.5,0123*54\r\n
$GPGGA,081911.75,5703.4201226,N,00952.1054184,E,2,9,1.2,-1.892,M,40.593,M,2.5,0123*59\r\n
$GPGGA,081911.80,5703.4201700,N,00952.1054154,E,2,9,1.2,-1.894,M,40.593,M,2.5,0123*59\r\n
$GPGGA,081911.85,5703.4202170,N,00952.1054133,E,2,9,1.2,-1.902,M,40.593,M,2.7,0123*53\r\n
$GPGGA,081911.90,5703.4202646,N,00952.1054129,E,2,9,1.2,-1.904,M,40.593,M,2.7,0123*58\r\n
$GPGGA,081911.95,5703.4203104,N,00952.1054156,E,2,9,1.2,-1.908,M,40.593,M,2.7,0123*59\r\n
$GPGGA,081912.00,5703.4203562,N,00952.1054196,E,2,9,1.2,-1.912,M,40.593,M,2.7,0123*55\r\n
$GPGGA,081912.05,5703.4204030,N,00952.1054225,E,2,9,1.2,-1.903,M,40.593,M,3.0,0123*58\r\n
$GPGGA,081912.10,5703.4204502,N,00952.1054278,E,2,9,1.2,-1.898,M,40.593,M,3.0,0123*53\r\n
$GPGGA,081912.15,5703.4204955,N,00952.1054356,E,2,9,1.2,-1.894,M,40.593,M,3.0,0123*59\r\n
$GPGGA,081912.20,5703.4205398,N,00952.1054457,E,2,9,1.2,-1.894,M,40.593,M,3.0,0123*53\r\n
$GPGGA,081912.25,5703.4205838,N,00952.1054579,E,2,9,1.2,-1.898,M,40.593,M,2.0,0123*57\r\n
$GPGGA,081912.30,5703.4206291,N,00952.1054696,E,2,9,1.2,-1.898,M,40.593,M,2.0,0123*5B\r\n
$GPGGA,081912.35,5703.4206763,N,00952.1054817,E,2,9,1.2,-1.894,M,40.593,M,2.0,0123*5D\r\n
$GPGGA,081912.40,5703.4207215,N,00952.1054961,E,2,9,1.2,-1.893,M,40.593,M,2.0,0123*5D\r\n
$GPGGA,081912.45,5703.4207664,N,00952.1055130,E,2,9,1.2,-1.884,M,40.593,M,2.2,0123*53\r\n
$GPGGA,081912.50,5703.4208099,N,00952.1055327,E,2,9,1.2,-1.884,M,40.593,M,2.2,0123*58\r\n
$GPGGA,081912.55,5703.4208554,N,00952.1055539,E,2,9,1.2,-1.886,M,40.593,M,2.2,0123*52\r\n
$GPGGA,081912.60,5703.4209012,N,00952.1055765,E,2,9,1.2,-1.887,M,40.593,M,2.2,0123*58\r\n
$GPGGA,081912.65,5703.4209469,N,00952.1056004,E,2,9,1.2,-1.893,M,40.593,M,2.5,0123*54\r\n
$GPGGA,081912.70,5703.4209930,N,00952.1056229,E,2,9,1.2,-1.892,M,40.593,M,2.5,0123*5D\r\n
$GPGGA,081912.75,5703.4210366,N,00952.1056485,E,2,9,1.2,-1.893,M,40.593,M,2.5,0123*58\r\n
$GPGGA,081912.80,5703.4210795,N,00952.1056777,E,2,9,1.2,-1.896,M,40.593,M,2.5,0123*51\r\n
$GPGGA,081912.85,5703.4211221,N,00952.1057088,E,2,9,1.2,-1.893,M,40.593,M,2.7,0123*5E\r\n
$GPGGA,081912.90,5703.4211650,N,00952.1057411,E,2,9,1.2,-1.891,M,40.593,M,2.7,0123*5E\r\n
$GPGGA,081912.95,5703.4212071,N,00952.1057751,E,2,9,1.2,-1.891,M,40.593,M,2.7,0123*5A\r\n
$GPGGA,081913.00,5703.4212494,N,00952.1058110,E,2,9,1.2,-1.892,M,40.593,M,2.7,0123*57\r\n
$GPGGA,081913.05,5703.4212922,N,00952.1058471,E,2,9,1.2,-1.885,M,40.593,M,2.9,0123*58\r\n
$GPGGA,081913.10,5703.4213339,N,00952.1058850,E,2,9,1.2,-1.885,M,40.593,M,2.9,0123*52\r\n
$GPGGA,081913.15,5703.4213748,N,00952.1059251,E,2,9,1.2,-1.887,M,40.593,M,2.9,0123*5D\r\n
$GPGGA,081913.20,5703.4214162,N,00952.1059666,E,2,9,1.2,-1.888,M,40.593,M,2.9,0123*5D\r\n
$GPGGA,081913.25,5703.4214573,N,00952.1060084,E,2,9,1.2,-1.889,M,40.593,M,2.0,0123*54\r\n
$GPGGA,081913.30,5703.4214989,N,00952.1060512,E,2,9,1.2,-1.889,M,40.593,M,2.0,0123*53\r\n
$GPGGA,081913.35,5703.4215393,N,00952.1060970,E,2,9,1.2,-1.889,M,40.593,M,2.0,0123*5E\r\n
$GPGGA,081913.40,5703.4215798,N,00952.1061427,E,2,9,1.2,-1.888,M,40.593,M,2.0,0123*5C\r\n
$GPGGA,081913.45,5703.4216190,N,00952.1061907,E,2,9,1.2,-1.886,M,40.593,M,2.2,0123*57\r\n
$GPGGA,081913.50,5703.4216560,N,00952.1062412,E,2,9,1.2,-1.887,M,40.593,M,2.2,0123*53\r\n
$GPGGA,081913.55,5703.4216951,N,00952.1062927,E,2,9,1.2,-1.886,M,40.593,M,2.2,0123*52\r\n
$GPGGA,081913.60,5703.4217335,N,00952.1063450,E,2,9,1.2,-1.885,M,40.593,M,2.2,0123*52\r\n
$GPGGA,081913.65,5703.4217719,N,00952.1063993,E,2,9,1.2,-1.879,M,40.593,M,2.4,0123*5A\r\n
$GPGGA,081913.70,5703.4218078,N,00952.1064566,E,2,9,1.2,-1.879,M,40.593,M,2.4,0123*50\r\n
$GPGGA,081913.75,5703.4218422,N,00952.1065145,E,2,9,1.2,-1.880,M,40.593,M,2.4,0123*5C\r\n
$GPGGA,081913.80,5703.4218776,N,00952.1065727,E,2,9,1.2,-1.878,M,40.593,M,2.4,0123*51\r\n
$GPGGA,081913.85,5703.4219135,N,00952.1066340,E,2,9,1.2,-1.876,M,40.593,M,2.6,0123*5E\r\n
$GPGGA,081913.90,5703.4219497,N,00952.1066966,E,2,9,1.2,-1.876,M,40.593,M,2.6,0123*59\r\n
$GPGGA,081913.95,5703.4219853,N,00952.1067591,E,2,9,1.2,-1.875,M,40.593,M,2.6,0123*5E\r\n
$GPGGA,081914.00,5703.4220199,N,00952.1068213,E,2,9,1.2,-1.874,M,40.593,M,2.6,0123*53\r\n
$GPGGA,081914.05,5703.4220554,N,00952.1068836,E,2,9,1.2,-1.870,M,40.593,M,2.9,0123*55\r\n
$GPGGA,081914.10,5703.4220910,N,00952.1069485,E,2,9,1.2,-1.868,M,40.593,M,2.9,0123*51\r\n
$GPGGA,081914.15,5703.4221243,N,00952.1070163,E,2,9,1.2,-1.866,M,40.593,M,2.9,0123*53\r\n
$GPGGA,081914.20,5703.4221563,N,00952.1070838,E,2,9,1.2,-1.865,M,40.593,M,2.9,0123*54\r\n
$GPGGA,081914.25,5703.4221884,N,00952.1071544,E,2,9,1.2,-1.863,M,40.593,M,3.1,0123*5D\r\n
$GPGGA,081914.30,5703.4222201,N,00952.1072256,E,2,9,1.2,-1.862,M,40.593,M,3.1,0123*5B\r\n
$GPGGA,081914.35,5703.4222504,N,00952.1072973,E,2,9,1.2,-1.865,M,40.593,M,3.1,0123*57\r\n
$GPGGA,081914.40,5703.4222794,N,00952.1073696,E,2,9,1.2,-1.864,M,40.593,M,3.1,0123*5A\r\n
$GPGGA,081914.45,5703.4223073,N,00952.1074447,E,2,9,1.2,-1.861,M,40.593,M,3.3,0123*5E\r\n
$GPGGA,081914.50,5703.4223364,N,00952.1075200,E,2,9,1.2,-1.861,M,40.593,M,3.3,0123*5B\r\n
$GPGGA,081914.55,5703.4223661,N,00952.1075962,E,2,9,1.2,-1.859,M,40.593,M,3.3,0123*5A\r\n
$GPGGA,081914.60,5703.4223952,N,00952.1076733,E,2,9,1.2,-1.859,M,40.593,M,3.3,0123*5A\r\n
$GPGGA,081914.65,5703.4224236,N,00952.1077506,E,2,9,1.2,-1.856,M,40.593,M,3.5,0123*5D\r\n
$GPGGA,081914.70,5703.4224504,N,00952.1078272,E,2,9,1.2,-1.854,M,40.593,M,3.5,0123*56\r\n
$GPGGA,081914.75,5703.4224760,N,00952.1079059,E,2,9,1.2,-1.853,M,40.593,M,3.5,0123*5E\r\n
$GPGGA,081914.80,5703.4225005,N,00952.1079868,E,2,9,1.2,-1.853,M,40.593,M,3.5,0123*5B\r\n
$GPGGA,081914.85,5703.4225247,N,00952.1080691,E,2,9,1.2,-1.848,M,40.593,M,3.7,0123*5C\r\n
$GPGGA,081914.90,5703.4225491,N,00952.1081524,E,2,9,1.2,-1.844,M,40.593,M,3.7,0123*55\r\n
$GPGGA,081914.95,5703.4225720,N,00952.1082374,E,2,9,1.2,-1.845,M,40.593,M,3.7,0123*58\r\n
$GPGGA,081915.00,5703.4225957,N,00952.1083218,E,2,9,1.2,-1.847,M,40.593,M,3.7,0123*53\r\n
$GPGGA,081915.05,5703.4226190,N,00952.1084049,E,2,9,1.2,-1.846,M,40.593,M,3.9,0123*58\r\n
$GPGGA,081915.10,5703.4226413,N,00952.1084911,E,2,9,1.2,-1.848,M,40.593,M,3.9,0123*58\r\n
$GPGGA,081915.15,5703.4226610,N,00952.1085798,E,2,9,1.2,-1.853,M,40.593,M,3.9,0123*58\r\n
$GPGGA,081915.20,5703.4226796,N,00952.1086692,E,2,9,1.2,-1.855,M,40.593,M,3.9,0123*5F\r\n
$GPGGA,081915.25,5703.4227008,N,00952.1087566,E,2,9,1.2,-1.851,M,40.593,M,2.0,0123*5E\r\n
$GPGGA,081915.30,5703.4227215,N,00952.1088428,E,2,9,1.2,-1.847,M,40.593,M,2.0,0123*57\r\n
$GPGGA,081915.35,5703.4227403,N,00952.1089309,E,2,9,1.2,-1.845,M,40.593,M,2.0,0123*54\r\n
$GPGGA,081915.40,5703.4227596,N,00952.1090212,E,2,9,1.2,-1.841,M,40.593,M,2.0,0123*5C\r\n
$GPGGA,081915.45,5703.4227793,N,00952.1091119,E,2,9,1.2,-1.836,M,40.593,M,2.3,0123*54\r\n
$GPGGA,081915.50,5703.4227963,N,00952.1092040,E,2,9,1.2,-1.834,M,40.593,M,2.3,0123*5D\r\n
$GPGGA,081915.55,5703.4228122,N,00952.1092973,E,2,9,1.2,-1.834,M,40.593,M,2.3,0123*53\r\n
$GPGGA,081915.60,5703.4228273,N,00952.1093922,E,2,9,1.2,-1.833,M,40.593,M,2.3,0123*50\r\n
$GPGGA,081915.65,5703.4228420,N,00952.1094864,E,2,9,1.2,-1.831,M,40.593,M,2.5,0123*55\r\n
$GPGGA,081915.70,5703.4228572,N,00952.1095806,E,2,9,1.2,-1.830,M,40.593,M,2.5,0123*53\r\n
$GPGGA,081915.75,5703.4228720,N,00952.1096753,E,2,9,1.2,-1.829,M,40.593,M,2.5,0123*57\r\n
$GPGGA,081915.80,5703.4228855,N,00952.1097719,E,2,9,1.2,-1.829,M,40.593,M,2.5,0123*5F\r\n
$GPGGA,081915.85,5703.4228982,N,00952.1098699,E,2,9,1.2,-1.831,M,40.593,M,2.7,0123*5C\r\n
$GPGGA,081915.90,5703.4229100,N,00952.1099686,E,2,9,1.2,-1.831,M,40.593,M,2.7,0123*54\r\n
$GPGGA,081915.95,5703.4229212,N,00952.1100666,E,2,9,1.2,-1.831,M,40.593,M,2.7,0123*5E\r\n
$GPGGA,081916.00,5703.4229318,N,00952.1101654,E,2,9,1.2,-1.832,M,40.593,M,2.7,0123*59\r\n
$GPGGA,081916.05,5703.4229426,N,00952.1102627,E,2,9,1.2,-1.822,M,40.593,M,3.0,0123*56\r\n
$GPGGA,081916.10,5703.4229507,N,00952.1103644,E,2,9,1.2,-1.820,M,40.593,M,3.0,0123*56\r\n
$GPGGA,081916.15,5703.4229592,N,00952.1104654,E,2,9,1.2,-1.820,M,40.593,M,3.0,0123*59\r\n
$GPGGA,081916.20,5703.4229676,N,00952.1105664,E,2,9,1.2,-1.817,M,40.593,M,3.0,0123*50\r\n
$GPGGA,081916.25,5703.4229745,N,00952.1106679,E,2,9,1.2,-1.818,M,40.593,M,2.0,0123*55\r\n
$GPGGA,081916.30,5703.4229804,N,00952.1107690,E,2,9,1.2,-1.817,M,40.593,M,2.0,0123*52\r\n
$GPGGA,081916.35,5703.4229860,N,00952.1108699,E,2,9,1.2,-1.814,M,40.593,M,2.0,0123*50\r\n
$GPGGA,081916.40,5703.4229916,N,00952.1109713,E,2,9,1.2,-1.812,M,40.593,M,2.0,0123*56\r\n
$GPGGA,081916.45,5703.4229951,N,00952.1110752,E,2,9,1.2,-1.811,M,40.593,M,2.2,0123*5C\r\n
$GPGGA,081916.50,5703.4229982,N,00952.1111794,E,2,9,1.2,-1.809,M,40.593,M,2.2,0123*54\r\n
$GPGGA,081916.55,5703.4230016,N,00952.1112831,E,2,9,1.2,-1.806,M,40.593,M,2.2,0123*51\r\n
$GPGGA,081916.60,5703.4230043,N,00952.1113876,E,2,9,1.2,-1.803,M,40.593,M,2.2,0123*50\r\n
$GPGGA,081916.65,5703.4230047,N,00952.1114935,E,2,9,1.2,-1.802,M,40.593,M,2.5,0123*56\r\n
$GPGGA,081916.70,5703.4230054,N,00952.1116004,E,2,9,1.2,-1.803,M,40.593,M,2.5,0123*58\r\n
$GPGGA,081916.75,5703.4230063,N,00952.1117072,E,2,9,1.2,-1.805,M,40.593,M,2.5,0123*5F\r\n
$GPGGA,081916.80,5703.4230059,N,00952.1118135,E,2,9,1.2,-1.804,M,40.593,M,2.5,0123*50\r\n
$GPGGA,081916.85,5703.4230039,N,00952.1119187,E,2,9,1.2,-1.802,M,40.593,M,2.7,0123*5F\r\n
$GPGGA,081916.90,5703.4230043,N,00952.1120230,E,2,9,1.2,-1.800,M,40.593,M,2.7,0123*51\r\n
$GPGGA,081916.95,5703.4230038,N,00952.1121291,E,2,9,1.2,-1.798,M,40.593,M,2.7,0123*5C\r\n
$GPGGA,081917.00,5703.4230011,N,00952.1122353,E,2,9,1.2,-1.797,M,40.593,M,2.7,0123*59\r\n
$GPGGA,081917.05,5703.4229976,N,00952.1123428,E,2,9,1.2,-1.796,M,40.593,M,2.9,0123*59\r\n
$GPGGA,081917.10,5703.4229947,N,00952.1124508,E,2,9,1.2,-1.794,M,40.593,M,2.9,0123*59\r\n
$GPGGA,081917.15,5703.4229914,N,00952.1125575,E,2,9,1.2,-1.791,M,40.593,M,2.9,0123*54\r\n
$GPGGA,081917.20,5703.4229864,N,00952.1126640,E,2,9,1.2,-1.790,M,40.593,M,2.9,0123*53\r\n
$GPGGA,081917.25,5703.4229808,N,00952.1127715,E,2,9,1.2,-1.792,M,40.593,M,2.0,0123*57\r\n
$GPGGA,081917.30,5703.4229741,N,00952.1128790,E,2,9,1.2,-1.790,M,40.593,M,2.0,0123*51\r\n
$GPGGA,081917.35,5703.4229686,N,00952.1129854,E,2,9,1.2,-1.789,M,40.593,M,2.0,0123*50\r\n
$GPGGA,081917.40,5703.4229610,N,00952.1130906,E,2,9,1.2,-1.784,M,40.593,M,2.0,0123*5E\r\n
$GPGGA,081917.45,5703.4229531,N,00952.1131970,E,2,9,1.2,-1.782,M,40.593,M,2.2,0123*5F\r\n
$GPGGA,081917.50,5703.4229463,N,00952.1133051,E,2,9,1.2,-1.780,M,40.593,M,2.2,0123*57\r\n
$GPGGA,081917.55,5703.4229385,N,00952.1134128,E,2,9,1.2,-1.781,M,40.593,M,2.2,0123*54\r\n
$GPGGA,081917.60,5703.4229293,N,00952.1135213,E,2,9,1.2,-1.782,M,40.593,M,2.2,0123*5D\r\n
$GPGGA,081917.65,5703.4229186,N,00952.1136308,E,2,9,1.2,-1.786,M,40.593,M,2.4,0123*55\r\n
$GPGGA,081917.70,5703.4229080,N,00952.1137390,E,2,9,1.2,-1.791,M,40.593,M,2.4,0123*50\r\n
$GPGGA,081917.75,5703.4228952,N,00952.1138474,E,2,9,1.2,-1.794,M,40.593,M,2.4,0123*55\r\n
$GPGGA,081917.80,5703.4228824,N,00952.1139559,E,2,9,1.2,-1.792,M,40.593,M,2.4,0123*56\r\n
$GPGGA,081917.85,5703.4228686,N,00952.1140614,E,2,9,1.2,-1.792,M,40.593,M,2.6,0123*53\r\n
$GPGGA,081917.90,5703.4228545,N,00952.1141676,E,2,9,1.2,-1.793,M,40.593,M,2.6,0123*5F\r\n
$GPGGA,081917.95,5703.4228385,N,00952.1142734,E,2,9,1.2,-1.792,M,40.593,M,2.6,0123*55\r\n
$GPGGA,081918.00,5703.4228229,N,00952.1143788,E,2,9,1.2,-1.790,M,40.593,M,2.6,0123*55\r\n
$GPGGA,081918.05,5703.4228079,N,00952.1144844,E,2,9,1.2,-1.789,M,40.593,M,2.9,0123*58\r\n
$GPGGA,081918.10,5703.4227917,N,00952.1145914,E,2,9,1.2,-1.790,M,40.593,M,2.9,0123*5F\r\n
$GPGGA,081918.15,5703.4227737,N,00952.1146985,E,2,9,1.2,-1.793,M,40.593,M,2.9,0123*5E\r\n
$GPGGA,081918.20,5703.4227557,N,00952.1148040,E,2,9,1.2,-1.793,M,40.593,M,2.9,0123*52\r\n
$GPGGA,081918.25,5703.4227361,N,00952.1149103,E,2,9,1.2,-1.801,M,40.593,M,3.1,0123*5E\r\n
$GPGGA,081918.30,5703.4227180,N,00952.1150161,E,2,9,1.2,-1.804,M,40.593,M,3.1,0123*5E\r\n
$GPGGA,081918.35,5703.4226982,N,00952.1151211,E,2,9,1.2,-1.803,M,40.593,M,3.1,0123*52\r\n
$GPGGA,081918.40,5703.4226754,N,00952.1152261,E,2,9,1.2,-1.804,M,40.593,M,3.1,0123*56\r\n
$GPGGA,081918.45,5703.4226564,N,00952.1153284,E,2,9,1.2,-1.791,M,40.593,M,3.3,0123*59\r\n
$GPGGA,081918.50,5703.4226351,N,00952.1154300,E,2,9,1.2,-1.789,M,40.593,M,3.3,0123*5E\r\n
$GPGGA,081918.55,5703.4226105,N,00952.1155325,E,2,9,1.2,-1.787,M,40.593,M,3.3,0123*50\r\n
$GPGGA,081918.60,5703.4225858,N,00952.1156367,E,2,9,1.2,-1.785,M,40.593,M,3.3,0123*53\r\n
$GPGGA,081918.65,5703.4225593,N,00952.1157406,E,2,9,1.2,-1.787,M,40.593,M,3.5,0123*59\r\n
$GPGGA,081918.70,5703.4225329,N,00952.1158440,E,2,9,1.2,-1.787,M,40.593,M,3.5,0123*57\r\n
$GPGGA,081918.75,5703.4225067,N,00952.1159469,E,2,9,1.2,-1.787,M,40.593,M,3.5,0123*51\r\n
$GPGGA,081918.80,5703.4224807,N,00952.1160500,E,2,9,1.2,-1.792,M,40.593,M,3.5,0123*54\r\n
$GPGGA,081918.85,5703.4224508,N,00952.1161523,E,2,9,1.2,-1.794,M,40.593,M,3.7,0123*57\r\n
$GPGGA,081918.90,5703.4224225,N,00952.1162550,E,2,9,1.2,-1.794,M,40.593,M,3.7,0123*5C\r\n
$GPGGA,081918.95,5703.4223926,N,00952.1163572,E,2,9,1.2,-1.791,M,40.593,M,3.7,0123*52\r\n
$GPGGA,081919.00,5703.4223625,N,00952.1164599,E,2,9,1.2,-1.793,M,40.593,M,3.7,0123*53\r\n
$GPGGA,081919.05,5703.4223328,N,00952.1165593,E,2,9,1.2,-1.787,M,40.593,M,3.9,0123*5E\r\n
$GPGGA,081919.10,5703.4223004,N,00952.1166595,E,2,9,1.2,-1.790,M,40.593,M,3.9,0123*54\r\n
$GPGGA,081919.15,5703.4222673,N,00952.1167596,E,2,9,1.2,-1.790,M,40.593,M,3.9,0123*54\r\n
$GPGGA,081919.20,5703.4222334,N,00952.1168588,E,2,9,1.2,-1.789,M,40.593,M,3.9,0123*5C\r\n
$GPGGA,081919.25,5703.4221991,N,00952.1169575,E,2,9,1.2,-1.796,M,40.593,M,2.0,0123*5A\r\n
$GPGGA,081919.30,5703.4221646,N,00952.1170540,E,2,9,1.2,-1.794,M,40.593,M,2.0,0123*57\r\n
$GPGGA,081919.35,5703.4221287,N,00952.1171497,E,2,9,1.2,-1.793,M,40.593,M,2.0,0123*56\r\n
$GPGGA,081919.40,5703.4220923,N,00952.1172442,E,2,9,1.2,-1.793,M,40.593,M,2.0,0123*5B\r\n
$GPGGA,081919.45,5703.4220557,N,00952.1173373,E,2,9,1.2,-1.783,M,40.593,M,2.3,0123*57\r\n
$GPGGA,081919.50,5703.4220182,N,00952.1174317,E,2,9,1.2,-1.779,M,40.593,M,2.3,0123*5F\r\n
$GPGGA,081919.55,5703.4219800,N,00952.1175257,E,2,9,1.2,-1.778,M,40.593,M,2.3,0123*56\r\n
$GPGGA,081919.60,5703.4219415,N,00952.1176201,E,2,9,1.2,-1.779,M,40.593,M,2.3,0123*59\r\n
$GPGGA,081919.65,5703.4219018,N,00952.1177144,E,2,9,1.2,-1.780,M,40.593,M,2.5,0123*56\r\n
$GPGGA,081919.70,5703.4218622,N,00952.1178083,E,2,9,1.2,-1.781,M,40.593,M,2.5,0123*58\r\n
$GPGGA,081919.75,5703.4218235,N,00952.1179027,E,2,9,1.2,-1.782,M,40.593,M,2.5,0123*53\r\n
$GPGGA,081919.80,5703.4217829,N,00952.1179962,E,2,9,1.2,-1.784,M,40.593,M,2.5,0123*5F\r\n
$GPGGA,081919.85,5703.4217401,N,00952.1180867,E,2,9,1.2,-1.789,M,40.593,M,2.7,0123*51\r\n
$GPGGA,081919.90,5703.4216970,N,00952.1181759,E,2,9,1.2,-1.789,M,40.593,M,2.7,0123*5C\r\n
$GPGGA,081919.95,5703.4216520,N,00952.1182628,E,2,9,1.2,-1.788,M,40.593,M,2.7,0123*55\r\n
$GPGGA,081920.00,5703.4216062,N,00952.1183492,E,2,9,1.2,-1.789,M,40.593,M,2.7,0123*53\r\n
$GPGGA,081920.05,5703.4215619,N,00952.1184330,E,2,9,1.2,-1.782,M,40.593,M,3.0,0123*5A\r\n
$GPGGA,081920.10,5703.4215169,N,00952.1185176,E,2,9,1.2,-1.780,M,40.593,M,3.0,0123*5D\r\n
$GPGGA,081920.15,5703.4214694,N,00952.1186020,E,2,9,1.2,-1.777,M,40.593,M,3.0,0123*55\r\n
$GPGGA,081920.20,5703.4214218,N,00952.1186854,E,2,9,1.2,-1.778,M,40.593,M,3.0,0123*57\r\n
$GPGGA,081920.25,5703.4213746,N,00952.1187666,E,2,9,1.2,-1.776,M,40.593,M,2.0,0123*5A\r\n
$GPGGA,081920.30,5703.4213274,N,00952.1188463,E,2,9,1.2,-1.776,M,40.593,M,2.0,0123*52\r\n
$GPGGA,081920.35,5703.4212791,N,00952.1189284,E,2,9,1.2,-1.776,M,40.593,M,2.0,0123*56\r\n
$GPGGA,081920.40,5703.4212291,N,00952.1190096,E,2,9,1.2,-1.777,M,40.593,M,2.0,0123*59\r\n
$GPGGA,081920.45,5703.4211789,N,00952.1190908,E,2,9,1.2,-1.780,M,40.593,M,2.2,0123*57\r\n
$GPGGA,081920.50,5703.4211300,N,00952.1191703,E,2,9,1.2,-1.781,M,40.593,M,2.2,0123*53\r\n
$GPGGA,081920.55,5703.4210777,N,00952.1192493,E,2,9,1.2,-1.782,M,40.593,M,2.2,0123*59\r\n
$GPGGA,081920.60,5703.4210249,N,00952.1193265,E,2,9,1.2,-1.782,M,40.593,M,2.2,0123*59\r\n
$GPGGA,081920.65,5703.4209714,N,00952.1194017,E,2,9,1.2,-1.783,M,40.593,M,2.5,0123*5F\r\n
$GPGGA,081920.70,5703.4209187,N,00952.1194777,E,2,9,1.2,-1.786,M,40.593,M,2.5,0123*53\r\n
$GPGGA,081920.75,5703.4208637,N,00952.1195511,E,2,9,1.2,-1.786,M,40.593,M,2.5,0123*58\r\n
$GPGGA,081920.80,5703.4208074,N,00952.1196218,E,2,9,1.2,-1.789,M,40.593,M,2.5,0123*51\r\n
$GPGGA,081920.85,5703.4207502,N,00952.1196925,E,2,9,1.2,-1.795,M,40.593,M,2.7,0123*55\r\n
$GPGGA,081920.90,5703.4206943,N,00952.1197620,E,2,9,1.2,-1.792,M,40.593,M,2.7,0123*55\r\n
$GPGGA,081920.95,5703.4206377,N,00952.1198322,E,2,9,1.2,-1.792,M,40.593,M,2.7,0123*55\r\n
$GPGGA,081921.00,5703.4205792,N,00952.1199005,E,2,9,1.2,-1.795,M,40.593,M,2.7,0123*54\r\n
$GPGGA,081921.05,5703.4205206,N,00952.1199655,E,2,9,1.2,-1.794,M,40.593,M,2.9,0123*55\r\n
$GPGGA,081921.10,5703.4204631,N,00952.1200312,E,2,9,1.2,-1.793,M,40.593,M,2.9,0123*52\r\n
$GPGGA,081921.15,5703.4204047,N,00952.1200942,E,2,9,1.2,-1.789,M,40.593,M,2.9,0123*54\r\n
$GPGGA,081921.20,5703.4203464,N,00952.1201555,E,2,9,1.2,-1.787,M,40.593,M,2.9,0123*55\r\n
$GPGGA,081921.25,5703.4202849,N,00952.1202160,E,2,9,1.2,-1.782,M,40.593,M,2.0,0123*5F\r\n
$GPGGA,081921.30,5703.4202215,N,00952.1202767,E,2,9,1.2,-1.780,M,40.593,M,2.0,0123*5B\r\n
$GPGGA,081921.35,5703.4201605,N,00952.1203363,E,2,9,1.2,-1.774,M,40.593,M,2.0,0123*52\r\n
$GPGGA,081921.40,5703.4200996,N,00952.1203949,E,2,9,1.2,-1.768,M,40.593,M,2.0,0123*5B\r\n
$GPGGA,081921.45,5703.4200379,N,00952.1204528,E,2,9,1.2,-1.774,M,40.593,M,2.2,0123*56\r\n
$GPGGA,081921.50,5703.4199751,N,00952.1205102,E,2,9,1.2,-1.774,M,40.593,M,2.2,0123*52\r\n
$GPGGA,081921.55,5703.4199114,N,00952.1205672,E,2,9,1.2,-1.775,M,40.593,M,2.2,0123*51\r\n
$GPGGA,081921.60,5703.4198459,N,00952.1206199,E,2,9,1.2,-1.777,M,40.593,M,2.2,0123*59\r\n
$GPGGA,081921.65,5703.4197805,N,00952.1206707,E,2,9,1.2,-1.780,M,40.593,M,2.4,0123*59\r\n
$GPGGA,081921.70,5703.4197162,N,00952.1207183,E,2,9,1.2,-1.780,M,40.593,M,2.4,0123*5E\r\n
$GPGGA,081921.75,5703.4196489,N,00952.1207664,E,2,9,1.2,-1.778,M,40.593,M,2.4,0123*53\r\n
$GPGGA,081921.80,5703.4195817,N,00952.1208109,E,2,9,1.2,-1.777,M,40.593,M,2.4,0123*5D\r\n
$GPGGA,081921.85,5703.4195154,N,00952.1208558,E,2,9,1.2,-1.772,M,40.593,M,2.6,0123*51\r\n
$GPGGA,081921.90,5703.4194477,N,00952.1208984,E,2,9,1.2,-1.775,M,40.593,M,2.6,0123*5A\r\n
$GPGGA,081921.95,5703.4193774,N,00952.1209378,E,2,9,1.2,-1.776,M,40.593,M,2.6,0123*53\r\n
$GPGGA,081922.00,5703.4193077,N,00952.1209735,E,2,9,1.2,-1.774,M,40.593,M,2.6,0123*57\r\n
$GPGGA,081922.05,5703.4192375,N,00952.1210067,E,2,9,1.2,-1.786,M,40.593,M,2.9,0123*58\r\n
$GPGGA,081922.10,5703.4191655,N,00952.1210378,E,2,9,1.2,-1.786,M,40.593,M,2.9,0123*55\r\n
$GPGGA,081922.15,5703.4190959,N,00952.1210684,E,2,9,1.2,-1.786,M,40.593,M,2.9,0123*54\r\n
$GPGGA,081922.20,5703.4190262,N,00952.1210961,E,2,9,1.2,-1.784,M,40.593,M,2.9,0123*57\r\n
$GPGGA,081922.25,5703.4189555,N,00952.1211219,E,2,9,1.2,-1.786,M,40.593,M,3.1,0123*57\r\n
$GPGGA,081922.30,5703.4188857,N,00952.1211462,E,2,9,1.2,-1.784,M,40.593,M,3.1,0123*55\r\n
$GPGGA,081922.35,5703.4188139,N,00952.1211676,E,2,9,1.2,-1.785,M,40.593,M,3.1,0123*57\r\n
$GPGGA,081922.40,5703.4187401,N,00952.1211872,E,2,9,1.2,-1.786,M,40.593,M,3.1,0123*5D\r\n
$GPGGA,081922.45,5703.4186659,N,00952.1212058,E,2,9,1.2,-1.785,M,40.593,M,3.3,0123*54\r\n
$GPGGA,081922.50,5703.4185939,N,00952.1212227,E,2,9,1.2,-1.783,M,40.593,M,3.3,0123*56\r\n
$GPGGA,081922.55,5703.4185222,N,00952.1212393,E,2,9,1.2,-1.780,M,40.593,M,3.3,0123*5F\r\n
$GPGGA,081922.60,5703.4184499,N,00952.1212515,E,2,9,1.2,-1.779,M,40.593,M,3.3,0123*50\r\n
$GPGGA,081922.65,5703.4183780,N,00952.1212608,E,2,9,1.2,-1.783,M,40.593,M,3.5,0123*55\r\n
$GPGGA,081922.70,5703.4183050,N,00952.1212681,E,2,9,1.2,-1.782,M,40.593,M,3.5,0123*5B\r\n
$GPGGA,081922.75,5703.4182305,N,00952.1212734,E,2,9,1.2,-1.782,M,40.593,M,3.5,0123*53\r\n
$GPGGA,081922.80,5703.4181571,N,00952.1212734,E,2,9,1.2,-1.782,M,40.593,M,3.5,0123*5F\r\n
$GPGGA,081922.85,5703.4180838,N,00952.1212721,E,2,9,1.2,-1.781,M,40.593,M,3.7,0123*5E\r\n
$GPGGA,081922.90,5703.4180094,N,00952.1212683,E,2,9,1.2,-1.780,M,40.593,M,3.7,0123*5C\r\n
$GPGGA,081922.95,5703.4179368,N,00952.1212592,E,2,9,1.2,-1.780,M,40.593,M,3.7,0123*5C\r\n
$GPGGA,081923.00,5703.4178659,N,00952.1212468,E,2,9,1.2,-1.780,M,40.593,M,3.7,0123*53\r\n
$GPGGA,081923.05,5703.4177930,N,00952.1212317,E,2,9,1.2,-1.783,M,40.593,M,3.9,0123*5B\r\n
$GPGGA,081923.10,5703.4177200,N,00952.1212156,E,2,9,1.2,-1.781,M,40.593,M,3.9,0123*52\r\n
$GPGGA,081923.15,5703.4176466,N,00952.1211975,E,2,9,1.2,-1.781,M,40.593,M,3.9,0123*5A\r\n
$GPGGA,081923.20,5703.4175711,N,00952.1211779,E,2,9,1.2,-1.784,M,40.593,M,3.9,0123*5B\r\n
$GPGGA,081923.25,5703.4174980,N,00952.1211533,E,2,9,1.2,-1.783,M,40.593,M,2.0,0123*5A\r\n
$GPGGA,081923.30,5703.4174261,N,00952.1211269,E,2,9,1.2,-1.784,M,40.593,M,2.0,0123*55\r\n
$GPGGA,081923.35,5703.4173548,N,00952.1210987,E,2,9,1.2,-1.784,M,40.593,M,2.0,0123*51\r\n
$GPGGA,081923.40,5703.4172831,N,00952.1210695,E,2,9,1.2,-1.784,M,40.593,M,2.0,0123*5D\r\n
$GPGGA,081923.45,5703.4172131,N,00952.1210361,E,2,9,1.2,-1.783,M,40.593,M,2.3,0123*5B\r\n
$GPGGA,081923.50,5703.4171444,N,00952.1210000,E,2,9,1.2,-1.782,M,40.593,M,2.3,0123*5E\r\n
$GPGGA,081923.55,5703.4170750,N,00952.1209615,E,2,9,1.2,-1.783,M,40.593,M,2.3,0123*57\r\n
$GPGGA,081923.60,5703.4170039,N,00952.1209227,E,2,9,1.2,-1.784,M,40.593,M,2.3,0123*5B\r\n
$GPGGA,081923.65,5703.4169332,N,00952.1208827,E,2,9,1.2,-1.782,M,40.593,M,2.5,0123*55\r\n
$GPGGA,081923.70,5703.4168632,N,00952.1208410,E,2,9,1.2,-1.785,M,40.593,M,2.5,0123*5A\r\n
$GPGGA,081923.75,5703.4167947,N,00952.1207946,E,2,9,1.2,-1.786,M,40.593,M,2.5,0123*5F\r\n
$GPGGA,081923.80,5703.4167253,N,00952.1207468,E,2,9,1.2,-1.788,M,40.593,M,2.5,0123*54\r\n
$GPGGA,081923.85,5703.4166568,N,00952.1206982,E,2,9,1.2,-1.796,M,40.593,M,2.7,0123*5A\r\n
$GPGGA,081923.90,5703.4165884,N,00952.1206480,E,2,9,1.2,-1.799,M,40.593,M,2.7,0123*52\r\n
$GPGGA,081923.95,5703.4165205,N,00952.1205953,E,2,9,1.2,-1.800,M,40.593,M,2.7,0123*5B\r\n
$GPGGA,081924.00,5703.4164542,N,00952.1205389,E,2,9,1.2,-1.801,M,40.593,M,2.7,0123*59\r\n
$GPGGA,081924.05,5703.4163873,N,00952.1204780,E,2,9,1.2,-1.797,M,40.593,M,3.0,0123*5E\r\n
$GPGGA,081924.10,5703.4163200,N,00952.1204186,E,2,9,1.2,-1.801,M,40.593,M,3.0,0123*54\r\n
$GPGGA,081924.15,5703.4162547,N,00952.1203570,E,2,9,1.2,-1.805,M,40.593,M,3.0,0123*5A\r\n
$GPGGA,081924.20,5703.4161896,N,00952.1202946,E,2,9,1.2,-1.810,M,40.593,M,3.0,0123*52\r\n
$GPGGA,081924.25,5703.4161245,N,00952.1202326,E,2,9,1.2,-1.826,M,40.593,M,2.0,0123*5B\r\n
$GPGGA,081924.30,5703.4160604,N,00952.1201702,E,2,9,1.2,-1.839,M,40.593,M,2.0,0123*50\r\n
$GPGGA,081924.35,5703.4159971,N,00952.1201097,E,2,9,1.2,-1.852,M,40.593,M,2.0,0123*54\r\n
$GPGGA,081924.40,5703.4159369,N,00952.1200447,E,2,9,1.2,-1.865,M,40.593,M,2.0,0123*59\r\n
$GPGGA,081924.45,5703.4158785,N,00952.1199760,E,2,9,1.2,-1.875,M,40.593,M,2.2,0123*5D\r\n
$GPGGA,081924.50,5703.4158194,N,00952.1199121,E,2,9,1.2,-1.890,M,40.593,M,2.2,0123*57\r\n
$GPGGA,081924.55,5703.4157607,N,00952.1198516,E,2,9,1.2,-1.907,M,40.593,M,2.2,0123*5E\r\n
$GPGGA,081924.60,5703.4157044,N,00952.1197883,E,2,9,1.2,-1.922,M,40.593,M,2.2,0123*50\r\n
$GPGGA,081924.65,5703.4156495,N,00952.1197231,E,2,9,1.2,-1.937,M,40.593,M,2.5,0123*5C\r\n
$GPGGA,081924.70,5703.4155959,N,00952.1196565,E,2,9,1.2,-1.953,M,40.593,M,2.5,0123*53\r\n
$GPGGA,081924.75,5703.4155426,N,00952.1195883,E,2,9,1.2,-1.972,M,40.593,M,2.5,0123*56\r\n
$GPGGA,081924.80,5703.4154928,N,00952.1195180,E,2,9,1.2,-1.985,M,40.593,M,2.5,0123*5C\r\n
$GPGGA,081924.85,5703.4154463,N,00952.1194468,E,2,9,1.2,-1.997,M,40.593,M,2.7,0123*58\r\n
$GPGGA,081924.90,5703.4153988,N,00952.1193744,E,2,9,1.2,-2.008,M,40.593,M,2.7,0123*55\r\n
$GPGGA,081924.95,5703.4153528,N,00952.1193020,E,2,9,1.2,-2.019,M,40.593,M,2.7,0123*53\r\n
$GPGGA,081925.00,5703.4153102,N,00952.1192278,E,2,9,1.2,-2.027,M,40.593,M,2.7,0123*51\r\n
$GPGGA,081925.05,5703.4152697,N,00952.1191509,E,2,9,1.2,-2.029,M,40.593,M,2.9,0123*5C\r\n
$GPGGA,081925.10,5703.4152291,N,00952.1190749,E,2,9,1.2,-2.034,M,40.593,M,2.9,0123*51\r\n
$GPGGA,081925.15,5703.4151911,N,00952.1189984,E,2,9,1.2,-2.037,M,40.593,M,2.9,0123*50\r\n
$GPGGA,081925.20,5703.4151544,N,00952.1189208,E,2,9,1.2,-2.037,M,40.593,M,2.9,0123*55\r\n
$GPGGA,081925.25,5703.4151188,N,00952.1188429,E,2,9,1.2,-2.035,M,40.593,M,2.0,0123*5B\r\n
$GPGGA,081925.30,5703.4150826,N,00952.1187665,E,2,9,1.2,-2.032,M,40.593,M,2.0,0123*51\r\n
$GPGGA,081925.35,5703.4150478,N,00952.1186920,E,2,9,1.2,-2.032,M,40.593,M,2.0,0123*5C\r\n
$GPGGA,081925.40,5703.4150156,N,00952.1186175,E,2,9,1.2,-2.030,M,40.593,M,2.0,0123*5D\r\n
$GPGGA,081925.45,5703.4149813,N,00952.1185432,E,2,9,1.2,-2.022,M,40.593,M,2.2,0123*5C\r\n
$GPGGA,081925.50,5703.4149476,N,00952.1184679,E,2,9,1.2,-2.019,M,40.593,M,2.2,0123*53\r\n
