$GPGGA,083536.35,5702.8756432,N,00949.4631821,E,2,5,1.5,-2.728,M,40.592,M,2.1,0123*50
$GPVTG,243.26,T,-396.64,M,004.932,N,009.134,K,D*07
$GPGGA,083536.40,5702.8756142,N,00949.4630780,E,2,5,1.5,-2.734,M,40.592,M,2.1,0123*58
$GPVTG,242.29,T,-397.61,M,004.851,N,008.984,K,D*0B
$GPGGA,083536.45,5702.8755876,N,00949.4629676,E,2,5,1.5,-2.738,M,40.592,M,2.4,0123*59
$GPVTG,241.90,T,-398.00,M,004.856,N,008.993,K,D*03
$GPGGA,083536.50,5702.8755651,N,00949.4628645,E,2,5,1.5,-2.744,M,40.592,M,2.4,0123*5C
$GPVTG,242.11,T,-397.79,M,004.735,N,008.770,K,D*01
$GPGGA,083536.55,5702.8755315,N,00949.4627547,E,2,5,1.5,-2.750,M,40.592,M,2.4,0123*57
$GPVTG,241.26,T,-398.64,M,004.777,N,008.848,K,D*07
$GPGGA,083536.60,5702.8754892,N,00949.4626525,E,2,5,1.5,-2.759,M,40.592,M,2.4,0123*58
$GPVTG,238.81,T,-401.09,M,004.804,N,008.896,K,D*00
$GPGGA,083536.65,5702.8754643,N,00949.4625404,E,2,5,1.5,-2.728,M,40.592,M,2.6,0123*5A
$GPVTG,238.44,T,-401.46,M,004.759,N,008.815,K,D*0E
$GPGGA,083536.70,5702.8754321,N,00949.4624379,E,2,5,1.5,-2.733,M,40.592,M,2.6,0123*59
$GPVTG,237.96,T,-401.94,M,004.731,N,008.762,K,D*00
$GPGGA,083536.75,5702.8753958,N,00949.4623348,E,2,5,1.5,-2.738,M,40.592,M,2.6,0123*51
$GPVTG,237.08,T,-402.82,M,004.748,N,008.793,K,D*03
$GPGGA,083536.80,5702.8753599,N,00949.4622343,E,2,5,1.5,-2.739,M,40.592,M,2.6,0123*51
$GPVTG,236.25,T,-403.65,M,004.740,N,008.779,K,D*09
$GPGGA,083536.85,5702.8753290,N,00949.4621308,E,2,5,1.5,-2.739,M,40.592,M,2.9,0123*59
$GPVTG,236.67,T,-403.23,M,004.744,N,008.786,K,D*09
$GPGGA,083536.90,5702.8752960,N,00949.4620304,E,2,5,1.5,-2.744,M,40.592,M,2.9,0123*5F
$GPVTG,236.78,T,-403.12,M,004.700,N,008.704,K,D*0F
$GPGGA,083536.95,5702.8752601,N,00949.4619363,E,2,5,1.5,-2.749,M,40.592,M,2.9,0123*54
$GPVTG,235.73,T,-404.17,M,004.641,N,008.594,K,D*0A
$GPGGA,083537.00,5702.8752235,N,00949.4618414,E,2,5,1.5,-2.760,M,40.592,M,2.9,0123*57
$GPVTG,234.83,T,-405.07,M,004.611,N,008.539,K,D*06
$GPGGA,083537.05,5702.8751765,N,00949.4617349,E,2,5,1.5,-2.733,M,40.592,M,2.0,0123*5E
$GPVTG,234.46,T,-405.44,M,004.628,N,008.572,K,D*0D
$GPGGA,083537.10,5702.8751372,N,00949.4616376,E,2,5,1.5,-2.737,M,40.592,M,2.0,0123*51
$GPVTG,233.79,T,-406.11,M,004.650,N,008.613,K,D*0E
$GPGGA,083537.15,5702.8751041,N,00949.4615460,E,2,5,1.5,-2.738,M,40.592,M,2.0,0123*5B
$GPVTG,233.40,T,-406.50,M,004.581,N,008.484,K,D*02
$GPGGA,083537.20,5702.8750635,N,00949.4614580,E,2,5,1.5,-2.744,M,40.592,M,2.0,0123*5C
$GPVTG,232.01,T,-407.89,M,004.542,N,008.411,K,D*00
$GPGGA,083537.25,5702.8750210,N,00949.4613763,E,2,5,1.5,-2.753,M,40.592,M,2.3,0123*57
$GPVTG,229.96,T,-409.94,M,004.515,N,008.361,K,D*04
$GPGGA,083537.30,5702.8749712,N,00949.4612900,E,2,5,1.5,-2.762,M,40.592,M,2.3,0123*54
$GPVTG,227.90,T,-412.00,M,004.564,N,008.452,K,D*0A
$GPGGA,083537.35,5702.8749262,N,00949.4612013,E,2,5,1.5,-2.770,M,40.592,M,2.3,0123*5B
$GPVTG,226.93,T,-412.97,M,004.603,N,008.525,K,D*05
$GPGGA,083537.40,5702.8748859,N,00949.4611187,E,2,5,1.5,-2.776,M,40.592,M,2.3,0123*53
$GPVTG,226.11,T,-413.79,M,004.554,N,008.435,K,D*0F
$GPGGA,083537.45,5702.8748414,N,00949.4610253,E,2,5,1.5,-2.755,M,40.592,M,2.5,0123*5F
$GPVTG,225.16,T,-414.74,M,004.613,N,008.544,K,D*06
$GPGGA,083537.50,5702.8747965,N,00949.4609419,E,2,5,1.5,-2.762,M,40.592,M,2.5,0123*5B
$GPVTG,224.33,T,-415.57,M,004.621,N,008.559,K,D*0D
$GPGGA,083537.55,5702.8747511,N,00949.4608640,E,2,5,1.5,-2.766,M,40.592,M,2.5,0123*5A
$GPVTG,223.08,T,-416.82,M,004.592,N,008.505,K,D*0B
$GPGGA,083537.60,5702.8747049,N,00949.4607824,E,2,5,1.5,-2.772,M,40.592,M,2.5,0123*52
$GPVTG,222.42,T,-417.48,M,004.609,N,008.537,K,D*03
$GPGGA,083537.65,5702.8746630,N,00949.4606987,E,2,5,1.5,-2.764,M,40.592,M,2.7,0123*52
$GPVTG,222.10,T,-417.80,M,004.619,N,008.554,K,D*04
$GPGGA,083537.70,5702.8746190,N,00949.4606241,E,2,5,1.5,-2.769,M,40.592,M,2.7,0123*57
$GPVTG,221.26,T,-418.64,M,004.561,N,008.446,K,D*09
$GPGGA,083537.75,5702.8745675,N,00949.4605458,E,2,5,1.5,-2.775,M,40.592,M,2.7,0123*5D
$GPVTG,220.23,T,-419.67,M,004.619,N,008.555,K,D*00
$GPGGA,083537.80,5702.8745156,N,00949.4604721,E,2,5,1.5,-2.782,M,40.592,M,2.7,0123*55
$GPVTG,218.89,T,-421.01,M,004.646,N,008.604,K,D*0D
$GPGGA,083537.85,5702.8744753,N,00949.4603948,E,2,5,1.5,-2.769,M,40.592,M,3.0,0123*57
$GPVTG,217.88,T,-422.02,M,004.638,N,008.590,K,D*04
$GPGGA,083537.90,5702.8744280,N,00949.4603326,E,2,5,1.5,-2.773,M,40.592,M,3.0,0123*51
$GPVTG,216.35,T,-423.55,M,004.584,N,008.489,K,D*0D
$GPGGA,083537.95,5702.8743760,N,00949.4602622,E,2,5,1.5,-2.778,M,40.592,M,3.0,0123*53
$GPVTG,215.46,T,-424.44,M,004.602,N,008.524,K,D*06
$GPGGA,083538.00,5702.8743259,N,00949.4601909,E,2,5,1.5,-2.785,M,40.592,M,3.0,0123*58
$GPVTG,214.95,T,-424.95,M,004.618,N,008.552,K,D*0F
$GPGGA,083538.05,5702.8742832,N,00949.4601194,E,2,5,1.5,-2.775,M,40.592,M,1.5,0123*5F
$GPVTG,214.44,T,-425.46,M,004.598,N,008.515,K,D*04
$GPGGA,083538.10,5702.8742308,N,00949.4600571,E,2,5,1.5,-2.777,M,40.592,M,1.5,0123*55
$GPVTG,213.25,T,-426.65,M,004.588,N,008.497,K,D*0C
$GPGGA,083538.15,5702.8741770,N,00949.4599948,E,2,5,1.5,-2.783,M,40.592,M,1.5,0123*56
$GPVTG,212.20,T,-427.70,M,004.594,N,008.508,K,D*07
$GPGGA,083538.20,5702.8741264,N,00949.4599372,E,2,5,1.5,-2.788,M,40.592,M,1.5,0123*58
$GPVTG,211.06,T,-428.84,M,004.557,N,008.440,K,D*06
$GPGGA,083538.25,5702.8740815,N,00949.4598784,E,2,5,1.5,-2.782,M,40.592,M,1.7,0123*54
$GPVTG,210.00,T,-429.90,M,004.523,N,008.377,K,D*05
$GPGGA,083538.30,5702.8740278,N,00949.4598146,E,2,5,1.5,-2.780,M,40.592,M,1.7,0123*5B
$GPVTG,209.80,T,-430.10,M,004.554,N,008.434,K,D*05
$GPGGA,083538.35,5702.8739737,N,00949.4597558,E,2,5,1.5,-2.785,M,40.592,M,1.7,0123*5F
$GPVTG,209.15,T,-430.75,M,004.563,N,008.451,K,D*0D
$GPGGA,083538.40,5702.8739176,N,00949.4597015,E,2,5,1.5,-2.794,M,40.592,M,1.7,0123*52
$GPVTG,208.07,T,-431.83,M,004.571,N,008.465,K,D*03
$GPGGA,083538.45,5702.8738722,N,00949.4596452,E,2,6,1.5,-2.782,M,40.592,M,2.0,0123*57
$GPVTG,207.17,T,-432.73,M,004.514,N,008.360,K,D*00
$GPGGA,083538.50,5702.8738203,N,00949.4595923,E,2,6,1.5,-2.789,M,40.592,M,2.0,0123*56
$GPVTG,206.71,T,-433.19,M,004.478,N,008.293,K,D*0A
$GPGGA,083538.55,5702.8737707,N,00949.4595441,E,2,6,1.5,-2.793,M,40.592,M,2.0,0123*5F
$GPVTG,205.98,T,-433.92,M,004.401,N,008.150,K,D*0F
$GPGGA,083538.60,5702.8737193,N,00949.4594958,E,2,6,1.5,-2.797,M,40.592,M,2.0,0123*52
$GPVTG,205.35,T,-434.55,M,004.357,N,008.069,K,D*0B
$GPGGA,083538.65,5702.8736676,N,00949.4594421,E,2,6,1.5,-2.769,M,40.592,M,2.2,0123*5A
$GPVTG,204.38,T,-435.52,M,004.352,N,008.059,K,D*07
$GPGGA,083538.70,5702.8736114,N,00949.4593987,E,2,6,1.5,-2.769,M,40.592,M,2.2,0123*5B
$GPVTG,203.10,T,-436.80,M,004.369,N,008.092,K,D*09
$GPGGA,083538.75,5702.8735527,N,00949.4593566,E,2,6,1.5,-2.774,M,40.592,M,2.2,0123*56
$GPVTG,201.75,T,-438.15,M,004.425,N,008.195,K,D*03
$GPGGA,083538.80,5702.8734950,N,00949.4593126,E,2,6,1.5,-2.776,M,40.592,M,2.2,0123*53
$GPVTG,201.17,T,-438.73,M,004.454,N,008.248,K,D*02
$GPGGA,083538.85,5702.8734496,N,00949.4592717,E,2,6,1.5,-2.788,M,40.592,M,2.4,0123*53
$GPVTG,201.02,T,-438.88,M,004.381,N,008.114,K,D*07
$GPGGA,083538.90,5702.8733966,N,00949.4592395,E,2,6,1.5,-2.792,M,40.592,M,2.4,0123*57
$GPVTG,199.51,T,-440.39,M,004.288,N,007.942,K,D*0A
$GPGGA,083538.95,5702.8733448,N,00949.4592017,E,2,6,1.5,-2.796,M,40.592,M,2.4,0123*5E
$GPVTG,199.21,T,-440.69,M,004.216,N,007.809,K,D*01
$GPGGA,083539.00,5702.8732910,N,00949.4591643,E,2,5,1.5,-2.803,M,40.592,M,2.4,0123*56
$GPVTG,198.84,T,-441.06,M,004.189,N,007.759,K,D*08
$GPGGA,083539.05,5702.8732326,N,00949.4591299,E,2,5,1.5,-2.786,M,40.592,M,2.6,0123*5F
$GPVTG,197.76,T,-442.14,M,004.211,N,007.799,K,D*04
$GPGGA,083539.10,5702.8731773,N,00949.4591031,E,2,5,1.5,-2.792,M,40.592,M,2.6,0123*59
$GPVTG,196.74,T,-443.16,M,004.194,N,007.767,K,D*0B
$GPGGA,083539.15,5702.8731239,N,00949.4590698,E,2,5,1.5,-2.798,M,40.592,M,2.6,0123*59
$GPVTG,196.11,T,-443.79,M,004.158,N,007.700,K,D*00
$GPGGA,083539.20,5702.8730651,N,00949.4590401,E,2,5,1.5,-2.804,M,40.592,M,2.6,0123*5C
$GPVTG,195.15,T,-444.75,M,004.192,N,007.763,K,D*0F
$GPGGA,083539.25,5702.8730119,N,00949.4590108,E,2,6,1.5,-2.794,M,40.592,M,2.9,0123*54
$GPVTG,194.43,T,-445.47,M,004.158,N,007.701,K,D*0F
$GPGGA,083539.30,5702.8729597,N,00949.4589887,E,2,6,1.5,-2.794,M,40.592,M,2.9,0123*5C
$GPVTG,193.54,T,-446.36,M,004.099,N,007.591,K,D*0C
$GPGGA,083539.35,5702.8729031,N,00949.4589684,E,2,6,1.5,-2.798,M,40.592,M,2.9,0123*51
$GPVTG,192.39,T,-447.51,M,004.101,N,007.595,K,D*02
$GPGGA,083539.40,5702.8728474,N,00949.4589469,E,2,6,1.5,-2.803,M,40.592,M,2.9,0123*5B
$GPVTG,191.48,T,-448.42,M,004.
$GPGGA,083547.15,5702.8707599,N,00949.4679886,E,2,6,1.5,-2.296,M,40.592,M,2.6,0123*55
$GPVTG,025.71,T,-614.19,M,004.044,N,007.489,K,D*07
$GPGGA,083547.20,5702.8708078,N,00949.4680404,E,2,6,1.5,-2.299,M,40.592,M,2.6,0123*59
$GPVTG,025.34,T,-614.56,M,004.075,N,007.547,K,D*0C
$GPGGA,083547.25,5702.8708642,N,00949.4680872,E,2,6,1.5,-2.265,M,40.592,M,2.9,0123*52
$GPVTG,024.60,T,-615.30,M,004.115,N,007.621,K,D*09
$GPGGA,083547.30,5702.8709161,N,00949.4681315,E,2,6,1.5,-2.264,M,40.592,M,2.9,0123*5B
$GPVTG,023.78,T,-616.12,M,004.151,N,007.687,K,D*08
$GPGGA,083547.35,5702.8709672,N,00949.4681709,E,2,6,1.5,-2.263,M,40.592,M,2.9,0123*55
$GPVTG,022.78,T,-617.12,M,004.175,N,007.731,K,D*02
$GPGGA,083547.40,5702.8710208,N,00949.4682059,E,2,6,1.5,-2.260,M,40.592,M,2.9,0123*54
$GPVTG,021.57,T,-618.33,M,004.200,N,007.777,K,D*03
$GPGGA,083547.45,5702.8710710,N,00949.4682371,E,2,6,1.5,-2.248,M,40.592,M,3.1,0123*57
$GPVTG,019.88,T,-620.02,M,004.216,N,007.808,K,D*03
$GPGGA,083547.50,5702.8711272,N,00949.4682608,E,2,6,1.5,-2.245,M,40.592,M,3.1,0123*55
$GPVTG,017.84,T,-622.06,M,004.230,N,007.835,K,D*0D
$GPGGA,083547.55,5702.8711852,N,00949.4682837,E,2,6,1.5,-2.239,M,40.592,M,3.1,0123*51
$GPVTG,015.82,T,-624.08,M,004.256,N,007.883,K,D*0C
$GPGGA,083547.60,5702.8712376,N,00949.4683042,E,2,6,1.5,-2.237,M,40.592,M,3.1,0123*5C
$GPVTG,013.88,T,-626.02,M,004.248,N,007.868,K,D*02
$GPGGA,083547.65,5702.8712855,N,00949.4683317,E,2,6,1.5,-2.226,M,40.592,M,3.3,0123*52
$GPVTG,012.62,T,-627.28,M,004.191,N,007.761,K,D*0F
$GPGGA,083547.70,5702.8713326,N,00949.4683548,E,2,6,1.5,-2.223,M,40.592,M,3.3,0123*51
$GPVTG,011.82,T,-628.08,M,004.097,N,007.587,K,D*02
$GPGGA,083547.75,5702.8713880,N,00949.4683812,E,2,6,1.5,-2.220,M,40.592,M,3.3,0123*52
$GPVTG,011.56,T,-628.34,M,004.125,N,007.639,K,D*0A
$GPGGA,083547.80,5702.8714471,N,00949.4684122,E,2,6,1.5,-2.220,M,40.592,M,3.3,0123*50
$GPVTG,012.07,T,-627.83,M,004.208,N,007.794,K,D*04
$GPGGA,083547.85,5702.8714958,N,00949.4684437,E,2,6,1.5,-2.197,M,40.592,M,3.5,0123*5B
$GPVTG,013.30,T,-626.60,M,004.158,N,007.700,K,D*06
$GPGGA,083547.90,5702.8715569,N,00949.4684655,E,2,6,1.5,-2.199,M,40.592,M,3.5,0123*58
$GPVTG,012.19,T,-627.71,M,004.236,N,007.845,K,D*08
$GPGGA,083547.95,5702.8716170,N,00949.4684861,E,2,6,1.5,-2.201,M,40.592,M,3.5,0123*59
$GPVTG,011.21,T,-628.69,M,004.291,N,007.948,K,D*07
$GPGGA,083548.00,5702.8716738,N,00949.4685042,E,2,6,1.5,-2.206,M,40.592,M,3.5,0123*5F
$GPVTG,010.21,T,-629.69,M,004.293,N,007.951,K,D*0D
$GPGGA,083548.05,5702.8717348,N,00949.4685260,E,2,6,1.5,-2.199,M,40.592,M,1.9,0123*51
$GPVTG,010.01,T,-629.89,M,004.378,N,008.109,K,D*0F
$GPGGA,083548.10,5702.8717895,N,00949.4685411,E,2,6,1.5,-2.203,M,40.592,M,1.9,0123*5E
$GPVTG,008.96,T,-630.94,M,004.334,N,008.026,K,D*08
$GPGGA,083548.15,5702.8718505,N,00949.4685503,E,2,6,1.5,-2.204,M,40.592,M,1.9,0123*55
$GPVTG,007.10,T,-632.80,M,004.368,N,008.090,K,D*0A
$GPGGA,083548.20,5702.8719039,N,00949.4685602,E,2,6,1.5,-2.208,M,40.592,M,1.9,0123*56
$GPVTG,005.92,T,-633.98,M,004.301,N,007.966,K,D*0A
$GPGGA,083548.25,5702.8719610,N,00949.4685676,E,2,6,1.5,-2.193,M,40.592,M,2.1,0123*57
$GPVTG,004.68,T,-635.22,M,004.299,N,007.961,K,D*0E
$GPGGA,083548.30,5702.8720260,N,00949.4685677,E,2,6,1.5,-2.191,M,40.592,M,2.1,0123*59
$GPVTG,002.41,T,-637.49,M,004.389,N,008.129,K,D*07
$GPGGA,083548.35,5702.8720925,N,00949.4685663,E,2,6,1.5,-2.185,M,40.592,M,2.1,0123*56
$GPVTG,000.52,T,-639.38,M,004.494,N,008.323,K,D*0C
$GPGGA,083548.40,5702.8721489,N,00949.4685653,E,2,6,1.5,-2.181,M,40.592,M,2.1,0123*59
$GPVTG,359.19,T,-280.71,M,004.450,N,008.241,K,D*0A
$GPGGA,083548.45,5702.8722021,N,00949.4685643,E,2,6,1.5,-2.167,M,40.592,M,2.4,0123*55
$GPVTG,357.60,T,-282.30,M,004.383,N,008.118,K,D*0B
$GPGGA,083548.50,5702.8722609,N,00949.4685588,E,2,6,1.5,-2.162,M,40.592,M,2.4,0123*5C
$GPVTG,356.36,T,-283.54,M,004.382,N,008.116,K,D*05
$GPGGA,083548.55,5702.8723233,N,00949.4685611,E,2,6,1.5,-2.156,M,40.592,M,2.4,0123*51
$GPVTG,356.72,T,-283.18,M,004.422,N,008.190,K,D*0E
$GPGGA,083548.60,5702.8723806,N,00949.4685568,E,2,6,1.5,-2.154,M,40.592,M,2.4,0123*54
$GPVTG,356.14,T,-283.76,M,004.391,N,008.132,K,D*01
$GPGGA,083548.65,5702.8724378,N,00949.4685691,E,2,6,1.5,-2.155,M,40.592,M,2.6,0123*52
$GPVTG,357.54,T,-282.36,M,004.406,N,008.159,K,D*05
$GPGGA,083548.70,5702.8724974,N,00949.4685633,E,2,6,1.5,-2.159,M,40.592,M,2.6,0123*54
$GPVTG,356.86,T,-283.04,M,004.403,N,008.155,K,D*02
$GPGGA,083548.75,5702.8725462,N,00949.4685555,E,2,6,1.5,-2.161,M,40.592,M,2.6,0123*52
$GPVTG,355.94,T,-283.96,M,004.258,N,007.886,K,D*09
$GPGGA,083548.80,5702.8725988,N,00949.4685484,E,2,6,1.5,-2.163,M,40.592,M,2.6,0123*5E
$GPVTG,355.37,T,-284.53,M,004.175,N,007.733,K,D*03
$GPGGA,083548.85,5702.8726642,N,00949.4685402,E,2,6,1.5,-2.154,M,40.592,M,2.9,0123*54
$GPVTG,355.06,T,-284.84,M,004.288,N,007.942,K,D*02
$GPGGA,083548.90,5702.8727312,N,00949.4685322,E,2,6,1.5,-2.159,M,40.592,M,2.9,0123*59
$GPVTG,354.90,T,-285.00,M,004.397,N,008.143,K,D*08
$GPGGA,083548.95,5702.8727984,N,00949.4685090,E,2,6,1.5,-2.160,M,40.592,M,2.9,0123*59
$GPVTG,352.62,T,-287.28,M,004.516,N,008.363,K,D*04
$GPGGA,083549.00,5702.8728556,N,00949.4684835,E,2,6,1.5,-2.160,M,40.592,M,2.9,0123*5E
$GPVTG,350.31,T,-289.59,M,004.496,N,008.326,K,D*00
$GPGGA,083549.05,5702.8729167,N,00949.4684589,E,2,6,1.5,-2.146,M,40.592,M,2.0,0123*5B
$GPVTG,348.57,T,-291.33,M,004.511,N,008.355,K,D*06
$GPGGA,083549.10,5702.8729749,N,00949.4684287,E,2,6,1.5,-2.146,M,40.592,M,2.0,0123*5C
$GPVTG,346.45,T,-293.45,M,004.516,N,008.364,K,D*0D
$GPGGA,083549.15,5702.8730423,N,00949.4684047,E,2,6,1.5,-2.142,M,40.592,M,2.0,0123*54
$GPVTG,346.10,T,-293.80,M,004.621,N,008.559,K,D*0B
$GPGGA,083549.20,5702.8731013,N,00949.4683802,E,2,6,1.5,-2.141,M,40.592,M,2.0,0123*59
$GPVTG,345.56,T,-294.34,M,004.603,N,008.526,K,D*0A
$GPGGA,083549.25,5702.8731593,N,00949.4683543,E,2,6,1.5,-2.143,M,40.592,M,2.3,0123*58
$GPVTG,344.38,T,-295.52,M,004.625,N,008.565,K,D*01
$GPGGA,083549.30,5702.8732196,N,00949.4683252,E,2,6,1.5,-2.147,M,40.592,M,2.3,0123*5D
$GPVTG,343.82,T,-296.08,M,004.626,N,008.568,K,D*05
$GPGGA,083549.35,5702.8732757,N,00949.4682951,E,2,6,1.5,-2.149,M,40.592,M,2.3,0123*54
$GPVTG,343.14,T,-296.76,M,004.574,N,008.470,K,D*0F
$GPGGA,083549.40,5702.8733315,N,00949.4682653,E,2,6,1.5,-2.148,M,40.592,M,2.3,0123*59
$GPVTG,342.68,T,-297.22,M,004.518,N,008.368,K,D*01
$GPGGA,083549.45,5702.8733862,N,00949.4682363,E,2,6,1.5,-2.139,M,40.592,M,2.5,0123*51
$GPVTG,342.42,T,-297.48,M,004.461,N,008.263,K,D*00
$GPGGA,083549.50,5702.8734500,N,00949.4681954,E,2,6,1.5,-2.143,M,40.592,M,2.5,0123*5B
$GPVTG,341.11,T,-298.79,M,004.557,N,008.440,K,D*0B
$GPGGA,083549.55,5702.8735136,N,00949.4681603,E,2,6,1.5,-2.146,M,40.592,M,2.5,0123*56
$GPVTG,340.98,T,-298.92,M,004.614,N,008.545,K,D*0E
$GPGGA,083549.60,5702.8735717,N,00949.4681239,E,2,6,1.5,-2.145,M,40.592,M,2.5,0123*5B
$GPVTG,340.48,T,-299.42,M,004.595,N,008.511,K,D*04
$GPGGA,083549.65,5702.8736290,N,00949.4680881,E,2,6,1.5,-2.146,M,40.592,M,2.7,0123*5E
$GPVTG,339.73,T,-300.17,M,004.587,N,008.496,K,D*0E
$GPGGA,083549.70,5702.8736953,N,00949.4680429,E,2,6,1.5,-2.151,M,40.592,M,2.7,0123*56
$GPVTG,338.90,T,-301.00,M,004.709,N,008.721,K,D*0E
$GPGGA,083549.75,5702.8737522,N,00949.4679954,E,2,6,1.5,-2.155,M,40.592,M,2.7,0123*5D
$GPVTG,337.48,T,-302.42,M,004.701,N,008.706,K,D*0C
$GPGGA,083549.80,5702.8738082,N,00949.4679447,E,2,6,1.5,-2.156,M,40.592,M,2.7,0123*5B
$GPVTG,335.89,T,-304.01,M,004.694,N,008.693,K,D*02
$GPGGA,083549.85,5702.8738662,N,00949.4679004,E,2,6,1.5,-2.151,M,40.592,M,3.0,0123*54
$GPVTG,335.29,T,-304.61,M,004.714,N,008.730,K,D*0F
$GPGGA,083549.90,5702.8739215,N,00949.4678462,E,2,6,1.5,-2.153,M,40.592,M,3.0,0123*52
$GPVTG,333.75,T,-306.15,M,004.707,N,008.717,K,D*06
$GPGGA,083549.95,5702.8739774,N,00949.4677906,E,2,6,1.5,-2.155,M,40.592,M,3.0,0123*53
$GPVTG,332.43,T,-307.47,M,004.711,N,008.724,K,D*03
$GPGGA,083550.00,5702.8740337,N,00949.4677420,E,2,6,1.5,-2.154,M,40.592,M,3.0,0123*52
$GPVTG,332.33,T,-307.57,M,004.678,N,008.663,K,D*09
$GPGGA,083550.05,5702.8740981,N,00949.4676972,E,2,6,1.5,-2.139,M,40.592,M,1.5,0123*57
$GPVTG,333.05,T,-306.85,M,004.721,N,008.743,K,D*0D
$GPGGA,083550.10,5702.8741490,N,00949.4676389,E,2,6,1.5,-2.142,M,40.592,M,1.5,0123*5D
$GPVTG,331.42,T,-308.48,M,004.666,N,008.641,K,D*02
$GPGGA,083550.15,5702.8742032,N,00949.4675827,E,2,6,1.5,-2.144,M,40.592,M,1.5,0123*5D
$GPVTG,330.64,T,-309.26,M,004.642,N,008.597,K,D*00
$GPGGA,083550.20,5702.8742527,N,00949.4675198,E,2,6,1.5,-2.150,M,40.592,M,1.5,0123*52
$GPVTG,328.81,T,-311.09,M,004.602,N,008.522,K,D*0C
$GPGGA,083550.25,5702.8743129,N,00949.4674590,E,2,6,1.5,-2.135,M,40.592,M,1.7,0123*50
$GPVTG,328.38,T,-311.52,M,004.660,N,008.630,K,D*04
$GPGGA,083550.30,5702.8743727,N,00949.4673976,E,2,6,1.5,-2.135,M,40.592,M,1.7,0123*5F
$GPVTG,328.19,T,-311.71,M,004.723,N,008.746,K,D*00
$GPGGA,083550.35,5702.8744243,N,00949.4673288,E,2,6,1.5,-2.139,M,40.592,M,1.7,0123*5C
$GPVTG,326.54,T,-313.36,M,004.726,N,008.753,K,D*07
$GPGGA,083550.40,5702.8744749,N,00949.4672574,E,2,6,1.5,-2.146,M,40.592,M,1.7,0123*5C
$GPVTG,324.83,T,-315.07,M,004.730,N,008.760,K,D*0C
$GPGGA,083550.45,5702.8745326,N,00949.4671938,E,2,6,1.5,-2.146,M,40.592,M,2.0,0123*56
$GPVTG,324.56,T,-315.34,M,004.779,N,008.852,K,D*07
$GPGGA,083550.50,5702.8745894,N,00949.4671277,E,2,6,1.5,-2.153,M,40.592,M,2.0,0123*54
$GPVTG,324.61,T,-315.29,M,004.800,N,008.890,K,D*00
$GPGGA,083550.55,5702.8746459,N,00949.4670621,E,2,6,1.5,-2.162,M,40.592,M,2.0,0123*5B
$GPVTG,324.76,T,-315.14,M,004.808,N,008.905,K,D*0D
$GPGGA,083550.60,5702.8746947,N,00949.4669901,E,2,6,1.5,-2.170,M,40.592,M,2.0,0123*59
$GPVTG,323.53,T,-316.37,M,004.772,N,008.837,K,D*0D
$GPGGA,083550.65,5702.8747497,N,00949.4669141,E,2,6,1.5,-2.162,M,40.592,M,2.2,0123*50
$GPVTG,322.37,T,-317.53,M,004.817,N,008.922,K,D*04
$GPGGA,083550.70,5702.8748026,N,00949.4668343,E,2,6,1.5,-2.171,M,40.592,M,2.2,0123*56
$GPVTG,321.18,T,-318.72,M,004.872,N,009.022,K,D*0D
$GPGGA,083550.75,5702.8748527,N,00949.4667604,E,2,6,1.5,-2.178,M,40.592,M,2.2,0123*57
$GPVTG,320.64,T,-319.26,M,004.839,N,008.962,K,D*04
$GPGGA,083550.80,5702.8749043,N,00949.4666847,E,2,6,1.5,-2.183,M,40.592,M,2.2,0123*57
$GPVTG,320.22,T,-319.68,M,004.835,N,008.955,K,D*04
$GPGGA,083550.85,5702.8749612,N,00949.4666028,E,2,6,1.5,-2.166,M,40.592,M,2.4,0123*5C
$GPVTG,319.65,T,-320.25,M,004.895,N,009.066,K,D*0C
$GPGGA,083550.90,5702.8750031,N,00949.4665182,E,2,6,1.5,-2.172,M,40.592,M,2.4,0123*50
$GPVTG,317.58,T,-322.32,M,004.845,N,008.972,K,D*08
$GPGGA,083550.95,5702.8750563,N,00949.4664369,E,2,6,1.5,-2.176,M,40.592,M,2.4,0123*55
$GPVTG,317.45,T,-322.45,M,004.882,N,009.041,K,D*07
$GPGGA,083551.00,5702.8751059,N,00949.4663558,E,2,6,1.5,-2.179,M,40.592,M,2.4,0123*59
$GPVTG,317.05,T,-322.85,M,004.873,N,009.024,K,D*02
$GPGGA,083551.05,5702.8751531,N,00949.4662709,E,2,6,1.5,-2.185,M,40.592,M,2.6,0123*51
$GPVTG,315.64,T,-324.26,M,004.933,N,009.136,K,D*0F
$GPGGA,083551.10,5702.8752010,N,00949.4661836,E,2,6,1.5,-2.190,M,40.592,M,2.6,0123*54
$GPVTG,314.89,T,-325.01,M,004.939,N,009.148,K,D*0A
$GPGGA,083551.15,5702.8752484,N,00949.4660926,E,2,6,1.5,-2.199,M,40.592,M,2.6,0123*50
$GPVTG,313.94,T,-325.96,M,004.967,N,009.199,K,D*08
$GPGGA,083551.20,5702.8752933,N,00949.4660013,E,2,6,1.5,-2.204,M,40.592,M,2.6,0123*5F
$GPVTG,312.89,T,-327.01,M,004.962,N,009.190,K,D*05
$GPGGA,083551.25,5702.8753423,N,00949.4659190,E,2,6,1.5,-2.197,M,40.592,M,2.9,0123*51
$GPVTG,313.22,T,-326.68,M,004.931,N,009.133,K,D*04
$GPGGA,083551.30,5702.8753849,N,00949.4658258,E,2,6,1.5,-2.201,M,40.592,M,2.9,0123*5F
$GPVTG,311.98,T,-327.92,M,004.919,N,009.111,K,D*09
$GPGGA,083551.35,5702.8754289,N,00949.4657300,E,2,6,1.5,-2.208,M,40.592,M,2.9,0123*51
$GPVTG,310.92,T,-328.98,M,004.939,N,009.147,K,D*06
$GPGGA,083551.40,5702.8754748,N,00949.4656307,E,2,6,1.5,-2.212,M,40.592,M,2.9,0123*56
$GPVTG,310.01,T,-329.89,M,004.999,N,009.258,K,D*0A
$GPGGA,083551.45,5702.8755184,N,00949.4655361,E,2,6,1.5,-2.206,M,40.592,M,3.1,0123*5B
$GPVTG,309.06,T,-330.84,M,005.006,N,009.271,K,D*05
$GPGGA,083551.50,5702.8755515,N,00949.4654342,E,2,6,1.5,-2.210,M,40.592,M,3.1,0123*54
$GPVTG,306.78,T,-333.12,M,004.964,N,009.192,K,D*0D
$GPGGA,083551.55,5702.8755922,N,00949.4653374,E,2,6,1.5,-2.213,M,40.592,M,3.1,0123*58
$GPVTG,306.24,T,-333.66,M,004.935,N,009.140,K,D*0C
$GPGGA,083551.60,5702.8756323,N,00949.4652324,E,2,6,1.5,-2.216,M,40.592,M,3.1,0123*57
$GPVTG,305.13,T,-334.77,M,004.977,N,009.218,K,D*04
$GPGGA,083551.65,5702.8756728,N,00949.4651294,E,2,6,1.5,-2.212,M,40.592,M,3.3,0123*52
$GPVTG,304.23,T,-335.67,M,005.022,N,009.301,K,D*07
$GPGGA,083551.70,5702.8757090,N,00949.4650236,E,2,6,1.5,-2.218,M,40.592,M,3.3,0123*50
$GPVTG,303.02,T,-336.88,M,005.021,N,009.299,K,D*02
$GPGGA,083551.75,5702.8757455,N,00949.4649175,E,2,6,1.5,-2.221,M,40.592,M,3.3,0123*5E
$GPVTG,302.09,T,-337.81,M,005.019,N,009.295,K,D*07
$GPGGA,083551.80,5702.8757817,N,00949.4648080,E,2,6,1.5,-2.227,M,40.592,M,3.3,0123*52
$GPVTG,301.09,T,-338.81,M,005.044,N,009.341,K,D*0B
$GPGGA,083551.85,5702.8758181,N,00949.4647019,E,2,6,1.5,-2.215,M,40.592,M,3.5,0123*56
$GPVTG,300.35,T,-339.55,M,005.011,N,009.280,K,D*01
$GPGGA,083551.90,5702.8758513,N,00949.4645976,E,2,6,1.5,-2.218,M,40.592,M,3.5,0123*52
$GPVTG,299.69,T,-340.21,M,004.950,N,009.168,K,D*0C
$GPGGA,083551.95,5702.8758824,N,00949.4644833,E,2,6,1.5,-2.223,M,40.592,M,3.5,0123*57
$GPVTG,298.21,T,-341.69,M,004.985,N,009.232,K,D*08
$GPGGA,083552.00,5702.8759134,N,00949.4643703,E,2,6,1.5,-2.227,M,40.592,M,3.5,0123*5E
$GPVTG,297.08,T,-342.82,M,004.997,N,009.254,K,D*09
$GPGGA,083552.05,5702.8759457,N,00949.4642621,E,2,6,1.5,-2.220,M,40.592,M,1.9,0123*52
$GPVTG,296.49,T,-343.41,M,004.972,N,009.208,K,D*01
$GPGGA,083552.10,5702.8759753,N,00949.4641502,E,2,6,1.5,-2.222,M,40.592,M,1.9,0123*52
$GPVTG,295.60,T,-344.30,M,004.958,N,009.183,K,D*00
$GPGGA,083552.15,5702.8760031,N,00949.4640367,E,2,6,1.5,-2.226,M,40.592,M,1.9,0123*5E
$GPVTG,294.55,T,-345.35,M,004.949,N,009.166,K,D*08
$GPGGA,083552.20,5702.8760285,N,00949.4639174,E,2,6,1.5,-2.229,M,40.592,M,1.9,0123*54
$GPVTG,293.03,T,-346.87,M,004.988,N,009.237,K,D*0C
$GPGGA,083552.25,5702.8760571,N,00949.4638112,E,2,6,1.5,-2.233,M,40.592,M,2.1,0123*5C
$GPVTG,292.78,T,-347.12,M,004.942,N,009.152,K,D*0A
$GPGGA,083552.30,5702.8760781,N,00949.4636938,E,2,6,1.5,-2.242,M,40.592,M,2.1,0123*5D
$GPVTG,291.08,T,-348.82,M,004.934,N,009.137,K,D*0A
$GPGGA,083552.35,5702.8760987,N,00949.4635799,E,2,6,1.5,-2.249,M,40.592,M,2.1,0123*5D
$GPVTG,289.75,T,-350.15,M,004.884,N,009.045,K,D*00
$GPGGA,083552.40,5702.8761217,N,00949.4634616,E,2,6,1.5,-2.259,M,40.592,M,2.1,0123*5A
$GPVTG,288.82,T,-351.08,M,004.900,N,009.075,K,D*0A
$GPGGA,083552.45,5702.8761527,N,00949.4633416,E,2,6,1.5,-2.240,M,40.592,M,2.4,0123*53
$GPVTG,289.00,T,-350.90,M,004.901,N,009.076,K,D*03
$GPGGA,083552.50,5702.8761765,N,00949.4632236,E,2,6,1.5,-2.245,M,40.592,M,2.4,0123*53
$GPVTG,288.49,T,-351.41,M,004.911,N,009.096,K,D*0D
$GPGGA,083552.55,5702.8761881,N,00949.4631005,E,2,6,1.5,-2.253,M,40.592,M,2.4,0123*55
$GPVTG,285.99,T,-353.91,M,004.925,N,009.120,K,D*09
$GPGGA,083552.60,5702.8762172,N,00949.4629822,E,2,6,1.5,-2.254,M,40.592,M,2.4,0123*56
$GPVTG,286.78,T,-353.12,M,004.949,N,009.166,K,D*06
$GPGGA,083552.65,5702.8762358,N,00949.4628687,E,2,6,1.5,-2.254,M,40.592,M,2.6,0123*5B
$GPVTG,285.79,T,-354.11,M,004.885,N,009.047,K,D*03
$GPGGA,083552.70,5702.8762576,N,00949.4627490,E,2,6,1.5,-2.261,M,40.592,M,2.6,0123*58
$GPVTG,285.58,T,-354.32,M,004.899,N,009.073,K,D*0B
$GPGGA,083552.75,5702.8762737,N,00949.4626261,E,2,6,1.5,-2.266,M,40.592,M,2.6,0123*54
$GPVTG,284.46,T,-355.44,M,004.924,N,009.120,K,D*05
$GPGGA,083552.80,5702.8762857,N,00949.4625029,E,2,6,1.5,-2.270,M,40.592,M,2.6,0123*5D
$GPVTG,282.86,T,-357.04,M,004.935,N,009.140,K,D*0F
$GPGGA,083552.85,5702.8763009,N,00949.4623840,E,2,6,1.5,-2.260,M,40.592,M,2.9,0123*55
$GPVTG,281.92,T,-357.98,M,004.882,N,009.041,K,D*01
$GPGGA,083552.90,5702.8763191,N,00949.4622640,E,2,6,1.5,-2.266,M,40.592,M,2.9,0123*58
$GPVTG,281.85,T,-358.05,M,004.878,N,009.034,K,D*0B
$GPGGA,083552.95,5702.8763319,N,00949.4621399,E,2,6,1.5,-2.274,M,40.592,M,2.9,0123*5E
$GPVTG,280.88,T,-359.02,M,004.906,N,009.085,K,D*03
$GPGGA,083553.00,5702.8763455,N,00949.4620160,E,2,6,1.5,-2.280,M,40.592,M,2.9,0123*52
$GPVTG,280.22,T,-359.68,M,004.927,N,009.125,K,D*07
$GPGGA,083553.05,5702.8763580,N,00949.4619006,E,2,6,1.5,-2.283,M,40.592,M,2.0,0123*5F
$GPVTG,279.54,T,-360.36,M,004.872,N,009.022,K,D*06
$GPGGA,083553.10,5702.8763720,N,00949.4617806,E,2,6,1.5,-2.289,M,40.592,M,2.0,0123*5F
$GPVTG,279.35,T,-360.55,M,004.851,N,008.985,K,D*00
$GPGGA,083553.15,5702.8763848,N,00949.4616600,E,2,6,1.5,-2.295,M,40.592,M,2.0,0123*5F
$GPVTG,279.02,T,-360.88,M,004.839,N,008.962,K,D*03
$GPGGA,083553.20,5702.8763940,N,00949.4615312,E,2,6,1.5,-2.304,M,40.592,M,2.0,0123*5C
$GPVTG,278.03,T,-361.87,M,004.915,N,009.103,K,D*0C
$GPGGA,083553.25,5702.8764024,N,00949.4614090,E,2,6,1.5,-2.304,M,40.592,M,2.3,0123*5E
$GPVTG,276.92,T,-362.98,M,004.912,N,009.097,K,D*0C
$GPGGA,083553.30,5702.8764079,N,00949.4612880,E,2,6,1.5,-2.313,M,40.592,M,2.3,0123*5B
$GPVTG,275.83,T,-364.07,M,004.879,N,009.036,K,D*08
$GPGGA,083553.35,5702.8764190,N,00949.4611631,E,2,6,1.5,-2.320,M,40.592,M,2.3,0123*5F
$GPVTG,275.81,T,-364.09,M,004.904,N,009.083,K,D*01
$GPGGA,083553.40,5702.8764273,N,00949.4610372,E,2,6,1.5,-2.328,M,40.592,M,2.3,0123*58
$GPVTG,275.38,T,-364.52,M,004.933,N,009.135,K,D*05
$GPGGA,083553.45,5702.8764322,N,00949.4609133,E,2,6,1.5,-2.322,M,40.592,M,2.5,0123*5B
$GPVTG,274.25,T,-365.65,M,004.922,N,009.115,K,D*0F
$GPGGA,083553.50,5702.8764315,N,00949.4607858,E,2,6,1.5,-2.330,M,40.592,M,2.5,0123*52
$GPVTG,272.64,T,-367.26,M,004.957,N,009.181,K,D*06
$GPGGA,083553.55,5702.8764284,N,00949.4606628,E,2,6,1.5,-2.338,M,40.592,M,2.5,0123*5E
$GPVTG,270.90,T,-369.00,M,004.933,N,009.136,K,D*0B
$GPGGA,083553.60,5702.8764279,N,00949.4605383,E,2,6,1.5,-2.345,M,40.592,M,2.5,0123*57
$GPVTG,269.84,T,-370.06,M,004.932,N,009.134,K,D*0B
$GPGGA,083553.65,5702.8764291,N,00949.4604082,E,2,6,1.5,-2.342,M,40.592,M,2.7,0123*52
$GPVTG,269.05,T,-370.85,M,004.999,N,009.259,K,D*00
$GPGGA,083553.70,5702.8764287,N,00949.4602879,E,2,6,1.5,-2.348,M,40.592,M,2.7,0123*51
$GPVTG,268.36,T,-371.54,M,004.934,N,009.138,K,D*0F
$GPGGA,083553.75,5702.8764291,N,00949.4601678,E,2,6,1.5,-2.353,M,40.592,M,2.7,0123*55
$GPVTG,267.93,T,-371.97,M,004.876,N,009.031,K,D*0F
$GPGGA,083553.80,5702.8764234,N,00949.4600432,E,2,6,1.5,-2.357,M,40.592,M,2.7,0123*59
$GPVTG,266.63,T,-373.27,M,004.886,N,009.049,K,D*08
$GPGGA,083553.85,5702.8764252,N,00949.4599217,E,2,6,1.5,-2.354,M,40.592,M,3.0,0123*5B
$GPVTG,266.36,T,-373.54,M,004.861,N,009.002,K,D*0A
$GPGGA,083553.90,5702.8764239,N,00949.4597950,E,2,6,1.5,-2.359,M,40.592,M,3.0,0123*59
$GPVTG,266.14,T,-373.76,M,004.896,N,009.068,K,D*0E
$GPGGA,083553.95,5702.8764140,N,00949.4596727,E,2,5,1.5,-2.365,M,40.592,M,3.0,0123*52
$GPVTG,264.57,T,-375.33,M,004.885,N,009.047,K,D*03
$GPGGA,083554.00,5702.8764045,N,00949.4595500,E,2,5,1.5,-2.372,M,40.592,M,3.0,0123*5F
$GPVTG,263.31,T,-376.59,M,004.882,N,009.042,K,D*09
$GPGGA,083554.05,5702.8764032,N,00949.4594250,E,2,5,1.5,-2.353,M,40.592,M,1.5,0123*5D
$GPVTG,263.08,T,-376.82,M,004.850,N,008.982,K,D*0E
$GPGGA,083554.10,5702.8763960,N,00949.4593009,E,2,5,1.5,-2.360,M,40.592,M,1.5,0123*59
$GPVTG,262.52,T,-377.38,M,004.868,N,009.015,K,D*0D
$GPGGA,083554.15,5702.8763845,N,00949.4591793,E,2,5,1.5,-2.364,M,40.592,M,1.5,0123*58
$GPVTG,261.32,T,-378.58,M,004.863,N,009.007,K,D*09
$GPGGA,083554.20,5702.8763714,N,00949.4590560,E,2,5,1.5,-2.366,M,40.592,M,1.5,0123*58
$GPVTG,260.09,T,-379.81,M,004.886,N,009.048,K,D*05
$GPGGA,083554.25,5702.8763658,N,00949.4589212,E,2,5,1.5,-2.322,M,40.592,M,1.7,0123*5C
$GPVTG,259.67,T,-380.23,M,004.915,N,009.102,K,D*0D
$GPGGA,083554.30,5702.8763508,N,00949.4587952,E,2,5,1.5,-2.321,M,40.592,M,1.7,0123*5C
$GPVTG,258.34,T,-381.56,M,004.974,N,009.212,K,D*0C
$GPGGA,083554.35,5702.8763381,N,00949.4586700,E,2,5,1.5,-2.320,M,40.592,M,1.7,0123*57
$GPVTG,257.94,T,-381.96,M,005.002,N,009.263,K,D*0A
$GPGGA,083554.40,5702.8763296,N,00949.4585474,E,2,5,1.5,-2.319,M,40.592,M,1.7,0123*5B
$GPVTG,258.49,T,-381.41,M,004.975,N,009.214,K,D*07
$GPGGA,083554.45,5702.8763238,N,00949.4584350,E,2,5,1.5,-2.322,M,40.592,M,2.0,0123*56
$GPVTG,258.22,T,-381.68,M,004.882,N,009.041,K,D*0A
$GPGGA,083554.50,5702.8763070,N,00949.4583102,E,2,5,1.5,-2.325,M,40.592,M,2.0,0123*59
$GPVTG,257.13,T,-382.77,M,004.933,N,009.135,K,D*03
$GPGGA,083554.55,5702.8762919,N,00949.4581886,E,2,5,1.5,-2.329,M,40.592,M,2.0,0123*50
$GPVTG,256.55,T,-383.35,M,004.930,N,009.131,K,D*00
$GPGGA,083554.60,5702.8762772,N,00949.4580698,E,2,5,1.5,-2.326,M,40.592,M,2.0,0123*5A
$GPVTG,256.11,T,-383.79,M,004.895,N,009.066,K,D*05
$GPGGA,083554.65,5702.8762515,N,00949.4579437,E,2,5,1.5,-2.288,M,40.592,M,2.2,0123*5A
$GPVTG,254.12,T,-385.78,M,004.902,N,009.079,K,D*02
$GPGGA,083554.70,5702.8762283,N,00949.4578250,E,2,5,1.5,-2.287,M,40.592,M,2.2,0123*5F
$GPVTG,252.44,T,-387.46,M,004.916,N,009.104,K,D*06
$GPGGA,083554.75,5702.8762116,N,00949.4577024,E,2,5,1.5,-2.284,M,40.592,M,2.2,0123*58
$GPVTG,252.54,T,-387.36,M,004.940,N,009.148,K,D*0B
$GPGGA,083554.80,5702.8761944,N,00949.4575784,E,2,5,1.5,-2.285,M,40.592,M,2.2,0123*50
$GPVTG,252.67,T,-387.23,M,004.978,N,009.219,K,D*03
$GPGGA,083554.85,5702.8761768,N,00949.4574626,E,2,5,1.5,-2.292,M,40.592,M,2.4,0123*5D
$GPVTG,251.67,T,-388.23,M,004.989,N,009.240,K,D*0D
$GPGGA,083554.90,5702.8761597,N,00949.4573544,E,2,5,1.5,-2.294,M,40.592,M,2.4,0123*5D
$GPVTG,251.40,T,-388.50,M,004.833,N,008.951,K,D*06
$GPGGA,083554.95,5702.8761352,N,00949.4572397,E,2,5,1.5,-2.298,M,40.592,M,2.4,0123*52
$GPVTG,250.10,T,-389.80,M,004.823,N,008.932,K,D*0A
$GPGGA,083555.00,5702.8761110,N,00949.4571254,E,2,5,1.5,-2.304,M,40.592,M,2.4,0123*52
$GPVTG,249.10,T,-390.80,M,004.813,N,008.914,K,D*0D
$GPGGA,083555.05,5702.8760821,N,00949.4570028,E,2,5,1.5,-2.279,M,40.592,M,2.6,0123*5C
$GPVTG,248.15,T,-391.75,M,004.843,N,008.969,K,D*0D
$GPGGA,083555.10,5702.8760537,N,00949.4568884,E,2,5,1.5,-2.283,M,40.592,M,2.6,0123*50
$GPVTG,246.78,T,-393.12,M,004.866,N,009.012,K,D*08
$GPGGA,083555.15,5702.8760258,N,00949.4567790,E,2,5,1.5,-2.285,M,40.592,M,2.6,0123*58
$GPVTG,245.53,T,-394.37,M,004.832,N,008.949,K,D*05
$GPGGA,083555.20,5702.8759989,N,00949.4566666,E,2,5,1.5,-2.288,M,40.592,M,2.6,0123*57
$GPVTG,244.90,T,-395.00,M,004.832,N,008.950,K,D*06
$GPGGA,083555.25,5702.8759623,N,00949.4565582,E,2,5,1.5,-2.288,M,40.592,M,2.9,0123*58
$GPVTG,243.56,T,-396.34,M,004.832,N,008.949,K,D*07
$GPGGA,083555.30,5702.8759325,N,00949.4564496,E,2,5,1.5,-2.293,M,40.592,M,2.9,0123*50
$GPVTG,242.60,T,-397.30,M,004.821,N,008.928,K,D*03
$GPGGA,083555.35,5702.8759092,N,00949.4563448,E,2,5,1.5,-2.297,M,40.592,M,2.9,0123*5A
$GPVTG,242.29,T,-397.61,M,004.746,N,008.789,K,D*01
$GPGGA,083555.40,5702.8758787,N,00949.4562371,E,2,5,1.5,-2.300,M,40.592,M,2.9,0123*59
$GPVTG,241.54,T,-398.36,M,004.749,N,008.795,K,D*07
$GPGGA,083555.45,5702.8758428,N,00949.4561261,E,2,5,1.5,-2.302,M,40.592,M,3.1,0123*52
$GPVTG,240.74,T,-399.16,M,004.820,N,008.926,K,D*01
$GPGGA,083555.50,5702.8757994,N,00949.4560219,E,2,5,1.5,-2.308,M,40.592,M,3.1,0123*57
$GPVTG,238.49,T,-401.41,M,004.864,N,009.007,K,D*0F
$GPGGA,083555.55,5702.8757650,N,00949.4559217,E,2,5,1.5,-2.315,M,40.592,M,3.1,0123*5D
$GPVTG,237.32,T,-402.58,M,004.820,N,008.927,K,D*0D
$GPGGA,083555.60,5702.8757277,N,00949.4558226,E,2,5,1.5,-2.322,M,40.592,M,3.1,0123*5D
$GPVTG,235.93,T,-403.97,M,004.798,N,008.886,K,D*00
$GPGGA,083555.65,5702.8757000,N,00949.4557212,E,2,5,1.5,-2.317,M,40.592,M,3.3,0123*56
$GPVTG,236.07,T,-403.83,M,004.696,N,008.698,K,D*05
$GPGGA,083555.70,5702.8756671,N,00949.4556241,E,2,5,1.5,-2.324,M,40.592,M,3.3,0123*54
$GPVTG,235.47,T,-404.43,M,004.646,N,008.605,K,D*00
$GPGGA,083555.75,5702.8756259,N,00949.4555295,E,2,5,1.5,-2.333,M,40.592,M,3.3,0123*53
$GPVTG,233.75,T,-406.15,M,004.648,N,008.608,K,D*05
$GPGGA,083555.80,5702.8755819,N,00949.4554310,E,2,5,1.5,-2.343,M,40.592,M,3.3,0123*5E
$GPVTG,232.32,T,-407.58,M,004.719,N,008.740,K,D*07
$GPGGA,083555.85,5702.8755370,N,00949.4553360,E,2,5,1.5,-2.335,M,40.592,M,3.5,0123*58
$GPVTG,230.47,T,-409.43,M,004.736,N,008.772,K,D*0F
$GPGGA,083555.90,5702.8754992,N,00949.4552468,E,2,5,1.5,-2.341,M,40.592,M,3.5,0123*56
$GPVTG,229.60,T,-410.30,M,004.675,N,008.658,K,D*01
$GPGGA,083555.95,5702.8754627,N,00949.4551552,E,2,5,1.5,-2.347,M,40.592,M,3.5,0123*5F
$GPVTG,229.37,T,-410.53,M,004.638,N,008.590,K,D*08
$GPGGA,083556.00,5702.8754202,N,00949.4550659,E,2,5,1.5,-2.355,M,40.592,M,3.5,0123*59
$GPVTG,228.34,T,-411.56,M,004.641,N,008.596,K,D*06
$GPGGA,083556.05,5702.8753831,N,00949.4549743,E,2,5,1.5,-2.338,M,40.592,M,1.9,0123*56
$GPVTG,227.73,T,-412.17,M,004.588,N,008.498,K,D*05
$GPGGA,083556.10,5702.8753392,N,00949.4548850,E,2,5,1.5,-2.343,M,40.592,M,1.9,0123*50
$GPVTG,226.99,T,-412.91,M,004.623,N,008.563,K,D*09
$GPGGA,083556.15,5702.8752912,N,00949.4547995,E,2,5,1.5,-2.346,M,40.592,M,1.9,0123*54
$GPVTG,225.54,T,-414.36,M,004.665,N,008.640,K,D*00
$GPGGA,083556.20,5702.8752497,N,00949.4547182,E,2,5,1.5,-2.349,M,40.592,M,1.9,0123*53
$GPVTG,224.79,T,-415.11,M,004.608,N,008.534,K,D*01
$GPGGA,083556.25,5702.8752110,N,00949.4546272,E,2,5,1.5,-2.332,M,40.592,M,2.1,0123*56
$GPVTG,225.10,T,-414.80,M,004.591,N,008.502,K,D*00
$GPGGA,083556.30,5702.8751745,N,00949.4545475,E,2,5,1.5,-2.333,M,40.592,M,2.1,0123*54
$GPVTG,225.07,T,-414.83,M,004.485,N,008.307,K,D*02
$GPGGA,083556.35,5702.8751231,N,00949.4544695,E,2,5,1.5,-2.331,M,40.592,M,2.1,0123*58
$GPVTG,223.14,T,-416.76,M,004.532,N,008.393,K,D*0E
$GPGGA,083556.40,5702.8750760,N,00949.4543850,E,2,5,1.5,-2.335,M,40.592,M,2.1,0123*5E
$GPVTG,222.79,T,-417.11,M,004.587,N,008.496,K,D*08
$GPGGA,083556.45,5702.8750349,N,00949.4543135,E,2,5,1.5,-2.340,M,40.592,M,2.4,0123*59
$GPVTG,222.23,T,-417.67,M,004.499,N,008.333,K,D*00
$GPGGA,083556.50,5702.8749849,N,00949.4542354,E,2,5,1.5,-2.351,M,40.592,M,2.4,0123*5A
$GPVTG,221.23,T,-418.67,M,004.543,N,008.413,K,D*0F
$GPGGA,083556.55,5702.8749304,N,00949.4541629,E,2,5,1.5,-2.353,M,40.592,M,2.4,0123*53
$GPVTG,219.35,T,-420.55,M,004.591,N,008.503,K,D*06
$GPGGA,083556.60,5702.8748812,N,00949.4540925,E,2,5,1.5,-2.356,M,40.592,M,2.4,0123*5F
$GPVTG,218.13,T,-421.77,M,004.574,N,008.470,K,D*0C
$GPGGA,083556.65,5702.8748377,N,00949.4540067,E,2,5,1.5,-2.338,M,40.592,M,2.6,0123*57
$GPVTG,217.73,T,-422.17,M,004.606,N,008.530,K,D*03
$GPGGA,083556.70,5702.8747896,N,00949.4539400,E,2,5,1.5,-2.343,M,40.592,M,2.6,0123*5F
$GPVTG,216.62,T,-423.28,M,004.580,N,008.482,K,D*0A
$GPGGA,083556.75,5702.8747408,N,00949.4538773,E,2,5,1.5,-2.344,M,40.592,M,2.6,0123*50
$GPVTG,215.28,T,-424.62,M,004.542,N,008.412,K,D*09
$GPGGA,083556.80,5702.8746917,N,00949.4538115,E,2,5,1.5,-2.344,M,40.592,M,2.6,0123*5E
$GPVTG,214.41,T,-425.49,M,004.528,N,008.387,K,D*08
$GPGGA,083556.85,5702.8746454,N,00949.4537455,E,2,5,1.5,-2.342,M,40.592,M,2.9,0123*56
$GPVTG,213.86,T,-426.04,M,004.504,N,008.342,K,D*09
$GPGGA,083556.90,5702.8745931,N,00949.4536822,E,2,5,1.5,-2.345,M,40.592,M,2.9,0123*55
$GPVTG,212.92,T,-426.98,M,004.510,N,008.352,K,D*0C
$GPGGA,083556.95,5702.8745422,N,00949.4536187,E,2,5,1.5,-2.354,M,40.592,M,2.9,0123*59
$GPVTG,212.32,T,-427.58,M,004.506,N,008.344,K,D*0B
$GPGGA,083557.00,5702.8744929,N,00949.4535600,E,2,5,1.5,-2.360,M,40.592,M,2.9,0123*5F
$GPVTG,211.48,T,-428.42,M,004.465,N,008.269,K,D*0B
$GPGGA,083557.05,5702.8744448,N,00949.4534928,E,2,5,1.5,-2.342,M,40.592,M,2.0,0123*5D
$GPVTG,211.75,T,-428.15,M,004.391,N,008.132,K,D*06
$GPGGA,083557.10,5702.8743918,N,00949.4534346,E,2,5,1.5,-2.349,M,40.592,M,2.0,0123*5F
$GPVTG,210.78,T,-429.12,M,004.411,N,008.169,K,D*0D
$GPGGA,083557.15,5702.8743416,N,00949.4533735,E,2,5,1.5,-2.355,M,40.592,M,2.0,0123*53
$GPVTG,210.90,T,-429.00,M,004.388,N,008.127,K,D*05
$GPGGA,083557.20,5702.8742905,N,00949.4533172,E,2,5,1.5,-2.362,M,40.592,M,2.0,0123*5A
$GPVTG,210.30,T,-429.60,M,004.362,N,008.079,K,D*07
$GPGGA,083557.25,5702.8742377,N,00949.4532630,E,2,5,1.5,-2.354,M,40.592,M,2.3,0123*56
$GPVTG,209.28,T,-430.62,M,004.308,N,007.978,K,D*07
$GPGGA,083557.30,5702.8741837,N,00949.4532135,E,2,5,1.5,-2.360,M,40.592,M,2.3,0123*5B
$GPVTG,207.86,T,-432.04,M,004.309,N,007.980,K,D*09
$GPGGA,083557.35,5702.8741350,N,00949.4531636,E,2,5,1.5,-2.362,M,40.592,M,2.3,0123*51
$GPVTG,207.38,T,-432.52,M,004.234,N,007.842,K,D*0F
$GPGGA,083557.40,5702.8740809,N,00949.4531071,E,2,5,1.5,-2.366,M,40.592,M,2.3,0123*54
$GPVTG,207.38,T,-432.52,M,004.287,N,007.940,K,D*04
$GPGGA,083557.45,5702.8740263,N,00949.4530582,E,2,5,1.5,-2.352,M,40.592,M,2.5,0123*5E
$GPVTG,206.30,T,-433.60,M,004.260,N,007.889,K,D*00
$GPGGA,083557.50,5702.8739704,N,00949.4530133,E,2,5,1.5,-2.362,M,40.592,M,2.5,0123*5D
$GPVTG,204.92,T,-434.98,M,004.285,N,007.937,K,D*05
$GPGGA,083557.55,5702.8739190,N,00949.4529664,E,2,5,1.5,-2.368,M,40.592,M,2.5,0123*54
$GPVTG,204.57,T,-435.33,M,004.250,N,007.872,K,D*04
$GPGGA,083557.60,5702.8738679,N,00949.4529260,E,2,5,1.5,-2.369,M,40.592,M,2.5,0123*52
$GPVTG,203.48,T,-436.42,M,004.189,N,007.757,K,D*07
$GPGGA,083557.65,5702.8738104,N,00949.4528708,E,2,5,1.5,-2.355,M,40.592,M,2.7,0123*5D
$GPVTG,204.02,T,-435.88,M,004.249,N,007.869,K,D*06
$GPGGA,083557.70,5702.8737574,N,00949.4528274,E,2,5,1.5,-2.358,M,40.592,M,2.7,0123*56
$GPVTG,203.45,T,-436.45,M,004.233,N,007.840,K,D*06
$GPGGA,083557.75,5702.8737001,N,00949.4527885,E,2,5,1.5,-2.366,M,40.592,M,2.7,0123*52
$GPVTG,202.06,T,-437.84,M,004.267,N,007.903,K,D*0B
$GPGGA,083557.80,5702.8736466,N,00949.4527456,E,2,5,1.5,-2.371,M,40.592,M,2.7,0123*58
$GPVTG,201.84,T,-438.06,M,004.257,N,007.885,K,D*0B
$GPGGA,083557.85,5702.8736027,N,00949.4527116,E,2,5,1.5,-2.363,M,40.592,M,3.0,0123*58
$GPVTG,201.21,T,-438.69,M,004.024,N,007.453,K,D*0C
$GPGGA,083557.90,5702.8735467,N,00949.4526809,E,2,5,1.5,-2.370,M,40.592,M,3.0,0123*5B
$GPVTG,199.31,T,-440.59,M,004.042,N,007.486,K,D*0B
$GPGGA,083557.95,5702.8734896,N,00949.4526425,E,2,5,1.5,-2.378,M,40.592,M,3.0,0123*57
$GPVTG,198.87,T,-441.03,M,004.109,N,007.610,K,D*0A
$GPGGA,083558.00,5702.8734327,N,00949.4526128,E,2,5,1.5,-2.386,M,40.592,M,3.0,0123*5C
$GPVTG,197.38,T,-442.52,M,004.134,N,007.657,K,D*0B
$GPGGA,083558.05,5702.8733735,N,00949.4525802,E,2,5,1.5,-2.376,M,40.592,M,1.5,0123*53
$GPVTG,196.23,T,-443.67,M,004.135,N,007.658,K,D*09
$GPGGA,083558.10,5702.8733235,N,00949.4525591,E,2,5,1.5,-2.384,M,40.592,M,1.5,0123*58
$GPVTG,194.49,T,-445.41,M,004.024,N,007.453,K,D*0D
$GPGGA,083558.15,5702.8732675,N,00949.4525268,E,2,5,1.5,-2.394,M,40.592,M,1.5,0123*5C
$GPVTG,194.47,T,-445.43,M,004.064,N,007.526,K,D*06
$GPGGA,083558.20,5702.8732107,N,00949.4524971,E,2,5,1.5,-2.404,M,40.592,M,1.5,0123*54
$GPVTG,194.14,T,-445.76,M,004.106,N,007.605,K,D*01
$GPGGA,083558.25,5702.8731472,N,00949.4524755,E,2,5,1.5,-2.376,M,40.592,M,1.7,0123*5D
$GPVTG,193.12,T,-446.78,M,004.104,N,007.600,K,D*0A
$GPGGA,083558.30,5702.8730908,N,00949.4524577,E,2,5,1.5,-2.380,M,40.592,M,1.7,0123*53
$GPVTG,192.03,T,-447.87,M,004.113,N,007.617,K,D*0A
$GPGGA,083558.35,5702.8730316,N,00949.4524398,E,2,5,1.5,-2.386,M,40.592,M,1.7,0123*52
$GPVTG,190.89,T,-449.01,M,004.156,N,007.697,K,D*03
$GPGGA,083558.40,5702.8729763,N,00949.4524262,E,2,5,1.5,-2.389,M,40.592,M,1.7,0123*55
$GPVTG,189.73,T,-450.17,M,004.143,N,007.673,K,D*0F
$GPGGA,083558.45,5702.8729240,N,00949.4524113,E,2,5,1.5,-2.397,M,40.592,M,2.0,0123*5A
$GPVTG,188.63,T,-451.27,M,004.120,N,007.630,K,D*0F
$GPGGA,083558.50,5702.8728669,N,00949.4523992,E,2,5,1.5,-2.409,M,40.592,M,2.0,0123*56
$GPVTG,187.49,T,-452.41,M,004.130,N,007.649,K,D*04
$GPGGA,083558.55,5702.8728109,N,00949.4523888,E,2,5,1.5,-2.419,M,40.592,M,2.0,0123*59
$GPVTG,186.38,T,-453.52,M,004.126,N,007.641,K,D*0F
$GPGGA,083558.60,5702.8727552,N,00949.4523809,E,2,5,1.5,-2.424,M,40.592,M,2.0,0123*5D
$GPVTG,185.21,T,-454.69,M,004.115,N,007.621,K,D*0D
$GPGGA,083558.65,5702.8726961,N,00949.4523758,E,2,5,1.5,-2.407,M,40.592,M,2.2,0123*5D
$GPVTG,183.91,T,-455.99,M,004.092,N,007.578,K,D*0F
$GPGGA,083558.70,5702.8726417,N,00949.4523701,E,2,5,1.5,-2.414,M,40.592,M,2.2,0123*5B
$GPVTG,182.86,T,-457.04,M,004.065,N,007.529,K,D*02
$GPGGA,083558.75,5702.8725901,N,00949.4523659,E,2,5,1.5,-2.417,M,40.592,M,2.2,0123*58
$GPVTG,181.84,T,-458.06,M,004.001,N,007.410,K,D*07
$GPGGA,083558.80,5702.8725348,N,00949.4523605,E,2,5,1.5,-2.420,M,40.592,M,2.2,0123*58
$GPVTG,181.04,T,-458.86,M,003.998,N,007.404,K,D*0C
$GPGGA,083558.85,5702.8724749,N,00949.4523565,E,2,5,1.5,-2.400,M,40.592,M,2.4,0123*58
$GPVTG,179.78,T,-460.12,M,004.004,N,007.416,K,D*0E
$GPGGA,083558.90,5702.8724226,N,00949.4523571,E,2,5,1.5,-2.404,M,40.592,M,2.4,0123*51
$GPVTG,178.80,T,-461.10,M,003.943,N,007.302,K,D*04
$GPGGA,083558.95,5702.8723672,N,00949.4523626,E,2,5,1.5,-2.405,M,40.592,M,2.4,0123*56
$GPVTG,177.45,T,-462.45,M,003.954,N,007.323,K,D*04
$GPGGA,083559.00,5702.8723146,N,00949.4523662,E,2,5,1.5,-2.407,M,40.592,M,2.4,0123*59
$GPVTG,176.53,T,-463.37,M,003.918,N,007.256,K,D*0D
$GPGGA,083559.05,5702.8722655,N,00949.4523785,E,2,5,1.5,-2.395,M,40.592,M,2.6,0123*5E
$GPVTG,175.19,T,-464.71,M,003.825,N,007.083,K,D*00
$GPGGA,083559.10,5702.8722144,N,00949.4523853,E,2,5,1.5,-2.401,M,40.592,M,2.6,0123*53
$GPVTG,174.28,T,-465.62,M,003.785,N,007.010,K,D*0F
$GPGGA,083559.15,5702.8721627,N,00949.4523938,E,2,5,1.5,-2.408,M,40.592,M,2.6,0123*52
$GPVTG,173.34,T,-466.56,M,003.765,N,006.972,K,D*03
$GPGGA,083559.20,5702.8721108,N,00949.4524016,E,2,5,1.5,-2.415,M,40.592,M,2.6,0123*50
$GPVTG,172.68,T,-467.22,M,003.752,N,006.948,K,D*04
$GPGGA,083559.25,5702.8720535,N,00949.4524124,E,2,5,1.5,-2.383,M,40.592,M,2.9,0123*59
$GPVTG,171.55,T,-468.35,M,003.742,N,006.931,K,D*0F
$GPGGA,083559.30,5702.8720001,N,00949.4524317,E,2,5,1.5,-2.388,M,40.592,M,2.9,0123*56
$GPVTG,170.06,T,-469.84,M,003.773,N,006.987,K,D*0C
$GPGGA,083559.35,5702.8719450,N,00949.4524519,E,2,5,1.5,-2.393,M,40.592,M,2.9,0123*5B
$GPVTG,168.82,T,-471.08,M,003.828,N,007.090,K,D*0B
$GPGGA,083559.40,5702.8718941,N,00949.4524705,E,2,5,1.5,-2.399,M,40.592,M,2.9,0123*50
$GPVTG,167.78,T,-472.13,M,003.816,N,007.068,K,D*02
$GPGGA,083559.45,5702.8718400,N,00949.4524987,E,2,5,1.5,-2.389,M,40.592,M,3.1,0123*51
$GPVTG,166.62,T,-473.28,M,003.815,N,007.066,K,D*0C
$GPGGA,083559.50,5702.8717907,N,00949.4525251,E,2,5,1.5,-2.396,M,40.592,M,3.1,0123*5F
$GPVTG,165.20,T,-474.70,M,003.801,N,007.039,K,D*0C
$GPGGA,083559.55,5702.8717422,N,00949.4525539,E,2,5,1.5,-2.405,M,40.592,M,3.1,0123*54
$GPVTG,163.69,T,-476.21,M,003.783,N,007.006,K,D*08
$GPGGA,083559.60,5702.8716921,N,00949.4525816,E,2,5,1.5,-2.413,M,40.592,M,3.1,0123*5A
$GPVTG,162.52,T,-477.38,M,003.785,N,007.010,K,D*09
$GPGGA,083559.65,5702.8716380,N,00949.4526100,E,2,5,1.5,-2.400,M,40.592,M,3.3,0123*53
$GPVTG,161.53,T,-478.37,M,003.777,N,006.994,K,D*02
$GPGGA,083559.70,5702.8715896,N,00949.4526392,E,2,5,1.5,-2.401,M,40.592,M,3.3,0123*50
$GPVTG,160.53,T,-479.37,M,003.756,N,006.956,K,D*0F
$GPGGA,083559.75,5702.8715424,N,00949.4526658,E,2,5,1.5,-2.403,M,40.592,M,3.3,0123*51
$GPVTG,159.93,T,-479.97,M,003.714,N,006.878,K,D*08
$GPGGA,083559.80,5702.8714923,N,00949.4526987,E,2,5,1.5,-2.407,M,40.592,M,3.3,0123*59
$GPVTG,159.03,T,-480.87,M,003.743,N,006.932,K,D*0B
$GPGGA,083559.85,5702.8714411,N,00949.4527131,E,2,5,1.5,-2.392,M,40.592,M,3.5,0123*59
$GPVTG,158.80,T,-481.10,M,003.669,N,006.796,K,D*07
$GPGGA,083559.90,5702.8713929,N,00949.4527438,E,2,5,1.5,-2.398,M,40.592,M,3.5,0123*5A
$GPVTG,158.29,T,-481.61,M,003.669,N,006.795,K,D*01
$GPGGA,083559.95,5702.8713463,N,00949.4527757,E,2,5,1.5,-2.403,M,40.592,M,3.5,0123*53
$GPVTG,157.63,T,-482.27,M,003.650,N,006.760,K,D*01
$GPGGA,083600.00,5702.8713004,N,00949.4528117,E,2,5,1.5,-2.406,M,40.592,M,3.5,0123*5D
$GPVTG,156.61,T,-483.29,M,003.637,N,006.735,K,D*0C
$GPGGA,083600.05,5702.8712478,N,00949.4528404,E,2,5,1.5,-2.380,M,40.592,M,1.9,0123*56
$GPVTG,156.13,T,-483.77,M,003.609,N,006.683,K,D*03
$GPGGA,083600.10,5702.8712020,N,00949.4528776,E,2,5,1.5,-2.385,M,40.592,M,1.9,0123*58
$GPVTG,155.30,T,-484.60,M,003.606,N,006.678,K,D*0B
$GPGGA,083600.15,5702.8711552,N,00949.4529176,E,2,5,1.5,-2.393,M,40.592,M,1.9,0123*5E
$GPVTG,154.45,T,-485.45,M,003.627,N,006.718,K,D*0A
$GPGGA,083600.20,5702.8711100,N,00949.4529593,E,2,5,1.5,-2.401,M,40.592,M,1.9,0123*58
$GPVTG,153.41,T,-486.49,M,003.631,N,006.725,K,D*0F
$GPGGA,083600.25,5702.8710590,N,00949.4530081,E,2,5,1.5,-2.385,M,40.592,M,2.1,0123*5F
$GPVTG,152.06,T,-487.84,M,003.666,N,006.790,K,D*01
$GPGGA,083600.30,5702.8710141,N,00949.4530521,E,2,5,1.5,-2.394,M,40.592,M,2.1,0123*5C
$GPVTG,151.19,T,-488.71,M,003.674,N,006.805,K,D*09
$GPGGA,083600.35,5702.8709728,N,00949.4530975,E,2,5,1.5,-2.399,M,40.592,M,2.1,0123*58
$GPVTG,149.89,T,-490.01,M,003.637,N,006.735,K,D*0C
$GPGGA,083600.40,5702.8709282,N,00949.4531463,E,2,5,1.5,-2.409,M,40.592,M,2.1,0123*5A
$GPVTG,148.88,T,-491.02,M,003.663,N,006.784,K,D*05
$GPGGA,083600.45,5702.8708840,N,00949.4532027,E,2,5,1.5,-2.394,M,40.592,M,2.4,0123*5B
$GPVTG,147.31,T,-492.59,M,003.639,N,006.739,K,D*0C
$GPGGA,083600.50,5702.8708427,N,00949.4532535,E,2,5,1.5,-2.398,M,40.592,M,2.4,0123*58
$GPVTG,146.12,T,-493.78,M,003.631,N,006.725,K,D*0B
$GPGGA,083600.55,5702.8708024,N,00949.4533038,E,2,5,1.5,-2.405,M,40.592,M,2.4,0123*50
$GPVTG,145.06,T,-494.84,M,003.613,N,006.691,K,D*07
$GPGGA,083600.60,5702.8707585,N,00949.4533569,E,2,5,1.5,-2.408,M,40.592,M,2.4,0123*5B
$GPVTG,144.46,T,-495.44,M,003.655,N,006.769,K,D*0B
$GPGGA,083600.65,5702.8707146,N,00949.4534063,E,2,5,1.5,-2.398,M,40.592,M,2.6,0123*51
$GPVTG,143.55,T,-496.35,M,003.647,N,006.754,K,D*06
$GPGGA,083600.70,5702.8706778,N,00949.4534603,E,2,5,1.5,-2.401,M,40.592,M,2.6,0123*58
$GPVTG,142.17,T,-497.73,M,003.600,N,006.668,K,D*0F
$GPGGA,083600.75,5702.8706408,N,00949.4535143,E,2,5,1.5,-2.404,M,40.592,M,2.6,0123*5E
$GPVTG,141.03,T,-498.87,M,003.565,N,006.602,K,D*01
$GPGGA,083600.80,5702.8706038,N,00949.4535705,E,2,5,1.5,-2.412,M,40.592,M,2.6,0123*50
$GPVTG,139.89,T,-500.01,M,003.544,N,006.564,K,D*02
$GPGGA,083600.85,5702.8705709,N,00949.4536259,E,2,5,1.5,-2.400,M,40.592,M,2.9,0123*50
$GPVTG,137.85,T,-502.05,M,003.438,N,006.368,K,D*06
$GPGGA,083600.90,5702.8705378,N,00949.4536828,E,2,5,1.5,-2.400,M,40.592,M,2.9,0123*5A
$GPVTG,136.48,T,-503.42,M,003.394,N,006.286,K,D*04
$GPGGA,083600.95,5702.8704987,N,00949.4537430,E,2,5,1.5,-2.404,M,40.592,M,2.9,0123*54
$GPVTG,136.17,T,-503.73,M,003.444,N,006.379,K,D*07
$GPGGA,083601.00,5702.8704643,N,00949.4538039,E,2,5,1.5,-2.410,M,40.592,M,2.9,0123*59
$GPVTG,135.10,T,-504.80,M,003.441,N,006.373,K,D*07
$GPGGA,083601.05,5702.8704220,N,00949.4538665,E,2,5,1.5,-2.380,M,40.592,M,2.0,0123*55
$GPVTG,134.16,T,-505.74,M,003.474,N,006.434,K,D*08
$GPGGA,083601.10,5702.8703857,N,00949.4539316,E,2,5,1.5,-2.388,M,40.592,M,2.0,0123*54
$GPVTG,133.55,T,-506.35,M,003.518,N,006.515,K,D*07
$GPGGA,083601.15,5702.8703546,N,00949.4539957,E,2,5,1.5,-2.392,M,40.592,M,2.0,0123*58
$GPVTG,132.22,T,-507.68,M,003.493,N,006.470,K,D*0F
$GPGGA,083601.20,5702.8703240,N,00949.4540632,E,2,5,1.5,-2.399,M,40.592,M,2.0,0123*56
$GPVTG,130.72,T,-509.18,M,003.489,N,006.462,K,D*09
$GPGGA,083601.25,5702.8702857,N,00949.4541350,E,2,5,1.5,-2.356,M,40.592,M,2.3,0123*5E
$GPVTG,128.11,T,-511.79,M,003.483,N,006.451,K,D*01
$GPGGA,083601.30,5702.8702578,N,00949.4542055,E,2,5,1.5,-2.359,M,40.592,M,2.3,0123*50
$GPVTG,126.45,T,-513.45,M,003.477,N,006.440,K,D*08
$GPGGA,083601.35,5702.8702226,N,00949.4542763,E,2,5,1.5,-2.368,M,40.592,M,2.3,0123*59
$GPVTG,126.77,T,-513.13,M,003.544,N,006.563,K,D*0B
$GPGGA,083601.40,5702.8701873,N,00949.4543475,E,2,5,1.5,-2.374,M,40.592,M,2.3,0123*5A
$GPVTG,127.12,T,-512.78,M,003.603,N,006.673,K,D*07
$GPGGA,083601.45,5702.8701544,N,00949.4544175,E,2,6,1.5,-2.359,M,40.592,M,2.5,0123*5E
$GPVTG,125.86,T,-514.04,M,003.571,N,006.614,K,D*02
$GPGGA,083601.50,5702.8701294,N,00949.4544884,E,2,6,1.5,-2.363,M,40.592,M,2.5,0123*5E
$GPVTG,124.38,T,-515.52,M,003.518,N,006.515,K,D*09
$GPGGA,083601.55,5702.8701007,N,00949.4545600,E,2,6,1.5,-2.369,M,40.592,M,2.5,0123*5A
$GPVTG,123.95,T,-515.95,M,003.515,N,006.510,K,D*0A
$GPGGA,083601.60,5702.8700752,N,00949.4546368,E,2,6,1.5,-2.373,M,40.592,M,2.5,0123*59
$GPVTG,122.50,T,-517.40,M,003.529,N,006.536,K,D*03
$GPGGA,083601.65,5702.8700437,N,00949.4547138,E,2,6,1.5,-2.345,M,40.592,M,2.7,0123*5D
$GPVTG,121.01,T,-518.89,M,003.608,N,006.682,K,D*02
$GPGGA,083601.70,5702.8700172,N,00949.4547851,E,2,6,1.5,-2.349,M,40.592,M,2.7,0123*57
$GPVTG,121.22,T,-518.68,M,003.540,N,006.556,K,D*09
$GPGGA,083601.75,5702.8699922,N,00949.4548609,E,2,6,1.5,-2.347,M,40.592,M,2.7,0123*5C
$GPVTG,120.46,T,-519.44,M,003.528,N,006.534,K,D*0F
$GPGGA,083601.80,5702.8699684,N,00949.4549336,E,2,6,1.5,-2.350,M,40.592,M,2.7,0123*5B
$GPVTG,119.90,T,-520.00,M,003.470,N,006.426,K,D*0A
$GPGGA,083601.85,5702.8699414,N,00949.4550056,E,2,6,1.5,-2.317,M,40.592,M,3.0,0123*5D
$GPVTG,118.10,T,-521.80,M,003.428,N,006.348,K,D*08
$GPGGA,083601.90,5702.8699214,N,00949.4550863,E,2,6,1.5,-2.312,M,40.592,M,3.0,0123*54
$GPVTG,116.23,T,-523.67,M,003.444,N,006.379,K,D*05
$GPGGA,083601.95,5702.8699031,N,00949.4551615,E,2,6,1.5,-2.313,M,40.592,M,3.0,0123*5B
$GPVTG,114.79,T,-525.11,M,003.384,N,006.267,K,D*0A
$GPGGA,083602.00,5702.8698856,N,00949.4552448,E,2,6,1.5,-2.312,M,40.592,M,3.0,0123*54
$GPVTG,112.77,T,-527.13,M,003.419,N,006.332,K,D*00
$GPGGA,083602.05,5702.8698661,N,00949.4553309,E,2,6,1.5,-2.283,M,40.592,M,1.5,0123*56
$GPVTG,111.30,T,-528.60,M,003.465,N,006.418,K,D*0F
$GPGGA,083602.10,5702.8698422,N,00949.4554106,E,2,6,1.5,-2.284,M,40.592,M,1.5,0123*5A
$GPVTG,112.10,T,-527.80,M,003.492,N,006.466,K,D*0E
$GPGGA,083602.15,5702.8698253,N,00949.4554930,E,2,6,1.5,-2.284,M,40.592,M,1.5,0123*52
$GPVTG,110.86,T,-529.04,M,003.494,N,006.470,K,D*00
$GPGGA,083602.20,5702.8698094,N,00949.4555756,E,2,6,1.5,-2.281,M,40.592,M,1.5,0123*57
$GPVTG,109.63,T,-530.27,M,003.490,N,006.464,K,D*0B
$GPGGA,083602.25,5702.8697904,N,00949.4556563,E,2,6,1.5,-2.281,M,40.592,M,1.7,0123*58
$GPVTG,108.58,T,-531.32,M,003.467,N,006.421,K,D*0E
$GPGGA,083602.30,5702.8697760,N,00949.4557429,E,2,6,1.5,-2.283,M,40.592,M,1.7,0123*5C
$GPVTG,107.25,T,-532.65,M,003.500,N,006.483,K,D*02
$GPGGA,083602.35,5702.8697600,N,00949.4558221,E,2,6,1.5,-2.288,M,40.592,M,1.7,0123*54
$GPVTG,107.06,T,-532.84,M,003.456,N,006.400,K,D*05
$GPGGA,083602.40,5702.8697471,N,00949.4559084,E,2,6,1.5,-2.288,M,40.592,M,1.7,0123*5E
$GPVTG,105.80,T,-534.10,M,003.478,N,006.440,K,D*0A
$GPGGA,083602.45,5702.8697312,N,00949.4559906,E,2,6,1.5,-2.259,M,40.592,M,2.0,0123*52
$GPVTG,104.60,T,-535.30,M,003.489,N,006.461,K,D*0B
$GPGGA,083602.50,5702.8697197,N,00949.4560768,E,2,6,1.5,-2.257,M,40.592,M,2.0,0123*5B
$GPVTG,103.54,T,-536.36,M,003.498,N,006.478,K,D*06
$GPGGA,083602.55,5702.8697102,N,00949.4561611,E,2,6,1.5,-2.254,M,40.592,M,2.0,0123*5F
$GPVTG,102.41,T,-537.49,M,003.482,N,006.449,K,D*03
$GPGGA,083602.60,5702.8697003,N,00949.4562426,E,2,6,1.5,-2.250,M,40.592,M,2.0,0123*58
$GPVTG,101.54,T,-538.36,M,003.439,N,006.369,K,D*06
$GPGGA,083602.65,5702.8696960,N,00949.4563282,E,2,6,1.5,-2.225,M,40.592,M,2.2,0123*59
$GPVTG,099.88,T,-540.02,M,003.476,N,006.438,K,D*07
$GPGGA,083602.70,5702.8696877,N,00949.4564135,E,2,6,1.5,-2.225,M,40.592,M,2.2,0123*52
$GPVTG,098.94,T,-540.96,M,003.466,N,006.420,K,D*0E
$GPGGA,083602.75,5702.8696791,N,00949.4564963,E,2,6,1.5,-2.222,M,40.592,M,2.2,0123*5C
$GPVTG,098.23,T,-541.67,M,003.432,N,006.356,K,D*0A
$GPGGA,083602.80,5702.8696729,N,00949.4565829,E,2,6,1.5,-2.223,M,40.592,M,2.2,0123*5A
$GPVTG,097.17,T,-542.73,M,003.435,N,006.362,K,D*04
$GPGGA,083602.85,5702.8696599,N,00949.4566698,E,2,6,1.5,-2.205,M,40.592,M,2.4,0123*53
$GPVTG,096.19,T,-543.71,M,003.452,N,006.393,K,D*07
$GPGGA,083602.90,5702.8696566,N,00949.4567611,E,2,6,1.5,-2.202,M,40.592,M,2.4,0123*50
$GPVTG,094.82,T,-545.08,M,003.497,N,006.477,K,D*0B
$GPGGA,083602.95,5702.8696543,N,00949.4568472,E,2,6,1.5,-2.200,M,40.592,M,2.4,0123*58
$GPVTG,093.57,T,-546.33,M,003.481,N,006.447,K,D*0B
$GPGGA,083603.00,5702.8696520,N,00949.4569368,E,2,6,1.5,-2.196,M,40.592,M,2.4,0123*51
$GPVTG,092.44,T,-547.46,M,003.503,N,006.487,K,D*0C
$GPGGA,083603.05,5702.8696577,N,00949.4570123,E,2,6,1.5,-2.164,M,40.592,M,2.6,0123*5C
$GPVTG,090.89,T,-549.01,M,003.429,N,006.350,K,D*06
$GPGGA,083603.10,5702.8696570,N,00949.4570960,E,2,6,1.5,-2.160,M,40.592,M,2.6,0123*54
$GPVTG,089.85,T,-550.05,M,003.395,N,006.287,K,D*05
$GPGGA,083603.15,5702.8696575,N,00949.4571892,E,2,6,1.5,-2.158,M,40.592,M,2.6,0123*52
$GPVTG,088.77,T,-551.13,M,003.465,N,006.417,K,D*08
$GPGGA,083603.20,5702.8696594,N,00949.4572780,E,2,6,1.5,-2.156,M,40.592,M,2.6,0123*5A
$GPVTG,087.59,T,-552.31,M,003.482,N,006.449,K,D*0A
$GPGGA,083603.25,5702.8696538,N,00949.4573637,E,2,6,1.5,-2.145,M,40.592,M,2.9,0123*58
$GPVTG,086.76,T,-553.14,M,003.445,N,006.380,K,D*09
$GPGGA,083603.30,5702.8696558,N,00949.4574488,E,2,6,1.5,-2.139,M,40.592,M,2.9,0123*50
$GPVTG,085.90,T,-554.00,M,003.425,N,006.343,K,D*09
$GPGGA,083603.35,5702.8696598,N,00949.4575353,E,2,6,1.5,-2.136,M,40.592,M,2.9,0123*56
$GPVTG,084.79,T,-555.11,M,003.425,N,006.343,K,D*0E
$GPGGA,083603.40,5702.8696654,N,00949.4576209,E,2,6,1.5,-2.134,M,40.592,M,2.9,0123*58
$GPVTG,083.52,T,-556.38,M,003.420,N,006.334,K,D*0D
$GPGGA,083603.45,5702.8696665,N,00949.4577086,E,2,6,1.5,-2.120,M,40.592,M,3.1,0123*57
$GPVTG,082.54,T,-557.36,M,003.457,N,006.402,K,D*07
$GPGGA,083603.50,5702.8696717,N,00949.4577974,E,2,6,1.5,-2.122,M,40.592,M,3.1,0123*51
$GPVTG,081.97,T,-557.93,M,003.485,N,006.455,K,D*09
$GPGGA,083603.55,5702.8696824,N,00949.4578867,E,2,6,1.5,-2.118,M,40.592,M,3.1,0123*5E
$GPVTG,080.08,T,-559.82,M,003.528,N,006.534,K,D*00
$GPGGA,083603.60,5702.8696915,N,00949.4579720,E,2,6,1.5,-2.113,M,40.592,M,3.1,0123*5D
$GPVTG,078.83,T,-561.07,M,003.511,N,006.503,K,D*0C
$GPGGA,083603.65,5702.8697028,N,00949.4580562,E,2,6,1.5,-2.097,M,40.592,M,3.3,0123*53
$GPVTG,076.85,T,-563.05,M,003.499,N,006.479,K,D*09
$GPGGA,083603.70,5702.8697152,N,00949.4581408,E,2,6,1.5,-2.100,M,40.592,M,3.3,0123*58
$GPVTG,075.35,T,-564.55,M,003.492,N,006.467,K,D*07
$GPGGA,083603.75,5702.8697283,N,00949.4582340,E,2,6,1.5,-2.095,M,40.592,M,3.3,0123*57
$GPVTG,074.45,T,-565.45,M,003.591,N,006.650,K,D*05
$GPGGA,083603.80,5702.8697432,N,00949.4583246,E,2,6,1.5,-2.093,M,40.592,M,3.3,0123*51
$GPVTG,073.23,T,-566.67,M,003.651,N,006.762,K,D*0E
$GPGGA,083603.85,5702.8697599,N,00949.4583948,E,2,6,1.5,-2.048,M,40.592,M,3.5,0123*51
$GPVTG,071.68,T,-568.22,M,003.525,N,006.527,K,D*0F
$GPGGA,083603.90,5702.8697805,N,00949.4584775,E,2,6,1.5,-2.037,M,40.592,M,3.5,0123*52
$GPVTG,069.23,T,-570.67,M,003.534,N,006.544,K,D*04
$GPGGA,083603.95,5702.8697948,N,00949.4585611,E,2,6,1.5,-2.028,M,40.592,M,3.5,0123*53
$GPVTG,068.67,T,-571.23,M,003.525,N,006.528,K,D*0E
$GPGGA,083604.00,5702.8698138,N,00949.4586449,E,2,6,1.5,-2.020,M,40.592,M,3.5,0123*5C
$GPVTG,067.30,T,-572.60,M,003.546,N,006.568,K,D*06
$GPGGA,083604.05,5702.8698190,N,00949.4587417,E,2,6,1.5,-2.036,M,40.592,M,1.9,0123*58
$GPVTG,067.14,T,-572.76,M,003.616,N,006.698,K,D*0D
$GPGGA,083604.10,5702.8698337,N,00949.4588296,E,2,6,1.5,-2.034,M,40.592,M,1.9,0123*51
$GPVTG,067.43,T,-572.47,M,003.646,N,006.753,K,D*0E
$GPGGA,083604.15,5702.8698482,N,00949.4589142,E,2,6,1.5,-2.032,M,40.592,M,1.9,0123*50
$GPVTG,067.57,T,-572.33,M,003.630,N,006.723,K,D*0E
$GPGGA,083604.20,5702.8698716,N,00949.4589955,E,2,6,1.5,-2.029,M,40.592,M,1.9,0123*5C
$GPVTG,065.63,T,-574.27,M,003.630,N,006.723,K,D*08
$GPGGA,083604.25,5702.8698914,N,00949.4590692,E,2,6,1.5,-2.005,M,40.592,M,2.1,0123*5C
$GPVTG,063.07,T,-576.83,M,003.596,N,006.659,K,D*03
$GPGGA,083604.30,5702.8699110,N,00949.4591522,E,2,6,1.5,-1.998,M,40.592,M,2.1,0123*52
$GPVTG,062.81,T,-577.09,M,003.602,N,006.671,K,D*0B
$GPGGA,083604.35,5702.8699364,N,00949.4592356,E,2,6,1.5,-1.992,M,40.592,M,2.1,0123*5A
$GPVTG,061.53,T,-578.37,M,003.652,N,006.764,K,D*05
$GPGGA,083604.40,5702.8699589,N,00949.4593158,E,2,6,1.5,-1.985,M,40.592,M,2.1,0123*56
$GPVTG,060.80,T,-579.10,M,003.644,N,006.748,K,D*07
$GPGGA,083604.45,5702.8699864,N,00949.4593975,E,2,6,1.5,-1.967,M,40.592,M,2.4,0123*53
$GPVTG,059.78,T,-580.12,M,003.695,N,006.844,K,D*01
$GPGGA,083604.50,5702.8700125,N,00949.4594813,E,2,6,1.5,-1.961,M,40.592,M,2.4,0123*5A
$GPVTG,059.09,T,-580.81,M,003.746,N,006.937,K,D*07
$GPGGA,083604.55,5702.8700406,N,00949.4595591,E,2,6,1.5,-1.961,M,40.592,M,2.4,0123*5D
$GPVTG,057.63,T,-582.27,M,003.743,N,006.933,K,D*0A
$GPGGA,083604.60,5702.8700668,N,00949.4596362,E,2,6,1.5,-1.958,M,40.592,M,2.4,0123*52
$GPVTG,056.71,T,-583.19,M,003.720,N,006.889,K,D*01
$GPGGA,083604.65,5702.8700915,N,00949.4597117,E,2,6,1.5,-1.946,M,40.592,M,2.6,0123*5E
$GPVTG,055.39,T,-584.51,M,003.711,N,006.873,K,D*02
$GPGGA,083604.70,5702.8701229,N,00949.4597863,E,2,6,1.5,-1.944,M,40.592,M,2.6,0123*57
$GPVTG,053.88,T,-586.02,M,003.717,N,006.883,K,D*03
$GPGGA,083604.75,5702.8701548,N,00949.4598619,E,2,6,1.5,-1.939,M,40.592,M,2.6,0123*54
$GPVTG,052.62,T,-587.28,M,003.738,N,006.922,K,D*08
$GPGGA,083604.80,5702.8701862,N,00949.4599358,E,2,6,1.5,-1.935,M,40.592,M,2.6,0123*56
$GPVTG,051.48,T,-588.42,M,003.743,N,006.932,K,D*0D
$GPGGA,083604.85,5702.8702159,N,00949.4600091,E,2,6,1.5,-1.919,M,40.592,M,2.9,0123*55
$GPVTG,050.68,T,-589.22,M,003.754,N,006.953,K,D*08
$GPGGA,083604.90,5702.8702494,N,00949.4600841,E,2,6,1.5,-1.915,M,40.592,M,2.9,0123*5C
$GPVTG,049.75,T,-590.15,M,003.785,N,007.009,K,D*0B
$GPGGA,083604.95,5702.8702845,N,00949.4601497,E,2,6,1.5,-1.911,M,40.592,M,2.9,0123*5B
$GPVTG,047.97,T,-591.93,M,003.763,N,006.969,K,D*00
$GPGGA,083605.00,5702.8703199,N,00949.4602241,E,2,6,1.5,-1.905,M,40.592,M,2.9,0123*54
$GPVTG,047.19,T,-592.71,M,003.805,N,007.046,K,D*03
$GPGGA,083605.05,5702.8703480,N,00949.4602909,E,2,6,1.5,-1.893,M,40.592,M,2.0,0123*5C
$GPVTG,046.03,T,-593.87,M,003.780,N,007.000,K,D*01
$GPGGA,083605.10,5702.8703855,N,00949.4603589,E,2,6,1.5,-1.891,M,40.592,M,2.0,0123*5B
$GPVTG,044.77,T,-595.13,M,003.801,N,007.039,K,D*07
$GPGGA,083605.15,5702.8704249,N,00949.4604264,E,2,6,1.5,-1.888,M,40.592,M,2.0,0123*55
$GPVTG,043.48,T,-596.42,M,003.837,N,007.105,K,D*00
$GPGGA,083605.20,5702.8704624,N,00949.4604935,E,2,6,1.5,-1.888,M,40.592,M,2.0,0123*53
$GPVTG,042.64,T,-597.26,M,003.849,N,007.127,K,D*05
$GPGGA,083605.25,5702.8704975,N,00949.4605555,E,2,6,1.5,-1.872,M,40.592,M,2.3,0123*50
$GPVTG,041.69,T,-598.21,M,003.847,N,007.125,K,D*0F
$GPGGA,083605.30,5702.8705378,N,00949.4606185,E,2,6,1.5,-1.868,M,40.592,M,2.3,0123*53
$GPVTG,040.52,T,-599.38,M,003.862,N,007.153,K,D*09
$GPGGA,083605.35,5702.8705808,N,00949.4606831,E,2,6,1.5,-1.860,M,40.592,M,2.3,0123*54
$GPVTG,039.39,T,-600.51,M,003.909,N,007.239,K,D*05
$GPGGA,083605.40,5702.8706223,N,00949.4607403,E,2,6,1.5,-1.853,M,40.592,M,2.3,0123*5A
$GPVTG,038.03,T,-601.87,M,003.906,N,007.234,K,D*05
$GPGGA,083605.45,5702.8706569,N,00949.4607981,E,2,6,1.5,-1.838,M,40.592,M,2.5,0123*5A
$GPVTG,036.99,T,-602.91,M,003.891,N,007.206,K,D*02
$GPGGA,083605.50,5702.8706991,N,00949.4608508,E,2,6,1.5,-1.834,M,40.592,M,2.5,0123*5B
$GPVTG,035.56,T,-604.34,M,003.881,N,007.188,K,D*0F
$GPGGA,083605.55,5702.8707452,N,00949.4609047,E,2,6,1.5,-1.830,M,40.592,M,2.5,0123*56
$GPVTG,034.12,T,-605.78,M,003.910,N,007.242,K,D*0B
$GPGGA,083605.60,5702.8707896,N,00949.4609613,E,2,6,1.5,-1.828,M,40.592,M,2.5,0123*5A
