$GPGGA,082022.80,5702.8179075,N,00949.9334339,E,2,5,1.9,-3.351,M,40.592,M,2.0,0123*5A
$GPVTG,182.63,T,-457.27,M,004.109,N,007.610,K,D*0A
$GPGGA,082022.85,5702.8178486,N,00949.9334231,E,2,5,1.9,-3.343,M,40.592,M,2.2,0123*5E
$GPVTG,183.93,T,-455.97,M,004.155,N,007.695,K,D*09
$GPGGA,082022.90,5702.8177978,N,00949.9334216,E,2,5,1.9,-3.342,M,40.592,M,2.2,0123*5D
$GPVTG,184.61,T,-455.29,M,004.118,N,007.627,K,D*06
$GPGGA,082022.95,5702.8177418,N,00949.9334124,E,2,5,1.9,-3.346,M,40.592,M,2.2,0123*55
$GPVTG,185.84,T,-454.06,M,004.149,N,007.684,K,D*0D
$GPGGA,082023.00,5702.8176902,N,00949.9334063,E,2,5,1.9,-3.344,M,40.592,M,2.2,0123*5F
$GPVTG,186.55,T,-453.35,M,004.116,N,007.623,K,D*02
$GPGGA,082023.05,5702.8176279,N,00949.9333764,E,2,5,1.9,-3.335,M,40.592,M,2.4,0123*5A
$GPVTG,188.65,T,-451.25,M,004.176,N,007.734,K,D*0D
$GPGGA,082023.10,5702.8175679,N,00949.9333467,E,2,5,1.9,-3.334,M,40.592,M,2.4,0123*58
$GPVTG,191.14,T,-448.76,M,004.271,N,007.910,K,D*01
$GPGGA,082023.15,5702.8175073,N,00949.9333123,E,2,5,1.9,-3.333,M,40.592,M,2.4,0123*53
$GPVTG,193.58,T,-446.32,M,004.376,N,008.105,K,D*00
$GPGGA,082023.20,5702.8174543,N,00949.9332835,E,2,5,1.9,-3.324,M,40.592,M,2.4,0123*5B
$GPVTG,195.34,T,-444.56,M,004.364,N,008.081,K,D*02
$GPGGA,082023.25,5702.8174052,N,00949.9332617,E,2,5,1.9,-3.347,M,40.592,M,2.6,0123*52
$GPVTG,197.34,T,-442.56,M,004.418,N,008.182,K,D*08
$GPGGA,082023.30,5702.8173519,N,00949.9332319,E,2,5,1.9,-3.346,M,40.592,M,2.6,0123*51
$GPVTG,198.49,T,-441.41,M,004.400,N,008.148,K,D*07
$GPGGA,082023.35,5702.8173005,N,00949.9331965,E,2,5,1.9,-3.344,M,40.592,M,2.6,0123*5C
$GPVTG,200.09,T,-439.81,M,004.369,N,008.092,K,D*0C
$GPGGA,082023.40,5702.8172484,N,00949.9331601,E,2,5,1.9,-3.345,M,40.592,M,2.6,0123*5E
$GPVTG,201.46,T,-438.44,M,004.352,N,008.059,K,D*01
$GPGGA,082023.45,5702.8171954,N,00949.9331230,E,2,5,1.9,-3.365,M,40.592,M,2.8,0123*52
$GPVTG,202.51,T,-437.39,M,004.376,N,008.104,K,D*0E
$GPGGA,082023.50,5702.8171459,N,00949.9330779,E,2,5,1.9,-3.363,M,40.592,M,2.8,0123*59
$GPVTG,204.31,T,-435.59,M,004.350,N,008.057,K,D*09
$GPGGA,082023.55,5702.8170933,N,00949.9330339,E,2,5,1.9,-3.368,M,40.592,M,2.8,0123*57
$GPVTG,205.65,T,-434.25,M,004.362,N,008.079,K,D*0E
$GPGGA,082023.60,5702.8170427,N,00949.9329881,E,2,5,1.9,-3.372,M,40.592,M,2.8,0123*52
$GPVTG,207.06,T,-432.84,M,004.353,N,008.061,K,D*0F
$GPGGA,082023.65,5702.8169839,N,00949.9329374,E,2,5,1.9,-3.379,M,40.592,M,3.0,0123*5F
$GPVTG,207.89,T,-432.01,M,004.406,N,008.159,K,D*08
$GPGGA,082023.70,5702.8169283,N,00949.9328889,E,2,5,1.9,-3.386,M,40.592,M,3.0,0123*58
$GPVTG,208.71,T,-431.19,M,004.454,N,008.250,K,D*07
$GPGGA,082023.75,5702.8168775,N,00949.9328366,E,2,5,1.9,-3.393,M,40.592,M,3.0,0123*5E
$GPVTG,209.96,T,-429.94,M,004.453,N,008.248,K,D*0D
$GPGGA,082023.80,5702.8168296,N,00949.9327770,E,2,5,1.9,-3.398,M,40.592,M,3.0,0123*5B
$GPVTG,211.73,T,-428.17,M,004.441,N,008.224,K,D*0C
$GPGGA,082023.85,5702.8167828,N,00949.9327178,E,2,5,1.9,-3.399,M,40.592,M,3.2,0123*53
$GPVTG,213.68,T,-426.22,M,004.382,N,008.115,K,D*05
$GPGGA,082023.90,5702.8167306,N,00949.9326565,E,2,5,1.9,-3.406,M,40.592,M,3.2,0123*58
$GPVTG,214.66,T,-425.24,M,004.430,N,008.205,K,D*05
$GPGGA,082023.95,5702.8166748,N,00949.9325959,E,2,5,1.9,-3.413,M,40.592,M,3.2,0123*56
$GPVTG,215.03,T,-424.87,M,004.509,N,008.350,K,D*05
$GPGGA,082024.00,5702.8166300,N,00949.9325285,E,2,5,1.9,-3.416,M,40.592,M,3.2,0123*5A
$GPVTG,216.82,T,-423.08,M,004.485,N,008.307,K,D*08
$GPGGA,082024.05,5702.8165845,N,00949.9324769,E,2,5,1.9,-3.404,M,40.592,M,2.0,0123*50
$GPVTG,217.18,T,-422.72,M,004.393,N,008.136,K,D*06
$GPGGA,082024.10,5702.8165332,N,00949.9324030,E,2,5,1.9,-3.406,M,40.592,M,2.0,0123*56
$GPVTG,218.61,T,-421.29,M,004.494,N,008.323,K,D*0C
$GPGGA,082024.15,5702.8164870,N,00949.9323287,E,2,5,1.9,-3.406,M,40.592,M,2.0,0123*56
$GPVTG,220.18,T,-419.72,M,004.519,N,008.369,K,D*06
$GPGGA,082024.20,5702.8164383,N,00949.9322612,E,2,5,1.9,-3.407,M,40.592,M,2.0,0123*5F
$GPVTG,220.49,T,-419.41,M,004.519,N,008.368,K,D*03
$GPGGA,082024.25,5702.8163920,N,00949.9321920,E,2,5,1.9,-3.423,M,40.592,M,2.3,0123*56
$GPVTG,221.46,T,-418.44,M,004.531,N,008.392,K,D*06
$GPGGA,082024.30,5702.8163480,N,00949.9321167,E,2,5,1.9,-3.425,M,40.592,M,2.3,0123*58
$GPVTG,222.54,T,-417.36,M,004.540,N,008.407,K,D*01
$GPGGA,082024.35,5702.8163027,N,00949.9320336,E,2,5,1.9,-3.430,M,40.592,M,2.3,0123*57
$GPVTG,223.92,T,-415.98,M,004.590,N,008.500,K,D*07
$GPGGA,082024.40,5702.8162559,N,00949.9319555,E,2,5,1.9,-3.433,M,40.592,M,2.3,0123*52
$GPVTG,224.61,T,-415.29,M,004.612,N,008.542,K,D*09
$GPGGA,082024.45,5702.8162097,N,00949.9318787,E,2,5,1.9,-3.450,M,40.592,M,2.6,0123*5C
$GPVTG,225.34,T,-414.56,M,004.603,N,008.525,K,D*00
$GPGGA,082024.50,5702.8161637,N,00949.9317919,E,2,5,1.9,-3.457,M,40.592,M,2.6,0123*56
$GPVTG,226.37,T,-413.53,M,004.658,N,008.627,K,D*0D
$GPGGA,082024.55,5702.8161206,N,00949.9317077,E,2,5,1.9,-3.461,M,40.592,M,2.6,0123*51
$GPVTG,227.27,T,-412.63,M,004.673,N,008.655,K,D*03
$GPGGA,082024.60,5702.8160806,N,00949.9316209,E,2,5,1.9,-3.466,M,40.592,M,2.6,0123*51
$GPVTG,228.43,T,-411.47,M,004.678,N,008.664,K,D*02
$GPGGA,082024.65,5702.8160401,N,00949.9315286,E,2,5,1.9,-3.464,M,40.592,M,2.8,0123*57
$GPVTG,229.40,T,-410.50,M,004.701,N,008.707,K,D*0C
$GPGGA,082024.70,5702.8160003,N,00949.9314270,E,2,5,1.9,-3.471,M,40.592,M,2.8,0123*59
$GPVTG,231.16,T,-408.74,M,004.782,N,008.857,K,D*08
$GPGGA,082024.75,5702.8159627,N,00949.9313340,E,2,5,1.9,-3.478,M,40.592,M,2.8,0123*5A
$GPVTG,232.33,T,-407.57,M,004.784,N,008.860,K,D*00
$GPGGA,082024.80,5702.8159233,N,00949.9312459,E,2,5,1.9,-3.481,M,40.592,M,2.8,0123*59
$GPVTG,232.87,T,-407.03,M,004.760,N,008.816,K,D*05
$GPGGA,082024.85,5702.8158872,N,00949.9311478,E,2,5,1.9,-3.486,M,40.592,M,3.0,0123*5C
$GPVTG,234.08,T,-405.82,M,004.775,N,008.843,K,D*0B
$GPGGA,082024.90,5702.8158529,N,00949.9310462,E,2,5,1.9,-3.494,M,40.592,M,3.0,0123*52
$GPVTG,235.61,T,-404.29,M,004.799,N,008.888,K,D*00
$GPGGA,082024.95,5702.8158190,N,00949.9309410,E,2,5,1.9,-3.499,M,40.592,M,3.0,0123*51
$GPVTG,237.14,T,-402.76,M,004.841,N,008.965,K,D*04
$GPGGA,082025.00,5702.8157856,N,00949.9308348,E,2,5,1.9,-3.503,M,40.592,M,3.0,0123*59
$GPVTG,238.52,T,-401.38,M,004.878,N,009.034,K,D*06
$GPGGA,082025.05,5702.8157530,N,00949.9307270,E,2,5,1.9,-3.514,M,40.592,M,2.5,0123*56
$GPVTG,240.10,T,-399.80,M,004.904,N,009.082,K,D*0D
$GPGGA,082025.10,5702.8157216,N,00949.9306208,E,2,5,1.9,-3.519,M,40.592,M,2.5,0123*52
$GPVTG,241.24,T,-398.66,M,004.915,N,009.102,K,D*0B
$GPGGA,082025.15,5702.8156943,N,00949.9305130,E,2,5,1.9,-3.527,M,40.592,M,2.5,0123*5B
$GPVTG,242.74,T,-397.16,M,004.911,N,009.095,K,D*0E
$GPGGA,082025.20,5702.8156670,N,00949.9304012,E,2,5,1.9,-3.532,M,40.592,M,2.5,0123*56
$GPVTG,244.18,T,-395.72,M,004.933,N,009.136,K,D*0A
$GPGGA,082025.25,5702.8156432,N,00949.9302929,E,2,5,1.9,-3.527,M,40.592,M,2.7,0123*56
$GPVTG,245.38,T,-394.52,M,004.921,N,009.114,K,D*09
$GPGGA,082025.30,5702.8156158,N,00949.9301849,E,2,5,1.9,-3.528,M,40.592,M,2.7,0123*50
$GPVTG,246.24,T,-393.66,M,004.904,N,009.082,K,D*0E
$GPGGA,082025.35,5702.8155949,N,00949.9300693,E,2,5,1.9,-3.535,M,40.592,M,2.7,0123*5A
$GPVTG,248.05,T,-391.85,M,004.917,N,009.106,K,D*03
$GPGGA,082025.40,5702.8155784,N,00949.9299541,E,2,5,1.9,-3.542,M,40.592,M,2.7,0123*5A
$GPVTG,250.11,T,-389.79,M,004.906,N,009.086,K,D*0C
$GPGGA,082025.45,5702.8155570,N,00949.9298465,E,2,5,1.9,-3.547,M,40.592,M,3.0,0123*53
$GPVTG,250.96,T,-388.94,M,004.868,N,009.015,K,D*02
$GPGGA,082025.50,5702.8155389,N,00949.9297368,E,2,5,1.9,-3.552,M,40.592,M,3.0,0123*56
$GPVTG,252.26,T,-387.64,M,004.817,N,008.922,K,D*0F
$GPGGA,082025.55,5702.8155227,N,00949.9296187,E,2,5,1.9,-3.557,M,40.592,M,3.0,0123*51
$GPVTG,253.88,T,-386.02,M,004.835,N,008.954,K,D*0A
$GPGGA,082025.60,5702.8155071,N,00949.9295005,E,2,5,1.9,-3.562,M,40.592,M,3.0,0123*58
$GPVTG,255.34,T,-384.56,M,004.849,N,008.979,K,D*0C
$GPGGA,082025.65,5702.8155036,N,00949.9293764,E,2,5,1.9,-3.547,M,40.592,M,3.2,0123*5D
$GPVTG,257.26,T,-382.64,M,004.873,N,009.024,K,D*03
$GPGGA,082025.70,5702.8154913,N,00949.9292566,E,2,5,1.9,-3.550,M,40.592,M,3.2,0123*51
$GPVTG,258.68,T,-381.22,M,004.885,N,009.048,K,D*04
$GPGGA,082025.75,5702.8154823,N,00949.9291394,E,2,5,1.9,-3.552,M,40.592,M,3.2,0123*5C
$GPVTG,260.28,T,-379.62,M,004.865,N,009.011,K,D*0A
$GPGGA,082025.80,5702.8154754,N,00949.9290212,E,2,5,1.9,-3.560,M,40.592,M,3.2,0123*56
$GPVTG,261.95,T,-377.95,M,004.853,N,008.987,K,D*09
$GPGGA,082025.85,5702.8154615,N,00949.9289067,E,2,5,1.9,-3.588,M,40.592,M,3.5,0123*5E
$GPVTG,263.12,T,-376.78,M,004.
$GPGGA,082040.40,5702.8176392,N,00949.9191513,E,2,5,1.9,-4.009,M,40.592,M,2.3,0123*5E
$GPVTG,317.28,T,-322.62,M,004.917,N,009.106,K,D*06
$GPGGA,082040.45,5702.8176826,N,00949.9190608,E,2,5,1.9,-4.017,M,40.592,M,2.6,0123*5D
$GPVTG,317.63,T,-322.27,M,004.900,N,009.075,K,D*0B
$GPGGA,082040.50,5702.8177301,N,00949.9189768,E,2,5,1.9,-4.024,M,40.592,M,2.6,0123*59
$GPVTG,318.43,T,-321.47,M,004.899,N,009.074,K,D*03
$GPGGA,082040.55,5702.8177788,N,00949.9188949,E,2,5,1.9,-4.027,M,40.592,M,2.6,0123*56
$GPVTG,319.31,T,-320.59,M,004.900,N,009.075,K,D*09
$GPGGA,082040.60,5702.8178283,N,00949.9188154,E,2,5,1.9,-4.027,M,40.592,M,2.6,0123*55
$GPVTG,320.25,T,-319.65,M,004.894,N,009.064,K,D*0F
$GPGGA,082040.65,5702.8178831,N,00949.9187511,E,2,5,1.9,-4.042,M,40.592,M,2.8,0123*54
$GPVTG,321.44,T,-318.46,M,004.848,N,008.979,K,D*0C
$GPGGA,082040.70,5702.8179288,N,00949.9186812,E,2,5,1.9,-4.043,M,40.592,M,2.8,0123*57
$GPVTG,322.33,T,-317.57,M,004.757,N,008.809,K,D*07
$GPGGA,082040.75,5702.8179809,N,00949.9186168,E,2,5,1.9,-4.039,M,40.592,M,2.8,0123*58
$GPVTG,324.09,T,-315.81,M,004.719,N,008.740,K,D*09
$GPGGA,082040.80,5702.8180328,N,00949.9185519,E,2,5,1.9,-4.038,M,40.592,M,2.8,0123*5C
$GPVTG,325.51,T,-314.39,M,004.689,N,008.684,K,D*06
$GPGGA,082040.85,5702.8180876,N,00949.9184840,E,2,5,1.9,-4.021,M,40.592,M,3.0,0123*58
$GPVTG,326.97,T,-312.93,M,004.693,N,008.692,K,D*05
$GPGGA,082040.90,5702.8181390,N,00949.9184258,E,2,5,1.9,-4.019,M,40.592,M,3.0,0123*56
$GPVTG,328.42,T,-311.48,M,004.635,N,008.584,K,D*0E
$GPGGA,082040.95,5702.8181898,N,00949.9183641,E,2,5,1.9,-4.017,M,40.592,M,3.0,0123*55
$GPVTG,329.25,T,-310.65,M,004.594,N,008.508,K,D*0C
$GPGGA,082041.00,5702.8182432,N,00949.9183090,E,2,5,1.9,-4.014,M,40.592,M,3.0,0123*5E
$GPVTG,330.68,T,-309.22,M,004.563,N,008.450,K,D*02
$GPGGA,082041.05,5702.8183046,N,00949.9182596,E,2,5,1.9,-4.023,M,40.592,M,2.5,0123*5F
$GPVTG,332.20,T,-307.70,M,004.584,N,008.489,K,D*08
$GPGGA,082041.10,5702.8183647,N,00949.9182104,E,2,5,1.9,-4.025,M,40.592,M,2.5,0123*55
$GPVTG,334.16,T,-305.74,M,004.619,N,008.554,K,D*0B
$GPGGA,082041.15,5702.8184207,N,00949.9181623,E,2,5,1.9,-4.027,M,40.592,M,2.5,0123*54
$GPVTG,335.54,T,-304.36,M,004.600,N,008.519,K,D*0A
$GPGGA,082041.20,5702.8184774,N,00949.9181218,E,2,5,1.9,-4.027,M,40.592,M,2.5,0123*5F
$GPVTG,337.43,T,-302.47,M,004.568,N,008.460,K,D*0C
$GPGGA,082041.25,5702.8185235,N,00949.9180603,E,2,5,1.9,-4.009,M,40.592,M,2.7,0123*5A
$GPVTG,337.66,T,-302.24,M,004.501,N,008.336,K,D*05
$GPGGA,082041.30,5702.8185793,N,00949.9180195,E,2,5,1.9,-4.004,M,40.592,M,2.7,0123*52
$GPVTG,339.00,T,-300.90,M,004.473,N,008.283,K,D*0D
$GPGGA,082041.35,5702.8186407,N,00949.9179944,E,2,5,1.9,-3.993,M,40.592,M,2.7,0123*58
$GPVTG,342.02,T,-297.88,M,004.479,N,008.296,K,D*0B
$GPGGA,082041.40,5702.8187032,N,00949.9179692,E,2,5,1.9,-3.984,M,40.592,M,2.7,0123*5B
$GPVTG,344.57,T,-295.33,M,004.511,N,008.355,K,D*0E
$GPGGA,082041.45,5702.8187569,N,00949.9179265,E,2,5,1.9,-3.958,M,40.592,M,3.0,0123*5E
$GPVTG,344.82,T,-295.08,M,004.457,N,008.254,K,D*0D
$GPGGA,082041.50,5702.8188045,N,00949.9178857,E,2,5,1.9,-3.951,M,40.592,M,3.0,0123*5D
$GPVTG,344.33,T,-295.57,M,004.324,N,008.009,K,D*04
$GPGGA,082041.55,5702.8188652,N,00949.9178556,E,2,5,1.9,-3.940,M,40.592,M,3.0,0123*54
$GPVTG,345.60,T,-294.30,M,004.364,N,008.083,K,D*05
$GPGGA,082041.60,5702.8189170,N,00949.9178262,E,2,5,1.9,-3.934,M,40.592,M,3.0,0123*57
$GPVTG,346.26,T,-293.64,M,004.279,N,007.924,K,D*04
$GPGGA,082041.65,5702.8189850,N,00949.9178159,E,2,5,1.9,-3.963,M,40.592,M,3.2,0123*52
$GPVTG,347.96,T,-291.94,M,004.324,N,008.008,K,D*02
$GPGGA,082041.70,5702.8190465,N,00949.9177923,E,2,5,1.9,-3.971,M,40.592,M,3.2,0123*5D
$GPVTG,349.13,T,-290.77,M,004.370,N,008.092,K,D*0F
$GPGGA,082041.75,5702.8191052,N,00949.9177678,E,2,5,1.9,-3.982,M,40.592,M,3.2,0123*54
$GPVTG,349.84,T,-290.06,M,004.373,N,008.098,K,D*0E
$GPGGA,082041.80,5702.8191668,N,00949.9177542,E,2,5,1.9,-3.994,M,40.592,M,3.2,0123*5C
$GPVTG,351.62,T,-288.28,M,004.400,N,008.149,K,D*04
$GPGGA,082041.85,5702.8192231,N,00949.9177323,E,2,5,1.9,-4.004,M,40.592,M,3.5,0123*53
$GPVTG,353.57,T,-286.33,M,004.454,N,008.250,K,D*0E
$GPGGA,082041.90,5702.8192836,N,00949.9177124,E,2,5,1.9,-4.014,M,40.592,M,3.5,0123*5E
$GPVTG,353.89,T,-286.01,M,004.468,N,008.274,K,D*05
$GPGGA,082041.95,5702.8193436,N,00949.9177015,E,2,5,1.9,-4.025,M,40.592,M,3.5,0123*57
$GPVTG,355.05,T,-284.85,M,004.464,N,008.267,K,D*07
$GPGGA,082042.00,5702.8194037,N,00949.9176954,E,2,5,1.9,-4.026,M,40.592,M,3.5,0123*54
$GPVTG,356.49,T,-283.41,M,004.459,N,008.258,K,D*01
$GPGGA,082042.05,5702.8194550,N,00949.9176856,E,2,5,1.9,-4.018,M,40.592,M,1.3,0123*5F
$GPVTG,358.50,T,-281.40,M,004.411,N,008.170,K,D*01
$GPGGA,082042.10,5702.8195081,N,00949.9176908,E,2,5,1.9,-4.016,M,40.592,M,1.3,0123*57
$GPVTG,000.60,T,-639.30,M,004.310,N,007.982,K,D*00
$GPGGA,082042.15,5702.8195636,N,00949.9176914,E,2,5,1.9,-4.012,M,40.592,M,1.3,0123*51
$GPVTG,001.81,T,-638.09,M,004.257,N,007.884,K,D*00
$GPGGA,082042.20,5702.8196178,N,00949.9176924,E,2,5,1.9,-4.010,M,40.592,M,1.3,0123*58
$GPVTG,002.82,T,-637.08,M,004.193,N,007.765,K,D*05
$GPGGA,082042.25,5702.8196764,N,00949.9176919,E,2,5,1.9,-3.996,M,40.592,M,1.5,0123*5E
$GPVTG,004.01,T,-635.89,M,004.233,N,007.840,K,D*02
$GPGGA,082042.30,5702.8197305,N,00949.9177029,E,2,5,1.9,-3.998,M,40.592,M,1.5,0123*5D
$GPVTG,005.71,T,-634.19,M,004.177,N,007.736,K,D*01
$GPGGA,082042.35,5702.8197815,N,00949.9177133,E,2,5,1.9,-3.997,M,40.592,M,1.5,0123*57
$GPVTG,007.10,T,-632.80,M,004.085,N,007.566,K,D*09
$GPGGA,082042.40,5702.8198365,N,00949.9177314,E,2,5,1.9,-3.999,M,40.592,M,1.5,0123*5F
$GPVTG,009.05,T,-630.85,M,004.072,N,007.541,K,D*09
$GPGGA,082042.45,5702.8198895,N,00949.9177429,E,2,5,1.9,-4.009,M,40.592,M,1.7,0123*52
$GPVTG,010.47,T,-629.43,M,004.073,N,007.544,K,D*01
$GPGGA,082042.50,5702.8199442,N,00949.9177585,E,2,5,1.9,-4.007,M,40.592,M,1.7,0123*58
$GPVTG,011.44,T,-628.46,M,004.062,N,007.523,K,D*06
$GPGGA,082042.55,5702.8199968,N,00949.9177775,E,2,5,1.9,-4.006,M,40.592,M,1.7,0123*54
$GPVTG,012.60,T,-627.30,M,004.038,N,007.478,K,D*0D
$GPGGA,082042.60,5702.8200477,N,00949.9178043,E,2,5,1.9,-4.006,M,40.592,M,1.7,0123*5F
$GPVTG,014.52,T,-625.38,M,004.013,N,007.431,K,D*04
$GPGGA,082042.65,5702.8200923,N,00949.9178223,E,2,5,1.9,-3.995,M,40.592,M,2.0,0123*52
$GPVTG,016.40,T,-623.50,M,003.933,N,007.284,K,D*09
$GPGGA,082042.70,5702.8201410,N,00949.9178506,E,2,5,1.9,-3.988,M,40.592,M,2.0,0123*56
$GPVTG,017.98,T,-621.92,M,003.879,N,007.184,K,D*0D
$GPGGA,082042.75,5702.8201892,N,00949.9178861,E,2,5,1.9,-3.979,M,40.592,M,2.0,0123*57
$GPVTG,020.26,T,-619.64,M,003.854,N,007.138,K,D*06
$GPGGA,082042.80,5702.8202369,N,00949.9179247,E,2,5,1.9,-3.973,M,40.592,M,2.0,0123*54
$GPVTG,022.54,T,-617.36,M,003.840,N,007.111,K,D*06
$GPGGA,082042.85,5702.8202663,N,00949.9179515,E,2,5,1.9,-3.969,M,40.592,M,2.2,0123*57
$GPVTG,024.53,T,-615.37,M,003.738,N,006.922,K,D*0D
$GPGGA,082042.90,5702.8203112,N,00949.9179921,E,2,5,1.9,-3.967,M,40.592,M,2.2,0123*56
$GPVTG,026.47,T,-613.43,M,003.711,N,006.872,K,D*00
$GPGGA,082042.95,5702.8203589,N,00949.9180290,E,2,5,1.9,-3.973,M,40.592,M,2.2,0123*57
$GPVTG,027.28,T,-612.62,M,003.705,N,006.861,K,D*0D
$GPGGA,082043.00,5702.8204043,N,00949.9180717,E,2,5,1.9,-3.979,M,40.592,M,2.2,0123*5E
$GPVTG,028.76,T,-611.14,M,003.697,N,006.847,K,D*05
$GPGGA,082043.05,5702.8204489,N,00949.9181001,E,2,5,1.9,-3.969,M,40.592,M,2.4,0123*5F
$GPVTG,029.59,T,-610.31,M,003.695,N,006.843,K,D*09
$GPGGA,082043.10,5702.8204943,N,00949.9181415,E,2,5,1.9,-3.976,M,40.592,M,2.4,0123*5F
$GPVTG,030.27,T,-609.63,M,003.681,N,006.817,K,D*03
$GPGGA,082043.15,5702.8205415,N,00949.9181902,E,2,5,1.9,-3.987,M,40.592,M,2.4,0123*50
$GPVTG,031.45,T,-608.45,M,003.720,N,006.889,K,D*0E
$GPGGA,082043.20,5702.8205899,N,00949.9182358,E,2,5,1.9,-3.999,M,40.592,M,2.4,0123*57
$GPVTG,031.84,T,-608.06,M,003.750,N,006.944,K,D*03
$GPGGA,082043.25,5702.8206474,N,00949.9182769,E,2,5,1.9,-3.967,M,40.592,M,2.6,0123*5B
$GPVTG,033.01,T,-606.89,M,003.744,N,006.934,K,D*07
$GPGGA,082043.30,5702.8206881,N,00949.9183260,E,2,5,1.9,-3.955,M,40.592,M,2.6,0123*55
$GPVTG,034.14,T,-605.76,M,003.720,N,006.890,K,D*0A
$GPGGA,082043.35,5702.8207246,N,00949.9183833,E,2,5,1.9,-3.944,M,40.592,M,2.6,0123*5C
$GPVTG,036.17,T,-603.73,M,003.700,N,006.853,K,D*05
$GPGGA,082043.40,5702.8207586,N,00949.9184379,E,2,5,1.9,-3.936,M,40.592,M,2.6,0123*52
$GPVTG,037.95,T,-601.95,M,003.647,N,006.755,K,D*0F
$GPGGA,082043.45,5702.8207816,N,00949.9184952,E,2,5,1.9,-3.940,M,40.592,M,2.8,0123*5F
$GPVTG,040.83,T,-599.07,M,003.541,N,006.557,K,D*04
$GPGGA,082043.50,5702.8208152,N,00949.9185535,E,2,5,1.9,-3.931,M,40.592,M,2.8,0123*57
$GPVTG,042.76,T,-597.14,M,003.492,N,006.467,K,D*0D
$GPGGA,082043.55,5702.8208495,N,00949.9186167,E,2,5,1.9,-3.925,M,40.592,M,2.8,0123*59
$GPVTG,044.74,T,-595.16,M,003.497,N,006.476,K,D*0C
$GPGGA,082043.60,5702.8208830,N,00949.9186832,E,2,5,1.9,-3.922,M,40.592,M,2.8,0123*52
$GPVTG,046.80,T,-593.10,M,003.517,N,006.513,K,D*0E
$GPGGA,082043.65,5702.8209085,N,00949.9187308,E,2,5,1.9,-3.908,M,40.592,M,3.0,0123*52
$GPVTG,047.60,T,-592.30,M,003.432,N,006.356,K,D*03
$GPGGA,082043.70,5702.8209391,N,00949.9187950,E,2,5,1.9,-3.909,M,40.592,M,3.0,0123*56
$GPVTG,049.29,T,-590.61,M,003.415,N,006.324,K,D*06
$GPGGA,082043.75,5702.8209721,N,00949.9188612,E,2,5,1.9,-3.908,M,40.592,M,3.0,0123*5B
$GPVTG,050.43,T,-589.47,M,003.433,N,006.358,K,D*01
$GPGGA,082043.80,5702.8210026,N,00949.9189316,E,2,5,1.9,-3.906,M,40.592,M,3.0,0123*57
$GPVTG,052.12,T,-587.78,M,003.458,N,006.404,K,D*06
$GPGGA,082043.85,5702.8210381,N,00949.9189818,E,2,5,1.9,-3.894,M,40.592,M,3.2,0123*51
$GPVTG,051.26,T,-588.64,M,003.416,N,006.326,K,D*0D
$GPGGA,082043.90,5702.8210699,N,00949.9190517,E,2,5,1.9,-3.896,M,40.592,M,3.2,0123*51
$GPVTG,052.28,T,-587.62,M,003.448,N,006.385,K,D*0B
$GPGGA,082043.95,5702.8210965,N,00949.9191235,E,2,5,1.9,-3.896,M,40.592,M,3.2,0123*5E
$GPVTG,054.10,T,-585.80,M,003.449,N,006.388,K,D*04
$GPGGA,082044.00,5702.8211211,N,00949.9191983,E,2,5,1.9,-3.895,M,40.592,M,3.2,0123*59
$GPVTG,056.21,T,-583.69,M,003.459,N,006.407,K,D*04
$GPGGA,082044.05,5702.8211441,N,00949.9192611,E,2,5,1.9,-3.877,M,40.592,M,2.0,0123*57
$GPVTG,057.52,T,-582.38,M,003.453,N,006.395,K,D*02
$GPGGA,082044.10,5702.8211673,N,00949.9193321,E,2,5,1.9,-3.865,M,40.592,M,2.0,0123*54
$GPVTG,058.99,T,-580.91,M,003.419,N,006.333,K,D*09
$GPGGA,082044.15,5702.8211903,N,00949.9194025,E,2,5,1.9,-3.860,M,40.592,M,2.0,0123*5C
$GPVTG,060.21,T,-579.69,M,003.383,N,006.266,K,D*05
$GPGGA,082044.20,5702.8212095,N,00949.9194787,E,2,5,1.9,-3.855,M,40.592,M,2.0,0123*56
$GPVTG,062.34,T,-577.56,M,003.375,N,006.250,K,D*0D
$GPGGA,082044.25,5702.8211991,N,00949.9195418,E,2,5,1.9,-3.872,M,40.592,M,2.3,0123*5F
$GPVTG,065.99,T,-573.91,M,003.293,N,006.099,K,D*0C
$GPGGA,082044.30,5702.8212129,N,00949.9196237,E,2,5,1.9,-3.868,M,40.592,M,2.3,0123*50
$GPVTG,068.90,T,-571.00,M,003.319,N,006.147,K,D*03
$GPGGA,082044.35,5702.8212289,N,00949.9197046,E,2,5,1.9,-3.866,M,40.592,M,2.3,0123*57
$GPVTG,070.77,T,-569.13,M,003.346,N,006.196,K,D*0E
$GPGGA,082044.40,5702.8212438,N,00949.9197829,E,2,5,1.9,-3.867,M,40.592,M,2.3,0123*59
$GPVTG,072.38,T,-567.52,M,003.340,N,006.185,K,D*08
$GPGGA,082044.45,5702.8212536,N,00949.9198444,E,2,5,1.9,-3.837,M,40.592,M,2.6,0123*5B
$GPVTG,074.18,T,-565.72,M,003.294,N,006.101,K,D*08
$GPGGA,082044.50,5702.8212695,N,00949.9199133,E,2,5,1.9,-3.840,M,40.592,M,2.6,0123*51
$GPVTG,074.46,T,-565.44,M,003.210,N,005.945,K,D*01
$GPGGA,082044.55,5702.8212830,N,00949.9199928,E,2,5,1.9,-3.840,M,40.592,M,2.6,0123*57
$GPVTG,075.65,T,-564.25,M,003.223,N,005.969,K,D*09
$GPGGA,082044.60,5702.8212946,N,00949.9200779,E,2,5,1.9,-3.840,M,40.592,M,2.6,0123*58
$GPVTG,077.20,T,-562.70,M,003.278,N,006.071,K,D*01
$GPGGA,082044.65,5702.8212945,N,00949.9201504,E,2,5,1.9,-3.863,M,40.592,M,2.8,0123*58
$GPVTG,078.42,T,-561.48,M,003.250,N,006.020,K,D*0C
$GPGGA,082044.70,5702.8212999,N,00949.9202309,E,2,5,1.9,-3.869,M,40.592,M,2.8,0123*5F
$GPVTG,080.96,T,-558.94,M,003.243,N,006.006,K,D*0F
$GPGGA,082044.75,5702.8213032,N,00949.9203142,E,2,5,1.9,-3.871,M,40.592,M,2.8,0123*56
$GPVTG,083.59,T,-556.31,M,003.262,N,006.041,K,D*0E
$GPGGA,082044.80,5702.8213085,N,00949.9203981,E,2,5,1.9,-3.866,M,40.592,M,2.8,0123*51
$GPVTG,085.04,T,-554.86,M,003.291,N,006.094,K,D*0A
$GPGGA,082044.85,5702.8213031,N,00949.9204716,E,2,5,1.9,-3.864,M,40.592,M,3.0,0123*57
$GPVTG,087.53,T,-552.37,M,003.281,N,006.077,K,D*0A
$GPGGA,082044.90,5702.8213006,N,00949.9205499,E,2,5,1.9,-3.864,M,40.592,M,3.0,0123*52
$GPVTG,090.31,T,-549.59,M,003.253,N,006.024,K,D*03
$GPGGA,082044.95,5702.8212970,N,00949.9206312,E,2,5,1.9,-3.864,M,40.592,M,3.0,0123*59
$GPVTG,092.89,T,-547.01,M,003.260,N,006.037,K,D*03
$GPGGA,082045.00,5702.8212952,N,00949.9207150,E,2,5,1.9,-3.857,M,40.592,M,3.0,0123*51
$GPVTG,094.44,T,-545.46,M,003.289,N,006.091,K,D*0E
$GPGGA,082045.05,5702.8212780,N,00949.9207812,E,2,5,1.9,-3.849,M,40.592,M,2.5,0123*51
$GPVTG,097.88,T,-542.02,M,003.266,N,006.048,K,D*0F
$GPGGA,082045.10,5702.8212709,N,00949.9208661,E,2,5,1.9,-3.839,M,40.592,M,2.5,0123*56
$GPVTG,099.82,T,-540.08,M,003.316,N,006.141,K,D*0D
$GPGGA,082045.15,5702.8212603,N,00949.9209404,E,2,5,1.9,-3.835,M,40.592,M,2.5,0123*54
$GPVTG,102.56,T,-537.34,M,003.278,N,006.071,K,D*03
$GPGGA,082045.20,5702.8212484,N,00949.9210172,E,2,5,1.9,-3.828,M,40.592,M,2.5,0123*5F
$GPVTG,105.10,T,-534.80,M,003.273,N,006.063,K,D*02
$GPGGA,082045.25,5702.8212290,N,00949.9210812,E,2,5,1.9,-3.821,M,40.592,M,2.7,0123*5D
$GPVTG,107.36,T,-532.54,M,003.236,N,005.993,K,D*0F
$GPGGA,082045.30,5702.8212169,N,00949.9211596,E,2,5,1.9,-3.813,M,40.592,M,2.7,0123*5D
$GPVTG,108.91,T,-530.99,M,003.253,N,006.025,K,D*0A
$GPGGA,082045.35,5702.8212030,N,00949.9212307,E,2,5,1.9,-3.808,M,40.592,M,2.7,0123*52
$GPVTG,110.97,T,-528.93,M,003.216,N,005.957,K,D*08
$GPGGA,082045.40,5702.8211879,N,00949.9213027,E,2,5,1.9,-3.804,M,40.592,M,2.7,0123*5A
$GPVTG,112.83,T,-527.07,M,003.197,N,005.921,K,D*06
$GPGGA,082045.45,5702.8211683,N,00949.9213674,E,2,5,1.9,-3.781,M,40.592,M,3.0,0123*50
$GPVTG,114.31,T,-525.59,M,003.203,N,005.932,K,D*0C
$GPGGA,082045.50,5702.8211523,N,00949.9214463,E,2,5,1.9,-3.776,M,40.592,M,3.0,0123*56
$GPVTG,115.12,T,-524.78,M,003.250,N,006.018,K,D*0A
$GPGGA,082045.55,5702.8211306,N,00949.9215180,E,2,5,1.9,-3.775,M,40.592,M,3.0,0123*58
$GPVTG,117.54,T,-522.36,M,003.268,N,006.053,K,D*02
$GPGGA,082045.60,5702.8211069,N,00949.9215899,E,2,5,1.9,-3.776,M,40.592,M,3.0,0123*56
$GPVTG,119.96,T,-519.94,M,003.304,N,006.119,K,D*06
$GPGGA,082045.65,5702.8210815,N,00949.9216568,E,2,5,1.9,-3.779,M,40.592,M,3.2,0123*5C
$GPVTG,120.85,T,-519.05,M,003.317,N,006.143,K,D*0B
$GPGGA,082045.70,5702.8210622,N,00949.9217284,E,2,5,1.9,-3.779,M,40.592,M,3.2,0123*56
$GPVTG,121.46,T,-518.44,M,003.307,N,006.124,K,D*01
$GPGGA,082045.75,5702.8210372,N,00949.9218023,E,2,5,1.9,-3.783,M,40.592,M,3.2,0123*56
$GPVTG,122.94,T,-516.96,M,003.360,N,006.223,K,D*09
$GPGGA,082045.80,5702.8210104,N,00949.9218701,E,2,5,1.9,-3.786,M,40.592,M,3.2,0123*5D
$GPVTG,124.97,T,-514.93,M,003.376,N,006.252,K,D*0A
$GPGGA,082045.85,5702.8209804,N,00949.9219206,E,2,5,1.9,-3.767,M,40.592,M,3.5,0123*52
$GPVTG,127.12,T,-512.78,M,003.303,N,006.118,K,D*08
$GPGGA,082045.90,5702.8209537,N,00949.9219827,E,2,5,1.9,-3.763,M,40.592,M,3.5,0123*56
$GPVTG,128.88,T,-511.02,M,003.283,N,006.079,K,D*05
$GPGGA,082045.95,5702.8209229,N,00949.9220424,E,2,5,1.9,-3.765,M,40.592,M,3.5,0123*58
$GPVTG,131.38,T,-508.52,M,003.290,N,006.094,K,D*0A
$GPGGA,082046.00,5702.8208916,N,00949.9221014,E,2,5,1.9,-3.772,M,40.592,M,3.5,0123*51
$GPVTG,133.57,T,-506.33,M,003.302,N,006.114,K,D*0B
$GPGGA,082046.05,5702.8208565,N,00949.9221535,E,2,5,1.9,-3.802,M,40.592,M,1.3,0123*56
$GPVTG,135.60,T,-504.30,M,003.293,N,006.099,K,D*05
$GPGGA,082046.10,5702.8208284,N,00949.9222167,E,2,5,1.9,-3.810,M,40.592,M,1.3,0123*59
$GPVTG,135.82,T,-504.08,M,003.298,N,006.107,K,D*0F
$GPGGA,082046.15,5702.8208008,N,00949.9222815,E,2,5,1.9,-3.818,M,40.592,M,1.3,0123*5E
$GPVTG,135.61,T,-504.29,M,003.305,N,006.121,K,D*00
$GPGGA,082046.20,5702.8207642,N,00949.9223402,E,2,5,1.9,-3.831,M,40.592,M,1.3,0123*5F
$GPVTG,137.55,T,-502.35,M,003.368,N,006.238,K,D*0E
$GPGGA,082046.25,5702.8207249,N,00949.9223810,E,2,5,1.9,-3.809,M,40.592,M,1.5,0123*57
$GPVTG,140.68,T,-499.22,M,003.363,N,006.229,K,D*0E
$GPGGA,082046.30,5702.8206892,N,00949.9224327,E,2,5,1.9,-3.808,M,40.592,M,1.5,0123*57
$GPVTG,142.36,T,-497.54,M,003.374,N,006.248,K,D*09
$GPGGA,082046.35,5702.8206542,N,00949.9224821,E,2,5,1.9,-3.807,M,40.592,M,1.5,0123*50
$GPVTG,143.83,T,-496.07,M,003.361,N,006.225,K,D*0E
$GPGGA,082046.40,5702.8206149,N,00949.9225228,E,2,5,1.9,-3.804,M,40.592,M,1.5,0123*5C
$GPVTG,146.70,T,-493.20,M,003.360,N,006.223,K,D*00
$GPGGA,082046.45,5702.8205703,N,00949.9225521,E,2,5,1.9,-3.814,M,40.592,M,1.7,0123*5F
$GPVTG,149.43,T,-490.47,M,003.331,N,006.169,K,D*04
$GPGGA,082046.50,5702.8205324,N,00949.9225940,E,2,5,1.9,-3.812,M,40.592,M,1.7,0123*57
$GPVTG,150.99,T,-488.91,M,003.327,N,006.161,K,D*06
$GPGGA,082046.55,5702.8204921,N,00949.9226305,E,2,5,1.9,-3.810,M,40.592,M,1.7,0123*56
$GPVTG,153.20,T,-486.70,M,003.334,N,006.174,K,D*00
$GPGGA,082046.60,5702.8204528,N,00949.9226590,E,2,5,1.9,-3.808,M,40.592,M,1.7,0123*56
$GPVTG,155.96,T,-483.94,M,003.298,N,006.108,K,D*08
$GPGGA,082046.65,5702.8204127,N,00949.9226824,E,2,5,1.9,-3.792,M,40.592,M,2.0,0123*52
$GPVTG,158.64,T,-481.26,M,003.269,N,006.054,K,D*05
$GPGGA,082046.70,5702.8203694,N,00949.9227180,E,2,5,1.9,-3.791,M,40.592,M,2.0,0123*5B
$GPVTG,159.72,T,-480.18,M,003.324,N,006.157,K,D*05
$GPGGA,082046.75,5702.8203246,N,00949.9227492,E,2,5,1.9,-3.788,M,40.592,M,2.0,0123*5B
$GPVTG,161.24,T,-478.67,M,003.381,N,006.261,K,D*0B
$GPGGA,082046.80,5702.8202795,N,00949.9227808,E,2,5,1.9,-3.791,M,40.592,M,2.0,0123*5C
$GPVTG,162.31,T,-477.59,M,003.435,N,006.361,K,D*07
$GPGGA,082046.85,5702.8202325,N,00949.9228037,E,2,5,1.9,-3.786,M,40.592,M,2.2,0123*59
$GPVTG,163.69,T,-476.21,M,003.455,N,006.398,K,D*05
$GPGGA,082046.90,5702.8201871,N,00949.9228302,E,2,5,1.9,-3.787,M,40.592,M,2.2,0123*50
$GPVTG,164.79,T,-475.11,M,003.488,N,006.460,K,D*03
$GPGGA,082046.95,5702.8201402,N,00949.9228488,E,2,5,1.9,-3.791,M,40.592,M,2.2,0123*5F
$GPVTG,166.81,T,-473.09,M,003.519,N,006.517,K,D*01
$GPGGA,082047.00,5702.8200916,N,00949.9228635,E,2,5,1.9,-3.797,M,40.592,M,2.2,0123*59
$GPVTG,169.01,T,-470.89,M,003.564,N,006.601,K,D*03
$GPGGA,082047.05,5702.8200401,N,00949.9228765,E,2,5,1.9,-3.799,M,40.592,M,2.4,0123*5B
$GPVTG,170.26,T,-469.64,M,003.617,N,006.699,K,D*03
$GPGGA,082047.10,5702.8199934,N,00949.9228856,E,2,5,1.9,-3.798,M,40.592,M,2.4,0123*59
$GPVTG,172.43,T,-467.47,M,003.614,N,006.693,K,D*04
$GPGGA,082047.15,5702.8199479,N,00949.9228862,E,2,5,1.9,-3.796,M,40.592,M,2.4,0123*51
$GPVTG,175.32,T,-464.58,M,003.587,N,006.643,K,D*0C
$GPGGA,082047.20,5702.8198976,N,00949.9228931,E,2,5,1.9,-3.796,M,40.592,M,2.4,0123*53
$GPVTG,176.90,T,-463.00,M,003.637,N,006.736,K,D*06
$GPGGA,082047.25,5702.8198453,N,00949.9228872,E,2,5,1.9,-3.773,M,40.592,M,2.6,0123*53
$GPVTG,178.67,T,-461.23,M,003.668,N,006.793,K,D*06
$GPGGA,082047.30,5702.8197977,N,00949.9228838,E,2,5,1.9,-3.768,M,40.592,M,2.6,0123*57
$GPVTG,180.89,T,-459.01,M,003.664,N,006.787,K,D*03
$GPGGA,082047.35,5702.8197486,N,00949.9228843,E,2,5,1.9,-3.768,M,40.592,M,2.6,0123*5D
$GPVTG,182.11,T,-457.79,M,003.681,N,006.817,K,D*0C
$GPGGA,082047.40,5702.8196978,N,00949.9228752,E,2,5,1.9,-3.771,M,40.592,M,2.6,0123*55
$GPVTG,184.29,T,-455.61,M,003.724,N,006.897,K,D*0C
$GPGGA,082047.45,5702.8196477,N,00949.9228754,E,2,5,1.9,-3.772,M,40.592,M,2.8,0123*59
$GPVTG,184.50,T,-455.40,M,003.769,N,006.981,K,D*0E
$GPGGA,082047.50,5702.8195981,N,00949.9228711,E,2,5,1.9,-3.778,M,40.592,M,2.8,0123*51
$GPVTG,185.37,T,-454.53,M,003.773,N,006.987,K,D*00
$GPGGA,082047.55,5702.8195473,N,00949.9228651,E,2,5,1.9,-3.785,M,40.592,M,2.8,0123*53
$GPVTG,186.19,T,-453.71,M,003.793,N,007.024,K,D*07
$GPGGA,082047.60,5702.8194952,N,00949.9228536,E,2,5,1.9,-3.796,M,40.592,M,2.8,0123*5A
$GPVTG,187.46,T,-452.44,M,003.831,N,007.095,K,D*06
$GPGGA,082047.65,5702.8194429,N,00949.9228334,E,2,5,1.9,-3.798,M,40.592,M,3.0,0123*5D
$GPVTG,188.71,T,-451.19,M,003.816,N,007.067,K,D*0E
$GPGGA,082047.70,5702.8193894,N,00949.9228181,E,2,5,1.9,-3.807,M,40.592,M,3.0,0123*51
$GPVTG,189.85,T,-450.05,M,003.871,N,007.168,K,D*07
$GPGGA,082047.75,5702.8193406,N,00949.9227948,E,2,5,1.9,-3.810,M,40.592,M,3.0,0123*57
$GPVTG,191.64,T,-448.26,M,003.862,N,007.152,K,D*02
$GPGGA,082047.80,5702.8192891,N,00949.9227725,E,2,5,1.9,-3.813,M,40.592,M,3.0,0123*58
$GPVTG,193.05,T,-446.85,M,003.889,N,007.202,K,D*03
$GPGGA,082047.85,5702.8192389,N,00949.9227351,E,2,5,1.9,-3.807,M,40.592,M,3.2,0123*5F
$GPVTG,195.29,T,-444.61,M,003.869,N,007.165,K,D*0F
$GPGGA,082047.90,5702.8191878,N,00949.9227050,E,2,5,1.9,-3.807,M,40.592,M,3.2,0123*5F
$GPVTG,196.96,T,-442.94,M,003.901,N,007.225,K,D*0C
$GPGGA,082047.95,5702.8191354,N,00949.9226801,E,2,5,1.9,-3.814,M,40.592,M,3.2,0123*50
$GPVTG,197.75,T,-442.15,M,003.939,N,007.295,K,D*09
$GPGGA,082048.00,5702.8190865,N,00949.9226435,E,2,5,1.9,-3.815,M,40.592,M,3.2,0123*51
$GPVTG,199.69,T,-440.21,M,003.948,N,007.311,K,D*04
$GPGGA,082048.05,5702.8190353,N,00949.9225951,E,2,5,1.9,-3.817,M,40.592,M,2.0,0123*57
$GPVTG,201.33,T,-438.57,M,003.958,N,007.330,K,D*05
$GPGGA,082048.10,5702.8189841,N,00949.9225583,E,2,5,1.9,-3.821,M,40.592,M,2.0,0123*55
$GPVTG,202.52,T,-437.38,M,003.996,N,007.401,K,D*00
$GPGGA,082048.15,5702.8189370,N,00949.9225129,E,2,5,1.9,-3.820,M,40.592,M,2.0,0123*5C
$GPVTG,204.65,T,-435.25,M,003.999,N,007.406,K,D*04
$GPGGA,082048.20,5702.8188891,N,00949.9224677,E,2,5,1.9,-3.822,M,40.592,M,2.0,0123*50
$GPVTG,206.37,T,-433.53,M,004.013,N,007.431,K,D*0E
$GPGGA,082048.25,5702.8188363,N,00949.9224113,E,2,5,1.9,-3.817,M,40.592,M,2.3,0123*53
$GPVTG,207.58,T,-432.32,M,004.077,N,007.551,K,D*05
$GPGGA,082048.30,5702.8187917,N,00949.9223584,E,2,5,1.9,-3.818,M,40.592,M,2.3,0123*53
$GPVTG,209.47,T,-430.43,M,004.082,N,007.560,K,D*09
$GPGGA,082048.35,5702.8187437,N,00949.9223032,E,2,5,1.9,-3.819,M,40.592,M,2.3,0123*50
$GPVTG,211.08,T,-428.82,M,004.121,N,007.633,K,D*02
$GPGGA,082048.40,5702.8186963,N,00949.9222446,E,2,5,1.9,-3.821,M,40.592,M,2.3,0123*52
$GPVTG,212.73,T,-427.17,M,004.163,N,007.710,K,D*08
$GPGGA,082048.45,5702.8186494,N,00949.9221801,E,2,5,1.9,-3.807,M,40.592,M,2.6,0123*5F
$GPVTG,214.46,T,-425.44,M,004.176,N,007.733,K,D*09
$GPGGA,082048.50,5702.8186053,N,00949.9221238,E,2,5,1.9,-3.807,M,40.592,M,2.6,0123*54
$GPVTG,215.85,T,-424.05,M,004.171,N,007.724,K,D*02
$GPGGA,082048.55,5702.8185598,N,00949.9220579,E,2,5,1.9,-3.811,M,40.592,M,2.6,0123*54
$GPVTG,217.49,T,-422.41,M,004.212,N,007.801,K,D*08
$GPGGA,082048.60,5702.8185125,N,00949.9219917,E,2,5,1.9,-3.819,M,40.592,M,2.6,0123*56
$GPVTG,218.69,T,-421.21,M,004.270,N,007.907,K,D*03
$GPGGA,082048.65,5702.8184629,N,00949.9219300,E,2,5,1.9,-3.802,M,40.592,M,2.8,0123*51
$GPVTG,219.40,T,-420.50,M,004.316,N,007.993,K,D*02
$GPGGA,082048.70,5702.8184201,N,00949.9218548,E,2,5,1.9,-3.806,M,40.592,M,2.8,0123*54
$GPVTG,221.24,T,-418.66,M,004.353,N,008.061,K,D*0F
$GPGGA,082048.75,5702.8183776,N,00949.9217833,E,2,5,1.9,-3.810,M,40.592,M,2.8,0123*5A
$GPVTG,222.64,T,-417.26,M,004.368,N,008.090,K,D*05
$GPGGA,082048.80,5702.8183362,N,00949.9217148,E,2,5,1.9,-3.818,M,40.592,M,2.8,0123*5C
$GPVTG,223.74,T,-416.16,M,004.358,N,008.071,K,D*0B
$GPGGA,082048.85,5702.8182947,N,00949.9216331,E,2,5,1.9,-3.799,M,40.592,M,3.0,0123*57
$GPVTG,225.94,T,-413.96,M,004.396,N,008.141,K,D*0E
$GPGGA,082048.90,5702.8182520,N,00949.9215533,E,2,4,1.9,-3.802,M,40.592,M,3.0,0123*55
$GPVTG,227.06,T,-412.84,M,004.443,N,008.229,K,D*07
$GPGGA,082048.95,5702.8182116,N,00949.9214763,E,2,4,1.9,-3.804,M,40.592,M,3.0,0123*51
$GPVTG,228.09,T,-411.81,M,004.456,N,008.252,K,D*09
$GPGGA,082049.00,5702.8181753,N,00949.9213962,E,2,4,1.9,-3.810,M,40.592,M,3.0,0123*55
$GPVTG,229.54,T,-410.36,M,004.447,N,008.235,K,D*0C
$GPGGA,082049.05,5702.8181377,N,00949.9213241,E,2,4,1.9,-3.805,M,40.592,M,2.5,0123*58
$GPVTG,230.20,T,-409.70,M,004.488,N,008.311,K,D*09
$GPGGA,082049.10,5702.8180971,N,00949.9212416,E,2,4,1.9,-3.811,M,40.592,M,2.5,0123*51
$GPVTG,230.91,T,-408.99,M,004.512,N,008.356,K,D*04
$GPGGA,082049.15,5702.8180618,N,00949.9211555,E,2,4,1.9,-3.813,M,40.592,M,2.5,0123*53
$GPVTG,232.29,T,-407.61,M,004.509,N,008.351,K,D*00
$GPGGA,082049.20,5702.8180246,N,00949.9210695,E,2,4,1.9,-3.820,M,40.592,M,2.5,0123*54
$GPVTG,233.21,T,-406.69,M,004.520,N,008.371,K,D*09
$GPGGA,082049.25,5702.8179947,N,00949.9209837,E,2,4,1.9,-3.830,M,40.592,M,2.7,0123*50
$GPVTG,234.69,T,-405.21,M,004.518,N,008.367,K,D*01
$GPGGA,082049.30,5702.8179609,N,00949.9208895,E,2,4,1.9,-3.837,M,40.592,M,2.7,0123*5F
$GPVTG,236.06,T,-403.84,M,004.541,N,008.409,K,D*00
$GPGGA,082049.35,5702.8179309,N,00949.9207921,E,2,4,1.9,-3.843,M,40.592,M,2.7,0123*5D
$GPVTG,237.86,T,-402.04,M,004.553,N,008.432,K,D*0B
$GPGGA,082049.40,5702.8178942,N,00949.9207021,E,2,4,1.9,-3.850,M,40.592,M,2.7,0123*50
$GPVTG,238.14,T,-401.76,M,004.568,N,008.461,K,D*07
$GPGGA,082049.45,5702.8178560,N,00949.9206210,E,2,5,1.9,-3.846,M,40.592,M,3.0,0123*58
$GPVTG,238.32,T,-401.58,M,004.506,N,008.346,K,D*05
$GPGGA,082049.50,5702.8178256,N,00949.9205235,E,2,5,1.9,-3.853,M,40.592,M,3.0,0123*5E
$GPVTG,239.44,T,-400.46,M,004.524,N,008.378,K,D*06
$GPGGA,082049.55,5702.8177948,N,00949.9204225,E,2,5,1.9,-3.857,M,40.592,M,3.0,0123*54
$GPVTG,240.58,T,-399.32,M,004.563,N,008.451,K,D*0E
$GPGGA,082049.60,5702.8177630,N,00949.9203163,E,2,5,1.9,-3.860,M,40.592,M,3.0,0123*50
$GPVTG,241.71,T,-398.19,M,004.637,N,008.588,K,D*0B
$GPGGA,082049.65,5702.8177282,N,00949.9202247,E,2,5,1.9,-3.870,M,40.592,M,3.2,0123*5F
$GPVTG,241.60,T,-398.30,M,004.613,N,008.543,K,D*01
$GPGGA,082049.70,5702.8176961,N,00949.9201222,E,2,5,1.9,-3.877,M,40.592,M,3.2,0123*5B
$GPVTG,242.17,T,-397.73,M,004.644,N,008.601,K,D*0D
$GPGGA,082049.75,5702.8176678,N,00949.9200127,E,2,5,1.9,-3.878,M,40.592,M,3.2,0123*51
$GPVTG,243.43,T,-396.47,M,004.707,N,008.717,K,D*0B
$GPGGA,082049.80,5702.8176427,N,00949.9199080,E,2,5,1.9,-3.876,M,40.592,M,3.2,0123*52
$GPVTG,244.61,T,-395.29,M,004.702,N,008.708,K,D*0C
$GPGGA,082049.85,5702.8176154,N,00949.9198056,E,2,5,1.9,-3.880,M,40.592,M,3.5,0123*52
$GPVTG,245.44,T,-394.46,M,004.727,N,008.754,K,D*0C
$GPGGA,082049.90,5702.8175897,N,00949.9197003,E,2,5,1.9,-3.882,M,40.592,M,3.5,0123*5E
$GPVTG,246.26,T,-393.64,M,004.719,N,008.739,K,D*0A
$GPGGA,082049.95,5702.8175691,N,00949.9195895,E,2,5,1.9,-3.883,M,40.592,M,3.5,0123*57
$GPVTG,247.80,T,-392.10,M,004.730,N,008.760,K,D*02
$GPGGA,082050.00,5702.8175441,N,00949.9194753,E,2,5,1.9,-3.880,M,40.592,M,3.5,0123*5B
$GPVTG,248.71,T,-391.19,M,004.782,N,008.856,K,D*0A
$GPGGA,082050.05,5702.8175207,N,00949.9193683,E,2,5,1.9,-3.887,M,40.592,M,1.3,0123*52
$GPVTG,249.58,T,-390.32,M,004.801,N,008.891,K,D*07
$GPGGA,082050.10,5702.8174977,N,00949.9192519,E,2,5,1.9,-3.889,M,40.592,M,1.3,0123*54
$GPVTG,250.47,T,-389.43,M,004.847,N,008.976,K,D*05
$GPGGA,082050.15,5702.8174788,N,00949.9191418,E,2,5,1.9,-3.893,M,40.592,M,1.3,0123*57
$GPVTG,251.50,T,-388.40,M,004.820,N,008.926,K,D*04
$GPGGA,082050.20,5702.8174609,N,00949.9190306,E,2,5,1.9,-3.898,M,40.592,M,1.3,0123*5B
$GPVTG,252.56,T,-387.34,M,004.797,N,008.884,K,D*07
$GPGGA,082050.25,5702.8174584,N,00949.9189173,E,2,5,1.9,-3.875,M,40.592,M,1.5,0123*55
$GPVTG,254.13,T,-385.77,M,004.770,N,008.833,K,D*00
$GPGGA,082050.30,5702.8174445,N,00949.9188013,E,2,5,1.9,-3.872,M,40.592,M,1.5,0123*5C
$GPVTG,255.51,T,-384.39,M,004.773,N,008.840,K,D*0B
$GPGGA,082050.35,5702.8174315,N,00949.9186848,E,2,5,1.9,-3.876,M,40.592,M,1.5,0123*57
$GPVTG,256.85,T,-383.05,M,004.777,N,008.848,K,D*05
$GPGGA,082050.40,5702.8174193,N,00949.9185629,E,2,5,1.9,-3.884,M,40.592,M,1.5,0123*5E
$GPVTG,258.19,T,-381.71,M,004.821,N,008.929,K,D*05
$GPGGA,082050.45,5702.8174196,N,00949.9184444,E,2,5,1.9,-3.868,M,40.592,M,1.7,0123*56
$GPVTG,260.61,T,-379.29,M,004.794,N,008.878,K,D*0F
$GPGGA,082050.50,5702.8174132,N,00949.9183197,E,2,5,1.9,-3.871,M,40.592,M,1.7,0123*58
$GPVTG,262.60,T,-377.30,M,004.847,N,008.976,K,D*04
$GPGGA,082050.55,5702.8174060,N,00949.9181959,E,2,5,1.9,-3.878,M,40.592,M,1.7,0123*5A
$GPVTG,263.91,T,-375.99,M,004.888,N,009.052,K,D*07
$GPGGA,082050.60,5702.8173988,N,00949.9180701,E,2,5,1.9,-3.884,M,40.592,M,1.7,0123*55
$GPVTG,264.93,T,-374.97,M,004.940,N,009.149,K,D*03
$GPGGA,082050.65,5702.8174023,N,00949.9179542,E,2,5,1.9,-3.897,M,40.592,M,2.0,0123*5A
$GPVTG,267.37,T,-372.53,M,004.896,N,009.067,K,D*07
$GPGGA,082050.70,5702.8174056,N,00949.9178357,E,2,5,1.9,-3.902,M,40.592,M,2.0,0123*52
$GPVTG,269.56,T,-370.34,M,004.873,N,009.025,K,D*00
$GPGGA,082050.75,5702.8174069,N,00949.9177122,E,2,5,1.9,-3.911,M,40.592,M,2.0,0123*56
$GPVTG,271.01,T,-368.89,M,004.899,N,009.073,K,D*03
$GPGGA,082050.80,5702.8174098,N,00949.9175892,E,2,5,1.9,-3.921,M,40.592,M,2.0,0123*51
$GPVTG,272.47,T,-367.43,M,004.918,N,009.108,K,D*0E
$GPGGA,082050.85,5702.8174114,N,00949.9174598,E,2,5,1.9,-3.906,M,40.592,M,2.2,0123*50
$GPVTG,273.99,T,-365.91,M,004.910,N,009.094,K,D*0D
$GPGGA,082050.90,5702.8174145,N,00949.9173318,E,2,5,1.9,-3.914,M,40.592,M,2.2,0123*5A
$GPVTG,274.86,T,-365.04,M,004.969,N,009.203,K,D*0A
$GPGGA,082050.95,5702.8174283,N,00949.9172135,E,2,5,1.9,-3.919,M,40.592,M,2.2,0123*57
$GPVTG,277.35,T,-362.55,M,004.950,N,009.168,K,D*06
$GPGGA,082051.00,5702.8174404,N,00949.9170907,E,2,5,1.9,-3.927,M,40.592,M,2.2,0123*55
$GPVTG,279.13,T,-360.77,M,004.974,N,009.211,K,D*05
$GPGGA,082051.05,5702.8174511,N,00949.9169616,E,2,5,1.9,-3.927,M,40.592,M,2.4,0123*54
$GPVTG,280.15,T,-359.75,M,005.038,N,009.330,K,D*0F
$GPGGA,082051.10,5702.8174643,N,00949.9168425,E,2,5,1.9,-3.930,M,40.592,M,2.4,0123*51
$GPVTG,281.61,T,-358.29,M,005.019,N,009.295,K,D*08
$GPGGA,082051.15,5702.8174723,N,00949.9167173,E,2,5,1.9,-3.933,M,40.592,M,2.4,0123*59
$GPVTG,281.86,T,-358.04,M,005.039,N,009.332,K,D*00
$GPGGA,082051.20,5702.8174870,N,00949.9165938,E,2,5,1.9,-3.929,M,40.592,M,2.4,0123*58
$GPVTG,283.06,T,-356.84,M,005.058,N,009.367,K,D*0B
$GPGGA,082051.25,5702.8175014,N,00949.9164844,E,2,5,1.9,-3.953,M,40.592,M,2.6,0123*52
$GPVTG,283.93,T,-355.97,M,005.066,N,009.383,K,D*01
$GPGGA,082051.30,5702.8175177,N,00949.9163659,E,2,5,1.9,-3.954,M,40.592,M,2.6,0123*50
$GPVTG,285.12,T,-354.78,M,005.051,N,009.354,K,D*00
$GPGGA,082051.35,5702.8175344,N,00949.9162564,E,2,5,1.9,-3.952,M,40.592,M,2.6,0123*5D
$GPVTG,286.44,T,-353.46,M,004.967,N,009.199,K,D*04
$GPGGA,082051.40,5702.8175535,N,00949.9161438,E,2,5,1.9,-3.953,M,40.592,M,2.6,0123*55
$GPVTG,287.76,T,-352.14,M,004.922,N,009.116,K,D*04
$GPGGA,082051.45,5702.8175706,N,00949.9160306,E,2,5,1.9,-3.962,M,40.592,M,2.8,0123*55
$GPVTG,288.73,T,-351.17,M,004.921,N,009.114,K,D*0F
$GPGGA,082051.50,5702.8175881,N,00949.9159144,E,2,5,1.9,-3.963,M,40.592,M,2.8,0123*5E
$GPVTG,289.48,T,-350.42,M,004.907,N,009.088,K,D*07
$GPGGA,082051.55,5702.8176096,N,00949.9158030,E,2,5,1.9,-3.965,M,40.592,M,2.8,0123*53
$GPVTG,290.64,T,-349.26,M,004.872,N,009.022,K,D*08
$GPGGA,082051.60,5702.8176298,N,00949.9156875,E,2,5,1.9,-3.965,M,40.592,M,2.8,0123*5E
$GPVTG,291.36,T,-348.54,M,004.868,N,009.016,K,D*06
$GPGGA,082051.65,5702.8176607,N,00949.9155775,E,2,5,1.9,-3.951,M,40.592,M,3.0,0123*5B
$GPVTG,292.73,T,-347.17,M,004.842,N,008.967,K,D*0A
$GPGGA,082051.70,5702.8176829,N,00949.9154718,E,2,5,1.9,-3.955,M,40.592,M,3.0,0123*53
$GPVTG,293.65,T,-346.25,M,004.777,N,008.846,K,D*07
$GPGGA,082051.75,5702.8177129,N,00949.9153624,E,2,5,1.9,-3.955,M,40.592,M,3.0,0123*57
$GPVTG,295.19,T,-344.71,M,004.784,N,008.860,K,D*01
$GPGGA,082051.80,5702.8177406,N,00949.9152490,E,2,5,1.9,-3.959,M,40.592,M,3.0,0123*55
$GPVTG,296.07,T,-343.83,M,004.813,N,008.913,K,D*03
$GPGGA,082051.85,5702.8177841,N,00949.9151438,E,2,5,1.9,-3.931,M,40.592,M,3.2,0123*52
$GPVTG,298.51,T,-341.39,M,004.801,N,008.891,K,D*05
$GPGGA,082051.90,5702.8178163,N,00949.9150340,E,2,5,1.9,-3.933,M,40.592,M,3.2,0123*5B
$GPVTG,299.56,T,-340.34,M,004.834,N,008.953,K,D*06
$GPGGA,082051.95,5702.8178485,N,00949.9149279,E,2,5,1.9,-3.937,M,40.592,M,3.2,0123*54
$GPVTG,300.54,T,-339.36,M,004.835,N,008.955,K,D*0E
$GPGGA,082052.00,5702.8178879,N,00949.9148263,E,2,5,1.9,-3.941,M,40.592,M,3.2,0123*5F
$GPVTG,302.70,T,-337.20,M,004.864,N,009.008,K,D*07
$GPGGA,082052.05,5702.8179258,N,00949.9147199,E,2,5,1.9,-3.940,M,40.592,M,2.0,0123*59
$GPVTG,304.08,T,-335.82,M,004.894,N,009.064,K,D*01
$GPGGA,082052.10,5702.8179681,N,00949.9146272,E,2,5,1.9,-3.944,M,40.592,M,2.0,0123*5E
$GPVTG,306.44,T,-333.46,M,004.880,N,009.037,K,D*06
$GPGGA,082052.15,5702.8180069,N,00949.9145250,E,2,5,1.9,-3.952,M,40.592,M,2.0,0123*59
$GPVTG,307.33,T,-332.57,M,004.905,N,009.085,K,D*03
$GPGGA,082052.20,5702.8180491,N,00949.9144328,E,2,5,1.9,-3.955,M,40.592,M,2.0,0123*54
$GPVTG,309.07,T,-330.83,M,004.893,N,009.062,K,D*06
$GPGGA,082052.25,5702.8180903,N,00949.9143332,E,2,5,1.9,-3.959,M,40.592,M,2.3,0123*54
$GPVTG,309.90,T,-330.00,M,004.909,N,009.091,K,D*0D
$GPGGA,082052.30,5702.8181349,N,00949.9142416,E,2,5,1.9,-3.965,M,40.592,M,2.3,0123*5A
$GPVTG,311.46,T,-328.44,M,004.915,N,009.103,K,D*01
$GPGGA,082052.35,5702.8181749,N,00949.9141524,E,2,5,1.9,-3.967,M,40.592,M,2.3,0123*5A
$GPVTG,312.33,T,-327.57,M,004.864,N,009.007,K,D*0F
$GPGGA,082052.40,5702.8182211,N,00949.9140684,E,2,5,1.9,-3.968,M,40.592,M,2.3,0123*54
$GPVTG,314.09,T,-325.81,M,004.845,N,008.973,K,D*01
$GPGGA,082052.45,5702.8182701,N,00949.9139924,E,2,5,1.9,-3.980,M,40.592,M,2.6,0123*5D
$GPVTG,315.42,T,-324.48,M,004.805,N,008.899,K,D*0A
$GPGGA,082052.50,5702.8183176,N,00949.9139091,E,2,5,1.9,-3.980,M,40.592,M,2.6,0123*59
$GPVTG,316.82,T,-323.08,M,004.807,N,008.902,K,D*07
$GPGGA,082052.55,5702.8183648,N,00949.9138330,E,2,5,1.9,-3.981,M,40.592,M,2.6,0123*5E
$GPVTG,318.45,T,-321.45,M,004.766,N,008.827,K,D*07
$GPGGA,082052.60,5702.8184101,N,00949.9137554,E,2,5,1.9,-3.984,M,40.592,M,2.6,0123*5B
$GPVTG,319.46,T,-320.44,M,004.721,N,008.743,K,D*0B
$GPGGA,082052.65,5702.8184664,N,00949.9136869,E,2,5,1.9,-3.969,M,40.592,M,2.8,0123*55
$GPVTG,322.00,T,-317.90,M,004.732,N,008.763,K,D*0C
$GPGGA,082052.70,5702.8185157,N,00949.9136143,E,2,5,1.9,-3.968,M,40.592,M,2.8,0123*57
$GPVTG,323.19,T,-316.71,M,004.712,N,008.727,K,D*09
$GPGGA,082052.75,5702.8185636,N,00949.9135417,E,2,5,1.9,-3.967,M,40.592,M,2.8,0123*5A
$GPVTG,324.00,T,-315.90,M,004.681,N,008.670,K,D*02
$GPGGA,082052.80,5702.8186115,N,00949.9134739,E,2,5,1.9,-3.966,M,40.592,M,2.8,0123*5A
$GPVTG,324.99,T,-314.91,M,004.630,N,008.575,K,D*0E
$GPGGA,082052.85,5702.8186613,N,00949.9134015,E,2,5,1.9,-3.949,M,40.592,M,3.0,0123*53
$GPVTG,325.46,T,-314.44,M,004.609,N,008.536,K,D*08
$GPGGA,082052.90,5702.8187135,N,00949.9133363,E,2,5,1.9,-3.947,M,40.592,M,3.0,0123*5E
$GPVTG,326.69,T,-313.21,M,004.605,N,008.528,K,D*01
$GPGGA,082052.95,5702.8187659,N,00949.9132819,E,2,5,1.9,-3.946,M,40.592,M,3.0,0123*50
$GPVTG,328.62,T,-311.28,M,004.557,N,008.439,K,D*0A
$GPGGA,082053.00,5702.8188172,N,00949.9132200,E,2,5,1.9,-3.948,M,40.592,M,3.0,0123*50
$GPVTG,329.48,T,-310.42,M,004.537,N,008.403,K,D*01
$GPGGA,082053.05,5702.8188754,N,00949.9131645,E,2,5,1.9,-3.945,M,40.592,M,2.5,0123*58
$GPVTG,331.17,T,-308.73,M,004.567,N,008.458,K,D*02
$GPGGA,082053.10,5702.8189323,N,00949.9131072,E,2,5,1.9,-3.944,M,40.592,M,2.5,0123*5A
$GPVTG,332.36,T,-307.54,M,004.599,N,008.518,K,D*0C
$GPGGA,082053.15,5702.8189789,N,00949.9130428,E,2,5,1.9,-3.947,M,40.592,M,2.5,0123*52
$GPVTG,331.78,T,-308.12,M,004.531,N,008.392,K,D*0E
$GPGGA,082053.20,5702.8190312,N,00949.9129901,E,2,5,1.9,-3.946,M,40.592,M,2.5,0123*55
$GPVTG,332.72,T,-307.18,M,004.493,N,008.320,K,D*02
$GPGGA,082053.25,5702.8190928,N,00949.9129471,E,2,5,1.9,-3.945,M,40.592,M,2.7,0123*58
$GPVTG,335.06,T,-304.84,M,004.531,N,008.391,K,D*03
$GPGGA,082053.30,5702.8191539,N,00949.9129060,E,2,5,1.9,-3.948,M,40.592,M,2.7,0123*58
$GPVTG,337.20,T,-302.70,M,004.568,N,008.459,K,D*07
$GPGGA,082053.35,5702.8192137,N,00949.9128645,E,2,5,1.9,-3.951,M,40.592,M,2.7,0123*5C
$GPVTG,338.82,T,-301.08,M,004.590,N,008.501,K,D*07
$GPGGA,082053.40,5702.8192685,N,00949.9128169,E,2,5,1.9,-3.960,M,40.592,M,2.7,0123*5B
$GPVTG,339.21,T,-300.69,M,004.565,N,008.455,K,D*03
$GPGGA,082053.45,5702.8193197,N,00949.9127617,E,2,5,1.9,-3.942,M,40.592,M,3.0,0123*5C
$GPVTG,339.79,T,-300.11,M,004.549,N,008.425,K,D*08
$GPGGA,082053.50,5702.8193794,N,00949.9127259,E,2,5,1.9,-3.944,M,40.592,M,3.0,0123*55
$GPVTG,341.29,T,-298.61,M,004.557,N,008.440,K,D*09
$GPGGA,082053.55,5702.8194396,N,00949.9126988,E,2,5,1.9,-3.946,M,40.592,M,3.0,0123*55
$GPVTG,343.42,T,-296.48,M,004.552,N,008.431,K,D*00
$GPGGA,082053.60,5702.8194949,N,00949.9126642,E,2,5,1.9,-3.948,M,40.592,M,3.0,0123*5C
$GPVTG,344.18,T,-295.72,M,004.503,N,008.339,K,D*09
$GPGGA,082053.65,5702.8195454,N,00949.9126229,E,2,5,1.9,-3.939,M,40.592,M,3.2,0123*54
$GPVTG,344.19,T,-295.71,M,004.418,N,008.183,K,D*03
$GPGGA,082053.70,5702.8196009,N,00949.9125921,E,2,5,1.9,-3.934,M,40.592,M,3.2,0123*52
$GPVTG,345.03,T,-294.87,M,004.376,N,008.104,K,D*01
$GPGGA,082053.75,5702.8196561,N,00949.9125683,E,2,5,1.9,-3.931,M,40.592,M,3.2,0123*5E
$GPVTG,346.43,T,-293.47,M,004.319,N,007.999,K,D*07
$GPGGA,082053.80,5702.8197151,N,00949.9125429,E,2,5,1.9,-3.931,M,40.592,M,3.2,0123*50
$GPVTG,347.55,T,-292.35,M,004.327,N,008.013,K,D*0C
$GPGGA,082053.85,5702.8197787,N,00949.9125350,E,2,5,1.9,-3.947,M,40.592,M,3.5,0123*57
$GPVTG,349.30,T,-290.60,M,004.310,N,007.981,K,D*0A
$GPGGA,082053.90,5702.8198379,N,00949.9125241,E,2,5,1.9,-3.946,M,40.592,M,3.5,0123*59
$GPVTG,351.49,T,-288.41,M,004.304,N,007.972,K,D*0E
$GPGGA,082053.95,5702.8198949,N,00949.9125148,E,2,5,1.9,-3.949,M,40.592,M,3.5,0123*50
$GPVTG,353.43,T,-286.47,M,004.273,N,007.914,K,D*0F
$GPGGA,082054.00,5702.8199552,N,00949.9125085,E,2,5,1.9,-3.948,M,40.592,M,3.5,0123*5D
$GPVTG,355.41,T,-284.49,M,004.292,N,007.948,K,D*01
$GPGGA,082054.05,5702.8200035,N,00949.9124816,E,2,5,1.9,-3.916,M,40.592,M,1.3,0123*53
$GPVTG,355.84,T,-284.06,M,004.221,N,007.817,K,D*00
$GPGGA,082054.10,5702.8200563,N,00949.9124669,E,2,5,1.9,-3.909,M,40.592,M,1.3,0123*59
$GPVTG,356.15,T,-283.75,M,004.146,N,007.678,K,D*0D
$GPGGA,082054.15,5702.8201134,N,00949.9124616,E,2,5,1.9,-3.901,M,40.592,M,1.3,0123*5B
$GPVTG,357.51,T,-282.39,M,004.138,N,007.663,K,D*06
$GPGGA,082054.20,5702.8201655,N,00949.9124580,E,2,5,1.9,-3.898,M,40.592,M,1.3,0123*50
$GPVTG,358.76,T,-281.14,M,004.061,N,007.521,K,D*08
$GPGGA,082054.25,5702.8202220,N,00949.9124548,E,2,5,1.9,-3.901,M,40.592,M,1.5,0123*53
$GPVTG,358.91,T,-280.99,M,004.008,N,007.423,K,D*09
$GPGGA,082054.30,5702.8202809,N,00949.9124536,E,2,5,1.9,-3.902,M,40.592,M,1.5,0123*5C
$GPVTG,000.06,T,-639.84,M,004.059,N,007.518,K,D*0E
$GPGGA,082054.35,5702.8203396,N,00949.9124584,E,2,5,1.9,-3.901,M,40.592,M,1.5,0123*5F
$GPVTG,001.75,T,-638.15,M,004.099,N,007.591,K,D*0F
$GPGGA,082054.40,5702.8203950,N,00949.9124618,E,2,5,1.9,-3.902,M,40.592,M,1.5,0123*58
$GPVTG,002.87,T,-637.03,M,004.079,N,007.554,K,D*0E
$GPGGA,082054.45,5702.8204504,N,00949.9124641,E,2,5,1.9,-3.880,M,40.592,M,1.7,0123*52
$GPVTG,004.23,T,-635.67,M,004.079,N,007.554,K,D*06
$GPGGA,082054.50,5702.8204981,N,00949.9124660,E,2,5,1.9,-3.888,M,40.592,M,1.7,0123*5C
$GPVTG,004.82,T,-635.08,M,003.971,N,007.355,K,D*05
$GPGGA,082054.55,5702.8205590,N,00949.9124807,E,2,5,1.9,-3.892,M,40.592,M,1.7,0123*50
$GPVTG,006.50,T,-633.40,M,004.048,N,007.497,K,D*0F
$GPGGA,082054.60,5702.8206137,N,00949.9124946,E,2,5,1.9,-3.899,M,40.592,M,1.7,0123*53
$GPVTG,007.88,T,-632.02,M,004.039,N,007.481,K,D*0D
$GPGGA,082054.65,5702.8206632,N,00949.9125041,E,2,5,1.9,-3.907,M,40.592,M,2.0,0123*59
$GPVTG,009.01,T,-630.89,M,003.982,N,007.375,K,D*01
$GPGGA,082054.70,5702.8207186,N,00949.9125273,E,2,5,1.9,-3.913,M,40.592,M,2.0,0123*52
$GPVTG,011.16,T,-628.74,M,004.013,N,007.432,K,D*07
$GPGGA,082054.75,5702.8207720,N,00949.9125524,E,2,5,1.9,-3.914,M,40.592,M,2.0,0123*5F
$GPVTG,013.16,T,-626.74,M,004.011,N,007.428,K,D*02
$GPGGA,082054.80,5702.8208207,N,00949.9125790,E,2,5,1.9,-3.915,M,40.592,M,2.0,0123*56
$GPVTG,015.19,T,-624.71,M,003.941,N,007.299,K,D*0B
$GPGGA,082054.85,5702.8208720,N,00949.9125989,E,2,5,1.9,-3.906,M,40.592,M,2.2,0123*55
$GPVTG,015.73,T,-624.17,M,003.925,N,007.268,K,D*0B
$GPGGA,082054.90,5702.8209225,N,00949.9126284,E,2,5,1.9,-3.902,M,40.592,M,2.2,0123*51
$GPVTG,017.39,T,-622.51,M,003.914,N,007.248,K,D*03
$GPGGA,082054.95,5702.8209728,N,00949.9126599,E,2,5,1.9,-3.902,M,40.592,M,2.2,0123*57
$GPVTG,018.95,T,-620.95,M,003.907,N,007.235,K,D*08
$GPGGA,082055.00,5702.8210220,N,00949.9126925,E,2,5,1.9,-3.900,M,40.592,M,2.2,0123*56
$GPVTG,020.40,T,-619.50,M,003.891,N,007.205,K,D*05
$GPGGA,082055.05,5702.8210612,N,00949.9127205,E,2,5,1.9,-3.902,M,40.592,M,2.4,0123*5A
$GPVTG,021.58,T,-618.32,M,003.846,N,007.123,K,D*05
$GPGGA,082055.10,5702.8211097,N,00949.9127549,E,2,5,1.9,-3.898,M,40.592,M,2.4,0123*59
$GPVTG,022.71,T,-617.19,M,003.829,N,007.091,K,D*0A
$GPGGA,082055.15,5702.8211587,N,00949.9127915,E,2,5,1.9,-3.894,M,40.592,M,2.4,0123*51
$GPVTG,023.83,T,-616.07,M,003.826,N,007.085,K,D*02
$GPGGA,082055.20,5702.8212056,N,00949.9128303,E,2,5,1.9,-3.888,M,40.592,M,2.4,0123*52
$GPVTG,025.09,T,-614.81,M,003.809,N,007.055,K,D*0A
$GPGGA,082055.25,5702.8212456,N,00949.9128668,E,2,5,1.9,-3.880,M,40.592,M,2.6,0123*51
$GPVTG,026.43,T,-613.47,M,003.751,N,006.947,K,D*03
$GPGGA,082055.30,5702.8212905,N,00949.9129120,E,2,5,1.9,-3.876,M,40.592,M,2.6,0123*5D
$GPVTG,028.14,T,-611.76,M,003.742,N,006.930,K,D*0D
$GPGGA,082055.35,5702.8213324,N,00949.9129612,E,2,5,1.9,-3.868,M,40.592,M,2.6,0123*59
$GPVTG,030.27,T,-609.63,M,003.721,N,006.891,K,D*06
$GPGGA,082055.40,5702.8213761,N,00949.9130062,E,2,5,1.9,-3.864,M,40.592,M,2.6,0123*5B
$GPVTG,031.36,T,-608.54,M,003.701,N,006.853,K,D*0E
$GPGGA,082055.45,5702.8214072,N,00949.9130430,E,2,5,1.9,-3.856,M,40.592,M,2.8,0123*50
$GPVTG,032.42,T,-607.48,M,003.632,N,006.727,K,D*01
$GPGGA,082055.50,5702.8214472,N,00949.9131006,E,2,5,1.9,-3.855,M,40.592,M,2.8,0123*53
$GPVTG,034.96,T,-604.94,M,003.644,N,006.748,K,D*04
$GPGGA,082055.55,5702.8214869,N,00949.9131559,E,2,5,1.9,-3.859,M,40.592,M,2.8,0123*53
$GPVTG,036.80,T,-603.10,M,003.639,N,006.740,K,D*08
$GPGGA,082055.60,5702.8215266,N,00949.9132133,E,2,5,1.9,-3.861,M,40.592,M,2.8,0123*51
$GPVTG,038.51,T,-601.39,M,003.648,N,006.756,K,D*02
$GPGGA,082055.65,5702.8215681,N,00949.9132669,E,2,5,1.9,-3.840,M,40.592,M,3.0,0123*5B
$GPVTG,040.04,T,-599.86,M,003.669,N,006.795,K,D*07
$GPGGA,082055.70,5702.8216073,N,00949.9133248,E,2,5,1.9,-3.838,M,40.592,M,3.0,0123*5E
$GPVTG,041.16,T,-598.74,M,003.669,N,006.794,K,D*08
$GPGGA,082055.75,5702.8216439,N,00949.9133903,E,2,5,1.9,-3.839,M,40.592,M,3.0,0123*54
$GPVTG,043.16,T,-596.74,M,003.690,N,006.833,K,D*00
$GPGGA,082055.80,5702.8216787,N,00949.9134542,E,2,5,1.9,-3.839,M,40.592,M,3.0,0123*56
$GPVTG,044.84,T,-595.06,M,003.680,N,006.816,K,D*0C
$GPGGA,082055.85,5702.8217146,N,00949.9135056,E,2,5,1.9,-3.826,M,40.592,M,3.2,0123*54
$GPVTG,044.61,T,-595.29,M,003.650,N,006.759,K,D*03
$GPGGA,082055.90,5702.8217481,N,00949.9135731,E,2,5,1.9,-3.818,M,40.592,M,3.2,0123*55
$GPVTG,046.44,T,-593.46,M,003.649,N,006.758,K,D*00
$GPGGA,082055.95,5702.8217813,N,00949.9136389,E,2,5,1.9,-3.809,M,40.592,M,3.2,0123*53
$GPVTG,047.81,T,-592.09,M,003.635,N,006.732,K,D*05
$GPGGA,082056.00,5702.8218130,N,00949.9137034,E,2,5,1.9,-3.797,M,40.592,M,3.2,0123*57
$GPVTG,048.99,T,-590.91,M,003.599,N,006.666,K,D*05
$GPGGA,082056.05,5702.8218272,N,00949.9137657,E,2,5,1.9,-3.802,M,40.592,M,2.0,0123*54
$GPVTG,051.24,T,-588.66,M,003.539,N,006.554,K,D*02
$GPGGA,082056.10,5702.8218549,N,00949.9138355,E,2,5,1.9,-3.794,M,40.592,M,2.0,0123*57
$GPVTG,053.03,T,-586.87,M,003.514,N,006.509,K,D*03
$GPGGA,082056.15,5702.8218839,N,00949.9139018,E,2,5,1.9,-3.788,M,40.592,M,2.0,0123*5E
$GPVTG,053.98,T,-585.92,M,003.477,N,006.439,K,D*00
$GPGGA,082056.20,5702.8219113,N,00949.9139745,E,2,5,1.9,-3.783,M,40.592,M,2.0,0123*5C
$GPVTG,055.56,T,-584.34,M,003.478,N,006.442,K,D*0A
$GPGGA,082056.25,5702.8219240,N,00949.9140390,E,2,5,1.9,-3.783,M,40.592,M,2.3,0123*5D
$GPVTG,057.42,T,-582.48,M,003.425,N,006.343,K,D*0E
$GPGGA,082056.30,5702.8219453,N,00949.9141155,E,2,5,1.9,-3.779,M,40.592,M,2.3,0123*52
$GPVTG,059.86,T,-580.04,M,003.420,N,006.333,K,D*00
$GPGGA,082056.35,5702.8219674,N,00949.9141887,E,2,5,1.9,-3.778,M,40.592,M,2.3,0123*57
$GPVTG,061.49,T,-578.41,M,003.396,N,006.289,K,D*04
$GPGGA,082056.40,5702.8219912,N,00949.9142612,E,2,5,1.9,-3.779,M,40.592,M,2.3,0123*5A
$GPVTG,062.46,T,-577.44,M,003.376,N,006.253,K,D*0B
$GPGGA,082056.45,5702.8220133,N,00949.9143224,E,2,5,1.9,-3.752,M,40.592,M,2.6,0123*52
$GPVTG,063.13,T,-576.77,M,003.325,N,006.157,K,D*0A
$GPGGA,082056.50,5702.8220338,N,00949.9143973,E,2,5,1.9,-3.746,M,40.592,M,2.6,0123*53
$GPVTG,064.50,T,-575.40,M,003.313,N,006.136,K,D*0F
$GPGGA,082056.55,5702.8220518,N,00949.9144744,E,2,5,1.9,-3.738,M,40.592,M,2.6,0123*56
$GPVTG,066.24,T,-573.66,M,003.310,N,006.130,K,D*09
$GPGGA,082056.60,5702.8220683,N,00949.9145544,E,2,5,1.9,-3.734,M,40.592,M,2.6,0123*5E
$GPVTG,068.19,T,-571.71,M,003.324,N,006.156,K,D*0A
$GPGGA,082056.65,5702.8220712,N,00949.9146306,E,2,5,1.9,-3.739,M,40.592,M,2.8,0123*52
$GPVTG,070.53,T,-569.37,M,003.312,N,006.133,K,D*00
$GPGGA,082056.70,5702.8220844,N,00949.9147056,E,2,5,1.9,-3.733,M,40.592,M,2.8,0123*57
$GPVTG,072.25,T,-567.65,M,003.268,N,006.053,K,D*01
$GPGGA,082056.75,5702.8220947,N,00949.9147870,E,2,5,1.9,-3.728,M,40.592,M,2.8,0123*56
$GPVTG,074.61,T,-565.29,M,003.278,N,006.071,K,D*0C
$GPGGA,082056.80,5702.8221064,N,00949.9148671,E,2,5,1.9,-3.725,M,40.592,M,2.8,0123*58
$GPVTG,076.23,T,-563.67,M,003.281,N,006.076,K,D*05
$GPGGA,082056.85,5702.8221009,N,00949.9149358,E,2,5,1.9,-3.732,M,40.592,M,3.0,0123*56
$GPVTG,079.07,T,-560.83,M,003.213,N,005.950,K,D*00
$GPGGA,082056.90,5702.8221124,N,00949.9150141,E,2,5,1.9,-3.732,M,40.592,M,3.0,0123*5E
$GPVTG,079.58,T,-560.32,M,003.210,N,005.945,K,D*07
$GPGGA,082056.95,5702.8221166,N,00949.9150949,E,2,5,1.9,-3.733,M,40.592,M,3.0,0123*5C
$GPVTG,082.27,T,-557.63,M,003.210,N,005.945,K,D*0B
$GPGGA,082057.00,5702.8221207,N,00949.9151735,E,2,5,1.9,-3.733,M,40.592,M,3.0,0123*51
$GPVTG,084.36,T,-555.54,M,003.194,N,005.916,K,D*02
$GPGGA,082057.05,5702.8221193,N,00949.9152504,E,2,5,1.9,-3.742,M,40.592,M,2.5,0123*5B
$GPVTG,086.67,T,-553.23,M,003.194,N,005.915,K,D*01
$GPGGA,082057.10,5702.8221191,N,00949.9153312,E,2,5,1.9,-3.743,M,40.592,M,2.5,0123*5C
$GPVTG,089.11,T,-550.79,M,003.202,N,005.930,K,D*08
$GPGGA,082057.15,5702.8221179,N,00949.9154122,E,2,5,1.9,-3.743,M,40.592,M,2.5,0123*59
$GPVTG,091.33,T,-548.57,M,003.214,N,005.952,K,D*07
$GPGGA,082057.20,5702.8221163,N,00949.9154957,E,2,5,1.9,-3.745,M,40.592,M,2.5,0123*58
$GPVTG,093.19,T,-546.71,M,003.249,N,006.016,K,D*05
$GPGGA,082057.25,5702.8221087,N,00949.9155625,E,2,5,1.9,-3.736,M,40.592,M,2.7,0123*5B
$GPVTG,094.68,T,-545.22,M,003.178,N,005.885,K,D*01
$GPGGA,082057.30,5702.8221034,N,00949.9156374,E,2,5,1.9,-3.735,M,40.592,M,2.7,0123*56
$GPVTG,096.95,T,-542.95,M,003.142,N,005.819,K,D*06
$GPGGA,082057.35,5702.8220931,N,00949.9157206,E,2,5,1.9,-3.731,M,40.592,M,2.7,0123*5F
$GPVTG,099.93,T,-539.97,M,003.203,N,005.932,K,D*0F
$GPGGA,082057.40,5702.8220857,N,00949.9158033,E,2,5,1.9,-3.725,M,40.592,M,2.7,0123*52
$GPVTG,101.56,T,-538.34,M,003.247,N,006.013,K,D*07
$GPGGA,082057.45,5702.8220765,N,00949.9158806,E,2,5,1.9,-3.719,M,40.592,M,3.0,0123*5E
$GPVTG,102.49,T,-537.41,M,003.258,N,006.034,K,D*0C
$GPGGA,082057.50,5702.8220656,N,00949.9159523,E,2,5,1.9,-3.720,M,40.592,M,3.0,0123*5A
$GPVTG,104.75,T,-535.15,M,003.204,N,005.933,K,D*02
$GPGGA,082057.55,5702.8220548,N,00949.9160284,E,2,5,1.9,-3.717,M,40.592,M,3.0,0123*57
$GPVTG,106.41,T,-533.49,M,003.200,N,005.926,K,D*08
$GPGGA,082057.60,5702.8220432,N,00949.9161068,E,2,5,1.9,-3.715,M,40.592,M,3.0,0123*5E
$GPVTG,107.77,T,-532.13,M,003.219,N,005.961,K,D*09
$GPGGA,082057.65,5702.8220292,N,00949.9161809,E,2,5,1.9,-3.697,M,40.592,M,3.2,0123*51
$GPVTG,109.07,T,-530.83,M,003.243,N,006.005,K,D*0C
$GPGGA,082057.70,5702.8220139,N,00949.9162548,E,2,5,1.9,-3.698,M,40.592,M,3.2,0123*53
$GPVTG,110.94,T,-528.96,M,003.234,N,005.990,K,D*05
$GPGGA,082057.75,5702.8219986,N,00949.9163327,E,2,5,1.9,-3.700,M,40.592,M,3.2,0123*5E
$GPVTG,112.22,T,-527.68,M,003.263,N,006.043,K,D*02
$GPGGA,082057.80,5702.8219786,N,00949.9164084,E,2,5,1.9,-3.702,M,40.592,M,3.2,0123*55
$GPVTG,114.44,T,-525.46,M,003.297,N,006.105,K,D*02
$GPGGA,082057.85,5702.8219586,N,00949.9164864,E,2,5,1.9,-3.717,M,40.592,M,3.5,0123*57
$GPVTG,116.16,T,-523.74,M,003.328,N,006.163,K,D*05
$GPGGA,082057.90,5702.8219380,N,00949.9165621,E,2,5,1.9,-3.718,M,40.592,M,3.5,0123*52
$GPVTG,117.70,T,-522.20,M,003.359,N,006.221,K,D*07
$GPGGA,082057.95,5702.8219152,N,00949.9166305,E,2,5,1.9,-3.720,M,40.592,M,3.5,0123*51
$GPVTG,119.92,T,-519.98,M,003.343,N,006.191,K,D*0D
$GPGGA,082058.00,5702.8218932,N,00949.9166935,E,2,5,1.9,-3.717,M,40.592,M,3.5,0123*50
$GPVTG,122.04,T,-517.86,M,003.282,N,006.078,K,D*01
$GPGGA,082058.05,5702.8218622,N,00949.9167446,E,2,5,1.9,-3.703,M,40.592,M,1.3,0123*52
$GPVTG,124.99,T,-514.91,M,003.236,N,005.993,K,D*06
$GPGGA,082058.10,5702.8218366,N,00949.9168113,E,2,5,1.9,-3.703,M,40.592,M,1.3,0123*59
$GPVTG,126.70,T,-513.20,M,003.250,N,006.019,K,D*06
$GPGGA,082058.15,5702.8218071,N,00949.9168754,E,2,5,1.9,-3.703,M,40.592,M,1.3,0123*5C
$GPVTG,129.09,T,-510.81,M,003.283,N,006.079,K,D*07
$GPGGA,082058.20,5702.8217787,N,00949.9169472,E,2,5,1.9,-3.701,M,40.592,M,1.3,0123*5F
$GPVTG,129.98,T,-509.92,M,003.356,N,006.215,K,D*04
$GPGGA,082058.25,5702.8217516,N,00949.9170042,E,2,5,1.9,-3.695,M,40.592,M,1.5,0123*55
$GPVTG,131.67,T,-508.23,M,003.284,N,006.082,K,D*04
$GPGGA,082058.30,5702.8217213,N,00949.9170612,E,2,5,1.9,-3.699,M,40.592,M,1.5,0123*5C
$GPVTG,133.82,T,-506.08,M,003.271,N,006.058,K,D*07
$GPGGA,082058.35,5702.8216882,N,00949.9171180,E,2,5,1.9,-3.704,M,40.592,M,1.5,0123*52
$GPVTG,136.07,T,-503.83,M,003.293,N,006.099,K,D*08
$GPGGA,082058.40,5702.8216545,N,00949.9171758,E,2,5,1.9,-3.708,M,40.592,M,1.5,0123*59
$GPVTG,137.84,T,-502.06,M,003.327,N,006.161,K,D*06
$GPGGA,082058.45,5702.8216228,N,00949.9172349,E,2,5,1.9,-3.719,M,40.592,M,1.7,0123*55
$GPVTG,138.45,T,-501.45,M,003.341,N,006.188,K,D*07
$GPGGA,082058.50,5702.8215909,N,00949.9172910,E,2,5,1.9,-3.725,M,40.592,M,1.7,0123*53
$GPVTG,139.43,T,-500.47,M,003.335,N,006.177,K,D*00
$GPGGA,082058.55,5702.8215525,N,00949.9173427,E,2,5,1.9,-3.727,M,40.592,M,1.7,0123*5E
$GPVTG,141.75,T,-498.15,M,003.381,N,006.261,K,D*06
$GPGGA,082058.60,5702.8215147,N,00949.9173904,E,2,5,1.9,-3.728,M,40.592,M,1.7,0123*5B
$GPVTG,143.99,T,-495.91,M,003.394,N,006.286,K,D*0A
$GPGGA,082058.65,5702.8214774,N,00949.9174219,E,2,5,1.9,-3.723,M,40.592,M,2.0,0123*56
$GPVTG,145.90,T,-494.00,M,003.371,N,006.243,K,D*0E
$GPGGA,082058.70,5702.8214392,N,00949.9174666,E,2,5,1.9,-3.726,M,40.592,M,2.0,0123*57
$GPVTG,147.63,T,-492.27,M,003.383,N,006.265,K,D*0A
$GPGGA,082058.75,5702.8213998,N,00949.9175131,E,2,5,1.9,-3.732,M,40.592,M,2.0,0123*54
$GPVTG,149.08,T,-490.82,M,003.409,N,006.314,K,D*06
$GPGGA,082058.80,5702.8213577,N,00949.9175557,E,2,5,1.9,-3.735,M,40.592,M,2.0,0123*50
$GPVTG,150.90,T,-489.00,M,003.454,N,006.398,K,D*01
$GPGGA,082058.85,5702.8213138,N,00949.9175836,E,2,5,1.9,-3.734,M,40.592,M,2.2,0123*53
