$GPGGA,080046.80,5702.7896005,N,00950.3925420,E,2,5,2.9,-3.434,M,40.592,M,2.0,0123*5A
$GPVTG,054.99,T,-584.91,M,002.465,N,004.566,K,D*0F
$GPGGA,080046.85,5702.7896248,N,00950.3925842,E,2,5,2.9,-3.429,M,40.592,M,2.3,0123*53
$GPVTG,052.74,T,-587.16,M,002.475,N,004.584,K,D*0B
$GPGGA,080046.90,5702.7896455,N,00950.3926293,E,2,5,2.9,-3.436,M,40.592,M,2.3,0123*56
$GPVTG,051.05,T,-588.85,M,002.487,N,004.606,K,D*0F
$GPGGA,080046.95,5702.7896635,N,00950.3926683,E,2,5,2.9,-3.441,M,40.592,M,2.3,0123*52
$GPVTG,049.53,T,-590.37,M,002.462,N,004.560,K,D*0D
$GPGGA,080047.00,5702.7896837,N,00950.3927095,E,2,5,2.9,-3.448,M,40.592,M,2.3,0123*5A
$GPVTG,047.99,T,-591.91,M,002.459,N,004.554,K,D*07
$GPGGA,080047.05,5702.7897087,N,00950.3927536,E,2,5,2.9,-3.437,M,40.592,M,2.5,0123*5F
$GPVTG,046.33,T,-593.57,M,002.476,N,004.585,K,D*0F
$GPGGA,080047.10,5702.7897312,N,00950.3927933,E,2,5,2.9,-3.443,M,40.592,M,2.5,0123*5E
$GPVTG,044.75,T,-595.15,M,002.492,N,004.615,K,D*0F
$GPGGA,080047.15,5702.7897545,N,00950.3928345,E,2,5,2.9,-3.453,M,40.592,M,2.5,0123*5A
$GPVTG,043.32,T,-596.58,M,002.514,N,004.655,K,D*0A
$GPGGA,080047.20,5702.7897785,N,00950.3928699,E,2,5,2.9,-3.465,M,40.592,M,2.5,0123*53
$GPVTG,041.64,T,-598.26,M,002.526,N,004.678,K,D*02
$GPGGA,080047.25,5702.7898114,N,00950.3929126,E,2,5,2.9,-3.435,M,40.592,M,2.7,0123*52
$GPVTG,040.01,T,-599.89,M,002.544,N,004.711,K,D*0E
$GPGGA,080047.30,5702.7898379,N,00950.3929524,E,2,5,2.9,-3.439,M,40.592,M,2.7,0123*55
$GPVTG,038.64,T,-601.26,M,002.573,N,004.765,K,D*02
$GPGGA,080047.35,5702.7898645,N,00950.3929859,E,2,5,2.9,-3.446,M,40.592,M,2.7,0123*55
$GPVTG,037.05,T,-602.85,M,002.590,N,004.797,K,D*00
$GPGGA,080047.40,5702.7898929,N,00950.3930231,E,2,5,2.9,-3.450,M,40.592,M,2.7,0123*59
$GPVTG,035.68,T,-604.22,M,002.621,N,004.853,K,D*0C
$GPGGA,080047.45,5702.7899256,N,00950.3930558,E,2,5,2.9,-3.437,M,40.592,M,2.9,0123*59
$GPVTG,034.03,T,-605.87,M,002.629,N,004.870,K,D*07
$GPGGA,080047.50,5702.7899546,N,00950.3930842,E,2,5,2.9,-3.438,M,40.592,M,2.9,0123*52
$GPVTG,032.13,T,-607.77,M,002.636,N,004.881,K,D*0D
$GPGGA,080047.55,5702.7899850,N,00950.3931125,E,2,5,2.9,-3.440,M,40.592,M,2.9,0123*5B
$GPVTG,030.34,T,-609.56,M,002.652,N,004.911,K,D*0D
$GPGGA,080047.60,5702.7900155,N,00950.3931368,E,2,5,2.9,-3.442,M,40.592,M,2.9,0123*59
$GPVTG,028.37,T,-611.53,M,002.660,N,004.926,K,D*0E
$GPGGA,080047.65,5702.7900463,N,00950.3931610,E,2,5,2.9,-3.431,M,40.592,M,3.1,0123*5B
$GPVTG,026.30,T,-613.60,M,002.605,N,004.825,K,D*04
$GPGGA,080047.70,5702.7900783,N,00950.3931861,E,2,5,2.9,-3.435,M,40.592,M,3.1,0123*5E
$GPVTG,024.24,T,-615.66,M,002.615,N,004.843,K,D*02
$GPGGA,080047.75,5702.7901084,N,00950.3932049,E,2,5,2.9,-3.438,M,40.592,M,3.1,0123*56
$GPVTG,021.68,T,-618.22,M,002.591,N,004.799,K,D*05
$GPGGA,080047.80,5702.7901406,N,00950.3932261,E,2,5,2.9,-3.441,M,40.592,M,3.1,0123*54
$GPVTG,019.97,T,-619.93,M,002.605,N,004.825,K,D*03
$GPGGA,080047.85,5702.7901743,N,00950.3932476,E,2,5,2.9,-3.426,M,40.592,M,3.3,0123*50
$GPVTG,018.25,T,-621.65,M,002.607,N,004.828,K,D*06
$GPGGA,080047.90,5702.7902074,N,00950.3932670,E,2,5,2.9,-3.430,M,40.592,M,3.3,0123*57
$GPVTG,016.88,T,-623.02,M,002.627,N,004.865,K,D*07
$GPGGA,080047.95,5702.7902405,N,00950.3932824,E,2,5,2.9,-3.437,M,40.592,M,3.3,0123*58
$GPVTG,015.15,T,-624.75,M,002.640,N,004.889,K,D*04
$GPGGA,080048.00,5702.7902730,N,00950.3932961,E,2,5,2.9,-3.440,M,40.592,M,3.3,0123*5E
$GPVTG,013.49,T,-626.41,M,002.646,N,004.901,K,D*09
$GPGGA,080048.05,5702.7903153,N,00950.3933105,E,2,5,2.9,-3.411,M,40.592,M,2.0,0123*54
$GPVTG,011.81,T,-628.09,M,002.665,N,004.936,K,D*08
$GPGGA,080048.10,5702.7903494,N,00950.3933197,E,2,5,2.9,-3.413,M,40.592,M,2.0,0123*57
$GPVTG,010.04,T,-629.86,M,002.666,N,004.938,K,D*0F
$GPGGA,080048.15,5702.7903834,N,00950.3933274,E,2,5,2.9,-3.414,M,40.592,M,2.0,0123*5D
$GPVTG,008.33,T,-631.57,M,002.669,N,004.942,K,D*05
$GPGGA,080048.20,5702.7904231,N,00950.3933357,E,2,5,2.9,-3.413,M,40.592,M,2.0,0123*54
$GPVTG,006.80,T,-633.10,M,002.737,N,005.069,K,D*09
$GPGGA,080048.25,5702.7904647,N,00950.3933430,E,2,5,2.9,-3.388,M,40.592,M,2.2,0123*55
$GPVTG,005.18,T,-634.72,M,002.768,N,005.127,K,D*09
$GPGGA,080048.30,5702.7905050,N,00950.3933452,E,2,5,2.9,-3.386,M,40.592,M,2.2,0123*5A
$GPVTG,003.41,T,-636.49,M,002.829,N,005.239,K,D*0F
$GPGGA,080048.35,5702.7905427,N,00950.3933448,E,2,5,2.9,-3.389,M,40.592,M,2.2,0123*5F
$GPVTG,001.65,T,-638.25,M,002.856,N,005.289,K,D*0C
$GPGGA,080048.40,5702.7905813,N,00950.3933416,E,2,5,2.9,-3.388,M,40.592,M,2.2,0123*5C
$GPVTG,359.81,T,-280.09,M,002.889,N,005.351,K,D*07
$GPGGA,080048.45,5702.7906154,N,00950.3933429,E,2,5,2.9,-3.405,M,40.592,M,2.5,0123*59
$GPVTG,358.76,T,-281.14,M,002.904,N,005.378,K,D*0C
$GPGGA,080048.50,5702.7906523,N,00950.3933402,E,2,5,2.9,-3.410,M,40.592,M,2.5,0123*54
$GPVTG,357.45,T,-282.45,M,002.913,N,005.395,K,D*01
$GPGGA,080048.55,5702.7906902,N,00950.3933365,E,2,5,2.9,-3.414,M,40.592,M,2.5,0123*5C
$GPVTG,356.26,T,-283.64,M,002.933,N,005.432,K,D*0F
$GPGGA,080048.60,5702.7907270,N,00950.3933287,E,2,5,2.9,-3.418,M,40.592,M,2.5,0123*54
$GPVTG,354.75,T,-285.15,M,002.943,N,005.450,K,D*08
$GPGGA,080048.65,5702.7907725,N,00950.3933211,E,2,5,2.9,-3.370,M,40.592,M,2.7,0123*50
$GPVTG,353.47,T,-286.43,M,002.976,N,005.512,K,D*0F
$GPGGA,080048.70,5702.7908117,N,00950.3933107,E,2,5,2.9,-3.367,M,40.592,M,2.7,0123*5E
$GPVTG,352.25,T,-287.65,M,003.013,N,005.580,K,D*0F
$GPGGA,080048.75,5702.7908526,N,00950.3932971,E,2,5,2.9,-3.365,M,40.592,M,2.7,0123*57
$GPVTG,351.01,T,-288.89,M,003.057,N,005.661,K,D*0B
$GPGGA,080048.80,5702.7908951,N,00950.3932836,E,2,5,2.9,-3.362,M,40.592,M,2.7,0123*54
$GPVTG,349.89,T,-290.01,M,003.106,N,005.752,K,D*0F
$GPGGA,080048.85,5702.7909260,N,00950.3932629,E,2,5,2.9,-3.380,M,40.592,M,3.0,0123*53
$GPVTG,348.61,T,-291.29,M,003.128,N,005.794,K,D*05
$GPGGA,080048.90,5702.7909638,N,00950.3932450,E,2,5,2.9,-3.379,M,40.592,M,3.0,0123*54
$GPVTG,347.41,T,-292.49,M,003.156,N,005.844,K,D*06
$GPGGA,080048.95,5702.7910026,N,00950.3932295,E,2,5,2.9,-3.376,M,40.592,M,3.0,0123*50
$GPVTG,346.42,T,-293.48,M,003.185,N,005.898,K,D*0B
$GPGGA,080049.00,5702.7910444,N,00950.3932050,E,2,5,2.9,-3.375,M,40.592,M,3.0,0123*55
$GPVTG,345.17,T,-294.73,M,003.230,N,005.981,K,D*03
$GPGGA,080049.05,5702.7910779,N,00950.3931678,E,2,5,2.9,-3.357,M,40.592,M,2.3,0123*50
$GPVTG,343.77,T,-296.13,M,003.236,N,005.994,K,D*05
$GPGGA,080049.10,5702.7911181,N,00950.3931449,E,2,5,2.9,-3.354,M,40.592,M,2.3,0123*57
$GPVTG,342.73,T,-297.17,M,003.268,N,006.052,K,D*0E
$GPGGA,080049.15,5702.7911577,N,00950.3931226,E,2,5,2.9,-3.350,M,40.592,M,2.3,0123*54
$GPVTG,341.81,T,-298.09,M,003.294,N,006.100,K,D*05
$GPGGA,080049.20,5702.7911975,N,00950.3930963,E,2,5,2.9,-3.353,M,40.592,M,2.3,0123*54
$GPVTG,340.79,T,-299.11,M,003.323,N,006.154,K,D*07
$GPGGA,080049.25,5702.7912244,N,00950.3930516,E,2,5,2.9,-3.367,M,40.592,M,2.6,0123*57
$GPVTG,339.41,T,-300.49,M,003.321,N,006.151,K,D*09
$GPGGA,080049.30,5702.7912670,N,00950.3930237,E,2,5,2.9,-3.372,M,40.592,M,2.6,0123*50
$GPVTG,338.59,T,-301.31,M,003.360,N,006.223,K,D*0C
$GPGGA,080049.35,5702.7913090,N,00950.3929951,E,2,5,2.9,-3.378,M,40.592,M,2.6,0123*55
$GPVTG,337.80,T,-302.10,M,003.395,N,006.287,K,D*03
$GPGGA,080049.40,5702.7913520,N,00950.3929602,E,2,5,2.9,-3.382,M,40.592,M,2.6,0123*55
$GPVTG,336.82,T,-303.08,M,003.439,N,006.370,K,D*00
$GPGGA,080049.45,5702.7913976,N,00950.3929226,E,2,5,2.9,-3.351,M,40.592,M,2.8,0123*5D
$GPVTG,335.98,T,-303.92,M,003.457,N,006.403,K,D*00
$GPGGA,080049.50,5702.7914390,N,00950.3928863,E,2,5,2.9,-3.350,M,40.592,M,2.8,0123*57
$GPVTG,335.05,T,-304.85,M,003.489,N,006.462,K,D*01
$GPGGA,080049.55,5702.7914801,N,00950.3928474,E,2,5,2.9,-3.348,M,40.592,M,2.8,0123*52
$GPVTG,334.07,T,-305.83,M,003.521,N,006.522,K,D*03
$GPGGA,080049.60,5702.7915216,N,00950.3928046,E,2,5,2.9,-3.344,M,40.592,M,2.8,0123*50
$GPVTG,333.01,T,-306.89,M,003.560,N,006.593,K,D*04
$GPGGA,080049.65,5702.7915453,N,00950.3927408,E,2,5,2.9,-3.357,M,40.592,M,3.1,0123*59
$GPVTG,331.31,T,-308.59,M,003.555,N,006.583,K,D*01
$GPGGA,080049.70,5702.7915841,N,00950.3926997,E,2,5,2.9,-3.354,M,40.592,M,3.1,0123*5B
$GPVTG,330.41,T,-309.49,M,003.570,N,006.611,K,D*08
$GPGGA,080049.75,5702.7916231,N,00950.3926550,E,2,5,2.9,-3.354,M,40.592,M,3.1,0123*57
$GPVTG,329.44,T,-310.46,M,003.592,N,006.653,K,D*08
$GPGGA,080049.80,5702.7916614,N,00950.3926098,E,2,5,2.9,-3.352,M,40.592,M,3.1,0123*59
$GPVTG,328.51,T,-311.39,M,003.610,N,006.687,K,D*04
$GPGGA,080049.85,5702.7916771,N,00950.3925363,E,2,5,2.9,-3.384,M,40.592,M,3.3,0123*53
$GPVTG,326.53,T,-313.37,M,003.593,N,006.654,K,D*02
$GPGGA,080049.90,5702.7917146,N,00950.3924861,E,2,5,2.9,-3.385,M,40.592,M,3.3,0123*5D
$GPVTG,325.50,T,-314.40,M,003.612,N,006.690,K,D*07
$GPGGA,080049.95,5702.7917495,N,00950.3924328,E,2,5,2.9,-3.383,M,40.592,M,3.3,0123*53
$GPVTG,324.30,T,-315.60,M,003.625,N,006.714,K,D*0A
$GPGGA,080050.00,5702.7917836,N,00950.3923760,E,2,5,2.9,-3.380,M,40.592,M,3.3,0123*5E
$GPVTG,323.01,T,-316.89,M,003.642,N,006.744,K,D*0F
$GPGGA,080050.05,5702.7918090,N,00950.3922952,E,2,5,2.9,-3.347,M,40.592,M,1.4,0123*50
$GPVTG,321.09,T,-318.81,M,003.634,N,006.730,K,D*01
$GPGGA,080050.10,5702.7918436,N,00950.3922382,E,2,5,2.9,-3.340,M,40.592,M,1.4,0123*5C
$GPVTG,320.01,T,-319.89,M,003.648,N,006.757,K,D*0B
$GPGGA,080050.15,5702.7918771,N,00950.3921867,E,2,5,2.9,-3.336,M,40.592,M,1.4,0123*5B
$GPVTG,319.21,T,-320.69,M,003.647,N,006.754,K,D*0B
$GPGGA,080050.20,5702.7919095,N,00950.3921262,E,2,5,2.9,-3.333,M,40.592,M,1.4,0123*5B
$GPVTG,318.06,T,-321.84,M,003.661,N,006.780,K,D*00
$GPGGA,080050.25,5702.7919319,N,00950.3920484,E,2,5,2.9,-3.330,M,40.592,M,1.6,0123*57
$GPVTG,316.52,T,-323.38,M,003.655,N,006.769,K,D*0A
$GPGGA,080050.30,5702.7919640,N,00950.3919865,E,2,5,2.9,-3.327,M,40.592,M,1.6,0123*55
$GPVTG,315.46,T,-324.44,M,003.666,N,006.790,K,D*06
$GPGGA,080050.35,5702.7919949,N,00950.3919238,E,2,5,2.9,-3.325,M,40.592,M,1.6,0123*56
$GPVTG,314.40,T,-325.50,M,003.675,N,006.806,K,D*07
$GPGGA,080050.40,5702.7920263,N,00950.3918594,E,2,5,2.9,-3.323,M,40.592,M,1.6,0123*5B
$GPVTG,313.40,T,-326.50,M,003.690,N,006.834,K,D*09
$GPGGA,080050.45,5702.7920473,N,00950.3917747,E,2,5,2.9,-3.315,M,40.592,M,1.8,0123*51
$GPVTG,311.99,T,-327.91,M,003.685,N,006.824,K,D*06
$GPGGA,080050.50,5702.7920780,N,00950.3917108,E,2,5,2.9,-3.317,M,40.592,M,1.8,0123*55
$GPVTG,311.13,T,-328.77,M,003.690,N,006.834,K,D*06
$GPGGA,080050.55,5702.7921066,N,00950.3916415,E,2,5,2.9,-3.317,M,40.592,M,1.8,0123*56
$GPVTG,310.02,T,-329.88,M,003.703,N,006.858,K,D*07
$GPGGA,080050.60,5702.7921362,N,00950.3915708,E,2,5,2.9,-3.317,M,40.592,M,1.8,0123*5B
$GPVTG,309.02,T,-330.88,M,003.723,N,006.894,K,D*05
$GPGGA,080050.65,5702.7921515,N,00950.3914823,E,2,5,2.9,-3.328,M,40.592,M,2.0,0123*58
$GPVTG,307.43,T,-332.47,M,003.715,N,006.881,K,D*0E
$GPGGA,080050.70,5702.7921813,N,00950.3914105,E,2,5,2.9,-3.331,M,40.592,M,2.0,0123*52
$GPVTG,306.60,T,-333.30,M,003.735,N,006.917,K,D*03
$GPGGA,080050.75,5702.7922083,N,00950.3913332,E,2,5,2.9,-3.330,M,40.592,M,2.0,0123*55
$GPVTG,305.48,T,-334.42,M,003.760,N,006.963,K,D*0B
$GPGGA,080050.80,5702.7922322,N,00950.3912634,E,2,5,2.9,-3.334,M,40.592,M,2.0,0123*51
$GPVTG,304.47,T,-335.43,M,003.753,N,006.951,K,D*04
$GPGGA,080050.85,5702.7922429,N,00950.3911703,E,2,5,2.9,-3.352,M,40.592,M,2.3,0123*5D
$GPVTG,302.88,T,-337.02,M,003.739,N,006.924,K,D*08
$GPGGA,080050.90,5702.7922679,N,00950.3910922,E,2,5,2.9,-3.352,M,40.592,M,2.3,0123*52
$GPVTG,301.85,T,-338.05,M,003.756,N,006.956,K,D*02
$GPGGA,080050.95,5702.7922927,N,00950.3910140,E,2,5,2.9,-3.356,M,40.592,M,2.3,0123*5B
$GPVTG,300.90,T,-339.00,M,003.773,N,006.987,K,D*08
$GPGGA,080051.00,5702.7923146,N,00950.3909386,E,2,5,2.9,-3.362,M,40.592,M,2.3,0123*5F
$GPVTG,299.90,T,-340.00,M,003.773,N,006.987,K,D*07
$GPGGA,080051.05,5702.7923311,N,00950.3908477,E,2,5,2.9,-3.362,M,40.592,M,2.5,0123*54
$GPVTG,298.49,T,-341.41,M,003.774,N,006.989,K,D*0F
$GPGGA,080051.10,5702.7923511,N,00950.3907690,E,2,5,2.9,-3.367,M,40.592,M,2.5,0123*57
$GPVTG,297.39,T,-342.51,M,003.772,N,006.985,K,D*0F
$GPGGA,080051.15,5702.7923718,N,00950.3906868,E,2,5,2.9,-3.374,M,40.592,M,2.5,0123*53
$GPVTG,296.37,T,-343.53,M,003.786,N,007.011,K,D*0D
$GPGGA,080051.20,5702.7923928,N,00950.3906034,E,2,5,2.9,-3.379,M,40.592,M,2.5,0123*54
$GPVTG,295.44,T,-344.46,M,003.803,N,007.044,K,D*0B
$GPGGA,080051.25,5702.7924021,N,00950.3905032,E,2,5,2.9,-3.383,M,40.592,M,2.7,0123*54
$GPVTG,293.86,T,-346.04,M,003.807,N,007.051,K,D*07
$GPGGA,080051.30,5702.7924175,N,00950.3904207,E,2,5,2.9,-3.385,M,40.592,M,2.7,0123*53
$GPVTG,292.63,T,-347.27,M,003.802,N,007.042,K,D*0A
$GPGGA,080051.35,5702.7924338,N,00950.3903348,E,2,5,2.9,-3.387,M,40.592,M,2.7,0123*52
$GPVTG,291.54,T,-348.36,M,003.814,N,007.063,K,D*06
$GPGGA,080051.40,5702.7924493,N,00950.3902504,E,2,5,2.9,-3.394,M,40.592,M,2.7,0123*5B
$GPVTG,290.49,T,-349.41,M,003.819,N,007.072,K,D*07
$GPGGA,080051.45,5702.7924583,N,00950.3901535,E,2,5,2.9,-3.378,M,40.592,M,2.9,0123*53
$GPVTG,288.86,T,-351.04,M,003.807,N,007.051,K,D*0B
$GPGGA,080051.50,5702.7924713,N,00950.3900629,E,2,5,2.9,-3.379,M,40.592,M,2.9,0123*52
$GPVTG,287.63,T,-352.27,M,003.826,N,007.085,K,D*07
$GPGGA,080051.55,5702.7924840,N,00950.3899738,E,2,5,2.9,-3.382,M,40.592,M,2.9,0123*5A
$GPVTG,286.55,T,-353.35,M,003.839,N,007.109,K,D*0A
$GPGGA,080051.60,5702.7924952,N,00950.3898855,E,2,5,2.9,-3.383,M,40.592,M,2.9,0123*5A
$GPVTG,285.44,T,-354.46,M,003.846,N,007.123,K,D*0A
$GPGGA,080051.65,5702.7925002,N,00950.3897837,E,2,5,2.9,-3.373,M,40.592,M,3.1,0123*5F
$GPVTG,283.86,T,-356.04,M,003.854,N,007.137,K,D*00
$GPGGA,080051.70,5702.7925070,N,00950.3896952,E,2,5,2.9,-3.373,M,40.592,M,3.1,0123*5D
$GPVTG,282.49,T,-357.41,M,003.850,N,007.130,K,D*01
$GPGGA,080051.75,5702.7925171,N,00950.3896019,E,2,5,2.9,-3.375,M,40.592,M,3.1,0123*58
$GPVTG,281.51,T,-358.39,M,003.871,N,007.169,K,D*04
$GPGGA,080051.80,5702.7925226,N,00950.3895077,E,2,5,2.9,-3.373,M,40.592,M,3.1,0123*5E
$GPVTG,280.22,T,-359.68,M,003.889,N,007.202,K,D*0D
$GPGGA,080051.85,5702.7925150,N,00950.3894007,E,2,5,2.9,-3.389,M,40.592,M,3.3,0123*58
$GPVTG,278.35,T,-361.55,M,003.898,N,007.220,K,D*09
$GPGGA,080051.90,5702.7925198,N,00950.3893079,E,2,5,2.9,-3.393,M,40.592,M,3.3,0123*5D
$GPVTG,277.19,T,-362.71,M,003.907,N,007.236,K,D*0D
$GPGGA,080051.95,5702.7925215,N,00950.3892154,E,2,5,2.9,-3.399,M,40.592,M,3.3,0123*5B
$GPVTG,275.88,T,-364.02,M,003.914,N,007.249,K,D*0F
$GPGGA,080052.00,5702.7925224,N,00950.3891228,E,2,5,2.9,-3.406,M,40.592,M,3.3,0123*5C
$GPVTG,274.60,T,-365.30,M,003.921,N,007.262,K,D*07
$GPGGA,080052.05,5702.7925265,N,00950.3890245,E,2,5,2.9,-3.380,M,40.592,M,2.0,0123*5D
$GPVTG,273.31,T,-366.59,M,003.926,N,007.272,K,D*0E
$GPGGA,080052.10,5702.7925261,N,00950.3889269,E,2,5,2.9,-3.378,M,40.592,M,2.0,0123*5C
$GPVTG,272.07,T,-367.83,M,003.950,N,007.316,K,D*0E
$GPGGA,080052.15,5702.7925260,N,00950.3888314,E,2,5,2.9,-3.377,M,40.592,M,2.0,0123*5D
$GPVTG,270.99,T,-368.91,M,003.965,N,007.343,K,D*01
$GPGGA,080052.20,5702.7925233,N,00950.3887399,E,2,5,2.9,-3.381,M,40.592,M,2.0,0123*5E
$GPVTG,269.77,T,-370.13,M,003.965,N,007.343,K,D*0A
$GPGGA,080052.25,5702.7925270,N,00950.3886479,E,2,5,2.9,-3.363,M,40.592,M,2.2,0123*5A
$GPVTG,268.78,T,-371.12,M,003.957,N,007.329,K,D*09
$GPGGA,080052.30,5702.7925232,N,00950.3885496,E,2,5,2.9,-3.363,M,40.592,M,2.2,0123*5A
$GPVTG,267.64,T,-372.26,M,003.981,N,007.373,K,D*0B
$GPGGA,080052.35,5702.7925194,N,00950.3884541,E,2,5,2.9,-3.358,M,40.592,M,2.2,0123*52
$GPVTG,266.60,T,-373.30,M,003.994,N,007.397,K,D*06
$GPGGA,080052.40,5702.7925153,N,00950.3883574,E,2,5,2.9,-3.356,M,40.592,M,2.2,0123*54
$GPVTG,265.63,T,-374.27,M,004.011,N,007.429,K,D*06
$GPGGA,080052.45,5702.7925083,N,00950.3882671,E,2,5,2.9,-3.363,M,40.592,M,2.5,0123*5B
$GPVTG,264.33,T,-375.57,M,003.991,N,007.391,K,D*06
$GPGGA,080052.50,5702.7924979,N,00950.3881722,E,2,5,2.9,-3.363,M,40.592,M,2.5,0123*56
$GPVTG,262.96,T,-376.94,M,004.003,N,007.414,K,D*0C
$GPGGA,080052.55,5702.7924860,N,00950.3880776,E,2,5,2.9,-3.361,M,40.592,M,2.5,0123*58
$GPVTG,261.59,T,-378.31,M,004.017,N,007.440,K,D*09
$GPGGA,080052.60,5702.7924780,N,00950.3879838,E,2,5,2.9,-3.363,M,40.592,M,2.5,0123*5E
$GPVTG,260.64,T,-379.26,M,004.024,N,007.453,K,D*03
$GPGGA,080052.65,5702.7924601,N,00950.3878900,E,2,5,2.9,-3.384,M,40.592,M,2.7,0123*53
$GPVTG,259.16,T,-380.74,M,004.011,N,007.429,K,D*06
$GPGGA,080052.70,5702.7924484,N,00950.3877927,E,2,5,2.9,-3.391,M,40.592,M,2.7,0123*56
$GPVTG,258.11,T,-381.79,M,004.034,N,007.470,K,D*07
$GPGGA,080052.75,5702.7924324,N,00950.3877022,E,2,5,2.9,-3.397,M,40.592,M,2.7,0123*54
$GPVTG,256.74,T,-383.16,M,004.038,N,007.478,K,D*05
$GPGGA,080052.80,5702.7924177,N,00950.3876068,E,2,5,2.9,-3.402,M,40.592,M,2.7,0123*5E
$GPVTG,255.62,T,-384.28,M,004.058,N,007.515,K,D*07
$GPGGA,080052.85,5702.7924143,N,00950.3875224,E,2,5,2.9,-3.374,M,40.592,M,3.0,0123*55
$GPVTG,254.49,T,-385.41,M,004.041,N,007.485,K,D*01
$GPGGA,080052.90,5702.7923976,N,00950.3874301,E,2,5,2.9,-3.375,M,40.592,M,3.0,0123*5E
$GPVTG,253.36,T,-386.54,M,004.054,N,007.508,K,D*09
$GPGGA,080052.95,5702.7923788,N,00950.3873381,E,2,5,2.9,-3.375,M,40.592,M,3.0,0123*5B
$GPVTG,252.16,T,-387.74,M,004.069,N,007.536,K,D*0A
$GPGGA,080053.00,5702.7923598,N,00950.3872499,E,2,5,2.9,-3.374,M,40.592,M,3.0,0123*5B
$GPVTG,250.98,T,-388.92,M,004.073,N,007.543,K,D*00
$GPGGA,080053.05,5702.7923456,N,00950.3871763,E,2,5,2.9,-3.372,M,40.592,M,2.3,0123*5C
$GPVTG,249.88,T,-390.02,M,004.059,N,007.517,K,D*00
$GPGGA,080053.10,5702.7923235,N,00950.3870907,E,2,5,2.9,-3.373,M,40.592,M,2.3,0123*57
$GPVTG,248.55,T,-391.35,M,004.058,N,007.516,K,D*04
$GPGGA,080053.15,5702.7922995,N,00950.3870004,E,2,5,2.9,-3.371,M,40.592,M,2.3,0123*5A
$GPVTG,247.28,T,-392.62,M,004.079,N,007.554,K,D*05
$GPGGA,080053.20,5702.7922783,N,00950.3869121,E,2,5,2.9,-3.371,M,40.592,M,2.3,0123*5B
$GPVTG,246.26,T,-393.64,M,004.086,N,007.568,K,D*02
$GPGGA,080053.25,5702.7922581,N,00950.3868401,E,2,5,2.9,-3.382,M,40.592,M,2.6,0123*51
$GPVTG,244.93,T,-394.97,M,004.065,N,007.529,K,D*0D
$GPGGA,080053.30,5702.7922324,N,00950.3867541,E,2,5,2.9,-3.385,M,40.592,M,2.6,0123*51
$GPVTG,243.69,T,-396.21,M,004.076,N,007.548,K,D*05
$GPGGA,080053.35,5702.7922064,N,00950.3866664,E,2,5,2.9,-3.391,M,40.592,M,2.6,0123*53
$GPVTG,242.58,T,-397.32,M,004.093,N,007.580,K,D*0A
$GPGGA,080053.40,5702.7921801,N,00950.3865829,E,2,5,2.9,-3.398,M,40.592,M,2.6,0123*54
$GPVTG,241.45,T,-398.45,M,004.099,N,007.591,K,D*00
$GPGGA,080053.45,5702.7921583,N,00950.3865188,E,2,5,2.9,-3.387,M,40.592,M,2.8,0123*54
$GPVTG,240.35,T,-399.55,M,004.080,N,007.555,K,D*06
$GPGGA,080053.50,5702.7921292,N,00950.3864359,E,2,5,2.9,-3.389,M,40.592,M,2.8,0123*56
$GPVTG,239.15,T,-400.75,M,004.091,N,007.576,K,D*0E
$GPGGA,080053.55,5702.7920984,N,00950.3863549,E,2,5,2.9,-3.388,M,40.592,M,2.8,0123*5F
$GPVTG,237.91,T,-401.99,M,004.102,N,007.597,K,D*0B
$GPGGA,080053.60,5702.7920672,N,00950.3862751,E,2,5,2.9,-3.389,M,40.592,M,2.8,0123*54
$GPVTG,236.70,T,-403.20,M,004.112,N,007.616,K,D*0E
$GPGGA,080053.65,5702.7920476,N,00950.3862142,E,2,5,2.9,-3.402,M,40.592,M,3.1,0123*5F
$GPVTG,235.62,T,-404.28,M,004.082,N,007.561,K,D*0A
$GPGGA,080053.70,5702.7920131,N,00950.3861409,E,2,5,2.9,-3.409,M,40.592,M,3.1,0123*5F
$GPVTG,234.14,T,-405.76,M,004.084,N,007.563,K,D*04
$GPGGA,080053.75,5702.7919801,N,00950.3860623,E,2,5,2.9,-3.416,M,40.592,M,3.1,0123*5F
$GPVTG,233.04,T,-406.86,M,004.098,N,007.589,K,D*07
$GPGGA,080053.80,5702.7919474,N,00950.3859820,E,2,5,2.9,-3.424,M,40.592,M,3.1,0123*5D
$GPVTG,232.10,T,-407.80,M,004.115,N,007.621,K,D*01
$GPGGA,080053.85,5702.7919202,N,00950.3859369,E,2,5,2.9,-3.416,M,40.592,M,3.3,0123*5A
$GPVTG,230.40,T,-409.50,M,004.076,N,007.549,K,D*0C
$GPGGA,080053.90,5702.7918850,N,00950.3858639,E,2,5,2.9,-3.418,M,40.592,M,3.3,0123*5D
$GPVTG,229.27,T,-410.63,M,004.082,N,007.559,K,D*07
$GPGGA,080053.95,5702.7918508,N,00950.3857862,E,2,5,2.9,-3.420,M,40.592,M,3.3,0123*5C
$GPVTG,228.45,T,-411.45,M,004.098,N,007.590,K,D*09
$GPGGA,080054.00,5702.7918143,N,00950.3857185,E,2,5,2.9,-3.426,M,40.592,M,3.3,0123*5A
$GPVTG,227.24,T,-412.66,M,004.097,N,007.588,K,D*05
$GPGGA,080054.05,5702.7917916,N,00950.3856682,E,2,5,2.9,-3.436,M,40.592,M,1.4,0123*5D
$GPVTG,226.40,T,-413.50,M,004.059,N,007.518,K,D*09
$GPGGA,080054.10,5702.7917540,N,00950.3855993,E,2,5,2.9,-3.447,M,40.592,M,1.4,0123*5C
$GPVTG,225.32,T,-414.58,M,004.065,N,007.528,K,D*0C
$GPGGA,080054.15,5702.7917140,N,00950.3855325,E,2,5,2.9,-3.456,M,40.592,M,1.4,0123*5A
$GPVTG,224.11,T,-415.79,M,004.077,N,007.551,K,D*03
$GPGGA,080054.20,5702.7916731,N,00950.3854692,E,2,5,2.9,-3.466,M,40.592,M,1.4,0123*56
$GPVTG,222.83,T,-417.07,M,004.085,N,007.565,K,D*0F
$GPGGA,080054.25,5702.7916442,N,00950.3854163,E,2,5,2.9,-3.466,M,40.592,M,1.6,0123*5F
$GPVTG,222.21,T,-417.69,M,004.060,N,007.519,K,D*0F
$GPGGA,080054.30,5702.7916050,N,00950.3853540,E,2,5,2.9,-3.477,M,40.592,M,1.6,0123*5E
$GPVTG,221.15,T,-418.75,M,004.056,N,007.512,K,D*07
$GPGGA,080054.35,5702.7915627,N,00950.3852949,E,2,5,2.9,-3.488,M,40.592,M,1.6,0123*5A
$GPVTG,219.88,T,-420.02,M,004.062,N,007.523,K,D*06
$GPGGA,080054.40,5702.7915215,N,00950.3852317,E,2,5,2.9,-3.498,M,40.592,M,1.6,0123*5D
$GPVTG,218.93,T,-420.97,M,004.073,N,007.543,K,D*07
$GPGGA,080054.45,5702.7914980,N,00950.3851896,E,2,5,2.9,-3.486,M,40.592,M,1.8,0123*5E
$GPVTG,218.39,T,-421.51,M,004.039,N,007.480,K,D*0C
$GPGGA,080054.50,5702.7914545,N,00950.3851305,E,2,5,2.9,-3.493,M,40.592,M,1.8,0123*5A
$GPVTG,217.29,T,-422.61,M,004.051,N,007.503,K,D*06
$GPGGA,080054.55,5702.7914108,N,00950.3850790,E,2,5,2.9,-3.503,M,40.592,M,1.8,0123*53
$GPVTG,215.98,T,-423.92,M,004.048,N,007.497,K,D*07
$GPGGA,080054.60,5702.7913677,N,00950.3850261,E,2,5,2.9,-3.515,M,40.592,M,1.8,0123*51
$GPVTG,214.87,T,-425.03,M,004.047,N,007.495,K,D*0B
$GPGGA,080054.65,5702.7913401,N,00950.3849964,E,2,5,2.9,-3.495,M,40.592,M,2.0,0123*53
$GPVTG,213.93,T,-425.97,M,004.006,N,007.420,K,D*0F
$GPGGA,080054.70,5702.7912975,N,00950.3849422,E,2,5,2.9,-3.501,M,40.592,M,2.0,0123*5B
$GPVTG,213.07,T,-426.83,M,004.006,N,007.419,K,D*0E
$GPGGA,080054.75,5702.7912530,N,00950.3848901,E,2,5,2.9,-3.505,M,40.592,M,2.0,0123*5A
$GPVTG,212.10,T,-427.80,M,004.013,N,007.432,K,D*06
$GPGGA,080054.80,5702.7912066,N,00950.3848440,E,2,5,2.9,-3.510,M,40.592,M,2.0,0123*5A
$GPVTG,210.88,T,-429.02,M,004.018,N,007.442,K,D*0D
$GPGGA,080054.85,5702.7911795,N,00950.3848156,E,2,5,2.9,-3.514,M,40.592,M,2.3,0123*52
$GPVTG,209.87,T,-430.03,M,003.974,N,007.359,K,D*0A
$GPGGA,080054.90,5702.7911344,N,00950.3847709,E,2,5,2.9,-3.524,M,40.592,M,2.3,0123*5E
$GPVTG,208.81,T,-431.09,M,003.971,N,007.355,K,D*0F
$GPGGA,080054.95,5702.7910880,N,00950.3847311,E,2,5,2.9,-3.535,M,40.592,M,2.3,0123*54
$GPVTG,207.56,T,-432.34,M,003.969,N,007.351,K,D*0A
$GPGGA,080055.00,5702.7910422,N,00950.3846897,E,2,5,2.9,-3.547,M,40.592,M,2.3,0123*5C
$GPVTG,206.50,T,-433.40,M,003.968,N,007.349,K,D*07
$GPGGA,080055.05,5702.7910129,N,00950.3846793,E,2,5,2.9,-3.538,M,40.592,M,2.5,0123*52
$GPVTG,205.17,T,-434.73,M,003.919,N,007.259,K,D*06
$GPGGA,080055.10,5702.7909659,N,00950.3846403,E,2,5,2.9,-3.545,M,40.592,M,2.5,0123*5E
$GPVTG,204.13,T,-435.77,M,003.922,N,007.263,K,D*07
$GPGGA,080055.15,5702.7909190,N,00950.3846068,E,2,5,2.9,-3.553,M,40.592,M,2.5,0123*57
$GPVTG,202.93,T,-436.97,M,003.918,N,007.256,K,D*0B
$GPGGA,080055.20,5702.7908713,N,00950.3845742,E,2,5,2.9,-3.564,M,40.592,M,2.5,0123*55
$GPVTG,201.76,T,-438.14,M,003.918,N,007.257,K,D*07
$GPGGA,080055.25,5702.7908414,N,00950.3845685,E,2,5,2.9,-3.561,M,40.592,M,2.7,0123*59
$GPVTG,200.35,T,-439.55,M,003.857,N,007.143,K,D*09
$GPGGA,080055.30,5702.7907946,N,00950.3845404,E,2,5,2.9,-3.572,M,40.592,M,2.7,0123*51
$GPVTG,199.16,T,-440.74,M,003.848,N,007.127,K,D*0A
$GPGGA,080055.35,5702.7907444,N,00950.3845153,E,2,5,2.9,-3.585,M,40.592,M,2.7,0123*54
$GPVTG,197.81,T,-442.09,M,003.859,N,007.146,K,D*05
$GPGGA,080055.40,5702.7906986,N,00950.3844916,E,2,5,2.9,-3.599,M,40.592,M,2.7,0123*51
$GPVTG,196.63,T,-443.27,M,003.843,N,007.117,K,D*0A
$GPGGA,080055.45,5702.7906708,N,00950.3845118,E,2,5,2.9,-3.580,M,40.592,M,2.9,0123*5D
$GPVTG,194.47,T,-445.43,M,003.784,N,007.007,K,D*0E
$GPGGA,080055.50,5702.7906243,N,00950.3844911,E,2,5,2.9,-3.591,M,40.592,M,2.9,0123*53
$GPVTG,193.33,T,-446.57,M,003.772,N,006.986,K,D*04
$GPGGA,080055.55,5702.7905773,N,00950.3844710,E,2,5,2.9,-3.600,M,40.592,M,2.9,0123*57
$GPVTG,192.24,T,-447.66,M,003.766,N,006.975,K,D*09
$GPGGA,080055.60,5702.7905293,N,00950.3844601,E,2,5,2.9,-3.614,M,40.592,M,2.9,0123*5E
$GPVTG,190.74,T,-449.16,M,003.762,N,006.966,K,D*01
$GPGGA,080055.65,5702.7905028,N,00950.3844759,E,2,5,2.9,-3.615,M,40.592,M,3.1,0123*5D
$GPVTG,189.07,T,-450.83,M,003.697,N,006.847,K,D*00
$GPGGA,080055.70,5702.7904572,N,00950.3844619,E,2,5,2.9,-3.625,M,40.592,M,3.1,0123*54
$GPVTG,188.00,T,-451.90,M,003.683,N,006.821,K,D*00
$GPGGA,080055.75,5702.7904099,N,00950.3844570,E,2,5,2.9,-3.637,M,40.592,M,3.1,0123*5E
$GPVTG,186.48,T,-453.42,M,003.678,N,006.812,K,D*0B
$GPGGA,080055.80,5702.7903636,N,00950.3844505,E,2,5,2.9,-3.646,M,40.592,M,3.1,0123*54
$GPVTG,185.18,T,-454.72,M,003.669,N,006.795,K,D*09
$GPGGA,080055.85,5702.7903417,N,00950.3844734,E,2,5,2.9,-3.631,M,40.592,M,3.3,0123*52
$GPVTG,183.52,T,-456.38,M,003.604,N,006.675,K,D*09
$GPGGA,080055.90,5702.7902967,N,00950.3844666,E,2,5,2.9,-3.641,M,40.592,M,3.3,0123*5C
$GPVTG,182.48,T,-457.42,M,003.590,N,006.648,K,D*0F
$GPGGA,080055.95,5702.7902499,N,00950.3844670,E,2,5,2.9,-3.650,M,40.592,M,3.3,0123*52
$GPVTG,181.09,T,-458.81,M,003.589,N,006.646,K,D*0F
$GPGGA,080056.00,5702.7902047,N,00950.3844655,E,2,5,2.9,-3.659,M,40.592,M,3.3,0123*54
$GPVTG,179.94,T,-459.96,M,003.579,N,006.629,K,D*0D
$GPGGA,080056.05,5702.7901804,N,00950.3844814,E,2,5,2.9,-3.650,M,40.592,M,2.0,0123*5D
$GPVTG,178.74,T,-461.16,M,003.511,N,006.502,K,D*05
$GPGGA,080056.10,5702.7901359,N,00950.3844806,E,2,5,2.9,-3.659,M,40.592,M,2.0,0123*50
$GPVTG,177.76,T,-462.14,M,003.498,N,006.479,K,D*04
$GPGGA,080056.15,5702.7900901,N,00950.3844880,E,2,5,2.9,-3.667,M,40.592,M,2.0,0123*50
$GPVTG,176.36,T,-463.54,M,003.498,N,006.479,K,D*04
$GPGGA,080056.20,5702.7900459,N,00950.3844905,E,2,5,2.9,-3.671,M,40.592,M,2.0,0123*5D
$GPVTG,175.38,T,-464.52,M,003.488,N,006.460,K,D*01
$GPGGA,080056.25,5702.7900212,N,00950.3845111,E,2,5,2.9,-3.657,M,40.592,M,2.2,0123*5B
$GPVTG,174.09,T,-465.81,M,003.429,N,006.351,K,D*03
$GPGGA,080056.30,5702.7899783,N,00950.3845195,E,2,5,2.9,-3.666,M,40.592,M,2.2,0123*5D
$GPVTG,172.92,T,-466.98,M,003.415,N,006.324,K,D*01
$GPGGA,080056.35,5702.7899361,N,00950.3845260,E,2,5,2.9,-3.672,M,40.592,M,2.2,0123*5C
$GPVTG,171.97,T,-467.93,M,003.398,N,006.293,K,D*02
$GPGGA,080056.40,5702.7898939,N,00950.3845369,E,2,5,2.9,-3.683,M,40.592,M,2.2,0123*5E
$GPVTG,170.84,T,-469.06,M,003.384,N,006.268,K,D*0A
$GPGGA,080056.45,5702.7898729,N,00950.3845624,E,2,5,2.9,-3.668,M,40.592,M,2.5,0123*5A
$GPVTG,169.56,T,-470.34,M,003.302,N,006.116,K,D*00
$GPGGA,080056.50,5702.7898318,N,00950.3845764,E,2,5,2.9,-3.681,M,40.592,M,2.5,0123*5A
$GPVTG,168.40,T,-471.50,M,003.287,N,006.088,K,D*0F
$GPGGA,080056.55,5702.7897943,N,00950.3845914,E,2,5,2.9,-3.695,M,40.592,M,2.5,0123*58
$GPVTG,167.19,T,-472.71,M,003.254,N,006.027,K,D*07
$GPGGA,080056.60,5702.7897541,N,00950.3846090,E,2,5,2.9,-3.710,M,40.592,M,2.5,0123*5A
$GPVTG,165.98,T,-473.92,M,003.242,N,006.004,K,D*06
$GPGGA,080056.65,5702.7897373,N,00950.3846493,E,2,5,2.9,-3.673,M,40.592,M,2.7,0123*59
$GPVTG,164.41,T,-475.49,M,003.172,N,005.875,K,D*0E
$GPGGA,080056.70,5702.7897004,N,00950.3846671,E,2,5,2.9,-3.681,M,40.592,M,2.7,0123*5D
$GPVTG,163.29,T,-476.61,M,003.144,N,005.823,K,D*08
$GPGGA,080056.75,5702.7896627,N,00950.3846960,E,2,5,2.9,-3.693,M,40.592,M,2.7,0123*52
$GPVTG,161.58,T,-478.32,M,003.137,N,005.810,K,D*00
$GPGGA,080056.80,5702.7896250,N,00950.3847301,E,2,5,2.9,-3.709,M,40.592,M,2.7,0123*52
$GPVTG,159.67,T,-480.23,M,003.138,N,005.812,K,D*0D
$GPGGA,080056.85,5702.7896076,N,00950.3847705,E,2,5,2.9,-3.703,M,40.592,M,3.0,0123*5D
$GPVTG,158.17,T,-481.73,M,003.070,N,005.685,K,D*02
$GPGGA,080056.90,5702.7895736,N,00950.3847972,E,2,5,2.9,-3.715,M,40.592,M,3.0,0123*50
$GPVTG,156.79,T,-483.11,M,003.045,N,005.639,K,D*03
$GPGGA,080056.95,5702.7895399,N,00950.3848263,E,2,5,2.9,-3.729,M,40.592,M,3.0,0123*5F
$GPVTG,155.37,T,-484.53,M,003.025,N,005.603,K,D*04
$GPGGA,080057.00,5702.7895082,N,00950.3848548,E,2,5,2.9,-3.742,M,40.592,M,3.0,0123*58
$GPVTG,153.99,T,-485.91,M,002.997,N,005.550,K,D*0D
$GPGGA,080057.05,5702.7894958,N,00950.3849067,E,2,5,2.9,-3.707,M,40.592,M,2.3,0123*58
$GPVTG,151.83,T,-488.07,M,002.956,N,005.474,K,D*0C
$GPGGA,080057.10,5702.7894635,N,00950.3849441,E,2,5,2.9,-3.718,M,40.592,M,2.3,0123*56
$GPVTG,150.12,T,-489.78,M,002.949,N,005.461,K,D*06
$GPGGA,080057.15,5702.7894351,N,00950.3849721,E,2,5,2.9,-3.725,M,40.592,M,2.3,0123*5F
$GPVTG,148.91,T,-490.99,M,002.907,N,005.383,K,D*02
$GPGGA,080057.20,5702.7894058,N,00950.3850084,E,2,5,2.9,-3.734,M,40.592,M,2.3,0123*53
$GPVTG,147.34,T,-492.56,M,002.887,N,005.347,K,D*02
$GPGGA,080057.25,5702.7893964,N,00950.3850620,E,2,5,2.9,-3.717,M,40.592,M,2.6,0123*5B
$GPVTG,145.33,T,-494.57,M,002.833,N,005.246,K,D*0F
$GPGGA,080057.30,5702.7893680,N,00950.3850988,E,2,5,2.9,-3.723,M,40.592,M,2.6,0123*50
$GPVTG,143.87,T,-496.03,M,002.812,N,005.208,K,D*0C
$GPGGA,080057.35,5702.7893399,N,00950.3851400,E,2,5,2.9,-3.730,M,40.592,M,2.6,0123*56
$GPVTG,142.25,T,-497.65,M,002.804,N,005.193,K,D*02
$GPGGA,080057.40,5702.7893135,N,00950.3851846,E,2,5,2.9,-3.738,M,40.592,M,2.6,0123*56
$GPVTG,140.44,T,-499.46,M,002.798,N,005.181,K,D*01
$GPGGA,080057.45,5702.7893019,N,00950.3852294,E,2,5,2.9,-3.724,M,40.592,M,2.8,0123*59
$GPVTG,138.73,T,-501.17,M,002.736,N,005.067,K,D*03
$GPGGA,080057.50,5702.7892761,N,00950.3852747,E,2,5,2.9,-3.731,M,40.592,M,2.8,0123*5B
$GPVTG,137.05,T,-502.85,M,002.733,N,005.061,K,D*06
$GPGGA,080057.55,5702.7892520,N,00950.3853194,E,2,5,2.9,-3.738,M,40.592,M,2.8,0123*59
$GPVTG,135.40,T,-504.50,M,002.722,N,005.041,K,D*09
$GPGGA,080057.60,5702.7892296,N,00950.3853607,E,2,5,2.9,-3.746,M,40.592,M,2.8,0123*51
$GPVTG,133.92,T,-505.98,M,002.696,N,004.993,K,D*0C
$GPGGA,080057.65,5702.7892231,N,00950.3854196,E,2,5,2.9,-3.723,M,40.592,M,3.1,0123*5A
$GPVTG,131.63,T,-508.27,M,002.673,N,004.951,K,D*0C
$GPGGA,080057.70,5702.7892047,N,00950.3854613,E,2,5,2.9,-3.727,M,40.592,M,3.1,0123*53
$GPVTG,129.92,T,-509.98,M,002.625,N,004.861,K,D*0F
$GPGGA,080057.75,5702.7891842,N,00950.3855124,E,2,5,2.9,-3.734,M,40.592,M,3.1,0123*58
$GPVTG,128.04,T,-511.86,M,002.625,N,004.862,K,D*04
$GPGGA,080057.80,5702.7891633,N,00950.3855606,E,2,5,2.9,-3.737,M,40.592,M,3.1,0123*5E
$GPVTG,126.59,T,-513.31,M,002.619,N,004.851,K,D*03
$GPGGA,080057.85,5702.7891546,N,00950.3856120,E,2,5,2.9,-3.727,M,40.592,M,3.3,0123*59
$GPVTG,123.93,T,-515.97,M,002.539,N,004.701,K,D*01
$GPGGA,080057.90,5702.7891400,N,00950.3856631,E,2,5,2.9,-3.734,M,40.592,M,3.3,0123*5B
$GPVTG,121.30,T,-518.60,M,002.501,N,004.632,K,D*05
$GPGGA,080057.95,5702.7891286,N,00950.3857092,E,2,5,2.9,-3.739,M,40.592,M,3.3,0123*55
$GPVTG,118.66,T,-521.24,M,002.430,N,004.501,K,D*06
$GPGGA,080058.00,5702.7891139,N,00950.3857579,E,2,5,2.9,-3.744,M,40.592,M,3.3,0123*5B
$GPVTG,117.00,T,-522.90,M,002.408,N,004.459,K,D*02
$GPGGA,080058.05,5702.7891093,N,00950.3858116,E,2,5,2.9,-3.716,M,40.592,M,1.4,0123*5F
$GPVTG,115.11,T,-524.79,M,002.390,N,004.426,K,D*0F
$GPGGA,080058.10,5702.7890961,N,00950.3858688,E,2,5,2.9,-3.725,M,40.592,M,1.4,0123*5E
$GPVTG,113.14,T,-526.76,M,002.413,N,004.469,K,D*06
$GPGGA,080058.15,5702.7890879,N,00950.3859197,E,2,5,2.9,-3.728,M,40.592,M,1.4,0123*56
$GPVTG,110.66,T,-529.24,M,002.386,N,004.418,K,D*05
$GPGGA,080058.20,5702.7890801,N,00950.3859703,E,2,5,2.9,-3.733,M,40.592,M,1.4,0123*5E
$GPVTG,108.35,T,-531.55,M,002.362,N,004.375,K,D*03
$GPGGA,080058.25,5702.7890751,N,00950.3860279,E,2,5,2.9,-3.718,M,40.592,M,1.6,0123*58
$GPVTG,106.69,T,-533.21,M,002.354,N,004.359,K,D*0E
$GPGGA,080058.30,5702.7890656,N,00950.3860884,E,2,5,2.9,-3.725,M,40.592,M,1.6,0123*5C
$GPVTG,104.92,T,-534.98,M,002.390,N,004.426,K,D*0A
$GPGGA,080058.35,5702.7890603,N,00950.3861334,E,2,5,2.9,-3.726,M,40.592,M,1.6,0123*5B
$GPVTG,102.96,T,-536.94,M,002.339,N,004.332,K,D*07
$GPGGA,080058.40,5702.7890550,N,00950.3861853,E,2,5,2.9,-3.730,M,40.592,M,1.6,0123*51
$GPVTG,100.98,T,-538.92,M,002.327,N,004.309,K,D*04
$GPGGA,080058.45,5702.7890563,N,00950.3862400,E,2,5,2.9,-3.723,M,40.592,M,1.8,0123*51
$GPVTG,098.62,T,-541.28,M,002.318,N,004.294,K,D*07
$GPGGA,080058.50,5702.7890506,N,00950.3862921,E,2,5,2.9,-3.729,M,40.592,M,1.8,0123*52
$GPVTG,097.19,T,-542.71,M,002.310,N,004.279,K,D*00
$GPGGA,080058.55,5702.7890500,N,00950.3863421,E,2,5,2.9,-3.735,M,40.592,M,1.8,0123*50
$GPVTG,094.89,T,-545.01,M,002.289,N,004.240,K,D*01
$GPGGA,080058.60,5702.7890497,N,00950.3863981,E,2,5,2.9,-3.743,M,40.592,M,1.8,0123*5F
$GPVTG,092.68,T,-547.22,M,002.301,N,004.262,K,D*0A
$GPGGA,080058.65,5702.7890579,N,00950.3864589,E,2,5,2.9,-3.713,M,40.592,M,2.0,0123*56
$GPVTG,090.11,T,-549.79,M,002.300,N,004.259,K,D*0F
$GPGGA,080058.70,5702.7890553,N,00950.3865133,E,2,5,2.9,-3.713,M,40.592,M,2.0,0123*5E
$GPVTG,088.97,T,-550.93,M,002.303,N,004.265,K,D*08
$GPGGA,080058.75,5702.7890557,N,00950.3865725,E,2,5,2.9,-3.716,M,40.592,M,2.0,0123*5B
$GPVTG,087.38,T,-552.52,M,002.332,N,004.319,K,D*05
$GPGGA,080058.80,5702.7890544,N,00950.3866295,E,2,5,2.9,-3.722,M,40.592,M,2.0,0123*59
$GPVTG,086.35,T,-553.55,M,002.347,N,004.346,K,D*07
$GPGGA,080058.85,5702.7890574,N,00950.3866756,E,2,5,2.9,-3.739,M,40.592,M,2.3,0123*5C
$GPVTG,084.22,T,-555.68,M,002.266,N,004.197,K,D*07
$GPGGA,080058.90,5702.7890616,N,00950.3867255,E,2,5,2.9,-3.746,M,40.592,M,2.3,0123*50
$GPVTG,082.11,T,-557.79,M,002.221,N,004.114,K,D*0B
$GPGGA,080058.95,5702.7890659,N,00950.3867757,E,2,5,2.9,-3.750,M,40.592,M,2.3,0123*5E
$GPVTG,080.28,T,-559.62,M,002.195,N,004.065,K,D*0C
$GPGGA,080059.00,5702.7890725,N,00950.3868278,E,2,5,2.9,-3.759,M,40.592,M,2.3,0123*57
$GPVTG,078.15,T,-561.75,M,002.196,N,004.067,K,D*09
$GPGGA,080059.05,5702.7890972,N,00950.3868854,E,2,5,2.9,-3.690,M,40.592,M,2.5,0123*58
$GPVTG,074.77,T,-565.13,M,002.207,N,004.087,K,D*00
$GPGGA,080059.10,5702.7891057,N,00950.3869371,E,2,5,2.9,-3.690,M,40.592,M,2.5,0123*5E
$GPVTG,072.85,T,-567.05,M,002.216,N,004.104,K,D*04
$GPGGA,080059.15,5702.7891155,N,00950.3869908,E,2,5,2.9,-3.687,M,40.592,M,2.5,0123*5A
$GPVTG,071.01,T,-568.89,M,002.243,N,004.154,K,D*05
$GPGGA,080059.20,5702.7891233,N,00950.3870406,E,2,5,2.9,-3.685,M,40.592,M,2.5,0123*56
$GPVTG,069.65,T,-570.25,M,002.237,N,004.143,K,D*04
$GPGGA,080059.25,5702.7891329,N,00950.3870952,E,2,5,2.9,-3.688,M,40.592,M,2.7,0123*5A
$GPVTG,067.76,T,-572.14,M,002.257,N,004.181,K,D*00
$GPGGA,080059.30,5702.7891464,N,00950.3871433,E,2,5,2.9,-3.687,M,40.592,M,2.7,0123*54
$GPVTG,065.71,T,-574.19,M,002.275,N,004.214,K,D*01
$GPGGA,080059.35,5702.7891626,N,00950.3871865,E,2,5,2.9,-3.685,M,40.592,M,2.7,0123*58
$GPVTG,063.21,T,-576.69,M,002.286,N,004.233,K,D*0E
$GPGGA,080059.40,5702.7891742,N,00950.3872370,E,2,5,2.9,-3.686,M,40.592,M,2.7,0123*56
$GPVTG,062.02,T,-577.88,M,002.303,N,004.264,K,D*0E
$GPGGA,080059.45,5702.7891951,N,00950.3872813,E,2,5,2.9,-3.671,M,40.592,M,2.9,0123*57
$GPVTG,059.65,T,-580.25,M,002.311,N,004.280,K,D*01
$GPGGA,080059.50,5702.7892149,N,00950.3873254,E,2,5,2.9,-3.670,M,40.592,M,2.9,0123*58
$GPVTG,057.15,T,-582.75,M,002.335,N,004.324,K,D*06
$GPGGA,080059.55,5702.7892307,N,00950.3873670,E,2,5,2.9,-3.673,M,40.592,M,2.9,0123*54
$GPVTG,055.39,T,-584.51,M,002.331,N,004.318,K,D*01
$GPGGA,080059.60,5702.7892453,N,00950.3874188,E,2,5,2.9,-3.676,M,40.592,M,2.9,0123*56
$GPVTG,054.64,T,-585.26,M,002.358,N,004.367,K,D*0E
$GPGGA,080059.65,5702.7892675,N,00950.3874679,E,2,5,2.9,-3.658,M,40.592,M,3.1,0123*59
$GPVTG,052.58,T,-587.32,M,002.362,N,004.375,K,D*0A
$GPGGA,080059.70,5702.7892863,N,00950.3875056,E,2,5,2.9,-3.661,M,40.592,M,3.1,0123*54
$GPVTG,050.12,T,-589.78,M,002.323,N,004.303,K,D*02
$GPGGA,080059.75,5702.7893092,N,00950.3875451,E,2,5,2.9,-3.659,M,40.592,M,3.1,0123*5E
$GPVTG,047.45,T,-592.45,M,002.336,N,004.327,K,D*00
$GPGGA,080059.80,5702.7893306,N,00950.3875874,E,2,5,2.9,-3.660,M,40.592,M,3.1,0123*5B
$GPVTG,045.87,T,-594.03,M,002.358,N,004.367,K,D*04
$GPGGA,080059.85,5702.7893574,N,00950.3876350,E,2,5,2.9,-3.636,M,40.592,M,3.3,0123*52
$GPVTG,044.33,T,-595.57,M,002.400,N,004.445,K,D*07
$GPGGA,080059.90,5702.7893800,N,00950.3876724,E,2,5,2.9,-3.633,M,40.592,M,3.3,0123*5A
$GPVTG,042.47,T,-597.43,M,002.402,N,004.449,K,D*0B
$GPGGA,080059.95,5702.7894039,N,00950.3877063,E,2,5,2.9,-3.630,M,40.592,M,3.3,0123*5C
$GPVTG,040.29,T,-599.61,M,002.401,N,004.447,K,D*02
$GPGGA,080100.00,5702.7894277,N,00950.3877430,E,2,5,2.9,-3.628,M,40.592,M,3.3,0123*5E
$GPVTG,038.73,T,-601.17,M,002.414,N,004.470,K,D*01
$GPGGA,080100.05,5702.7894486,N,00950.3877805,E,2,5,2.9,-3.640,M,40.592,M,2.0,0123*55
$GPVTG,037.13,T,-602.77,M,002.417,N,004.476,K,D*08
$GPGGA,080100.10,5702.7894753,N,00950.3878156,E,2,5,2.9,-3.644,M,40.592,M,2.0,0123*5E
$GPVTG,035.48,T,-604.42,M,002.444,N,004.526,K,D*06
$GPGGA,080100.15,5702.7894995,N,00950.3878508,E,2,5,2.9,-3.651,M,40.592,M,2.0,0123*54
$GPVTG,034.44,T,-605.46,M,002.450,N,004.537,K,D*0B
$GPGGA,080100.20,5702.7895293,N,00950.3878831,E,2,5,2.9,-3.654,M,40.592,M,2.0,0123*5C
$GPVTG,032.55,T,-607.35,M,002.488,N,004.609,K,D*00
$GPGGA,080100.25,5702.7895658,N,00950.3879182,E,2,5,2.9,-3.615,M,40.592,M,2.2,0123*5D
$GPVTG,030.65,T,-609.25,M,002.519,N,004.664,K,D*0C
$GPGGA,080100.30,5702.7895942,N,00950.3879455,E,2,5,2.9,-3.610,M,40.592,M,2.2,0123*57
$GPVTG,028.86,T,-611.04,M,002.525,N,004.676,K,D*0E
$GPGGA,080100.35,5702.7896248,N,00950.3879694,E,2,5,2.9,-3.604,M,40.592,M,2.2,0123*5A
$GPVTG,026.67,T,-613.23,M,002.541,N,004.706,K,D*0C
$GPGGA,080100.40,5702.7896541,N,00950.3879927,E,2,5,2.9,-3.597,M,40.592,M,2.2,0123*58
$GPVTG,024.81,T,-615.09,M,002.546,N,004.715,K,D*0D
$GPGGA,080100.45,5702.7896810,N,00950.3880179,E,2,5,2.9,-3.605,M,40.592,M,2.5,0123*5E
$GPVTG,023.13,T,-616.77,M,002.556,N,004.734,K,D*09
$GPGGA,080100.50,5702.7897150,N,00950.3880399,E,2,5,2.9,-3.607,M,40.592,M,2.5,0123*58
$GPVTG,021.24,T,-618.66,M,002.598,N,004.812,K,D*08
$GPGGA,080100.55,5702.7897473,N,00950.3880624,E,2,5,2.9,-3.605,M,40.592,M,2.5,0123*58
$GPVTG,019.85,T,-620.05,M,002.623,N,004.858,K,D*0B
$GPGGA,080100.60,5702.7897786,N,00950.3880869,E,2,5,2.9,-3.606,M,40.592,M,2.5,0123*53
$GPVTG,019.01,T,-620.89,M,002.642,N,004.893,K,D*03
$GPGGA,080100.65,5702.7898073,N,00950.3881069,E,2,5,2.9,-3.613,M,40.592,M,2.7,0123*5B
$GPVTG,017.16,T,-622.74,M,002.649,N,004.905,K,D*0E
$GPGGA,080100.70,5702.7898362,N,00950.3881309,E,2,5,2.9,-3.615,M,40.592,M,2.7,0123*5F
$GPVTG,016.68,T,-623.22,M,002.657,N,004.921,K,D*0D
$GPGGA,080100.75,5702.7898712,N,00950.3881472,E,2,5,2.9,-3.621,M,40.592,M,2.7,0123*55
$GPVTG,015.15,T,-624.75,M,002.689,N,004.979,K,D*0F
$GPGGA,080100.80,5702.7899071,N,00950.3881589,E,2,5,2.9,-3.628,M,40.592,M,2.7,0123*50
$GPVTG,013.23,T,-626.67,M,002.718,N,005.034,K,D*05
$GPGGA,080100.85,5702.7899435,N,00950.3881730,E,2,5,2.9,-3.620,M,40.592,M,3.0,0123*5F
$GPVTG,011.54,T,-628.36,M,002.743,N,005.079,K,D*0A
$GPGGA,080100.90,5702.7899786,N,00950.3881805,E,2,5,2.9,-3.623,M,40.592,M,3.0,0123*5A
$GPVTG,009.64,T,-630.26,M,002.760,N,005.112,K,D*05
$GPGGA,080100.95,5702.7900118,N,00950.3881866,E,2,5,2.9,-3.621,M,40.592,M,3.0,0123*58
$GPVTG,007.85,T,-632.05,M,002.764,N,005.119,K,D*08
$GPGGA,080101.00,5702.7900461,N,00950.3881888,E,2,5,2.9,-3.618,M,40.592,M,3.0,0123*54
$GPVTG,005.79,T,-634.11,M,002.775,N,005.138,K,D*09
$GPGGA,080101.05,5702.7900842,N,00950.3881944,E,2,5,2.9,-3.604,M,40.592,M,2.3,0123*52
$GPVTG,003.99,T,-635.91,M,002.803,N,005.191,K,D*05
$GPGGA,080101.10,5702.7901195,N,00950.3881950,E,2,5,2.9,-3.602,M,40.592,M,2.3,0123*57
$GPVTG,002.26,T,-637.64,M,002.799,N,005.184,K,D*00
$GPGGA,080101.15,5702.7901561,N,00950.3881899,E,2,5,2.9,-3.603,M,40.592,M,2.3,0123*58
$GPVTG,000.01,T,-639.89,M,002.813,N,005.210,K,D*09
$GPGGA,080101.20,5702.7901921,N,00950.3881872,E,2,5,2.9,-3.596,M,40.592,M,2.3,0123*5C
$GPVTG,358.41,T,-281.49,M,002.822,N,005.227,K,D*0E
$GPGGA,080101.25,5702.7902260,N,00950.3881876,E,2,5,2.9,-3.593,M,40.592,M,2.6,0123*50
$GPVTG,357.05,T,-282.85,M,002.847,N,005.273,K,D*00
$GPGGA,080101.30,5702.7902636,N,00950.3881828,E,2,5,2.9,-3.590,M,40.592,M,2.6,0123*5B
$GPVTG,355.72,T,-284.18,M,002.880,N,005.334,K,D*09
$GPGGA,080101.35,5702.7903021,N,00950.3881790,E,2,5,2.9,-3.588,M,40.592,M,2.6,0123*5A
$GPVTG,354.54,T,-285.36,M,002.917,N,005.402,K,D*0C
$GPGGA,080101.40,5702.7903397,N,00950.3881729,E,2,5,2.9,-3.589,M,40.592,M,2.6,0123*55
$GPVTG,353.37,T,-286.53,M,002.947,N,005.458,K,D*04
$GPGGA,080101.45,5702.7903726,N,00950.3881671,E,2,5,2.9,-3.600,M,40.592,M,2.8,0123*5E
$GPVTG,352.23,T,-287.68,M,002.973,N,005.506,K,D*04
$GPGGA,080101.50,5702.7904134,N,00950.3881598,E,2,5,2.9,-3.605,M,40.592,M,2.8,0123*59
$GPVTG,351.22,T,-288.68,M,003.016,N,005.585,K,D*09
$GPGGA,080101.55,5702.7904526,N,00950.3881494,E,2,5,2.9,-3.610,M,40.592,M,2.8,0123*52
$GPVTG,350.16,T,-289.74,M,003.050,N,005.649,K,D*02
$GPGGA,080101.60,5702.7904922,N,00950.3881337,E,2,5,2.9,-3.611,M,40.592,M,2.8,0123*53
$GPVTG,348.97,T,-290.93,M,003.087,N,005.717,K,D*03
$GPGGA,080101.65,5702.7905327,N,00950.3881181,E,2,5,2.9,-3.587,M,40.592,M,3.1,0123*53
$GPVTG,347.81,T,-292.09,M,003.115,N,005.769,K,D*09
$GPGGA,080101.70,5702.7905736,N,00950.3881023,E,2,5,2.9,-3.585,M,40.592,M,3.1,0123*58
$GPVTG,346.82,T,-293.08,M,003.152,N,005.838,K,D*03
$GPGGA,080101.75,5702.7906137,N,00950.3880830,E,2,5,2.9,-3.587,M,40.592,M,3.1,0123*50
$GPVTG,345.74,T,-294.16,M,003.187,N,005.902,K,D*01
$GPGGA,080101.80,5702.7906541,N,00950.3880605,E,2,5,2.9,-3.588,M,40.592,M,3.1,0123*58
$GPVTG,344.60,T,-295.30,M,003.223,N,005.968,K,D*01
$GPGGA,080101.85,5702.7906779,N,00950.3880252,E,2,5,2.9,-3.614,M,40.592,M,3.3,0123*56
$GPVTG,342.92,T,-296.98,M,003.228,N,005.977,K,D*0E
$GPGGA,080101.90,5702.7907173,N,00950.3880050,E,2,5,2.9,-3.618,M,40.592,M,3.3,0123*53
$GPVTG,342.09,T,-297.81,M,003.250,N,006.018,K,D*09
$GPGGA,080101.95,5702.7907566,N,00950.3879807,E,2,5,2.9,-3.621,M,40.592,M,3.3,0123*50
$GPVTG,341.13,T,-298.77,M,003.274,N,006.063,K,D*0D
$GPGGA,080102.00,5702.7907968,N,00950.3879549,E,2,5,2.9,-3.621,M,40.592,M,3.3,0123*5A
$GPVTG,340.20,T,-299.70,M,003.302,N,006.116,K,D*09
$GPGGA,080102.05,5702.7908379,N,00950.3879255,E,2,5,2.9,-3.578,M,40.592,M,1.4,0123*5A
$GPVTG,339.13,T,-300.77,M,003.315,N,006.140,K,D*04
$GPGGA,080102.10,5702.7908795,N,00950.3878901,E,2,5,2.9,-3.573,M,40.592,M,1.4,0123*58
$GPVTG,337.90,T,-302.00,M,003.358,N,006.220,K,D*0F
$GPGGA,080102.15,5702.7909215,N,00950.3878562,E,2,5,2.9,-3.571,M,40.592,M,1.4,0123*5A
$GPVTG,336.90,T,-303.00,M,003.399,N,006.295,K,D*0C
$GPGGA,080102.20,5702.7909635,N,00950.3878221,E,2,5,2.9,-3.566,M,40.592,M,1.4,0123*5C
$GPVTG,336.00,T,-303.90,M,003.438,N,006.367,K,D*0C
$GPGGA,080102.25,5702.7909922,N,00950.3877830,E,2,5,2.9,-3.579,M,40.592,M,1.6,0123*59
$GPVTG,334.95,T,-304.95,M,003.438,N,006.367,K,D*00
$GPGGA,080102.30,5702.7910307,N,00950.3877470,E,2,5,2.9,-3.577,M,40.592,M,1.6,0123*5E
$GPVTG,333.98,T,-305.92,M,003.454,N,006.397,K,D*09
$GPGGA,080102.35,5702.7910708,N,00950.3877045,E,2,5,2.9,-3.574,M,40.592,M,1.6,0123*51
$GPVTG,332.85,T,-307.05,M,003.489,N,006.461,K,D*06
$GPGGA,080102.40,5702.7911093,N,00950.3876615,E,2,5,2.9,-3.570,M,40.592,M,1.6,0123*51
$GPVTG,331.74,T,-308.16,M,003.515,N,006.509,K,D*0D
$GPGGA,080102.45,5702.7911271,N,00950.3875988,E,2,5,2.9,-3.599,M,40.592,M,1.8,0123*5B
$GPVTG,329.89,T,-310.01,M,003.516,N,006.512,K,D*00
$GPGGA,080102.50,5702.7911644,N,00950.3875575,E,2,5,2.9,-3.598,M,40.592,M,1.8,0123*52
$GPVTG,329.01,T,-310.89,M,003.526,N,006.530,K,D*03
$GPGGA,080102.55,5702.7912013,N,00950.3875159,E,2,5,2.9,-3.601,M,40.592,M,1.8,0123*59
$GPVTG,328.18,T,-311.72,M,003.535,N,006.547,K,D*0D
$GPGGA,080102.60,5702.7912388,N,00950.3874696,E,2,5,2.9,-3.602,M,40.592,M,1.8,0123*58
$GPVTG,327.24,T,-312.66,M,003.554,N,006.583,K,D*04
$GPGGA,080102.65,5702.7912771,N,00950.3874204,E,2,5,2.9,-3.560,M,40.592,M,2.0,0123*5C
$GPVTG,326.30,T,-313.60,M,003.556,N,006.586,K,D*00
$GPGGA,080102.70,5702.7913148,N,00950.3873768,E,2,5,2.9,-3.559,M,40.592,M,2.0,0123*57
$GPVTG,325.66,T,-314.24,M,003.564,N,006.601,K,D*0A
$GPGGA,080102.75,5702.7913506,N,00950.3873326,E,2,5,2.9,-3.558,M,40.592,M,2.0,0123*53
$GPVTG,324.96,T,-314.94,M,003.565,N,006.602,K,D*0D
$GPGGA,080102.80,5702.7913863,N,00950.3872900,E,2,5,2.9,-3.555,M,40.592,M,2.0,0123*55
$GPVTG,324.40,T,-315.50,M,003.561,N,006.595,K,D*06
$GPGGA,080102.85,5702.7914028,N,00950.3872395,E,2,5,2.9,-3.603,M,40.592,M,2.3,0123*55
$GPVTG,323.33,T,-316.57,M,003.522,N,006.523,K,D*0B
$GPGGA,080102.90,5702.7914380,N,00950.3871983,E,2,5,2.9,-3.616,M,40.592,M,2.3,0123*5A
$GPVTG,322.95,T,-316.95,M,003.506,N,006.494,K,D*03
$GPGGA,080102.95,5702.7914726,N,00950.3871550,E,2,5,2.9,-3.629,M,40.592,M,2.3,0123*59
$GPVTG,322.47,T,-317.43,M,003.495,N,006.473,K,D*04
$GPGGA,080103.00,5702.7915067,N,00950.3871078,E,2,5,2.9,-3.644,M,40.592,M,2.3,0123*53
$GPVTG,321.83,T,-318.07,M,003.490,N,006.464,K,D*03
$GPGGA,080103.05,5702.7915340,N,00950.3870611,E,2,5,2.9,-3.634,M,40.592,M,2.5,0123*59
$GPVTG,321.14,T,-318.76,M,003.428,N,006.349,K,D*00
$GPGGA,080103.10,5702.7915662,N,00950.3870175,E,2,5,2.9,-3.641,M,40.592,M,2.5,0123*5F
$GPVTG,320.68,T,-319.22,M,003.401,N,006.299,K,D*0D
$GPGGA,080103.15,5702.7915976,N,00950.3869732,E,2,5,2.9,-3.647,M,40.592,M,2.5,0123*5B
$GPVTG,320.15,T,-319.75,M,003.376,N,006.253,K,D*04
$GPGGA,080103.20,5702.7916279,N,00950.3869286,E,2,5,2.9,-3.651,M,40.592,M,2.5,0123*57
$GPVTG,319.59,T,-320.31,M,003.348,N,006.201,K,D*06
$GPGGA,080103.25,5702.7916542,N,00950.3868900,E,2,5,2.9,-3.636,M,40.592,M,2.7,0123*5A
$GPVTG,318.99,T,-320.91,M,003.284,N,006.083,K,D*08
$GPGGA,080103.30,5702.7916817,N,00950.3868443,E,2,5,2.9,-3.639,M,40.592,M,2.7,0123*56
$GPVTG,318.27,T,-321.63,M,003.246,N,006.011,K,D*04
$GPGGA,080103.35,5702.7917073,N,00950.3867968,E,2,5,2.9,-3.639,M,40.592,M,2.7,0123*53
$GPVTG,317.39,T,-322.51,M,003.208,N,005.941,K,D*03
$GPGGA,080103.40,5702.7917338,N,00950.3867508,E,2,5,2.9,-3.635,M,40.592,M,2.7,0123*5B
$GPVTG,316.68,T,-323.22,M,003.172,N,005.874,K,D*0A
$GPGGA,080103.45,5702.7917424,N,00950.3867059,E,2,5,2.9,-3.636,M,40.592,M,2.9,0123*58
$GPVTG,315.51,T,-324.39,M,003.062,N,005.670,K,D*04
$GPGGA,080103.50,5702.7917668,N,00950.3866595,E,2,5,2.9,-3.634,M,40.592,M,2.9,0123*50
$GPVTG,314.69,T,-325.21,M,003.014,N,005.581,K,D*0A
$GPGGA,080103.55,5702.7917902,N,00950.3866142,E,2,5,2.9,-3.632,M,40.592,M,2.9,0123*5E
$GPVTG,313.91,T,-325.99,M,002.966,N,005.492,K,D*07
$GPGGA,080103.60,5702.7918093,N,00950.3865679,E,2,5,2.9,-3.628,M,40.592,M,2.9,0123*51
$GPVTG,312.75,T,-327.15,M,002.906,N,005.381,K,D*09
$GPGGA,080103.65,5702.7918111,N,00950.3865225,E,2,5,2.9,-3.654,M,40.592,M,3.1,0123*50
$GPVTG,310.91,T,-328.99,M,002.785,N,005.157,K,D*06
$GPGGA,080103.70,5702.7918314,N,00950.3864808,E,2,5,2.9,-3.653,M,40.592,M,3.1,0123*50
$GPVTG,310.16,T,-329.74,M,002.720,N,005.038,K,D*0C
$GPGGA,080103.75,5702.7918504,N,00950.3864339,E,2,5,2.9,-3.650,M,40.592,M,3.1,0123*58
$GPVTG,309.04,T,-330.86,M,002.674,N,004.952,K,D*06
$GPGGA,080103.80,5702.7918692,N,00950.3863873,E,2,5,2.9,-3.649,M,40.592,M,3.1,0123*54
$GPVTG,307.99,T,-331.91,M,002.630,N,004.870,K,D*0A
$GPGGA,080103.85,5702.7918802,N,00950.3863473,E,2,5,2.9,-3.653,M,40.592,M,3.3,0123*53
$GPVTG,306.71,T,-333.19,M,002.545,N,004.713,K,D*04
$GPGGA,080103.90,5702.7918970,N,00950.3863063,E,2,5,2.9,-3.654,M,40.592,M,3.3,0123*51
$GPVTG,305.78,T,-334.12,M,002.480,N,004.594,K,D*07
$GPGGA,080103.95,5702.7919150,N,00950.3862637,E,2,5,2.9,-3.654,M,40.592,M,3.3,0123*59
$GPVTG,304.96,T,-334.94,M,002.433,N,004.507,K,D*0A
$GPGGA,080104.00,5702.7919303,N,00950.3862212,E,2,5,2.9,-3.651,M,40.592,M,3.3,0123*50
$GPVTG,303.87,T,-336.03,M,002.380,N,004.408,K,D*00
$GPGGA,080104.05,5702.7919475,N,00950.3861903,E,2,5,2.9,-3.653,M,40.592,M,2.0,0123*5B
$GPVTG,303.31,T,-336.59,M,002.314,N,004.286,K,D*0F
$GPGGA,080104.10,5702.7919648,N,00950.3861476,E,2,5,2.9,-3.657,M,40.592,M,2.0,0123*58
$GPVTG,302.55,T,-337.35,M,002.274,N,004.211,K,D*0E
$GPGGA,080104.15,5702.7919812,N,00950.3861037,E,2,5,2.9,-3.663,M,40.592,M,2.0,0123*5A
$GPVTG,301.65,T,-338.25,M,002.238,N,004.145,K,D*0A
$GPGGA,080104.20,5702.7919975,N,00950.3860625,E,2,5,2.9,-3.666,M,40.592,M,2.0,0123*5D
$GPVTG,300.91,T,-338.99,M,002.197,N,004.069,K,D*0E
$GPGGA,080104.25,5702.7920279,N,00950.3860380,E,2,5,2.9,-3.630,M,40.592,M,2.2,0123*5E
$GPVTG,301.46,T,-338.44,M,002.147,N,003.976,K,D*08
$GPGGA,080104.30,5702.7920437,N,00950.3859953,E,2,5,2.9,-3.630,M,40.592,M,2.2,0123*58
$GPVTG,300.69,T,-339.21,M,002.114,N,003.915,K,D*05
$GPGGA,080104.35,5702.7920624,N,00950.3859505,E,2,5,2.9,-3.632,M,40.592,M,2.2,0123*50
$GPVTG,300.25,T,-339.65,M,002.098,N,003.886,K,D*03
$GPGGA,080104.40,5702.7920807,N,00950.3859100,E,2,5,2.9,-3.635,M,40.592,M,2.2,0123*5B
$GPVTG,299.99,T,-339.91,M,002.071,N,003.835,K,D*01
$GPGGA,080104.45,5702.7921074,N,00950.3858903,E,2,5,2.9,-3.640,M,40.592,M,2.5,0123*5C
$GPVTG,301.00,T,-338.90,M,002.036,N,003.770,K,D*0C
$GPGGA,080104.50,5702.7921229,N,00950.3858504,E,2,5,2.9,-3.645,M,40.592,M,2.5,0123*5C
$GPVTG,300.51,T,-339.39,M,002.001,N,003.706,K,D*0E
$GPGGA,080104.55,5702.7921394,N,00950.3858099,E,2,5,2.9,-3.647,M,40.592,M,2.5,0123*5D
$GPVTG,300.14,T,-339.76,M,001.975,N,003.658,K,D*07
$GPGGA,080104.60,5702.7921591,N,00950.3857656,E,2,5,2.9,-3.648,M,40.592,M,2.5,0123*5D
$GPVTG,300.07,T,-339.83,M,001.972,N,003.651,K,D*01
$GPGGA,080104.65,5702.7921838,N,00950.3857448,E,2,5,2.9,-3.657,M,40.592,M,2.7,0123*57
$GPVTG,300.96,T,-338.94,M,001.936,N,003.586,K,D*07
$GPGGA,080104.70,5702.7922004,N,00950.3857056,E,2,5,2.9,-3.663,M,40.592,M,2.7,0123*5B
$GPVTG,300.85,T,-339.05,M,001.913,N,003.542,K,D*03
$GPGGA,080104.75,5702.7922156,N,00950.3856674,E,2,5,2.9,-3.670,M,40.592,M,2.7,0123*5D
$GPVTG,300.55,T,-339.35,M,001.883,N,003.488,K,D*02
$GPGGA,080104.80,5702.7922300,N,00950.3856290,E,2,5,2.9,-3.679,M,40.592,M,2.7,0123*51
$GPVTG,300.13,T,-339.77,M,001.855,N,003.435,K,D*0B
$GPGGA,080104.85,5702.7922514,N,00950.3856047,E,2,5,2.9,-3.671,M,40.592,M,3.0,0123*51
$GPVTG,300.83,T,-339.07,M,001.812,N,003.356,K,D*04
$GPGGA,080104.90,5702.7922643,N,00950.3855652,E,2,5,2.9,-3.674,M,40.592,M,3.0,0123*50
$GPVTG,300.16,T,-339.74,M,001.787,N,003.310,K,D*0D
$GPGGA,080104.95,5702.7922811,N,00950.3855228,E,2,5,2.9,-3.677,M,40.592,M,3.0,0123*56
$GPVTG,300.00,T,-339.90,M,001.785,N,003.307,K,D*04
$GPGGA,080105.00,5702.7922960,N,00950.3854878,E,2,5,2.9,-3.683,M,40.592,M,3.0,0123*59
$GPVTG,299.98,T,-339.92,M,001.756,N,003.253,K,D*08
$GPGGA,080105.05,5702.7923274,N,00950.3854731,E,2,5,2.9,-3.646,M,40.592,M,2.3,0123*5A
$GPVTG,301.34,T,-338.56,M,001.725,N,003.195,K,D*0A
$GPGGA,080105.10,5702.7923423,N,00950.3854358,E,2,5,2.9,-3.649,M,40.592,M,2.3,0123*5E
$GPVTG,301.29,T,-338.61,M,001.709,N,003.165,K,D*03
$GPGGA,080105.15,5702.7923558,N,00950.3853978,E,2,5,2.9,-3.651,M,40.592,M,2.3,0123*50
$GPVTG,300.91,T,-338.99,M,001.692,N,003.134,K,D*01
$GPGGA,080105.20,5702.7923719,N,00950.3853593,E,2,5,2.9,-3.653,M,40.592,M,2.3,0123*5A
$GPVTG,300.97,T,-338.93,M,001.686,N,003.122,K,D*0F
$GPGGA,080105.25,5702.7923893,N,00950.3853341,E,2,5,2.9,-3.655,M,40.592,M,2.6,0123*58
$GPVTG,301.53,T,-338.37,M,001.664,N,003.081,K,D*0C
$GPGGA,080105.30,5702.7924033,N,00950.3852973,E,2,5,2.9,-3.659,M,40.592,M,2.6,0123*5F
$GPVTG,301.41,T,-338.49,M,001.650,N,003.057,K,D*0A
$GPGGA,080105.35,5702.7924177,N,00950.3852599,E,2,5,2.9,-3.662,M,40.592,M,2.6,0123*5B
$GPVTG,301.33,T,-338.57,M,001.641,N,003.040,K,D*06
$GPGGA,080105.40,5702.7924304,N,00950.3852266,E,2,5,2.9,-3.665,M,40.592,M,2.6,0123*5F
$GPVTG,301.20,T,-338.70,M,001.615,N,002.991,K,D*04
$GPGGA,080105.45,5702.7924453,N,00950.3852014,E,2,5,2.9,-3.669,M,40.592,M,2.8,0123*5A
$GPVTG,301.53,T,-338.37,M,001.588,N,002.941,K,D*09
$GPGGA,080105.50,5702.7924577,N,00950.3851669,E,2,5,2.9,-3.674,M,40.592,M,2.8,0123*5A
$GPVTG,301.31,T,-338.59,M,001.570,N,002.907,K,D*00
$GPGGA,080105.55,5702.7924698,N,00950.3851320,E,2,5,2.9,-3.680,M,40.592,M,2.8,0123*5E
$GPVTG,301.02,T,-338.88,M,001.553,N,002.876,K,D*0A
$GPGGA,080105.60,5702.7924847,N,00950.3850954,E,2,5,2.9,-3.685,M,40.592,M,2.8,0123*59
$GPVTG,301.14,T,-338.76,M,001.552,N,002.874,K,D*0F
$GPGGA,080105.65,5702.7925048,N,00950.3850672,E,2,5,2.9,-3.667,M,40.592,M,3.1,0123*55
$GPVTG,301.73,T,-338.17,M,001.555,N,002.879,K,D*03
$GPGGA,080105.70,5702.7925182,N,00950.3850300,E,2,5,2.9,-3.668,M,40.592,M,3.1,0123*59
$GPVTG,301.58,T,-338.32,M,001.555,N,002.879,K,D*0D
$GPGGA,080105.75,5702.7925321,N,00950.3849974,E,2,5,2.9,-3.673,M,40.592,M,3.1,0123*5C
$GPVTG,301.83,T,-338.07,M,001.541,N,002.854,K,D*07
$GPGGA,080105.80,5702.7925438,N,00950.3849616,E,2,5,2.9,-3.672,M,40.592,M,3.1,0123*53
$GPVTG,301.46,T,-338.44,M,001.532,N,002.837,K,D*08
$GPGGA,080105.85,5702.7925583,N,00950.3849308,E,2,5,2.9,-3.679,M,40.592,M,3.3,0123*54
$GPVTG,301.42,T,-338.48,M,001.549,N,002.870,K,D*0F
$GPGGA,080105.90,5702.7925702,N,00950.3848976,E,2,5,2.9,-3.684,M,40.592,M,3.3,0123*5B
$GPVTG,301.33,T,-338.57,M,001.535,N,002.843,K,D*0C
$GPGGA,080105.95,5702.7925821,N,00950.3848665,E,2,5,2.9,-3.689,M,40.592,M,3.3,0123*50
$GPVTG,301.37,T,-338.53,M,001.515,N,002.806,K,D*0F
$GPGGA,080106.00,5702.7925930,N,00950.3848364,E,2,5,2.9,-3.696,M,40.592,M,3.3,0123*54
$GPVTG,301.32,T,-338.58,M,001.490,N,002.760,K,D*02
$GPGGA,080106.05,5702.7926112,N,00950.3848076,E,2,5,2.9,-3.676,M,40.592,M,1.4,0123*51
$GPVTG,302.01,T,-337.89,M,001.496,N,002.771,K,D*04
$GPGGA,080106.10,5702.7926227,N,00950.3847713,E,2,5,2.9,-3.671,M,40.592,M,1.4,0123*5C
$GPVTG,301.57,T,-338.33,M,001.497,N,002.772,K,D*08
$GPGGA,080106.15,5702.7926354,N,00950.3847397,E,2,5,2.9,-3.669,M,40.592,M,1.4,0123*5D
$GPVTG,301.80,T,-338.10,M,001.486,N,002.752,K,D*01
$GPGGA,080106.20,5702.7926457,N,00950.3847057,E,2,5,2.9,-3.665,M,40.592,M,1.4,0123*5C
$GPVTG,301.34,T,-338.56,M,001.476,N,002.733,K,D*04
$GPGGA,080106.25,5702.7926592,N,00950.3846752,E,2,5,2.9,-3.672,M,40.592,M,1.6,0123*56
$GPVTG,301.40,T,-338.50,M,001.503,N,002.784,K,D*0E
$GPGGA,080106.30,5702.7926696,N,00950.3846426,E,2,5,2.9,-3.674,M,40.592,M,1.6,0123*53
$GPVTG,301.11,T,-338.79,M,001.489,N,002.758,K,D*03
$GPGGA,080106.35,5702.7926805,N,00950.3846168,E,2,5,2.9,-3.678,M,40.592,M,1.6,0123*51
$GPVTG,301.45,T,-338.45,M,001.457,N,002.699,K,D*02
$GPGGA,080106.40,5702.7926930,N,00950.3845845,E,2,5,2.9,-3.680,M,40.592,M,1.6,0123*56
$GPVTG,301.61,T,-338.29,M,001.452,N,002.690,K,D*02
$GPGGA,080106.45,5702.7927048,N,00950.3845516,E,2,5,2.9,-3.688,M,40.592,M,1.8,0123*59
$GPVTG,301.53,T,-338.37,M,001.474,N,002.730,K,D*03
$GPGGA,080106.50,5702.7927149,N,00950.3845154,E,2,5,2.9,-3.692,M,40.592,M,1.8,0123*54
$GPVTG,300.91,T,-338.99,M,001.476,N,002.733,K,D*09
$GPGGA,080106.55,5702.7927284,N,00950.3844867,E,2,5,2.9,-3.698,M,40.592,M,1.8,0123*51
$GPVTG,301.58,T,-338.32,M,001.464,N,002.711,K,D*0F
$GPGGA,080106.60,5702.7927372,N,00950.3844562,E,2,5,2.9,-3.705,M,40.592,M,1.8,0123*52
$GPVTG,301.18,T,-338.72,M,001.444,N,002.675,K,D*0E
$GPGGA,080106.65,5702.7927562,N,00950.3844285,E,2,5,2.9,-3.657,M,40.592,M,2.0,0123*53
$GPVTG,301.56,T,-338.34,M,001.429,N,002.646,K,D*0D
$GPGGA,080106.70,5702.7927678,N,00950.3843937,E,2,5,2.9,-3.651,M,40.592,M,2.0,0123*5C
$GPVTG,301.39,T,-338.51,M,001.435,N,002.657,K,D*0A
$GPGGA,080106.75,5702.7927814,N,00950.3843572,E,2,5,2.9,-3.649,M,40.592,M,2.0,0123*59
$GPVTG,301.51,T,-338.39,M,001.451,N,002.688,K,D*0A
$GPGGA,080106.80,5702.7927915,N,00950.3843275,E,2,5,2.9,-3.649,M,40.592,M,2.0,0123*53
$GPVTG,301.44,T,-338.46,M,001.436,N,002.659,K,D*0B
$GPGGA,080106.85,5702.7927966,N,00950.3842994,E,2,5,2.9,-3.671,M,40.592,M,2.3,0123*5F
$GPVTG,301.01,T,-338.89,M,001.430,N,002.648,K,D*0F
$GPGGA,080106.90,5702.7928068,N,00950.3842686,E,2,5,2.9,-3.673,M,40.592,M,2.3,0123*5D
$GPVTG,300.90,T,-339.00,M,001.419,N,002.629,K,D*0A
$GPGGA,080106.95,5702.7928159,N,00950.3842405,E,2,5,2.9,-3.675,M,40.592,M,2.3,0123*54
$GPVTG,300.76,T,-339.14,M,001.399,N,002.590,K,D*09
$GPGGA,080107.00,5702.7928268,N,00950.3842113,E,2,5,2.9,-3.678,M,40.592,M,2.3,0123*57
$GPVTG,300.92,T,-338.98,M,001.388,N,002.571,K,D*09
$GPGGA,080107.05,5702.7928353,N,00950.3841812,E,2,5,2.9,-3.676,M,40.592,M,2.5,0123*58
$GPVTG,300.19,T,-339.71,M,001.387,N,002.568,K,D*0B
$GPGGA,080107.10,5702.7928453,N,00950.3841479,E,2,5,2.9,-3.676,M,40.592,M,2.5,0123*5A
$GPVTG,299.89,T,-340.01,M,001.388,N,002.571,K,D*0D
$GPGGA,080107.15,5702.7928562,N,00950.3841169,E,2,5,2.9,-3.680,M,40.592,M,2.5,0123*51
$GPVTG,299.96,T,-339.94,M,001.385,N,002.565,K,D*09
$GPGGA,080107.20,5702.7928651,N,00950.3840881,E,2,5,2.9,-3.684,M,40.592,M,2.5,0123*5E
$GPVTG,299.78,T,-340.12,M,001.369,N,002.536,K,D*0D
$GPGGA,080107.25,5702.7928753,N,00950.3840544,E,2,5,2.9,-3.671,M,40.592,M,2.7,0123*54
$GPVTG,299.68,T,-340.22,M,001.374,N,002.545,K,D*07
$GPGGA,080107.30,5702.7928872,N,00950.3840203,E,2,5,2.9,-3.670,M,40.592,M,2.7,0123*59
$GPVTG,299.81,T,-340.09,M,001.387,N,002.569,K,D*0B
$GPGGA,080107.35,5702.7928968,N,00950.3839910,E,2,5,2.9,-3.669,M,40.592,M,2.7,0123*59
$GPVTG,299.76,T,-340.14,M,001.376,N,002.549,K,D*03
$GPGGA,080107.40,5702.7929078,N,00950.3839600,E,2,5,2.9,-3.671,M,40.592,M,2.7,0123*55
$GPVTG,299.91,T,-339.99,M,001.376,N,002.548,K,D*00
$GPGGA,080107.45,5702.7929162,N,00950.3839343,E,2,5,2.9,-3.698,M,40.592,M,2.9,0123*51
$GPVTG,300.11,T,-339.79,M,001.383,N,002.562,K,D*05
$GPGGA,080107.50,5702.7929221,N,00950.3839077,E,2,5,2.9,-3.701,M,40.592,M,2.9,0123*54
$GPVTG,299.41,T,-340.49,M,001.352,N,002.503,K,D*07
$GPGGA,080107.55,5702.7929304,N,00950.3838773,E,2,5,2.9,-3.704,M,40.592,M,2.9,0123*50
$GPVTG,299.05,T,-340.85,M,001.344,N,002.488,K,D*02
$GPGGA,080107.60,5702.7929401,N,00950.3838474,E,2,5,2.9,-3.709,M,40.592,M,2.9,0123*5D
$GPVTG,299.01,T,-340.89,M,001.338,N,002.478,K,D*0E
$GPGGA,080107.65,5702.7929549,N,00950.3838188,E,2,5,2.9,-3.677,M,40.592,M,3.1,0123*52
$GPVTG,299.29,T,-340.61,M,001.340,N,002.481,K,D*0B
$GPGGA,080107.70,5702.7929650,N,00950.3837861,E,2,5,2.9,-3.676,M,40.592,M,3.1,0123*5D
$GPVTG,299.16,T,-340.74,M,001.347,N,002.494,K,D*00
$GPGGA,080107.75,5702.7929729,N,00950.3837586,E,2,5,2.9,-3.677,M,40.592,M,3.1,0123*52
$GPVTG,298.93,T,-340.97,M,001.330,N,002.462,K,D*08
$GPGGA,080107.80,5702.7929813,N,00950.3837282,E,2,5,2.9,-3.676,M,40.592,M,3.1,0123*5C
$GPVTG,298.61,T,-341.29,M,001.324,N,002.452,K,D*07
$GPGGA,080107.85,5702.7929866,N,00950.3837020,E,2,5,2.9,-3.687,M,40.592,M,3.3,0123*5D
$GPVTG,298.46,T,-341.44,M,001.310,N,002.427,K,D*0C
$GPGGA,080107.90,5702.7929955,N,00950.3836715,E,2,5,2.9,-3.687,M,40.592,M,3.3,0123*58
$GPVTG,298.27,T,-341.63,M,001.309,N,002.424,K,D*05
$GPGGA,080107.95,5702.7930037,N,00950.3836412,E,2,5,2.9,-3.691,M,40.592,M,3.3,0123*5B
$GPVTG,297.97,T,-341.93,M,001.305,N,002.416,K,D*03
$GPGGA,080108.00,5702.7930121,N,00950.3836114,E,2,5,2.9,-3.695,M,40.592,M,3.3,0123*59
$GPVTG,297.73,T,-342.17,M,001.300,N,002.407,K,D*03
$GPGGA,080108.05,5702.7930231,N,00950.3835883,E,2,5,2.9,-3.682,M,40.592,M,2.0,0123*5E
$GPVTG,297.78,T,-342.12,M,001.284,N,002.378,K,D*0F
$GPGGA,080108.10,5702.7930312,N,00950.3835584,E,2,5,2.9,-3.681,M,40.592,M,2.0,0123*53
$GPVTG,297.50,T,-342.40,M,001.281,N,002.372,K,D*0D
$GPGGA,080108.15,5702.7930398,N,00950.3835291,E,2,5,2.9,-3.681,M,40.592,M,2.0,0123*57
$GPVTG,297.40,T,-342.50,M,001.277,N,002.365,K,D*02
$GPGGA,080108.20,5702.7930471,N,00950.3835004,E,2,5,2.9,-3.682,M,40.592,M,2.0,0123*5C
$GPVTG,297.03,T,-342.87,M,001.268,N,002.348,K,D*0E
$GPGGA,080108.25,5702.7930556,N,00950.3834716,E,2,5,2.9,-3.679,M,40.592,M,2.2,0123*5E
$GPVTG,296.59,T,-343.31,M,001.281,N,002.373,K,D*03
$GPGGA,080108.30,5702.7930649,N,00950.3834463,E,2,5,2.9,-3.683,M,40.592,M,2.2,0123*53
$GPVTG,297.06,T,-342.84,M,001.266,N,002.345,K,D*0B
$GPGGA,080108.35,5702.7930717,N,00950.3834170,E,2,5,2.9,-3.681,M,40.592,M,2.2,0123*59
