$GPGGA,080550.80,5702.7955185,N,00950.3584296,E,2,5,2.5,-4.141,M,40.592,M,1.9,0123*55
$GPVTG,003.05,T,-636.85,M,003.771,N,006.983,K,D*05
$GPGGA,080550.85,5702.7955772,N,00950.3584424,E,2,5,2.5,-4.142,M,40.592,M,2.1,0123*59
$GPVTG,003.12,T,-636.78,M,003.796,N,007.030,K,D*08
$GPGGA,080550.90,5702.7956275,N,00950.3584503,E,2,5,2.5,-4.139,M,40.592,M,2.1,0123*54
$GPVTG,004.52,T,-635.38,M,003.763,N,006.970,K,D*0A
$GPGGA,080550.95,5702.7956743,N,00950.3584571,E,2,5,2.5,-4.140,M,40.592,M,2.1,0123*5A
$GPVTG,005.39,T,-634.51,M,003.664,N,006.786,K,D*09
$GPGGA,080551.00,5702.7957246,N,00950.3584701,E,2,5,2.5,-4.137,M,40.592,M,2.1,0123*53
$GPVTG,007.16,T,-632.74,M,003.661,N,006.779,K,D*02
$GPGGA,080551.05,5702.7957727,N,00950.3584940,E,2,5,2.5,-4.158,M,40.592,M,2.3,0123*54
$GPVTG,008.75,T,-631.15,M,003.600,N,006.667,K,D*05
$GPGGA,080551.10,5702.7958235,N,00950.3585054,E,2,5,2.5,-4.161,M,40.592,M,2.3,0123*5E
$GPVTG,009.19,T,-630.71,M,003.618,N,006.701,K,D*05
$GPGGA,080551.15,5702.7958697,N,00950.3585157,E,2,5,2.5,-4.162,M,40.592,M,2.3,0123*56
$GPVTG,009.37,T,-630.53,M,003.538,N,006.552,K,D*0C
$GPGGA,080551.20,5702.7959150,N,00950.3585305,E,2,5,2.5,-4.165,M,40.592,M,2.3,0123*5F
$GPVTG,010.42,T,-629.48,M,003.463,N,006.413,K,D*0F
$GPGGA,080551.25,5702.7959790,N,00950.3585613,E,2,5,2.5,-4.111,M,40.592,M,2.5,0123*57
$GPVTG,011.56,T,-628.34,M,003.477,N,006.439,K,D*0C
$GPGGA,080551.30,5702.7960249,N,00950.3585826,E,2,5,2.5,-4.097,M,40.592,M,2.5,0123*5F
$GPVTG,013.31,T,-626.59,M,003.445,N,006.380,K,D*0E
$GPGGA,080551.35,5702.7960749,N,00950.3586044,E,2,5,2.5,-4.087,M,40.592,M,2.5,0123*51
$GPVTG,014.34,T,-625.56,M,003.506,N,006.492,K,D*02
$GPGGA,080551.40,5702.7961248,N,00950.3586259,E,2,5,2.5,-4.079,M,40.592,M,2.5,0123*59
$GPVTG,014.92,T,-624.98,M,003.556,N,006.586,K,D*0C
$GPGGA,080551.45,5702.7961704,N,00950.3586543,E,2,5,2.5,-4.116,M,40.592,M,2.7,0123*57
$GPVTG,014.90,T,-625.00,M,003.520,N,006.519,K,D*09
$GPGGA,080551.50,5702.7962162,N,00950.3586787,E,2,5,2.5,-4.118,M,40.592,M,2.7,0123*52
$GPVTG,016.04,T,-623.86,M,003.496,N,006.474,K,D*08
$GPGGA,080551.55,5702.7962636,N,00950.3587064,E,2,5,2.5,-4.116,M,40.592,M,2.7,0123*54
$GPVTG,017.37,T,-622.53,M,003.521,N,006.522,K,D*0F
$GPGGA,080551.60,5702.7963090,N,00950.3587399,E,2,5,2.5,-4.122,M,40.592,M,2.7,0123*5F
$GPVTG,019.71,T,-620.19,M,003.530,N,006.538,K,D*04
$GPGGA,080551.65,5702.7963631,N,00950.3587836,E,2,5,2.5,-4.109,M,40.592,M,3.0,0123*56
$GPVTG,021.24,T,-618.66,M,003.531,N,006.539,K,D*0C
$GPGGA,080551.70,5702.7964066,N,00950.3588168,E,2,5,2.5,-4.111,M,40.592,M,3.0,0123*55
$GPVTG,022.72,T,-617.18,M,003.499,N,006.479,K,D*0C
$GPGGA,080551.75,5702.7964497,N,00950.3588469,E,2,5,2.5,-4.113,M,40.592,M,3.0,0123*5C
$GPVTG,023.14,T,-616.76,M,003.447,N,006.384,K,D*02
$GPGGA,080551.80,5702.7964926,N,00950.3588855,E,2,5,2.5,-4.116,M,40.592,M,3.0,0123*57
$GPVTG,025.10,T,-614.80,M,003.448,N,006.386,K,D*06
$GPGGA,080551.85,5702.7965396,N,00950.3589329,E,2,5,2.5,-4.117,M,40.592,M,3.2,0123*50
$GPVTG,026.49,T,-613.41,M,003.425,N,006.343,K,D*01
$GPGGA,080551.90,5702.7965794,N,00950.3589743,E,2,5,2.5,-4.121,M,40.592,M,3.2,0123*5F
$GPVTG,028.54,T,-611.36,M,003.389,N,006.277,K,D*06
$GPGGA,080551.95,5702.7966197,N,00950.3590137,E,2,5,2.5,-4.126,M,40.592,M,3.2,0123*56
$GPVTG,029.56,T,-610.34,M,003.357,N,006.217,K,D*03
$GPGGA,080552.00,5702.7966635,N,00950.3590591,E,2,5,2.5,-4.132,M,40.592,M,3.2,0123*5B
$GPVTG,030.78,T,-609.12,M,003.430,N,006.353,K,D*0C
$GPGGA,080552.05,5702.7967078,N,00950.3591127,E,2,5,2.5,-4.147,M,40.592,M,2.3,0123*5A
$GPVTG,032.19,T,-607.71,M,003.439,N,006.369,K,D*02
$GPGGA,080552.10,5702.7967468,N,00950.3591595,E,2,5,2.5,-4.151,M,40.592,M,2.3,0123*51
$GPVTG,033.56,T,-606.34,M,003.430,N,006.353,K,D*08
$GPGGA,080552.15,5702.7967836,N,00950.3592092,E,2,5,2.5,-4.154,M,40.592,M,2.3,0123*57
$GPVTG,035.36,T,-604.54,M,003.413,N,006.320,K,D*09
$GPGGA,080552.20,5702.7968174,N,00950.3592555,E,2,5,2.5,-4.155,M,40.592,M,2.3,0123*5E
$GPVTG,036.59,T,-603.31,M,003.329,N,006.166,K,D*09
$GPGGA,080552.25,5702.7968562,N,00950.3593101,E,2,5,2.5,-4.141,M,40.592,M,2.6,0123*5C
$GPVTG,037.58,T,-602.32,M,003.248,N,006.015,K,D*08
$GPGGA,080552.30,5702.7968960,N,00950.3593577,E,2,5,2.5,-4.139,M,40.592,M,2.6,0123*5C
$GPVTG,037.53,T,-602.37,M,003.264,N,006.045,K,D*0D
$GPGGA,080552.35,5702.7969339,N,00950.3594087,E,2,5,2.5,-4.133,M,40.592,M,2.6,0123*59
$GPVTG,038.25,T,-601.65,M,003.282,N,006.078,K,D*01
$GPGGA,080552.40,5702.7969691,N,00950.3594618,E,2,5,2.5,-4.128,M,40.592,M,2.6,0123*56
$GPVTG,039.53,T,-600.37,M,003.279,N,006.074,K,D*0F
$GPGGA,080552.45,5702.7969933,N,00950.3595230,E,2,5,2.5,-4.145,M,40.592,M,2.8,0123*5E
$GPVTG,042.03,T,-597.87,M,003.175,N,005.880,K,D*0F
$GPGGA,080552.50,5702.7970233,N,00950.3595763,E,2,5,2.5,-4.149,M,40.592,M,2.8,0123*56
$GPVTG,043.63,T,-596.27,M,003.120,N,005.778,K,D*0B
$GPGGA,080552.55,5702.7970545,N,00950.3596312,E,2,5,2.5,-4.154,M,40.592,M,2.8,0123*58
$GPVTG,044.89,T,-595.01,M,003.104,N,005.748,K,D*0A
$GPGGA,080552.60,5702.7970836,N,00950.3596864,E,2,5,2.5,-4.160,M,40.592,M,2.8,0123*5A
$GPVTG,046.30,T,-593.60,M,003.067,N,005.681,K,D*0B
$GPGGA,080552.65,5702.7971261,N,00950.3597501,E,2,5,2.5,-4.132,M,40.592,M,3.1,0123*56
$GPVTG,047.01,T,-592.89,M,003.082,N,005.709,K,D*04
$GPGGA,080552.70,5702.7971560,N,00950.3598109,E,2,5,2.5,-4.131,M,40.592,M,3.1,0123*54
$GPVTG,048.49,T,-591.41,M,003.114,N,005.766,K,D*07
$GPGGA,080552.75,5702.7971844,N,00950.3598690,E,2,5,2.5,-4.131,M,40.592,M,3.1,0123*5D
$GPVTG,049.51,T,-590.39,M,003.095,N,005.731,K,D*0B
$GPGGA,080552.80,5702.7972139,N,00950.3599323,E,2,5,2.5,-4.135,M,40.592,M,3.1,0123*5F
$GPVTG,050.79,T,-589.11,M,003.140,N,005.816,K,D*08
$GPGGA,080552.85,5702.7972511,N,00950.3600031,E,2,5,2.5,-4.118,M,40.592,M,3.3,0123*5A
$GPVTG,051.97,T,-587.93,M,003.160,N,005.853,K,D*0E
$GPGGA,080552.90,5702.7972766,N,00950.3600673,E,2,5,2.5,-4.120,M,40.592,M,3.3,0123*57
$GPVTG,053.57,T,-586.33,M,003.159,N,005.850,K,D*02
$GPGGA,080552.95,5702.7973039,N,00950.3601324,E,2,5,2.5,-4.124,M,40.592,M,3.3,0123*5C
$GPVTG,054.44,T,-585.46,M,003.183,N,005.895,K,D*08
$GPGGA,080553.00,5702.7973317,N,00950.3601975,E,2,5,2.5,-4.136,M,40.592,M,3.3,0123*53
$GPVTG,054.92,T,-584.98,M,003.202,N,005.931,K,D*04
$GPGGA,080553.05,5702.7973621,N,00950.3602688,E,2,5,2.5,-4.142,M,40.592,M,2.4,0123*5D
$GPVTG,055.85,T,-584.05,M,003.217,N,005.957,K,D*03
$GPGGA,080553.10,5702.7973869,N,00950.3603385,E,2,5,2.5,-4.152,M,40.592,M,2.4,0123*53
$GPVTG,057.02,T,-582.88,M,003.237,N,005.995,K,D*01
$GPGGA,080553.15,5702.7974106,N,00950.3604016,E,2,5,2.5,-4.160,M,40.592,M,2.4,0123*5E
$GPVTG,057.81,T,-582.09,M,003.215,N,005.954,K,D*0E
$GPGGA,080553.20,5702.7974325,N,00950.3604721,E,2,5,2.5,-4.169,M,40.592,M,2.4,0123*51
$GPVTG,059.21,T,-580.69,M,003.221,N,005.966,K,D*08
$GPGGA,080553.25,5702.7974697,N,00950.3605493,E,2,5,2.5,-4.140,M,40.592,M,2.7,0123*5B
$GPVTG,059.09,T,-580.81,M,003.271,N,006.058,K,D*06
$GPGGA,080553.30,5702.7974915,N,00950.3606154,E,2,5,2.5,-4.145,M,40.592,M,2.7,0123*52
$GPVTG,059.91,T,-579.99,M,003.213,N,005.951,K,D*0F
$GPGGA,080553.35,5702.7975106,N,00950.3606876,E,2,5,2.5,-4.144,M,40.592,M,2.7,0123*54
$GPVTG,061.97,T,-577.93,M,003.200,N,005.927,K,D*05
$GPGGA,080553.40,5702.7975279,N,00950.3607645,E,2,5,2.5,-4.146,M,40.592,M,2.7,0123*50
$GPVTG,064.49,T,-575.41,M,003.222,N,005.968,K,D*05
$GPGGA,080553.45,5702.7975463,N,00950.3608423,E,2,5,2.5,-4.143,M,40.592,M,2.9,0123*5E
$GPVTG,067.08,T,-572.82,M,003.173,N,005.876,K,D*02
$GPGGA,080553.50,5702.7975613,N,00950.3609133,E,2,5,2.5,-4.143,M,40.592,M,2.9,0123*5A
$GPVTG,068.76,T,-571.14,M,003.131,N,005.799,K,D*00
$GPGGA,080553.55,5702.7975784,N,00950.3609838,E,2,5,2.5,-4.141,M,40.592,M,2.9,0123*50
$GPVTG,069.30,T,-570.60,M,003.107,N,005.755,K,D*04
$GPGGA,080553.60,5702.7975944,N,00950.3610541,E,2,5,2.5,-4.142,M,40.592,M,2.9,0123*5C
$GPVTG,070.00,T,-569.90,M,003.077,N,005.699,K,D*0F
$GPGGA,080553.65,5702.7976089,N,00950.3611187,E,2,5,2.5,-4.154,M,40.592,M,3.2,0123*50
$GPVTG,072.00,T,-567.90,M,002.998,N,005.552,K,D*0E
$GPGGA,080553.70,5702.7976212,N,00950.3611884,E,2,5,2.5,-4.159,M,40.592,M,3.2,0123*53
$GPVTG,073.27,T,-566.63,M,002.959,N,005.480,K,D*04
$GPGGA,080553.75,5702.7976334,N,00950.3612641,E,2,5,2.5,-4.160,M,40.592,M,3.2,0123*5D
$GPVTG,074.54,T,-565.36,M,002.985,N,005.528,K,D*06
$GPGGA,080553.80,5702.7976439,N,00950.3613376,E,2,5,2.5,-4.161,M,40.592,M,3.2,0123*5C
$GPVTG,075.96,T,-563.94,M,002.980,N,005.519,K,D*00
$GPGGA,080553.85,5702.7976567,N,00950.3614158,E,2,5,2.5,-4.159,M,40.592,M,3.4,0123*57
$GPVTG,077.93,T,-561.97,M,002.
$GPGGA,080617.55,5702.7932546,N,00950.3549653,E,2,5,2.5,-3.539,M,40.592,M,2.9,0123*54
$GPVTG,250.16,T,-389.74,M,004.276,N,007.920,K,D*01
$GPGGA,080617.60,5702.7932323,N,00950.3548605,E,2,5,2.5,-3.541,M,40.592,M,2.9,0123*5A
$GPVTG,250.76,T,-389.14,M,004.308,N,007.979,K,D*05
$GPGGA,080617.65,5702.7932174,N,00950.3547743,E,2,5,2.5,-3.550,M,40.592,M,3.2,0123*59
$GPVTG,252.12,T,-387.78,M,004.294,N,007.952,K,D*0C
$GPGGA,080617.70,5702.7932016,N,00950.3546703,E,2,5,2.5,-3.559,M,40.592,M,3.2,0123*54
$GPVTG,253.36,T,-386.54,M,004.293,N,007.950,K,D*01
$GPGGA,080617.75,5702.7931866,N,00950.3545658,E,2,5,2.5,-3.567,M,40.592,M,3.2,0123*5C
$GPVTG,254.57,T,-385.33,M,004.293,N,007.951,K,D*02
$GPGGA,080617.80,5702.7931709,N,00950.3544589,E,2,5,2.5,-3.572,M,40.592,M,3.2,0123*5A
$GPVTG,255.53,T,-384.37,M,004.314,N,007.989,K,D*09
$GPGGA,080617.85,5702.7931570,N,00950.3543681,E,2,5,2.5,-3.514,M,40.592,M,3.4,0123*59
$GPVTG,256.22,T,-383.68,M,004.275,N,007.917,K,D*00
$GPGGA,080617.90,5702.7931414,N,00950.3542608,E,2,5,2.5,-3.514,M,40.592,M,3.4,0123*5E
$GPVTG,256.90,T,-383.00,M,004.300,N,007.963,K,D*07
$GPGGA,080617.95,5702.7931301,N,00950.3541531,E,2,5,2.5,-3.514,M,40.592,M,3.4,0123*52
$GPVTG,258.13,T,-381.77,M,004.313,N,007.987,K,D*08
$GPGGA,080618.00,5702.7931176,N,00950.3540435,E,2,5,2.5,-3.511,M,40.592,M,3.4,0123*52
$GPVTG,259.01,T,-380.89,M,004.341,N,008.039,K,D*0E
$GPGGA,080618.05,5702.7931051,N,00950.3539530,E,2,5,2.5,-3.517,M,40.592,M,1.2,0123*5B
$GPVTG,259.57,T,-380.33,M,004.311,N,007.984,K,D*09
$GPGGA,080618.10,5702.7930913,N,00950.3538427,E,2,5,2.5,-3.522,M,40.592,M,1.2,0123*51
$GPVTG,259.94,T,-379.96,M,004.346,N,008.049,K,D*0A
$GPGGA,080618.15,5702.7930815,N,00950.3537376,E,2,5,2.5,-3.527,M,40.592,M,1.2,0123*5A
$GPVTG,260.78,T,-379.12,M,004.329,N,008.017,K,D*0C
$GPGGA,080618.20,5702.7930745,N,00950.3536275,E,2,5,2.5,-3.528,M,40.592,M,1.2,0123*5A
$GPVTG,261.99,T,-377.91,M,004.345,N,008.048,K,D*07
$GPGGA,080618.25,5702.7930628,N,00950.3535263,E,2,5,2.5,-3.525,M,40.592,M,1.5,0123*5B
$GPVTG,262.37,T,-377.53,M,004.350,N,008.056,K,D*05
$GPGGA,080618.30,5702.7930545,N,00950.3534177,E,2,5,2.5,-3.531,M,40.592,M,1.5,0123*55
$GPVTG,263.06,T,-376.84,M,004.355,N,008.065,K,D*08
$GPGGA,080618.35,5702.7930488,N,00950.3533117,E,2,5,2.5,-3.534,M,40.592,M,1.5,0123*54
$GPVTG,264.02,T,-375.88,M,004.335,N,008.029,K,D*0A
$GPGGA,080618.40,5702.7930438,N,00950.3532017,E,2,5,2.5,-3.539,M,40.592,M,1.5,0123*50
$GPVTG,264.98,T,-374.92,M,004.346,N,008.049,K,D*01
$GPGGA,080618.45,5702.7930403,N,00950.3530931,E,2,5,2.5,-3.503,M,40.592,M,1.7,0123*59
$GPVTG,265.63,T,-374.27,M,004.372,N,008.098,K,D*01
$GPGGA,080618.50,5702.7930353,N,00950.3529817,E,2,5,2.5,-3.508,M,40.592,M,1.7,0123*59
$GPVTG,266.32,T,-373.58,M,004.390,N,008.129,K,D*0E
$GPGGA,080618.55,5702.7930293,N,00950.3528702,E,2,5,2.5,-3.508,M,40.592,M,1.7,0123*5B
$GPVTG,266.72,T,-373.18,M,004.405,N,008.159,K,D*02
$GPGGA,080618.60,5702.7930282,N,00950.3527651,E,2,5,2.5,-3.507,M,40.592,M,1.7,0123*5A
$GPVTG,267.75,T,-372.15,M,004.368,N,008.090,K,D*00
$GPGGA,080618.65,5702.7930278,N,00950.3526556,E,2,5,2.5,-3.492,M,40.592,M,1.9,0123*5C
$GPVTG,268.70,T,-371.20,M,004.417,N,008.181,K,D*01
$GPGGA,080618.70,5702.7930237,N,00950.3525411,E,2,5,2.5,-3.494,M,40.592,M,1.9,0123*54
$GPVTG,269.01,T,-370.89,M,004.447,N,008.236,K,D*0E
$GPGGA,080618.75,5702.7930257,N,00950.3524264,E,2,5,2.5,-3.495,M,40.592,M,1.9,0123*53
$GPVTG,270.15,T,-369.75,M,004.474,N,008.286,K,D*03
$GPGGA,080618.80,5702.7930270,N,00950.3523136,E,2,5,2.5,-3.495,M,40.592,M,1.9,0123*5F
$GPVTG,271.03,T,-368.87,M,004.486,N,008.309,K,D*02
$GPGGA,080618.85,5702.7930308,N,00950.3522110,E,2,5,2.5,-3.474,M,40.592,M,2.1,0123*55
$GPVTG,271.72,T,-368.18,M,004.482,N,008.302,K,D*0D
$GPGGA,080618.90,5702.7930352,N,00950.3520979,E,2,5,2.5,-3.477,M,40.592,M,2.1,0123*58
$GPVTG,272.79,T,-367.11,M,004.494,N,008.323,K,D*07
$GPGGA,080618.95,5702.7930405,N,00950.3519881,E,2,5,2.5,-3.476,M,40.592,M,2.1,0123*55
$GPVTG,273.86,T,-366.04,M,004.482,N,008.300,K,D*05
$GPGGA,080619.00,5702.7930455,N,00950.3518749,E,2,5,2.5,-3.476,M,40.592,M,2.1,0123*57
$GPVTG,274.72,T,-365.18,M,004.495,N,008.324,K,D*07
$GPGGA,080619.05,5702.7930522,N,00950.3517683,E,2,5,2.5,-3.461,M,40.592,M,2.3,0123*5F
$GPVTG,275.30,T,-364.60,M,004.519,N,008.370,K,D*0A
$GPGGA,080619.10,5702.7930618,N,00950.3516610,E,2,5,2.5,-3.465,M,40.592,M,2.3,0123*5E
$GPVTG,276.65,T,-363.26,M,004.490,N,008.316,K,D*0C
$GPGGA,080619.15,5702.7930722,N,00950.3515479,E,2,4,2.5,-3.467,M,40.592,M,2.3,0123*5E
$GPVTG,277.80,T,-362.10,M,004.507,N,008.348,K,D*06
$GPGGA,080619.20,5702.7930802,N,00950.3514305,E,2,4,2.5,-3.469,M,40.592,M,2.3,0123*56
$GPVTG,278.49,T,-361.41,M,004.545,N,008.418,K,D*0F
$GPGGA,080619.25,5702.7930891,N,00950.3513151,E,2,4,2.5,-3.464,M,40.592,M,2.5,0123*56
$GPVTG,279.54,T,-360.36,M,004.595,N,008.509,K,D*0F
$GPGGA,080619.30,5702.7931034,N,00950.3512089,E,2,4,2.5,-3.469,M,40.592,M,2.5,0123*5C
$GPVTG,280.90,T,-359.00,M,004.573,N,008.469,K,D*01
$GPGGA,080619.35,5702.7931175,N,00950.3510995,E,2,4,2.5,-3.473,M,40.592,M,2.5,0123*50
$GPVTG,282.04,T,-357.86,M,004.570,N,008.463,K,D*07
$GPGGA,080619.40,5702.7931311,N,00950.3509941,E,2,4,2.5,-3.480,M,40.592,M,2.5,0123*5F
$GPVTG,283.06,T,-356.84,M,004.541,N,008.410,K,D*01
$GPGGA,080619.45,5702.7931447,N,00950.3508857,E,2,5,2.5,-3.443,M,40.592,M,2.7,0123*55
$GPVTG,283.64,T,-356.26,M,004.563,N,008.451,K,D*08
$GPGGA,080619.50,5702.7931587,N,00950.3507708,E,2,4,2.5,-3.443,M,40.592,M,2.7,0123*57
$GPVTG,284.28,T,-355.62,M,004.592,N,008.505,K,D*0A
$GPGGA,080619.55,5702.7931768,N,00950.3506586,E,2,4,2.5,-3.440,M,40.592,M,2.7,0123*57
$GPVTG,285.39,T,-354.51,M,004.611,N,008.540,K,D*03
$GPGGA,080619.60,5702.7931936,N,00950.3505516,E,2,4,2.5,-3.442,M,40.592,M,2.7,0123*5C
$GPVTG,286.30,T,-353.60,M,004.592,N,008.503,K,D*03
$GPGGA,080619.65,5702.7932184,N,00950.3504481,E,2,4,2.5,-3.423,M,40.592,M,3.0,0123*54
$GPVTG,287.36,T,-352.54,M,004.632,N,008.578,K,D*07
$GPGGA,080619.70,5702.7932345,N,00950.3503407,E,2,4,2.5,-3.423,M,40.592,M,3.0,0123*56
$GPVTG,287.89,T,-352.01,M,004.609,N,008.536,K,D*01
$GPGGA,080619.75,5702.7932534,N,00950.3502250,E,2,4,2.5,-3.422,M,40.592,M,3.0,0123*57
$GPVTG,288.46,T,-351.44,M,004.651,N,008.613,K,D*06
$GPGGA,080619.80,5702.7932720,N,00950.3501157,E,2,4,2.5,-3.419,M,40.592,M,3.0,0123*55
$GPVTG,289.05,T,-350.85,M,004.646,N,008.605,K,D*0D
$GPGGA,080619.85,5702.7933002,N,00950.3500269,E,2,4,2.5,-3.420,M,40.592,M,3.2,0123*51
$GPVTG,290.68,T,-349.22,M,004.608,N,008.534,K,D*00
$GPGGA,080619.90,5702.7933274,N,00950.3499180,E,2,4,2.5,-3.421,M,40.592,M,3.2,0123*52
$GPVTG,292.07,T,-347.83,M,004.638,N,008.589,K,D*0B
$GPGGA,080619.95,5702.7933492,N,00950.3498164,E,2,4,2.5,-3.423,M,40.592,M,3.2,0123*50
$GPVTG,292.85,T,-347.05,M,004.600,N,008.519,K,D*0D
$GPGGA,080620.00,5702.7933764,N,00950.3497172,E,2,4,2.5,-3.426,M,40.592,M,3.2,0123*51
$GPVTG,294.26,T,-345.64,M,004.575,N,008.472,K,D*0A
$GPGGA,080620.05,5702.7934088,N,00950.3496141,E,2,4,2.5,-3.361,M,40.592,M,2.3,0123*53
$GPVTG,295.84,T,-344.06,M,004.552,N,008.430,K,D*05
$GPGGA,080620.10,5702.7934336,N,00950.3495057,E,2,4,2.5,-3.359,M,40.592,M,2.3,0123*5F
$GPVTG,296.27,T,-343.63,M,004.576,N,008.474,K,D*0D
$GPGGA,080620.15,5702.7934580,N,00950.3493978,E,2,4,2.5,-3.354,M,40.592,M,2.3,0123*5E
$GPVTG,296.57,T,-343.33,M,004.592,N,008.504,K,D*03
$GPGGA,080620.20,5702.7934860,N,00950.3492944,E,2,4,2.5,-3.348,M,40.592,M,2.3,0123*58
$GPVTG,297.36,T,-342.54,M,004.598,N,008.515,K,D*0F
$GPGGA,080620.25,5702.7935175,N,00950.3492086,E,2,5,2.5,-3.359,M,40.592,M,2.6,0123*52
$GPVTG,298.18,T,-341.72,M,004.579,N,008.480,K,D*09
$GPGGA,080620.30,5702.7935482,N,00950.3491085,E,2,5,2.5,-3.355,M,40.592,M,2.6,0123*57
$GPVTG,299.19,T,-340.71,M,004.580,N,008.482,K,D*0F
$GPGGA,080620.35,5702.7935756,N,00950.3490072,E,2,5,2.5,-3.356,M,40.592,M,2.6,0123*52
$GPVTG,299.57,T,-340.33,M,004.570,N,008.464,K,D*04
$GPGGA,080620.40,5702.7936056,N,00950.3489077,E,2,5,2.5,-3.354,M,40.592,M,2.6,0123*5B
$GPVTG,300.25,T,-339.65,M,004.565,N,008.455,K,D*0B
$GPGGA,080620.45,5702.7936371,N,00950.3488114,E,2,5,2.5,-3.350,M,40.592,M,2.8,0123*57
$GPVTG,301.06,T,-338.84,M,004.576,N,008.474,K,D*04
$GPGGA,080620.50,5702.7936718,N,00950.3487196,E,2,5,2.5,-3.351,M,40.592,M,2.8,0123*5C
$GPVTG,302.56,T,-337.34,M,004.543,N,008.413,K,D*01
$GPGGA,080620.55,5702.7937077,N,00950.3486218,E,2,5,2.5,-3.350,M,40.592,M,2.8,0123*53
$GPVTG,303.63,T,-336.27,M,004.571,N,008.466,K,D*06
$GPGGA,080620.60,5702.7937431,N,00950.3485311,E,2,5,2.5,-3.345,M,40.592,M,2.8,0123*5C
$GPVTG,304.83,T,-335.07,M,004.545,N,008.416,K,D*0E
$GPGGA,080620.65,5702.7937822,N,00950.3484455,E,2,5,2.5,-3.309,M,40.592,M,3.1,0123*51
$GPVTG,305.64,T,-334.26,M,004.508,N,008.348,K,D*01
$GPGGA,080620.70,5702.7938189,N,00950.3483528,E,2,5,2.5,-3.309,M,40.592,M,3.1,0123*5E
$GPVTG,306.53,T,-333.37,M,004.515,N,008.361,K,D*06
$GPGGA,080620.75,5702.7938567,N,00950.3482653,E,2,5,2.5,-3.308,M,40.592,M,3.1,0123*50
$GPVTG,307.72,T,-332.19,M,004.498,N,008.329,K,D*01
$GPGGA,080620.80,5702.7938938,N,00950.3481718,E,2,5,2.5,-3.304,M,40.592,M,3.1,0123*5D
$GPVTG,308.25,T,-331.65,M,004.516,N,008.363,K,D*0D
$GPGGA,080620.85,5702.7939238,N,00950.3480800,E,2,5,2.5,-3.303,M,40.592,M,3.3,0123*50
$GPVTG,308.17,T,-331.73,M,004.496,N,008.326,K,D*03
$GPGGA,080620.90,5702.7939624,N,00950.3479961,E,2,5,2.5,-3.300,M,40.592,M,3.3,0123*5E
$GPVTG,309.29,T,-330.61,M,004.468,N,008.275,K,D*0B
$GPGGA,080620.95,5702.7940013,N,00950.3479132,E,2,5,2.5,-3.301,M,40.592,M,3.3,0123*58
$GPVTG,310.35,T,-329.55,M,004.441,N,008.225,K,D*0F
$GPGGA,080621.00,5702.7940452,N,00950.3478319,E,2,5,2.5,-3.299,M,40.592,M,3.3,0123*5E
$GPVTG,311.94,T,-327.96,M,004.451,N,008.244,K,D*02
$GPGGA,080621.05,5702.7940859,N,00950.3477514,E,2,5,2.5,-3.300,M,40.592,M,2.4,0123*5F
$GPVTG,313.09,T,-326.81,M,004.451,N,008.243,K,D*04
$GPGGA,080621.10,5702.7941288,N,00950.3476722,E,2,5,2.5,-3.301,M,40.592,M,2.4,0123*5B
$GPVTG,314.28,T,-325.62,M,004.444,N,008.231,K,D*0F
$GPGGA,080621.15,5702.7941716,N,00950.3475960,E,2,5,2.5,-3.301,M,40.592,M,2.4,0123*57
$GPVTG,315.48,T,-324.42,M,004.424,N,008.193,K,D*06
$GPGGA,080621.20,5702.7942149,N,00950.3475201,E,2,5,2.5,-3.305,M,40.592,M,2.4,0123*56
$GPVTG,316.56,T,-323.34,M,004.411,N,008.169,K,D*0F
$GPGGA,080621.25,5702.7942500,N,00950.3474349,E,2,5,2.5,-3.291,M,40.592,M,2.7,0123*59
$GPVTG,316.65,T,-323.25,M,004.377,N,008.107,K,D*00
$GPGGA,080621.30,5702.7942959,N,00950.3473627,E,2,5,2.5,-3.289,M,40.592,M,2.7,0123*5E
$GPVTG,318.01,T,-321.89,M,004.374,N,008.101,K,D*0D
$GPGGA,080621.35,5702.7943374,N,00950.3472861,E,2,5,2.5,-3.289,M,40.592,M,2.7,0123*52
$GPVTG,318.34,T,-321.56,M,004.355,N,008.066,K,D*0A
$GPGGA,080621.40,5702.7943814,N,00950.3472188,E,2,5,2.5,-3.288,M,40.592,M,2.7,0123*52
$GPVTG,319.55,T,-320.35,M,004.315,N,007.991,K,D*02
$GPGGA,080621.45,5702.7944250,N,00950.3471500,E,2,5,2.5,-3.281,M,40.592,M,2.9,0123*5A
$GPVTG,320.35,T,-319.55,M,004.303,N,007.968,K,D*03
$GPGGA,080621.50,5702.7944698,N,00950.3470840,E,2,5,2.5,-3.278,M,40.592,M,2.9,0123*50
$GPVTG,321.38,T,-318.52,M,004.274,N,007.916,K,D*01
$GPGGA,080621.55,5702.7945122,N,00950.3470158,E,2,5,2.5,-3.276,M,40.592,M,2.9,0123*5C
$GPVTG,321.84,T,-318.06,M,004.237,N,007.847,K,D*05
$GPGGA,080621.60,5702.7945582,N,00950.3469511,E,2,5,2.5,-3.277,M,40.592,M,2.9,0123*54
$GPVTG,322.82,T,-317.08,M,004.224,N,007.823,K,D*01
$GPGGA,080621.65,5702.7946063,N,00950.3468907,E,2,5,2.5,-3.272,M,40.592,M,3.2,0123*5D
$GPVTG,324.12,T,-315.78,M,004.232,N,007.837,K,D*09
$GPGGA,080621.70,5702.7946552,N,00950.3468325,E,2,5,2.5,-3.277,M,40.592,M,3.2,0123*51
$GPVTG,325.51,T,-314.39,M,004.225,N,007.824,K,D*0F
$GPGGA,080621.75,5702.7947032,N,00950.3467734,E,2,5,2.5,-3.278,M,40.592,M,3.2,0123*52
$GPVTG,326.54,T,-313.36,M,004.215,N,007.806,K,D*02
$GPGGA,080621.80,5702.7947526,N,00950.3467178,E,2,5,2.5,-3.280,M,40.592,M,3.2,0123*51
$GPVTG,327.82,T,-312.08,M,004.209,N,007.794,K,D*0D
$GPGGA,080621.85,5702.7948032,N,00950.3466553,E,2,5,2.5,-3.248,M,40.592,M,3.4,0123*55
$GPVTG,328.88,T,-311.02,M,004.233,N,007.840,K,D*0E
$GPGGA,080621.90,5702.7948532,N,00950.3466080,E,2,5,2.5,-3.249,M,40.592,M,3.4,0123*5E
$GPVTG,330.52,T,-309.38,M,004.205,N,007.787,K,D*01
$GPGGA,080621.95,5702.7949022,N,00950.3465647,E,2,5,2.5,-3.256,M,40.592,M,3.4,0123*5E
$GPVTG,332.22,T,-307.68,M,004.158,N,007.701,K,D*0A
$GPGGA,080622.00,5702.7949511,N,00950.3465161,E,2,5,2.5,-3.256,M,40.592,M,3.4,0123*57
$GPVTG,333.18,T,-306.72,M,004.134,N,007.657,K,D*00
$GPGGA,080622.05,5702.7949938,N,00950.3464668,E,2,5,2.5,-3.270,M,40.592,M,1.2,0123*5A
$GPVTG,333.72,T,-306.18,M,004.094,N,007.581,K,D*03
$GPGGA,080622.10,5702.7950457,N,00950.3464239,E,2,5,2.5,-3.276,M,40.592,M,1.2,0123*54
$GPVTG,335.12,T,-304.78,M,004.095,N,007.584,K,D*03
$GPGGA,080622.15,5702.7950989,N,00950.3463844,E,2,5,2.5,-3.277,M,40.592,M,1.2,0123*59
$GPVTG,336.70,T,-303.20,M,004.102,N,007.597,K,D*03
$GPGGA,080622.20,5702.7951507,N,00950.3463434,E,2,5,2.5,-3.282,M,40.592,M,1.2,0123*55
$GPVTG,337.75,T,-302.15,M,004.099,N,007.591,K,D*05
$GPGGA,080622.25,5702.7951949,N,00950.3463015,E,2,5,2.5,-3.280,M,40.592,M,1.5,0123*54
$GPVTG,338.18,T,-301.72,M,004.031,N,007.465,K,D*0B
$GPGGA,080622.30,5702.7952430,N,00950.3462596,E,2,5,2.5,-3.280,M,40.592,M,1.5,0123*5F
$GPVTG,338.50,T,-301.40,M,003.993,N,007.395,K,D*08
$GPGGA,080622.35,5702.7952940,N,00950.3462229,E,2,5,2.5,-3.276,M,40.592,M,1.5,0123*5A
$GPVTG,339.47,T,-300.43,M,003.981,N,007.373,K,D*06
$GPGGA,080622.40,5702.7953418,N,00950.3461868,E,2,5,2.5,-3.274,M,40.592,M,1.5,0123*57
$GPVTG,340.10,T,-299.80,M,003.932,N,007.282,K,D*03
$GPGGA,080622.45,5702.7953950,N,00950.3461538,E,2,5,2.5,-3.246,M,40.592,M,1.7,0123*58
$GPVTG,340.15,T,-299.75,M,003.899,N,007.221,K,D*05
$GPGGA,080622.50,5702.7954460,N,00950.3461238,E,2,5,2.5,-3.241,M,40.592,M,1.7,0123*55
$GPVTG,341.54,T,-298.36,M,003.882,N,007.189,K,D*0C
$GPGGA,080622.55,5702.7954970,N,00950.3460912,E,2,5,2.5,-3.236,M,40.592,M,1.7,0123*5E
$GPVTG,342.21,T,-297.69,M,003.879,N,007.183,K,D*06
$GPGGA,080622.60,5702.7955487,N,00950.3460607,E,2,5,2.5,-3.236,M,40.592,M,1.7,0123*57
$GPVTG,343.04,T,-296.86,M,003.881,N,007.188,K,D*0C
$GPGGA,080622.65,5702.7955974,N,00950.3460371,E,2,5,2.5,-3.248,M,40.592,M,1.9,0123*50
$GPVTG,344.22,T,-295.68,M,003.866,N,007.159,K,D*09
$GPGGA,080622.70,5702.7956474,N,00950.3460119,E,2,5,2.5,-3.253,M,40.592,M,1.9,0123*5C
$GPVTG,345.19,T,-294.71,M,003.834,N,007.100,K,D*02
$GPGGA,080622.75,5702.7957012,N,00950.3459894,E,2,5,2.5,-3.256,M,40.592,M,1.9,0123*5F
$GPVTG,346.50,T,-293.40,M,003.858,N,007.145,K,D*02
$GPGGA,080622.80,5702.7957518,N,00950.3459718,E,2,5,2.5,-3.265,M,40.592,M,1.9,0123*51
$GPVTG,348.03,T,-291.87,M,003.827,N,007.088,K,D*0B
$GPGGA,080622.85,5702.7958068,N,00950.3459543,E,2,5,2.5,-3.234,M,40.592,M,2.1,0123*5A
$GPVTG,349.35,T,-290.55,M,003.825,N,007.083,K,D*08
$GPGGA,080622.90,5702.7958595,N,00950.3459420,E,2,5,2.5,-3.238,M,40.592,M,2.1,0123*51
$GPVTG,351.07,T,-288.83,M,003.823,N,007.080,K,D*07
$GPGGA,080622.95,5702.7959151,N,00950.3459322,E,2,5,2.5,-3.240,M,40.592,M,2.1,0123*53
$GPVTG,352.91,T,-286.99,M,003.864,N,007.156,K,D*07
$GPGGA,080623.00,5702.7959666,N,00950.3459203,E,2,5,2.5,-3.241,M,40.592,M,2.1,0123*5E
$GPVTG,354.01,T,-285.89,M,003.848,N,007.126,K,D*03
$GPGGA,080623.05,5702.7960156,N,00950.3459122,E,2,5,2.5,-3.244,M,40.592,M,2.3,0123*52
$GPVTG,355.34,T,-284.56,M,003.813,N,007.062,K,D*08
$GPGGA,080623.10,5702.7960672,N,00950.3459066,E,2,5,2.5,-3.242,M,40.592,M,2.3,0123*50
$GPVTG,356.77,T,-283.13,M,003.796,N,007.031,K,D*0E
$GPGGA,080623.15,5702.7961184,N,00950.3459029,E,2,5,2.5,-3.239,M,40.592,M,2.3,0123*5D
$GPVTG,358.14,T,-281.76,M,003.776,N,006.993,K,D*0A
$GPGGA,080623.20,5702.7961694,N,00950.3458979,E,2,5,2.5,-3.232,M,40.592,M,2.3,0123*5B
$GPVTG,358.99,T,-280.91,M,003.759,N,006.962,K,D*04
$GPGGA,080623.25,5702.7962203,N,00950.3458912,E,2,5,2.5,-3.207,M,40.592,M,2.5,0123*5A
$GPVTG,359.07,T,-280.83,M,003.732,N,006.912,K,D*0B
$GPGGA,080623.30,5702.7962702,N,00950.3458867,E,2,5,2.5,-3.196,M,40.592,M,2.5,0123*52
$GPVTG,359.60,T,-280.30,M,003.702,N,006.856,K,D*00
$GPGGA,080623.35,5702.7963179,N,00950.3458839,E,2,5,2.5,-3.189,M,40.592,M,2.5,0123*59
$GPVTG,000.20,T,-639.70,M,003.643,N,006.747,K,D*02
$GPGGA,080623.40,5702.7963695,N,00950.3458797,E,2,5,2.5,-3.179,M,40.592,M,2.5,0123*5A
$GPVTG,000.41,T,-639.49,M,003.652,N,006.764,K,D*0E
$GPGGA,080623.45,5702.7963985,N,00950.3458756,E,2,5,2.5,-3.221,M,40.592,M,2.7,0123*50
$GPVTG,359.84,T,-280.06,M,003.443,N,006.377,K,D*01
$GPGGA,080623.50,5702.7964439,N,00950.3458745,E,2,5,2.5,-3.222,M,40.592,M,2.7,0123*58
$GPVTG,000.19,T,-639.71,M,003.369,N,006.239,K,D*08
$GPGGA,080623.55,5702.7964909,N,00950.3458754,E,2,5,2.5,-3.225,M,40.592,M,2.7,0123*54
$GPVTG,000.95,T,-638.95,M,003.344,N,006.193,K,D*0B
$GPGGA,080623.60,5702.7965363,N,00950.3458777,E,2,5,2.5,-3.228,M,40.592,M,2.7,0123*59
$GPVTG,001.80,T,-638.10,M,003.300,N,006.112,K,D*0A
$GPGGA,080623.65,5702.7965804,N,00950.3458830,E,2,5,2.5,-3.224,M,40.592,M,3.0,0123*50
$GPVTG,002.53,T,-637.37,M,003.226,N,005.974,K,D*03
$GPGGA,080623.70,5702.7966250,N,00950.3458863,E,2,5,2.5,-3.232,M,40.592,M,3.0,0123*5D
$GPVTG,003.12,T,-636.78,M,003.190,N,005.908,K,D*08
$GPGGA,080623.75,5702.7966744,N,00950.3458891,E,2,5,2.5,-3.240,M,40.592,M,3.0,0123*50
$GPVTG,003.28,T,-636.62,M,003.243,N,006.005,K,D*00
$GPGGA,080623.80,5702.7967245,N,00950.3458961,E,2,5,2.5,-3.254,M,40.592,M,3.0,0123*54
$GPVTG,004.27,T,-635.63,M,003.304,N,006.119,K,D*04
$GPGGA,080623.85,5702.7967779,N,00950.3459125,E,2,5,2.5,-3.246,M,40.592,M,3.2,0123*53
$GPVTG,006.91,T,-632.99,M,003.328,N,006.164,K,D*0D
$GPGGA,080623.90,5702.7968266,N,00950.3459275,E,2,5,2.5,-3.258,M,40.592,M,3.2,0123*5A
$GPVTG,008.72,T,-631.18,M,003.383,N,006.266,K,D*04
$GPGGA,080623.95,5702.7968709,N,00950.3459447,E,2,5,2.5,-3.273,M,40.592,M,3.2,0123*5D
$GPVTG,010.72,T,-629.18,M,003.361,N,006.225,K,D*0F
$GPGGA,080624.00,5702.7969151,N,00950.3459621,E,2,5,2.5,-3.285,M,40.592,M,3.2,0123*57
$GPVTG,012.22,T,-627.68,M,003.343,N,006.191,K,D*0D
$GPGGA,080624.05,5702.7969728,N,00950.3459874,E,2,5,2.5,-3.258,M,40.592,M,2.3,0123*54
$GPVTG,014.24,T,-625.66,M,003.405,N,006.306,K,D*08
$GPGGA,080624.10,5702.7970189,N,00950.3460082,E,2,5,2.5,-3.271,M,40.592,M,2.3,0123*55
$GPVTG,015.32,T,-624.58,M,003.419,N,006.332,K,D*08
$GPGGA,080624.15,5702.7970652,N,00950.3460290,E,2,5,2.5,-3.282,M,40.592,M,2.3,0123*5C
$GPVTG,015.94,T,-623.96,M,003.433,N,006.358,K,D*05
$GPGGA,080624.20,5702.7971126,N,00950.3460563,E,2,5,2.5,-3.290,M,40.592,M,2.3,0123*57
$GPVTG,017.52,T,-622.38,M,003.484,N,006.452,K,D*09
$GPGGA,080624.25,5702.7971608,N,00950.3460866,E,2,5,2.5,-3.288,M,40.592,M,2.6,0123*5D
$GPVTG,019.07,T,-620.83,M,003.518,N,006.515,K,D*03
$GPGGA,080624.30,5702.7972040,N,00950.3461167,E,2,5,2.5,-3.296,M,40.592,M,2.6,0123*56
$GPVTG,020.62,T,-619.28,M,003.496,N,006.474,K,D*00
$GPGGA,080624.35,5702.7972484,N,00950.3461492,E,2,5,2.5,-3.306,M,40.592,M,2.6,0123*58
$GPVTG,022.05,T,-617.85,M,003.505,N,006.491,K,D*0A
$GPGGA,080624.40,5702.7972900,N,00950.3461825,E,2,5,2.5,-3.309,M,40.592,M,2.6,0123*54
$GPVTG,023.48,T,-616.42,M,003.472,N,006.430,K,D*02
$GPGGA,080624.45,5702.7973311,N,00950.3462176,E,2,5,2.5,-3.302,M,40.592,M,2.8,0123*53
$GPVTG,024.39,T,-615.51,M,003.435,N,006.362,K,D*01
$GPGGA,080624.50,5702.7973775,N,00950.3462483,E,2,5,2.5,-3.307,M,40.592,M,2.8,0123*5B
$GPVTG,024.03,T,-615.87,M,003.462,N,006.412,K,D*01
$GPGGA,080624.55,5702.7974205,N,00950.3462842,E,2,5,2.5,-3.306,M,40.592,M,2.8,0123*5B
$GPVTG,024.96,T,-614.94,M,003.459,N,006.407,K,D*02
$GPGGA,080624.60,5702.7974598,N,00950.3463250,E,2,5,2.5,-3.305,M,40.592,M,2.8,0123*55
$GPVTG,027.00,T,-612.90,M,003.430,N,006.352,K,D*04
$GPGGA,080624.65,5702.7974883,N,00950.3463678,E,2,5,2.5,-3.316,M,40.592,M,3.1,0123*53
$GPVTG,029.19,T,-610.71,M,003.319,N,006.147,K,D*05
$GPGGA,080624.70,5702.7975290,N,00950.3464048,E,2,5,2.5,-3.323,M,40.592,M,3.1,0123*5A
$GPVTG,029.43,T,-610.47,M,003.295,N,006.103,K,D*0A
$GPGGA,080624.75,5702.7975675,N,00950.3464434,E,2,5,2.5,-3.326,M,40.592,M,3.1,0123*5A
$GPVTG,030.06,T,-609.84,M,003.253,N,006.025,K,D*0B
$GPGGA,080624.80,5702.7976030,N,00950.3464822,E,2,5,2.5,-3.325,M,40.592,M,3.1,0123*5C
$GPVTG,030.96,T,-608.94,M,003.177,N,005.883,K,D*00
$GPGGA,080624.85,5702.7976383,N,00950.3465289,E,2,5,2.5,-3.307,M,40.592,M,3.3,0123*5A
$GPVTG,033.17,T,-606.73,M,003.123,N,005.784,K,D*04
$GPGGA,080624.90,5702.7976769,N,00950.3465716,E,2,5,2.5,-3.309,M,40.592,M,3.3,0123*53
$GPVTG,033.67,T,-606.23,M,003.134,N,005.804,K,D*07
$GPGGA,080624.95,5702.7977124,N,00950.3466099,E,2,5,2.5,-3.310,M,40.592,M,3.3,0123*53
$GPVTG,033.61,T,-606.29,M,003.067,N,005.679,K,D*08
$GPGGA,080625.00,5702.7977457,N,00950.3466549,E,2,5,2.5,-3.311,M,40.592,M,3.3,0123*56
$GPVTG,035.19,T,-604.71,M,003.030,N,005.611,K,D*02
$GPGGA,080625.05,5702.7977803,N,00950.3467001,E,2,5,2.5,-3.307,M,40.592,M,2.4,0123*57
$GPVTG,036.18,T,-603.72,M,002.999,N,005.553,K,D*0A
$GPGGA,080625.10,5702.7978139,N,00950.3467473,E,2,5,2.5,-3.310,M,40.592,M,2.4,0123*5B
$GPVTG,037.41,T,-602.49,M,002.987,N,005.533,K,D*07
$GPGGA,080625.15,5702.7978487,N,00950.3468025,E,2,5,2.5,-3.317,M,40.592,M,2.4,0123*51
$GPVTG,039.28,T,-600.62,M,003.038,N,005.626,K,D*06
$GPGGA,080625.20,5702.7978813,N,00950.3468494,E,2,5,2.5,-3.324,M,40.592,M,2.4,0123*58
$GPVTG,040.11,T,-599.79,M,003.017,N,005.587,K,D*0E
$GPGGA,080625.25,5702.7979277,N,00950.3469016,E,2,5,2.5,-3.297,M,40.592,M,2.7,0123*51
$GPVTG,039.66,T,-600.24,M,003.080,N,005.705,K,D*0D
$GPGGA,080625.30,5702.7979574,N,00950.3469563,E,2,5,2.5,-3.303,M,40.592,M,2.7,0123*5A
$GPVTG,042.22,T,-597.68,M,003.078,N,005.701,K,D*07
$GPGGA,080625.35,5702.7979860,N,00950.3470100,E,2,5,2.5,-3.312,M,40.592,M,2.7,0123*5E
$GPVTG,044.11,T,-595.79,M,003.050,N,005.649,K,D*04
$GPGGA,080625.40,5702.7980175,N,00950.3470678,E,2,5,2.5,-3.328,M,40.592,M,2.7,0123*56
$GPVTG,045.63,T,-594.27,M,003.100,N,005.740,K,D*06
$GPGGA,080625.45,5702.7980624,N,00950.3471294,E,2,5,2.5,-3.295,M,40.592,M,2.9,0123*5E
$GPVTG,046.96,T,-592.94,M,003.168,N,005.866,K,D*04
$GPGGA,080625.50,5702.7980958,N,00950.3471865,E,2,5,2.5,-3.301,M,40.592,M,2.9,0123*56
$GPVTG,046.98,T,-592.92,M,003.206,N,005.938,K,D*0D
$GPGGA,080625.55,5702.7981256,N,00950.3472434,E,2,5,2.5,-3.310,M,40.592,M,2.9,0123*5C
$GPVTG,047.60,T,-592.30,M,003.190,N,005.909,K,D*0D
$GPGGA,080625.60,5702.7981560,N,00950.3473068,E,2,5,2.5,-3.320,M,40.592,M,2.9,0123*57
$GPVTG,048.90,T,-591.00,M,003.243,N,006.005,K,D*06
$GPGGA,080625.65,5702.7981920,N,00950.3473751,E,2,5,2.5,-3.308,M,40.592,M,3.2,0123*57
$GPVTG,050.42,T,-589.48,M,003.309,N,006.128,K,D*04
$GPGGA,080625.70,5702.7982169,N,00950.3474384,E,2,5,2.5,-3.313,M,40.592,M,3.2,0123*54
$GPVTG,052.17,T,-587.73,M,003.272,N,006.060,K,D*00
$GPGGA,080625.75,5702.7982468,N,00950.3475035,E,2,5,2.5,-3.318,M,40.592,M,3.2,0123*56
$GPVTG,052.62,T,-587.28,M,003.305,N,006.120,K,D*08
$GPGGA,080625.80,5702.7982747,N,00950.3475683,E,2,5,2.5,-3.325,M,40.592,M,3.2,0123*57
$GPVTG,053.25,T,-586.65,M,003.305,N,006.120,K,D*02
$GPGGA,080625.85,5702.7982974,N,00950.3476397,E,2,5,2.5,-3.322,M,40.592,M,3.4,0123*5E
$GPVTG,055.78,T,-584.12,M,003.288,N,006.090,K,D*00
$GPGGA,080625.90,5702.7983183,N,00950.3477084,E,2,5,2.5,-3.326,M,40.592,M,3.4,0123*5F
$GPVTG,057.95,T,-581.95,M,003.255,N,006.029,K,D*09
$GPGGA,080625.95,5702.7983432,N,00950.3477702,E,2,5,2.5,-3.334,M,40.592,M,3.4,0123*5F
$GPVTG,057.84,T,-582.06,M,003.183,N,005.895,K,D*04
$GPGGA,080626.00,5702.7983650,N,00950.3478372,E,2,5,2.5,-3.337,M,40.592,M,3.4,0123*59
$GPVTG,059.04,T,-580.86,M,003.152,N,005.838,K,D*03
$GPGGA,080626.05,5702.7983897,N,00950.3479090,E,2,5,2.5,-3.320,M,40.592,M,1.2,0123*55
$GPVTG,060.54,T,-579.36,M,003.163,N,005.857,K,D*0A
$GPGGA,080626.10,5702.7984082,N,00950.3479769,E,2,5,2.5,-3.322,M,40.592,M,1.2,0123*59
$GPVTG,062.07,T,-577.83,M,003.138,N,005.812,K,D*01
$GPGGA,080626.15,5702.7984279,N,00950.3480452,E,2,5,2.5,-3.320,M,40.592,M,1.2,0123*55
$GPVTG,063.22,T,-576.68,M,003.122,N,005.783,K,D*0F
$GPGGA,080626.20,5702.7984464,N,00950.3481121,E,2,5,2.5,-3.315,M,40.592,M,1.2,0123*5F
$GPVTG,064.29,T,-575.61,M,003.092,N,005.727,K,D*0D
$GPGGA,080626.25,5702.7984610,N,00950.3481825,E,2,5,2.5,-3.313,M,40.592,M,1.5,0123*57
$GPVTG,065.96,T,-573.94,M,003.053,N,005.654,K,D*0C
$GPGGA,080626.30,5702.7984743,N,00950.3482513,E,2,5,2.5,-3.313,M,40.592,M,1.5,0123*5F
$GPVTG,067.98,T,-571.92,M,003.008,N,005.571,K,D*0E
$GPGGA,080626.35,5702.7984871,N,00950.3483195,E,2,5,2.5,-3.313,M,40.592,M,1.5,0123*5F
$GPVTG,069.79,T,-570.11,M,002.964,N,005.489,K,D*01
$GPGGA,080626.40,5702.7985010,N,00950.3483905,E,2,5,2.5,-3.309,M,40.592,M,1.5,0123*59
$GPVTG,071.17,T,-568.73,M,002.955,N,005.473,K,D*0A
$GPGGA,080626.45,5702.7985170,N,00950.3484651,E,2,5,2.5,-3.290,M,40.592,M,1.7,0123*51
$GPVTG,072.04,T,-567.86,M,002.941,N,005.447,K,D*0C
$GPGGA,080626.50,5702.7985296,N,00950.3485357,E,2,5,2.5,-3.289,M,40.592,M,1.7,0123*54
$GPVTG,073.06,T,-566.84,M,002.924,N,005.415,K,D*08
$GPGGA,080626.55,5702.7985387,N,00950.3486051,E,2,5,2.5,-3.289,M,40.592,M,1.7,0123*56
$GPVTG,075.33,T,-564.57,M,002.875,N,005.325,K,D*05
$GPGGA,080626.60,5702.7985455,N,00950.3486773,E,2,5,2.5,-3.288,M,40.592,M,1.7,0123*5E
$GPVTG,078.09,T,-561.81,M,002.870,N,005.316,K,D*0A
$GPGGA,080626.65,5702.7985639,N,00950.3487581,E,2,5,2.5,-3.252,M,40.592,M,1.9,0123*54
$GPVTG,078.71,T,-561.19,M,002.948,N,005.460,K,D*08
$GPGGA,080626.70,5702.7985718,N,00950.3488293,E,2,5,2.5,-3.254,M,40.592,M,1.9,0123*5F
$GPVTG,079.90,T,-560.00,M,002.923,N,005.413,K,D*06
$GPGGA,080626.75,5702.7985803,N,00950.3489033,E,2,5,2.5,-3.259,M,40.592,M,1.9,0123*5B
$GPVTG,080.65,T,-559.25,M,002.941,N,005.447,K,D*02
$GPGGA,080626.80,5702.7985895,N,00950.3489798,E,2,5,2.5,-3.261,M,40.592,M,1.9,0123*53
$GPVTG,080.88,T,-559.02,M,002.991,N,005.539,K,D*01
$GPGGA,080626.85,5702.7986018,N,00950.3490590,E,2,5,2.5,-3.247,M,40.592,M,2.1,0123*55
$GPVTG,082.13,T,-557.77,M,002.998,N,005.553,K,D*08
$GPGGA,080626.90,5702.7986079,N,00950.3491374,E,2,5,2.5,-3.255,M,40.592,M,2.1,0123*58
$GPVTG,083.02,T,-556.88,M,003.049,N,005.648,K,D*05
$GPGGA,080626.95,5702.7986108,N,00950.3492145,E,2,5,2.5,-3.263,M,40.592,M,2.1,0123*5C
$GPVTG,084.85,T,-555.05,M,003.064,N,005.675,K,D*0A
$GPGGA,080627.00,5702.7986134,N,00950.3492941,E,2,5,2.5,-3.274,M,40.592,M,2.1,0123*54
$GPVTG,086.35,T,-553.55,M,003.107,N,005.755,K,D*07
$GPGGA,080627.05,5702.7986136,N,00950.3493753,E,2,5,2.5,-3.291,M,40.592,M,2.3,0123*56
$GPVTG,088.70,T,-551.20,M,003.121,N,005.780,K,D*04
$GPGGA,080627.10,5702.7986149,N,00950.3494564,E,2,5,2.5,-3.301,M,40.592,M,2.3,0123*53
$GPVTG,089.73,T,-550.17,M,003.167,N,005.866,K,D*06
$GPGGA,080627.15,5702.7986147,N,00950.3495320,E,2,5,2.5,-3.315,M,40.592,M,2.3,0123*5A
$GPVTG,090.99,T,-548.91,M,003.129,N,005.796,K,D*07
$GPGGA,080627.20,5702.7986153,N,00950.3496059,E,2,5,2.5,-3.326,M,40.592,M,2.3,0123*57
$GPVTG,091.63,T,-548.27,M,003.072,N,005.690,K,D*06
$GPGGA,080627.25,5702.7986234,N,00950.3496836,E,2,5,2.5,-3.299,M,40.592,M,2.5,0123*52
$GPVTG,093.17,T,-546.73,M,003.086,N,005.715,K,D*0F
$GPGGA,080627.30,5702.7986204,N,00950.3497694,E,2,5,2.5,-3.303,M,40.592,M,2.5,0123*50
$GPVTG,094.40,T,-545.50,M,003.156,N,005.845,K,D*0E
$GPGGA,080627.35,5702.7986177,N,00950.3498455,E,2,5,2.5,-3.306,M,40.592,M,2.5,0123*57
$GPVTG,095.28,T,-544.62,M,003.142,N,005.819,K,D*0D
$GPGGA,080627.40,5702.7986110,N,00950.3499193,E,2,5,2.5,-3.308,M,40.592,M,2.5,0123*54
$GPVTG,097.30,T,-542.60,M,003.111,N,005.761,K,D*04
$GPGGA,080627.45,5702.7986014,N,00950.3499831,E,2,5,2.5,-3.332,M,40.592,M,2.7,0123*5E
$GPVTG,100.09,T,-539.81,M,003.040,N,005.630,K,D*02
$GPGGA,080627.50,5702.7985897,N,00950.3500529,E,2,5,2.5,-3.335,M,40.592,M,2.7,0123*58
$GPVTG,103.19,T,-536.71,M,003.003,N,005.562,K,D*03
$GPGGA,080627.55,5702.7985801,N,00950.3501192,E,2,5,2.5,-3.332,M,40.592,M,2.7,0123*50
$GPVTG,105.13,T,-534.77,M,002.932,N,005.430,K,D*07
$GPGGA,080627.60,5702.7985668,N,00950.3501911,E,2,5,2.5,-3.330,M,40.592,M,2.7,0123*56
$GPVTG,107.68,T,-532.22,M,002.942,N,005.449,K,D*06
$GPGGA,080627.65,5702.7985540,N,00950.3502488,E,2,5,2.5,-3.334,M,40.592,M,3.0,0123*56
$GPVTG,111.04,T,-528.86,M,002.895,N,005.361,K,D*08
$GPGGA,080627.70,5702.7985423,N,00950.3503086,E,2,5,2.5,-3.334,M,40.592,M,3.0,0123*5D
$GPVTG,112.63,T,-527.27,M,002.792,N,005.171,K,D*05
$GPGGA,080627.75,5702.7985239,N,00950.3503750,E,2,5,2.5,-3.335,M,40.592,M,3.0,0123*58
$GPVTG,115.66,T,-524.24,M,002.820,N,005.223,K,D*05
$GPGGA,080627.80,5702.7985059,N,00950.3504426,E,2,5,2.5,-3.335,M,40.592,M,3.0,0123*53
$GPVTG,117.71,T,-522.19,M,002.857,N,005.291,K,D*00
$GPGGA,080627.85,5702.7984938,N,00950.3505017,E,2,5,2.5,-3.333,M,40.592,M,3.2,0123*5A
$GPVTG,119.55,T,-520.35,M,002.809,N,005.202,K,D*05
$GPGGA,080627.90,5702.7984757,N,00950.3505663,E,2,5,2.5,-3.339,M,40.592,M,3.2,0123*56
$GPVTG,121.17,T,-518.73,M,002.822,N,005.226,K,D*0E
$GPGGA,080627.95,5702.7984563,N,00950.3506319,E,2,5,2.5,-3.349,M,40.592,M,3.2,0123*5A
$GPVTG,122.61,T,-517.29,M,002.849,N,005.277,K,D*05
$GPGGA,080628.00,5702.7984423,N,00950.3506891,E,2,5,2.5,-3.356,M,40.592,M,3.2,0123*59
$GPVTG,123.17,T,-516.73,M,002.788,N,005.164,K,D*08
$GPGGA,080628.05,5702.7984344,N,00950.3507827,E,2,5,2.5,-3.317,M,40.592,M,2.3,0123*53
$GPVTG,123.13,T,-516.77,M,002.871,N,005.316,K,D*06
$GPGGA,080628.10,5702.7984130,N,00950.3508479,E,2,5,2.5,-3.323,M,40.592,M,2.3,0123*59
$GPVTG,124.15,T,-515.75,M,002.905,N,005.380,K,D*0B
$GPGGA,080628.15,5702.7983919,N,00950.3509072,E,2,5,2.5,-3.328,M,40.592,M,2.3,0123*5D
$GPVTG,125.38,T,-514.52,M,002.901,N,005.372,K,D*08
$GPGGA,080628.20,5702.7983661,N,00950.3509714,E,2,5,2.5,-3.335,M,40.592,M,2.3,0123*50
$GPVTG,126.85,T,-513.05,M,002.958,N,005.477,K,D*06
$GPGGA,080628.25,5702.7983414,N,00950.3510379,E,2,5,2.5,-3.358,M,40.592,M,2.6,0123*5C
$GPVTG,127.79,T,-512.11,M,002.993,N,005.543,K,D*01
$GPGGA,080628.30,5702.7983193,N,00950.3511002,E,2,5,2.5,-3.372,M,40.592,M,2.6,0123*54
$GPVTG,128.19,T,-511.71,M,003.001,N,005.558,K,D*04
$GPGGA,080628.35,5702.7982972,N,00950.3511617,E,2,5,2.5,-3.386,M,40.592,M,2.6,0123*5E
$GPVTG,128.55,T,-511.35,M,003.004,N,005.563,K,D*01
$GPGGA,080628.40,5702.7982712,N,00950.3512222,E,2,5,2.5,-3.400,M,40.592,M,2.6,0123*5C
$GPVTG,129.58,T,-510.32,M,003.029,N,005.610,K,D*03
$GPGGA,080628.45,5702.7982525,N,00950.3513043,E,2,5,2.5,-3.382,M,40.592,M,2.8,0123*58
$GPVTG,129.99,T,-509.91,M,003.076,N,005.697,K,D*0A
$GPGGA,080628.50,5702.7982232,N,00950.3513651,E,2,5,2.5,-3.392,M,40.592,M,2.8,0123*59
$GPVTG,131.22,T,-508.68,M,003.120,N,005.778,K,D*06
$GPGGA,080628.55,5702.7981975,N,00950.3514211,E,2,5,2.5,-3.400,M,40.592,M,2.8,0123*5C
$GPVTG,132.04,T,-507.86,M,003.109,N,005.758,K,D*07
$GPGGA,080628.60,5702.7981692,N,00950.3514736,E,2,5,2.5,-3.403,M,40.592,M,2.8,0123*5F
$GPVTG,133.39,T,-506.51,M,003.103,N,005.747,K,D*07
$GPGGA,080628.65,5702.7981382,N,00950.3515207,E,2,5,2.5,-3.411,M,40.592,M,3.1,0123*53
$GPVTG,135.09,T,-504.81,M,003.115,N,005.768,K,D*07
$GPGGA,080628.70,5702.7981048,N,00950.3515801,E,2,5,2.5,-3.417,M,40.592,M,3.1,0123*58
$GPVTG,136.19,T,-503.71,M,003.174,N,005.879,K,D*05
$GPGGA,080628.75,5702.7980752,N,00950.3516273,E,2,5,2.5,-3.421,M,40.592,M,3.1,0123*59
$GPVTG,137.53,T,-502.37,M,003.156,N,005.844,K,D*07
$GPGGA,080628.80,5702.7980437,N,00950.3516755,E,2,5,2.5,-3.424,M,40.592,M,3.1,0123*57
$GPVTG,138.84,T,-501.06,M,003.156,N,005.846,K,D*01
$GPGGA,080628.85,5702.7980145,N,00950.3517156,E,2,5,2.5,-3.436,M,40.592,M,3.3,0123*57
$GPVTG,140.53,T,-499.37,M,003.145,N,005.824,K,D*00
$GPGGA,080628.90,5702.7979800,N,00950.3517626,E,2,5,2.5,-3.437,M,40.592,M,3.3,0123*5C
$GPVTG,141.91,T,-497.99,M,003.164,N,005.860,K,D*06
$GPGGA,080628.95,5702.7979426,N,00950.3518104,E,2,5,2.5,-3.441,M,40.592,M,3.3,0123*58
$GPVTG,143.31,T,-496.59,M,003.205,N,005.936,K,D*05
$GPGGA,080629.00,5702.7979087,N,00950.3518566,E,2,5,2.5,-3.441,M,40.592,M,3.3,0123*5A
$GPVTG,144.34,T,-495.56,M,003.216,N,005.956,K,D*0F
$GPGGA,080629.05,5702.7978759,N,00950.3518982,E,2,5,2.5,-3.452,M,40.592,M,2.4,0123*58
$GPVTG,145.85,T,-494.06,M,003.240,N,006.000,K,D*0A
$GPGGA,080629.10,5702.7978404,N,00950.3519361,E,2,5,2.5,-3.458,M,40.592,M,2.4,0123*5B
$GPVTG,147.30,T,-492.60,M,003.237,N,005.994,K,D*07
$GPGGA,080629.15,5702.7978020,N,00950.3519742,E,2,5,2.5,-3.466,M,40.592,M,2.4,0123*54
$GPVTG,148.76,T,-491.14,M,003.256,N,006.030,K,D*09
$GPGGA,080629.20,5702.7977655,N,00950.3520077,E,2,5,2.5,-3.471,M,40.592,M,2.4,0123*54
$GPVTG,150.24,T,-489.66,M,003.253,N,006.025,K,D*0A
$GPGGA,080629.25,5702.7977289,N,00950.3520352,E,2,5,2.5,-3.464,M,40.592,M,2.7,0123*57
$GPVTG,152.03,T,-487.87,M,003.243,N,006.007,K,D*0D
$GPGGA,080629.30,5702.7976917,N,00950.3520675,E,2,5,2.5,-3.473,M,40.592,M,2.7,0123*58
$GPVTG,153.34,T,-486.56,M,003.244,N,006.007,K,D*02
$GPGGA,080629.35,5702.7976511,N,00950.3521059,E,2,5,2.5,-3.480,M,40.592,M,2.7,0123*52
$GPVTG,154.31,T,-485.59,M,003.279,N,006.073,K,D*01
$GPGGA,080629.40,5702.7976083,N,00950.3521450,E,2,5,2.5,-3.493,M,40.592,M,2.7,0123*51
$GPVTG,155.23,T,-484.67,M,003.327,N,006.162,K,D*04
$GPGGA,080629.45,5702.7975744,N,00950.3521855,E,2,5,2.5,-3.487,M,40.592,M,2.9,0123*59
$GPVTG,156.41,T,-483.49,M,003.324,N,006.156,K,D*0C
$GPGGA,080629.50,5702.7975324,N,00950.3522168,E,2,5,2.5,-3.498,M,40.592,M,2.9,0123*55
$GPVTG,157.55,T,-482.35,M,003.351,N,006.206,K,D*06
$GPGGA,080629.55,5702.7974898,N,00950.3522426,E,2,5,2.5,-3.510,M,40.592,M,2.9,0123*53
$GPVTG,158.91,T,-480.99,M,003.373,N,006.248,K,D*0F
$GPGGA,080629.60,5702.7974459,N,00950.3522699,E,2,5,2.5,-3.521,M,40.592,M,2.9,0123*50
$GPVTG,160.09,T,-479.81,M,003.404,N,006.305,K,D*05
$GPGGA,080629.65,5702.7974058,N,00950.3522940,E,2,5,2.5,-3.504,M,40.592,M,3.2,0123*56
$GPVTG,161.60,T,-478.30,M,003.406,N,006.309,K,D*0E
$GPGGA,080629.70,5702.7973629,N,00950.3523182,E,2,5,2.5,-3.514,M,40.592,M,3.2,0123*53
$GPVTG,162.68,T,-477.22,M,003.425,N,006.344,K,D*01
$GPGGA,080629.75,5702.7973193,N,00950.3523431,E,2,5,2.5,-3.525,M,40.592,M,3.2,0123*5F
$GPVTG,163.63,T,-476.27,M,003.449,N,006.387,K,D*0A
$GPGGA,080629.80,5702.7972747,N,00950.3523668,E,2,5,2.5,-3.533,M,40.592,M,3.2,0123*52
$GPVTG,164.58,T,-475.32,M,003.475,N,006.436,K,D*00
$GPGGA,080629.85,5702.7972405,N,00950.3524011,E,2,5,2.5,-3.523,M,40.592,M,3.4,0123*5A
$GPVTG,165.41,T,-474.49,M,003.486,N,006.456,K,D*0E
$GPGGA,080629.90,5702.7971952,N,00950.3524172,E,2,5,2.5,-3.531,M,40.592,M,3.4,0123*55
$GPVTG,166.65,T,-473.25,M,003.507,N,006.494,K,D*00
$GPGGA,080629.95,5702.7971487,N,00950.3524319,E,2,5,2.5,-3.542,M,40.592,M,3.4,0123*5E
$GPVTG,167.86,T,-472.04,M,003.533,N,006.544,K,D*05
$GPGGA,080630.00,5702.7971039,N,00950.3524456,E,2,5,2.5,-3.550,M,40.592,M,3.4,0123*54
$GPVTG,168.97,T,-470.93,M,003.547,N,006.569,K,D*0A
$GPGGA,080630.05,5702.7970600,N,00950.3524702,E,2,5,2.5,-3.550,M,40.592,M,1.2,0123*5A
$GPVTG,169.65,T,-470.25,M,003.602,N,006.671,K,D*03
$GPGGA,080630.10,5702.7970115,N,00950.3524865,E,2,5,2.5,-3.554,M,40.592,M,1.2,0123*57
$GPVTG,170.50,T,-469.40,M,003.635,N,006.733,K,D*05
$GPGGA,080630.15,5702.7969635,N,00950.3524948,E,2,5,2.5,-3.561,M,40.592,M,1.2,0123*57
$GPVTG,171.69,T,-468.21,M,003.659,N,006.777,K,D*02
$GPGGA,080630.20,5702.7969187,N,00950.3524999,E,2,5,2.5,-3.570,M,40.592,M,1.2,0123*53
$GPVTG,172.90,T,-467.00,M,003.661,N,006.781,K,D*09
$GPGGA,080630.25,5702.7968770,N,00950.3525161,E,2,5,2.5,-3.577,M,40.592,M,1.5,0123*57
$GPVTG,173.98,T,-465.92,M,003.694,N,006.841,K,D*00
$GPGGA,080630.30,5702.7968272,N,00950.3525222,E,2,5,2.5,-3.586,M,40.592,M,1.5,0123*5E
$GPVTG,175.00,T,-464.90,M,003.723,N,006.896,K,D*03
$GPGGA,080630.35,5702.7967782,N,00950.3525282,E,2,5,2.5,-3.592,M,40.592,M,1.5,0123*51
$GPVTG,175.92,T,-463.98,M,003.747,N,006.940,K,D*0F
$GPGGA,080630.40,5702.7967286,N,00950.3525293,E,2,5,2.5,-3.598,M,40.592,M,1.5,0123*58
$GPVTG,177.00,T,-462.90,M,003.771,N,006.984,K,D*02
$GPGGA,080630.45,5702.7966874,N,00950.3525279,E,2,5,2.5,-3.608,M,40.592,M,1.7,0123*57
$GPVTG,178.55,T,-461.35,M,003.789,N,007.018,K,D*0B
$GPGGA,080630.50,5702.7966382,N,00950.3525264,E,2,5,2.5,-3.617,M,40.592,M,1.7,0123*53
$GPVTG,179.58,T,-460.32,M,003.807,N,007.050,K,D*04
$GPGGA,080630.55,5702.7965873,N,00950.3525210,E,2,5,2.5,-3.625,M,40.592,M,1.7,0123*52
$GPVTG,180.71,T,-459.19,M,003.835,N,007.102,K,D*0D
$GPGGA,080630.60,5702.7965347,N,00950.3525214,E,2,5,2.5,-3.635,M,40.592,M,1.7,0123*5D
$GPVTG,181.43,T,-458.47,M,003.871,N,007.169,K,D*0A
$GPGGA,080630.65,5702.7964944,N,00950.3525241,E,2,5,2.5,-3.631,M,40.592,M,1.9,0123*5A
$GPVTG,182.63,T,-457.27,M,003.897,N,007.217,K,D*00
$GPGGA,080630.70,5702.7964411,N,00950.3525170,E,2,5,2.5,-3.639,M,40.592,M,1.9,0123*5A
$GPVTG,183.54,T,-456.36,M,003.934,N,007.286,K,D*04
$GPGGA,080630.75,5702.7963903,N,00950.3525023,E,2,5,2.5,-3.643,M,40.592,M,1.9,0123*5C
$GPVTG,184.76,T,-455.14,M,003.956,N,007.326,K,D*0F
$GPGGA,080630.80,5702.7963395,N,00950.3524861,E,2,5,2.5,-3.651,M,40.592,M,1.9,0123*5F
$GPVTG,185.95,T,-453.95,M,003.977,N,007.365,K,D*08
$GPGGA,080630.85,5702.7962959,N,00950.3524826,E,2,5,2.5,-3.652,M,40.592,M,2.1,0123*5A
$GPVTG,186.79,T,-453.11,M,004.015,N,007.436,K,D*0E
$GPGGA,080630.90,5702.7962425,N,00950.3524699,E,2,5,2.5,-3.663,M,40.592,M,2.1,0123*50
$GPVTG,187.60,T,-452.30,M,004.046,N,007.493,K,D*0C
$GPGGA,080630.95,5702.7961911,N,00950.3524472,E,2,5,2.5,-3.670,M,40.592,M,2.1,0123*59
$GPVTG,188.82,T,-451.08,M,004.068,N,007.535,K,D*06
$GPGGA,080631.00,5702.7961408,N,00950.3524209,E,2,5,2.5,-3.676,M,40.592,M,2.1,0123*5D
$GPVTG,190.13,T,-449.77,M,004.085,N,007.566,K,D*03
$GPGGA,080631.05,5702.7961001,N,00950.3524089,E,2,5,2.5,-3.672,M,40.592,M,2.3,0123*59
$GPVTG,191.32,T,-448.58,M,004.106,N,007.603,K,D*07
$GPGGA,080631.10,5702.7960464,N,00950.3523862,E,2,5,2.5,-3.683,M,40.592,M,2.3,0123*5F
$GPVTG,192.22,T,-447.68,M,004.136,N,007.660,K,D*0F
$GPGGA,080631.15,5702.7959930,N,00950.3523594,E,2,5,2.5,-3.690,M,40.592,M,2.3,0123*5A
$GPVTG,193.22,T,-446.68,M,004.167,N,007.718,K,D*05
$GPGGA,080631.20,5702.7959384,N,00950.3523327,E,2,5,2.5,-3.697,M,40.592,M,2.3,0123*50
$GPVTG,194.10,T,-445.80,M,004.204,N,007.785,K,D*04
$GPGGA,080631.25,5702.7958958,N,00950.3522978,E,2,5,2.5,-3.707,M,40.592,M,2.5,0123*50
$GPVTG,195.30,T,-444.60,M,004.241,N,007.853,K,D*0D
$GPGGA,080631.30,5702.7958437,N,00950.3522612,E,2,5,2.5,-3.714,M,40.592,M,2.5,0123*51
$GPVTG,196.34,T,-443.56,M,004.274,N,007.915,K,D*0D
$GPGGA,080631.35,5702.7957912,N,00950.3522225,E,2,5,2.5,-3.720,M,40.592,M,2.5,0123*56
$GPVTG,197.38,T,-442.52,M,004.308,N,007.979,K,D*05
$GPGGA,080631.40,5702.7957410,N,00950.3521870,E,2,5,2.5,-3.730,M,40.592,M,2.5,0123*53
$GPVTG,198.33,T,-441.57,M,004.328,N,008.016,K,D*0A
$GPGGA,080631.45,5702.7957041,N,00950.3521646,E,2,5,2.5,-3.725,M,40.592,M,2.7,0123*5B
$GPVTG,199.45,T,-440.45,M,004.345,N,008.048,K,D*08
$GPGGA,080631.50,5702.7956517,N,00950.3521211,E,2,5,2.5,-3.732,M,40.592,M,2.7,0123*58
$GPVTG,200.56,T,-439.34,M,004.374,N,008.102,K,D*0C
$GPGGA,080631.55,5702.7956026,N,00950.3520717,E,2,5,2.5,-3.739,M,40.592,M,2.7,0123*53
$GPVTG,201.96,T,-437.94,M,004.388,N,008.127,K,D*01
$GPGGA,080631.60,5702.7955547,N,00950.3520233,E,2,5,2.5,-3.746,M,40.592,M,2.7,0123*5F
$GPVTG,203.33,T,-436.57,M,004.389,N,008.128,K,D*0C
$GPGGA,080631.65,5702.7955159,N,00950.3519961,E,2,5,2.5,-3.731,M,40.592,M,3.0,0123*51
$GPVTG,204.57,T,-435.33,M,004.395,N,008.140,K,D*0B
$GPGGA,080631.70,5702.7954652,N,00950.3519510,E,2,5,2.5,-3.739,M,40.592,M,3.0,0123*5A
$GPVTG,205.54,T,-434.36,M,004.396,N,008.141,K,D*0F
$GPGGA,080631.75,5702.7954158,N,00950.3519065,E,2,5,2.5,-3.747,M,40.592,M,3.0,0123*5C
$GPVTG,206.45,T,-433.45,M,004.379,N,008.110,K,D*0A
$GPGGA,080631.80,5702.7953701,N,00950.3518573,E,2,5,2.5,-3.753,M,40.592,M,3.0,0123*5D
$GPVTG,207.73,T,-432.17,M,004.337,N,008.032,K,D*03
$GPGGA,080631.85,5702.7953336,N,00950.3518120,E,2,5,2.5,-3.756,M,40.592,M,3.2,0123*5D
$GPVTG,209.73,T,-430.17,M,004.333,N,008.025,K,D*0D
$GPGGA,080631.90,5702.7952818,N,00950.3517581,E,2,5,2.5,-3.767,M,40.592,M,3.2,0123*5D
$GPVTG,210.65,T,-429.25,M,004.351,N,008.059,K,D*04
$GPGGA,080631.95,5702.7952347,N,00950.3517011,E,2,5,2.5,-3.775,M,40.592,M,3.2,0123*56
$GPVTG,211.98,T,-427.92,M,004.333,N,008.026,K,D*09
$GPGGA,080632.00,5702.7951896,N,00950.3516437,E,2,5,2.5,-3.785,M,40.592,M,3.2,0123*53
$GPVTG,213.34,T,-426.56,M,004.297,N,007.958,K,D*04
$GPGGA,080632.05,5702.7951529,N,00950.3516028,E,2,5,2.5,-3.775,M,40.592,M,2.3,0123*5A
$GPVTG,214.64,T,-425.26,M,004.264,N,007.897,K,D*0C
$GPGGA,080632.10,5702.7951070,N,00950.3515421,E,2,5,2.5,-3.784,M,40.592,M,2.3,0123*57
$GPVTG,215.82,T,-424.08,M,004.249,N,007.869,K,D*06
$GPGGA,080632.15,5702.7950634,N,00950.3514778,E,2,5,2.5,-3.795,M,40.592,M,2.3,0123*5B
$GPVTG,217.32,T,-422.58,M,004.228,N,007.830,K,D*07
$GPGGA,080632.20,5702.7950154,N,00950.3514204,E,2,5,2.5,-3.810,M,40.592,M,2.3,0123*50
$GPVTG,217.63,T,-422.27,M,004.222,N,007.820,K,D*00
$GPGGA,080632.25,5702.7949794,N,00950.3513641,E,2,5,2.5,-3.806,M,40.592,M,2.6,0123*57
$GPVTG,219.39,T,-420.51,M,004.244,N,007.860,K,D*06
$GPGGA,080632.30,5702.7949339,N,00950.3512943,E,2,5,2.5,-3.814,M,40.592,M,2.6,0123*5F
$GPVTG,220.50,T,-419.40,M,004.265,N,007.900,K,D*0D
$GPGGA,080632.35,5702.7948874,N,00950.3512373,E,2,5,2.5,-3.827,M,40.592,M,2.6,0123*50
$GPVTG,220.37,T,-419.53,M,004.235,N,007.844,K,D*0A
$GPGGA,080632.40,5702.7948448,N,00950.3511684,E,2,5,2.5,-3.835,M,40.592,M,2.6,0123*5C
$GPVTG,221.44,T,-418.46,M,004.225,N,007.824,K,D*0D
$GPGGA,080632.45,5702.7948143,N,00950.3511194,E,2,5,2.5,-3.818,M,40.592,M,2.8,0123*50
$GPVTG,222.64,T,-417.26,M,004.229,N,007.832,K,D*0E
$GPGGA,080632.50,5702.7947699,N,00950.3510474,E,2,5,2.5,-3.828,M,40.592,M,2.8,0123*52
$GPVTG,223.37,T,-416.53,M,004.249,N,007.869,K,D*02
$GPGGA,080632.55,5702.7947227,N,00950.3509796,E,2,5,2.5,-3.838,M,40.592,M,2.8,0123*50
$GPVTG,223.33,T,-416.57,M,004.271,N,007.910,K,D*06
$GPGGA,080632.60,5702.7946844,N,00950.3508999,E,2,5,2.5,-3.843,M,40.592,M,2.8,0123*54
$GPVTG,225.04,T,-414.86,M,004.268,N,007.905,K,D*06
$GPGGA,080632.65,5702.7946527,N,00950.3508408,E,2,5,2.5,-3.845,M,40.592,M,3.1,0123*52
$GPVTG,225.86,T,-414.04,M,004.279,N,007.925,K,D*04
$GPGGA,080632.70,5702.7946129,N,00950.3507610,E,2,5,2.5,-3.854,M,40.592,M,3.1,0123*58
$GPVTG,226.99,T,-412.91,M,004.291,N,007.946,K,D*00
$GPGGA,080632.75,5702.7945726,N,00950.3506856,E,2,5,2.5,-3.861,M,40.592,M,3.1,0123*5C
$GPVTG,227.62,T,-412.28,M,004.282,N,007.930,K,D*04
$GPGGA,080632.80,5702.7945335,N,00950.3505973,E,2,5,2.5,-3.866,M,40.592,M,3.1,0123*52
$GPVTG,229.05,T,-410.85,M,004.330,N,008.019,K,D*0B
$GPGGA,080632.85,5702.7945022,N,00950.3505425,E,2,5,2.5,-3.851,M,40.592,M,3.3,0123*5A
$GPVTG,229.10,T,-410.80,M,004.343,N,008.043,K,D*01
$GPGGA,080632.90,5702.7944607,N,00950.3504552,E,2,5,2.5,-3.858,M,40.592,M,3.3,0123*57
$GPVTG,229.86,T,-410.04,M,004.398,N,008.146,K,D*00
$GPGGA,080632.95,5702.7944312,N,00950.3503660,E,2,5,2.5,-3.867,M,40.592,M,3.3,0123*5A
$GPVTG,232.05,T,-407.85,M,004.365,N,008.084,K,D*03
$GPGGA,080633.00,5702.7944004,N,00950.3502758,E,2,5,2.5,-3.874,M,40.592,M,3.3,0123*5A
$GPVTG,233.91,T,-405.99,M,004.353,N,008.061,K,D*0E
$GPGGA,080633.05,5702.7943764,N,00950.3502030,E,2,5,2.5,-3.857,M,40.592,M,2.4,0123*57
$GPVTG,235.20,T,-404.70,M,004.399,N,008.148,K,D*08
$GPGGA,080633.10,5702.7943394,N,00950.3501158,E,2,5,2.5,-3.866,M,40.592,M,2.4,0123*56
$GPVTG,235.60,T,-404.30,M,004.410,N,008.168,K,D*0C
$GPGGA,080633.15,5702.7943035,N,00950.3500279,E,2,5,2.5,-3.871,M,40.592,M,2.4,0123*5C
$GPVTG,236.07,T,-403.83,M,004.415,N,008.176,K,D*0B
$GPGGA,080633.20,5702.7942679,N,00950.3499394,E,2,5,2.5,-3.877,M,40.592,M,2.4,0123*50
$GPVTG,236.49,T,-403.41,M,004.419,N,008.183,K,D*09
$GPGGA,080633.25,5702.7942429,N,00950.3498573,E,2,5,2.5,-3.873,M,40.592,M,2.7,0123*5B
$GPVTG,237.47,T,-402.43,M,004.477,N,008.291,K,D*0D
$GPGGA,080633.30,5702.7942108,N,00950.3497630,E,2,5,2.5,-3.878,M,40.592,M,2.7,0123*59
$GPVTG,238.35,T,-401.55,M,004.482,N,008.301,K,D*01
$GPGGA,080633.35,5702.7941804,N,00950.3496669,E,2,5,2.5,-3.885,M,40.592,M,2.7,0123*55
$GPVTG,239.40,T,-400.50,M,004.486,N,008.308,K,D*0B
$GPGGA,080633.40,5702.7941490,N,00950.3495736,E,2,5,2.5,-3.892,M,40.592,M,2.7,0123*58
$GPVTG,240.01,T,-399.89,M,004.477,N,008.292,K,D*0F
$GPGGA,080633.45,5702.7941305,N,00950.3494920,E,2,5,2.5,-3.871,M,40.592,M,2.9,0123*5D
$GPVTG,241.28,T,-398.62,M,004.510,N,008.352,K,D*0C
$GPGGA,080633.50,5702.7941017,N,00950.3493905,E,2,5,2.5,-3.874,M,40.592,M,2.9,0123*5C
$GPVTG,242.28,T,-397.62,M,004.531,N,008.392,K,D*0F
$GPGGA,080633.55,5702.7940701,N,00950.3492859,E,2,5,2.5,-3.878,M,40.592,M,2.9,0123*5D
$GPVTG,242.85,T,-397.05,M,004.585,N,008.492,K,D*01
$GPGGA,080633.60,5702.7940376,N,00950.3491945,E,2,5,2.5,-3.883,M,40.592,M,2.9,0123*54
$GPVTG,242.63,T,-397.27,M,004.554,N,008.433,K,D*0E
$GPGGA,080633.65,5702.7940210,N,00950.3491127,E,2,5,2.5,-3.867,M,40.592,M,3.2,0123*5C
$GPVTG,243.49,T,-396.41,M,004.559,N,008.444,K,D*0B
$GPGGA,080633.70,5702.7939942,N,00950.3490100,E,2,5,2.5,-3.869,M,40.592,M,3.2,0123*50
$GPVTG,244.33,T,-395.57,M,004.566,N,008.456,K,D*0A
$GPGGA,080633.75,5702.7939670,N,00950.3489120,E,2,5,2.5,-3.872,M,40.592,M,3.2,0123*5B
$GPVTG,244.79,T,-395.11,M,004.541,N,008.410,K,D*01
$GPGGA,080633.80,5702.7939398,N,00950.3488082,E,2,5,2.5,-3.874,M,40.592,M,3.2,0123*5C
$GPVTG,245.38,T,-394.52,M,004.555,N,008.436,K,D*02
$GPGGA,080633.85,5702.7939250,N,00950.3487287,E,2,5,2.5,-3.867,M,40.592,M,3.4,0123*50
$GPVTG,246.02,T,-393.88,M,004.503,N,008.339,K,D*03
$GPGGA,080633.90,5702.7939010,N,00950.3486310,E,2,5,2.5,-3.878,M,40.592,M,3.4,0123*52
$GPVTG,246.56,T,-393.34,M,004.452,N,008.246,K,D*09
$GPGGA,080633.95,5702.7938772,N,00950.3485344,E,2,5,2.5,-3.885,M,40.592,M,3.4,0123*55
$GPVTG,247.01,T,-392.89,M,004.399,N,008.148,K,D*00
$GPGGA,080634.00,5702.7938583,N,00950.3484373,E,2,5,2.5,-3.891,M,40.592,M,3.4,0123*52
$GPVTG,248.16,T,-391.74,M,004.334,N,008.026,K,D*06
$GPGGA,080634.05,5702.7938453,N,00950.3483506,E,2,5,2.5,-3.877,M,40.592,M,1.2,0123*54
$GPVTG,249.07,T,-390.83,M,004.264,N,007.898,K,D*08
$GPGGA,080634.10,5702.7938259,N,00950.3482527,E,2,5,2.5,-3.884,M,40.592,M,1.2,0123*52
$GPVTG,249.93,T,-389.97,M,004.224,N,007.823,K,D*0C
$GPGGA,080634.15,5702.7938082,N,00950.3481538,E,2,5,2.5,-3.892,M,40.592,M,1.2,0123*59
$GPVTG,250.95,T,-388.95,M,004.191,N,007.761,K,D*05
$GPGGA,080634.20,5702.7937893,N,00950.3480579,E,2,5,2.5,-3.898,M,40.592,M,1.2,0123*56
$GPVTG,251.54,T,-388.36,M,004.145,N,007.676,K,D*0E
$GPGGA,080634.25,5702.7937769,N,00950.3479720,E,2,5,2.5,-3.915,M,40.592,M,1.5,0123*52
$GPVTG,252.58,T,-387.32,M,004.110,N,007.612,K,D*08
$GPGGA,080634.30,5702.7937668,N,00950.3478819,E,2,5,2.5,-3.924,M,40.592,M,1.5,0123*50
$GPVTG,254.22,T,-385.68,M,004.004,N,007.415,K,D*0F
$GPGGA,080634.35,5702.7937537,N,00950.3477900,E,2,5,2.5,-3.929,M,40.592,M,1.5,0123*57
$GPVTG,255.25,T,-384.65,M,003.934,N,007.285,K,D*07
$GPGGA,080634.40,5702.7937401,N,00950.3477007,E,2,5,2.5,-3.939,M,40.592,M,1.5,0123*5E
$GPVTG,256.00,T,-383.91,M,003.855,N,007.139,K,D*0D
$GPGGA,080634.45,5702.7937384,N,00950.3476205,E,2,5,2.5,-3.941,M,40.592,M,1.7,0123*5D
$GPVTG,258.47,T,-381.43,M,003.793,N,007.025,K,D*04
$GPGGA,080634.50,5702.7937293,N,00950.3475288,E,2,5,2.5,-3.950,M,40.592,M,1.7,0123*58
$GPVTG,259.75,T,-380.15,M,003.734,N,006.915,K,D*00
$GPGGA,080634.55,5702.7937217,N,00950.3474376,E,2,5,2.5,-3.957,M,40.592,M,1.7,0123*57
$GPVTG,261.14,T,-378.76,M,003.682,N,006.819,K,D*0F
$GPGGA,080634.60,5702.7937136,N,00950.3473504,E,2,5,2.5,-3.956,M,40.592,M,1.7,0123*54
$GPVTG,262.10,T,-377.80,M,003.608,N,006.682,K,D*00
$GPGGA,080634.65,5702.7937261,N,00950.3472870,E,2,5,2.5,-3.921,M,40.592,M,1.9,0123*51
$GPVTG,264.18,T,-375.72,M,003.490,N,006.463,K,D*0F
$GPGGA,080634.70,5702.7937198,N,00950.3472006,E,2,5,2.5,-3.920,M,40.592,M,1.9,0123*58
$GPVTG,265.07,T,-374.83,M,003.439,N,006.369,K,D*01
$GPGGA,080634.75,5702.7937139,N,00950.3471158,E,2,5,2.5,-3.919,M,40.592,M,1.9,0123*55
$GPVTG,265.87,T,-374.03,M,003.386,N,006.271,K,D*0A
$GPGGA,080634.80,5702.7937083,N,00950.3470318,E,2,5,2.5,-3.911,M,40.592,M,1.9,0123*50
$GPVTG,266.57,T,-373.33,M,003.336,N,006.177,K,D*0E
$GPGGA,080634.85,5702.7937078,N,00950.3469735,E,2,5,2.5,-3.909,M,40.592,M,2.1,0123*50
$GPVTG,266.29,T,-373.61,M,003.195,N,005.916,K,D*07
$GPGGA,080634.90,5702.7937023,N,00950.3468915,E,2,5,2.5,-3.907,M,40.592,M,2.1,0123*59
$GPVTG,266.68,T,-373.22,M,003.158,N,005.848,K,D*0E
$GPGGA,080634.95,5702.7936966,N,00950.3468135,E,2,5,2.5,-3.906,M,40.592,M,2.1,0123*5E
$GPVTG,266.92,T,-372.98,M,003.096,N,005.735,K,D*0D
$GPGGA,080635.00,5702.7936919,N,00950.3467373,E,2,5,2.5,-3.907,M,40.592,M,2.1,0123*55
$GPVTG,267.28,T,-372.62,M,003.032,N,005.616,K,D*06
$GPGGA,080635.05,5702.7936846,N,00950.3466628,E,2,5,2.5,-3.910,M,40.592,M,2.3,0123*55
$GPVTG,267.12,T,-372.78,M,003.009,N,005.573,K,D*0C
$GPGGA,080635.10,5702.7936808,N,00950.3465874,E,2,5,2.5,-3.908,M,40.592,M,2.3,0123*56
$GPVTG,267.46,T,-372.44,M,002.957,N,005.477,K,D*04
$GPGGA,080635.15,5702.7936767,N,00950.3465135,E,2,5,2.5,-3.911,M,40.592,M,2.3,0123*51
$GPVTG,267.64,T,-372.26,M,002.904,N,005.379,K,D*0F
$GPGGA,080635.20,5702.7936711,N,00950.3464411,E,2,5,2.5,-3.912,M,40.592,M,2.3,0123*57
$GPVTG,267.33,T,-372.57,M,002.850,N,005.279,K,D*0A
$GPGGA,080635.25,5702.7936712,N,00950.3463742,E,2,5,2.5,-3.893,M,40.592,M,2.5,0123*5D
$GPVTG,266.94,T,-372.96,M,002.825,N,005.232,K,D*06
$GPGGA,080635.30,5702.7936687,N,00950.3463039,E,2,5,2.5,-3.894,M,40.592,M,2.5,0123*58
$GPVTG,267.34,T,-372.56,M,002.771,N,005.131,K,D*0F
$GPGGA,080635.35,5702.7936639,N,00950.3462330,E,2,5,2.5,-3.891,M,40.592,M,2.5,0123*56
$GPVTG,267.07,T,-372.83,M,002.732,N,005.060,K,D*05
$GPGGA,080635.40,5702.7936641,N,00950.3461610,E,2,5,2.5,-3.886,M,40.592,M,2.5,0123*59
$GPVTG,268.09,T,-371.81,M,002.709,N,005.016,K,D*0C
$GPGGA,080635.45,5702.7936663,N,00950.3460887,E,2,5,2.5,-3.832,M,40.592,M,2.7,0123*50
$GPVTG,267.93,T,-371.97,M,002.711,N,005.020,K,D*0B
$GPGGA,080635.50,5702.7936614,N,00950.3460174,E,2,5,2.5,-3.825,M,40.592,M,2.7,0123*57
$GPVTG,267.34,T,-372.56,M,002.698,N,004.996,K,D*0D
$GPGGA,080635.55,5702.7936559,N,00950.3459512,E,2,5,2.5,-3.819,M,40.592,M,2.7,0123*59
$GPVTG,266.61,T,-373.29,M,002.649,N,004.906,K,D*00
$GPGGA,080635.60,5702.7936486,N,00950.3458861,E,2,5,2.5,-3.813,M,40.592,M,2.7,0123*5E
$GPVTG,265.39,T,-374.51,M,002.602,N,004.820,K,D*0C
$GPGGA,080635.65,5702.7936255,N,00950.3458117,E,2,5,2.5,-3.863,M,40.592,M,3.0,0123*5A
$GPVTG,262.85,T,-377.05,M,002.646,N,004.900,K,D*0D
$GPGGA,080635.70,5702.7936218,N,00950.3457437,E,2,5,2.5,-3.868,M,40.592,M,3.0,0123*54
$GPVTG,262.93,T,-376.97,M,002.628,N,004.867,K,D*08
$GPGGA,080635.75,5702.7936170,N,00950.3456790,E,2,5,2.5,-3.874,M,40.592,M,3.0,0123*5E
$GPVTG,262.64,T,-377.26,M,002.590,N,004.797,K,D*0B
$GPGGA,080635.80,5702.7936102,N,00950.3456148,E,2,5,2.5,-3.882,M,40.592,M,3.0,0123*5B
$GPVTG,261.83,T,-378.07,M,002.558,N,004.738,K,D*0C
$GPGGA,080635.85,5702.7936094,N,00950.3455461,E,2,5,2.5,-3.846,M,40.592,M,3.2,0123*57
$GPVTG,261.76,T,-378.14,M,002.569,N,004.758,K,D*00
$GPGGA,080635.90,5702.7936048,N,00950.3454794,E,2,5,2.5,-3.847,M,40.592,M,3.2,0123*5B
$GPVTG,261.74,T,-378.16,M,002.562,N,004.746,K,D*04
$GPGGA,080635.95,5702.7935979,N,00950.3454178,E,2,5,2.5,-3.847,M,40.592,M,3.2,0123*52
$GPVTG,260.96,T,-378.94,M,002.523,N,004.673,K,D*01
$GPGGA,080636.00,5702.7935936,N,00950.3453530,E,2,5,2.5,-3.848,M,40.592,M,3.2,0123*56
