$GPGGA,082807.35,5702.8637501,N,00949.6902855,E,2,5,1.6,-2.702,M,40.592,M,2.8,0123*55
$GPVTG,231.78,T,-408.12,M,003.738,N,006.922,K,D*0B
$GPGGA,082807.40,5702.8637192,N,00949.6902149,E,2,5,1.6,-2.705,M,40.592,M,2.8,0123*5A
$GPVTG,230.10,T,-409.80,M,003.704,N,006.860,K,D*06
$GPGGA,082807.45,5702.8636816,N,00949.6901331,E,2,5,1.6,-2.685,M,40.592,M,3.0,0123*55
$GPVTG,228.03,T,-411.87,M,003.724,N,006.897,K,D*09
$GPGGA,082807.50,5702.8636451,N,00949.6900633,E,2,5,1.6,-2.691,M,40.592,M,3.0,0123*5D
$GPVTG,226.09,T,-413.81,M,003.746,N,006.937,K,D*06
$GPGGA,082807.55,5702.8636141,N,00949.6899955,E,2,5,1.6,-2.693,M,40.592,M,3.0,0123*50
$GPVTG,225.22,T,-414.68,M,003.703,N,006.857,K,D*0A
$GPGGA,082807.60,5702.8635737,N,00949.6899314,E,2,5,1.6,-2.694,M,40.592,M,3.0,0123*5A
$GPVTG,222.87,T,-417.03,M,003.741,N,006.929,K,D*02
$GPGGA,082807.65,5702.8635348,N,00949.6898665,E,2,5,1.6,-2.695,M,40.592,M,3.2,0123*52
$GPVTG,221.32,T,-418.58,M,003.760,N,006.963,K,D*03
$GPGGA,082807.70,5702.8634955,N,00949.6898042,E,2,5,1.6,-2.701,M,40.592,M,3.2,0123*5E
$GPVTG,219.70,T,-420.20,M,003.774,N,006.990,K,D*03
$GPGGA,082807.75,5702.8634555,N,00949.6897449,E,2,5,1.6,-2.708,M,40.592,M,3.2,0123*5E
$GPVTG,218.08,T,-421.82,M,003.782,N,007.004,K,D*08
$GPGGA,082807.80,5702.8634195,N,00949.6896849,E,2,5,1.6,-2.710,M,40.592,M,3.2,0123*58
$GPVTG,217.33,T,-422.57,M,003.744,N,006.934,K,D*05
$GPGGA,082807.85,5702.8633793,N,00949.6896338,E,2,5,1.6,-2.693,M,40.592,M,3.4,0123*5B
$GPVTG,215.65,T,-424.25,M,003.717,N,006.884,K,D*0B
$GPGGA,082807.90,5702.8633390,N,00949.6895804,E,2,5,1.6,-2.694,M,40.592,M,3.4,0123*58
$GPVTG,214.28,T,-425.62,M,003.704,N,006.860,K,D*09
$GPGGA,082807.95,5702.8632965,N,00949.6895268,E,2,5,1.6,-2.692,M,40.592,M,3.4,0123*5A
$GPVTG,212.92,T,-426.98,M,003.721,N,006.890,K,D*00
$GPGGA,082808.00,5702.8632525,N,00949.6894795,E,2,5,1.6,-2.692,M,40.592,M,3.4,0123*57
$GPVTG,211.08,T,-428.82,M,003.730,N,006.907,K,D*0A
$GPGGA,082808.05,5702.8632195,N,00949.6894451,E,2,5,1.6,-2.700,M,40.592,M,1.9,0123*53
$GPVTG,209.77,T,-430.13,M,003.641,N,006.744,K,D*04
$GPGGA,082808.10,5702.8631758,N,00949.6894022,E,2,5,1.6,-2.705,M,40.592,M,1.9,0123*56
$GPVTG,208.08,T,-431.82,M,003.638,N,006.738,K,D*01
$GPGGA,082808.15,5702.8631316,N,00949.6893579,E,2,5,1.6,-2.713,M,40.592,M,1.9,0123*56
$GPVTG,206.78,T,-433.12,M,003.646,N,006.753,K,D*07
$GPGGA,082808.20,5702.8630886,N,00949.6893179,E,2,5,1.6,-2.717,M,40.592,M,1.9,0123*53
$GPVTG,205.43,T,-434.47,M,003.625,N,006.714,K,D*0D
$GPGGA,082808.25,5702.8630432,N,00949.6892920,E,2,5,1.6,-2.713,M,40.592,M,2.2,0123*5C
$GPVTG,202.78,T,-437.12,M,003.627,N,006.716,K,D*01
$GPGGA,082808.30,5702.8629984,N,00949.6892589,E,2,5,1.6,-2.715,M,40.592,M,2.2,0123*59
$GPVTG,201.19,T,-438.71,M,003.609,N,006.685,K,D*08
$GPGGA,082808.35,5702.8629538,N,00949.6892244,E,2,5,1.6,-2.720,M,40.592,M,2.2,0123*57
$GPVTG,200.03,T,-439.87,M,003.598,N,006.663,K,D*09
$GPGGA,082808.40,5702.8629101,N,00949.6891940,E,2,5,1.6,-2.725,M,40.592,M,2.2,0123*52
$GPVTG,198.75,T,-441.15,M,003.564,N,006.600,K,D*08
$GPGGA,082808.45,5702.8628658,N,00949.6891743,E,2,5,1.6,-2.719,M,40.592,M,2.5,0123*58
$GPVTG,197.00,T,-442.90,M,003.530,N,006.537,K,D*0D
$GPGGA,082808.50,5702.8628177,N,00949.6891511,E,2,5,1.6,-2.727,M,40.592,M,2.5,0123*5E
$GPVTG,195.14,T,-444.76,M,003.552,N,006.578,K,D*0B
$GPGGA,082808.55,5702.8627748,N,00949.6891285,E,2,5,1.6,-2.732,M,40.592,M,2.5,0123*50
$GPVTG,193.86,T,-446.04,M,003.493,N,006.470,K,D*04
$GPGGA,082808.60,5702.8627277,N,00949.6891106,E,2,5,1.6,-2.736,M,40.592,M,2.5,0123*53
$GPVTG,192.04,T,-447.86,M,003.497,N,006.476,K,D*06
$GPGGA,082808.65,5702.8626841,N,00949.6890996,E,2,5,1.6,-2.730,M,40.592,M,2.7,0123*5C
$GPVTG,190.53,T,-449.37,M,003.447,N,006.384,K,D*05
$GPGGA,082808.70,5702.8626401,N,00949.6890843,E,2,5,1.6,-2.736,M,40.592,M,2.7,0123*5F
$GPVTG,189.13,T,-450.77,M,003.403,N,006.302,K,D*0B
$GPGGA,082808.75,5702.8625932,N,00949.6890740,E,2,5,1.6,-2.740,M,40.592,M,2.7,0123*59
$GPVTG,187.26,T,-452.64,M,003.407,N,006.309,K,D*0C
$GPGGA,082808.80,5702.8625444,N,00949.6890647,E,2,5,1.6,-2.746,M,40.592,M,2.7,0123*5F
$GPVTG,185.53,T,-454.37,M,003.441,N,006.373,K,D*03
$GPGGA,082808.85,5702.8625004,N,00949.6890578,E,2,5,1.6,-2.735,M,40.592,M,2.9,0123*5F
$GPVTG,184.22,T,-455.68,M,003.370,N,006.240,K,D*0B
$GPGGA,082808.90,5702.8624554,N,00949.6890521,E,2,5,1.6,-2.736,M,40.592,M,2.9,0123*55
$GPVTG,182.71,T,-457.19,M,003.348,N,006.201,K,D*01
$GPGGA,082808.95,5702.8624121,N,00949.6890486,E,2,5,1.6,-2.737,M,40.592,M,2.9,0123*5B
$GPVTG,181.20,T,-458.70,M,003.304,N,006.119,K,D*04
$GPGGA,082809.00,5702.8623647,N,00949.6890529,E,2,5,1.6,-2.745,M,40.592,M,2.9,0123*57
$GPVTG,178.97,T,-460.93,M,003.331,N,006.169,K,D*09
$GPGGA,082809.05,5702.8623278,N,00949.6890622,E,2,5,1.6,-2.745,M,40.592,M,2.1,0123*5A
$GPVTG,177.36,T,-462.54,M,003.246,N,006.011,K,D*0B
$GPGGA,082809.10,5702.8622829,N,00949.6890672,E,2,5,1.6,-2.750,M,40.592,M,2.1,0123*50
$GPVTG,175.65,T,-464.25,M,003.245,N,006.011,K,D*0C
$GPGGA,082809.15,5702.8622399,N,00949.6890751,E,2,5,1.6,-2.755,M,40.592,M,2.1,0123*50
$GPVTG,173.85,T,-466.06,M,003.222,N,005.967,K,D*0D
$GPGGA,082809.20,5702.8621961,N,00949.6890872,E,2,5,1.6,-2.763,M,40.592,M,2.1,0123*53
$GPVTG,171.83,T,-468.07,M,003.219,N,005.961,K,D*08
$GPGGA,082809.25,5702.8621526,N,00949.6891035,E,2,5,1.6,-2.744,M,40.592,M,2.4,0123*53
$GPVTG,170.05,T,-469.85,M,003.174,N,005.878,K,D*0D
$GPGGA,082809.30,5702.8621132,N,00949.6891179,E,2,5,1.6,-2.745,M,40.592,M,2.4,0123*5E
$GPVTG,168.14,T,-471.76,M,003.115,N,005.769,K,D*09
$GPGGA,082809.35,5702.8620713,N,00949.6891361,E,2,5,1.6,-2.746,M,40.592,M,2.4,0123*57
$GPVTG,166.22,T,-473.68,M,003.113,N,005.765,K,D*05
$GPGGA,082809.40,5702.8620281,N,00949.6891585,E,2,5,1.6,-2.755,M,40.592,M,2.4,0123*55
$GPVTG,164.19,T,-475.71,M,003.141,N,005.818,K,D*03
$GPGGA,082809.45,5702.8619888,N,00949.6891902,E,2,5,1.6,-2.755,M,40.592,M,2.6,0123*58
$GPVTG,161.73,T,-478.17,M,003.161,N,005.855,K,D*0C
$GPGGA,082809.50,5702.8619532,N,00949.6892130,E,2,5,1.6,-2.761,M,40.592,M,2.6,0123*5D
$GPVTG,159.73,T,-480.17,M,003.078,N,005.700,K,D*06
$GPGGA,082809.55,5702.8619167,N,00949.6892403,E,2,5,1.6,-2.766,M,40.592,M,2.6,0123*5E
$GPVTG,157.57,T,-482.33,M,003.035,N,005.622,K,D*02
$GPGGA,082809.60,5702.8618810,N,00949.6892688,E,2,5,1.6,-2.773,M,40.592,M,2.6,0123*55
$GPVTG,155.49,T,-484.41,M,002.992,N,005.542,K,D*0C
$GPGGA,082809.65,5702.8618472,N,00949.6893110,E,2,5,1.6,-2.756,M,40.592,M,2.9,0123*57
$GPVTG,152.93,T,-486.97,M,002.972,N,005.504,K,D*09
$GPGGA,082809.70,5702.8618102,N,00949.6893471,E,2,5,1.6,-2.762,M,40.592,M,2.9,0123*54
$GPVTG,150.86,T,-489.04,M,002.987,N,005.533,K,D*04
$GPGGA,082809.75,5702.8617704,N,00949.6893908,E,2,5,1.6,-2.772,M,40.592,M,2.9,0123*5C
$GPVTG,148.75,T,-491.15,M,003.071,N,005.688,K,D*0A
$GPGGA,082809.80,5702.8617402,N,00949.6894262,E,2,5,1.6,-2.783,M,40.592,M,2.9,0123*5D
$GPVTG,146.53,T,-493.37,M,002.993,N,005.542,K,D*03
$GPGGA,082809.85,5702.8617071,N,00949.6894695,E,2,5,1.6,-2.773,M,40.592,M,3.1,0123*52
$GPVTG,144.22,T,-495.68,M,002.947,N,005.458,K,D*08
$GPGGA,082809.90,5702.8616784,N,00949.6895103,E,2,5,1.6,-2.777,M,40.592,M,3.1,0123*57
$GPVTG,141.80,T,-498.10,M,002.890,N,005.352,K,D*01
$GPGGA,082809.95,5702.8616440,N,00949.6895597,E,2,5,1.6,-2.782,M,40.592,M,3.1,0123*5A
$GPVTG,139.95,T,-499.95,M,002.953,N,005.468,K,D*06
$GPGGA,082810.00,5702.8616153,N,00949.6896060,E,2,5,1.6,-2.782,M,40.592,M,3.1,0123*57
$GPVTG,137.74,T,-502.16,M,002.931,N,005.429,K,D*0E
$GPGGA,082810.05,5702.8615913,N,00949.6896545,E,2,5,1.6,-2.777,M,40.592,M,1.4,0123*52
$GPVTG,135.17,T,-504.73,M,002.893,N,005.357,K,D*0B
$GPGGA,082810.10,5702.8615631,N,00949.6897070,E,2,5,1.6,-2.778,M,40.592,M,1.4,0123*54
$GPVTG,133.09,T,-506.81,M,002.910,N,005.390,K,D*0C
$GPGGA,082810.15,5702.8615395,N,00949.6897582,E,2,5,1.6,-2.782,M,40.592,M,1.4,0123*57
$GPVTG,130.52,T,-509.38,M,002.876,N,005.325,K,D*03
$GPGGA,082810.20,5702.8615196,N,00949.6898112,E,2,5,1.6,-2.785,M,40.592,M,1.4,0123*55
$GPVTG,127.31,T,-512.59,M,002.823,N,005.229,K,D*00
$GPGGA,082810.25,5702.8615025,N,00949.6898692,E,2,5,1.6,-2.775,M,40.592,M,1.7,0123*5A
$GPVTG,124.22,T,-515.68,M,002.796,N,005.178,K,D*02
$GPGGA,082810.30,5702.8614807,N,00949.6899254,E,2,5,1.6,-2.778,M,40.592,M,1.7,0123*55
$GPVTG,122.27,T,-517.63,M,002.799,N,005.183,K,D*03
$GPGGA,082810.35,5702.8614607,N,00949.6899859,E,2,5,1.6,-2.782,M,40.592,M,1.7,0123*5C
$GPVTG,119.91,T,-519.99,M,002.815,N,005.214,K,D*0B
$GPGGA,082810.40,5702.8614417,N,00949.6900459,E,2,5,1.6,-2.787,M,40.592,M,1.7,0123*55
$GPVTG,117.83,T,-522.07,M,002.823,N,005.228,K,D*03
$GPGGA,082810.45,5702.8614257,N,00949.6900989,E,2,5,1.6,-2.784,M,40.592,M,1.9,0123*5F
$GPVTG,114.89,T,-525.01,M,002.776,N,005.141,K,D*08
$GPGGA,082810.50,5702.8614126,N,00949.6901588,E,2,5,1.6,-2.792,M,40.592,M,1.9,0123*55
$GPVTG,112.08,T,-527.82,M,002.753,N,005.098,K,D*0C
$GPGGA,082810.55,5702.8613996,N,00949.6902235,E,2,5,1.6,-2.799,M,40.592,M,1.9,0123*5D
$GPVTG,109.53,T,-530.37,M,002.770,N,005.129,K,D*0A
$GPGGA,082810.60,5702.8613877,N,00949.6902878,E,2,5,1.6,-2.806,M,40.592,M,1.9,0123*5F
$GPVTG,107.20,T,-532.70,M,002.779,N,005.147,K,D*00
$GPGGA,082810.65,5702.8613760,N,00949.6903574,E,2,5,1.6,-2.781,M,40.592,M,2.1,0123*58
$GPVTG,105.04,T,-534.86,M,002.784,N,005.156,K,D*09
$GPGGA,082810.70,5702.8613681,N,00949.6904219,E,2,5,1.6,-2.789,M,40.592,M,2.1,0123*51
$GPVTG,102.49,T,-537.41,M,002.777,N,005.142,K,D*06
$GPGGA,082810.75,5702.8613588,N,00949.6904909,E,2,5,1.6,-2.793,M,40.592,M,2.1,0123*5F
$GPVTG,100.70,T,-539.20,M,002.812,N,005.207,K,D*09
$GPGGA,082810.80,5702.8613583,N,00949.6905575,E,2,5,1.6,-2.798,M,40.592,M,2.1,0123*53
$GPVTG,096.78,T,-543.12,M,002.805,N,005.194,K,D*0C
$GPGGA,082810.85,5702.8613481,N,00949.6906161,E,2,5,1.6,-2.754,M,40.592,M,2.3,0123*55
$GPVTG,094.86,T,-545.04,M,002.778,N,005.144,K,D*06
$GPGGA,082810.90,5702.8613446,N,00949.6906767,E,2,5,1.6,-2.752,M,40.592,M,2.3,0123*5C
$GPVTG,092.90,T,-547.00,M,002.686,N,004.974,K,D*0B
$GPGGA,082810.95,5702.8613424,N,00949.6907438,E,2,5,1.6,-2.749,M,40.592,M,2.3,0123*5F
$GPVTG,090.81,T,-549.09,M,002.697,N,004.995,K,D*01
$GPGGA,082811.00,5702.8613418,N,00949.6908141,E,2,5,1.6,-2.749,M,40.592,M,2.3,0123*59
$GPVTG,088.74,T,-551.16,M,002.742,N,005.077,K,D*08
$GPGGA,082811.05,5702.8613421,N,00949.6908751,E,2,5,1.6,-2.727,M,40.592,M,2.6,0123*5C
$GPVTG,086.67,T,-553.23,M,002.716,N,005.031,K,D*03
$GPGGA,082811.10,5702.8613470,N,00949.6909330,E,2,5,1.6,-2.727,M,40.592,M,2.6,0123*5E
$GPVTG,083.77,T,-556.13,M,002.633,N,004.877,K,D*0C
$GPGGA,082811.15,5702.8613500,N,00949.6909974,E,2,5,1.6,-2.726,M,40.592,M,2.6,0123*56
$GPVTG,081.82,T,-558.08,M,002.631,N,004.872,K,D*07
$GPGGA,082811.20,5702.8613547,N,00949.6910682,E,2,5,1.6,-2.721,M,40.592,M,2.6,0123*5A
$GPVTG,080.04,T,-559.86,M,002.695,N,004.991,K,D*0D
$GPGGA,082811.25,5702.8613632,N,00949.6911278,E,2,5,1.6,-2.702,M,40.592,M,2.8,0123*51
$GPVTG,077.28,T,-562.62,M,002.671,N,004.946,K,D*09
$GPGGA,082811.30,5702.8613716,N,00949.6911903,E,2,5,1.6,-2.700,M,40.592,M,2.8,0123*57
$GPVTG,075.00,T,-564.90,M,002.662,N,004.929,K,D*01
$GPGGA,082811.35,5702.8613811,N,00949.6912578,E,2,5,1.6,-2.696,M,40.592,M,2.8,0123*57
$GPVTG,073.16,T,-566.74,M,002.707,N,005.013,K,D*0B
$GPGGA,082811.40,5702.8613907,N,00949.6913251,E,2,5,1.6,-2.695,M,40.592,M,2.8,0123*5D
$GPVTG,071.63,T,-568.27,M,002.746,N,005.086,K,D*0A
$GPGGA,082811.45,5702.8614062,N,00949.6913809,E,2,5,1.6,-2.668,M,40.592,M,3.0,0123*59
$GPVTG,068.87,T,-571.03,M,002.730,N,005.055,K,D*09
$GPGGA,082811.50,5702.8614206,N,00949.6914422,E,2,5,1.6,-2.662,M,40.592,M,3.0,0123*55
$GPVTG,066.53,T,-573.37,M,002.733,N,005.061,K,D*0F
$GPGGA,082811.55,5702.8614373,N,00949.6915051,E,2,5,1.6,-2.657,M,40.592,M,3.0,0123*54
$GPVTG,064.25,T,-575.65,M,002.766,N,005.123,K,D*0A
$GPGGA,082811.60,5702.8614534,N,00949.6915665,E,2,5,1.6,-2.649,M,40.592,M,3.0,0123*59
$GPVTG,062.32,T,-577.58,M,002.782,N,005.153,K,D*0B
$GPGGA,082811.65,5702.8614706,N,00949.6916243,E,2,5,1.6,-2.648,M,40.592,M,3.2,0123*5F
$GPVTG,059.59,T,-580.31,M,002.778,N,005.144,K,D*0A
$GPGGA,082811.70,5702.8614920,N,00949.6916798,E,2,5,1.6,-2.646,M,40.592,M,3.2,0123*5C
$GPVTG,056.74,T,-583.16,M,002.781,N,005.150,K,D*0F
$GPGGA,082811.75,5702.8615142,N,00949.6917384,E,2,5,1.6,-2.646,M,40.592,M,3.2,0123*5C
$GPVTG,054.56,T,-585.34,M,002.819,N,005.221,K,D*00
$GPGGA,082811.80,5702.8615354,N,00949.6917935,E,2,5,1.6,-2.647,M,40.592,M,3.2,0123*52
$GPVTG,052.57,T,-587.33,M,002.823,N,005.229,K,D*03
$GPGGA,082811.85,5702.8615630,N,00949.6918411,E,2,5,1.6,-2.620,M,40.592,M,3.4,0123*53
$GPVTG,050.30,T,-589.60,M,002.849,N,005.277,K,D*0F
$GPGGA,082811.90,5702.8615882,N,00949.6918969,E,2,5,1.6,-2.618,M,40.592,M,3.4,0123*59
$GPVTG,048.51,T,-591.39,M,002.890,N,005.352,K,D*06
$GPGGA,082811.95,5702.8616140,N,00949.6919542,E,2,5,1.6,-2.613,M,40.592,M,3.4,0123*57
$GPVTG,047.16,T,-592.74,M,002.942,N,005.449,K,D*03
$GPGGA,082812.00,5702.8616427,N,00949.6920073,E,2,5,1.6,-2.608,M,40.592,M,3.4,0123*5B
$GPVTG,045.13,T,-594.77,M,002.984,N,005.527,K,D*02
$GPGGA,082812.05,5702.8616654,N,00949.6920508,E,2,5,1.6,-2.599,M,40.592,M,1.9,0123*55
$GPVTG,042.61,T,-597.29,M,002.972,N,005.505,K,D*01
$GPGGA,082812.10,5702.8616943,N,00949.6921001,E,2,5,1.6,-2.594,M,40.592,M,1.9,0123*58
$GPVTG,040.93,T,-598.97,M,002.995,N,005.546,K,D*0A
$GPGGA,082812.15,5702.8617269,N,00949.6921446,E,2,5,1.6,-2.592,M,40.592,M,1.9,0123*5E
$GPVTG,038.48,T,-601.42,M,003.023,N,005.599,K,D*0F
$GPGGA,082812.20,5702.8617613,N,00949.6921872,E,2,5,1.6,-2.588,M,40.592,M,1.9,0123*51
$GPVTG,036.04,T,-603.86,M,003.061,N,005.670,K,D*01
$GPGGA,082812.25,5702.8617947,N,00949.6922221,E,2,5,1.6,-2.571,M,40.592,M,2.2,0123*5B
$GPVTG,033.58,T,-606.32,M,003.037,N,005.625,K,D*04
$GPGGA,082812.30,5702.8618305,N,00949.6922598,E,2,5,1.6,-2.566,M,40.592,M,2.2,0123*5F
$GPVTG,031.03,T,-608.87,M,003.066,N,005.677,K,D*0B
$GPGGA,082812.35,5702.8618645,N,00949.6922947,E,2,5,1.6,-2.564,M,40.592,M,2.2,0123*57
$GPVTG,028.94,T,-610.96,M,003.059,N,005.665,K,D*0B
$GPGGA,082812.40,5702.8619039,N,00949.6923330,E,2,5,1.6,-2.558,M,40.592,M,2.2,0123*5D
$GPVTG,027.14,T,-612.76,M,003.139,N,005.813,K,D*08
$GPGGA,082812.45,5702.8619352,N,00949.6923593,E,2,5,1.6,-2.549,M,40.592,M,2.5,0123*5E
$GPVTG,025.05,T,-614.85,M,003.098,N,005.738,K,D*0C
$GPGGA,082812.50,5702.8619727,N,00949.6923919,E,2,5,1.6,-2.548,M,40.592,M,2.5,0123*53
$GPVTG,023.50,T,-616.40,M,003.130,N,005.797,K,D*07
$GPGGA,082812.55,5702.8620127,N,00949.6924262,E,2,5,1.6,-2.546,M,40.592,M,2.5,0123*54
$GPVTG,022.25,T,-617.65,M,003.193,N,005.913,K,D*09
$GPGGA,082812.60,5702.8620548,N,00949.6924538,E,2,5,1.6,-2.541,M,40.592,M,2.5,0123*50
$GPVTG,020.35,T,-619.55,M,003.251,N,006.021,K,D*01
$GPGGA,082812.65,5702.8620913,N,00949.6924705,E,2,5,1.6,-2.528,M,40.592,M,2.7,0123*56
$GPVTG,018.04,T,-621.86,M,003.272,N,006.060,K,D*09
$GPGGA,082812.70,5702.8621314,N,00949.6924927,E,2,5,1.6,-2.527,M,40.592,M,2.7,0123*5F
$GPVTG,016.36,T,-623.54,M,003.294,N,006.100,K,D*04
$GPGGA,082812.75,5702.8621733,N,00949.6925116,E,2,5,1.6,-2.529,M,40.592,M,2.7,0123*5E
$GPVTG,014.53,T,-625.37,M,003.326,N,006.161,K,D*09
$GPGGA,082812.80,5702.8622186,N,00949.6925301,E,2,5,1.6,-2.528,M,40.592,M,2.7,0123*5A
$GPVTG,012.85,T,-627.05,M,003.388,N,006.275,K,D*05
$GPGGA,082812.85,5702.8622584,N,00949.6925425,E,2,5,1.6,-2.530,M,40.592,M,2.9,0123*5F
$GPVTG,010.89,T,-629.01,M,003.413,N,006.320,K,D*05
$GPGGA,082812.90,5702.8623025,N,00949.6925541,E,2,5,1.6,-2.528,M,40.592,M,2.9,0123*5E
$GPVTG,009.12,T,-630.78,M,003.449,N,006.388,K,D*04
$GPGGA,082812.95,5702.8623486,N,00949.6925609,E,2,5,1.6,-2.528,M,40.592,M,2.9,0123*59
$GPVTG,007.15,T,-632.75,M,003.497,N,006.477,K,D*06
$GPGGA,082813.00,5702.8623969,N,00949.6925644,E,2,5,1.6,-2.525,M,40.592,M,2.9,0123*5C
$GPVTG,005.17,T,-634.73,M,003.560,N,006.593,K,D*04
$GPGGA,082813.05,5702.8624337,N,00949.6925607,E,2,5,1.6,-2.513,M,40.592,M,2.1,0123*55
$GPVTG,003.10,T,-636.80,M,003.536,N,006.548,K,D*0E
$GPGGA,082813.10,5702.8624826,N,00949.6925631,E,2,5,1.6,-2.508,M,40.592,M,2.1,0123*55
$GPVTG,001.57,T,-638.33,M,003.601,N,006.669,K,D*0E
$GPGGA,082813.15,5702.8625301,N,00949.6925618,E,2,5,1.6,-2.505,M,40.592,M,2.1,0123*59
$GPVTG,359.98,T,-279.92,M,003.648,N,006.756,K,D*09
$GPGGA,082813.20,5702.8625781,N,00949.6925541,E,2,5,1.6,-2.504,M,40.592,M,2.1,0123*5D
$GPVTG,358.11,T,-281.79,M,003.697,N,006.847,K,D*06
$GPGGA,082813.25,5702.8626094,N,00949.6925500,E,2,5,1.6,-2.512,M,40.592,M,2.4,0123*5F
$GPVTG,356.51,T,-283.39,M,003.674,N,006.805,K,D*01
$GPGGA,082813.30,5702.8626584,N,00949.6925436,E,2,5,1.6,-2.510,M,40.592,M,2.4,0123*59
$GPVTG,355.22,T,-284.68,M,003.727,N,006.902,K,D*04
$GPGGA,082813.35,5702.8627060,N,00949.6925311,E,2,5,1.6,-2.513,M,40.592,M,2.4,0123*53
$GPVTG,353.62,T,-286.28,M,003.767,N,006.977,K,D*06
$GPGGA,082813.40,5702.8627559,N,00949.6925201,E,2,5,1.6,-2.519,M,40.592,M,2.4,0123*54
$GPVTG,352.42,T,-287.48,M,003.822,N,007.078,K,D*0B
$GPGGA,082813.45,5702.8627971,N,00949.6924961,E,2,5,1.6,-2.512,M,40.592,M,2.6,0123*52
$GPVTG,350.62,T,-289.28,M,003.857,N,007.144,K,D*0F
$GPGGA,082813.50,5702.8628442,N,00949.6924750,E,2,5,1.6,-2.514,M,40.592,M,2.6,0123*5E
$GPVTG,348.99,T,-290.91,M,003.890,N,007.204,K,D*04
$GPGGA,082813.55,5702.8628921,N,00949.6924546,E,2,5,1.6,-2.517,M,40.592,M,2.6,0123*55
$GPVTG,347.66,T,-292.24,M,003.924,N,007.267,K,D*0C
$GPGGA,082813.60,5702.8629427,N,00949.6924306,E,2,5,1.6,-2.515,M,40.592,M,2.6,0123*59
$GPVTG,346.33,T,-293.57,M,003.979,N,007.370,K,D*07
$GPGGA,082813.65,5702.8629795,N,00949.6924015,E,2,5,1.6,-2.518,M,40.592,M,2.9,0123*55
$GPVTG,344.65,T,-295.25,M,003.974,N,007.360,K,D*09
$GPGGA,082813.70,5702.8630263,N,00949.6923666,E,2,5,1.6,-2.523,M,40.592,M,2.9,0123*58
$GPVTG,342.78,T,-297.12,M,004.010,N,007.426,K,D*0C
$GPGGA,082813.75,5702.8630730,N,00949.6923307,E,2,5,1.6,-2.529,M,40.592,M,2.9,0123*56
$GPVTG,341.11,T,-298.79,M,004.044,N,007.489,K,D*06
$GPGGA,082813.80,5702.8631207,N,00949.6922975,E,2,5,1.6,-2.529,M,40.592,M,2.9,0123*52
$GPVTG,339.88,T,-300.02,M,004.077,N,007.550,K,D*00
$GPGGA,082813.85,5702.8631501,N,00949.6922616,E,2,5,1.6,-2.539,M,40.592,M,3.1,0123*54
$GPVTG,338.45,T,-301.45,M,004.067,N,007.533,K,D*06
$GPGGA,082813.90,5702.8631983,N,00949.6922237,E,2,5,1.6,-2.543,M,40.592,M,3.1,0123*5C
$GPVTG,337.28,T,-302.62,M,004.104,N,007.601,K,D*02
$GPGGA,082813.95,5702.8632379,N,00949.6921771,E,2,5,1.6,-2.548,M,40.592,M,3.1,0123*5A
$GPVTG,335.31,T,-304.59,M,004.098,N,007.589,K,D*01
$GPGGA,082814.00,5702.8632877,N,00949.6921392,E,2,5,1.6,-2.551,M,40.592,M,3.1,0123*55
$GPVTG,334.59,T,-305.31,M,004.139,N,007.665,K,D*0A
$GPGGA,082814.05,5702.8633260,N,00949.6920872,E,2,5,1.6,-2.539,M,40.592,M,1.4,0123*50
$GPVTG,333.17,T,-306.73,M,004.160,N,007.703,K,D*0F
$GPGGA,082814.10,5702.8633696,N,00949.6920366,E,2,5,1.6,-2.545,M,40.592,M,1.4,0123*5C
$GPVTG,331.65,T,-308.25,M,004.180,N,007.741,K,D*0D
$GPGGA,082814.15,5702.8634145,N,00949.6919852,E,2,5,1.6,-2.547,M,40.592,M,1.4,0123*53
$GPVTG,330.34,T,-309.56,M,004.207,N,007.791,K,D*0C
$GPGGA,082814.20,5702.8634595,N,00949.6919324,E,2,5,1.6,-2.551,M,40.592,M,1.4,0123*51
$GPVTG,329.13,T,-310.77,M,004.235,N,007.844,K,D*0C
$GPGGA,082814.25,5702.8634925,N,00949.6918747,E,2,5,1.6,-2.566,M,40.592,M,1.7,0123*54
$GPVTG,327.49,T,-312.41,M,004.258,N,007.886,K,D*0F
$GPGGA,082814.30,5702.8635334,N,00949.6918197,E,2,5,1.6,-2.573,M,40.592,M,1.7,0123*54
$GPVTG,326.27,T,-313.63,M,004.258,N,007.885,K,D*04
$GPGGA,082814.35,5702.8635776,N,00949.6917627,E,2,5,1.6,-2.581,M,40.592,M,1.7,0123*5D
$GPVTG,325.27,T,-314.63,M,004.281,N,007.928,K,D*02
$GPGGA,082814.40,5702.8636212,N,00949.6917005,E,2,5,1.6,-2.587,M,40.592,M,1.7,0123*5B
$GPVTG,324.08,T,-315.82,M,004.311,N,007.985,K,D*0F
$GPGGA,082814.45,5702.8636503,N,00949.6916319,E,2,5,1.6,-2.567,M,40.592,M,1.9,0123*56
$GPVTG,322.73,T,-317.17,M,004.288,N,007.942,K,D*01
$GPGGA,082814.50,5702.8636943,N,00949.6915621,E,2,5,1.6,-2.572,M,40.592,M,1.9,0123*53
$GPVTG,321.44,T,-318.46,M,004.339,N,008.036,K,D*03
$GPGGA,082814.55,5702.8637308,N,00949.6914871,E,2,5,1.6,-2.579,M,40.592,M,1.9,0123*53
$GPVTG,319.61,T,-320.29,M,004.361,N,008.076,K,D*04
$GPGGA,082814.60,5702.8637706,N,00949.6914198,E,2,5,1.6,-2.582,M,40.592,M,1.9,0123*55
$GPVTG,318.55,T,-321.35,M,004.371,N,008.095,K,D*02
$GPGGA,082814.65,5702.8637872,N,00949.6913465,E,2,5,1.6,-2.591,M,40.592,M,2.1,0123*55
$GPVTG,316.45,T,-323.45,M,004.329,N,008.017,K,D*0F
$GPGGA,082814.70,5702.8638265,N,00949.6912709,E,2,5,1.6,-2.598,M,40.592,M,2.1,0123*53
$GPVTG,315.28,T,-324.62,M,004.360,N,008.075,K,D*0C
$GPGGA,082814.75,5702.8638646,N,00949.6911939,E,2,5,1.6,-2.606,M,40.592,M,2.1,0123*59
$GPVTG,314.10,T,-325.80,M,004.387,N,008.124,K,D*07
$GPGGA,082814.80,5702.8639005,N,00949.6911144,E,2,5,1.6,-2.614,M,40.592,M,2.1,0123*52
$GPVTG,312.79,T,-327.11,M,004.407,N,008.162,K,D*09
$GPGGA,082814.85,5702.8639212,N,00949.6910348,E,2,5,1.6,-2.615,M,40.592,M,2.3,0123*5F
$GPVTG,311.61,T,-328.29,M,004.383,N,008.118,K,D*01
$GPGGA,082814.90,5702.8639518,N,00949.6909550,E,2,5,1.6,-2.619,M,40.592,M,2.3,0123*5D
$GPVTG,310.19,T,-329.71,M,004.372,N,008.098,K,D*04
$GPGGA,082814.95,5702.8639815,N,00949.6908690,E,2,5,1.6,-2.628,M,40.592,M,2.3,0123*54
$GPVTG,308.57,T,-331.33,M,004.383,N,008.117,K,D*00
$GPGGA,082815.00,5702.8640096,N,00949.6907823,E,2,5,1.6,-2.640,M,40.592,M,2.3,0123*53
$GPVTG,306.96,T,-332.94,M,004.387,N,008.125,K,D*08
$GPGGA,082815.05,5702.8640273,N,00949.6906844,E,2,5,1.6,-2.629,M,40.592,M,2.6,0123*55
$GPVTG,305.33,T,-334.57,M,004.401,N,008.151,K,D*07
$GPGGA,082815.10,5702.8640557,N,00949.6905942,E,2,5,1.6,-2.636,M,40.592,M,2.6,0123*5A
$GPVTG,303.91,T,-335.99,M,004.415,N,008.177,K,D*0B
$GPGGA,082815.15,5702.8640775,N,00949.6905042,E,2,5,1.6,-2.638,M,40.592,M,2.6,0123*5A
$GPVTG,302.11,T,-337.79,M,004.401,N,008.151,K,D*0F
$GPGGA,082815.20,5702.8641017,N,00949.6904144,E,2,5,1.6,-2.641,M,40.592,M,2.6,0123*56
$GPVTG,300.67,T,-339.23,M,004.395,N,008.140,K,D*07
$GPGGA,082815.25,5702.8641120,N,00949.6903204,E,2,5,1.6,-2.643,M,40.592,M,2.8,0123*5A
$GPVTG,299.20,T,-340.70,M,004.395,N,008.140,K,D*0D
$GPGGA,082815.30,5702.8641362,N,00949.6902244,E,2,5,1.6,-2.652,M,40.592,M,2.8,0123*5F
$GPVTG,297.93,T,-341.97,M,004.417,N,008.181,K,D*03
$GPGGA,082815.35,5702.8641556,N,00949.6901308,E,2,5,1.6,-2.664,M,40.592,M,2.8,0123*54
$GPVTG,296.52,T,-343.38,M,004.410,N,008.167,K,D*07
$GPGGA,082815.40,5702.8641691,N,00949.6900401,E,2,5,1.6,-2.667,M,40.592,M,2.8,0123*52
$GPVTG,294.85,T,-345.05,M,004.363,N,008.080,K,D*0C
$GPGGA,082815.45,5702.8641864,N,00949.6899394,E,2,5,1.6,-2.652,M,40.592,M,3.0,0123*56
$GPVTG,293.38,T,-346.52,M,004.325,N,008.010,K,D*07
$GPGGA,082815.50,5702.8642001,N,00949.6898386,E,2,5,1.6,-2.661,M,40.592,M,3.0,0123*58
$GPVTG,291.39,T,-348.51,M,004.320,N,008.001,K,D*0C
$GPGGA,082815.55,5702.8642164,N,00949.6897392,E,2,5,1.6,-2.666,M,40.592,M,3.0,0123*52
$GPVTG,289.84,T,-350.06,M,004.304,N,007.971,K,D*0F
$GPGGA,082815.60,5702.8642243,N,00949.6896364,E,2,5,1.6,-2.673,M,40.592,M,3.0,0123*5E
$GPVTG,287.23,T,-352.67,M,004.287,N,007.939,K,D*0F
$GPGGA,082815.65,5702.8642416,N,00949.6895328,E,2,5,1.6,-2.655,M,40.592,M,3.2,0123*50
$GPVTG,286.10,T,-353.80,M,004.230,N,007.834,K,D*06
$GPGGA,082815.70,5702.8642474,N,00949.6894342,E,2,5,1.6,-2.662,M,40.592,M,3.2,0123*59
$GPVTG,282.73,T,-357.17,M,004.145,N,007.676,K,D*04
$GPGGA,082815.75,5702.8642599,N,00949.6893367,E,2,5,1.6,-2.665,M,40.592,M,3.2,0123*59
$GPVTG,281.49,T,-358.41,M,004.089,N,007.573,K,D*05
$GPGGA,082815.80,5702.8642655,N,00949.6892320,E,2,5,1.6,-2.672,M,40.592,M,3.2,0123*54
$GPVTG,278.74,T,-361.16,M,004.104,N,007.601,K,D*07
$GPGGA,082815.85,5702.8642738,N,00949.6891265,E,2,5,1.6,-2.643,M,40.592,M,3.4,0123*5C
$GPVTG,277.69,T,-362.21,M,004.050,N,007.500,K,D*01
$GPGGA,082815.90,5702.8642758,N,00949.6890200,E,2,5,1.6,-2.648,M,40.592,M,3.4,0123*57
$GPVTG,274.86,T,-365.04,M,004.093,N,007.580,K,D*04
$GPGGA,082815.95,5702.8642770,N,00949.6889139,E,2,5,1.6,-2.652,M,40.592,M,3.4,0123*52
$GPVTG,272.47,T,-367.43,M,004.129,N,007.648,K,D*09
$GPGGA,082816.00,5702.8642823,N,00949.6888148,E,2,5,1.6,-2.652,M,40.592,M,3.4,0123*53
$GPVTG,271.58,T,-368.32,M,004.082,N,007.559,K,D*0E
$GPGGA,082816.05,5702.8642869,N,00949.6887118,E,2,5,1.6,-2.652,M,40.592,M,1.9,0123*5D
$GPVTG,270.03,T,-369.87,M,004.101,N,007.596,K,D*07
$GPGGA,082816.10,5702.8642845,N,00949.6886094,E,2,5,1.6,-2.656,M,40.592,M,1.9,0123*57
$GPVTG,267.96,T,-371.94,M,004.095,N,007.584,K,D*09
$GPGGA,082816.15,5702.8642858,N,00949.6885120,E,2,5,1.6,-2.662,M,40.592,M,1.9,0123*54
$GPVTG,267.21,T,-372.69,M,004.030,N,007.464,K,D*04
$GPGGA,082816.20,5702.8642843,N,00949.6884052,E,2,5,1.6,-2.668,M,40.592,M,1.9,0123*57
$GPVTG,266.13,T,-373.77,M,004.085,N,007.566,K,D*07
$GPGGA,082816.25,5702.8642732,N,00949.6882852,E,2,5,1.6,-2.629,M,40.592,M,2.2,0123*58
$GPVTG,264.13,T,-375.77,M,004.157,N,007.700,K,D*0F
$GPGGA,082816.30,5702.8642604,N,00949.6881826,E,2,5,1.6,-2.631,M,40.592,M,2.2,0123*51
$GPVTG,261.09,T,-378.81,M,004.170,N,007.722,K,D*00
$GPGGA,082816.35,5702.8642562,N,00949.6880822,E,2,5,1.6,-2.627,M,40.592,M,2.2,0123*55
$GPVTG,260.57,T,-379.33,M,004.134,N,007.656,K,D*00
$GPGGA,082816.40,5702.8642455,N,00949.6879761,E,2,5,1.6,-2.626,M,40.592,M,2.2,0123*5D
$GPVTG,258.96,T,-380.94,M,004.185,N,007.752,K,D*02
$GPGGA,082816.45,5702.8642325,N,00949.6878676,E,2,5,1.6,-2.606,M,40.592,M,2.5,0123*5B
$GPVTG,257.03,T,-382.87,M,004.233,N,007.839,K,D*0D
$GPGGA,082816.50,5702.8642197,N,00949.6877696,E,2,5,1.6,-2.607,M,40.592,M,2.5,0123*54
$GPVTG,255.48,T,-384.42,M,004.185,N,007.750,K,D*01
$GPGGA,082816.55,5702.8642075,N,00949.6876698,E,2,5,1.6,-2.607,M,40.592,M,2.5,0123*53
$GPVTG,254.51,T,-385.39,M,004.163,N,007.710,K,D*09
$GPGGA,082816.60,5702.8641906,N,00949.6875739,E,2,5,1.6,-2.608,M,40.592,M,2.5,0123*5D
$GPVTG,252.55,T,-387.35,M,004.124,N,007.637,K,D*02
$GPGGA,082816.65,5702.8641856,N,00949.6874871,E,2,5,1.6,-2.635,M,40.592,M,2.7,0123*52
$GPVTG,252.33,T,-387.57,M,004.060,N,007.520,K,D*02
$GPGGA,082816.70,5702.8641643,N,00949.6873893,E,2,5,1.6,-2.640,M,40.592,M,2.7,0123*55
$GPVTG,249.95,T,-389.95,M,004.087,N,007.570,K,D*08
$GPGGA,082816.75,5702.8641432,N,00949.6872929,E,2,5,1.6,-2.646,M,40.592,M,2.7,0123*53
$GPVTG,248.11,T,-391.79,M,004.097,N,007.588,K,D*08
$GPGGA,082816.80,5702.8641241,N,00949.6871954,E,2,5,1.6,-2.655,M,40.592,M,2.7,0123*50
$GPVTG,247.29,T,-392.61,M,004.105,N,007.603,K,D*0C
$GPGGA,082816.85,5702.8640939,N,00949.6870895,E,2,5,1.6,-2.609,M,40.592,M,2.9,0123*5A
$GPVTG,245.31,T,-394.59,M,004.102,N,007.596,K,D*02
$GPGGA,082816.90,5702.8640713,N,00949.6869970,E,2,5,1.6,-2.609,M,40.592,M,2.9,0123*5A
$GPVTG,244.02,T,-395.88,M,004.087,N,007.570,K,D*0A
$GPGGA,082816.95,5702.8640468,N,00949.6869081,E,2,5,1.6,-2.609,M,40.592,M,2.9,0123*57
$GPVTG,242.43,T,-397.47,M,004.054,N,007.509,K,D*08
$GPGGA,082817.00,5702.8640191,N,00949.6868218,E,2,5,1.6,-2.610,M,40.592,M,2.9,0123*52
$GPVTG,240.35,T,-399.55,M,004.029,N,007.462,K,D*00
$GPGGA,082817.05,5702.8639933,N,00949.6867354,E,2,5,1.6,-2.613,M,40.592,M,2.1,0123*54
$GPVTG,238.58,T,-401.32,M,004.057,N,007.514,K,D*0A
$GPGGA,082817.10,5702.8639665,N,00949.6866512,E,2,5,1.6,-2.615,M,40.592,M,2.1,0123*5F
$GPVTG,237.41,T,-402.49,M,004.005,N,007.417,K,D*07
$GPGGA,082817.15,5702.8639389,N,00949.6865688,E,2,5,1.6,-2.616,M,40.592,M,2.1,0123*5D
$GPVTG,236.22,T,-403.68,M,003.956,N,007.326,K,D*0C
$GPGGA,082817.20,5702.8639065,N,00949.6864823,E,2,5,1.6,-2.619,M,40.592,M,2.1,0123*5B
$GPVTG,234.72,T,-405.18,M,004.008,N,007.422,K,D*0C
$GPGGA,082817.25,5702.8638746,N,00949.6863993,E,2,5,1.6,-2.612,M,40.592,M,2.4,0123*5A
$GPVTG,233.15,T,-406.75,M,004.008,N,007.423,K,D*03
$GPGGA,082817.30,5702.8638439,N,00949.6863255,E,2,5,1.6,-2.610,M,40.592,M,2.4,0123*56
$GPVTG,231.52,T,-408.38,M,003.928,N,007.275,K,D*0C
$GPGGA,082817.35,5702.8638042,N,00949.6862479,E,2,5,1.6,-2.614,M,40.592,M,2.4,0123*56
$GPVTG,229.01,T,-410.89,M,003.989,N,007.388,K,D*08
$GPGGA,082817.40,5702.8637705,N,00949.6861800,E,2,5,1.6,-2.616,M,40.592,M,2.4,0123*5C
$GPVTG,227.05,T,-412.85,M,003.905,N,007.232,K,D*08
$GPGGA,082817.45,5702.8637429,N,00949.6861125,E,2,5,1.6,-2.617,M,40.592,M,2.6,0123*59
$GPVTG,225.84,T,-414.06,M,003.795,N,007.029,K,D*01
$GPGGA,082817.50,5702.8637096,N,00949.6860451,E,2,5,1.6,-2.622,M,40.592,M,2.6,0123*5C
$GPVTG,224.70,T,-415.20,M,003.734,N,006.915,K,D*02
$GPGGA,082817.55,5702.8636739,N,00949.6859768,E,2,5,1.6,-2.624,M,40.592,M,2.6,0123*5F
$GPVTG,223.61,T,-416.29,M,003.723,N,006.896,K,D*03
$GPGGA,082817.60,5702.8636323,N,00949.6859122,E,2,5,1.6,-2.629,M,40.592,M,2.6,0123*53
$GPVTG,221.37,T,-418.53,M,003.765,N,006.972,K,D*08
$GPGGA,082817.65,5702.8635896,N,00949.6858527,E,2,5,1.6,-2.605,M,40.592,M,2.9,0123*51
$GPVTG,219.18,T,-420.72,M,003.775,N,006.991,K,D*0A
$GPGGA,082817.70,5702.8635488,N,00949.6857926,E,2,5,1.6,-2.610,M,40.592,M,2.9,0123*50
$GPVTG,217.49,T,-422.41,M,003.779,N,006.999,K,D*06
$GPGGA,082817.75,5702.8635112,N,00949.6857356,E,2,5,1.6,-2.610,M,40.592,M,2.9,0123*5E
$GPVTG,216.30,T,-423.60,M,003.737,N,006.921,K,D*02
$GPGGA,082817.80,5702.8634734,N,00949.6856803,E,2,5,1.6,-2.611,M,40.592,M,2.9,0123*5C
$GPVTG,215.16,T,-424.74,M,003.693,N,006.839,K,D*00
$GPGGA,082817.85,5702.8634367,N,00949.6856415,E,2,5,1.6,-2.600,M,40.592,M,3.1,0123*59
$GPVTG,213.19,T,-426.71,M,003.663,N,006.784,K,D*08
$GPGGA,082817.90,5702.8633921,N,00949.6855940,E,2,5,1.6,-2.602,M,40.592,M,3.1,0123*5E
$GPVTG,211.10,T,-428.80,M,003.681,N,006.816,K,D*0B
$GPGGA,082817.95,5702.8633440,N,00949.6855505,E,2,5,1.6,-2.608,M,40.592,M,3.1,0123*56
$GPVTG,208.65,T,-431.25,M,003.728,N,006.903,K,D*01
$GPGGA,082818.00,5702.8632996,N,00949.6855051,E,2,5,1.6,-2.613,M,40.592,M,3.1,0123*5C
$GPVTG,207.11,T,-432.79,M,003.730,N,006.908,K,D*05
$GPGGA,082818.05,5702.8632550,N,00949.6854617,E,2,5,1.6,-2.619,M,40.592,M,1.4,0123*57
$GPVTG,205.60,T,-434.30,M,003.714,N,006.879,K,D*0B
$GPGGA,082818.10,5702.8632102,N,00949.6854185,E,2,5,1.6,-2.625,M,40.592,M,1.4,0123*53
$GPVTG,204.43,T,-435.47,M,003.713,N,006.877,K,D*03
$GPGGA,082818.15,5702.8631692,N,00949.6853817,E,2,5,1.6,-2.624,M,40.592,M,1.4,0123*5F
$GPVTG,203.23,T,-436.67,M,003.644,N,006.748,K,D*03
$GPGGA,082818.20,5702.8631236,N,00949.6853483,E,2,5,1.6,-2.633,M,40.592,M,1.4,0123*54
$GPVTG,201.50,T,-438.40,M,003.633,N,006.728,K,D*08
$GPGGA,082818.25,5702.8630812,N,00949.6853298,E,2,5,1.6,-2.615,M,40.592,M,1.7,0123*57
$GPVTG,199.22,T,-440.68,M,003.604,N,006.674,K,D*06
$GPGGA,082818.30,5702.8630382,N,00949.6852991,E,2,5,1.6,-2.616,M,40.592,M,1.7,0123*51
$GPVTG,198.05,T,-441.85,M,003.552,N,006.578,K,D*0F
$GPGGA,082818.35,5702.8629912,N,00949.6852744,E,2,5,1.6,-2.619,M,40.592,M,1.7,0123*56
$GPVTG,196.15,T,-443.75,M,003.554,N,006.582,K,D*0E
$GPGGA,082818.40,5702.8629446,N,00949.6852503,E,2,5,1.6,-2.623,M,40.592,M,1.7,0123*50
$GPVTG,194.55,T,-445.35,M,003.549,N,006.573,K,D*08
$GPGGA,082818.45,5702.8629005,N,00949.6852372,E,2,5,1.6,-2.617,M,40.592,M,1.9,0123*5F
$GPVTG,192.26,T,-447.64,M,003.526,N,006.529,K,D*0A
$GPGGA,082818.50,5702.8628543,N,00949.6852191,E,2,5,1.6,-2.621,M,40.592,M,1.9,0123*57
$GPVTG,190.65,T,-449.25,M,003.509,N,006.498,K,D*02
$GPGGA,082818.55,5702.8628088,N,00949.6851998,E,2,5,1.6,-2.627,M,40.592,M,1.9,0123*54
$GPVTG,189.46,T,-450.44,M,003.489,N,006.462,K,D*08
$GPGGA,082818.60,5702.8627628,N,00949.6851877,E,2,5,1.6,-2.633,M,40.592,M,1.9,0123*54
$GPVTG,187.71,T,-452.19,M,003.469,N,006.425,K,D*05
$GPGGA,082818.65,5702.8627221,N,00949.6851817,E,2,5,1.6,-2.620,M,40.592,M,2.1,0123*53
$GPVTG,186.19,T,-453.71,M,003.376,N,006.252,K,D*0A
$GPGGA,082818.70,5702.8626785,N,00949.6851750,E,2,5,1.6,-2.625,M,40.592,M,2.1,0123*54
$GPVTG,184.37,T,-455.53,M,003.329,N,006.166,K,D*0C
$GPGGA,082818.75,5702.8626357,N,00949.6851667,E,2,5,1.6,-2.635,M,40.592,M,2.1,0123*5E
$GPVTG,183.04,T,-456.86,M,003.281,N,006.076,K,D*03
$GPGGA,082818.80,5702.8625902,N,00949.6851641,E,2,5,1.6,-2.641,M,40.592,M,2.1,0123*5A
$GPVTG,181.22,T,-458.68,M,003.277,N,006.069,K,D*0C
$GPGGA,082818.85,5702.8625496,N,00949.6851805,E,2,5,1.6,-2.614,M,40.592,M,2.3,0123*53
$GPVTG,178.52,T,-461.38,M,003.239,N,005.998,K,D*0C
$GPGGA,082818.90,5702.8625015,N,00949.6851867,E,2,5,1.6,-2.621,M,40.592,M,2.3,0123*5A
$GPVTG,176.35,T,-463.55,M,003.290,N,006.094,K,D*0F
$GPGGA,082818.95,5702.8624588,N,00949.6851947,E,2,5,1.6,-2.624,M,40.592,M,2.3,0123*59
$GPVTG,174.25,T,-465.65,M,003.259,N,006.036,K,D*04
$GPGGA,082819.00,5702.8624171,N,00949.6852032,E,2,5,1.6,-2.629,M,40.592,M,2.3,0123*53
$GPVTG,172.39,T,-467.51,M,003.220,N,005.963,K,D*0E
$GPGGA,082819.05,5702.8623833,N,00949.6852170,E,2,5,1.6,-2.624,M,40.592,M,2.6,0123*51
$GPVTG,170.83,T,-469.07,M,003.069,N,005.684,K,D*09
$GPGGA,082819.10,5702.8623442,N,00949.6852317,E,2,5,1.6,-2.626,M,40.592,M,2.6,0123*5E
$GPVTG,168.56,T,-471.34,M,003.021,N,005.595,K,D*0E
$GPGGA,082819.15,5702.8623023,N,00949.6852498,E,2,5,1.6,-2.637,M,40.592,M,2.6,0123*58
$GPVTG,166.37,T,-473.53,M,003.032,N,005.615,K,D*0D
$GPGGA,082819.20,5702.8622613,N,00949.6852716,E,2,5,1.6,-2.647,M,40.592,M,2.6,0123*58
$GPVTG,164.04,T,-475.86,M,003.040,N,005.630,K,D*03
$GPGGA,082819.25,5702.8622252,N,00949.6853026,E,2,5,1.6,-2.632,M,40.592,M,2.8,0123*55
$GPVTG,161.24,T,-478.66,M,003.007,N,005.568,K,D*0A
$GPGGA,082819.30,5702.8621888,N,00949.6853247,E,2,5,1.6,-2.639,M,40.592,M,2.8,0123*51
$GPVTG,159.27,T,-480.63,M,002.960,N,005.482,K,D*0C
$GPGGA,082819.35,5702.8621544,N,00949.6853490,E,2,5,1.6,-2.645,M,40.592,M,2.8,0123*5E
$GPVTG,157.14,T,-482.76,M,002.902,N,005.374,K,D*0E
$GPGGA,082819.40,5702.8621187,N,00949.6853793,E,2,5,1.6,-2.653,M,40.592,M,2.8,0123*50
$GPVTG,154.73,T,-485.17,M,002.889,N,005.350,K,D*08
$GPGGA,082819.45,5702.8620875,N,00949.6854173,E,2,5,1.6,-2.634,M,40.592,M,3.0,0123*57
$GPVTG,151.71,T,-488.19,M,002.814,N,005.212,K,D*0F
$GPGGA,082819.50,5702.8620523,N,00949.6854534,E,2,5,1.6,-2.640,M,40.592,M,3.0,0123*59
$GPVTG,149.39,T,-490.51,M,002.836,N,005.253,K,D*0A
$GPGGA,082819.55,5702.8620193,N,00949.6854912,E,2,5,1.6,-2.641,M,40.592,M,3.0,0123*5A
$GPVTG,146.99,T,-492.91,M,002.838,N,005.257,K,D*0B
$GPGGA,082819.60,5702.8619886,N,00949.6855292,E,2,5,1.6,-2.642,M,40.592,M,3.0,0123*5A
$GPVTG,144.59,T,-495.31,M,002.816,N,005.216,K,D*01
$GPGGA,082819.65,5702.8619659,N,00949.6855705,E,2,5,1.6,-2.634,M,40.592,M,3.2,0123*5B
$GPVTG,141.64,T,-498.26,M,002.716,N,005.029,K,D*00
$GPGGA,082819.70,5702.8619413,N,00949.6856115,E,2,5,1.6,-2.642,M,40.592,M,3.2,0123*56
$GPVTG,138.50,T,-501.40,M,002.654,N,004.915,K,D*08
$GPGGA,082819.75,5702.8619142,N,00949.6856570,E,2,5,1.6,-2.648,M,40.592,M,3.2,0123*5F
$GPVTG,135.92,T,-503.98,M,002.660,N,004.927,K,D*0A
$GPGGA,082819.80,5702.8618841,N,00949.6857052,E,2,5,1.6,-2.655,M,40.592,M,3.2,0123*56
$GPVTG,134.27,T,-505.63,M,002.715,N,005.029,K,D*02
$GPGGA,082819.85,5702.8618601,N,00949.6857498,E,2,5,1.6,-2.634,M,40.592,M,3.4,0123*5A
$GPVTG,131.67,T,-508.23,M,002.659,N,004.924,K,D*06
$GPGGA,082819.90,5702.8618405,N,00949.6857990,E,2,5,1.6,-2.639,M,40.592,M,3.4,0123*50
$GPVTG,128.25,T,-511.65,M,002.618,N,004.849,K,D*0D
$GPGGA,082819.95,5702.8618165,N,00949.6858488,E,2,5,1.6,-2.641,M,40.592,M,3.4,0123*52
$GPVTG,126.51,T,-513.39,M,002.634,N,004.879,K,D*06
$GPGGA,082820.00,5702.8617931,N,00949.6859050,E,2,5,1.6,-2.646,M,40.592,M,3.4,0123*55
$GPVTG,124.50,T,-515.40,M,002.683,N,004.970,K,D*09
$GPGGA,082820.05,5702.8617782,N,00949.6859541,E,2,5,1.6,-2.639,M,40.592,M,1.9,0123*54
$GPVTG,120.94,T,-518.96,M,002.611,N,004.835,K,D*08
$GPGGA,082820.10,5702.8617613,N,00949.6860075,E,2,5,1.6,-2.645,M,40.592,M,1.9,0123*5A
$GPVTG,118.40,T,-521.50,M,002.597,N,004.809,K,D*08
$GPGGA,082820.15,5702.8617439,N,00949.6860632,E,2,5,1.6,-2.649,M,40.592,M,1.9,0123*5C
$GPVTG,116.38,T,-523.52,M,002.607,N,004.829,K,D*01
$GPGGA,082820.20,5702.8617276,N,00949.6861216,E,2,5,1.6,-2.656,M,40.592,M,1.9,0123*5A
$GPVTG,114.30,T,-525.60,M,002.629,N,004.869,K,D*04
$GPGGA,082820.25,5702.8617155,N,00949.6861740,E,2,5,1.6,-2.636,M,40.592,M,2.2,0123*55
$GPVTG,111.14,T,-528.76,M,002.562,N,004.744,K,D*01
$GPGGA,082820.30,5702.8617067,N,00949.6862317,E,2,5,1.6,-2.641,M,40.592,M,2.2,0123*54
$GPVTG,107.74,T,-532.16,M,002.545,N,004.713,K,D*0A
$GPGGA,082820.35,5702.8616949,N,00949.6862904,E,2,5,1.6,-2.647,M,40.592,M,2.2,0123*5B
$GPVTG,105.91,T,-533.99,M,002.556,N,004.734,K,D*02
$GPGGA,082820.40,5702.8616844,N,00949.6863528,E,2,5,1.6,-2.652,M,40.592,M,2.2,0123*52
$GPVTG,103.93,T,-535.97,M,002.587,N,004.790,K,D*0C
$GPGGA,082820.45,5702.8616671,N,00949.6864129,E,2,5,1.6,-2.616,M,40.592,M,2.5,0123*5A
$GPVTG,102.17,T,-537.73,M,002.605,N,004.825,K,D*01
$GPGGA,082820.50,5702.8616592,N,00949.6864766,E,2,5,1.6,-2.617,M,40.592,M,2.5,0123*5C
$GPVTG,100.15,T,-539.75,M,002.631,N,004.873,K,D*0D
$GPGGA,082820.55,5702.8616560,N,00949.6865388,E,2,5,1.6,-2.619,M,40.592,M,2.5,0123*5F
$GPVTG,097.55,T,-542.35,M,002.637,N,004.884,K,D*00
$GPGGA,082820.60,5702.8616513,N,00949.6866018,E,2,5,1.6,-2.619,M,40.592,M,2.5,0123*54
$GPVTG,095.55,T,-544.35,M,002.649,N,004.906,K,D*06
$GPGGA,082820.65,5702.8616490,N,00949.6866583,E,2,5,1.6,-2.604,M,40.592,M,2.7,0123*52
$GPVTG,093.76,T,-546.14,M,002.644,N,004.897,K,D*04
$GPGGA,082820.70,5702.8616461,N,00949.6867250,E,2,5,1.6,-2.608,M,40.592,M,2.7,0123*5C
$GPVTG,091.96,T,-547.94,M,002.676,N,004.957,K,D*0D
$GPGGA,082820.75,5702.8616451,N,00949.6867892,E,2,5,1.6,-2.611,M,40.592,M,2.7,0123*56
$GPVTG,090.06,T,-549.84,M,002.683,N,004.969,K,D*0D
$GPGGA,082820.80,5702.8616465,N,00949.6868555,E,2,5,1.6,-2.614,M,40.592,M,2.7,0123*57
$GPVTG,087.94,T,-551.96,M,002.705,N,005.010,K,D*03
$GPGGA,082820.85,5702.8616490,N,00949.6869044,E,2,5,1.6,-2.563,M,40.592,M,2.9,0123*51
$GPVTG,085.44,T,-554.46,M,002.545,N,004.713,K,D*07
$GPGGA,082820.90,5702.8616544,N,00949.6869593,E,2,5,1.6,-2.563,M,40.592,M,2.9,0123*52
$GPVTG,082.48,T,-557.42,M,002.448,N,004.533,K,D*07
$GPGGA,082820.95,5702.8616575,N,00949.6870276,E,2,5,1.6,-2.558,M,40.592,M,2.9,0123*59
$GPVTG,081.06,T,-558.84,M,002.535,N,004.694,K,D*0E
$GPGGA,082821.00,5702.8616637,N,00949.6870905,E,2,5,1.6,-2.558,M,40.592,M,2.9,0123*5E
$GPVTG,078.95,T,-560.95,M,002.553,N,004.727,K,D*00
$GPGGA,082821.05,5702.8616718,N,00949.6871514,E,2,5,1.6,-2.543,M,40.592,M,2.1,0123*58
$GPVTG,076.55,T,-563.35,M,002.548,N,004.719,K,D*0C
$GPGGA,082821.10,5702.8616810,N,00949.6872090,E,2,5,1.6,-2.542,M,40.592,M,2.1,0123*50
$GPVTG,074.08,T,-565.82,M,002.524,N,004.674,K,D*0C
$GPGGA,082821.15,5702.8616930,N,00949.6872689,E,2,5,1.6,-2.540,M,40.592,M,2.1,0123*5A
$GPVTG,071.45,T,-568.45,M,002.541,N,004.705,K,D*02
$GPGGA,082821.20,5702.8617062,N,00949.6873290,E,2,5,1.6,-2.535,M,40.592,M,2.1,0123*5C
$GPVTG,068.97,T,-570.93,M,002.566,N,004.752,K,D*00
$GPGGA,082821.25,5702.8617270,N,00949.6873853,E,2,5,1.6,-2.506,M,40.592,M,2.4,0123*58
$GPVTG,065.86,T,-574.04,M,002.574,N,004.766,K,D*03
$GPGGA,082821.30,5702.8617425,N,00949.6874377,E,2,5,1.6,-2.506,M,40.592,M,2.4,0123*50
$GPVTG,062.95,T,-576.95,M,002.544,N,004.712,K,D*0C
$GPGGA,082821.35,5702.8617593,N,00949.6874963,E,2,5,1.6,-2.501,M,40.592,M,2.4,0123*51
$GPVTG,060.84,T,-579.06,M,002.585,N,004.788,K,D*05
$GPGGA,082821.40,5702.8617767,N,00949.6875543,E,2,5,1.6,-2.496,M,40.592,M,2.4,0123*5A
$GPVTG,058.94,T,-580.96,M,002.624,N,004.859,K,D*0B
$GPGGA,082821.45,5702.8617905,N,00949.6876078,E,2,5,1.6,-2.481,M,40.592,M,2.6,0123*5F
$GPVTG,057.07,T,-582.83,M,002.638,N,004.885,K,D*04
$GPGGA,082821.50,5702.8618126,N,00949.6876595,E,2,5,1.6,-2.480,M,40.592,M,2.6,0123*5A
$GPVTG,054.18,T,-585.72,M,002.652,N,004.912,K,D*03
$GPGGA,082821.55,5702.8618354,N,00949.6877071,E,2,5,1.6,-2.482,M,40.592,M,2.6,0123*54
$GPVTG,051.15,T,-588.75,M,002.646,N,004.900,K,D*07
$GPGGA,082821.60,5702.8618579,N,00949.6877593,E,2,5,1.6,-2.477,M,40.592,M,2.6,0123*58
$GPVTG,049.25,T,-590.65,M,002.679,N,004.962,K,D*0D
$GPGGA,082821.65,5702.8618836,N,00949.6878071,E,2,5,1.6,-2.459,M,40.592,M,2.9,0123*5E
$GPVTG,046.90,T,-593.00,M,002.699,N,004.998,K,D*07
$GPGGA,082821.70,5702.8619075,N,00949.6878619,E,2,5,1.6,-2.456,M,40.592,M,2.9,0123*53
$GPVTG,046.06,T,-593.84,M,002.759,N,005.110,K,D*00
$GPGGA,082821.75,5702.8619357,N,00949.6879081,E,2,5,1.6,-2.456,M,40.592,M,2.9,0123*53
$GPVTG,043.49,T,-596.41,M,002.788,N,005.164,K,D*0D
$GPGGA,082821.80,5702.8619654,N,00949.6879532,E,2,5,1.6,-2.455,M,40.592,M,2.9,0123*51
$GPVTG,040.99,T,-598.91,M,002.826,N,005.233,K,D*0A
$GPGGA,082821.85,5702.8619934,N,00949.6879909,E,2,5,1.6,-2.436,M,40.592,M,3.1,0123*55
$GPVTG,038.16,T,-601.74,M,002.830,N,005.240,K,D*09
$GPGGA,082821.90,5702.8620237,N,00949.6880333,E,2,5,1.6,-2.432,M,40.592,M,3.1,0123*52
$GPVTG,036.15,T,-603.75,M,002.858,N,005.293,K,D*07
$GPGGA,082821.95,5702.8620566,N,00949.6880744,E,2,5,1.6,-2.428,M,40.592,M,3.1,0123*5B
$GPVTG,034.03,T,-605.87,M,002.906,N,005.383,K,D*03
$GPGGA,082822.00,5702.8620896,N,00949.6881162,E,2,5,1.6,-2.424,M,40.592,M,3.1,0123*59
$GPVTG,032.45,T,-607.45,M,002.955,N,005.473,K,D*05
$GPGGA,082822.05,5702.8621172,N,00949.6881528,E,2,5,1.6,-2.410,M,40.592,M,1.4,0123*54
$GPVTG,030.96,T,-608.94,M,002.972,N,005.504,K,D*0E
$GPGGA,082822.10,5702.8621524,N,00949.6881863,E,2,5,1.6,-2.409,M,40.592,M,1.4,0123*5D
$GPVTG,028.53,T,-611.37,M,002.995,N,005.546,K,D*00
$GPGGA,082822.15,5702.8621893,N,00949.6882181,E,2,5,1.6,-2.409,M,40.592,M,1.4,0123*5F
$GPVTG,026.16,T,-613.74,M,003.031,N,005.613,K,D*0F
$GPGGA,082822.20,5702.8622257,N,00949.6882501,E,2,5,1.6,-2.408,M,40.592,M,1.4,0123*55
$GPVTG,024.36,T,-615.54,M,003.061,N,005.669,K,D*03
$GPGGA,082822.25,5702.8622567,N,00949.6882774,E,2,5,1.6,-2.393,M,40.592,M,1.7,0123*52
$GPVTG,023.64,T,-616.26,M,003.098,N,005.737,K,D*09
$GPGGA,082822.30,5702.8622958,N,00949.6883115,E,2,5,1.6,-2.392,M,40.592,M,1.7,0123*57
$GPVTG,022.94,T,-616.96,M,003.155,N,005.844,K,D*07
$GPGGA,082822.35,5702.8623310,N,00949.6883331,E,2,5,1.6,-2.390,M,40.592,M,1.7,0123*53
$GPVTG,020.27,T,-619.63,M,003.078,N,005.701,K,D*08
$GPGGA,082822.40,5702.8623686,N,00949.6883536,E,2,5,1.6,-2.386,M,40.592,M,1.7,0123*5D
$GPVTG,017.76,T,-622.14,M,003.056,N,005.660,K,D*0A
$GPGGA,082822.45,5702.8624053,N,00949.6883758,E,2,5,1.6,-2.381,M,40.592,M,1.9,0123*52
$GPVTG,015.74,T,-624.16,M,003.109,N,005.759,K,D*0E
$GPGGA,082822.50,5702.8624508,N,00949.6883997,E,2,5,1.6,-2.379,M,40.592,M,1.9,0123*57
$GPVTG,014.49,T,-625.41,M,003.223,N,005.968,K,D*05
$GPGGA,082822.55,5702.8624924,N,00949.6884157,E,2,5,1.6,-2.380,M,40.592,M,1.9,0123*55
$GPVTG,012.39,T,-627.51,M,003.238,N,005.996,K,D*0C
$GPGGA,082822.60,5702.8625327,N,00949.6884239,E,2,5,1.6,-2.383,M,40.592,M,1.9,0123*53
$GPVTG,009.48,T,-630.42,M,003.218,N,005.959,K,D*05
$GPGGA,082822.65,5702.8625799,N,00949.6884285,E,2,5,1.6,-2.360,M,40.592,M,2.1,0123*56
$GPVTG,007.32,T,-632.58,M,003.289,N,006.091,K,D*09
$GPGGA,082822.70,5702.8626226,N,00949.6884370,E,2,5,1.6,-2.356,M,40.592,M,2.1,0123*5E
$GPVTG,005.53,T,-634.37,M,003.302,N,006.116,K,D*0F
$GPGGA,082822.75,5702.8626693,N,00949.6884453,E,2,5,1.6,-2.351,M,40.592,M,2.1,0123*50
$GPVTG,004.05,T,-635.85,M,003.371,N,006.243,K,D*02
$GPGGA,082822.80,5702.8627175,N,00949.6884488,E,2,5,1.6,-2.346,M,40.592,M,2.1,0123*54
$GPVTG,002.25,T,-637.65,M,003.445,N,006.381,K,D*05
$GPGGA,082822.85,5702.8627598,N,00949.6884482,E,2,5,1.6,-2.343,M,40.592,M,2.3,0123*5B
$GPVTG,359.67,T,-280.23,M,003.456,N,006.400,K,D*08
$GPGGA,082822.90,5702.8628036,N,00949.6884428,E,2,5,1.6,-2.342,M,40.592,M,2.3,0123*50
$GPVTG,357.52,T,-282.38,M,003.463,N,006.414,K,D*0B
$GPGGA,082822.95,5702.8628536,N,00949.6884420,E,2,5,1.6,-2.340,M,40.592,M,2.3,0123*5A
$GPVTG,356.50,T,-283.40,M,003.545,N,006.565,K,D*04
$GPGGA,082823.00,5702.8629003,N,00949.6884379,E,2,5,1.6,-2.339,M,40.592,M,2.3,0123*50
$GPVTG,355.27,T,-284.63,M,003.577,N,006.625,K,D*07
$GPGGA,082823.05,5702.8629358,N,00949.6884331,E,2,5,1.6,-2.345,M,40.592,M,2.6,0123*5A
$GPVTG,353.89,T,-286.01,M,003.553,N,006.580,K,D*09
$GPGGA,082823.10,5702.8629886,N,00949.6884217,E,2,5,1.6,-2.343,M,40.592,M,2.6,0123*55
$GPVTG,352.49,T,-287.41,M,003.655,N,006.768,K,D*00
$GPGGA,082823.15,5702.8630310,N,00949.6884126,E,2,5,1.6,-2.343,M,40.592,M,2.6,0123*5D
$GPVTG,351.38,T,-288.52,M,003.629,N,006.720,K,D*0F
$GPGGA,082823.20,5702.8630754,N,00949.6883954,E,2,5,1.6,-2.347,M,40.592,M,2.6,0123*51
$GPVTG,349.68,T,-290.22,M,003.634,N,006.730,K,D*00
$GPGGA,082823.25,5702.8631156,N,00949.6883779,E,2,5,1.6,-2.345,M,40.592,M,2.8,0123*5C
$GPVTG,348.45,T,-291.45,M,003.664,N,006.786,K,D*06
$GPGGA,082823.30,5702.8631638,N,00949.6883562,E,2,5,1.6,-2.348,M,40.592,M,2.8,0123*52
$GPVTG,346.91,T,-292.99,M,003.709,N,006.870,K,D*0F
$GPGGA,082823.35,5702.8632132,N,00949.6883320,E,2,5,1.6,-2.354,M,40.592,M,2.8,0123*54
$GPVTG,345.47,T,-294.43,M,003.765,N,006.973,K,D*0E
$GPGGA,082823.40,5702.8632588,N,00949.6883102,E,2,5,1.6,-2.357,M,40.592,M,2.8,0123*52
$GPVTG,344.33,T,-295.57,M,003.775,N,006.991,K,D*05
$GPGGA,082823.45,5702.8633019,N,00949.6882837,E,2,5,1.6,-2.347,M,40.592,M,3.0,0123*5D
$GPVTG,343.23,T,-296.67,M,003.775,N,006.991,K,D*03
$GPGGA,082823.50,5702.8633495,N,00949.6882511,E,2,5,1.6,-2.350,M,40.592,M,3.0,0123*56
$GPVTG,341.61,T,-298.29,M,003.818,N,007.070,K,D*00
$GPGGA,082823.55,5702.8633964,N,00949.6882189,E,2,5,1.6,-2.351,M,40.592,M,3.0,0123*54
$GPVTG,340.26,T,-299.64,M,003.850,N,007.130,K,D*03
$GPGGA,082823.60,5702.8634453,N,00949.6881841,E,2,5,1.6,-2.355,M,40.592,M,3.0,0123*56
$GPVTG,339.01,T,-300.89,M,003.900,N,007.222,K,D*0E
$GPGGA,082823.65,5702.8634822,N,00949.6881451,E,2,5,1.6,-2.349,M,40.592,M,3.2,0123*5B
$GPVTG,337.56,T,-302.34,M,003.896,N,007.215,K,D*0C
$GPGGA,082823.70,5702.8635296,N,00949.6881071,E,2,5,1.6,-2.350,M,40.592,M,3.2,0123*55
$GPVTG,336.39,T,-303.51,M,003.932,N,007.283,K,D*06
$GPGGA,082823.75,5702.8635771,N,00949.6880671,E,2,5,1.6,-2.352,M,40.592,M,3.2,0123*59
$GPVTG,335.26,T,-304.64,M,003.971,N,007.354,K,D*06
$GPGGA,082823.80,5702.8636249,N,00949.6880232,E,2,5,1.6,-2.357,M,40.592,M,3.2,0123*58
$GPVTG,334.06,T,-305.84,M,004.016,N,007.437,K,D*07
$GPGGA,082823.85,5702.8636613,N,00949.6879677,E,2,5,1.6,-2.355,M,40.592,M,3.4,0123*51
$GPVTG,331.94,T,-307.96,M,004.032,N,007.468,K,D*04
$GPGGA,082823.90,5702.8637052,N,00949.6879196,E,2,5,1.6,-2.358,M,40.592,M,3.4,0123*52
$GPVTG,330.66,T,-309.24,M,004.051,N,007.503,K,D*06
$GPGGA,082823.95,5702.8637501,N,00949.6878683,E,2,5,1.6,-2.363,M,40.592,M,3.4,0123*5E
$GPVTG,329.39,T,-310.51,M,004.083,N,007.563,K,D*07
$GPGGA,082824.00,5702.8637967,N,00949.6878116,E,2,5,1.6,-2.365,M,40.592,M,3.4,0123*54
$GPVTG,328.07,T,-311.83,M,004.137,N,007.663,K,D*08
$GPGGA,082824.05,5702.8638277,N,00949.6877507,E,2,5,1.6,-2.377,M,40.592,M,1.9,0123*53
$GPVTG,326.33,T,-313.57,M,004.155,N,007.695,K,D*07
$GPGGA,082824.10,5702.8638685,N,00949.6876945,E,2,5,1.6,-2.382,M,40.592,M,1.9,0123*5F
$GPVTG,325.09,T,-314.81,M,004.161,N,007.706,K,D*0D
$GPGGA,082824.15,5702.8639095,N,00949.6876337,E,2,5,1.6,-2.389,M,40.592,M,1.9,0123*58
$GPVTG,323.74,T,-316.16,M,004.180,N,007.742,K,D*02
$GPGGA,082824.20,5702.8639515,N,00949.6875765,E,2,5,1.6,-2.396,M,40.592,M,1.9,0123*5D
$GPVTG,322.82,T,-317.08,M,004.192,N,007.763,K,D*04
$GPGGA,082824.25,5702.8639847,N,00949.6875077,E,2,5,1.6,-2.380,M,40.592,M,2.2,0123*59
$GPVTG,321.79,T,-318.11,M,004.203,N,007.783,K,D*01
$GPGGA,082824.30,5702.8640253,N,00949.6874399,E,2,5,1.6,-2.386,M,40.592,M,2.2,0123*58
$GPVTG,320.46,T,-319.44,M,004.233,N,007.839,K,D*00
$GPGGA,082824.35,5702.8640656,N,00949.6873691,E,2,5,1.6,-2.393,M,40.592,M,2.2,0123*52
$GPVTG,319.13,T,-320.77,M,004.267,N,007.903,K,D*09
$GPGGA,082824.40,5702.8641048,N,00949.6872948,E,2,5,1.6,-2.402,M,40.592,M,2.2,0123*5D
$GPVTG,317.72,T,-322.18,M,004.303,N,007.969,K,D*04
$GPGGA,082824.45,5702.8641271,N,00949.6872231,E,2,5,1.6,-2.407,M,40.592,M,2.5,0123*57
$GPVTG,316.21,T,-323.69,M,004.290,N,007.945,K,D*01
$GPGGA,082824.50,5702.8641580,N,00949.6871508,E,2,5,1.6,-2.411,M,40.592,M,2.5,0123*53
$GPVTG,314.85,T,-325.05,M,004.285,N,007.935,K,D*02
$GPGGA,082824.55,5702.8641956,N,00949.6870786,E,2,5,1.6,-2.418,M,40.592,M,2.5,0123*5D
$GPVTG,313.96,T,-325.94,M,004.299,N,007.961,K,D*03
$GPGGA,082824.60,5702.8642318,N,00949.6870017,E,2,5,1.6,-2.427,M,40.592,M,2.5,0123*5B
$GPVTG,312.88,T,-327.02,M,004.318,N,007.997,K,D*01
$GPGGA,082824.65,5702.8642620,N,00949.6869156,E,2,5,1.6,-2.409,M,40.592,M,2.7,0123*52
$GPVTG,311.09,T,-328.81,M,004.290,N,007.944,K,D*00
$GPGGA,082824.70,5702.8642924,N,00949.6868342,E,2,5,1.6,-2.416,M,40.592,M,2.7,0123*55
$GPVTG,309.36,T,-330.54,M,004.268,N,007.904,K,D*07
$GPGGA,082824.75,5702.8643272,N,00949.6867579,E,2,5,1.6,-2.426,M,40.592,M,2.7,0123*5B
$GPVTG,308.72,T,-331.18,M,004.231,N,007.835,K,D*00
$GPGGA,082824.80,5702.8643550,N,00949.6866818,E,2,5,1.6,-2.434,M,40.592,M,2.7,0123*5E
$GPVTG,307.37,T,-332.53,M,004.135,N,007.658,K,D*00
$GPGGA,082824.85,5702.8643749,N,00949.6865893,E,2,5,1.6,-2.425,M,40.592,M,2.9,0123*5F
$GPVTG,305.45,T,-334.45,M,004.111,N,007.614,K,D*08
$GPGGA,082824.90,5702.8644067,N,00949.6865126,E,2,5,1.6,-2.436,M,40.592,M,2.9,0123*52
$GPVTG,305.03,T,-334.87,M,004.033,N,007.468,K,D*0C
$GPGGA,082824.95,5702.8644417,N,00949.6864389,E,2,5,1.6,-2.447,M,40.592,M,2.9,0123*54
$GPVTG,305.53,T,-334.37,M,003.960,N,007.334,K,D*04
$GPGGA,082825.00,5702.8644689,N,00949.6863584,E,2,5,1.6,-2.465,M,40.592,M,2.9,0123*50
$GPVTG,304.15,T,-335.75,M,003.897,N,007.217,K,D*09
$GPGGA,082825.05,5702.8644974,N,00949.6862849,E,2,5,1.6,-2.473,M,40.592,M,2.1,0123*5A
$GPVTG,304.00,T,-335.90,M,003.791,N,007.021,K,D*08
$GPGGA,082825.10,5702.8645237,N,00949.6862061,E,2,5,1.6,-2.489,M,40.592,M,2.1,0123*54
$GPVTG,302.80,T,-337.10,M,003.726,N,006.901,K,D*0A
$GPGGA,082825.15,5702.8645537,N,00949.6861268,E,2,5,1.6,-2.502,M,40.592,M,2.1,0123*5C
$GPVTG,302.46,T,-337.44,M,003.708,N,006.868,K,D*03
$GPGGA,082825.20,5702.8645808,N,00949.6860500,E,2,5,1.6,-2.518,M,40.592,M,2.1,0123*58
$GPVTG,301.87,T,-338.03,M,003.649,N,006.759,K,D*08
$GPGGA,082825.25,5702.8646044,N,00949.6859744,E,2,5,1.6,-2.514,M,40.592,M,2.4,0123*5F
$GPVTG,301.69,T,-338.21,M,003.530,N,006.538,K,D*00
$GPGGA,082825.30,5702.8646269,N,00949.6858988,E,2,5,1.6,-2.532,M,40.592,M,2.4,0123*5D
$GPVTG,300.39,T,-339.51,M,003.455,N,006.398,K,D*0C
$GPGGA,082825.35,5702.8646463,N,00949.6858225,E,2,5,1.6,-2.545,M,40.592,M,2.4,0123*58
$GPVTG,298.50,T,-341.40,M,003.379,N,006.259,K,D*09
$GPGGA,082825.40,5702.8646675,N,00949.6857547,E,2,5,1.6,-2.556,M,40.592,M,2.4,0123*51
$GPVTG,298.02,T,-341.88,M,003.251,N,006.021,K,D*0C
$GPGGA,082825.45,5702.8646833,N,00949.6856849,E,2,5,1.6,-2.554,M,40.592,M,2.6,0123*5A
$GPVTG,297.47,T,-342.43,M,003.165,N,005.862,K,D*0E
$GPGGA,082825.50,5702.8647036,N,00949.6856133,E,2,5,1.6,-2.566,M,40.592,M,2.6,0123*57
$GPVTG,296.62,T,-343.28,M,003.111,N,005.762,K,D*08
$GPGGA,082825.55,5702.8647199,N,00949.6855385,E,2,5,1.6,-2.575,M,40.592,M,2.6,0123*58
$GPVTG,294.57,T,-345.33,M,003.078,N,005.701,K,D*0B
$GPGGA,082825.60,5702.8647305,N,00949.6854718,E,2,5,1.6,-2.585,M,40.592,M,2.6,0123*57
$GPVTG,291.93,T,-347.97,M,002.940,N,005.446,K,D*09
$GPGGA,082825.65,5702.8647421,N,00949.6854128,E,2,5,1.6,-2.576,M,40.592,M,2.9,0123*55
$GPVTG,291.36,T,-348.54,M,002.744,N,005.081,K,D*03
$GPGGA,082825.70,5702.8647483,N,00949.6853513,E,2,5,1.6,-2.581,M,40.592,M,2.9,0123*5A
$GPVTG,287.89,T,-352.01,M,002.595,N,004.805,K,D*00
$GPGGA,082825.75,5702.8647551,N,00949.6852801,E,2,5,1.6,-2.589,M,40.592,M,2.9,0123*56
$GPVTG,284.24,T,-355.66,M,002.595,N,004.805,K,D*02
$GPGGA,082825.80,5702.8647676,N,00949.6852150,E,2,5,1.6,-2.594,M,40.592,M,2.9,0123*5B
$GPVTG,283.48,T,-356.42,M,002.562,N,004.745,K,D*09
$GPGGA,082825.85,5702.8647726,N,00949.6851567,E,2,5,1.6,-2.577,M,40.592,M,3.1,0123*5D
$GPVTG,281.99,T,-357.91,M,002.420,N,004.482,K,D*07
$GPGGA,082825.90,5702.8647794,N,00949.6851030,E,2,5,1.6,-2.579,M,40.592,M,3.1,0123*59
$GPVTG,280.35,T,-359.55,M,002.283,N,004.228,K,D*0F
$GPGGA,082825.95,5702.8647836,N,00949.6850415,E,2,5,1.6,-2.588,M,40.592,M,3.1,0123*57
$GPVTG,277.56,T,-362.34,M,002.262,N,004.189,K,D*0A
$GPGGA,082826.00,5702.8647876,N,00949.6849835,E,2,5,1.6,-2.591,M,40.592,M,3.1,0123*52
$GPVTG,275.29,T,-364.61,M,002.216,N,004.105,K,D*01
$GPGGA,082826.05,5702.8647996,N,00949.6849232,E,2,5,1.6,-2.572,M,40.592,M,1.4,0123*5F
$GPVTG,276.33,T,-363.57,M,002.209,N,004.092,K,D*0A
$GPGGA,082826.10,5702.8648102,N,00949.6848679,E,2,5,1.6,-2.577,M,40.592,M,1.4,0123*5E
$GPVTG,277.42,T,-362.48,M,002.169,N,004.017,K,D*0A
$GPGGA,082826.15,5702.8648129,N,00949.6848119,E,2,5,1.6,-2.584,M,40.592,M,1.4,0123*5F
$GPVTG,275.34,T,-364.56,M,002.137,N,003.957,K,D*01
$GPGGA,082826.20,5702.8648209,N,00949.6847604,E,2,5,1.6,-2.589,M,40.592,M,1.4,0123*51
$GPVTG,275.96,T,-363.94,M,002.074,N,003.841,K,D*00
$GPGGA,082826.25,5702.8648457,N,00949.6847017,E,2,5,1.6,-2.566,M,40.592,M,1.7,0123*5F
$GPVTG,279.68,T,-360.22,M,002.096,N,003.881,K,D*03
$GPGGA,082826.30,5702.8648558,N,00949.6846460,E,2,5,1.6,-2.575,M,40.592,M,1.7,0123*52
$GPVTG,280.88,T,-359.02,M,002.110,N,003.907,K,D*03
$GPGGA,082826.35,5702.8648604,N,00949.6845924,E,2,5,1.6,-2.587,M,40.592,M,1.7,0123*5E
$GPVTG,279.87,T,-360.03,M,002.087,N,003.865,K,D*0B
$GPGGA,082826.40,5702.8648717,N,00949.6845439,E,2,5,1.6,-2.595,M,40.592,M,1.7,0123*5D
$GPVTG,282.19,T,-357.71,M,002.034,N,003.766,K,D*0D
$GPGGA,082826.45,5702.8648912,N,00949.6844847,E,2,5,1.6,-2.564,M,40.592,M,1.9,0123*57
$GPVTG,284.62,T,-355.28,M,002.027,N,003.754,K,D*0A
$GPGGA,082826.50,5702.8648998,N,00949.6844293,E,2,5,1.6,-2.573,M,40.592,M,1.9,0123*54
$GPVTG,284.83,T,-355.07,M,002.068,N,003.831,K,D*0F
$GPGGA,082826.55,5702.8649128,N,00949.6843742,E,2,5,1.6,-2.582,M,40.592,M,1.9,0123*53
$GPVTG,286.82,T,-353.08,M,002.120,N,003.926,K,D*0F
$GPGGA,082826.60,5702.8649277,N,00949.6843240,E,2,5,1.6,-2.589,M,40.592,M,1.9,0123*50
$GPVTG,289.80,T,-350.10,M,002.126,N,003.938,K,D*01
$GPGGA,082826.65,5702.8649482,N,00949.6842720,E,2,5,1.6,-2.569,M,40.592,M,2.1,0123*5E
$GPVTG,292.66,T,-347.24,M,002.086,N,003.864,K,D*01
$GPGGA,082826.70,5702.8649628,N,00949.6842196,E,2,5,1.6,-2.581,M,40.592,M,2.1,0123*55
$GPVTG,294.35,T,-345.55,M,002.134,N,003.952,K,D*09
$GPGGA,082826.75,5702.8649742,N,00949.6841683,E,2,5,1.6,-2.591,M,40.592,M,2.1,0123*5C
$GPVTG,294.62,T,-345.28,M,002.144,N,003.972,K,D*04
$GPGGA,082826.80,5702.8649901,N,00949.6841205,E,2,5,1.6,-2.600,M,40.592,M,2.1,0123*5E
$GPVTG,296.94,T,-342.96,M,002.150,N,003.982,K,D*07
$GPGGA,082826.85,5702.8650143,N,00949.6840602,E,2,5,1.6,-2.560,M,40.592,M,2.3,0123*58
$GPVTG,300.34,T,-339.56,M,002.189,N,004.054,K,D*02
$GPGGA,082826.90,5702.8650284,N,00949.6840082,E,2,5,1.6,-2.566,M,40.592,M,2.3,0123*5C
$GPVTG,300.37,T,-339.53,M,002.226,N,004.123,K,D*03
$GPGGA,082826.95,5702.8650444,N,00949.6839574,E,2,5,1.6,-2.574,M,40.592,M,2.3,0123*52
$GPVTG,301.18,T,-338.72,M,002.259,N,004.184,K,D*08
$GPGGA,082827.00,5702.8650602,N,00949.6839059,E,2,5,1.6,-2.584,M,40.592,M,2.3,0123*5A
$GPVTG,301.60,T,-338.30,M,002.293,N,004.246,K,D*0A
$GPGGA,082827.05,5702.8650802,N,00949.6838490,E,2,5,1.6,-2.560,M,40.592,M,2.6,0123*5E
$GPVTG,302.58,T,-337.32,M,002.315,N,004.287,K,D*0D
$GPGGA,082827.10,5702.8650953,N,00949.6838024,E,2,5,1.6,-2.568,M,40.592,M,2.6,0123*5C
$GPVTG,303.11,T,-336.79,M,002.282,N,004.227,K,D*0A
$GPGGA,082827.15,5702.8651100,N,00949.6837558,E,2,5,1.6,-2.575,M,40.592,M,2.6,0123*5B
$GPVTG,303.39,T,-336.51,M,002.252,N,004.171,K,D*07
$GPGGA,082827.20,5702.8651253,N,00949.6837088,E,2,5,1.6,-2.583,M,40.592,M,2.6,0123*59
$GPVTG,303.62,T,-336.28,M,002.235,N,004.139,K,D*0A
$GPGGA,082827.25,5702.8651369,N,00949.6836537,E,2,5,1.6,-2.561,M,40.592,M,2.8,0123*56
$GPVTG,302.73,T,-337.17,M,002.214,N,004.100,K,D*0F
$GPGGA,082827.30,5702.8651504,N,00949.6836115,E,2,5,1.6,-2.567,M,40.592,M,2.8,0123*5D
$GPVTG,303.04,T,-336.86,M,002.136,N,003.956,K,D*08
$GPGGA,082827.35,5702.8651599,N,00949.6835679,E,2,5,1.6,-2.577,M,40.592,M,2.8,0123*53
$GPVTG,301.46,T,-338.44,M,002.052,N,003.800,K,D*0D
$GPGGA,082827.40,5702.8651736,N,00949.6835235,E,2,5,1.6,-2.585,M,40.592,M,2.8,0123*57
$GPVTG,301.37,T,-338.53,M,002.025,N,003.750,K,D*07
$GPGGA,082827.45,5702.8651781,N,00949.6834661,E,2,5,1.6,-2.554,M,40.592,M,3.0,0123*5F
$GPVTG,298.18,T,-341.72,M,001.974,N,003.655,K,D*0C
$GPGGA,082827.50,5702.8651910,N,00949.6834242,E,2,5,1.6,-2.554,M,40.592,M,3.0,0123*58
$GPVTG,298.49,T,-341.41,M,001.929,N,003.573,K,D*07
$GPGGA,082827.55,5702.8652041,N,00949.6833829,E,2,5,1.6,-2.561,M,40.592,M,3.0,0123*55
$GPVTG,298.85,T,-341.05,M,001.891,N,003.503,K,D*02
$GPGGA,082827.60,5702.8652148,N,00949.6833359,E,2,5,1.6,-2.569,M,40.592,M,3.0,0123*5F
$GPVTG,297.21,T,-342.69,M,001.901,N,003.520,K,D*03
$GPGGA,082827.65,5702.8652259,N,00949.6832890,E,2,5,1.6,-2.550,M,40.592,M,3.2,0123*5E
$GPVTG,297.55,T,-342.35,M,001.861,N,003.447,K,D*0E
$GPGGA,082827.70,5702.8652349,N,00949.6832481,E,2,5,1.6,-2.556,M,40.592,M,3.2,0123*50
$GPVTG,296.30,T,-343.60,M,001.808,N,003.348,K,D*0A
$GPGGA,082827.75,5702.8652461,N,00949.6832057,E,2,5,1.6,-2.562,M,40.592,M,3.2,0123*50
$GPVTG,295.87,T,-344.03,M,001.797,N,003.328,K,D*08
$GPGGA,082827.80,5702.8652559,N,00949.6831593,E,2,5,1.6,-2.570,M,40.592,M,3.2,0123*5D
$GPVTG,294.26,T,-345.64,M,001.821,N,003.373,K,D*0E
$GPGGA,082827.85,5702.8652703,N,00949.6831056,E,2,5,1.6,-2.547,M,40.592,M,3.4,0123*5B
$GPVTG,294.53,T,-345.37,M,001.872,N,003.467,K,D*0E
$GPGGA,082827.90,5702.8652799,N,00949.6830630,E,2,5,1.6,-2.555,M,40.592,M,3.4,0123*58
$GPVTG,293.73,T,-346.17,M,001.850,N,003.426,K,D*0F
$GPGGA,082827.95,5702.8652875,N,00949.6830177,E,2,5,1.6,-2.564,M,40.592,M,3.4,0123*56
$GPVTG,291.73,T,-348.17,M,001.849,N,003.425,K,D*08
$GPGGA,082828.00,5702.8653004,N,00949.6829763,E,2,5,1.6,-2.569,M,40.592,M,3.4,0123*5C
$GPVTG,293.00,T,-346.90,M,001.840,N,003.408,K,D*09
$GPGGA,082828.05,5702.8653122,N,00949.6829265,E,2,5,1.6,-2.556,M,40.592,M,1.9,0123*5C
$GPVTG,292.22,T,-347.68,M,001.849,N,003.425,K,D*08
$GPGGA,082828.10,5702.8653244,N,00949.6828840,E,2,5,1.6,-2.561,M,40.592,M,1.9,0123*53
$GPVTG,293.14,T,-346.76,M,001.848,N,003.422,K,D*04
$GPGGA,082828.15,5702.8653360,N,00949.6828374,E,2,5,1.6,-2.568,M,40.592,M,1.9,0123*54
$GPVTG,293.04,T,-346.86,M,001.889,N,003.499,K,D*07
$GPGGA,082828.20,5702.8653436,N,00949.6827999,E,2,5,1.6,-2.574,M,40.592,M,1.9,0123*5D
$GPVTG,292.48,T,-347.42,M,001.802,N,003.338,K,D*08
$GPGGA,082828.25,5702.8653556,N,00949.6827402,E,2,5,1.6,-2.529,M,40.592,M,2.2,0123*50
$GPVTG,290.62,T,-349.28,M,001.837,N,003.402,K,D*08
$GPGGA,082828.30,5702.8653625,N,00949.6826933,E,2,5,1.6,-2.529,M,40.592,M,2.2,0123*5D
$GPVTG,288.48,T,-351.42,M,001.857,N,003.439,K,D*02
$GPGGA,082828.35,5702.8653733,N,00949.6826521,E,2,5,1.6,-2.525,M,40.592,M,2.2,0123*5D
$GPVTG,289.85,T,-350.05,M,001.833,N,003.396,K,D*00
$GPGGA,082828.40,5702.8653829,N,00949.6826001,E,2,5,1.6,-2.524,M,40.592,M,2.2,0123*5D
$GPVTG,289.01,T,-350.89,M,001.929,N,003.572,K,D*0E
$GPGGA,082828.45,5702.8653988,N,00949.6825585,E,2,5,1.6,-2.523,M,40.592,M,2.5,0123*58
$GPVTG,290.52,T,-349.38,M,001.931,N,003.576,K,D*0F
$GPGGA,082828.50,5702.8654086,N,00949.6825218,E,2,5,1.6,-2.525,M,40.592,M,2.5,0123*59
$GPVTG,291.79,T,-348.11,M,001.832,N,003.394,K,D*05
$GPGGA,082828.55,5702.8654194,N,00949.6824810,E,2,5,1.6,-2.527,M,40.592,M,2.5,0123*5F
$GPVTG,292.86,T,-347.04,M,001.808,N,003.348,K,D*05
$GPGGA,082828.60,5702.8654307,N,00949.6824415,E,2,5,1.6,-2.527,M,40.592,M,2.5,0123*58
$GPVTG,294.26,T,-345.64,M,001.779,N,003.295,K,D*05
$GPGGA,082828.65,5702.8654432,N,00949.6824017,E,2,5,1.6,-2.514,M,40.592,M,2.7,0123*58
$GPVTG,293.50,T,-346.40,M,001.767,N,003.273,K,D*01
$GPGGA,082828.70,5702.8654503,N,00949.6823641,E,2,5,1.6,-2.518,M,40.592,M,2.7,0123*51
$GPVTG,293.11,T,-346.79,M,001.703,N,003.154,K,D*0A
$GPGGA,082828.75,5702.8654598,N,00949.6823306,E,2,5,1.6,-2.519,M,40.592,M,2.7,0123*51
$GPVTG,294.33,T,-345.57,M,001.620,N,002.999,K,D*0A
$GPGGA,082828.80,5702.8654682,N,00949.6822953,E,2,5,1.6,-2.523,M,40.592,M,2.7,0123*51
$GPVTG,294.50,T,-345.40,M,001.565,N,002.898,K,D*0B
$GPGGA,082828.85,5702.8654704,N,00949.6822519,E,2,5,1.6,-2.499,M,40.592,M,2.9,0123*57
$GPVTG,293.32,T,-346.58,M,001.534,N,002.841,K,D*02
$GPGGA,082828.90,5702.8654820,N,00949.6822163,E,2,5,1.6,-2.500,M,40.592,M,2.9,0123*52
