$GPGGA,093011.70,5702.9577009,N,00949.1592767,E,2,4,4.1,-2.139,M,40.592,M,2.3,0123*5A
$GPVTG,011.27,T,-628.63,M,003.966,N,007.345,K,D*08
$GPGGA,093011.75,5702.9577538,N,00949.1592960,E,2,4,4.1,-2.138,M,40.592,M,2.3,0123*50
$GPVTG,012.40,T,-627.50,M,004.005,N,007.418,K,D*01
$GPGGA,093011.80,5702.9578064,N,00949.1593171,E,2,4,4.1,-2.140,M,40.592,M,2.3,0123*5F
$GPVTG,013.48,T,-626.42,M,004.042,N,007.486,K,D*0E
$GPGGA,093011.85,5702.9578320,N,00949.1593409,E,2,4,4.1,-2.123,M,40.592,M,2.6,0123*53
$GPVTG,014.52,T,-625.38,M,004.012,N,007.429,K,D*0C
$GPGGA,093011.90,5702.9578856,N,00949.1593740,E,2,4,4.1,-2.130,M,40.592,M,2.6,0123*51
$GPVTG,016.16,T,-623.74,M,004.068,N,007.533,K,D*07
$GPGGA,093011.95,5702.9579391,N,00949.1594046,E,2,4,4.1,-2.140,M,40.592,M,2.6,0123*54
$GPVTG,017.37,T,-622.53,M,004.115,N,007.620,K,D*0B
$GPGGA,093012.00,5702.9579924,N,00949.1594298,E,2,4,4.1,-2.150,M,40.592,M,2.6,0123*5F
$GPVTG,018.02,T,-621.88,M,004.149,N,007.684,K,D*00
$GPGGA,093012.05,5702.9580172,N,00949.1594680,E,2,4,4.1,-2.135,M,40.592,M,2.8,0123*57
$GPVTG,019.57,T,-620.33,M,004.109,N,007.610,K,D*09
$GPGGA,093012.10,5702.9580676,N,00949.1595020,E,2,4,4.1,-2.133,M,40.592,M,2.8,0123*5B
$GPVTG,020.68,T,-619.22,M,004.136,N,007.660,K,D*0E
$GPGGA,093012.15,5702.9581170,N,00949.1595385,E,2,4,4.1,-2.131,M,40.592,M,2.8,0123*50
$GPVTG,021.79,T,-618.11,M,004.162,N,007.707,K,D*0F
$GPGGA,093012.20,5702.9581676,N,00949.1595840,E,2,4,4.1,-2.129,M,40.592,M,2.8,0123*5C
$GPVTG,023.13,T,-616.77,M,004.205,N,007.788,K,D*0A
$GPGGA,093012.25,5702.9581861,N,00949.1596303,E,2,4,4.1,-2.142,M,40.592,M,3.0,0123*5A
$GPVTG,025.41,T,-614.49,M,004.141,N,007.668,K,D*08
$GPGGA,093012.30,5702.9582340,N,00949.1596699,E,2,4,4.1,-2.132,M,40.592,M,3.0,0123*54
$GPVTG,026.12,T,-613.78,M,004.151,N,007.688,K,D*07
$GPGGA,093012.35,5702.9582813,N,00949.1597181,E,2,4,4.1,-2.127,M,40.592,M,3.0,0123*57
$GPVTG,027.36,T,-612.54,M,004.182,N,007.745,K,D*01
$GPGGA,093012.40,5702.9583289,N,00949.1597636,E,2,4,4.1,-2.120,M,40.592,M,3.0,0123*51
$GPVTG,028.20,T,-611.70,M,004.204,N,007.786,K,D*0E
$GPGGA,093012.45,5702.9583544,N,00949.1598011,E,2,4,4.1,-2.149,M,40.592,M,3.2,0123*53
$GPVTG,029.64,T,-610.26,M,004.102,N,007.598,K,D*05
$GPGGA,093012.50,5702.9584015,N,00949.1598482,E,2,4,4.1,-2.152,M,40.592,M,3.2,0123*55
$GPVTG,030.37,T,-609.53,M,004.121,N,007.632,K,D*03
$GPGGA,093012.55,5702.9584463,N,00949.1598975,E,2,4,4.1,-2.156,M,40.592,M,3.2,0123*54
$GPVTG,031.21,T,-608.69,M,004.133,N,007.655,K,D*0F
$GPGGA,093012.60,5702.9584911,N,00949.1599467,E,2,4,4.1,-2.157,M,40.592,M,3.2,0123*54
$GPVTG,031.91,T,-607.99,M,004.144,N,007.674,K,D*07
$GPGGA,093012.65,5702.9585252,N,00949.1599887,E,2,4,4.1,-2.155,M,40.592,M,3.4,0123*5A
$GPVTG,033.38,T,-606.52,M,004.032,N,007.467,K,D*00
$GPGGA,093012.70,5702.9585690,N,00949.1600450,E,2,4,4.1,-2.156,M,40.592,M,3.4,0123*52
$GPVTG,034.38,T,-605.52,M,004.055,N,007.510,K,D*04
$GPGGA,093012.75,5702.9586112,N,00949.1600990,E,2,4,4.1,-2.160,M,40.592,M,3.4,0123*5D
$GPVTG,035.16,T,-604.74,M,004.063,N,007.524,K,D*0E
$GPGGA,093012.80,5702.9586539,N,00949.1601552,E,2,4,4.1,-2.162,M,40.592,M,3.4,0123*5B
$GPVTG,035.93,T,-603.97,M,004.077,N,007.550,K,D*0F
$GPGGA,093012.85,5702.9586908,N,00949.1602068,E,2,4,4.1,-2.164,M,40.592,M,3.6,0123*5B
$GPVTG,037.76,T,-602.14,M,003.981,N,007.373,K,D*0C
$GPGGA,093012.90,5702.9587309,N,00949.1602651,E,2,4,4.1,-2.167,M,40.592,M,3.6,0123*5A
$GPVTG,038.56,T,-601.34,M,003.987,N,007.384,K,D*0E
$GPGGA,093012.95,5702.9587705,N,00949.1603298,E,2,4,4.1,-2.171,M,40.592,M,3.6,0123*50
$GPVTG,039.64,T,-600.26,M,004.011,N,007.429,K,D*0D
$GPGGA,093013.00,5702.9588089,N,00949.1603948,E,2,4,4.1,-2.178,M,40.592,M,3.6,0123*5E
$GPVTG,040.64,T,-599.26,M,004.030,N,007.463,K,D*0D
$GPGGA,093013.05,5702.9588220,N,00949.1604584,E,2,4,4.1,-2.199,M,40.592,M,1.9,0123*53
$GPVTG,043.03,T,-596.87,M,003.942,N,007.301,K,D*03
$GPGGA,093013.10,5702.9588578,N,00949.1605210,E,2,4,4.1,-2.202,M,40.592,M,1.9,0123*57
$GPVTG,043.80,T,-596.10,M,003.938,N,007.293,K,D*01
$GPGGA,093013.15,5702.9588916,N,00949.1605842,E,2,4,4.1,-2.209,M,40.592,M,1.9,0123*50
$GPVTG,044.58,T,-595.32,M,003.928,N,007.275,K,D*09
$GPGGA,093013.20,5702.9589235,N,00949.1606458,E,2,4,4.1,-2.215,M,40.592,M,1.9,0123*54
$GPVTG,045.27,T,-594.63,M,003.906,N,007.234,K,D*0C
$GPGGA,093013.25,5702.9589110,N,00949.1607059,E,2,4,4.1,-2.224,M,40.592,M,2.2,0123*5B
$GPVTG,047.92,T,-591.98,M,003.771,N,006.985,K,D*0F
$GPGGA,093013.30,5702.9589419,N,00949.1607689,E,2,4,4.1,-2.218,M,40.592,M,2.2,0123*57
$GPVTG,048.61,T,-591.29,M,003.749,N,006.943,K,D*07
$GPGGA,093013.35,5702.9589683,N,00949.1608289,E,2,4,4.1,-2.214,M,40.592,M,2.2,0123*54
$GPVTG,049.29,T,-590.61,M,003.702,N,006.856,K,D*0D
$GPGGA,093013.40,5702.9589947,N,00949.1608894,E,2,4,4.1,-2.207,M,40.592,M,2.2,0123*55
$GPVTG,049.92,T,-589.98,M,003.659,N,006.776,K,D*01
$GPGGA,093013.45,5702.9589807,N,00949.1609391,E,2,4,4.1,-2.233,M,40.592,M,2.4,0123*5B
$GPVTG,052.65,T,-587.25,M,003.503,N,006.488,K,D*05
$GPGGA,093013.50,5702.9590050,N,00949.1609972,E,2,4,4.1,-2.231,M,40.592,M,2.4,0123*58
$GPVTG,053.25,T,-586.65,M,003.444,N,006.379,K,D*0E
$GPGGA,093013.55,5702.9590267,N,00949.1610513,E,2,4,4.1,-2.228,M,40.592,M,2.4,0123*50
$GPVTG,053.73,T,-586.17,M,003.366,N,006.234,K,D*07
$GPGGA,093013.60,5702.9590476,N,00949.1611055,E,2,4,4.1,-2.229,M,40.592,M,2.4,0123*57
$GPVTG,054.22,T,-585.68,M,003.290,N,006.094,K,D*0F
$GPGGA,093013.65,5702.9590192,N,00949.1611569,E,2,4,4.1,-2.245,M,40.592,M,2.7,0123*5E
$GPVTG,057.45,T,-582.45,M,003.146,N,005.827,K,D*0E
$GPGGA,093013.70,5702.9590379,N,00949.1612154,E,2,4,4.1,-2.245,M,40.592,M,2.7,0123*54
$GPVTG,058.35,T,-581.55,M,003.089,N,005.721,K,D*0F
$GPGGA,093013.75,5702.9590422,N,00949.1612689,E,2,4,4.1,-2.255,M,40.592,M,2.7,0123*5E
$GPVTG,060.02,T,-579.88,M,002.980,N,005.519,K,D*0F
$GPGGA,093013.80,5702.9590575,N,00949.1613262,E,2,4,4.1,-2.266,M,40.592,M,2.7,0123*57
$GPVTG,061.01,T,-578.89,M,002.921,N,005.411,K,D*0F
$GPGGA,093013.85,5702.9590280,N,00949.1613801,E,2,4,4.1,-2.259,M,40.592,M,2.9,0123*52
$GPVTG,062.82,T,-577.08,M,002.839,N,005.257,K,D*0D
$GPGGA,093013.90,5702.9590444,N,00949.1614386,E,2,4,4.1,-2.261,M,40.592,M,2.9,0123*50
$GPVTG,063.71,T,-576.19,M,002.799,N,005.183,K,D*0E
$GPGGA,093013.95,5702.9590595,N,00949.1614904,E,2,4,4.1,-2.263,M,40.592,M,2.9,0123*5A
$GPVTG,064.36,T,-575.54,M,002.730,N,005.056,K,D*0A
$GPGGA,093014.00,5702.9590726,N,00949.1615410,E,2,4,4.1,-2.273,M,40.592,M,2.9,0123*53
$GPVTG,065.07,T,-574.83,M,002.658,N,004.923,K,D*07
$GPGGA,093014.05,5702.9590297,N,00949.1615910,E,2,4,4.1,-2.282,M,40.592,M,1.7,0123*57
$GPVTG,070.83,T,-569.07,M,002.491,N,004.613,K,D*04
$GPGGA,093014.10,5702.9590356,N,00949.1616411,E,2,4,4.1,-2.285,M,40.592,M,1.7,0123*57
$GPVTG,072.53,T,-567.37,M,002.406,N,004.456,K,D*0B
$GPGGA,093014.15,5702.9590399,N,00949.1616911,E,2,4,4.1,-2.287,M,40.592,M,1.7,0123*5E
$GPVTG,074.33,T,-565.57,M,002.324,N,004.304,K,D*08
$GPGGA,093014.20,5702.9590413,N,00949.1617404,E,2,4,4.1,-2.294,M,40.592,M,1.7,0123*57
$GPVTG,076.42,T,-563.48,M,002.237,N,004.143,K,D*06
$GPGGA,093014.25,5702.9590077,N,00949.1617809,E,2,4,4.1,-2.309,M,40.592,M,2.0,0123*54
$GPVTG,083.64,T,-556.26,M,002.090,N,003.871,K,D*06
$GPGGA,093014.30,5702.9590058,N,00949.1618194,E,2,4,4.1,-2.317,M,40.592,M,2.0,0123*50
$GPVTG,086.44,T,-553.46,M,001.934,N,003.582,K,D*07
$GPGGA,093014.35,5702.9590023,N,00949.1618604,E,2,4,4.1,-2.324,M,40.592,M,2.0,0123*57
$GPVTG,089.69,T,-550.21,M,001.815,N,003.362,K,D*0F
$GPGGA,093014.40,5702.9589961,N,00949.1619061,E,2,4,4.1,-2.330,M,40.592,M,2.0,0123*53
$GPVTG,093.55,T,-546.35,M,001.764,N,003.266,K,D*05
$GPGGA,093014.45,5702.9589661,N,00949.1619425,E,2,4,4.1,-2.340,M,40.592,M,2.2,0123*58
$GPVTG,104.13,T,-535.77,M,001.716,N,003.178,K,D*03
$GPGGA,093014.50,5702.9589563,N,00949.1619747,E,2,4,4.1,-2.343,M,40.592,M,2.2,0123*59
$GPVTG,110.01,T,-529.89,M,001.600,N,002.963,K,D*0C
$GPGGA,093014.55,5702.9589450,N,00949.1620080,E,2,4,4.1,-2.342,M,40.592,M,2.2,0123*5A
$GPVTG,116.00,T,-523.90,M,001.540,N,002.852,K,D*0D
$GPGGA,093014.60,5702.9589317,N,00949.1620403,E,2,4,4.1,-2.342,M,40.592,M,2.2,0123*57
$GPVTG,122.16,T,-517.74,M,001.513,N,002.801,K,D*00
$GPGGA,093014.65,5702.9589118,N,00949.1620673,E,2,4,4.1,-2.349,M,40.592,M,2.4,0123*57
$GPVTG,132.20,T,-507.70,M,001.615,N,002.991,K,D*0C
$GPGGA,093014.70,5702.9588938,N,00949.1620903,E,2,4,4.1,-2.350,M,40.592,M,2.4,0123*58
$GPVTG,139.70,T,-500.20,M,001.610,N,002.981,K,D*04
$GPGGA,093014.75,5702.9588737,N,00949.1621135,E,2,4,4.1,-2.348,M,40.592,M,2.4,0123*59
$GPVTG,146.08,T,-493.82,M,001.652,N,003.060,K,D*01
$GPGGA,093014.80,5702.9588526,N,00949.1621382,E,2,4,4.1,-2.346,M,40.592,M,2.4,0123*51
$GPVTG,150.59,T,-489.31,M,001.731,N,003.206,K,D*07
$GPGGA,093014.85,5702.9588429,N,00949.1621528,E,2,4,4.1,-2.362,M,40.592,M,2.7,0123*59
$GPVTG,156.72,T,-483.18,M,001.884,N,003.488,K,D*08
$GPGGA,093014.90,5702.9588181,N,00949.1621739,E,2,4,4.1,-2.368,M,40.592,M,2.7,0123*52
$GPVTG,159.83,T,-480.07,M,001.986,N,003.678,K,D*0A
$GPGGA,093014.95,5702.9587915,N,00949.1621945,E,2,4,4.1,-2.374,M,40.592,M,2.7,0123*55
$GPVTG,162.25,T,-477.65,M,002.098,N,003.886,K,D*08
$GPGGA,093015.00,5702.9587641,N,00949.1622204,E,2,4,4.1,-2.378,M,40.592,M,2.7,0123*57
$GPVTG,162.47,T,-477.43,M,002.225,N,004.121,K,D*0F
$GPGGA,093015.05,5702.9587564,N,00949.1622329,E,2,4,4.1,-2.376,M,40.592,M,1.6,0123*54
$GPVTG,166.89,T,-473.01,M,002.347,N,004.346,K,D*0D
$GPGGA,093015.10,5702.9587238,N,00949.1622473,E,2,4,4.1,-2.379,M,40.592,M,1.6,0123*59
$GPVTG,168.95,T,-470.95,M,002.467,N,004.569,K,D*0E
$GPGGA,093015.15,5702.9586898,N,00949.1622558,E,2,4,4.1,-2.383,M,40.592,M,1.6,0123*50
$GPVTG,171.78,T,-468.12,M,002.579,N,004.777,K,D*00
$GPGGA,093015.20,5702.9586540,N,00949.1622580,E,2,4,4.1,-2.386,M,40.592,M,1.6,0123*5E
$GPVTG,175.27,T,-464.63,M,002.694,N,004.989,K,D*0B
$GPGGA,093015.25,5702.9586456,N,00949.1622472,E,2,4,4.1,-2.372,M,40.592,M,1.9,0123*55
$GPVTG,179.92,T,-459.98,M,002.798,N,005.181,K,D*0F
$GPGGA,093015.30,5702.9586057,N,00949.1622387,E,2,4,4.1,-2.366,M,40.592,M,1.9,0123*5C
$GPVTG,183.54,T,-456.36,M,002.939,N,005.443,K,D*05
$GPGGA,093015.35,5702.9585666,N,00949.1622339,E,2,4,4.1,-2.356,M,40.592,M,1.9,0123*58
$GPVTG,185.36,T,-454.54,M,003.056,N,005.660,K,D*03
$GPGGA,093015.40,5702.9585262,N,00949.1622305,E,2,4,4.1,-2.351,M,40.592,M,1.9,0123*52
$GPVTG,186.24,T,-453.66,M,003.169,N,005.869,K,D*0F
$GPGGA,093015.45,5702.9585566,N,00949.1622033,E,2,4,4.1,-2.361,M,40.592,M,2.1,0123*5A
$GPVTG,189.34,T,-450.56,M,003.157,N,005.846,K,D*01
$GPGGA,093015.50,5702.9585147,N,00949.1621887,E,2,4,4.1,-2.362,M,40.592,M,2.1,0123*5E
$GPVTG,191.10,T,-448.80,M,003.270,N,006.056,K,D*00
$GPGGA,093015.55,5702.9584710,N,00949.1621682,E,2,4,4.1,-2.364,M,40.592,M,2.1,0123*53
$GPVTG,193.07,T,-446.83,M,003.398,N,006.293,K,D*05
$GPGGA,093015.60,5702.9584271,N,00949.1621482,E,2,4,4.1,-2.368,M,40.592,M,2.1,0123*59
$GPVTG,194.51,T,-445.39,M,003.511,N,006.502,K,D*0B
$GPGGA,093015.65,5702.9584323,N,00949.1621217,E,2,4,4.1,-2.338,M,40.592,M,2.3,0123*57
$GPVTG,196.63,T,-443.27,M,003.506,N,006.492,K,D*0F
$GPGGA,093015.70,5702.9583878,N,00949.1621072,E,2,4,4.1,-2.345,M,40.592,M,2.3,0123*5A
$GPVTG,195.78,T,-444.12,M,003.563,N,006.599,K,D*0E
$GPGGA,093015.75,5702.9583418,N,00949.1620875,E,2,4,4.1,-2.351,M,40.592,M,2.3,0123*5E
$GPVTG,195.91,T,-443.99,M,003.646,N,006.752,K,D*0C
$GPGGA,093015.80,5702.9582959,N,00949.1620735,E,2,4,4.1,-2.359,M,40.592,M,2.3,0123*5E
$GPVTG,195.04,T,-444.86,M,003.699,N,006.851,K,D*07
$GPGGA,093015.85,5702.9583001,N,00949.1620553,E,2,4,4.1,-2.353,M,40.592,M,2.6,0123*53
$GPVTG,196.23,T,-443.67,M,003.669,N,006.795,K,D*01
$GPGGA,093015.90,5702.9582529,N,00949.1620254,E,2,4,4.1,-2.361,M,40.592,M,2.6,0123*58
$GPVTG,197.51,T,-442.39,M,003.757,N,006.958,K,D*0C
$GPGGA,093015.95,5702.9582054,N,00949.1619881,E,2,4,4.1,-2.368,M,40.592,M,2.6,0123*53
$GPVTG,199.37,T,-440.53,M,003.858,N,007.145,K,D*09
$GPGGA,093016.00,5702.9581571,N,00949.1619469,E,2,4,4.1,-2.377,M,40.592,M,2.6,0123*59
$GPVTG,201.16,T,-438.74,M,003.964,N,007.341,K,D*0A
$GPGGA,093016.05,5702.9581535,N,00949.1619064,E,2,4,4.1,-2.360,M,40.592,M,2.8,0123*5D
$GPVTG,202.68,T,-437.22,M,003.949,N,007.314,K,D*03
$GPGGA,093016.10,5702.9581064,N,00949.1618575,E,2,4,4.1,-2.361,M,40.592,M,2.8,0123*5D
$GPVTG,204.66,T,-435.24,M,004.045,N,007.491,K,D*07
$GPGGA,093016.15,5702.9580582,N,00949.1618110,E,2,4,4.1,-2.358,M,40.592,M,2.8,0123*59
$GPVTG,205.89,T,-434.02,M,004.132,N,007.652,K,D*0E
$GPGGA,093016.20,5702.9580108,N,00949.1617579,E,2,4,4.1,-2.354,M,40.592,M,2.8,0123*51
$GPVTG,207.46,T,-432.44,M,004.223,N,007.821,K,D*02
$GPGGA,093016.25,5702.9580488,N,00949.1616923,E,2,4,4.1,-2.357,M,40.592,M,3.0,0123*51
$GPVTG,210.23,T,-429.67,M,004.155,N,007.695,K,D*0F
$GPGGA,093016.30,5702.9580012,N,00949.1616357,E,2,4,4.1,-2.359,M,40.592,M,3.0,0123*55
$GPVTG,211.42,T,-428.48,M,004.242,N,007.857,K,D*00
$GPGGA,093016.35,5702.9579560,N,00949.1615774,E,2,4,4.1,-2.356,M,40.592,M,3.0,0123*5F
$GPVTG,212.63,T,-427.27,M,004.311,N,007.984,K,D*0E
$GPGGA,093016.40,5702.9579100,N,00949.1615200,E,2,4,4.1,-2.356,M,40.592,M,3.0,0123*59
$GPVTG,213.48,T,-426.42,M,004.372,N,008.097,K,D*05
$GPGGA,093016.45,5702.9579371,N,00949.1614559,E,2,4,4.1,-2.336,M,40.592,M,3.2,0123*56
$GPVTG,215.85,T,-424.05,M,004.292,N,007.949,K,D*09
$GPGGA,093016.50,5702.9578927,N,00949.1613947,E,2,4,4.1,-2.336,M,40.592,M,3.2,0123*5E
$GPVTG,216.69,T,-423.21,M,004.344,N,008.045,K,D*09
$GPGGA,093016.55,5702.9578482,N,00949.1613305,E,2,4,4.1,-2.335,M,40.592,M,3.2,0123*56
$GPVTG,217.52,T,-422.38,M,004.401,N,008.151,K,D*0B
$GPGGA,093016.60,5702.9578040,N,00949.1612589,E,2,4,4.1,-2.330,M,40.592,M,3.2,0123*5C
$GPVTG,218.64,T,-421.26,M,004.477,N,008.292,K,D*00
$GPGGA,093016.65,5702.9578450,N,00949.1611825,E,2,4,4.1,-2.328,M,40.592,M,3.4,0123*5B
$GPVTG,221.27,T,-418.63,M,004.403,N,008.155,K,D*0D
$GPGGA,093016.70,5702.9578022,N,00949.1611125,E,2,4,4.1,-2.334,M,40.592,M,3.4,0123*5A
$GPVTG,221.98,T,-417.92,M,004.451,N,008.243,K,D*0B
$GPGGA,093016.75,5702.9577606,N,00949.1610413,E,2,4,4.1,-2.342,M,40.592,M,3.4,0123*50
$GPVTG,222.68,T,-417.22,M,004.492,N,008.320,K,D*07
$GPGGA,093016.80,5702.9577214,N,00949.1609665,E,2,4,4.1,-2.341,M,40.592,M,3.4,0123*55
$GPVTG,223.57,T,-416.33,M,004.532,N,008.392,K,D*09
$GPGGA,093016.85,5702.9577590,N,00949.1608892,E,2,4,4.1,-2.329,M,40.592,M,3.6,0123*50
$GPVTG,225.77,T,-414.13,M,004.446,N,008.234,K,D*02
$GPGGA,093016.90,5702.9577180,N,00949.1608087,E,2,4,4.1,-2.331,M,40.592,M,3.6,0123*54
$GPVTG,226.54,T,-413.36,M,004.503,N,008.340,K,D*02
$GPGGA,093016.95,5702.9576777,N,00949.1607281,E,2,4,4.1,-2.339,M,40.592,M,3.6,0123*5D
$GPVTG,227.21,T,-412.69,M,004.549,N,008.424,K,D*01
$GPGGA,093017.00,5702.9576428,N,00949.1606528,E,2,4,4.1,-2.344,M,40.592,M,3.6,0123*56
$GPVTG,227.76,T,-412.14,M,004.540,N,008.407,K,D*01
$GPGGA,093017.05,5702.9576724,N,00949.1605693,E,2,4,4.1,-2.356,M,40.592,M,1.9,0123*52
$GPVTG,229.67,T,-410.23,M,004.453,N,008.247,K,D*08
$GPGGA,093017.10,5702.9576358,N,00949.1604842,E,2,4,4.1,-2.364,M,40.592,M,1.9,0123*5B
$GPVTG,230.46,T,-409.44,M,004.494,N,008.322,K,D*03
$GPGGA,093017.15,5702.9576040,N,00949.1604022,E,2,4,4.1,-2.368,M,40.592,M,1.9,0123*56
$GPVTG,231.25,T,-408.65,M,004.496,N,008.327,K,D*02
$GPGGA,093017.20,5702.9575721,N,00949.1603174,E,2,4,4.1,-2.373,M,40.592,M,1.9,0123*5C
$GPVTG,232.05,T,-407.85,M,004.510,N,008.353,K,D*0E
$GPGGA,093017.25,5702.9575987,N,00949.1602154,E,2,4,4.1,-2.348,M,40.592,M,2.2,0123*58
$GPVTG,234.27,T,-405.63,M,004.490,N,008.315,K,D*09
$GPGGA,093017.30,5702.9575678,N,00949.1601238,E,2,4,4.1,-2.349,M,40.592,M,2.2,0123*58
$GPVTG,235.20,T,-404.70,M,004.521,N,008.372,K,D*06
$GPGGA,093017.35,5702.9575338,N,00949.1600318,E,2,4,4.1,-2.352,M,40.592,M,2.2,0123*54
$GPVTG,235.83,T,-404.07,M,004.558,N,008.442,K,D*05
$GPGGA,093017.40,5702.9575036,N,00949.1599413,E,2,4,4.1,-2.353,M,40.592,M,2.2,0123*55
$GPVTG,236.52,T,-403.38,M,004.572,N,008.468,K,D*01
$GPGGA,093017.45,5702.9575629,N,00949.1598369,E,2,4,4.1,-2.369,M,40.592,M,2.4,0123*5C
$GPVTG,238.31,T,-401.59,M,004.576,N,008.474,K,D*06
$GPGGA,093017.50,5702.9575463,N,00949.1597367,E,2,4,4.1,-2.377,M,40.592,M,2.4,0123*5A
$GPVTG,239.45,T,-400.45,M,004.610,N,008.538,K,D*02
$GPGGA,093017.55,5702.9575292,N,00949.1596373,E,2,4,4.1,-2.390,M,40.592,M,2.4,0123*5A
$GPVTG,240.47,T,-399.43,M,004.636,N,008.586,K,D*0E
$GPGGA,093017.60,5702.9575322,N,00949.1595358,E,2,4,4.1,-2.395,M,40.592,M,2.4,0123*59
$GPVTG,242.09,T,-397.81,M,004.637,N,008.587,K,D*06
$GPGGA,093017.65,5702.9575022,N,00949.1594326,E,2,4,4.1,-2.345,M,40.592,M,2.7,0123*59
$GPVTG,243.33,T,-396.57,M,004.662,N,008.634,K,D*0F
$GPGGA,093017.70,5702.9574804,N,00949.1593253,E,2,4,4.1,-2.342,M,40.592,M,2.7,0123*53
$GPVTG,244.21,T,-395.69,M,004.710,N,008.723,K,D*06
$GPGGA,093017.75,5702.9574610,N,00949.1592253,E,2,4,4.1,-2.346,M,40.592,M,2.7,0123*58
$GPVTG,244.80,T,-395.10,M,004.697,N,008.698,K,D*0C
$GPGGA,093017.80,5702.9574483,N,00949.1591217,E,2,4,4.1,-2.342,M,40.592,M,2.7,0123*5D
$GPVTG,245.67,T,-394.23,M,004.686,N,008.678,K,D*0B
$GPGGA,093017.85,5702.9574639,N,00949.1590183,E,2,4,4.1,-2.328,M,40.592,M,2.9,0123*56
$GPVTG,246.99,T,-392.91,M,004.665,N,008.639,K,D*0E
$GPGGA,093017.90,5702.9574539,N,00949.1589137,E,2,4,4.1,-2.327,M,40.592,M,2.9,0123*59
$GPVTG,247.92,T,-391.98,M,004.636,N,008.586,K,D*0F
$GPGGA,093017.95,5702.9574439,N,00949.1588037,E,2,4,4.1,-2.323,M,40.592,M,2.9,0123*59
$GPVTG,249.09,T,-390.81,M,004.648,N,008.609,K,D*07
$GPGGA,093018.00,5702.9574352,N,00949.1587009,E,2,4,4.1,-2.323,M,40.592,M,2.9,0123*52
$GPVTG,249.98,T,-389.92,M,004.581,N,008.484,K,D*04
$GPGGA,093018.05,5702.9574586,N,00949.1585909,E,2,4,4.1,-2.298,M,40.592,M,1.7,0123*5F
$GPVTG,251.90,T,-388.00,M,004.563,N,008.450,K,D*0A
$GPGGA,093018.10,5702.9574481,N,00949.1584829,E,2,4,4.1,-2.291,M,40.592,M,1.7,0123*56
$GPVTG,252.96,T,-386.94,M,004.542,N,008.412,K,D*09
$GPGGA,093018.15,5702.9574431,N,00949.1583771,E,2,4,4.1,-2.287,M,40.592,M,1.7,0123*5A
$GPVTG,254.19,T,-385.71,M,004.490,N,008.316,K,D*0D
$GPGGA,093018.20,5702.9574436,N,00949.1582679,E,2,4,4.1,-2.283,M,40.592,M,1.7,0123*57
$GPVTG,255.88,T,-384.02,M,004.467,N,008.273,K,D*0B
$GPGGA,093018.25,5702.9574691,N,00949.1581614,E,2,4,4.1,-2.258,M,40.592,M,2.0,0123*57
$GPVTG,258.05,T,-381.85,M,004.403,N,008.155,K,D*0C
$GPGGA,093018.30,5702.9574630,N,00949.1580610,E,2,4,4.1,-2.257,M,40.592,M,2.0,0123*52
$GPVTG,259.15,T,-380.75,M,004.302,N,007.968,K,D*0D
$GPGGA,093018.35,5702.9574641,N,00949.1579487,E,2,4,4.1,-2.252,M,40.592,M,2.0,0123*5E
$GPVTG,261.02,T,-378.88,M,004.330,N,008.020,K,D*0E
$GPGGA,093018.40,5702.9574713,N,00949.1578391,E,2,4,4.1,-2.249,M,40.592,M,2.0,0123*51
$GPVTG,263.21,T,-376.69,M,004.324,N,008.007,K,D*0C
$GPGGA,093018.45,5702.9574932,N,00949.1577280,E,2,4,4.1,-2.232,M,40.592,M,2.2,0123*59
$GPVTG,266.14,T,-373.76,M,004.336,N,008.030,K,D*03
$GPGGA,093018.50,5702.9574973,N,00949.1576200,E,2,4,4.1,-2.229,M,40.592,M,2.2,0123*5B
$GPVTG,267.96,T,-371.94,M,004.319,N,007.998,K,D*0F
$GPGGA,093018.55,5702.9575047,N,00949.1575167,E,2,4,4.1,-2.224,M,40.592,M,2.2,0123*5D
$GPVTG,269.95,T,-369.95,M,004.257,N,007.885,K,D*0C
$GPGGA,093018.60,5702.9575129,N,00949.1574136,E,2,4,4.1,-2.223,M,40.592,M,2.2,0123*50
$GPVTG,271.96,T,-367.94,M,004.207,N,007.791,K,D*06
$GPGGA,093018.65,5702.9575340,N,00949.1573049,E,2,4,4.1,-2.206,M,40.592,M,2.4,0123*57
$GPVTG,275.04,T,-364.86,M,004.253,N,007.876,K,D*0E
$GPGGA,093018.70,5702.9575440,N,00949.1571941,E,2,4,4.1,-2.204,M,40.592,M,2.4,0123*55
$GPVTG,276.82,T,-363.08,M,004.297,N,007.958,K,D*07
$GPGGA,093018.75,5702.9575583,N,00949.1570878,E,2,4,4.1,-2.203,M,40.592,M,2.4,0123*53
$GPVTG,278.90,T,-361.00,M,004.297,N,007.959,K,D*01
$GPGGA,093018.80,5702.9575696,N,00949.1569839,E,1,3,4.1,-2.200,M,40.592,M,,*7C
$GPVTG,,T,,M,,N,,K,A*23
$GPGGA,093018.85,5702.9575748,N,00949.1568869,E,1,3,4.1,-2.148,M,40.592,M,,*70
$GPVTG,282.19,T,-357.71,M,004.259,N,007.889,K,A*0D
$GPGGA,093018.90,5702.9575843,N,00949.1567937,E,1,3,4.1,-2.143,M,40.592,M,,*7E
$GPVTG,,T,,M,,N,,K,A*23
$GPGGA,093018.95,5702.9575938,N,00949.1567856,E,1,3,4.1,-2.137,M,40.592,M,,*73
$GPVTG,,T,,M,,N,,K,A*23
$GPGGA,093019.00,5702.9575703,N,00949.1567976,E,1,3,4.1,-2.139,M,40.592,M,,*75
$GPVTG,,T,,M,,N,,K,A*23
$GPGGA,093019.05,5702.9576538,N,00949.1565021,E,2,4,4.1,-2.145,M,40.592,M,1.6,0123*56
$GPVTG,,T,,M,,N,,K,D*26
$GPGGA,093019.10,5702.9576725,N,00949.1564963,E,2,4,4.1,-2.145,M,40.592,M,1.6,0123*52
$GPVTG,,T,,M,,N,,K,D*26
$GPGGA,093019.15,5702.9576859,N,00949.1564925,E,2,4,4.1,-2.138,M,40.592,M,1.6,0123*5B
$GPVTG,,T,,M,,N,,K,D*26
$GPGGA,093019.20,5702.9576549,N,00949.1565076,E,2,4,4.1,-2.146,M,40.592,M,1.6,0123*56
$GPVTG,,T,,M,,N,,K,D*26
$GPGGA,093019.25,5702.9577807,N,00949.1561147,E,2,4,4.1,-2.124,M,40.592,M,1.9,0123*59
$GPVTG,303.31,T,-336.59,M,004.398,N,008.145,K,D*0D
$GPGGA,093019.30,5702.9578194,N,00949.1560270,E,2,4,4.1,-2.119,M,40.592,M,1.9,0123*59
$GPVTG,309.05,T,-330.85,M,004.435,N,008.214,K,D*00
$GPGGA,093019.35,5702.9578530,N,00949.1559467,E,2,4,4.1,-2.116,M,40.592,M,1.9,0123*53
$GPVTG,307.91,T,-331.99,M,003.831,N,007.095,K,D*04
$GPGGA,093019.40,5702.9578883,N,00949.1558654,E,2,4,4.1,-2.113,M,40.592,M,1.9,0123*52
$GPVTG,308.18,T,-331.72,M,003.922,N,007.263,K,D*07
$GPGGA,093019.45,5702.9579277,N,00949.1557819,E,2,4,4.1,-2.103,M,40.592,M,2.1,0123*55
$GPVTG,310.08,T,-329.82,M,004.156,N,007.697,K,D*0A
$GPGGA,093019.50,5702.9579658,N,00949.1556934,E,2,4,4.1,-2.102,M,40.592,M,2.1,0123*56
$GPVTG,309.15,T,-330.75,M,004.331,N,008.022,K,D*0A
$GPGGA,093019.55,5702.9580077,N,00949.1556137,E,2,4,4.1,-2.101,M,40.592,M,2.1,0123*56
$GPVTG,312.03,T,-327.87,M,004.360,N,008.075,K,D*0A
$GPGGA,093019.60,5702.9580476,N,00949.1555349,E,2,4,4.1,-2.103,M,40.592,M,2.1,0123*5F
$GPVTG,313.09,T,-326.81,M,004.319,N,007.998,K,D*0D
$GPGGA,093019.65,5702.9580836,N,00949.1554613,E,2,4,4.1,-2.094,M,40.592,M,2.3,0123*54
$GPVTG,313.91,T,-325.99,M,004.201,N,007.780,K,D*09
$GPGGA,093019.70,5702.9581292,N,00949.1553844,E,2,4,4.1,-2.092,M,40.592,M,2.3,0123*58
$GPVTG,316.03,T,-323.87,M,004.302,N,007.968,K,D*04
$GPGGA,093019.75,5702.9581736,N,00949.1553124,E,2,4,4.1,-2.092,M,40.592,M,2.3,0123*59
$GPVTG,317.80,T,-322.10,M,004.301,N,007.966,K,D*0C
$GPGGA,093019.80,5702.9582136,N,00949.1552488,E,2,4,4.1,-2.092,M,40.592,M,2.3,0123*54
$GPVTG,319.26,T,-320.64,M,004.151,N,007.688,K,D*07
$GPGGA,093019.85,5702.9582536,N,00949.1551869,E,2,4,4.1,-2.073,M,40.592,M,2.6,0123*5F
$GPVTG,320.29,T,-319.61,M,004.011,N,007.429,K,D*01
$GPGGA,093019.90,5702.9582929,N,00949.1551285,E,2,4,4.1,-2.065,M,40.592,M,2.6,0123*56
$GPVTG,321.70,T,-318.20,M,003.887,N,007.198,K,D*07
$GPGGA,093019.95,5702.9583318,N,00949.1550733,E,2,4,4.1,-2.054,M,40.592,M,2.6,0123*51
$GPVTG,323.14,T,-316.76,M,003.765,N,006.974,K,D*02
$GPGGA,093020.00,5702.9583770,N,00949.1550152,E,2,4,4.1,-2.042,M,40.592,M,2.6,0123*5B
$GPVTG,324.85,T,-315.05,M,003.786,N,007.012,K,D*0F
$GPGGA,093020.05,5702.9584549,N,00949.1549516,E,2,4,4.1,-2.054,M,40.592,M,2.8,0123*54
$GPVTG,326.70,T,-313.20,M,003.823,N,007.081,K,D*0C
$GPGGA,093020.10,5702.9584998,N,00949.1549017,E,2,4,4.1,-2.046,M,40.592,M,2.8,0123*57
$GPVTG,328.64,T,-311.26,M,003.797,N,007.032,K,D*0B
$GPGGA,093020.15,5702.9585458,N,00949.1548595,E,2,4,4.1,-2.039,M,40.592,M,2.8,0123*54
$GPVTG,331.36,T,-308.54,M,003.755,N,006.954,K,D*0F
$GPGGA,093020.20,5702.9585922,N,00949.1548184,E,2,4,4.1,-2.035,M,40.592,M,2.8,0123*5A
$GPVTG,333.64,T,-306.26,M,003.729,N,006.907,K,D*0C
$GPGGA,093020.25,5702.9586841,N,00949.1547775,E,2,4,4.1,-2.042,M,40.592,M,3.0,0123*56
$GPVTG,336.44,T,-303.46,M,003.761,N,006.965,K,D*00
$GPGGA,093020.30,5702.9587316,N,00949.1547357,E,2,4,4.1,-2.040,M,40.592,M,3.0,0123*5C
$GPVTG,337.59,T,-302.31,M,003.766,N,006.975,K,D*0A
$GPGGA,093020.35,5702.9587809,N,00949.1546927,E,2,4,4.1,-2.041,M,40.592,M,3.0,0123*51
$GPVTG,338.41,T,-301.49,M,003.803,N,007.043,K,D*01
$GPGGA,093020.40,5702.9588311,N,00949.1546501,E,2,4,4.1,-2.040,M,40.592,M,3.0,0123*57
$GPVTG,339.12,T,-300.78,M,003.845,N,007.121,K,D*02
$GPGGA,093020.45,5702.9589155,N,00949.1546002,E,2,4,4.1,-2.032,M,40.592,M,3.2,0123*50
$GPVTG,339.23,T,-300.67,M,003.867,N,007.161,K,D*0A
$GPGGA,093020.50,5702.9589661,N,00949.1545661,E,2,4,4.1,-2.034,M,40.592,M,3.2,0123*52
$GPVTG,340.66,T,-299.24,M,003.882,N,007.190,K,D*06
$GPGGA,093020.55,5702.9590169,N,00949.1545350,E,2,4,4.1,-2.034,M,40.592,M,3.2,0123*57
$GPVTG,342.13,T,-297.77,M,003.891,N,007.207,K,D*01
$GPGGA,093020.60,5702.9590673,N,00949.1545067,E,2,4,4.1,-2.025,M,40.592,M,3.2,0123*5A
$GPVTG,343.60,T,-296.30,M,003.893,N,007.210,K,D*02
$GPGGA,093020.65,5702.9591596,N,00949.1544718,E,2,4,4.1,-2.020,M,40.592,M,3.4,0123*5B
$GPVTG,344.79,T,-295.11,M,003.852,N,007.134,K,D*05
$GPGGA,093020.70,5702.9592108,N,00949.1544566,E,2,4,4.1,-2.007,M,40.592,M,3.4,0123*51
$GPVTG,347.16,T,-292.74,M,003.845,N,007.120,K,D*08
$GPGGA,093020.75,5702.9592617,N,00949.1544357,E,2,4,4.1,-1.992,M,40.592,M,3.4,0123*5F
$GPVTG,348.56,T,-291.34,M,003.850,N,007.130,K,D*01
$GPGGA,093020.80,5702.9593129,N,00949.1544160,E,2,4,4.1,-1.974,M,40.592,M,3.4,0123*50
$GPVTG,349.85,T,-290.05,M,003.858,N,007.145,K,D*07
$GPGGA,093020.85,5702.9594273,N,00949.1543907,E,2,4,4.1,-2.027,M,40.592,M,3.6,0123*5E
$GPVTG,351.75,T,-288.16,M,003.854,N,007.138,K,D*0C
$GPGGA,093020.90,5702.9594795,N,00949.1543835,E,2,4,4.1,-2.023,M,40.592,M,3.6,0123*53
$GPVTG,353.73,T,-286.17,M,003.863,N,007.154,K,D*09
$GPGGA,093020.95,5702.9595311,N,00949.1543706,E,2,4,4.1,-2.021,M,40.592,M,3.6,0123*52
$GPVTG,354.89,T,-285.01,M,003.874,N,007.174,K,D*0B
$GPGGA,093021.00,5702.9595850,N,00949.1543597,E,2,4,4.1,-2.023,M,40.592,M,3.6,0123*59
$GPVTG,356.04,T,-283.86,M,003.903,N,007.228,K,D*0E
$GPGGA,093021.05,5702.9596704,N,00949.1543512,E,2,4,4.1,-2.029,M,40.592,M,1.9,0123*5B
$GPVTG,357.40,T,-282.50,M,003.850,N,007.131,K,D*09
$GPGGA,093021.10,5702.9597237,N,00949.1543497,E,2,4,4.1,-2.033,M,40.592,M,1.9,0123*5C
$GPVTG,358.97,T,-280.93,M,003.874,N,007.175,K,D*07
$GPGGA,093021.15,5702.9597767,N,00949.1543447,E,2,4,4.1,-2.037,M,40.592,M,1.9,0123*50
$GPVTG,000.01,T,-639.89,M,003.897,N,007.217,K,D*01
$GPGGA,093021.20,5702.9598305,N,00949.1543453,E,2,4,4.1,-2.045,M,40.592,M,1.9,0123*59
$GPVTG,001.33,T,-638.57,M,003.924,N,007.267,K,D*0D
$GPGGA,093021.25,5702.9599245,N,00949.1543453,E,2,4,4.1,-2.041,M,40.592,M,2.2,0123*54
$GPVTG,002.86,T,-637.04,M,003.863,N,007.155,K,D*09
$GPGGA,093021.30,5702.9599771,N,00949.1543557,E,2,4,4.1,-2.036,M,40.592,M,2.2,0123*57
$GPVTG,004.59,T,-635.31,M,003.886,N,007.197,K,D*0C
$GPGGA,093021.35,5702.9600282,N,00949.1543684,E,2,4,4.1,-2.026,M,40.592,M,2.2,0123*54
$GPVTG,006.26,T,-633.64,M,003.902,N,007.226,K,D*04
$GPGGA,093021.40,5702.9600778,N,00949.1543881,E,2,4,4.1,-2.018,M,40.592,M,2.2,0123*50
$GPVTG,008.28,T,-631.62,M,003.914,N,007.249,K,D*0E
$GPGGA,093021.45,5702.9601634,N,00949.1544046,E,2,4,4.1,-2.054,M,40.592,M,2.4,0123*57
$GPVTG,010.68,T,-629.22,M,003.853,N,007.137,K,D*06
$GPGGA,093021.50,5702.9602133,N,00949.1544222,E,2,4,4.1,-2.046,M,40.592,M,2.4,0123*53
$GPVTG,012.04,T,-627.86,M,003.868,N,007.164,K,D*00
$GPGGA,093021.55,5702.9602636,N,00949.1544448,E,2,4,4.1,-2.039,M,40.592,M,2.4,0123*56
$GPVTG,013.56,T,-626.34,M,003.894,N,007.211,K,D*0C
$GPGGA,093021.60,5702.9603144,N,00949.1544647,E,2,4,4.1,-2.034,M,40.592,M,2.4,0123*53
$GPVTG,014.66,T,-625.24,M,003.918,N,007.255,K,D*0F
$GPGGA,093021.65,5702.9604020,N,00949.1544801,E,2,4,4.1,-2.065,M,40.592,M,2.7,0123*59
$GPVTG,016.40,T,-623.50,M,003.857,N,007.142,K,D*03
$GPGGA,093021.70,5702.9604521,N,00949.1545107,E,2,4,4.1,-2.065,M,40.592,M,2.7,0123*57
$GPVTG,017.93,T,-621.97,M,003.890,N,007.205,K,D*0E
$GPGGA,093021.75,5702.9605019,N,00949.1545380,E,2,4,4.1,-2.068,M,40.592,M,2.7,0123*5D
$GPVTG,019.02,T,-620.88,M,003.916,N,007.252,K,D*0A
$GPGGA,093021.80,5702.9605518,N,00949.1545615,E,2,4,4.1,-2.072,M,40.592,M,2.7,0123*51
$GPVTG,019.66,T,-620.24,M,003.933,N,007.284,K,D*02
$GPGGA,093021.85,5702.9606397,N,00949.1545751,E,2,4,4.1,-2.100,M,40.592,M,2.9,0123*5D
$GPVTG,020.57,T,-619.33,M,003.869,N,007.165,K,D*04
$GPGGA,093021.90,5702.9606891,N,00949.1546059,E,2,4,4.1,-2.104,M,40.592,M,2.9,0123*5C
$GPVTG,021.48,T,-618.42,M,003.893,N,007.209,K,D*00
$GPGGA,093021.95,5702.9607369,N,00949.1546381,E,2,4,4.1,-2.110,M,40.592,M,2.9,0123*57
$GPVTG,022.40,T,-617.50,M,003.908,N,007.238,K,D*06
$GPGGA,093022.00,5702.9607834,N,00949.1546772,E,2,4,4.1,-2.111,M,40.592,M,2.9,0123*52
$GPVTG,023.69,T,-616.21,M,003.930,N,007.279,K,D*05
$GPGGA,093022.05,5702.9608584,N,00949.1547107,E,2,4,4.1,-2.104,M,40.592,M,1.7,0123*52
$GPVTG,025.48,T,-614.42,M,003.874,N,007.174,K,D*08
$GPGGA,093022.10,5702.9609051,N,00949.1547499,E,2,4,4.1,-2.089,M,40.592,M,1.7,0123*5C
$GPVTG,026.43,T,-613.47,M,003.893,N,007.210,K,D*0A
$GPGGA,093022.15,5702.9609493,N,00949.1547934,E,2,4,4.1,-2.077,M,40.592,M,1.7,0123*58
$GPVTG,027.61,T,-612.29,M,003.909,N,007.239,K,D*0B
$GPGGA,093022.20,5702.9609920,N,00949.1548391,E,2,4,4.1,-2.060,M,40.592,M,1.7,0123*57
$GPVTG,028.82,T,-611.08,M,003.922,N,007.264,K,D*08
$GPGGA,093022.25,5702.9610665,N,00949.1548681,E,2,4,4.1,-2.122,M,40.592,M,2.0,0123*53
$GPVTG,030.35,T,-609.55,M,003.862,N,007.153,K,D*0E
$GPGGA,093022.30,5702.9611111,N,00949.1549204,E,2,4,4.1,-2.123,M,40.592,M,2.0,0123*5B
$GPVTG,031.65,T,-608.25,M,003.897,N,007.216,K,D*04
$GPGGA,093022.35,5702.9611528,N,00949.1549682,E,2,4,4.1,-2.123,M,40.592,M,2.0,0123*5A
$GPVTG,032.59,T,-607.31,M,003.904,N,007.230,K,D*0D
$GPGGA,093022.40,5702.9611959,N,00949.1550194,E,2,4,4.1,-2.125,M,40.592,M,2.0,0123*5C
$GPVTG,033.56,T,-606.34,M,003.925,N,007.269,K,D*08
$GPGGA,093022.45,5702.9612565,N,00949.1550569,E,2,4,4.1,-2.186,M,40.592,M,2.2,0123*54
$GPVTG,035.17,T,-604.73,M,003.866,N,007.160,K,D*06
$GPGGA,093022.50,5702.9612977,N,00949.1551039,E,2,4,4.1,-2.197,M,40.592,M,2.2,0123*5E
$GPVTG,036.00,T,-603.90,M,003.874,N,007.174,K,D*0F
$GPGGA,093022.55,5702.9613394,N,00949.1551512,E,2,4,4.1,-2.211,M,40.592,M,2.2,0123*5C
$GPVTG,036.70,T,-603.20,M,003.884,N,007.193,K,D*05
$GPGGA,093022.60,5702.9613807,N,00949.1552024,E,2,4,4.1,-2.227,M,40.592,M,2.2,0123*5D
$GPVTG,037.45,T,-602.45,M,003.897,N,007.217,K,D*0D
$GPGGA,093022.65,5702.9614092,N,00949.1552626,E,2,4,4.1,-2.198,M,40.592,M,2.4,0123*5E
$GPVTG,039.41,T,-600.49,M,003.813,N,007.062,K,D*05
$GPGGA,093022.70,5702.9614469,N,00949.1553215,E,2,4,4.1,-2.206,M,40.592,M,2.4,0123*5B
$GPVTG,040.34,T,-599.56,M,003.820,N,007.074,K,D*03
$GPGGA,093022.75,5702.9614827,N,00949.1553820,E,2,4,4.1,-2.211,M,40.592,M,2.4,0123*52
$GPVTG,041.31,T,-598.59,M,003.825,N,007.083,K,D*04
$GPGGA,093022.80,5702.9615199,N,00949.1554414,E,2,4,4.1,-2.216,M,40.592,M,2.4,0123*5E
$GPVTG,042.03,T,-597.87,M,003.828,N,007.089,K,D*0D
$GPGGA,093022.85,5702.9615315,N,00949.1555002,E,2,4,4.1,-2.237,M,40.592,M,2.7,0123*5F
$GPVTG,044.23,T,-595.67,M,003.738,N,006.924,K,D*04
$GPGGA,093022.90,5702.9615645,N,00949.1555621,E,2,4,4.1,-2.240,M,40.592,M,2.7,0123*5C
$GPVTG,045.12,T,-594.78,M,003.733,N,006.913,K,D*07
$GPGGA,093022.95,5702.9615960,N,00949.1556203,E,2,4,4.1,-2.243,M,40.592,M,2.7,0123*55
$GPVTG,045.75,T,-594.15,M,003.709,N,006.869,K,D*08
$GPGGA,093023.00,5702.9616259,N,00949.1556827,E,2,4,4.1,-2.245,M,40.592,M,2.7,0123*50
$GPVTG,046.63,T,-593.27,M,003.696,N,006.845,K,D*03
$GPGGA,093023.05,5702.9616133,N,00949.1557380,E,2,4,4.1,-2.257,M,40.592,M,1.6,0123*5C
$GPVTG,049.03,T,-590.87,M,003.569,N,006.610,K,D*0E
$GPGGA,093023.10,5702.9616422,N,00949.1558018,E,2,4,4.1,-2.254,M,40.592,M,1.6,0123*53
$GPVTG,049.92,T,-589.98,M,003.558,N,006.589,K,D*01
$GPGGA,093023.15,5702.9616681,N,00949.1558622,E,2,4,4.1,-2.250,M,40.592,M,1.6,0123*56
$GPVTG,050.68,T,-589.22,M,003.525,N,006.528,K,D*0C
$GPGGA,093023.20,5702.9616926,N,00949.1559166,E,2,4,4.1,-2.242,M,40.592,M,1.6,0123*57
$GPVTG,051.13,T,-588.77,M,003.464,N,006.416,K,D*08
$GPGGA,093023.25,5702.9616817,N,00949.1559633,E,2,4,4.1,-2.269,M,40.592,M,1.9,0123*50
$GPVTG,053.57,T,-586.33,M,003.325,N,006.158,K,D*09
$GPGGA,093023.30,5702.9617057,N,00949.1560256,E,2,4,4.1,-2.268,M,40.592,M,1.9,0123*55
$GPVTG,054.45,T,-585.45,M,003.300,N,006.111,K,D*05
$GPGGA,093023.35,5702.9617282,N,00949.1560855,E,2,4,4.1,-2.269,M,40.592,M,1.9,0123*52
$GPVTG,055.20,T,-584.70,M,003.261,N,006.039,K,D*0D
$GPGGA,093023.40,5702.9617492,N,00949.1561397,E,2,4,4.1,-2.272,M,40.592,M,1.9,0123*59
$GPVTG,055.71,T,-584.19,M,003.196,N,005.919,K,D*05
$GPGGA,093023.45,5702.9617459,N,00949.1561857,E,2,4,4.1,-2.299,M,40.592,M,2.1,0123*52
$GPVTG,058.14,T,-581.76,M,003.058,N,005.664,K,D*01
$GPGGA,093023.50,5702.9617645,N,00949.1562365,E,2,4,4.1,-2.300,M,40.592,M,2.1,0123*51
$GPVTG,058.65,T,-581.25,M,002.977,N,005.514,K,D*00
$GPGGA,093023.55,5702.9617818,N,00949.1562949,E,2,4,4.1,-2.307,M,40.592,M,2.1,0123*51
$GPVTG,059.62,T,-580.28,M,002.933,N,005.431,K,D*0C
$GPGGA,093023.60,5702.9617973,N,00949.1563533,E,2,4,4.1,-2.319,M,40.592,M,2.1,0123*54
$GPVTG,060.66,T,-579.24,M,002.887,N,005.348,K,D*0F
$GPGGA,093023.65,5702.9617620,N,00949.1564099,E,2,4,4.1,-2.314,M,40.592,M,2.3,0123*55
$GPVTG,064.40,T,-575.50,M,002.766,N,005.123,K,D*0F
$GPGGA,093023.70,5702.9617743,N,00949.1564643,E,2,4,4.1,-2.321,M,40.592,M,2.3,0123*52
$GPVTG,065.55,T,-574.35,M,002.703,N,005.006,K,D*0D
$GPGGA,093023.75,5702.9617843,N,00949.1565184,E,2,4,4.1,-2.332,M,40.592,M,2.3,0123*57
$GPVTG,066.82,T,-573.08,M,002.640,N,004.889,K,D*05
$GPGGA,093023.80,5702.9617929,N,00949.1565754,E,2,4,4.1,-2.342,M,40.592,M,2.3,0123*5C
$GPVTG,068.31,T,-571.59,M,002.594,N,004.805,K,D*0B
$GPGGA,093023.85,5702.9617408,N,00949.1566259,E,2,4,4.1,-2.342,M,40.592,M,2.6,0123*59
$GPVTG,073.30,T,-566.60,M,002.456,N,004.548,K,D*07
$GPGGA,093023.90,5702.9617457,N,00949.1566754,E,2,4,4.1,-2.349,M,40.592,M,2.6,0123*54
$GPVTG,074.99,T,-564.91,M,002.382,N,004.411,K,D*0C
$GPGGA,093023.95,5702.9617488,N,00949.1567224,E,2,4,4.1,-2.356,M,40.592,M,2.6,0123*5E
$GPVTG,076.74,T,-563.16,M,002.301,N,004.262,K,D*0C
$GPGGA,093024.00,5702.9617516,N,00949.1567763,E,2,4,4.1,-2.362,M,40.592,M,2.6,0123*52
$GPVTG,078.69,T,-561.21,M,002.264,N,004.192,K,D*06
$GPGGA,093024.05,5702.9617032,N,00949.1568227,E,2,4,4.1,-2.364,M,40.592,M,2.8,0123*56
$GPVTG,084.83,T,-555.07,M,002.183,N,004.044,K,D*02
$GPGGA,093024.10,5702.9617002,N,00949.1568714,E,2,4,4.1,-2.372,M,40.592,M,2.8,0123*53
$GPVTG,087.48,T,-552.42,M,002.134,N,003.952,K,D*05
$GPGGA,093024.15,5702.9616955,N,00949.1569192,E,2,4,4.1,-2.381,M,40.592,M,2.8,0123*59
$GPVTG,090.18,T,-549.72,M,002.089,N,003.868,K,D*00
$GPGGA,093024.20,5702.9616908,N,00949.1569626,E,2,4,4.1,-2.385,M,40.592,M,2.8,0123*5B
$GPVTG,092.84,T,-547.06,M,002.028,N,003.757,K,D*02
$GPGGA,093024.25,5702.9616341,N,00949.1570063,E,2,4,4.1,-2.401,M,40.592,M,3.0,0123*54
$GPVTG,099.63,T,-540.27,M,002.007,N,003.717,K,D*0D
$GPGGA,093024.30,5702.9616256,N,00949.1570503,E,2,4,4.1,-2.406,M,40.592,M,3.0,0123*53
$GPVTG,102.75,T,-537.15,M,001.975,N,003.658,K,D*0D
$GPGGA,093024.35,5702.9616156,N,00949.1570940,E,2,4,4.1,-2.413,M,40.592,M,3.0,0123*5A
$GPVTG,105.94,T,-533.96,M,001.949,N,003.609,K,D*01
$GPGGA,093024.40,5702.9616026,N,00949.1571350,E,2,4,4.1,-2.418,M,40.592,M,3.0,0123*5F
$GPVTG,109.57,T,-530.33,M,001.917,N,003.551,K,D*0B
$GPGGA,093024.45,5702.9615580,N,00949.1571734,E,2,4,4.1,-2.430,M,40.592,M,3.2,0123*5E
$GPVTG,116.10,T,-523.80,M,001.935,N,003.584,K,D*04
$GPGGA,093024.50,5702.9615421,N,00949.1572064,E,2,4,4.1,-2.433,M,40.592,M,3.2,0123*52
$GPVTG,120.89,T,-519.01,M,001.879,N,003.481,K,D*0C
$GPGGA,093024.55,5702.9615237,N,00949.1572427,E,2,4,4.1,-2.432,M,40.592,M,3.2,0123*54
$GPVTG,125.37,T,-514.53,M,001.871,N,003.466,K,D*07
$GPGGA,093024.60,5702.9615037,N,00949.1572690,E,2,4,4.1,-2.431,M,40.592,M,3.2,0123*5D
$GPVTG,131.54,T,-508.36,M,001.815,N,003.361,K,D*0B
$GPGGA,093024.65,5702.9614519,N,00949.1572893,E,2,4,4.1,-2.440,M,40.592,M,3.4,0123*5D
$GPVTG,139.96,T,-499.94,M,001.863,N,003.450,K,D*08
$GPGGA,093024.70,5702.9614309,N,00949.1573176,E,2,4,4.1,-2.439,M,40.592,M,3.4,0123*53
$GPVTG,144.39,T,-495.51,M,001.891,N,003.501,K,D*0A
$GPGGA,093024.75,5702.9614075,N,00949.1573442,E,2,4,4.1,-2.436,M,40.592,M,3.4,0123*53
$GPVTG,148.56,T,-491.34,M,001.939,N,003.590,K,D*03
$GPGGA,093024.80,5702.9613794,N,00949.1573574,E,2,4,4.1,-2.433,M,40.592,M,3.4,0123*57
$GPVTG,155.93,T,-483.97,M,001.965,N,003.640,K,D*0B
$GPGGA,093024.85,5702.9613414,N,00949.1573712,E,2,4,4.1,-2.444,M,40.592,M,3.6,0123*59
$GPVTG,160.73,T,-479.17,M,002.102,N,003.893,K,D*04
$GPGGA,093024.90,5702.9613129,N,00949.1573839,E,2,4,4.1,-2.441,M,40.592,M,3.6,0123*55
$GPVTG,165.37,T,-474.53,M,002.174,N,004.027,K,D*0D
$GPGGA,093024.95,5702.9612831,N,00949.1573882,E,2,4,4.1,-2.441,M,40.592,M,3.6,0123*51
$GPVTG,171.09,T,-468.81,M,002.247,N,004.161,K,D*07
$GPGGA,093025.00,5702.9612515,N,00949.1573946,E,2,4,4.1,-2.439,M,40.592,M,3.6,0123*51
$GPVTG,174.74,T,-465.16,M,002.348,N,004.349,K,D*0D
$GPGGA,093025.05,5702.9612181,N,00949.1574020,E,2,4,4.1,-2.434,M,40.592,M,1.9,0123*53
$GPVTG,176.38,T,-463.52,M,002.460,N,004.556,K,D*04
$GPGGA,093025.10,5702.9611838,N,00949.1574127,E,2,4,4.1,-2.434,M,40.592,M,1.9,0123*59
$GPVTG,177.18,T,-462.72,M,002.571,N,004.761,K,D*03
$GPGGA,093025.15,5702.9611466,N,00949.1574128,E,2,4,4.1,-2.439,M,40.592,M,1.9,0123*59
$GPVTG,179.93,T,-459.97,M,002.692,N,004.986,K,D*04
$GPGGA,093025.20,5702.9611097,N,00949.1574055,E,2,4,4.1,-2.441,M,40.592,M,1.9,0123*51
$GPVTG,183.36,T,-456.54,M,002.804,N,005.193,K,D*02
$GPGGA,093025.25,5702.9610837,N,00949.1573951,E,2,4,4.1,-2.450,M,40.592,M,2.2,0123*55
$GPVTG,186.40,T,-453.50,M,002.887,N,005.347,K,D*07
$GPGGA,093025.30,5702.9610449,N,00949.1573878,E,2,4,4.1,-2.458,M,40.592,M,2.2,0123*56
$GPVTG,188.05,T,-451.85,M,002.994,N,005.544,K,D*04
$GPGGA,093025.35,5702.9610038,N,00949.1573779,E,2,4,4.1,-2.462,M,40.592,M,2.2,0123*56
$GPVTG,189.55,T,-450.35,M,003.113,N,005.765,K,D*0D
$GPGGA,093025.40,5702.9609628,N,00949.1573731,E,2,4,4.1,-2.474,M,40.592,M,2.2,0123*50
$GPVTG,189.83,T,-450.07,M,003.210,N,005.945,K,D*0B
$GPGGA,093025.45,5702.9609344,N,00949.1573573,E,2,4,4.1,-2.458,M,40.592,M,2.4,0123*56
$GPVTG,192.02,T,-447.88,M,003.275,N,006.066,K,D*01
$GPGGA,093025.50,5702.9608899,N,00949.1573375,E,2,4,4.1,-2.462,M,40.592,M,2.4,0123*51
$GPVTG,193.61,T,-446.29,M,003.399,N,006.296,K,D*01
$GPGGA,093025.55,5702.9608439,N,00949.1573130,E,2,4,4.1,-2.469,M,40.592,M,2.4,0123*5A
$GPVTG,195.29,T,-444.61,M,003.531,N,006.539,K,D*03
$GPGGA,093025.60,5702.9607997,N,00949.1572890,E,2,4,4.1,-2.471,M,40.592,M,2.4,0123*51
$GPVTG,196.55,T,-443.35,M,003.634,N,006.729,K,D*08
$GPGGA,093025.65,5702.9607777,N,00949.1572567,E,2,4,4.1,-2.461,M,40.592,M,2.7,0123*53
$GPVTG,198.38,T,-441.52,M,003.683,N,006.821,K,D*05
$GPGGA,093025.70,5702.9607316,N,00949.1572269,E,2,4,4.1,-2.467,M,40.592,M,2.7,0123*5B
$GPVTG,199.54,T,-440.36,M,003.785,N,007.010,K,D*01
$GPGGA,093025.75,5702.9606846,N,00949.1571944,E,2,4,4.1,-2.469,M,40.592,M,2.7,0123*58
$GPVTG,200.62,T,-439.28,M,003.890,N,007.205,K,D*0B
$GPGGA,093025.80,5702.9606357,N,00949.1571571,E,2,4,4.1,-2.473,M,40.592,M,2.7,0123*58
$GPVTG,201.79,T,-438.11,M,004.008,N,007.423,K,D*07
$GPGGA,093025.85,5702.9606297,N,00949.1571143,E,2,4,4.1,-2.467,M,40.592,M,2.9,0123*5E
$GPVTG,203.59,T,-436.31,M,004.020,N,007.445,K,D*01
$GPGGA,093025.90,5702.9605805,N,00949.1570667,E,2,4,4.1,-2.466,M,40.592,M,2.9,0123*59
$GPVTG,205.04,T,-434.86,M,004.142,N,007.671,K,D*01
$GPGGA,093025.95,5702.9605316,N,00949.1570223,E,2,4,4.1,-2.468,M,40.592,M,2.9,0123*5F
$GPVTG,205.97,T,-433.93,M,004.244,N,007.859,K,D*09
$GPGGA,093026.00,5702.9604821,N,00949.1569821,E,2,4,4.1,-2.467,M,40.592,M,2.9,0123*51
$GPVTG,206.38,T,-433.52,M,004.327,N,008.014,K,D*08
$GPGGA,093026.05,5702.9604877,N,00949.1569208,E,2,4,4.1,-2.471,M,40.592,M,1.7,0123*5C
$GPVTG,208.69,T,-431.21,M,004.326,N,008.012,K,D*03
$GPGGA,093026.10,5702.9604377,N,00949.1568744,E,2,4,4.1,-2.479,M,40.592,M,1.7,0123*57
$GPVTG,209.13,T,-430.77,M,004.408,N,008.164,K,D*06
$GPGGA,093026.15,5702.9603871,N,00949.1568142,E,2,4,4.1,-2.481,M,40.592,M,1.7,0123*5F
$GPVTG,210.27,T,-429.63,M,004.524,N,008.378,K,D*04
$GPGGA,093026.20,5702.9603380,N,00949.1567599,E,2,4,4.1,-2.485,M,40.592,M,1.7,0123*55
$GPVTG,210.90,T,-429.00,M,004.604,N,008.527,K,D*00
$GPGGA,093026.25,5702.9603440,N,00949.1566969,E,2,4,4.1,-2.460,M,40.592,M,2.0,0123*56
$GPVTG,212.74,T,-427.16,M,004.576,N,008.474,K,D*00
$GPGGA,093026.30,5702.9602935,N,00949.1566427,E,2,4,4.1,-2.455,M,40.592,M,2.0,0123*5D
$GPVTG,213.00,T,-426.90,M,004.641,N,008.596,K,D*07
$GPGGA,093026.35,5702.9602428,N,00949.1565885,E,2,4,4.1,-2.452,M,40.592,M,2.0,0123*59
$GPVTG,213.16,T,-426.74,M,004.703,N,008.711,K,D*00
$GPGGA,093026.40,5702.9601928,N,00949.1565322,E,2,4,4.1,-2.450,M,40.592,M,2.0,0123*51
$GPVTG,213.38,T,-426.52,M,004.761,N,008.817,K,D*05
$GPGGA,093026.45,5702.9602353,N,00949.1564748,E,2,4,4.1,-2.489,M,40.592,M,2.2,0123*5E
$GPVTG,214.33,T,-425.57,M,004.578,N,008.478,K,D*00
$GPGGA,093026.50,5702.9601899,N,00949.1564220,E,2,4,4.1,-2.500,M,40.592,M,2.2,0123*5F
$GPVTG,214.19,T,-425.71,M,004.574,N,008.470,K,D*08
$GPGGA,093026.55,5702.9601446,N,00949.1563688,E,2,4,4.1,-2.513,M,40.592,M,2.2,0123*57
$GPVTG,214.09,T,-425.81,M,004.577,N,008.476,K,D*03
$GPGGA,093026.60,5702.9600983,N,00949.1563141,E,2,4,4.1,-2.527,M,40.592,M,2.2,0123*51
$GPVTG,214.05,T,-425.85,M,004.592,N,008.503,K,D*03
$GPGGA,093026.65,5702.9601041,N,00949.1562545,E,2,4,4.1,-2.516,M,40.592,M,2.4,0123*57
$GPVTG,214.66,T,-425.24,M,004.451,N,008.243,K,D*00
$GPGGA,093026.70,5702.9600591,N,00949.1562021,E,2,4,4.1,-2.524,M,40.592,M,2.4,0123*5C
$GPVTG,214.48,T,-425.42,M,004.444,N,008.231,K,D*0D
$GPGGA,093026.75,5702.9600159,N,00949.1561516,E,2,4,4.1,-2.537,M,40.592,M,2.4,0123*59
$GPVTG,214.24,T,-425.66,M,004.427,N,008.198,K,D*04
$GPGGA,093026.80,5702.9599736,N,00949.1561011,E,2,4,4.1,-2.551,M,40.592,M,2.4,0123*5D
$GPVTG,214.04,T,-425.86,M,004.408,N,008.163,K,D*01
$GPGGA,093026.85,5702.9599913,N,00949.1560402,E,2,4,4.1,-2.558,M,40.592,M,2.7,0123*5C
$GPVTG,214.90,T,-425.00,M,004.280,N,007.926,K,D*02
$GPGGA,093026.90,5702.9599446,N,00949.1559865,E,2,4,4.1,-2.575,M,40.592,M,2.7,0123*5D
$GPVTG,214.66,T,-425.24,M,004.289,N,007.943,K,D*07
$GPGGA,093026.95,5702.9599007,N,00949.1559334,E,2,4,4.1,-2.591,M,40.592,M,2.7,0123*5C
$GPVTG,214.50,T,-425.40,M,004.283,N,007.932,K,D*0C
$GPGGA,093027.00,5702.9598606,N,00949.1558802,E,2,4,4.1,-2.601,M,40.592,M,2.7,0123*52
$GPVTG,214.48,T,-425.42,M,004.261,N,007.892,K,D*00
$GPGGA,093027.05,5702.9598989,N,00949.1558234,E,2,4,4.1,-2.644,M,40.592,M,1.6,0123*53
$GPVTG,215.48,T,-424.42,M,004.086,N,007.567,K,D*0C
$GPGGA,093027.10,5702.9598601,N,00949.1557687,E,2,4,4.1,-2.657,M,40.592,M,1.6,0123*59
$GPVTG,215.60,T,-424.30,M,004.062,N,007.523,K,D*09
$GPGGA,093027.15,5702.9598253,N,00949.1557145,E,2,4,4.1,-2.668,M,40.592,M,1.6,0123*5A
$GPVTG,215.82,T,-424.08,M,004.023,N,007.451,K,D*0F
$GPGGA,093027.20,5702.9597889,N,00949.1556572,E,2,4,4.1,-2.680,M,40.592,M,1.6,0123*59
$GPVTG,216.13,T,-423.77,M,004.005,N,007.418,K,D*02
$GPGGA,093027.25,5702.9598398,N,00949.1555825,E,2,4,4.1,-2.663,M,40.592,M,1.9,0123*56
$GPVTG,218.15,T,-421.75,M,003.841,N,007.114,K,D*0C
$GPGGA,093027.30,5702.9598048,N,00949.1555339,E,2,4,4.1,-2.663,M,40.592,M,1.9,0123*5A
$GPVTG,217.96,T,-421.94,M,003.791,N,007.020,K,D*03
$GPGGA,093027.35,5702.9597729,N,00949.1554861,E,2,4,4.1,-2.663,M,40.592,M,1.9,0123*57
$GPVTG,217.85,T,-422.05,M,003.732,N,006.912,K,D*0A
$GPGGA,093027.40,5702.9597403,N,00949.1554333,E,2,4,4.1,-2.663,M,40.592,M,1.9,0123*52
$GPVTG,217.99,T,-421.91,M,003.696,N,006.845,K,D*05
$GPGGA,093027.45,5702.9598351,N,00949.1553522,E,2,4,4.1,-2.666,M,40.592,M,2.1,0123*57
$GPVTG,221.36,T,-418.54,M,003.492,N,006.467,K,D*0C
$GPGGA,093027.50,5702.9598085,N,00949.1552979,E,2,4,4.1,-2.667,M,40.592,M,2.1,0123*5B
$GPVTG,221.86,T,-418.04,M,003.433,N,006.359,K,D*03
$GPGGA,093027.55,5702.9597835,N,00949.1552420,E,2,4,4.1,-2.666,M,40.592,M,2.1,0123*52
$GPVTG,222.50,T,-417.40,M,003.384,N,006.267,K,D*03
$GPGGA,093027.60,5702.9597582,N,00949.1551995,E,2,4,4.1,-2.666,M,40.592,M,2.1,0123*55
$GPVTG,222.09,T,-417.81,M,003.287,N,006.088,K,D*03
$GPGGA,093027.65,5702.9598201,N,00949.1551326,E,2,4,4.1,-2.650,M,40.592,M,2.3,0123*56
$GPVTG,225.08,T,-414.82,M,003.084,N,005.712,K,D*03
$GPGGA,093027.70,5702.9597993,N,00949.1550815,E,2,4,4.1,-2.648,M,40.592,M,2.3,0123*5E
$GPVTG,225.72,T,-414.18,M,003.013,N,005.581,K,D*0B
$GPGGA,093027.75,5702.9597773,N,00949.1550325,E,2,4,4.1,-2.651,M,40.592,M,2.3,0123*5B
$GPVTG,226.06,T,-413.84,M,002.948,N,005.459,K,D*0B
$GPGGA,093027.80,5702.9597548,N,00949.1549815,E,2,4,4.1,-2.654,M,40.592,M,2.3,0123*5E
$GPVTG,226.50,T,-413.40,M,002.897,N,005.366,K,D*08
$GPGGA,093027.85,5702.9597898,N,00949.1549184,E,2,4,4.1,-2.632,M,40.592,M,2.6,0123*5F
$GPVTG,229.17,T,-410.73,M,002.767,N,005.124,K,D*03
$GPGGA,093027.90,5702.9597681,N,00949.1548721,E,2,4,4.1,-2.630,M,40.592,M,2.6,0123*57
$GPVTG,229.32,T,-410.58,M,002.701,N,005.002,K,D*08
$GPGGA,093027.95,5702.9597492,N,00949.1548259,E,2,4,4.1,-2.628,M,40.592,M,2.6,0123*51
$GPVTG,229.69,T,-410.21,M,002.633,N,004.876,K,D*02
$GPGGA,093028.00,5702.9597298,N,00949.1547772,E,2,4,4.1,-2.627,M,40.592,M,2.6,0123*52
$GPVTG,230.22,T,-409.68,M,002.582,N,004.782,K,D*0D
$GPGGA,093028.05,5702.9597575,N,00949.1547244,E,2,4,4.1,-2.632,M,40.592,M,2.8,0123*59
$GPVTG,232.20,T,-407.70,M,002.475,N,004.584,K,D*07
$GPGGA,093028.10,5702.9597405,N,00949.1546797,E,2,4,4.1,-2.630,M,40.592,M,2.8,0123*53
$GPVTG,232.69,T,-407.21,M,002.408,N,004.459,K,D*05
$GPGGA,093028.15,5702.9597229,N,00949.1546390,E,2,4,4.1,-2.629,M,40.592,M,2.8,0123*55
$GPVTG,232.78,T,-407.12,M,002.332,N,004.319,K,D*08
$GPGGA,093028.20,5702.9597046,N,00949.1545967,E,2,4,4.1,-2.631,M,40.592,M,2.8,0123*50
$GPVTG,232.98,T,-406.92,M,002.271,N,004.206,K,D*06
$GPGGA,093028.25,5702.9597107,N,00949.1545557,E,2,4,4.1,-2.632,M,40.592,M,3.0,0123*54
$GPVTG,234.06,T,-405.84,M,002.173,N,004.025,K,D*01
$GPGGA,093028.30,5702.9596967,N,00949.1545147,E,2,4,4.1,-2.631,M,40.592,M,3.0,0123*59
$GPVTG,234.66,T,-405.24,M,002.105,N,003.898,K,D*05
$GPGGA,093028.35,5702.9596794,N,00949.1544743,E,2,4,4.1,-2.631,M,40.592,M,3.0,0123*5D
$GPVTG,234.89,T,-405.01,M,002.050,N,003.797,K,D*02
$GPGGA,093028.40,5702.9596661,N,00949.1544340,E,2,4,4.1,-2.629,M,40.592,M,3.0,0123*5A
$GPVTG,235.54,T,-404.36,M,001.990,N,003.685,K,D*02
$GPGGA,093028.45,5702.9596585,N,00949.1543959,E,2,4,4.1,-2.614,M,40.592,M,3.2,0123*5F
$GPVTG,236.10,T,-403.80,M,001.911,N,003.540,K,D*08
$GPGGA,093028.50,5702.9596439,N,00949.1543548,E,2,4,4.1,-2.611,M,40.592,M,3.2,0123*54
$GPVTG,236.79,T,-403.11,M,001.870,N,003.463,K,D*09
$GPGGA,093028.55,5702.9596290,N,00949.1543168,E,2,4,4.1,-2.610,M,40.592,M,3.2,0123*53
$GPVTG,237.17,T,-402.73,M,001.820,N,003.370,K,D*05
$GPGGA,093028.60,5702.9596152,N,00949.1542774,E,2,4,4.1,-2.607,M,40.592,M,3.2,0123*54
$GPVTG,237.85,T,-402.05,M,001.778,N,003.294,K,D*06
$GPGGA,093028.65,5702.9596050,N,00949.1542411,E,2,4,4.1,-2.617,M,40.592,M,3.4,0123*55
$GPVTG,238.76,T,-401.14,M,001.739,N,003.220,K,D*0C
$GPGGA,093028.70,5702.9595907,N,00949.1542074,E,2,4,4.1,-2.621,M,40.592,M,3.4,0123*5B
$GPVTG,238.83,T,-401.07,M,001.681,N,003.113,K,D*05
$GPGGA,093028.75,5702.9595816,N,00949.1541666,E,2,4,4.1,-2.622,M,40.592,M,3.4,0123*5A
$GPVTG,240.36,T,-399.54,M,001.650,N,003.056,K,D*08
$GPGGA,093028.80,5702.9595718,N,00949.1541254,E,2,4,4.1,-2.623,M,40.592,M,3.4,0123*55
$GPVTG,241.82,T,-398.08,M,001.628,N,003.015,K,D*06
$GPGGA,093028.85,5702.9595669,N,00949.1540857,E,2,4,4.1,-2.623,M,40.592,M,3.6,0123*5D
$GPVTG,243.51,T,-396.39,M,001.595,N,002.954,K,D*0E
$GPGGA,093028.90,5702.9595563,N,00949.1540485,E,2,4,4.1,-2.628,M,40.592,M,3.6,0123*58
$GPVTG,244.46,T,-395.44,M,001.563,N,002.895,K,D*03
$GPGGA,093028.95,5702.9595482,N,00949.1540105,E,2,4,4.1,-2.632,M,40.592,M,3.6,0123*55
$GPVTG,245.89,T,-394.01,M,001.534,N,002.842,K,D*09
$GPGGA,093029.00,5702.9595422,N,00949.1539733,E,2,4,4.1,-2.638,M,40.592,M,3.6,0123*55
$GPVTG,247.54,T,-392.36,M,001.502,N,002.782,K,D*0F
$GPGGA,093029.05,5702.9595313,N,00949.1539320,E,2,4,4.1,-2.623,M,40.592,M,1.9,0123*54
$GPVTG,249.82,T,-390.08,M,001.489,N,002.758,K,D*00
$GPGGA,093029.10,5702.9595257,N,00949.1538954,E,2,4,4.1,-2.627,M,40.592,M,1.9,0123*5D
$GPVTG,251.49,T,-388.41,M,001.462,N,002.707,K,D*05
$GPGGA,093029.15,5702.9595192,N,00949.1538557,E,2,4,4.1,-2.637,M,40.592,M,1.9,0123*5C
$GPVTG,253.17,T,-386.73,M,001.455,N,002.695,K,D*0D
$GPGGA,093029.20,5702.9595096,N,00949.1538136,E,2,4,4.1,-2.646,M,40.592,M,1.9,0123*5A
$GPVTG,254.41,T,-385.49,M,001.467,N,002.717,K,D*09
$GPGGA,093029.25,5702.9594930,N,00949.1537766,E,2,4,4.1,-2.636,M,40.592,M,2.2,0123*58
$GPVTG,255.41,T,-384.49,M,001.446,N,002.679,K,D*03
$GPGGA,093029.30,5702.9594885,N,00949.1537353,E,2,4,4.1,-2.638,M,40.592,M,2.2,0123*5F
$GPVTG,257.29,T,-382.61,M,001.455,N,002.695,K,D*03
$GPGGA,093029.35,5702.9594848,N,00949.1536914,E,2,4,4.1,-2.641,M,40.592,M,2.2,0123*5D
$GPVTG,259.26,T,-380.64,M,001.478,N,002.737,K,D*03
$GPGGA,093029.40,5702.9594802,N,00949.1536495,E,2,4,4.1,-2.647,M,40.592,M,2.2,0123*53
$GPVTG,260.86,T,-379.04,M,001.491,N,002.760,K,D*06
$GPGGA,093029.45,5702.9594510,N,00949.1536120,E,2,4,4.1,-2.636,M,40.592,M,2.4,0123*53
$GPVTG,260.72,T,-379.18,M,001.494,N,002.767,K,D*02
$GPGGA,093029.50,5702.9594458,N,00949.1535713,E,2,4,4.1,-2.638,M,40.592,M,2.4,0123*51
$GPVTG,261.94,T,-377.96,M,001.503,N,002.783,K,D*06
$GPGGA,093029.55,5702.9594401,N,00949.1535292,E,2,4,4.1,-2.640,M,40.592,M,2.4,0123*5B
$GPVTG,263.05,T,-376.85,M,001.519,N,002.813,K,D*02
$GPGGA,093029.60,5702.9594351,N,00949.1534876,E,2,4,4.1,-2.640,M,40.592,M,2.4,0123*5E
$GPVTG,264.19,T,-375.71,M,001.531,N,002.835,K,D*0E
$GPGGA,093029.65,5702.9594182,N,00949.1534558,E,2,4,4.1,-2.673,M,40.592,M,2.7,0123*55
$GPVTG,264.54,T,-375.36,M,001.538,N,002.848,K,D*07
$GPGGA,093029.70,5702.9594134,N,00949.1534168,E,2,4,4.1,-2.684,M,40.592,M,2.7,0123*53
$GPVTG,265.41,T,-374.49,M,001.536,N,002.844,K,D*09
$GPGGA,093029.75,5702.9594095,N,00949.1533755,E,2,4,4.1,-2.687,M,40.592,M,2.7,0123*50
$GPVTG,266.44,T,-373.46,M,001.546,N,002.864,K,D*02
$GPGGA,093029.80,5702.9594086,N,00949.1533351,E,2,4,4.1,-2.686,M,40.592,M,2.7,0123*59
$GPVTG,267.88,T,-372.02,M,001.551,N,002.872,K,D*03
$GPGGA,093029.85,5702.9593729,N,00949.1533029,E,2,4,4.1,-2.668,M,40.592,M,2.9,0123*5B
$GPVTG,267.81,T,-372.09,M,001.538,N,002.849,K,D*06
$GPGGA,093029.90,5702.9593701,N,00949.1532650,E,2,4,4.1,-2.669,M,40.592,M,2.9,0123*5D
$GPVTG,268.73,T,-371.17,M,001.530,N,002.834,K,D*0A
$GPGGA,093029.95,5702.9593654,N,00949.1532263,E,2,4,4.1,-2.669,M,40.592,M,2.9,0123*5D
$GPVTG,269.29,T,-370.61,M,001.529,N,002.831,K,D*09
$GPGGA,093030.00,5702.9593636,N,00949.1531876,E,2,4,4.1,-2.664,M,40.592,M,2.9,0123*5D
$GPVTG,270.32,T,-369.58,M,001.527,N,002.828,K,D*0F
$GPGGA,093030.05,5702.9593715,N,00949.1531510,E,2,4,4.1,-2.688,M,40.592,M,1.7,0123*5A
$GPVTG,271.89,T,-368.01,M,001.548,N,002.867,K,D*01
$GPGGA,093030.10,5702.9593743,N,00949.1531135,E,2,4,4.1,-2.691,M,40.592,M,1.7,0123*56
$GPVTG,273.58,T,-366.32,M,001.541,N,002.853,K,D*0F
$GPGGA,093030.15,5702.9593781,N,00949.1530767,E,2,4,4.1,-2.691,M,40.592,M,1.7,0123*5D
$GPVTG,275.33,T,-364.57,M,001.532,N,002.836,K,D*02
$GPGGA,093030.20,5702.9593799,N,00949.1530414,E,2,4,4.1,-2.690,M,40.592,M,1.7,0123*54
$GPVTG,276.68,T,-363.22,M,001.516,N,002.808,K,D*01
$GPGGA,093030.25,5702.9593505,N,00949.1530045,E,2,4,4.1,-2.643,M,40.592,M,2.0,0123*5C
$GPVTG,277.31,T,-362.59,M,001.512,N,002.801,K,D*0C
$GPGGA,093030.30,5702.9593541,N,00949.1529643,E,2,4,4.1,-2.634,M,40.592,M,2.0,0123*50
$GPVTG,278.70,T,-361.20,M,001.527,N,002.828,K,D*06
$GPGGA,093030.35,5702.9593541,N,00949.1529270,E,2,4,4.1,-2.627,M,40.592,M,2.0,0123*53
$GPVTG,279.45,T,-360.45,M,001.522,N,002.820,K,D*0E
$GPGGA,093030.40,5702.9593551,N,00949.1528879,E,2,4,4.1,-2.618,M,40.592,M,2.0,0123*5E
$GPVTG,280.28,T,-359.62,M,001.529,N,002.832,K,D*04
$GPGGA,093030.45,5702.9593362,N,00949.1528582,E,2,4,4.1,-2.611,M,40.592,M,2.2,0123*5F
$GPVTG,280.56,T,-359.34,M,001.517,N,002.809,K,D*0B
$GPGGA,093030.50,5702.9593383,N,00949.1528227,E,2,4,4.1,-2.612,M,40.592,M,2.2,0123*5F
$GPVTG,281.53,T,-358.37,M,001.505,N,002.788,K,D*08
$GPGGA,093030.55,5702.9593401,N,00949.1527844,E,2,4,4.1,-2.614,M,40.592,M,2.2,0123*51
$GPVTG,282.30,T,-357.60,M,001.510,N,002.797,K,D*09
$GPGGA,093030.60,5702.9593421,N,00949.1527444,E,2,4,4.1,-2.613,M,40.592,M,2.2,0123*5E
$GPVTG,282.98,T,-356.92,M,001.525,N,002.825,K,D*07
$GPGGA,093030.65,5702.9592988,N,00949.1527133,E,2,4,4.1,-2.603,M,40.592,M,2.4,0123*56
$GPVTG,281.59,T,-358.31,M,001.528,N,002.830,K,D*07
$GPGGA,093030.70,5702.9593010,N,00949.1526716,E,2,4,4.1,-2.602,M,40.592,M,2.4,0123*5A
$GPVTG,282.09,T,-357.81,M,001.551,N,002.872,K,D*0D
$GPGGA,093030.75,5702.9593029,N,00949.1526340,E,2,4,4.1,-2.603,M,40.592,M,2.4,0123*53
$GPVTG,282.73,T,-357.17,M,001.549,N,002.870,K,D*04
$GPGGA,093030.80,5702.9593018,N,00949.1525950,E,2,4,4.1,-2.611,M,40.592,M,2.4,0123*50
$GPVTG,282.81,T,-357.09,M,001.553,N,002.876,K,D*0B
$GPGGA,093030.85,5702.9592675,N,00949.1525603,E,2,4,4.1,-2.620,M,40.592,M,2.7,0123*51
$GPVTG,280.98,T,-358.92,M,001.564,N,002.897,K,D*07
$GPGGA,093030.90,5702.9592684,N,00949.1525152,E,2,4,4.1,-2.623,M,40.592,M,2.7,0123*5B
$GPVTG,281.01,T,-358.89,M,001.601,N,002.965,K,D*00
$GPGGA,093030.95,5702.9592712,N,00949.1524759,E,2,4,4.1,-2.631,M,40.592,M,2.7,0123*5F
$GPVTG,281.59,T,-358.31,M,001.605,N,002.972,K,D*0C
$GPGGA,093031.00,5702.9592740,N,00949.1524375,E,2,4,4.1,-2.637,M,40.592,M,2.7,0123*59
$GPVTG,282.21,T,-357.69,M,001.603,N,002.969,K,D*0E
$GPGGA,093031.05,5702.9592464,N,00949.1523986,E,2,4,4.1,-2.642,M,40.592,M,1.6,0123*58
$GPVTG,280.81,T,-359.09,M,001.622,N,003.005,K,D*0F
$GPGGA,093031.10,5702.9592488,N,00949.1523595,E,2,4,4.1,-2.652,M,40.592,M,1.6,0123*51
$GPVTG,281.24,T,-358.66,M,001.621,N,003.003,K,D*0C
$GPGGA,093031.15,5702.9592483,N,00949.1523215,E,2,4,4.1,-2.660,M,40.592,M,1.6,0123*51
$GPVTG,281.27,T,-358.63,M,001.612,N,002.985,K,D*0C
$GPGGA,093031.20,5702.9592504,N,00949.1522809,E,2,4,4.1,-2.666,M,40.592,M,1.6,0123*59
$GPVTG,281.59,T,-358.31,M,001.619,N,002.998,K,D*05
$GPGGA,093031.25,5702.9592165,N,00949.1522565,E,2,4,4.1,-2.673,M,40.592,M,1.9,0123*53
$GPVTG,280.58,T,-359.32,M,001.561,N,002.890,K,D*02
$GPGGA,093031.30,5702.9592224,N,00949.1522152,E,2,4,4.1,-2.678,M,40.592,M,1.9,0123*5A
$GPVTG,281.47,T,-358.43,M,001.578,N,002.923,K,D*0B
$GPGGA,093031.35,5702.9592247,N,00949.1521718,E,2,4,4.1,-2.683,M,40.592,M,1.9,0123*55
$GPVTG,281.62,T,-358.28,M,001.602,N,002.967,K,D*0F
$GPGGA,093031.40,5702.9592305,N,00949.1521337,E,2,4,4.1,-2.683,M,40.592,M,1.9,0123*59
$GPVTG,282.50,T,-357.40,M,001.599,N,002.962,K,D*08
$GPGGA,093031.45,5702.9592001,N,00949.1520986,E,2,4,4.1,-2.646,M,40.592,M,2.1,0123*58
$GPVTG,281.70,T,-358.20,M,001.575,N,002.917,K,D*00
$GPGGA,093031.50,5702.9591965,N,00949.1520581,E,2,4,4.1,-2.645,M,40.592,M,2.1,0123*5C
$GPVTG,280.75,T,-359.15,M,001.577,N,002.920,K,D*05
$GPGGA,093031.55,5702.9591979,N,00949.1520204,E,2,4,4.1,-2.640,M,40.592,M,2.1,0123*5B
$GPVTG,280.92,T,-358.98,M,001.568,N,002.905,K,D*01
$GPGGA,093031.60,5702.9591983,N,00949.1519857,E,2,4,4.1,-2.635,M,40.592,M,2.1,0123*5C
$GPVTG,281.04,T,-358.86,M,001.544,N,002.860,K,D*0C
$GPGGA,093031.65,5702.9591797,N,00949.1519660,E,2,4,4.1,-2.665,M,40.592,M,2.3,0123*5F
$GPVTG,280.92,T,-358.98,M,001.500,N,002.778,K,D*0B
$GPGGA,093031.70,5702.9591853,N,00949.1519314,E,2,4,4.1,-2.663,M,40.592,M,2.3,0123*5C
$GPVTG,281.89,T,-358.01,M,001.483,N,002.747,K,D*06
$GPGGA,093031.75,5702.9591919,N,00949.1518966,E,2,4,4.1,-2.664,M,40.592,M,2.3,0123*5F
$GPVTG,282.94,T,-356.96,M,001.471,N,002.725,K,D*00
$GPGGA,093031.80,5702.9591954,N,00949.1518603,E,2,4,4.1,-2.666,M,40.592,M,2.3,0123*52
$GPVTG,283.36,T,-356.54,M,001.466,N,002.715,K,D*02
$GPGGA,093031.85,5702.9591764,N,00949.1518230,E,2,4,4.1,-2.625,M,40.592,M,2.6,0123*5C
$GPVTG,283.39,T,-356.51,M,001.460,N,002.705,K,D*0F
$GPGGA,093031.90,5702.9591765,N,00949.1517891,E,2,4,4.1,-2.621,M,40.592,M,2.6,0123*53
$GPVTG,283.17,T,-356.73,M,001.439,N,002.665,K,D*08
$GPGGA,093031.95,5702.9591767,N,00949.1517533,E,2,4,4.1,-2.619,M,40.592,M,2.6,0123*5A
$GPVTG,282.95,T,-356.95,M,001.431,N,002.650,K,D*05
$GPGGA,093032.00,5702.9591818,N,00949.1517124,E,2,4,4.1,-2.617,M,40.592,M,2.6,0123*5E
$GPVTG,283.29,T,-356.61,M,001.456,N,002.697,K,D*02
$GPGGA,093032.05,5702.9591534,N,00949.1516848,E,2,4,4.1,-2.625,M,40.592,M,2.8,0123*55
$GPVTG,282.50,T,-357.40,M,001.445,N,002.676,K,D*02
$GPGGA,093032.10,5702.9591578,N,00949.1516470,E,2,4,4.1,-2.626,M,40.592,M,2.8,0123*5D
$GPVTG,282.86,T,-357.04,M,001.453,N,002.690,K,D*06
$GPGGA,093032.15,5702.9591596,N,00949.1516111,E,2,4,4.1,-2.628,M,40.592,M,2.8,0123*54
$GPVTG,282.83,T,-357.07,M,001.447,N,002.680,K,D*04
$GPGGA,093032.20,5702.9591619,N,00949.1515732,E,2,4,4.1,-2.630,M,40.592,M,2.8,0123*5B
$GPVTG,282.80,T,-357.10,M,001.454,N,002.693,K,D*01
$GPGGA,093032.25,5702.9591542,N,00949.1515339,E,1,3,4.1,-2.632,M,40.592,M,,*7E
$GPVTG,282.31,T,-357.59,M,001.464,N,002.712,K,A*08
$GPGGA,093032.30,5702.9591636,N,00949.1514961,E,1,3,4.1,-2.632,M,40.592,M,,*7C
$GPVTG,283.15,T,-356.75,M,001.473,N,002.728,K,A*0F
$GPGGA,093032.35,5702.9591630,N,00949.1514575,E,1,3,4.1,-2.639,M,40.592,M,,*7D
$GPVTG,282.93,T,-356.97,M,001.480,N,002.741,K,A*0F
$GPGGA,093032.40,5702.9591675,N,00949.1514164,E,1,3,4.1,-2.646,M,40.592,M,,*72
$GPVTG,283.10,T,-356.80,M,001.500,N,002.779,K,A*01
$GPGGA,093032.45,5702.9591528,N,00949.1513868,E,1,3,4.1,-2.651,M,40.592,M,,*78
$GPVTG,283.19,T,-356.71,M,001.472,N,002.726,K,A*08
$GPGGA,093032.50,5702.9591576,N,00949.1513498,E,1,3,4.1,-2.657,M,40.592,M,,*72
$GPVTG,283.52,T,-356.38,M,001.475,N,002.732,K,A*08
$GPGGA,093032.55,5702.9591585,N,00949.1513090,E,1,3,4.1,-2.666,M,40.592,M,,*75
$GPVTG,283.29,T,-356.61,M,001.494,N,002.766,K,A*06
$GPGGA,093032.60,5702.9591573,N,00949.1512698,E,1,3,4.1,-2.672,M,40.592,M,,*70
$GPVTG,282.97,T,-356.93,M,001.502,N,002.781,K,A*08
$GPGGA,093032.65,5702.9591153,N,00949.1512443,E,1,3,4.1,-2.674,M,40.592,M,,*71
$GPVTG,282.17,T,-357.73,M,001.486,N,002.753,K,A*0D
$GPGGA,093032.70,5702.9591194,N,00949.1512112,E,1,3,4.1,-2.675,M,40.592,M,,*7E
$GPVTG,282.56,T,-357.34,M,001.468,N,002.719,K,A*05
$GPGGA,093032.75,5702.9591275,N,00949.1511770,E,1,3,4.1,-2.677,M,40.592,M,,*74
$GPVTG,283.30,T,-356.60,M,001.459,N,002.702,K,A*0C
$GPGGA,093032.80,5702.9591296,N,00949.1511409,E,1,3,4.1,-2.679,M,40.592,M,,*70
$GPVTG,283.34,T,-356.56,M,001.457,N,002.698,K,A*01
$GPGGA,093032.85,5702.9591327,N,00949.1511077,E,2,4,4.1,-2.676,M,40.592,M,3.6,0123*53
$GPVTG,283.25,T,-356.65,M,001.434,N,002.657,K,D*02
$GPGGA,093032.90,5702.9591371,N,00949.1510701,E,2,4,4.1,-2.676,M,40.592,M,3.6,0123*53
$GPVTG,283.43,T,-356.47,M,001.441,N,002.669,K,D*0D
$GPGGA,093032.95,5702.9591402,N,00949.1510297,E,2,4,4.1,-2.677,M,40.592,M,3.6,0123*5E
$GPVTG,283.34,T,-356.56,M,001.459,N,002.702,K,D*08
$GPGGA,093033.00,5702.9591443,N,00949.1509922,E,2,4,4.1,-2.678,M,40.592,M,3.6,0123*54
$GPVTG,283.47,T,-356.43,M,001.464,N,002.711,K,D*04
$GPGGA,093033.05,5702.9591234,N,00949.1509650,E,2,4,4.1,-2.673,M,40.592,M,1.9,0123*5B
$GPVTG,282.41,T,-357.49,M,001.421,N,002.631,K,D*0A
$GPGGA,093033.10,5702.9591259,N,00949.1509343,E,2,4,4.1,-2.670,M,40.592,M,1.9,0123*50
$GPVTG,282.35,T,-357.55,M,001.385,N,002.564,K,D*0E
$GPGGA,093033.15,5702.9591295,N,00949.1508998,E,2,4,4.1,-2.665,M,40.592,M,1.9,0123*5C
$GPVTG,282.43,T,-357.47,M,001.381,N,002.557,K,D*08
$GPGGA,093033.20,5702.9591330,N,00949.1508631,