$GPGGA,075714.25,5702.8042627,N,00950.4866650,E,2,5,3.3,-0.623,M,40.592,M,1.4,0123*58
$GPVTG,026.52,T,-613.38,M,002.468,N,004.570,K,D*09
$GPGGA,075714.30,5702.8042935,N,00950.4866831,E,2,5,3.3,-0.620,M,40.592,M,1.4,0123*5A
$GPVTG,024.09,T,-615.81,M,002.482,N,004.597,K,D*0C
$GPGGA,075714.35,5702.8043219,N,00950.4866985,E,2,5,3.3,-0.619,M,40.592,M,1.4,0123*5F
$GPVTG,021.84,T,-618.06,M,002.474,N,004.582,K,D*03
$GPGGA,075714.40,5702.8043483,N,00950.4867279,E,2,5,3.3,-0.624,M,40.592,M,1.4,0123*5F
$GPVTG,021.52,T,-618.38,M,002.478,N,004.589,K,D*02
$GPGGA,075714.45,5702.8043801,N,00950.4867466,E,2,5,3.3,-0.621,M,40.592,M,1.6,0123*53
$GPVTG,019.73,T,-620.17,M,002.515,N,004.658,K,D*09
$GPGGA,075714.50,5702.8044133,N,00950.4867595,E,2,5,3.3,-0.623,M,40.592,M,1.6,0123*57
$GPVTG,017.48,T,-622.42,M,002.541,N,004.706,K,D*06
$GPGGA,075714.55,5702.8044432,N,00950.4867704,E,2,5,3.3,-0.628,M,40.592,M,1.6,0123*57
$GPVTG,015.47,T,-624.43,M,002.536,N,004.696,K,D*04
$GPGGA,075714.60,5702.8044788,N,00950.4867912,E,2,5,3.3,-0.632,M,40.592,M,1.6,0123*51
$GPVTG,014.51,T,-625.39,M,002.591,N,004.799,K,D*0D
$GPGGA,075714.65,5702.8045173,N,00950.4868142,E,2,5,3.3,-0.585,M,40.592,M,1.8,0123*54
$GPVTG,013.41,T,-626.49,M,002.607,N,004.828,K,D*06
$GPGGA,075714.70,5702.8045508,N,00950.4868253,E,2,5,3.3,-0.585,M,40.592,M,1.8,0123*5B
$GPVTG,011.87,T,-628.03,M,002.628,N,004.866,K,D*09
$GPGGA,075714.75,5702.8045851,N,00950.4868322,E,2,5,3.3,-0.578,M,40.592,M,1.8,0123*5A
$GPVTG,010.06,T,-629.84,M,002.650,N,004.908,K,D*09
$GPGGA,075714.80,5702.8046184,N,00950.4868403,E,2,5,3.3,-0.574,M,40.592,M,1.8,0123*5A
$GPVTG,008.61,T,-631.29,M,002.665,N,004.935,K,D*07
$GPGGA,075714.85,5702.8046516,N,00950.4868479,E,2,5,3.3,-0.568,M,40.592,M,2.1,0123*5A
$GPVTG,007.19,T,-632.71,M,002.692,N,004.986,K,D*09
$GPGGA,075714.90,5702.8046820,N,00950.4868521,E,2,5,3.3,-0.566,M,40.592,M,2.1,0123*54
$GPVTG,005.74,T,-634.16,M,002.675,N,004.955,K,D*00
$GPGGA,075714.95,5702.8047142,N,00950.4868547,E,2,5,3.3,-0.565,M,40.592,M,2.1,0123*5E
$GPVTG,004.24,T,-635.66,M,002.673,N,004.950,K,D*01
$GPGGA,075715.00,5702.8047497,N,00950.4868543,E,2,5,3.3,-0.562,M,40.592,M,2.1,0123*5D
$GPVTG,002.58,T,-637.32,M,002.697,N,004.994,K,D*0D
$GPGGA,075715.05,5702.8047817,N,00950.4868506,E,2,5,3.3,-0.561,M,40.592,M,2.3,0123*5C
$GPVTG,000.89,T,-639.01,M,002.703,N,005.006,K,D*02
$GPGGA,075715.10,5702.8048197,N,00950.4868494,E,2,5,3.3,-0.558,M,40.592,M,2.3,0123*56
$GPVTG,359.51,T,-280.39,M,002.745,N,005.084,K,D*0D
$GPGGA,075715.15,5702.8048539,N,00950.4868467,E,2,5,3.3,-0.559,M,40.592,M,2.3,0123*5E
$GPVTG,358.16,T,-281.74,M,002.751,N,005.095,K,D*02
$GPGGA,075715.20,5702.8048898,N,00950.4868462,E,2,5,3.3,-0.560,M,40.592,M,2.3,0123*51
$GPVTG,357.24,T,-282.66,M,002.770,N,005.129,K,D*09
$GPGGA,075715.25,5702.8049297,N,00950.4868480,E,2,5,3.3,-0.532,M,40.592,M,2.5,0123*5D
$GPVTG,355.88,T,-284.02,M,002.808,N,005.201,K,D*00
$GPGGA,075715.30,5702.8049657,N,00950.4868452,E,2,5,3.3,-0.530,M,40.592,M,2.5,0123*5C
$GPVTG,355.29,T,-284.61,M,002.810,N,005.204,K,D*02
$GPGGA,075715.35,5702.8050041,N,00950.4868463,E,2,5,3.3,-0.530,M,40.592,M,2.5,0123*52
$GPVTG,355.47,T,-284.43,M,002.837,N,005.254,K,D*0A
$GPGGA,075715.40,5702.8050400,N,00950.4868344,E,2,5,3.3,-0.536,M,40.592,M,2.5,0123*55
$GPVTG,353.57,T,-286.33,M,002.844,N,005.267,K,D*0C
$GPGGA,075715.45,5702.8050813,N,00950.4868306,E,2,5,3.3,-0.522,M,40.592,M,2.7,0123*5F
$GPVTG,352.59,T,-287.31,M,002.884,N,005.342,K,D*0A
$GPGGA,075715.50,5702.8051195,N,00950.4868253,E,2,5,3.3,-0.522,M,40.592,M,2.7,0123*5C
$GPVTG,351.82,T,-288.08,M,002.914,N,005.396,K,D*0B
$GPGGA,075715.55,5702.8051578,N,00950.4868106,E,2,5,3.3,-0.519,M,40.592,M,2.7,0123*55
$GPVTG,350.66,T,-289.24,M,002.945,N,005.454,K,D*02
$GPGGA,075715.60,5702.8051948,N,00950.4867900,E,2,5,3.3,-0.509,M,40.592,M,2.7,0123*5C
$GPVTG,349.25,T,-290.65,M,002.972,N,005.504,K,D*00
$GPGGA,075715.65,5702.8052155,N,00950.4867584,E,2,5,3.3,-0.537,M,40.592,M,2.9,0123*5D
$GPVTG,347.51,T,-292.39,M,002.977,N,005.513,K,D*05
$GPGGA,075715.70,5702.8052525,N,00950.4867373,E,2,5,3.3,-0.538,M,40.592,M,2.9,0123*5B
$GPVTG,346.26,T,-293.64,M,003.003,N,005.561,K,D*03
$GPGGA,075715.75,5702.8052900,N,00950.4867168,E,2,5,3.3,-0.540,M,40.592,M,2.9,0123*52
$GPVTG,345.15,T,-294.75,M,003.029,N,005.610,K,D*0A
$GPGGA,075715.80,5702.8053228,N,00950.4866930,E,2,5,3.3,-0.540,M,40.592,M,2.9,0123*5C
$GPVTG,343.83,T,-296.07,M,003.035,N,005.621,K,D*0B
$GPGGA,075715.85,5702.8053540,N,00950.4866507,E,2,5,3.3,-0.481,M,40.592,M,3.1,0123*5D
$GPVTG,342.05,T,-297.85,M,003.030,N,005.611,K,D*09
$GPGGA,075715.90,5702.8053919,N,00950.4866260,E,2,5,3.3,-0.472,M,40.592,M,3.1,0123*53
$GPVTG,340.98,T,-298.92,M,003.057,N,005.661,K,D*00
$GPGGA,075715.95,5702.8054302,N,00950.4866029,E,2,5,3.3,-0.465,M,40.592,M,3.1,0123*58
$GPVTG,340.12,T,-299.78,M,003.083,N,005.709,K,D*01
$GPGGA,075716.00,5702.8054696,N,00950.4865780,E,2,5,3.3,-0.460,M,40.592,M,3.1,0123*5D
$GPVTG,339.29,T,-300.61,M,003.114,N,005.767,K,D*09
$GPGGA,075716.05,5702.8054936,N,00950.4865471,E,2,5,3.3,-0.482,M,40.592,M,2.4,0123*58
$GPVTG,338.01,T,-301.89,M,003.104,N,005.749,K,D*08
$GPGGA,075716.10,5702.8055321,N,00950.4865198,E,2,5,3.3,-0.486,M,40.592,M,2.4,0123*57
$GPVTG,337.20,T,-302.70,M,003.129,N,005.795,K,D*0F
$GPGGA,075716.15,5702.8055670,N,00950.4864906,E,2,5,3.3,-0.492,M,40.592,M,2.4,0123*58
$GPVTG,336.23,T,-303.67,M,003.136,N,005.808,K,D*0F
$GPGGA,075716.20,5702.8056063,N,00950.4864589,E,2,5,3.3,-0.501,M,40.592,M,2.4,0123*59
$GPVTG,335.38,T,-304.52,M,003.168,N,005.867,K,D*05
$GPGGA,075716.25,5702.8056540,N,00950.4864241,E,2,5,3.3,-0.444,M,40.592,M,2.7,0123*58
$GPVTG,334.84,T,-305.06,M,003.212,N,005.948,K,D*01
$GPGGA,075716.30,5702.8056926,N,00950.4863865,E,2,5,3.3,-0.440,M,40.592,M,2.7,0123*5F
$GPVTG,333.79,T,-306.11,M,003.243,N,006.006,K,D*05
$GPGGA,075716.35,5702.8057301,N,00950.4863491,E,2,5,3.3,-0.438,M,40.592,M,2.7,0123*5C
$GPVTG,332.82,T,-307.08,M,003.266,N,006.049,K,D*05
$GPGGA,075716.40,5702.8057689,N,00950.4863065,E,2,5,3.3,-0.432,M,40.592,M,2.7,0123*5E
$GPVTG,331.71,T,-308.19,M,003.303,N,006.117,K,D*0D
$GPGGA,075716.45,5702.8057978,N,00950.4862607,E,2,5,3.3,-0.440,M,40.592,M,2.9,0123*52
$GPVTG,330.67,T,-309.23,M,003.314,N,006.137,K,D*07
$GPGGA,075716.50,5702.8058359,N,00950.4862187,E,2,5,3.3,-0.442,M,40.592,M,2.9,0123*5D
$GPVTG,329.75,T,-310.15,M,003.341,N,006.188,K,D*05
$GPGGA,075716.55,5702.8058704,N,00950.4861753,E,2,5,3.3,-0.442,M,40.592,M,2.9,0123*58
$GPVTG,328.67,T,-311.23,M,003.350,N,006.205,K,D*05
$GPGGA,075716.60,5702.8059102,N,00950.4861295,E,2,5,3.3,-0.440,M,40.592,M,2.9,0123*52
$GPVTG,327.84,T,-312.06,M,003.390,N,006.279,K,D*04
$GPGGA,075716.65,5702.8059276,N,00950.4860673,E,2,5,3.3,-0.461,M,40.592,M,3.1,0123*50
$GPVTG,326.04,T,-313.86,M,003.382,N,006.264,K,D*0B
$GPGGA,075716.70,5702.8059609,N,00950.4860210,E,2,5,3.3,-0.461,M,40.592,M,3.1,0123*59
$GPVTG,325.00,T,-314.90,M,003.384,N,006.267,K,D*09
$GPGGA,075716.75,5702.8059957,N,00950.4859695,E,2,5,3.3,-0.462,M,40.592,M,3.1,0123*58
$GPVTG,323.91,T,-315.99,M,003.406,N,006.309,K,D*0B
$GPGGA,075716.80,5702.8060277,N,00950.4859195,E,2,5,3.3,-0.465,M,40.592,M,3.1,0123*51
$GPVTG,322.83,T,-317.07,M,003.411,N,006.316,K,D*04
$GPGGA,075716.85,5702.8060464,N,00950.4858509,E,2,5,3.3,-0.455,M,40.592,M,3.4,0123*56
$GPVTG,320.98,T,-318.92,M,003.391,N,006.280,K,D*0E
$GPGGA,075716.90,5702.8060761,N,00950.4857963,E,2,5,3.3,-0.452,M,40.592,M,3.4,0123*5C
$GPVTG,319.67,T,-320.23,M,003.391,N,006.281,K,D*04
$GPGGA,075716.95,5702.8061091,N,00950.4857357,E,2,5,3.3,-0.449,M,40.592,M,3.4,0123*57
$GPVTG,318.45,T,-321.45,M,003.423,N,006.340,K,D*06
$GPGGA,075717.00,5702.8061416,N,00950.4856792,E,2,5,3.3,-0.449,M,40.592,M,3.4,0123*5D
$GPVTG,317.49,T,-322.41,M,003.442,N,006.374,K,D*02
$GPGGA,075717.05,5702.8061697,N,00950.4856101,E,2,5,3.3,-0.421,M,40.592,M,2.5,0123*51
$GPVTG,316.15,T,-323.75,M,003.456,N,006.401,K,D*0C
$GPGGA,075717.10,5702.8062007,N,00950.4855536,E,2,5,3.3,-0.419,M,40.592,M,2.5,0123*51
$GPVTG,315.27,T,-324.63,M,003.462,N,006.412,K,D*0B
$GPGGA,075717.15,5702.8062311,N,00950.4854912,E,2,5,3.3,-0.416,M,40.592,M,2.5,0123*54
$GPVTG,314.19,T,-325.71,M,003.481,N,006.448,K,D*07
$GPGGA,075717.20,5702.8062631,N,00950.4854301,E,2,5,3.3,-0.417,M,40.592,M,2.5,0123*5C
$GPVTG,313.38,T,-326.52,M,003.503,N,006.487,K,D*09
$GPGGA,075717.25,5702.8062804,N,00950.4853588,E,2,5,3.3,-0.428,M,40.592,M,2.8,0123*50
$GPVTG,311.75,T,-328.15,M,003.498,N,006.478,K,D*0C
$GPGGA,075717.30,5702.8063084,N,00950.4852960,E,2,5,3.3,-0.432,M,40.592,M,2.8,0123*55
$GPVTG,310.75,T,-329.15,M,003.
$GPGGA,075734.25,5702.8053619,N,00950.4751483,E,2,5,3.3,-0.804,M,40.592,M,1.4,0123*5B
$GPVTG,224.24,T,-415.66,M,003.968,N,007.348,K,D*05
$GPGGA,075734.30,5702.8053211,N,00950.4750880,E,2,5,3.3,-0.810,M,40.592,M,1.4,0123*58
$GPVTG,222.85,T,-417.05,M,003.972,N,007.356,K,D*0B
$GPGGA,075734.35,5702.8052810,N,00950.4750296,E,2,5,3.3,-0.816,M,40.592,M,1.4,0123*5C
$GPVTG,221.55,T,-418.35,M,003.970,N,007.352,K,D*0F
$GPGGA,075734.40,5702.8052409,N,00950.4749731,E,2,5,3.3,-0.826,M,40.592,M,1.4,0123*59
$GPVTG,220.27,T,-419.63,M,003.965,N,007.344,K,D*0A
$GPGGA,075734.45,5702.8052142,N,00950.4749286,E,2,5,3.3,-0.825,M,40.592,M,1.6,0123*5E
$GPVTG,219.53,T,-420.37,M,003.936,N,007.290,K,D*06
$GPGGA,075734.50,5702.8051726,N,00950.4748716,E,2,5,3.3,-0.836,M,40.592,M,1.6,0123*52
$GPVTG,218.34,T,-421.56,M,003.940,N,007.298,K,D*09
$GPGGA,075734.55,5702.8051306,N,00950.4748158,E,2,5,3.3,-0.846,M,40.592,M,1.6,0123*5A
$GPVTG,217.19,T,-422.71,M,003.946,N,007.308,K,D*01
$GPGGA,075734.60,5702.8050881,N,00950.4747648,E,2,5,3.3,-0.857,M,40.592,M,1.6,0123*50
$GPVTG,215.91,T,-423.99,M,003.944,N,007.304,K,D*0A
$GPGGA,075734.65,5702.8050589,N,00950.4747367,E,2,5,3.3,-0.839,M,40.592,M,1.8,0123*5E
$GPVTG,214.61,T,-425.29,M,003.905,N,007.232,K,D*08
$GPGGA,075734.70,5702.8050164,N,00950.4746869,E,2,5,3.3,-0.849,M,40.592,M,1.8,0123*5E
$GPVTG,213.45,T,-426.45,M,003.903,N,007.228,K,D*0D
$GPGGA,075734.75,5702.8049715,N,00950.4746430,E,2,5,3.3,-0.860,M,40.592,M,1.8,0123*58
$GPVTG,212.01,T,-427.89,M,003.902,N,007.227,K,D*03
$GPGGA,075734.80,5702.8049291,N,00950.4745959,E,2,5,3.3,-0.871,M,40.592,M,1.8,0123*5A
$GPVTG,210.94,T,-428.96,M,003.898,N,007.219,K,D*03
$GPGGA,075734.85,5702.8049031,N,00950.4745818,E,2,5,3.3,-0.858,M,40.592,M,2.1,0123*52
$GPVTG,209.60,T,-430.30,M,003.847,N,007.124,K,D*0A
$GPGGA,075734.90,5702.8048571,N,00950.4745399,E,2,5,3.3,-0.868,M,40.592,M,2.1,0123*57
$GPVTG,208.31,T,-431.59,M,003.854,N,007.137,K,D*01
$GPGGA,075734.95,5702.8048104,N,00950.4744983,E,2,5,3.3,-0.877,M,40.592,M,2.1,0123*5A
$GPVTG,207.09,T,-432.81,M,003.866,N,007.160,K,D*00
$GPGGA,075735.00,5702.8047653,N,00950.4744602,E,2,5,3.3,-0.887,M,40.592,M,2.1,0123*54
$GPVTG,205.87,T,-434.03,M,003.864,N,007.157,K,D*0E
$GPGGA,075735.05,5702.8047313,N,00950.4744452,E,2,5,3.3,-0.881,M,40.592,M,2.3,0123*53
$GPVTG,204.28,T,-435.62,M,003.818,N,007.070,K,D*03
$GPGGA,075735.10,5702.8046880,N,00950.4744103,E,2,5,3.3,-0.891,M,40.592,M,2.3,0123*57
$GPVTG,203.19,T,-436.71,M,003.795,N,007.028,K,D*00
$GPGGA,075735.15,5702.8046422,N,00950.4743779,E,2,5,3.3,-0.899,M,40.592,M,2.3,0123*52
$GPVTG,201.93,T,-437.97,M,003.790,N,007.019,K,D*0E
$GPGGA,075735.20,5702.8045973,N,00950.4743465,E,2,5,3.3,-0.909,M,40.592,M,2.3,0123*58
$GPVTG,200.78,T,-439.12,M,003.779,N,006.999,K,D*0E
$GPGGA,075735.25,5702.8045734,N,00950.4743462,E,2,5,3.3,-0.872,M,40.592,M,2.5,0123*5C
$GPVTG,199.41,T,-440.49,M,003.681,N,006.818,K,D*09
$GPGGA,075735.30,5702.8045307,N,00950.4743186,E,2,5,3.3,-0.876,M,40.592,M,2.5,0123*57
$GPVTG,198.41,T,-441.49,M,003.618,N,006.700,K,D*0F
$GPGGA,075735.35,5702.8044880,N,00950.4742973,E,2,5,3.3,-0.878,M,40.592,M,2.5,0123*5A
$GPVTG,196.90,T,-443.00,M,003.558,N,006.590,K,D*0E
$GPGGA,075735.40,5702.8044403,N,00950.4742838,E,2,5,3.3,-0.882,M,40.592,M,2.5,0123*54
$GPVTG,194.61,T,-445.29,M,003.556,N,006.586,K,D*06
$GPGGA,075735.45,5702.8044028,N,00950.4742638,E,2,5,3.3,-0.887,M,40.592,M,2.7,0123*55
$GPVTG,193.59,T,-446.31,M,003.536,N,006.549,K,D*05
$GPGGA,075735.50,5702.8043549,N,00950.4742505,E,2,5,3.3,-0.899,M,40.592,M,2.7,0123*56
$GPVTG,192.01,T,-447.89,M,003.547,N,006.569,K,D*0F
$GPGGA,075735.55,5702.8043094,N,00950.4742330,E,2,5,3.3,-0.910,M,40.592,M,2.7,0123*56
$GPVTG,190.81,T,-449.09,M,003.551,N,006.576,K,D*0A
$GPGGA,075735.60,5702.8042648,N,00950.4742195,E,2,5,3.3,-0.917,M,40.592,M,2.7,0123*5C
$GPVTG,189.52,T,-450.38,M,003.548,N,006.571,K,D*09
$GPGGA,075735.65,5702.8042319,N,00950.4742157,E,2,5,3.3,-0.914,M,40.592,M,2.9,0123*5B
$GPVTG,188.41,T,-451.49,M,003.533,N,006.542,K,D*01
$GPGGA,075735.70,5702.8041880,N,00950.4741974,E,2,5,3.3,-0.922,M,40.592,M,2.9,0123*58
$GPVTG,187.58,T,-452.32,M,003.531,N,006.539,K,D*07
$GPGGA,075735.75,5702.8041434,N,00950.4741875,E,2,5,3.3,-0.931,M,40.592,M,2.9,0123*5C
$GPVTG,186.38,T,-453.52,M,003.531,N,006.539,K,D*07
$GPGGA,075735.80,5702.8040965,N,00950.4741798,E,2,5,3.3,-0.940,M,40.592,M,2.9,0123*54
$GPVTG,185.15,T,-454.75,M,003.541,N,006.557,K,D*06
$GPGGA,075735.85,5702.8040701,N,00950.4741895,E,2,5,3.3,-0.916,M,40.592,M,3.1,0123*55
$GPVTG,183.89,T,-456.01,M,003.508,N,006.497,K,D*04
$GPGGA,075735.90,5702.8040225,N,00950.4741899,E,2,5,3.3,-0.929,M,40.592,M,3.1,0123*52
$GPVTG,182.40,T,-457.50,M,003.520,N,006.520,K,D*02
$GPGGA,075735.95,5702.8039765,N,00950.4741872,E,2,5,3.3,-0.940,M,40.592,M,3.1,0123*52
$GPVTG,181.22,T,-458.68,M,003.526,N,006.530,K,D*06
$GPGGA,075736.00,5702.8039334,N,00950.4741760,E,2,5,3.3,-0.946,M,40.592,M,3.1,0123*57
$GPVTG,180.63,T,-459.27,M,003.517,N,006.513,K,D*0B
$GPGGA,075736.05,5702.8039040,N,00950.4741833,E,2,5,3.3,-0.935,M,40.592,M,2.4,0123*5B
$GPVTG,179.81,T,-460.09,M,003.478,N,006.441,K,D*09
$GPGGA,075736.10,5702.8038586,N,00950.4741858,E,2,5,3.3,-0.948,M,40.592,M,2.4,0123*56
$GPVTG,178.59,T,-461.31,M,003.480,N,006.444,K,D*05
$GPGGA,075736.15,5702.8038136,N,00950.4741914,E,2,5,3.3,-0.962,M,40.592,M,2.4,0123*5D
$GPVTG,177.30,T,-462.60,M,003.480,N,006.446,K,D*00
$GPGGA,075736.20,5702.8037680,N,00950.4741963,E,2,5,3.3,-0.974,M,40.592,M,2.4,0123*59
$GPVTG,176.16,T,-463.74,M,003.485,N,006.455,K,D*06
$GPGGA,075736.25,5702.8037385,N,00950.4742178,E,2,5,3.3,-0.956,M,40.592,M,2.7,0123*5E
$GPVTG,174.89,T,-465.01,M,003.455,N,006.398,K,D*0D
$GPGGA,075736.30,5702.8036952,N,00950.4742211,E,2,5,3.3,-0.967,M,40.592,M,2.7,0123*55
$GPVTG,174.06,T,-465.84,M,003.445,N,006.379,K,D*09
$GPGGA,075736.35,5702.8036514,N,00950.4742291,E,2,5,3.3,-0.980,M,40.592,M,2.7,0123*5F
$GPVTG,173.02,T,-466.88,M,003.441,N,006.374,K,D*0C
$GPGGA,075736.40,5702.8036101,N,00950.4742330,E,2,5,3.3,-0.991,M,40.592,M,2.7,0123*57
$GPVTG,172.30,T,-467.60,M,003.422,N,006.337,K,D*09
$GPGGA,075736.45,5702.8035879,N,00950.4742589,E,2,5,3.3,-0.958,M,40.592,M,2.9,0123*58
$GPVTG,171.05,T,-468.85,M,003.372,N,006.245,K,D*0E
$GPGGA,075736.50,5702.8035446,N,00950.4742751,E,2,5,3.3,-0.968,M,40.592,M,2.9,0123*58
$GPVTG,169.76,T,-470.14,M,003.371,N,006.244,K,D*00
$GPGGA,075736.55,5702.8035029,N,00950.4742929,E,2,5,3.3,-0.980,M,40.592,M,2.9,0123*57
$GPVTG,168.46,T,-471.44,M,003.365,N,006.231,K,D*01
$GPGGA,075736.60,5702.8034610,N,00950.4743146,E,2,5,3.3,-0.992,M,40.592,M,2.9,0123*5F
$GPVTG,167.03,T,-472.87,M,003.363,N,006.228,K,D*0D
$GPGGA,075736.65,5702.8034397,N,00950.4743554,E,2,5,3.3,-0.988,M,40.592,M,3.1,0123*55
$GPVTG,165.36,T,-474.54,M,003.313,N,006.135,K,D*09
$GPGGA,075736.70,5702.8033998,N,00950.4743712,E,2,5,3.3,-1.002,M,40.592,M,3.1,0123*59
$GPVTG,164.49,T,-475.41,M,003.295,N,006.102,K,D*0E
$GPGGA,075736.75,5702.8033577,N,00950.4743974,E,2,5,3.3,-1.020,M,40.592,M,3.1,0123*5F
$GPVTG,163.11,T,-476.79,M,003.304,N,006.118,K,D*0E
$GPGGA,075736.80,5702.8033195,N,00950.4744172,E,2,5,3.3,-1.032,M,40.592,M,3.1,0123*57
$GPVTG,162.12,T,-477.78,M,003.284,N,006.082,K,D*07
$GPGGA,075736.85,5702.8033000,N,00950.4744516,E,2,5,3.3,-1.004,M,40.592,M,3.4,0123*59
$GPVTG,160.89,T,-479.01,M,003.216,N,005.956,K,D*0F
$GPGGA,075736.90,5702.8032639,N,00950.4744756,E,2,5,3.3,-1.015,M,40.592,M,3.4,0123*56
$GPVTG,159.74,T,-480.16,M,003.190,N,005.908,K,D*01
$GPGGA,075736.95,5702.8032273,N,00950.4745063,E,2,5,3.3,-1.028,M,40.592,M,3.4,0123*57
$GPVTG,158.27,T,-481.63,M,003.179,N,005.887,K,D*04
$GPGGA,075737.00,5702.8031879,N,00950.4745348,E,2,5,3.3,-1.040,M,40.592,M,3.4,0123*5D
$GPVTG,157.18,T,-482.72,M,003.182,N,005.893,K,D*05
$GPGGA,075737.05,5702.8031762,N,00950.4745770,E,2,5,3.3,-1.030,M,40.592,M,2.5,0123*55
$GPVTG,155.40,T,-484.50,M,003.109,N,005.757,K,D*08
$GPGGA,075737.10,5702.8031405,N,00950.4746097,E,2,5,3.3,-1.040,M,40.592,M,2.5,0123*59
$GPVTG,154.08,T,-485.82,M,003.100,N,005.740,K,D*04
$GPGGA,075737.15,5702.8031052,N,00950.4746407,E,2,5,3.3,-1.047,M,40.592,M,2.5,0123*50
$GPVTG,152.96,T,-486.94,M,003.087,N,005.718,K,D*02
$GPGGA,075737.20,5702.8030721,N,00950.4746766,E,2,5,3.3,-1.056,M,40.592,M,2.5,0123*50
$GPVTG,151.53,T,-488.37,M,003.073,N,005.691,K,D*04
$GPGGA,075737.25,5702.8030617,N,00950.4747236,E,2,5,3.3,-1.039,M,40.592,M,2.8,0123*54
$GPVTG,149.67,T,-490.23,M,003.002,N,005.560,K,D*0D
$GPGGA,075737.30,5702.8030293,N,00950.4747579,E,2,5,3.3,-1.045,M,40.592,M,2.8,0123*5F
$GPVTG,148.51,T,-491.39,M,002.984,N,005.527,K,D*06
$GPGGA,075737.35,5702.8029986,N,00950.4747916,E,2,5,3.3,-1.051,M,40.592,M,2.8,0123*5D
$GPVTG,147.38,T,-492.52,M,002.958,N,005.479,K,D*03
$GPGGA,075737.40,5702.8029703,N,00950.4748297,E,2,5,3.3,-1.061,M,40.592,M,2.8,0123*52
$GPVTG,145.91,T,-493.99,M,002.931,N,005.429,K,D*0E
$GPGGA,075737.45,5702.8029623,N,00950.4748743,E,2,5,3.3,-1.042,M,40.592,M,3.1,0123*51
$GPVTG,144.00,T,-495.90,M,002.866,N,005.307,K,D*00
$GPGGA,075737.50,5702.8029357,N,00950.4749148,E,2,5,3.3,-1.054,M,40.592,M,3.1,0123*58
$GPVTG,142.43,T,-497.47,M,002.840,N,005.260,K,D*0D
$GPGGA,075737.55,5702.8029062,N,00950.4749620,E,2,5,3.3,-1.065,M,40.592,M,3.1,0123*53
$GPVTG,140.83,T,-499.07,M,002.848,N,005.275,K,D*05
$GPGGA,075737.60,5702.8028797,N,00950.4750056,E,2,5,3.3,-1.073,M,40.592,M,3.1,0123*51
$GPVTG,139.34,T,-500.56,M,002.835,N,005.250,K,D*0F
$GPGGA,075737.65,5702.8028691,N,00950.4750649,E,2,5,3.3,-1.057,M,40.592,M,3.3,0123*5F
$GPVTG,136.93,T,-502.97,M,002.802,N,005.189,K,D*01
$GPGGA,075737.70,5702.8028441,N,00950.4751129,E,2,5,3.3,-1.067,M,40.592,M,3.3,0123*57
$GPVTG,135.27,T,-504.63,M,002.793,N,005.173,K,D*02
$GPGGA,075737.75,5702.8028236,N,00950.4751557,E,2,5,3.3,-1.075,M,40.592,M,3.3,0123*5A
$GPVTG,133.62,T,-506.28,M,002.749,N,005.090,K,D*03
$GPGGA,075737.80,5702.8028041,N,00950.4752009,E,2,5,3.3,-1.082,M,40.592,M,3.3,0123*57
$GPVTG,131.83,T,-508.07,M,002.712,N,005.022,K,D*0A
$GPGGA,075737.85,5702.8028018,N,00950.4752542,E,2,5,3.3,-1.059,M,40.592,M,3.6,0123*57
$GPVTG,129.09,T,-510.81,M,002.614,N,004.842,K,D*0E
$GPGGA,075737.90,5702.8027850,N,00950.4753023,E,2,5,3.3,-1.066,M,40.592,M,3.6,0123*57
$GPVTG,126.58,T,-513.32,M,002.557,N,004.735,K,D*05
$GPGGA,075737.95,5702.8027681,N,00950.4753527,E,2,5,3.3,-1.073,M,40.592,M,3.6,0123*55
$GPVTG,124.28,T,-515.62,M,002.528,N,004.682,K,D*06
$GPGGA,075738.00,5702.8027523,N,00950.4754082,E,2,5,3.3,-1.075,M,40.592,M,3.6,0123*56
$GPVTG,121.71,T,-518.19,M,002.528,N,004.681,K,D*0D
$GPGGA,075738.05,5702.8027413,N,00950.4754545,E,2,5,3.3,-1.076,M,40.592,M,1.2,0123*5A
$GPVTG,119.91,T,-519.99,M,002.511,N,004.651,K,D*06
$GPGGA,075738.10,5702.8027270,N,00950.4755025,E,2,5,3.3,-1.082,M,40.592,M,1.2,0123*54
$GPVTG,118.14,T,-521.76,M,002.474,N,004.581,K,D*0C
$GPGGA,075738.15,5702.8027131,N,00950.4755492,E,2,5,3.3,-1.089,M,40.592,M,1.2,0123*54
$GPVTG,116.56,T,-523.34,M,002.435,N,004.510,K,D*0D
$GPGGA,075738.20,5702.8026996,N,00950.4755962,E,2,5,3.3,-1.094,M,40.592,M,1.2,0123*58
$GPVTG,115.06,T,-524.84,M,002.402,N,004.449,K,D*0E
$GPGGA,075738.25,5702.8026938,N,00950.4756445,E,2,5,3.3,-1.080,M,40.592,M,1.4,0123*51
$GPVTG,113.00,T,-526.90,M,002.376,N,004.400,K,D*00
$GPGGA,075738.30,5702.8026846,N,00950.4756894,E,2,5,3.3,-1.080,M,40.592,M,1.4,0123*5D
$GPVTG,111.11,T,-528.79,M,002.324,N,004.305,K,D*0E
$GPGGA,075738.35,5702.8026741,N,00950.4757403,E,2,5,3.3,-1.082,M,40.592,M,1.4,0123*51
$GPVTG,109.37,T,-530.53,M,002.312,N,004.282,K,D*09
$GPGGA,075738.40,5702.8026644,N,00950.4757915,E,2,5,3.3,-1.087,M,40.592,M,1.4,0123*58
$GPVTG,107.65,T,-532.25,M,002.301,N,004.262,K,D*0F
$GPGGA,075738.45,5702.8026636,N,00950.4758410,E,2,5,3.3,-1.068,M,40.592,M,1.6,0123*5C
$GPVTG,105.59,T,-534.31,M,002.281,N,004.225,K,D*0B
$GPGGA,075738.50,5702.8026525,N,00950.4758989,E,2,5,3.3,-1.076,M,40.592,M,1.6,0123*5B
$GPVTG,104.39,T,-535.51,M,002.310,N,004.278,K,D*0A
$GPGGA,075738.55,5702.8026422,N,00950.4759511,E,2,5,3.3,-1.084,M,40.592,M,1.6,0123*59
$GPVTG,103.37,T,-536.53,M,002.307,N,004.272,K,D*0E
$GPGGA,075738.60,5702.8026352,N,00950.4760056,E,2,5,3.3,-1.093,M,40.592,M,1.6,0123*55
$GPVTG,101.78,T,-538.12,M,002.309,N,004.277,K,D*07
$GPGGA,075738.65,5702.8026297,N,00950.4760662,E,2,5,3.3,-1.087,M,40.592,M,1.8,0123*52
$GPVTG,100.09,T,-539.81,M,002.314,N,004.285,K,D*0A
$GPGGA,075738.70,5702.8026252,N,00950.4761209,E,2,5,3.3,-1.094,M,40.592,M,1.8,0123*55
$GPVTG,098.36,T,-541.54,M,002.314,N,004.285,K,D*01
$GPGGA,075738.75,5702.8026201,N,00950.4761718,E,2,5,3.3,-1.100,M,40.592,M,1.8,0123*5F
$GPVTG,097.02,T,-542.88,M,002.296,N,004.252,K,D*0A
$GPGGA,075738.80,5702.8026193,N,00950.4762268,E,2,5,3.3,-1.102,M,40.592,M,1.8,0123*5E
$GPVTG,094.86,T,-545.04,M,002.296,N,004.253,K,D*07
$GPGGA,075738.85,5702.8026237,N,00950.4762803,E,2,5,3.3,-1.075,M,40.592,M,2.1,0123*5A
$GPVTG,093.11,T,-546.79,M,002.284,N,004.230,K,D*01
$GPGGA,075738.90,5702.8026197,N,00950.4763428,E,2,5,3.3,-1.079,M,40.592,M,2.1,0123*5F
$GPVTG,092.03,T,-547.87,M,002.326,N,004.308,K,D*00
$GPGGA,075738.95,5702.8026212,N,00950.4763908,E,2,5,3.3,-1.080,M,40.592,M,2.1,0123*5D
$GPVTG,090.00,T,-549.90,M,002.292,N,004.245,K,D*0F
$GPGGA,075739.00,5702.8026211,N,00950.4764500,E,2,5,3.3,-1.084,M,40.592,M,2.1,0123*54
$GPVTG,088.54,T,-551.36,M,002.316,N,004.290,K,D*07
$GPGGA,075739.05,5702.8026248,N,00950.4764951,E,2,5,3.3,-1.092,M,40.592,M,2.3,0123*50
$GPVTG,086.42,T,-553.48,M,002.288,N,004.237,K,D*0E
$GPGGA,075739.10,5702.8026243,N,00950.4765509,E,2,5,3.3,-1.099,M,40.592,M,2.3,0123*54
$GPVTG,085.43,T,-554.47,M,002.296,N,004.252,K,D*08
$GPGGA,075739.15,5702.8026286,N,00950.4766051,E,2,5,3.3,-1.104,M,40.592,M,2.3,0123*56
$GPVTG,083.56,T,-556.34,M,002.299,N,004.257,K,D*06
$GPGGA,075739.20,5702.8026370,N,00950.4766537,E,2,5,3.3,-1.110,M,40.592,M,2.3,0123*58
$GPVTG,080.92,T,-558.98,M,002.281,N,004.225,K,D*09
$GPGGA,075739.25,5702.8026455,N,00950.4767124,E,2,5,3.3,-1.073,M,40.592,M,2.5,0123*58
$GPVTG,080.40,T,-559.50,M,002.287,N,004.235,K,D*04
$GPGGA,075739.30,5702.8026489,N,00950.4767750,E,2,5,3.3,-1.081,M,40.592,M,2.5,0123*55
$GPVTG,079.48,T,-560.42,M,002.331,N,004.316,K,D*0F
$GPGGA,075739.35,5702.8026584,N,00950.4768252,E,2,5,3.3,-1.085,M,40.592,M,2.5,0123*50
$GPVTG,077.17,T,-562.73,M,002.322,N,004.301,K,D*0F
$GPGGA,075739.40,5702.8026736,N,00950.4768699,E,2,5,3.3,-1.088,M,40.592,M,2.5,0123*57
$GPVTG,073.76,T,-566.14,M,002.304,N,004.268,K,D*03
$GPGGA,075739.45,5702.8026823,N,00950.4769208,E,2,5,3.3,-1.080,M,40.592,M,2.7,0123*5E
$GPVTG,072.51,T,-567.39,M,002.290,N,004.240,K,D*0F
$GPGGA,075739.50,5702.8026914,N,00950.4769736,E,2,5,3.3,-1.081,M,40.592,M,2.7,0123*56
$GPVTG,071.01,T,-568.89,M,002.300,N,004.259,K,D*0D
$GPGGA,075739.55,5702.8027041,N,00950.4770260,E,2,5,3.3,-1.082,M,40.592,M,2.7,0123*56
$GPVTG,069.02,T,-570.88,M,002.317,N,004.292,K,D*0E
$GPGGA,075739.60,5702.8027169,N,00950.4770785,E,2,5,3.3,-1.083,M,40.592,M,2.7,0123*54
$GPVTG,067.23,T,-572.67,M,002.336,N,004.327,K,D*0C
$GPGGA,075739.65,5702.8027294,N,00950.4771206,E,2,5,3.3,-1.088,M,40.592,M,2.9,0123*5A
$GPVTG,065.61,T,-574.29,M,002.319,N,004.294,K,D*00
$GPGGA,075739.70,5702.8027428,N,00950.4771603,E,2,5,3.3,-1.096,M,40.592,M,2.9,0123*51
$GPVTG,063.43,T,-576.47,M,002.284,N,004.229,K,D*0F
$GPGGA,075739.75,5702.8027554,N,00950.4772061,E,2,5,3.3,-1.102,M,40.592,M,2.9,0123*53
$GPVTG,061.91,T,-577.99,M,002.276,N,004.216,K,D*01
$GPGGA,075739.80,5702.8027721,N,00950.4772491,E,2,5,3.3,-1.107,M,40.592,M,2.9,0123*57
$GPVTG,059.66,T,-580.24,M,002.275,N,004.213,K,D*0A
$GPGGA,075739.85,5702.8027905,N,00950.4772953,E,2,5,3.3,-1.087,M,40.592,M,3.1,0123*59
$GPVTG,058.45,T,-581.45,M,002.281,N,004.224,K,D*03
$GPGGA,075739.90,5702.8028107,N,00950.4773355,E,2,5,3.3,-1.091,M,40.592,M,3.1,0123*52
$GPVTG,055.77,T,-584.13,M,002.285,N,004.233,K,D*0B
$GPGGA,075739.95,5702.8028326,N,00950.4773844,E,2,5,3.3,-1.092,M,40.592,M,3.1,0123*5E
$GPVTG,053.69,T,-586.21,M,002.335,N,004.324,K,D*0C
$GPGGA,075740.00,5702.8028487,N,00950.4774259,E,2,5,3.3,-1.095,M,40.592,M,3.1,0123*56
$GPVTG,052.30,T,-587.60,M,002.325,N,004.306,K,D*04
$GPGGA,075740.05,5702.8028716,N,00950.4774622,E,2,5,3.3,-1.078,M,40.592,M,2.4,0123*57
$GPVTG,049.88,T,-590.02,M,002.305,N,004.269,K,D*05
$GPGGA,075740.10,5702.8028912,N,00950.4775031,E,2,5,3.3,-1.081,M,40.592,M,2.4,0123*5A
$GPVTG,048.27,T,-591.63,M,002.313,N,004.283,K,D*04
$GPGGA,075740.15,5702.8029113,N,00950.4775403,E,2,5,3.3,-1.082,M,40.592,M,2.4,0123*51
$GPVTG,046.48,T,-593.42,M,002.312,N,004.281,K,D*01
$GPGGA,075740.20,5702.8029281,N,00950.4775814,E,2,5,3.3,-1.084,M,40.592,M,2.4,0123*53
$GPVTG,045.69,T,-594.21,M,002.304,N,004.268,K,D*03
$GPGGA,075740.25,5702.8029513,N,00950.4776162,E,2,5,3.3,-1.073,M,40.592,M,2.7,0123*5A
$GPVTG,043.81,T,-596.09,M,002.316,N,004.290,K,D*0F
$GPGGA,075740.30,5702.8029742,N,00950.4776584,E,2,5,3.3,-1.075,M,40.592,M,2.7,0123*52
$GPVTG,042.62,T,-597.28,M,002.348,N,004.348,K,D*0E
$GPGGA,075740.35,5702.8029978,N,00950.4776901,E,2,5,3.3,-1.076,M,40.592,M,2.7,0123*52
$GPVTG,040.52,T,-599.38,M,002.344,N,004.342,K,D*06
$GPGGA,075740.40,5702.8030234,N,00950.4777257,E,2,5,3.3,-1.077,M,40.592,M,2.7,0123*53
$GPVTG,038.76,T,-601.14,M,002.370,N,004.389,K,D*03
$GPGGA,075740.45,5702.8030553,N,00950.4777668,E,2,5,3.3,-1.031,M,40.592,M,2.9,0123*54
$GPVTG,036.72,T,-603.18,M,002.389,N,004.425,K,D*00
$GPGGA,075740.50,5702.8030829,N,00950.4777956,E,2,5,3.3,-1.026,M,40.592,M,2.9,0123*54
$GPVTG,033.91,T,-605.99,M,002.391,N,004.428,K,D*03
$GPGGA,075740.55,5702.8031109,N,00950.4778268,E,2,5,3.3,-1.021,M,40.592,M,2.9,0123*55
$GPVTG,032.05,T,-607.85,M,002.416,N,004.474,K,D*01
$GPGGA,075740.60,5702.8031375,N,00950.4778562,E,2,5,3.3,-1.017,M,40.592,M,2.9,0123*52
$GPVTG,030.44,T,-609.46,M,002.421,N,004.484,K,D*0C
$GPGGA,075740.65,5702.8031596,N,00950.4778772,E,2,5,3.3,-1.031,M,40.592,M,3.1,0123*52
$GPVTG,027.87,T,-612.03,M,002.397,N,004.440,K,D*0C
$GPGGA,075740.70,5702.8031878,N,00950.4778994,E,2,5,3.3,-1.032,M,40.592,M,3.1,0123*5E
$GPVTG,025.70,T,-614.20,M,002.399,N,004.443,K,D*0C
$GPGGA,075740.75,5702.8032173,N,00950.4779282,E,2,5,3.3,-1.038,M,40.592,M,3.1,0123*5D
$GPVTG,024.70,T,-615.20,M,002.435,N,004.509,K,D*02
$GPGGA,075740.80,5702.8032514,N,00950.4779586,E,2,5,3.3,-1.041,M,40.592,M,3.1,0123*5F
$GPVTG,023.72,T,-616.18,M,002.510,N,004.648,K,D*0F
$GPGGA,075740.85,5702.8032835,N,00950.4779899,E,2,5,3.3,-1.022,M,40.592,M,3.4,0123*57
$GPVTG,023.43,T,-616.47,M,002.513,N,004.655,K,D*08
$GPGGA,075740.90,5702.8033149,N,00950.4780173,E,2,5,3.3,-1.027,M,40.592,M,3.4,0123*5E
$GPVTG,022.59,T,-617.31,M,002.548,N,004.720,K,D*0F
$GPGGA,075740.95,5702.8033467,N,00950.4780454,E,2,5,3.3,-1.034,M,40.592,M,3.4,0123*50
$GPVTG,021.97,T,-617.93,M,002.585,N,004.787,K,D*0A
$GPGGA,075741.00,5702.8033806,N,00950.4780678,E,2,5,3.3,-1.039,M,40.592,M,3.4,0123*57
$GPVTG,020.59,T,-619.31,M,002.622,N,004.856,K,D*02
$GPGGA,075741.05,5702.8034115,N,00950.4780962,E,2,5,3.3,-1.018,M,40.592,M,2.5,0123*59
$GPVTG,019.32,T,-620.58,M,002.639,N,004.888,K,D*09
$GPGGA,075741.10,5702.8034457,N,00950.4781071,E,2,5,3.3,-1.016,M,40.592,M,2.5,0123*5A
$GPVTG,017.55,T,-622.35,M,002.663,N,004.932,K,D*00
$GPGGA,075741.15,5702.8034821,N,00950.4781125,E,2,5,3.3,-1.009,M,40.592,M,2.5,0123*5C
$GPVTG,015.39,T,-624.51,M,002.696,N,004.993,K,D*0D
$GPGGA,075741.20,5702.8035163,N,00950.4781128,E,2,5,3.3,-1.004,M,40.592,M,2.5,0123*54
$GPVTG,013.04,T,-626.86,M,002.707,N,005.013,K,D*04
$GPGGA,075741.25,5702.8035572,N,00950.4781173,E,2,5,3.3,-0.959,M,40.592,M,2.8,0123*56
$GPVTG,011.55,T,-628.35,M,002.713,N,005.025,K,D*04
$GPGGA,075741.30,5702.8035887,N,00950.4781187,E,2,5,3.3,-0.946,M,40.592,M,2.8,0123*50
$GPVTG,009.51,T,-630.39,M,002.702,N,005.004,K,D*0F
$GPGGA,075741.35,5702.8036225,N,00950.4781215,E,2,5,3.3,-0.938,M,40.592,M,2.8,0123*55
$GPVTG,007.64,T,-632.26,M,002.709,N,005.018,K,D*0D
$GPGGA,075741.40,5702.8036543,N,00950.4781234,E,2,5,3.3,-0.933,M,40.592,M,2.8,0123*58
$GPVTG,005.89,T,-634.01,M,002.701,N,005.002,K,D*0C
$GPGGA,075741.45,5702.8036825,N,00950.4781307,E,2,5,3.3,-0.932,M,40.592,M,3.1,0123*58
$GPVTG,004.78,T,-635.12,M,002.680,N,004.964,K,D*00
$GPGGA,075741.50,5702.8037183,N,00950.4781372,E,2,5,3.3,-0.933,M,40.592,M,3.1,0123*5B
$GPVTG,003.82,T,-636.08,M,002.699,N,004.999,K,D*00
$GPGGA,075741.55,5702.8037536,N,00950.4781393,E,2,5,3.3,-0.933,M,40.592,M,3.1,0123*5B
$GPVTG,002.32,T,-637.58,M,002.710,N,005.019,K,D*0E
$GPGGA,075741.60,5702.8037901,N,00950.4781473,E,2,5,3.3,-0.936,M,40.592,M,3.1,0123*59
$GPVTG,002.06,T,-637.84,M,002.734,N,005.063,K,D*03
$GPGGA,075741.65,5702.8038265,N,00950.4781587,E,2,5,3.3,-0.930,M,40.592,M,3.3,0123*54
$GPVTG,001.24,T,-638.66,M,002.761,N,005.113,K,D*05
$GPGGA,075741.70,5702.8038654,N,00950.4781640,E,2,5,3.3,-0.941,M,40.592,M,3.3,0123*58
$GPVTG,000.37,T,-639.53,M,002.798,N,005.182,K,D*0F
$GPGGA,075741.75,5702.8039035,N,00950.4781638,E,2,5,3.3,-0.949,M,40.592,M,3.3,0123*5A
$GPVTG,359.32,T,-280.58,M,002.830,N,005.241,K,D*09
$GPGGA,075741.80,5702.8039424,N,00950.4781612,E,2,5,3.3,-0.959,M,40.592,M,3.3,0123*5D
$GPVTG,358.23,T,-281.67,M,002.864,N,005.303,K,D*03
$GPGGA,075741.85,5702.8039955,N,00950.4781641,E,2,5,3.3,-0.900,M,40.592,M,3.6,0123*5C
$GPVTG,357.31,T,-282.59,M,002.917,N,005.403,K,D*03
$GPGGA,075741.90,5702.8040386,N,00950.4781531,E,2,5,3.3,-0.897,M,40.592,M,3.6,0123*59
$GPVTG,356.00,T,-283.90,M,002.969,N,005.499,K,D*0E
$GPGGA,075741.95,5702.8040788,N,00950.4781462,E,2,5,3.3,-0.892,M,40.592,M,3.6,0123*54
$GPVTG,354.99,T,-284.91,M,003.005,N,005.566,K,D*09
$GPGGA,075742.00,5702.8041198,N,00950.4781361,E,2,5,3.3,-0.889,M,40.592,M,3.6,0123*53
$GPVTG,353.90,T,-286.00,M,003.045,N,005.639,K,D*00
$GPGGA,075742.05,5702.8041462,N,00950.4781125,E,2,5,3.3,-0.915,M,40.592,M,1.2,0123*56
$GPVTG,352.16,T,-287.74,M,003.058,N,005.663,K,D*0E
$GPGGA,075742.10,5702.8041861,N,00950.4780964,E,2,5,3.3,-0.917,M,40.592,M,1.2,0123*53
$GPVTG,350.89,T,-289.01,M,003.090,N,005.722,K,D*06
$GPGGA,075742.15,5702.8042233,N,00950.4780803,E,2,5,3.3,-0.918,M,40.592,M,1.2,0123*57
$GPVTG,349.68,T,-290.22,M,003.105,N,005.751,K,D*01
$GPGGA,075742.20,5702.8042619,N,00950.4780640,E,2,5,3.3,-0.914,M,40.592,M,1.2,0123*58
$GPVTG,348.59,T,-291.31,M,003.128,N,005.792,K,D*01
$GPGGA,075742.25,5702.8042934,N,00950.4780289,E,2,5,3.3,-0.875,M,40.592,M,1.4,0123*5C
$GPVTG,346.70,T,-293.20,M,003.121,N,005.781,K,D*0D
$GPGGA,075742.30,5702.8043334,N,00950.4780036,E,2,5,3.3,-0.871,M,40.592,M,1.4,0123*51
$GPVTG,345.28,T,-294.62,M,003.154,N,005.842,K,D*00
$GPGGA,075742.35,5702.8043720,N,00950.4779821,E,2,5,3.3,-0.866,M,40.592,M,1.4,0123*5B
$GPVTG,344.19,T,-295.71,M,003.175,N,005.880,K,D*0D
$GPGGA,075742.40,5702.8044111,N,00950.4779608,E,2,5,3.3,-0.861,M,40.592,M,1.4,0123*58
$GPVTG,343.24,T,-296.66,M,003.197,N,005.921,K,D*07
$GPGGA,075742.45,5702.8044512,N,00950.4779288,E,2,5,3.3,-0.820,M,40.592,M,1.6,0123*51
$GPVTG,341.68,T,-298.22,M,003.218,N,005.960,K,D*02
$GPGGA,075742.50,5702.8044922,N,00950.4779036,E,2,5,3.3,-0.814,M,40.592,M,1.6,0123*5A
$GPVTG,340.78,T,-299.12,M,003.250,N,006.019,K,D*08
$GPGGA,075742.55,5702.8045314,N,00950.4778776,E,2,5,3.3,-0.813,M,40.592,M,1.6,0123*54
$GPVTG,339.86,T,-300.04,M,003.269,N,006.055,K,D*03
$GPGGA,075742.60,5702.8045738,N,00950.4778498,E,2,5,3.3,-0.811,M,40.592,M,1.6,0123*59
$GPVTG,339.06,T,-300.84,M,003.308,N,006.126,K,D*00
$GPGGA,075742.65,5702.8046020,N,00950.4778104,E,2,5,3.3,-0.833,M,40.592,M,1.8,0123*5F
$GPVTG,337.71,T,-302.19,M,003.320,N,006.149,K,D*0B
$GPGGA,075742.70,5702.8046416,N,00950.4777800,E,2,5,3.3,-0.840,M,40.592,M,1.8,0123*5C
$GPVTG,336.85,T,-303.05,M,003.340,N,006.185,K,D*0B
$GPGGA,075742.75,5702.8046799,N,00950.4777481,E,2,5,3.3,-0.845,M,40.592,M,1.8,0123*5D
$GPVTG,335.94,T,-303.96,M,003.353,N,006.210,K,D*0F
$GPGGA,075742.80,5702.8047196,N,00950.4777112,E,2,5,3.3,-0.852,M,40.592,M,1.8,0123*56
$GPVTG,334.90,T,-305.00,M,003.381,N,006.262,K,D*09
$GPGGA,075742.85,5702.8047603,N,00950.4776625,E,2,5,3.3,-0.809,M,40.592,M,2.1,0123*5E
$GPVTG,333.45,T,-306.45,M,003.408,N,006.312,K,D*04
$GPGGA,075742.90,5702.8048005,N,00950.4776222,E,2,5,3.3,-0.807,M,40.592,M,2.1,0123*58
$GPVTG,332.45,T,-307.45,M,003.439,N,006.369,K,D*0A
$GPGGA,075742.95,5702.8048420,N,00950.4775827,E,2,5,3.3,-0.806,M,40.592,M,2.1,0123*53
$GPVTG,331.67,T,-308.23,M,003.474,N,006.433,K,D*07
$GPGGA,075743.00,5702.8048811,N,00950.4775370,E,2,5,3.3,-0.803,M,40.592,M,2.1,0123*5C
$GPVTG,330.55,T,-309.35,M,003.504,N,006.490,K,D*0E
$GPGGA,075743.05,5702.8048978,N,00950.4774775,E,2,5,3.3,-0.830,M,40.592,M,2.3,0123*55
$GPVTG,328.72,T,-311.18,M,003.477,N,006.439,K,D*02
$GPGGA,075743.10,5702.8049327,N,00950.4774328,E,2,5,3.3,-0.830,M,40.592,M,2.3,0123*5C
$GPVTG,327.63,T,-312.27,M,003.479,N,006.443,K,D*01
$GPGGA,075743.15,5702.8049683,N,00950.4773843,E,2,5,3.3,-0.835,M,40.592,M,2.3,0123*56
$GPVTG,326.50,T,-313.40,M,003.495,N,006.472,K,D*00
$GPGGA,075743.20,5702.8050033,N,00950.4773352,E,2,5,3.3,-0.838,M,40.592,M,2.3,0123*53
$GPVTG,325.41,T,-314.49,M,003.507,N,006.495,K,D*0E
$GPGGA,075743.25,5702.8050322,N,00950.4772701,E,2,5,3.3,-0.794,M,40.592,M,2.5,0123*59
$GPVTG,323.86,T,-316.04,M,003.501,N,006.484,K,D*0E
$GPGGA,075743.30,5702.8050690,N,00950.4772146,E,2,5,3.3,-0.788,M,40.592,M,2.5,0123*59
$GPVTG,322.76,T,-317.14,M,003.533,N,006.543,K,D*0B
$GPGGA,075743.35,5702.8051028,N,00950.4771602,E,2,5,3.3,-0.782,M,40.592,M,2.5,0123*56
$GPVTG,321.64,T,-318.26,M,003.547,N,006.569,K,D*0E
$GPGGA,075743.40,5702.8051362,N,00950.4771040,E,2,5,3.3,-0.780,M,40.592,M,2.5,0123*5B
$GPVTG,320.53,T,-319.37,M,003.562,N,006.597,K,D*0C
$GPGGA,075743.45,5702.8051646,N,00950.4770410,E,2,5,3.3,-0.772,M,40.592,M,2.7,0123*52
$GPVTG,319.18,T,-320.72,M,003.571,N,006.614,K,D*08
$GPGGA,075743.50,5702.8051980,N,00950.4769848,E,2,5,3.3,-0.771,M,40.592,M,2.7,0123*59
$GPVTG,318.24,T,-321.66,M,003.581,N,006.632,K,D*09
$GPGGA,075743.55,5702.8052298,N,00950.4769278,E,2,5,3.3,-0.770,M,40.592,M,2.7,0123*55
$GPVTG,317.26,T,-322.64,M,003.586,N,006.641,K,D*06
$GPGGA,075743.60,5702.8052605,N,00950.4768670,E,2,5,3.3,-0.770,M,40.592,M,2.7,0123*5E
$GPVTG,316.14,T,-323.76,M,003.595,N,006.658,K,D*0E
$GPGGA,075743.65,5702.8052814,N,00950.4767962,E,2,5,3.3,-0.760,M,40.592,M,2.9,0123*59
$GPVTG,314.54,T,-325.36,M,003.576,N,006.623,K,D*0B
$GPGGA,075743.70,5702.8053126,N,00950.4767343,E,2,5,3.3,-0.761,M,40.592,M,2.9,0123*5C
$GPVTG,313.58,T,-326.32,M,003.586,N,006.642,K,D*0F
$GPGGA,075743.75,5702.8053416,N,00950.4766692,E,2,5,3.3,-0.762,M,40.592,M,2.9,0123*54
$GPVTG,312.44,T,-327.46,M,003.597,N,006.661,K,D*00
$GPGGA,075743.80,5702.8053699,N,00950.4766038,E,2,5,3.3,-0.762,M,40.592,M,2.9,0123*5D
$GPVTG,311.34,T,-328.56,M,003.605,N,006.676,K,D*04
$GPGGA,075743.85,5702.8053900,N,00950.4765192,E,2,5,3.3,-0.740,M,40.592,M,3.1,0123*5C
$GPVTG,309.59,T,-330.31,M,003.618,N,006.700,K,D*02
$GPGGA,075743.90,5702.8054183,N,00950.4764525,E,2,5,3.3,-0.742,M,40.592,M,3.1,0123*57
$GPVTG,308.62,T,-331.28,M,003.624,N,006.712,K,D*0E
$GPGGA,075743.95,5702.8054447,N,00950.4763842,E,2,5,3.3,-0.743,M,40.592,M,3.1,0123*55
$GPVTG,307.55,T,-332.35,M,003.630,N,006.722,K,D*0C
$GPGGA,075744.00,5702.8054694,N,00950.4763166,E,2,5,3.3,-0.745,M,40.592,M,3.1,0123*5B
$GPVTG,306.48,T,-333.42,M,003.626,N,006.716,K,D*00
$GPGGA,075744.05,5702.8054897,N,00950.4762363,E,2,5,3.3,-0.726,M,40.592,M,2.4,0123*54
$GPVTG,305.11,T,-334.79,M,003.627,N,006.717,K,D*00
$GPGGA,075744.10,5702.8055155,N,00950.4761606,E,2,5,3.3,-0.727,M,40.592,M,2.4,0123*52
$GPVTG,304.00,T,-335.90,M,003.648,N,006.756,K,D*0B
$GPGGA,075744.15,5702.8055383,N,00950.4760854,E,2,5,3.3,-0.725,M,40.592,M,2.4,0123*54
$GPVTG,302.79,T,-337.11,M,003.658,N,006.774,K,D*09
$GPGGA,075744.20,5702.8055615,N,00950.4760137,E,2,5,3.3,-0.729,M,40.592,M,2.4,0123*58
$GPVTG,301.83,T,-338.07,M,003.658,N,006.774,K,D*07
$GPGGA,075744.25,5702.8055736,N,00950.4759289,E,2,5,3.3,-0.733,M,40.592,M,2.7,0123*59
$GPVTG,300.17,T,-339.73,M,003.654,N,006.767,K,D*07
$GPGGA,075744.30,5702.8055932,N,00950.4758528,E,2,5,3.3,-0.735,M,40.592,M,2.7,0123*5C
$GPVTG,298.93,T,-340.97,M,003.652,N,006.764,K,D*0A
$GPGGA,075744.35,5702.8056146,N,00950.4757794,E,2,5,3.3,-0.740,M,40.592,M,2.7,0123*59
$GPVTG,298.02,T,-341.88,M,003.650,N,006.759,K,D*01
$GPGGA,075744.40,5702.8056334,N,00950.4756995,E,2,5,3.3,-0.744,M,40.592,M,2.7,0123*56
$GPVTG,296.83,T,-343.07,M,003.661,N,006.780,K,D*05
$GPGGA,075744.45,5702.8056491,N,00950.4756126,E,2,5,3.3,-0.721,M,40.592,M,2.9,0123*56
$GPVTG,295.31,T,-344.59,M,003.667,N,006.792,K,D*06
$GPGGA,075744.50,5702.8056675,N,00950.4755331,E,2,5,3.3,-0.724,M,40.592,M,2.9,0123*58
$GPVTG,294.25,T,-345.65,M,003.671,N,006.799,K,D*00
$GPGGA,075744.55,5702.8056854,N,00950.4754524,E,2,5,3.3,-0.728,M,40.592,M,2.9,0123*5F
$GPVTG,293.23,T,-346.67,M,003.680,N,006.815,K,D*05
$GPGGA,075744.60,5702.8057016,N,00950.4753678,E,2,5,3.3,-0.728,M,40.592,M,2.9,0123*5B
$GPVTG,292.08,T,-347.82,M,003.697,N,006.847,K,D*06
$GPGGA,075744.65,5702.8057169,N,00950.4752903,E,2,5,3.3,-0.700,M,40.592,M,3.1,0123*56
$GPVTG,290.72,T,-349.18,M,003.659,N,006.777,K,D*0A
$GPGGA,075744.70,5702.8057314,N,00950.4752048,E,2,5,3.3,-0.702,M,40.592,M,3.1,0123*5E
$GPVTG,289.55,T,-350.35,M,003.674,N,006.804,K,D*04
$GPGGA,075744.75,5702.8057453,N,00950.4751138,E,2,5,3.3,-0.701,M,40.592,M,3.1,0123*59
$GPVTG,288.34,T,-351.56,M,003.707,N,006.866,K,D*07
$GPGGA,075744.80,5702.8057585,N,00950.4750333,E,2,5,3.3,-0.705,M,40.592,M,3.1,0123*55
$GPVTG,287.36,T,-352.54,M,003.701,N,006.854,K,D*0C
$GPGGA,075744.85,5702.8057684,N,00950.4749446,E,2,5,3.3,-0.691,M,40.592,M,3.4,0123*56
$GPVTG,286.07,T,-353.83,M,003.707,N,006.865,K,D*00
$GPGGA,075744.90,5702.8057788,N,00950.4748562,E,2,5,3.3,-0.690,M,40.592,M,3.4,0123*58
$GPVTG,284.85,T,-355.05,M,003.721,N,006.892,K,D*0C
$GPGGA,075744.95,5702.8057863,N,00950.4747689,E,2,5,3.3,-0.690,M,40.592,M,3.4,0123*5E
$GPVTG,283.52,T,-356.38,M,003.728,N,006.904,K,D*0B
$GPGGA,075745.00,5702.8057956,N,00950.4746835,E,2,5,3.3,-0.690,M,40.592,M,3.4,0123*5C
$GPVTG,282.47,T,-357.43,M,003.730,N,006.907,K,D*09
$GPGGA,075745.05,5702.8057953,N,00950.4745917,E,2,5,3.3,-0.690,M,40.592,M,2.5,0123*5E
$GPVTG,280.75,T,-359.15,M,003.731,N,006.910,K,D*00
$GPGGA,075745.10,5702.8058031,N,00950.4745004,E,2,5,3.3,-0.696,M,40.592,M,2.5,0123*55
$GPVTG,279.69,T,-360.21,M,003.751,N,006.947,K,D*02
$GPGGA,075745.15,5702.8058087,N,00950.4744126,E,2,5,3.3,-0.699,M,40.592,M,2.5,0123*52
$GPVTG,278.56,T,-361.34,M,003.755,N,006.954,K,D*0C
$GPGGA,075745.20,5702.8058088,N,00950.4743255,E,2,5,3.3,-0.700,M,40.592,M,2.5,0123*5A
$GPVTG,277.03,T,-362.87,M,003.752,N,006.949,K,D*03
$GPGGA,075745.25,5702.8058164,N,00950.4742371,E,2,5,3.3,-0.659,M,40.592,M,2.8,0123*5A
$GPVTG,275.72,T,-364.18,M,003.757,N,006.959,K,D*03
$GPGGA,075745.30,5702.8058194,N,00950.4741443,E,2,5,3.3,-0.654,M,40.592,M,2.8,0123*59
$GPVTG,274.60,T,-365.30,M,003.777,N,006.995,K,D*08
$GPGGA,075745.35,5702.8058225,N,00950.4740532,E,2,5,3.3,-0.655,M,40.592,M,2.8,0123*52
$GPVTG,273.62,T,-366.28,M,003.789,N,007.018,K,D*0B
$GPGGA,075745.40,5702.8058235,N,00950.4739655,E,2,5,3.3,-0.659,M,40.592,M,2.8,0123*51
$GPVTG,272.53,T,-367.37,M,003.788,N,007.015,K,D*0B
$GPGGA,075745.45,5702.8058188,N,00950.4738782,E,2,5,3.3,-0.666,M,40.592,M,3.1,0123*5F
$GPVTG,270.98,T,-368.92,M,003.788,N,007.016,K,D*0D
$GPGGA,075745.50,5702.8058171,N,00950.4737905,E,2,5,3.3,-0.672,M,40.592,M,3.1,0123*56
$GPVTG,269.80,T,-370.10,M,003.783,N,007.006,K,D*05
$GPGGA,075745.55,5702.8058134,N,00950.4736998,E,2,5,3.3,-0.677,M,40.592,M,3.1,0123*52
$GPVTG,268.55,T,-371.35,M,003.792,N,007.023,K,D*0D
$GPGGA,075745.60,5702.8058086,N,00950.4736066,E,2,5,3.3,-0.681,M,40.592,M,3.1,0123*5D
$GPVTG,267.32,T,-372.58,M,003.811,N,007.057,K,D*0C
$GPGGA,075745.65,5702.8058190,N,00950.4735262,E,2,5,3.3,-0.611,M,40.592,M,3.3,0123*50
$GPVTG,266.43,T,-373.47,M,003.793,N,007.024,K,D*05
$GPGGA,075745.70,5702.8058151,N,00950.4734331,E,2,5,3.3,-0.606,M,40.592,M,3.3,0123*59
$GPVTG,265.44,T,-374.46,M,003.809,N,007.054,K,D*0C
$GPGGA,075745.75,5702.8058089,N,00950.4733399,E,2,5,3.3,-0.604,M,40.592,M,3.3,0123*5F
$GPVTG,264.34,T,-375.56,M,003.826,N,007.086,K,D*08
$GPGGA,075745.80,5702.8058030,N,00950.4732478,E,2,5,3.3,-0.599,M,40.592,M,3.3,0123*59
$GPVTG,263.36,T,-376.54,M,003.838,N,007.108,K,D*04
$GPGGA,075745.85,5702.8057856,N,00950.4731600,E,2,5,3.3,-0.636,M,40.592,M,3.6,0123*56
$GPVTG,261.91,T,-377.99,M,003.841,N,007.114,K,D*08
$GPGGA,075745.90,5702.8057756,N,00950.4730729,E,2,5,3.3,-0.642,M,40.592,M,3.6,0123*55
$GPVTG,260.66,T,-379.24,M,003.835,N,007.102,K,D*0D
$GPGGA,075745.95,5702.8057671,N,00950.4729827,E,2,5,3.3,-0.649,M,40.592,M,3.6,0123*56
$GPVTG,259.71,T,-380.19,M,003.841,N,007.113,K,D*0A
$GPGGA,075746.00,5702.8057549,N,00950.4728916,E,2,5,3.3,-0.656,M,40.592,M,3.6,0123*5D
$GPVTG,258.52,T,-381.38,M,003.854,N,007.138,K,D*05
$GPGGA,075746.05,5702.8057538,N,00950.4728144,E,2,5,3.3,-0.616,M,40.592,M,1.2,0123*53
$GPVTG,257.34,T,-382.56,M,003.829,N,007.091,K,D*09
$GPGGA,075746.10,5702.8057390,N,00950.4727290,E,2,5,3.3,-0.617,M,40.592,M,1.2,0123*57
$GPVTG,256.04,T,-383.86,M,003.826,N,007.086,K,D*0E
$GPGGA,075746.15,5702.8057264,N,00950.4726369,E,2,5,3.3,-0.621,M,40.592,M,1.2,0123*5B
$GPVTG,255.10,T,-384.80,M,003.846,N,007.122,K,D*00
$GPGGA,075746.20,5702.8057123,N,00950.4725457,E,2,5,3.3,-0.624,M,40.592,M,1.2,0123*51
$GPVTG,254.11,T,-385.79,M,003.863,N,007.154,K,D*01
$GPGGA,075746.25,5702.8056990,N,00950.4724651,E,2,5,3.3,-0.612,M,40.592,M,1.4,0123*53
$GPVTG,253.23,T,-386.67,M,003.859,N,007.147,K,D*00
$GPGGA,075746.30,5702.8056810,N,00950.4723813,E,2,5,3.3,-0.614,M,40.592,M,1.4,0123*57
$GPVTG,251.96,T,-387.94,M,003.855,N,007.139,K,D*04
$GPGGA,075746.35,5702.8056602,N,00950.4723022,E,2,5,3.3,-0.616,M,40.592,M,1.4,0123*57
$GPVTG,250.47,T,-389.43,M,003.841,N,007.114,K,D*07
$GPGGA,075746.40,5702.8056406,N,00950.4722207,E,2,5,3.3,-0.615,M,40.592,M,1.4,0123*54
$GPVTG,249.21,T,-390.69,M,003.836,N,007.104,K,D*0E
$GPGGA,075746.45,5702.8056236,N,00950.4721495,E,2,5,3.3,-0.614,M,40.592,M,1.6,0123*59
$GPVTG,248.13,T,-391.77,M,003.822,N,007.079,K,D*0E
$GPGGA,075746.50,5702.8056036,N,00950.4720641,E,2,5,3.3,-0.618,M,40.592,M,1.6,0123*59
$GPVTG,247.08,T,-392.82,M,003.831,N,007.095,K,D*02
$GPGGA,075746.55,5702.8055830,N,00950.4719802,E,2,5,3.3,-0.623,M,40.592,M,1.6,0123*5A
$GPVTG,246.03,T,-393.87,M,003.837,N,007.106,K,D*01
$GPGGA,075746.60,5702.8055612,N,00950.4719007,E,2,5,3.3,-0.629,M,40.592,M,1.6,0123*55
$GPVTG,244.87,T,-395.03,M,003.831,N,007.095,K,D*08
$GPGGA,075746.65,5702.8055449,N,00950.4718363,E,2,5,3.3,-0.608,M,40.592,M,1.8,0123*51
$GPVTG,243.63,T,-396.27,M,003.806,N,007.049,K,D*05
$GPGGA,075746.70,5702.8055217,N,00950.4717587,E,2,5,3.3,-0.611,M,40.592,M,1.8,0123*53
$GPVTG,242.47,T,-397.43,M,003.798,N,007.033,K,D*04
$GPGGA,075746.75,5702.8054965,N,00950.4716825,E,2,5,3.3,-0.615,M,40.592,M,1.8,0123*59
$GPVTG,241.21,T,-398.69,M,003.792,N,007.024,K,D*0C
$GPGGA,075746.80,5702.8054702,N,00950.4716027,E,2,5,3.3,-0.618,M,40.592,M,1.8,0123*5B
$GPVTG,240.06,T,-399.84,M,003.804,N,007.045,K,D*0D
$GPGGA,075746.85,5702.8054464,N,00950.4715430,E,2,5,3.3,-0.613,M,40.592,M,2.1,0123*5D
$GPVTG,238.67,T,-401.23,M,003.777,N,006.995,K,D*00
$GPGGA,075746.90,5702.8054192,N,00950.4714644,E,2,5,3.3,-0.619,M,40.592,M,2.1,0123*5F
$GPVTG,237.60,T,-402.30,M,003.789,N,007.017,K,D*0A
$GPGGA,075746.95,5702.8053914,N,00950.4713907,E,2,5,3.3,-0.628,M,40.592,M,2.1,0123*56
$GPVTG,236.43,T,-403.47,M,003.787,N,007.014,K,D*06
$GPGGA,075747.00,5702.8053616,N,00950.4713182,E,2,5,3.3,-0.634,M,40.592,M,2.1,0123*5E
$GPVTG,235.17,T,-404.73,M,003.790,N,007.020,K,D*05
$GPGGA,075747.05,5702.8053324,N,00950.4712644,E,2,5,3.3,-0.626,M,40.592,M,2.3,0123*52
$GPVTG,233.47,T,-406.43,M,003.767,N,006.976,K,D*04
$GPGGA,075747.10,5702.8053029,N,00950.4711862,E,2,5,3.3,-0.629,M,40.592,M,2.3,0123*5E
$GPVTG,232.65,T,-407.25,M,003.788,N,007.015,K,D*08
$GPGGA,075747.15,5702.8052708,N,00950.4711168,E,2,5,3.3,-0.636,M,40.592,M,2.3,0123*53
$GPVTG,231.41,T,-408.49,M,003.792,N,007.023,K,D*06
$GPGGA,075747.20,5702.8052392,N,00950.4710494,E,2,5,3.3,-0.645,M,40.592,M,2.3,0123*51
$GPVTG,230.24,T,-409.66,M,003.790,N,007.020,K,D*09
$GPGGA,075747.25,5702.8052133,N,00950.4709968,E,2,5,3.3,-0.640,M,40.592,M,2.5,0123*58
$GPVTG,229.10,T,-410.80,M,003.770,N,006.982,K,D*08
$GPGGA,075747.30,5702.8051798,N,00950.4709332,E,2,5,3.3,-0.649,M,40.592,M,2.5,0123*54
$GPVTG,227.82,T,-412.08,M,003.765,N,006.973,K,D*05
$GPGGA,075747.35,5702.8051446,N,00950.4708677,E,2,5,3.3,-0.653,M,40.592,M,2.5,0123*5F
$GPVTG,226.61,T,-413.29,M,003.774,N,006.990,K,D*06
$GPGGA,075747.40,5702.8051081,N,00950.4708102,E,2,5,3.3,-0.663,M,40.592,M,2.5,0123*54
$GPVTG,225.10,T,-414.80,M,003.769,N,006.980,K,D*0A
$GPGGA,075747.45,5702.8050807,N,00950.4707695,E,2,5,3.3,-0.657,M,40.592,M,2.7,0123*55
$GPVTG,223.78,T,-416.12,M,003.739,N,006.925,K,D*01
$GPGGA,075747.50,5702.8050438,N,00950.4707111,E,2,5,3.3,-0.660,M,40.592,M,2.7,0123*5E
$GPVTG,222.48,T,-417.42,M,003.740,N,006.927,K,D*0B
$GPGGA,075747.55,5702.8050068,N,00950.4706533,E,2,5,3.3,-0.667,M,40.592,M,2.7,0123*58
$GPVTG,221.26,T,-418.64,M,003.742,N,006.930,K,D*0F
$GPGGA,075747.60,5702.8049675,N,00950.4705967,E,2,5,3.3,-0.673,M,40.592,M,2.7,0123*57
$GPVTG,219.95,T,-419.95,M,003.753,N,006.951,K,D*04
$GPGGA,075747.65,5702.8049382,N,00950.4705533,E,2,5,3.3,-0.671,M,40.592,M,2.9,0123*5E
$GPVTG,218.87,T,-421.03,M,003.738,N,006.923,K,D*0A
$GPGGA,075747.70,5702.8048970,N,00950.4705066,E,2,5,3.3,-0.680,M,40.592,M,2.9,0123*57
$GPVTG,217.19,T,-422.71,M,003.736,N,006.919,K,D*03
$GPGGA,075747.75,5702.8048580,N,00950.4704554,E,2,5,3.3,-0.691,M,40.592,M,2.9,0123*54
$GPVTG,215.98,T,-423.92,M,003.736,N,006.920,K,D*0E
$GPGGA,075747.80,5702.8048197,N,00950.4704041,E,2,5,3.3,-0.701,M,40.592,M,2.9,0123*55
$GPVTG,214.92,T,-424.98,M,003.734,N,006.916,K,D*0F
$GPGGA,075747.85,5702.8047905,N,00950.4703751,E,2,5,3.3,-0.690,M,40.592,M,3.1,0123*5D
$GPVTG,213.60,T,-426.30,M,003.709,N,006.868,K,D*03
$GPGGA,075747.90,5702.8047485,N,00950.4703270,E,2,5,3.3,-0.698,M,40.592,M,3.1,0123*52
$GPVTG,212.40,T,-427.50,M,003.720,N,006.890,K,D*0B
$GPGGA,075747.95,5702.8047054,N,00950.4702808,E,2,5,3.3,-0.706,M,40.592,M,3.1,0123*5D
$GPVTG,211.17,T,-428.73,M,003.735,N,006.916,K,D*0F
$GPGGA,075748.00,5702.8046613,N,00950.4702420,E,2,5,3.3,-0.718,M,40.592,M,3.1,0123*53
$GPVTG,209.64,T,-430.26,M,003.741,N,006.928,K,D*05
$GPGGA,075748.05,5702.8046250,N,00950.4702138,E,2,5,3.3,-0.722,M,40.592,M,2.4,0123*54
$GPVTG,208.35,T,-431.55,M,003.724,N,006.897,K,D*03
$GPGGA,075748.10,5702.8045823,N,00950.4701688,E,2,5,3.3,-0.731,M,40.592,M,2.4,0123*50
$GPVTG,207.43,T,-432.47,M,003.735,N,006.917,K,D*04
$GPGGA,075748.15,5702.8045385,N,00950.4701312,E,2,5,3.3,-0.741,M,40.592,M,2.4,0123*53
$GPVTG,206.17,T,-433.73,M,003.741,N,006.928,K,D*0D
$GPGGA,075748.20,5702.8044944,N,00950.4700957,E,2,5,3.3,-0.751,M,40.592,M,2.4,0123*58
$GPVTG,204.91,T,-434.99,M,003.745,N,006.936,K,D*09
$GPGGA,075748.25,5702.8044689,N,00950.4700726,E,2,5,3.3,-0.736,M,40.592,M,2.7,0123*59
$GPVTG,204.32,T,-435.58,M,003.709,N,006.869,K,D*0F
$GPGGA,075748.30,5702.8044250,N,00950.4700367,E,2,5,3.3,-0.747,M,40.592,M,2.7,0123*5A
$GPVTG,203.27,T,-436.63,M,003.712,N,006.875,K,D*00
$GPGGA,075748.35,5702.8043799,N,00950.4700019,E,2,5,3.3,-0.756,M,40.592,M,2.7,0123*52
$GPVTG,202.20,T,-437.70,M,003.722,N,006.894,K,D*09
$GPGGA,075748.40,5702.8043349,N,00950.4699704,E,2,5,3.3,-0.766,M,40.592,M,2.7,0123*50
$GPVTG,201.07,T,-438.83,M,003.728,N,006.904,K,D*0E
$GPGGA,075748.45,5702.8043086,N,00950.4699556,E,2,5,3.3,-0.746,M,40.592,M,2.9,0123*5C
$GPVTG,200.08,T,-439.82,M,003.684,N,006.823,K,D*03
$GPGGA,075748.50,5702.8042633,N,00950.4699235,E,2,5,3.3,-0.754,M,40.592,M,2.9,0123*50
$GPVTG,199.16,T,-440.74,M,003.692,N,006.838,K,D*05
$GPGGA,075748.55,5702.8042195,N,00950.4698882,E,2,5,3.3,-0.760,M,40.592,M,2.9,0123*5E
$GPVTG,198.56,T,-441.34,M,003.697,N,006.846,K,D*09
$GPGGA,075748.60,5702.8041739,N,00950.4698657,E,2,5,3.3,-0.771,M,40.592,M,2.9,0123*5D
$GPVTG,197.29,T,-442.61,M,003.696,N,006.844,K,D*0E
$GPGGA,075748.65,5702.8041449,N,00950.4698631,E,2,5,3.3,-0.769,M,40.592,M,3.1,0123*5C
$GPVTG,195.76,T,-444.14,M,003.654,N,006.767,K,D*02
$GPGGA,075748.70,5702.8041001,N,00950.4698360,E,2,5,3.3,-0.782,M,40.592,M,3.1,0123*54
$GPVTG,194.98,T,-444.92,M,003.655,N,006.769,K,D*02
$GPGGA,075748.75,5702.8040546,N,00950.4698193,E,2,5,3.3,-0.799,M,40.592,M,3.1,0123*52
$GPVTG,193.67,T,-446.23,M,003.652,N,006.763,K,D*00
$GPGGA,075748.80,5702.8040102,N,00950.4698001,E,2,5,3.3,-0.815,M,40.592,M,3.1,0123*5D
$GPVTG,192.63,T,-447.27,M,003.645,N,006.751,K,D*07
$GPGGA,075748.85,5702.8039802,N,00950.4698175,E,2,5,3.3,-0.793,M,40.592,M,3.4,0123*59
$GPVTG,190.78,T,-449.12,M,003.599,N,006.666,K,D*00
$GPGGA,075748.90,5702.8039348,N,00950.4698042,E,2,5,3.3,-0.806,M,40.592,M,3.4,0123*5E
$GPVTG,189.59,T,-450.31,M,003.596,N,006.660,K,D*0B
$GPGGA,075748.95,5702.8038884,N,00950.4697916,E,2,5,3.3,-0.822,M,40.592,M,3.4,0123*50
$GPVTG,188.46,T,-451.44,M,003.601,N,006.668,K,D*02
$GPGGA,075749.00,5702.8038440,N,00950.4697790,E,2,5,3.3,-0.836,M,40.592,M,3.4,0123*5C
$GPVTG,187.46,T,-452.44,M,003.595,N,006.657,K,D*0C
$GPGGA,075749.05,5702.8038204,N,00950.4697913,E,2,5,3.3,-0.822,M,40.592,M,2.5,0123*5F
$GPVTG,186.37,T,-453.53,M,003.530,N,006.537,K,D*06
$GPGGA,075749.10,5702.8037742,N,00950.4697837,E,2,5,3.3,-0.834,M,40.592,M,2.5,0123*53
$GPVTG,185.23,T,-454.67,M,003.532,N,006.542,K,D*00
$GPGGA,075749.15,5702.8037292,N,00950.4697809,E,2,5,3.3,-0.846,M,40.592,M,2.5,0123*56
$GPVTG,183.91,T,-455.99,M,003.529,N,006.535,K,D*05
$GPGGA,075749.20,5702.8036842,N,00950.4697759,E,2,5,3.3,-0.859,M,40.592,M,2.5,0123*52
$GPVTG,182.84,T,-457.06,M,003.527,N,006.532,K,D*0D
$GPGGA,075749.25,5702.8036623,N,00950.4697921,E,2,5,3.3,-0.839,M,40.592,M,2.8,0123*54
$GPVTG,181.63,T,-458.27,M,003.470,N,006.426,K,D*0C
$GPGGA,075749.30,5702.8036173,N,00950.4697929,E,2,5,3.3,-0.851,M,40.592,M,2.8,0123*54
$GPVTG,180.38,T,-459.52,M,003.468,N,006.422,K,D*0D
$GPGGA,075749.35,5702.8035747,N,00950.4697918,E,2,5,3.3,-0.859,M,40.592,M,2.8,0123*59
$GPVTG,179.37,T,-460.53,M,003.454,N,006.396,K,D*08
$GPGGA,075749.40,5702.8035312,N,00950.4697934,E,2,5,3.3,-0.866,M,40.592,M,2.8,0123*5D
$GPVTG,178.29,T,-461.61,M,003.446,N,006.382,K,D*00
$GPGGA,075749.45,5702.8035111,N,00950.4698271,E,2,5,3.3,-0.846,M,40.592,M,3.1,0123*56
$GPVTG,176.28,T,-463.62,M,003.404,N,006.304,K,D*06
$GPGGA,075749.50,5702.8034687,N,00950.4698276,E,2,5,3.3,-0.856,M,40.592,M,3.1,0123*5D
$GPVTG,175.51,T,-464.39,M,003.389,N,006.277,K,D*05
$GPGGA,075749.55,5702.8034273,N,00950.4698406,E,2,5,3.3,-0.870,M,40.592,M,3.1,0123*52
$GPVTG,173.99,T,-465.91,M,003.375,N,006.251,K,D*03
$GPGGA,075749.60,5702.8033839,N,00950.4698561,E,2,5,3.3,-0.880,M,40.592,M,3.1,0123*58
$GPVTG,172.46,T,-467.44,M,003.377,N,006.255,K,D*0C
$GPGGA,075749.65,5702.8033621,N,00950.4698890,E,2,5,3.3,-0.875,M,40.592,M,3.3,0123*51
$GPVTG,170.96,T,-468.94,M,003.310,N,006.131,K,D*01
$GPGGA,075749.70,5702.8033212,N,00950.4698938,E,2,5,3.3,-0.884,M,40.592,M,3.3,0123*5C
$GPVTG,170.34,T,-469.56,M,003.293,N,006.098,K,D*0E
$GPGGA,075749.75,5702.8032799,N,00950.4699105,E,2,5,3.3,-0.900,M,40.592,M,3.3,0123*54
$GPVTG,169.01,T,-470.89,M,003.287,N,006.088,K,D*0E
$GPGGA,075749.80,5702.8032404,N,00950.4699279,E,2,5,3.3,-0.915,M,40.592,M,3.3,0123*55
$GPVTG,167.70,T,-472.20,M,003.274,N,006.063,K,D*0E
$GPGGA,075749.85,5702.8032235,N,00950.4699619,E,2,5,3.3,-0.886,M,40.592,M,3.6,0123*58
$GPVTG,166.17,T,-473.73,M,003.211,N,005.947,K,D*06
$GPGGA,075749.90,5702.8031855,N,00950.4699821,E,2,5,3.3,-0.897,M,40.592,M,3.6,0123*56
$GPVTG,164.84,T,-475.06,M,003.193,N,005.913,K,D*02
$GPGGA,075749.95,5702.8031471,N,00950.4700074,E,2,5,3.3,-0.911,M,40.592,M,3.6,0123*5F
$GPVTG,163.30,T,-476.60,M,003.186,N,005.901,K,D*0E
$GPGGA,075750.00,5702.8031111,N,00950.4700234,E,2,5,3.3,-0.921,M,40.592,M,3.6,0123*5D
$GPVTG,162.42,T,-477.48,M,003.157,N,005.847,K,D*0E
$GPGGA,075750.05,5702.8031013,N,00950.4700771,E,2,5,3.3,-0.884,M,40.592,M,1.2,0123*57
$GPVTG,160.20,T,-479.70,M,003.095,N,005.732,K,D*0F
$GPGGA,075750.10,5702.8030647,N,00950.4701037,E,2,5,3.3,-0.894,M,40.592,M,1.2,0123*50
$GPVTG,158.84,T,-481.06,M,003.084,N,005.712,K,D*0E
$GPGGA,075750.15,5702.8030291,N,00950.4701371,E,2,5,3.3,-0.904,M,40.592,M,1.2,0123*53
$GPVTG,157.11,T,-482.79,M,003.081,N,005.706,K,D*06
$GPGGA,075750.20,5702.8029964,N,00950.4701624,E,2,5,3.3,-0.912,M,40.592,M,1.2,0123*5E
$GPVTG,155.92,T,-483.98,M,003.050,N,005.648,K,D*06
$GPGGA,075750.25,5702.8029867,N,00950.4702145,E,2,5,3.3,-0.886,M,40.592,M,1.4,0123*50
$GPVTG,153.87,T,-486.03,M,002.983,N,005.524,K,D*0C
$GPGGA,075750.30,5702.8029536,N,00950.4702474,E,2,5,3.3,-0.892,M,40.592,M,1.4,0123*5F
$GPVTG,152.40,T,-487.50,M,002.971,N,005.502,K,D*08
$GPGGA,075750.35,5702.8029194,N,00950.4702837,E,2,5,3.3,-0.900,M,40.592,M,1.4,0123*57
$GPVTG,150.91,T,-488.99,M,002.974,N,005.508,K,D*03
$GPGGA,075750.40,5702.8028881,N,00950.4703195,E,2,5,3.3,-0.904,M,40.592,M,1.4,0123*5D
$GPVTG,149.40,T,-490.50,M,002.961,N,005.484,K,D*0A
$GPGGA,075750.45,5702.8028743,N,00950.4703665,E,2,5,3.3,-0.904,M,40.592,M,1.6,0123*53
$GPVTG,147.56,T,-492.34,M,002.921,N,005.410,K,D*0A
$GPGGA,075750.50,5702.8028462,N,00950.4704015,E,2,5,3.3,-0.914,M,40.592,M,1.6,0123*50
$GPVTG,146.12,T,-493.78,M,002.892,N,005.355,K,D*0D
$GPGGA,075750.55,5702.8028168,N,00950.4704406,E,2,5,3.3,-0.927,M,40.592,M,1.6,0123*5C
$GPVTG,144.65,T,-495.25,M,002.882,N,005.337,K,D*04
$GPGGA,075750.60,5702.8027898,N,00950.4704764,E,2,5,3.3,-0.938,M,40.592,M,1.6,0123*5A
$GPVTG,143.32,T,-496.58,M,002.853,N,005.284,K,D*0D
$GPGGA,075750.65,5702.8027804,N,00950.4705301,E,2,5,3.3,-0.904,M,40.592,M,1.8,0123*5D
$GPVTG,141.55,T,-498.35,M,002.811,N,005.206,K,D*07
$GPGGA,075750.70,5702.8027546,N,00950.4705723,E,2,5,3.3,-0.915,M,40.592,M,1.8,0123*56
$GPVTG,139.94,T,-499.96,M,002.794,N,005.175,K,D*08
$GPGGA,075750.75,5702.8027313,N,00950.4706116,E,2,5,3.3,-0.920,M,40.592,M,1.8,0123*50
$GPVTG,138.43,T,-501.47,M,002.762,N,005.115,K,D*00
$GPGGA,075750.80,5702.8027053,N,00950.4706578,E,2,5,3.3,-0.927,M,40.592,M,1.8,0123*56
$GPVTG,136.86,T,-503.04,M,002.762,N,005.116,K,D*01
$GPGGA,075750.85,5702.8026991,N,00950.4707115,E,2,5,3.3,-0.907,M,40.592,M,2.1,0123*53
$GPVTG,134.77,T,-505.13,M,002.706,N,005.012,K,D*0A
$GPGGA,075750.90,5702.8026747,N,00950.4707592,E,2,5,3.3,-0.914,M,40.592,M,2.1,0123*5B
$GPVTG,133.21,T,-506.69,M,002.705,N,005.009,K,D*09
$GPGGA,075750.95,5702.8026545,N,00950.4707985,E,2,5,3.3,-0.917,M,40.592,M,2.1,0123*57
$GPVTG,131.86,T,-508.04,M,002.657,N,004.922,K,D*04
$GPGGA,075751.00,5702.8026358,N,00950.4708417,E,2,5,3.3,-0.922,M,40.592,M,2.1,0123*5F
$GPVTG,130.18,T,-509.72,M,002.620,N,004.852,K,D*04
$GPGGA,075751.05,5702.8026337,N,00950.4708990,E,2,5,3.3,-0.886,M,40.592,M,2.3,0123*5C
$GPVTG,127.97,T,-511.93,M,002.562,N,004.745,K,D*0F
$GPGGA,075751.10,5702.8026174,N,00950.4709445,E,2,5,3.3,-0.893,M,40.592,M,2.3,0123*5D
$GPVTG,125.77,T,-514.13,M,002.499,N,004.629,K,D*00
$GPGGA,075751.15,5702.8025992,N,00950.4709920,E,2,5,3.3,-0.904,M,40.592,M,2.3,0123*5A
$GPVTG,124.14,T,-515.76,M,002.475,N,004.583,K,D*07
$GPGGA,075751.20,5702.8025847,N,00950.4710412,E,2,5,3.3,-0.912,M,40.592,M,2.3,0123*56
$GPVTG,121.81,T,-518.09,M,002.443,N,004.525,K,D*02
$GPGGA,075751.25,5702.8025766,N,00950.4711023,E,2,5,3.3,-0.887,M,40.592,M,2.5,0123*53
$GPVTG,119.87,T,-520.03,M,002.441,N,004.520,K,D*09
$GPGGA,075751.30,5702.8025636,N,00950.4711533,E,2,5,3.3,-0.896,M,40.592,M,2.5,0123*57
$GPVTG,117.67,T,-522.23,M,002.421,N,004.485,K,D*01
$GPGGA,075751.35,5702.8025532,N,00950.4712010,E,2,5,3.3,-0.906,M,40.592,M,2.5,0123*5A
$GPVTG,115.38,T,-524.52,M,002.380,N,004.408,K,D*00
$GPGGA,075751.40,5702.8025428,N,00950.4712588,E,2,5,3.3,-0.916,M,40.592,M,2.5,0123*57
$GPVTG,112.82,T,-527.08,M,002.394,N,004.435,K,D*01
$GPGGA,075751.45,5702.8025429,N,00950.4713172,E,2,5,3.3,-0.883,M,40.592,M,2.7,0123*5C
$GPVTG,110.54,T,-529.36,M,002.351,N,004.354,K,D*02
$GPGGA,075751.50,5702.8025302,N,00950.4713840,E,2,5,3.3,-0.892,M,40.592,M,2.7,0123*5E
$GPVTG,108.68,T,-531.22,M,002.424,N,004.490,K,D*02
$GPGGA,075751.55,5702.8025211,N,00950.4714370,E,2,5,3.3,-0.896,M,40.592,M,2.7,0123*53
$GPVTG,106.92,T,-532.98,M,002.415,N,004.473,K,D*04
$GPGGA,075751.60,5702.8025127,N,00950.4714909,E,2,5,3.3,-0.901,M,40.592,M,2.7,0123*58
$GPVTG,105.18,T,-534.72,M,002.411,N,004.465,K,D*04
$GPGGA,075751.65,5702.8025114,N,00950.4715391,E,2,5,3.3,-0.900,M,40.592,M,2.9,0123*58
$GPVTG,103.25,T,-536.65,M,002.364,N,004.378,K,D*06
$GPGGA,075751.70,5702.8025055,N,00950.4715944,E,2,5,3.3,-0.912,M,40.592,M,2.9,0123*59
$GPVTG,101.39,T,-538.51,M,002.366,N,004.382,K,D*07
$GPGGA,075751.75,5702.8025033,N,00950.4716541,E,2,5,3.3,-0.922,M,40.592,M,2.9,0123*55
$GPVTG,098.88,T,-541.02,M,002.386,N,004.418,K,D*0E
$GPGGA,075751.80,5702.8024979,N,00950.4717062,E,2,5,3.3,-0.928,M,40.592,M,2.9,0123*56
$GPVTG,097.42,T,-542.48,M,002.372,N,004.394,K,D*02
$GPGGA,075751.85,5702.8025066,N,00950.4717644,E,2,5,3.3,-0.897,M,40.592,M,3.1,0123*5B
$GPVTG,095.01,T,-544.89,M,002.360,N,004.371,K,D*04
$GPGGA,075751.90,5702.8025047,N,00950.4718166,E,2,5,3.3,-0.904,M,40.592,M,3.1,0123*5F
$GPVTG,093.24,T,-546.66,M,002.347,N,004.346,K,D*07
$GPGGA,075751.95,5702.8025052,N,00950.4718696,E,2,5,3.3,-0.907,M,40.592,M,3.1,0123*55
$GPVTG,091.17,T,-548.73,M,002.338,N,004.331,K,D*07
$GPGGA,075752.00,5702.8025046,N,00950.4719282,E,2,5,3.3,-0.911,M,40.592,M,3.1,0123*58
$GPVTG,089.53,T,-550.37,M,002.359,N,004.370,K,D*05
$GPGGA,075752.05,5702.8025126,N,00950.4719850,E,2,5,3.3,-0.885,M,40.592,M,2.4,0123*57
$GPVTG,087.78,T,-552.12,M,002.351,N,004.354,K,D*09
$GPGGA,075752.10,5702.8025158,N,00950.4720375,E,2,5,3.3,-0.884,M,40.592,M,2.4,0123*5D
$GPVTG,085.74,T,-554.16,M,002.343,N,004.339,K,D*0D
$GPGGA,075752.15,5702.8025194,N,00950.4720887,E,2,5,3.3,-0.884,M,40.592,M,2.4,0123*5E
$GPVTG,083.82,T,-556.08,M,002.331,N,004.317,K,D*06
$GPGGA,075752.20,5702.8025236,N,00950.4721327,E,2,5,3.3,-0.885,M,40.592,M,2.4,0123*52
$GPVTG,081.83,T,-558.07,M,002.287,N,004.236,K,D*0A
$GPGGA,075752.25,5702.8025339,N,00950.4721829,E,2,5,3.3,-0.867,M,40.592,M,2.7,0123*53
$GPVTG,080.42,T,-559.48,M,002.278,N,004.218,K,D*00
$GPGGA,075752.30,5702.8025359,N,00950.4722354,E,2,5,3.3,-0.868,M,40.592,M,2.7,0123*5C
$GPVTG,079.39,T,-560.51,M,002.274,N,004.212,K,D*0E
$GPGGA,075752.35,5702.8025409,N,00950.4722900,E,2,5,3.3,-0.877,M,40.592,M,2.7,0123*5E
$GPVTG,077.95,T,-561.95,M,002.286,N,004.233,K,D*01
$GPGGA,075752.40,5702.8025458,N,00950.4723400,E,2,5,3.3,-0.882,M,40.592,M,2.7,0123*5E
$GPVTG,076.60,T,-563.30,M,002.275,N,004.213,K,D*09
$GPGGA,075752.45,5702.8025480,N,00950.4724057,E,2,5,3.3,-0.869,M,40.592,M,2.9,0123*54
$GPVTG,076.53,T,-563.37,M,002.279,N,004.221,K,D*03
$GPGGA,075752.50,5702.8025500,N,00950.4724561,E,2,5,3.3,-0.878,M,40.592,M,2.9,0123*59
$GPVTG,076.00,T,-563.90,M,002.263,N,004.190,K,D*0A
$GPGGA,075752.55,5702.8025567,N,00950.4725027,E,2,5,3.3,-0.888,M,40.592,M,2.9,0123*54
$GPVTG,074.54,T,-565.36,M,002.239,N,004.146,K,D*07
$GPGGA,075752.60,5702.8025593,N,00950.4725495,E,2,5,3.3,-0.895,M,40.592,M,2.9,0123*58
$GPVTG,074.03,T,-565.87,M,002.208,N,004.090,K,D*07
$GPGGA,075752.65,5702.8025640,N,00950.4726069,E,2,5,3.3,-0.881,M,40.592,M,3.1,0123*58
$GPVTG,073.33,T,-566.57,M,002.184,N,004.045,K,D*02
$GPGGA,075752.70,5702.8025735,N,00950.4726450,E,2,5,3.3,-0.887,M,40.592,M,3.1,0123*57
