$GPGGA,091524.05,5702.8866858,N,00949.6665264,E,2,4,4.2,-4.183,M,40.592,M,1.6,0123*51
$GPVTG,083.45,T,-556.45,M,004.272,N,007.911,K,D*0B
$GPGGA,091524.10,5702.8866896,N,00949.6666304,E,2,4,4.2,-4.180,M,40.592,M,1.6,0123*50
$GPVTG,084.71,T,-555.19,M,004.232,N,007.838,K,D*0F
$GPGGA,091524.15,5702.8866963,N,00949.6667388,E,2,4,4.2,-4.182,M,40.592,M,1.6,0123*59
$GPVTG,085.58,T,-554.32,M,004.246,N,007.864,K,D*07
$GPGGA,091524.20,5702.8867034,N,00949.6668473,E,2,4,4.2,-4.181,M,40.592,M,1.6,0123*5A
$GPVTG,086.30,T,-553.60,M,004.259,N,007.888,K,D*06
$GPGGA,091524.25,5702.8867125,N,00949.6669530,E,2,4,4.2,-4.183,M,40.592,M,1.9,0123*54
$GPVTG,087.15,T,-552.75,M,004.250,N,007.872,K,D*09
$GPGGA,091524.30,5702.8867138,N,00949.6670596,E,2,4,4.2,-4.185,M,40.592,M,1.9,0123*5E
$GPVTG,088.29,T,-551.61,M,004.240,N,007.852,K,D*0C
$GPGGA,091524.35,5702.8867133,N,00949.6671689,E,2,4,4.2,-4.185,M,40.592,M,1.9,0123*5C
$GPVTG,089.51,T,-550.39,M,004.260,N,007.890,K,D*02
$GPGGA,091524.40,5702.8867113,N,00949.6672765,E,2,4,4.2,-4.182,M,40.592,M,1.9,0123*5B
$GPVTG,090.76,T,-549.14,M,004.260,N,007.889,K,D*00
$GPGGA,091524.45,5702.8867090,N,00949.6673795,E,2,4,4.2,-4.169,M,40.592,M,2.1,0123*54
$GPVTG,092.14,T,-547.76,M,004.217,N,007.810,K,D*0C
$GPGGA,091524.50,5702.8867057,N,00949.6674904,E,2,4,4.2,-4.170,M,40.592,M,2.1,0123*52
$GPVTG,093.24,T,-546.66,M,004.260,N,007.889,K,D*0E
$GPGGA,091524.55,5702.8867046,N,00949.6675987,E,2,4,4.2,-4.173,M,40.592,M,2.1,0123*5E
$GPVTG,093.99,T,-545.91,M,004.270,N,007.908,K,D*0A
$GPGGA,091524.60,5702.8867020,N,00949.6677054,E,2,4,4.2,-4.172,M,40.592,M,2.1,0123*5C
$GPVTG,094.81,T,-545.09,M,004.262,N,007.894,K,D*02
$GPGGA,091524.65,5702.8867047,N,00949.6678098,E,2,4,4.2,-4.172,M,40.592,M,2.3,0123*55
$GPVTG,095.85,T,-544.05,M,004.253,N,007.877,K,D*05
$GPGGA,091524.70,5702.8866969,N,00949.6679193,E,2,4,4.2,-4.172,M,40.592,M,2.3,0123*5E
$GPVTG,096.99,T,-542.91,M,004.283,N,007.932,K,D*0D
$GPGGA,091524.75,5702.8866896,N,00949.6680240,E,2,4,4.2,-4.169,M,40.592,M,2.3,0123*5B
$GPVTG,098.03,T,-541.87,M,004.259,N,007.888,K,D*03
$GPGGA,091524.80,5702.8866782,N,00949.6681244,E,2,4,4.2,-4.168,M,40.592,M,2.3,0123*5F
$GPVTG,099.52,T,-540.38,M,004.202,N,007.782,K,D*08
$GPGGA,091524.85,5702.8866755,N,00949.6682237,E,2,4,4.2,-4.164,M,40.592,M,2.6,0123*5E
$GPVTG,100.49,T,-539.41,M,004.156,N,007.697,K,D*04
$GPGGA,091524.90,5702.8866666,N,00949.6683257,E,2,4,4.2,-4.164,M,40.592,M,2.6,0123*5C
$GPVTG,101.37,T,-538.53,M,004.132,N,007.652,K,D*05
$GPGGA,091524.95,5702.8866544,N,00949.6684316,E,2,4,4.2,-4.164,M,40.592,M,2.6,0123*59
$GPVTG,102.41,T,-537.49,M,004.161,N,007.706,K,D*05
$GPGGA,091525.00,5702.8866407,N,00949.6685407,E,2,4,4.2,-4.169,M,40.592,M,2.6,0123*59
$GPVTG,103.38,T,-536.52,M,004.226,N,007.826,K,D*0C
$GPGGA,091525.05,5702.8866384,N,00949.6686442,E,2,4,4.2,-4.164,M,40.592,M,2.8,0123*51
$GPVTG,103.74,T,-536.16,M,004.230,N,007.835,K,D*01
$GPGGA,091525.10,5702.8866189,N,00949.6687448,E,2,4,4.2,-4.168,M,40.592,M,2.8,0123*5D
$GPVTG,105.47,T,-534.43,M,004.215,N,007.806,K,D*02
$GPGGA,091525.15,5702.8866035,N,00949.6688404,E,2,4,4.2,-4.168,M,40.592,M,2.8,0123*59
$GPVTG,106.74,T,-533.16,M,004.146,N,007.679,K,D*05
$GPGGA,091525.20,5702.8865889,N,00949.6689411,E,2,4,4.2,-4.173,M,40.592,M,2.8,0123*5C
$GPVTG,107.55,T,-532.35,M,004.141,N,007.670,K,D*09
$GPGGA,091525.25,5702.8865809,N,00949.6690345,E,2,4,4.2,-4.163,M,40.592,M,3.0,0123*57
$GPVTG,108.43,T,-531.47,M,004.079,N,007.555,K,D*09
$GPGGA,091525.30,5702.8865630,N,00949.6691353,E,2,4,4.2,-4.166,M,40.592,M,3.0,0123*54
$GPVTG,109.34,T,-530.56,M,004.101,N,007.594,K,D*0A
$GPGGA,091525.35,5702.8865466,N,00949.6692388,E,2,4,4.2,-4.170,M,40.592,M,3.0,0123*52
$GPVTG,109.80,T,-530.10,M,004.146,N,007.679,K,D*04
$GPGGA,091525.40,5702.8865242,N,00949.6693399,E,2,4,4.2,-4.174,M,40.592,M,3.0,0123*55
$GPVTG,110.98,T,-528.92,M,004.182,N,007.745,K,D*00
$GPGGA,091525.45,5702.8865107,N,00949.6694378,E,2,4,4.2,-4.163,M,40.592,M,3.2,0123*5E
$GPVTG,111.83,T,-528.07,M,004.192,N,007.764,K,D*05
$GPGGA,091525.50,5702.8864869,N,00949.6695331,E,2,4,4.2,-4.163,M,40.592,M,3.2,0123*56
$GPVTG,113.22,T,-526.68,M,004.178,N,007.737,K,D*09
$GPGGA,091525.55,5702.8864632,N,00949.6696240,E,2,4,4.2,-4.163,M,40.592,M,3.2,0123*57
$GPVTG,114.67,T,-525.23,M,004.128,N,007.644,K,D*03
$GPGGA,091525.60,5702.8864414,N,00949.6697154,E,2,4,4.2,-4.165,M,40.592,M,3.2,0123*56
$GPVTG,115.69,T,-524.21,M,004.087,N,007.569,K,D*07
$GPGGA,091525.65,5702.8864286,N,00949.6698104,E,2,4,4.2,-4.168,M,40.592,M,3.4,0123*5F
$GPVTG,116.20,T,-523.70,M,004.113,N,007.617,K,D*0C
$GPGGA,091525.70,5702.8864036,N,00949.6699082,E,2,4,4.2,-4.172,M,40.592,M,3.4,0123*57
$GPVTG,116.88,T,-523.02,M,004.157,N,007.699,K,D*0D
$GPGGA,091525.75,5702.8863778,N,00949.6700054,E,2,4,4.2,-4.176,M,40.592,M,3.4,0123*56
$GPVTG,117.58,T,-522.32,M,004.196,N,007.771,K,D*09
$GPGGA,091525.80,5702.8863487,N,00949.6700927,E,2,4,4.2,-4.177,M,40.592,M,3.4,0123*53
$GPVTG,119.21,T,-520.69,M,004.154,N,007.694,K,D*01
$GPGGA,091525.85,5702.8863285,N,00949.6701837,E,2,4,4.2,-4.175,M,40.592,M,3.6,0123*53
$GPVTG,120.11,T,-519.79,M,004.167,N,007.717,K,D*09
$GPGGA,091525.90,5702.8863011,N,00949.6702710,E,2,4,4.2,-4.180,M,40.592,M,3.6,0123*5B
$GPVTG,121.19,T,-518.71,M,004.132,N,007.652,K,D*09
$GPGGA,091525.95,5702.8862735,N,00949.6703584,E,2,4,4.2,-4.182,M,40.592,M,3.6,0123*52
$GPVTG,122.12,T,-517.78,M,004.109,N,007.610,K,D*09
$GPGGA,091526.00,5702.8862460,N,00949.6704511,E,2,4,4.2,-4.186,M,40.592,M,3.6,0123*51
$GPVTG,122.45,T,-517.45,M,004.140,N,007.668,K,D*07
$GPGGA,091526.05,5702.8862256,N,00949.6705364,E,2,4,4.2,-4.183,M,40.592,M,1.9,0123*5A
$GPVTG,123.40,T,-516.50,M,004.133,N,007.654,K,D*0D
$GPGGA,091526.10,5702.8861931,N,00949.6706271,E,2,4,4.2,-4.192,M,40.592,M,1.9,0123*51
$GPVTG,124.16,T,-515.74,M,004.174,N,007.731,K,D*0D
$GPGGA,091526.15,5702.8861601,N,00949.6707084,E,2,4,4.2,-4.196,M,40.592,M,1.9,0123*55
$GPVTG,125.63,T,-514.27,M,004.136,N,007.660,K,D*0A
$GPGGA,091526.20,5702.8861254,N,00949.6707923,E,2,4,4.2,-4.201,M,40.592,M,1.9,0123*5E
$GPVTG,126.83,T,-513.07,M,004.140,N,007.668,K,D*0B
$GPGGA,091526.25,5702.8860951,N,00949.6708760,E,2,4,4.2,-4.188,M,40.592,M,2.2,0123*58
$GPVTG,127.66,T,-512.25,M,004.150,N,007.687,K,D*00
$GPGGA,091526.30,5702.8860585,N,00949.6709595,E,2,4,4.2,-4.190,M,40.592,M,2.2,0123*59
$GPVTG,128.72,T,-511.18,M,004.171,N,007.725,K,D*0D
$GPGGA,091526.35,5702.8860231,N,00949.6710399,E,2,4,4.2,-4.188,M,40.592,M,2.2,0123*5F
$GPVTG,129.79,T,-510.11,M,004.162,N,007.708,K,D*02
$GPGGA,091526.40,5702.8859874,N,00949.6711147,E,2,4,4.2,-4.190,M,40.592,M,2.2,0123*55
$GPVTG,131.21,T,-508.69,M,004.117,N,007.624,K,D*0D
$GPGGA,091526.45,5702.8859677,N,00949.6711910,E,2,4,4.2,-4.197,M,40.592,M,2.4,0123*56
$GPVTG,131.80,T,-508.10,M,004.107,N,007.606,K,D*09
$GPGGA,091526.50,5702.8859324,N,00949.6712710,E,2,4,4.2,-4.205,M,40.592,M,2.4,0123*54
$GPVTG,132.29,T,-507.61,M,004.117,N,007.624,K,D*01
$GPGGA,091526.55,5702.8858945,N,00949.6713440,E,2,4,4.2,-4.212,M,40.592,M,2.4,0123*5C
$GPVTG,133.60,T,-506.30,M,004.091,N,007.577,K,D*02
$GPGGA,091526.60,5702.8858535,N,00949.6714148,E,2,4,4.2,-4.221,M,40.592,M,2.4,0123*5B
$GPVTG,135.20,T,-504.70,M,004.078,N,007.552,K,D*06
$GPGGA,091526.65,5702.8858077,N,00949.6714843,E,2,4,4.2,-4.193,M,40.592,M,2.7,0123*56
$GPVTG,137.11,T,-502.79,M,004.102,N,007.597,K,D*0C
$GPGGA,091526.70,5702.8857668,N,00949.6715560,E,2,4,4.2,-4.196,M,40.592,M,2.7,0123*5D
$GPVTG,138.03,T,-501.87,M,004.113,N,007.617,K,D*09
$GPGGA,091526.75,5702.8857260,N,00949.6716261,E,2,4,4.2,-4.203,M,40.592,M,2.7,0123*5E
$GPVTG,138.92,T,-500.98,M,004.116,N,007.622,K,D*0D
$GPGGA,091526.80,5702.8856803,N,00949.6716949,E,2,4,4.2,-4.205,M,40.592,M,2.7,0123*5D
$GPVTG,140.13,T,-499.77,M,004.148,N,007.682,K,D*0A
$GPGGA,091526.85,5702.8856470,N,00949.6717600,E,2,4,4.2,-4.203,M,40.592,M,2.9,0123*5B
$GPVTG,141.03,T,-498.87,M,004.148,N,007.682,K,D*04
$GPGGA,091526.90,5702.8855988,N,00949.6718233,E,2,4,4.2,-4.203,M,40.592,M,2.9,0123*5D
$GPVTG,142.61,T,-497.29,M,004.169,N,007.721,K,D*03
$GPGGA,091526.95,5702.8855538,N,00949.6718861,E,2,4,4.2,-4.204,M,40.592,M,2.9,0123*55
$GPVTG,143.74,T,-496.16,M,004.171,N,007.726,K,D*05
$GPGGA,091527.00,5702.8855012,N,00949.6719409,E,2,4,4.2,-4.209,M,40.592,M,2.9,0123*5B
$GPVTG,146.09,T,-493.81,M,004.186,N,007.752,K,D*0A
$GPGGA,091527.05,5702.8854671,N,00949.6720083,E,2,4,4.2,-4.202,M,40.592,M,1.7,0123*56
$GPVTG,145.66,T,-494.24,M,004.223,N,007.820,K,D*0E
$GPGGA,091527.10,5702.8854190,N,00949.6720606,E,2,4,4.2,-4.204,M,40.592,M,1.7,0123*57
$GPVTG,147.57,T,-492.33,M,004.
$GPGGA,091539.80,5702.8839694,N,00949.6517240,E,2,4,4.2,-4.211,M,40.592,M,2.4,0123*5D
$GPVTG,353.91,T,-285.99,M,005.566,N,010.309,K,D*02
$GPGGA,091539.85,5702.8840426,N,00949.6517052,E,2,4,4.2,-4.220,M,40.592,M,2.7,0123*5D
$GPVTG,354.11,T,-285.79,M,005.542,N,010.263,K,D*08
$GPGGA,091539.90,5702.8841175,N,00949.6516928,E,2,4,4.2,-4.220,M,40.592,M,2.7,0123*5E
$GPVTG,354.94,T,-284.96,M,005.534,N,010.249,K,D*0C
$GPGGA,091539.95,5702.8841912,N,00949.6516774,E,2,4,4.2,-4.220,M,40.592,M,2.7,0123*55
$GPVTG,355.23,T,-284.67,M,005.521,N,010.226,K,D*02
$GPGGA,091540.00,5702.8842650,N,00949.6516626,E,2,4,4.2,-4.219,M,40.592,M,2.7,0123*51
$GPVTG,355.47,T,-284.43,M,005.509,N,010.203,K,D*0B
$GPGGA,091540.05,5702.8843385,N,00949.6516514,E,2,4,4.2,-4.224,M,40.592,M,1.6,0123*56
$GPVTG,355.97,T,-283.93,M,005.483,N,010.154,K,D*0E
$GPGGA,091540.10,5702.8844119,N,00949.6516493,E,2,4,4.2,-4.224,M,40.592,M,1.6,0123*5C
$GPVTG,357.31,T,-282.59,M,005.463,N,010.117,K,D*0E
$GPGGA,091540.15,5702.8844846,N,00949.6516412,E,2,4,4.2,-4.226,M,40.592,M,1.6,0123*51
$GPVTG,357.75,T,-282.15,M,005.443,N,010.081,K,D*0A
$GPGGA,091540.20,5702.8845611,N,00949.6516408,E,2,4,4.2,-4.227,M,40.592,M,1.6,0123*50
$GPVTG,358.88,T,-281.02,M,005.454,N,010.101,K,D*0D
$GPGGA,091540.25,5702.8846305,N,00949.6516396,E,2,4,4.2,-4.224,M,40.592,M,1.9,0123*5A
$GPVTG,359.59,T,-280.31,M,005.423,N,010.044,K,D*01
$GPGGA,091540.30,5702.8847038,N,00949.6516387,E,2,4,4.2,-4.225,M,40.592,M,1.9,0123*53
$GPVTG,000.24,T,-639.66,M,005.412,N,010.023,K,D*03
$GPGGA,091540.35,5702.8847768,N,00949.6516461,E,2,4,4.2,-4.223,M,40.592,M,1.9,0123*5D
$GPVTG,001.61,T,-638.29,M,005.401,N,010.002,K,D*08
$GPGGA,091540.40,5702.8848469,N,00949.6516554,E,2,4,4.2,-4.223,M,40.592,M,1.9,0123*55
$GPVTG,002.92,T,-636.98,M,005.370,N,009.945,K,D*00
$GPGGA,091540.45,5702.8849178,N,00949.6516673,E,2,4,4.2,-4.233,M,40.592,M,2.1,0123*58
$GPVTG,004.21,T,-635.69,M,005.357,N,009.922,K,D*07
$GPGGA,091540.50,5702.8849944,N,00949.6516744,E,2,4,4.2,-4.236,M,40.592,M,2.1,0123*5B
$GPVTG,004.69,T,-635.21,M,005.379,N,009.962,K,D*0F
$GPGGA,091540.55,5702.8850660,N,00949.6516860,E,2,4,4.2,-4.237,M,40.592,M,2.1,0123*57
$GPVTG,005.50,T,-634.40,M,005.364,N,009.935,K,D*0C
$GPGGA,091540.60,5702.8851353,N,00949.6516989,E,2,4,4.2,-4.238,M,40.592,M,2.1,0123*5C
$GPVTG,006.28,T,-633.62,M,005.332,N,009.875,K,D*01
$GPGGA,091540.65,5702.8852048,N,00949.6517133,E,2,4,4.2,-4.247,M,40.592,M,2.3,0123*51
$GPVTG,007.07,T,-632.83,M,005.286,N,009.789,K,D*01
$GPGGA,091540.70,5702.8852752,N,00949.6517271,E,2,4,4.2,-4.245,M,40.592,M,2.3,0123*5E
$GPVTG,007.53,T,-632.37,M,005.266,N,009.752,K,D*07
$GPGGA,091540.75,5702.8853507,N,00949.6517533,E,2,4,4.2,-4.244,M,40.592,M,2.3,0123*58
$GPVTG,009.13,T,-630.77,M,005.305,N,009.825,K,D*00
$GPGGA,091540.80,5702.8854200,N,00949.6517742,E,2,4,4.2,-4.247,M,40.592,M,2.3,0123*52
$GPVTG,009.91,T,-629.99,M,005.283,N,009.785,K,D*08
$GPGGA,091540.85,5702.8854871,N,00949.6517991,E,2,4,4.2,-4.252,M,40.592,M,2.6,0123*5A
$GPVTG,011.00,T,-628.90,M,005.243,N,009.709,K,D*09
$GPGGA,091540.90,5702.8855555,N,00949.6518195,E,2,4,4.2,-4.256,M,40.592,M,2.6,0123*53
$GPVTG,011.28,T,-628.62,M,005.212,N,009.653,K,D*04
$GPGGA,091540.95,5702.8856244,N,00949.6518466,E,2,4,4.2,-4.255,M,40.592,M,2.6,0123*58
$GPVTG,012.16,T,-627.74,M,005.200,N,009.630,K,D*04
$GPGGA,091541.00,5702.8856939,N,00949.6518789,E,2,4,4.2,-4.257,M,40.592,M,2.6,0123*54
$GPVTG,013.40,T,-626.50,M,005.204,N,009.638,K,D*0D
$GPGGA,091541.05,5702.8857551,N,00949.6519158,E,2,4,4.2,-4.251,M,40.592,M,2.8,0123*51
$GPVTG,014.84,T,-625.06,M,005.197,N,009.626,K,D*04
$GPGGA,091541.10,5702.8858210,N,00949.6519466,E,2,4,4.2,-4.251,M,40.592,M,2.8,0123*50
$GPVTG,015.42,T,-624.48,M,005.166,N,009.568,K,D*03
$GPGGA,091541.15,5702.8858870,N,00949.6519816,E,2,4,4.2,-4.249,M,40.592,M,2.8,0123*5B
$GPVTG,016.30,T,-623.60,M,005.146,N,009.531,K,D*06
$GPGGA,091541.20,5702.8859539,N,00949.6520162,E,2,4,4.2,-4.251,M,40.592,M,2.8,0123*55
$GPVTG,016.88,T,-623.02,M,005.131,N,009.502,K,D*01
$GPGGA,091541.25,5702.8860201,N,00949.6520520,E,2,4,4.2,-4.261,M,40.592,M,3.0,0123*5E
$GPVTG,017.57,T,-622.33,M,005.099,N,009.444,K,D*01
$GPGGA,091541.30,5702.8860874,N,00949.6520875,E,2,4,4.2,-4.259,M,40.592,M,3.0,0123*54
$GPVTG,017.91,T,-621.99,M,005.087,N,009.422,K,D*07
$GPGGA,091541.35,5702.8861502,N,00949.6521344,E,2,4,4.2,-4.259,M,40.592,M,3.0,0123*54
$GPVTG,019.47,T,-620.43,M,005.079,N,009.406,K,D*03
$GPGGA,091541.40,5702.8862148,N,00949.6521769,E,2,4,4.2,-4.260,M,40.592,M,3.0,0123*5E
$GPVTG,020.22,T,-619.68,M,005.065,N,009.381,K,D*0C
$GPGGA,091541.45,5702.8862763,N,00949.6522283,E,2,4,4.2,-4.261,M,40.592,M,3.2,0123*55
$GPVTG,021.82,T,-618.08,M,005.073,N,009.396,K,D*01
$GPGGA,091541.50,5702.8863400,N,00949.6522780,E,2,4,4.2,-4.262,M,40.592,M,3.2,0123*53
$GPVTG,022.88,T,-617.02,M,005.074,N,009.396,K,D*0A
$GPGGA,091541.55,5702.8864051,N,00949.6523262,E,2,4,4.2,-4.263,M,40.592,M,3.2,0123*58
$GPVTG,023.50,T,-616.40,M,005.073,N,009.395,K,D*0D
$GPGGA,091541.60,5702.8864680,N,00949.6523720,E,2,4,4.2,-4.267,M,40.592,M,3.2,0123*53
$GPVTG,023.75,T,-616.15,M,005.044,N,009.341,K,D*07
$GPGGA,091541.65,5702.8865277,N,00949.6524211,E,2,4,4.2,-4.273,M,40.592,M,3.4,0123*58
$GPVTG,024.42,T,-615.48,M,004.999,N,009.257,K,D*01
$GPGGA,091541.70,5702.8865848,N,00949.6524723,E,2,4,4.2,-4.273,M,40.592,M,3.4,0123*5E
$GPVTG,025.22,T,-614.68,M,004.946,N,009.160,K,D*00
$GPGGA,091541.75,5702.8866476,N,00949.6525270,E,2,4,4.2,-4.269,M,40.592,M,3.4,0123*50
$GPVTG,026.01,T,-613.89,M,004.953,N,009.173,K,D*0C
$GPGGA,091541.80,5702.8867075,N,00949.6525822,E,2,4,4.2,-4.271,M,40.592,M,3.4,0123*58
$GPVTG,026.78,T,-613.12,M,004.937,N,009.144,K,D*06
$GPGGA,091541.85,5702.8867640,N,00949.6526455,E,2,4,4.2,-4.277,M,40.592,M,3.6,0123*56
$GPVTG,028.27,T,-611.63,M,004.958,N,009.183,K,D*04
$GPGGA,091541.90,5702.8868215,N,00949.6527108,E,2,4,4.2,-4.278,M,40.592,M,3.6,0123*5A
$GPVTG,029.76,T,-610.14,M,004.966,N,009.198,K,D*07
$GPGGA,091541.95,5702.8868811,N,00949.6527640,E,2,4,4.2,-4.279,M,40.592,M,3.6,0123*5B
$GPVTG,029.61,T,-610.29,M,004.922,N,009.115,K,D*0A
$GPGGA,091542.00,5702.8869380,N,00949.6528281,E,2,4,4.2,-4.283,M,40.592,M,3.6,0123*55
$GPVTG,030.68,T,-609.22,M,004.916,N,009.104,K,D*0F
$GPGGA,091542.05,5702.8869892,N,00949.6528932,E,2,4,4.2,-4.283,M,40.592,M,1.9,0123*56
$GPVTG,031.76,T,-608.14,M,004.889,N,009.054,K,D*06
$GPGGA,091542.10,5702.8870465,N,00949.6529611,E,2,4,4.2,-4.285,M,40.592,M,1.9,0123*57
$GPVTG,032.79,T,-607.11,M,004.901,N,009.076,K,D*01
$GPGGA,091542.15,5702.8871033,N,00949.6530261,E,2,4,4.2,-4.284,M,40.592,M,1.9,0123*5E
$GPVTG,033.33,T,-606.57,M,004.886,N,009.049,K,D*0F
$GPGGA,091542.20,5702.8871570,N,00949.6530915,E,2,4,4.2,-4.286,M,40.592,M,1.9,0123*50
$GPVTG,033.93,T,-605.97,M,004.851,N,008.984,K,D*09
$GPGGA,091542.25,5702.8872048,N,00949.6531610,E,2,4,4.2,-4.283,M,40.592,M,2.2,0123*5E
$GPVTG,035.11,T,-604.79,M,004.810,N,008.909,K,D*04
$GPGGA,091542.30,5702.8872560,N,00949.6532343,E,2,4,4.2,-4.281,M,40.592,M,2.2,0123*57
$GPVTG,036.33,T,-603.57,M,004.802,N,008.893,K,D*0D
$GPGGA,091542.35,5702.8873039,N,00949.6533062,E,2,4,4.2,-4.288,M,40.592,M,2.2,0123*52
$GPVTG,037.41,T,-602.49,M,004.760,N,008.816,K,D*01
$GPGGA,091542.40,5702.8873547,N,00949.6533829,E,2,4,4.2,-4.289,M,40.592,M,2.2,0123*5A
$GPVTG,038.60,T,-601.30,M,004.768,N,008.830,K,D*0C
$GPGGA,091542.45,5702.8874009,N,00949.6534591,E,2,4,4.2,-4.293,M,40.592,M,2.4,0123*53
$GPVTG,039.41,T,-600.49,M,004.771,N,008.836,K,D*0F
$GPGGA,091542.50,5702.8874555,N,00949.6535306,E,2,4,4.2,-4.293,M,40.592,M,2.4,0123*52
$GPVTG,039.45,T,-600.45,M,004.757,N,008.811,K,D*06
$GPGGA,091542.55,5702.8875026,N,00949.6536076,E,2,4,4.2,-4.297,M,40.592,M,2.4,0123*54
$GPVTG,040.45,T,-599.45,M,004.731,N,008.762,K,D*00
$GPGGA,091542.60,5702.8875464,N,00949.6536842,E,2,4,4.2,-4.302,M,40.592,M,2.4,0123*52
$GPVTG,041.45,T,-598.45,M,004.678,N,008.664,K,D*0B
$GPGGA,091542.65,5702.8875830,N,00949.6537618,E,2,4,4.2,-4.292,M,40.592,M,2.7,0123*51
$GPVTG,042.35,T,-597.55,M,004.633,N,008.580,K,D*07
$GPGGA,091542.70,5702.8876301,N,00949.6538422,E,2,4,4.2,-4.293,M,40.592,M,2.7,0123*5A
$GPVTG,043.22,T,-596.68,M,004.630,N,008.575,K,D*06
$GPGGA,091542.75,5702.8876777,N,00949.6539233,E,2,4,4.2,-4.291,M,40.592,M,2.7,0123*5F
$GPVTG,043.96,T,-595.94,M,004.631,N,008.577,K,D*0A
$GPGGA,091542.80,5702.8877172,N,00949.6540132,E,2,4,4.2,-4.290,M,40.592,M,2.7,0123*5A
$GPVTG,045.93,T,-593.97,M,004.647,N,008.606,K,D*08
$GPGGA,091542.85,5702.8877506,N,00949.6541018,E,2,4,4.2,-4.287,M,40.592,M,2.9,0123*58
$GPVTG,047.48,T,-592.42,M,004.645,N,008.602,K,D*03
$GPGGA,091542.90,5702.8877913,N,00949.6541825,E,2,4,4.2,-4.284,M,40.592,M,2.9,0123*51
$GPVTG,048.03,T,-591.87,M,004.584,N,008.490,K,D*0E
$GPGGA,091542.95,5702.8878321,N,00949.6542704,E,2,4,4.2,-4.287,M,40.592,M,2.9,0123*5C
$GPVTG,049.12,T,-590.78,M,004.583,N,008.487,K,D*0F
$GPGGA,091543.00,5702.8878768,N,00949.6543610,E,2,4,4.2,-4.284,M,40.592,M,2.9,0123*5E
$GPVTG,049.96,T,-589.94,M,004.617,N,008.550,K,D*0C
$GPGGA,091543.05,5702.8879162,N,00949.6544490,E,2,4,4.2,-4.295,M,40.592,M,1.7,0123*56
$GPVTG,050.95,T,-588.95,M,004.601,N,008.522,K,D*05
$GPGGA,091543.10,5702.8879506,N,00949.6545323,E,2,4,4.2,-4.296,M,40.592,M,1.7,0123*59
$GPVTG,051.64,T,-588.26,M,004.514,N,008.360,K,D*05
$GPGGA,091543.15,5702.8879883,N,00949.6546228,E,2,4,4.2,-4.296,M,40.592,M,1.7,0123*55
$GPVTG,052.59,T,-587.31,M,004.506,N,008.345,K,D*05
$GPGGA,091543.20,5702.8880285,N,00949.6547161,E,2,4,4.2,-4.295,M,40.592,M,1.7,0123*55
$GPVTG,053.43,T,-586.47,M,004.530,N,008.389,K,D*0A
$GPGGA,091543.25,5702.8880557,N,00949.6548115,E,2,4,4.2,-4.290,M,40.592,M,2.0,0123*55
$GPVTG,055.00,T,-584.90,M,004.526,N,008.382,K,D*0F
$GPGGA,091543.30,5702.8880903,N,00949.6549034,E,2,4,4.2,-4.289,M,40.592,M,2.0,0123*57
$GPVTG,055.82,T,-584.08,M,004.500,N,008.334,K,D*0D
$GPGGA,091543.35,5702.8881223,N,00949.6549902,E,2,4,4.2,-4.286,M,40.592,M,2.0,0123*59
$GPVTG,056.36,T,-583.54,M,004.418,N,008.182,K,D*08
$GPGGA,091543.40,5702.8881516,N,00949.6550883,E,2,4,4.2,-4.286,M,40.592,M,2.0,0123*5A
$GPVTG,057.90,T,-582.00,M,004.429,N,008.202,K,D*0C
$GPGGA,091543.45,5702.8881765,N,00949.6551872,E,2,4,4.2,-4.289,M,40.592,M,2.2,0123*5B
$GPVTG,059.02,T,-580.88,M,004.454,N,008.249,K,D*0E
$GPGGA,091543.50,5702.8882075,N,00949.6552835,E,2,4,4.2,-4.287,M,40.592,M,2.2,0123*54
$GPVTG,059.92,T,-579.98,M,004.443,N,008.229,K,D*00
$GPGGA,091543.55,5702.8882370,N,00949.6553778,E,2,4,4.2,-4.282,M,40.592,M,2.2,0123*55
$GPVTG,060.70,T,-579.20,M,004.406,N,008.160,K,D*0A
$GPGGA,091543.60,5702.8882621,N,00949.6554779,E,2,4,4.2,-4.282,M,40.592,M,2.2,0123*54
$GPVTG,062.12,T,-577.78,M,004.407,N,008.162,K,D*0C
$GPGGA,091543.65,5702.8882848,N,00949.6555742,E,2,4,4.2,-4.288,M,40.592,M,2.4,0123*55
$GPVTG,063.73,T,-576.17,M,004.363,N,008.080,K,D*0A
$GPGGA,091543.70,5702.8883161,N,00949.6556807,E,2,4,4.2,-4.288,M,40.592,M,2.4,0123*5F
$GPVTG,064.68,T,-575.22,M,004.439,N,008.222,K,D*00
$GPGGA,091543.75,5702.8883456,N,00949.6557797,E,2,4,4.2,-4.289,M,40.592,M,2.4,0123*5D
$GPVTG,065.18,T,-574.72,M,004.427,N,008.198,K,D*0F
$GPGGA,091543.80,5702.8883712,N,00949.6558805,E,2,4,4.2,-4.288,M,40.592,M,2.4,0123*5E
$GPVTG,066.03,T,-573.87,M,004.418,N,008.181,K,D*0F
$GPGGA,091543.85,5702.8883973,N,00949.6559795,E,2,4,4.2,-4.299,M,40.592,M,2.7,0123*56
$GPVTG,067.07,T,-572.83,M,004.394,N,008.137,K,D*01
$GPGGA,091543.90,5702.8884193,N,00949.6560803,E,2,4,4.2,-4.301,M,40.592,M,2.7,0123*59
$GPVTG,068.02,T,-571.88,M,004.370,N,008.094,K,D*01
$GPGGA,091543.95,5702.8884360,N,00949.6561824,E,2,4,4.2,-4.302,M,40.592,M,2.7,0123*55
$GPVTG,069.42,T,-570.48,M,004.345,N,008.046,K,D*00
$GPGGA,091544.00,5702.8884569,N,00949.6562854,E,2,4,4.2,-4.306,M,40.592,M,2.7,0123*51
$GPVTG,070.34,T,-569.56,M,004.338,N,008.034,K,D*01
$GPGGA,091544.05,5702.8884647,N,00949.6563903,E,2,4,4.2,-4.296,M,40.592,M,1.6,0123*53
$GPVTG,071.56,T,-568.34,M,004.336,N,008.030,K,D*0B
$GPGGA,091544.10,5702.8884854,N,00949.6564962,E,2,4,4.2,-4.294,M,40.592,M,1.6,0123*59
$GPVTG,072.39,T,-567.51,M,004.353,N,008.061,K,D*0A
$GPGGA,091544.15,5702.8885004,N,00949.6565975,E,2,4,4.2,-4.289,M,40.592,M,1.6,0123*5B
$GPVTG,073.44,T,-566.46,M,004.308,N,007.978,K,D*06
$GPGGA,091544.20,5702.8885151,N,00949.6567031,E,2,4,4.2,-4.283,M,40.592,M,1.6,0123*5D
$GPVTG,074.61,T,-565.29,M,004.307,N,007.977,K,D*0C
$GPGGA,091544.25,5702.8885378,N,00949.6568029,E,2,4,4.2,-4.297,M,40.592,M,1.9,0123*5D
$GPVTG,075.76,T,-564.14,M,004.273,N,007.913,K,D*04
$GPGGA,091544.30,5702.8885494,N,00949.6569094,E,2,4,4.2,-4.296,M,40.592,M,1.9,0123*5A
$GPVTG,077.03,T,-562.87,M,004.277,N,007.921,K,D*0D
$GPGGA,091544.35,5702.8885672,N,00949.6570172,E,2,4,4.2,-4.293,M,40.592,M,1.9,0123*51
$GPVTG,077.62,T,-562.28,M,004.302,N,007.968,K,D*01
$GPGGA,091544.40,5702.8885787,N,00949.6571225,E,2,4,4.2,-4.291,M,40.592,M,1.9,0123*5A
$GPVTG,078.63,T,-561.27,M,004.288,N,007.942,K,D*08
$GPGGA,091544.45,5702.8885951,N,00949.6572272,E,2,4,4.2,-4.307,M,40.592,M,2.1,0123*5E
$GPVTG,079.56,T,-560.34,M,004.290,N,007.946,K,D*01
$GPGGA,091544.50,5702.8886059,N,00949.6573347,E,2,4,4.2,-4.310,M,40.592,M,2.1,0123*58
$GPVTG,080.50,T,-559.40,M,004.296,N,007.955,K,D*0C
$GPGGA,091544.55,5702.8886120,N,00949.6574401,E,2,4,4.2,-4.308,M,40.592,M,2.1,0123*59
$GPVTG,081.76,T,-558.14,M,004.272,N,007.912,K,D*00
$GPGGA,091544.60,5702.8886220,N,00949.6575464,E,2,4,4.2,-4.310,M,40.592,M,2.1,0123*57
$GPVTG,082.52,T,-557.38,M,004.264,N,007.896,K,D*0E
$GPGGA,091544.65,5702.8886244,N,00949.6576425,E,2,4,4.2,-4.316,M,40.592,M,2.3,0123*52
$GPVTG,084.07,T,-555.83,M,004.152,N,007.689,K,D*0C
$GPGGA,091544.70,5702.8886309,N,00949.6577527,E,2,4,4.2,-4.319,M,40.592,M,2.3,0123*53
$GPVTG,085.04,T,-554.86,M,004.197,N,007.772,K,D*06
$GPGGA,091544.75,5702.8886367,N,00949.6578573,E,2,4,4.2,-4.325,M,40.592,M,2.3,0123*5F
$GPVTG,085.90,T,-554.00,M,004.178,N,007.738,K,D*0A
$GPGGA,091544.80,5702.8886425,N,00949.6579664,E,2,4,4.2,-4.329,M,40.592,M,2.3,0123*5C
$GPVTG,086.69,T,-553.21,M,004.210,N,007.796,K,D*02
$GPGGA,091544.85,5702.8886388,N,00949.6580727,E,2,4,4.2,-4.320,M,40.592,M,2.6,0123*55
$GPVTG,087.81,T,-552.09,M,004.206,N,007.790,K,D*0F
$GPGGA,091544.90,5702.8886396,N,00949.6581828,E,2,4,4.2,-4.316,M,40.592,M,2.6,0123*5A
$GPVTG,088.92,T,-550.98,M,004.242,N,007.856,K,D*0D
$GPGGA,091544.95,5702.8886388,N,00949.6582883,E,2,4,4.2,-4.317,M,40.592,M,2.6,0123*53
$GPVTG,090.09,T,-549.81,M,004.225,N,007.825,K,D*03
$GPGGA,091545.00,5702.8886372,N,00949.6583896,E,2,4,4.2,-4.316,M,40.592,M,2.6,0123*5F
$GPVTG,091.23,T,-548.67,M,004.168,N,007.719,K,D*09
$GPGGA,091545.05,5702.8886404,N,00949.6584935,E,2,4,4.2,-4.327,M,40.592,M,2.8,0123*5F
$GPVTG,092.39,T,-547.51,M,004.171,N,007.724,K,D*0D
$GPGGA,091545.10,5702.8886371,N,00949.6585996,E,2,4,4.2,-4.324,M,40.592,M,2.8,0123*55
$GPVTG,093.48,T,-546.42,M,004.174,N,007.730,K,D*09
$GPGGA,091545.15,5702.8886318,N,00949.6587026,E,2,4,4.2,-4.323,M,40.592,M,2.8,0123*58
$GPVTG,094.70,T,-545.20,M,004.148,N,007.682,K,D*05
$GPGGA,091545.20,5702.8886264,N,00949.6588117,E,2,4,4.2,-4.324,M,40.592,M,2.8,0123*5F
$GPVTG,095.72,T,-544.18,M,004.191,N,007.763,K,D*06
$GPGGA,091545.25,5702.8886250,N,00949.6589182,E,2,4,4.2,-4.331,M,40.592,M,3.0,0123*5D
$GPVTG,096.51,T,-543.39,M,004.219,N,007.814,K,D*0C
$GPGGA,091545.30,5702.8886144,N,00949.6590175,E,2,4,4.2,-4.331,M,40.592,M,3.0,0123*5F
$GPVTG,098.07,T,-541.83,M,004.159,N,007.703,K,D*0C
$GPGGA,091545.35,5702.8886061,N,00949.6591181,E,2,4,4.2,-4.328,M,40.592,M,3.0,0123*5E
$GPVTG,099.20,T,-540.70,M,004.121,N,007.632,K,D*09
$GPGGA,091545.40,5702.8885963,N,00949.6592234,E,2,4,4.2,-4.330,M,40.592,M,3.0,0123*53
$GPVTG,100.25,T,-539.65,M,004.142,N,007.672,K,D*06
$GPGGA,091545.45,5702.8885894,N,00949.6593262,E,2,4,4.2,-4.335,M,40.592,M,3.2,0123*5A
$GPVTG,101.24,T,-538.66,M,004.154,N,007.693,K,D*0C
$GPGGA,091545.50,5702.8885778,N,00949.6594300,E,2,4,4.2,-4.337,M,40.592,M,3.2,0123*53
$GPVTG,102.27,T,-537.63,M,004.162,N,007.708,K,D*00
$GPGGA,091545.55,5702.8885648,N,00949.6595356,E,2,4,4.2,-4.336,M,40.592,M,3.2,0123*57
$GPVTG,103.28,T,-536.62,M,004.195,N,007.770,K,D*09
$GPGGA,091545.60,5702.8885510,N,00949.6596331,E,2,4,4.2,-4.338,M,40.592,M,3.2,0123*53
$GPVTG,104.53,T,-535.37,M,004.144,N,007.674,K,D*08
$GPGGA,091545.65,5702.8885423,N,00949.6597295,E,2,4,4.2,-4.355,M,40.592,M,3.4,0123*54
$GPVTG,105.87,T,-534.03,M,004.119,N,007.628,K,D*07
$GPGGA,091545.70,5702.8885266,N,00949.6598374,E,2,4,4.2,-4.357,M,40.592,M,3.4,0123*54
$GPVTG,106.62,T,-533.28,M,004.196,N,007.771,K,D*0B
$GPGGA,091545.75,5702.8885108,N,00949.6599353,E,2,4,4.2,-4.364,M,40.592,M,3.4,0123*5E
$GPVTG,107.68,T,-532.22,M,004.165,N,007.713,K,D*03
$GPGGA,091545.80,5702.8884931,N,00949.6600325,E,2,4,4.2,-4.366,M,40.592,M,3.4,0123*57
$GPVTG,108.86,T,-531.04,M,004.138,N,007.664,K,D*02
$GPGGA,091545.85,5702.8884724,N,00949.6601289,E,2,4,4.2,-4.358,M,40.592,M,3.6,0123*51
$GPVTG,110.42,T,-529.48,M,004.133,N,007.654,K,D*0A
$GPGGA,091545.90,5702.8884528,N,00949.6602267,E,2,4,4.2,-4.360,M,40.592,M,3.6,0123*53
$GPVTG,111.45,T,-528.45,M,004.132,N,007.653,K,D*06
$GPGGA,091545.95,5702.8884322,N,00949.6603279,E,2,4,4.2,-4.361,M,40.592,M,3.6,0123*55
$GPVTG,112.26,T,-527.64,M,004.173,N,007.729,K,D*05
$GPGGA,091546.00,5702.8884076,N,00949.6604243,E,2,4,4.2,-4.364,M,40.592,M,3.6,0123*53
$GPVTG,113.67,T,-526.23,M,004.178,N,007.738,K,D*08
$GPGGA,091546.05,5702.8883922,N,00949.6605175,E,2,4,4.2,-4.367,M,40.592,M,1.9,0123*50
$GPVTG,114.48,T,-525.42,M,004.155,N,007.696,K,D*0C
$GPGGA,091546.10,5702.8883676,N,00949.6606069,E,2,4,4.2,-4.365,M,40.592,M,1.9,0123*57
$GPVTG,116.01,T,-523.89,M,004.104,N,007.601,K,D*08
$GPGGA,091546.15,5702.8883428,N,00949.6607071,E,2,4,4.2,-4.366,M,40.592,M,1.9,0123*50
$GPVTG,116.63,T,-523.27,M,004.171,N,007.725,K,D*0D
$GPGGA,091546.20,5702.8883165,N,00949.6608031,E,2,4,4.2,-4.369,M,40.592,M,1.9,0123*5E
$GPVTG,117.60,T,-522.30,M,004.198,N,007.775,K,D*0A
$GPGGA,091546.25,5702.8883020,N,00949.6608881,E,2,4,4.2,-4.382,M,40.592,M,2.2,0123*55
$GPVTG,118.96,T,-520.94,M,004.145,N,007.676,K,D*02
$GPGGA,091546.30,5702.8882779,N,00949.6609888,E,2,4,4.2,-4.388,M,40.592,M,2.2,0123*59
$GPVTG,118.96,T,-520.94,M,004.217,N,007.810,K,D*08
$GPGGA,091546.35,5702.8882497,N,00949.6610749,E,2,4,4.2,-4.393,M,40.592,M,2.2,0123*5F
$GPVTG,120.41,T,-519.49,M,004.165,N,007.714,K,D*0E
$GPGGA,091546.40,5702.8882183,N,00949.6611663,E,2,4,4.2,-4.400,M,40.592,M,2.2,0123*58
$GPVTG,121.62,T,-518.28,M,004.189,N,007.759,K,D*03
$GPGGA,091546.45,5702.8881908,N,00949.6612486,E,2,4,4.2,-4.396,M,40.592,M,2.4,0123*51
$GPVTG,123.02,T,-516.88,M,004.127,N,007.642,K,D*0C
$GPGGA,091546.50,5702.8881571,N,00949.6613370,E,2,4,4.2,-4.404,M,40.592,M,2.4,0123*54
$GPVTG,124.29,T,-515.61,M,004.153,N,007.691,K,D*0B
$GPGGA,091546.55,5702.8881227,N,00949.6614236,E,2,4,4.2,-4.405,M,40.592,M,2.4,0123*50
$GPVTG,125.58,T,-514.32,M,004.170,N,007.724,K,D*05
$GPGGA,091546.60,5702.8880941,N,00949.6615104,E,2,4,4.2,-4.407,M,40.592,M,2.4,0123*5D
$GPVTG,126.05,T,-513.85,M,004.162,N,007.708,K,D*08
$GPGGA,091546.65,5702.8880704,N,00949.6615868,E,2,4,4.2,-4.410,M,40.592,M,2.7,0123*51
$GPVTG,127.38,T,-512.52,M,004.097,N,007.587,K,D*02
$GPGGA,091546.70,5702.8880380,N,00949.6616702,E,2,4,4.2,-4.414,M,40.592,M,2.7,0123*59
$GPVTG,128.19,T,-511.71,M,004.098,N,007.589,K,D*0D
$GPGGA,091546.75,5702.8880016,N,00949.6617469,E,2,4,4.2,-4.420,M,40.592,M,2.7,0123*58
$GPVTG,129.81,T,-510.09,M,004.072,N,007.542,K,D*00
$GPGGA,091546.80,5702.8879604,N,00949.6618319,E,2,4,4.2,-4.426,M,40.592,M,2.7,0123*58
$GPVTG,130.85,T,-509.05,M,004.151,N,007.688,K,D*0D
$GPGGA,091546.85,5702.8879266,N,00949.6619079,E,2,4,4.2,-4.416,M,40.592,M,2.9,0123*54
$GPVTG,132.07,T,-507.83,M,004.138,N,007.663,K,D*0F
$GPGGA,091546.90,5702.8878921,N,00949.6619937,E,2,4,4.2,-4.417,M,40.592,M,2.9,0123*5B
$GPVTG,132.01,T,-507.89,M,004.189,N,007.758,K,D*00
$GPGGA,091546.95,5702.8878565,N,00949.6620668,E,2,4,4.2,-4.416,M,40.592,M,2.9,0123*5C
$GPVTG,133.24,T,-506.66,M,004.144,N,007.675,K,D*09
$GPGGA,091547.00,5702.8878105,N,00949.6621331,E,2,4,4.2,-4.418,M,40.592,M,2.9,0123*55
$GPVTG,135.84,T,-504.06,M,004.122,N,007.635,K,D*05
$GPGGA,091547.05,5702.8877845,N,00949.6622045,E,2,4,4.2,-4.429,M,40.592,M,1.7,0123*5E
$GPVTG,136.76,T,-503.14,M,004.142,N,007.670,K,D*08
$GPGGA,091547.10,5702.8877437,N,00949.6622804,E,2,4,4.2,-4.435,M,40.592,M,1.7,0123*53
$GPVTG,137.34,T,-502.56,M,004.177,N,007.736,K,D*0D
$GPGGA,091547.15,5702.8877013,N,00949.6623518,E,2,4,4.2,-4.439,M,40.592,M,1.7,0123*59
$GPVTG,138.38,T,-501.52,M,004.191,N,007.761,K,D*03
$GPGGA,091547.20,5702.8876583,N,00949.6624188,E,2,4,4.2,-4.442,M,40.592,M,1.7,0123*54
$GPVTG,139.75,T,-500.15,M,004.183,N,007.746,K,D*0F
$GPGGA,091547.25,5702.8876279,N,00949.6624816,E,2,4,4.2,-4.446,M,40.592,M,2.0,0123*5D
$GPVTG,140.87,T,-499.03,M,004.144,N,007.675,K,D*00
$GPGGA,091547.30,5702.8875831,N,00949.6625509,E,2,4,4.2,-4.453,M,40.592,M,2.0,0123*5A
$GPVTG,141.62,T,-498.28,M,004.179,N,007.740,K,D*0B
$GPGGA,091547.35,5702.8875370,N,00949.6626186,E,2,4,4.2,-4.459,M,40.592,M,2.0,0123*5B
$GPVTG,142.46,T,-497.44,M,004.215,N,007.806,K,D*0F
$GPGGA,091547.40,5702.8874925,N,00949.6626843,E,2,4,4.2,-4.465,M,40.592,M,2.0,0123*5D
$GPVTG,143.23,T,-496.67,M,004.227,N,007.829,K,D*01
$GPGGA,091547.45,5702.8874565,N,00949.6627419,E,2,4,4.2,-4.460,M,40.592,M,2.2,0123*55
$GPVTG,144.52,T,-495.38,M,004.190,N,007.760,K,D*04
$GPGGA,091547.50,5702.8874100,N,00949.6627980,E,2,4,4.2,-4.468,M,40.592,M,2.2,0123*53
$GPVTG,146.09,T,-493.81,M,004.171,N,007.724,K,D*03
$GPGGA,091547.55,5702.8873640,N,00949.6628559,E,2,4,4.2,-4.476,M,40.592,M,2.2,0123*5A
$GPVTG,147.15,T,-492.75,M,004.168,N,007.719,K,D*03
$GPGGA,091547.60,5702.8873141,N,00949.6629116,E,2,4,4.2,-4.481,M,40.592,M,2.2,0123*5C
$GPVTG,148.47,T,-491.43,M,004.185,N,007.751,K,D*02
$GPGGA,091547.65,5702.8872683,N,00949.6629686,E,2,4,4.2,-4.465,M,40.592,M,2.4,0123*53
$GPVTG,149.30,T,-490.60,M,004.223,N,007.821,K,D*04
$GPGGA,091547.70,5702.8872188,N,00949.6630230,E,2,4,4.2,-4.466,M,40.592,M,2.4,0123*59
$GPVTG,150.28,T,-489.62,M,004.237,N,007.846,K,D*0B
$GPGGA,091547.75,5702.8871687,N,00949.6630768,E,2,4,4.2,-4.467,M,40.592,M,2.4,0123*5E
$GPVTG,151.14,T,-488.76,M,004.255,N,007.880,K,D*0F
$GPGGA,091547.80,5702.8871145,N,00949.6631176,E,2,4,4.2,-4.467,M,40.592,M,2.4,0123*55
$GPVTG,153.60,T,-486.30,M,004.245,N,007.861,K,D*0C
$GPGGA,091547.85,5702.8870776,N,00949.6631621,E,2,4,4.2,-4.478,M,40.592,M,2.7,0123*5F
$GPVTG,154.72,T,-485.18,M,004.260,N,007.889,K,D*00
$GPGGA,091547.90,5702.8870234,N,00949.6632093,E,2,4,4.2,-4.483,M,40.592,M,2.7,0123*50
$GPVTG,155.70,T,-484.20,M,004.293,N,007.952,K,D*02
$GPGGA,091547.95,5702.8869710,N,00949.6632602,E,2,4,4.2,-4.489,M,40.592,M,2.7,0123*5A
$GPVTG,155.89,T,-484.01,M,004.330,N,008.019,K,D*06
$GPGGA,091548.00,5702.8869197,N,00949.6633035,E,2,4,4.2,-4.495,M,40.592,M,2.7,0123*5E
$GPVTG,156.85,T,-483.05,M,004.325,N,008.009,K,D*0F
$GPGGA,091548.05,5702.8868727,N,00949.6633396,E,2,4,4.2,-4.496,M,40.592,M,1.6,0123*5C
$GPVTG,158.53,T,-481.37,M,004.339,N,008.035,K,D*0B
$GPGGA,091548.10,5702.8868166,N,00949.6633827,E,2,4,4.2,-4.500,M,40.592,M,1.6,0123*54
$GPVTG,159.16,T,-480.74,M,004.378,N,008.107,K,D*08
$GPGGA,091548.15,5702.8867617,N,00949.6634196,E,2,4,4.2,-4.501,M,40.592,M,1.6,0123*5A
$GPVTG,160.33,T,-479.57,M,004.384,N,008.119,K,D*0E
$GPGGA,091548.20,5702.8867094,N,00949.6634593,E,2,4,4.2,-4.501,M,40.592,M,1.6,0123*50
$GPVTG,160.80,T,-479.10,M,004.381,N,008.114,K,D*0D
$GPGGA,091548.25,5702.8866655,N,00949.6634920,E,2,4,4.2,-4.508,M,40.592,M,1.9,0123*5D
$GPVTG,161.87,T,-478.03,M,004.416,N,008.179,K,D*0A
$GPGGA,091548.30,5702.8866075,N,00949.6635205,E,2,4,4.2,-4.512,M,40.592,M,1.9,0123*5B
$GPVTG,163.53,T,-476.37,M,004.426,N,008.197,K,D*0B
$GPGGA,091548.35,5702.8865511,N,00949.6635479,E,2,4,4.2,-4.517,M,40.592,M,1.9,0123*52
$GPVTG,164.96,T,-474.94,M,004.424,N,008.193,K,D*08
$GPGGA,091548.40,5702.8864938,N,00949.6635727,E,2,4,4.2,-4.522,M,40.592,M,1.9,0123*58
$GPVTG,166.44,T,-473.46,M,004.428,N,008.200,K,D*08
$GPGGA,091548.45,5702.8864419,N,00949.6636078,E,2,4,4.2,-4.511,M,40.592,M,2.1,0123*56
$GPVTG,166.12,T,-473.78,M,004.469,N,008.276,K,D*02
$GPGGA,091548.50,5702.8863847,N,00949.6636310,E,2,4,4.2,-4.514,M,40.592,M,2.1,0123*5A
$GPVTG,167.39,T,-472.51,M,004.467,N,008.273,K,D*0B
$GPGGA,091548.55,5702.8863227,N,00949.6636497,E,2,4,4.2,-4.514,M,40.592,M,2.1,0123*5B
$GPVTG,169.06,T,-470.84,M,004.498,N,008.330,K,D*05
$GPGGA,091548.60,5702.8862641,N,00949.6636749,E,2,4,4.2,-4.516,M,40.592,M,2.1,0123*5A
$GPVTG,169.48,T,-470.42,M,004.514,N,008.361,K,D*04
$GPGGA,091548.65,5702.8862228,N,00949.6636940,E,2,4,4.2,-4.532,M,40.592,M,2.3,0123*57
$GPVTG,170.13,T,-469.77,M,004.519,N,008.370,K,D*01
$GPGGA,091548.70,5702.8861648,N,00949.6637163,E,2,4,4.2,-4.541,M,40.592,M,2.3,0123*5E
$GPVTG,170.55,T,-469.35,M,004.523,N,008.377,K,D*0B
$GPGGA,091548.75,5702.8861092,N,00949.6637355,E,2,4,4.2,-4.548,M,40.592,M,2.3,0123*54
$GPVTG,171.15,T,-468.75,M,004.501,N,008.337,K,D*0F
$GPGGA,091548.80,5702.8860448,N,00949.6637450,E,2,4,4.2,-4.560,M,40.592,M,2.3,0123*54
$GPVTG,172.97,T,-466.93,M,004.542,N,008.412,K,D*07
$GPGGA,091548.85,5702.8859857,N,00949.6637551,E,2,4,4.2,-4.545,M,40.592,M,2.6,0123*5B
$GPVTG,174.28,T,-465.62,M,004.564,N,008.453,K,D*09
$GPGGA,091548.90,5702.8859200,N,00949.6637682,E,2,4,4.2,-4.545,M,40.592,M,2.6,0123*5A
$GPVTG,174.97,T,-464.93,M,004.621,N,008.558,K,D*0A
$GPGGA,091548.95,5702.8858537,N,00949.6637738,E,2,4,4.2,-4.548,M,40.592,M,2.6,0123*50
$GPVTG,176.38,T,-463.52,M,004.673,N,008.654,K,D*0F
$GPGGA,091549.00,5702.8857924,N,00949.6637817,E,2,4,4.2,-4.552,M,40.592,M,2.6,0123*55
$GPVTG,177.15,T,-462.75,M,004.679,N,008.665,K,D*0D
$GPGGA,091549.05,5702.8857433,N,00949.6637835,E,2,4,4.2,-4.560,M,40.592,M,2.8,0123*54
$GPVTG,178.21,T,-461.69,M,004.668,N,008.644,K,D*08
$GPGGA,091549.10,5702.8856807,N,00949.6637861,E,2,4,4.2,-4.563,M,40.592,M,2.8,0123*58
$GPVTG,179.17,T,-460.73,M,004.682,N,008.671,K,D*04
$GPGGA,091549.15,5702.8856210,N,00949.6637896,E,2,4,4.2,-4.564,M,40.592,M,2.8,0123*5E
$GPVTG,179.76,T,-460.14,M,004.669,N,008.647,K,D*02
$GPGGA,091549.20,5702.8855561,N,00949.6637898,E,2,4,4.2,-4.567,M,40.592,M,2.8,0123*57
$GPVTG,180.56,T,-459.34,M,004.701,N,008.707,K,D*04
$GPGGA,091549.25,5702.8855015,N,00949.6637885,E,2,4,4.2,-4.567,M,40.592,M,3.0,0123*51
$GPVTG,181.21,T,-458.69,M,004.698,N,008.701,K,D*0B
$GPGGA,091549.30,5702.8854382,N,00949.6637844,E,2,4,4.2,-4.570,M,40.592,M,3.0,0123*52
$GPVTG,182.14,T,-457.76,M,004.713,N,008.729,K,D*07
$GPGGA,091549.35,5702.8853724,N,00949.6637783,E,2,4,4.2,-4.579,M,40.592,M,3.0,0123*55
$GPVTG,183.06,T,-456.84,M,004.749,N,008.795,K,D*01
$GPGGA,091549.40,5702.8853090,N,00949.6637733,E,2,4,4.2,-4.586,M,40.592,M,3.0,0123*54
$GPVTG,183.63,T,-456.27,M,004.760,N,008.816,K,D*04
$GPGGA,091549.45,5702.8852372,N,00949.6637576,E,2,4,4.2,-4.567,M,40.592,M,3.2,0123*51
$GPVTG,185.40,T,-454.50,M,004.823,N,008.933,K,D*0F
$GPGGA,091549.50,5702.8851733,N,00949.6637505,E,2,4,4.2,-4.568,M,40.592,M,3.2,0123*5C
$GPVTG,185.67,T,-454.23,M,004.830,N,008.945,K,D*0D
$GPGGA,091549.55,5702.8851088,N,00949.6637451,E,2,4,4.2,-4.568,M,40.592,M,3.2,0123*5E
$GPVTG,185.58,T,-454.32,M,004.837,N,008.959,K,D*0B
$GPGGA,091549.60,5702.8850435,N,00949.6637300,E,2,4,4.2,-4.567,M,40.592,M,3.2,0123*57
$GPVTG,186.57,T,-453.33,M,004.860,N,009.000,K,D*07
$GPGGA,091549.65,5702.8849875,N,00949.6637026,E,2,4,4.2,-4.573,M,40.592,M,3.4,0123*56
$GPVTG,188.64,T,-451.26,M,004.891,N,009.059,K,D*0D
$GPGGA,091549.70,5702.8849248,N,00949.6636898,E,2,4,4.2,-4.578,M,40.592,M,3.4,0123*51
$GPVTG,188.76,T,-451.14,M,004.878,N,009.035,K,D*02
$GPGGA,091549.75,5702.8848588,N,00949.6636669,E,2,4,4.2,-4.580,M,40.592,M,3.4,0123*59
$GPVTG,189.91,T,-449.99,M,004.908,N,009.090,K,D*0F
$GPGGA,091549.80,5702.8847931,N,00949.6636435,E,2,4,4.2,-4.584,M,40.592,M,3.4,0123*5D
$GPVTG,190.86,T,-449.04,M,004.933,N,009.136,K,D*00
$GPGGA,091549.85,5702.8847275,N,00949.6636156,E,2,4,4.2,-4.566,M,40.592,M,3.6,0123*5D
$GPVTG,192.12,T,-447.78,M,004.960,N,009.185,K,D*04
$GPGGA,091549.90,5702.8846588,N,00949.6635881,E,2,4,4.2,-4.570,M,40.592,M,3.6,0123*5A
$GPVTG,192.94,T,-446.96,M,005.008,N,009.275,K,D*01
$GPGGA,091549.95,5702.8845955,N,00949.6635647,E,2,4,4.2,-4.571,M,40.592,M,3.6,0123*55
$GPVTG,193.18,T,-446.72,M,004.994,N,009.249,K,D*0C
$GPGGA,091550.00,5702.8845300,N,00949.6635263,E,2,4,4.2,-4.572,M,40.592,M,3.6,0123*5A
$GPVTG,194.95,T,-444.95,M,005.033,N,009.321,K,D*0F
$GPGGA,091550.05,5702.8844688,N,00949.6634914,E,2,4,4.2,-4.565,M,40.592,M,1.9,0123*5A
$GPVTG,195.89,T,-444.01,M,005.053,N,009.358,K,D*06
$GPGGA,091550.10,5702.8843996,N,00949.6634499,E,2,4,4.2,-4.562,M,40.592,M,1.9,0123*56
$GPVTG,197.28,T,-442.62,M,005.122,N,009.487,K,D*0E
$GPGGA,091550.15,5702.8843317,N,00949.6634134,E,2,4,4.2,-4.562,M,40.592,M,1.9,0123*52
$GPVTG,197.82,T,-442.08,M,005.155,N,009.547,K,D*0F
$GPGGA,091550.20,5702.8842708,N,00949.6633817,E,2,4,4.2,-4.561,M,40.592,M,1.9,0123*53
$GPVTG,197.86,T,-442.04,M,005.107,N,009.459,K,D*0E
$GPGGA,091550.25,5702.8842158,N,00949.6633349,E,2,4,4.2,-4.572,M,40.592,M,2.2,0123*5F
$GPVTG,199.15,T,-440.75,M,005.137,N,009.515,K,D*04
$GPGGA,091550.30,5702.8841491,N,00949.6632945,E,2,4,4.2,-4.575,M,40.592,M,2.2,0123*58
$GPVTG,199.59,T,-440.31,M,005.158,N,009.553,K,D*07
$GPGGA,091550.35,5702.8840820,N,00949.6632462,E,2,4,4.2,-4.576,M,40.592,M,2.2,0123*51
$GPVTG,200.69,T,-439.21,M,005.204,N,009.637,K,D*03
$GPGGA,091550.40,5702.8840185,N,00949.6632013,E,2,4,4.2,-4.578,M,40.592,M,2.2,0123*59
$GPVTG,201.30,T,-438.60,M,005.199,N,009.629,K,D*02
$GPGGA,091550.45,5702.8839564,N,00949.6631434,E,2,4,4.2,-4.571,M,40.592,M,2.4,0123*54
$GPVTG,203.10,T,-436.80,M,005.237,N,009.699,K,D*0E
$GPGGA,091550.50,5702.8838948,N,00949.6630916,E,2,4,4.2,-4.572,M,40.592,M,2.4,0123*5C
$GPVTG,203.98,T,-435.92,M,005.229,N,009.685,K,D*0C
$GPGGA,091550.55,5702.8838301,N,00949.6630448,E,2,4,4.2,-4.572,M,40.592,M,2.4,0123*58
$GPVTG,204.02,T,-435.88,M,005.220,N,009.668,K,D*09
$GPGGA,091550.60,5702.8837655,N,00949.6629935,E,2,4,4.2,-4.575,M,40.592,M,2.4,0123*5D
$GPVTG,204.43,T,-435.47,M,005.226,N,009.679,K,D*09
$GPGGA,091550.65,5702.8837076,N,00949.6629286,E,2,4,4.2,-4.577,M,40.592,M,2.7,0123*5D
$GPVTG,205.84,T,-434.06,M,005.301,N,009.818,K,D*0A
$GPGGA,091550.70,5702.8836436,N,00949.6628660,E,2,4,4.2,-4.581,M,40.592,M,2.7,0123*5C
$GPVTG,206.96,T,-432.94,M,005.337,N,009.883,K,D*00
$GPGGA,091550.75,5702.8835826,N,00949.6628035,E,2,4,4.2,-4.581,M,40.592,M,2.7,0123*51
$GPVTG,207.94,T,-431.96,M,005.338,N,009.887,K,D*09
$GPGGA,091550.80,5702.8835192,N,00949.6627452,E,2,4,4.2,-4.585,M,40.592,M,2.7,0123*53
$GPVTG,208.20,T,-431.70,M,005.332,N,009.874,K,D*07
$GPGGA,091550.85,5702.8834551,N,00949.6626867,E,2,4,4.2,-4.571,M,40.592,M,2.9,0123*52
$GPVTG,208.39,T,-431.51,M,005.317,N,009.848,K,D*04
$GPGGA,091550.90,5702.8833932,N,00949.6626245,E,2,4,4.2,-4.567,M,40.592,M,2.9,0123*55
$GPVTG,208.87,T,-431.03,M,005.311,N,009.837,K,D*08
$GPGGA,091550.95,5702.8833275,N,00949.6625542,E,2,4,4.2,-4.565,M,40.592,M,2.9,0123*59
$GPVTG,209.84,T,-430.06,M,005.368,N,009.942,K,D*03
$GPGGA,091551.00,5702.8832652,N,00949.6624869,E,2,4,4.2,-4.564,M,40.592,M,2.9,0123*50
$GPVTG,210.44,T,-429.46,M,005.376,N,009.957,K,D*00
$GPGGA,091551.05,5702.8832157,N,00949.6624177,E,2,4,4.2,-4.569,M,40.592,M,1.7,0123*51
$GPVTG,211.15,T,-428.75,M,005.347,N,009.902,K,D*06
$GPGGA,091551.10,5702.8831528,N,00949.6623476,E,2,4,4.2,-4.567,M,40.592,M,1.7,0123*57
$GPVTG,211.69,T,-428.21,M,005.364,N,009.935,K,D*09
$GPGGA,091551.15,5702.8830903,N,00949.6622740,E,2,4,4.2,-4.569,M,40.592,M,1.7,0123*5F
$GPVTG,212.43,T,-427.47,M,005.391,N,009.984,K,D*0D
$GPGGA,091551.20,5702.8830292,N,00949.6621995,E,2,4,4.2,-4.573,M,40.592,M,1.7,0123*54
$GPVTG,213.16,T,-426.74,M,005.406,N,010.012,K,D*0A
$GPGGA,091551.25,5702.8829764,N,00949.6621203,E,2,4,4.2,-4.581,M,40.592,M,2.0,0123*58
$GPVTG,214.05,T,-425.85,M,005.427,N,010.050,K,D*07
$GPGGA,091551.30,5702.8829169,N,00949.6620463,E,2,4,4.2,-4.578,M,40.592,M,2.0,0123*50
$GPVTG,214.44,T,-425.46,M,005.412,N,010.023,K,D*0F
$GPGGA,091551.35,5702.8828586,N,00949.6619665,E,2,4,4.2,-4.578,M,40.592,M,2.0,0123*5F
$GPVTG,215.32,T,-424.58,M,005.421,N,010.040,K,D*04
$GPGGA,091551.40,5702.8827980,N,00949.6618789,E,2,4,4.2,-4.581,M,40.592,M,2.0,0123*5C
$GPVTG,216.59,T,-423.31,M,005.486,N,010.160,K,D*0C
$GPGGA,091551.45,5702.8827476,N,00949.6617916,E,2,4,4.2,-4.584,M,40.592,M,2.2,0123*5D
$GPVTG,217.73,T,-422.17,M,005.518,N,010.219,K,D*0B
$GPGGA,091551.50,5702.8826934,N,00949.6617125,E,2,4,4.2,-4.584,M,40.592,M,2.2,0123*5B
$GPVTG,217.97,T,-421.93,M,005.453,N,010.099,K,D*0A
$GPGGA,091551.55,5702.8826326,N,00949.6616271,E,2,4,4.2,-4.582,M,40.592,M,2.2,0123*52
$GPVTG,218.46,T,-421.44,M,005.480,N,010.149,K,D*01
$GPGGA,091551.60,5702.8825745,N,00949.6615411,E,2,4,4.2,-4.582,M,40.592,M,2.2,0123*55
$GPVTG,219.02,T,-420.88,M,005.487,N,010.161,K,D*0C
$GPGGA,091551.65,5702.8825234,N,00949.6614500,E,2,4,4.2,-4.588,M,40.592,M,2.4,0123*5F
$GPVTG,219.89,T,-420.01,M,005.506,N,010.196,K,D*0E
$GPGGA,091551.70,5702.8824710,N,00949.6613597,E,2,4,4.2,-4.588,M,40.592,M,2.4,0123*50
$GPVTG,220.84,T,-419.06,M,005.490,N,010.167,K,D*04
$GPGGA,091551.75,5702.8824197,N,00949.6612734,E,2,4,4.2,-4.589,M,40.592,M,2.4,0123*57
$GPVTG,221.31,T,-418.59,M,005.431,N,010.058,K,D*06
$GPGGA,091551.80,5702.8823625,N,00949.6611754,E,2,4,4.2,-4.590,M,40.592,M,2.4,0123*59
$GPVTG,222.40,T,-417.50,M,005.499,N,010.183,K,D*00
$GPGGA,091551.85,5702.8823131,N,00949.6610726,E,2,4,4.2,-4.588,M,40.592,M,2.7,0123*50
$GPVTG,223.78,T,-416.12,M,005.557,N,010.292,K,D*0D
$GPGGA,091551.90,5702.8822564,N,00949.6609778,E,2,4,4.2,-4.595,M,40.592,M,2.7,0123*5E
$GPVTG,224.10,T,-415.80,M,005.565,N,010.307,K,D*00
$GPGGA,091551.95,5702.8822031,N,00949.6608824,E,2,4,4.2,-4.597,M,40.592,M,2.7,0123*5B
$GPVTG,224.56,T,-415.34,M,005.548,N,010.275,K,D*06
$GPGGA,091552.00,5702.8821475,N,00949.6607823,E,2,4,4.2,-4.594,M,40.592,M,2.7,0123*58
$GPVTG,225.16,T,-414.74,M,005.580,N,010.335,K,D*07
$GPGGA,091552.05,5702.8821027,N,00949.6606809,E,2,4,4.2,-4.601,M,40.592,M,1.6,0123*5A
$GPVTG,226.16,T,-413.74,M,005.579,N,010.332,K,D*02
$GPGGA,091552.10,5702.8820510,N,00949.6605757,E,2,4,4.2,-4.605,M,40.592,M,1.6,0123*5D
$GPVTG,227.10,T,-412.80,M,005.610,N,010.390,K,D*0B
$GPGGA,091552.15,5702.8820013,N,00949.6604687,E,2,4,4.2,-4.607,M,40.592,M,1.6,0123*51
$GPVTG,228.11,T,-411.79,M,005.633,N,010.433,K,D*0F
$GPGGA,091552.20,5702.8819543,N,00949.6603605,E,2,4,4.2,-4.604,M,40.592,M,1.6,0123*53
$GPVTG,229.21,T,-410.69,M,005.640,N,010.446,K,D*0B
$GPGGA,091552.25,5702.8819141,N,00949.6602501,E,2,4,4.2,-4.600,M,40.592,M,1.9,0123*5D
$GPVTG,230.13,T,-409.77,M,005.626,N,010.420,K,D*05
$GPGGA,091552.30,5702.8818659,N,00949.6601415,E,2,4,4.2,-4.599,M,40.592,M,1.9,0123*52
$GPVTG,230.80,T,-409.10,M,005.626,N,010.419,K,D*04
$GPGGA,091552.35,5702.8818146,N,00949.6600311,E,2,4,4.2,-4.597,M,40.592,M,1.9,0123*52
$GPVTG,231.25,T,-408.65,M,005.652,N,010.468,K,D*0C
$GPGGA,091552.40,5702.8817708,N,00949.6599206,E,2,4,4.2,-4.596,M,40.592,M,1.9,0123*56
$GPVTG,232.09,T,-407.81,M,005.627,N,010.421,K,D*0B
$GPGGA,091552.45,5702.8817434,N,00949.6598026,E,2,4,4.2,-4.622,M,40.592,M,2.1,0123*59
$GPVTG,233.56,T,-406.34,M,005.684,N,010.527,K,D*01
$GPGGA,091552.50,5702.8816995,N,00949.6596866,E,2,4,4.2,-4.626,M,40.592,M,2.1,0123*5C
$GPVTG,234.41,T,-405.49,M,005.689,N,010.536,K,D*04
$GPGGA,091552.55,5702.8816576,N,00949.6595703,E,2,4,4.2,-4.631,M,40.592,M,2.1,0123*51
$GPVTG,235.28,T,-404.62,M,005.678,N,010.515,K,D*0D
$GPGGA,091552.60,5702.8816165,N,00949.6594509,E,2,4,4.2,-4.636,M,40.592,M,2.1,0123*5F
$GPVTG,236.25,T,-403.65,M,005.686,N,010.530,K,D*05
$GPGGA,091552.65,5702.8815592,N,00949.6593237,E,2,4,4.2,-4.600,M,40.592,M,2.3,0123*5F
$GPVTG,236.87,T,-403.03,M,005.727,N,010.606,K,D*01
$GPGGA,091552.70,5702.8815154,N,00949.6592058,E,2,4,4.2,-4.597,M,40.592,M,2.3,0123*52
$GPVTG,237.24,T,-402.66,M,005.710,N,010.575,K,D*08
$GPGGA,091552.75,5702.8814705,N,00949.6590779,E,2,4,4.2,-4.592,M,40.592,M,2.3,0123*57
$GPVTG,238.06,T,-401.84,M,005.792,N,010.728,K,D*08
$GPGGA,091552.80,5702.8814292,N,00949.6589542,E,2,4,4.2,-4.586,M,40.592,M,2.3,0123*51
$GPVTG,238.70,T,-401.20,M,005.797,N,010.737,K,D*0C
$GPGGA,091552.85,5702.8814091,N,00949.6588350,E,2,4,4.2,-4.617,M,40.592,M,2.6,0123*5F
$GPVTG,239.30,T,-400.60,M,005.765,N,010.676,K,D*05
$GPGGA,091552.90,5702.8813729,N,00949.6587122,E,2,4,4.2,-4.622,M,40.592,M,2.6,0123*56
$GPVTG,240.04,T,-399.86,M,005.728,N,010.608,K,D*03
$GPGGA,091552.95,5702.8813354,N,00949.6585812,E,2,4,4.2,-4.620,M,40.592,M,2.6,0123*57
$GPVTG,241.04,T,-398.86,M,005.777,N,010.700,K,D*00
$GPGGA,091553.00,5702.8813000,N,00949.6584480,E,2,4,4.2,-4.624,M,40.592,M,2.6,0123*5A
$GPVTG,242.15,T,-397.75,M,005.828,N,010.793,K,D*0F
$GPGGA,091553.05,5702.8812632,N,00949.6583186,E,2,4,4.2,-4.610,M,40.592,M,2.8,0123*54
$GPVTG,242.76,T,-397.14,M,005.787,N,010.718,K,D*04
$GPGGA,091553.10,5702.8812286,N,00949.6581901,E,2,4,4.2,-4.606,M,40.592,M,2.8,0123*59
$GPVTG,243.42,T,-396.48,M,005.768,N,010.683,K,D*08
$GPGGA,091553.15,5702.8811936,N,00949.6580573,E,2,4,4.2,-4.607,M,40.592,M,2.8,0123*56
$GPVTG,244.17,T,-395.73,M,005.794,N,010.730,K,D*0E
$GPGGA,091553.20,5702.8811602,N,00949.6579222,E,2,4,4.2,-4.601,M,40.592,M,2.8,0123*5B
$GPVTG,245.02,T,-394.88,M,005.827,N,010.792,K,D*01
$GPGGA,091553.25,5702.8811435,N,00949.6577880,E,2,4,4.2,-4.619,M,40.592,M,3.0,0123*54
$GPVTG,245.74,T,-394.16,M,005.845,N,010.826,K,D*03
$GPGGA,091553.30,5702.8811161,N,00949.6576485,E,2,4,4.2,-4.621,M,40.592,M,3.0,0123*57
$GPVTG,247.00,T,-392.90,M,005.884,N,010.898,K,D*02
$GPGGA,091553.35,5702.8810855,N,00949.6575115,E,2,4,4.2,-4.624,M,40.592,M,3.0,0123*57
$GPVTG,247.72,T,-392.18,M,005.893,N,010.914,K,D*04
$GPGGA,091553.40,5702.8810600,N,00949.6573741,E,2,4,4.2,-4.624,M,40.592,M,3.0,0123*5A
$GPVTG,248.75,T,-391.15,M,005.883,N,010.896,K,D*08
$GPGGA,091553.45,5702.8810318,N,00949.6572363,E,2,4,4.2,-4.608,M,40.592,M,3.2,0123*5A
$GPVTG,249.47,T,-390.43,M,005.840,N,010.815,K,D*0E
$GPGGA,091553.50,5702.8810016,N,00949.6570981,E,2,4,4.2,-4.607,M,40.592,M,3.2,0123*58
$GPVTG,249.96,T,-389.94,M,005.846,N,010.828,K,D*08
$GPGGA,091553.55,5702.8809740,N,00949.6569554,E,2,4,4.2,-4.606,M,40.592,M,3.2,0123*5C
$GPVTG,250.72,T,-389.18,M,005.888,N,010.905,K,D*02
$GPGGA,091553.60,5702.8809413,N,00949.6568136,E,2,4,4.2,-4.602,M,40.592,M,3.2,0123*5A
$GPVTG,250.96,T,-388.94,M,005.923,N,010.968,K,D*06
$GPGGA,091553.65,5702.8809393,N,00949.6566745,E,2,4,4.2,-4.629,M,40.592,M,3.4,0123*53
$GPVTG,252.17,T,-387.73,M,005.911,N,010.948,K,D*08
$GPGGA,091553.70,5702.8809180,N,00949.6565337,E,2,4,4.2,-4.629,M,40.592,M,3.4,0123*55
$GPVTG,253.00,T,-386.90,M,005.892,N,010.912,K,D*06
$GPGGA,091553.75,5702.8808955,N,00949.6563966,E,2,4,4.2,-4.632,M,40.592,M,3.4,0123*53
$GPVTG,253.55,T,-386.35,M,005.834,N,010.805,K,D*02
$GPGGA,091553.80,5702.8808731,N,00949.6562532,E,2,4,4.2,-4.638,M,40.592,M,3.4,0123*53
$GPVTG,254.25,T,-385.65,M,005.848,N,010.831,K,D*08
$GPGGA,091553.85,5702.8808598,N,00949.6561053,E,2,4,4.2,-4.634,M,40.592,M,3.6,0123*58
$GPVTG,255.03,T,-384.87,M,005.874,N,010.878,K,D*02
$GPGGA,091553.90,5702.8808428,N,00949.6559590,E,2,4,4.2,-4.637,M,40.592,M,3.6,0123*54
$GPVTG,256.01,T,-383.89,M,005.896,N,010.919,K,D*00
$GPGGA,091553.95,5702.8808288,N,00949.6558145,E,2,4,4.2,-4.634,M,40.592,M,3.6,0123*53
$GPVTG,257.05,T,-382.85,M,005.886,N,010.901,K,D*00
$GPGGA,091554.00,5702.8808092,N,00949.6556708,E,2,4,4.2,-4.634,M,40.592,M,3.6,0123*50
$GPVTG,257.57,T,-382.33,M,005.874,N,010.879,K,D*09
$GPGGA,091554.05,5702.8807979,N,00949.6555224,E,2,4,4.2,-4.632,M,40.592,M,1.9,0123*55
$GPVTG,258.34,T,-381.56,M,005.888,N,010.905,K,D*0A
$GPGGA,091554.10,5702.8807867,N,00949.6553781,E,2,4,4.2,-4.635,M,40.592,M,1.9,0123*54
$GPVTG,259.35,T,-380.55,M,005.864,N,010.859,K,D*02
$GPGGA,091554.15,5702.8807739,N,00949.6552303,E,2,4,4.2,-4.636,M,40.592,M,1.9,0123*59
$GPVTG,260.22,T,-379.68,M,005.880,N,010.890,K,D*09
$GPGGA,091554.20,5702.8807614,N,00949.6550871,E,2,4,4.2,-4.634,M,40.592,M,1.9,0123*5F
$GPVTG,260.92,T,-378.98,M,005.840,N,010.815,K,D*0D
$GPGGA,091554.25,5702.8807603,N,00949.6549446,E,2,4,4.2,-4.642,M,40.592,M,2.2,0123*55
$GPVTG,261.55,T,-378.35,M,005.786,N,010.716,K,D*09
$GPGGA,091554.30,5702.8807470,N,00949.6548014,E,2,4,4.2,-4.642,M,40.592,M,2.2,0123*55
$GPVTG,262.06,T,-377.84,M,005.758,N,010.663,K,D*09
$GPGGA,091554.35,5702.8807312,N,00949.6546571,E,2,4,4.2,-4.646,M,40.592,M,2.2,0123*5F
$GPVTG,262.33,T,-377.57,M,005.748,N,010.646,K,D*07
$GPGGA,091554.40,5702.8807208,N,00949.6545215,E,2,4,4.2,-4.651,M,40.592,M,2.2,0123*57
$GPVTG,262.86,T,-377.04,M,005.638,N,010.441,K,D*0C
$GPGGA,091554.45,5702.8806996,N,00949.6543799,E,2,4,4.2,-4.649,M,40.592,M,2.4,0123*57
$GPVTG,263.33,T,-376.57,M,005.601,N,010.372,K,D*09
$GPGGA,091554.50,5702.8806879,N,00949.6542445,E,2,4,4.2,-4.660,M,40.592,M,2.4,0123*5B
$GPVTG,263.66,T,-376.24,M,005.514,N,010.212,K,D*0D
$GPGGA,091554.55,5702.8806732,N,00949.6541105,E,2,4,4.2,-4.667,M,40.592,M,2.4,0123*5B
$GPVTG,263.69,T,-376.21,M,005.431,N,010.059,K,D*0C
$GPGGA,091554.60,5702.8806674,N,00949.6539809,E,2,4,4.2,-4.675,M,40.592,M,2.4,0123*57
$GPVTG,264.39,T,-375.51,M,005.308,N,009.830,K,D*08
$GPGGA,091554.65,5702.8806739,N,00949.6538592,E,2,4,4.2,-4.722,M,40.592,M,2.7,0123*54
$GPVTG,265.11,T,-374.79,M,005.152,N,009.542,K,D*0D
$GPGGA,091554.70,5702.8806690,N,00949.6537312,E,2,4,4.2,-4.733,M,40.592,M,2.7,0123*53
$GPVTG,265.83,T,-374.07,M,005.066,N,009.382,K,D*03
$GPGGA,091554.75,5702.8806620,N,00949.6536084,E,2,4,4.2,-4.753,M,40.592,M,2.7,0123*56
$GPVTG,266.26,T,-373.64,M,004.945,N,009.157,K,D*0E
$GPGGA,091554.80,5702.8806619,N,00949.6534860,E,2,4,4.2,-4.773,M,40.592,M,2.7,0123*54
$GPVTG,267.31,T,-372.59,M,004.843,N,008.969,K,D*05
$GPGGA,091554.85,5702.8806587,N,00949.6533657,E,2,4,4.2,-4.793,M,40.592,M,2.9,0123*58
$GPVTG,267.92,T,-371.98,M,004.735,N,008.768,K,D*03
$GPGGA,091554.90,5702.8806639,N,00949.6532514,E,2,4,4.2,-4.805,M,40.592,M,2.9,0123*5F
$GPVTG,269.37,T,-370.53,M,004.596,N,008.512,K,D*00
$GPGGA,091554.95,5702.8806638,N,00949.6531383,E,2,4,4.2,-4.817,M,40.592,M,2.9,0123*53
$GPVTG,270.24,T,-369.66,M,004.479,N,008.295,K,D*0C
$GPGGA,091555.00,5702.8806665,N,00949.6530265,E,2,4,4.2,-4.831,M,40.592,M,2.9,0123*5A
$GPVTG,271.34,T,-368.56,M,004.377,N,008.107,K,D*0F
$GPGGA,091555.05,5702.8806700,N,00949.6529110,E,2,4,4.2,-4.837,M,40.592,M,1.7,0123*5F
$GPVTG,271.95,T,-367.95,M,004.319,N,007.998,K,D*0D
$GPGGA,091555.10,5702.8806687,N,00949.6527998,E,2,4,4.2,-4.851,M,40.592,M,1.7,0123*53
$GPVTG,272.49,T,-367.41,M,004.261,N,007.891,K,D*00
$GPGGA,091555.15,5702.8806754,N,00949.6526911,E,2,4,4.2,-4.860,M,40.592,M,1.7,0123*5B
$GPVTG,273.81,T,-366.09,M,004.199,N,007.776,K,D*0A
$GPGGA,091555.20,5702.8806827,N,00949.6525800,E,2,4,4.2,-4.864,M,40.592,M,1.7,0123*50
$GPVTG,275.07,T,-364.83,M,004.186,N,007.752,K,D*0A
$GPGGA,091555.25,5702.8806883,N,00949.6524705,E,2,4,4.2,-4.866,M,40.592,M,2.0,0123*56
$GPVTG,275.74,T,-364.16,M,004.152,N,007.690,K,D*04
$GPGGA,091555.30,5702.8806928,N,00949.6523686,E,2,4,4.2,-4.873,M,40.592,M,2.0,0123*5B
$GPVTG,276.61,T,-363.29,M,004.064,N,007.527,K,D*03
$GPGGA,091555.35,5702.8806956,N,00949.6522574,E,2,4,4.2,-4.876,M,40.592,M,2.0,0123*5D
$GPVTG,277.03,T,-362.87,M,004.103,N,007.598,K,D*07
$GPGGA,091555.40,5702.8806993,N,00949.6521599,E,2,4,4.2,-4.882,M,40.592,M,2.0,0123*5D
$GPVTG,277.74,T,-362.16,M,003.992,N,007.392,K,D*04
$GPGGA,091555.45,5702.8807152,N,00949.6520580,E,2,4,4.2,-4.899,M,40.592,M,2.2,0123*5D
$GPVTG,278.55,T,-361.35,M,003.977,N,007.365,K,D*09
$GPGGA,091555.50,5702.8807261,N,00949.6519505,E,2,4,4.2,-4.908,M,40.592,M,2.2,0123*54
$GPVTG,279.62,T,-360.28,M,004.024,N,007.453,K,D*0B
$GPGGA,091555.55,5702.8807355,N,00949.6518548,E,2,4,4.2,-4.914,M,40.592,M,2.2,0123*52
$GPVTG,280.72,T,-359.18,M,003.939,N,007.295,K,D*0B
$GPGGA,091555.60,5702.8807412,N,00949.6517541,E,2,4,4.2,-4.919,M,40.592,M,2.2,0123*5B
$GPVTG,281.12,T,-358.78,M,003.924,N,007.267,K,D*0A
$GPGGA,091555.65,5702.8807559,N,00949.6516524,E,2,4,4.2,-4.919,M,40.592,M,2.4,0123*54
$GPVTG,281.94,T,-357.96,M,003.925,N,007.269,K,D*04
$GPGGA,091555.70,5702.8807674,N,00949.6515536,E,2,4,4.2,-4.921,M,40.592,M,2.4,0123*57
$GPVTG,282.87,T,-357.03,M,003.914,N,007.250,K,D*01
$GPGGA,091555.75,5702.8807804,N,00949.6514545,E,2,4,4.2,-4.922,M,40.592,M,2.4,0123*5D
$GPVTG,283.83,T,-356.07,M,003.920,N,007.260,K,D*05
$GPGGA,091555.80,5702.8807913,N,00949.6513593,E,2,4,4.2,-4.925,M,40.592,M,2.4,0123*5B
$GPVTG,284.57,T,-355.33,M,003.882,N,007.189,K,D*02
$GPGGA,091555.85,5702.8808211,N,00949.6512699,E,2,4,4.2,-4.934,M,40.592,M,2.7,0123*53
$GPVTG,286.06,T,-353.84,M,003.810,N,007.056,K,D*06
$GPGGA,091555.90,5702.8808362,N,00949.6511757,E,2,4,4.2,-4.936,M,40.592,M,2.7,0123*50
$GPVTG,287.06,T,-352.84,M,003.802,N,007.042,K,D*00
$GPGGA,091555.95,5702.8808509,N,00949.6510793,E,2,4,4.2,-4.938,M,40.592,M,2.7,0123*59
$GPVTG,287.76,T,-352.14,M,003.825,N,007.084,K,D*01
$GPGGA,091556.00,5702.8808656,N,00949.6509878,E,2,4,4.2,-4.939,M,40.592,M,2.7,0123*5C
$GPVTG,288.61,T,-351.29,M,003.797,N,007.032,K,D*0E
$GPGGA,091556.05,5702.8808713,N,00949.6508885,E,2,4,4.2,-4.901,M,40.592,M,1.6,0123*53
$GPVTG,288.13,T,-351.77,M,003.809,N,007.055,K,D*09
$GPGGA,091556.10,5702.8808871,N,00949.6507980,E,2,4,4.2,-4.894,M,40.592,M,1.6,0123*5A
$GPVTG,288.89,T,-351.01,M,003.779,N,006.999,K,D*0B
$GPGGA,091556.15,5702.8809009,N,00949.6507015,E,2,4,4.2,-4.889,M,40.592,M,1.6,0123*50
$GPVTG,288.74,T,-351.16,M,003.823,N,007.080,K,D*0F
$GPGGA,091556.20,5702.8809156,N,00949.6506073,E,2,4,4.2,-4.884,M,40.592,M,1.6,0123*51
$GPVTG,288.95,T,-350.95,M,003.839,N,007.110,K,D*09
$GPGGA,091556.25,5702.8809063,N,00949.6505135,E,2,4,4.2,-4.870,M,40.592,M,1.9,0123*57
$GPVTG,287.51,T,-352.39,M,003.842,N,007.116,K,D*00
$GPGGA,091556.30,5702.8809207,N,00949.6504221,E,2,4,4.2,-4.868,M,40.592,M,1.9,0123*5D
$GPVTG,287.86,T,-352.04,M,003.820,N,007.074,K,D*05
$GPGGA,091556.35,5702.8809352,N,00949.6503309,E,2,4,4.2,-4.864,M,40.592,M,1.9,0123*59
$GPVTG,288.22,T,-351.68,M,003.801,N,007.040,K,D*09
$GPGGA,091556.40,5702.8809520,N,00949.6502406,E,2,4,4.2,-4.854,M,40.592,M,1.9,0123*52
$GPVTG,288.89,T,-351.01,M,003.786,N,007.011,K,D*03
$GPGGA,091556.45,5702.8809560,N,00949.6501531,E,2,4,4.2,-4.865,M,40.592,M,2.1,0123*5C
$GPVTG,287.94,T,-351.96,M,003.772,N,006.986,K,D*03
$GPGGA,091556.50,5702.8809711,N,00949.6500583,E,2,4,4.2,-4.863,M,40.592,M,2.1,0123*52
$GPVTG,288.00,T,-351.90,M,003.810,N,007.056,K,D*09
$GPGGA,091556.55,5702.8809880,N,00949.6499696,E,2,4,4.2,-4.867,M,40.592,M,2.1,0123*52
$GPVTG,288.68,T,-351.22,M,003.776,N,006.993,K,D*00
$GPGGA,091556.60,5702.8810031,N,00949.6498805,E,2,4,4.2,-4.868,M,40.592,M,2.1,0123*54
$GPVTG,288.99,T,-350.91,M,003.749,N,006.944,K,D*01
$GPGGA,091556.65,5702.8810088,N,00949.6497943,E,2,4,4.2,-4.874,M,40.592,M,2.3,0123*50
$GPVTG,288.47,T,-351.43,M,003.694,N,006.841,K,D*09
$GPGGA,091556.70,5702.8810248,N,00949.6497073,E,2,4,4.2,-4.874,M,40.592,M,2.3,0123*50
$GPVTG,288.95,T,-350.95,M,003.660,N,006.778,K,D*02
$GPGGA,091556.75,5702.8810411,N,00949.6496183,E,2,4,4.2,-4.876,M,40.592,M,2.3,0123*52
$GPVTG,289.24,T,-350.66,M,003.659,N,006.776,K,D*01
$GPGGA,091556.80,5702.8810572,N,00949.6495294,E,2,4,4.2,-4.881,M,40.592,M,2.3,0123*52
$GPVTG,289.47,T,-350.43,M,003.660,N,006.779,K,D*06
$GPGGA,091556.85,5702.8810554,N,00949.6494426,E,2,4,4.2,-4.866,M,40.592,M,2.6,0123*51
$GPVTG,288.93,T,-350.97,M,003.580,N,006.630,K,D*06
$GPGGA,091556.90,5702.8810700,N,00949.6493540,E,2,4,4.2,-4.865,M,40.592,M,2.6,0123*53
$GPVTG,288.83,T,-351.07,M,003.588,N,006.646,K,D*06
$GPGGA,091556.95,5702.8810849,N,00949.6492668,E,2,4,4.2,-4.862,M,40.592,M,2.6,0123*5B
$GPVTG,288.88,T,-351.02,M,003.583,N,006.636,K,D*04
$GPGGA,091557.00,5702.8811005,N,00949.6491829,E,2,4,4.2,-4.860,M,40.592,M,2.6,0123*5D
$GPVTG,289.20,T,-350.70,M,003.546,N,006.567,K,D*0D
$GPGGA,091557.05,5702.8810857,N,00949.6491030,E,2,4,4.2,-4.844,M,40.592,M,2.8,0123*5E
$GPVTG,287.92,T,-351.98,M,003.431,N,006.355,K,D*0B
$GPGGA,091557.10,5702.8810998,N,00949.6490179,E,2,4,4.2,-4.841,M,40.592,M,2.8,0123*50
$GPVTG,287.86,T,-352.04,M,003.431,N,006.355,K,D*08
$GPGGA,091557.15,5702.8811128,N,00949.6489343,E,2,4,4.2,-4.839,M,40.592,M,2.8,0123*5B
$GPVTG,287.71,T,-352.19,M,003.412,N,006.319,K,D*05
$GPGGA,091557.20,5702.8811261,N,00949.6488534,E,2,4,4.2,-4.837,M,40.592,M,2.8,0123*5A
$GPVTG,287.78,T,-352.12,M,003.369,N,006.240,K,D*01
$GPGGA,091557.25,5702.8811342,N,00949.6487842,E,2,4,4.2,-4.873,M,40.592,M,3.0,0123*55
$GPVTG,287.33,T,-352.57,M,003.264,N,006.045,K,D*04
$GPGGA,091557.30,5702.8811474,N,00949.6487051,E,2,4,4.2,-4.877,M,40.592,M,3.0,0123*5D
$GPVTG,287.38,T,-352.52,M,003.231,N,005.984,K,D*0D
$GPGGA,091557.35,5702.8811614,N,00949.6486285,E,2,4,4.2,-4.884,M,40.592,M,3.0,0123*5A
$GPVTG,287.69,T,-352.21,M,003.181,N,005.891,K,D*00
$GPGGA,091557.40,5702.8811744,N,00949.6485473,E,2,4,4.2,-4.887,M,40.592,M,3.0,0123*53
$GPVTG,287.48,T,-352.42,M,003.194,N,005.916,K,D*0C
$GPGGA,091557.45,5702.8811735,N,00949.6484623,E,2,4,4.2,-4.857,M,40.592,M,3.2,0123*59
$GPVTG,286.41,T,-353.49,M,003.167,N,005.864,K,D*06
$GPGGA,091557.50,5702.8811844,N,00949.6483856,E,2,4,4.2,-4.856,M,40.592,M,3.2,0123*5E
$GPVTG,286.12,T,-353.78,M,003.131,N,005.799,K,D*0C
$GPGGA,091557.55,5702.8811970,N,00949.6483078,E,2,4,4.2,-4.853,M,40.592,M,3.2,0123*5C
$GPVTG,286.08,T,-353.82,M,003.122,N,005.782,K,D*0A
$GPGGA,091557.60,5702.8812079,N,00949.6482327,E,2,4,4.2,-4.856,M,40.592,M,3.2,0123*54
$GPVTG,285.90,T,-354.00,M,003.084,N,005.712,K,D*01
$GPGGA,091557.65,5702.8812017,N,00949.6481623,E,2,4,4.2,-4.860,M,40.592,M,3.4,0123*58
$GPVTG,284.96,T,-354.94,M,003.015,N,005.584,K,D*0E
$GPGGA,091557.70,5702.8812121,N,00949.6480846,E,2,4,4.2,-4.861,M,40.592,M,3.4,0123*55
$GPVTG,284.54,T,-355.36,M,003.030,N,005.611,K,D*01
$GPGGA,091557.75,5702.8812228,N,00949.6480086,E,2,4,4.2,-4.864,M,40.592,M,3.4,0123*5B
$GPVTG,284.32,T,-355.58,M,003.024,N,005.600,K,D*0C
$GPGGA,091557.80,5702.8812331,N,00949.6479363,E,2,4,4.2,-4.865,M,40.592,M,3.4,0123*57
$GPVTG,284.25,T,-355.65,M,002.980,N,005.519,K,D*09
$GPGGA,091557.85,5702.8812443,N,00949.6478635,E,2,4,4.2,-4.860,M,40.592,M,3.6,0123*50
$GPVTG,284.07,T,-355.83,M,002.918,N,005.405,K,D*0C
$GPGGA,091557.90,5702.8812536,N,00949.6477873,E,2,4,4.2,-4.860,M,40.592,M,3.6,0123*54
$GPVTG,283.55,T,-356.35,M,002.941,N,005.447,K,D*08
$GPGGA,091557.95,5702.8812634,N,00949.6477159,E,2,4,4.2,-4.861,M,40.592,M,3.6,0123*50
$GPVTG,283.45,T,-356.45,M,002.906,N,005.383,K,D*02
$GPGGA,091558.00,5702.8812731,N,00949.6476457,E,2,4,4.2,-4.864,M,40.592,M,3.6,0123*58
$GPVTG,283.40,T,-356.50,M,002.867,N,005.309,K,D*07
$GPGGA,091558.05,5702.8812827,N,00949.6475734,E,2,4,4.2,-4.866,M,40.592,M,1.9,0123*5F
$GPVTG,283.07,T,-356.83,M,002.858,N,005.294,K,D*03
$GPGGA,091558.10,5702.8812915,N,00949.6475008,E,2,4,4.2,-4.874,M,40.592,M,1.9,0123*50
$GPVTG,282.72,T,-357.18,M,002.860,N,005.297,K,D*0B
$GPGGA,091558.15,5702.8813005,N,00949.6474330,E,2,4,4.2,-4.875,M,40.592,M,1.9,0123*54
$GPVTG,282.70,T,-357.20,M,002.807,N,005.198,K,D*0F
$GPGGA,091558.20,5702.8813073,N,00949.6473637,E,2,4,4.2,-4.879,M,40.592,M,1.9,0123*5A
$GPVTG,282.21,T,-357.69,M,002.778,N,005.145,K,D*01
$GPGGA,091558.25,5702.8813172,N,00949.6472971,E,2,4,4.2,-4.914,M,40.592,M,2.2,0123*51
