$GPGGA,091404.35,5702.8770554,N,00949.7046132,E,2,4,4.3,-5.139,M,40.592,M,2.2,0123*58
$GPVTG,031.01,T,-608.89,M,004.783,N,008.858,K,D*02
$GPGGA,091404.40,5702.8771118,N,00949.7046820,E,2,4,4.3,-5.137,M,40.592,M,2.2,0123*53
$GPVTG,032.43,T,-607.47,M,004.816,N,008.920,K,D*07
$GPGGA,091404.45,5702.8771629,N,00949.7047498,E,2,4,4.3,-5.138,M,40.592,M,2.4,0123*54
$GPVTG,033.26,T,-606.64,M,004.839,N,008.962,K,D*0E
$GPGGA,091404.50,5702.8772134,N,00949.7048148,E,2,4,4.3,-5.139,M,40.592,M,2.4,0123*5E
$GPVTG,034.11,T,-605.79,M,004.796,N,008.881,K,D*04
$GPGGA,091404.55,5702.8772651,N,00949.7048772,E,2,4,4.3,-5.140,M,40.592,M,2.4,0123*5E
$GPVTG,034.47,T,-605.43,M,004.744,N,008.787,K,D*08
$GPGGA,091404.60,5702.8773149,N,00949.7049489,E,2,4,4.3,-5.141,M,40.592,M,2.4,0123*50
$GPVTG,035.80,T,-604.10,M,004.736,N,008.771,K,D*09
$GPGGA,091404.65,5702.8773586,N,00949.7050210,E,2,4,4.3,-5.130,M,40.592,M,2.7,0123*59
$GPVTG,036.80,T,-603.10,M,004.722,N,008.745,K,D*0F
$GPGGA,091404.70,5702.8774042,N,00949.7050944,E,2,4,4.3,-5.130,M,40.592,M,2.7,0123*5D
$GPVTG,038.14,T,-601.76,M,004.689,N,008.685,K,D*03
$GPGGA,091404.75,5702.8774551,N,00949.7051715,E,2,4,4.3,-5.129,M,40.592,M,2.7,0123*5C
$GPVTG,039.30,T,-600.60,M,004.712,N,008.726,K,D*09
$GPGGA,091404.80,5702.8775015,N,00949.7052454,E,2,4,4.3,-5.127,M,40.592,M,2.7,0123*59
$GPVTG,040.22,T,-599.68,M,004.678,N,008.664,K,D*05
$GPGGA,091404.85,5702.8775447,N,00949.7053174,E,2,4,4.3,-5.132,M,40.592,M,2.9,0123*53
$GPVTG,040.78,T,-599.12,M,004.618,N,008.553,K,D*06
$GPGGA,091404.90,5702.8775929,N,00949.7053919,E,2,4,4.3,-5.137,M,40.592,M,2.9,0123*54
$GPVTG,041.37,T,-598.53,M,004.598,N,008.516,K,D*02
$GPGGA,091404.95,5702.8776399,N,00949.7054766,E,2,4,4.3,-5.139,M,40.592,M,2.9,0123*5C
$GPVTG,042.88,T,-597.02,M,004.641,N,008.596,K,D*01
$GPGGA,091405.00,5702.8776860,N,00949.7055532,E,2,4,4.3,-5.139,M,40.592,M,2.9,0123*5E
$GPVTG,043.43,T,-596.47,M,004.611,N,008.540,K,D*09
$GPGGA,091405.05,5702.8777153,N,00949.7056374,E,2,4,4.3,-5.127,M,40.592,M,1.7,0123*56
$GPVTG,044.82,T,-595.08,M,004.589,N,008.498,K,D*0D
$GPGGA,091405.10,5702.8777583,N,00949.7057197,E,2,4,4.3,-5.127,M,40.592,M,1.7,0123*55
$GPVTG,045.80,T,-594.10,M,004.578,N,008.478,K,D*06
$GPGGA,091405.15,5702.8777999,N,00949.7057998,E,2,4,4.3,-5.126,M,40.592,M,1.7,0123*51
$GPVTG,046.51,T,-593.39,M,004.538,N,008.404,K,D*0A
$GPGGA,091405.20,5702.8778402,N,00949.7058816,E,2,4,4.3,-5.125,M,40.592,M,1.7,0123*5C
$GPVTG,047.36,T,-592.54,M,004.505,N,008.343,K,D*0A
$GPGGA,091405.25,5702.8778637,N,00949.7059714,E,2,4,4.3,-5.109,M,40.592,M,2.0,0123*5B
$GPVTG,049.01,T,-590.89,M,004.492,N,008.319,K,D*02
$GPGGA,091405.30,5702.8779015,N,00949.7060583,E,2,4,4.3,-5.107,M,40.592,M,2.0,0123*50
$GPVTG,050.15,T,-589.75,M,004.479,N,008.295,K,D*04
$GPGGA,091405.35,5702.8779387,N,00949.7061460,E,2,4,4.3,-5.103,M,40.592,M,2.0,0123*54
$GPVTG,051.24,T,-588.66,M,004.467,N,008.273,K,D*03
$GPGGA,091405.40,5702.8779739,N,00949.7062341,E,2,4,4.3,-5.102,M,40.592,M,2.0,0123*51
$GPVTG,052.36,T,-587.54,M,004.445,N,008.232,K,D*08
$GPGGA,091405.45,5702.8780080,N,00949.7063196,E,2,4,4.3,-5.121,M,40.592,M,2.2,0123*5D
$GPVTG,053.31,T,-586.59,M,004.391,N,008.132,K,D*0F
$GPGGA,091405.50,5702.8780427,N,00949.7064084,E,2,4,4.3,-5.123,M,40.592,M,2.2,0123*57
$GPVTG,054.26,T,-585.64,M,004.371,N,008.095,K,D*01
$GPGGA,091405.55,5702.8780802,N,00949.7065014,E,2,4,4.3,-5.127,M,40.592,M,2.2,0123*55
$GPVTG,055.18,T,-584.72,M,004.398,N,008.146,K,D*03
$GPGGA,091405.60,5702.8781181,N,00949.7065878,E,2,4,4.3,-5.129,M,40.592,M,2.2,0123*5C
$GPVTG,055.37,T,-584.53,M,004.362,N,008.079,K,D*05
$GPGGA,091405.65,5702.8781386,N,00949.7066791,E,2,4,4.3,-5.103,M,40.592,M,2.4,0123*59
$GPVTG,056.73,T,-583.17,M,004.319,N,008.000,K,D*03
$GPGGA,091405.70,5702.8781692,N,00949.7067734,E,2,4,4.3,-5.104,M,40.592,M,2.4,0123*54
$GPVTG,057.99,T,-581.91,M,004.328,N,008.015,K,D*0C
$GPGGA,091405.75,5702.8781972,N,00949.7068695,E,2,4,4.3,-5.101,M,40.592,M,2.4,0123*50
$GPVTG,059.44,T,-580.46,M,004.335,N,008.029,K,D*0A
$GPGGA,091405.80,5702.8782288,N,00949.7069629,E,2,4,4.3,-5.099,M,40.592,M,2.4,0123*51
$GPVTG,060.14,T,-579.76,M,004.322,N,008.005,K,D*08
$GPGGA,091405.85,5702.8782541,N,00949.7070579,E,2,4,4.3,-5.109,M,40.592,M,2.7,0123*53
$GPVTG,061.14,T,-578.76,M,004.279,N,007.925,K,D*03
$GPGGA,091405.90,5702.8782855,N,00949.7071546,E,2,4,4.3,-5.107,M,40.592,M,2.7,0123*5C
$GPVTG,061.86,T,-578.04,M,004.298,N,007.959,K,D*09
$GPGGA,091405.95,5702.8783087,N,00949.7072525,E,2,4,4.3,-5.109,M,40.592,M,2.7,0123*57
$GPVTG,063.30,T,-576.60,M,004.292,N,007.949,K,D*01
$GPGGA,091406.00,5702.8783368,N,00949.7073491,E,2,4,4.3,-5.114,M,40.592,M,2.7,0123*59
$GPVTG,064.02,T,-575.88,M,004.287,N,007.939,K,D*01
$GPGGA,091406.05,5702.8783429,N,00949.7074430,E,2,4,4.3,-5.084,M,40.592,M,1.6,0123*58
$GPVTG,065.54,T,-574.36,M,004.284,N,007.934,K,D*09
$GPGGA,091406.10,5702.8783642,N,00949.7075464,E,2,4,4.3,-5.083,M,40.592,M,1.6,0123*54
$GPVTG,067.01,T,-572.89,M,004.310,N,007.983,K,D*09
$GPGGA,091406.15,5702.8783839,N,00949.7076451,E,2,4,4.3,-5.078,M,40.592,M,1.6,0123*52
$GPVTG,068.24,T,-571.66,M,004.286,N,007.938,K,D*0D
$GPGGA,091406.20,5702.8784048,N,00949.7077430,E,2,4,4.3,-5.078,M,40.592,M,1.6,0123*5B
$GPVTG,069.16,T,-570.74,M,004.257,N,007.885,K,D*04
$GPGGA,091406.25,5702.8784326,N,00949.7078467,E,2,4,4.3,-5.093,M,40.592,M,1.9,0123*52
$GPVTG,069.61,T,-570.29,M,004.297,N,007.958,K,D*01
$GPGGA,091406.30,5702.8784503,N,00949.7079437,E,2,4,4.3,-5.094,M,40.592,M,1.9,0123*54
$GPVTG,070.61,T,-569.29,M,004.242,N,007.856,K,D*06
$GPGGA,091406.35,5702.8784644,N,00949.7080418,E,2,4,4.3,-5.093,M,40.592,M,1.9,0123*5D
$GPVTG,071.96,T,-567.94,M,004.191,N,007.762,K,D*02
$GPGGA,091406.40,5702.8784831,N,00949.7081481,E,2,4,4.3,-5.088,M,40.592,M,1.9,0123*58
$GPVTG,073.02,T,-566.88,M,004.238,N,007.848,K,D*06
$GPGGA,091406.45,5702.8785009,N,00949.7082449,E,2,4,4.3,-5.084,M,40.592,M,2.1,0123*5F
$GPVTG,073.92,T,-565.98,M,004.178,N,007.737,K,D*0D
$GPGGA,091406.50,5702.8785119,N,00949.7083476,E,2,4,4.3,-5.086,M,40.592,M,2.1,0123*54
$GPVTG,075.43,T,-564.47,M,004.169,N,007.721,K,D*03
$GPGGA,091406.55,5702.8785269,N,00949.7084466,E,2,4,4.3,-5.087,M,40.592,M,2.1,0123*52
$GPVTG,076.22,T,-563.68,M,004.131,N,007.651,K,D*06
$GPGGA,091406.60,5702.8785430,N,00949.7085492,E,2,4,4.3,-5.088,M,40.592,M,2.1,0123*5B
$GPVTG,076.93,T,-562.97,M,004.137,N,007.661,K,D*08
$GPGGA,091406.65,5702.8785550,N,00949.7086532,E,2,4,4.3,-5.089,M,40.592,M,2.3,0123*52
$GPVTG,077.93,T,-561.97,M,004.150,N,007.686,K,D*02
$GPGGA,091406.70,5702.8785676,N,00949.7087504,E,2,4,4.3,-5.089,M,40.592,M,2.3,0123*55
$GPVTG,078.63,T,-561.27,M,004.089,N,007.573,K,D*05
$GPGGA,091406.75,5702.8785802,N,00949.7088528,E,2,4,4.3,-5.090,M,40.592,M,2.3,0123*54
$GPVTG,079.42,T,-560.48,M,004.089,N,007.573,K,D*0F
$GPGGA,091406.80,5702.8785876,N,00949.7089499,E,2,4,4.3,-5.096,M,40.592,M,2.3,0123*51
$GPVTG,080.55,T,-559.35,M,004.027,N,007.457,K,D*0C
$GPGGA,091406.85,5702.8785879,N,00949.7090552,E,2,4,4.3,-5.081,M,40.592,M,2.6,0123*56
$GPVTG,082.09,T,-557.81,M,004.050,N,007.501,K,D*04
$GPGGA,091406.90,5702.8785964,N,00949.7091597,E,2,4,4.3,-5.081,M,40.592,M,2.6,0123*57
$GPVTG,083.01,T,-556.89,M,004.073,N,007.543,K,D*03
$GPGGA,091406.95,5702.8786047,N,00949.7092719,E,2,4,4.3,-5.083,M,40.592,M,2.6,0123*5C
$GPVTG,083.94,T,-555.96,M,004.171,N,007.724,K,D*02
$GPGGA,091407.00,5702.8786100,N,00949.7093709,E,2,4,4.3,-5.082,M,40.592,M,2.6,0123*52
$GPVTG,084.90,T,-555.00,M,004.116,N,007.622,K,D*08
$GPGGA,091407.05,5702.8786142,N,00949.7094714,E,2,4,4.3,-5.080,M,40.592,M,2.8,0123*56
$GPVTG,085.85,T,-554.05,M,004.078,N,007.552,K,D*04
$GPGGA,091407.10,5702.8786187,N,00949.7095776,E,2,4,4.3,-5.078,M,40.592,M,2.8,0123*59
$GPVTG,086.76,T,-553.14,M,004.109,N,007.609,K,D*06
$GPGGA,091407.15,5702.8786171,N,00949.7096848,E,2,4,4.3,-5.078,M,40.592,M,2.8,0123*54
$GPVTG,088.30,T,-551.60,M,004.142,N,007.671,K,D*0B
$GPGGA,091407.20,5702.8786179,N,00949.7097905,E,2,4,4.3,-5.077,M,40.592,M,2.8,0123*5C
$GPVTG,089.35,T,-550.55,M,004.157,N,007.699,K,D*0A
$GPGGA,091407.25,5702.8786221,N,00949.7098899,E,2,4,4.3,-5.088,M,40.592,M,3.0,0123*55
$GPVTG,090.37,T,-549.53,M,004.109,N,007.611,K,D*05
$GPGGA,091407.30,5702.8786184,N,00949.7099874,E,2,4,4.3,-5.094,M,40.592,M,3.0,0123*52
$GPVTG,091.77,T,-548.13,M,004.042,N,007.486,K,D*07
$GPGGA,091407.35,5702.8786179,N,00949.7100898,E,2,4,4.3,-5.100,M,40.592,M,3.0,0123*5A
$GPVTG,092.61,T,-547.29,M,004.037,N,007.477,K,D*09
$GPGGA,091407.40,5702.8786163,N,00949.7101983,E,2,4,4.3,-5.105,M,40.592,M,3.0,0123*5C
$GPVTG,093.43,T,-546.47,M,004.099,N,007.592,K,D*0F
$GPGGA,091407.45,5702.8786023,N,00949.7103018,E,2,4,4.3,-5.085,M,40.592,M,3.2,0123*5E
$GPVTG,095.00,T,-544.90,M,004.093,N,007.580,K,D*0F
$GPGGA,091407.50,5702.8785947,N,00949.7104028,E,2,4,4.3,-5.084,M,40.592,M,3.2,0123*57
$GPVTG,096.37,T,-543.53,M,004.075,N,007.547,K,D*03
$GPGGA,091407.55,5702.8785872,N,00949.7104980,E,2,4,4.3,-5.080,M,40.592,M,3.2,0123*5A
$GPVTG,097.69,T,-542.21,M,004.002,N,007.411,K,D*0F
$GPGGA,091407.60,5702.8785756,N,00949.7105995,E,2,4,4.3,-5.079,M,40.592,M,3.2,0123*56
$GPVTG,099.25,T,-540.65,M,004.013,N,007.432,K,D*0A
$GPGGA,091407.65,5702.8785761,N,00949.7107032,E,2,4,4.3,-5.091,M,40.592,M,3.4,0123*51
$GPVTG,099.72,T,-540.18,M,004.052,N,007.504,K,D*03
$GPGGA,091407.70,5702.8785688,N,00949.7108081,E,2,4,4.3,-5.097,M,40.592,M,3.4,0123*52
$GPVTG,100.36,T,-539.54,M,004.090,N,007.575,K,D*0C
$GPGGA,091407.75,5702.8785573,N,00949.7109007,E,2,4,4.3,-5.102,M,40.592,M,3.4,0123*52
$GPVTG,101.79,T,-538.11,M,004.003,N,007.414,K,D*0A
$GPGGA,091407.80,5702.8785446,N,00949.7110048,E,2,4,4.3,-5.108,M,40.592,M,3.4,0123*56
$GPVTG,102.83,T,-537.07,M,004.054,N,007.508,K,D*0A
$GPGGA,091407.85,5702.8785321,N,00949.7111146,E,2,4,4.3,-5.095,M,40.592,M,3.6,0123*5C
$GPVTG,103.34,T,-536.56,M,004.151,N,007.687,K,D*02
$GPGGA,091407.90,5702.8785169,N,00949.7112169,E,2,4,4.3,-5.097,M,40.592,M,3.6,0123*5A
$GPVTG,104.51,T,-535.39,M,004.171,N,007.725,K,D*07
$GPGGA,091407.95,5702.8785032,N,00949.7113101,E,2,4,4.3,-5.098,M,40.592,M,3.6,0123*50
$GPVTG,105.72,T,-534.18,M,004.093,N,007.579,K,D*03
$GPGGA,091408.00,5702.8784881,N,00949.7114078,E,2,4,4.3,-5.100,M,40.592,M,3.6,0123*5A
$GPVTG,106.76,T,-533.14,M,004.078,N,007.552,K,D*03
$GPGGA,091408.05,5702.8784771,N,00949.7115005,E,2,4,4.3,-5.101,M,40.592,M,1.9,0123*58
$GPVTG,107.99,T,-531.91,M,004.022,N,007.449,K,D*08
$GPGGA,091408.10,5702.8784632,N,00949.7116011,E,2,4,4.3,-5.104,M,40.592,M,1.9,0123*59
$GPVTG,108.42,T,-531.48,M,004.049,N,007.499,K,D*05
$GPGGA,091408.15,5702.8784433,N,00949.7116973,E,2,4,4.3,-5.108,M,40.592,M,1.9,0123*5E
$GPVTG,109.73,T,-530.17,M,004.049,N,007.499,K,D*0D
$GPGGA,091408.20,5702.8784265,N,00949.7117945,E,2,4,4.3,-5.111,M,40.592,M,1.9,0123*51
$GPVTG,110.43,T,-529.47,M,004.053,N,007.506,K,D*07
$GPGGA,091408.25,5702.8784021,N,00949.7118901,E,2,4,4.3,-5.097,M,40.592,M,2.2,0123*5E
$GPVTG,112.21,T,-527.69,M,004.065,N,007.529,K,D*0B
$GPGGA,091408.30,5702.8783785,N,00949.7119820,E,2,4,4.3,-5.100,M,40.592,M,2.2,0123*58
$GPVTG,113.72,T,-526.18,M,004.047,N,007.494,K,D*0C
$GPGGA,091408.35,5702.8783562,N,00949.7120777,E,2,4,4.3,-5.100,M,40.592,M,2.2,0123*51
$GPVTG,114.64,T,-525.26,M,004.069,N,007.536,K,D*07
$GPGGA,091408.40,5702.8783346,N,00949.7121751,E,2,4,4.3,-5.108,M,40.592,M,2.2,0123*5E
$GPVTG,115.20,T,-524.70,M,004.106,N,007.605,K,D*0F
$GPGGA,091408.45,5702.8783120,N,00949.7122616,E,2,4,4.3,-5.111,M,40.592,M,2.4,0123*56
$GPVTG,116.78,T,-523.12,M,004.043,N,007.488,K,D*05
$GPGGA,091408.50,5702.8782856,N,00949.7123595,E,2,4,4.3,-5.114,M,40.592,M,2.4,0123*57
$GPVTG,117.53,T,-522.37,M,004.115,N,007.621,K,D*08
$GPGGA,091408.55,5702.8782567,N,00949.7124457,E,2,4,4.3,-5.118,M,40.592,M,2.4,0123*59
$GPVTG,119.26,T,-520.64,M,004.081,N,007.558,K,D*01
$GPGGA,091408.60,5702.8782320,N,00949.7125420,E,2,4,4.3,-5.121,M,40.592,M,2.4,0123*51
$GPVTG,119.52,T,-520.38,M,004.134,N,007.657,K,D*08
$GPGGA,091408.65,5702.8782059,N,00949.7126252,E,2,4,4.3,-5.111,M,40.592,M,2.7,0123*59
$GPVTG,121.08,T,-518.82,M,004.069,N,007.536,K,D*0B
$GPGGA,091408.70,5702.8781745,N,00949.7127114,E,2,4,4.3,-5.113,M,40.592,M,2.7,0123*56
$GPVTG,122.55,T,-517.35,M,004.070,N,007.538,K,D*05
$GPGGA,091408.75,5702.8781446,N,00949.7127999,E,2,4,4.3,-5.115,M,40.592,M,2.7,0123*58
$GPVTG,123.44,T,-516.46,M,004.091,N,007.577,K,D*05
$GPGGA,091408.80,5702.8781123,N,00949.7128926,E,2,4,4.3,-5.116,M,40.592,M,2.7,0123*5C
$GPVTG,124.08,T,-515.82,M,004.163,N,007.710,K,D*0E
$GPGGA,091408.85,5702.8780809,N,00949.7129803,E,2,4,4.3,-5.107,M,40.592,M,2.9,0123*50
$GPVTG,125.11,T,-514.79,M,004.194,N,007.767,K,D*0A
$GPGGA,091408.90,5702.8780473,N,00949.7130612,E,2,4,4.3,-5.106,M,40.592,M,2.9,0123*52
$GPVTG,126.73,T,-513.17,M,004.150,N,007.686,K,D*04
$GPGGA,091408.95,5702.8780096,N,00949.7131433,E,2,4,4.3,-5.106,M,40.592,M,2.9,0123*58
$GPVTG,128.33,T,-511.57,M,004.163,N,007.709,K,D*0E
$GPGGA,091409.00,5702.8779734,N,00949.7132270,E,2,4,4.3,-5.104,M,40.592,M,2.9,0123*5C
$GPVTG,129.33,T,-510.57,M,004.189,N,007.759,K,D*0F
$GPGGA,091409.05,5702.8779328,N,00949.7133076,E,2,4,4.3,-5.071,M,40.592,M,1.7,0123*5B
$GPVTG,130.27,T,-509.63,M,004.222,N,007.820,K,D*0E
$GPGGA,091409.10,5702.8778920,N,00949.7133809,E,2,4,4.3,-5.066,M,40.592,M,1.7,0123*5A
$GPVTG,132.43,T,-507.47,M,004.188,N,007.756,K,D*0B
$GPGGA,091409.15,5702.8778523,N,00949.7134523,E,2,4,4.3,-5.064,M,40.592,M,1.7,0123*50
$GPVTG,134.39,T,-505.51,M,004.149,N,007.684,K,D*06
$GPGGA,091409.20,5702.8778123,N,00949.7135368,E,2,4,4.3,-5.059,M,40.592,M,1.7,0123*54
$GPVTG,134.52,T,-505.38,M,004.238,N,007.849,K,D*0E
$GPGGA,091409.25,5702.8777864,N,00949.7136236,E,2,4,4.3,-5.079,M,40.592,M,2.0,0123*5B
$GPVTG,135.10,T,-504.80,M,004.293,N,007.950,K,D*03
$GPGGA,091409.30,5702.8777457,N,00949.7136977,E,2,4,4.3,-5.080,M,40.592,M,2.0,0123*5B
$GPVTG,136.19,T,-503.71,M,004.294,N,007.953,K,D*04
$GPGGA,091409.35,5702.8777048,N,00949.7137757,E,2,4,4.3,-5.078,M,40.592,M,2.0,0123*5E
$GPVTG,136.76,T,-503.14,M,004.325,N,008.010,K,D*04
$GPGGA,091409.40,5702.8776579,N,00949.7138476,E,2,4,4.3,-5.079,M,40.592,M,2.0,0123*54
$GPVTG,138.25,T,-501.65,M,004.353,N,008.062,K,D*0C
$GPGGA,091409.45,5702.8776223,N,00949.7139142,E,2,4,4.3,-5.092,M,40.592,M,2.2,0123*5D
$GPVTG,139.71,T,-500.19,M,004.317,N,007.995,K,D*08
$GPGGA,091409.50,5702.8775823,N,00949.7139880,E,2,4,4.3,-5.097,M,40.592,M,2.2,0123*52
$GPVTG,140.01,T,-499.89,M,004.323,N,008.007,K,D*03
$GPGGA,091409.55,5702.8775379,N,00949.7140544,E,2,4,4.3,-5.099,M,40.592,M,2.2,0123*56
$GPVTG,141.28,T,-498.62,M,004.312,N,007.986,K,D*00
$GPGGA,091409.60,5702.8774951,N,00949.7141245,E,2,4,4.3,-5.101,M,40.592,M,2.2,0123*56
$GPVTG,141.81,T,-498.09,M,004.320,N,008.000,K,D*07
$GPGGA,091409.65,5702.8774560,N,00949.7142001,E,2,4,4.3,-5.090,M,40.592,M,2.4,0123*53
$GPVTG,141.65,T,-498.25,M,004.361,N,008.077,K,D*06
$GPGGA,091409.70,5702.8774059,N,00949.7142605,E,2,4,4.3,-5.088,M,40.592,M,2.4,0123*53
$GPVTG,143.54,T,-496.36,M,004.356,N,008.067,K,D*0F
$GPGGA,091409.75,5702.8773579,N,00949.7143267,E,2,4,4.3,-5.089,M,40.592,M,2.4,0123*56
$GPVTG,144.34,T,-495.56,M,004.380,N,008.112,K,D*03
$GPGGA,091409.80,5702.8773077,N,00949.7143871,E,2,4,4.3,-5.090,M,40.592,M,2.4,0123*52
$GPVTG,145.76,T,-494.14,M,004.387,N,008.124,K,D*01
$GPGGA,091409.85,5702.8772711,N,00949.7144474,E,2,4,4.3,-5.100,M,40.592,M,2.7,0123*54
$GPVTG,146.57,T,-493.33,M,004.355,N,008.066,K,D*0B
$GPGGA,091409.90,5702.8772250,N,00949.7145132,E,2,4,4.3,-5.102,M,40.592,M,2.7,0123*54
$GPVTG,146.70,T,-493.20,M,004.375,N,008.103,K,D*0C
$GPGGA,091409.95,5702.8771718,N,00949.7145759,E,2,4,4.3,-5.108,M,40.592,M,2.7,0123*5A
$GPVTG,147.48,T,-492.42,M,004.426,N,008.197,K,D*0F
$GPGGA,091410.00,5702.8771224,N,00949.7146375,E,2,4,4.3,-5.112,M,40.592,M,2.7,0123*56
$GPVTG,148.00,T,-491.90,M,004.444,N,008.230,K,D*0A
$GPGGA,091410.05,5702.8770803,N,00949.7146866,E,2,4,4.3,-5.115,M,40.592,M,1.6,0123*51
$GPVTG,149.92,T,-489.98,M,004.402,N,008.153,K,D*05
$GPGGA,091410.10,5702.8770243,N,00949.7147432,E,2,4,4.3,-5.114,M,40.592,M,1.6,0123*56
$GPVTG,150.91,T,-488.99,M,004.450,N,008.242,K,D*0A
$GPGGA,091410.15,5702.8769726,N,00949.7147942,E,2,4,4.3,-5.117,M,40.592,M,1.6,0123*54
$GPVTG,152.11,T,-487.79,M,004.442,N,008.226,K,D*00
$GPGGA,091410.20,5702.8769221,N,00949.7148487,E,2,4,4.3,-5.118,M,40.592,M,1.6,0123*54
$GPVTG,152.61,T,-487.29,M,004.445,N,008.233,K,D*01
$GPGGA,091410.25,5702.8768800,N,00949.7149012,E,2,4,4.3,-5.124,M,40.592,M,1.9,0123*50
$GPVTG,153.18,T,-486.72,M,004.438,N,008.219,K,D*03
$GPGGA,091410.30,5702.8768227,N,00949.7149414,E,2,4,4.3,-5.129,M,40.592,M,1.9,0123*54
$GPVTG,155.35,T,-484.55,M,004.433,N,008.210,K,D*0F
$GPGGA,091410.35,5702.8767685,N,00949.7149915,E,2,4,4.3,-5.134,M,40.592,M,1.9,0123*52
$GPVTG,155.85,T,-484.05,M,004.456,N,008.252,K,D*04
$GPGGA,091410.40,5702.8767127,N,00949.7150410,E,2,4,4.3,-5.141,M,40.592,M,1.9,0123*5D
$GPVTG,156.33,T,-483.57,M,004.488,N,008.312,K,D*0C
$GPGGA,091410.45,5702.8766559,N,00949.7150829,E,2,4,4.3,-5.125,M,40.592,M,2.1,0123*5B
$GPVTG,157.79,T,-482.11,M,004.479,N,008.296,K,D*03
$GPGGA,091410.50,5702.8766003,N,00949.7151234,E,2,4,4.3,-5.127,M,40.592,M,2.1,0123*50
$GPVTG,158.90,T,-481.00,M,004.480,N,008.297,K,D*0F
$GPGGA,091410.55,5702.8765463,N,00949.7151685,E,2,4,4.3,-5.132,M,40.592,M,2.1,0123*5E
$GPVTG,159.14,T,-480.76,M,004.488,N,008.313,K,D*07
$GPGGA,091410.60,5702.8764857,N,00949.7152097,E,2,4,4.3,-5.135,M,40.592,M,2.1,0123*53
$GPVTG,159.97,T,-479.93,M,004.533,N,008.396,K,D*0D
$GPGGA,091410.65,5702.8764255,N,00949.7152478,E,2,4,4.3,-5.125,M,40.592,M,2.3,0123*58
$GPVTG,161.16,T,-478.74,M,004.553,N,008.432,K,D*08
$GPGGA,091410.70,5702.8763683,N,00949.7152850,E,2,4,4.3,-5.123,M,40.592,M,2.3,0123*54
$GPVTG,161.91,T,-477.99,M,004.559,N,008.443,K,D*07
$GPGGA,091410.75,5702.8763073,N,00949.7153125,E,2,4,4.3,-5.121,M,40.592,M,2.3,0123*50
$GPVTG,163.75,T,-476.15,M,004.568,N,008.460,K,D*09
$GPGGA,091410.80,5702.8762463,N,00949.7153393,E,2,4,4.3,-5.121,M,40.592,M,2.3,0123*51
$GPVTG,165.34,T,-474.56,M,004.581,N,008.485,K,D*03
$GPGGA,091410.85,5702.8761862,N,00949.7153742,E,2,4,4.3,-5.110,M,40.592,M,2.6,0123*55
$GPVTG,165.76,T,-474.14,M,004.606,N,008.531,K,D*01
$GPGGA,091410.90,5702.8761235,N,00949.7154069,E,2,4,4.3,-5.118,M,40.592,M,2.6,0123*58
$GPVTG,166.18,T,-473.72,M,004.650,N,008.613,K,D*0D
$GPGGA,091410.95,5702.8760592,N,00949.7154361,E,2,4,4.3,-5.123,M,40.592,M,2.6,0123*55
$GPVTG,166.88,T,-473.02,M,004.697,N,008.699,K,D*0A
$GPGGA,091411.00,5702.8759999,N,00949.7154672,E,2,4,4.3,-5.127,M,40.592,M,2.6,0123*56
$GPVTG,167.06,T,-472.84,M,004.704,N,008.713,K,D*0A
$GPGGA,091411.05,5702.8759283,N,00949.7154877,E,2,4,4.3,-5.110,M,40.592,M,2.8,0123*52
$GPVTG,168.93,T,-470.97,M,004.737,N,008.773,K,D*0F
$GPGGA,091411.10,5702.8758667,N,00949.7155058,E,2,4,4.3,-5.107,M,40.592,M,2.8,0123*5B
$GPVTG,170.26,T,-469.64,M,004.736,N,008.772,K,D*0C
$GPGGA,091411.15,5702.8758075,N,00949.7155289,E,2,4,4.3,-5.106,M,40.592,M,2.8,0123*54
$GPVTG,170.67,T,-469.23,M,004.726,N,008.752,K,D*09
$GPGGA,091411.20,5702.8757415,N,00949.7155436,E,2,4,4.3,-5.106,M,40.592,M,2.8,0123*5D
$GPVTG,172.04,T,-467.86,M,004.761,N,008.817,K,D*02
$GPGGA,091411.25,5702.8756801,N,00949.7155531,E,2,4,4.3,-5.104,M,40.592,M,3.0,0123*5D
$GPVTG,173.82,T,-466.08,M,004.809,N,008.906,K,D*0A
$GPGGA,091411.30,5702.8756173,N,00949.7155643,E,2,4,4.3,-5.106,M,40.592,M,3.0,0123*51
$GPVTG,174.90,T,-465.00,M,004.811,N,008.911,K,D*0A
$GPGGA,091411.35,5702.8755544,N,00949.7155793,E,2,4,4.3,-5.110,M,40.592,M,3.0,0123*5C
$GPVTG,175.27,T,-464.63,M,004.819,N,008.924,K,D*0D
$GPGGA,091411.40,5702.8754906,N,00949.7155885,E,2,4,4.3,-5.114,M,40.592,M,3.0,0123*59
$GPVTG,176.18,T,-463.72,M,004.827,N,008.940,K,D*0A
$GPGGA,091411.45,5702.8754224,N,00949.7155958,E,2,4,4.3,-5.095,M,40.592,M,3.2,0123*5C
$GPVTG,177.42,T,-462.48,M,004.818,N,008.922,K,D*04
$GPGGA,091411.50,5702.8753564,N,00949.7156045,E,2,4,4.3,-5.093,M,40.592,M,3.2,0123*5C
$GPVTG,177.86,T,-462.04,M,004.844,N,008.971,K,D*0B
$GPGGA,091411.55,5702.8752943,N,00949.7156175,E,2,4,4.3,-5.093,M,40.592,M,3.2,0123*53
$GPVTG,177.61,T,-462.29,M,004.835,N,008.954,K,D*0C
$GPGGA,091411.60,5702.8752283,N,00949.7156163,E,2,4,4.3,-5.100,M,40.592,M,3.2,0123*5E
$GPVTG,179.01,T,-460.89,M,004.854,N,008.990,K,D*03
$GPGGA,091411.65,5702.8751679,N,00949.7156157,E,2,4,4.3,-5.097,M,40.592,M,3.4,0123*57
$GPVTG,180.21,T,-459.69,M,004.867,N,009.014,K,D*07
$GPGGA,091411.70,5702.8751013,N,00949.7156223,E,2,4,4.3,-5.103,M,40.592,M,3.4,0123*55
$GPVTG,180.12,T,-459.78,M,004.889,N,009.054,K,D*03
$GPGGA,091411.75,5702.8750348,N,00949.7156145,E,2,4,4.3,-5.110,M,40.592,M,3.4,0123*5D
$GPVTG,181.64,T,-458.26,M,004.908,N,009.090,K,D*09
$GPGGA,091411.80,5702.8749668,N,00949.7156078,E,2,4,4.3,-5.114,M,40.592,M,3.4,0123*53
$GPVTG,182.73,T,-457.17,M,004.940,N,009.149,K,D*08
$GPGGA,091411.85,5702.8748877,N,00949.7156106,E,2,4,4.3,-5.079,M,40.592,M,3.6,0123*57
$GPVTG,182.93,T,-456.97,M,004.944,N,009.157,K,D*04
$GPGGA,091411.90,5702.8748214,N,00949.7156014,E,2,4,4.3,-5.081,M,40.592,M,3.6,0123*59
$GPVTG,183.93,T,-455.97,M,004.956,N,009.179,K,D*09
$GPGGA,091411.95,5702.8747547,N,00949.7155929,E,2,4,4.3,-5.081,M,40.592,M,3.6,0123*56
$GPVTG,184.60,T,-455.30,M,004.969,N,009.203,K,D*0D
$GPGGA,091412.00,5702.8746853,N,00949.7155794,E,2,4,4.3,-5.081,M,40.592,M,3.6,0123*58
$GPVTG,185.64,T,-454.26,M,005.008,N,009.275,K,D*00
$GPGGA,091412.05,5702.8746227,N,00949.7155712,E,2,4,4.3,-5.073,M,40.592,M,1.9,0123*5A
$GPVTG,186.03,T,-453.87,M,005.011,N,009.280,K,D*0C
$GPGGA,091412.10,5702.8745540,N,00949.7155514,E,2,4,4.3,-5.072,M,40.592,M,1.9,0123*5E
$GPVTG,187.41,T,-452.49,M,005.044,N,009.342,K,D*07
$GPGGA,091412.15,5702.8744825,N,00949.7155365,E,2,4,4.3,-5.073,M,40.592,M,1.9,0123*55
$GPVTG,187.87,T,-452.03,M,005.092,N,009.431,K,D*0B
$GPGGA,091412.20,5702.8744175,N,00949.7155190,E,2,4,4.3,-5.071,M,40.592,M,1.9,0123*55
$GPVTG,188.57,T,-451.33,M,005.080,N,009.409,K,D*01
$GPGGA,091412.25,5702.8743580,N,00949.7154991,E,2,4,4.3,-5.076,M,40.592,M,2.2,0123*5E
$GPVTG,189.51,T,-450.39,M,005.070,N,009.390,K,D*05
$GPGGA,091412.30,5702.8742893,N,00949.7154766,E,2,4,4.3,-5.077,M,40.592,M,2.2,0123*53
$GPVTG,190.31,T,-449.59,M,005.096,N,009.437,K,D*07
$GPGGA,091412.35,5702.8742214,N,00949.7154509,E,2,4,4.3,-5.080,M,40.592,M,2.2,0123*50
$GPVTG,191.26,T,-448.64,M,005.116,N,009.474,K,D*01
$GPGGA,091412.40,5702.8741530,N,00949.7154213,E,2,4,4.3,-5.082,M,40.592,M,2.2,0123*5E
$GPVTG,192.42,T,-447.48,M,005.144,N,009.527,K,D*01
$GPGGA,091412.45,5702.8740818,N,00949.7153900,E,2,4,4.3,-5.065,M,40.592,M,2.4,0123*5C
$GPVTG,193.75,T,-446.15,M,005.184,N,009.600,K,D*07
$GPGGA,091412.50,5702.8740149,N,00949.7153567,E,2,4,4.3,-5.067,M,40.592,M,2.4,0123*5A
$GPVTG,194.77,T,-445.13,M,005.197,N,009.625,K,D*02
$GPGGA,091412.55,5702.8739485,N,00949.7153233,E,2,4,4.3,-5.065,M,40.592,M,2.4,0123*50
$GPVTG,195.57,T,-444.33,M,005.202,N,009.633,K,D*0A
$GPGGA,091412.60,5702.8738811,N,00949.7152866,E,2,4,4.3,-5.062,M,40.592,M,2.4,0123*5A
$GPVTG,196.49,T,-443.41,M,005.220,N,009.667,K,D*05
$GPGGA,091412.65,5702.8738170,N,00949.7152474,E,2,4,4.3,-5.055,M,40.592,M,2.7,0123*59
$GPVTG,197.59,T,-442.31,M,005.249,N,009.721,K,D*0F
$GPGGA,091412.70,5702.8737501,N,00949.7152048,E,2,4,4.3,-5.057,M,40.592,M,2.7,0123*59
$GPVTG,198.65,T,-441.25,M,005.269,N,009.759,K,D*04
$GPGGA,091412.75,5702.8736856,N,00949.7151631,E,2,4,4.3,-5.062,M,40.592,M,2.7,0123*5F
$GPVTG,199.42,T,-440.48,M,005.261,N,009.743,K,D*09
$GPGGA,091412.80,5702.8736173,N,00949.7151257,E,2,4,4.3,-5.063,M,40.592,M,2.7,0123*5E
$GPVTG,199.42,T,-440.48,M,005.264,N,009.749,K,D*06
$GPGGA,091412.85,5702.8735507,N,00949.7150764,E,2,4,4.3,-5.052,M,40.592,M,2.9,0123*57
$GPVTG,200.89,T,-439.01,M,005.300,N,009.816,K,D*07
$GPGGA,091412.90,5702.8734846,N,00949.7150258,E,2,4,4.3,-5.050,M,40.592,M,2.9,0123*52
$GPVTG,201.93,T,-437.97,M,005.321,N,009.854,K,D*09
$GPGGA,091412.95,5702.8734207,N,00949.7149793,E,2,4,4.3,-5.047,M,40.592,M,2.9,0123*54
$GPVTG,202.38,T,-437.52,M,005.302,N,009.819,K,D*0A
$GPGGA,091413.00,5702.8733551,N,00949.7149360,E,2,4,4.3,-5.048,M,40.592,M,2.9,0123*5D
$GPVTG,202.30,T,-437.60,M,005.279,N,009.777,K,D*09
$GPGGA,091413.05,5702.8732966,N,00949.7148758,E,2,4,4.3,-5.043,M,40.592,M,1.7,0123*59
$GPVTG,204.04,T,-435.86,M,005.329,N,009.869,K,D*06
$GPGGA,091413.10,5702.8732280,N,00949.7148174,E,2,4,4.3,-5.041,M,40.592,M,1.7,0123*54
$GPVTG,204.99,T,-434.91,M,005.380,N,009.964,K,D*0A
$GPGGA,091413.15,5702.8731617,N,00949.7147589,E,2,4,4.3,-5.041,M,40.592,M,1.7,0123*51
$GPVTG,205.79,T,-434.11,M,005.404,N,010.007,K,D*02
$GPGGA,091413.20,5702.8730979,N,00949.7146993,E,2,4,4.3,-5.038,M,40.592,M,1.7,0123*59
$GPVTG,206.59,T,-433.31,M,005.407,N,010.013,K,D*00
$GPGGA,091413.25,5702.8730340,N,00949.7146380,E,2,4,4.3,-5.028,M,40.592,M,2.0,0123*51
$GPVTG,207.53,T,-432.37,M,005.424,N,010.046,K,D*0D
$GPGGA,091413.30,5702.8729726,N,00949.7145828,E,2,4,4.3,-5.027,M,40.592,M,2.0,0123*5C
$GPVTG,207.60,T,-432.30,M,005.375,N,009.954,K,D*0B
$GPGGA,091413.35,5702.8729055,N,00949.7145168,E,2,4,4.3,-5.026,M,40.592,M,2.0,0123*56
$GPVTG,208.40,T,-431.50,M,005.418,N,010.034,K,D*08
$GPGGA,091413.40,5702.8728438,N,00949.7144463,E,2,4,4.3,-5.023,M,40.592,M,2.0,0123*50
$GPVTG,209.64,T,-430.26,M,005.436,N,010.067,K,D*05
$GPGGA,091413.45,5702.8727880,N,00949.7143817,E,2,4,4.3,-5.018,M,40.592,M,2.2,0123*57
$GPVTG,210.27,T,-429.63,M,005.419,N,010.036,K,D*0A
$GPGGA,091413.50,5702.8727247,N,00949.7143220,E,2,4,4.3,-5.017,M,40.592,M,2.2,0123*53
$GPVTG,210.03,T,-429.87,M,005.381,N,009.966,K,D*04
$GPGGA,091413.55,5702.8726626,N,00949.7142454,E,2,4,4.3,-5.020,M,40.592,M,2.2,0123*54
$GPVTG,211.41,T,-428.49,M,005.424,N,010.045,K,D*08
$GPGGA,091413.60,5702.8726000,N,00949.7141717,E,2,4,4.3,-5.019,M,40.592,M,2.2,0123*5D
$GPVTG,212.23,T,-427.67,M,005.444,N,010.082,K,D*01
$GPGGA,091413.65,5702.8725450,N,00949.7140942,E,2,4,4.3,-5.021,M,40.592,M,2.4,0123*58
$GPVTG,213.54,T,-426.36,M,005.460,N,010.113,K,D*0A
$GPGGA,091413.70,5702.8724870,N,00949.7140183,E,2,4,4.3,-5.023,M,40.592,M,2.4,0123*54
$GPVTG,214.35,T,-425.55,M,005.446,N,010.086,K,D*05
$GPGGA,091413.75,5702.8724258,N,00949.7139429,E,2,4,4.3,-5.024,M,40.592,M,2.4,0123*5D
$GPVTG,214.80,T,-425.10,M,005.445,N,010.085,K,D*0A
$GPGGA,091413.80,5702.8723654,N,00949.7138645,E,2,4,4.3,-5.025,M,40.592,M,2.4,0123*50
$GPVTG,215.42,T,-424.48,M,005.450,N,010.094,K,D*0D
$GPGGA,091413.85,5702.8723093,N,00949.7137817,E,2,4,4.3,-5.013,M,40.592,M,2.7,0123*58
$GPVTG,216.67,T,-423.23,M,005.486,N,010.160,K,D*02
$GPGGA,091413.90,5702.8722497,N,00949.7137007,E,2,4,4.3,-5.014,M,40.592,M,2.7,0123*53
$GPVTG,217.11,T,-422.79,M,005.481,N,010.150,K,D*08
$GPGGA,091413.95,5702.8721910,N,00949.7136175,E,2,4,4.3,-5.022,M,40.592,M,2.7,0123*57
$GPVTG,217.70,T,-422.20,M,005.481,N,010.150,K,D*03
$GPGGA,091414.00,5702.8721319,N,00949.7135277,E,2,4,4.3,-5.022,M,40.592,M,2.7,0123*5D
$GPVTG,218.76,T,-421.14,M,005.525,N,010.232,K,D*06
$GPGGA,091414.05,5702.8720694,N,00949.7134436,E,2,4,4.3,-5.002,M,40.592,M,1.6,0123*5B
$GPVTG,219.04,T,-420.86,M,005.520,N,010.223,K,D*0D
$GPGGA,091414.10,5702.8720105,N,00949.7133552,E,2,4,4.3,-5.000,M,40.592,M,1.6,0123*56
$GPVTG,219.63,T,-420.27,M,005.535,N,010.251,K,D*06
$GPGGA,091414.15,5702.8719535,N,00949.7132584,E,2,4,4.3,-4.997,M,40.592,M,1.6,0123*52
$GPVTG,220.91,T,-418.99,M,005.592,N,010.355,K,D*07
$GPGGA,091414.20,5702.8718966,N,00949.7131676,E,2,4,4.3,-4.996,M,40.592,M,1.6,0123*53
$GPVTG,221.40,T,-418.50,M,005.588,N,010.350,K,D*01
$GPGGA,091414.25,5702.8718517,N,00949.7130740,E,2,4,4.3,-4.998,M,40.592,M,1.9,0123*58
$GPVTG,222.51,T,-417.39,M,005.612,N,010.393,K,D*0D
$GPGGA,091414.30,5702.8717972,N,00949.7129815,E,2,4,4.3,-4.997,M,40.592,M,1.9,0123*54
$GPVTG,222.95,T,-416.95,M,005.586,N,010.346,K,D*04
$GPGGA,091414.35,5702.8717416,N,00949.7128785,E,2,4,4.3,-5.000,M,40.592,M,1.9,0123*5F
$GPVTG,224.11,T,-415.79,M,005.648,N,010.460,K,D*0D
$GPGGA,091414.40,5702.8716854,N,00949.7127750,E,2,4,4.3,-5.000,M,40.592,M,1.9,0123*51
$GPVTG,225.02,T,-414.88,M,005.700,N,010.557,K,D*09
$GPGGA,091414.45,5702.8716463,N,00949.7126774,E,2,4,4.3,-5.010,M,40.592,M,2.1,0123*51
$GPVTG,226.09,T,-413.81,M,005.667,N,010.495,K,D*00
$GPGGA,091414.50,5702.8715932,N,00949.7125760,E,2,4,4.3,-5.015,M,40.592,M,2.1,0123*5C
$GPVTG,226.63,T,-413.27,M,005.662,N,010.486,K,D*07
$GPGGA,091414.55,5702.8715468,N,00949.7124765,E,2,4,4.3,-5.014,M,40.592,M,2.1,0123*5E
$GPVTG,227.31,T,-412.59,M,005.595,N,010.361,K,D*0C
$GPGGA,091414.60,5702.8714985,N,00949.7123715,E,2,4,4.3,-5.015,M,40.592,M,2.1,0123*56
$GPVTG,228.20,T,-411.70,M,005.587,N,010.346,K,D*0D
$GPGGA,091414.65,5702.8714417,N,00949.7122549,E,2,4,4.3,-4.971,M,40.592,M,2.3,0123*57
$GPVTG,229.28,T,-410.62,M,005.670,N,010.501,K,D*08
$GPGGA,091414.70,5702.8713892,N,00949.7121434,E,2,4,4.3,-4.968,M,40.592,M,2.3,0123*55
$GPVTG,230.00,T,-409.90,M,005.717,N,010.588,K,D*0E
$GPGGA,091414.75,5702.8713403,N,00949.7120328,E,2,4,4.3,-4.966,M,40.592,M,2.3,0123*51
$GPVTG,230.72,T,-409.18,M,005.723,N,010.598,K,D*0D
$GPGGA,091414.80,5702.8712884,N,00949.7119213,E,2,4,4.3,-4.961,M,40.592,M,2.3,0123*5D
$GPVTG,231.15,T,-408.75,M,005.744,N,010.639,K,D*0E
$GPGGA,091414.85,5702.8712572,N,00949.7118195,E,2,4,4.3,-4.991,M,40.592,M,2.6,0123*5A
$GPVTG,231.84,T,-408.06,M,005.688,N,010.535,K,D*0C
$GPGGA,091414.90,5702.8712148,N,00949.7117022,E,2,4,4.3,-4.997,M,40.592,M,2.6,0123*57
$GPVTG,233.11,T,-406.79,M,005.701,N,010.557,K,D*00
$GPGGA,091414.95,5702.8711740,N,00949.7115871,E,2,4,4.3,-5.005,M,40.592,M,2.6,0123*50
$GPVTG,234.15,T,-405.75,M,005.674,N,010.507,K,D*0A
$GPGGA,091415.00,5702.8711333,N,00949.7114661,E,2,4,4.3,-5.008,M,40.592,M,2.6,0123*5E
$GPVTG,235.44,T,-404.46,M,005.699,N,010.554,K,D*0B
$GPGGA,091415.05,5702.8710908,N,00949.7113487,E,2,4,4.3,-4.991,M,40.592,M,2.8,0123*53
$GPVTG,236.01,T,-403.89,M,005.672,N,010.505,K,D*0C
$GPGGA,091415.10,5702.8710475,N,00949.7112289,E,2,4,4.3,-4.992,M,40.592,M,2.8,0123*5A
$GPVTG,236.72,T,-403.18,M,005.684,N,010.527,K,D*09
$GPGGA,091415.15,5702.8710096,N,00949.7111053,E,2,4,4.3,-4.997,M,40.592,M,2.8,0123*55
$GPVTG,237.92,T,-401.98,M,005.699,N,010.554,K,D*04
$GPGGA,091415.20,5702.8709706,N,00949.7109858,E,2,4,4.3,-5.004,M,40.592,M,2.8,0123*5D
$GPVTG,238.61,T,-401.29,M,005.668,N,010.498,K,D*02
$GPGGA,091415.25,5702.8709266,N,00949.7108633,E,2,4,4.3,-4.986,M,40.592,M,3.0,0123*52
$GPVTG,239.27,T,-400.63,M,005.666,N,010.494,K,D*0C
$GPGGA,091415.30,5702.8708856,N,00949.7107384,E,2,4,4.3,-4.987,M,40.592,M,3.0,0123*59
$GPVTG,239.90,T,-400.00,M,005.690,N,010.537,K,D*04
$GPGGA,091415.35,5702.8708463,N,00949.7106136,E,2,4,4.3,-4.984,M,40.592,M,3.0,0123*5F
$GPVTG,240.54,T,-399.36,M,005.696,N,010.549,K,D*0F
$GPGGA,091415.40,5702.8708122,N,00949.7104833,E,2,4,4.3,-4.984,M,40.592,M,3.0,0123*53
$GPVTG,241.75,T,-398.15,M,005.730,N,010.612,K,D*0D
$GPGGA,091415.45,5702.8707775,N,00949.7103578,E,2,4,4.2,-4.971,M,40.592,M,3.2,0123*51
$GPVTG,242.36,T,-397.54,M,005.719,N,010.591,K,D*00
$GPGGA,091415.50,5702.8707412,N,00949.7102311,E,2,4,4.2,-4.972,M,40.592,M,3.2,0123*5C
$GPVTG,242.92,T,-396.98,M,005.706,N,010.568,K,D*07
$GPGGA,091415.55,5702.8707083,N,00949.7101021,E,2,4,4.2,-4.975,M,40.592,M,3.2,0123*51
$GPVTG,243.79,T,-396.11,M,005.701,N,010.559,K,D*07
$GPGGA,091415.60,5702.8706754,N,00949.7099675,E,2,4,4.2,-4.976,M,40.592,M,3.2,0123*5F
$GPVTG,244.80,T,-395.10,M,005.750,N,010.649,K,D*02
$GPGGA,091415.65,5702.8706480,N,00949.7098385,E,2,4,4.2,-4.981,M,40.592,M,3.4,0123*55
$GPVTG,245.42,T,-394.48,M,005.761,N,010.670,K,D*09
$GPGGA,091415.70,5702.8706166,N,00949.7097063,E,2,4,4.2,-4.982,M,40.592,M,3.4,0123*5B
$GPVTG,246.17,T,-393.73,M,005.758,N,010.664,K,D*0A
$GPGGA,091415.75,5702.8705817,N,00949.7095749,E,2,4,4.2,-4.985,M,40.592,M,3.4,0123*58
$GPVTG,246.49,T,-393.41,M,005.752,N,010.652,K,D*0F
$GPGGA,091415.80,5702.8705503,N,00949.7094427,E,2,4,4.2,-4.985,M,40.592,M,3.4,0123*50
$GPVTG,247.05,T,-392.85,M,005.739,N,010.629,K,D*0E
$GPGGA,091415.85,5702.8705133,N,00949.7093076,E,2,4,4.2,-4.964,M,40.592,M,3.6,0123*58
$GPVTG,247.66,T,-392.24,M,005.752,N,010.652,K,D*01
$GPGGA,091415.90,5702.8704857,N,00949.7091653,E,2,4,4.2,-4.964,M,40.592,M,3.6,0123*55
$GPVTG,248.76,T,-391.14,M,005.826,N,010.790,K,D*0C
$GPGGA,091415.95,5702.8704546,N,00949.7090284,E,2,4,4.2,-4.964,M,40.592,M,3.6,0123*52
$GPVTG,249.20,T,-390.70,M,005.837,N,010.809,K,D*02
$GPGGA,091416.00,5702.8704296,N,00949.7088905,E,2,4,4.2,-4.964,M,40.592,M,3.6,0123*5C
$GPVTG,250.07,T,-389.83,M,005.831,N,010.800,K,D*04
$GPGGA,091416.05,5702.8704019,N,00949.7087506,E,2,4,4.2,-4.947,M,40.592,M,1.9,0123*50
$GPVTG,250.49,T,-389.41,M,005.857,N,010.847,K,D*03
$GPGGA,091416.10,5702.8703727,N,00949.7086089,E,2,4,4.2,-4.942,M,40.592,M,1.9,0123*5F
$GPVTG,250.98,T,-388.92,M,005.892,N,010.911,K,D*0B
$GPGGA,091416.15,5702.8703481,N,00949.7084693,E,2,4,4.2,-4.939,M,40.592,M,1.9,0123*56
$GPVTG,251.64,T,-388.26,M,005.881,N,010.891,K,D*0D
$GPGGA,091416.20,5702.8703254,N,00949.7083294,E,2,4,4.2,-4.937,M,40.592,M,1.9,0123*54
$GPVTG,252.39,T,-387.51,M,005.865,N,010.862,K,D*0F
$GPGGA,091416.25,5702.8703135,N,00949.7081912,E,2,4,4.2,-4.952,M,40.592,M,2.2,0123*59
$GPVTG,253.04,T,-386.86,M,005.886,N,010.900,K,D*03
$GPGGA,091416.30,5702.8702904,N,00949.7080485,E,2,4,4.2,-4.955,M,40.592,M,2.2,0123*53
$GPVTG,253.66,T,-386.24,M,005.891,N,010.909,K,D*00
$GPGGA,091416.35,5702.8702694,N,00949.7079047,E,2,4,4.2,-4.960,M,40.592,M,2.2,0123*5A
$GPVTG,254.39,T,-385.51,M,005.898,N,010.924,K,D*0A
$GPGGA,091416.40,5702.8702473,N,00949.7077625,E,2,4,4.2,-4.961,M,40.592,M,2.2,0123*5E
$GPVTG,254.91,T,-384.99,M,005.885,N,010.898,K,D*07
$GPGGA,091416.45,5702.8702314,N,00949.7076239,E,2,4,4.2,-4.964,M,40.592,M,2.4,0123*56
$GPVTG,255.67,T,-384.23,M,005.843,N,010.821,K,D*06
$GPGGA,091416.50,5702.8702168,N,00949.7074793,E,2,4,4.2,-4.966,M,40.592,M,2.4,0123*5E
$GPVTG,256.71,T,-383.19,M,005.842,N,010.820,K,D*0C
$GPGGA,091416.55,5702.8702014,N,00949.7073289,E,2,4,4.2,-4.969,M,40.592,M,2.4,0123*57
$GPVTG,257.71,T,-382.19,M,005.906,N,010.938,K,D*05
$GPGGA,091416.60,5702.8701852,N,00949.7071833,E,2,4,4.2,-4.973,M,40.592,M,2.4,0123*5A
$GPVTG,258.40,T,-381.50,M,005.904,N,010.934,K,D*08
$GPGGA,091416.65,5702.8701740,N,00949.7070326,E,2,4,4.2,-4.962,M,40.592,M,2.7,0123*5E
$GPVTG,259.18,T,-380.72,M,005.946,N,011.012,K,D*0F
$GPGGA,091416.70,5702.8701589,N,00949.7068862,E,2,4,4.2,-4.960,M,40.592,M,2.7,0123*5D
$GPVTG,259.79,T,-380.11,M,005.937,N,010.995,K,D*0C
$GPGGA,091416.75,5702.8701490,N,00949.7067397,E,2,4,4.2,-4.957,M,40.592,M,2.7,0123*5B
$GPVTG,260.75,T,-379.15,M,005.919,N,010.963,K,D*0D
$GPGGA,091416.80,5702.8701337,N,00949.7065913,E,2,4,4.2,-4.961,M,40.592,M,2.7,0123*5A
$GPVTG,261.21,T,-378.69,M,005.930,N,010.983,K,D*02
$GPGGA,091416.85,5702.8701298,N,00949.7064410,E,2,4,4.2,-4.968,M,40.592,M,2.9,0123*53
$GPVTG,262.13,T,-377.77,M,005.981,N,011.077,K,D*09
$GPGGA,091416.90,5702.8701201,N,00949.7062916,E,2,4,4.2,-4.967,M,40.592,M,2.9,0123*55
$GPVTG,262.87,T,-377.03,M,005.981,N,011.076,K,D*06
$GPGGA,091416.95,5702.8701097,N,00949.7061436,E,2,4,4.2,-4.969,M,40.592,M,2.9,0123*5F
$GPVTG,263.45,T,-376.45,M,005.962,N,011.041,K,D*03
$GPGGA,091417.00,5702.8701068,N,00949.7059880,E,2,4,4.2,-4.971,M,40.592,M,2.9,0123*51
$GPVTG,264.63,T,-375.27,M,006.024,N,011.156,K,D*08
$GPGGA,091417.05,5702.8701016,N,00949.7058376,E,2,4,4.2,-4.962,M,40.592,M,1.7,0123*51
$GPVTG,265.18,T,-374.72,M,006.013,N,011.136,K,D*06
$GPGGA,091417.10,5702.8700972,N,00949.7056866,E,2,4,4.2,-4.962,M,40.592,M,1.7,0123*5B
$GPVTG,266.00,T,-373.90,M,006.011,N,011.131,K,D*02
$GPGGA,091417.15,5702.8700918,N,00949.7055327,E,2,4,4.2,-4.963,M,40.592,M,1.7,0123*5E
$GPVTG,266.68,T,-373.22,M,006.039,N,011.185,K,D*00
$GPGGA,091417.20,5702.8700908,N,00949.7053819,E,2,4,4.2,-4.966,M,40.592,M,1.7,0123*5C
$GPVTG,267.59,T,-372.31,M,006.025,N,011.158,K,D*0D
$GPGGA,091417.25,5702.8700938,N,00949.7052300,E,2,4,4.2,-4.962,M,40.592,M,2.0,0123*58
$GPVTG,268.50,T,-371.40,M,006.035,N,011.176,K,D*03
$GPGGA,091417.30,5702.8700886,N,00949.7050814,E,2,4,4.2,-4.958,M,40.592,M,2.0,0123*5D
$GPVTG,268.93,T,-370.97,M,005.993,N,011.100,K,D*00
$GPGGA,091417.35,5702.8700871,N,00949.7049325,E,2,4,4.2,-4.957,M,40.592,M,2.0,0123*5E
$GPVTG,269.58,T,-370.32,M,005.961,N,011.039,K,D*0F
$GPGGA,091417.40,5702.8700860,N,00949.7047762,E,2,4,4.2,-4.958,M,40.592,M,2.0,0123*5A
$GPVTG,270.19,T,-369.71,M,006.016,N,011.141,K,D*09
$GPGGA,091417.45,5702.8700868,N,00949.7046237,E,2,4,4.2,-4.938,M,40.592,M,2.2,0123*57
$GPVTG,271.02,T,-368.88,M,006.007,N,011.124,K,D*06
$GPGGA,091417.50,5702.8700914,N,00949.7044718,E,2,4,4.2,-4.934,M,40.592,M,2.2,0123*5F
$GPVTG,271.90,T,-368.00,M,006.007,N,011.124,K,D*0D
$GPGGA,091417.55,5702.8700939,N,00949.7043166,E,2,4,4.2,-4.930,M,40.592,M,2.2,0123*59
$GPVTG,272.53,T,-367.37,M,006.043,N,011.192,K,D*07
$GPGGA,091417.60,5702.8701003,N,00949.7041646,E,2,4,4.2,-4.926,M,40.592,M,2.2,0123*5E
$GPVTG,273.39,T,-366.51,M,006.038,N,011.183,K,D*07
$GPGGA,091417.65,5702.8701187,N,00949.7040129,E,2,4,4.2,-4.928,M,40.592,M,2.4,0123*51
$GPVTG,274.04,T,-365.86,M,006.039,N,011.184,K,D*01
$GPGGA,091417.70,5702.8701188,N,00949.7038595,E,2,4,4.2,-4.928,M,40.592,M,2.4,0123*56
$GPVTG,274.27,T,-365.63,M,006.049,N,011.202,K,D*01
$GPGGA,091417.75,5702.8701274,N,00949.7037089,E,2,4,4.2,-4.923,M,40.592,M,2.4,0123*5F
$GPVTG,275.09,T,-364.81,M,006.029,N,011.166,K,D*06
$GPGGA,091417.80,5702.8701400,N,00949.7035603,E,2,4,4.2,-4.918,M,40.592,M,2.4,0123*5E
$GPVTG,276.15,T,-363.75,M,005.994,N,011.101,K,D*09
$GPGGA,091417.85,5702.8701573,N,00949.7034106,E,2,4,4.2,-4.931,M,40.592,M,2.7,0123*55
$GPVTG,276.91,T,-362.99,M,006.020,N,011.148,K,D*0E
$GPGGA,091417.90,5702.8701710,N,00949.7032591,E,2,4,4.2,-4.934,M,40.592,M,2.7,0123*5F
$GPVTG,277.84,T,-362.06,M,006.025,N,011.158,K,D*09
$GPGGA,091417.95,5702.8701841,N,00949.7031096,E,2,4,4.2,-4.937,M,40.592,M,2.7,0123*53
$GPVTG,278.68,T,-361.22,M,006.010,N,011.130,K,D*09
$GPGGA,091418.00,5702.8701987,N,00949.7029556,E,2,4,4.2,-4.941,M,40.592,M,2.7,0123*5A
$GPVTG,279.46,T,-360.44,M,006.049,N,011.203,K,D*0A
$GPGGA,091418.05,5702.8702159,N,00949.7028090,E,2,4,4.2,-4.940,M,40.592,M,1.6,0123*5A
$GPVTG,280.14,T,-359.76,M,006.002,N,011.116,K,D*08
$GPGGA,091418.10,5702.8702315,N,00949.7026585,E,2,4,4.2,-4.939,M,40.592,M,1.6,0123*55
$GPVTG,280.90,T,-359.00,M,006.012,N,011.134,K,D*04
$GPGGA,091418.15,5702.8702480,N,00949.7025147,E,2,4,4.2,-4.938,M,40.592,M,1.6,0123*53
$GPVTG,281.77,T,-358.13,M,005.948,N,011.016,K,D*0B
$GPGGA,091418.20,5702.8702627,N,00949.7023593,E,2,4,4.2,-4.938,M,40.592,M,1.6,0123*51
$GPVTG,282.16,T,-357.74,M,006.024,N,011.157,K,D*05
$GPGGA,091418.25,5702.8702758,N,00949.7022124,E,2,4,4.2,-4.921,M,40.592,M,1.9,0123*53
$GPVTG,282.87,T,-357.03,M,005.985,N,011.085,K,D*02
$GPGGA,091418.30,5702.8702984,N,00949.7020638,E,2,4,4.2,-4.924,M,40.592,M,1.9,0123*55
$GPVTG,283.86,T,-356.04,M,006.000,N,011.113,K,D*0D
$GPGGA,091418.35,5702.8703224,N,00949.7019185,E,2,4,4.2,-4.922,M,40.592,M,1.9,0123*5D
$GPVTG,284.93,T,-354.97,M,005.984,N,011.082,K,D*09
$GPGGA,091418.40,5702.8703425,N,00949.7017692,E,2,4,4.2,-4.921,M,40.592,M,1.9,0123*54
$GPVTG,285.49,T,-354.41,M,006.010,N,011.131,K,D*0A
$GPGGA,091418.45,5702.8703748,N,00949.7016266,E,2,4,4.2,-4.915,M,40.592,M,2.1,0123*5B
$GPVTG,286.78,T,-353.12,M,005.973,N,011.063,K,D*03
$GPGGA,091418.50,5702.8703956,N,00949.7014791,E,2,4,4.2,-4.917,M,40.592,M,2.1,0123*53
$GPVTG,287.21,T,-352.69,M,005.992,N,011.097,K,D*07
$GPGGA,091418.55,5702.8704216,N,00949.7013328,E,2,4,4.2,-4.917,M,40.592,M,2.1,0123*5F
$GPVTG,288.00,T,-351.90,M,006.012,N,011.134,K,D*04
$GPGGA,091418.60,5702.8704460,N,00949.7011863,E,2,4,4.2,-4.914,M,40.592,M,2.1,0123*5B
$GPVTG,288.57,T,-351.33,M,006.029,N,011.166,K,D*00
$GPGGA,091418.65,5702.8704771,N,00949.7010444,E,2,4,4.2,-4.920,M,40.592,M,2.3,0123*50
$GPVTG,289.26,T,-350.64,M,006.010,N,011.130,K,D*0D
$GPGGA,091418.70,5702.8705045,N,00949.7009080,E,2,4,4.2,-4.919,M,40.592,M,2.3,0123*5B
$GPVTG,290.25,T,-349.65,M,005.935,N,010.992,K,D*03
$GPGGA,091418.75,5702.8705342,N,00949.7007657,E,2,4,4.2,-4.913,M,40.592,M,2.3,0123*52
$GPVTG,291.05,T,-348.85,M,005.947,N,011.013,K,D*0B
$GPGGA,091418.80,5702.8705646,N,00949.7006246,E,2,4,4.2,-4.913,M,40.592,M,2.3,0123*5C
$GPVTG,291.85,T,-348.05,M,005.950,N,011.020,K,D*0D
$GPGGA,091418.85,5702.8705846,N,00949.7004793,E,2,4,4.2,-4.893,M,40.592,M,2.6,0123*54
$GPVTG,291.97,T,-347.93,M,005.971,N,011.057,K,D*0D
$GPGGA,091418.90,5702.8706143,N,00949.7003376,E,2,4,4.2,-4.890,M,40.592,M,2.6,0123*54
$GPVTG,292.53,T,-347.37,M,005.984,N,011.083,K,D*0B
$GPGGA,091418.95,5702.8706450,N,00949.7001998,E,2,4,4.2,-4.888,M,40.592,M,2.6,0123*57
$GPVTG,293.24,T,-346.66,M,005.963,N,011.044,K,D*0D
$GPGGA,091419.00,5702.8706728,N,00949.7000667,E,2,4,4.2,-4.885,M,40.592,M,2.6,0123*55
$GPVTG,293.87,T,-346.03,M,005.891,N,010.911,K,D*03
$GPGGA,091419.05,5702.8707113,N,00949.6999398,E,2,4,4.2,-4.922,M,40.592,M,2.8,0123*50
$GPVTG,294.42,T,-345.48,M,005.838,N,010.813,K,D*01
$GPGGA,091419.10,5702.8707424,N,00949.6998075,E,2,4,4.2,-4.933,M,40.592,M,2.8,0123*54
$GPVTG,295.09,T,-344.81,M,005.796,N,010.734,K,D*0A
$GPGGA,091419.15,5702.8707787,N,00949.6996792,E,2,4,4.2,-4.942,M,40.592,M,2.8,0123*5D
$GPVTG,296.22,T,-343.68,M,005.743,N,010.637,K,D*0A
$GPGGA,091419.20,5702.8708072,N,00949.6995486,E,2,4,4.2,-4.956,M,40.592,M,2.8,0123*59
$GPVTG,296.52,T,-343.38,M,005.704,N,010.564,K,D*0E
$GPGGA,091419.25,5702.8708197,N,00949.6994270,E,2,4,4.2,-4.959,M,40.592,M,3.0,0123*5E
$GPVTG,297.06,T,-342.84,M,005.583,N,010.341,K,D*04
$GPGGA,091419.30,5702.8708468,N,00949.6993070,E,2,4,4.2,-4.967,M,40.592,M,3.0,0123*57
$GPVTG,297.56,T,-342.34,M,005.465,N,010.120,K,D*06
$GPGGA,091419.35,5702.8708793,N,00949.6991892,E,2,4,4.2,-4.975,M,40.592,M,3.0,0123*50
$GPVTG,298.46,T,-341.44,M,005.371,N,009.946,K,D*0E
$GPGGA,091419.40,5702.8709102,N,00949.6990725,E,2,4,4.2,-4.983,M,40.592,M,3.0,0123*56
$GPVTG,299.14,T,-340.76,M,005.284,N,009.786,K,D*01
$GPGGA,091419.45,5702.8709268,N,00949.6989582,E,2,4,4.2,-4.996,M,40.592,M,3.2,0123*5D
$GPVTG,299.11,T,-340.79,M,005.190,N,009.613,K,D*00
$GPGGA,091419.50,5702.8709596,N,00949.6988461,E,2,4,4.2,-5.007,M,40.592,M,3.2,0123*52
$GPVTG,299.94,T,-339.96,M,005.110,N,009.463,K,D*0F
$GPGGA,091419.55,5702.8709921,N,00949.6987413,E,2,4,4.2,-5.019,M,40.592,M,3.2,0123*52
$GPVTG,301.07,T,-338.83,M,004.979,N,009.221,K,D*06
$GPGGA,091419.60,5702.8710238,N,00949.6986392,E,2,4,4.2,-5.030,M,40.592,M,3.2,0123*5B
$GPVTG,302.10,T,-337.80,M,004.851,N,008.984,K,D*01
$GPGGA,091419.65,5702.8710432,N,00949.6985438,E,2,4,4.2,-5.057,M,40.592,M,3.4,0123*51
$GPVTG,302.61,T,-337.29,M,004.710,N,008.722,K,D*0C
$GPGGA,091419.70,5702.8710797,N,00949.6984431,E,2,4,4.2,-5.066,M,40.592,M,3.4,0123*53
$GPVTG,303.72,T,-336.18,M,004.652,N,008.616,K,D*0D
$GPGGA,091419.75,5702.8711073,N,00949.6983450,E,2,4,4.2,-5.076,M,40.592,M,3.4,0123*5B
$GPVTG,304.09,T,-335.81,M,004.556,N,008.438,K,D*0C
$GPGGA,091419.80,5702.8711377,N,00949.6982511,E,2,4,4.2,-5.086,M,40.592,M,3.4,0123*5C
$GPVTG,304.84,T,-335.06,M,004.457,N,008.254,K,D*0A
$GPGGA,091419.85,5702.8711569,N,00949.6981596,E,2,4,4.2,-5.094,M,40.592,M,3.6,0123*5D
$GPVTG,305.29,T,-334.61,M,004.377,N,008.106,K,D*0D
$GPGGA,091419.90,5702.8711930,N,00949.6980691,E,2,4,4.2,-5.101,M,40.592,M,3.6,0123*51
$GPVTG,306.38,T,-333.52,M,004.321,N,008.002,K,D*0F
$GPGGA,091419.95,5702.8712256,N,00949.6979841,E,2,4,4.2,-5.110,M,40.592,M,3.6,0123*59
$GPVTG,307.47,T,-332.43,M,004.222,N,007.820,K,D*02
$GPGGA,091420.00,5702.8712568,N,00949.6978943,E,2,4,4.2,-5.118,M,40.592,M,3.6,0123*5F
$GPVTG,307.73,T,-332.17,M,004.184,N,007.750,K,D*03
$GPGGA,091420.05,5702.8712874,N,00949.6978070,E,2,4,4.2,-5.130,M,40.592,M,1.9,0123*54
$GPVTG,307.70,T,-332.20,M,004.161,N,007.706,K,D*0C
$GPGGA,091420.10,5702.8713146,N,00949.6977233,E,2,4,4.2,-5.133,M,40.592,M,1.9,0123*50
$GPVTG,307.92,T,-331.98,M,004.079,N,007.554,K,D*0D
$GPGGA,091420.15,5702.8713506,N,00949.6976434,E,2,4,4.2,-5.137,M,40.592,M,1.9,0123*51
$GPVTG,309.03,T,-330.87,M,004.022,N,007.449,K,D*07
$GPGGA,091420.20,5702.8713855,N,00949.6975555,E,2,4,4.2,-5.145,M,40.592,M,1.9,0123*5C
$GPVTG,309.04,T,-330.86,M,004.048,N,007.497,K,D*0E
$GPGGA,091420.25,5702.8714206,N,00949.6974746,E,2,4,4.2,-5.162,M,40.592,M,2.2,0123*5E
$GPVTG,309.28,T,-330.62,M,004.049,N,007.499,K,D*05
$GPGGA,091420.30,5702.8714530,N,00949.6973969,E,2,4,4.2,-5.167,M,40.592,M,2.2,0123*59
$GPVTG,309.89,T,-330.01,M,003.988,N,007.385,K,D*02
$GPGGA,091420.35,5702.8714854,N,00949.6973169,E,2,4,4.2,-5.170,M,40.592,M,2.2,0123*5D
$GPVTG,310.10,T,-329.80,M,003.961,N,007.335,K,D*07
$GPGGA,091420.40,5702.8715138,N,00949.6972394,E,2,4,4.2,-5.175,M,40.592,M,2.2,0123*59
$GPVTG,310.12,T,-329.78,M,003.902,N,007.227,K,D*05
$GPGGA,091420.45,5702.8715253,N,00949.6971621,E,2,4,4.2,-5.139,M,40.592,M,2.4,0123*54
$GPVTG,308.91,T,-330.99,M,003.752,N,006.948,K,D*08
$GPGGA,091420.50,5702.8715577,N,00949.6970826,E,2,4,4.2,-5.136,M,40.592,M,2.4,0123*56
$GPVTG,308.66,T,-331.24,M,003.770,N,006.982,K,D*01
$GPGGA,091420.55,5702.8715909,N,00949.6970053,E,2,4,4.2,-5.133,M,40.592,M,2.4,0123*59
$GPVTG,308.85,T,-331.05,M,003.772,N,006.985,K,D*0A
$GPGGA,091420.60,5702.8716219,N,00949.6969286,E,2,4,4.2,-5.128,M,40.592,M,2.4,0123*5E
$GPVTG,308.71,T,-331.19,M,003.753,N,006.950,K,D*07
$GPGGA,091420.65,5702.8716668,N,00949.6968573,E,2,4,4.2,-5.134,M,40.592,M,2.7,0123*5B
$GPVTG,309.10,T,-330.80,M,003.735,N,006.916,K,D*02
$GPGGA,091420.70,5702.8716990,N,00949.6967819,E,2,4,4.2,-5.131,M,40.592,M,2.7,0123*5C
$GPVTG,309.13,T,-330.77,M,003.727,N,006.902,K,D*0F
$GPGGA,091420.75,5702.8717309,N,00949.6967039,E,2,4,4.2,-5.129,M,40.592,M,2.7,0123*51
$GPVTG,308.79,T,-331.11,M,003.745,N,006.936,K,D*00
$GPGGA,091420.80,5702.8717644,N,00949.6966310,E,2,4,4.2,-5.128,M,40.592,M,2.7,0123*5F
$GPVTG,309.25,T,-330.65,M,003.727,N,006.902,K,D*09
$GPGGA,091420.85,5702.8717933,N,00949.6965585,E,2,4,4.2,-5.119,M,40.592,M,2.9,0123*50
$GPVTG,309.38,T,-330.52,M,003.702,N,006.856,K,D*06
$GPGGA,091420.90,5702.8718249,N,00949.6964802,E,2,4,4.2,-5.117,M,40.592,M,2.9,0123*50
$GPVTG,308.78,T,-331.12,M,003.734,N,006.916,K,D*06
$GPGGA,091420.95,5702.8718576,N,00949.6964095,E,2,4,4.2,-5.115,M,40.592,M,2.9,0123*5A
$GPVTG,309.31,T,-330.59,M,003.697,N,006.848,K,D*06
$GPGGA,091421.00,5702.8718893,N,00949.6963366,E,2,4,4.2,-5.116,M,40.592,M,2.9,0123*5A
$GPVTG,309.37,T,-330.53,M,003.684,N,006.822,K,D*04
$GPGGA,091421.05,5702.8719089,N,00949.6962619,E,2,4,4.2,-5.104,M,40.592,M,1.7,0123*5F
$GPVTG,308.64,T,-331.26,M,003.670,N,006.797,K,D*0A
$GPGGA,091421.10,5702.8719406,N,00949.6961899,E,2,4,4.2,-5.098,M,40.592,M,1.7,0123*59
$GPVTG,308.79,T,-331.11,M,003.652,N,006.764,K,D*0E
$GPGGA,091421.15,5702.8719719,N,00949.6961137,E,2,4,4.2,-5.093,M,40.592,M,1.7,0123*57
$GPVTG,308.38,T,-331.52,M,003.675,N,006.806,K,D*02
$GPGGA,091421.20,5702.8720028,N,00949.6960392,E,2,4,4.2,-5.088,M,40.592,M,1.7,0123*58
$GPVTG,308.16,T,-331.74,M,003.677,N,006.810,K,D*0F
$GPGGA,091421.25,5702.8720311,N,00949.6959620,E,2,4,4.2,-5.092,M,40.592,M,2.0,0123*5D
$GPVTG,307.41,T,-332.49,M,003.677,N,006.809,K,D*07
$GPGGA,091421.30,5702.8720628,N,00949.6958921,E,2,4,4.2,-5.090,M,40.592,M,2.0,0123*5B
$GPVTG,307.79,T,-332.11,M,003.649,N,006.758,K,D*07
$GPGGA,091421.35,5702.8720940,N,00949.6958208,E,2,4,4.2,-5.090,M,40.592,M,2.0,0123*5F
$GPVTG,307.97,T,-331.93,M,003.628,N,006.719,K,D*0C
$GPGGA,091421.40,5702.8721245,N,00949.6957492,E,2,4,4.2,-5.091,M,40.592,M,2.0,0123*59
$GPVTG,308.03,T,-331.87,M,003.609,N,006.684,K,D*0D
$GPGGA,091421.45,5702.8721492,N,00949.6956823,E,2,4,4.2,-5.080,M,40.592,M,2.2,0123*55
$GPVTG,308.04,T,-331.86,M,003.547,N,006.570,K,D*0A
$GPGGA,091421.50,5702.8721802,N,00949.6956134,E,2,4,4.2,-5.078,M,40.592,M,2.2,0123*5C
$GPVTG,308.37,T,-331.53,M,003.519,N,006.518,K,D*07
$GPGGA,091421.55,5702.8722092,N,00949.6955377,E,2,4,4.2,-5.078,M,40.592,M,2.2,0123*5D
$GPVTG,307.71,T,-332.19,M,003.542,N,006.559,K,D*0C
$GPGGA,091421.60,5702.8722398,N,00949.6954698,E,2,4,4.2,-5.076,M,40.592,M,2.2,0123*59
$GPVTG,308.09,T,-331.81,M,003.506,N,006.492,K,D*08
$GPGGA,091421.65,5702.8722681,N,00949.6953961,E,2,4,4.2,-5.073,M,40.592,M,2.4,0123*5C
$GPVTG,307.27,T,-332.63,M,003.514,N,006.508,K,D*05
$GPGGA,091421.70,5702.8722972,N,00949.6953293,E,2,4,4.2,-5.072,M,40.592,M,2.4,0123*5C
$GPVTG,307.59,T,-332.31,M,003.464,N,006.415,K,D*00
$GPGGA,091421.75,5702.8723267,N,00949.6952616,E,2,4,4.2,-5.070,M,40.592,M,2.4,0123*5D
$GPVTG,307.83,T,-332.07,M,003.433,N,006.358,K,D*0E
$GPGGA,091421.80,5702.8723573,N,00949.6952015,E,2,4,4.2,-5.066,M,40.592,M,2.4,0123*57
$GPVTG,308.99,T,-330.91,M,003.352,N,006.208,K,D*03
$GPGGA,091421.85,5702.8723867,N,00949.6951296,E,2,4,4.2,-5.062,M,40.592,M,2.7,0123*57
$GPVTG,307.92,T,-331.98,M,003.374,N,006.249,K,D*0E
$GPGGA,091421.90,5702.8724155,N,00949.6950637,E,2,4,4.2,-5.061,M,40.592,M,2.7,0123*51
$GPVTG,308.14,T,-331.76,M,003.342,N,006.190,K,D*0D
$GPGGA,091421.95,5702.8724442,N,00949.6950032,E,2,4,4.2,-5.057,M,40.592,M,2.7,0123*51
$GPVTG,308.91,T,-330.99,M,003.271,N,006.058,K,D*04
$GPGGA,091422.00,5702.8724715,N,00949.6949402,E,2,4,4.2,-5.055,M,40.592,M,2.7,0123*52
$GPVTG,309.09,T,-330.81,M,003.225,N,005.973,K,D*0F
$GPGGA,091422.05,5702.8724836,N,00949.6948744,E,2,4,4.2,-5.041,M,40.592,M,1.6,0123*5E
$GPVTG,307.78,T,-332.12,M,003.203,N,005.932,K,D*0E
$GPGGA,091422.10,5702.8725109,N,00949.6948143,E,2,4,4.2,-5.036,M,40.592,M,1.6,0123*5F
$GPVTG,308.33,T,-331.57,M,003.143,N,005.820,K,D*09
$GPGGA,091422.15,5702.8725374,N,00949.6947488,E,2,4,4.2,-5.030,M,40.592,M,1.6,0123*59
$GPVTG,307.96,T,-331.94,M,003.135,N,005.807,K,D*02
$GPGGA,091422.20,5702.8725637,N,00949.6946897,E,2,4,4.2,-5.025,M,40.592,M,1.6,0123*5A
$GPVTG,308.36,T,-331.54,M,003.077,N,005.698,K,D*04
$GPGGA,091422.25,5702.8725954,N,00949.6946258,E,2,4,4.2,-5.044,M,40.592,M,1.9,0123*54
$GPVTG,307.76,T,-332.14,M,003.070,N,005.686,K,D*00
$GPGGA,091422.30,5702.8726229,N,00949.6945673,E,2,4,4.2,-5.048,M,40.592,M,1.9,0123*50
$GPVTG,308.50,T,-331.40,M,003.021,N,005.594,K,D*0D
$GPGGA,091422.35,5702.8726483,N,00949.6945090,E,2,4,4.2,-5.049,M,40.592,M,1.9,0123*59
$GPVTG,308.73,T,-331.17,M,002.971,N,005.502,K,D*0C
$GPGGA,091422.40,5702.8726742,N,00949.6944479,E,2,4,4.2,-5.053,M,40.592,M,1.9,0123*5C
$GPVTG,308.49,T,-331.41,M,002.963,N,005.488,K,D*06
$GPGGA,091422.45,5702.8727100,N,00949.6943923,E,2,4,4.2,-5.075,M,40.592,M,2.1,0123*52
$GPVTG,309.00,T,-330.90,M,002.939,N,005.444,K,D*08
$GPGGA,091422.50,5702.8727359,N,00949.6943323,E,2,4,4.2,-5.081,M,40.592,M,2.1,0123*59
$GPVTG,308.81,T,-331.09,M,002.934,N,005.434,K,D*0B
$GPGGA,091422.55,5702.8727611,N,00949.6942713,E,2,4,4.2,-5.086,M,40.592,M,2.1,0123*54
$GPVTG,308.39,T,-331.51,M,002.935,N,005.436,K,D*06
$GPGGA,091422.60,5702.8727870,N,00949.6942193,E,2,4,4.2,-5.092,M,40.592,M,2.1,0123*50
$GPVTG,309.41,T,-330.49,M,002.860,N,005.296,K,D*0D
$GPGGA,091422.65,5702.8728070,N,00949.6941562,E,2,4,4.2,-5.071,M,40.592,M,2.3,0123*54
$GPVTG,309.46,T,-330.44,M,002.818,N,005.220,K,D*05
$GPGGA,091422.70,5702.8728312,N,00949.6940958,E,2,4,4.2,-5.073,M,40.592,M,2.3,0123*51
$GPVTG,308.86,T,-331.04,M,002.821,N,005.225,K,D*02
$GPGGA,091422.75,5702.8728545,N,00949.6940390,E,2,4,4.2,-5.074,M,40.592,M,2.3,0123*59
$GPVTG,308.57,T,-331.33,M,002.797,N,005.180,K,D*04
$GPGGA,091422.80,5702.8728790,N,00949.6939864,E,2,4,4.2,-5.077,M,40.592,M,2.3,0123*54
$GPVTG,308.98,T,-330.92,M,002.753,N,005.098,K,D*0D
$GPGGA,091422.85,5702.8728897,N,00949.6939345,E,2,4,4.2,-5.061,M,40.592,M,2.6,0123*53
$GPVTG,308.42,T,-331.48,M,002.689,N,004.981,K,D*0A
$GPGGA,091422.90,5702.8729124,N,00949.6938828,E,2,4,4.2,-5.058,M,40.592,M,2.6,0123*5C
$GPVTG,308.58,T,-331.32,M,002.643,N,004.895,K,D*0E
$GPGGA,091422.95,5702.8729351,N,00949.6938322,E,2,4,4.2,-5.055,M,40.592,M,2.6,0123*55
$GPVTG,308.85,T,-331.05,M,002.596,N,004.808,K,D*05
$GPGGA,091423.00,5702.8729567,N,00949.6937756,E,2,4,4.2,-5.052,M,40.592,M,2.6,0123*54
$GPVTG,308.00,T,-331.90,M,002.602,N,004.820,K,D*00
$GPGGA,091423.05,5702.8729815,N,00949.6937217,E,2,4,4.2,-5.056,M,40.592,M,2.8,0123*53
$GPVTG,307.34,T,-332.56,M,002.571,N,004.762,K,D*0F
$GPGGA,091423.10,5702.8730027,N,00949.6936706,E,2,4,4.2,-5.057,M,40.592,M,2.8,0123*53
$GPVTG,307.24,T,-332.66,M,002.535,N,004.695,K,D*04
$GPGGA,091423.15,5702.8730255,N,00949.6936245,E,2,4,4.2,-5.056,M,40.592,M,2.8,0123*52
$GPVTG,308.13,T,-331.77,M,002.474,N,004.582,K,D*0D
$GPGGA,091423.20,5702.8730467,N,00949.6935735,E,2,4,4.2,-5.055,M,40.592,M,2.8,0123*51
$GPVTG,307.91,T,-331.99,M,002.456,N,004.549,K,D*0F
$GPGGA,091423.25,5702.8730726,N,00949.6935248,E,2,4,4.2,-5.054,M,40.592,M,3.0,0123*55
$GPVTG,307.99,T,-331.91,M,002.422,N,004.485,K,D*0D
$GPGGA,091423.30,5702.8730933,N,00949.6934765,E,2,4,4.2,-5.050,M,40.592,M,3.0,0123*54
$GPVTG,308.00,T,-331.90,M,002.390,N,004.427,K,D*05
$GPGGA,091423.35,5702.8731135,N,00949.6934260,E,2,4,4.2,-5.048,M,40.592,M,3.0,0123*57
$GPVTG,307.52,T,-332.38,M,002.382,N,004.412,K,D*09
$GPGGA,091423.40,5702.8731343,N,00949.6933782,E,2,4,4.2,-5.046,M,40.592,M,3.0,0123*56
$GPVTG,307.57,T,-332.33,M,002.358,N,004.366,K,D*04
$GPGGA,091423.45,5702.8731632,N,00949.6933303,E,2,4,4.2,-5.049,M,40.592,M,3.2,0123*50
$GPVTG,308.01,T,-331.89,M,002.333,N,004.320,K,D*05
$GPGGA,091423.50,5702.8731838,N,00949.6932854,E,2,4,4.2,-5.048,M,40.592,M,3.2,0123*59
$GPVTG,308.42,T,-331.48,M,002.297,N,004.253,K,D*05
$GPGGA,091423.55,5702.8732035,N,00949.6932375,E,2,4,4.2,-5.048,M,40.592,M,3.2,0123*52
$GPVTG,308.04,T,-331.86,M,002.287,N,004.236,K,D*07
$GPGGA,091423.60,5702.8732234,N,00949.6931896,E,2,4,4.2,-5.047,M,40.592,M,3.2,0123*5D
$GPVTG,307.73,T,-332.17,M,002.282,N,004.226,K,D*07
$GPGGA,091423.65,5702.8732496,N,00949.6931424,E,2,4,4.2,-5.041,M,40.592,M,3.4,0123*53
$GPVTG,307.84,T,-332.06,M,002.270,N,004.205,K,D*03
$GPGGA,091423.70,5702.8732698,N,00949.6931023,E,2,4,4.2,-5.036,M,40.592,M,3.4,0123*58
$GPVTG,308.92,T,-330.98,M,002.210,N,004.094,K,D*02
$GPGGA,091423.75,5702.8732904,N,00949.6930575,E,2,4,4.2,-5.035,M,40.592,M,3.4,0123*53
$GPVTG,309.06,T,-330.84,M,002.202,N,004.079,K,D*03
$GPGGA,091423.80,5702.8733105,N,00949.6930149,E,2,4,4.2,-5.032,M,40.592,M,3.4,0123*5D
$GPVTG,309.42,T,-330.48,M,002.176,N,004.031,K,D*0F
$GPGGA,091423.85,5702.8733493,N,00949.6929683,E,2,4,4.2,-5.042,M,40.592,M,3.6,0123*5E
$GPVTG,310.20,T,-329.70,M,002.211,N,004.095,K,D*0C
$GPGGA,091423.90,5702.8733688,N,00949.6929238,E,2,4,4.2,-5.041,M,40.592,M,3.6,0123*55
$GPVTG,309.96,T,-329.94,M,002.203,N,004.081,K,D*05
$GPGGA,091423.95,5702.8733887,N,00949.6928821,E,2,4,4.2,-5.040,M,40.592,M,3.6,0123*53
$GPVTG,310.32,T,-329.58,M,002.179,N,004.036,K,D*01
$GPGGA,091424.00,5702.8734102,N,00949.6928401,E,2,4,4.2,-5.044,M,40.592,M,3.6,0123*51
$GPVTG,310.84,T,-329.06,M,002.171,N,004.021,K,D*09
$GPGGA,091424.05,5702.8734374,N,00949.6927956,E,2,4,4.2,-5.032,M,40.592,M,1.9,0123*5B
$GPVTG,312.06,T,-327.84,M,002.176,N,004.030,K,D*02
$GPGGA,091424.10,5702.8734578,N,00949.6927535,E,2,4,4.2,-5.031,M,40.592,M,1.9,0123*5F
$GPVTG,312.14,T,-327.76,M,002.171,N,004.021,K,D*0B
$GPGGA,091424.15,5702.8734772,N,00949.6927084,E,2,4,4.2,-5.031,M,40.592,M,1.9,0123*5D
$GPVTG,311.42,T,-328.48,M,002.185,N,004.047,K,D*02
$GPGGA,091424.20,5702.8734972,N,00949.6926642,E,2,4,4.2,-5.030,M,40.592,M,1.9,0123*59
$GPVTG,311.02,T,-328.88,M,002.196,N,004.066,K,D*0B
$GPGGA,091424.25,5702.8735187,N,00949.6926163,E,2,4,4.2,-5.023,M,40.592,M,2.2,0123*51
$GPVTG,311.01,T,-328.89,M,002.222,N,004.115,K,D*00
$GPGGA,091424.30,5702.8735395,N,00949.6925760,E,2,4,4.2,-5.023,M,40.592,M,2.2,0123*52
$GPVTG,311.58,T,-328.32,M,002.203,N,004.080,K,D*02
$GPGGA,091424.35,5702.8735603,N,00949.6925383,E,2,4,4.2,-5.021,M,40.592,M,2.2,0123*56
$GPVTG,312.55,T,-327.35,M,002.168,N,004.014,K,D*07
$GPGGA,091424.40,5702.8735797,N,00949.6924914,E,2,4,4.2,-5.020,M,40.592,M,2.2,0123*5C
$GPVTG,311.38,T,-328.52,M,002.202,N,004.078,K,D*04
$GPGGA,091424.45,5702.8736093,N,00949.6924400,E,2,4,4.2,-5.010,M,40.592,M,2.4,0123*54
$GPVTG,310.71,T,-329.19,M,002.259,N,004.183,K,D*0D
$GPGGA,091424.50,5702.8736312,N,00949.6924035,E,2,4,4.2,-5.006,M,40.592,M,2.4,0123*5F
$GPVTG,312.25,T,-327.65,M,002.215,N,004.101,K,D*09
$GPGGA,091424.55,5702.8736515,N,00949.6923572,E,2,4,4.2,-5.007,M,40.592,M,2.4,0123*5B
$GPVTG,311.42,T,-328.48,M,002.245,N,004.159,K,D*03
$GPGGA,091424.60,5702.8736730,N,00949.6923097,E,2,4,4.2,-5.007,M,40.592,M,2.4,0123*56
$GPVTG,310.74,T,-329.16,M,002.290,N,004.241,K,D*0F
$GPGGA,091424.65,5702.8737034,N,00949.6922626,E,2,4,4.2,-5.002,M,40.592,M,2.7,0123*5A
$GPVTG,311.70,T,-328.20,M,002.303,N,004.266,K,D*00
$GPGGA,091424.70,5702.8737239,N,00949.6922134,E,2,4,4.2,-5.001,M,40.592,M,2.7,0123*56
$GPVTG,310.56,T,-329.34,M,002.348,N,004.348,K,D*03
$GPGGA,091424.75,5702.8737432,N,00949.6921672,E,2,4,4.2,-5.000,M,40.592,M,2.7,0123*59
$GPVTG,309.95,T,-329.95,M,002.353,N,004.358,K,D*04
$GPGGA,091424.80,5702.8737651,N,00949.6921217,E,2,4,4.2,-5.003,M,40.592,M,2.7,0123*50
$GPVTG,310.03,T,-329.87,M,002.366,N,004.382,K,D*01
$GPGGA,091424.85,5702.8737728,N,00949.6920767,E,2,4,4.2,-4.987,M,40.592,M,2.9,0123*53
$GPVTG,309.59,T,-330.31,M,002.334,N,004.323,K,D*0F
$GPGGA,091424.90,5702.8737941,N,00949.6920359,E,2,4,4.2,-4.986,M,40.592,M,2.9,0123*5E
$GPVTG,310.45,T,-329.45,M,002.304,N,004.267,K,D*03
$GPGGA,091424.95,5702.8738140,N,00949.6919866,E,2,4,4.2,-4.987,M,40.592,M,2.9,0123*51
$GPVTG,309.47,T,-330.43,M,002.339,N,004.332,K,D*08
$GPGGA,091425.00,5702.8738342,N,00949.6919390,E,2,4,4.2,-4.988,M,40.592,M,2.9,0123*51
$GPVTG,308.98,T,-330.92,M,002.357,N,004.365,K,D*0D
$GPGGA,091425.05,5702.8738528,N,00949.6918875,E,2,4,4.2,-4.982,M,40.592,M,1.7,0123*58
$GPVTG,307.85,T,-332.05,M,002.369,N,004.387,K,D*03
$GPGGA,091425.10,5702.8738729,N,00949.6918467,E,2,4,4.2,-4.986,M,40.592,M,1.7,0123*54
$GPVTG,308.69,T,-331.21,M,002.319,N,004.295,K,D*0E
$GPGGA,091425.15,5702.8738929,N,00949.6917990,E,2,4,4.2,-4.990,M,40.592,M,1.7,0123*52
$GPVTG,308.28,T,-331.62,M,002.334,N,004.323,K,D*0F
$GPGGA,091425.20,5702.8739131,N,00949.6917562,E,2,4,4.2,-4.995,M,40.592,M,1.7,0123*50
$GPVTG,308.78,T,-331.12,M,002.305,N,004.269,K,D*00
$GPGGA,091425.25,5702.8739218,N,00949.6917115,E,2,4,4.2,-4.975,M,40.592,M,2.0,0123*53
$GPVTG,307.94,T,-331.96,M,002.263,N,004.192,K,D*07
$GPGGA,091425.30,5702.8739407,N,00949.6916711,E,2,4,4.2,-4.977,M,40.592,M,2.0,0123*5E
$GPVTG,308.59,T,-331.31,M,002.214,N,004.101,K,D*0E
$GPGGA,091425.35,5702.8739603,N,00949.6916322,E,2,4,4.2,-4.976,M,40.592,M,2.0,0123*58
$GPVTG,309.55,T,-330.35,M,002.165,N,004.009,K,D*0A
$GPGGA,091425.40,5702.8739789,N,00949.6915932,E,2,4,4.2,-4.978,M,40.592,M,2.0,0123*5F
$GPVTG,310.19,T,-329.71,M,002.119,N,003.924,K,D*08
$GPGGA,091425.45,5702.8739887,N,00949.6915483,E,2,4,4.2,-4.978,M,40.592,M,2.2,0123*5E
$GPVTG,308.41,T,-331.49,M,002.110,N,003.908,K,D*09
$GPGGA,091425.50,5702.8740060,N,00949.6915025,E,2,4,4.2,-4.981,M,40.592,M,2.2,0123*5B
$GPVTG,307.52,T,-332.38,M,002.121,N,003.928,K,D*01
$GPGGA,091425.55,5702.8740232,N,00949.6914581,E,2,4,4.2,-4.983,M,40.592,M,2.2,0123*53
$GPVTG,306.95,T,-332.95,M,002.118,N,003.923,K,D*0D
$GPGGA,091425.60,5702.8740400,N,00949.6914198,E,2,4,4.2,-4.983,M,40.592,M,2.2,0123*5E
$GPVTG,307.39,T,-332.51,M,002.065,N,003.825,K,D*0E
$GPGGA,091425.65,5702.8740416,N,00949.6913853,E,2,4,4.2,-4.961,M,40.592,M,2.4,0123*5F
$GPVTG,307.89,T,-332.01,M,001.946,N,003.604,K,D*06
$GPGGA,091425.70,5702.8740592,N,00949.6913461,E,2,4,4.2,-4.957,M,40.592,M,2.4,0123*5E
$GPVTG,308.10,T,-331.80,M,001.930,N,003.575,K,D*07
$GPGGA,091425.75,5702.8740757,N,00949.6913080,E,2,4,4.2,-4.951,M,40.592,M,2.4,0123*5D
$GPVTG,308.19,T,-331.71,M,001.904,N,003.526,K,D*01
$GPGGA,091425.80,5702.8740901,N,00949.6912646,E,2,4,4.2,-4.947,M,40.592,M,2.4,0123*50
$GPVTG,306.93,T,-332.97,M,001.906,N,003.531,K,D*02
$GPGGA,091425.85,5702.8741150,N,00949.6912186,E,2,4,4.2,-4.958,M,40.592,M,2.7,0123*5E
$GPVTG,305.79,T,-334.11,M,001.913,N,003.543,K,D*0C
$GPGGA,091425.90,5702.8741304,N,00949.6911878,E,2,4,4.2,-4.955,M,40.592,M,2.7,0123*5F
