$GPGGA,092632.25,5702.9386591,N,00949.2748401,E,2,4,4.1,-3.447,M,40.592,M,3.0,0123*5A
$GPVTG,111.42,T,-528.48,M,001.880,N,003.481,K,D*00
$GPGGA,092632.30,5702.9386486,N,00949.2748816,E,2,4,4.1,-3.448,M,40.592,M,3.0,0123*5C
$GPVTG,113.63,T,-526.27,M,001.884,N,003.489,K,D*0A
$GPGGA,092632.35,5702.9386374,N,00949.2749167,E,2,4,4.1,-3.448,M,40.592,M,3.0,0123*5D
$GPVTG,116.19,T,-523.71,M,001.862,N,003.448,K,D*01
$GPGGA,092632.40,5702.9386261,N,00949.2749539,E,2,4,4.1,-3.449,M,40.592,M,3.0,0123*54
$GPVTG,118.44,T,-521.46,M,001.855,N,003.435,K,D*0F
$GPGGA,092632.45,5702.9385486,N,00949.2749980,E,2,4,4.1,-3.444,M,40.592,M,3.2,0123*5C
$GPVTG,120.48,T,-519.42,M,001.867,N,003.457,K,D*02
$GPGGA,092632.50,5702.9385343,N,00949.2750288,E,2,4,4.1,-3.447,M,40.592,M,3.2,0123*5E
$GPVTG,123.38,T,-516.52,M,001.847,N,003.421,K,D*0B
$GPGGA,092632.55,5702.9385199,N,00949.2750622,E,2,4,4.1,-3.450,M,40.592,M,3.2,0123*5C
$GPVTG,125.84,T,-514.06,M,001.845,N,003.417,K,D*0E
$GPGGA,092632.60,5702.9385053,N,00949.2750979,E,2,4,4.1,-3.456,M,40.592,M,3.2,0123*5A
$GPVTG,127.92,T,-511.98,M,001.856,N,003.438,K,D*06
$GPGGA,092632.65,5702.9384242,N,00949.2751352,E,2,4,4.1,-3.444,M,40.592,M,3.4,0123*5B
$GPVTG,130.47,T,-509.43,M,001.860,N,003.444,K,D*09
$GPGGA,092632.70,5702.9384073,N,00949.2751695,E,2,4,4.1,-3.456,M,40.592,M,3.4,0123*52
$GPVTG,132.52,T,-507.38,M,001.879,N,003.480,K,D*0D
$GPGGA,092632.75,5702.9383912,N,00949.2751982,E,2,4,4.1,-3.458,M,40.592,M,3.4,0123*59
$GPVTG,134.88,T,-505.02,M,001.877,N,003.475,K,D*03
$GPGGA,092632.80,5702.9383727,N,00949.2752317,E,2,4,4.1,-3.463,M,40.592,M,3.4,0123*56
$GPVTG,136.76,T,-503.14,M,001.904,N,003.526,K,D*03
$GPGGA,092632.85,5702.9382930,N,00949.2752582,E,2,4,4.1,-3.436,M,40.592,M,3.6,0123*52
$GPVTG,140.13,T,-499.77,M,001.882,N,003.486,K,D*02
$GPGGA,092632.90,5702.9382720,N,00949.2752864,E,2,4,4.1,-3.439,M,40.592,M,3.6,0123*53
$GPVTG,142.37,T,-497.53,M,001.909,N,003.536,K,D*06
$GPGGA,092632.95,5702.9382519,N,00949.2753147,E,2,4,4.1,-3.448,M,40.592,M,3.6,0123*51
$GPVTG,144.24,T,-495.66,M,001.934,N,003.581,K,D*04
$GPGGA,092633.00,5702.9382307,N,00949.2753414,E,2,4,4.1,-3.450,M,40.592,M,3.6,0123*5F
$GPVTG,146.19,T,-493.71,M,001.960,N,003.630,K,D*00
$GPGGA,092633.05,5702.9381528,N,00949.2753751,E,2,4,4.1,-3.432,M,40.592,M,1.9,0123*59
$GPVTG,147.39,T,-492.51,M,001.981,N,003.669,K,D*03
$GPGGA,092633.10,5702.9381291,N,00949.2753916,E,2,4,4.1,-3.433,M,40.592,M,1.9,0123*54
$GPVTG,150.38,T,-489.52,M,001.993,N,003.691,K,D*09
$GPGGA,092633.15,5702.9381052,N,00949.2754079,E,2,4,4.1,-3.437,M,40.592,M,1.9,0123*5F
$GPVTG,153.12,T,-486.78,M,002.010,N,003.722,K,D*0D
$GPGGA,092633.20,5702.9380816,N,00949.2754252,E,2,4,4.1,-3.441,M,40.592,M,1.9,0123*5A
$GPVTG,155.43,T,-484.47,M,002.031,N,003.762,K,D*06
$GPGGA,092633.25,5702.9380085,N,00949.2754460,E,2,4,4.1,-3.427,M,40.592,M,2.2,0123*52
$GPVTG,157.46,T,-482.44,M,002.042,N,003.782,K,D*0E
$GPGGA,092633.30,5702.9379830,N,00949.2754666,E,2,4,4.1,-3.434,M,40.592,M,2.2,0123*50
$GPVTG,158.93,T,-480.97,M,002.081,N,003.854,K,D*0E
$GPGGA,092633.35,5702.9379572,N,00949.2754854,E,2,4,4.1,-3.440,M,40.592,M,2.2,0123*52
$GPVTG,160.43,T,-479.47,M,002.118,N,003.922,K,D*02
$GPGGA,092633.40,5702.9379312,N,00949.2755055,E,2,4,4.1,-3.445,M,40.592,M,2.2,0123*5D
$GPVTG,161.57,T,-478.33,M,002.158,N,003.997,K,D*0E
$GPGGA,092633.45,5702.9378492,N,00949.2755386,E,2,4,4.1,-3.421,M,40.592,M,2.4,0123*5F
$GPVTG,162.01,T,-477.89,M,002.190,N,004.055,K,D*04
$GPGGA,092633.50,5702.9378203,N,00949.2755494,E,2,4,4.1,-3.425,M,40.592,M,2.4,0123*55
$GPVTG,164.11,T,-475.79,M,002.226,N,004.122,K,D*01
$GPGGA,092633.55,5702.9377895,N,00949.2755563,E,2,4,4.1,-3.435,M,40.592,M,2.4,0123*52
$GPVTG,166.48,T,-473.42,M,002.267,N,004.198,K,D*05
$GPGGA,092633.60,5702.9377601,N,00949.2755685,E,2,4,4.1,-3.440,M,40.592,M,2.4,0123*5E
$GPVTG,167.89,T,-472.01,M,002.309,N,004.276,K,D*05
$GPGGA,092633.65,5702.9376755,N,00949.2755832,E,2,4,4.1,-3.410,M,40.592,M,2.7,0123*5E
$GPVTG,169.63,T,-470.27,M,002.339,N,004.332,K,D*0B
$GPGGA,092633.70,5702.9376438,N,00949.2755835,E,2,4,4.1,-3.409,M,40.592,M,2.7,0123*5D
$GPVTG,172.09,T,-467.81,M,002.380,N,004.407,K,D*04
$GPGGA,092633.75,5702.9376119,N,00949.2755880,E,2,4,4.1,-3.403,M,40.592,M,2.7,0123*5A
$GPVTG,173.74,T,-466.16,M,002.425,N,004.491,K,D*07
$GPGGA,092633.80,5702.9375798,N,00949.2755907,E,2,4,4.1,-3.401,M,40.592,M,2.7,0123*50
$GPVTG,175.36,T,-464.54,M,002.470,N,004.574,K,D*09
$GPGGA,092633.85,5702.9375164,N,00949.2755835,E,2,4,4.1,-3.404,M,40.592,M,2.9,0123*5B
$GPVTG,177.68,T,-462.22,M,002.470,N,004.575,K,D*06
$GPGGA,092633.90,5702.9374832,N,00949.2755803,E,2,4,4.1,-3.404,M,40.592,M,2.9,0123*51
$GPVTG,179.50,T,-460.40,M,002.517,N,004.662,K,D*00
$GPGGA,092633.95,5702.9374493,N,00949.2755725,E,2,4,4.1,-3.412,M,40.592,M,2.9,0123*5F
$GPVTG,181.56,T,-458.34,M,002.568,N,004.755,K,D*04
$GPGGA,092634.00,5702.9374148,N,00949.2755644,E,2,4,4.1,-3.417,M,40.592,M,2.9,0123*54
$GPVTG,183.37,T,-456.53,M,002.621,N,004.855,K,D*0F
$GPGGA,092634.05,5702.9373311,N,00949.2755728,E,2,4,4.1,-3.381,M,40.592,M,1.7,0123*56
$GPVTG,183.91,T,-455.99,M,002.632,N,004.875,K,D*06
$GPGGA,092634.10,5702.9372966,N,00949.2755718,E,2,4,4.1,-3.384,M,40.592,M,1.7,0123*5F
$GPVTG,184.58,T,-455.32,M,002.676,N,004.956,K,D*05
$GPGGA,092634.15,5702.9372605,N,00949.2755645,E,2,4,4.1,-3.392,M,40.592,M,1.7,0123*5E
$GPVTG,185.77,T,-454.13,M,002.729,N,005.054,K,D*0A
$GPGGA,092634.20,5702.9372255,N,00949.2755606,E,2,4,4.1,-3.401,M,40.592,M,1.7,0123*53
$GPVTG,186.43,T,-453.47,M,002.773,N,005.135,K,D*01
$GPGGA,092634.25,5702.9371528,N,00949.2755601,E,2,4,4.1,-3.384,M,40.592,M,2.0,0123*51
$GPVTG,187.92,T,-451.98,M,002.789,N,005.164,K,D*0D
$GPGGA,092634.30,5702.9371158,N,00949.2755510,E,2,4,4.1,-3.384,M,40.592,M,2.0,0123*55
$GPVTG,188.77,T,-451.13,M,002.837,N,005.255,K,D*01
$GPGGA,092634.35,5702.9370778,N,00949.2755386,E,2,4,4.1,-3.385,M,40.592,M,2.0,0123*5D
$GPVTG,189.77,T,-450.13,M,002.891,N,005.355,K,D*0C
$GPGGA,092634.40,5702.9370386,N,00949.2755134,E,2,4,4.1,-3.387,M,40.592,M,2.0,0123*53
$GPVTG,191.82,T,-448.08,M,002.961,N,005.483,K,D*0E
$GPGGA,092634.45,5702.9369595,N,00949.2754961,E,2,4,4.1,-3.376,M,40.592,M,2.2,0123*5F
$GPVTG,193.28,T,-446.62,M,002.981,N,005.521,K,D*09
$GPGGA,092634.50,5702.9369214,N,00949.2754750,E,2,4,4.1,-3.373,M,40.592,M,2.2,0123*5C
$GPVTG,194.50,T,-445.40,M,003.034,N,005.620,K,D*06
$GPGGA,092634.55,5702.9368825,N,00949.2754533,E,2,4,4.1,-3.370,M,40.592,M,2.2,0123*54
$GPVTG,195.57,T,-444.33,M,003.090,N,005.722,K,D*08
$GPGGA,092634.60,5702.9368434,N,00949.2754238,E,2,4,4.1,-3.366,M,40.592,M,2.2,0123*55
$GPVTG,197.14,T,-442.76,M,003.154,N,005.841,K,D*09
$GPGGA,092634.65,5702.9367886,N,00949.2753996,E,2,4,4.1,-3.352,M,40.592,M,2.4,0123*53
$GPVTG,198.59,T,-441.31,M,003.145,N,005.825,K,D*0D
$GPGGA,092634.70,5702.9367501,N,00949.2753780,E,2,4,4.1,-3.350,M,40.592,M,2.4,0123*5E
$GPVTG,199.12,T,-440.78,M,003.185,N,005.900,K,D*05
$GPGGA,092634.75,5702.9367114,N,00949.2753559,E,2,4,4.1,-3.350,M,40.592,M,2.4,0123*5D
$GPVTG,199.56,T,-440.34,M,003.225,N,005.973,K,D*00
$GPGGA,092634.80,5702.9366707,N,00949.2753222,E,2,4,4.1,-3.350,M,40.592,M,2.4,0123*59
$GPVTG,200.80,T,-439.10,M,003.290,N,006.093,K,D*0A
$GPGGA,092634.85,5702.9366181,N,00949.2752940,E,2,4,4.1,-3.351,M,40.592,M,2.7,0123*58
$GPVTG,202.34,T,-437.56,M,003.276,N,006.067,K,D*08
$GPGGA,092634.90,5702.9365785,N,00949.2752601,E,2,4,4.1,-3.353,M,40.592,M,2.7,0123*55
$GPVTG,203.31,T,-436.59,M,003.328,N,006.163,K,D*0D
$GPGGA,092634.95,5702.9365384,N,00949.2752265,E,2,4,4.1,-3.353,M,40.592,M,2.7,0123*53
$GPVTG,204.06,T,-435.84,M,003.379,N,006.257,K,D*0D
$GPGGA,092635.00,5702.9364978,N,00949.2751934,E,2,4,4.1,-3.356,M,40.592,M,2.7,0123*5F
$GPVTG,204.63,T,-435.27,M,003.426,N,006.345,K,D*08
$GPGGA,092635.05,5702.9364326,N,00949.2751588,E,2,4,4.1,-3.329,M,40.592,M,1.6,0123*5A
$GPVTG,206.14,T,-433.76,M,003.432,N,006.356,K,D*0F
$GPGGA,092635.10,5702.9363931,N,00949.2751163,E,2,4,4.1,-3.333,M,40.592,M,1.6,0123*5F
$GPVTG,207.20,T,-432.70,M,003.484,N,006.453,K,D*01
$GPGGA,092635.15,5702.9363535,N,00949.2750721,E,2,4,4.1,-3.334,M,40.592,M,1.6,0123*54
$GPVTG,208.21,T,-431.69,M,003.539,N,006.554,K,D*05
$GPGGA,092635.20,5702.9363135,N,00949.2750278,E,2,4,4.1,-3.334,M,40.592,M,1.6,0123*5F
$GPVTG,209.06,T,-430.84,M,003.591,N,006.650,K,D*06
$GPGGA,092635.25,5702.9362620,N,00949.2749854,E,2,4,4.1,-3.308,M,40.592,M,1.9,0123*54
$GPVTG,210.46,T,-429.44,M,003.572,N,006.615,K,D*02
$GPGGA,092635.30,5702.9362205,N,00949.2749344,E,2,4,4.1,-3.303,M,40.592,M,1.9,0123*52
$GPVTG,211.46,T,-428.44,M,003.637,N,006.736,K,D*00
$GPGGA,092635.35,5702.9361798,N,00949.2748882,E,2,4,4.1,-3.304,M,40.592,M,1.9,0123*52
$GPVTG,212.02,T,-427.88,M,003.681,N,006.818,K,D*02
$GPGGA,092635.40,5702.9361401,N,00949.2748344,E,2,4,4.1,-3.307,M,40.592,M,1.9,0123*51
$GPVTG,212.99,T,-426.91,M,003.738,N,006.923,K,D*03
$GPGGA,092635.45,5702.9360939,N,00949.2747880,E,2,4,4.1,-3.299,M,40.592,M,2.1,0123*52
$GPVTG,214.19,T,-425.71,M,003.711,N,006.874,K,D*08
$GPGGA,092635.50,5702.9360543,N,00949.2747438,E,2,4,4.1,-3.300,M,40.592,M,2.1,0123*59
$GPVTG,214.33,T,-425.57,M,003.730,N,006.908,K,D*0D
$GPGGA,092635.55,5702.9360153,N,00949.2746907,E,2,4,4.1,-3.302,M,40.592,M,2.1,0123*5B
$GPVTG,214.98,T,-424.92,M,003.770,N,006.981,K,D*01
$GPGGA,092635.60,5702.9359755,N,00949.2746399,E,2,4,4.1,-3.304,M,40.592,M,2.1,0123*5C
$GPVTG,215.36,T,-424.54,M,003.801,N,007.040,K,D*02
$GPGGA,092635.65,5702.9359390,N,00949.2745920,E,2,4,4.1,-3.300,M,40.592,M,2.3,0123*59
$GPVTG,216.61,T,-423.29,M,003.765,N,006.972,K,D*0A
$GPGGA,092635.70,5702.9358992,N,00949.2745270,E,2,4,4.1,-3.301,M,40.592,M,2.3,0123*5B
$GPVTG,217.69,T,-422.21,M,003.831,N,007.095,K,D*05
$GPGGA,092635.75,5702.9358607,N,00949.2744663,E,2,4,4.1,-3.304,M,40.592,M,2.3,0123*5F
$GPVTG,218.41,T,-421.49,M,003.874,N,007.175,K,D*03
$GPGGA,092635.80,5702.9358225,N,00949.2744069,E,2,4,4.1,-3.306,M,40.592,M,2.3,0123*5F
$GPVTG,218.96,T,-420.94,M,003.908,N,007.238,K,D*08
$GPGGA,092635.85,5702.9357856,N,00949.2743493,E,2,4,4.1,-3.263,M,40.592,M,2.6,0123*5A
$GPVTG,220.27,T,-419.63,M,003.878,N,007.182,K,D*0F
$GPGGA,092635.90,5702.9357480,N,00949.2742891,E,2,4,4.1,-3.257,M,40.592,M,2.6,0123*51
$GPVTG,220.72,T,-419.18,M,003.902,N,007.226,K,D*02
$GPGGA,092635.95,5702.9357098,N,00949.2742242,E,2,4,4.1,-3.256,M,40.592,M,2.6,0123*5C
$GPVTG,221.33,T,-418.57,M,003.941,N,007.299,K,D*0F
$GPGGA,092636.00,5702.9356721,N,00949.2741580,E,2,4,4.1,-3.257,M,40.592,M,2.6,0123*5C
$GPVTG,221.93,T,-417.97,M,003.978,N,007.368,K,D*03
$GPGGA,092636.05,5702.9356613,N,00949.2740922,E,2,4,4.1,-3.284,M,40.592,M,2.8,0123*5C
$GPVTG,223.42,T,-416.48,M,003.901,N,007.226,K,D*0B
$GPGGA,092636.10,5702.9356252,N,00949.2740268,E,2,4,4.1,-3.290,M,40.592,M,2.8,0123*59
$GPVTG,223.87,T,-416.03,M,003.919,N,007.258,K,D*0D
$GPGGA,092636.15,5702.9355899,N,00949.2739577,E,2,4,4.1,-3.293,M,40.592,M,2.8,0123*56
$GPVTG,224.51,T,-415.39,M,003.948,N,007.312,K,D*00
$GPGGA,092636.20,5702.9355571,N,00949.2738856,E,2,4,4.1,-3.300,M,40.592,M,2.8,0123*5F
$GPVTG,225.33,T,-414.57,M,003.978,N,007.367,K,D*0D
$GPGGA,092636.25,5702.9355312,N,00949.2738020,E,2,4,4.1,-3.254,M,40.592,M,3.0,0123*59
$GPVTG,227.13,T,-412.77,M,003.944,N,007.304,K,D*03
$GPGGA,092636.30,5702.9354969,N,00949.2737325,E,2,4,4.1,-3.257,M,40.592,M,3.0,0123*50
$GPVTG,227.51,T,-412.39,M,003.953,N,007.321,K,D*0E
$GPGGA,092636.35,5702.9354653,N,00949.2736556,E,2,4,4.1,-3.254,M,40.592,M,3.0,0123*53
$GPVTG,228.42,T,-411.48,M,003.987,N,007.384,K,D*00
$GPGGA,092636.40,5702.9354346,N,00949.2735769,E,2,4,4.1,-3.252,M,40.592,M,3.0,0123*5B
$GPVTG,229.33,T,-410.57,M,004.021,N,007.448,K,D*0D
$GPGGA,092636.45,5702.9354210,N,00949.2734935,E,2,4,4.1,-3.247,M,40.592,M,3.2,0123*5C
$GPVTG,231.26,T,-408.64,M,003.996,N,007.401,K,D*06
$GPGGA,092636.50,5702.9353893,N,00949.2734175,E,2,4,4.1,-3.247,M,40.592,M,3.2,0123*52
$GPVTG,231.77,T,-408.13,M,004.009,N,007.424,K,D*0D
$GPGGA,092636.55,5702.9353590,N,00949.2733419,E,2,4,4.1,-3.245,M,40.592,M,3.2,0123*53
$GPVTG,232.25,T,-407.65,M,004.014,N,007.434,K,D*0A
$GPGGA,092636.60,5702.9353294,N,00949.2732634,E,2,4,4.1,-3.243,M,40.592,M,3.2,0123*5C
$GPVTG,232.85,T,-407.05,M,004.027,N,007.459,K,D*0D
$GPGGA,092636.65,5702.9353328,N,00949.2731835,E,2,4,4.1,-3.259,M,40.592,M,3.4,0123*5E
$GPVTG,234.94,T,-404.96,M,003.959,N,007.331,K,D*0C
$GPGGA,092636.70,5702.9353071,N,00949.2731012,E,2,4,4.1,-3.263,M,40.592,M,3.4,0123*51
$GPVTG,235.83,T,-404.07,M,003.972,N,007.355,K,D*08
$GPGGA,092636.75,5702.9352811,N,00949.2730176,E,2,4,4.1,-3.268,M,40.592,M,3.4,0123*52
$GPVTG,236.62,T,-403.28,M,003.990,N,007.390,K,D*0B
$GPGGA,092636.80,5702.9352594,N,00949.2729385,E,2,4,4.1,-3.268,M,40.592,M,3.4,0123*5E
$GPVTG,237.36,T,-402.54,M,003.973,N,007.359,K,D*09
$GPGGA,092636.85,5702.9352517,N,00949.2728467,E,2,4,4.1,-3.238,M,40.592,M,3.6,0123*5D
$GPVTG,239.50,T,-400.40,M,003.930,N,007.279,K,D*04
$GPGGA,092636.90,5702.9352274,N,00949.2727646,E,2,4,4.1,-3.241,M,40.592,M,3.6,0123*5B
$GPVTG,240.12,T,-399.78,M,003.931,N,007.281,K,D*06
$GPGGA,092636.95,5702.9352019,N,00949.2726792,E,2,4,4.1,-3.244,M,40.592,M,3.6,0123*5B
$GPVTG,240.72,T,-399.18,M,003.949,N,007.313,K,D*03
$GPGGA,092637.00,5702.9351776,N,00949.2725884,E,2,4,4.1,-3.245,M,40.592,M,3.6,0123*51
$GPVTG,241.51,T,-398.39,M,003.984,N,007.378,K,D*0D
$GPGGA,092637.05,5702.9351630,N,00949.2724976,E,2,4,4.1,-3.237,M,40.592,M,1.9,0123*52
$GPVTG,243.33,T,-396.57,M,003.961,N,007.336,K,D*0C
$GPGGA,092637.10,5702.9351419,N,00949.2724136,E,2,4,4.1,-3.241,M,40.592,M,1.9,0123*52
$GPVTG,243.89,T,-396.01,M,003.945,N,007.307,K,D*0A
$GPGGA,092637.15,5702.9351219,N,00949.2723257,E,2,4,4.1,-3.242,M,40.592,M,1.9,0123*51
$GPVTG,244.61,T,-395.29,M,003.949,N,007.314,K,D*0C
$GPGGA,092637.20,5702.9351016,N,00949.2722394,E,2,4,4.1,-3.248,M,40.592,M,1.9,0123*5F
$GPVTG,245.18,T,-394.72,M,003.943,N,007.303,K,D*00
$GPGGA,092637.25,5702.9351099,N,00949.2721383,E,2,4,4.1,-3.246,M,40.592,M,2.2,0123*5E
$GPVTG,247.40,T,-392.50,M,003.949,N,007.314,K,D*05
$GPGGA,092637.30,5702.9350909,N,00949.2720495,E,2,4,4.1,-3.251,M,40.592,M,2.2,0123*5C
$GPVTG,248.01,T,-391.89,M,003.947,N,007.309,K,D*0A
$GPGGA,092637.35,5702.9350739,N,00949.2719575,E,2,4,4.1,-3.255,M,40.592,M,2.2,0123*55
$GPVTG,248.78,T,-391.12,M,003.957,N,007.329,K,D*05
$GPGGA,092637.40,5702.9350612,N,00949.2718654,E,2,4,4.1,-3.252,M,40.592,M,2.2,0123*59
$GPVTG,249.72,T,-390.18,M,003.960,N,007.333,K,D*0A
$GPGGA,092637.45,5702.9350569,N,00949.2717660,E,2,4,4.1,-3.223,M,40.592,M,2.4,0123*5B
$GPVTG,251.61,T,-388.29,M,003.936,N,007.290,K,D*01
$GPGGA,092637.50,5702.9350422,N,00949.2716756,E,2,4,4.1,-3.224,M,40.592,M,2.4,0123*53
$GPVTG,252.30,T,-387.60,M,003.927,N,007.273,K,D*09
$GPGGA,092637.55,5702.9350299,N,00949.2715798,E,2,4,4.1,-3.225,M,40.592,M,2.4,0123*50
$GPVTG,253.20,T,-386.70,M,003.944,N,007.304,K,D*0D
$GPGGA,092637.60,5702.9350160,N,00949.2714886,E,2,4,4.1,-3.226,M,40.592,M,2.4,0123*51
$GPVTG,253.83,T,-386.07,M,003.936,N,007.289,K,D*05
$GPGGA,092637.65,5702.9350213,N,00949.2713918,E,2,4,4.1,-3.228,M,40.592,M,2.7,0123*5F
$GPVTG,255.78,T,-384.12,M,003.921,N,007.262,K,D*02
$GPGGA,092637.70,5702.9350124,N,00949.2713002,E,2,4,4.1,-3.229,M,40.592,M,2.7,0123*5F
$GPVTG,256.66,T,-383.24,M,003.905,N,007.232,K,D*0F
$GPGGA,092637.75,5702.9350048,N,00949.2712033,E,2,4,4.1,-3.231,M,40.592,M,2.7,0123*5B
$GPVTG,257.64,T,-382.26,M,003.918,N,007.255,K,D*02
$GPGGA,092637.80,5702.9349948,N,00949.2711094,E,2,4,4.1,-3.236,M,40.592,M,2.7,0123*59
$GPVTG,258.35,T,-381.55,M,003.915,N,007.250,K,D*06
$GPGGA,092637.85,5702.9350158,N,00949.2710080,E,2,4,4.1,-3.234,M,40.592,M,2.9,0123*55
$GPVTG,260.45,T,-379.45,M,003.901,N,007.225,K,D*0B
$GPGGA,092637.90,5702.9350124,N,00949.2709141,E,2,4,4.1,-3.237,M,40.592,M,2.9,0123*5D
$GPVTG,261.51,T,-378.39,M,003.891,N,007.205,K,D*0F
$GPGGA,092637.95,5702.9350072,N,00949.2708205,E,2,4,4.1,-3.240,M,40.592,M,2.9,0123*58
$GPVTG,262.35,T,-377.55,M,003.881,N,007.187,K,D*03
$GPGGA,092638.00,5702.9350063,N,00949.2707215,E,2,4,4.1,-3.239,M,40.592,M,2.9,0123*5B
$GPVTG,263.46,T,-376.44,M,003.898,N,007.219,K,D*0B
$GPGGA,092638.05,5702.9350207,N,00949.2706218,E,2,4,4.1,-3.211,M,40.592,M,1.7,0123*55
$GPVTG,264.59,T,-375.31,M,003.891,N,007.207,K,D*05
$GPGGA,092638.10,5702.9350315,N,00949.2705268,E,2,4,4.1,-3.211,M,40.592,M,1.7,0123*57
$GPVTG,265.78,T,-374.12,M,003.890,N,007.204,K,D*05
$GPGGA,092638.15,5702.9350350,N,00949.2704331,E,2,4,4.1,-3.211,M,40.592,M,1.7,0123*5F
$GPVTG,266.74,T,-373.16,M,003.882,N,007.189,K,D*0C
$GPGGA,092638.20,5702.9350349,N,00949.2703391,E,2,4,4.1,-3.214,M,40.592,M,1.7,0123*59
$GPVTG,267.57,T,-372.33,M,003.871,N,007.170,K,D*00
$GPGGA,092638.25,5702.9350445,N,00949.2702482,E,2,4,4.1,-3.207,M,40.592,M,2.0,0123*55
$GPVTG,270.06,T,-369.84,M,003.800,N,007.038,K,D*0F
$GPGGA,092638.30,5702.9350478,N,00949.2701569,E,2,4,4.1,-3.208,M,40.592,M,2.0,0123*57
$GPVTG,271.21,T,-368.69,M,003.751,N,006.948,K,D*0D
$GPGGA,092638.35,5702.9350531,N,00949.2700651,E,2,4,4.1,-3.209,M,40.592,M,2.0,0123*56
$GPVTG,272.47,T,-367.43,M,003.712,N,006.874,K,D*00
$GPGGA,092638.40,5702.9350591,N,00949.2699702,E,2,4,4.1,-3.211,M,40.592,M,2.0,0123*51
$GPVTG,273.70,T,-366.20,M,003.713,N,006.876,K,D*02
$GPGGA,092638.45,5702.9350866,N,00949.2698666,E,2,4,4.1,-3.195,M,40.592,M,2.2,0123*5E
$GPVTG,276.24,T,-363.66,M,003.764,N,006.971,K,D*07
$GPGGA,092638.50,5702.9350963,N,00949.2697757,E,2,4,4.1,-3.194,M,40.592,M,2.2,0123*53
$GPVTG,277.80,T,-362.10,M,003.724,N,006.897,K,D*05
$GPGGA,092638.55,5702.9351054,N,00949.2696880,E,2,4,4.1,-3.194,M,40.592,M,2.2,0123*5E
$GPVTG,279.24,T,-360.66,M,003.656,N,006.770,K,D*04
$GPGGA,092638.60,5702.9351159,N,00949.2695982,E,2,4,4.1,-3.195,M,40.592,M,2.2,0123*55
$GPVTG,280.67,T,-359.23,M,003.629,N,006.720,K,D*03
$GPGGA,092638.65,5702.9351367,N,00949.2695063,E,2,4,4.1,-3.182,M,40.592,M,2.4,0123*59
$GPVTG,283.39,T,-356.51,M,003.623,N,006.710,K,D*08
$GPGGA,092638.70,5702.9351496,N,00949.2694143,E,2,4,4.1,-3.183,M,40.592,M,2.4,0123*57
$GPVTG,284.70,T,-355.20,M,003.650,N,006.760,K,D*04
$GPGGA,092638.75,5702.9351644,N,00949.2693244,E,2,4,4.1,-3.186,M,40.592,M,2.4,0123*59
$GPVTG,286.17,T,-353.73,M,003.657,N,006.773,K,D*02
$GPGGA,092638.80,5702.9351828,N,00949.2692358,E,2,4,4.1,-3.185,M,40.592,M,2.4,0123*59
$GPVTG,287.98,T,-351.92,M,003.664,N,006.786,K,D*03
$GPGGA,092638.85,5702.9352011,N,00949.2691473,E,2,4,4.1,-3.173,M,40.592,M,2.7,0123*5A
$GPVTG,289.30,T,-350.60,M,003.632,N,006.726,K,D*0A
$GPGGA,092638.90,5702.9352251,N,00949.2690558,E,2,4,4.1,-3.169,M,40.592,M,2.7,0123*5A
$GPVTG,290.87,T,-349.03,M,003.685,N,006.825,K,D*03
$GPGGA,092638.95,5702.9352510,N,00949.2689660,E,2,4,4.1,-3.167,M,40.592,M,2.7,0123*53
$GPVTG,292.56,T,-347.34,M,003.731,N,006.910,K,D*0E
$GPGGA,092639.00,5702.9352769,N,00949.2688805,E,2,4,4.1,-3.166,M,40.592,M,2.7,0123*5F
$GPVTG,294.41,T,-345.49,M,003.743,N,006.932,K,D*03
$GPGGA,092639.05,5702.9352973,N,00949.2687943,E,2,4,4.1,-3.163,M,40.592,M,1.6,0123*54
$GPVTG,296.54,T,-343.36,M,003.788,N,007.016,K,D*02
$GPGGA,092639.10,5702.9353200,N,00949.2687097,E,2,4,4.1,-3.161,M,40.592,M,1.6,0123*5C
$GPVTG,297.84,T,-342.06,M,003.789,N,007.017,K,D*0C
$GPGGA,092639.15,5702.9353397,N,00949.2686316,E,1,3,4.1,-3.166,M,40.592,M,,*77
$GPVTG,299.15,T,-340.75,M,003.716,N,006.883,K,A*0B
$GPGGA,092639.20,5702.9353681,N,00949.2685502,E,1,3,4.1,-3.162,M,40.592,M,,*77
$GPVTG,300.96,T,-338.94,M,003.735,N,006.918,K,A*03
$GPGGA,092639.25,5702.9353664,N,00949.2684755,E,1,3,4.1,-3.166,M,40.592,M,,*7C
$GPVTG,302.12,T,-337.78,M,003.749,N,006.944,K,A*02
$GPGGA,092639.30,5702.9353954,N,00949.2683924,E,1,3,4.1,-3.163,M,40.592,M,,*7E
$GPVTG,303.36,T,-336.54,M,003.796,N,007.030,K,A*03
$GPGGA,092639.35,5702.9354235,N,00949.2683185,E,1,3,4.1,-3.163,M,40.592,M,,*73
$GPVTG,305.21,T,-334.69,M,003.761,N,006.966,K,A*0C
$GPGGA,092639.40,5702.9354505,N,00949.2682419,E,1,3,4.1,-3.168,M,40.592,M,,*7F
$GPVTG,306.51,T,-333.39,M,003.759,N,006.962,K,A*05
$GPGGA,092639.45,5702.9354833,N,00949.2681666,E,2,4,4.1,-3.162,M,40.592,M,2.1,0123*58
$GPVTG,307.98,T,-331.92,M,003.736,N,006.919,K,D*02
$GPGGA,092639.50,5702.9355161,N,00949.2680855,E,2,4,4.1,-3.160,M,40.592,M,2.1,0123*5E
$GPVTG,308.87,T,-331.03,M,003.804,N,007.044,K,D*05
$GPGGA,092639.55,5702.9355487,N,00949.2680101,E,2,4,4.1,-3.158,M,40.592,M,2.1,0123*55
$GPVTG,310.11,T,-329.79,M,003.829,N,007.092,K,D*03
$GPGGA,092639.60,5702.9355847,N,00949.2679318,E,2,4,4.1,-3.158,M,40.592,M,2.1,0123*5F
$GPVTG,311.10,T,-328.80,M,003.894,N,007.212,K,D*08
$GPGGA,092639.65,5702.9356447,N,00949.2678574,E,2,4,4.1,-3.153,M,40.592,M,2.3,0123*51
$GPVTG,312.49,T,-327.41,M,003.836,N,007.104,K,D*09
$GPGGA,092639.70,5702.9356803,N,00949.2677930,E,1,3,4.1,-3.149,M,40.592,M,,*7A
$GPVTG,314.50,T,-325.40,M,003.799,N,007.035,K,A*08
$GPGGA,092639.75,5702.9357171,N,00949.2677285,E,1,3,4.1,-3.146,M,40.592,M,,*78
$GPVTG,316.29,T,-323.61,M,003.787,N,007.013,K,A*0A
$GPGGA,092639.80,5702.9357556,N,00949.2676575,E,1,3,4.1,-3.142,M,40.592,M,,*7E
$GPVTG,317.16,T,-322.74,M,003.844,N,007.120,K,A*03
$GPGGA,092639.85,5702.9357144,N,00949.2676013,E,1,3,4.1,-3.136,M,40.592,M,,*7A
$GPVTG,317.53,T,-322.37,M,003.811,N,007.059,K,A*0A
$GPGGA,092639.90,5702.9357537,N,00949.2675325,E,1,3,4.1,-3.134,M,40.592,M,,*79
$GPVTG,318.37,T,-321.53,M,003.861,N,007.151,K,A*08
$GPGGA,092639.95,5702.9357926,N,00949.2674685,E,1,3,4.1,-3.131,M,40.592,M,,*7B
$GPVTG,319.57,T,-320.33,M,003.878,N,007.183,K,A*0F
$GPGGA,092640.00,5702.9358337,N,00949.2674045,E,1,3,4.1,-3.123,M,40.592,M,,*75
$GPVTG,320.71,T,-319.19,M,003.909,N,007.240,K,A*08
$GPGGA,092640.05,5702.9358739,N,00949.2673442,E,1,3,4.1,-3.121,M,40.592,M,,*7C
$GPVTG,322.14,T,-317.76,M,003.863,N,007.155,K,A*04
$GPGGA,092640.10,5702.9359150,N,00949.2672899,E,1,3,4.1,-3.118,M,40.592,M,,*71
$GPVTG,323.95,T,-315.95,M,003.851,N,007.133,K,A*02
$GPGGA,092640.15,5702.9359584,N,00949.2672299,E,1,3,4.1,-3.114,M,40.592,M,,*7F
$GPVTG,324.88,T,-315.02,M,003.892,N,007.208,K,A*03
$GPGGA,092640.20,5702.9360020,N,00949.2671717,E,1,3,4.1,-3.109,M,40.592,M,,*74
$GPVTG,325.86,T,-314.04,M,003.926,N,007.272,K,A*08
$GPGGA,092640.25,5702.9360147,N,00949.2671146,E,1,3,4.1,-3.122,M,40.592,M,,*7A
$GPVTG,326.14,T,-313.76,M,003.933,N,007.284,K,A*0F
$GPGGA,092640.30,5702.9360597,N,00949.2670648,E,1,3,4.1,-3.124,M,40.592,M,,*79
$GPVTG,327.87,T,-312.03,M,003.932,N,007.283,K,A*01
$GPGGA,092640.35,5702.9361061,N,00949.2670132,E,1,3,4.1,-3.128,M,40.592,M,,*77
$GPVTG,329.14,T,-310.76,M,003.955,N,007.325,K,A*09
$GPGGA,092640.40,5702.9361539,N,00949.2669604,E,1,3,4.1,-3.135,M,40.592,M,,*7B
$GPVTG,330.10,T,-309.80,M,003.996,N,007.401,K,A*0A
$GPGGA,092640.45,5702.9362583,N,00949.2668995,E,2,4,4.1,-3.127,M,40.592,M,3.2,0123*52
$GPVTG,330.49,T,-309.41,M,003.981,N,007.372,K,D*0B
$GPGGA,092640.50,5702.9363061,N,00949.2668496,E,2,4,4.1,-3.125,M,40.592,M,3.2,0123*52
$GPVTG,331.43,T,-308.47,M,004.011,N,007.428,K,D*08
$GPGGA,092640.55,5702.9363541,N,00949.2667998,E,2,4,4.1,-3.124,M,40.592,M,3.2,0123*5D
$GPVTG,332.20,T,-307.70,M,004.044,N,007.489,K,D*0E
$GPGGA,092640.60,5702.9364021,N,00949.2667555,E,2,4,4.1,-3.124,M,40.592,M,3.2,0123*52
$GPVTG,333.50,T,-306.40,M,004.050,N,007.501,K,D*0E
$GPGGA,092640.65,5702.9365445,N,00949.2666931,E,2,4,4.1,-3.153,M,40.592,M,3.4,0123*59
$GPVTG,333.02,T,-306.88,M,003.850,N,007.130,K,D*04
$GPGGA,092640.70,5702.9365914,N,00949.2666449,E,2,4,4.1,-3.151,M,40.592,M,3.4,0123*54
$GPVTG,333.24,T,-306.66,M,003.877,N,007.180,K,D*0E
$GPGGA,092640.75,5702.9366396,N,00949.2666047,E,2,4,4.1,-3.150,M,40.592,M,3.4,0123*59
$GPVTG,334.67,T,-305.23,M,003.879,N,007.184,K,D*06
$GPGGA,092640.80,5702.9366871,N,00949.2665657,E,2,4,4.1,-3.148,M,40.592,M,3.4,0123*5C
$GPVTG,335.91,T,-303.99,M,003.873,N,007.173,K,D*0B
$GPGGA,092640.85,5702.9368575,N,00949.2665044,E,2,4,4.1,-3.152,M,40.592,M,3.6,0123*53
$GPVTG,335.79,T,-304.11,M,003.776,N,006.994,K,D*00
$GPGGA,092640.90,5702.9369045,N,00949.2664619,E,2,4,4.1,-3.150,M,40.592,M,3.6,0123*5D
$GPVTG,336.29,T,-303.61,M,003.789,N,007.017,K,D*05
$GPGGA,092640.95,5702.9369511,N,00949.2664240,E,2,4,4.1,-3.142,M,40.592,M,3.6,0123*57
$GPVTG,337.08,T,-302.82,M,003.786,N,007.012,K,D*01
$GPGGA,092641.00,5702.9369984,N,00949.2663919,E,2,4,4.1,-3.132,M,40.592,M,3.6,0123*5D
$GPVTG,338.43,T,-301.47,M,003.774,N,006.989,K,D*0C
$GPGGA,092641.05,5702.9371864,N,00949.2663271,E,2,4,4.1,-3.153,M,40.592,M,1.9,0123*51
$GPVTG,338.23,T,-301.67,M,003.651,N,006.762,K,D*05
$GPGGA,092641.10,5702.9372326,N,00949.2662919,E,2,4,4.1,-3.148,M,40.592,M,1.9,0123*55
$GPVTG,338.86,T,-301.04,M,003.649,N,006.759,K,D*0E
$GPGGA,092641.15,5702.9372798,N,00949.2662599,E,2,4,4.1,-3.142,M,40.592,M,1.9,0123*5F
$GPVTG,339.81,T,-300.09,M,003.650,N,006.759,K,D*0C
$GPGGA,092641.20,5702.9373271,N,00949.2662334,E,2,4,4.1,-3.135,M,40.592,M,1.9,0123*5B
$GPVTG,341.31,T,-298.59,M,003.637,N,006.736,K,D*05
$GPGGA,092641.25,5702.9375422,N,00949.2661810,E,2,4,4.1,-3.182,M,40.592,M,2.2,0123*52
$GPVTG,342.28,T,-297.62,M,003.540,N,006.556,K,D*0E
$GPGGA,092641.30,5702.9375884,N,00949.2661559,E,2,4,4.1,-3.181,M,40.592,M,2.2,0123*55
$GPVTG,343.56,T,-296.34,M,003.525,N,006.528,K,D*0E
$GPGGA,092641.35,5702.9376342,N,00949.2661291,E,2,4,4.1,-3.179,M,40.592,M,2.2,0123*56
$GPVTG,344.11,T,-295.79,M,003.519,N,006.518,K,D*0C
$GPGGA,092641.40,5702.9376807,N,00949.2661056,E,2,4,4.1,-3.178,M,40.592,M,2.2,0123*56
$GPVTG,345.13,T,-294.77,M,003.511,N,006.503,K,D*02
$GPGGA,092641.45,5702.9378895,N,00949.2660661,E,2,4,4.1,-3.200,M,40.592,M,2.4,0123*5F
$GPVTG,347.34,T,-292.56,M,003.380,N,006.260,K,D*0C
$GPGGA,092641.50,5702.9379343,N,00949.2660537,E,2,4,4.1,-3.192,M,40.592,M,2.4,0123*52
$GPVTG,349.53,T,-290.37,M,003.349,N,006.202,K,D*07
$GPGGA,092641.55,5702.9379801,N,00949.2660436,E,2,4,4.1,-3.188,M,40.592,M,2.4,0123*51
$GPVTG,351.69,T,-288.21,M,003.333,N,006.173,K,D*01
$GPGGA,092641.60,5702.9380252,N,00949.2660248,E,2,4,4.1,-3.179,M,40.592,M,2.4,0123*5C
$GPVTG,351.76,T,-288.14,M,003.331,N,006.169,K,D*00
$GPGGA,092641.65,5702.9382774,N,00949.2659787,E,2,4,4.1,-3.240,M,40.592,M,2.7,0123*5C
$GPVTG,352.92,T,-286.98,M,003.272,N,006.059,K,D*07
$GPGGA,092641.70,5702.9383210,N,00949.2659640,E,2,4,4.1,-3.239,M,40.592,M,2.7,0123*5A
$GPVTG,353.52,T,-286.38,M,003.251,N,006.021,K,D*0E
$GPGGA,092641.75,5702.9383650,N,00949.2659528,E,2,4,4.1,-3.238,M,40.592,M,2.7,0123*53
$GPVTG,354.35,T,-285.55,M,003.238,N,005.996,K,D*09
$GPGGA,092641.80,5702.9384107,N,00949.2659469,E,2,4,4.1,-3.235,M,40.592,M,2.7,0123*52
$GPVTG,355.74,T,-284.16,M,003.238,N,005.998,K,D*05
$GPGGA,092641.85,5702.9386571,N,00949.2659106,E,2,4,4.1,-3.282,M,40.592,M,2.9,0123*5E
$GPVTG,357.38,T,-282.52,M,003.185,N,005.898,K,D*0D
$GPGGA,092641.90,5702.9387006,N,00949.2659070,E,2,4,4.1,-3.278,M,40.592,M,2.9,0123*5B
$GPVTG,358.48,T,-281.42,M,003.171,N,005.873,K,D*09
$GPGGA,092641.95,5702.9387435,N,00949.2658983,E,2,4,4.1,-3.275,M,40.592,M,2.9,0123*53
$GPVTG,358.15,T,-281.75,M,003.157,N,005.847,K,D*06
$GPGGA,092642.00,5702.9387870,N,00949.2658940,E,2,4,4.1,-3.270,M,40.592,M,2.9,0123*5B
$GPVTG,358.71,T,-281.19,M,003.149,N,005.831,K,D*00
$GPGGA,092642.05,5702.9390296,N,00949.2658572,E,2,4,4.1,-3.317,M,40.592,M,1.7,0123*5A
$GPVTG,359.48,T,-280.42,M,003.096,N,005.733,K,D*0A
$GPGGA,092642.10,5702.9390721,N,00949.2658575,E,2,4,4.1,-3.314,M,40.592,M,1.7,0123*53
$GPVTG,000.53,T,-639.37,M,003.081,N,005.707,K,D*0A
$GPGGA,092642.15,5702.9391155,N,00949.2658590,E,2,4,4.1,-3.311,M,40.592,M,1.7,0123*5C
$GPVTG,001.57,T,-638.33,M,003.080,N,005.704,K,D*08
$GPGGA,092642.20,5702.9391587,N,00949.2658625,E,2,4,4.1,-3.306,M,40.592,M,1.7,0123*5A
$GPVTG,002.72,T,-637.18,M,003.078,N,005.701,K,D*08
$GPGGA,092642.25,5702.9393971,N,00949.2658370,E,2,4,4.1,-3.355,M,40.592,M,2.0,0123*5F
$GPVTG,004.42,T,-635.48,M,003.045,N,005.639,K,D*0E
$GPGGA,092642.30,5702.9394382,N,00949.2658392,E,2,4,4.1,-3.349,M,40.592,M,2.0,0123*5B
$GPVTG,004.65,T,-635.25,M,003.025,N,005.603,K,D*0F
$GPGGA,092642.35,5702.9394793,N,00949.2658400,E,2,4,4.1,-3.344,M,40.592,M,2.0,0123*5B
$GPVTG,004.44,T,-635.46,M,003.007,N,005.569,K,D*06
$GPGGA,092642.40,5702.9395219,N,00949.2658524,E,2,4,4.1,-3.339,M,40.592,M,2.0,0123*52
$GPVTG,006.48,T,-633.42,M,003.014,N,005.583,K,D*0C
$GPGGA,092642.45,5702.9395185,N,00949.2658685,E,2,4,4.1,-3.349,M,40.592,M,2.2,0123*5C
$GPVTG,008.53,T,-631.37,M,002.979,N,005.516,K,D*07
$GPGGA,092642.50,5702.9395595,N,00949.2658723,E,2,4,4.1,-3.347,M,40.592,M,2.2,0123*5E
$GPVTG,008.08,T,-631.82,M,002.962,N,005.486,K,D*05
$GPGGA,092642.55,5702.9395999,N,00949.2658831,E,2,4,4.1,-3.346,M,40.592,M,2.2,0123*56
$GPVTG,008.95,T,-630.95,M,002.954,N,005.470,K,D*0A
$GPGGA,092642.60,5702.9396403,N,00949.2658926,E,2,4,4.1,-3.345,M,40.592,M,2.2,0123*59
$GPVTG,009.35,T,-630.55,M,002.942,N,005.449,K,D*00
$GPGGA,092642.65,5702.9399051,N,00949.2658712,E,2,4,4.1,-3.392,M,40.592,M,2.4,0123*55
$GPVTG,011.36,T,-628.54,M,002.889,N,005.350,K,D*0B
$GPGGA,092642.70,5702.9399452,N,00949.2658905,E,2,4,4.1,-3.389,M,40.592,M,2.4,0123*54
$GPVTG,013.27,T,-626.63,M,002.903,N,005.376,K,D*04
$GPGGA,092642.75,5702.9399842,N,00949.2659122,E,2,4,4.1,-3.388,M,40.592,M,2.4,0123*51
$GPVTG,015.27,T,-624.63,M,002.910,N,005.389,K,D*02
$GPGGA,092642.80,5702.9400231,N,00949.2659299,E,2,4,4.1,-3.392,M,40.592,M,2.4,0123*5A
$GPVTG,016.02,T,-623.88,M,002.903,N,005.377,K,D*07
$GPGGA,092642.85,5702.9400078,N,00949.2659549,E,1,3,4.1,-3.400,M,40.592,M,,*7A
$GPVTG,017.18,T,-622.72,M,002.842,N,005.263,K,A*0C
$GPGGA,092642.90,5702.9400458,N,00949.2659739,E,1,3,4.1,-3.396,M,40.592,M,,*75
$GPVTG,017.77,T,-622.13,M,002.831,N,005.243,K,A*04
$GPGGA,092642.95,5702.9400835,N,00949.2659952,E,1,3,4.1,-3.396,M,40.592,M,,*74
$GPVTG,018.61,T,-621.29,M,002.825,N,005.232,K,A*05
$GPGGA,092643.00,5702.9401208,N,00949.2660223,E,1,3,4.1,-3.396,M,40.592,M,,*7B
$GPVTG,020.38,T,-619.52,M,002.835,N,005.251,K,A*01
$GPGGA,092643.05,5702.9401682,N,00949.2660422,E,1,3,4.1,-3.391,M,40.592,M,,*78
$GPVTG,021.39,T,-618.51,M,002.809,N,005.203,K,A*0B
$GPGGA,092643.10,5702.9402033,N,00949.2660728,E,1,3,4.1,-3.386,M,40.592,M,,*7C
$GPVTG,023.32,T,-616.58,M,002.818,N,005.219,K,A*0E
$GPGGA,092643.15,5702.9402390,N,00949.2661056,E,1,3,4.1,-3.383,M,40.592,M,,*79
$GPVTG,025.26,T,-614.64,M,002.836,N,005.253,K,A*02
$GPGGA,092643.20,5702.9402745,N,00949.2661307,E,1,3,4.1,-3.380,M,40.592,M,,*77
$GPVTG,025.41,T,-614.49,M,002.815,N,005.213,K,A*09
$GPGGA,092643.25,5702.9402941,N,00949.2661548,E,1,3,4.1,-3.412,M,40.592,M,,*79
$GPVTG,026.18,T,-613.72,M,002.790,N,005.168,K,A*04
$GPGGA,092643.30,5702.9403291,N,00949.2661864,E,1,3,4.1,-3.412,M,40.592,M,,*79
$GPVTG,027.25,T,-612.65,M,002.793,N,005.172,K,A*04
$GPGGA,092643.35,5702.9403641,N,00949.2662135,E,1,3,4.1,-3.415,M,40.592,M,,*7C
$GPVTG,027.53,T,-612.37,M,002.777,N,005.144,K,A*0D
$GPGGA,092643.40,5702.9403981,N,00949.2662445,E,1,3,4.1,-3.417,M,40.592,M,,*7D
$GPVTG,028.24,T,-611.66,M,002.769,N,005.129,K,A*01
$GPGGA,092643.45,5702.9404369,N,00949.2662732,E,1,3,4.1,-3.409,M,40.592,M,,*7F
$GPVTG,028.45,T,-611.45,M,002.752,N,005.097,K,A*0B
$GPGGA,092643.50,5702.9404698,N,00949.2663081,E,1,3,4.1,-3.408,M,40.592,M,,*7F
$GPVTG,029.64,T,-610.26,M,002.754,N,005.100,K,A*04
$GPGGA,092643.55,5702.9405037,N,00949.2663418,E,1,3,4.1,-3.408,M,40.592,M,,*7C
$GPVTG,030.22,T,-609.68,M,002.749,N,005.092,K,A*0A
$GPGGA,092643.60,5702.9405366,N,00949.2663756,E,1,3,4.1,-3.413,M,40.592,M,,*7E
$GPVTG,030.76,T,-609.14,M,002.739,N,005.072,K,A*09
$GPGGA,092643.65,5702.9405570,N,00949.2664141,E,2,4,4.1,-3.414,M,40.592,M,2.3,0123*51
$GPVTG,032.25,T,-607.65,M,002.745,N,005.084,K,D*02
$GPGGA,092643.70,5702.9405884,N,00949.2664479,E,2,4,4.1,-3.414,M,40.592,M,2.3,0123*5D
$GPVTG,032.49,T,-607.41,M,002.718,N,005.034,K,D*0D
$GPGGA,092643.75,5702.9406199,N,00949.2664909,E,2,4,4.1,-3.412,M,40.592,M,2.3,0123*52
$GPVTG,034.34,T,-605.56,M,002.748,N,005.088,K,D*07
$GPGGA,092643.80,5702.9406514,N,00949.2665274,E,2,4,4.1,-3.413,M,40.592,M,2.3,0123*58
$GPVTG,034.68,T,-605.22,M,002.732,N,005.059,K,D*0C
$GPGGA,092643.85,5702.9407103,N,00949.2665568,E,2,4,4.1,-3.431,M,40.592,M,2.6,0123*51
$GPVTG,036.49,T,-603.41,M,002.602,N,004.819,K,D*01
$GPGGA,092643.90,5702.9407393,N,00949.2665988,E,2,4,4.1,-3.434,M,40.592,M,2.6,0123*59
$GPVTG,037.82,T,-602.08,M,002.616,N,004.844,K,D*06
$GPGGA,092643.95,5702.9407674,N,00949.2666407,E,2,4,4.1,-3.436,M,40.592,M,2.6,0123*5B
$GPVTG,039.00,T,-600.90,M,002.613,N,004.840,K,D*00
$GPGGA,092644.00,5702.9407926,N,00949.2666815,E,2,4,4.1,-3.440,M,40.592,M,2.6,0123*56
$GPVTG,040.22,T,-599.68,M,002.574,N,004.767,K,D*02
$GPGGA,092644.05,5702.9408534,N,00949.2667143,E,2,4,4.1,-3.447,M,40.592,M,2.8,0123*51
$GPVTG,042.85,T,-597.05,M,002.471,N,004.577,K,D*0F
$GPGGA,092644.10,5702.9408770,N,00949.2667525,E,2,4,4.1,-3.446,M,40.592,M,2.8,0123*52
$GPVTG,043.33,T,-596.57,M,002.414,N,004.471,K,D*01
$GPGGA,092644.15,5702.9409005,N,00949.2667968,E,2,4,4.1,-3.446,M,40.592,M,2.8,0123*56
$GPVTG,044.83,T,-595.07,M,002.410,N,004.463,K,D*0C
$GPGGA,092644.20,5702.9409236,N,00949.2668423,E,2,4,4.1,-3.448,M,40.592,M,2.8,0123*51
$GPVTG,046.34,T,-593.56,M,002.412,N,004.466,K,D*07
$GPGGA,092644.25,5702.9409984,N,00949.2668782,E,2,4,4.1,-3.466,M,40.592,M,3.0,0123*5B
$GPVTG,049.58,T,-590.32,M,002.375,N,004.399,K,D*02
$GPGGA,092644.30,5702.9410188,N,00949.2669219,E,2,4,4.1,-3.467,M,40.592,M,3.0,0123*54
$GPVTG,050.66,T,-589.24,M,002.345,N,004.343,K,D*0C
$GPGGA,092644.35,5702.9410393,N,00949.2669672,E,2,4,4.1,-3.469,M,40.592,M,3.0,0123*5E
$GPVTG,051.81,T,-588.09,M,002.331,N,004.317,K,D*08
$GPGGA,092644.40,5702.9410592,N,00949.2670171,E,2,4,4.1,-3.473,M,40.592,M,3.0,0123*5C
$GPVTG,053.48,T,-586.42,M,002.346,N,004.345,K,D*09
$GPGGA,092644.45,5702.9411531,N,00949.2670513,E,2,4,4.1,-3.499,M,40.592,M,3.2,0123*57
$GPVTG,055.88,T,-584.02,M,002.310,N,004.279,K,D*08
$GPGGA,092644.50,5702.9411697,N,00949.2670961,E,2,4,4.1,-3.497,M,40.592,M,3.2,0123*5B
$GPVTG,057.09,T,-582.81,M,002.273,N,004.209,K,D*0D
$GPGGA,092644.55,5702.9411852,N,00949.2671393,E,2,4,4.1,-3.494,M,40.592,M,3.2,0123*5C
$GPVTG,058.18,T,-581.72,M,002.225,N,004.121,K,D*07
$GPGGA,092644.60,5702.9412009,N,00949.2671905,E,2,4,4.1,-3.495,M,40.592,M,3.2,0123*5B
$GPVTG,059.95,T,-579.95,M,002.236,N,004.142,K,D*0A
$GPGGA,092644.65,5702.9412883,N,00949.2672223,E,2,4,4.1,-3.529,M,40.592,M,3.4,0123*58
$GPVTG,062.54,T,-577.36,M,002.199,N,004.072,K,D*0C
$GPGGA,092644.70,5702.9413021,N,00949.2672723,E,2,4,4.1,-3.532,M,40.592,M,3.4,0123*52
$GPVTG,064.09,T,-575.81,M,002.197,N,004.068,K,D*09
$GPGGA,092644.75,5702.9413149,N,00949.2673238,E,2,4,4.1,-3.532,M,40.592,M,3.4,0123*56
$GPVTG,065.74,T,-574.16,M,002.201,N,004.076,K,D*0E
$GPGGA,092644.80,5702.9413256,N,00949.2673650,E,2,4,4.1,-3.533,M,40.592,M,3.4,0123*5A
$GPVTG,066.87,T,-573.03,M,002.136,N,003.957,K,D*08
$GPGGA,092644.85,5702.9413970,N,00949.2673929,E,2,4,4.1,-3.555,M,40.592,M,3.6,0123*53
$GPVTG,069.15,T,-570.75,M,002.062,N,003.819,K,D*05
$GPGGA,092644.90,5702.9414080,N,00949.2674419,E,2,4,4.1,-3.558,M,40.592,M,3.6,0123*52
$GPVTG,070.54,T,-569.36,M,002.060,N,003.814,K,D*08
$GPGGA,092644.95,5702.9414169,N,00949.2674976,E,2,4,4.1,-3.564,M,40.592,M,3.6,0123*5A
$GPVTG,072.54,T,-567.36,M,002.091,N,003.873,K,D*0B
$GPGGA,092645.00,5702.9414252,N,00949.2675449,E,2,4,4.1,-3.570,M,40.592,M,3.6,0123*59
$GPVTG,074.02,T,-565.88,M,002.071,N,003.836,K,D*06
$GPGGA,092645.05,5702.9414960,N,00949.2675797,E,2,4,4.1,-3.579,M,40.592,M,1.9,0123*52
$GPVTG,075.96,T,-563.94,M,002.044,N,003.786,K,D*03
$GPGGA,092645.10,5702.9415026,N,00949.2676284,E,2,4,4.1,-3.576,M,40.592,M,1.9,0123*57
$GPVTG,077.55,T,-562.35,M,002.035,N,003.769,K,D*03
$GPGGA,092645.15,5702.9415076,N,00949.2676728,E,2,4,4.1,-3.576,M,40.592,M,1.9,0123*54
$GPVTG,079.17,T,-560.73,M,002.002,N,003.707,K,D*07
$GPGGA,092645.20,5702.9415108,N,00949.2677242,E,2,4,4.1,-3.577,M,40.592,M,1.9,0123*53
$GPVTG,081.19,T,-558.71,M,002.009,N,003.720,K,D*09
$GPGGA,092645.25,5702.9415766,N,00949.2677565,E,2,4,4.1,-3.605,M,40.592,M,2.2,0123*54
$GPVTG,083.15,T,-556.75,M,001.992,N,003.690,K,D*0F
$GPGGA,092645.30,5702.9415793,N,00949.2678017,E,2,4,4.1,-3.606,M,40.592,M,2.2,0123*56
$GPVTG,084.85,T,-555.05,M,001.969,N,003.646,K,D*0A
$GPGGA,092645.35,5702.9415826,N,00949.2678509,E,2,4,4.1,-3.613,M,40.592,M,2.2,0123*5C
$GPVTG,086.35,T,-553.55,M,001.970,N,003.648,K,D*06
$GPGGA,092645.40,5702.9415840,N,00949.2679020,E,2,4,4.1,-3.619,M,40.592,M,2.2,0123*5B
$GPVTG,088.06,T,-551.84,M,001.981,N,003.669,K,D*0B
$GPGGA,092645.45,5702.9416365,N,00949.2679347,E,2,4,4.1,-3.636,M,40.592,M,2.4,0123*58
$GPVTG,090.02,T,-549.88,M,001.948,N,003.608,K,D*01
$GPGGA,092645.50,5702.9416358,N,00949.2679797,E,2,4,4.1,-3.639,M,40.592,M,2.4,0123*54
$GPVTG,091.84,T,-548.06,M,001.932,N,003.577,K,D*0F
$GPGGA,092645.55,5702.9416340,N,00949.2680267,E,2,4,4.1,-3.644,M,40.592,M,2.4,0123*5E
$GPVTG,093.72,T,-546.18,M,001.928,N,003.571,K,D*08
$GPGGA,092645.60,5702.9416306,N,00949.2680650,E,2,4,4.1,-3.645,M,40.592,M,2.4,0123*5B
$GPVTG,095.84,T,-544.06,M,001.883,N,003.487,K,D*02
$GPGGA,092645.65,5702.9416555,N,00949.2680965,E,2,4,4.1,-3.653,M,40.592,M,2.7,0123*53
$GPVTG,098.65,T,-541.25,M,001.865,N,003.453,K,D*05
$GPGGA,092645.70,5702.9416513,N,00949.2681429,E,2,4,4.1,-3.656,M,40.592,M,2.7,0123*54
$GPVTG,100.49,T,-539.41,M,001.871,N,003.465,K,D*06
$GPGGA,092645.75,5702.9416452,N,00949.2681831,E,2,4,4.1,-3.656,M,40.592,M,2.7,0123*50
$GPVTG,102.74,T,-537.16,M,001.850,N,003.426,K,D*02
$GPGGA,092645.80,5702.9416393,N,00949.2682312,E,2,4,4.1,-3.662,M,40.592,M,2.7,0123*5E
$GPVTG,104.48,T,-535.42,M,001.872,N,003.467,K,D*0D
$GPGGA,092645.85,5702.9416664,N,00949.2682649,E,2,4,4.1,-3.677,M,40.592,M,2.9,0123*57
$GPVTG,106.72,T,-533.18,M,001.868,N,003.460,K,D*03
$GPGGA,092645.90,5702.9416581,N,00949.2683056,E,2,4,4.1,-3.681,M,40.592,M,2.9,0123*5B
$GPVTG,108.86,T,-531.04,M,001.860,N,003.445,K,D*06
$GPGGA,092645.95,5702.9416478,N,00949.2683461,E,2,4,4.1,-3.688,M,40.592,M,2.9,0123*50
$GPVTG,111.19,T,-528.71,M,001.859,N,003.443,K,D*0E
$GPGGA,092646.00,5702.9416409,N,00949.2683881,E,2,4,4.1,-3.692,M,40.592,M,2.9,0123*50
$GPVTG,112.72,T,-527.18,M,001.860,N,003.446,K,D*0F
$GPGGA,092646.05,5702.9416658,N,00949.2684174,E,2,4,4.1,-3.701,M,40.592,M,1.7,0123*51
$GPVTG,114.86,T,-525.04,M,001.853,N,003.431,K,D*0D
$GPGGA,092646.10,5702.9416537,N,00949.2684565,E,2,4,4.1,-3.701,M,40.592,M,1.7,0123*5B
$GPVTG,117.10,T,-522.80,M,001.857,N,003.440,K,D*08
$GPGGA,092646.15,5702.9416403,N,00949.2684892,E,2,4,4.1,-3.701,M,40.592,M,1.7,0123*5D
$GPVTG,119.80,T,-520.10,M,001.839,N,003.406,K,D*0E
$GPGGA,092646.20,5702.9416280,N,00949.2685257,E,2,4,4.1,-3.705,M,40.592,M,1.7,0123*50
$GPVTG,121.88,T,-518.02,M,001.840,N,003.408,K,D*05
$GPGGA,092646.25,5702.9416457,N,00949.2685465,E,2,4,4.1,-3.723,M,40.592,M,2.0,0123*5E
$GPVTG,124.48,T,-515.42,M,001.830,N,003.389,K,D*0C
$GPGGA,092646.30,5702.9416302,N,00949.2685679,E,2,4,4.1,-3.727,M,40.592,M,2.0,0123*56
$GPVTG,128.09,T,-511.81,M,001.786,N,003.308,K,D*05
$GPGGA,092646.35,5702.9416149,N,00949.2685953,E,2,4,4.1,-3.729,M,40.592,M,2.0,0123*57
$GPVTG,130.89,T,-509.01,M,001.775,N,003.288,K,D*00
$GPGGA,092646.40,5702.9415992,N,00949.2686283,E,2,4,4.1,-3.737,M,40.592,M,2.0,0123*52
$GPVTG,132.91,T,-506.99,M,001.791,N,003.317,K,D*08
$GPGGA,092646.45,5702.9416142,N,00949.2686429,E,2,4,4.1,-3.734,M,40.592,M,2.2,0123*56
$GPVTG,135.79,T,-504.11,M,001.787,N,003.310,K,D*0B
$GPGGA,092646.50,5702.9415964,N,00949.2686749,E,2,4,4.1,-3.738,M,40.592,M,2.2,0123*54
$GPVTG,137.68,T,-502.22,M,001.813,N,003.358,K,D*01
$GPGGA,092646.55,5702.9415775,N,00949.2687095,E,2,4,4.1,-3.743,M,40.592,M,2.2,0123*54
$GPVTG,139.14,T,-500.76,M,001.853,N,003.432,K,D*08
$GPGGA,092646.60,5702.9415582,N,00949.2687420,E,2,4,4.1,-3.748,M,40.592,M,2.2,0123*59
$GPVTG,140.71,T,-499.19,M,001.887,N,003.495,K,D*09
$GPGGA,092646.65,5702.9415813,N,00949.2687607,E,2,4,4.1,-3.763,M,40.592,M,2.4,0123*51
$GPVTG,142.80,T,-497.10,M,001.898,N,003.514,K,D*04
$GPGGA,092646.70,5702.9415602,N,00949.2687844,E,2,4,4.1,-3.771,M,40.592,M,2.4,0123*51
$GPVTG,145.17,T,-494.73,M,001.914,N,003.544,K,D*0B
$GPGGA,092646.75,5702.9415393,N,00949.2688120,E,2,4,4.1,-3.779,M,40.592,M,2.4,0123*55
$GPVTG,146.78,T,-493.12,M,001.943,N,003.598,K,D*02
$GPGGA,092646.80,5702.9415170,N,00949.2688317,E,2,4,4.1,-3.787,M,40.592,M,2.4,0123*57
$GPVTG,149.30,T,-490.60,M,001.957,N,003.625,K,D*07
$GPGGA,092646.85,5702.9415454,N,00949.2688413,E,2,4,4.1,-3.783,M,40.592,M,2.7,0123*55
$GPVTG,151.39,T,-488.51,M,001.968,N,003.645,K,D*06
$GPGGA,092646.90,5702.9415202,N,00949.2688584,E,2,4,4.1,-3.783,M,40.592,M,2.7,0123*5B
$GPVTG,153.95,T,-485.95,M,001.996,N,003.696,K,D*08
$GPGGA,092646.95,5702.9414965,N,00949.2688729,E,2,4,4.1,-3.786,M,40.592,M,2.7,0123*55
$GPVTG,156.47,T,-483.43,M,002.013,N,003.728,K,D*0C
$GPGGA,092647.00,5702.9414709,N,00949.2688877,E,2,4,4.1,-3.790,M,40.592,M,2.7,0123*5F
$GPVTG,158.77,T,-481.13,M,002.042,N,003.783,K,D*03
$GPGGA,092647.05,5702.9415009,N,00949.2688823,E,2,4,4.1,-3.804,M,40.592,M,1.6,0123*5D
$GPVTG,161.41,T,-478.49,M,002.052,N,003.800,K,D*00
$GPGGA,092647.10,5702.9414737,N,00949.2688861,E,2,4,4.1,-3.807,M,40.592,M,1.6,0123*57
$GPVTG,164.63,T,-475.27,M,002.077,N,003.847,K,D*04
$GPGGA,092647.15,5702.9414459,N,00949.2689028,E,2,4,4.1,-3.812,M,40.592,M,1.6,0123*59
$GPVTG,165.83,T,-474.07,M,002.125,N,003.936,K,D*09
$GPGGA,092647.20,5702.9414183,N,00949.2689130,E,2,4,4.1,-3.819,M,40.592,M,1.6,0123*5E
$GPVTG,167.66,T,-472.24,M,002.163,N,004.007,K,D*09
$GPGGA,092647.25,5702.9414443,N,00949.2689129,E,2,4,4.1,-3.820,M,40.592,M,1.9,0123*5F
$GPVTG,168.98,T,-470.92,M,002.189,N,004.055,K,D*0B
$GPGGA,092647.30,5702.9414151,N,00949.2689200,E,2,4,4.1,-3.826,M,40.592,M,1.9,0123*53
$GPVTG,170.78,T,-469.12,M,002.231,N,004.131,K,D*0F
$GPGGA,092647.35,5702.9413851,N,00949.2689249,E,2,4,4.1,-3.829,M,40.592,M,1.9,0123*5A
$GPVTG,172.62,T,-467.28,M,002.274,N,004.212,K,D*02
$GPGGA,092647.40,5702.9413538,N,00949.2689297,E,2,4,4.1,-3.834,M,40.592,M,1.9,0123*55
$GPVTG,174.22,T,-465.68,M,002.323,N,004.303,K,D*04
$GPGGA,092647.45,5702.9413893,N,00949.2689300,E,2,4,4.1,-3.841,M,40.592,M,2.1,0123*5A
$GPVTG,175.06,T,-464.84,M,002.343,N,004.339,K,D*0F
$GPGGA,092647.50,5702.9413577,N,00949.2689323,E,2,4,4.1,-3.847,M,40.592,M,2.1,0123*5E
$GPVTG,176.46,T,-463.44,M,002.389,N,004.425,K,D*0F
$GPGGA,092647.55,5702.9413250,N,00949.2689358,E,2,4,4.1,-3.854,M,40.592,M,2.1,0123*57
$GPVTG,177.65,T,-462.25,M,002.439,N,004.518,K,D*0A
$GPGGA,092647.60,5702.9412910,N,00949.2689342,E,2,4,4.1,-3.862,M,40.592,M,2.1,0123*51
$GPVTG,179.06,T,-460.84,M,002.493,N,004.617,K,D*04
$GPGGA,092647.65,5702.9413205,N,00949.2689186,E,2,4,4.1,-3.870,M,40.592,M,2.3,0123*51
$GPVTG,181.64,T,-458.26,M,002.517,N,004.661,K,D*08
$GPGGA,092647.70,5702.9412845,N,00949.2689125,E,2,4,4.1,-3.869,M,40.592,M,2.3,0123*5B
$GPVTG,183.28,T,-456.62,M,002.579,N,004.776,K,D*03
$GPGGA,092647.75,5702.9412496,N,00949.2689076,E,2,4,4.1,-3.869,M,40.592,M,2.3,0123*5B
$GPVTG,184.46,T,-455.44,M,002.632,N,004.874,K,D*0A
$GPGGA,092647.80,5702.9412154,N,00949.2689021,E,2,4,4.1,-3.873,M,40.592,M,2.3,0123*53
$GPVTG,185.50,T,-454.40,M,002.680,N,004.964,K,D*00
$GPGGA,092647.85,5702.9412613,N,00949.2688760,E,2,4,4.1,-3.884,M,40.592,M,2.6,0123*5C
$GPVTG,186.88,T,-453.02,M,002.690,N,004.983,K,D*0F
$GPGGA,092647.90,5702.9412258,N,00949.2688680,E,2,4,4.1,-3.883,M,40.592,M,2.6,0123*5B
$GPVTG,187.81,T,-452.09,M,002.739,N,005.073,K,D*08
$GPGGA,092647.95,5702.9411896,N,00949.2688547,E,2,4,4.1,-3.882,M,40.592,M,2.6,0123*5C
$GPVTG,189.14,T,-450.76,M,002.793,N,005.173,K,D*01
$GPGGA,092648.00,5702.9411527,N,00949.2688323,E,2,4,4.1,-3.880,M,40.592,M,2.6,0123*5E
$GPVTG,191.19,T,-448.71,M,002.857,N,005.292,K,D*00
$GPGGA,092648.05,5702.9412077,N,00949.2687936,E,2,4,4.1,-3.903,M,40.592,M,2.8,0123*5D
$GPVTG,193.15,T,-446.75,M,002.863,N,005.301,K,D*08
$GPGGA,092648.10,5702.9411705,N,00949.2687766,E,2,4,4.1,-3.906,M,40.592,M,2.8,0123*56
$GPVTG,194.11,T,-445.79,M,002.916,N,005.400,K,D*01
$GPGGA,092648.15,5702.9411342,N,00949.2687575,E,2,4,4.1,-3.909,M,40.592,M,2.8,0123*5B
$GPVTG,195.13,T,-444.77,M,002.965,N,005.491,K,D*01
$GPGGA,092648.20,5702.9410968,N,00949.2687408,E,2,4,4.1,-3.913,M,40.592,M,2.8,0123*5E
$GPVTG,195.72,T,-444.18,M,003.012,N,005.578,K,D*01
$GPGGA,092648.25,5702.9411478,N,00949.2687033,E,2,4,4.1,-3.916,M,40.592,M,3.0,0123*56
$GPVTG,197.26,T,-442.64,M,003.014,N,005.582,K,D*0C
$GPGGA,092648.30,5702.9411093,N,00949.2686805,E,2,4,4.1,-3.918,M,40.592,M,3.0,0123*51
$GPVTG,198.09,T,-441.81,M,003.066,N,005.678,K,D*05
$GPGGA,092648.35,5702.9410710,N,00949.2686550,E,2,4,4.1,-3.920,M,40.592,M,3.0,0123*5F
$GPVTG,199.02,T,-440.88,M,003.119,N,005.777,K,D*00
$GPGGA,092648.40,5702.9410314,N,00949.2686304,E,2,4,4.1,-3.923,M,40.592,M,3.0,0123*59
$GPVTG,199.66,T,-440.24,M,003.172,N,005.874,K,D*05
$GPGGA,092648.45,5702.9410837,N,00949.2685903,E,2,4,4.1,-3.940,M,40.592,M,3.2,0123*5F
$GPVTG,200.59,T,-439.31,M,003.167,N,005.865,K,D*04
$GPGGA,092648.50,5702.9410447,N,00949.2685646,E,2,4,4.1,-3.941,M,40.592,M,3.2,0123*5F
$GPVTG,201.11,T,-438.79,M,003.210,N,005.945,K,D*04
$GPGGA,092648.55,5702.9410037,N,00949.2685330,E,2,4,4.1,-3.941,M,40.592,M,3.2,0123*5D
$GPVTG,201.95,T,-437.95,M,003.269,N,006.055,K,D*00
$GPGGA,092648.60,5702.9409644,N,00949.2685081,E,2,4,4.1,-3.944,M,40.592,M,3.2,0123*5D
$GPVTG,202.15,T,-437.75,M,003.305,N,006.121,K,D*0C
$GPGGA,092648.65,5702.9410140,N,00949.2684627,E,2,4,4.1,-3.961,M,40.592,M,3.4,0123*59
$GPVTG,203.30,T,-436.60,M,003.304,N,006.120,K,D*0F
$GPGGA,092648.70,5702.9409744,N,00949.2684349,E,2,4,4.1,-3.964,M,40.592,M,3.4,0123*5F
$GPVTG,203.53,T,-436.37,M,003.337,N,006.181,K,D*03
$GPGGA,092648.75,5702.9409345,N,00949.2683973,E,2,4,4.1,-3.966,M,40.592,M,3.4,0123*59
$GPVTG,204.46,T,-435.44,M,003.389,N,006.277,K,D*08
$GPGGA,092648.80,5702.9408938,N,00949.2683697,E,2,4,4.1,-3.975,M,40.592,M,3.4,0123*55
$GPVTG,204.44,T,-435.46,M,003.420,N,006.333,K,D*0D
$GPGGA,092648.85,5702.9409539,N,00949.2683267,E,2,4,4.1,-3.982,M,40.592,M,3.6,0123*5D
$GPVTG,205.09,T,-434.81,M,003.385,N,006.270,K,D*01
$GPGGA,092648.90,5702.9409141,N,00949.2682953,E,2,4,4.1,-3.988,M,40.592,M,3.6,0123*55
$GPVTG,205.29,T,-434.61,M,003.412,N,006.320,K,D*00
$GPGGA,092648.95,5702.9408741,N,00949.2682648,E,2,4,4.1,-3.992,M,40.592,M,3.6,0123*59
$GPVTG,205.34,T,-434.56,M,003.436,N,006.364,K,D*0E
$GPGGA,092649.00,5702.9408345,N,00949.2682345,E,2,4,4.1,-3.995,M,40.592,M,3.6,0123*5B
$GPVTG,205.34,T,-434.56,M,003.456,N,006.400,K,D*0D
$GPGGA,092649.05,5702.9409125,N,00949.2681833,E,2,4,4.1,-4.034,M,40.592,M,1.9,0123*5A
$GPVTG,206.51,T,-433.39,M,003.399,N,006.295,K,D*0D
$GPGGA,092649.10,5702.9408737,N,00949.2681473,E,2,4,4.1,-4.041,M,40.592,M,1.9,0123*50
$GPVTG,206.86,T,-433.04,M,003.421,N,006.335,K,D*06
$GPGGA,092649.15,5702.9408363,N,00949.2681135,E,2,4,4.1,-4.049,M,40.592,M,1.9,0123*5F
$GPVTG,207.00,T,-432.90,M,003.430,N,006.353,K,D*05
$GPGGA,092649.20,5702.9407985,N,00949.2680769,E,2,4,4.1,-4.056,M,40.592,M,1.9,0123*54
$GPVTG,207.30,T,-432.60,M,003.447,N,006.383,K,D*04
$GPGGA,092649.25,5702.9408804,N,00949.2680228,E,2,4,4.1,-4.052,M,40.592,M,2.2,0123*5A
$GPVTG,208.69,T,-431.21,M,003.373,N,006.246,K,D*09
$GPGGA,092649.30,5702.9408426,N,00949.2679849,E,2,4,4.1,-4.046,M,40.592,M,2.2,0123*5C
$GPVTG,208.96,T,-430.94,M,003.386,N,006.271,K,D*08
$GPGGA,092649.35,5702.9408055,N,00949.2679549,E,2,4,4.1,-4.045,M,40.592,M,2.2,0123*57
$GPVTG,208.59,T,-431.31,M,003.377,N,006.255,K,D*0D
$GPGGA,092649.40,5702.9407690,N,00949.2679180,E,2,4,4.1,-4.040,M,40.592,M,2.2,0123*51
$GPVTG,208.76,T,-431.14,M,003.383,N,006.265,K,D*0F
$GPGGA,092649.45,5702.9408697,N,00949.2678667,E,2,4,4.1,-4.072,M,40.592,M,2.4,0123*54
$GPVTG,209.73,T,-430.17,M,003.256,N,006.031,K,D*03
$GPGGA,092649.50,5702.9408338,N,00949.2678295,E,2,4,4.1,-4.072,M,40.592,M,2.4,0123*59
$GPVTG,209.89,T,-430.01,M,003.258,N,006.033,K,D*0D
$GPGGA,092649.55,5702.9407992,N,00949.2677924,E,2,4,4.1,-4.067,M,40.592,M,2.4,0123*53
$GPVTG,210.04,T,-429.86,M,003.254,N,006.027,K,D*0E
$GPGGA,092649.60,5702.9407654,N,00949.2677543,E,2,4,4.1,-4.063,M,40.592,M,2.4,0123*59
$GPVTG,210.25,T,-429.65,M,003.251,N,006.020,K,D*02
$GPGGA,092649.65,5702.9408570,N,00949.2677043,E,2,4,4.1,-4.064,M,40.592,M,2.7,0123*57
$GPVTG,211.71,T,-428.19,M,003.136,N,005.808,K,D*0B
$GPGGA,092649.70,5702.9408232,N,00949.2676682,E,2,4,4.1,-4.061,M,40.592,M,2.7,0123*5D
$GPVTG,211.91,T,-427.99,M,003.131,N,005.799,K,D*02
$GPGGA,092649.75,5702.9407906,N,00949.2676365,E,2,4,4.1,-4.054,M,40.592,M,2.7,0123*51
$GPVTG,211.89,T,-428.01,M,003.115,N,005.768,K,D*0D
$GPGGA,092649.80,5702.9407603,N,00949.2676032,E,2,4,4.1,-4.046,M,40.592,M,2.7,0123*53
$GPVTG,211.98,T,-427.92,M,003.093,N,005.728,K,D*03
$GPGGA,092649.85,5702.9408522,N,00949.2675616,E,2,4,4.1,-4.059,M,40.592,M,2.9,0123*5A
$GPVTG,212.60,T,-427.30,M,002.936,N,005.437,K,D*05
$GPGGA,092649.90,5702.9408206,N,00949.2675342,E,2,4,4.1,-4.057,M,40.592,M,2.9,0123*55
$GPVTG,211.67,T,-428.23,M,002.888,N,005.349,K,D*06
$GPGGA,092649.95,5702.9407895,N,00949.2675026,E,2,4,4.1,-4.057,M,40.592,M,2.9,0123*5E
$GPVTG,211.28,T,-428.62,M,002.858,N,005.294,K,D*04
$GPGGA,092650.00,5702.9407591,N,00949.2674668,E,2,4,4.1,-4.052,M,40.592,M,2.9,0123*5B
$GPVTG,211.38,T,-428.52,M,002.842,N,005.264,K,D*02
$GPGGA,092650.05,5702.9408458,N,00949.2674243,E,2,4,4.1,-4.087,M,40.592,M,1.7,0123*5D
$GPVTG,211.70,T,-428.20,M,002.686,N,004.974,K,D*06
$GPGGA,092650.10,5702.9408210,N,00949.2673931,E,2,4,4.1,-4.088,M,40.592,M,1.7,0123*55
$GPVTG,211.56,T,-428.34,M,002.631,N,004.873,K,D*0D
$GPGGA,092650.15,5702.9407939,N,00949.2673660,E,2,4,4.1,-4.094,M,40.592,M,1.7,0123*59
$GPVTG,210.82,T,-429.08,M,002.580,N,004.777,K,D*09
$GPGGA,092650.20,5702.9407681,N,00949.2673399,E,2,4,4.1,-4.096,M,40.592,M,1.7,0123*52
$GPVTG,210.15,T,-429.75,M,002.527,N,004.680,K,D*09
$GPGGA,092650.25,5702.9408468,N,00949.2672859,E,2,4,4.1,-4.100,M,40.592,M,2.0,0123*51
$GPVTG,211.83,T,-428.07,M,002.400,N,004.445,K,D*0C
$GPGGA,092650.30,5702.9408224,N,00949.2672551,E,2,4,4.1,-4.098,M,40.592,M,2.0,0123*5E
$GPVTG,211.95,T,-427.95,M,002.363,N,004.376,K,D*0A
$GPGGA,092650.35,5702.9407967,N,00949.2672293,E,2,4,4.1,-4.101,M,40.592,M,2.0,0123*50
$GPVTG,211.39,T,-428.51,M,002.319,N,004.295,K,D*0A
$GPGGA,092650.40,5702.9407733,N,00949.2672023,E,2,4,4.1,-4.107,M,40.592,M,2.0,0123*52
$GPVTG,211.15,T,-428.75,M,002.275,N,004.213,K,D*07
$GPGGA,092650.45,5702.9408300,N,00949.2671547,E,2,4,4.1,-4.106,M,40.592,M,2.2,0123*5B
$GPVTG,212.25,T,-427.65,M,002.171,N,004.021,K,D*0D
$GPGGA,092650.50,5702.9408076,N,00949.2671270,E,2,4,4.1,-4.109,M,40.592,M,2.2,0123*51
$GPVTG,212.25,T,-427.65,M,002.130,N,003.945,K,D*04
$GPGGA,092650.55,5702.9407837,N,00949.2670994,E,2,4,4.1,-4.117,M,40.592,M,2.2,0123*59
$GPVTG,212.18,T,-427.72,M,002.099,N,003.887,K,D*01
$GPGGA,092650.60,5702.9407605,N,00949.2670679,E,2,4,4.1,-4.124,M,40.592,M,2.2,0123*5C
$GPVTG,212.69,T,-427.21,M,002.079,N,003.851,K,D*04
$GPGGA,092650.65,5702.9408127,N,00949.2670211,E,2,4,4.1,-4.156,M,40.592,M,2.4,0123*58
$GPVTG,214.56,T,-425.34,M,002.018,N,003.737,K,D*00
$GPGGA,092650.70,5702.9407942,N,00949.2669932,E,2,4,4.1,-4.161,M,40.592,M,2.4,0123*5E
$GPVTG,214.93,T,-424.97,M,001.971,N,003.651,K,D*05
$GPGGA,092650.75,5702.9407752,N,00949.2669667,E,2,4,4.1,-4.163,M,40.592,M,2.4,0123*59
$GPVTG,215.08,T,-424.82,M,001.928,N,003.570,K,D*0E
$GPGGA,092650.80,5702.9407553,N,00949.2669401,E,2,4,4.1,-4.171,M,40.592,M,2.4,0123*51
$GPVTG,215.18,T,-424.72,M,001.890,N,003.501,K,D*04
$GPGGA,092650.85,5702.9407999,N,00949.2668882,E,2,4,4.1,-4.170,M,40.592,M,2.7,0123*5A
$GPVTG,217.65,T,-422.25,M,001.841,N,003.410,K,D*05
$GPGGA,092650.90,5702.9407802,N,00949.2668609,E,2,4,4.1,-4.172,M,40.592,M,2.7,0123*52
$GPVTG,217.83,T,-422.07,M,001.809,N,003.351,K,D*03
$GPGGA,092650.95,5702.9407622,N,00949.2668329,E,2,4,4.1,-4.172,M,40.592,M,2.7,0123*5C
$GPVTG,218.29,T,-421.61,M,001.777,N,003.290,K,D*05
$GPGGA,092651.00,5702.9407452,N,00949.2668043,E,2,4,4.1,-4.170,M,40.592,M,2.7,0123*59
$GPVTG,218.92,T,-420.98,M,001.745,N,003.233,K,D*0A
$GPGGA,092651.05,5702.9407914,N,00949.2667560,E,2,4,4.1,-4.183,M,40.592,M,1.6,0123*56
$GPVTG,221.82,T,-418.08,M,001.702,N,003.152,K,D*04
$GPGGA,092651.10,5702.9407757,N,00949.2667235,E,2,4,4.1,-4.183,M,40.592,M,1.6,0123*5C
$GPVTG,223.14,T,-416.76,M,001.685,N,003.121,K,D*04
$GPGGA,092651.15,5702.9407594,N,00949.2666993,E,2,4,4.1,-4.182,M,40.592,M,1.6,0123*53
$GPVTG,223.12,T,-416.78,M,001.640,N,003.037,K,D*03
$GPGGA,092651.20,5702.9407440,N,00949.2666715,E,2,4,4.1,-4.182,M,40.592,M,1.6,0123*5D
$GPVTG,223.74,T,-416.16,M,001.609,N,002.980,K,D*02
$GPGGA,092651.25,5702.9407811,N,00949.2666328,E,2,4,4.1,-4.192,M,40.592,M,1.9,0123*54
$GPVTG,225.73,T,-414.17,M,001.544,N,002.859,K,D*0F
$GPGGA,092651.30,5702.9407654,N,00949.2666054,E,2,4,4.1,-4.191,M,40.592,M,1.9,0123*54
$GPVTG,226.24,T,-413.66,M,001.518,N,002.812,K,D*09
$GPGGA,092651.35,5702.9407510,N,00949.2665744,E,2,4,4.1,-4.189,M,40.592,M,1.9,0123*5E
$GPVTG,227.40,T,-412.50,M,001.504,N,002.785,K,D*02
$GPGGA,092651.40,5702.9407365,N,00949.2665447,E,2,4,4.1,-4.191,M,40.592,M,1.9,0123*51
$GPVTG,228.33,T,-411.57,M,001.486,N,002.752,K,D*0C
$GPGGA,092651.45,5702.9407711,N,00949.2665082,E,2,4,4.1,-4.218,M,40.592,M,2.1,0123*57
$GPVTG,230.16,T,-409.74,M,001.440,N,002.667,K,D*07
$GPGGA,092651.50,5702.9407599,N,00949.2664804,E,2,4,4.1,-4.221,M,40.592,M,2.1,0123*5C
$GPVTG,231.29,T,-408.61,M,001.410,N,002.611,K,D*0B
$GPGGA,092651.55,5702.9407504,N,00949.2664515,E,2,4,4.1,-4.222,M,40.592,M,2.1,0123*53
$GPVTG,232.80,T,-407.10,M,001.384,N,002.562,K,D*0F
$GPGGA,092651.60,5702.9407382,N,00949.2664191,E,2,4,4.1,-4.225,M,40.592,M,2.1,0123*52
$GPVTG,234.35,T,-405.55,M,001.383,N,002.561,K,D*00
$GPGGA,092651.65,5702.9407598,N,00949.2663754,E,2,4,4.1,-4.232,M,40.592,M,2.3,0123*56
$GPVTG,236.83,T,-403.07,M,001.385,N,002.565,K,D*0C
$GPGGA,092651.70,5702.9407506,N,00949.2663455,E,2,4,4.1,-4.236,M,40.592,M,2.3,0123*53
$GPVTG,238.31,T,-401.59,M,001.367,N,002.532,K,D*0C
$GPGGA,092651.75,5702.9407400,N,00949.2663171,E,2,4,4.1,-4.240,M,40.592,M,2.3,0123*53
$GPVTG,239.30,T,-400.60,M,001.346,N,002.493,K,D*0E
$GPGGA,092651.80,5702.9407318,N,00949.2662831,E,2,4,4.1,-4.244,M,40.592,M,2.3,0123*5F
$GPVTG,241.30,T,-398.60,M,001.349,N,002.498,K,D*03
$GPGGA,092651.85,5702.9407524,N,00949.2662436,E,2,4,4.1,-4.259,M,40.592,M,2.6,0123*51
$GPVTG,243.61,T,-396.29,M,001.340,N,002.481,K,D*07
$GPGGA,092651.90,5702.9407447,N,00949.2662158,E,2,4,4.1,-4.259,M,40.592,M,2.6,0123*5C
$GPVTG,244.82,T,-395.08,M,001.312,N,002.429,K,D*08
$GPGGA,092651.95,5702.9407379,N,00949.2661869,E,2,4,4.1,-4.258,M,40.592,M,2.6,0123*5A
$GPVTG,246.26,T,-393.64,M,001.291,N,002.391,K,D*06
$GPGGA,092652.00,5702.9407303,N,00949.2661547,E,2,4,4.1,-4.263,M,40.592,M,2.6,0123*51
$GPVTG,247.84,T,-392.06,M,001.291,N,002.391,K,D*0A
$GPGGA,092652.05,5702.9407436,N,00949.2661155,E,2,4,4.1,-4.261,M,40.592,M,2.8,0123*5E
$GPVTG,249.49,T,-390.41,M,001.284,N,002.378,K,D*07
$GPGGA,092652.10,5702.9407374,N,00949.2660867,E,2,4,4.1,-4.265,M,40.592,M,2.8,0123*56
$GPVTG,250.83,T,-389.07,M,001.265,N,002.343,K,D*04
$GPGGA,092652.15,5702.9407329,N,00949.2660524,E,2,4,4.1,-4.268,M,40.592,M,2.8,0123*5C
$GPVTG,252.87,T,-387.03,M,001.275,N,002.361,K,D*09
$GPGGA,092652.20,5702.9407290,N,00949.2660189,E,2,4,4.1,-4.270,M,40.592,M,2.8,0123*53
$GPVTG,254.81,T,-385.09,M,001.280,N,002.371,K,D*0A
$GPGGA,092652.25,5702.9407297,N,00949.2659850,E,2,4,4.1,-4.267,M,40.592,M,3.0,0123*59
$GPVTG,255.34,T,-384.56,M,001.265,N,002.343,K,D*04
$GPGGA,092652.30,5702.9407241,N,00949.2659549,E,2,4,4.1,-4.264,M,40.592,M,3.0,0123*50
$GPVTG,256.55,T,-383.35,M,001.256,N,002.327,K,D*00
$GPGGA,092652.35,5702.9407194,N,00949.2659215,E,2,4,4.1,-4.259,M,40.592,M,3.0,0123*5E
$GPVTG,258.09,T,-381.81,M,001.263,N,002.340,K,D*0D
$GPGGA,092652.40,5702.9407154,N,00949.2658930,E,2,4,4.1,-4.256,M,40.592,M,3.0,0123*52
$GPVTG,259.42,T,-380.48,M,001.247,N,002.309,K,D*0C
$GPGGA,092652.45,5702.9407274,N,00949.2658623,E,2,4,4.1,-4.282,M,40.592,M,3.2,0123*50
$GPVTG,260.18,T,-379.72,M,001.241,N,002.298,K,D*09
$GPGGA,092652.50,5702.9407207,N,00949.2658322,E,2,4,4.1,-4.286,M,40.592,M,3.2,0123*50
$GPVTG,260.76,T,-379.14,M,001.235,N,002.287,K,D*0C
$GPGGA,092652.55,5702.9407194,N,00949.2657997,E,2,4,4.1,-4.285,M,40.592,M,3.2,0123*54
$GPVTG,262.60,T,-377.30,M,001.240,N,002.296,K,D*03
$GPGGA,092652.60,5702.9407186,N,00949.2657667,E,2,4,4.1,-4.285,M,40.592,M,3.2,0123*51
$GPVTG,264.43,T,-375.47,M,001.248,N,002.310,K,D*01
$GPGGA,092652.65,5702.9407143,N,00949.2657346,E,2,4,4.1,-4.288,M,40.592,M,3.4,0123*50
$GPVTG,264.84,T,-375.06,M,001.235,N,002.287,K,D*0A
$GPGGA,092652.70,5702.9407115,N,00949.2657015,E,2,4,4.1,-4.288,M,40.592,M,3.4,0123*52
$GPVTG,266.05,T,-373.85,M,001.246,N,002.308,K,D*0E
$GPGGA,092652.75,5702.9407055,N,00949.2656712,E,2,4,4.1,-4.293,M,40.592,M,3.4,0123*59
$GPVTG,266.48,T,-373.42,M,001.241,N,002.298,K,D*03
$GPGGA,092652.80,5702.9407052,N,00949.2656434,E,2,4,4.1,-4.293,M,40.592,M,3.4,0123*53
$GPVTG,268.00,T,-371.90,M,001.221,N,002.261,K,D*0C
$GPGGA,092652.85,5702.9407135,N,00949.2656121,E,2,4,4.1,-4.311,M,40.592,M,3.6,0123*5E
$GPVTG,268.72,T,-371.18,M,001.212,N,002.245,K,D*0F
$GPGGA,092652.90,5702.9407141,N,00949.2655802,E,2,4,4.1,-4.316,M,40.592,M,3.6,0123*55
$GPVTG,270.37,T,-369.53,M,001.218,N,002.257,K,D*08
$GPGGA,092652.95,5702.9407168,N,00949.2655512,E,2,4,4.1,-4.319,M,40.592,M,3.6,0123*58
$GPVTG,272.38,T,-367.52,M,001.209,N,002.240,K,D*0C
$GPGGA,092653.00,5702.9407183,N,00949.2655219,E,2,4,4.1,-4.326,M,40.592,M,3.6,0123*50
$GPVTG,274.02,T,-365.88,M,001.203,N,002.228,K,D*02
$GPGGA,092653.05,5702.9407129,N,00949.2654834,E,2,4,4.1,-4.288,M,40.592,M,1.9,0123*59
$GPVTG,273.99,T,-365.91,M,001.200,N,002.223,K,D*07
$GPGGA,092653.10,5702.9407106,N,00949.2654515,E,2,4,4.1,-4.288,M,40.592,M,1.9,0123*5E
$GPVTG,274.53,T,-365.37,M,001.209,N,002.238,K,D*09
$GPGGA,092653.15,5702.9407117,N,00949.2654170,E,2,4,4.1,-4.290,M,40.592,M,1.9,0123*55
$GPVTG,275.76,T,-364.14,M,001.232,N,002.282,K,D*06
$GPGGA,092653.20,5702.9407135,N,00949.2653903,E,2,4,4.1,-4.289,M,40.592,M,1.9,0123*50
$GPVTG,277.24,T,-362.66,M,001.212,N,002.245,K,D*09
$GPGGA,092653.25,5702.9407107,N,00949.2653603,E,2,4,4.1,-4.313,M,40.592,M,2.2,0123*51
$GPVTG,276.78,T,-363.12,M,001.215,N,002.250,K,D*00
$GPGGA,092653.30,5702.9407109,N,00949.2653304,E,2,4,4.1,-4.317,M,40.592,M,2.2,0123*5D
$GPVTG,277.67,T,-362.23,M,001.213,N,002.246,K,D*0D
$GPGGA,092653.35,5702.9407137,N,00949.2653021,E,2,4,4.1,-4.316,M,40.592,M,2.2,0123*50
$GPVTG,279.15,T,-360.75,M,001.204,N,002.229,K,D*08
$GPGGA,092653.40,5702.9407156,N,00949.2652709,E,2,4,4.1,-4.316,M,40.592,M,2.2,0123*59
$GPVTG,280.26,T,-359.64,M,001.212,N,002.245,K,D*09
$GPGGA,092653.45,5702.9407042,N,00949.2652367,E,2,4,4.1,-4.321,M,40.592,M,2.4,0123*56
$GPVTG,278.73,T,-361.17,M,001.227,N,002.273,K,D*02
$GPGGA,092653.50,5702.9407053,N,00949.2652037,E,2,4,4.1,-4.328,M,40.592,M,2.4,0123*5D
$GPVTG,279.45,T,-360.45,M,001.243,N,002.302,K,D*05
$GPGGA,092653.55,5702.9407068,N,00949.2651741,E,2,4,4.1,-4.333,M,40.592,M,2.4,0123*5F
$GPVTG,280.36,T,-359.54,M,001.239,N,002.294,K,D*0E
$GPGGA,092653.60,5702.9407079,N,00949.2651408,E,2,4,4.1,-4.333,M,40.592,M,2.4,0123*57
$GPVTG,280.97,T,-358.93,M,001.255,N,002.325,K,D*0E
$GPGGA,092653.65,5702.9407001,N,00949.2651125,E,2,4,4.1,-4.348,M,40.592,M,2.7,0123*58
$GPVTG,280.24,T,-359.66,M,001.240,N,002.297,K,D*01
$GPGGA,092653.70,5702.9407013,N,00949.2650814,E,2,4,4.1,-4.351,M,40.592,M,2.7,0123*5D
$GPVTG,280.80,T,-359.10,M,001.243,N,002.303,K,D*01
$GPGGA,092653.75,5702.9407038,N,00949.2650508,E,2,4,4.1,-4.352,M,40.592,M,2.7,0123*52
$GPVTG,281.70,T,-358.20,M,001.246,N,002.307,K,D*0C
$GPGGA,092653.80,5702.9407067,N,00949.2650183,E,2,4,4.1,-4.351,M,40.592,M,2.7,0123*56
$GPVTG,282.49,T,-357.41,M,001.258,N,002.330,K,D*06
$GPGGA,092653.85,5702.9406912,N,00949.2649916,E,2,4,4.1,-4.346,M,40.592,M,2.9,0123*5D
$GPVTG,281.69,T,-358.21,M,001.236,N,002.289,K,D*05
