$GPGGA,085914.15,5702.9150427,N,00949.9563313,E,2,5,1.4,-2.786,M,40.592,M,1.5,0123*5C
$GPVTG,236.99,T,-402.91,M,005.676,N,010.513,K,D*06
$GPGGA,085914.20,5702.9150091,N,00949.9562083,E,2,5,1.4,-2.782,M,40.592,M,1.5,0123*5C
$GPVTG,238.34,T,-401.56,M,005.651,N,010.466,K,D*01
$GPGGA,085914.25,5702.9149632,N,00949.9560924,E,2,5,1.4,-2.796,M,40.592,M,1.7,0123*5F
$GPVTG,238.70,T,-401.20,M,005.609,N,010.388,K,D*0A
$GPGGA,085914.30,5702.9149190,N,00949.9559680,E,2,5,1.4,-2.793,M,40.592,M,1.7,0123*5A
$GPVTG,238.97,T,-400.93,M,005.656,N,010.475,K,D*05
$GPGGA,085914.35,5702.9148759,N,00949.9558413,E,2,5,1.4,-2.794,M,40.592,M,1.7,0123*53
$GPVTG,239.39,T,-400.51,M,005.711,N,010.577,K,D*0F
$GPGGA,085914.40,5702.9148349,N,00949.9557139,E,2,5,1.4,-2.794,M,40.592,M,1.7,0123*56
$GPVTG,239.95,T,-399.95,M,005.749,N,010.646,K,D*0A
$GPGGA,085914.45,5702.9147936,N,00949.9555944,E,2,5,1.4,-2.791,M,40.592,M,2.0,0123*5F
$GPVTG,240.31,T,-399.59,M,005.640,N,010.445,K,D*03
$GPGGA,085914.50,5702.9147561,N,00949.9554727,E,2,5,1.4,-2.789,M,40.592,M,2.0,0123*56
$GPVTG,240.66,T,-399.24,M,005.597,N,010.366,K,D*04
$GPGGA,085914.55,5702.9147160,N,00949.9553491,E,2,5,1.4,-2.789,M,40.592,M,2.0,0123*5F
$GPVTG,240.85,T,-399.05,M,005.595,N,010.361,K,D*0F
$GPGGA,085914.60,5702.9146732,N,00949.9552241,E,2,5,1.4,-2.789,M,40.592,M,2.0,0123*53
$GPVTG,240.82,T,-399.08,M,005.621,N,010.409,K,D*00
$GPGGA,085914.65,5702.9146325,N,00949.9550913,E,2,5,1.4,-2.782,M,40.592,M,2.2,0123*53
$GPVTG,241.72,T,-398.18,M,005.677,N,010.514,K,D*00
$GPGGA,085914.70,5702.9145952,N,00949.9549609,E,2,5,1.4,-2.784,M,40.592,M,2.2,0123*54
$GPVTG,242.34,T,-397.56,M,005.719,N,010.592,K,D*03
$GPGGA,085914.75,5702.9145571,N,00949.9548333,E,2,5,1.4,-2.785,M,40.592,M,2.2,0123*50
$GPVTG,242.59,T,-397.31,M,005.721,N,010.595,K,D*05
$GPGGA,085914.80,5702.9145235,N,00949.9547081,E,2,5,1.4,-2.785,M,40.592,M,2.2,0123*58
$GPVTG,243.05,T,-396.85,M,005.671,N,010.502,K,D*09
$GPGGA,085914.85,5702.9144736,N,00949.9545865,E,2,5,1.4,-2.790,M,40.592,M,2.4,0123*58
$GPVTG,242.38,T,-397.52,M,005.624,N,010.416,K,D*09
$GPGGA,085914.90,5702.9144436,N,00949.9544595,E,2,5,1.4,-2.793,M,40.592,M,2.4,0123*5F
$GPVTG,243.29,T,-396.61,M,005.589,N,010.350,K,D*08
$GPGGA,085914.95,5702.9144081,N,00949.9543295,E,2,5,1.4,-2.800,M,40.592,M,2.4,0123*57
$GPVTG,243.74,T,-396.16,M,005.617,N,010.402,K,D*04
$GPGGA,085915.00,5702.9143749,N,00949.9541983,E,2,5,1.4,-2.805,M,40.592,M,2.4,0123*55
$GPVTG,244.40,T,-395.50,M,005.640,N,010.445,K,D*04
$GPGGA,085915.05,5702.9143399,N,00949.9540598,E,2,5,1.4,-2.784,M,40.592,M,2.6,0123*5A
$GPVTG,244.77,T,-395.13,M,005.672,N,010.504,K,D*02
$GPGGA,085915.10,5702.9143006,N,00949.9539307,E,2,5,1.4,-2.783,M,40.592,M,2.6,0123*52
$GPVTG,244.53,T,-395.37,M,005.685,N,010.528,K,D*04
$GPGGA,085915.15,5702.9142670,N,00949.9537999,E,2,5,1.4,-2.783,M,40.592,M,2.6,0123*52
$GPVTG,244.92,T,-394.98,M,005.689,N,010.536,K,D*0E
$GPGGA,085915.20,5702.9142432,N,00949.9536686,E,2,5,1.4,-2.783,M,40.592,M,2.6,0123*50
$GPVTG,246.19,T,-393.71,M,005.653,N,010.470,K,D*0B
$GPGGA,085915.25,5702.9142182,N,00949.9535281,E,2,5,1.4,-2.766,M,40.592,M,2.9,0123*5F
$GPVTG,247.34,T,-392.56,M,005.680,N,010.519,K,D*01
$GPGGA,085915.30,5702.9141897,N,00949.9533926,E,2,5,1.4,-2.764,M,40.592,M,2.9,0123*57
$GPVTG,248.08,T,-391.82,M,005.706,N,010.567,K,D*0D
$GPGGA,085915.35,5702.9141591,N,00949.9532563,E,2,5,1.4,-2.763,M,40.592,M,2.9,0123*52
$GPVTG,248.53,T,-391.37,M,005.739,N,010.628,K,D*09
$GPGGA,085915.40,5702.9141332,N,00949.9531218,E,2,5,1.4,-2.759,M,40.592,M,2.9,0123*5E
$GPVTG,249.26,T,-390.64,M,005.725,N,010.603,K,D*09
$GPGGA,085915.45,5702.9140906,N,00949.9529906,E,2,5,1.4,-2.785,M,40.592,M,3.1,0123*52
$GPVTG,248.90,T,-391.00,M,005.765,N,010.677,K,D*01
$GPGGA,085915.50,5702.9140649,N,00949.9528544,E,2,5,1.4,-2.787,M,40.592,M,3.1,0123*5B
$GPVTG,249.58,T,-390.32,M,005.758,N,010.664,K,D*08
$GPGGA,085915.55,5702.9140406,N,00949.9527198,E,2,5,1.4,-2.794,M,40.592,M,3.1,0123*5F
$GPVTG,250.21,T,-389.69,M,005.725,N,010.603,K,D*03
$GPGGA,085915.60,5702.9140012,N,00949.9525872,E,2,5,1.4,-2.799,M,40.592,M,3.1,0123*5A
$GPVTG,249.31,T,-390.59,M,005.720,N,010.594,K,D*09
$GPGGA,085915.65,5702.9139839,N,00949.9524353,E,2,5,1.4,-2.766,M,40.592,M,3.3,0123*5B
$GPVTG,250.51,T,-389.39,M,005.769,N,010.684,K,D*06
$GPGGA,085915.70,5702.9139687,N,00949.9522953,E,2,5,1.4,-2.764,M,40.592,M,3.3,0123*5A
$GPVTG,252.04,T,-387.86,M,005.762,N,010.671,K,D*0F
$GPGGA,085915.75,5702.9139477,N,00949.9521566,E,2,5,1.4,-2.759,M,40.592,M,3.3,0123*55
$GPVTG,252.83,T,-387.07,M,005.753,N,010.654,K,D*0C
$GPGGA,085915.80,5702.9139184,N,00949.9520141,E,2,5,1.4,-2.755,M,40.592,M,3.3,0123*5A
$GPVTG,252.88,T,-387.02,M,005.809,N,010.757,K,D*00
$GPGGA,085915.85,5702.9138939,N,00949.9518769,E,2,5,1.4,-2.783,M,40.592,M,3.5,0123*5A
$GPVTG,252.97,T,-386.93,M,005.843,N,010.821,K,D*07
$GPGGA,085915.90,5702.9138736,N,00949.9517384,E,2,5,1.4,-2.785,M,40.592,M,3.5,0123*51
$GPVTG,253.59,T,-386.31,M,005.803,N,010.746,K,D*06
$GPGGA,085915.95,5702.9138584,N,00949.9515945,E,2,5,1.4,-2.786,M,40.592,M,3.5,0123*59
$GPVTG,254.83,T,-385.07,M,005.818,N,010.775,K,D*0A
$GPGGA,085916.00,5702.9138332,N,00949.9514522,E,2,5,1.4,-2.789,M,40.592,M,3.5,0123*5E
$GPVTG,254.90,T,-385.00,M,005.834,N,010.804,K,D*08
$GPGGA,085916.05,5702.9138103,N,00949.9513155,E,2,5,1.4,-2.802,M,40.592,M,1.9,0123*5A
$GPVTG,254.55,T,-385.35,M,005.789,N,010.720,K,D*07
$GPGGA,085916.10,5702.9137982,N,00949.9511749,E,2,5,1.4,-2.805,M,40.592,M,1.9,0123*5E
$GPVTG,255.83,T,-384.07,M,005.750,N,010.649,K,D*07
$GPGGA,085916.15,5702.9137780,N,00949.9510294,E,2,5,1.4,-2.807,M,40.592,M,1.9,0123*51
$GPVTG,256.31,T,-383.59,M,005.794,N,010.730,K,D*06
$GPGGA,085916.20,5702.9137567,N,00949.9508873,E,2,5,1.4,-2.805,M,40.592,M,1.9,0123*54
$GPVTG,256.49,T,-383.41,M,005.791,N,010.724,K,D*00
$GPGGA,085916.25,5702.9137510,N,00949.9507485,E,2,5,1.4,-2.811,M,40.592,M,2.1,0123*55
$GPVTG,257.18,T,-382.72,M,005.726,N,010.605,K,D*0A
$GPGGA,085916.30,5702.9137363,N,00949.9506004,E,2,5,1.4,-2.810,M,40.592,M,2.1,0123*5E
$GPVTG,258.07,T,-381.83,M,005.790,N,010.724,K,D*09
$GPGGA,085916.35,5702.9137293,N,00949.9504506,E,2,5,1.4,-2.808,M,40.592,M,2.1,0123*59
$GPVTG,259.63,T,-380.27,M,005.846,N,010.827,K,D*0D
$GPGGA,085916.40,5702.9137181,N,00949.9503053,E,2,5,1.4,-2.804,M,40.592,M,2.1,0123*55
$GPVTG,260.48,T,-379.42,M,005.843,N,010.821,K,D*08
$GPGGA,085916.45,5702.9137018,N,00949.9501702,E,2,5,1.4,-2.848,M,40.592,M,2.4,0123*5D
$GPVTG,260.05,T,-379.85,M,005.826,N,010.790,K,D*0C
$GPGGA,085916.50,5702.9136809,N,00949.9500281,E,2,5,1.4,-2.851,M,40.592,M,2.4,0123*57
$GPVTG,259.76,T,-380.14,M,005.797,N,010.737,K,D*04
$GPGGA,085916.55,5702.9136688,N,00949.9498827,E,2,5,1.4,-2.857,M,40.592,M,2.4,0123*55
$GPVTG,260.41,T,-379.49,M,005.797,N,010.736,K,D*05
$GPGGA,085916.60,5702.9136517,N,00949.9497386,E,2,5,1.4,-2.862,M,40.592,M,2.4,0123*5F
$GPVTG,260.45,T,-379.45,M,005.789,N,010.722,K,D*07
$GPGGA,085916.65,5702.9136504,N,00949.9495862,E,2,5,1.4,-2.845,M,40.592,M,2.6,0123*5C
$GPVTG,260.98,T,-378.92,M,005.795,N,010.732,K,D*00
$GPGGA,085916.70,5702.9136426,N,00949.9494354,E,2,5,1.4,-2.842,M,40.592,M,2.6,0123*51
$GPVTG,261.97,T,-377.93,M,005.855,N,010.844,K,D*0D
$GPGGA,085916.75,5702.9136376,N,00949.9492847,E,2,5,1.4,-2.839,M,40.592,M,2.6,0123*55
$GPVTG,263.10,T,-376.80,M,005.897,N,010.920,K,D*0E
$GPGGA,085916.80,5702.9136290,N,00949.9491404,E,2,5,1.4,-2.834,M,40.592,M,2.6,0123*53
$GPVTG,263.65,T,-376.25,M,005.854,N,010.842,K,D*09
$GPGGA,085916.85,5702.9136201,N,00949.9490063,E,2,5,1.4,-2.874,M,40.592,M,2.9,0123*51
$GPVTG,263.43,T,-376.47,M,005.798,N,010.738,K,D*04
$GPGGA,085916.90,5702.9136065,N,00949.9488564,E,2,5,1.4,-2.875,M,40.592,M,2.9,0123*5F
$GPVTG,263.48,T,-376.42,M,005.845,N,010.825,K,D*06
$GPGGA,085916.95,5702.9135933,N,00949.9487130,E,2,5,1.4,-2.876,M,40.592,M,2.9,0123*5A
$GPVTG,263.43,T,-376.47,M,005.801,N,010.744,K,D*00
$GPGGA,085917.00,5702.9135924,N,00949.9485635,E,2,5,1.4,-2.877,M,40.592,M,2.9,0123*50
$GPVTG,264.67,T,-375.23,M,005.826,N,010.790,K,D*0C
$GPGGA,085917.05,5702.9135972,N,00949.9484180,E,2,5,1.4,-2.894,M,40.592,M,2.0,0123*5A
$GPVTG,265.29,T,-374.61,M,005.800,N,010.741,K,D*08
$GPGGA,085917.10,5702.9135861,N,00949.9482692,E,2,5,1.4,-2.894,M,40.592,M,2.0,0123*5F
$GPVTG,265.32,T,-374.58,M,005.825,N,010.788,K,D*0A
$GPGGA,085917.15,5702.9135831,N,00949.9481162,E,2,5,1.4,-2.896,M,40.592,M,2.0,0123*56
$GPVTG,266.13,T,-373.77,M,005.891,N,010.910,K,D*00
$GPGGA,085917.20,5702.9135818,N,00949.9479688,E,2,5,1.4,-2.896,M,40.592,M,2.0,0123*5F
$GPVTG,266.96,T,-372.94,M,005.
$GPGGA,085928.10,5702.9246519,N,00949.9298271,E,2,5,1.4,-2.450,M,40.592,M,1.9,0123*5C
$GPVTG,015.02,T,-624.88,M,005.323,N,009.858,K,D*06
$GPGGA,085928.15,5702.9247282,N,00949.9298592,E,2,5,1.4,-2.449,M,40.592,M,1.9,0123*5F
$GPVTG,014.95,T,-624.95,M,005.361,N,009.929,K,D*04
$GPGGA,085928.20,5702.9247954,N,00949.9298986,E,2,5,1.4,-2.445,M,40.592,M,1.9,0123*5C
$GPVTG,015.97,T,-623.93,M,005.331,N,009.873,K,D*0D
$GPGGA,085928.25,5702.9248650,N,00949.9299344,E,2,5,1.4,-2.445,M,40.592,M,2.1,0123*53
$GPVTG,016.36,T,-623.54,M,005.384,N,009.972,K,D*00
$GPGGA,085928.30,5702.9249343,N,00949.9299745,E,2,5,1.4,-2.446,M,40.592,M,2.1,0123*57
$GPVTG,017.05,T,-622.85,M,005.372,N,009.948,K,D*0C
$GPGGA,085928.35,5702.9250023,N,00949.9300199,E,2,5,1.4,-2.447,M,40.592,M,2.1,0123*58
$GPVTG,018.27,T,-621.63,M,005.365,N,009.935,K,D*04
$GPGGA,085928.40,5702.9250728,N,00949.9300600,E,2,5,1.4,-2.447,M,40.592,M,2.1,0123*51
$GPVTG,018.48,T,-621.42,M,005.358,N,009.924,K,D*00
$GPGGA,085928.45,5702.9251311,N,00949.9300997,E,2,5,1.4,-2.442,M,40.592,M,2.4,0123*5A
$GPVTG,019.39,T,-620.51,M,005.283,N,009.783,K,D*00
$GPGGA,085928.50,5702.9252071,N,00949.9301434,E,2,5,1.4,-2.442,M,40.592,M,2.4,0123*5D
$GPVTG,019.54,T,-620.36,M,005.342,N,009.893,K,D*08
$GPGGA,085928.55,5702.9252780,N,00949.9301893,E,2,5,1.4,-2.443,M,40.592,M,2.4,0123*51
$GPVTG,020.02,T,-619.88,M,005.356,N,009.920,K,D*02
$GPGGA,085928.60,5702.9253480,N,00949.9302387,E,2,5,1.4,-2.442,M,40.592,M,2.4,0123*59
$GPVTG,020.80,T,-619.10,M,005.373,N,009.950,K,D*09
$GPGGA,085928.65,5702.9254136,N,00949.9302813,E,2,5,1.4,-2.432,M,40.592,M,2.6,0123*50
$GPVTG,021.17,T,-618.73,M,005.363,N,009.931,K,D*04
$GPGGA,085928.70,5702.9254907,N,00949.9303283,E,2,5,1.4,-2.435,M,40.592,M,2.6,0123*5B
$GPVTG,021.04,T,-618.86,M,005.430,N,010.056,K,D*0D
$GPGGA,085928.75,5702.9255535,N,00949.9303842,E,2,5,1.4,-2.437,M,40.592,M,2.6,0123*57
$GPVTG,022.48,T,-617.42,M,005.395,N,009.992,K,D*00
$GPGGA,085928.80,5702.9256177,N,00949.9304358,E,2,5,1.4,-2.436,M,40.592,M,2.6,0123*5A
$GPVTG,023.07,T,-616.83,M,005.353,N,009.914,K,D*02
$GPGGA,085928.85,5702.9256760,N,00949.9304873,E,2,5,1.4,-2.432,M,40.592,M,2.9,0123*56
$GPVTG,023.90,T,-616.00,M,005.320,N,009.852,K,D*00
$GPGGA,085928.90,5702.9257388,N,00949.9305326,E,2,5,1.4,-2.433,M,40.592,M,2.9,0123*5A
$GPVTG,023.44,T,-616.46,M,005.230,N,009.687,K,D*0D
$GPGGA,085928.95,5702.9258119,N,00949.9305899,E,2,5,1.4,-2.434,M,40.592,M,2.9,0123*52
$GPVTG,024.05,T,-615.85,M,005.306,N,009.826,K,D*02
$GPGGA,085929.00,5702.9258813,N,00949.9306478,E,2,5,1.4,-2.436,M,40.592,M,2.9,0123*5E
$GPVTG,024.70,T,-615.20,M,005.339,N,009.887,K,D*08
$GPGGA,085929.05,5702.9259470,N,00949.9307040,E,2,5,1.4,-2.428,M,40.592,M,2.0,0123*5B
$GPVTG,025.38,T,-614.52,M,005.375,N,009.954,K,D*06
$GPGGA,085929.10,5702.9260063,N,00949.9307652,E,2,5,1.4,-2.428,M,40.592,M,2.0,0123*56
$GPVTG,026.51,T,-613.39,M,005.324,N,009.860,K,D*02
$GPGGA,085929.15,5702.9260697,N,00949.9308251,E,2,5,1.4,-2.433,M,40.592,M,2.0,0123*5C
$GPVTG,027.11,T,-612.79,M,005.301,N,009.818,K,D*0A
$GPGGA,085929.20,5702.9261402,N,00949.9308881,E,2,5,1.4,-2.435,M,40.592,M,2.0,0123*54
$GPVTG,027.55,T,-612.35,M,005.356,N,009.919,K,D*00
$GPGGA,085929.25,5702.9261980,N,00949.9309496,E,2,5,1.4,-2.421,M,40.592,M,2.3,0123*5B
$GPVTG,028.67,T,-611.23,M,005.337,N,009.885,K,D*09
$GPGGA,085929.30,5702.9262631,N,00949.9310075,E,2,5,1.4,-2.421,M,40.592,M,2.3,0123*58
$GPVTG,028.38,T,-611.52,M,005.302,N,009.820,K,D*0C
$GPGGA,085929.35,5702.9263311,N,00949.9310703,E,2,5,1.4,-2.419,M,40.592,M,2.3,0123*56
$GPVTG,028.51,T,-611.39,M,005.323,N,009.858,K,D*02
$GPGGA,085929.40,5702.9263962,N,00949.9311337,E,2,5,1.4,-2.417,M,40.592,M,2.3,0123*56
$GPVTG,028.76,T,-611.14,M,005.319,N,009.851,K,D*08
$GPGGA,085929.45,5702.9264548,N,00949.9312054,E,2,5,1.4,-2.417,M,40.592,M,2.5,0123*53
$GPVTG,029.97,T,-609.93,M,005.357,N,009.920,K,D*0D
$GPGGA,085929.50,5702.9265113,N,00949.9312745,E,2,5,1.4,-2.416,M,40.592,M,2.5,0123*5A
$GPVTG,030.98,T,-608.92,M,005.303,N,009.821,K,D*0B
$GPGGA,085929.55,5702.9265742,N,00949.9313423,E,2,5,1.4,-2.414,M,40.592,M,2.5,0123*5D
$GPVTG,031.31,T,-608.59,M,005.294,N,009.804,K,D*06
$GPGGA,085929.60,5702.9266408,N,00949.9314080,E,2,5,1.4,-2.410,M,40.592,M,2.5,0123*5B
$GPVTG,031.11,T,-608.79,M,005.301,N,009.818,K,D*06
$GPGGA,085929.65,5702.9266946,N,00949.9314752,E,2,5,1.4,-2.409,M,40.592,M,2.7,0123*5B
$GPVTG,031.46,T,-608.44,M,005.248,N,009.720,K,D*02
$GPGGA,085929.70,5702.9267536,N,00949.9315474,E,2,5,1.4,-2.405,M,40.592,M,2.7,0123*5F
$GPVTG,032.30,T,-607.60,M,005.234,N,009.693,K,D*0B
$GPGGA,085929.75,5702.9268060,N,00949.9316243,E,2,5,1.4,-2.405,M,40.592,M,2.7,0123*52
$GPVTG,033.87,T,-606.03,M,005.195,N,009.621,K,D*03
$GPGGA,085929.80,5702.9268789,N,00949.9316934,E,2,5,1.4,-2.411,M,40.592,M,2.7,0123*56
$GPVTG,033.13,T,-606.77,M,005.268,N,009.756,K,D*0D
$GPGGA,085929.85,5702.9269376,N,00949.9317694,E,2,5,1.4,-2.406,M,40.592,M,3.0,0123*52
$GPVTG,034.08,T,-605.82,M,005.312,N,009.839,K,D*03
$GPGGA,085929.90,5702.9269893,N,00949.9318473,E,2,5,1.4,-2.406,M,40.592,M,3.0,0123*52
$GPVTG,035.35,T,-604.55,M,005.258,N,009.738,K,D*06
$GPGGA,085929.95,5702.9270419,N,00949.9319266,E,2,5,1.4,-2.410,M,40.592,M,3.0,0123*55
$GPVTG,036.51,T,-603.39,M,005.220,N,009.667,K,D*0E
$GPGGA,085930.00,5702.9271023,N,00949.9320023,E,2,5,1.4,-2.412,M,40.592,M,3.0,0123*56
$GPVTG,036.60,T,-603.30,M,005.216,N,009.659,K,D*0D
$GPGGA,085930.05,5702.9271640,N,00949.9320736,E,2,5,1.4,-2.381,M,40.592,M,1.5,0123*59
$GPVTG,036.70,T,-603.20,M,005.250,N,009.722,K,D*02
$GPGGA,085930.10,5702.9272275,N,00949.9321468,E,2,5,1.4,-2.379,M,40.592,M,1.5,0123*52
$GPVTG,036.12,T,-603.78,M,005.242,N,009.708,K,D*00
$GPGGA,085930.15,5702.9272846,N,00949.9322273,E,2,5,1.4,-2.379,M,40.592,M,1.5,0123*52
$GPVTG,036.77,T,-603.13,M,005.239,N,009.703,K,D*09
$GPGGA,085930.20,5702.9273378,N,00949.9323061,E,2,5,1.4,-2.375,M,40.592,M,1.5,0123*5F
$GPVTG,037.36,T,-602.54,M,005.190,N,009.612,K,D*0E
$GPGGA,085930.25,5702.9273817,N,00949.9323855,E,2,5,1.4,-2.381,M,40.592,M,1.7,0123*5E
$GPVTG,037.96,T,-601.94,M,005.123,N,009.489,K,D*03
$GPGGA,085930.30,5702.9274480,N,00949.9324658,E,2,5,1.4,-2.376,M,40.592,M,1.7,0123*53
$GPVTG,037.66,T,-602.24,M,005.193,N,009.618,K,D*05
$GPGGA,085930.35,5702.9275014,N,00949.9325485,E,2,5,1.4,-2.372,M,40.592,M,1.7,0123*59
$GPVTG,038.43,T,-601.47,M,005.175,N,009.584,K,D*05
$GPGGA,085930.40,5702.9275591,N,00949.9326310,E,2,5,1.4,-2.374,M,40.592,M,1.7,0123*5D
$GPVTG,038.77,T,-601.13,M,005.186,N,009.604,K,D*04
$GPGGA,085930.45,5702.9276121,N,00949.9327121,E,2,5,1.4,-2.377,M,40.592,M,2.0,0123*52
$GPVTG,039.01,T,-600.89,M,005.186,N,009.604,K,D*06
$GPGGA,085930.50,5702.9276584,N,00949.9328015,E,2,5,1.4,-2.379,M,40.592,M,2.0,0123*5A
$GPVTG,040.68,T,-599.22,M,005.159,N,009.555,K,D*00
$GPGGA,085930.55,5702.9277097,N,00949.9328885,E,2,5,1.4,-2.384,M,40.592,M,2.0,0123*5A
$GPVTG,041.50,T,-598.40,M,005.148,N,009.534,K,D*08
$GPGGA,085930.60,5702.9277698,N,00949.9329792,E,2,5,1.4,-2.389,M,40.592,M,2.0,0123*50
$GPVTG,041.92,T,-597.98,M,005.227,N,009.680,K,D*0A
$GPGGA,085930.65,5702.9278186,N,00949.9330562,E,2,5,1.4,-2.374,M,40.592,M,2.2,0123*57
$GPVTG,042.01,T,-597.89,M,005.161,N,009.558,K,D*04
$GPGGA,085930.70,5702.9278709,N,00949.9331430,E,2,5,1.4,-2.370,M,40.592,M,2.2,0123*51
$GPVTG,042.41,T,-597.49,M,005.144,N,009.526,K,D*02
$GPGGA,085930.75,5702.9279211,N,00949.9332299,E,2,5,1.4,-2.367,M,40.592,M,2.2,0123*59
$GPVTG,042.87,T,-597.03,M,005.110,N,009.465,K,D*01
$GPGGA,085930.80,5702.9279722,N,00949.9333139,E,2,5,1.4,-2.366,M,40.592,M,2.2,0123*5F
$GPVTG,042.92,T,-596.98,M,005.062,N,009.375,K,D*04
$GPGGA,085930.85,5702.9280251,N,00949.9333931,E,2,5,1.4,-2.345,M,40.592,M,2.4,0123*5A
$GPVTG,042.64,T,-597.26,M,005.051,N,009.354,K,D*0A
$GPGGA,085930.90,5702.9280827,N,00949.9334840,E,2,5,1.4,-2.339,M,40.592,M,2.4,0123*5E
$GPVTG,042.86,T,-597.04,M,005.115,N,009.472,K,D*04
$GPGGA,085930.95,5702.9281357,N,00949.9335739,E,2,5,1.4,-2.333,M,40.592,M,2.4,0123*5C
$GPVTG,043.23,T,-596.67,M,005.126,N,009.494,K,D*06
$GPGGA,085931.00,5702.9281854,N,00949.9336645,E,2,5,1.4,-2.329,M,40.592,M,2.4,0123*5B
$GPVTG,043.83,T,-596.07,M,005.118,N,009.479,K,D*04
$GPGGA,085931.05,5702.9282256,N,00949.9337568,E,2,5,1.4,-2.348,M,40.592,M,2.6,0123*5D
$GPVTG,044.35,T,-595.55,M,005.073,N,009.395,K,D*03
$GPGGA,085931.10,5702.9282644,N,00949.9338513,E,2,5,1.4,-2.349,M,40.592,M,2.6,0123*5C
$GPVTG,046.04,T,-593.86,M,005.023,N,009.303,K,D*01
$GPGGA,085931.15,5702.9283144,N,00949.9339459,E,2,5,1.4,-2.354,M,40.592,M,2.6,0123*5D
$GPVTG,046.62,T,-593.28,M,005.051,N,009.354,K,D*02
$GPGGA,085931.20,5702.9283635,N,00949.9340428,E,2,5,1.4,-2.355,M,40.592,M,2.6,0123*53
$GPVTG,047.35,T,-592.55,M,005.086,N,009.420,K,D*04
$GPGGA,085931.25,5702.9284104,N,00949.9341305,E,2,5,1.4,-2.338,M,40.592,M,2.9,0123*59
$GPVTG,047.51,T,-592.39,M,005.086,N,009.418,K,D*07
$GPGGA,085931.30,5702.9284603,N,00949.9342273,E,2,5,1.4,-2.335,M,40.592,M,2.9,0123*53
$GPVTG,047.92,T,-591.98,M,005.114,N,009.472,K,D*06
$GPGGA,085931.35,5702.9285064,N,00949.9343227,E,2,5,1.4,-2.333,M,40.592,M,2.9,0123*56
$GPVTG,048.39,T,-591.51,M,005.098,N,009.441,K,D*08
$GPGGA,085931.40,5702.9285586,N,00949.9344177,E,2,5,1.4,-2.331,M,40.592,M,2.9,0123*5E
$GPVTG,048.24,T,-591.66,M,005.116,N,009.476,K,D*03
$GPGGA,085931.45,5702.9285935,N,00949.9345230,E,2,5,1.4,-2.352,M,40.592,M,3.1,0123*52
$GPVTG,049.43,T,-590.47,M,005.125,N,009.491,K,D*08
$GPGGA,085931.50,5702.9286354,N,00949.9346188,E,2,5,1.4,-2.353,M,40.592,M,3.1,0123*5A
$GPVTG,049.98,T,-589.92,M,005.070,N,009.389,K,D*01
$GPGGA,085931.55,5702.9286772,N,00949.9347140,E,2,5,1.4,-2.358,M,40.592,M,3.1,0123*51
$GPVTG,050.42,T,-589.48,M,005.013,N,009.284,K,D*00
$GPGGA,085931.60,5702.9287258,N,00949.9348154,E,2,5,1.4,-2.361,M,40.592,M,3.1,0123*5B
$GPVTG,050.74,T,-589.16,M,005.062,N,009.374,K,D*06
$GPGGA,085931.65,5702.9287622,N,00949.9349114,E,2,5,1.4,-2.338,M,40.592,M,3.3,0123*5C
$GPVTG,052.16,T,-587.74,M,005.043,N,009.339,K,D*00
$GPGGA,085931.70,5702.9288121,N,00949.9350151,E,2,5,1.4,-2.341,M,40.592,M,3.3,0123*54
$GPVTG,052.25,T,-587.65,M,005.109,N,009.462,K,D*06
$GPGGA,085931.75,5702.9288521,N,00949.9351180,E,2,5,1.4,-2.342,M,40.592,M,3.3,0123*5B
$GPVTG,053.05,T,-586.85,M,005.096,N,009.437,K,D*0D
$GPGGA,085931.80,5702.9288868,N,00949.9352183,E,2,5,1.4,-2.338,M,40.592,M,3.3,0123*5C
$GPVTG,053.99,T,-585.91,M,005.022,N,009.301,K,D*03
$GPGGA,085931.85,5702.9289262,N,00949.9353159,E,2,5,1.4,-2.318,M,40.592,M,3.5,0123*5A
$GPVTG,054.17,T,-585.73,M,005.011,N,009.281,K,D*07
$GPGGA,085931.90,5702.9289747,N,00949.9354143,E,2,5,1.4,-2.316,M,40.592,M,3.5,0123*5E
$GPVTG,053.52,T,-586.38,M,005.003,N,009.266,K,D*07
$GPGGA,085931.95,5702.9290138,N,00949.9355234,E,2,5,1.4,-2.314,M,40.592,M,3.5,0123*5D
$GPVTG,054.64,T,-585.26,M,005.049,N,009.350,K,D*03
$GPGGA,085932.00,5702.9290489,N,00949.9356342,E,2,5,1.4,-2.315,M,40.592,M,3.5,0123*5F
$GPVTG,056.05,T,-583.85,M,005.079,N,009.406,K,D*0E
$GPGGA,085932.05,5702.9290828,N,00949.9357540,E,2,5,1.4,-2.339,M,40.592,M,1.9,0123*58
$GPVTG,057.07,T,-582.83,M,005.188,N,009.608,K,D*09
$GPGGA,085932.10,5702.9291213,N,00949.9358637,E,2,5,1.4,-2.342,M,40.592,M,1.9,0123*5F
$GPVTG,057.64,T,-582.26,M,005.194,N,009.619,K,D*0E
$GPGGA,085932.15,5702.9291547,N,00949.9359655,E,2,5,1.4,-2.339,M,40.592,M,1.9,0123*55
$GPVTG,057.99,T,-581.91,M,005.084,N,009.416,K,D*0E
$GPGGA,085932.20,5702.9291900,N,00949.9360725,E,2,5,1.4,-2.338,M,40.592,M,1.9,0123*51
$GPVTG,058.51,T,-581.39,M,005.049,N,009.351,K,D*02
$GPGGA,085932.25,5702.9292235,N,00949.9361849,E,2,5,1.4,-2.337,M,40.592,M,2.1,0123*5A
$GPVTG,059.28,T,-580.62,M,005.076,N,009.400,K,D*0D
$GPGGA,085932.30,5702.9292590,N,00949.9363004,E,2,5,1.4,-2.336,M,40.592,M,2.1,0123*54
$GPVTG,060.05,T,-579.85,M,005.108,N,009.460,K,D*09
$GPGGA,085932.35,5702.9292906,N,00949.9364080,E,2,5,1.4,-2.336,M,40.592,M,2.1,0123*59
$GPVTG,060.67,T,-579.23,M,005.063,N,009.377,K,D*0C
$GPGGA,085932.40,5702.9293244,N,00949.9365210,E,2,5,1.4,-2.339,M,40.592,M,2.1,0123*52
$GPVTG,061.31,T,-578.59,M,005.069,N,009.387,K,D*07
$GPGGA,085932.45,5702.9293545,N,00949.9366405,E,2,5,1.4,-2.334,M,40.592,M,2.4,0123*58
$GPVTG,062.37,T,-577.53,M,005.117,N,009.477,K,D*07
$GPGGA,085932.50,5702.9293854,N,00949.9367496,E,2,5,1.4,-2.334,M,40.592,M,2.4,0123*5A
$GPVTG,062.82,T,-577.08,M,005.063,N,009.377,K,D*02
$GPGGA,085932.55,5702.9294193,N,00949.9368673,E,2,5,1.4,-2.332,M,40.592,M,2.4,0123*5A
$GPVTG,063.38,T,-576.52,M,005.101,N,009.447,K,D*0D
$GPGGA,085932.60,5702.9294501,N,00949.9369805,E,2,5,1.4,-2.328,M,40.592,M,2.4,0123*56
$GPVTG,063.88,T,-576.02,M,005.079,N,009.405,K,D*0B
$GPGGA,085932.65,5702.9294929,N,00949.9370957,E,2,5,1.4,-2.333,M,40.592,M,2.6,0123*53
$GPVTG,063.36,T,-576.54,M,005.095,N,009.435,K,D*0C
$GPGGA,085932.70,5702.9295239,N,00949.9372064,E,2,5,1.4,-2.329,M,40.592,M,2.6,0123*5C
$GPVTG,063.53,T,-576.37,M,005.025,N,009.307,K,D*07
$GPGGA,085932.75,5702.9295494,N,00949.9373191,E,2,5,1.4,-2.329,M,40.592,M,2.6,0123*52
$GPVTG,064.46,T,-575.44,M,004.971,N,009.207,K,D*0B
$GPGGA,085932.80,5702.9295715,N,00949.9374377,E,2,5,1.4,-2.325,M,40.592,M,2.6,0123*53
$GPVTG,066.05,T,-573.85,M,004.978,N,009.220,K,D*09
$GPGGA,085932.85,5702.9296135,N,00949.9375628,E,2,5,1.4,-2.332,M,40.592,M,2.9,0123*56
$GPVTG,066.02,T,-573.88,M,005.106,N,009.456,K,D*04
$GPGGA,085932.90,5702.9296391,N,00949.9376865,E,2,5,1.4,-2.326,M,40.592,M,2.9,0123*5F
$GPVTG,067.16,T,-572.74,M,005.160,N,009.557,K,D*02
$GPGGA,085932.95,5702.9296692,N,00949.9377977,E,2,5,1.4,-2.325,M,40.592,M,2.9,0123*5C
$GPVTG,066.95,T,-572.95,M,005.076,N,009.401,K,D*03
$GPGGA,085933.00,5702.9296939,N,00949.9379165,E,2,5,1.4,-2.319,M,40.592,M,2.9,0123*55
$GPVTG,067.75,T,-572.15,M,005.067,N,009.385,K,D*0F
$GPGGA,085933.05,5702.9297256,N,00949.9380432,E,2,5,1.4,-2.359,M,40.592,M,2.0,0123*5F
$GPVTG,068.11,T,-571.79,M,005.065,N,009.380,K,D*0C
$GPGGA,085933.10,5702.9297467,N,00949.9381660,E,2,5,1.4,-2.357,M,40.592,M,2.0,0123*55
$GPVTG,069.31,T,-570.59,M,005.085,N,009.417,K,D*0B
$GPGGA,085933.15,5702.9297701,N,00949.9382833,E,2,5,1.4,-2.360,M,40.592,M,2.0,0123*5C
$GPVTG,069.84,T,-570.06,M,005.042,N,009.338,K,D*0E
$GPGGA,085933.20,5702.9297996,N,00949.9384026,E,2,5,1.4,-2.362,M,40.592,M,2.0,0123*52
$GPVTG,069.73,T,-570.17,M,005.049,N,009.350,K,D*03
$GPGGA,085933.25,5702.9298286,N,00949.9385266,E,2,5,1.4,-2.392,M,40.592,M,2.3,0123*59
$GPVTG,070.52,T,-569.38,M,005.033,N,009.320,K,D*07
$GPGGA,085933.30,5702.9298393,N,00949.9386512,E,2,5,1.4,-2.390,M,40.592,M,2.3,0123*5D
$GPVTG,072.54,T,-567.36,M,005.036,N,009.328,K,D*0E
$GPGGA,085933.35,5702.9298623,N,00949.9387757,E,2,5,1.4,-2.391,M,40.592,M,2.3,0123*55
$GPVTG,073.01,T,-566.89,M,005.072,N,009.394,K,D*0D
$GPGGA,085933.40,5702.9298832,N,00949.9388991,E,2,5,1.4,-2.392,M,40.592,M,2.3,0123*51
$GPVTG,073.57,T,-566.33,M,005.080,N,009.408,K,D*00
$GPGGA,085933.45,5702.9299245,N,00949.9390104,E,2,5,1.4,-2.379,M,40.592,M,2.5,0123*51
$GPVTG,073.29,T,-566.61,M,004.999,N,009.259,K,D*0C
$GPGGA,085933.50,5702.9299442,N,00949.9391309,E,2,5,1.4,-2.372,M,40.592,M,2.5,0123*51
$GPVTG,073.78,T,-566.12,M,004.978,N,009.218,K,D*06
$GPGGA,085933.55,5702.9299600,N,00949.9392506,E,2,5,1.4,-2.368,M,40.592,M,2.5,0123*51
$GPVTG,074.60,T,-565.30,M,004.939,N,009.146,K,D*06
$GPGGA,085933.60,5702.9299727,N,00949.9393693,E,2,5,1.4,-2.366,M,40.592,M,2.5,0123*53
$GPVTG,075.67,T,-564.23,M,004.886,N,009.049,K,D*08
$GPGGA,085933.65,5702.9300060,N,00949.9395066,E,2,5,1.4,-2.409,M,40.592,M,2.7,0123*55
$GPVTG,075.36,T,-564.54,M,005.004,N,009.268,K,D*0E
$GPGGA,085933.70,5702.9300242,N,00949.9396301,E,2,5,1.4,-2.407,M,40.592,M,2.7,0123*5C
$GPVTG,075.80,T,-564.10,M,005.011,N,009.280,K,D*01
$GPGGA,085933.75,5702.9300382,N,00949.9397493,E,2,5,1.4,-2.402,M,40.592,M,2.7,0123*5C
$GPVTG,076.51,T,-563.39,M,004.954,N,009.174,K,D*03
$GPGGA,085933.80,5702.9300506,N,00949.9398687,E,2,5,1.4,-2.400,M,40.592,M,2.7,0123*56
$GPVTG,077.35,T,-562.55,M,004.904,N,009.082,K,D*06
$GPGGA,085933.85,5702.9300806,N,00949.9399954,E,2,5,1.4,-2.438,M,40.592,M,3.0,0123*53
$GPVTG,077.32,T,-562.58,M,004.884,N,009.046,K,D*0D
$GPGGA,085933.90,5702.9300972,N,00949.9401186,E,2,5,1.4,-2.437,M,40.592,M,3.0,0123*5B
$GPVTG,077.65,T,-562.25,M,004.901,N,009.077,K,D*0B
$GPGGA,085933.95,5702.9301089,N,00949.9402451,E,2,5,1.4,-2.435,M,40.592,M,3.0,0123*5C
$GPVTG,078.61,T,-561.29,M,004.944,N,009.156,K,D*0C
$GPGGA,085934.00,5702.9301103,N,00949.9403680,E,2,5,1.4,-2.435,M,40.592,M,3.0,0123*5B
$GPVTG,080.57,T,-559.33,M,004.917,N,009.106,K,D*0D
$GPGGA,085934.05,5702.9301400,N,00949.9404949,E,2,5,1.4,-2.448,M,40.592,M,1.5,0123*58
$GPVTG,080.44,T,-559.47,M,004.953,N,009.172,K,D*0F
$GPGGA,085934.10,5702.9301560,N,00949.9406169,E,2,5,1.4,-2.446,M,40.592,M,1.5,0123*5D
$GPVTG,080.37,T,-559.53,M,004.936,N,009.141,K,D*0D
$GPGGA,085934.15,5702.9301673,N,00949.9407354,E,2,5,1.4,-2.441,M,40.592,M,1.5,0123*53
$GPVTG,080.78,T,-559.12,M,004.873,N,009.024,K,D*01
$GPGGA,085934.20,5702.9301754,N,00949.9408570,E,2,5,1.4,-2.436,M,40.592,M,1.5,0123*5E
$GPVTG,081.59,T,-558.31,M,004.851,N,008.984,K,D*01
$GPGGA,085934.25,5702.9301929,N,00949.9409938,E,2,5,1.4,-2.487,M,40.592,M,1.7,0123*56
$GPVTG,082.35,T,-557.55,M,004.891,N,009.058,K,D*00
$GPGGA,085934.30,5702.9302060,N,00949.9411228,E,2,5,1.4,-2.488,M,40.592,M,1.7,0123*59
$GPVTG,082.50,T,-557.40,M,004.965,N,009.196,K,D*0E
$GPGGA,085934.35,5702.9302029,N,00949.9412423,E,2,5,1.4,-2.491,M,40.592,M,1.7,0123*57
$GPVTG,084.38,T,-555.52,M,004.890,N,009.057,K,D*00
$GPGGA,085934.40,5702.9302139,N,00949.9413626,E,2,5,1.4,-2.490,M,40.592,M,1.7,0123*52
$GPVTG,084.39,T,-555.51,M,004.852,N,008.986,K,D*08
$GPGGA,085934.45,5702.9302384,N,00949.9414846,E,2,5,1.4,-2.499,M,40.592,M,2.0,0123*51
$GPVTG,084.28,T,-555.62,M,004.834,N,008.952,K,D*01
$GPGGA,085934.50,5702.9302400,N,00949.9416043,E,2,5,1.4,-2.496,M,40.592,M,2.0,0123*5E
$GPVTG,085.38,T,-554.52,M,004.788,N,008.868,K,D*03
$GPGGA,085934.55,5702.9302421,N,00949.9417304,E,2,5,1.4,-2.492,M,40.592,M,2.0,0123*5D
$GPVTG,086.38,T,-553.52,M,004.832,N,008.949,K,D*0B
$GPGGA,085934.60,5702.9302469,N,00949.9418541,E,2,5,1.4,-2.491,M,40.592,M,2.0,0123*5C
$GPVTG,086.89,T,-553.01,M,004.842,N,008.967,K,D*0C
$GPGGA,085934.65,5702.9302564,N,00949.9419898,E,2,5,1.4,-2.537,M,40.592,M,2.2,0123*52
$GPVTG,087.73,T,-552.17,M,004.900,N,009.075,K,D*02
$GPGGA,085934.70,5702.9302597,N,00949.9421170,E,2,5,1.4,-2.543,M,40.592,M,2.2,0123*5D
$GPVTG,088.24,T,-551.66,M,004.941,N,009.151,K,D*08
$GPGGA,085934.75,5702.9302667,N,00949.9422385,E,2,5,1.4,-2.544,M,40.592,M,2.2,0123*58
$GPVTG,088.20,T,-551.70,M,004.904,N,009.083,K,D*04
$GPGGA,085934.80,5702.9302605,N,00949.9423617,E,2,5,1.4,-2.544,M,40.592,M,2.2,0123*59
$GPVTG,089.73,T,-550.17,M,004.892,N,009.059,K,D*0A
$GPGGA,085934.85,5702.9302753,N,00949.9424775,E,2,5,1.4,-2.547,M,40.592,M,2.4,0123*59
$GPVTG,089.90,T,-550.00,M,004.792,N,008.874,K,D*08
$GPGGA,085934.90,5702.9302773,N,00949.9425964,E,2,5,1.4,-2.538,M,40.592,M,2.4,0123*58
$GPVTG,090.24,T,-549.66,M,004.746,N,008.790,K,D*0B
$GPGGA,085934.95,5702.9302776,N,00949.9427178,E,2,5,1.4,-2.536,M,40.592,M,2.4,0123*51
$GPVTG,090.73,T,-549.17,M,004.741,N,008.780,K,D*09
$GPGGA,085935.00,5702.9302697,N,00949.9428455,E,2,5,1.4,-2.534,M,40.592,M,2.4,0123*55
$GPVTG,092.13,T,-547.77,M,004.816,N,008.919,K,D*06
$GPGGA,085935.05,5702.9302786,N,00949.9429817,E,2,5,1.4,-2.581,M,40.592,M,2.6,0123*56
$GPVTG,092.31,T,-547.59,M,004.886,N,009.049,K,D*0E
$GPGGA,085935.10,5702.9302825,N,00949.9431118,E,2,5,1.4,-2.584,M,40.592,M,2.6,0123*5E
$GPVTG,092.03,T,-547.87,M,004.966,N,009.197,K,D*01
$GPGGA,085935.15,5702.9302783,N,00949.9432322,E,2,5,1.4,-2.585,M,40.592,M,2.6,0123*51
$GPVTG,092.77,T,-547.13,M,004.917,N,009.105,K,D*02
$GPGGA,085935.20,5702.9302696,N,00949.9433555,E,2,5,1.4,-2.584,M,40.592,M,2.6,0123*54
$GPVTG,093.94,T,-545.96,M,004.911,N,009.095,K,D*0F
$GPGGA,085935.25,5702.9302731,N,00949.9434765,E,2,5,1.4,-2.595,M,40.592,M,2.9,0123*54
$GPVTG,094.79,T,-545.11,M,004.862,N,009.004,K,D*09
$GPGGA,085935.30,5702.9302616,N,00949.9435942,E,2,5,1.4,-2.590,M,40.592,M,2.9,0123*5B
$GPVTG,096.15,T,-543.75,M,004.801,N,008.892,K,D*06
$GPGGA,085935.35,5702.9302534,N,00949.9437145,E,2,5,1.4,-2.586,M,40.592,M,2.9,0123*57
$GPVTG,096.95,T,-542.95,M,004.784,N,008.860,K,D*0E
$GPGGA,085935.40,5702.9302471,N,00949.9438388,E,2,5,1.4,-2.585,M,40.592,M,2.9,0123*5A
$GPVTG,097.32,T,-542.58,M,004.818,N,008.922,K,D*0E
$GPGGA,085935.45,5702.9302543,N,00949.9439684,E,2,5,1.4,-2.608,M,40.592,M,3.1,0123*58
$GPVTG,096.77,T,-543.13,M,004.850,N,008.983,K,D*07
$GPGGA,085935.50,5702.9302429,N,00949.9440929,E,2,5,1.4,-2.605,M,40.592,M,3.1,0123*5A
$GPVTG,097.68,T,-542.22,M,004.883,N,009.044,K,D*06
$GPGGA,085935.55,5702.9302323,N,00949.9442135,E,2,5,1.4,-2.600,M,40.592,M,3.1,0123*50
$GPVTG,098.46,T,-541.44,M,004.864,N,009.009,K,D*06
$GPGGA,085935.60,5702.9302127,N,00949.9443346,E,2,5,1.4,-2.591,M,40.592,M,3.1,0123*5C
$GPVTG,100.20,T,-539.70,M,004.871,N,009.022,K,D*03
$GPGGA,085935.65,5702.9302152,N,00949.9444528,E,2,5,1.4,-2.597,M,40.592,M,3.3,0123*56
$GPVTG,100.40,T,-539.50,M,004.801,N,008.892,K,D*02
$GPGGA,085935.70,5702.9302063,N,00949.9445726,E,2,5,1.4,-2.593,M,40.592,M,3.3,0123*58
$GPVTG,100.65,T,-539.25,M,004.788,N,008.868,K,D*0C
$GPGGA,085935.75,5702.9301894,N,00949.9446897,E,2,5,1.4,-2.586,M,40.592,M,3.3,0123*5C
$GPVTG,101.90,T,-538.00,M,004.764,N,008.823,K,D*0C
$GPGGA,085935.80,5702.9301830,N,00949.9448120,E,2,5,1.4,-2.581,M,40.592,M,3.3,0123*54
$GPVTG,101.53,T,-538.37,M,004.787,N,008.865,K,D*08
$GPGGA,085935.85,5702.9301767,N,00949.9449502,E,2,5,1.4,-2.643,M,40.592,M,3.5,0123*52
$GPVTG,101.52,T,-538.38,M,004.837,N,008.959,K,D*0C
$GPGGA,085935.90,5702.9301629,N,00949.9450716,E,2,5,1.4,-2.642,M,40.592,M,3.5,0123*53
$GPVTG,102.05,T,-537.85,M,004.855,N,008.992,K,D*07
$GPGGA,085935.95,5702.9301485,N,00949.9451888,E,2,5,1.4,-2.647,M,40.592,M,3.5,0123*5E
$GPVTG,102.70,T,-537.20,M,004.822,N,008.931,K,D*03
$GPGGA,085936.00,5702.9301313,N,00949.9453115,E,2,5,1.4,-2.654,M,40.592,M,3.5,0123*54
$GPVTG,103.42,T,-536.48,M,004.868,N,009.016,K,D*0F
$GPGGA,085936.05,5702.9301183,N,00949.9454336,E,2,5,1.4,-2.676,M,40.592,M,1.9,0123*50
$GPVTG,104.35,T,-535.55,M,004.888,N,009.053,K,D*08
$GPGGA,085936.10,5702.9300977,N,00949.9455576,E,2,5,1.4,-2.677,M,40.592,M,1.9,0123*54
$GPVTG,105.21,T,-534.69,M,004.952,N,009.171,K,D*05
$GPGGA,085936.15,5702.9300728,N,00949.9456767,E,2,5,1.4,-2.670,M,40.592,M,1.9,0123*53
$GPVTG,106.67,T,-533.23,M,004.962,N,009.189,K,D*09
$GPGGA,085936.20,5702.9300593,N,00949.9457954,E,2,5,1.4,-2.669,M,40.592,M,1.9,0123*50
$GPVTG,106.60,T,-533.30,M,004.934,N,009.138,K,D*05
$GPGGA,085936.25,5702.9300518,N,00949.9459071,E,2,5,1.4,-2.644,M,40.592,M,2.1,0123*52
$GPVTG,106.73,T,-533.17,M,004.897,N,009.070,K,D*07
$GPGGA,085936.30,5702.9300255,N,00949.9460237,E,2,5,1.4,-2.639,M,40.592,M,2.1,0123*58
$GPVTG,108.18,T,-531.72,M,004.893,N,009.062,K,D*02
$GPGGA,085936.35,5702.9300072,N,00949.9461348,E,2,5,1.4,-2.633,M,40.592,M,2.1,0123*58
$GPVTG,108.78,T,-531.12,M,004.806,N,008.902,K,D*00
$GPGGA,085936.40,5702.9299910,N,00949.9462530,E,2,5,1.4,-2.624,M,40.592,M,2.1,0123*5A
$GPVTG,108.67,T,-531.23,M,004.811,N,008.909,K,D*01
$GPGGA,085936.45,5702.9299715,N,00949.9463784,E,2,5,1.4,-2.680,M,40.592,M,2.4,0123*53
$GPVTG,109.83,T,-530.07,M,004.773,N,008.840,K,D*0A
$GPGGA,085936.50,5702.9299456,N,00949.9464924,E,2,5,1.4,-2.678,M,40.592,M,2.4,0123*57
$GPVTG,110.86,T,-529.04,M,004.776,N,008.846,K,D*0F
$GPGGA,085936.55,5702.9299160,N,00949.9466117,E,2,5,1.4,-2.673,M,40.592,M,2.4,0123*53
$GPVTG,111.89,T,-528.01,M,004.860,N,009.000,K,D*06
$GPGGA,085936.60,5702.9298973,N,00949.9467309,E,2,5,1.4,-2.671,M,40.592,M,2.4,0123*50
$GPVTG,111.55,T,-528.35,M,004.893,N,009.061,K,D*0B
$GPGGA,085936.65,5702.9298851,N,00949.9468462,E,2,5,1.4,-2.675,M,40.592,M,2.6,0123*57
$GPVTG,111.39,T,-528.51,M,004.870,N,009.019,K,D*01
$GPGGA,085936.70,5702.9298527,N,00949.9469582,E,2,5,1.4,-2.672,M,40.592,M,2.6,0123*56
$GPVTG,112.92,T,-526.98,M,004.871,N,009.021,K,D*02
$GPGGA,085936.75,5702.9298149,N,00949.9470714,E,2,5,1.4,-2.672,M,40.592,M,2.6,0123*5A
$GPVTG,114.80,T,-525.10,M,004.915,N,009.103,K,D*06
$GPGGA,085936.80,5702.9297970,N,00949.9471834,E,2,5,1.4,-2.673,M,40.592,M,2.6,0123*50
$GPVTG,114.39,T,-525.51,M,004.865,N,009.010,K,D*04
$GPGGA,085936.85,5702.9297772,N,00949.9472981,E,2,5,1.4,-2.697,M,40.592,M,2.9,0123*50
$GPVTG,114.75,T,-525.15,M,004.822,N,008.931,K,D*04
$GPGGA,085936.90,5702.9297448,N,00949.9474074,E,2,5,1.4,-2.692,M,40.592,M,2.9,0123*5E
$GPVTG,115.95,T,-523.95,M,004.819,N,008.925,K,D*08
$GPGGA,085936.95,5702.9297115,N,00949.9475162,E,2,5,1.4,-2.687,M,40.592,M,2.9,0123*55
$GPVTG,117.11,T,-522.79,M,004.823,N,008.933,K,D*0B
$GPGGA,085937.00,5702.9296865,N,00949.9476290,E,2,5,1.4,-2.688,M,40.592,M,2.9,0123*55
$GPVTG,116.96,T,-522.94,M,004.838,N,008.960,K,D*0A
$GPGGA,085937.05,5702.9296693,N,00949.9477416,E,2,5,1.4,-2.701,M,40.592,M,2.0,0123*57
$GPVTG,116.85,T,-523.05,M,004.833,N,008.951,K,D*08
$GPGGA,085937.10,5702.9296416,N,00949.9478547,E,2,5,1.4,-2.702,M,40.592,M,2.0,0123*55
$GPVTG,116.88,T,-523.02,M,004.865,N,009.009,K,D*04
$GPGGA,085937.15,5702.9296059,N,00949.9479616,E,2,5,1.4,-2.701,M,40.592,M,2.0,0123*5A
$GPVTG,118.14,T,-521.76,M,004.863,N,009.005,K,D*04
$GPGGA,085937.20,5702.9295719,N,00949.9480679,E,2,5,1.4,-2.699,M,40.592,M,2.0,0123*53
$GPVTG,119.10,T,-520.80,M,004.852,N,008.987,K,D*09
$GPGGA,085937.25,5702.9295327,N,00949.9481817,E,2,5,1.4,-2.739,M,40.592,M,2.3,0123*50
$GPVTG,120.72,T,-519.18,M,004.882,N,009.041,K,D*03
$GPGGA,085937.30,5702.9294964,N,00949.9482848,E,2,5,1.4,-2.743,M,40.592,M,2.3,0123*5C
$GPVTG,121.82,T,-518.08,M,004.861,N,009.002,K,D*07
$GPGGA,085937.35,5702.9294682,N,00949.9483920,E,2,5,1.4,-2.748,M,40.592,M,2.3,0123*5B
$GPVTG,121.59,T,-518.31,M,004.849,N,008.980,K,D*03
$GPGGA,085937.40,5702.9294306,N,00949.9484998,E,2,5,1.4,-2.751,M,40.592,M,2.3,0123*5C
$GPVTG,122.24,T,-517.66,M,004.895,N,009.065,K,D*05
$GPGGA,085937.45,5702.9294052,N,00949.9485980,E,2,5,1.4,-2.741,M,40.592,M,2.5,0123*54
$GPVTG,122.78,T,-517.12,M,004.856,N,008.993,K,D*01
$GPGGA,085937.50,5702.9293639,N,00949.9486986,E,2,5,1.4,-2.739,M,40.592,M,2.5,0123*56
$GPVTG,124.14,T,-515.76,M,004.857,N,008.994,K,D*0B
$GPGGA,085937.55,5702.9293278,N,00949.9487957,E,2,5,1.4,-2.734,M,40.592,M,2.5,0123*52
$GPVTG,125.04,T,-514.86,M,004.801,N,008.892,K,D*01
$GPGGA,085937.60,5702.9292861,N,00949.9488933,E,2,5,1.4,-2.725,M,40.592,M,2.5,0123*5A
$GPVTG,126.29,T,-513.61,M,004.799,N,008.887,K,D*09
$GPGGA,085937.65,5702.9292555,N,00949.9489999,E,2,5,1.4,-2.746,M,40.592,M,2.7,0123*53
$GPVTG,126.34,T,-513.56,M,004.786,N,008.865,K,D*03
$GPGGA,085937.70,5702.9292196,N,00949.9490958,E,2,5,1.4,-2.741,M,40.592,M,2.7,0123*5E
$GPVTG,126.87,T,-513.03,M,004.744,N,008.786,K,D*07
$GPGGA,085937.75,5702.9291750,N,00949.9491908,E,2,5,1.4,-2.737,M,40.592,M,2.7,0123*51
$GPVTG,128.20,T,-511.70,M,004.759,N,008.815,K,D*0B
$GPGGA,085937.80,5702.9291394,N,00949.9492934,E,2,5,1.4,-2.740,M,40.592,M,2.7,0123*5B
$GPVTG,127.73,T,-512.17,M,004.797,N,008.883,K,D*0D
$GPGGA,085937.85,5702.9291037,N,00949.9493972,E,2,5,1.4,-2.771,M,40.592,M,3.0,0123*53
$GPVTG,128.35,T,-511.55,M,004.819,N,008.925,K,D*01
$GPGGA,085937.90,5702.9290612,N,00949.9494949,E,2,5,1.4,-2.774,M,40.592,M,3.0,0123*5D
$GPVTG,128.87,T,-511.03,M,004.850,N,008.982,K,D*0B
$GPGGA,085937.95,5702.9290155,N,00949.9495929,E,2,5,1.4,-2.774,M,40.592,M,3.0,0123*5B
$GPVTG,129.57,T,-510.33,M,004.904,N,009.082,K,D*0D
$GPGGA,085938.00,5702.9289719,N,00949.9496926,E,2,5,1.4,-2.774,M,40.592,M,3.0,0123*52
$GPVTG,129.82,T,-510.08,M,004.955,N,009.177,K,D*02
$GPGGA,085938.05,5702.9289367,N,00949.9497762,E,2,5,1.4,-2.774,M,40.592,M,1.5,0123*52
$GPVTG,131.23,T,-508.67,M,004.848,N,008.979,K,D*0A
$GPGGA,085938.10,5702.9288927,N,00949.9498616,E,2,5,1.4,-2.765,M,40.592,M,1.5,0123*54
$GPVTG,132.50,T,-507.40,M,004.792,N,008.875,K,D*02
$GPGGA,085938.15,5702.9288504,N,00949.9499514,E,2,5,1.4,-2.757,M,40.592,M,1.5,0123*5D
$GPVTG,133.02,T,-506.88,M,004.776,N,008.846,K,D*0B
$GPGGA,085938.20,5702.9288041,N,00949.9500399,E,2,5,1.4,-2.751,M,40.592,M,1.5,0123*5B
$GPVTG,133.83,T,-506.07,M,004.782,N,008.855,K,D*0C
$GPGGA,085938.25,5702.9287622,N,00949.9501402,E,2,5,1.4,-2.785,M,40.592,M,1.7,0123*5D
$GPVTG,134.46,T,-505.44,M,004.856,N,008.993,K,D*0B
$GPGGA,085938.30,5702.9287216,N,00949.9502281,E,2,5,1.4,-2.788,M,40.592,M,1.7,0123*59
$GPVTG,134.50,T,-505.40,M,004.813,N,008.913,K,D*01
$GPGGA,085938.35,5702.9286768,N,00949.9503218,E,2,5,1.4,-2.790,M,40.592,M,1.7,0123*59
$GPVTG,134.25,T,-505.65,M,004.863,N,009.005,K,D*0C
$GPGGA,085938.40,5702.9286251,N,00949.9504109,E,2,5,1.4,-2.791,M,40.592,M,1.7,0123*51
$GPVTG,135.09,T,-504.81,M,004.916,N,009.104,K,D*0B
$GPGGA,085938.45,5702.9285840,N,00949.9504980,E,2,5,1.4,-2.795,M,40.592,M,2.0,0123*54
$GPVTG,135.33,T,-504.57,M,004.899,N,009.072,K,D*0F
$GPGGA,085938.50,5702.9285365,N,00949.9505785,E,2,5,1.4,-2.796,M,40.592,M,2.0,0123*55
$GPVTG,136.49,T,-503.41,M,004.846,N,008.976,K,D*0F
$GPGGA,085938.55,5702.9284852,N,00949.9506581,E,2,5,1.4,-2.789,M,40.592,M,2.0,0123*55
$GPVTG,137.82,T,-502.08,M,004.831,N,008.947,K,D*07
$GPGGA,085938.60,5702.9284377,N,00949.9507379,E,2,5,1.4,-2.784,M,40.592,M,2.0,0123*52
$GPVTG,138.58,T,-501.32,M,004.798,N,008.885,K,D*06
$GPGGA,085938.65,5702.9283871,N,00949.9508258,E,2,5,1.4,-2.809,M,40.592,M,2.2,0123*58
$GPVTG,139.36,T,-500.54,M,004.834,N,008.952,K,D*0C
$GPGGA,085938.70,5702.9283383,N,00949.9509037,E,2,5,1.4,-2.807,M,40.592,M,2.2,0123*5E
$GPVTG,140.09,T,-499.81,M,004.807,N,008.903,K,D*03
$GPGGA,085938.75,5702.9282875,N,00949.9509888,E,2,5,1.4,-2.809,M,40.592,M,2.2,0123*5A
$GPVTG,139.99,T,-499.91,M,004.860,N,009.001,K,D*0E
$GPGGA,085938.80,5702.9282419,N,00949.9510622,E,2,5,1.4,-2.811,M,40.592,M,2.2,0123*59
$GPVTG,140.73,T,-499.17,M,004.777,N,008.848,K,D*07
$GPGGA,085938.85,5702.9281886,N,00949.9511397,E,2,5,1.4,-2.825,M,40.592,M,2.4,0123*5E
$GPVTG,141.85,T,-498.05,M,004.800,N,008.889,K,D*0F
$GPGGA,085938.90,5702.9281256,N,00949.9512198,E,2,5,1.4,-2.823,M,40.592,M,2.4,0123*55
$GPVTG,142.72,T,-497.18,M,004.928,N,009.127,K,D*00
$GPGGA,085938.95,5702.9280760,N,00949.9512972,E,2,5,1.4,-2.825,M,40.592,M,2.4,0123*5B
$GPVTG,142.81,T,-497.09,M,004.916,N,009.104,K,D*00
$GPGGA,085939.00,5702.9280284,N,00949.9513688,E,2,5,1.4,-2.828,M,40.592,M,2.4,0123*5F
$GPVTG,143.31,T,-496.59,M,004.849,N,008.979,K,D*06
$GPGGA,085939.05,5702.9279761,N,00949.9514359,E,2,5,1.4,-2.829,M,40.592,M,2.6,0123*5F
$GPVTG,144.54,T,-495.36,M,004.809,N,008.906,K,D*04
$GPGGA,085939.10,5702.9279160,N,00949.9515087,E,2,5,1.4,-2.827,M,40.592,M,2.6,0123*53
$GPVTG,145.36,T,-494.54,M,004.875,N,009.029,K,D*0A
$GPGGA,085939.15,5702.9278681,N,00949.9515814,E,2,5,1.4,-2.826,M,40.592,M,2.6,0123*5C
$GPVTG,145.20,T,-494.70,M,004.836,N,008.956,K,D*0C
$GPGGA,085939.20,5702.9278156,N,00949.9516528,E,2,5,1.4,-2.827,M,40.592,M,2.6,0123*57
$GPVTG,145.43,T,-494.47,M,004.831,N,008.947,K,D*0A
$GPGGA,085939.25,5702.9277569,N,00949.9517167,E,2,5,1.4,-2.840,M,40.592,M,2.9,0123*55
$GPVTG,147.24,T,-492.66,M,004.822,N,008.931,K,D*0F
$GPGGA,085939.30,5702.9277017,N,00949.9517813,E,2,5,1.4,-2.837,M,40.592,M,2.9,0123*57
$GPVTG,148.03,T,-491.87,M,004.808,N,008.904,K,D*07
$GPGGA,085939.35,5702.9276397,N,00949.9518454,E,2,5,1.4,-2.831,M,40.592,M,2.9,0123*5E
$GPVTG,149.12,T,-490.78,M,004.857,N,008.995,K,D*05
$GPGGA,085939.40,5702.9275845,N,00949.9519049,E,2,5,1.4,-2.828,M,40.592,M,2.9,0123*5A
$GPVTG,150.12,T,-489.78,M,004.819,N,008.925,K,D*04
$GPGGA,085939.45,5702.9275308,N,00949.9519767,E,2,5,1.4,-2.833,M,40.592,M,3.1,0123*55
$GPVTG,149.34,T,-490.56,M,004.831,N,008.948,K,D*0D
$GPGGA,085939.50,5702.9274716,N,00949.9520432,E,2,5,1.4,-2.832,M,40.592,M,3.1,0123*53
$GPVTG,149.48,T,-490.42,M,004.878,N,009.035,K,D*0C
$GPGGA,085939.55,5702.9274074,N,00949.9521066,E,2,5,1.4,-2.828,M,40.592,M,3.1,0123*5A
$GPVTG,150.25,T,-489.65,M,004.947,N,009.161,K,D*0F
$GPGGA,085939.60,5702.9273470,N,00949.9521583,E,2,5,1.4,-2.825,M,40.592,M,3.1,0123*58
$GPVTG,152.07,T,-487.83,M,004.912,N,009.097,K,D*03
$GPGGA,085939.65,5702.9272911,N,00949.9522161,E,2,5,1.4,-2.824,M,40.592,M,3.3,0123*5E
$GPVTG,152.62,T,-487.28,M,004.893,N,009.062,K,D*03
$GPGGA,085939.70,5702.9272373,N,00949.9522747,E,2,5,1.4,-2.823,M,40.592,M,3.3,0123*51
$GPVTG,152.72,T,-487.18,M,004.856,N,008.993,K,D*0E
$GPGGA,085939.75,5702.9271682,N,00949.9523270,E,2,5,1.4,-2.820,M,40.592,M,3.3,0123*5F
$GPVTG,154.30,T,-485.60,M,004.925,N,009.120,K,D*07
$GPGGA,085939.80,5702.9271060,N,00949.9523772,E,2,5,1.4,-2.815,M,40.592,M,3.3,0123*5E
$GPVTG,155.50,T,-484.40,M,004.923,N,009.118,K,D*0E
$GPGGA,085939.85,5702.9270455,N,00949.9524257,E,2,5,1.4,-2.824,M,40.592,M,3.5,0123*59
$GPVTG,156.78,T,-483.12,M,004.886,N,009.049,K,D*0C
$GPGGA,085939.90,5702.9269887,N,00949.9524832,E,2,5,1.4,-2.825,M,40.592,M,3.5,0123*5E
$GPVTG,156.17,T,-483.73,M,004.887,N,009.050,K,D*0B
$GPGGA,085939.95,5702.9269248,N,00949.9525329,E,2,5,1.4,-2.823,M,40.592,M,3.5,0123*54
$GPVTG,156.92,T,-482.98,M,004.913,N,009.099,K,D*0B
$GPGGA,085940.00,5702.9268677,N,00949.9525771,E,2,5,1.4,-2.819,M,40.592,M,3.5,0123*5F
$GPVTG,157.89,T,-482.01,M,004.853,N,008.988,K,D*0D
$GPGGA,085940.05,5702.9268009,N,00949.9526265,E,2,5,1.4,-2.838,M,40.592,M,1.9,0123*5B
$GPVTG,158.80,T,-481.10,M,004.893,N,009.063,K,D*09
$GPGGA,085940.10,5702.9267373,N,00949.9526747,E,2,5,1.4,-2.839,M,40.592,M,1.9,0123*5A
$GPVTG,159.04,T,-480.86,M,004.921,N,009.114,K,D*03
$GPGGA,085940.15,5702.9266712,N,00949.9527207,E,2,5,1.4,-2.844,M,40.592,M,1.9,0123*57
$GPVTG,159.57,T,-480.33,M,004.963,N,009.191,K,D*00
$GPGGA,085940.20,5702.9266080,N,00949.9527659,E,2,5,1.4,-2.847,M,40.592,M,1.9,0123*51
$GPVTG,159.93,T,-479.97,M,004.971,N,009.206,K,D*0E
$GPGGA,085940.25,5702.9265477,N,00949.9528006,E,2,5,1.4,-2.835,M,40.592,M,2.1,0123*56
$GPVTG,160.90,T,-479.00,M,004.914,N,009.101,K,D*0E
$GPGGA,085940.30,5702.9264830,N,00949.9528387,E,2,5,1.4,-2.836,M,40.592,M,2.1,0123*55
$GPVTG,161.88,T,-478.02,M,004.917,N,009.106,K,D*01
$GPGGA,085940.35,5702.9264167,N,00949.9528708,E,2,5,1.4,-2.837,M,40.592,M,2.1,0123*59
$GPVTG,163.47,T,-476.43,M,004.919,N,009.110,K,D*02
$GPGGA,085940.40,5702.9263519,N,00949.9529107,E,2,5,1.4,-2.835,M,40.592,M,2.1,0123*5B
$GPVTG,163.60,T,-476.30,M,004.939,N,009.147,K,D*03
$GPGGA,085940.45,5702.9262850,N,00949.9529524,E,2,5,1.4,-2.852,M,40.592,M,2.4,0123*5E
$GPVTG,163.84,T,-476.06,M,004.958,N,009.182,K,D*02
$GPGGA,085940.50,5702.9262164,N,00949.9529879,E,2,5,1.4,-2.851,M,40.592,M,2.4,0123*52
$GPVTG,164.43,T,-475.47,M,004.999,N,009.258,K,D*01
$GPGGA,085940.55,5702.9261458,N,00949.9530225,E,2,5,1.4,-2.848,M,40.592,M,2.4,0123*5D
$GPVTG,165.02,T,-474.88,M,005.055,N,009.361,K,D*04
$GPGGA,085940.60,5702.9260751,N,00949.9530524,E,2,5,1.4,-2.850,M,40.592,M,2.4,0123*5F
$GPVTG,166.06,T,-473.84,M,005.095,N,009.435,K,D*02
$GPGGA,085940.65,5702.9260213,N,00949.9530794,E,2,5,1.4,-2.817,M,40.592,M,2.6,0123*51
$GPVTG,165.82,T,-474.08,M,005.015,N,009.288,K,D*06
$GPGGA,085940.70,5702.9259558,N,00949.9531108,E,2,5,1.4,-2.812,M,40.592,M,2.6,0123*50
$GPVTG,166.23,T,-473.67,M,005.013,N,009.284,K,D*0A
$GPGGA,085940.75,5702.9258927,N,00949.9531430,E,2,5,1.4,-2.816,M,40.592,M,2.6,0123*5A
$GPVTG,166.31,T,-473.59,M,004.990,N,009.242,K,D*0D
$GPGGA,085940.80,5702.9258280,N,00949.9531643,E,2,5,1.4,-2.819,M,40.592,M,2.6,0123*5F
$GPVTG,167.82,T,-472.08,M,004.956,N,009.178,K,D*01
$GPGGA,085940.85,5702.9257518,N,00949.9531976,E,2,5,1.4,-2.859,M,40.592,M,2.9,0123*51
$GPVTG,168.61,T,-471.29,M,004.999,N,009.258,K,D*01
$GPGGA,085940.90,5702.9256840,N,00949.9532212,E,2,5,1.4,-2.859,M,40.592,M,2.9,0123*5E
$GPVTG,169.36,T,-470.54,M,005.006,N,009.271,K,D*0C
$GPGGA,085940.95,5702.9256091,N,00949.9532468,E,2,5,1.4,-2.860,M,40.592,M,2.9,0123*5E
$GPVTG,169.79,T,-470.11,M,005.091,N,009.429,K,D*03
$GPGGA,085941.00,5702.9255423,N,00949.9532697,E,2,5,1.4,-2.864,M,40.592,M,2.9,0123*5B
$GPVTG,170.26,T,-469.64,M,005.082,N,009.411,K,D*02
$GPGGA,085941.05,5702.9254765,N,00949.9532824,E,2,5,1.4,-2.845,M,40.592,M,2.0,0123*52
$GPVTG,171.09,T,-468.81,M,005.069,N,009.389,K,D*07
$GPGGA,085941.10,5702.9254089,N,00949.9532978,E,2,5,1.4,-2.841,M,40.592,M,2.0,0123*5F
$GPVTG,172.21,T,-467.69,M,005.058,N,009.368,K,D*0A
$GPGGA,085941.15,5702.9253432,N,00949.9533118,E,2,5,1.4,-2.834,M,40.592,M,2.0,0123*54
$GPVTG,173.23,T,-466.67,M,005.028,N,009.311,K,D*0F
$GPGGA,085941.20,5702.9252777,N,00949.9533320,E,2,5,1.4,-2.832,M,40.592,M,2.0,0123*5E
$GPVTG,173.14,T,-466.76,M,005.008,N,009.275,K,D*0A
$GPGGA,085941.25,5702.9251975,N,00949.9533566,E,2,5,1.4,-2.869,M,40.592,M,2.3,0123*5D
$GPVTG,173.42,T,-466.48,M,005.098,N,009.442,K,D*0F
$GPGGA,085941.30,5702.9251262,N,00949.9533706,E,2,5,1.4,-2.876,M,40.592,M,2.3,0123*5E
$GPVTG,174.03,T,-465.87,M,005.125,N,009.492,K,D*07
$GPGGA,085941.35,5702.9250548,N,00949.9533818,E,2,5,1.4,-2.883,M,40.592,M,2.3,0123*5F
$GPVTG,174.83,T,-465.07,M,005.147,N,009.533,K,D*09
$GPGGA,085941.40,5702.9249857,N,00949.9533957,E,2,5,1.4,-2.893,M,40.592,M,2.3,0123*5D
$GPVTG,175.04,T,-464.86,M,005.146,N,009.531,K,D*0C
$GPGGA,085941.45,5702.9249134,N,00949.9534002,E,2,5,1.4,-2.851,M,40.592,M,2.5,0123*52
$GPVTG,174.76,T,-465.14,M,005.208,N,009.646,K,D*08
$GPGGA,085941.50,5702.9248419,N,00949.9534089,E,2,5,1.4,-2.850,M,40.592,M,2.5,0123*5F
$GPVTG,175.55,T,-464.35,M,005.222,N,009.671,K,D*06
$GPGGA,085941.55,5702.9247773,N,00949.9534168,E,2,5,1.4,-2.849,M,40.592,M,2.5,0123*5C
$GPVTG,176.20,T,-463.70,M,005.160,N,009.556,K,D*02
$GPGGA,085941.60,5702.9247107,N,00949.9534213,E,2,5,1.4,-2.852,M,40.592,M,2.5,0123*5A
$GPVTG,177.15,T,-462.75,M,005.122,N,009.486,K,D*0B
$GPGGA,085941.65,5702.9246267,N,00949.9534291,E,2,5,1.4,-2.869,M,40.592,M,2.7,0123*5B
$GPVTG,178.20,T,-461.70,M,005.134,N,009.507,K,D*0B
$GPGGA,085941.70,5702.9245570,N,00949.9534234,E,2,5,1.4,-2.869,M,40.592,M,2.7,0123*52
$GPVTG,179.63,T,-460.27,M,005.131,N,009.502,K,D*0E
$GPGGA,085941.75,5702.9244848,N,00949.9534239,E,2,5,1.4,-2.868,M,40.592,M,2.7,0123*5C
$GPVTG,180.34,T,-459.56,M,005.154,N,009.545,K,D*06
$GPGGA,085941.80,5702.9244119,N,00949.9534212,E,2,5,1.4,-2.866,M,40.592,M,2.7,0123*5C
$GPVTG,181.19,T,-458.71,M,005.182,N,009.596,K,D*09
$GPGGA,085941.85,5702.9243389,N,00949.9534202,E,2,5,1.4,-2.874,M,40.592,M,3.0,0123*51
$GPVTG,181.60,T,-458.30,M,005.174,N,009.583,K,D*0F
$GPGGA,085941.90,5702.9242668,N,00949.9534145,E,2,5,1.4,-2.876,M,40.592,M,3.0,0123*5C
$GPVTG,182.43,T,-457.47,M,005.193,N,009.617,K,D*05
$GPGGA,085941.95,5702.9241977,N,00949.9534082,E,2,5,1.4,-2.873,M,40.592,M,3.0,0123*54
$GPVTG,183.15,T,-456.75,M,005.181,N,009.596,K,D*0E
$GPGGA,085942.00,5702.9241224,N,00949.9533996,E,2,5,1.4,-2.878,M,40.592,M,3.0,0123*56
$GPVTG,183.90,T,-456.00,M,005.231,N,009.688,K,D*05
$GPGGA,085942.05,5702.9240484,N,00949.9533879,E,2,5,1.4,-2.876,M,40.592,M,1.5,0123*57
$GPVTG,184.78,T,-455.12,M,005.222,N,009.671,K,D*00
$GPGGA,085942.10,5702.9239763,N,00949.9533873,E,2,5,1.4,-2.877,M,40.592,M,1.5,0123*5C
$GPVTG,184.26,T,-455.64,M,005.229,N,009.684,K,D*0B
$GPGGA,085942.15,5702.9239092,N,00949.9533787,E,2,5,1.4,-2.879,M,40.592,M,1.5,0123*5A
$GPVTG,184.67,T,-455.23,M,005.192,N,009.615,K,D*06
$GPGGA,085942.20,5702.9238337,N,00949.9533683,E,2,5,1.4,-2.884,M,40.592,M,1.5,0123*56
$GPVTG,185.07,T,-454.83,M,005.240,N,009.705,K,D*06
$GPGGA,085942.25,5702.9237590,N,00949.9533604,E,2,5,1.4,-2.897,M,40.592,M,1.7,0123*58
$GPVTG,185.11,T,-454.79,M,005.238,N,009.701,K,D*0F
$GPGGA,085942.30,5702.9236885,N,00949.9533491,E,2,5,1.4,-2.904,M,40.592,M,1.7,0123*51
$GPVTG,185.47,T,-454.43,M,005.233,N,009.691,K,D*06
$GPGGA,085942.35,5702.9236153,N,00949.9533321,E,2,5,1.4,-2.908,M,40.592,M,1.7,0123*56
$GPVTG,186.32,T,-453.58,M,005.258,N,009.738,K,D*05
$GPGGA,085942.40,5702.9235430,N,00949.9533172,E,2,5,1.4,-2.912,M,40.592,M,1.7,0123*58
$GPVTG,186.77,T,-453.13,M,005.270,N,009.761,K,D*0D
$GPGGA,085942.45,5702.9234638,N,00949.9532969,E,2,5,1.4,-2.895,M,40.592,M,2.0,0123*5F
$GPVTG,187.54,T,-452.36,M,005.288,N,009.793,K,D*01
$GPGGA,085942.50,5702.9233923,N,00949.9532704,E,2,5,1.4,-2.893,M,40.592,M,2.0,0123*5A
$GPVTG,188.98,T,-450.92,M,005.304,N,009.823,K,D*03
$GPGGA,085942.55,5702.9233202,N,00949.9532507,E,2,5,1.4,-2.887,M,40.592,M,2.0,0123*53
$GPVTG,189.39,T,-450.51,M,005.313,N,009.839,K,D*0B
$GPGGA,085942.60,5702.9232504,N,00949.9532269,E,2,5,1.4,-2.883,M,40.592,M,2.0,0123*5E
$GPVTG,190.15,T,-449.75,M,005.304,N,009.823,K,D*0E
$GPGGA,085942.65,5702.9231829,N,00949.9532048,E,2,5,1.4,-2.907,M,40.592,M,2.2,0123*54
$GPVTG,190.53,T,-449.37,M,005.294,N,009.805,K,D*06
$GPGGA,085942.70,5702.9231102,N,00949.9531810,E,2,5,1.4,-2.913,M,40.592,M,2.2,0123*53
$GPVTG,190.94,T,-448.96,M,005.312,N,009.837,K,D*09
$GPGGA,085942.75,5702.9230358,N,00949.9531534,E,2,5,1.4,-2.919,M,40.592,M,2.2,0123*5B
$GPVTG,191.60,T,-448.30,M,005.350,N,009.907,K,D*0B
$GPGGA,085942.80,5702.9229673,N,00949.9531296,E,2,5,1.4,-2.919,M,40.592,M,2.2,0123*5A
$GPVTG,191.80,T,-448.10,M,005.317,N,009.848,K,D*0E
$GPGGA,085942.85,5702.9228911,N,00949.9530923,E,2,5,1.4,-2.899,M,40.592,M,2.4,0123*5E
$GPVTG,193.19,T,-446.71,M,005.314,N,009.842,K,D*0C
$GPGGA,085942.90,5702.9228185,N,00949.9530566,E,2,5,1.4,-2.896,M,40.592,M,2.4,0123*5D
$GPVTG,194.23,T,-445.67,M,005.348,N,009.905,K,D*0D
$GPGGA,085942.95,5702.9227475,N,00949.9530299,E,2,5,1.4,-2.893,M,40.592,M,2.4,0123*5F
$GPVTG,194.13,T,-445.77,M,005.338,N,009.886,K,D*02
$GPGGA,085943.00,5702.9226767,N,00949.9529943,E,2,5,1.4,-2.894,M,40.592,M,2.4,0123*50
$GPVTG,194.91,T,-444.99,M,005.348,N,009.904,K,D*05
$GPGGA,085943.05,5702.9226078,N,00949.9529628,E,2,5,1.4,-2.908,M,40.592,M,2.6,0123*58
$GPVTG,195.05,T,-444.85,M,005.334,N,009.878,K,D*05
$GPGGA,085943.10,5702.9225353,N,00949.9529235,E,2,5,1.4,-2.911,M,40.592,M,2.6,0123*55
$GPVTG,195.90,T,-444.00,M,005.367,N,009.940,K,D*08
$GPGGA,085943.15,5702.9224673,N,00949.9528914,E,2,5,1.4,-2.917,M,40.592,M,2.6,0123*59
$GPVTG,195.95,T,-443.95,M,005.331,N,009.873,K,D*04
$GPGGA,085943.20,5702.9223938,N,00949.9528502,E,2,5,1.4,-2.922,M,40.592,M,2.6,0123*55
$GPVTG,196.72,T,-443.18,M,005.376,N,009.956,K,D*0E
$GPGGA,085943.25,5702.9223156,N,00949.9528098,E,2,5,1.4,-2.923,M,40.592,M,2.9,0123*58
$GPVTG,197.16,T,-442.74,M,005.407,N,010.013,K,D*07
$GPGGA,085943.30,5702.9222465,N,00949.9527647,E,2,5,1.4,-2.925,M,40.592,M,2.9,0123*55
$GPVTG,198.16,T,-441.74,M,005.411,N,010.022,K,D*0E
$GPGGA,085943.35,5702.9221777,N,00949.9527170,E,2,5,1.4,-2.926,M,40.592,M,2.9,0123*53
$GPVTG,199.23,T,-440.67,M,005.419,N,010.035,K,D*04
$GPGGA,085943.40,5702.9221079,N,00949.9526680,E,2,5,1.4,-2.928,M,40.592,M,2.9,0123*5F
$GPVTG,200.19,T,-439.71,M,005.436,N,010.067,K,D*0D
$GPGGA,085943.45,5702.9220360,N,00949.9526161,E,2,5,1.4,-2.928,M,40.592,M,3.1,0123*51
$GPVTG,201.10,T,-438.80,M,005.463,N,010.118,K,D*03
$GPGGA,085943.50,5702.9219681,N,00949.9525695,E,2,5,1.4,-2.924,M,40.592,M,3.1,0123*56
$GPVTG,201.46,T,-438.44,M,005.442,N,010.079,K,D*0D
$GPGGA,085943.55,5702.9218983,N,00949.9525202,E,2,5,1.4,-2.920,M,40.592,M,3.1,0123*51
$GPVTG,201.89,T,-438.01,M,005.449,N,010.092,K,D*01
$GPGGA,085943.60,5702.9218298,N,00949.9524724,E,2,5,1.4,-2.925,M,40.592,M,3.1,0123*53
$GPVTG,202.09,T,-437.81,M,005.433,N,010.063,K,D*0E
$GPGGA,085943.65,5702.9217574,N,00949.9524240,E,2,5,1.4,-2.949,M,40.592,M,3.3,0123*53
$GPVTG,201.41,T,-438.49,M,005.481,N,010.150,K,D*02
$GPGGA,085943.70,5702.9216854,N,00949.9523743,E,2,5,1.4,-2.954,M,40.592,M,3.3,0123*54
$GPVTG,201.52,T,-438.38,M,005.499,N,010.184,K,D*06
$GPGGA,085943.75,5702.9216174,N,00949.9523160,E,2,5,1.4,-2.962,M,40.592,M,3.3,0123*58
$GPVTG,202.84,T,-437.06,M,005.515,N,010.214,K,D*03
$GPGGA,085943.80,5702.9215475,N,00949.9522602,E,2,5,1.4,-2.967,M,40.592,M,3.3,0123*52
$GPVTG,203.45,T,-436.45,M,005.530,N,010.241,K,D*0E
$GPGGA,085943.85,5702.9214815,N,00949.9521944,E,2,5,1.4,-2.935,M,40.592,M,3.5,0123*53
$GPVTG,204.08,T,-435.82,M,005.514,N,010.212,K,D*08
$GPGGA,085943.90,5702.9214128,N,00949.9521391,E,2,5,1.4,-2.932,M,40.592,M,3.5,0123*55
$GPVTG,204.34,T,-435.56,M,005.506,N,010.197,K,D*03
$GPGGA,085943.95,5702.9213376,N,00949.9520770,E,2,5,1.4,-2.930,M,40.592,M,3.5,0123*56
$GPVTG,204.99,T,-434.91,M,005.593,N,010.358,K,D*03
$GPGGA,085944.00,5702.9212755,N,00949.9520177,E,2,5,1.4,-2.930,M,40.592,M,3.5,0123*58
$GPVTG,205.70,T,-434.20,M,005.529,N,010.240,K,D*06
$GPGGA,085944.05,5702.9212096,N,00949.9519569,E,2,5,1.4,-2.952,M,40.592,M,1.9,0123*5E
$GPVTG,206.74,T,-433.16,M,005.515,N,010.214,K,D*0D
$GPGGA,085944.10,5702.9211473,N,00949.9518906,E,2,5,1.4,-2.956,M,40.592,M,1.9,0123*56
$GPVTG,207.89,T,-432.01,M,005.490,N,010.168,K,D*0D
$GPGGA,085944.15,5702.9210789,N,00949.9518257,E,2,5,1.4,-2.953,M,40.592,M,1.9,0123*5E
$GPVTG,208.34,T,-431.56,M,005.510,N,010.204,K,D*05
$GPGGA,085944.20,5702.9210137,N,00949.9517561,E,2,5,1.4,-2.955,M,40.592,M,1.9,0123*50
$GPVTG,209.30,T,-430.60,M,005.520,N,010.224,K,D*05
$GPGGA,085944.25,5702.9209440,N,00949.9516850,E,2,5,1.4,-2.961,M,40.592,M,2.1,0123*5A
$GPVTG,209.91,T,-429.99,M,005.578,N,010.331,K,D*08
$GPGGA,085944.30,5702.9208737,N,00949.9516206,E,2,5,1.4,-2.961,M,40.592,M,2.1,0123*55
$GPVTG,209.60,T,-430.30,M,005.584,N,010.342,K,D*0A
$GPGGA,085944.35,5702.9208128,N,00949.9515526,E,2,5,1.4,-2.961,M,40.592,M,2.1,0123*5E
$GPVTG,210.14,T,-429.76,M,005.527,N,010.237,K,D*01
$GPGGA,085944.40,5702.9207542,N,00949.9514783,E,2,5,1.4,-2.966,M,40.592,M,2.1,0123*50
$GPVTG,211.38,T,-428.52,M,005.491,N,010.169,K,D*0D
$GPGGA,085944.45,5702.9206871,N,00949.9514029,E,2,5,1.4,-2.968,M,40.592,M,2.4,0123*55
$GPVTG,211.86,T,-428.04,M,005.522,N,010.227,K,D*0B
$GPGGA,085944.50,5702.9206151,N,00949.9513322,E,2,5,1.4,-2.965,M,40.592,M,2.4,0123*58
$GPVTG,211.60,T,-428.30,M,005.568,N,010.312,K,D*0D
$GPGGA,085944.55,5702.9205500,N,00949.9512585,E,2,5,1.4,-2.964,M,40.592,M,2.4,0123*55
$GPVTG,211.98,T,-427.92,M,005.568,N,010.311,K,D*0E
$GPGGA,085944.60,5702.9204966,N,00949.9511836,E,2,5,1.4,-2.971,M,40.592,M,2.4,0123*5C
$GPVTG,213.05,T,-426.85,M,005.472,N,010.133,K,D*07
$GPGGA,085944.65,5702.9204285,N,00949.9510995,E,2,5,1.4,-2.978,M,40.592,M,2.6,0123*5D
$GPVTG,214.06,T,-425.84,M,005.555,N,010.288,K,D*06
$GPGGA,085944.70,5702.9203622,N,00949.9510220,E,2,5,1.4,-2.978,M,40.592,M,2.6,0123*52
$GPVTG,214.25,T,-425.65,M,005.573,N,010.322,K,D*0D
$GPGGA,085944.75,5702.9203040,N,00949.9509408,E,2,5,1.4,-2.980,M,40.592,M,2.6,0123*56
$GPVTG,215.19,T,-424.71,M,005.548,N,010.275,K,D*0C
$GPGGA,085944.80,5702.9202426,N,00949.9508612,E,2,5,1.4,-2.979,M,40.592,M,2.6,0123*57
$GPVTG,215.61,T,-424.29,M,005.532,N,010.245,K,D*00
$GPGGA,085944.85,5702.9201840,N,00949.9507757,E,2,5,1.4,-2.969,M,40.592,M,2.9,0123*5C
$GPVTG,216.34,T,-423.56,M,005.517,N,010.217,K,D*0C
$GPGGA,085944.90,5702.9201163,N,00949.9506908,E,2,5,1.4,-2.968,M,40.592,M,2.9,0123*54
$GPVTG,216.63,T,-423.27,M,005.583,N,010.339,K,D*08
$GPGGA,085944.95,5702.9200504,N,00949.9506023,E,2,5,1.4,-2.966,M,40.592,M,2.9,0123*5B
$GPVTG,217.24,T,-422.66,M,005.651,N,010.465,K,D*0C
$GPGGA,085945.00,5702.9199932,N,00949.9505138,E,2,5,1.4,-2.963,M,40.592,M,2.9,0123*51
$GPVTG,218.20,T,-421.70,M,005.636,N,010.439,K,D*0B
$GPGGA,085945.05,5702.9199339,N,00949.9504243,E,2,5,1.4,-2.963,M,40.592,M,2.0,0123*52
$GPVTG,218.75,T,-421.15,M,005.633,N,010.433,K,D*07
$GPGGA,085945.10,5702.9198729,N,00949.9503348,E,2,5,1.4,-2.964,M,40.592,M,2.0,0123*58
$GPVTG,219.23,T,-420.67,M,005.644,N,010.454,K,D*00
$GPGGA,085945.15,5702.9198181,N,00949.9502430,E,2,5,1.4,-2.962,M,40.592,M,2.0,0123*56
$GPVTG,220.21,T,-419.69,M,005.620,N,010.408,K,D*07
$GPGGA,085945.20,5702.9197629,N,00949.9501505,E,2,5,1.4,-2.962,M,40.592,M,2.0,0123*5E
$GPVTG,221.04,T,-418.86,M,005.599,N,010.370,K,D*08
$GPGGA,085945.25,5702.9197092,N,00949.9500561,E,2,5,1.4,-2.981,M,40.592,M,2.3,0123*50
$GPVTG,222.30,T,-417.60,M,005.584,N,010.342,K,D*06
$GPGGA,085945.30,5702.9196495,N,00949.9499636,E,2,5,1.4,-2.980,M,40.592,M,2.3,0123*57
$GPVTG,222.43,T,-417.47,M,005.585,N,010.344,K,D*00
$GPGGA,085945.35,5702.9195894,N,00949.9498657,E,2,5,1.4,-2.979,M,40.592,M,2.3,0123*5C
$GPVTG,222.94,T,-416.96,M,005.631,N,010.429,K,D*07
$GPGGA,085945.40,5702.9195331,N,00949.9497690,E,2,5,1.4,-2.978,M,40.592,M,2.3,0123*5F
$GPVTG,223.45,T,-416.45,M,005.628,N,010.423,K,D*06
$GPGGA,085945.45,5702.9194702,N,00949.9496748,E,2,5,1.4,-2.993,M,40.592,M,2.5,0123*59
$GPVTG,223.38,T,-416.52,M,005.638,N,010.441,K,D*0F
$GPGGA,085945.50,5702.9194189,N,00949.9495821,E,2,5,1.4,-2.994,M,40.592,M,2.5,0123*5C
$GPVTG,223.67,T,-416.23,M,005.554,N,010.285,K,D*04
$GPGGA,085945.55,5702.9193559,N,00949.9494874,E,2,5,1.4,-2.993,M,40.592,M,2.5,0123*51
$GPVTG,223.29,T,-416.61,M,005.578,N,010.331,K,D*08
$GPGGA,085945.60,5702.9192991,N,00949.9493907,E,2,5,1.4,-2.993,M,40.592,M,2.5,0123*5C
$GPVTG,223.52,T,-416.38,M,005.573,N,010.322,K,D*01
$GPGGA,085945.65,5702.9192463,N,00949.9492859,E,2,5,1.4,-2.976,M,40.592,M,2.7,0123*5B
$GPVTG,224.05,T,-415.85,M,005.575,N,010.324,K,D*01
$GPGGA,085945.70,5702.9191930,N,00949.9491825,E,2,5,1.4,-2.973,M,40.592,M,2.7,0123*5A
$GPVTG,224.98,T,-414.92,M,005.598,N,010.368,K,D*09
$GPGGA,085945.75,5702.9191420,N,00949.9490834,E,2,5,1.4,-2.970,M,40.592,M,2.7,0123*51
$GPVTG,225.51,T,-414.39,M,005.560,N,010.298,K,D*05
$GPGGA,085945.80,5702.9190908,N,00949.9489772,E,2,5,1.4,-2.964,M,40.592,M,2.7,0123*5D
$GPVTG,226.56,T,-413.34,M,005.586,N,010.345,K,D*02
$GPGGA,085945.85,5702.9190295,N,00949.9488812,E,2,5,1.4,-2.994,M,40.592,M,3.0,0123*56
$GPVTG,226.54,T,-413.36,M,005.604,N,010.378,K,D*05
$GPGGA,085945.90,5702.9189791,N,00949.9487778,E,2,5,1.4,-2.996,M,40.592,M,3.0,0123*55
$GPVTG,227.17,T,-412.73,M,005.586,N,010.345,K,D*04
$GPGGA,085945.95,5702.9189240,N,00949.9486718,E,2,5,1.4,-2.996,M,40.592,M,3.0,0123*5E
$GPVTG,227.55,T,-412.35,M,005.621,N,010.410,K,D*09
$GPGGA,085946.00,5702.9188723,N,00949.9485662,E,2,5,1.4,-3.000,M,40.592,M,3.0,0123*58
$GPVTG,228.04,T,-411.86,M,005.620,N,010.409,K,D*00
$GPGGA,085946.05,5702.9188201,N,00949.9484596,E,2,5,1.4,-3.002,M,40.592,M,1.5,0123*54
$GPVTG,228.45,T,-411.45,M,005.599,N,010.369,K,D*0A
$GPGGA,085946.10,5702.9187788,N,00949.9483547,E,2,5,1.4,-2.998,M,40.592,M,1.5,0123*5B
$GPVTG,229.48,T,-410.42,M,005.519,N,010.221,K,D*05
$GPGGA,085946.15,5702.9187292,N,00949.9482444,E,2,5,1.4,-2.999,M,40.592,M,1.5,0123*52
$GPVTG,230.22,T,-409.68,M,005.547,N,010.274,K,D*0A
$GPGGA,085946.20,5702.9186698,N,00949.9481343,E,2,5,1.4,-3.001,M,40.592,M,1.5,0123*51
$GPVTG,230.03,T,-409.87,M,005.628,N,010.423,K,D*06
$GPGGA,085946.25,5702.9186216,N,00949.9480172,E,2,5,1.4,-2.996,M,40.592,M,1.7,0123*53
$GPVTG,230.74,T,-409.16,M,005.683,N,010.524,K,D*09
$GPGGA,085946.30,5702.9185762,N,00949.9479077,E,2,5,1.4,-2.995,M,40.592,M,1.7,0123*53
$GPVTG,231.35,T,-408.55,M,005.644,N,010.453,K,D*01
$GPGGA,085946.35,5702.9185218,N,00949.9477932,E,2,5,1.4,-2.994,M,40.592,M,1.7,0123*59
$GPVTG,231.55,T,-408.35,M,005.707,N,010.569,K,D*0F
$GPGGA,085946.40,5702.9184787,N,00949.9476802,E,2,5,1.4,-2.993,M,40.592,M,1.7,0123*5D
$GPVTG,232.40,T,-407.50,M,005.677,N,010.513,K,D*0F
$GPGGA,085946.45,5702.9184209,N,00949.9475681,E,2,5,1.4,-3.017,M,40.592,M,2.0,0123*5D
$GPVTG,232.64,T,-407.26,M,005.730,N,010.612,K,D*08
$GPGGA,085946.50,5702.9183747,N,00949.9474545,E,2,5,1.4,-3.020,M,40.592,M,2.0,0123*5F
$GPVTG,233.06,T,-406.84,M,005.707,N,010.570,K,D*07
$GPGGA,085946.55,5702.9183336,N,00949.9473391,E,2,5,1.4,-3.021,M,40.592,M,2.0,0123*51
