$GPGGA,081045.45,5702.8053570,N,00950.2205684,E,2,5,2.2,-3.384,M,40.592,M,3.1,0123*5B
$GPVTG,354.57,T,-285.33,M,003.789,N,007.017,K,D*00
$GPGGA,081045.50,5702.8054086,N,00950.2205591,E,2,5,2.2,-3.389,M,40.592,M,3.1,0123*5E
$GPVTG,355.48,T,-284.42,M,003.770,N,006.983,K,D*0B
$GPGGA,081045.55,5702.8054630,N,00950.2205455,E,2,5,2.2,-3.394,M,40.592,M,3.1,0123*55
$GPVTG,355.66,T,-284.24,M,003.794,N,007.026,K,D*0A
$GPGGA,081045.60,5702.8055147,N,00950.2205386,E,2,5,2.2,-3.401,M,40.592,M,3.1,0123*57
$GPVTG,356.55,T,-283.35,M,003.778,N,006.996,K,D*0F
$GPGGA,081045.65,5702.8055680,N,00950.2205336,E,2,5,2.2,-3.391,M,40.592,M,3.3,0123*59
$GPVTG,357.64,T,-282.26,M,003.759,N,006.962,K,D*07
$GPGGA,081045.70,5702.8056198,N,00950.2205318,E,2,5,2.2,-3.395,M,40.592,M,3.3,0123*58
$GPVTG,358.80,T,-281.10,M,003.748,N,006.941,K,D*05
$GPGGA,081045.75,5702.8056731,N,00950.2205262,E,2,5,2.2,-3.399,M,40.592,M,3.3,0123*58
$GPVTG,359.21,T,-280.69,M,003.761,N,006.965,K,D*0D
$GPGGA,081045.80,5702.8057235,N,00950.2205298,E,2,5,2.2,-3.401,M,40.592,M,3.3,0123*51
$GPVTG,000.69,T,-639.21,M,003.735,N,006.918,K,D*0F
$GPGGA,081045.85,5702.8057829,N,00950.2205355,E,2,5,2.2,-3.394,M,40.592,M,3.6,0123*5D
$GPVTG,001.44,T,-638.46,M,003.791,N,007.020,K,D*0C
$GPGGA,081045.90,5702.8058359,N,00950.2205382,E,2,5,2.2,-3.398,M,40.592,M,3.6,0123*5C
$GPVTG,002.30,T,-637.60,M,003.801,N,007.039,K,D*09
$GPGGA,081045.95,5702.8058868,N,00950.2205468,E,2,5,2.2,-3.402,M,40.592,M,3.6,0123*57
$GPVTG,003.86,T,-636.04,M,003.782,N,007.004,K,D*0C
$GPGGA,081046.00,5702.8059399,N,00950.2205544,E,2,5,2.2,-3.406,M,40.592,M,3.6,0123*57
$GPVTG,004.91,T,-634.99,M,003.797,N,007.033,K,D*0B
$GPGGA,081046.05,5702.8059843,N,00950.2205673,E,2,5,2.2,-3.430,M,40.592,M,1.2,0123*5A
$GPVTG,005.18,T,-634.72,M,003.683,N,006.821,K,D*00
$GPGGA,081046.10,5702.8060327,N,00950.2205862,E,2,5,2.2,-3.433,M,40.592,M,1.2,0123*50
$GPVTG,008.78,T,-631.12,M,003.646,N,006.753,K,D*0B
$GPGGA,081046.15,5702.8060862,N,00950.2206000,E,2,5,2.2,-3.444,M,40.592,M,1.2,0123*50
$GPVTG,009.57,T,-630.33,M,003.710,N,006.870,K,D*09
$GPGGA,081046.20,5702.8061385,N,00950.2206167,E,2,5,2.2,-3.450,M,40.592,M,1.2,0123*50
$GPVTG,010.73,T,-629.17,M,003.742,N,006.930,K,D*0B
$GPGGA,081046.25,5702.8061879,N,00950.2206390,E,2,5,2.2,-3.457,M,40.592,M,1.4,0123*56
$GPVTG,011.85,T,-628.05,M,003.709,N,006.869,K,D*03
$GPGGA,081046.30,5702.8062374,N,00950.2206586,E,2,5,2.2,-3.464,M,40.592,M,1.4,0123*56
$GPVTG,012.93,T,-626.97,M,003.700,N,006.852,K,D*03
$GPGGA,081046.35,5702.8062847,N,00950.2206852,E,2,5,2.2,-3.472,M,40.592,M,1.4,0123*5B
$GPVTG,015.20,T,-624.70,M,003.679,N,006.813,K,D*0D
$GPGGA,081046.40,5702.8063311,N,00950.2207106,E,2,5,2.2,-3.479,M,40.592,M,1.4,0123*52
$GPVTG,016.71,T,-623.19,M,003.643,N,006.747,K,D*05
$GPGGA,081046.45,5702.8063843,N,00950.2207371,E,2,5,2.2,-3.466,M,40.592,M,1.6,0123*55
$GPVTG,017.06,T,-622.84,M,003.617,N,006.698,K,D*03
$GPGGA,081046.50,5702.8064339,N,00950.2207644,E,2,5,2.2,-3.469,M,40.592,M,1.6,0123*5C
$GPVTG,017.99,T,-621.91,M,003.645,N,006.751,K,D*01
$GPGGA,081046.55,5702.8064809,N,00950.2207918,E,2,5,2.2,-3.470,M,40.592,M,1.6,0123*5F
$GPVTG,018.80,T,-621.10,M,003.625,N,006.713,K,D*0F
$GPGGA,081046.60,5702.8065235,N,00950.2208173,E,2,5,2.2,-3.468,M,40.592,M,1.6,0123*5E
$GPVTG,019.31,T,-620.59,M,003.532,N,006.541,K,D*08
$GPGGA,081046.65,5702.8065613,N,00950.2208482,E,2,5,2.2,-3.474,M,40.592,M,1.8,0123*53
$GPVTG,020.14,T,-619.76,M,003.422,N,006.338,K,D*0A
$GPGGA,081046.70,5702.8066087,N,00950.2208778,E,2,5,2.2,-3.479,M,40.592,M,1.8,0123*54
$GPVTG,020.60,T,-619.30,M,003.447,N,006.384,K,D*0F
$GPGGA,081046.75,5702.8066536,N,00950.2209124,E,2,5,2.2,-3.478,M,40.592,M,1.8,0123*51
$GPVTG,022.12,T,-617.78,M,003.454,N,006.396,K,D*0B
$GPGGA,081046.80,5702.8066990,N,00950.2209430,E,2,5,2.2,-3.482,M,40.592,M,1.8,0123*5E
$GPVTG,022.39,T,-617.51,M,003.445,N,006.380,K,D*0E
$GPGGA,081046.85,5702.8067441,N,00950.2209831,E,2,5,2.2,-3.490,M,40.592,M,2.1,0123*5F
$GPVTG,023.72,T,-616.18,M,003.442,N,006.375,K,D*01
$GPGGA,081046.90,5702.8067840,N,00950.2210228,E,2,5,2.2,-3.500,M,40.592,M,2.1,0123*54
$GPVTG,025.92,T,-613.98,M,003.397,N,006.291,K,D*00
$GPGGA,081046.95,5702.8068216,N,00950.2210579,E,2,5,2.2,-3.507,M,40.592,M,2.1,0123*53
$GPVTG,027.00,T,-612.90,M,003.302,N,006.116,K,D*00
$GPGGA,081047.00,5702.8068633,N,00950.2210951,E,2,5,2.2,-3.516,M,40.592,M,2.1,0123*5B
$GPVTG,027.71,T,-612.19,M,003.290,N,006.094,K,D*06
$GPGGA,081047.05,5702.8069223,N,00950.2211391,E,2,5,2.2,-3.483,M,40.592,M,2.3,0123*52
$GPVTG,028.10,T,-611.80,M,003.381,N,006.262,K,D*07
$GPGGA,081047.10,5702.8069628,N,00950.2211872,E,2,5,2.2,-3.488,M,40.592,M,2.3,0123*54
$GPVTG,030.51,T,-609.39,M,003.411,N,006.318,K,D*02
$GPGGA,081047.15,5702.8070046,N,00950.2212326,E,2,5,2.2,-3.496,M,40.592,M,2.3,0123*51
$GPVTG,031.64,T,-608.26,M,003.438,N,006.368,K,D*06
$GPGGA,081047.20,5702.8070469,N,00950.2212738,E,2,5,2.2,-3.500,M,40.592,M,2.3,0123*5B
$GPVTG,031.57,T,-608.33,M,003.435,N,006.362,K,D*05
$GPGGA,081047.25,5702.8070893,N,00950.2213277,E,2,5,2.2,-3.509,M,40.592,M,2.5,0123*57
$GPVTG,032.91,T,-606.99,M,003.484,N,006.453,K,D*0D
$GPGGA,081047.30,5702.8071282,N,00950.2213787,E,2,5,2.2,-3.515,M,40.592,M,2.5,0123*5F
$GPVTG,034.55,T,-605.35,M,003.492,N,006.467,K,D*06
$GPGGA,081047.35,5702.8071650,N,00950.2214266,E,2,5,2.2,-3.518,M,40.592,M,2.5,0123*51
$GPVTG,035.57,T,-604.33,M,003.444,N,006.379,K,D*01
$GPGGA,081047.40,5702.8071997,N,00950.2214731,E,2,5,2.2,-3.526,M,40.592,M,2.5,0123*5D
$GPVTG,036.39,T,-603.51,M,003.363,N,006.228,K,D*0E
$GPGGA,081047.45,5702.8072410,N,00950.2215290,E,2,5,2.2,-3.511,M,40.592,M,2.7,0123*50
$GPVTG,038.02,T,-601.88,M,003.334,N,006.175,K,D*07
$GPGGA,081047.50,5702.8072789,N,00950.2215847,E,2,5,2.2,-3.516,M,40.592,M,2.7,0123*50
$GPVTG,039.32,T,-600.58,M,003.378,N,006.257,K,D*02
$GPGGA,081047.55,5702.8073180,N,00950.2216444,E,2,5,2.2,-3.519,M,40.592,M,2.7,0123*58
$GPVTG,040.66,T,-599.24,M,003.459,N,006.406,K,D*03
$GPGGA,081047.60,5702.8073516,N,00950.2217030,E,2,5,2.2,-3.519,M,40.592,M,2.7,0123*53
$GPVTG,042.38,T,-597.52,M,003.451,N,006.390,K,D*05
$GPGGA,081047.65,5702.8073912,N,00950.2217621,E,2,5,2.2,-3.510,M,40.592,M,2.9,0123*5F
$GPVTG,042.85,T,-597.05,M,003.407,N,006.310,K,D*0A
$GPGGA,081047.70,5702.8074256,N,00950.2218179,E,2,5,2.2,-3.514,M,40.592,M,2.9,0123*56
$GPVTG,043.36,T,-596.54,M,003.380,N,006.260,K,D*08
$GPGGA,081047.75,5702.8074593,N,00950.2218785,E,2,5,2.2,-3.521,M,40.592,M,2.9,0123*5E
$GPVTG,044.58,T,-595.32,M,003.390,N,006.278,K,D*0C
$GPGGA,081047.80,5702.8074888,N,00950.2219386,E,2,5,2.2,-3.523,M,40.592,M,2.9,0123*57
$GPVTG,046.20,T,-593.70,M,003.346,N,006.197,K,D*08
$GPGGA,081047.85,5702.8075338,N,00950.2220056,E,2,5,2.2,-3.488,M,40.592,M,3.1,0123*5E
$GPVTG,047.53,T,-592.37,M,003.364,N,006.230,K,D*01
$GPGGA,081047.90,5702.8075669,N,00950.2220655,E,2,5,2.2,-3.487,M,40.592,M,3.1,0123*51
$GPVTG,048.15,T,-591.75,M,003.366,N,006.234,K,D*0F
$GPGGA,081047.95,5702.8075988,N,00950.2221285,E,2,5,2.2,-3.489,M,40.592,M,3.1,0123*52
$GPVTG,048.97,T,-590.93,M,003.372,N,006.245,K,D*0F
$GPGGA,081048.00,5702.8076308,N,00950.2221939,E,2,5,2.2,-3.489,M,40.592,M,3.1,0123*5C
$GPVTG,049.79,T,-590.11,M,003.390,N,006.279,K,D*07
$GPGGA,081048.05,5702.8076712,N,00950.2222706,E,2,5,2.2,-3.463,M,40.592,M,2.4,0123*57
$GPVTG,051.11,T,-588.79,M,003.433,N,006.358,K,D*0B
$GPGGA,081048.10,5702.8077040,N,00950.2223306,E,2,5,2.2,-3.461,M,40.592,M,2.4,0123*55
$GPVTG,050.97,T,-588.93,M,003.420,N,006.334,K,D*08
$GPGGA,081048.15,5702.8077317,N,00950.2223964,E,2,5,2.2,-3.448,M,40.592,M,2.4,0123*54
$GPVTG,051.99,T,-587.91,M,003.401,N,006.299,K,D*0F
$GPGGA,081048.20,5702.8077589,N,00950.2224649,E,2,5,2.2,-3.437,M,40.592,M,2.4,0123*5C
$GPVTG,053.13,T,-586.77,M,003.397,N,006.291,K,D*06
$GPGGA,081048.25,5702.8077866,N,00950.2225356,E,2,5,2.2,-3.424,M,40.592,M,2.7,0123*5E
$GPVTG,053.82,T,-586.08,M,003.374,N,006.249,K,D*0E
$GPGGA,081048.30,5702.8078109,N,00950.2226094,E,2,5,2.2,-3.421,M,40.592,M,2.7,0123*5E
$GPVTG,055.65,T,-584.25,M,003.384,N,006.268,K,D*00
$GPGGA,081048.35,5702.8078397,N,00950.2226781,E,2,5,2.2,-3.420,M,40.592,M,2.7,0123*5C
$GPVTG,055.94,T,-583.96,M,003.390,N,006.279,K,D*04
$GPGGA,081048.40,5702.8078660,N,00950.2227511,E,2,5,2.2,-3.415,M,40.592,M,2.7,0123*5F
$GPVTG,056.91,T,-582.99,M,003.407,N,006.309,K,D*03
$GPGGA,081048.45,5702.8078970,N,00950.2228316,E,2,5,2.2,-3.398,M,40.592,M,2.9,0123*56
$GPVTG,058.39,T,-581.51,M,003.425,N,006.342,K,D*07
$GPGGA,081048.50,5702.8079195,N,00950.2229087,E,2,5,2.2,-3.394,M,40.592,M,2.9,0123*56
$GPVTG,059.96,T,-579.94,M,003.,2.2,-4.131,M,40.592,M,1.2,0123*5A
$GPVTG,212.60,T,-427.30,M,004.392,N,008.133,K,D*0B
$GPGGA,081110.25,5702.8054605,N,00950.2210671,E,2,5,2.2,-4.116,M,40.592,M,1.4,0123*5D
$GPVTG,214.19,T,-425.71,M,004.390,N,008.130,K,D*05
$GPGGA,081110.30,5702.8054134,N,00950.2210024,E,2,5,2.2,-4.126,M,40.592,M,1.4,0123*59
$GPVTG,215.50,T,-424.40,M,004.398,N,008.146,K,D*03
$GPGGA,081110.35,5702.8053690,N,00950.2209371,E,2,5,2.2,-4.133,M,40.592,M,1.4,0123*5D
$GPVTG,216.93,T,-422.97,M,004.383,N,008.118,K,D*02
$GPGGA,081110.40,5702.8053232,N,00950.2208754,E,2,5,2.2,-4.143,M,40.592,M,1.4,0123*56
$GPVTG,217.86,T,-422.04,M,004.366,N,008.087,K,D*01
$GPGGA,081110.45,5702.8052800,N,00950.2208216,E,2,5,2.2,-4.132,M,40.592,M,1.6,0123*5E
$GPVTG,219.12,T,-420.78,M,004.334,N,008.027,K,D*06
$GPGGA,081110.50,5702.8052382,N,00950.2207491,E,2,5,2.2,-4.141,M,40.592,M,1.6,0123*59
$GPVTG,220.80,T,-419.10,M,004.323,N,008.006,K,D*06
$GPGGA,081110.55,5702.8051894,N,00950.2206788,E,2,5,2.2,-4.152,M,40.592,M,1.6,0123*5B
$GPVTG,221.39,T,-418.51,M,004.366,N,008.086,K,D*08
$GPGGA,081110.60,5702.8051491,N,00950.2206058,E,2,5,2.2,-4.158,M,40.592,M,1.6,0123*54
$GPVTG,222.91,T,-416.99,M,004.340,N,008.038,K,D*02
$GPGGA,081110.65,5702.8051041,N,00950.2205492,E,2,5,2.2,-4.135,M,40.592,M,1.8,0123*5C
$GPVTG,223.56,T,-416.34,M,004.353,N,008.062,K,D*02
$GPGGA,081110.70,5702.8050616,N,00950.2204723,E,2,5,2.2,-4.137,M,40.592,M,1.8,0123*57
$GPVTG,224.71,T,-415.19,M,004.365,N,008.083,K,D*06
$GPGGA,081110.75,5702.8050201,N,00950.2203954,E,2,5,2.2,-4.143,M,40.592,M,1.8,0123*5A
$GPVTG,225.78,T,-414.12,M,004.367,N,008.087,K,D*02
$GPGGA,081110.80,5702.8049798,N,00950.2203179,E,2,5,2.2,-4.146,M,40.592,M,1.8,0123*5F
$GPVTG,226.86,T,-413.04,M,004.360,N,008.075,K,D*0A
$GPGGA,081110.85,5702.8049373,N,00950.2202511,E,2,5,2.2,-4.146,M,40.592,M,2.1,0123*5A
$GPVTG,227.14,T,-412.76,M,004.390,N,008.130,K,D*0B
$GPGGA,081110.90,5702.8048976,N,00950.2201652,E,2,5,2.2,-4.150,M,40.592,M,2.1,0123*50
$GPVTG,228.50,T,-411.40,M,004.418,N,008.182,K,D*0C
$GPGGA,081110.95,5702.8048640,N,00950.2200815,E,2,5,2.2,-4.153,M,40.592,M,2.1,0123*50
$GPVTG,230.25,T,-409.65,M,004.381,N,008.114,K,D*01
$GPGGA,081111.00,5702.8048281,N,00950.2199952,E,2,5,2.2,-4.152,M,40.592,M,2.1,0123*54
$GPVTG,231.64,T,-408.26,M,004.381,N,008.113,K,D*04
$GPGGA,081111.05,5702.8047919,N,00950.2199337,E,2,5,2.2,-4.129,M,40.592,M,2.3,0123*53
$GPVTG,231.79,T,-408.11,M,004.343,N,008.044,K,D*01
$GPGGA,081111.10,5702.8047540,N,00950.2198483,E,2,5,2.2,-4.133,M,40.592,M,2.3,0123*55
$GPVTG,232.51,T,-407.39,M,004.352,N,008.060,K,D*0B
$GPGGA,081111.15,5702.8047145,N,00950.2197569,E,2,5,2.2,-4.136,M,40.592,M,2.3,0123*5E
$GPVTG,233.28,T,-406.62,M,004.412,N,008.171,K,D*09
$GPGGA,081111.20,5702.8046764,N,00950.2196666,E,2,5,2.2,-4.134,M,40.592,M,2.3,0123*53
$GPVTG,233.95,T,-405.95,M,004.445,N,008.232,K,D*02
$GPGGA,081111.25,5702.8046440,N,00950.2195915,E,2,5,2.2,-4.143,M,40.592,M,2.5,0123*5D
$GPVTG,235.06,T,-404.84,M,004.428,N,008.200,K,D*05
$GPGGA,081111.30,5702.8046076,N,00950.2194999,E,2,5,2.2,-4.149,M,40.592,M,2.5,0123*57
$GPVTG,235.69,T,-404.21,M,004.451,N,008.242,K,D*0B
$GPGGA,081111.35,5702.8045760,N,00950.2194121,E,2,5,2.2,-4.150,M,40.592,M,2.5,0123*52
$GPVTG,236.63,T,-403.27,M,004.411,N,008.169,K,D*0D
$GPGGA,081111.40,5702.8045439,N,00950.2193202,E,2,5,2.2,-4.151,M,40.592,M,2.5,0123*5B
$GPVTG,237.55,T,-402.35,M,004.405,N,008.157,K,D*03
$GPGGA,081111.45,5702.8045108,N,00950.2192267,E,2,5,2.2,-4.120,M,40.592,M,2.7,0123*5F
$GPVTG,238.52,T,-401.38,M,004.431,N,008.207,K,D*04
$GPGGA,081111.50,5702.8044822,N,00950.2191337,E,2,5,2.2,-4.121,M,40.592,M,2.7,0123*5D
$GPVTG,239.68,T,-400.22,M,004.404,N,008.156,K,D*07
$GPGGA,081111.55,5702.8044522,N,00950.2190360,E,2,5,2.2,-4.119,M,40.592,M,2.7,0123*5D
$GPVTG,240.67,T,-399.23,M,004.420,N,008.186,K,D*0B
$GPGGA,081111.60,5702.8044226,N,00950.2189364,E,2,5,2.2,-4.120,M,40.592,M,2.7,0123*5E
$GPVTG,241.64,T,-398.26,M,004.443,N,008.229,K,D*0E
$GPGGA,081111.65,5702.8043943,N,00950.2188468,E,2,5,2.2,-4.120,M,40.592,M,2.9,0123*50
$GPVTG,242.73,T,-397.17,M,004.435,N,008.213,K,D*0E
$GPGGA,081111.70,5702.8043667,N,00950.2187508,E,2,5,2.2,-4.124,M,40.592,M,2.9,0123*51
$GPVTG,243.46,T,-396.44,M,004.417,N,008.181,K,D*06
$GPGGA,081111.75,5702.8043351,N,00950.2186484,E,2,5,2.2,-4.132,M,40.592,M,2.9,0123*57
$GPVTG,243.75,T,-396.15,M,004.468,N,008.274,K,D*03
$GPGGA,081111.80,5702.8043106,N,00950.2185475,E,2,5,2.2,-4.133,M,40.592,M,2.9,0123*51
$GPVTG,244.89,T,-395.01,M,004.462,N,008.263,K,D*0D
$GPGGA,081111.85,5702.8042863,N,00950.2184466,E,2,5,2.2,-4.125,M,40.592,M,3.1,0123*52
$GPVTG,246.68,T,-393.22,M,004.437,N,008.216,K,D*05
$GPGGA,081111.90,5702.8042600,N,00950.2183394,E,2,5,2.2,-4.130,M,40.592,M,3.1,0123*54
$GPVTG,247.38,T,-392.52,M,004.487,N,008.309,K,D*03
$GPGGA,081111.95,5702.8042387,N,00950.2182390,E,2,5,2.2,-4.131,M,40.592,M,3.1,0123*5F
$GPVTG,248.43,T,-391.47,M,004.456,N,008.253,K,D*05
$GPGGA,081112.00,5702.8042113,N,00950.2181331,E,2,5,2.2,-4.136,M,40.592,M,3.1,0123*50
$GPVTG,248.58,T,-391.32,M,004.496,N,008.327,K,D*03
$GPGGA,081112.05,5702.8041900,N,00950.2180272,E,2,5,2.2,-4.120,M,40.592,M,2.4,0123*58
$GPVTG,250.11,T,-389.79,M,004.502,N,008.338,K,D*03
$GPGGA,081112.10,5702.8041704,N,00950.2179215,E,2,5,2.2,-4.121,M,40.592,M,2.4,0123*50
$GPVTG,251.11,T,-388.79,M,004.497,N,008.329,K,D*0E
$GPGGA,081112.15,5702.8041465,N,00950.2178131,E,2,5,2.2,-4.119,M,40.592,M,2.4,0123*5E
$GPVTG,251.35,T,-388.55,M,004.530,N,008.390,K,D*08
$GPGGA,081112.20,5702.8041273,N,00950.2177048,E,2,5,2.2,-4.118,M,40.592,M,2.4,0123*58
$GPVTG,252.21,T,-387.69,M,004.538,N,008.405,K,D*0D
$GPGGA,081112.25,5702.8041118,N,00950.2176047,E,2,5,2.2,-4.117,M,40.592,M,2.7,0123*51
$GPVTG,253.74,T,-386.16,M,004.522,N,008.374,K,D*0F
$GPGGA,081112.30,5702.8040957,N,00950.2174961,E,2,5,2.2,-4.118,M,40.592,M,2.7,0123*57
$GPVTG,254.73,T,-385.17,M,004.519,N,008.370,K,D*01
$GPGGA,081112.35,5702.8040762,N,00950.2173844,E,2,5,2.2,-4.121,M,40.592,M,2.7,0123*51
$GPVTG,255.09,T,-384.81,M,004.551,N,008.428,K,D*05
$GPGGA,081112.40,5702.8040577,N,00950.2172723,E,2,5,2.2,-4.124,M,40.592,M,2.7,0123*5F
$GPVTG,255.49,T,-384.41,M,004.577,N,008.477,K,D*03
$GPGGA,081112.45,5702.8040426,N,00950.2171603,E,2,5,2.2,-4.107,M,40.592,M,2.9,0123*50
$GPVTG,256.89,T,-383.01,M,004.571,N,008.466,K,D*09
$GPGGA,081112.50,5702.8040316,N,00950.2170453,E,2,5,2.2,-4.107,M,40.592,M,2.9,0123*56
$GPVTG,258.22,T,-381.68,M,004.593,N,008.506,K,D*00
$GPGGA,081112.55,5702.8040202,N,00950.2169283,E,2,5,2.2,-4.111,M,40.592,M,2.9,0123*53
$GPVTG,259.31,T,-380.59,M,004.628,N,008.571,K,D*03
$GPGGA,081112.60,5702.8040115,N,00950.2168191,E,2,5,2.2,-4.110,M,40.592,M,2.9,0123*50
$GPVTG,260.52,T,-379.38,M,004.594,N,008.507,K,D*08
$GPGGA,081112.65,5702.8039995,N,00950.2167092,E,2,5,2.2,-4.104,M,40.592,M,3.1,0123*5A
$GPVTG,261.58,T,-378.32,M,004.587,N,008.494,K,D*01
$GPGGA,081112.70,5702.8039868,N,00950.2165921,E,2,5,2.2,-4.108,M,40.592,M,3.1,0123*52
$GPVTG,261.92,T,-377.98,M,004.622,N,008.560,K,D*0E
$GPGGA,081112.75,5702.8039815,N,00950.2164814,E,2,5,2.2,-4.106,M,40.592,M,3.1,0123*55
$GPVTG,263.22,T,-376.68,M,004.592,N,008.505,K,D*02
$GPGGA,081112.80,5702.8039738,N,00950.2163605,E,2,5,2.2,-4.108,M,40.592,M,3.1,0123*58
$GPVTG,264.05,T,-375.85,M,004.646,N,008.604,K,D*08
$GPGGA,081112.85,5702.8039620,N,00950.2162466,E,2,5,2.2,-4.102,M,40.592,M,3.4,0123*5C
$GPVTG,264.53,T,-375.37,M,004.654,N,008.619,K,D*0D
$GPGGA,081112.90,5702.8039563,N,00950.2161263,E,2,5,2.2,-4.104,M,40.592,M,3.4,0123*5A
$GPVTG,265.39,T,-374.51,M,004.691,N,008.688,K,D*00
$GPGGA,081112.95,5702.8039519,N,00950.2160125,E,2,5,2.2,-4.100,M,40.592,M,3.4,0123*56
$GPVTG,266.25,T,-373.65,M,004.673,N,008.654,K,D*03
$GPGGA,081113.00,5702.8039482,N,00950.2158997,E,2,5,2.2,-4.099,M,40.592,M,3.4,0123*53
$GPVTG,267.06,T,-372.84,M,004.647,N,008.606,K,D*0D
$GPGGA,081113.05,5702.8039492,N,00950.2157905,E,2,5,2.2,-4.104,M,40.592,M,2.5,0123*56
$GPVTG,268.85,T,-371.05,M,004.636,N,008.586,K,D*0E
$GPGGA,081113.10,5702.8039490,N,00950.2156738,E,2,5,2.2,-4.109,M,40.592,M,2.5,0123*5C
$GPVTG,269.84,T,-370.06,M,004.641,N,008.596,K,D*0D
$GPGGA,081113.15,5702.8039479,N,00950.2155562,E,2,5,2.2,-4.114,M,40.592,M,2.5,0123*5C
$GPVTG,270.54,T,-369.36,M,004.653,N,008.617,K,D*0A
$GPGGA,081113.20,5702.8039485,N,00950.2154374,E,2,5,2.2,-4.116,M,40.592,M,2.5,0123*5B
$GPVTG,271.35,T,-368.55,M,004.672,N,008.653,K,D*0B
$GPGGA,081113.25,5702.8039429,N,00950.2153160,E,2,5,2.2,-4.105,M,40.592,M,2.8,0123*57
$GPVTG,271.83,T,-368.07,M,004.687,N,008.681,K,D*04
$GPGGA,081113.30,5702.8039504,N,00950.2152020,E,2,5,2.2,-4.106,M,40.592,M,2.8,0123*5A
$GPVTG,273.46,T,-366.44,M,004.668,N,008.644,K,D*0E
$GPGGA,081113.35,5702.8039580,N,00950.2150864,E,2,5,2.2,-4.106,M,40.592,M,2.8,0123*59
$GPVTG,274.88,T,-365.02,M,004.665,N,008.639,K,D*0D
$GPGGA,081113.40,5702.8039618,N,00950.2149715,E,2,5,2.2,-4.108,M,40.592,M,2.8,0123*56
$GPVTG,275.51,T,-364.39,M,004.653,N,008.617,K,D*08
$GPGGA,081113.45,5702.8039676,N,00950.2148606,E,2,5,2.2,-4.109,M,40.592,M,3.1,0123*50
$GPVTG,276.38,T,-363.52,M,004.666,N,008.641,K,D*0B
$GPGGA,081113.50,5702.8039756,N,00950.2147475,E,2,5,2.2,-4.110,M,40.592,M,3.1,0123*56
$GPVTG,277.39,T,-362.51,M,004.645,N,008.602,K,D*0F
$GPGGA,081113.55,5702.8039814,N,00950.2146307,E,2,5,2.2,-4.109,M,40.592,M,3.1,0123*51
$GPVTG,277.85,T,-362.05,M,004.650,N,008.612,K,D*0C
$GPGGA,081113.60,5702.8039950,N,00950.2145171,E,2,5,2.2,-4.109,M,40.592,M,3.1,0123*56
$GPVTG,279.45,T,-360.45,M,004.646,N,008.604,K,D*08
$GPGGA,081113.65,5702.8040051,N,00950.2144005,E,2,5,2.2,-4.099,M,40.592,M,3.3,0123*5C
$GPVTG,280.61,T,-359.29,M,004.669,N,008.648,K,D*0D
$GPGGA,081113.70,5702.8040170,N,00950.2142850,E,2,5,2.2,-4.101,M,40.592,M,3.3,0123*54
$GPVTG,281.49,T,-358.41,M,004.676,N,008.659,K,D*07
$GPGGA,081113.75,5702.8040287,N,00950.2141726,E,2,5,2.2,-4.099,M,40.592,M,3.3,0123*57
$GPVTG,282.25,T,-357.65,M,004.657,N,008.626,K,D*0C
$GPGGA,081113.80,5702.8040415,N,00950.2140602,E,2,5,2.2,-4.098,M,40.592,M,3.3,0123*57
$GPVTG,283.04,T,-356.86,M,004.644,N,008.600,K,D*04
$GPGGA,081113.85,5702.8040554,N,00950.2139518,E,2,5,2.2,-4.102,M,40.592,M,3.6,0123*57
$GPVTG,283.90,T,-356.00,M,004.667,N,008.643,K,D*01
$GPGGA,081113.90,5702.8040701,N,00950.2138389,E,2,5,2.2,-4.100,M,40.592,M,3.6,0123*5C
$GPVTG,284.65,T,-355.25,M,004.661,N,008.632,K,D*08
$GPGGA,081113.95,5702.8040848,N,00950.2137251,E,2,5,2.2,-4.104,M,40.592,M,3.6,0123*54
$GPVTG,285.26,T,-354.64,M,004.663,N,008.635,K,D*0F
$GPGGA,081114.00,5702.8041071,N,00950.2136158,E,2,5,2.2,-4.107,M,40.592,M,3.6,0123*54
$GPVTG,286.93,T,-352.97,M,004.657,N,008.624,K,D*0F
$GPGGA,081114.05,5702.8041270,N,00950.2135143,E,2,4,2.2,-4.095,M,40.592,M,1.2,0123*56
$GPVTG,288.40,T,-351.50,M,004.615,N,008.547,K,D*07
$GPGGA,081114.10,5702.8041492,N,00950.2134060,E,2,4,2.2,-4.092,M,40.592,M,1.2,0123*5E
$GPVTG,289.64,T,-350.26,M,004.612,N,008.542,K,D*02
$GPGGA,081114.15,5702.8041716,N,00950.2133000,E,2,4,2.2,-4.092,M,40.592,M,1.2,0123*55
$GPVTG,290.82,T,-349.08,M,004.599,N,008.518,K,D*09
$GPGGA,081114.20,5702.8041951,N,00950.2131924,E,2,4,2.2,-4.096,M,40.592,M,1.2,0123*57
$GPVTG,291.92,T,-347.98,M,004.601,N,008.521,K,D*06
$GPGGA,081114.25,5702.8042146,N,00950.2130832,E,2,4,2.2,-4.080,M,40.592,M,1.4,0123*59
$GPVTG,292.77,T,-347.13,M,004.594,N,008.507,K,D*06
$GPGGA,081114.30,5702.8042405,N,00950.2129771,E,2,4,2.2,-4.079,M,40.592,M,1.4,0123*59
$GPVTG,293.93,T,-345.97,M,004.599,N,008.517,K,D*0F
$GPGGA,081114.35,5702.8042674,N,00950.2128640,E,2,4,2.2,-4.078,M,40.592,M,1.4,0123*5B
$GPVTG,294.77,T,-345.13,M,004.653,N,008.617,K,D*08
$GPGGA,081114.40,5702.8042930,N,00950.2127604,E,2,4,2.2,-4.081,M,40.592,M,1.4,0123*5F
$GPVTG,295.65,T,-344.25,M,004.637,N,008.589,K,D*08
$GPGGA,081114.45,5702.8043144,N,00950.2126563,E,2,4,2.2,-4.082,M,40.592,M,1.6,0123*52
$GPVTG,296.15,T,-343.75,M,004.640,N,008.594,K,D*02
$GPGGA,081114.50,5702.8043459,N,00950.2125526,E,2,4,2.2,-4.081,M,40.592,M,1.6,0123*5E
$GPVTG,297.48,T,-342.42,M,004.659,N,008.628,K,D*02
$GPGGA,081114.55,5702.8043754,N,00950.2124515,E,2,4,2.2,-4.079,M,40.592,M,1.6,0123*53
$GPVTG,298.47,T,-341.43,M,004.651,N,008.614,K,D*07
$GPGGA,081114.60,5702.8044012,N,00950.2123435,E,2,4,2.2,-4.079,M,40.592,M,1.6,0123*53
$GPVTG,298.61,T,-341.29,M,004.660,N,008.631,K,D*0A
$GPGGA,081114.65,5702.8044335,N,00950.2122506,E,2,5,2.2,-4.077,M,40.592,M,1.8,0123*51
$GPVTG,299.48,T,-340.42,M,004.654,N,008.620,K,D*0B
$GPGGA,081114.70,5702.8044675,N,00950.2121522,E,2,5,2.2,-4.080,M,40.592,M,1.8,0123*59
$GPVTG,300.77,T,-339.13,M,004.656,N,008.623,K,D*0D
$GPGGA,081114.75,5702.8044998,N,00950.2120572,E,2,5,2.2,-4.080,M,40.592,M,1.8,0123*54
$GPVTG,301.81,T,-338.09,M,004.629,N,008.572,K,D*00
$GPGGA,081114.80,5702.8045309,N,00950.2119555,E,2,5,2.2,-4.077,M,40.592,M,1.8,0123*5A
$GPVTG,302.27,T,-337.63,M,004.633,N,008.580,K,D*0A
$GPGGA,081114.85,5702.8045692,N,00950.2118733,E,2,5,2.2,-4.079,M,40.592,M,2.1,0123*5F
$GPVTG,303.50,T,-336.40,M,004.596,N,008.511,K,D*0F
$GPGGA,081114.90,5702.8046052,N,00950.2117778,E,2,5,2.2,-4.077,M,40.592,M,2.1,0123*5C
$GPVTG,304.58,T,-335.32,M,004.597,N,008.513,K,D*05
$GPGGA,081114.95,5702.8046354,N,00950.2116747,E,2,5,2.2,-4.078,M,40.592,M,2.1,0123*5E
$GPVTG,304.19,T,-335.71,M,004.611,N,008.539,K,D*02
$GPGGA,081115.00,5702.8046740,N,00950.2115786,E,2,5,2.2,-4.076,M,40.592,M,2.1,0123*52
$GPVTG,305.35,T,-334.55,M,004.634,N,008.583,K,D*0C
$GPGGA,081115.05,5702.8047188,N,00950.2115063,E,2,5,2.2,-4.092,M,40.592,M,2.3,0123*50
$GPVTG,306.60,T,-333.30,M,004.611,N,008.540,K,D*03
$GPGGA,081115.10,5702.8047532,N,00950.2114147,E,2,5,2.2,-4.092,M,40.592,M,2.3,0123*57
$GPVTG,307.08,T,-332.82,M,004.576,N,008.475,K,D*01
$GPGGA,081115.15,5702.8047926,N,00950.2113301,E,2,5,2.2,-4.091,M,40.592,M,2.3,0123*5F
$GPVTG,308.50,T,-331.40,M,004.542,N,008.412,K,D*08
$GPGGA,081115.20,5702.8048348,N,00950.2112481,E,2,5,2.2,-4.092,M,40.592,M,2.3,0123*59
$GPVTG,310.22,T,-329.68,M,004.523,N,008.376,K,D*05
$GPGGA,081115.25,5702.8048836,N,00950.2111819,E,2,5,2.2,-4.109,M,40.592,M,2.5,0123*55
$GPVTG,311.91,T,-327.99,M,004.514,N,008.360,K,D*0F
$GPGGA,081115.30,5702.8049266,N,00950.2111034,E,2,5,2.2,-4.107,M,40.592,M,2.5,0123*56
$GPVTG,313.47,T,-326.43,M,004.491,N,008.318,K,D*03
$GPGGA,081115.35,5702.8049680,N,00950.2110237,E,2,5,2.2,-4.109,M,40.592,M,2.5,0123*51
$GPVTG,314.53,T,-325.37,M,004.467,N,008.272,K,D*05
$GPGGA,081115.40,5702.8050096,N,00950.2109456,E,2,5,2.2,-4.113,M,40.592,M,2.5,0123*58
$GPVTG,315.53,T,-324.37,M,004.440,N,008.222,K,D*05
$GPGGA,081115.45,5702.8050624,N,00950.2108815,E,2,5,2.2,-4.113,M,40.592,M,2.7,0123*5A
$GPVTG,316.84,T,-323.06,M,004.452,N,008.245,K,D*0B
$GPGGA,081115.50,5702.8051104,N,00950.2108088,E,2,5,2.2,-4.112,M,40.592,M,2.7,0123*57
$GPVTG,318.55,T,-321.35,M,004.461,N,008.262,K,D*0E
$GPGGA,081115.55,5702.8051537,N,00950.2107310,E,2,5,2.2,-4.111,M,40.592,M,2.7,0123*58
$GPVTG,319.06,T,-320.84,M,004.454,N,008.248,K,D*0C
$GPGGA,081115.60,5702.8051964,N,00950.2106574,E,2,5,2.2,-4.115,M,40.592,M,2.7,0123*55
$GPVTG,319.70,T,-320.20,M,004.420,N,008.186,K,D*01
$GPGGA,081115.65,5702.8052489,N,00950.2106060,E,2,5,2.2,-4.134,M,40.592,M,2.9,0123*50
$GPVTG,320.71,T,-319.19,M,004.385,N,008.120,K,D*0E
$GPGGA,081115.70,5702.8052989,N,00950.2105387,E,2,5,2.2,-4.133,M,40.592,M,2.9,0123*57
$GPVTG,322.27,T,-317.63,M,004.402,N,008.153,K,D*00
$GPGGA,081115.75,5702.8053469,N,00950.2104712,E,2,5,2.2,-4.128,M,40.592,M,2.9,0123*53
$GPVTG,323.34,T,-316.56,M,004.402,N,008.152,K,D*05
$GPGGA,081115.80,5702.8053944,N,00950.2104043,E,2,5,2.2,-4.127,M,40.592,M,2.9,0123*57
$GPVTG,324.19,T,-315.71,M,004.394,N,008.137,K,D*00
$GPGGA,081115.85,5702.8054524,N,00950.2103567,E,2,5,2.2,-4.132,M,40.592,M,3.1,0123*56
$GPVTG,325.12,T,-314.78,M,004.391,N,008.133,K,D*03
$GPGGA,081115.90,5702.8055008,N,00950.2102934,E,2,5,2.2,-4.134,M,40.592,M,3.1,0123*55
$GPVTG,326.00,T,-313.90,M,004.380,N,008.112,K,D*01
$GPGGA,081115.95,5702.8055512,N,00950.2102315,E,2,5,2.2,-4.134,M,40.592,M,3.1,0123*57
$GPVTG,327.00,T,-312.90,M,004.387,N,008.124,K,D*03
$GPGGA,081116.00,5702.8056003,N,00950.2101708,E,2,5,2.2,-4.132,M,40.592,M,3.1,0123*53
$GPVTG,327.77,T,-312.13,M,004.373,N,008.100,K,D*05
$GPGGA,081116.05,5702.8056539,N,00950.2101340,E,2,5,2.2,-4.163,M,40.592,M,2.4,0123*52
$GPVTG,328.49,T,-311.41,M,004.317,N,007.995,K,D*0A
$GPGGA,081116.10,5702.8057095,N,00950.2100819,E,2,5,2.2,-4.158,M,40.592,M,2.4,0123*5A
$GPVTG,330.28,T,-309.62,M,004.351,N,008.058,K,D*09
$GPGGA,081116.15,5702.8057567,N,00950.2100217,E,2,5,2.2,-4.162,M,40.592,M,2.4,0123*5A
$GPVTG,330.33,T,-309.57,M,004.321,N,008.003,K,D*0C
$GPGGA,081116.20,5702.8058054,N,00950.2099653,E,2,5,2.2,-4.162,M,40.592,M,2.4,0123*53
$GPVTG,330.76,T,-309.14,M,004.296,N,007.957,K,D*00
$GPGGA,081116.25,5702.8058648,N,00950.2099405,E,2,5,2.2,-4.177,M,40.592,M,2.7,0123*5B
$GPVTG,332.50,T,-307.40,M,004.251,N,007.873,K,D*05
$GPGGA,081116.30,5702.8059183,N,00950.2098946,E,2,5,2.2,-4.176,M,40.592,M,2.7,0123*54
$GPVTG,333.90,T,-306.00,M,004.252,N,007.874,K,D*09
$GPGGA,081116.35,5702.8059654,N,00950.2098392,E,2,5,2.2,-4.178,M,40.592,M,2.7,0123*51
$GPVTG,333.68,T,-306.22,M,004.214,N,007.805,K,D*0A
$GPGGA,081116.40,5702.8060190,N,00950.2097928,E,2,5,2.2,-4.178,M,40.592,M,2.7,0123*52
$GPVTG,334.73,T,-305.17,M,004.224,N,007.822,K,D*04
$GPGGA,081116.45,5702.8060800,N,00950.2097676,E,2,5,2.2,-4.174,M,40.592,M,2.9,0123*51
$GPVTG,336.26,T,-303.64,M,004.202,N,007.783,K,D*04
$GPGGA,081116.50,5702.8061337,N,00950.2097337,E,2,5,2.2,-4.173,M,40.592,M,2.9,0123*5C
$GPVTG,338.09,T,-301.81,M,004.181,N,007.743,K,D*0A
$GPGGA,081116.55,5702.8061885,N,00950.2096951,E,2,5,2.2,-4.172,M,40.592,M,2.9,0123*51
$GPVTG,339.26,T,-300.64,M,004.191,N,007.762,K,D*0E
$GPGGA,081116.60,5702.8062402,N,00950.2096548,E,2,5,2.2,-4.172,M,40.592,M,2.9,0123*53
$GPVTG,339.84,T,-300.06,M,004.170,N,007.723,K,D*08
$GPGGA,081116.65,5702.8062965,N,00950.2096283,E,2,5,2.2,-4.173,M,40.592,M,3.1,0123*52
$GPVTG,340.12,T,-299.78,M,004.119,N,007.629,K,D*05
$GPGGA,081116.70,5702.8063509,N,00950.2095929,E,2,5,2.2,-4.168,M,40.592,M,3.1,0123*53
$GPVTG,341.09,T,-298.81,M,004.126,N,007.641,K,D*0B
$GPGGA,081116.75,5702.8064046,N,00950.2095535,E,2,5,2.2,-4.165,M,40.592,M,3.1,0123*53
$GPVTG,341.41,T,-298.49,M,004.134,N,007.656,K,D*06
$GPGGA,081116.80,5702.8064556,N,00950.2095180,E,2,5,2.2,-4.168,M,40.592,M,3.1,0123*5A
$GPVTG,341.86,T,-298.04,M,004.100,N,007.593,K,D*09
$GPGGA,081116.85,5702.8065172,N,00950.2095208,E,2,5,2.2,-4.228,M,40.592,M,3.4,0123*5D
$GPVTG,343.84,T,-296.06,M,004.089,N,007.572,K,D*0A
$GPGGA,081116.90,5702.8065705,N,00950.2094995,E,2,5,2.2,-4.235,M,40.592,M,3.4,0123*5D
$GPVTG,345.51,T,-294.39,M,004.058,N,007.516,K,D*04
$GPGGA,081116.95,5702.8066249,N,00950.2094760,E,2,5,2.2,-4.242,M,40.592,M,3.4,0123*52
$GPVTG,346.73,T,-293.17,M,004.053,N,007.506,K,D*06
$GPGGA,081117.00,5702.8066834,N,00950.2094530,E,2,5,2.2,-4.244,M,40.592,M,3.4,0123*5E
$GPVTG,347.92,T,-291.98,M,004.101,N,007.595,K,D*01
$GPGGA,081117.05,5702.8067396,N,00950.2094308,E,2,5,2.2,-4.216,M,40.592,M,2.5,0123*53
$GPVTG,348.20,T,-291.70,M,004.045,N,007.491,K,D*05
$GPGGA,081117.10,5702.8067935,N,00950.2094229,E,2,5,2.2,-4.214,M,40.592,M,2.5,0123*54
$GPVTG,350.58,T,-289.32,M,004.014,N,007.435,K,D*06
$GPGGA,081117.15,5702.8068510,N,00950.2094110,E,2,5,2.2,-4.210,M,40.592,M,2.5,0123*58
$GPVTG,352.24,T,-287.66,M,004.044,N,007.489,K,D*02
$GPGGA,081117.20,5702.8069083,N,00950.2093949,E,2,5,2.2,-4.209,M,40.592,M,2.5,0123*5B
$GPVTG,353.11,T,-286.79,M,004.075,N,007.547,K,D*0B
$GPGGA,081117.25,5702.8069681,N,00950.2093943,E,2,5,2.2,-4.227,M,40.592,M,2.8,0123*51
$GPVTG,353.49,T,-286.41,M,004.045,N,007.491,K,D*04
$GPGGA,081117.30,5702.8070216,N,00950.2093861,E,2,5,2.2,-4.227,M,40.592,M,2.8,0123*56
$GPVTG,354.83,T,-285.07,M,004.017,N,007.440,K,D*0F
$GPGGA,081117.35,5702.8070722,N,00950.2093775,E,2,5,2.2,-4.226,M,40.592,M,2.8,0123*5A
$GPVTG,355.84,T,-284.06,M,003.957,N,007.328,K,D*0A
$GPGGA,081117.40,5702.8071234,N,00950.2093661,E,2,5,2.2,-4.225,M,40.592,M,2.8,0123*5C
$GPVTG,356.31,T,-283.59,M,003.912,N,007.244,K,D*00
$GPGGA,081117.45,5702.8071804,N,00950.2093768,E,2,5,2.2,-4.260,M,40.592,M,3.1,0123*51
$GPVTG,357.52,T,-282.38,M,003.885,N,007.196,K,D*01
$GPGGA,081117.50,5702.8072330,N,00950.2093712,E,2,5,2.2,-4.260,M,40.592,M,3.1,0123*57
$GPVTG,358.25,T,-281.66,M,003.861,N,007.151,K,D*07
$GPGGA,081117.55,5702.8072850,N,00950.2093678,E,2,5,2.2,-4.258,M,40.592,M,3.1,0123*59
$GPVTG,359.11,T,-280.79,M,003.832,N,007.097,K,D*03
$GPGGA,081117.60,5702.8073363,N,00950.2093674,E,2,5,2.2,-4.258,M,40.592,M,3.1,0123*59
$GPVTG,000.19,T,-639.71,M,003.799,N,007.036,K,D*0F
$GPGGA,081117.65,5702.8073879,N,00950.2093819,E,2,5,2.2,-4.272,M,40.592,M,3.3,0123*53
$GPVTG,001.14,T,-638.76,M,003.756,N,006.957,K,D*09
$GPGGA,081117.70,5702.8074383,N,00950.2093853,E,2,5,2.2,-4.272,M,40.592,M,3.3,0123*50
$GPVTG,002.32,T,-637.58,M,003.727,N,006.903,K,D*0A
$GPGGA,081117.75,5702.8074925,N,00950.2093885,E,2,5,2.2,-4.277,M,40.592,M,3.3,0123*5D
$GPVTG,003.18,T,-636.72,M,003.749,N,006.944,K,D*01
$GPGGA,081117.80,5702.8075447,N,00950.2093953,E,2,5,2.2,-4.277,M,40.592,M,3.3,0123*55
$GPVTG,004.32,T,-635.58,M,003.750,N,006.944,K,D*0D
$GPGGA,081117.85,5702.8075986,N,00950.2094133,E,2,5,2.2,-4.292,M,40.592,M,3.6,0123*57
$GPVTG,005.25,T,-634.65,M,003.713,N,006.876,K,D*02
$GPGGA,081117.90,5702.8076501,N,00950.2094218,E,2,5,2.2,-4.296,M,40.592,M,3.6,0123*5D
$GPVTG,006.16,T,-633.74,M,003.711,N,006.873,K,D*01
$GPGGA,081117.95,5702.8077014,N,00950.2094365,E,2,5,2.2,-4.299,M,40.592,M,3.6,0123*5C
$GPVTG,007.72,T,-632.18,M,003.713,N,006.877,K,D*0F
$GPGGA,081118.00,5702.8077523,N,00950.2094483,E,2,5,2.2,-4.304,M,40.592,M,3.6,0123*54
$GPVTG,008.58,T,-631.32,M,003.709,N,006.869,K,D*07
$GPGGA,081118.05,5702.8078066,N,00950.2094714,E,2,5,2.2,-4.309,M,40.592,M,1.2,0123*5C
$GPVTG,010.17,T,-629.73,M,003.697,N,006.847,K,D*03
$GPGGA,081118.10,5702.8078557,N,00950.2094885,E,2,5,2.2,-4.311,M,40.592,M,1.2,0123*51
$GPVTG,011.30,T,-628.60,M,003.678,N,006.811,K,D*06
$GPGGA,081118.15,5702.8079053,N,00950.2095053,E,2,5,2.2,-4.310,M,40.592,M,1.2,0123*57
$GPVTG,012.09,T,-627.81,M,003.667,N,006.791,K,D*06
$GPGGA,081118.20,5702.8079544,N,00950.2095249,E,2,5,2.2,-4.310,M,40.592,M,1.2,0123*5B
$GPVTG,013.09,T,-626.81,M,003.659,N,006.776,K,D*02
$GPGGA,081118.25,5702.8079930,N,00950.2095560,E,2,5,2.2,-4.346,M,40.592,M,1.4,0123*58
$GPVTG,015.09,T,-624.81,M,003.591,N,006.650,K,D*04
$GPGGA,081118.30,5702.8080450,N,00950.2095795,E,2,5,2.2,-4.352,M,40.592,M,1.4,0123*5C
$GPVTG,015.63,T,-624.27,M,003.666,N,006.790,K,D*02
$GPGGA,081118.35,5702.8080900,N,00950.2096018,E,2,5,2.2,-4.356,M,40.592,M,1.4,0123*54
$GPVTG,016.23,T,-623.67,M,003.586,N,006.641,K,D*06
$GPGGA,081118.40,5702.8081319,N,00950.2096294,E,2,5,2.2,-4.358,M,40.592,M,1.4,0123*5D
$GPVTG,018.06,T,-621.84,M,003.494,N,006.471,K,D*03
$GPGGA,081118.45,5702.8081806,N,00950.2096649,E,2,5,2.2,-4.362,M,40.592,M,1.6,0123*52
$GPVTG,019.37,T,-620.53,M,003.462,N,006.411,K,D*04
$GPGGA,081118.50,5702.8082259,N,00950.2096942,E,2,5,2.2,-4.367,M,40.592,M,1.6,0123*54
$GPVTG,020.50,T,-619.40,M,003.450,N,006.390,K,D*08
$GPGGA,081118.55,5702.8082697,N,00950.2097243,E,2,5,2.2,-4.370,M,40.592,M,1.6,0123*5A
$GPVTG,021.61,T,-618.29,M,003.427,N,006.347,K,D*0F
$GPGGA,081118.60,5702.8083132,N,00950.2097602,E,2,5,2.2,-4.372,M,40.592,M,1.6,0123*56
$GPVTG,023.23,T,-616.67,M,003.422,N,006.337,K,D*0D
$GPGGA,081118.65,5702.8083639,N,00950.2097988,E,2,5,2.2,-4.363,M,40.592,M,1.8,0123*5C
$GPVTG,024.21,T,-615.69,M,003.413,N,006.322,K,D*03
$GPGGA,081118.70,5702.8084073,N,00950.2098332,E,2,5,2.2,-4.361,M,40.592,M,1.8,0123*51
$GPVTG,025.12,T,-614.78,M,003.406,N,006.308,K,D*0F
$GPGGA,081118.75,5702.8084517,N,00950.2098672,E,2,5,2.2,-4.362,M,40.592,M,1.8,0123*51
$GPVTG,025.63,T,-614.27,M,003.408,N,006.311,K,D*05
$GPGGA,081118.80,5702.8084954,N,00950.2099001,E,2,5,2.2,-4.362,M,40.592,M,1.8,0123*53
$GPVTG,025.84,T,-614.06,M,003.397,N,006.291,K,D*07
$GPGGA,081118.85,5702.8085276,N,00950.2099493,E,2,5,2.2,-4.402,M,40.592,M,2.1,0123*58
$GPVTG,028.53,T,-611.37,M,003.362,N,006.226,K,D*01
$GPGGA,081118.90,5702.8085650,N,00950.2099911,E,2,5,2.2,-4.407,M,40.592,M,2.1,0123*5E
$GPVTG,030.41,T,-609.49,M,003.297,N,006.107,K,D*00
$GPGGA,081118.95,5702.8086046,N,00950.2100315,E,2,5,2.2,-4.413,M,40.592,M,2.1,0123*53
$GPVTG,031.02,T,-608.88,M,003.277,N,006.069,K,D*0D
$GPGGA,081119.00,5702.8086425,N,00950.2100756,E,2,5,2.2,-4.417,M,40.592,M,2.1,0123*58
$GPVTG,032.47,T,-607.43,M,003.259,N,006.037,K,D*00
$GPGGA,081119.05,5702.8086869,N,00950.2101277,E,2,5,2.2,-4.419,M,40.592,M,2.3,0123*52
$GPVTG,033.63,T,-606.27,M,003.256,N,006.030,K,D*0C
$GPGGA,081119.10,5702.8087234,N,00950.2101759,E,2,5,2.2,-4.421,M,40.592,M,2.3,0123*57
$GPVTG,035.32,T,-604.58,M,003.249,N,006.018,K,D*00
$GPGGA,081119.15,5702.8087621,N,00950.2102269,E,2,5,2.2,-4.427,M,40.592,M,2.3,0123*51
$GPVTG,036.71,T,-603.19,M,003.295,N,006.103,K,D*0C
$GPGGA,081119.20,5702.8087981,N,00950.2102767,E,2,5,2.2,-4.434,M,40.592,M,2.3,0123*5B
$GPVTG,037.89,T,-602.01,M,003.288,N,006.089,K,D*0D
$GPGGA,081119.25,5702.8088347,N,00950.2103367,E,2,5,2.2,-4.456,M,40.592,M,2.5,0123*56
$GPVTG,039.50,T,-600.40,M,003.299,N,006.109,K,D*09
$GPGGA,081119.30,5702.8088657,N,00950.2103926,E,2,5,2.2,-4.461,M,40.592,M,2.5,0123*5D
$GPVTG,041.95,T,-597.95,M,003.270,N,006.055,K,D*05
$GPGGA,081119.35,5702.8088985,N,00950.2104461,E,2,5,2.2,-4.468,M,40.592,M,2.5,0123*58
$GPVTG,043.07,T,-596.83,M,003.244,N,006.008,K,D*05
$GPGGA,081119.40,5702.8089317,N,00950.2105001,E,2,5,2.2,-4.474,M,40.592,M,2.5,0123*54
$GPVTG,043.85,T,-596.05,M,003.229,N,005.980,K,D*00
$GPGGA,081119.45,5702.8089700,N,00950.2105642,E,2,5,2.2,-4.478,M,40.592,M,2.7,0123*5C
$GPVTG,045.03,T,-594.87,M,003.261,N,006.039,K,D*04
$GPGGA,081119.50,5702.8089963,N,00950.2106215,E,2,5,2.2,-4.478,M,40.592,M,2.7,0123*56
$GPVTG,047.22,T,-592.68,M,003.186,N,005.900,K,D*08
$GPGGA,081119.55,5702.8090266,N,00950.2106821,E,2,5,2.2,-4.480,M,40.592,M,2.7,0123*5F
$GPVTG,048.55,T,-591.35,M,003.198,N,005.923,K,D*02
$GPGGA,081119.60,5702.8090550,N,00950.2107368,E,2,5,2.2,-4.481,M,40.592,M,2.7,0123*5D
$GPVTG,049.06,T,-590.84,M,003.128,N,005.792,K,D*01
$GPGGA,081119.65,5702.8090926,N,00950.2107999,E,2,5,2.2,-4.468,M,40.592,M,2.9,0123*58
$GPVTG,049.83,T,-590.07,M,003.138,N,005.812,K,D*01
$GPGGA,081119.70,5702.8091214,N,00950.2108606,E,2,5,2.2,-4.467,M,40.592,M,2.9,0123*5E
$GPVTG,050.85,T,-589.05,M,003.137,N,005.809,K,D*00
$GPGGA,081119.75,5702.8091494,N,00950.2109234,E,2,5,2.2,-4.465,M,40.592,M,2.9,0123*53
$GPVTG,051.94,T,-587.96,M,003.142,N,005.819,K,D*06
$GPGGA,081119.80,5702.8091756,N,00950.2109897,E,2,5,2.2,-4.464,M,40.592,M,2.9,0123*56
$GPVTG,053.42,T,-586.48,M,003.158,N,005.848,K,D*02
$GPGGA,081119.85,5702.8092101,N,00950.2110649,E,2,5,2.2,-4.460,M,40.592,M,3.1,0123*5C
$GPVTG,054.25,T,-585.65,M,003.196,N,005.920,K,D*05
$GPGGA,081119.90,5702.8092371,N,00950.2111295,E,2,5,2.2,-4.459,M,40.592,M,3.1,0123*53
$GPVTG,055.01,T,-584.89,M,003.202,N,005.930,K,D*0E
$GPGGA,081119.95,5702.8092623,N,00950.2111957,E,2,5,2.2,-4.457,M,40.592,M,3.1,0123*5F
$GPVTG,056.05,T,-583.85,M,003.204,N,005.934,K,D*00
$GPGGA,081120.00,5702.8092866,N,00950.2112612,E,2,5,2.2,-4.456,M,40.592,M,3.1,0123*5A
$GPVTG,056.98,T,-582.92,M,003.194,N,005.914,K,D*0B
$GPGGA,081120.05,5702.8093197,N,00950.2113305,E,2,5,2.2,-4.440,M,40.592,M,2.4,0123*58
$GPVTG,056.94,T,-582.96,M,003.216,N,005.956,K,D*0C
$GPGGA,081120.10,5702.8093427,N,00950.2113983,E,2,5,2.2,-4.432,M,40.592,M,2.4,0123*53
$GPVTG,058.02,T,-581.88,M,003.205,N,005.936,K,D*05
$GPGGA,081120.15,5702.8093671,N,00950.2114666,E,2,5,2.2,-4.425,M,40.592,M,2.4,0123*52
$GPVTG,058.61,T,-581.29,M,003.210,N,005.945,K,D*0B
$GPGGA,081120.20,5702.8093909,N,00950.2115331,E,2,5,2.2,-4.417,M,40.592,M,2.4,0123*53
$GPVTG,059.02,T,-580.88,M,003.193,N,005.914,K,D*09
$GPGGA,081120.25,5702.8093989,N,00950.2116160,E,2,5,2.2,-4.452,M,40.592,M,2.7,0123*59
$GPVTG,062.36,T,-577.54,M,003.271,N,006.057,K,D*0D
$GPGGA,081120.30,5702.8094184,N,00950.2116882,E,2,5,2.2,-4.454,M,40.592,M,2.7,0123*5C
$GPVTG,063.60,T,-576.30,M,003.247,N,006.014,K,D*0E
$GPGGA,081120.35,5702.8094335,N,00950.2117587,E,2,5,2.2,-4.457,M,40.592,M,2.7,0123*5B
$GPVTG,065.65,T,-574.25,M,003.173,N,005.876,K,D*00
$GPGGA,081120.40,5702.8094497,N,00950.2118312,E,2,5,2.2,-4.462,M,40.592,M,2.7,0123*55
$GPVTG,067.19,T,-572.71,M,003.151,N,005.836,K,D*0A
$GPGGA,081120.45,5702.8094681,N,00950.2119091,E,2,5,2.2,-4.463,M,40.592,M,2.9,0123*53
$GPVTG,068.66,T,-571.24,M,003.158,N,005.849,K,D*0F
$GPGGA,081120.50,5702.8094858,N,00950.2119836,E,2,5,2.2,-4.463,M,40.592,M,2.9,0123*58
$GPVTG,069.21,T,-570.69,M,003.170,N,005.870,K,D*05
$GPGGA,081120.55,5702.8094978,N,00950.2120593,E,2,5,2.2,-4.462,M,40.592,M,2.9,0123*57
$GPVTG,071.33,T,-568.57,M,003.160,N,005.851,K,D*09
$GPGGA,081120.60,5702.8095114,N,00950.2121350,E,2,5,2.2,-4.463,M,40.592,M,2.9,0123*5B
$GPVTG,072.56,T,-567.34,M,003.157,N,005.847,K,D*00
$GPGGA,081120.65,5702.8095306,N,00950.2122043,E,2,5,2.2,-4.450,M,40.592,M,3.1,0123*54
$GPVTG,072.80,T,-567.10,M,003.134,N,005.804,K,D*0F
$GPGGA,081120.70,5702.8095423,N,00950.2122781,E,2,5,2.2,-4.443,M,40.592,M,3.1,0123*5B
$GPVTG,074.04,T,-565.86,M,003.117,N,005.773,K,D*06
$GPGGA,081120.75,5702.8095539,N,00950.2123525,E,2,5,2.2,-4.436,M,40.592,M,3.1,0123*5B
$GPVTG,075.11,T,-564.79,M,003.104,N,005.748,K,D*08
$GPGGA,081120.80,5702.8095640,N,00950.2124300,E,2,5,2.2,-4.432,M,40.592,M,3.1,0123*5E
$GPVTG,076.41,T,-563.49,M,003.110,N,005.760,K,D*05
$GPGGA,081120.85,5702.8095552,N,00950.2125116,E,2,5,2.2,-4.473,M,40.592,M,3.4,0123*5F
$GPVTG,079.39,T,-560.51,M,003.101,N,005.744,K,D*09
$GPGGA,081120.90,5702.8095649,N,00950.2125840,E,2,5,2.2,-4.478,M,40.592,M,3.4,0123*53
$GPVTG,080.03,T,-559.87,M,003.082,N,005.708,K,D*05
$GPGGA,081120.95,5702.8095726,N,00950.2126584,E,2,5,2.2,-4.480,M,40.592,M,3.4,0123*5F
$GPVTG,081.07,T,-558.83,M,003.067,N,005.681,K,D*0E
$GPGGA,081121.00,5702.8095779,N,00950.2127377,E,2,5,2.2,-4.485,M,40.592,M,3.4,0123*56
$GPVTG,082.61,T,-557.29,M,003.082,N,005.707,K,D*06
$GPGGA,081121.05,5702.8095790,N,00950.2128150,E,2,5,2.2,-4.486,M,40.592,M,2.5,0123*5F
$GPVTG,083.81,T,-556.09,M,003.062,N,005.671,K,D*04
$GPGGA,081121.10,5702.8095825,N,00950.2128917,E,2,5,2.2,-4.488,M,40.592,M,2.5,0123*5F
$GPVTG,085.29,T,-554.61,M,003.058,N,005.663,K,D*06
$GPGGA,081121.15,5702.8095822,N,00950.2129717,E,2,5,2.2,-4.489,M,40.592,M,2.5,0123*53
$GPVTG,087.63,T,-552.27,M,003.079,N,005.702,K,D*0B
$GPGGA,081121.20,5702.8095806,N,00950.2130513,E,2,5,2.2,-4.489,M,40.592,M,2.5,0123*5D
$GPVTG,089.90,T,-550.00,M,003.098,N,005.737,K,D*07
$GPGGA,081121.25,5702.8095736,N,00950.2131128,E,2,5,2.2,-4.524,M,40.592,M,2.8,0123*52
$GPVTG,091.40,T,-548.50,M,002.987,N,005.532,K,D*0E
$GPGGA,081121.30,5702.8095702,N,00950.2131859,E,2,5,2.2,-4.528,M,40.592,M,2.8,0123*52
$GPVTG,093.85,T,-546.05,M,002.957,N,005.475,K,D*04
$GPGGA,081121.35,5702.8095696,N,00950.2132537,E,2,5,2.2,-4.527,M,40.592,M,2.8,0123*52
$GPVTG,094.45,T,-545.45,M,002.872,N,005.319,K,D*03
$GPGGA,081121.40,5702.8095617,N,00950.2133259,E,2,5,2.2,-4.535,M,40.592,M,2.8,0123*54
$GPVTG,097.86,T,-542.04,M,002.871,N,005.317,K,D*00
$GPGGA,081121.45,5702.8095566,N,00950.2134122,E,2,5,2.2,-4.525,M,40.592,M,3.1,0123*55
$GPVTG,099.26,T,-540.64,M,002.908,N,005.386,K,D*07
$GPGGA,081121.50,5702.8095507,N,00950.2134841,E,2,5,2.2,-4.533,M,40.592,M,3.1,0123*5D
$GPVTG,100.74,T,-539.16,M,002.905,N,005.381,K,D*00
$GPGGA,081121.55,5702.8095440,N,00950.2135616,E,2,5,2.2,-4.538,M,40.592,M,3.1,0123*5C
$GPVTG,101.98,T,-537.92,M,002.941,N,005.448,K,D*03
$GPGGA,081121.60,5702.8095368,N,00950.2136314,E,2,5,2.2,-4.540,M,40.592,M,3.1,0123*5C
$GPVTG,103.21,T,-536.69,M,002.925,N,005.418,K,D*01
$GPGGA,081121.65,5702.8095267,N,00950.2137176,E,2,5,2.2,-4.549,M,40.592,M,3.3,0123*5B
$GPVTG,104.51,T,-535.39,M,002.977,N,005.514,K,D*0D
$GPGGA,081121.70,5702.8095152,N,00950.2137887,E,2,5,2.2,-4.550,M,40.592,M,3.3,0123*55
$GPVTG,106.25,T,-533.65,M,002.983,N,005.524,K,D*0B
$GPGGA,081121.75,5702.8095025,N,00950.2138627,E,2,5,2.2,-4.553,M,40.592,M,3.3,0123*59
$GPVTG,107.85,T,-532.05,M,003.011,N,005.576,K,D*03
$GPGGA,081121.80,5702.8094901,N,00950.2139336,E,2,5,2.2,-4.557,M,40.592,M,3.3,0123*5D
$GPVTG,109.20,T,-530.70,M,003.015,N,005.584,K,D*0B
$GPGGA,081121.85,5702.8094700,N,00950.2139920,E,2,5,2.2,-4.577,M,40.592,M,3.6,0123*5D
$GPVTG,111.04,T,-528.86,M,002.978,N,005.516,K,D*0C
$GPGGA,081121.90,5702.8094548,N,00950.2140601,E,2,5,2.2,-4.581,M,40.592,M,3.6,0123*5C
$GPVTG,112.67,T,-527.23,M,002.978,N,005.516,K,D*0A
$GPGGA,081121.95,5702.8094396,N,00950.2141270,E,2,5,2.2,-4.580,M,40.592,M,3.6,0123*5E
$GPVTG,114.04,T,-525.86,M,002.970,N,005.500,K,D*0B
$GPGGA,081122.00,5702.8094216,N,00950.2141954,E,2,5,2.2,-4.583,M,40.592,M,3.6,0123*56
$GPVTG,115.74,T,-524.16,M,002.988,N,005.534,K,D*05
$GPGGA,081122.05,5702.8093988,N,00950.2142622,E,2,5,2.2,-4.586,M,40.592,M,1.2,0123*56
$GPVTG,117.75,T,-522.15,M,003.029,N,005.610,K,D*05
$GPGGA,081122.10,5702.8093777,N,00950.2143351,E,2,5,2.2,-4.596,M,40.592,M,1.2,0123*5D
$GPVTG,119.17,T,-520.73,M,003.095,N,005.731,K,D*08
$GPGGA,081122.15,5702.8093605,N,00950.2143992,E,2,5,2.2,-4.601,M,40.592,M,1.2,0123*54
$GPVTG,119.98,T,-519.92,M,003.066,N,005.678,K,D*0A
$GPGGA,081122.20,5702.8093440,N,00950.2144579,E,2,5,2.2,-4.607,M,40.592,M,1.2,0123*59
$GPVTG,120.80,T,-519.10,M,002.998,N,005.552,K,D*01
$GPGGA,081122.25,5702.8093231,N,00950.2145256,E,2,5,2.2,-4.622,M,40.592,M,1.4,0123*56
$GPVTG,121.80,T,-518.10,M,002.992,N,005.541,K,D*09
$GPGGA,081122.30,5702.8093013,N,00950.2145894,E,2,5,2.2,-4.629,M,40.592,M,1.4,0123*5F
$GPVTG,123.05,T,-516.85,M,002.999,N,005.554,K,D*0B
$GPGGA,081122.35,5702.8092785,N,00950.2146554,E,2,5,2.2,-4.632,M,40.592,M,1.4,0123*5B
$GPVTG,124.11,T,-515.79,M,003.028,N,005.607,K,D*0E
$GPGGA,081122.40,5702.8092511,N,00950.2147232,E,2,5,2.2,-4.637,M,40.592,M,1.4,0123*55
$GPVTG,125.75,T,-514.15,M,003.100,N,005.742,K,D*0D
$GPGGA,081122.45,5702.8092227,N,00950.2147786,E,2,5,2.2,-4.655,M,40.592,M,1.6,0123*5E
$GPVTG,127.53,T,-512.37,M,003.061,N,005.669,K,D*03
$GPGGA,081122.50,5702.8091969,N,00950.2148361,E,2,5,2.2,-4.658,M,40.592,M,1.6,0123*57
$GPVTG,129.08,T,-510.82,M,003.054,N,005.655,K,D*06
$GPGGA,081122.55,5702.8091690,N,00950.2148979,E,2,5,2.2,-4.663,M,40.592,M,1.6,0123*50
$GPVTG,130.39,T,-509.51,M,003.092,N,005.726,K,D*05
$GPGGA,081122.60,5702.8091447,N,00950.2149531,E,2,5,2.2,-4.668,M,40.592,M,1.6,0123*54
$GPVTG,131.34,T,-508.56,M,003.057,N,005.662,K,D*07
$GPGGA,081122.65,5702.8091198,N,00950.2150017,E,2,5,2.2,-4.671,M,40.592,M,1.8,0123*59
$GPVTG,132.40,T,-507.50,M,002.979,N,005.517,K,D*0B
$GPGGA,081122.70,5702.8090959,N,00950.2150556,E,2,5,2.2,-4.682,M,40.592,M,1.8,0123*55
$GPVTG,133.01,T,-506.89,M,002.942,N,005.448,K,D*09
$GPGGA,081122.75,5702.8090712,N,00950.2151088,E,2,5,2.2,-4.694,M,40.592,M,1.8,0123*51
$GPVTG,133.72,T,-506.18,M,002.915,N,005.398,K,D*0D
$GPGGA,081122.80,5702.8090466,N,00950.2151629,E,2,5,2.2,-4.709,M,40.592,M,1.8,0123*53
$GPVTG,134.19,T,-505.71,M,002.894,N,005.359,K,D*0E
$GPGGA,081122.85,5702.8090287,N,00950.2152408,E,2,5,2.2,-4.705,M,40.592,M,2.1,0123*5B
$GPVTG,133.58,T,-506.32,M,002.901,N,005.373,K,D*0D
$GPGGA,081122.90,5702.8089998,N,00950.2152972,E,2,5,2.2,-4.718,M,40.592,M,2.1,0123*5E
$GPVTG,134.44,T,-505.46,M,002.928,N,005.423,K,D*0E
$GPGGA,081122.95,5702.8089714,N,00950.2153503,E,2,5,2.2,-4.732,M,40.592,M,2.1,0123*52
$GPVTG,135.37,T,-504.53,M,002.934,N,005.434,K,D*05
$GPGGA,081123.00,5702.8089467,N,00950.2153960,E,2,5,2.2,-4.742,M,40.592,M,2.1,0123*56
$GPVTG,136.20,T,-503.70,M,002.881,N,005.335,K,D*0F
$GPGGA,081123.05,5702.8089196,N,00950.2154376,E,2,5,2.2,-4.773,M,40.592,M,2.3,0123*52
$GPVTG,137.15,T,-502.75,M,002.797,N,005.179,K,D*0E
$GPGGA,081123.10,5702.8088924,N,00950.2154844,E,2,5,2.2,-4.790,M,40.592,M,2.3,0123*51
$GPVTG,138.06,T,-501.84,M,002.780,N,005.148,K,D*0A
$GPGGA,081123.15,5702.8088685,N,00950.2155218,E,2,5,2.2,-4.806,M,40.592,M,2.3,0123*52
$GPVTG,139.20,T,-500.70,M,002.710,N,005.019,K,D*09
$GPGGA,081123.20,5702.8088407,N,00950.2155610,E,2,5,2.2,-4.819,M,40.592,M,2.3,0123*5E
$GPVTG,140.59,T,-499.31,M,002.683,N,004.968,K,D*08
$GPGGA,081123.25,5702.8088121,N,00950.2155974,E,2,5,2.2,-4.816,M,40.592,M,2.5,0123*5E
$GPVTG,142.29,T,-497.61,M,002.656,N,004.919,K,D*08
$GPGGA,081123.30,5702.8087872,N,00950.2156252,E,2,5,2.2,-4.817,M,40.592,M,2.5,0123*57
$GPVTG,144.08,T,-495.82,M,002.576,N,004.772,K,D*00
$GPGGA,081123.35,5702.8087618,N,00950.2156518,E,2,5,2.2,-4.821,M,40.592,M,2.5,0123*5C
$GPVTG,145.88,T,-494.02,M,002.511,N,004.651,K,D*01
$GPGGA,081123.40,5702.8087368,N,00950.2156766,E,2,5,2.2,-4.827,M,40.592,M,2.5,0123*51
$GPVTG,147.67,T,-492.23,M,002.448,N,004.533,K,D*0D
$GPGGA,081123.45,5702.8087094,N,00950.2156808,E,2,5,2.2,-4.841,M,40.592,M,2.7,0123*51
$GPVTG,150.74,T,-489.16,M,002.373,N,004.395,K,D*00
$GPGGA,081123.50,5702.8086817,N,00950.2157050,E,2,5,2.2,-4.847,M,40.592,M,2.7,0123*55
$GPVTG,152.66,T,-487.24,M,002.340,N,004.335,K,D*04
$GPGGA,081123.55,5702.8086555,N,00950.2157296,E,2,5,2.2,-4.852,M,40.592,M,2.7,0123*57
$GPVTG,154.15,T,-485.75,M,002.303,N,004.265,K,D*03
$GPGGA,081123.60,5702.8086293,N,00950.2157448,E,2,5,2.2,-4.851,M,40.592,M,2.7,0123*5A
$GPVTG,156.57,T,-483.33,M,002.251,N,004.169,K,D*0A
$GPGGA,081123.65,5702.8086052,N,00950.2157630,E,2,5,2.2,-4.851,M,40.592,M,2.9,0123*53
$GPVTG,158.75,T,-481.15,M,002.173,N,004.024,K,D*09
$GPGGA,081123.70,5702.8085811,N,00950.2157860,E,2,5,2.2,-4.856,M,40.592,M,2.9,0123*57
$GPVTG,159.04,T,-480.86,M,002.108,N,003.904,K,D*05
$GPGGA,081123.75,5702.8085574,N,00950.2158082,E,2,5,2.2,-4.859,M,40.592,M,2.9,0123*58
$GPVTG,159.53,T,-480.37,M,002.052,N,003.801,K,D*07
$GPGGA,081123.80,5702.8085312,N,00950.2158247,E,2,5,2.2,-4.863,M,40.592,M,2.9,0123*56
$GPVTG,161.35,T,-478.55,M,002.030,N,003.759,K,D*09
$GPGGA,081123.85,5702.8085116,N,00950.2158437,E,2,5,2.2,-4.870,M,40.592,M,3.1,0123*5F
$GPVTG,162.86,T,-477.04,M,001.985,N,003.676,K,D*01
$GPGGA,081123.90,5702.8084868,N,00950.2158549,E,2,5,2.2,-4.877,M,40.592,M,3.1,0123*55
$GPVTG,164.86,T,-475.04,M,001.962,N,003.633,K,D*0D
$GPGGA,081123.95,5702.8084638,N,00950.2158673,E,2,5,2.2,-4.880,M,40.592,M,3.1,0123*59
$GPVTG,166.57,T,-473.33,M,001.933,N,003.579,K,D*08
$GPGGA,081124.00,5702.8084410,N,00950.2158780,E,2,5,2.2,-4.882,M,40.592,M,3.1,0123*55
$GPVTG,168.31,T,-471.59,M,001.904,N,003.527,K,D*07
$GPGGA,081124.05,5702.8084218,N,00950.2159007,E,2,5,2.2,-4.874,M,40.592,M,2.4,0123*5A
$GPVTG,169.43,T,-470.47,M,001.888,N,003.496,K,D*03
$GPGGA,081124.10,5702.8083962,N,00950.2159142,E,2,5,2.2,-4.873,M,40.592,M,2.4,0123*58
$GPVTG,170.81,T,-469.09,M,001.881,N,003.484,K,D*0D
$GPGGA,081124.15,5702.8083746,N,00950.2159227,E,2,5,2.2,-4.877,M,40.592,M,2.4,0123*51
$GPVTG,172.44,T,-467.46,M,001.854,N,003.434,K,D*00
$GPGGA,081124.20,5702.8083498,N,00950.2159321,E,2,5,2.2,-4.882,M,40.592,M,2.4,0123*5A
$GPVTG,173.96,T,-465.94,M,001.846,N,003.419,K,D*0F
$GPGGA,081124.25,5702.8083352,N,00950.2159584,E,2,5,2.2,-4.887,M,40.592,M,2.7,0123*51
$GPVTG,174.81,T,-465.09,M,001.801,N,003.336,K,D*03
$GPGGA,081124.30,5702.8083124,N,00950.2159686,E,2,5,2.2,-4.892,M,40.592,M,2.7,0123*53
$GPVTG,175.95,T,-463.95,M,001.784,N,003.305,K,D*06
$GPGGA,081124.35,5702.8082919,N,00950.2159760,E,2,5,2.2,-4.897,M,40.592,M,2.7,0123*5D
$GPVTG,177.27,T,-462.63,M,001.756,N,003.253,K,D*08
$GPGGA,081124.40,5702.8082693,N,00950.2159799,E,2,5,2.2,-4.902,M,40.592,M,2.7,0123*59
$GPVTG,178.87,T,-461.03,M,001.741,N,003.225,K,D*0F
$GPGGA,081124.45,5702.8082598,N,00950.2160307,E,2,5,2.2,-4.881,M,40.592,M,2.9,0123*59
$GPVTG,177.97,T,-461.93,M,001.710,N,003.166,K,D*08
$GPGGA,081124.50,5702.8082377,N,00950.2160405,E,2,5,2.2,-4.885,M,40.592,M,2.9,0123*5B
$GPVTG,178.69,T,-461.21,M,001.694,N,003.137,K,D*06
$GPGGA,081124.55,5702.8082170,N,00950.2160514,E,2,5,2.2,-4.892,M,40.592,M,2.9,0123*5C
$GPVTG,179.25,T,-460.65,M,001.671,N,003.094,K,D*0D
$GPGGA,081124.60,5702.8081952,N,00950.2160597,E,2,5,2.2,-4.901,M,40.592,M,2.9,0123*51
$GPVTG,180.01,T,-459.89,M,001.656,N,003.067,K,D*0C
$GPGGA,081124.65,5702.8081875,N,00950.2160987,E,2,5,2.2,-4.897,M,40.592,M,3.1,0123*5A
$GPVTG,179.95,T,-459.95,M,001.576,N,002.919,K,D*0A
$GPGGA,081124.70,5702.8081637,N,00950.2161073,E,2,5,2.2,-4.906,M,40.592,M,3.1,0123*5C
$GPVTG,180.41,T,-459.49,M,001.578,N,002.922,K,D*02
$GPGGA,081124.75,5702.8081400,N,00950.2161178,E,2,5,2.2,-4.913,M,40.592,M,3.1,0123*51
$GPVTG,180.61,T,-459.29,M,001.579,N,002.924,K,D*01
$GPGGA,081124.80,5702.8081206,N,00950.2161241,E,2,5,2.2,-4.920,M,40.592,M,3.1,0123*52
$GPVTG,181.27,T,-458.63,M,001.554,N,002.878,K,D*0A
$GPGGA,081124.85,5702.8081087,N,00950.2161539,E,2,5,2.2,-4.915,M,40.592,M,3.4,0123*57
$GPVTG,180.84,T,-459.06,M,001.501,N,002.779,K,D*0E
$GPGGA,081124.90,5702.8080869,N,00950.2161607,E,2,5,2.2,-4.924,M,40.592,M,3.4,0123*56
$GPVTG,181.21,T,-458.69,M,001.495,N,002.769,K,D*05
$GPGGA,081124.95,5702.8080668,N,00950.2161656,E,2,5,2.2,-4.933,M,40.592,M,3.4,0123*5E
$GPVTG,181.83,T,-458.07,M,001.480,N,002.740,K,D*0A
$GPGGA,081125.00,5702.8080494,N,00950.2161706,E,2,5,2.2,-4.941,M,40.592,M,3.4,0123*53
$GPVTG,182.38,T,-457.52,M,001.449,N,002.683,K,D*0D
$GPGGA,081125.05,5702.8080356,N,00950.2162073,E,2,5,2.2,-4.921,M,40.592,M,2.5,0123*5F
$GPVTG,181.13,T,-458.77,M,001.421,N,002.632,K,D*0B
$GPGGA,081125.10,5702.8080160,N,00950.2162112,E,2,5,2.2,-4.923,M,40.592,M,2.5,0123*58
$GPVTG,181.67,T,-458.23,M,001.407,N,002.606,K,D*0A
$GPGGA,081125.15,5702.8079983,N,00950.2162134,E,2,5,2.2,-4.926,M,40.592,M,2.5,0123*5F
$GPVTG,182.45,T,-457.45,M,001.383,N,002.561,K,D*0F
$GPGGA,081125.20,5702.8079818,N,00950.2162117,E,2,5,2.2,-4.928,M,40.592,M,2.5,0123*55
$GPVTG,183.73,T,-456.17,M,001.354,N,002.507,K,D*07
$GPGGA,081125.25,5702.8079678,N,00950.2162221,E,2,5,2.2,-4.929,M,40.592,M,2.8,0123*52
$GPVTG,184.06,T,-455.84,M,001.316,N,002.438,K,D*00
$GPGGA,081125.30,5702.8079509,N,00950.2162247,E,2,5,2.2,-4.933,M,40.592,M,2.8,0123*58
$GPVTG,184.55,T,-455.35,M,001.293,N,002.394,K,D*01
$GPGGA,081125.35,5702.8079345,N,00950.2162258,E,2,5,2.2,-4.935,M,40.592,M,2.8,0123*5B
$GPVTG,185.29,T,-454.61,M,001.269,N,002.350,K,D*06
$GPGGA,081125.40,5702.8079169,N,00950.2162271,E,2,5,2.2,-4.940,M,40.592,M,2.8,0123*5C
$GPVTG,185.91,T,-453.99,M,001.254,N,002.322,K,D*0E
$GPGGA,081125.45,5702.8079058,N,00950.2162487,E,2,5,2.2,-4.918,M,40.592,M,3.1,0123*50
$GPVTG,185.84,T,-454.06,M,001.203,N,002.227,K,D*0D
$GPGGA,081125.50,5702.8078899,N,00950.2162488,E,2,5,2.2,-4.926,M,40.592,M,3.1,0123*52
$GPVTG,186.54,T,-453.36,M,001.181,N,002.188,K,D*08
$GPGGA,081125.55,5702.8078757,N,00950.2162529,E,2,5,2.2,-4.935,M,40.592,M,3.1,0123*52
$GPVTG,186.64,T,-453.26,M,001.150,N,002.130,K,D*05
$GPGGA,081125.60,5702.8078580,N,00950.2162592,E,2,5,2.2,-4.946,M,40.592,M,3.1,0123*58
$GPVTG,186.25,T,-453.65,M,001.141,N,002.113,K,D*06
$GPGGA,081125.65,5702.8078415,N,00950.2162864,E,2,5,2.2,-4.929,M,40.592,M,3.3,0123*5F
$GPVTG,184.10,T,-455.80,M,001.122,N,002.077,K,D*09
$GPGGA,081125.70,5702.8078258,N,00950.2162880,E,2,5,2.2,-4.934,M,40.592,M,3.3,0123*52
$GPVTG,184.38,T,-455.52,M,001.105,N,002.046,K,D*0B
$GPGGA,081125.75,5702.8078132,N,00950.2162831,E,2,5,2.2,-4.941,M,40.592,M,3.3,0123*50
$GPVTG,185.89,T,-454.01,M,001.073,N,001.987,K,D*00
$GPGGA,081125.80,5702.8078001,N,00950.2162825,E,2,5,2.2,-4.947,M,40.592,M,3.3,0123*58
$GPVTG,186.60,T,-453.30,M,001.045,N,001.935,K,D*0D
$GPGGA,081125.85,5702.8077817,N,00950.2163019,E,2,5,2.2,-4.921,M,40.592,M,3.6,0123*5E
$GPVTG,184.06,T,-455.84,M,001.035,N,001.916,K,D*00
$GPGGA,081125.90,5702.8077677,N,00950.2163000,E,2,5,2.2,-4.923,M,40.592,M,3.6,0123*58
$GPVTG,184.94,T,-454.96,M,001.015,N,001.879,K,D*03
$GPGGA,081125.95,5702.8077506,N,00950.2163009,E,2,5,2.2,-4.927,M,40.592,M,3.6,0123*55
$GPVTG,185.14,T,-454.76,M,001.015,N,001.880,K,D*02
$GPGGA,081126.00,5702.8077379,N,00950.2163003,E,2,5,2.2,-4.931,M,40.592,M,3.6,0123*59
$GPVTG,185.74,T,-454.16,M,000.990,N,001.834,K,D*08
$GPGGA,081126.05,5702.8077226,N,00950.2163017,E,2,5,2.2,-4.933,M,40.592,M,1.2,0123*56
$GPVTG,186.17,T,-453.73,M,000.959,N,001.776,K,D*06
$GPGGA,081126.10,5702.8077074,N,00950.2163045,E,2,5,2.2,-4.941,M,40.592,M,1.2,0123*55
$GPVTG,185.81,T,-454.09,M,000.953,N,001.764,K,D*09
$GPGGA,081126.15,5702.8076953,N,00950.2162988,E,2,5,2.2,-4.944,M,40.592,M,1.2,0123*51
$GPVTG,187.32,T,-452.58,M,000.931,N,001.724,K,D*01
$GPGGA,081126.20,5702.8076857,N,00950.2162938,E,2,5,2.2,-4.947,M,40.592,M,1.2,0123*5A
$GPVTG,188.81,T,-451.09,M,000.896,N,001.659,K,D*06
$GPGGA,081126.25,5702.8076692,N,00950.2163085,E,2,5,2.2,-4.924,M,40.592,M,1.4,0123*55
$GPVTG,186.20,T,-453.70,M,000.906,N,001.678,K,D*04
$GPGGA,081126.30,5702.8076549,N,00950.2163084,E,2,5,2.2,-4.929,M,40.592,M,1.4,0123*58
$GPVTG,186.34,T,-453.56,M,000.901,N,001.669,K,D*02
$GPGGA,081126.35,5702.8076419,N,00950.2163063,E,2,5,2.2,-4.930,M,40.592,M,1.4,0123*58
$GPVTG,186.96,T,-452.94,M,000.889,N,001.646,K,D*09
$GPGGA,081126.40,5702.8076297,N,00950.2163056,E,2,5,2.2,-4.932,M,40.592,M,1.4,0123*5E
$GPVTG,187.28,T,-452.62,M,000.873,N,001.616,K,D*04
$GPGGA,081126.45,5702.8076089,N,00950.2162965,E,2,5,2.2,-4.931,M,40.592,M,1.6,0123*5F
$GPVTG,188.79,T,-451.11,M,000.856,N,001.586,K,D*05
$GPGGA,081126.50,5702.8075969,N,00950.2162912,E,2,5,2.2,-4.932,M,40.592,M,1.6,0123*5C
$GPVTG,190.07,T,-449.83,M,000.844,N,001.563,K,D*0F
$GPGGA,081126.55,5702.8075838,N,00950.2162863,E,2,5,2.2,-4.934,M,40.592,M,1.6,0123*5D
$GPVTG,191.10,T,-448.80,M,000.840,N,001.555,K,D*0B
$GPGGA,081126.60,5702.8075740,N,00950.2162815,E,2,5,2.2,-4.937,M,40.592,M,1.6,0123*59
$GPVTG,192.29,T,-447.61,M,000.816,N,001.512,K,D*02
$GPGGA,081126.65,5702.8075603,N,00950.2162796,E,2,5,2.2,-4.907,M,40.592,M,1.8,0123*53
$GPVTG,192.87,T,-447.03,M,000.799,N,001.480,K,D*00
$GPGGA,081126.70,5702.8075458,N,00950.2162800,E,2,5,2.2,-4.909,M,40.592,M,1.8,0123*55
$GPVTG,192.20,T,-447.70,M,000.806,N,001.493,K,D*02
$GPGGA,081126.75,5702.8075368,N,00950.2162765,E,2,5,2.2,-4.910,M,40.592,M,1.8,0123*50
$GPVTG,193.08,T,-446.82,M,000.780,N,001.445,K,D*0F
$GPGGA,081126.80,5702.8075251,N,00950.2162724,E,2,5,2.2,-4.916,M,40.592,M,1.8,0123*52
$GPVTG,193.80,T,-446.10,M,000.773,N,001.432,K,D*08
$GPGGA,081126.85,5702.8075086,N,00950.2162704,E,2,5,2.2,-4.905,M,40.592,M,2.1,0123*55
$GPVTG,194.19,T,-445.71,M,000.761,N,001.410,K,D*08
$GPGGA,081126.90,5702.8074961,N,00950.2162669,E,2,5,2.2,-4.913,M,40.592,M,2.1,0123*5D
$GPVTG,194.48,T,-445.42,M,000.762,N,001.412,K,D*0D
$GPGGA,081126.95,5702.8074862,N,00950.2162626,E,2,5,2.2,-4.917,M,40.592,M,2.1,0123*55
$GPVTG,195.30,T,-444.60,M,000.748,N,001.385,K,D*03
$GPGGA,081127.00,5702.8074765,N,00950.2162595,E,2,5,2.2,-4.925,M,40.592,M,2.1,0123*5A
$GPVTG,195.78,T,-444.12,M,000.732,N,001.356,K,D*09
$GPGGA,081127.05,5702.8074580,N,00950.2162571,E,2,5,2.2,-4.894,M,40.592,M,2.3,0123*55
$GPVTG,196.34,T,-443.56,M,000.724,N,001.341,K,D*04
$GPGGA,081127.10,5702.8074453,N,00950.2162558,E,2,5,2.2,-4.897,M,40.592,M,2.3,0123*56
$GPVTG,195.74,T,-444.16,M,000.728,N,001.348,K,D*05
$GPGGA,081127.15,5702.8074332,N,00950.2162535,E,2,5,2.2,-4.900,M,40.592,M,2.3,0123*57
$GPVTG,195.58,T,-444.32,M,000.729,N,001.349,K,D*0D
$GPGGA,081127.20,5702.8074219,N,00950.2162486,E,2,5,2.2,-4.904,M,40.592,M,2.3,0123*54
$GPVTG,196.13,T,-443.77,M,000.727,N,001.347,K,D*07
$GPGGA,081127.25,5702.8073993,N,00950.2162384,E,2,5,2.2,-4.894,M,40.592,M,2.5,0123*54
$GPVTG,195.76,T,-444.14,M,000.747,N,001.383,K,D*0B
$GPGGA,081127.30,5702.8073920,N,00950.2162299,E,2,5,2.2,-4.896,M,40.592,M,2.5,0123*57
$GPVTG,197.76,T,-442.14,M,000.724,N,001.341,K,D*04
$GPGGA,081127.35,5702.8073804,N,00950.2162302,E,2,5,2.2,-4.897,M,40.592,M,2.5,0123*57
$GPVTG,196.81,T,-443.09,M,000.721,N,001.336,K,D*05
$GPGGA,081127.40,5702.8073690,N,00950.2162277,E,2,5,2.2,-4.898,M,40.592,M,2.5,0123*5A
$GPVTG,196.58,T,-443.32,M,000.721,N,001.334,K,D*0B
$GPGGA,081127.45,5702.8073549,N,00950.2162235,E,2,5,2.2,-4.882,M,40.592,M,2.7,0123*57
$GPVTG,197.00,T,-442.90,M,000.711,N,001.317,K,D*0C
$GPGGA,081127.50,5702.8073469,N,00950.2162121,E,2,5,2.2,-4.883,M,40.592,M,2.7,0123*57
$GPVTG,199.61,T,-440.29,M,000.701,N,001.298,K,D*02
$GPGGA,081127.55,5702.8073367,N,00950.2162082,E,2,5,2.2,-4.886,M,40.592,M,2.7,0123*56
$GPVTG,199.71,T,-440.19,M,000.696,N,001.290,K,D*07
$GPGGA,081127.60,5702.8073272,N,00950.2162046,E,2,5,2.2,-4.890,M,40.592,M,2.7,0123*5A
$GPVTG,199.82,T,-440.08,M,000.688,N,001.274,K,D*0E
$GPGGA,081127.65,5702.8073097,N,00950.2162047,E,2,5,2.2,-4.866,M,40.592,M,2.9,0123*50
$GPVTG,197.34,T,-442.56,M,000.691,N,001.279,K,D*01
$GPGGA,081127.70,5702.8073020,N,00950.2161993,E,2,5,2.2,-4.872,M,40.592,M,2.9,0123*5E
$GPVTG,198.22,T,-441.68,M,000.674,N,001.249,K,D*0F
$GPGGA,081127.75,5702.8072934,N,00950.2161939,E,2,5,2.2,-4.874,M,40.592,M,2.9,0123*50
$GPVTG,198.90,T,-441.00,M,000.664,N,001.231,K,D*06
$GPGGA,081127.80,5702.8072811,N,00950.2161881,E,2,5,2.2,-4.877,M,40.592,M,2.9,0123*5D
$GPVTG,199.00,T,-440.90,M,000.677,N,001.254,K,D*07
$GPGGA,081127.85,5702.8072625,N,00950.2161767,E,2,5,2.2,-4.866,M,40.592,M,3.1,0123*5F
$GPVTG,200.06,T,-439.84,M,000.680,N,001.259,K,D*0C
$GPGGA,081127.90,5702.8072536,N,00950.2161737,E,2,5,2.2,-4.869,M,40.592,M,3.1,0123*50
$GPVTG,199.85,T,-440.05,M,000.670,N,001.241,K,D*05
$GPGGA,081127.95,5702.8072433,N,00950.2161720,E,2,5,2.2,-4.870,M,40.592,M,3.1,0123*5F
$GPVTG,199.09,T,-440.81,M,000.668,N,001.237,K,D*05
$GPGGA,081128.00,5702.8072330,N,00950.2161648,E,2,5,2.2,-4.870,M,40.592,M,3.1,0123*57
$GPVTG,199.76,T,-440.14,M,000.672,N,001.244,K,D*0E
$GPGGA,081128.05,5702.8072181,N,00950.2161528,E,2,5,2.2,-4.860,M,40.592,M,2.4,0123*5A
$GPVTG,200.53,T,-439.37,M,000.674,N,001.248,K,D*0F
$GPGGA,081128.10,5702.8072096,N,00950.2161464,E,2,4,2.2,-4.857,M,40.592,M,2.4,0123*55
$GPVTG,201.22,T,-438.68,M,000.668,N,001.237,K,D*06
$GPGGA,081128.15,5702.8072020,N,00950.2161397,E,2,4,2.2,-4.858,M,40.592,M,2.4,0123*59
$GPVTG,202.11,T,-437.79,M,000.658,N,001.219,K,D*05
$GPGGA,081128.20,5702.8071918,N,00950.2161339,E,2,4,2.2,-4.857,M,40.592,M,2.4,0123*55
$GPVTG,202.27,T,-437.63,M,000.660,N,001.223,K,D*09
$GPGGA,081128.25,5702.8071778,N,00950.2161226,E,2,4,2.2,-4.854,M,40.592,M,2.7,0123*57
$GPVTG,202.06,T,-437.84,M,000.667,N,001.235,K,D*03
$GPGGA,081128.30,5702.8071705,N,00950.2161145,E,2,4,2.2,-4.852,M,40.592,M,2.7,0123*59
$GPVTG,203.35,T,-436.55,M,000.657,N,001.217,K,D*0C
$GPGGA,081128.35,5702.8071648,N,00950.2161039,E,2,4,2.2,-4.849,M,40.592,M,2.7,0123*54
$GPVTG,205.44,T,-434.46,M,000.644,N,001.193,K,D*01
$GPGGA,081128.40,5702.8071551,N,00950.2160992,E,2,4,2.2,-4.853,M,40.592,M,2.7,0123*5F
$GPVTG,205.23,T,-434.67,M,000.644,N,001.193,K,D*03
$GPGGA,081128.45,5702.8071413,N,00950.2160812,E,2,5,2.2,-4.838,M,40.592,M,2.9,0123*56
$GPVTG,207.92,T,-431.98,M,000.634,N,001.174,K,D*00
$GPGGA,081128.50,5702.8071333,N,00950.2160745,E,2,5,2.2,-4.842,M,40.592,M,2.9,0123*57
$GPVTG,208.36,T,-431.54,M,000.630,N,001.167,K,D*07
$GPGGA,081128.55,5702.8071239,N,00950.2160686,E,2,5,2.2,-4.844,M,40.592,M,2.9,0123*51
$GPVTG,208.23,T,-431.67,M,000.632,N,001.170,K,D*07
$GPGGA,081128.60,5702.8071142,N,00950.2160640,E,2,5,2.2,-4.849,M,40.592,M,2.9,0123*5F
$GPVTG,207.69,T,-432.21,M,000.633,N,001.173,K,D*05
$GPGGA,081128.65,5702.8070978,N,00950.2160409,E,2,5,2.2,-4.831,M,40.592,M,3.1,0123*53
$GPVTG,211.80,T,-428.10,M,000.629,N,001.165,K,D*00
