$GPGGA,092526.00,5702.9310925,N,00949.3094394,E,2,4,4.1,-2.802,M,40.592,M,2.9,0123*5F
$GPVTG,355.28,T,-284.62,M,003.039,N,005.628,K,D*08
$GPGGA,092526.05,5702.9310133,N,00949.3094521,E,2,4,4.1,-2.771,M,40.592,M,1.7,0123*5B
$GPVTG,356.36,T,-283.54,M,003.005,N,005.565,K,D*03
$GPGGA,092526.10,5702.9310540,N,00949.3094479,E,2,4,4.1,-2.768,M,40.592,M,1.7,0123*5B
$GPVTG,357.91,T,-281.99,M,002.949,N,005.462,K,D*0A
$GPGGA,092526.15,5702.9310959,N,00949.3094497,E,2,4,4.1,-2.765,M,40.592,M,1.7,0123*57
$GPVTG,000.37,T,-639.53,M,002.932,N,005.429,K,D*05
$GPGGA,092526.20,5702.9311380,N,00949.3094460,E,2,4,4.1,-2.763,M,40.592,M,1.7,0123*50
$GPVTG,001.11,T,-638.79,M,002.927,N,005.420,K,D*04
$GPGGA,092526.25,5702.9310519,N,00949.3094703,E,2,4,4.1,-2.740,M,40.592,M,2.0,0123*51
$GPVTG,003.00,T,-636.90,M,002.906,N,005.382,K,D*03
$GPGGA,092526.30,5702.9310922,N,00949.3094711,E,2,4,4.1,-2.735,M,40.592,M,2.0,0123*50
$GPVTG,004.03,T,-635.87,M,002.883,N,005.339,K,D*0E
$GPGGA,092526.35,5702.9311320,N,00949.3094775,E,2,4,4.1,-2.731,M,40.592,M,2.0,0123*5A
$GPVTG,005.79,T,-634.11,M,002.860,N,005.298,K,D*0B
$GPGGA,092526.40,5702.9311712,N,00949.3094855,E,2,4,4.1,-2.731,M,40.592,M,2.0,0123*50
$GPVTG,007.48,T,-632.42,M,002.838,N,005.256,K,D*04
$GPGGA,092526.45,5702.9310939,N,00949.3095139,E,2,4,4.1,-2.708,M,40.592,M,2.2,0123*59
$GPVTG,009.00,T,-630.90,M,002.820,N,005.223,K,D*00
$GPGGA,092526.50,5702.9311320,N,00949.3095169,E,2,4,4.1,-2.699,M,40.592,M,2.2,0123*52
$GPVTG,009.39,T,-630.51,M,002.786,N,005.160,K,D*00
$GPGGA,092526.55,5702.9311710,N,00949.3095240,E,2,4,4.1,-2.692,M,40.592,M,2.2,0123*53
$GPVTG,010.24,T,-629.66,M,002.775,N,005.139,K,D*08
$GPGGA,092526.60,5702.9312097,N,00949.3095413,E,2,4,4.1,-2.687,M,40.592,M,2.2,0123*5A
$GPVTG,012.36,T,-627.54,M,002.776,N,005.141,K,D*0A
$GPGGA,092526.65,5702.9311779,N,00949.3095623,E,2,4,4.1,-2.681,M,40.592,M,2.4,0123*5A
$GPVTG,012.96,T,-626.94,M,002.818,N,005.218,K,D*05
$GPGGA,092526.70,5702.9312169,N,00949.3095710,E,2,4,4.1,-2.673,M,40.592,M,2.4,0123*56
$GPVTG,013.40,T,-626.50,M,002.810,N,005.204,K,D*02
$GPGGA,092526.75,5702.9312532,N,00949.3095832,E,2,4,4.1,-2.671,M,40.592,M,2.4,0123*54
$GPVTG,014.32,T,-625.58,M,002.782,N,005.151,K,D*0C
$GPGGA,092526.80,5702.9312906,N,00949.3095987,E,2,4,4.1,-2.668,M,40.592,M,2.4,0123*52
$GPVTG,015.45,T,-624.45,M,002.772,N,005.133,K,D*0B
$GPGGA,092526.85,5702.9312573,N,00949.3096303,E,2,4,4.1,-2.649,M,40.592,M,2.7,0123*5C
$GPVTG,017.01,T,-622.89,M,002.788,N,005.163,K,D*0F
$GPGGA,092526.90,5702.9312949,N,00949.3096529,E,2,4,4.1,-2.643,M,40.592,M,2.7,0123*59
$GPVTG,018.55,T,-621.35,M,002.795,N,005.177,K,D*0C
$GPGGA,092526.95,5702.9313316,N,00949.3096681,E,2,4,4.1,-2.640,M,40.592,M,2.7,0123*5F
$GPVTG,019.08,T,-620.82,M,002.780,N,005.148,K,D*00
$GPGGA,092527.00,5702.9313687,N,00949.3096863,E,2,4,4.1,-2.638,M,40.592,M,2.7,0123*52
$GPVTG,019.83,T,-620.07,M,002.774,N,005.138,K,D*02
$GPGGA,092527.05,5702.9313681,N,00949.3097194,E,2,4,4.1,-2.631,M,40.592,M,1.6,0123*5A
$GPVTG,021.11,T,-618.79,M,002.800,N,005.185,K,D*0A
$GPGGA,092527.10,5702.9314040,N,00949.3097475,E,2,4,4.1,-2.627,M,40.592,M,1.6,0123*5F
$GPVTG,022.66,T,-617.24,M,002.805,N,005.195,K,D*0A
$GPGGA,092527.15,5702.9314395,N,00949.3097738,E,2,4,4.1,-2.626,M,40.592,M,1.6,0123*5A
$GPVTG,023.84,T,-616.06,M,002.803,N,005.192,K,D*07
$GPGGA,092527.20,5702.9314746,N,00949.3097979,E,2,4,4.1,-2.621,M,40.592,M,1.6,0123*5A
$GPVTG,024.66,T,-615.24,M,002.795,N,005.177,K,D*04
$GPGGA,092527.25,5702.9314669,N,00949.3098406,E,2,4,4.1,-2.614,M,40.592,M,1.9,0123*50
$GPVTG,026.63,T,-613.27,M,002.790,N,005.167,K,D*02
$GPGGA,092527.30,5702.9315018,N,00949.3098678,E,2,4,4.1,-2.616,M,40.592,M,1.9,0123*5C
$GPVTG,027.42,T,-612.48,M,002.788,N,005.163,K,D*05
$GPGGA,092527.35,5702.9315368,N,00949.3099048,E,2,4,4.1,-2.613,M,40.592,M,1.9,0123*5C
$GPVTG,029.03,T,-610.87,M,002.810,N,005.204,K,D*03
$GPGGA,092527.40,5702.9315702,N,00949.3099393,E,2,4,4.1,-2.611,M,40.592,M,1.9,0123*51
$GPVTG,030.29,T,-609.61,M,002.815,N,005.214,K,D*07
$GPGGA,092527.45,5702.9315839,N,00949.3099782,E,2,4,4.1,-2.631,M,40.592,M,2.1,0123*5E
$GPVTG,031.70,T,-608.20,M,002.814,N,005.211,K,D*0A
$GPGGA,092527.50,5702.9316165,N,00949.3100129,E,2,4,4.1,-2.633,M,40.592,M,2.1,0123*5D
$GPVTG,032.85,T,-607.05,M,002.818,N,005.219,K,D*0F
$GPGGA,092527.55,5702.9316498,N,00949.3100480,E,2,4,4.1,-2.637,M,40.592,M,2.1,0123*5D
$GPVTG,033.87,T,-606.03,M,002.827,N,005.235,K,D*09
$GPGGA,092527.60,5702.9316822,N,00949.3100848,E,2,4,4.1,-2.640,M,40.592,M,2.1,0123*5E
$GPVTG,034.92,T,-604.98,M,002.834,N,005.248,K,D*02
$GPGGA,092527.65,5702.9316899,N,00949.3101222,E,2,4,4.1,-2.630,M,40.592,M,2.3,0123*59
$GPVTG,035.57,T,-604.33,M,002.786,N,005.160,K,D*04
$GPGGA,092527.70,5702.9317205,N,00949.3101587,E,2,4,4.1,-2.626,M,40.592,M,2.3,0123*5C
$GPVTG,036.29,T,-603.61,M,002.775,N,005.138,K,D*0F
$GPGGA,092527.75,5702.9317508,N,00949.3102005,E,2,4,4.1,-2.625,M,40.592,M,2.3,0123*5C
$GPVTG,037.45,T,-602.45,M,002.782,N,005.152,K,D*07
$GPGGA,092527.80,5702.9317814,N,00949.3102430,E,2,4,4.1,-2.622,M,40.592,M,2.3,0123*53
$GPVTG,038.51,T,-601.39,M,002.791,N,005.169,K,D*0F
$GPGGA,092527.85,5702.9318008,N,00949.3102825,E,2,4,4.1,-2.630,M,40.592,M,2.6,0123*52
$GPVTG,039.52,T,-600.39,M,002.767,N,005.125,K,D*0D
$GPGGA,092527.90,5702.9318299,N,00949.3103257,E,2,4,4.1,-2.632,M,40.592,M,2.6,0123*50
$GPVTG,040.50,T,-599.40,M,002.770,N,005.130,K,D*0E
$GPGGA,092527.95,5702.9318579,N,00949.3103676,E,2,4,4.1,-2.633,M,40.592,M,2.6,0123*5A
$GPVTG,041.32,T,-598.58,M,002.763,N,005.117,K,D*04
$GPGGA,092528.00,5702.9318872,N,00949.3104111,E,2,4,4.1,-2.635,M,40.592,M,2.6,0123*58
$GPVTG,042.09,T,-597.81,M,002.765,N,005.121,K,D*07
$GPGGA,092528.05,5702.9319051,N,00949.3104535,E,2,4,4.1,-2.622,M,40.592,M,2.8,0123*5F
$GPVTG,043.17,T,-596.73,M,002.722,N,005.041,K,D*01
$GPGGA,092528.10,5702.9319313,N,00949.3105035,E,2,4,4.1,-2.618,M,40.592,M,2.8,0123*53
$GPVTG,044.51,T,-595.39,M,002.736,N,005.066,K,D*09
$GPGGA,092528.15,5702.9319572,N,00949.3105469,E,2,4,4.1,-2.616,M,40.592,M,2.8,0123*54
$GPVTG,045.20,T,-594.70,M,002.722,N,005.042,K,D*01
$GPGGA,092528.20,5702.9319824,N,00949.3105918,E,2,4,4.1,-2.613,M,40.592,M,2.8,0123*52
$GPVTG,045.99,T,-593.91,M,002.712,N,005.022,K,D*0E
$GPGGA,092528.25,5702.9319985,N,00949.3106357,E,2,4,4.1,-2.624,M,40.592,M,3.0,0123*52
$GPVTG,047.45,T,-592.45,M,002.672,N,004.948,K,D*06
$GPGGA,092528.30,5702.9320224,N,00949.3106825,E,2,4,4.1,-2.624,M,40.592,M,3.0,0123*52
$GPVTG,048.31,T,-591.59,M,002.663,N,004.932,K,D*09
$GPGGA,092528.35,5702.9320465,N,00949.3107323,E,2,4,4.1,-2.627,M,40.592,M,3.0,0123*5B
$GPVTG,049.28,T,-590.62,M,002.666,N,004.938,K,D*06
$GPGGA,092528.40,5702.9320692,N,00949.3107803,E,2,4,4.1,-2.629,M,40.592,M,3.0,0123*54
$GPVTG,050.13,T,-589.77,M,002.658,N,004.922,K,D*0C
$GPGGA,092528.45,5702.9320567,N,00949.3108364,E,2,4,4.1,-2.624,M,40.592,M,3.2,0123*52
$GPVTG,051.53,T,-588.37,M,002.650,N,004.909,K,D*0D
$GPGGA,092528.50,5702.9320789,N,00949.3108850,E,2,4,4.1,-2.626,M,40.592,M,3.2,0123*5A
$GPVTG,052.27,T,-587.63,M,002.642,N,004.893,K,D*02
$GPGGA,092528.55,5702.9321008,N,00949.3109402,E,2,4,4.1,-2.632,M,40.592,M,3.2,0123*5F
$GPVTG,053.39,T,-586.51,M,002.657,N,004.922,K,D*03
$GPGGA,092528.60,5702.9321225,N,00949.3109888,E,2,4,4.1,-2.638,M,40.592,M,3.2,0123*50
$GPVTG,054.03,T,-585.87,M,002.644,N,004.897,K,D*08
$GPGGA,092528.65,5702.9321282,N,00949.3110400,E,2,4,4.1,-2.640,M,40.592,M,3.4,0123*55
$GPVTG,056.11,T,-583.79,M,002.586,N,004.790,K,D*0B
$GPGGA,092528.70,5702.9321467,N,00949.3110908,E,2,4,4.1,-2.640,M,40.592,M,3.4,0123*59
$GPVTG,057.00,T,-582.90,M,002.572,N,004.763,K,D*0B
$GPGGA,092528.75,5702.9321633,N,00949.3111445,E,2,4,4.1,-2.639,M,40.592,M,3.4,0123*54
$GPVTG,058.15,T,-581.75,M,002.566,N,004.753,K,D*0E
$GPGGA,092528.80,5702.9321796,N,00949.3111907,E,2,4,4.1,-2.638,M,40.592,M,3.4,0123*5A
$GPVTG,058.78,T,-581.12,M,002.526,N,004.678,K,D*08
$GPGGA,092528.85,5702.9321823,N,00949.3112376,E,2,4,4.1,-2.649,M,40.592,M,3.6,0123*55
$GPVTG,061.08,T,-578.82,M,002.462,N,004.559,K,D*0B
$GPGGA,092528.90,5702.9321970,N,00949.3112877,E,2,4,4.1,-2.647,M,40.592,M,3.6,0123*52
$GPVTG,062.01,T,-577.89,M,002.439,N,004.517,K,D*01
$GPGGA,092528.95,5702.9322113,N,00949.3113397,E,2,4,4.1,-2.645,M,40.592,M,3.6,0123*5F
$GPVTG,063.02,T,-576.88,M,002.424,N,004.490,K,D*01
$GPGGA,092529.00,5702.9322243,N,00949.3113888,E,2,4,4.1,-2.645,M,40.592,M,3.6,0123*51
$GPVTG,063.92,T,-575.98,M,002.395,N,004.436,K,D*0B
$GPGGA,092529.05,5702.9322233,N,00949.3114393,E,2,4,4.1,-2.661,M,40.592,M,1.9,0123*5E
$GPVTG,066.45,T,-573.45,M,002.354,N,004.359,K,D*01
$GPGGA,092529.10,5702.9322352,N,00949.3114907,E,2,4,4.1,-2.662,M,40.592,M,1.9,0123*58
$GPVTG,067.48,T,-572.42,M,002.335,N,004.325,K,D*07
$GPGGA,092529.15,5702.9322460,N,00949.3115389,E,2,4,4.1,-2.668,M,40.592,M,1.9,0123*5C
$GPVTG,068.40,T,-571.50,M,002.301,N,004.262,K,D*05
$GPGGA,092529.20,5702.9322568,N,00949.3115929,E,2,4,4.1,-2.673,M,40.592,M,1.9,0123*59
$GPVTG,069.54,T,-570.36,M,002.297,N,004.254,K,D*0B
$GPGGA,092529.25,5702.9322559,N,00949.3116425,E,2,4,4.1,-2.675,M,40.592,M,2.2,0123*52
$GPVTG,071.94,T,-567.96,M,002.246,N,004.159,K,D*00
$GPGGA,092529.30,5702.9322637,N,00949.3116962,E,2,4,4.1,-2.681,M,40.592,M,2.2,0123*58
$GPVTG,073.29,T,-566.61,M,002.239,N,004.147,K,D*0A
$GPGGA,092529.35,5702.9322706,N,00949.3117409,E,2,4,4.1,-2.681,M,40.592,M,2.2,0123*5F
$GPVTG,074.31,T,-565.59,M,002.188,N,004.051,K,D*03
$GPGGA,092529.40,5702.9322769,N,00949.3117886,E,2,4,4.1,-2.682,M,40.592,M,2.2,0123*5C
$GPVTG,075.47,T,-564.43,M,002.154,N,003.989,K,D*03
$GPGGA,092529.45,5702.9322486,N,00949.3118353,E,2,4,4.1,-2.680,M,40.592,M,2.4,0123*53
$GPVTG,078.72,T,-561.18,M,002.092,N,003.874,K,D*0B
$GPGGA,092529.50,5702.9322526,N,00949.3118813,E,2,4,4.1,-2.681,M,40.592,M,2.4,0123*52
$GPVTG,080.06,T,-559.84,M,002.054,N,003.804,K,D*0C
$GPGGA,092529.55,5702.9322574,N,00949.3119353,E,2,4,4.1,-2.684,M,40.592,M,2.4,0123*5B
$GPVTG,081.42,T,-558.48,M,002.062,N,003.819,K,D*05
$GPGGA,092529.60,5702.9322596,N,00949.3119813,E,2,4,4.1,-2.685,M,40.592,M,2.4,0123*5F
$GPVTG,082.84,T,-557.06,M,002.028,N,003.756,K,D*03
$GPGGA,092529.65,5702.9322451,N,00949.3120217,E,2,4,4.1,-2.698,M,40.592,M,2.7,0123*5B
$GPVTG,085.92,T,-553.98,M,001.963,N,003.635,K,D*01
$GPGGA,092529.70,5702.9322456,N,00949.3120648,E,2,4,4.1,-2.703,M,40.592,M,2.7,0123*55
$GPVTG,087.50,T,-552.40,M,001.922,N,003.560,K,D*0F
$GPGGA,092529.75,5702.9322450,N,00949.3121106,E,2,4,4.1,-2.709,M,40.592,M,2.7,0123*50
$GPVTG,089.19,T,-550.71,M,001.901,N,003.520,K,D*09
$GPGGA,092529.80,5702.9322437,N,00949.3121585,E,2,4,4.1,-2.715,M,40.592,M,2.7,0123*59
$GPVTG,090.89,T,-549.01,M,001.893,N,003.506,K,D*09
$GPGGA,092529.85,5702.9322118,N,00949.3122042,E,2,4,4.1,-2.705,M,40.592,M,2.9,0123*56
$GPVTG,094.64,T,-545.26,M,001.863,N,003.451,K,D*0B
$GPGGA,092529.90,5702.9322073,N,00949.3122505,E,2,4,4.1,-2.710,M,40.592,M,2.9,0123*5C
$GPVTG,096.65,T,-543.25,M,001.858,N,003.441,K,D*04
$GPGGA,092529.95,5702.9322011,N,00949.3122875,E,2,4,4.1,-2.712,M,40.592,M,2.9,0123*55
$GPVTG,098.98,T,-540.92,M,001.809,N,003.350,K,D*04
$GPGGA,092530.00,5702.9321955,N,00949.3123249,E,2,4,4.1,-2.709,M,40.592,M,2.9,0123*55
$GPVTG,101.14,T,-538.76,M,001.768,N,003.274,K,D*0B
$GPGGA,092530.05,5702.9321661,N,00949.3123614,E,2,4,4.1,-2.705,M,40.592,M,1.7,0123*55
$GPVTG,105.59,T,-534.31,M,001.745,N,003.232,K,D*04
$GPGGA,092530.10,5702.9321588,N,00949.3124126,E,2,4,4.1,-2.706,M,40.592,M,1.7,0123*57
$GPVTG,107.16,T,-532.74,M,001.788,N,003.312,K,D*08
$GPGGA,092530.15,5702.9321493,N,00949.3124461,E,2,4,4.1,-2.707,M,40.592,M,1.7,0123*5E
$GPVTG,109.82,T,-530.08,M,001.749,N,003.239,K,D*07
$GPGGA,092530.20,5702.9321367,N,00949.3124775,E,2,4,4.1,-2.709,M,40.592,M,1.7,0123*5C
$GPVTG,112.97,T,-526.93,M,001.712,N,003.171,K,D*0D
$GPGGA,092530.25,5702.9321137,N,00949.3125188,E,2,4,4.1,-2.728,M,40.592,M,2.0,0123*5C
$GPVTG,116.42,T,-523.48,M,001.755,N,003.250,K,D*01
$GPGGA,092530.30,5702.9321018,N,00949.3125553,E,2,4,4.1,-2.734,M,40.592,M,2.0,0123*5B
$GPVTG,118.78,T,-521.12,M,001.753,N,003.246,K,D*0A
$GPGGA,092530.35,5702.9320890,N,00949.3125901,E,2,4,4.1,-2.738,M,40.592,M,2.0,0123*50
$GPVTG,121.23,T,-518.67,M,001.749,N,003.239,K,D*05
$GPGGA,092530.40,5702.9320756,N,00949.3126228,E,2,4,4.1,-2.745,M,40.592,M,2.0,0123*5E
$GPVTG,123.77,T,-516.14,M,001.742,N,003.226,K,D*09
$GPGGA,092530.45,5702.9320650,N,00949.3126534,E,2,4,4.1,-2.738,M,40.592,M,2.2,0123*5E
$GPVTG,127.46,T,-512.44,M,001.749,N,003.238,K,D*0A
$GPGGA,092530.50,5702.9320481,N,00949.3126770,E,2,4,4.1,-2.737,M,40.592,M,2.2,0123*59
$GPVTG,131.00,T,-508.90,M,001.729,N,003.201,K,D*01
$GPGGA,092530.55,5702.9320309,N,00949.3127093,E,2,4,4.1,-2.739,M,40.592,M,2.2,0123*5E
$GPVTG,133.32,T,-506.58,M,001.749,N,003.239,K,D*05
$GPGGA,092530.60,5702.9320123,N,00949.3127325,E,2,4,4.1,-2.740,M,40.592,M,2.2,0123*52
$GPVTG,136.62,T,-503.28,M,001.745,N,003.232,K,D*00
$GPGGA,092530.65,5702.9319971,N,00949.3127512,E,2,4,4.1,-2.751,M,40.592,M,2.4,0123*56
$GPVTG,140.03,T,-499.87,M,001.770,N,003.278,K,D*09
$GPGGA,092530.70,5702.9319768,N,00949.3127769,E,2,4,4.1,-2.757,M,40.592,M,2.4,0123*5C
$GPVTG,142.63,T,-497.27,M,001.793,N,003.320,K,D*08
$GPGGA,092530.75,5702.9319556,N,00949.3128020,E,2,4,4.1,-2.766,M,40.592,M,2.4,0123*51
$GPVTG,145.08,T,-494.82,M,001.820,N,003.371,K,D*0D
$GPGGA,092530.80,5702.9319343,N,00949.3128253,E,2,4,4.1,-2.777,M,40.592,M,2.4,0123*5F
$GPVTG,147.48,T,-492.42,M,001.846,N,003.418,K,D*09
$GPGGA,092530.85,5702.9319141,N,00949.3128532,E,2,4,4.1,-2.775,M,40.592,M,2.7,0123*5B
$GPVTG,149.59,T,-490.31,M,001.905,N,003.528,K,D*05
$GPGGA,092530.90,5702.9318913,N,00949.3128775,E,2,4,4.1,-2.782,M,40.592,M,2.7,0123*58
$GPVTG,151.41,T,-488.49,M,001.942,N,003.596,K,D*05
$GPGGA,092530.95,5702.9318660,N,00949.3128975,E,2,4,4.1,-2.786,M,40.592,M,2.7,0123*5C
$GPVTG,153.70,T,-486.20,M,001.979,N,003.666,K,D*00
$GPGGA,092531.00,5702.9318389,N,00949.3129057,E,2,4,4.1,-2.788,M,40.592,M,2.7,0123*55
$GPVTG,157.33,T,-482.57,M,002.002,N,003.707,K,D*07
$GPGGA,092531.05,5702.9318174,N,00949.3129206,E,2,4,4.1,-2.771,M,40.592,M,1.6,0123*52
$GPVTG,159.82,T,-480.08,M,002.053,N,003.802,K,D*05
$GPGGA,092531.10,5702.9317894,N,00949.3129311,E,2,4,4.1,-2.770,M,40.592,M,1.6,0123*58
$GPVTG,162.50,T,-477.40,M,002.093,N,003.877,K,D*08
$GPGGA,092531.15,5702.9317609,N,00949.3129332,E,2,4,4.1,-2.768,M,40.592,M,1.6,0123*5F
$GPVTG,165.90,T,-474.00,M,002.127,N,003.939,K,D*01
$GPGGA,092531.20,5702.9317308,N,00949.3129424,E,2,4,4.1,-2.769,M,40.592,M,1.6,0123*5C
$GPVTG,168.05,T,-471.85,M,002.180,N,004.037,K,D*05
$GPGGA,092531.25,5702.9317232,N,00949.3129408,E,2,4,4.1,-2.784,M,40.592,M,1.9,0123*53
$GPVTG,170.25,T,-469.65,M,002.220,N,004.112,K,D*06
$GPGGA,092531.30,5702.9316941,N,00949.3129502,E,2,4,4.1,-2.786,M,40.592,M,1.9,0123*50
$GPVTG,171.74,T,-468.16,M,002.268,N,004.200,K,D*0A
$GPGGA,092531.35,5702.9316636,N,00949.3129597,E,2,4,4.1,-2.790,M,40.592,M,1.9,0123*51
$GPVTG,173.01,T,-466.89,M,002.321,N,004.299,K,D*0E
$GPGGA,092531.40,5702.9316309,N,00949.3129593,E,2,4,4.1,-2.794,M,40.592,M,1.9,0123*5A
$GPVTG,175.27,T,-464.63,M,002.378,N,004.404,K,D*04
$GPGGA,092531.45,5702.9316099,N,00949.3129650,E,2,4,4.1,-2.795,M,40.592,M,2.1,0123*53
$GPVTG,176.60,T,-463.30,M,002.421,N,004.484,K,D*06
$GPGGA,092531.50,5702.9315766,N,00949.3129665,E,2,4,4.1,-2.801,M,40.592,M,2.1,0123*57
$GPVTG,178.10,T,-461.80,M,002.479,N,004.591,K,D*0E
$GPGGA,092531.55,5702.9315430,N,00949.3129660,E,2,4,4.1,-2.805,M,40.592,M,2.1,0123*53
$GPVTG,179.59,T,-460.31,M,002.536,N,004.697,K,D*06
$GPGGA,092531.60,5702.9315086,N,00949.3129569,E,2,4,4.1,-2.812,M,40.592,M,2.1,0123*50
$GPVTG,181.80,T,-458.10,M,002.595,N,004.807,K,D*03
$GPGGA,092531.65,5702.9314763,N,00949.3129485,E,2,4,4.1,-2.790,M,40.592,M,2.3,0123*5C
$GPVTG,183.91,T,-455.99,M,002.651,N,004.910,K,D*01
$GPGGA,092531.70,5702.9314396,N,00949.3129412,E,2,4,4.1,-2.789,M,40.592,M,2.3,0123*50
$GPVTG,185.31,T,-454.59,M,002.717,N,005.032,K,D*0B
$GPGGA,092531.75,5702.9314035,N,00949.3129302,E,2,4,4.1,-2.789,M,40.592,M,2.3,0123*59
$GPVTG,186.87,T,-453.03,M,002.780,N,005.148,K,D*0F
$GPGGA,092531.80,5702.9313656,N,00949.3129199,E,2,4,4.1,-2.787,M,40.592,M,2.3,0123*59
$GPVTG,188.08,T,-451.82,M,002.847,N,005.273,K,D*02
$GPGGA,092531.85,5702.9313471,N,00949.3129043,E,2,4,4.1,-2.794,M,40.592,M,2.6,0123*5A
$GPVTG,189.31,T,-450.59,M,002.887,N,005.346,K,D*05
$GPGGA,092531.90,5702.9313099,N,00949.3128917,E,2,4,4.1,-2.799,M,40.592,M,2.6,0123*58
$GPVTG,190.37,T,-449.53,M,002.943,N,005.451,K,D*01
$GPGGA,092531.95,5702.9312721,N,00949.3128792,E,2,4,4.1,-2.804,M,40.592,M,2.6,0123*50
$GPVTG,191.22,T,-448.68,M,003.000,N,005.556,K,D*04
$GPGGA,092532.00,5702.9312325,N,00949.3128606,E,2,4,4.1,-2.809,M,40.592,M,2.6,0123*5E
$GPVTG,192.45,T,-447.45,M,003.068,N,005.682,K,D*02
$GPGGA,092532.05,5702.9312159,N,00949.3128522,E,2,4,4.1,-2.799,M,40.592,M,2.8,0123*5F
$GPVTG,192.85,T,-447.05,M,003.081,N,005.706,K,D*00
$GPGGA,092532.10,5702.9311748,N,00949.3128365,E,2,4,4.1,-2.800,M,40.592,M,2.8,0123*54
$GPVTG,193.49,T,-446.41,M,003.143,N,005.822,K,D*06
$GPGGA,092532.15,5702.9311344,N,00949.3128098,E,2,4,4.1,-2.801,M,40.592,M,2.8,0123*59
$GPVTG,194.99,T,-444.91,M,003.213,N,005.950,K,D*01
$GPGGA,092532.20,5702.9310926,N,00949.3127860,E,2,4,4.1,-2.799,M,40.592,M,2.8,0123*5E
$GPVTG,195.97,T,-443.93,M,003.281,N,006.076,K,D*0E
$GPGGA,092532.25,5702.9310841,N,00949.3127549,E,2,4,4.1,-2.805,M,40.592,M,3.0,0123*5E
$GPVTG,197.54,T,-442.36,M,003.302,N,006.115,K,D*03
$GPGGA,092532.30,5702.9310422,N,00949.3127185,E,2,4,4.1,-2.807,M,40.592,M,3.0,0123*55
$GPVTG,199.24,T,-440.66,M,003.381,N,006.262,K,D*05
$GPGGA,092532.35,5702.9310015,N,00949.3126874,E,2,4,4.1,-2.809,M,40.592,M,3.0,0123*58
$GPVTG,200.27,T,-439.63,M,003.442,N,006.375,K,D*01
$GPGGA,092532.40,5702.9309598,N,00949.3126553,E,2,4,4.1,-2.813,M,40.592,M,3.0,0123*51
$GPVTG,201.18,T,-438.72,M,003.505,N,006.492,K,D*01
$GPGGA,092532.45,5702.9309631,N,00949.3126159,E,2,4,4.1,-2.808,M,40.592,M,3.2,0123*52
$GPVTG,202.57,T,-437.33,M,003.500,N,006.482,K,D*07
$GPGGA,092532.50,5702.9309211,N,00949.3125873,E,2,4,4.1,-2.812,M,40.592,M,3.2,0123*59
$GPVTG,202.91,T,-436.99,M,003.546,N,006.566,K,D*05
$GPGGA,092532.55,5702.9308782,N,00949.3125502,E,2,4,4.1,-2.817,M,40.592,M,3.2,0123*5C
$GPVTG,203.76,T,-436.14,M,003.609,N,006.684,K,D*0F
$GPGGA,092532.60,5702.9308354,N,00949.3125117,E,2,4,4.1,-2.821,M,40.592,M,3.2,0123*50
$GPVTG,204.57,T,-435.33,M,003.671,N,006.798,K,D*0E
$GPGGA,092532.65,5702.9308241,N,00949.3124719,E,2,4,4.1,-2.805,M,40.592,M,3.4,0123*59
$GPVTG,205.93,T,-433.97,M,003.680,N,006.815,K,D*0B
$GPGGA,092532.70,5702.9307800,N,00949.3124331,E,2,4,4.1,-2.804,M,40.592,M,3.4,0123*52
$GPVTG,206.44,T,-433.46,M,003.735,N,006.917,K,D*02
$GPGGA,092532.75,5702.9307364,N,00949.3123892,E,2,4,4.1,-2.802,M,40.592,M,3.4,0123*5D
$GPVTG,207.21,T,-432.69,M,003.795,N,007.029,K,D*03
$GPGGA,092532.80,5702.9306938,N,00949.3123361,E,2,4,4.1,-2.800,M,40.592,M,3.4,0123*50
$GPVTG,208.47,T,-431.43,M,003.869,N,007.166,K,D*01
$GPGGA,092532.85,5702.9306982,N,00949.3122804,E,2,4,4.1,-2.802,M,40.592,M,3.6,0123*5D
$GPVTG,210.02,T,-429.88,M,003.861,N,007.151,K,D*0B
$GPGGA,092532.90,5702.9306549,N,00949.3122331,E,2,4,4.1,-2.804,M,40.592,M,3.6,0123*59
$GPVTG,210.59,T,-429.31,M,003.911,N,007.244,K,D*06
$GPGGA,092532.95,5702.9306114,N,00949.3121824,E,2,4,4.1,-2.807,M,40.592,M,3.6,0123*5F
$GPVTG,211.25,T,-428.65,M,003.967,N,007.347,K,D*0F
$GPGGA,092533.00,5702.9305680,N,00949.3121287,E,2,4,4.1,-2.808,M,40.592,M,3.6,0123*57
$GPVTG,211.97,T,-427.93,M,004.025,N,007.454,K,D*0D
$GPGGA,092533.05,5702.9305700,N,00949.3120760,E,2,4,4.1,-2.798,M,40.592,M,1.9,0123*5D
$GPVTG,213.23,T,-426.67,M,003.997,N,007.403,K,D*0F
$GPGGA,092533.10,5702.9305270,N,00949.3120174,E,2,4,4.1,-2.800,M,40.592,M,1.9,0123*56
$GPVTG,214.07,T,-425.83,M,004.055,N,007.511,K,D*05
$GPGGA,092533.15,5702.9304838,N,00949.3119618,E,2,4,4.1,-2.803,M,40.592,M,1.9,0123*50
$GPVTG,214.57,T,-425.33,M,004.101,N,007.596,K,D*04
$GPGGA,092533.20,5702.9304402,N,00949.3119039,E,2,4,4.1,-2.807,M,40.592,M,1.9,0123*52
$GPVTG,215.10,T,-424.80,M,004.151,N,007.687,K,D*09
$GPGGA,092533.25,5702.9304409,N,00949.3118427,E,2,4,4.1,-2.804,M,40.592,M,2.2,0123*5D
$GPVTG,216.55,T,-423.35,M,004.123,N,007.635,K,D*0E
$GPGGA,092533.30,5702.9303980,N,00949.3117827,E,2,4,4.1,-2.806,M,40.592,M,2.2,0123*53
$GPVTG,217.04,T,-422.86,M,004.163,N,007.710,K,D*00
$GPGGA,092533.35,5702.9303553,N,00949.3117126,E,2,4,4.1,-2.809,M,40.592,M,2.2,0123*53
$GPVTG,217.98,T,-421.92,M,004.231,N,007.835,K,D*0F
$GPGGA,092533.40,5702.9303143,N,00949.3116506,E,2,4,4.1,-2.813,M,40.592,M,2.2,0123*58
$GPVTG,218.43,T,-421.47,M,004.260,N,007.890,K,D*05
$GPGGA,092533.45,5702.9303159,N,00949.3115892,E,2,4,4.1,-2.794,M,40.592,M,2.4,0123*53
$GPVTG,219.67,T,-420.23,M,004.206,N,007.790,K,D*0E
$GPGGA,092533.50,5702.9302756,N,00949.3115228,E,2,4,4.1,-2.791,M,40.592,M,2.4,0123*51
$GPVTG,220.25,T,-419.65,M,004.237,N,007.846,K,D*0C
$GPGGA,092533.55,5702.9302345,N,00949.3114518,E,2,4,4.1,-2.791,M,40.592,M,2.4,0123*57
$GPVTG,220.93,T,-418.97,M,004.283,N,007.933,K,D*01
$GPGGA,092533.60,5702.9301921,N,00949.3113801,E,2,4,4.1,-2.792,M,40.592,M,2.4,0123*5B
$GPVTG,221.49,T,-418.41,M,004.331,N,008.021,K,D*01
$GPGGA,092533.65,5702.9301998,N,00949.3113072,E,2,4,4.1,-2.790,M,40.592,M,2.7,0123*51
$GPVTG,223.06,T,-416.84,M,004.291,N,007.948,K,D*0D
$GPGGA,092533.70,5702.9301599,N,00949.3112287,E,2,4,4.1,-2.789,M,40.592,M,2.7,0123*59
$GPVTG,223.89,T,-416.01,M,004.345,N,008.047,K,D*06
$GPGGA,092533.75,5702.9301218,N,00949.3111615,E,2,4,4.1,-2.788,M,40.592,M,2.7,0123*5F
$GPVTG,224.11,T,-415.79,M,004.347,N,008.051,K,D*09
$GPGGA,092533.80,5702.9300823,N,00949.3110830,E,2,4,4.1,-2.786,M,40.592,M,2.7,0123*50
$GPVTG,224.77,T,-415.13,M,004.392,N,008.133,K,D*08
$GPGGA,092533.85,5702.9300996,N,00949.3110019,E,2,4,4.1,-2.786,M,40.592,M,2.9,0123*57
$GPVTG,226.57,T,-413.33,M,004.349,N,008.054,K,D*0A
$GPGGA,092533.90,5702.9300621,N,00949.3109252,E,2,4,4.1,-2.784,M,40.592,M,2.9,0123*57
$GPVTG,227.05,T,-412.85,M,004.369,N,008.092,K,D*08
$GPGGA,092533.95,5702.9300259,N,00949.3108444,E,2,4,4.1,-2.780,M,40.592,M,2.9,0123*5D
$GPVTG,227.69,T,-412.21,M,004.399,N,008.147,K,D*0A
$GPGGA,092534.00,5702.9299884,N,00949.3107653,E,2,4,4.1,-2.779,M,40.592,M,2.9,0123*50
$GPVTG,228.11,T,-411.79,M,004.421,N,008.188,K,D*03
$GPGGA,092534.05,5702.9300088,N,00949.3106779,E,2,4,4.1,-2.764,M,40.592,M,1.7,0123*59
$GPVTG,230.22,T,-409.68,M,004.398,N,008.145,K,D*07
$GPGGA,092534.10,5702.9299731,N,00949.3105955,E,2,4,4.1,-2.766,M,40.592,M,1.7,0123*58
$GPVTG,230.65,T,-409.25,M,004.410,N,008.168,K,D*05
$GPGGA,092534.15,5702.9299416,N,00949.3105177,E,2,4,4.1,-2.764,M,40.592,M,1.7,0123*51
$GPVTG,230.95,T,-408.95,M,004.384,N,008.120,K,D*06
$GPGGA,092534.20,5702.9299109,N,00949.3104342,E,2,4,4.1,-2.764,M,40.592,M,1.7,0123*59
$GPVTG,231.56,T,-408.34,M,004.387,N,008.124,K,D*04
$GPGGA,092534.25,5702.9299485,N,00949.3103386,E,2,4,4.1,-2.778,M,40.592,M,2.0,0123*5B
$GPVTG,233.96,T,-405.94,M,004.340,N,008.037,K,D*05
$GPGGA,092534.30,5702.9299184,N,00949.3102533,E,2,4,4.1,-2.782,M,40.592,M,2.0,0123*57
$GPVTG,234.55,T,-405.35,M,004.339,N,008.035,K,D*0A
$GPGGA,092534.35,5702.9298879,N,00949.3101672,E,2,4,4.1,-2.787,M,40.592,M,2.0,0123*58
$GPVTG,235.08,T,-404.82,M,004.343,N,008.043,K,D*02
$GPGGA,092534.40,5702.9298614,N,00949.3100788,E,2,4,4.1,-2.791,M,40.592,M,2.0,0123*5D
$GPVTG,235.82,T,-404.08,M,004.346,N,008.048,K,D*0C
$GPGGA,092534.45,5702.9298812,N,00949.3099826,E,2,4,4.1,-2.776,M,40.592,M,2.2,0123*51
$GPVTG,237.72,T,-402.18,M,004.288,N,007.941,K,D*0A
$GPGGA,092534.50,5702.9298545,N,00949.3098941,E,2,4,4.1,-2.776,M,40.592,M,2.2,0123*5B
$GPVTG,238.36,T,-401.54,M,004.284,N,007.934,K,D*00
$GPGGA,092534.55,5702.9298296,N,00949.3098024,E,2,4,4.1,-2.776,M,40.592,M,2.2,0123*5D
$GPVTG,239.14,T,-400.76,M,004.292,N,007.949,K,D*0D
$GPGGA,092534.60,5702.9298062,N,00949.3097113,E,2,4,4.1,-2.776,M,40.592,M,2.2,0123*58
$GPVTG,239.88,T,-400.02,M,004.292,N,007.948,K,D*0A
$GPGGA,092534.65,5702.9298377,N,00949.3096082,E,2,4,4.1,-2.766,M,40.592,M,2.4,0123*55
$GPVTG,242.08,T,-397.82,M,004.259,N,007.888,K,D*05
$GPGGA,092534.70,5702.9298121,N,00949.3095164,E,2,4,4.1,-2.774,M,40.592,M,2.4,0123*59
$GPVTG,242.61,T,-397.29,M,004.260,N,007.889,K,D*00
$GPGGA,092534.75,5702.9297890,N,00949.3094226,E,2,4,4.1,-2.780,M,40.592,M,2.4,0123*5F
$GPVTG,243.29,T,-396.61,M,004.263,N,007.896,K,D*0D
$GPGGA,092534.80,5702.9297710,N,00949.3093278,E,2,4,4.1,-2.779,M,40.592,M,2.4,0123*58
$GPVTG,244.18,T,-395.72,M,004.261,N,007.891,K,D*0C
$GPGGA,092534.85,5702.9298044,N,00949.3092249,E,2,4,4.1,-2.781,M,40.592,M,2.7,0123*53
$GPVTG,246.37,T,-393.53,M,004.231,N,007.835,K,D*0D
$GPGGA,092534.90,5702.9297859,N,00949.3091317,E,2,4,4.1,-2.785,M,40.592,M,2.7,0123*51
$GPVTG,247.10,T,-392.80,M,004.213,N,007.803,K,D*03
$GPGGA,092534.95,5702.9297687,N,00949.3090298,E,2,4,4.1,-2.787,M,40.592,M,2.7,0123*5C
$GPVTG,248.09,T,-391.81,M,004.241,N,007.854,K,D*03
$GPGGA,092535.00,5702.9297493,N,00949.3089378,E,2,4,4.1,-2.791,M,40.592,M,2.7,0123*56
$GPVTG,248.59,T,-391.31,M,004.216,N,007.809,K,D*07
$GPGGA,092535.05,5702.9297953,N,00949.3088346,E,2,4,4.1,-2.785,M,40.592,M,1.6,0123*59
$GPVTG,249.78,T,-390.12,M,004.206,N,007.789,K,D*03
$GPGGA,092535.10,5702.9297942,N,00949.3087323,E,2,4,4.1,-2.785,M,40.592,M,1.6,0123*51
$GPVTG,250.91,T,-388.99,M,004.219,N,007.814,K,D*03
$GPGGA,092535.15,5702.9297915,N,00949.3086321,E,2,4,4.1,-2.786,M,40.592,M,1.6,0123*56
$GPVTG,251.93,T,-387.97,M,004.223,N,007.821,K,D*0E
$GPGGA,092535.20,5702.9297887,N,00949.3085337,E,2,4,4.1,-2.789,M,40.592,M,1.6,0123*51
$GPVTG,252.91,T,-386.99,M,004.213,N,007.802,K,D*02
$GPGGA,092535.25,5702.9297928,N,00949.3084337,E,2,4,4.1,-2.766,M,40.592,M,1.9,0123*5F
$GPVTG,254.13,T,-385.77,M,004.193,N,007.765,K,D*08
$GPGGA,092535.30,5702.9297914,N,00949.3083339,E,2,4,4.1,-2.764,M,40.592,M,1.9,0123*5F
$GPVTG,255.20,T,-384.70,M,004.177,N,007.735,K,D*00
$GPGGA,092535.35,5702.9297893,N,00949.3082360,E,2,4,4.1,-2.763,M,40.592,M,1.9,0123*5E
$GPVTG,256.19,T,-383.71,M,004.141,N,007.670,K,D*0A
$GPGGA,092535.40,5702.9297869,N,00949.3081360,E,2,4,4.1,-2.761,M,40.592,M,1.9,0123*58
$GPVTG,257.24,T,-382.66,M,004.118,N,007.626,K,D*0D
$GPGGA,092535.45,5702.9298189,N,00949.3080329,E,2,4,4.1,-2.764,M,40.592,M,2.1,0123*57
$GPVTG,258.91,T,-380.99,M,004.103,N,007.599,K,D*03
$GPGGA,092535.50,5702.9298275,N,00949.3079334,E,2,4,4.1,-2.762,M,40.592,M,2.1,0123*5F
$GPVTG,260.54,T,-379.36,M,004.063,N,007.525,K,D*02
$GPGGA,092535.55,5702.9298310,N,00949.3078388,E,2,4,4.1,-2.763,M,40.592,M,2.1,0123*5F
$GPVTG,261.86,T,-378.04,M,003.979,N,007.369,K,D*07
$GPGGA,092535.60,5702.9298387,N,00949.3077386,E,2,4,4.1,-2.767,M,40.592,M,2.1,0123*52
$GPVTG,263.61,T,-376.29,M,003.962,N,007.338,K,D*03
$GPGGA,092535.65,5702.9298670,N,00949.3076356,E,2,4,4.1,-2.764,M,40.592,M,2.3,0123*57
$GPVTG,265.45,T,-374.45,M,003.952,N,007.320,K,D*01
$GPGGA,092535.70,5702.9298724,N,00949.3075366,E,2,4,4.1,-2.765,M,40.592,M,2.3,0123*52
$GPVTG,267.13,T,-372.77,M,003.930,N,007.278,K,D*0F
$GPGGA,092535.75,5702.9298968,N,00949.3074384,E,2,4,4.1,-2.765,M,40.592,M,2.3,0123*5C
$GPVTG,270.24,T,-369.66,M,003.904,N,007.230,K,D*0C
$GPGGA,092535.80,5702.9299020,N,00949.3073402,E,2,4,4.1,-2.768,M,40.592,M,2.3,0123*51
$GPVTG,271.83,T,-368.07,M,003.888,N,007.201,K,D*01
$GPGGA,092535.85,5702.9299263,N,00949.3072440,E,2,4,4.1,-2.762,M,40.592,M,2.6,0123*59
$GPVTG,274.43,T,-365.47,M,003.858,N,007.144,K,D*0E
$GPGGA,092535.90,5702.9299380,N,00949.3071470,E,2,4,4.1,-2.760,M,40.592,M,2.6,0123*53
$GPVTG,276.48,T,-363.42,M,003.851,N,007.132,K,D*0C
$GPGGA,092535.95,5702.9299452,N,00949.3070491,E,2,4,4.1,-2.761,M,40.592,M,2.6,0123*51
$GPVTG,277.94,T,-361.96,M,003.859,N,007.146,K,D*0C
$GPGGA,092536.00,5702.9299549,N,00949.3069503,E,2,4,4.1,-2.765,M,40.592,M,2.6,0123*53
$GPVTG,279.49,T,-360.41,M,003.881,N,007.188,K,D*0E
$GPGGA,092536.05,5702.9299740,N,00949.3068600,E,2,4,4.1,-2.772,M,40.592,M,2.8,0123*54
$GPVTG,281.58,T,-358.32,M,003.837,N,007.107,K,D*0C
$GPGGA,092536.10,5702.9299859,N,00949.3067637,E,2,4,4.1,-2.782,M,40.592,M,2.8,0123*53
$GPVTG,283.10,T,-356.80,M,003.851,N,007.132,K,D*03
$GPGGA,092536.15,5702.9300043,N,00949.3066698,E,2,4,4.1,-2.789,M,40.592,M,2.8,0123*5B
$GPVTG,285.24,T,-354.66,M,003.856,N,007.140,K,D*0A
$GPGGA,092536.20,5702.9300115,N,00949.3065804,E,2,4,4.1,-2.795,M,40.592,M,2.8,0123*5A
$GPVTG,286.17,T,-353.73,M,003.798,N,007.034,K,D*05
$GPGGA,092536.25,5702.9300236,N,00949.3064943,E,2,4,4.1,-2.810,M,40.592,M,3.0,0123*55
$GPVTG,287.35,T,-352.55,M,003.755,N,006.954,K,D*0E
$GPGGA,092536.30,5702.9300390,N,00949.3064054,E,2,4,4.1,-2.822,M,40.592,M,3.0,0123*52
$GPVTG,288.85,T,-351.05,M,003.727,N,006.902,K,D*0A
$GPGGA,092536.35,5702.9300567,N,00949.3063192,E,2,4,4.1,-2.834,M,40.592,M,3.0,0123*52
$GPVTG,290.68,T,-349.22,M,003.690,N,006.834,K,D*05
$GPGGA,092536.40,5702.9300714,N,00949.3062358,E,2,4,4.1,-2.844,M,40.592,M,3.0,0123*54
$GPVTG,291.88,T,-348.02,M,003.625,N,006.714,K,D*0A
$GPGGA,092536.45,5702.9300741,N,00949.3061624,E,2,4,4.1,-2.862,M,40.592,M,3.2,0123*5A
$GPVTG,293.01,T,-346.89,M,003.532,N,006.542,K,D*00
$GPGGA,092536.50,5702.9300936,N,00949.3060880,E,2,4,4.1,-2.869,M,40.592,M,3.2,0123*5A
$GPVTG,295.31,T,-344.59,M,003.428,N,006.349,K,D*0D
$GPGGA,092536.55,5702.9301154,N,00949.3060152,E,2,4,4.1,-2.879,M,40.592,M,3.2,0123*55
$GPVTG,297.79,T,-342.11,M,003.352,N,006.208,K,D*07
$GPGGA,092536.60,5702.9301391,N,00949.3059385,E,2,4,4.1,-2.882,M,40.592,M,3.2,0123*5E
$GPVTG,299.78,T,-340.12,M,003.353,N,006.210,K,D*01
$GPGGA,092536.65,5702.9301441,N,00949.3058674,E,2,4,4.1,-2.860,M,40.592,M,3.4,0123*51
$GPVTG,300.68,T,-339.22,M,003.310,N,006.131,K,D*0B
$GPGGA,092536.70,5702.9301656,N,00949.3057963,E,2,4,4.1,-2.858,M,40.592,M,3.4,0123*5C
$GPVTG,302.27,T,-337.63,M,003.272,N,006.060,K,D*09
$GPGGA,092536.75,5702.9301868,N,00949.3057313,E,2,4,4.1,-2.855,M,40.592,M,3.4,0123*5A
$GPVTG,304.22,T,-335.68,M,003.191,N,005.909,K,D*08
$GPGGA,092536.80,5702.9302043,N,00949.3056641,E,2,4,4.1,-2.856,M,40.592,M,3.4,0123*52
$GPVTG,305.07,T,-334.83,M,003.136,N,005.808,K,D*07
$GPGGA,092536.85,5702.9301966,N,00949.3056124,E,2,4,4.1,-2.884,M,40.592,M,3.6,0123*53
$GPVTG,305.11,T,-334.79,M,003.096,N,005.735,K,D*0F
$GPGGA,092536.90,5702.9302229,N,00949.3055551,E,2,4,4.1,-2.884,M,40.592,M,3.6,0123*51
$GPVTG,307.97,T,-331.93,M,003.023,N,005.599,K,D*08
$GPGGA,092536.95,5702.9302510,N,00949.3054945,E,2,4,4.1,-2.880,M,40.592,M,3.6,0123*55
$GPVTG,310.13,T,-329.77,M,003.020,N,005.593,K,D*08
$GPGGA,092537.00,5702.9302761,N,00949.3054292,E,2,4,4.1,-2.882,M,40.592,M,3.6,0123*5F
$GPVTG,310.74,T,-329.16,M,003.055,N,005.658,K,D*08
$GPGGA,092537.05,5702.9302797,N,00949.3053726,E,2,4,4.1,-2.852,M,40.592,M,1.9,0123*5E
$GPVTG,311.48,T,-328.42,M,002.991,N,005.539,K,D*02
$GPGGA,092537.10,5702.9303101,N,00949.3053038,E,1,3,4.1,-2.844,M,40.592,M,,*7F
$GPVTG,311.73,T,-328.17,M,003.106,N,005.751,K,A*04
$GPGGA,092537.15,5702.9303370,N,00949.3052401,E,1,3,4.1,-2.838,M,40.592,M,,*7A
$GPVTG,312.22,T,-327.68,M,003.144,N,005.823,K,A*08
$GPGGA,092537.20,5702.9303651,N,00949.3051742,E,1,3,4.1,-2.834,M,40.592,M,,*71
$GPVTG,312.43,T,-327.47,M,003.207,N,005.940,K,A*02
$GPGGA,092537.25,5702.9303817,N,00949.3051181,E,1,3,4.1,-2.829,M,40.592,M,,*7D
$GPVTG,313.15,T,-326.75,M,003.218,N,005.960,K,A*0C
$GPGGA,092537.30,5702.9304108,N,00949.3050522,E,1,3,4.1,-2.826,M,40.592,M,,*7A
$GPVTG,313.22,T,-326.68,M,003.285,N,006.083,K,A*07
$GPGGA,092537.35,5702.9304412,N,00949.3049868,E,1,3,4.1,-2.823,M,40.592,M,,*7F
$GPVTG,313.46,T,-326.44,M,003.346,N,006.196,K,A*00
$GPGGA,092537.40,5702.9304690,N,00949.3049201,E,1,3,4.1,-2.822,M,40.592,M,,*71
$GPVTG,313.34,T,-326.56,M,003.401,N,006.299,K,A*0E
$GPGGA,092537.45,5702.9304523,N,00949.3048685,E,1,3,4.1,-2.823,M,40.592,M,,*77
$GPVTG,313.15,T,-326.75,M,003.398,N,006.293,K,A*01
$GPGGA,092537.50,5702.9304830,N,00949.3048017,E,1,3,4.1,-2.825,M,40.592,M,,*77
$GPVTG,313.17,T,-326.73,M,003.456,N,006.401,K,A*0D
$GPGGA,092537.55,5702.9305147,N,00949.3047327,E,1,3,4.1,-2.826,M,40.592,M,,*76
$GPVTG,313.03,T,-326.87,M,003.527,N,006.532,K,A*05
$GPGGA,092537.60,5702.9305468,N,00949.3046653,E,1,3,4.1,-2.827,M,40.592,M,,*7E
$GPVTG,313.16,T,-326.74,M,003.578,N,006.626,K,A*01
$GPGGA,092537.65,5702.9304719,N,00949.3046230,E,1,3,4.1,-2.809,M,40.592,M,,*72
$GPVTG,312.41,T,-327.49,M,003.467,N,006.420,K,A*06
$GPGGA,092537.70,5702.9304975,N,00949.3045563,E,1,3,4.1,-2.809,M,40.592,M,,*70
$GPVTG,312.04,T,-327.86,M,003.479,N,006.443,K,A*0E
$GPGGA,092537.75,5702.9305258,N,00949.3044871,E,1,3,4.1,-2.807,M,40.592,M,,*71
$GPVTG,311.64,T,-328.26,M,003.519,N,006.517,K,A*09
$GPGGA,092537.80,5702.9305592,N,00949.3044251,E,1,3,4.1,-2.805,M,40.592,M,,*70
$GPVTG,312.52,T,-327.38,M,003.517,N,006.513,K,A*05
$GPGGA,092537.85,5702.9304870,N,00949.3043846,E,1,3,4.1,-2.802,M,40.592,M,,*79
$GPVTG,310.19,T,-329.71,M,003.359,N,006.220,K,A*00
$GPGGA,092537.90,5702.9305158,N,00949.3043263,E,1,3,4.1,-2.800,M,40.592,M,,*70
$GPVTG,311.04,T,-328.86,M,003.314,N,006.138,K,A*07
$GPGGA,092537.95,5702.9305450,N,00949.3042619,E,1,3,4.1,-2.795,M,40.592,M,,*73
$GPVTG,311.16,T,-328.74,M,003.323,N,006.155,K,A*06
$GPGGA,092538.00,5702.9305745,N,00949.3042017,E,1,3,4.1,-2.794,M,40.592,M,,*7E
$GPVTG,311.75,T,-328.15,M,003.302,N,006.115,K,A*03
$GPGGA,092538.05,5702.9305033,N,00949.3041566,E,1,3,4.1,-2.786,M,40.592,M,,*7E
$GPVTG,309.12,T,-330.78,M,003.107,N,005.754,K,A*0E
$GPGGA,092538.10,5702.9305302,N,00949.3040923,E,1,3,4.1,-2.784,M,40.592,M,,*75
$GPVTG,308.94,T,-330.96,M,003.121,N,005.779,K,A*0A
$GPGGA,092538.15,5702.9305563,N,00949.3040389,E,1,3,4.1,-2.785,M,40.592,M,,*7A
$GPVTG,309.98,T,-329.92,M,003.044,N,005.638,K,A*0D
$GPGGA,092538.20,5702.9305826,N,00949.3039811,E,1,3,4.1,-2.783,M,40.592,M,,*72
$GPVTG,310.35,T,-329.55,M,003.015,N,005.584,K,A*09
$GPGGA,092538.25,5702.9305151,N,00949.3039284,E,1,3,4.1,-2.778,M,40.592,M,,*7C
$GPVTG,306.13,T,-333.77,M,002.904,N,005.377,K,A*03
$GPGGA,092538.30,5702.9305387,N,00949.3038728,E,1,3,4.1,-2.773,M,40.592,M,,*78
$GPVTG,306.57,T,-333.33,M,002.852,N,005.282,K,A*0A
$GPGGA,092538.35,5702.9305616,N,00949.3038188,E,1,3,4.1,-2.771,M,40.592,M,,*7E
$GPVTG,307.05,T,-332.85,M,002.793,N,005.174,K,A*08
$GPGGA,092538.40,5702.9305833,N,00949.3037655,E,1,3,4.1,-2.764,M,40.592,M,,*79
$GPVTG,307.39,T,-332.51,M,002.734,N,005.063,K,A*04
$GPGGA,092538.45,5702.9305373,N,00949.3037211,E,1,3,4.1,-2.762,M,40.592,M,,*71
$GPVTG,304.43,T,-335.47,M,002.564,N,004.749,K,A*03
$GPGGA,092538.50,5702.9305576,N,00949.3036647,E,1,3,4.1,-2.756,M,40.592,M,,*77
$GPVTG,304.05,T,-335.85,M,002.552,N,004.726,K,A*03
$GPGGA,092538.55,5702.9305770,N,00949.3036080,E,1,3,4.1,-2.755,M,40.592,M,,*78
$GPVTG,303.51,T,-336.39,M,002.542,N,004.708,K,A*0C
$GPGGA,092538.60,5702.9305969,N,00949.3035501,E,1,3,4.1,-2.748,M,40.592,M,,*7B
$GPVTG,302.90,T,-337.00,M,002.548,N,004.718,K,A*00
$GPGGA,092538.65,5702.9305710,N,00949.3035023,E,1,3,4.1,-2.741,M,40.592,M,,*72
$GPVTG,300.34,T,-339.56,M,002.442,N,004.522,K,A*01
$GPGGA,092538.70,5702.9305870,N,00949.3034502,E,1,3,4.1,-2.737,M,40.592,M,,*79
$GPVTG,299.95,T,-339.95,M,002.395,N,004.435,K,A*0E
$GPGGA,092538.75,5702.9306027,N,00949.3034002,E,1,3,4.1,-2.737,M,40.592,M,,*70
$GPVTG,299.77,T,-340.13,M,002.336,N,004.326,K,A*0E
$GPGGA,092538.80,5702.9306188,N,00949.3033442,E,1,3,4.1,-2.733,M,40.592,M,,*7D
$GPVTG,298.85,T,-341.05,M,002.341,N,004.336,K,A*05
$GPGGA,092538.85,5702.9305692,N,00949.3033001,E,1,3,4.1,-2.735,M,40.592,M,,*72
$GPVTG,295.37,T,-344.53,M,002.258,N,004.182,K,A*03
$GPGGA,092538.90,5702.9305824,N,00949.3032464,E,1,3,4.1,-2.732,M,40.592,M,,*74
$GPVTG,294.46,T,-345.44,M,002.245,N,004.157,K,A*07
$GPGGA,092538.95,5702.9305954,N,00949.3031936,E,1,3,4.1,-2.731,M,40.592,M,,*7D
$GPVTG,293.66,T,-346.24,M,002.226,N,004.123,K,A*01
$GPGGA,092539.00,5702.9306070,N,00949.3031417,E,1,3,4.1,-2.728,M,40.592,M,,*7A
$GPVTG,292.79,T,-347.11,M,002.199,N,004.073,K,A*0A
$GPGGA,092539.05,5702.9305843,N,00949.3031012,E,1,3,4.1,-2.728,M,40.592,M,,*75
$GPVTG,290.43,T,-349.47,M,002.069,N,003.831,K,A*0B
$GPGGA,092539.10,5702.9305944,N,00949.3030492,E,1,3,4.1,-2.729,M,40.592,M,,*7B
$GPVTG,289.29,T,-350.61,M,002.063,N,003.820,K,A*09
$GPGGA,092539.15,5702.9306034,N,00949.3029973,E,1,3,4.1,-2.725,M,40.592,M,,*75
$GPVTG,288.05,T,-351.85,M,002.056,N,003.808,K,A*01
$GPGGA,092539.20,5702.9306119,N,00949.3029466,E,1,3,4.1,-2.724,M,40.592,M,,*75
$GPVTG,286.90,T,-353.00,M,002.039,N,003.777,K,A*02
$GPGGA,092539.25,5702.9305712,N,00949.3029063,E,1,3,4.1,-2.701,M,40.592,M,,*78
$GPVTG,283.36,T,-356.54,M,001.976,N,003.659,K,A*03
$GPGGA,092539.30,5702.9305768,N,00949.3028585,E,1,3,4.1,-2.694,M,40.592,M,,*70
$GPVTG,282.03,T,-357.87,M,001.942,N,003.597,K,A*0D
$GPGGA,092539.35,5702.9305821,N,00949.3028112,E,1,3,4.1,-2.688,M,40.592,M,,*70
$GPVTG,280.74,T,-359.16,M,001.911,N,003.539,K,A*0B
$GPGGA,092539.40,5702.9305863,N,00949.3027641,E,1,3,4.1,-2.683,M,40.592,M,,*71
$GPVTG,279.31,T,-360.59,M,001.881,N,003.484,K,A*02
$GPGGA,092539.45,5702.9305768,N,00949.3027147,E,1,3,4.1,-2.704,M,40.592,M,,*7F
$GPVTG,276.40,T,-363.50,M,001.905,N,003.529,K,A*0A
$GPGGA,092539.50,5702.9305806,N,00949.3026672,E,1,3,4.1,-2.701,M,40.592,M,,*79
$GPVTG,275.20,T,-364.70,M,001.884,N,003.489,K,A*09
$GPGGA,092539.55,5702.9305836,N,00949.3026195,E,1,3,4.1,-2.699,M,40.592,M,,*71
$GPVTG,273.91,T,-365.99,M,001.870,N,003.463,K,A*0C
$GPGGA,092539.60,5702.9305839,N,00949.3025792,E,1,3,4.1,-2.695,M,40.592,M,,*76
$GPVTG,272.21,T,-367.69,M,001.781,N,003.299,K,A*09
$GPGGA,092539.65,5702.9305957,N,00949.3025268,E,1,3,4.1,-2.687,M,40.592,M,,*79
$GPVTG,271.11,T,-368.79,M,001.851,N,003.429,K,A*08
$GPGGA,092539.70,5702.9305962,N,00949.3024794,E,1,3,4.1,-2.684,M,40.592,M,,*7F
$GPVTG,269.65,T,-370.25,M,001.847,N,003.420,K,A*0C
$GPGGA,092539.75,5702.9305961,N,00949.3024364,E,1,3,4.1,-2.681,M,40.592,M,,*77
$GPVTG,268.15,T,-371.75,M,001.800,N,003.333,K,A*08
$GPGGA,092539.80,5702.9305955,N,00949.3023906,E,1,3,4.1,-2.680,M,40.592,M,,*72
$GPVTG,266.67,T,-373.23,M,001.790,N,003.316,K,A*03
$GPGGA,092539.85,5702.9306102,N,00949.3023496,E,1,3,4.1,-2.697,M,40.592,M,,*7C
$GPVTG,266.69,T,-373.21,M,001.782,N,003.300,K,A*0B
$GPGGA,092539.90,5702.9306092,N,00949.3023046,E,1,3,4.1,-2.694,M,40.592,M,,*7A
$GPVTG,265.35,T,-374.55,M,001.771,N,003.280,K,A*00
$GPGGA,092539.95,5702.9306081,N,00949.3022606,E,1,3,4.1,-2.692,M,40.592,M,,*78
$GPVTG,264.10,T,-375.80,M,001.758,N,003.257,K,A*0E
$GPGGA,092540.00,5702.9306066,N,00949.3022159,E,1,3,4.1,-2.694,M,40.592,M,,*78
$GPVTG,262.89,T,-377.01,M,001.751,N,003.244,K,A*08
$GPGGA,092540.05,5702.9306556,N,00949.3021621,E,1,3,4.1,-2.703,M,40.592,M,,*7F
$GPVTG,265.09,T,-374.81,M,001.747,N,003.236,K,A*0E
$GPGGA,092540.10,5702.9306535,N,00949.3021196,E,1,3,4.1,-2.709,M,40.592,M,,*7F
$GPVTG,263.81,T,-376.09,M,001.729,N,003.203,K,A*04
$GPGGA,092540.15,5702.9306519,N,00949.3020770,E,1,3,4.1,-2.713,M,40.592,M,,*70
$GPVTG,262.78,T,-377.12,M,001.714,N,003.175,K,A*04
$GPGGA,092540.20,5702.9306490,N,00949.3020324,E,1,3,4.1,-2.715,M,40.592,M,,*75
$GPVTG,261.59,T,-378.31,M,001.717,N,003.179,K,A*05
$GPGGA,092540.25,5702.9306607,N,00949.3019800,E,1,3,4.1,-2.702,M,40.592,M,,*7D
$GPVTG,263.06,T,-376.84,M,001.750,N,003.241,K,A*06
$GPGGA,092540.30,5702.9306582,N,00949.3019315,E,1,3,4.1,-2.700,M,40.592,M,,*7A
$GPVTG,262.40,T,-377.50,M,001.809,N,003.350,K,A*0F
$GPGGA,092540.35,5702.9306560,N,00949.3018837,E,1,3,4.1,-2.697,M,40.592,M,,*76
$GPVTG,261.79,T,-378.11,M,001.839,N,003.405,K,A*08
$GPGGA,092540.40,5702.9306523,N,00949.3018414,E,1,3,4.1,-2.701,M,40.592,M,,*70
$GPVTG,260.60,T,-379.30,M,001.802,N,003.338,K,A*02
$GPGGA,092540.45,5702.9306958,N,00949.3017949,E,1,3,4.1,-2.726,M,40.592,M,,*7A
$GPVTG,263.03,T,-376.87,M,001.788,N,003.311,K,A*01
$GPGGA,092540.50,5702.9306933,N,00949.3017510,E,1,3,4.1,-2.729,M,40.592,M,,*7C
$GPVTG,262.32,T,-377.58,M,001.783,N,003.302,K,A*08
$GPGGA,092540.55,5702.9306905,N,00949.3017079,E,1,3,4.1,-2.732,M,40.592,M,,*7C
$GPVTG,261.60,T,-378.30,M,001.774,N,003.286,K,A*08
$GPGGA,092540.60,5702.9306879,N,00949.3016645,E,1,3,4.1,-2.737,M,40.592,M,,*7D
$GPVTG,260.98,T,-378.92,M,001.767,N,003.273,K,A*0E
$GPGGA,092540.65,5702.9307426,N,00949.3016171,E,1,3,4.1,-2.748,M,40.592,M,,*77
$GPVTG,264.53,T,-375.37,M,001.745,N,003.232,K,A*0A
$GPGGA,092540.70,5702.9307406,N,00949.3015743,E,1,3,4.1,-2.753,M,40.592,M,,*7F
$GPVTG,264.02,T,-375.88,M,001.735,N,003.213,K,A*0E
$GPGGA,092540.75,5702.9307386,N,00949.3015328,E,1,3,4.1,-2.758,M,40.592,M,,*77
$GPVTG,263.53,T,-376.37,M,001.718,N,003.182,K,A*0E
$GPGGA,092540.80,5702.9307364,N,00949.3014905,E,1,3,4.1,-2.762,M,40.592,M,,*7C
$GPVTG,263.04,T,-376.86,M,001.707,N,003.161,K,A*05
$GPGGA,092540.85,5702.9307854,N,00949.3014400,E,1,3,4.1,-2.765,M,40.592,M,,*7E
$GPVTG,267.11,T,-372.79,M,001.718,N,003.181,K,A*01
$GPGGA,092540.90,5702.9307847,N,00949.3013976,E,1,3,4.1,-2.771,M,40.592,M,,*76
$GPVTG,266.92,T,-372.98,M,001.705,N,003.157,K,A*03
$GPGGA,092540.95,5702.9307841,N,00949.3013572,E,1,3,4.1,-2.774,M,40.592,M,,*78
$GPVTG,266.74,T,-373.16,M,001.679,N,003.109,K,A*0D
$GPGGA,092541.00,5702.9307836,N,00949.3013151,E,1,3,4.1,-2.778,M,40.592,M,,*7C
$GPVTG,266.63,T,-373.27,M,001.668,N,003.090,K,A*08
$GPGGA,092541.05,5702.9308264,N,00949.3012606,E,1,3,4.1,-2.758,M,40.592,M,,*7D
$GPVTG,270.53,T,-369.37,M,001.711,N,003.170,K,A*06
$GPGGA,092541.10,5702.9308259,N,00949.3012180,E,1,3,4.1,-2.760,M,40.592,M,,*75
$GPVTG,270.29,T,-369.61,M,001.696,N,003.142,K,A*07
$GPGGA,092541.15,5702.9308260,N,00949.3011753,E,1,3,4.1,-2.758,M,40.592,M,,*7A
$GPVTG,270.22,T,-369.68,M,001.687,N,003.124,K,A*05
$GPGGA,092541.20,5702.9308266,N,00949.3011325,E,1,3,4.1,-2.756,M,40.592,M,,*71
$GPVTG,270.28,T,-369.62,M,001.682,N,003.116,K,A*01
$GPGGA,092541.25,5702.9308324,N,00949.3010895,E,1,3,4.1,-2.763,M,40.592,M,,*74
$GPVTG,271.98,T,-367.93,M,001.696,N,003.141,K,A*0C
$GPGGA,092541.30,5702.9308343,N,00949.3010457,E,1,3,4.1,-2.762,M,40.592,M,,*72
$GPVTG,272.31,T,-367.59,M,001.702,N,003.151,K,A*07
$GPGGA,092541.35,5702.9308352,N,00949.3010052,E,1,3,4.1,-2.766,M,40.592,M,,*72
$GPVTG,272.40,T,-367.50,M,001.673,N,003.098,K,A*0B
$GPGGA,092541.40,5702.9308353,N,00949.3009655,E,1,3,4.1,-2.765,M,40.592,M,,*7B
$GPVTG,272.28,T,-367.62,M,001.642,N,003.042,K,A*01
$GPGGA,092541.45,5702.9308417,N,00949.3009223,E,1,3,4.1,-2.762,M,40.592,M,,*7B
$GPVTG,273.03,T,-366.87,M,001.669,N,003.091,K,A*04
$GPGGA,092541.50,5702.9308424,N,00949.3008813,E,1,3,4.1,-2.761,M,40.592,M,,*74
$GPVTG,272.99,T,-366.91,M,001.653,N,003.061,K,A*07
$GPGGA,092541.55,5702.9308436,N,00949.3008422,E,1,3,4.1,-2.760,M,40.592,M,,*7D
$GPVTG,273.13,T,-366.77,M,001.623,N,003.005,K,A*09
$GPGGA,092541.60,5702.9308458,N,00949.3008005,E,1,3,4.1,-2.757,M,40.592,M,,*76
$GPVTG,273.45,T,-366.45,M,001.621,N,003.002,K,A*0E
$GPGGA,092541.65,5702.9308806,N,00949.3007548,E,1,3,4.1,-2.752,M,40.592,M,,*72
$GPVTG,275.16,T,-364.74,M,001.637,N,003.032,K,A*0A
$GPGGA,092541.70,5702.9308822,N,00949.3007132,E,1,3,4.1,-2.748,M,40.592,M,,*72
$GPVTG,275.22,T,-364.68,M,001.634,N,003.026,K,A*06
$GPGGA,092541.75,5702.9308840,N,00949.3006756,E,1,3,4.1,-2.743,M,40.592,M,,*7D
$GPVTG,275.43,T,-364.47,M,001.601,N,002.965,K,A*05
$GPGGA,092541.80,5702.9308859,N,00949.3006299,E,1,3,4.1,-2.741,M,40.592,M,,*7B
$GPVTG,275.44,T,-364.46,M,001.632,N,003.023,K,A*09
$GPGGA,092541.85,5702.9309094,N,00949.3005839,E,1,3,4.1,-2.750,M,40.592,M,,*75
$GPVTG,277.07,T,-362.83,M,001.654,N,003.063,K,A*07
$GPGGA,092541.90,5702.9309126,N,00949.3005478,E,1,3,4.1,-2.753,M,40.592,M,,*73
$GPVTG,277.57,T,-362.33,M,001.613,N,002.987,K,A*08
$GPGGA,092541.95,5702.9309159,N,00949.3005102,E,1,3,4.1,-2.753,M,40.592,M,,*76
$GPVTG,278.00,T,-361.90,M,001.589,N,002.942,K,A*06
$GPGGA,092542.00,5702.9309181,N,00949.3004704,E,1,3,4.1,-2.750,M,40.592,M,,*7E
$GPVTG,278.09,T,-361.81,M,001.581,N,002.928,K,A*0B
$GPGGA,092542.05,5702.9309110,N,00949.3004355,E,1,3,4.1,-2.746,M,40.592,M,,*74
$GPVTG,278.18,T,-361.72,M,001.572,N,002.911,K,A*01
$GPGGA,092542.10,5702.9309137,N,00949.3003987,E,1,3,4.1,-2.742,M,40.592,M,,*73
$GPVTG,278.40,T,-361.50,M,001.548,N,002.867,K,A*05
$GPGGA,092542.15,5702.9309173,N,00949.3003573,E,1,3,4.1,-2.739,M,40.592,M,,*7D
$GPVTG,278.70,T,-361.20,M,001.556,N,002.882,K,A*05
$GPGGA,092542.20,5702.9309217,N,00949.3003113,E,1,3,4.1,-2.739,M,40.592,M,,*78
$GPVTG,278.96,T,-360.94,M,001.591,N,002.946,K,A*01
$GPGGA,092542.25,5702.9309283,N,00949.3002741,E,1,3,4.1,-2.740,M,40.592,M,,*7E
$GPVTG,279.23,T,-360.67,M,001.566,N,002.901,K,A*09
$GPGGA,092542.30,5702.9309315,N,00949.3002343,E,1,3,4.1,-2.737,M,40.592,M,,*72
$GPVTG,279.41,T,-360.49,M,001.564,N,002.897,K,A*0D
$GPGGA,092542.35,5702.9309353,N,00949.3001935,E,1,3,4.1,-2.735,M,40.592,M,,*7F
$GPVTG,279.65,T,-360.25,M,001.568,N,002.905,K,A*07
$GPGGA,092542.40,5702.9309389,N,00949.3001568,E,1,3,4.1,-2.734,M,40.592,M,,*7F
$GPVTG,279.99,T,-359.91,M,001.551,N,002.872,K,A*0A
$GPGGA,092542.45,5702.9309305,N,00949.3001222,E,1,3,4.1,-2.738,M,40.592,M,,*7B
$GPVTG,279.45,T,-360.45,M,001.538,N,002.847,K,A*01
$GPGGA,092542.50,5702.9309341,N,00949.3000845,E,1,3,4.1,-2.737,M,40.592,M,,*7A
$GPVTG,279.74,T,-360.16,M,001.528,N,002.830,K,A*04
