$GPGGA,083034.30,5702.8715973,N,00949.6173426,E,2,5,1.6,-3.404,M,40.592,M,1.7,0123*5F
$GPVTG,289.93,T,-349.97,M,004.826,N,008.938,K,D*00
$GPGGA,083034.35,5702.8716225,N,00949.6172287,E,2,5,1.6,-3.409,M,40.592,M,1.7,0123*50
$GPVTG,289.72,T,-350.18,M,004.818,N,008.923,K,D*07
$GPGGA,083034.40,5702.8716383,N,00949.6171076,E,2,5,1.6,-3.420,M,40.592,M,1.7,0123*5B
$GPVTG,287.76,T,-352.14,M,004.843,N,008.968,K,D*02
$GPGGA,083034.45,5702.8716617,N,00949.6169825,E,2,5,1.6,-3.408,M,40.592,M,1.9,0123*55
$GPVTG,287.07,T,-352.83,M,004.857,N,008.995,K,D*0D
$GPGGA,083034.50,5702.8716782,N,00949.6168625,E,2,5,1.6,-3.414,M,40.592,M,1.9,0123*5E
$GPVTG,285.74,T,-354.16,M,004.870,N,009.019,K,D*08
$GPGGA,083034.55,5702.8717018,N,00949.6167467,E,2,5,1.6,-3.420,M,40.592,M,1.9,0123*52
$GPVTG,285.98,T,-353.92,M,004.860,N,009.000,K,D*08
$GPGGA,083034.60,5702.8717147,N,00949.6166298,E,2,5,1.6,-3.425,M,40.592,M,1.9,0123*5D
$GPVTG,284.43,T,-355.47,M,004.821,N,008.929,K,D*07
$GPGGA,083034.65,5702.8717258,N,00949.6165020,E,2,5,1.6,-3.419,M,40.592,M,2.1,0123*53
$GPVTG,282.30,T,-357.60,M,004.860,N,009.001,K,D*05
$GPGGA,083034.70,5702.8717375,N,00949.6163832,E,2,5,1.6,-3.429,M,40.592,M,2.1,0123*57
$GPVTG,281.04,T,-358.86,M,004.838,N,008.960,K,D*04
$GPGGA,083034.75,5702.8717495,N,00949.6162594,E,2,5,1.6,-3.438,M,40.592,M,2.1,0123*5B
$GPVTG,279.95,T,-359.95,M,004.876,N,009.031,K,D*0E
$GPGGA,083034.80,5702.8717674,N,00949.6161424,E,2,5,1.6,-3.441,M,40.592,M,2.1,0123*5B
$GPVTG,280.23,T,-359.67,M,004.847,N,008.976,K,D*01
$GPGGA,083034.85,5702.8717819,N,00949.6160184,E,2,5,1.6,-3.431,M,40.592,M,2.3,0123*50
$GPVTG,279.67,T,-360.23,M,004.813,N,008.914,K,D*08
$GPGGA,083034.90,5702.8717940,N,00949.6158949,E,2,5,1.6,-3.440,M,40.592,M,2.3,0123*5D
$GPVTG,279.01,T,-360.89,M,004.848,N,008.979,K,D*0D
$GPGGA,083034.95,5702.8718100,N,00949.6157720,E,2,5,1.6,-3.451,M,40.592,M,2.3,0123*55
$GPVTG,279.17,T,-360.73,M,004.877,N,009.033,K,D*05
$GPGGA,083035.00,5702.8718140,N,00949.6156492,E,2,5,1.6,-3.463,M,40.592,M,2.3,0123*56
$GPVTG,277.39,T,-362.51,M,004.876,N,009.030,K,D*07
$GPGGA,083035.05,5702.8718223,N,00949.6155183,E,2,5,1.6,-3.451,M,40.592,M,2.6,0123*57
$GPVTG,276.31,T,-363.59,M,004.885,N,009.046,K,D*0A
$GPGGA,083035.10,5702.8718272,N,00949.6153934,E,2,5,1.6,-3.462,M,40.592,M,2.6,0123*55
$GPVTG,275.13,T,-364.77,M,004.908,N,009.089,K,D*05
$GPGGA,083035.15,5702.8718305,N,00949.6152674,E,2,5,1.6,-3.472,M,40.592,M,2.6,0123*5A
$GPVTG,273.87,T,-366.03,M,004.936,N,009.142,K,D*04
$GPGGA,083035.20,5702.8718341,N,00949.6151458,E,2,5,1.6,-3.480,M,40.592,M,2.6,0123*5E
$GPVTG,272.92,T,-366.98,M,004.912,N,009.097,K,D*0C
$GPGGA,083035.25,5702.8718447,N,00949.6150090,E,2,6,1.6,-3.456,M,40.592,M,2.8,0123*5D
$GPVTG,272.83,T,-367.07,M,004.934,N,009.139,K,D*0A
$GPGGA,083035.30,5702.8718466,N,00949.6148878,E,2,6,1.6,-3.461,M,40.592,M,2.8,0123*59
$GPVTG,271.86,T,-368.04,M,004.898,N,009.071,K,D*0A
$GPGGA,083035.35,5702.8718520,N,00949.6147679,E,2,6,1.6,-3.468,M,40.592,M,2.8,0123*56
$GPVTG,271.67,T,-368.23,M,004.854,N,008.990,K,D*07
$GPGGA,083035.40,5702.8718487,N,00949.6146431,E,2,6,1.6,-3.476,M,40.592,M,2.8,0123*58
$GPVTG,270.07,T,-369.83,M,004.871,N,009.021,K,D*0E
$GPGGA,083035.45,5702.8718550,N,00949.6145184,E,2,5,1.6,-3.471,M,40.592,M,3.0,0123*53
$GPVTG,270.09,T,-369.81,M,004.836,N,008.957,K,D*08
$GPGGA,083035.50,5702.8718555,N,00949.6143936,E,2,5,1.6,-3.479,M,40.592,M,3.0,0123*5D
$GPVTG,269.46,T,-370.44,M,004.857,N,008.996,K,D*00
$GPGGA,083035.55,5702.8718525,N,00949.6142674,E,2,5,1.6,-3.489,M,40.592,M,3.0,0123*58
$GPVTG,268.37,T,-371.53,M,004.893,N,009.061,K,D*08
$GPGGA,083035.60,5702.8718443,N,00949.6141417,E,2,5,1.6,-3.499,M,40.592,M,3.0,0123*5A
$GPVTG,266.63,T,-373.27,M,004.920,N,009.111,K,D*09
$GPGGA,083035.65,5702.8718499,N,00949.6140153,E,2,5,1.6,-3.496,M,40.592,M,3.2,0123*51
$GPVTG,267.22,T,-372.68,M,004.897,N,009.069,K,D*04
$GPGGA,083035.70,5702.8718502,N,00949.6138946,E,2,5,1.6,-3.502,M,40.592,M,3.2,0123*59
$GPVTG,267.15,T,-372.75,M,004.858,N,008.997,K,D*06
$GPGGA,083035.75,5702.8718435,N,00949.6137726,E,2,5,1.6,-3.512,M,40.592,M,3.2,0123*5F
$GPVTG,265.98,T,-373.92,M,004.847,N,008.976,K,D*08
$GPGGA,083035.80,5702.8718381,N,00949.6136511,E,2,5,1.6,-3.526,M,40.592,M,3.2,0123*5D
$GPVTG,265.18,T,-374.72,M,004.832,N,008.950,K,D*0F
$GPGGA,083035.85,5702.8718362,N,00949.6135209,E,2,5,1.6,-3.510,M,40.592,M,3.4,0123*5B
$GPVTG,264.66,T,-375.24,M,004.804,N,008.898,K,D*05
$GPGGA,083035.90,5702.8718333,N,00949.6134003,E,2,5,1.6,-3.518,M,40.592,M,3.4,0123*5A
$GPVTG,264.60,T,-375.30,M,004.784,N,008.860,K,D*06
$GPGGA,083035.95,5702.8718266,N,00949.6132812,E,2,5,1.6,-3.525,M,40.592,M,3.4,0123*5E
$GPVTG,263.89,T,-376.01,M,004.757,N,008.810,K,D*0E
$GPGGA,083036.00,5702.8718167,N,00949.6131601,E,2,5,1.6,-3.531,M,40.592,M,3.4,0123*59
$GPVTG,262.81,T,-377.09,M,004.764,N,008.823,K,D*0E
$GPGGA,083036.05,5702.8718139,N,00949.6130289,E,2,5,1.6,-3.503,M,40.592,M,1.9,0123*5C
$GPVTG,262.70,T,-377.20,M,004.735,N,008.770,K,D*06
$GPGGA,083036.10,5702.8718001,N,00949.6129016,E,2,5,1.6,-3.511,M,40.592,M,1.9,0123*5D
$GPVTG,261.31,T,-378.59,M,004.833,N,008.952,K,D*06
$GPGGA,083036.15,5702.8717825,N,00949.6127789,E,2,5,1.6,-3.516,M,40.592,M,1.9,0123*51
$GPVTG,259.44,T,-380.46,M,004.874,N,009.027,K,D*0F
$GPGGA,083036.20,5702.8717669,N,00949.6126581,E,2,5,1.6,-3.522,M,40.592,M,1.9,0123*5D
$GPVTG,258.15,T,-381.75,M,004.884,N,009.046,K,D*03
$GPGGA,083036.25,5702.8717577,N,00949.6125420,E,2,5,1.6,-3.531,M,40.592,M,2.2,0123*57
$GPVTG,258.17,T,-381.73,M,004.819,N,008.924,K,D*0F
$GPGGA,083036.30,5702.8717450,N,00949.6124278,E,2,5,1.6,-3.539,M,40.592,M,2.2,0123*55
$GPVTG,257.46,T,-382.44,M,004.752,N,008.801,K,D*05
$GPGGA,083036.35,5702.8717300,N,00949.6123095,E,2,5,1.6,-3.547,M,40.592,M,2.2,0123*5D
$GPVTG,256.64,T,-383.26,M,004.755,N,008.806,K,D*01
$GPGGA,083036.40,5702.8717124,N,00949.6121886,E,2,5,1.6,-3.553,M,40.592,M,2.2,0123*56
$GPVTG,255.62,T,-384.28,M,004.796,N,008.883,K,D*0F
$GPGGA,083036.45,5702.8716947,N,00949.6120659,E,2,5,1.6,-3.544,M,40.592,M,2.5,0123*53
$GPVTG,254.35,T,-385.55,M,004.791,N,008.872,K,D*0E
$GPGGA,083036.50,5702.8716803,N,00949.6119504,E,2,5,1.6,-3.553,M,40.592,M,2.5,0123*51
$GPVTG,254.09,T,-385.81,M,004.760,N,008.816,K,D*04
$GPGGA,083036.55,5702.8716564,N,00949.6118349,E,2,5,1.6,-3.561,M,40.592,M,2.5,0123*57
$GPVTG,252.37,T,-387.53,M,004.775,N,008.844,K,D*01
$GPGGA,083036.60,5702.8716333,N,00949.6117252,E,2,5,1.6,-3.569,M,40.592,M,2.5,0123*59
$GPVTG,250.80,T,-389.10,M,004.729,N,008.758,K,D*0D
$GPGGA,083036.65,5702.8716113,N,00949.6115986,E,2,5,1.6,-3.551,M,40.592,M,2.7,0123*55
$GPVTG,249.79,T,-390.11,M,004.777,N,008.847,K,D*00
$GPGGA,083036.70,5702.8715932,N,00949.6114816,E,2,5,1.6,-3.556,M,40.592,M,2.7,0123*57
$GPVTG,249.87,T,-390.03,M,004.791,N,008.874,K,D*0A
$GPGGA,083036.75,5702.8715765,N,00949.6113660,E,2,5,1.6,-3.560,M,40.592,M,2.7,0123*53
$GPVTG,250.17,T,-389.73,M,004.781,N,008.855,K,D*06
$GPGGA,083036.80,5702.8715483,N,00949.6112526,E,2,5,1.6,-3.570,M,40.592,M,2.7,0123*53
$GPVTG,248.53,T,-391.37,M,004.808,N,008.904,K,D*0D
$GPGGA,083036.85,5702.8715186,N,00949.6111421,E,2,5,1.6,-3.575,M,40.592,M,2.9,0123*58
$GPVTG,246.66,T,-393.24,M,004.785,N,008.862,K,D*0E
$GPGGA,083036.90,5702.8714978,N,00949.6110327,E,2,5,1.6,-3.584,M,40.592,M,2.9,0123*5A
$GPVTG,246.56,T,-393.34,M,004.735,N,008.769,K,D*03
$GPGGA,083036.95,5702.8714699,N,00949.6109267,E,2,5,1.6,-3.588,M,40.592,M,2.9,0123*5E
$GPVTG,245.22,T,-394.68,M,004.701,N,008.706,K,D*03
$GPGGA,083037.00,5702.8714410,N,00949.6108137,E,2,5,1.6,-3.595,M,40.592,M,2.9,0123*5B
$GPVTG,244.41,T,-395.49,M,004.754,N,008.805,K,D*09
$GPGGA,083037.05,5702.8714100,N,00949.6107091,E,2,5,1.6,-3.587,M,40.592,M,2.1,0123*53
$GPVTG,242.44,T,-397.46,M,004.678,N,008.664,K,D*01
$GPGGA,083037.10,5702.8713841,N,00949.6106024,E,2,5,1.6,-3.594,M,40.592,M,2.1,0123*51
$GPVTG,242.22,T,-397.68,M,004.661,N,008.633,K,D*07
$GPGGA,083037.15,5702.8713530,N,00949.6104896,E,2,5,1.6,-3.603,M,40.592,M,2.1,0123*51
$GPVTG,241.72,T,-398.18,M,004.744,N,008.786,K,D*00
$GPGGA,083037.20,5702.8713153,N,00949.6103760,E,2,5,1.6,-3.609,M,40.592,M,2.1,0123*5D
$GPVTG,240.45,T,-399.45,M,004.871,N,009.020,K,D*0F
$GPGGA,083037.25,5702.8712905,N,00949.6102706,E,2,5,1.6,-3.586,M,40.592,M,2.4,0123*52
$GPVTG,239.75,T,-400.15,M,004.725,N,008.750,K,D*0F
$GPGGA,083037.30,5702.8712565,N,00949.6101713,E,2,5,1.6,-3.591,M,40.592,M,2.4,0123*5D
$GPVTG,238.47,T,-401.43,M,004.692,N,008.690,K,D*0D
$GPGGA,083037.35,5702.8712262,N,00949.6100642,E,2,5,1.6,-3.593,M,40.592,M,2.4,0123*5E
$GPVTG,238.54,T,-401.36,M,004.
$GPGGA,083043.80,5702.8655319,N,00949.6091752,E,2,5,1.6,-3.851,M,40.592,M,3.2,0123*51
$GPVTG,112.66,T,-527.24,M,003.451,N,006.392,K,D*02
$GPGGA,083043.85,5702.8655156,N,00949.6092517,E,2,5,1.6,-3.854,M,40.592,M,3.4,0123*5E
$GPVTG,110.82,T,-529.08,M,003.400,N,006.297,K,D*0A
$GPGGA,083043.90,5702.8655007,N,00949.6093322,E,2,5,1.6,-3.857,M,40.592,M,3.4,0123*5D
$GPVTG,109.28,T,-530.62,M,003.395,N,006.288,K,D*03
$GPGGA,083043.95,5702.8654815,N,00949.6094145,E,2,5,1.6,-3.863,M,40.592,M,3.4,0123*51
$GPVTG,109.04,T,-530.86,M,003.427,N,006.347,K,D*0B
$GPGGA,083044.00,5702.8654692,N,00949.6094918,E,2,5,1.6,-3.866,M,40.592,M,3.4,0123*5E
$GPVTG,107.43,T,-532.47,M,003.387,N,006.273,K,D*02
$GPGGA,083044.05,5702.8654557,N,00949.6095684,E,2,5,1.6,-3.861,M,40.592,M,1.9,0123*52
$GPVTG,105.97,T,-533.93,M,003.365,N,006.232,K,D*08
$GPGGA,083044.10,5702.8654413,N,00949.6096516,E,2,5,1.6,-3.866,M,40.592,M,1.9,0123*5B
$GPVTG,105.26,T,-534.64,M,003.385,N,006.269,K,D*0D
$GPGGA,083044.15,5702.8654288,N,00949.6097358,E,2,5,1.6,-3.869,M,40.592,M,1.9,0123*58
$GPVTG,104.23,T,-535.67,M,003.402,N,006.301,K,D*0C
$GPGGA,083044.20,5702.8654184,N,00949.6098186,E,2,5,1.6,-3.874,M,40.592,M,1.9,0123*53
$GPVTG,102.94,T,-536.96,M,003.400,N,006.297,K,D*07
$GPGGA,083044.25,5702.8654094,N,00949.6099003,E,2,5,1.6,-3.869,M,40.592,M,2.2,0123*5F
$GPVTG,100.83,T,-539.07,M,003.356,N,006.215,K,D*0A
$GPGGA,083044.30,5702.8653969,N,00949.6099852,E,2,5,1.6,-3.874,M,40.592,M,2.2,0123*57
$GPVTG,100.67,T,-539.23,M,003.383,N,006.265,K,D*09
$GPGGA,083044.35,5702.8653843,N,00949.6100729,E,2,5,1.6,-3.880,M,40.592,M,2.2,0123*52
$GPVTG,100.60,T,-539.30,M,003.425,N,006.343,K,D*02
$GPGGA,083044.40,5702.8653777,N,00949.6101584,E,2,5,1.6,-3.885,M,40.592,M,2.2,0123*59
$GPVTG,099.17,T,-540.73,M,003.432,N,006.356,K,D*08
$GPGGA,083044.45,5702.8653712,N,00949.6102398,E,2,5,1.6,-3.879,M,40.592,M,2.5,0123*53
$GPVTG,096.80,T,-543.10,M,003.397,N,006.291,K,D*0D
$GPGGA,083044.50,5702.8653675,N,00949.6103263,E,2,5,1.6,-3.884,M,40.592,M,2.5,0123*51
$GPVTG,095.23,T,-544.67,M,003.410,N,006.316,K,D*06
$GPGGA,083044.55,5702.8653574,N,00949.6104137,E,2,5,1.6,-3.891,M,40.592,M,2.5,0123*57
$GPVTG,095.56,T,-544.34,M,003.438,N,006.367,K,D*0E
$GPGGA,083044.60,5702.8653517,N,00949.6105030,E,2,5,1.6,-3.898,M,40.592,M,2.5,0123*5A
$GPVTG,094.87,T,-545.03,M,003.470,N,006.426,K,D*08
$GPGGA,083044.65,5702.8653499,N,00949.6105959,E,2,5,1.6,-3.889,M,40.592,M,2.7,0123*5C
$GPVTG,093.04,T,-546.86,M,003.472,N,006.430,K,D*0F
$GPGGA,083044.70,5702.8653512,N,00949.6106791,E,2,5,1.6,-3.895,M,40.592,M,2.7,0123*5E
$GPVTG,091.09,T,-548.81,M,003.449,N,006.387,K,D*0A
$GPGGA,083044.75,5702.8653515,N,00949.6107659,E,2,5,1.6,-3.900,M,40.592,M,2.7,0123*55
$GPVTG,089.75,T,-550.15,M,003.457,N,006.402,K,D*09
$GPGGA,083044.80,5702.8653465,N,00949.6108560,E,2,5,1.6,-3.905,M,40.592,M,2.7,0123*5A
$GPVTG,089.98,T,-549.92,M,003.488,N,006.459,K,D*01
$GPGGA,083044.85,5702.8653422,N,00949.6109391,E,2,5,1.6,-3.888,M,40.592,M,2.9,0123*5F
$GPVTG,088.96,T,-550.94,M,003.485,N,006.453,K,D*07
$GPGGA,083044.90,5702.8653447,N,00949.6110291,E,2,5,1.6,-3.888,M,40.592,M,2.9,0123*51
$GPVTG,087.79,T,-552.11,M,003.511,N,006.502,K,D*0F
$GPGGA,083044.95,5702.8653457,N,00949.6111161,E,2,5,1.6,-3.892,M,40.592,M,2.9,0123*53
$GPVTG,086.94,T,-552.96,M,003.513,N,006.506,K,D*04
$GPGGA,083045.00,5702.8653486,N,00949.6112043,E,2,5,1.6,-3.902,M,40.592,M,2.9,0123*58
$GPVTG,085.96,T,-553.94,M,003.523,N,006.525,K,D*04
$GPGGA,083045.05,5702.8653532,N,00949.6112918,E,2,5,1.6,-3.888,M,40.592,M,2.1,0123*5F
$GPVTG,084.71,T,-555.19,M,003.526,N,006.530,K,D*0E
$GPGGA,083045.10,5702.8653588,N,00949.6113834,E,2,5,1.6,-3.886,M,40.592,M,2.1,0123*5A
$GPVTG,083.64,T,-556.26,M,003.563,N,006.598,K,D*01
$GPGGA,083045.15,5702.8653640,N,00949.6114702,E,2,5,1.6,-3.888,M,40.592,M,2.1,0123*5B
$GPVTG,082.70,T,-557.20,M,003.557,N,006.587,K,D*0B
$GPGGA,083045.20,5702.8653715,N,00949.6115543,E,2,5,1.6,-3.893,M,40.592,M,2.1,0123*50
$GPVTG,081.48,T,-558.42,M,003.533,N,006.543,K,D*02
$GPGGA,083045.25,5702.8653873,N,00949.6116295,E,2,5,1.6,-3.860,M,40.592,M,2.4,0123*5C
$GPVTG,079.64,T,-560.26,M,003.454,N,006.396,K,D*0C
$GPGGA,083045.30,5702.8653960,N,00949.6117163,E,2,5,1.6,-3.851,M,40.592,M,2.4,0123*52
$GPVTG,078.63,T,-561.27,M,003.468,N,006.423,K,D*0C
$GPGGA,083045.35,5702.8654053,N,00949.6118044,E,2,5,1.6,-3.850,M,40.592,M,2.4,0123*53
$GPVTG,077.72,T,-562.18,M,003.495,N,006.473,K,D*0B
$GPGGA,083045.40,5702.8654167,N,00949.6118902,E,2,5,1.6,-3.849,M,40.592,M,2.4,0123*54
$GPVTG,076.50,T,-563.40,M,003.500,N,006.483,K,D*04
$GPGGA,083045.45,5702.8654252,N,00949.6119725,E,2,5,1.6,-3.838,M,40.592,M,2.6,0123*5A
$GPVTG,075.29,T,-564.61,M,003.476,N,006.438,K,D*0D
$GPGGA,083045.50,5702.8654384,N,00949.6120563,E,2,5,1.6,-3.834,M,40.592,M,2.6,0123*52
$GPVTG,074.03,T,-565.87,M,003.472,N,006.430,K,D*01
$GPGGA,083045.55,5702.8654513,N,00949.6121410,E,2,5,1.6,-3.833,M,40.592,M,2.6,0123*5C
$GPVTG,073.06,T,-566.84,M,003.478,N,006.442,K,D*0C
$GPGGA,083045.60,5702.8654675,N,00949.6122285,E,2,5,1.6,-3.828,M,40.592,M,2.6,0123*5A
$GPVTG,071.81,T,-568.09,M,003.524,N,006.527,K,D*00
$GPGGA,083045.65,5702.8654893,N,00949.6123151,E,2,5,1.6,-3.817,M,40.592,M,2.9,0123*51
$GPVTG,070.07,T,-569.83,M,003.541,N,006.558,K,D*07
$GPGGA,083045.70,5702.8655073,N,00949.6123906,E,2,5,1.6,-3.812,M,40.592,M,2.9,0123*5D
$GPVTG,068.24,T,-571.66,M,003.476,N,006.437,K,D*00
$GPGGA,083045.75,5702.8655254,N,00949.6124679,E,2,5,1.6,-3.804,M,40.592,M,2.9,0123*58
$GPVTG,066.76,T,-573.14,M,003.442,N,006.375,K,D*08
$GPGGA,083045.80,5702.8655444,N,00949.6125472,E,2,5,1.6,-3.797,M,40.592,M,2.9,0123*58
$GPVTG,065.47,T,-574.43,M,003.439,N,006.370,K,D*05
$GPGGA,083045.85,5702.8655607,N,00949.6126276,E,2,5,1.6,-3.793,M,40.592,M,3.1,0123*54
$GPVTG,064.52,T,-575.38,M,003.444,N,006.377,K,D*00
$GPGGA,083045.90,5702.8655800,N,00949.6127082,E,2,5,1.6,-3.786,M,40.592,M,3.1,0123*55
$GPVTG,063.74,T,-576.16,M,003.458,N,006.405,K,D*03
$GPGGA,083045.95,5702.8656036,N,00949.6127826,E,2,5,1.6,-3.783,M,40.592,M,3.1,0123*5D
$GPVTG,061.92,T,-577.98,M,003.444,N,006.378,K,D*0E
$GPGGA,083046.00,5702.8656294,N,00949.6128593,E,2,5,1.6,-3.783,M,40.592,M,3.1,0123*54
$GPVTG,060.18,T,-579.72,M,003.466,N,006.419,K,D*07
$GPGGA,083046.05,5702.8656548,N,00949.6129432,E,2,5,1.6,-3.774,M,40.592,M,1.4,0123*53
$GPVTG,059.72,T,-580.18,M,003.545,N,006.565,K,D*01
$GPGGA,083046.10,5702.8656797,N,00949.6130247,E,2,5,1.6,-3.773,M,40.592,M,1.4,0123*5C
$GPVTG,058.95,T,-580.95,M,003.597,N,006.662,K,D*07
$GPGGA,083046.15,5702.8657066,N,00949.6131045,E,2,5,1.6,-3.772,M,40.592,M,1.4,0123*51
$GPVTG,057.89,T,-582.01,M,003.641,N,006.743,K,D*00
$GPGGA,083046.20,5702.8657322,N,00949.6131778,E,2,5,1.6,-3.775,M,40.592,M,1.4,0123*5A
$GPVTG,056.69,T,-583.21,M,003.623,N,006.709,K,D*06
$GPGGA,083046.25,5702.8657549,N,00949.6132549,E,2,5,1.6,-3.765,M,40.592,M,1.7,0123*55
$GPVTG,056.45,T,-583.45,M,003.665,N,006.788,K,D*01
$GPGGA,083046.30,5702.8657840,N,00949.6133304,E,2,5,1.6,-3.762,M,40.592,M,1.7,0123*5C
$GPVTG,055.21,T,-584.69,M,003.683,N,006.820,K,D*0C
$GPGGA,083046.35,5702.8658167,N,00949.6133987,E,2,5,1.6,-3.753,M,40.592,M,1.7,0123*59
$GPVTG,053.17,T,-586.73,M,003.675,N,006.806,K,D*0B
$GPGGA,083046.40,5702.8658520,N,00949.6134569,E,2,5,1.6,-3.743,M,40.592,M,1.7,0123*56
$GPVTG,050.33,T,-589.57,M,003.629,N,006.722,K,D*07
$GPGGA,083046.45,5702.8658776,N,00949.6135321,E,2,5,1.6,-3.760,M,40.592,M,1.9,0123*56
$GPVTG,049.19,T,-590.71,M,003.636,N,006.733,K,D*05
$GPGGA,083046.50,5702.8659112,N,00949.6136033,E,2,5,1.6,-3.757,M,40.592,M,1.9,0123*50
$GPVTG,048.04,T,-591.86,M,003.665,N,006.787,K,D*08
$GPGGA,083046.55,5702.8659443,N,00949.6136671,E,2,5,1.6,-3.759,M,40.592,M,1.9,0123*5A
$GPVTG,046.79,T,-593.11,M,003.668,N,006.794,K,D*0F
$GPGGA,083046.60,5702.8659795,N,00949.6137374,E,2,5,1.6,-3.761,M,40.592,M,1.9,0123*5E
$GPVTG,045.73,T,-594.17,M,003.701,N,006.855,K,D*0B
$GPGGA,083046.65,5702.8660086,N,00949.6138012,E,2,6,1.6,-3.762,M,40.592,M,2.1,0123*53
$GPVTG,044.91,T,-595.00,M,003.719,N,006.887,K,D*07
$GPGGA,083046.70,5702.8660444,N,00949.6138691,E,2,6,1.6,-3.770,M,40.592,M,2.1,0123*53
$GPVTG,043.97,T,-595.93,M,003.744,N,006.934,K,D*0D
$GPGGA,083046.75,5702.8660807,N,00949.6139381,E,2,6,1.6,-3.773,M,40.592,M,2.1,0123*5B
$GPVTG,043.15,T,-596.75,M,003.774,N,006.989,K,D*09
$GPGGA,083046.80,5702.8661179,N,00949.6140049,E,2,6,1.6,-3.773,M,40.592,M,2.1,0123*59
$GPVTG,042.27,T,-597.63,M,003.801,N,007.039,K,D*01
$GPGGA,083046.85,5702.8661512,N,00949.6140673,E,2,6,1.6,-3.741,M,40.592,M,2.3,0123*59
$GPVTG,040.42,T,-599.48,M,003.733,N,006.913,K,D*09
$GPGGA,083046.90,5702.8661897,N,00949.6141253,E,2,6,1.6,-3.730,M,40.592,M,2.3,0123*5C
$GPVTG,039.11,T,-600.79,M,003.732,N,006.912,K,D*00
$GPGGA,083046.95,5702.8662295,N,00949.6141855,E,2,6,1.6,-3.721,M,40.592,M,2.3,0123*5E
$GPVTG,038.16,T,-601.74,M,003.759,N,006.962,K,D*00
$GPGGA,083047.00,5702.8662700,N,00949.6142409,E,2,6,1.6,-3.713,M,40.592,M,2.3,0123*5D
$GPVTG,036.87,T,-603.03,M,003.768,N,006.979,K,D*0C
$GPGGA,083047.05,5702.8663040,N,00949.6143019,E,2,6,1.6,-3.727,M,40.592,M,2.6,0123*5C
$GPVTG,036.04,T,-603.86,M,003.743,N,006.931,K,D*0F
$GPGGA,083047.10,5702.8663466,N,00949.6143566,E,2,6,1.6,-3.726,M,40.592,M,2.6,0123*54
$GPVTG,034.86,T,-605.04,M,003.768,N,006.979,K,D*0E
$GPGGA,083047.15,5702.8663849,N,00949.6144116,E,2,6,1.6,-3.728,M,40.592,M,2.6,0123*5A
$GPVTG,034.39,T,-605.51,M,003.751,N,006.947,K,D*0D
$GPGGA,083047.20,5702.8664320,N,00949.6144688,E,2,6,1.6,-3.725,M,40.592,M,2.6,0123*52
$GPVTG,033.36,T,-606.54,M,003.828,N,007.090,K,D*00
$GPGGA,083047.25,5702.8664755,N,00949.6145149,E,2,6,1.6,-3.704,M,40.592,M,2.8,0123*57
$GPVTG,032.20,T,-607.70,M,003.834,N,007.100,K,D*04
$GPGGA,083047.30,5702.8665215,N,00949.6145620,E,2,6,1.6,-3.703,M,40.592,M,2.8,0123*5C
$GPVTG,030.78,T,-609.12,M,003.855,N,007.139,K,D*0C
$GPGGA,083047.35,5702.8665636,N,00949.6146116,E,2,6,1.6,-3.702,M,40.592,M,2.8,0123*5C
$GPVTG,030.06,T,-609.84,M,003.852,N,007.135,K,D*01
$GPGGA,083047.40,5702.8666104,N,00949.6146656,E,2,6,1.6,-3.701,M,40.592,M,2.8,0123*5B
$GPVTG,029.48,T,-610.42,M,003.901,N,007.224,K,D*05
$GPGGA,083047.45,5702.8666533,N,00949.6147229,E,2,6,1.6,-3.695,M,40.592,M,3.0,0123*56
$GPVTG,029.33,T,-610.57,M,003.955,N,007.324,K,D*0D
$GPGGA,083047.50,5702.8666986,N,00949.6147734,E,2,6,1.6,-3.692,M,40.592,M,3.0,0123*5E
$GPVTG,028.75,T,-611.15,M,003.972,N,007.357,K,D*08
$GPGGA,083047.55,5702.8667412,N,00949.6148156,E,2,6,1.6,-3.692,M,40.592,M,3.0,0123*57
$GPVTG,027.80,T,-612.10,M,003.948,N,007.311,K,D*00
$GPGGA,083047.60,5702.8667909,N,00949.6148640,E,2,6,1.6,-3.692,M,40.592,M,3.0,0123*56
$GPVTG,027.04,T,-612.86,M,003.991,N,007.392,K,D*0C
$GPGGA,083047.65,5702.8668427,N,00949.6149068,E,2,6,1.6,-3.683,M,40.592,M,3.2,0123*52
$GPVTG,026.05,T,-613.85,M,004.026,N,007.456,K,D*03
$GPGGA,083047.70,5702.8668933,N,00949.6149465,E,2,6,1.6,-3.682,M,40.592,M,3.2,0123*56
$GPVTG,025.04,T,-614.86,M,004.055,N,007.511,K,D*03
$GPGGA,083047.75,5702.8669426,N,00949.6149904,E,2,6,1.6,-3.681,M,40.592,M,3.2,0123*52
$GPVTG,024.26,T,-615.64,M,004.087,N,007.568,K,D*0E
$GPGGA,083047.80,5702.8669974,N,00949.6150278,E,2,6,1.6,-3.677,M,40.592,M,3.2,0123*53
$GPVTG,023.18,T,-616.72,M,004.123,N,007.636,K,D*07
$GPGGA,083047.85,5702.8670427,N,00949.6150632,E,2,6,1.6,-3.691,M,40.592,M,3.4,0123*51
$GPVTG,021.89,T,-618.01,M,004.146,N,007.679,K,D*0F
$GPGGA,083047.90,5702.8670976,N,00949.6150977,E,2,6,1.6,-3.691,M,40.592,M,3.4,0123*52
$GPVTG,020.74,T,-619.16,M,004.179,N,007.740,K,D*0C
$GPGGA,083047.95,5702.8671486,N,00949.6151301,E,2,6,1.6,-3.689,M,40.592,M,3.4,0123*57
$GPVTG,019.58,T,-620.32,M,004.194,N,007.767,K,D*02
$GPGGA,083048.00,5702.8672016,N,00949.6151565,E,2,6,1.6,-3.688,M,40.592,M,3.4,0123*5F
$GPVTG,017.98,T,-621.92,M,004.203,N,007.785,K,D*0A
$GPGGA,083048.05,5702.8672462,N,00949.6151865,E,2,6,1.6,-3.698,M,40.592,M,1.9,0123*5E
$GPVTG,016.55,T,-623.35,M,004.212,N,007.800,K,D*07
$GPGGA,083048.10,5702.8672988,N,00949.6152091,E,2,6,1.6,-3.692,M,40.592,M,1.9,0123*59
$GPVTG,014.86,T,-625.04,M,004.210,N,007.797,K,D*0C
$GPGGA,083048.15,5702.8673533,N,00949.6152280,E,2,6,1.6,-3.688,M,40.592,M,1.9,0123*58
$GPVTG,012.95,T,-626.95,M,004.213,N,007.803,K,D*02
$GPGGA,083048.20,5702.8674089,N,00949.6152562,E,2,6,1.6,-3.682,M,40.592,M,1.9,0123*5C
$GPVTG,012.37,T,-627.53,M,004.243,N,007.858,K,D*0A
$GPGGA,083048.25,5702.8674560,N,00949.6152888,E,2,6,1.6,-3.688,M,40.592,M,2.2,0123*50
$GPVTG,012.27,T,-627.63,M,004.233,N,007.840,K,D*06
$GPGGA,083048.30,5702.8675076,N,00949.6153188,E,2,6,1.6,-3.689,M,40.592,M,2.2,0123*5E
$GPVTG,012.45,T,-627.45,M,004.225,N,007.825,K,D*02
$GPGGA,083048.35,5702.8675634,N,00949.6153438,E,2,6,1.6,-3.691,M,40.592,M,2.2,0123*5C
$GPVTG,011.95,T,-627.95,M,004.241,N,007.855,K,D*04
$GPGGA,083048.40,5702.8676156,N,00949.6153748,E,2,6,1.6,-3.692,M,40.592,M,2.2,0123*59
$GPVTG,012.47,T,-627.43,M,004.232,N,007.837,K,D*03
$GPGGA,083048.45,5702.8676748,N,00949.6153883,E,2,6,1.6,-3.671,M,40.592,M,2.5,0123*57
$GPVTG,011.45,T,-628.45,M,004.301,N,007.965,K,D*0C
$GPGGA,083048.50,5702.8677318,N,00949.6154015,E,2,6,1.6,-3.674,M,40.592,M,2.5,0123*56
$GPVTG,009.36,T,-630.54,M,004.278,N,007.924,K,D*02
$GPGGA,083048.55,5702.8677846,N,00949.6154188,E,2,6,1.6,-3.677,M,40.592,M,2.5,0123*55
$GPVTG,008.78,T,-631.12,M,004.202,N,007.782,K,D*05
$GPGGA,083048.60,5702.8678469,N,00949.6154351,E,2,6,1.6,-3.679,M,40.592,M,2.5,0123*55
$GPVTG,007.92,T,-631.98,M,004.294,N,007.952,K,D*00
$GPGGA,083048.65,5702.8679078,N,00949.6154513,E,2,6,1.6,-3.697,M,40.592,M,2.7,0123*57
$GPVTG,006.78,T,-633.12,M,004.345,N,008.047,K,D*0A
$GPGGA,083048.70,5702.8679638,N,00949.6154691,E,2,6,1.6,-3.699,M,40.592,M,2.7,0123*56
$GPVTG,006.53,T,-633.37,M,004.345,N,008.047,K,D*04
$GPGGA,083048.75,5702.8680231,N,00949.6154736,E,2,6,1.6,-3.702,M,40.592,M,2.7,0123*57
$GPVTG,005.00,T,-634.90,M,004.359,N,008.073,K,D*01
$GPGGA,083048.80,5702.8680815,N,00949.6154781,E,2,6,1.6,-3.702,M,40.592,M,2.7,0123*5D
$GPVTG,003.68,T,-636.22,M,004.365,N,008.084,K,D*05
$GPGGA,083048.85,5702.8681338,N,00949.6154837,E,2,6,1.6,-3.708,M,40.592,M,2.9,0123*5B
$GPVTG,002.50,T,-637.40,M,004.366,N,008.086,K,D*0B
$GPGGA,083048.90,5702.8681928,N,00949.6154819,E,2,6,1.6,-3.704,M,40.592,M,2.9,0123*54
$GPVTG,000.91,T,-638.99,M,004.374,N,008.101,K,D*02
$GPGGA,083048.95,5702.8682523,N,00949.6154792,E,2,6,1.6,-3.700,M,40.592,M,2.9,0123*5D
$GPVTG,359.48,T,-280.42,M,004.387,N,008.126,K,D*01
$GPGGA,083049.00,5702.8683134,N,00949.6154701,E,2,6,1.6,-3.700,M,40.592,M,2.9,0123*59
$GPVTG,357.59,T,-282.31,M,004.418,N,008.182,K,D*06
$GPGGA,083049.05,5702.8683659,N,00949.6154634,E,2,6,1.6,-3.706,M,40.592,M,2.1,0123*59
$GPVTG,356.02,T,-283.88,M,004.402,N,008.153,K,D*0D
$GPGGA,083049.10,5702.8684238,N,00949.6154510,E,2,6,1.6,-3.707,M,40.592,M,2.1,0123*5D
$GPVTG,354.39,T,-285.51,M,004.402,N,008.153,K,D*05
$GPGGA,083049.15,5702.8684841,N,00949.6154409,E,2,6,1.6,-3.705,M,40.592,M,2.1,0123*57
$GPVTG,353.39,T,-286.51,M,004.422,N,008.190,K,D*0C
$GPGGA,083049.20,5702.8685419,N,00949.6154306,E,2,6,1.6,-3.707,M,40.592,M,2.1,0123*5B
$GPVTG,352.62,T,-287.28,M,004.414,N,008.175,K,D*02
$GPGGA,083049.25,5702.8685968,N,00949.6154227,E,2,6,1.6,-3.702,M,40.592,M,2.4,0123*57
$GPVTG,352.43,T,-287.47,M,004.361,N,008.076,K,D*0F
$GPGGA,083049.30,5702.8686547,N,00949.6154089,E,2,6,1.6,-3.706,M,40.592,M,2.4,0123*53
$GPVTG,351.59,T,-288.31,M,004.355,N,008.066,K,D*0F
$GPGGA,083049.35,5702.8687129,N,00949.6153955,E,2,6,1.6,-3.710,M,40.592,M,2.4,0123*53
$GPVTG,351.03,T,-288.87,M,004.352,N,008.060,K,D*0C
$GPGGA,083049.40,5702.8687690,N,00949.6153850,E,2,6,1.6,-3.714,M,40.592,M,2.4,0123*54
$GPVTG,350.95,T,-288.95,M,004.318,N,007.998,K,D*0E
$GPGGA,083049.45,5702.8688292,N,00949.6153568,E,2,6,1.6,-3.692,M,40.592,M,2.6,0123*53
$GPVTG,349.41,T,-290.49,M,004.342,N,008.042,K,D*09
$GPGGA,083049.50,5702.8688922,N,00949.6153358,E,2,6,1.6,-3.694,M,40.592,M,2.6,0123*54
$GPVTG,348.74,T,-291.16,M,004.435,N,008.214,K,D*03
$GPGGA,083049.55,5702.8689586,N,00949.6153119,E,2,6,1.6,-3.693,M,40.592,M,2.6,0123*52
$GPVTG,348.00,T,-291.90,M,004.569,N,008.462,K,D*01
$GPGGA,083049.60,5702.8690197,N,00949.6152873,E,2,6,1.6,-3.695,M,40.592,M,2.6,0123*5A
$GPVTG,347.19,T,-292.71,M,004.586,N,008.493,K,D*05
$GPGGA,083049.65,5702.8690771,N,00949.6152622,E,2,6,1.6,-3.696,M,40.592,M,2.9,0123*57
$GPVTG,346.19,T,-293.71,M,004.534,N,008.397,K,D*0F
$GPGGA,083049.70,5702.8691287,N,00949.6152262,E,2,6,1.6,-3.703,M,40.592,M,2.9,0123*53
$GPVTG,343.74,T,-296.16,M,004.443,N,008.228,K,D*01
$GPGGA,083049.75,5702.8691790,N,00949.6151928,E,2,6,1.6,-3.712,M,40.592,M,2.9,0123*53
$GPVTG,342.06,T,-297.84,M,004.339,N,008.037,K,D*09
$GPGGA,083049.80,5702.8692425,N,00949.6151605,E,2,6,1.6,-3.714,M,40.592,M,2.9,0123*51
$GPVTG,341.71,T,-298.19,M,004.431,N,008.207,K,D*0F
$GPGGA,083049.85,5702.8693039,N,00949.6151305,E,2,6,1.6,-3.719,M,40.592,M,3.1,0123*5D
$GPVTG,341.85,T,-298.05,M,004.498,N,008.330,K,D*0F
$GPGGA,083049.90,5702.8693652,N,00949.6150989,E,2,6,1.6,-3.721,M,40.592,M,3.1,0123*56
$GPVTG,341.84,T,-298.06,M,004.531,N,008.392,K,D*07
$GPGGA,083049.95,5702.8694236,N,00949.6150650,E,2,6,1.6,-3.726,M,40.592,M,3.1,0123*5E
$GPVTG,341.43,T,-298.47,M,004.525,N,008.380,K,D*0F
$GPGGA,083050.00,5702.8694740,N,00949.6150216,E,2,6,1.6,-3.732,M,40.592,M,3.1,0123*5D
$GPVTG,339.37,T,-300.53,M,004.445,N,008.232,K,D*09
$GPGGA,083050.05,5702.8695321,N,00949.6149810,E,2,6,1.6,-3.729,M,40.592,M,1.4,0123*53
$GPVTG,338.58,T,-301.32,M,004.455,N,008.250,K,D*02
$GPGGA,083050.10,5702.8695990,N,00949.6149406,E,2,6,1.6,-3.735,M,40.592,M,1.4,0123*51
$GPVTG,338.64,T,-301.26,M,004.588,N,008.496,K,D*05
$GPGGA,083050.15,5702.8696615,N,00949.6149000,E,2,6,1.6,-3.742,M,40.592,M,1.4,0123*57
$GPVTG,338.50,T,-301.40,M,004.646,N,008.604,K,D*0A
$GPGGA,083050.20,5702.8697224,N,00949.6148620,E,2,6,1.6,-3.750,M,40.592,M,1.4,0123*50
$GPVTG,338.69,T,-301.21,M,004.661,N,008.633,K,D*06
$GPGGA,083050.25,5702.8697701,N,00949.6148142,E,2,6,1.6,-3.753,M,40.592,M,1.7,0123*54
$GPVTG,338.27,T,-301.63,M,004.668,N,008.645,K,D*02
$GPGGA,083050.30,5702.8698286,N,00949.6147712,E,2,6,1.6,-3.760,M,40.592,M,1.7,0123*59
$GPVTG,337.84,T,-302.06,M,004.678,N,008.664,K,D*06
$GPGGA,083050.35,5702.8698840,N,00949.6147262,E,2,6,1.6,-3.766,M,40.592,M,1.7,0123*58
$GPVTG,337.24,T,-302.66,M,004.669,N,008.648,K,D*04
$GPGGA,083050.40,5702.8699437,N,00949.6146745,E,2,6,1.6,-3.777,M,40.592,M,1.7,0123*56
$GPVTG,336.30,T,-303.60,M,004.705,N,008.714,K,D*04
$GPGGA,083050.45,5702.8700003,N,00949.6146196,E,2,6,1.6,-3.774,M,40.592,M,1.9,0123*54
$GPVTG,335.48,T,-304.42,M,004.726,N,008.752,K,D*0C
$GPGGA,083050.50,5702.8700568,N,00949.6145626,E,2,6,1.6,-3.783,M,40.592,M,1.9,0123*5F
$GPVTG,334.17,T,-305.73,M,004.750,N,008.797,K,D*0C
$GPGGA,083050.55,5702.8701131,N,00949.6145048,E,2,6,1.6,-3.789,M,40.592,M,1.9,0123*57
$GPVTG,332.96,T,-306.94,M,004.769,N,008.832,K,D*03
$GPGGA,083050.60,5702.8701712,N,00949.6144469,E,2,6,1.6,-3.792,M,40.592,M,1.9,0123*5A
$GPVTG,332.03,T,-307.87,M,004.798,N,008.886,K,D*0D
$GPGGA,083050.65,5702.8702295,N,00949.6143861,E,2,6,1.6,-3.790,M,40.592,M,2.1,0123*5C
$GPVTG,330.73,T,-309.17,M,004.814,N,008.915,K,D*0F
$GPGGA,083050.70,5702.8702878,N,00949.6143263,E,2,6,1.6,-3.794,M,40.592,M,2.1,0123*5D
$GPVTG,330.12,T,-309.78,M,004.838,N,008.961,K,D*0C
$GPGGA,083050.75,5702.8703363,N,00949.6142648,E,2,6,1.6,-3.799,M,40.592,M,2.1,0123*59
$GPVTG,328.38,T,-311.52,M,004.712,N,008.726,K,D*06
$GPGGA,083050.80,5702.8703895,N,00949.6142005,E,2,6,1.6,-3.802,M,40.592,M,2.1,0123*53
$GPVTG,327.20,T,-312.70,M,004.702,N,008.707,K,D*01
$GPGGA,083050.85,5702.8704436,N,00949.6141434,E,2,6,1.6,-3.811,M,40.592,M,2.3,0123*51
$GPVTG,327.10,T,-312.80,M,004.694,N,008.694,K,D*08
$GPGGA,083050.90,5702.8704947,N,00949.6140724,E,2,6,1.6,-3.817,M,40.592,M,2.3,0123*5B
$GPVTG,325.32,T,-314.58,M,004.701,N,008.707,K,D*0F
$GPGGA,083050.95,5702.8705476,N,00949.6140033,E,2,6,1.6,-3.823,M,40.592,M,2.3,0123*56
$GPVTG,324.37,T,-315.53,M,004.714,N,008.730,K,D*01
$GPGGA,083051.00,5702.8706001,N,00949.6139324,E,2,6,1.6,-3.829,M,40.592,M,2.3,0123*5D
$GPVTG,323.41,T,-316.49,M,004.728,N,008.756,K,D*00
$GPGGA,083051.05,5702.8706531,N,00949.6138522,E,2,6,1.6,-3.808,M,40.592,M,2.6,0123*59
$GPVTG,322.52,T,-317.38,M,004.750,N,008.797,K,D*06
$GPGGA,083051.10,5702.8707048,N,00949.6137812,E,2,6,1.6,-3.809,M,40.592,M,2.6,0123*57
$GPVTG,321.84,T,-318.06,M,004.755,N,008.806,K,D*0E
$GPGGA,083051.15,5702.8707536,N,00949.6137019,E,2,6,1.6,-3.811,M,40.592,M,2.6,0123*54
$GPVTG,320.59,T,-319.31,M,004.776,N,008.845,K,D*0C
$GPGGA,083051.20,5702.8708047,N,00949.6136207,E,2,6,1.6,-3.818,M,40.592,M,2.6,0123*5B
$GPVTG,319.48,T,-320.42,M,004.815,N,008.918,K,D*0B
$GPGGA,083051.25,5702.8708518,N,00949.6135449,E,2,6,1.6,-3.821,M,40.592,M,2.8,0123*5A
$GPVTG,318.80,T,-321.10,M,004.801,N,008.891,K,D*0D
$GPGGA,083051.30,5702.8709031,N,00949.6134679,E,2,6,1.6,-3.827,M,40.592,M,2.8,0123*57
$GPVTG,318.37,T,-321.53,M,004.806,N,008.900,K,D*08
$GPGGA,083051.35,5702.8709558,N,00949.6133842,E,2,6,1.6,-3.833,M,40.592,M,2.8,0123*5C
$GPVTG,317.64,T,-322.26,M,004.857,N,008.994,K,D*09
$GPGGA,083051.40,5702.8710063,N,00949.6132984,E,2,6,1.6,-3.840,M,40.592,M,2.8,0123*55
$GPVTG,316.78,T,-323.12,M,004.898,N,009.071,K,D*03
$GPGGA,083051.45,5702.8710655,N,00949.6132138,E,2,6,1.6,-3.821,M,40.592,M,3.0,0123*52
$GPVTG,316.27,T,-323.63,M,004.862,N,009.004,K,D*08
$GPGGA,083051.50,5702.8711063,N,00949.6131233,E,2,5,1.6,-3.829,M,40.592,M,3.0,0123*54
$GPVTG,313.70,T,-326.20,M,004.818,N,008.923,K,D*0D
$GPGGA,083051.55,5702.8711563,N,00949.6130381,E,2,5,1.6,-3.833,M,40.592,M,3.0,0123*56
$GPVTG,313.88,T,-326.02,M,004.851,N,008.985,K,D*0B
$GPGGA,083051.60,5702.8712047,N,00949.6129500,E,2,5,1.6,-3.836,M,40.592,M,3.0,0123*52
$GPVTG,313.50,T,-326.40,M,004.880,N,009.037,K,D*05
$GPGGA,083051.65,5702.8712463,N,00949.6128581,E,2,5,1.6,-3.841,M,40.592,M,3.2,0123*5F
$GPVTG,311.86,T,-328.04,M,004.878,N,009.034,K,D*06
$GPGGA,083051.70,5702.8712921,N,00949.6127574,E,2,5,1.6,-3.848,M,40.592,M,3.2,0123*5C
$GPVTG,310.48,T,-329.42,M,004.976,N,009.215,K,D*08
$GPGGA,083051.75,5702.8713428,N,00949.6126674,E,2,5,1.6,-3.853,M,40.592,M,3.2,0123*54
$GPVTG,310.98,T,-328.92,M,005.007,N,009.273,K,D*07
$GPGGA,083051.80,5702.8713841,N,00949.6125695,E,2,5,1.6,-3.859,M,40.592,M,3.2,0123*5B
$GPVTG,309.66,T,-330.24,M,005.006,N,009.272,K,D*0A
$GPGGA,083051.85,5702.8714271,N,00949.6124781,E,2,5,1.6,-3.863,M,40.592,M,3.4,0123*5A
$GPVTG,309.17,T,-330.73,M,004.967,N,009.198,K,D*06
$GPGGA,083051.90,5702.8714694,N,00949.6123814,E,2,5,1.6,-3.871,M,40.592,M,3.4,0123*56
$GPVTG,308.47,T,-331.43,M,004.961,N,009.187,K,D*08
$GPGGA,083051.95,5702.8715133,N,00949.6122846,E,2,5,1.6,-3.875,M,40.592,M,3.4,0123*5A
$GPVTG,308.13,T,-331.77,M,004.966,N,009.197,K,D*08
$GPGGA,083052.00,5702.8715570,N,00949.6121843,E,2,5,1.6,-3.882,M,40.592,M,3.4,0123*58
$GPVTG,307.62,T,-332.28,M,004.998,N,009.255,K,D*04
$GPGGA,083052.05,5702.8715947,N,00949.6120845,E,2,5,1.6,-3.875,M,40.592,M,1.9,0123*55
$GPVTG,306.55,T,-333.35,M,004.923,N,009.117,K,D*09
$GPGGA,083052.10,5702.8716296,N,00949.6119844,E,2,5,1.6,-3.885,M,40.592,M,1.9,0123*51
$GPVTG,305.19,T,-334.71,M,004.875,N,009.029,K,D*0B
$GPGGA,083052.15,5702.8716713,N,00949.6118817,E,2,5,1.6,-3.891,M,40.592,M,1.9,0123*5E
$GPVTG,304.80,T,-335.10,M,004.912,N,009.097,K,D*09
$GPGGA,083052.20,5702.8717088,N,00949.6117803,E,2,5,1.6,-3.899,M,40.592,M,1.9,0123*5E
$GPVTG,304.06,T,-335.84,M,004.896,N,009.067,K,D*08
$GPGGA,083052.25,5702.8717433,N,00949.6116662,E,2,5,1.6,-3.878,M,40.592,M,2.2,0123*50
$GPVTG,302.55,T,-337.35,M,004.876,N,009.030,K,D*0C
$GPGGA,083052.30,5702.8717742,N,00949.6115566,E,2,5,1.6,-3.883,M,40.592,M,2.2,0123*51
$GPVTG,300.67,T,-339.23,M,004.889,N,009.055,K,D*05
$GPGGA,083052.35,5702.8718139,N,00949.6114503,E,2,5,1.6,-3.889,M,40.592,M,2.2,0123*59
$GPVTG,300.65,T,-339.25,M,004.928,N,009.126,K,D*0E
$GPGGA,083052.40,5702.8718406,N,00949.6113382,E,2,5,1.6,-3.898,M,40.592,M,2.2,0123*5A
$GPVTG,298.46,T,-341.44,M,004.922,N,009.115,K,D*0D
$GPGGA,083052.45,5702.8718755,N,00949.6112265,E,2,5,1.6,-3.895,M,40.592,M,2.5,0123*59
$GPVTG,298.03,T,-341.87,M,004.932,N,009.135,K,D*00
$GPGGA,083052.50,5702.8719051,N,00949.6111194,E,2,5,1.6,-3.899,M,40.592,M,2.5,0123*5D
$GPVTG,297.08,T,-342.82,M,004.888,N,009.053,K,D*03
$GPGGA,083052.55,5702.8719324,N,00949.6110091,E,2,5,1.6,-3.903,M,40.592,M,2.5,0123*5E
$GPVTG,295.75,T,-344.15,M,004.867,N,009.013,K,D*06
$GPGGA,083052.60,5702.8719679,N,00949.6108969,E,2,5,1.6,-3.912,M,40.592,M,2.5,0123*52
$GPVTG,295.85,T,-344.05,M,004.917,N,009.107,K,D*0A
$GPGGA,083052.65,5702.8719963,N,00949.6107874,E,2,5,1.6,-3.916,M,40.592,M,2.7,0123*57
$GPVTG,294.93,T,-344.97,M,004.864,N,009.007,K,D*03
$GPGGA,083052.70,5702.8720294,N,00949.6106760,E,2,5,1.6,-3.927,M,40.592,M,2.7,0123*53
$GPVTG,294.97,T,-344.93,M,004.885,N,009.048,K,D*07
$GPGGA,083052.75,5702.8720545,N,00949.6105667,E,2,5,1.6,-3.939,M,40.592,M,2.7,0123*57
$GPVTG,293.95,T,-345.95,M,004.833,N,008.951,K,D*08
$GPGGA,083052.80,5702.8720748,N,00949.6104503,E,2,5,1.6,-3.950,M,40.592,M,2.7,0123*5D
$GPVTG,291.95,T,-347.95,M,004.833,N,008.951,K,D*08
$GPGGA,083052.85,5702.8721086,N,00949.6103242,E,2,5,1.6,-3.926,M,40.592,M,2.9,0123*56
$GPVTG,292.23,T,-347.67,M,004.884,N,009.044,K,D*0B
$GPGGA,083052.90,5702.8721261,N,00949.6102091,E,2,5,1.6,-3.937,M,40.592,M,2.9,0123*54
$GPVTG,290.24,T,-349.66,M,004.848,N,008.979,K,D*07
$GPGGA,083052.95,5702.8721431,N,00949.6100896,E,2,5,1.6,-3.948,M,40.592,M,2.9,0123*57
$GPVTG,288.27,T,-351.63,M,004.864,N,009.008,K,D*01
$GPGGA,083053.00,5702.8721661,N,00949.6099763,E,2,5,1.6,-3.953,M,40.592,M,2.9,0123*53
$GPVTG,287.84,T,-352.06,M,004.837,N,008.958,K,D*0C
$GPGGA,083053.05,5702.8721933,N,00949.6098555,E,2,5,1.6,-3.953,M,40.592,M,2.1,0123*50
$GPVTG,287.86,T,-352.04,M,004.884,N,009.046,K,D*03
$GPGGA,083053.10,5702.8722123,N,00949.6097328,E,2,5,1.6,-3.963,M,40.592,M,2.1,0123*5E
$GPVTG,286.65,T,-353.25,M,004.935,N,009.140,K,D*01
$GPGGA,083053.15,5702.8722345,N,00949.6096209,E,2,5,1.6,-3.972,M,40.592,M,2.1,0123*5A
$GPVTG,286.59,T,-353.31,M,004.869,N,009.017,K,D*00
$GPGGA,083053.20,5702.8722533,N,00949.6095036,E,2,5,1.6,-3.980,M,40.592,M,2.1,0123*5B
$GPVTG,285.86,T,-354.04,M,004.856,N,008.994,K,D*0F
$GPGGA,083053.25,5702.8722722,N,00949.6093820,E,2,5,1.6,-3.974,M,40.592,M,2.4,0123*5B
$GPVTG,285.00,T,-354.90,M,004.834,N,008.953,K,D*03
$GPGGA,083053.30,5702.8722851,N,00949.6092601,E,2,5,1.6,-3.986,M,40.592,M,2.4,0123*55
$GPVTG,283.46,T,-356.44,M,004.855,N,008.991,K,D*05
$GPGGA,083053.35,5702.8722934,N,00949.6091347,E,2,5,1.6,-3.995,M,40.592,M,2.4,0123*54
$GPVTG,281.32,T,-358.58,M,004.897,N,009.069,K,D*06
$GPGGA,083053.40,5702.8723138,N,00949.6090185,E,2,5,1.6,-4.003,M,40.592,M,2.4,0123*5F
$GPVTG,281.75,T,-358.15,M,004.865,N,009.010,K,D*0F
$GPGGA,083053.45,5702.8723219,N,00949.6088950,E,2,6,1.6,-4.000,M,40.592,M,2.6,0123*51
$GPVTG,279.96,T,-359.94,M,004.834,N,008.953,K,D*06
$GPGGA,083053.50,5702.8723333,N,00949.6087754,E,2,6,1.6,-4.010,M,40.592,M,2.6,0123*58
$GPVTG,279.10,T,-360.80,M,004.820,N,008.928,K,D*0E
$GPGGA,083053.55,5702.8723534,N,00949.6086627,E,2,6,1.6,-4.014,M,40.592,M,2.6,0123*5C
$GPVTG,280.07,T,-359.83,M,004.750,N,008.797,K,D*05
$GPGGA,083053.60,5702.8723691,N,00949.6085388,E,2,6,1.6,-4.024,M,40.592,M,2.6,0123*56
$GPVTG,280.00,T,-359.90,M,004.806,N,008.900,K,D*0C
$GPGGA,083053.65,5702.8723748,N,00949.6084021,E,2,5,1.6,-3.997,M,40.592,M,2.9,0123*5D
$GPVTG,277.99,T,-361.91,M,004.869,N,009.018,K,D*06
$GPGGA,083053.70,5702.8723797,N,00949.6082800,E,2,5,1.6,-3.998,M,40.592,M,2.9,0123*59
$GPVTG,276.53,T,-363.37,M,004.865,N,009.009,K,D*03
$GPGGA,083053.75,5702.8723877,N,00949.6081585,E,2,5,1.6,-4.003,M,40.592,M,2.9,0123*52
$GPVTG,275.83,T,-364.07,M,004.859,N,008.999,K,D*07
$GPGGA,083053.80,5702.8723935,N,00949.6080360,E,2,5,1.6,-4.006,M,40.592,M,2.9,0123*56
$GPVTG,274.90,T,-365.00,M,004.861,N,009.002,K,D*03
$GPGGA,083053.85,5702.8724020,N,00949.6079112,E,2,5,1.6,-4.010,M,40.592,M,3.1,0123*56
$GPVTG,274.45,T,-365.45,M,004.911,N,009.096,K,D*01
$GPGGA,083053.90,5702.8724080,N,00949.6077869,E,2,5,1.6,-4.015,M,40.592,M,3.1,0123*56
$GPVTG,273.85,T,-366.05,M,004.923,N,009.118,K,D*0B
$GPGGA,083053.95,5702.8724118,N,00949.6076651,E,2,5,1.6,-4.020,M,40.592,M,3.1,0123*51
$GPVTG,273.04,T,-366.86,M,004.901,N,009.077,K,D*01
$GPGGA,083054.00,5702.8724139,N,00949.6075450,E,2,5,1.6,-4.027,M,40.592,M,3.1,0123*5E
$GPVTG,272.10,T,-367.80,M,004.862,N,009.004,K,D*02
$GPGGA,083054.05,5702.8724158,N,00949.6074161,E,2,5,1.6,-4.022,M,40.592,M,1.4,0123*58
$GPVTG,270.99,T,-368.91,M,004.895,N,009.065,K,D*01
$GPGGA,083054.10,5702.8724217,N,00949.6072897,E,2,5,1.6,-4.028,M,40.592,M,1.4,0123*58
$GPVTG,271.02,T,-368.88,M,004.927,N,009.124,K,D*06
$GPGGA,083054.15,5702.8724221,N,00949.6071621,E,2,5,1.6,-4.034,M,40.592,M,1.4,0123*55
$GPVTG,270.22,T,-369.68,M,004.965,N,009.196,K,D*05
$GPGGA,083054.20,5702.8724174,N,00949.6070353,E,2,5,1.6,-4.038,M,40.592,M,1.4,0123*5D
$GPVTG,268.76,T,-371.14,M,004.988,N,009.237,K,D*04
$GPGGA,083054.25,5702.8724113,N,00949.6069172,E,2,5,1.6,-4.036,M,40.592,M,1.7,0123*5D
$GPVTG,267.05,T,-372.85,M,004.889,N,009.054,K,D*03
$GPGGA,083054.30,5702.8724096,N,00949.6067903,E,2,5,1.6,-4.045,M,40.592,M,1.7,0123*51
$GPVTG,266.56,T,-373.34,M,004.923,N,009.118,K,D*07
$GPGGA,083054.35,5702.8724126,N,00949.6066669,E,2,5,1.6,-4.054,M,40.592,M,1.7,0123*5C
$GPVTG,266.94,T,-372.96,M,004.909,N,009.091,K,D*08
$GPGGA,083054.40,5702.8724034,N,00949.6065410,E,2,5,1.6,-4.063,M,40.592,M,1.7,0123*57
$GPVTG,265.38,T,-374.52,M,004.933,N,009.136,K,D*06
$GPGGA,083054.45,5702.8723956,N,00949.6064127,E,2,5,1.6,-4.051,M,40.592,M,1.9,0123*57
$GPVTG,263.97,T,-375.93,M,004.916,N,009.104,K,D*0F
$GPGGA,083054.50,5702.8723898,N,00949.6062865,E,2,5,1.6,-4.060,M,40.592,M,1.9,0123*5B
$GPVTG,263.44,T,-376.46,M,004.942,N,009.153,K,D*09
$GPGGA,083054.55,5702.8723837,N,00949.6061648,E,2,5,1.6,-4.065,M,40.592,M,1.9,0123*5C
$GPVTG,262.91,T,-376.99,M,004.914,N,009.100,K,D*07
$GPGGA,083054.60,5702.8723712,N,00949.6060408,E,2,5,1.6,-4.069,M,40.592,M,1.9,0123*59
$GPVTG,261.52,T,-378.38,M,004.928,N,009.127,K,D*04
$GPGGA,083054.65,5702.8723629,N,00949.6059145,E,2,5,1.6,-4.061,M,40.592,M,2.1,0123*50
$GPVTG,260.72,T,-379.18,M,004.919,N,009.110,K,D*02
$GPGGA,083054.70,5702.8723596,N,00949.6057906,E,2,5,1.6,-4.067,M,40.592,M,2.1,0123*54
$GPVTG,261.21,T,-378.69,M,004.914,N,009.100,K,D*0E
$GPGGA,083054.75,5702.8723492,N,00949.6056708,E,2,5,1.6,-4.075,M,40.592,M,2.1,0123*56
$GPVTG,260.49,T,-379.41,M,004.878,N,009.034,K,D*07
$GPGGA,083054.80,5702.8723339,N,00949.6055487,E,2,5,1.6,-4.082,M,40.592,M,2.1,0123*55
$GPVTG,259.14,T,-380.76,M,004.887,N,009.050,K,D*05
$GPGGA,083054.85,5702.8723210,N,00949.6054242,E,2,5,1.6,-4.070,M,40.592,M,2.3,0123*5B
$GPVTG,257.95,T,-381.95,M,004.857,N,008.994,K,D*03
$GPGGA,083054.90,5702.8723067,N,00949.6053050,E,2,5,1.6,-4.074,M,40.592,M,2.3,0123*5F
$GPVTG,257.11,T,-382.79,M,004.839,N,008.962,K,D*0F
$GPGGA,083054.95,5702.8722975,N,00949.6051811,E,2,5,1.6,-4.082,M,40.592,M,2.3,0123*57
$GPVTG,257.41,T,-382.49,M,004.863,N,009.006,K,D*0C
$GPGGA,083055.00,5702.8722828,N,00949.6050583,E,2,5,1.6,-4.089,M,40.592,M,2.3,0123*5F
$GPVTG,256.82,T,-383.08,M,004.889,N,009.054,K,D*05
$GPGGA,083055.05,5702.8722617,N,00949.6049333,E,2,5,1.6,-4.083,M,40.592,M,2.6,0123*52
$GPVTG,254.97,T,-384.93,M,004.915,N,009.102,K,D*00
$GPGGA,083055.10,5702.8722420,N,00949.6048200,E,2,5,1.6,-4.089,M,40.592,M,2.6,0123*5A
$GPVTG,253.63,T,-386.27,M,004.849,N,008.980,K,D*0A
$GPGGA,083055.15,5702.8722301,N,00949.6047040,E,2,5,1.6,-4.091,M,40.592,M,2.6,0123*5B
$GPVTG,253.89,T,-386.01,M,004.797,N,008.884,K,D*03
$GPGGA,083055.20,5702.8722145,N,00949.6045828,E,2,5,1.6,-4.098,M,40.592,M,2.6,0123*52
$GPVTG,253.80,T,-386.10,M,004.823,N,008.933,K,D*07
$GPGGA,083055.25,5702.8721942,N,00949.6044516,E,2,5,1.6,-4.087,M,40.592,M,2.8,0123*5A
$GPVTG,252.87,T,-387.03,M,004.922,N,009.116,K,D*0C
$GPGGA,083055.30,5702.8721732,N,00949.6043336,E,2,5,1.6,-4.094,M,40.592,M,2.8,0123*56
$GPVTG,252.04,T,-387.86,M,004.921,N,009.114,K,D*0B
$GPGGA,083055.35,5702.8721468,N,00949.6042213,E,2,5,1.6,-4.099,M,40.592,M,2.8,0123*55
$GPVTG,250.27,T,-389.63,M,004.886,N,009.048,K,D*09
$GPGGA,083055.40,5702.8721235,N,00949.6041037,E,2,5,1.6,-4.107,M,40.592,M,2.8,0123*58
$GPVTG,249.48,T,-390.42,M,004.902,N,009.078,K,D*0D
$GPGGA,083055.45,5702.8721006,N,00949.6039891,E,2,6,1.6,-4.099,M,40.592,M,3.0,0123*58
$GPVTG,248.45,T,-391.45,M,004.839,N,008.962,K,D*0D
$GPGGA,083055.50,5702.8720781,N,00949.6038769,E,2,6,1.6,-4.106,M,40.592,M,3.0,0123*5B
$GPVTG,247.89,T,-392.01,M,004.805,N,008.898,K,D*0A
$GPGGA,083055.55,5702.8720537,N,00949.6037561,E,2,6,1.6,-4.113,M,40.592,M,3.0,0123*50
$GPVTG,247.63,T,-392.27,M,004.879,N,009.037,K,D*0D
$GPGGA,083055.60,5702.8720259,N,00949.6036395,E,2,6,1.6,-4.120,M,40.592,M,3.0,0123*55
$GPVTG,246.74,T,-393.16,M,004.918,N,009.108,K,D*02
$GPGGA,083055.65,5702.8719945,N,00949.6035220,E,2,6,1.6,-4.116,M,40.592,M,3.2,0123*57
$GPVTG,245.00,T,-394.90,M,004.953,N,009.173,K,D*08
$GPGGA,083055.70,5702.8719680,N,00949.6034145,E,2,6,1.6,-4.125,M,40.592,M,3.2,0123*54
$GPVTG,244.23,T,-395.67,M,004.883,N,009.044,K,D*08
$GPGGA,083055.75,5702.8719449,N,00949.6033058,E,2,6,1.6,-4.132,M,40.592,M,3.2,0123*5A
$GPVTG,244.24,T,-395.66,M,004.817,N,008.921,K,D*08
$GPGGA,083055.80,5702.8719135,N,00949.6031954,E,2,6,1.6,-4.139,M,40.592,M,3.2,0123*52
$GPVTG,243.16,T,-396.74,M,004.833,N,008.951,K,D*0F
$GPGGA,083055.85,5702.8718850,N,00949.6030807,E,2,6,1.6,-4.121,M,40.592,M,3.4,0123*55
$GPVTG,241.93,T,-397.97,M,004.825,N,008.936,K,D*0A
$GPGGA,083055.90,5702.8718595,N,00949.6029759,E,2,6,1.6,-4.128,M,40.592,M,3.4,0123*50
$GPVTG,241.77,T,-398.13,M,004.754,N,008.804,K,D*0A
$GPGGA,083055.95,5702.8718276,N,00949.6028708,E,2,6,1.6,-4.136,M,40.592,M,3.4,0123*55
$GPVTG,240.84,T,-399.06,M,004.740,N,008.779,K,D*02
$GPGGA,083056.00,5702.8717899,N,00949.6027650,E,2,5,1.6,-4.139,M,40.592,M,3.4,0123*51
$GPVTG,239.32,T,-400.58,M,004.779,N,008.850,K,D*03
$GPGGA,083056.05,5702.8717559,N,00949.6026527,E,2,5,1.6,-4.121,M,40.592,M,1.9,0123*51
$GPVTG,238.40,T,-401.50,M,004.786,N,008.863,K,D*0E
$GPGGA,083056.10,5702.8717243,N,00949.6025524,E,2,5,1.6,-4.125,M,40.592,M,1.9,0123*5D
$GPVTG,237.60,T,-402.30,M,004.762,N,008.820,K,D*0B
$GPGGA,083056.15,5702.8716926,N,00949.6024445,E,2,5,1.6,-4.132,M,40.592,M,1.9,0123*50
$GPVTG,237.23,T,-402.67,M,004.782,N,008.856,K,D*01
$GPGGA,083056.20,5702.8716546,N,00949.6023399,E,2,5,1.6,-4.137,M,40.592,M,1.9,0123*58
$GPVTG,236.41,T,-403.49,M,004.809,N,008.907,K,D*00
$GPGGA,083056.25,5702.8716265,N,00949.6022359,E,2,5,1.6,-4.127,M,40.592,M,2.2,0123*5F
$GPVTG,235.94,T,-403.96,M,004.809,N,008.905,K,D*0B
$GPGGA,083056.30,5702.8715867,N,00949.6021420,E,2,5,1.6,-4.133,M,40.592,M,2.2,0123*5F
$GPVTG,234.60,T,-405.30,M,004.778,N,008.849,K,D*0B
$GPGGA,083056.35,5702.8715445,N,00949.6020418,E,2,5,1.6,-4.135,M,40.592,M,2.2,0123*5A
$GPVTG,233.57,T,-406.33,M,004.810,N,008.908,K,D*0D
$GPGGA,083056.40,5702.8715044,N,00949.6019411,E,2,5,1.6,-4.139,M,40.592,M,2.2,0123*52
$GPVTG,232.88,T,-407.02,M,004.838,N,008.959,K,D*03
$GPGGA,083056.45,5702.8714653,N,00949.6018415,E,2,5,1.6,-4.134,M,40.592,M,2.5,0123*59
$GPVTG,232.53,T,-407.37,M,004.767,N,008.828,K,D*01
$GPGGA,083056.50,5702.8714287,N,00949.6017445,E,2,5,1.6,-4.140,M,40.592,M,2.5,0123*59
$GPVTG,232.61,T,-407.29,M,004.737,N,008.773,K,D*0B
$GPGGA,083056.55,5702.8713812,N,00949.6016546,E,2,5,1.6,-4.148,M,40.592,M,2.5,0123*56
$GPVTG,230.12,T,-409.78,M,004.769,N,008.833,K,D*07
$GPGGA,083056.60,5702.8713372,N,00949.6015627,E,2,5,1.6,-4.154,M,40.592,M,2.5,0123*57
$GPVTG,228.98,T,-410.92,M,004.782,N,008.855,K,D*05
$GPGGA,083056.65,5702.8712981,N,00949.6014677,E,2,5,1.6,-4.151,M,40.592,M,2.7,0123*56
$GPVTG,228.67,T,-411.23,M,004.772,N,008.839,K,D*0B
$GPGGA,083056.70,5702.8712618,N,00949.6013806,E,2,5,1.6,-4.154,M,40.592,M,2.7,0123*57
$GPVTG,228.53,T,-411.37,M,004.671,N,008.651,K,D*0B
$GPGGA,083056.75,5702.8712140,N,00949.6012863,E,2,5,1.6,-4.161,M,40.592,M,2.7,0123*5C
$GPVTG,227.64,T,-412.26,M,004.761,N,008.817,K,D*0F
$GPGGA,083056.80,5702.8711714,N,00949.6011997,E,2,5,1.6,-4.167,M,40.592,M,2.7,0123*5D
$GPVTG,226.91,T,-412.99,M,004.728,N,008.757,K,D*06
$GPGGA,083056.85,5702.8711250,N,00949.6011126,E,2,5,1.6,-4.167,M,40.592,M,2.9,0123*51
$GPVTG,225.55,T,-414.35,M,004.748,N,008.792,K,D*02
$GPGGA,083056.90,5702.8710872,N,00949.6010347,E,2,5,1.6,-4.175,M,40.592,M,2.9,0123*59
$GPVTG,224.95,T,-414.95,M,004.605,N,008.528,K,D*0E
$GPGGA,083056.95,5702.8710380,N,00949.6009520,E,2,5,1.6,-4.184,M,40.592,M,2.9,0123*5B
$GPVTG,223.66,T,-416.24,M,004.637,N,008.589,K,D*07
$GPGGA,083057.00,5702.8709844,N,00949.6008650,E,2,5,1.6,-4.200,M,40.592,M,2.9,0123*57
$GPVTG,222.60,T,-417.30,M,004.749,N,008.796,K,D*00
$GPGGA,083057.05,5702.8709495,N,00949.6007660,E,2,5,1.6,-4.151,M,40.592,M,2.1,0123*51
$GPVTG,222.09,T,-417.81,M,004.756,N,008.808,K,D*03
$GPGGA,083057.10,5702.8709038,N,00949.6006861,E,2,5,1.6,-4.146,M,40.592,M,2.1,0123*5E
$GPVTG,221.39,T,-418.51,M,004.748,N,008.794,K,D*04
$GPGGA,083057.15,5702.8708615,N,00949.6005982,E,2,5,1.6,-4.145,M,40.592,M,2.1,0123*5F
$GPVTG,221.52,T,-418.38,M,004.759,N,008.814,K,D*01
$GPGGA,083057.20,5702.8708128,N,00949.6005136,E,2,5,1.6,-4.146,M,40.592,M,2.1,0123*54
$GPVTG,221.20,T,-418.70,M,004.790,N,008.872,K,D*0D
$GPGGA,083057.25,5702.8707666,N,00949.6004397,E,2,5,1.6,-4.139,M,40.592,M,2.4,0123*56
$GPVTG,220.54,T,-419.36,M,004.799,N,008.887,K,D*0F
$GPGGA,083057.30,5702.8707194,N,00949.6003636,E,2,5,1.6,-4.140,M,40.592,M,2.4,0123*5F
$GPVTG,219.98,T,-419.92,M,004.784,N,008.860,K,D*0E
$GPGGA,083057.35,5702.8706704,N,00949.6002879,E,2,5,1.6,-4.148,M,40.592,M,2.4,0123*58
$GPVTG,219.36,T,-420.54,M,004.776,N,008.846,K,D*03
$GPGGA,083057.40,5702.8706214,N,00949.6002109,E,2,5,1.6,-4.152,M,40.592,M,2.4,0123*5B
$GPVTG,218.89,T,-421.01,M,004.773,N,008.839,K,D*0A
$GPGGA,083057.45,5702.8705816,N,00949.6001348,E,2,5,1.6,-4.138,M,40.592,M,2.6,0123*5F
$GPVTG,217.92,T,-421.98,M,004.665,N,008.639,K,D*07
$GPGGA,083057.50,5702.8705335,N,00949.6000642,E,2,5,1.6,-4.142,M,40.592,M,2.6,0123*52
$GPVTG,217.23,T,-422.67,M,004.628,N,008.571,K,D*08
$GPGGA,083057.55,5702.8704834,N,00949.5999914,E,2,5,1.6,-4.147,M,40.592,M,2.6,0123*5F
$GPVTG,216.84,T,-423.06,M,004.631,N,008.577,K,D*0C
$GPGGA,083057.60,5702.8704311,N,00949.5999228,E,2,5,1.6,-4.149,M,40.592,M,2.6,0123*5F
$GPVTG,215.96,T,-423.94,M,004.627,N,008.570,K,D*07
$GPGGA,083057.65,5702.8703832,N,00949.5998476,E,2,5,1.6,-4.145,M,40.592,M,2.9,0123*58
$GPVTG,215.50,T,-424.40,M,004.647,N,008.607,K,D*06
$GPGGA,083057.70,5702.8703347,N,00949.5997903,E,2,5,1.6,-4.152,M,40.592,M,2.9,0123*53
$GPVTG,214.03,T,-425.87,M,004.555,N,008.436,K,D*0B
$GPGGA,083057.75,5702.8702818,N,00949.5997253,E,2,5,1.6,-4.161,M,40.592,M,2.9,0123*58
$GPVTG,213.29,T,-426.61,M,004.556,N,008.438,K,D*02
$GPGGA,083057.80,5702.8702296,N,00949.5996646,E,2,5,1.6,-4.170,M,40.592,M,2.9,0123*5F
$GPVTG,212.35,T,-427.55,M,004.534,N,008.396,K,D*0F
$GPGGA,083057.85,5702.8701786,N,00949.5996000,E,2,5,1.6,-4.158,M,40.592,M,3.1,0123*5A
$GPVTG,211.44,T,-428.46,M,004.498,N,008.331,K,D*0D
$GPGGA,083057.90,5702.8701282,N,00949.5995488,E,2,5,1.6,-4.164,M,40.592,M,3.1,0123*57
$GPVTG,209.98,T,-429.92,M,004.427,N,008.199,K,D*09
$GPGGA,083057.95,5702.8700762,N,00949.5994975,E,2,5,1.6,-4.175,M,40.592,M,3.1,0123*56
$GPVTG,208.69,T,-431.21,M,004.385,N,008.122,K,D*08
$GPGGA,083058.00,5702.8700193,N,00949.5994472,E,2,5,1.6,-4.186,M,40.592,M,3.1,0123*5B
$GPVTG,207.23,T,-432.67,M,004.393,N,008.136,K,D*0A
$GPGGA,083058.05,5702.8699683,N,00949.5993934,E,2,5,1.6,-4.161,M,40.592,M,1.4,0123*5F
$GPVTG,206.20,T,-433.70,M,004.365,N,008.084,K,D*0E
$GPGGA,083058.10,5702.8699145,N,00949.5993417,E,2,5,1.6,-4.169,M,40.592,M,1.4,0123*52
$GPVTG,205.33,T,-434.57,M,004.354,N,008.064,K,D*01
$GPGGA,083058.15,5702.8698559,N,00949.5992939,E,2,5,1.6,-4.176,M,40.592,M,1.4,0123*51
$GPVTG,204.16,T,-435.74,M,004.383,N,008.117,K,D*08
$GPGGA,083058.20,5702.8697999,N,00949.5992470,E,2,5,1.6,-4.182,M,40.592,M,1.4,0123*53
$GPVTG,203.22,T,-436.68,M,004.386,N,008.123,K,D*04
$GPGGA,083058.25,5702.8697443,N,00949.5992017,E,2,5,1.6,-4.169,M,40.592,M,1.7,0123*5F
$GPVTG,202.26,T,-437.64,M,004.375,N,008.103,K,D*02
$GPGGA,083058.30,5702.8696869,N,00949.5991604,E,2,5,1.6,-4.167,M,40.592,M,1.7,0123*57
$GPVTG,201.17,T,-438.73,M,004.387,N,008.124,K,D*02
$GPGGA,083058.35,5702.8696318,N,00949.5991198,E,2,5,1.6,-4.166,M,40.592,M,1.7,0123*5C
$GPVTG,200.33,T,-439.57,M,004.369,N,008.092,K,D*0E
$GPGGA,083058.40,5702.8695757,N,00949.5990806,E,2,5,1.6,-4.162,M,40.592,M,1.7,0123*59
$GPVTG,199.46,T,-440.44,M,004.363,N,008.080,K,D*0A
$GPGGA,083058.45,5702.8695243,N,00949.5990338,E,2,5,1.6,-4.158,M,40.592,M,1.9,0123*5D
$GPVTG,198.49,T,-441.41,M,004.429,N,008.202,K,D*01
$GPGGA,083058.50,5702.8694673,N,00949.5989959,E,2,5,1.6,-4.154,M,40.592,M,1.9,0123*56
$GPVTG,197.87,T,-442.03,M,004.411,N,008.170,K,D*04
$GPGGA,083058.55,5702.8694129,N,00949.5989658,E,2,5,1.6,-4.146,M,40.592,M,1.9,0123*56
$GPVTG,196.93,T,-442.97,M,004.339,N,008.037,K,D*02
$GPGGA,083058.60,5702.8693602,N,00949.5989327,E,2,5,1.6,-4.143,M,40.592,M,1.9,0123*51
$GPVTG,196.44,T,-443.46,M,004.263,N,007.895,K,D*04
$GPGGA,083058.65,5702.8693167,N,00949.5988973,E,2,5,1.6,-4.160,M,40.592,M,2.1,0123*50
$GPVTG,195.81,T,-444.09,M,004.181,N,007.744,K,D*0E
$GPGGA,083058.70,5702.8692608,N,00949.5988664,E,2,5,1.6,-4.161,M,40.592,M,2.1,0123*53
$GPVTG,195.12,T,-444.78,M,004.177,N,007.736,K,D*0E
$GPGGA,083058.75,5702.8692070,N,00949.5988362,E,2,5,1.6,-4.161,M,40.592,M,2.1,0123*5C
$GPVTG,194.60,T,-445.30,M,004.142,N,007.671,K,D*03
$GPGGA,083058.80,5702.8691480,N,00949.5988078,E,2,5,1.6,-4.167,M,40.592,M,2.1,0123*50
$GPVTG,193.79,T,-446.11,M,004.185,N,007.750,K,D*05
$GPGGA,083058.85,5702.8690896,N,00949.5987825,E,2,5,1.6,-4.144,M,40.592,M,2.3,0123*53
$GPVTG,192.94,T,-446.96,M,004.160,N,007.705,K,D*03
$GPGGA,083058.90,5702.8690361,N,00949.5987692,E,2,5,1.6,-4.149,M,40.592,M,2.3,0123*5B
$GPVTG,191.31,T,-448.59,M,004.102,N,007.597,K,D*0F
$GPGGA,083058.95,5702.8689866,N,00949.5987500,E,2,5,1.6,-4.157,M,40.592,M,2.3,0123*5D
$GPVTG,190.55,T,-449.35,M,004.004,N,007.415,K,D*0B
$GPGGA,083059.00,5702.8689225,N,00949.5987362,E,2,5,1.6,-4.164,M,40.592,M,2.3,0123*5F
$GPVTG,188.91,T,-450.99,M,004.119,N,007.628,K,D*05
$GPGGA,083059.05,5702.8688649,N,00949.5987302,E,2,5,1.6,-4.144,M,40.592,M,2.6,0123*54
$GPVTG,187.43,T,-452.47,M,004.111,N,007.614,K,D*03
$GPGGA,083059.10,5702.8688084,N,00949.5987162,E,2,5,1.6,-4.149,M,40.592,M,2.6,0123*5E
$GPVTG,186.51,T,-453.39,M,004.112,N,007.616,K,D*08
$GPGGA,083059.15,5702.8687527,N,00949.5987047,E,2,5,1.6,-4.154,M,40.592,M,2.6,0123*52
$GPVTG,185.55,T,-454.35,M,004.106,N,007.605,K,D*03
$GPGGA,083059.20,5702.8687006,N,00949.5986983,E,2,5,1.6,-4.157,M,40.592,M,2.6,0123*51
$GPVTG,184.31,T,-455.59,M,004.071,N,007.539,K,D*06
$GPGGA,083059.25,5702.8686430,N,00949.5986913,E,2,5,1.6,-4.143,M,40.592,M,2.8,0123*56
$GPVTG,183.29,T,-456.61,M,004.092,N,007.578,K,D*08
$GPGGA,083059.30,5702.8685885,N,00949.5986869,E,2,5,1.6,-4.146,M,40.592,M,2.8,0123*5A
$GPVTG,182.19,T,-457.71,M,004.075,N,007.547,K,D*0F
$GPGGA,083059.35,5702.8685360,N,00949.5986811,E,2,5,1.6,-4.145,M,40.592,M,2.8,0123*53
$GPVTG,181.41,T,-458.49,M,004.041,N,007.484,K,D*0C
$GPGGA,083059.40,5702.8684838,N,00949.5986745,E,2,5,1.6,-4.142,M,40.592,M,2.8,0123*5F
$GPVTG,180.83,T,-459.07,M,004.005,N,007.418,K,D*0D
$GPGGA,083059.45,5702.8684359,N,00949.5986679,E,2,5,1.6,-4.147,M,40.592,M,3.0,0123*54
$GPVTG,180.41,T,-459.49,M,003.925,N,007.268,K,D*04
$GPGGA,083059.50,5702.8683811,N,00949.5986639,E,2,5,1.6,-4.144,M,40.592,M,3.0,0123*57
$GPVTG,180.01,T,-459.89,M,003.927,N,007.272,K,D*05
$GPGGA,083059.55,5702.8683291,N,00949.5986602,E,2,5,1.6,-4.139,M,40.592,M,3.0,0123*52
$GPVTG,179.64,T,-460.26,M,003.873,N,007.172,K,D*0C
$GPGGA,083059.60,5702.8682757,N,00949.5986564,E,2,5,1.6,-4.137,M,40.592,M,3.0,0123*57
$GPVTG,179.36,T,-460.54,M,003.858,N,007.146,K,D*00
$GPGGA,083059.65,5702.8682261,N,00949.5986364,E,2,5,1.6,-4.143,M,40.592,M,3.2,0123*55
$GPVTG,179.88,T,-460.02,M,003.781,N,007.002,K,D*0C
$GPGGA,083059.70,5702.8681733,N,00949.5986370,E,2,5,1.6,-4.148,M,40.592,M,3.2,0123*5E
$GPVTG,179.18,T,-460.72,M,003.773,N,006.987,K,D*0A
$GPGGA,083059.75,5702.8681202,N,00949.5986394,E,2,5,1.6,-4.149,M,40.592,M,3.2,0123*57
$GPVTG,178.41,T,-461.49,M,003.770,N,006.982,K,D*08
$GPGGA,083059.80,5702.8680656,N,00949.5986422,E,2,5,1.6,-4.154,M,40.592,M,3.2,0123*5F
$GPVTG,177.74,T,-462.16,M,003.794,N,007.026,K,D*04
$GPGGA,083059.85,5702.8680075,N,00949.5986457,E,2,5,1.6,-4.141,M,40.592,M,3.4,0123*5D
$GPVTG,177.39,T,-462.51,M,003.795,N,007.029,K,D*00
$GPGGA,083059.90,5702.8679557,N,00949.5986519,E,2,5,1.6,-4.147,M,40.592,M,3.4,0123*57
$GPVTG,176.56,T,-463.34,M,003.782,N,007.003,K,D*04
$GPGGA,083059.95,5702.8679021,N,00949.5986589,E,2,5,1.6,-4.154,M,40.592,M,3.4,0123*5D
$GPVTG,175.79,T,-464.11,M,003.786,N,007.012,K,D*0E
$GPGGA,083100.00,5702.8678489,N,00949.5986694,E,2,5,1.6,-4.165,M,40.592,M,3.4,0123*56
$GPVTG,174.79,T,-465.11,M,003.791,N,007.022,K,D*0B
$GPGGA,083100.05,5702.8677945,N,00949.5986843,E,2,5,1.6,-4.147,M,40.592,M,1.9,0123*5A
$GPVTG,173.65,T,-466.25,M,003.797,N,007.033,K,D*03
$GPGGA,083100.10,5702.8677433,N,00949.5986969,E,2,5,1.6,-4.150,M,40.592,M,1.9,0123*5D
$GPVTG,172.70,T,-467.20,M,003.786,N,007.012,K,D*01
$GPGGA,083100.15,5702.8676917,N,00949.5987113,E,2,5,1.6,-4.156,M,40.592,M,1.9,0123*50
$GPVTG,171.74,T,-468.16,M,003.782,N,007.004,K,D*0F
$GPGGA,083100.20,5702.8676410,N,00949.5987265,E,2,5,1.6,-4.161,M,40.592,M,1.9,0123*5A
$GPVTG,170.81,T,-469.09,M,003.770,N,006.982,K,D*00
$GPGGA,083100.25,5702.8675986,N,00949.5987559,E,2,5,1.6,-4.152,M,40.592,M,2.2,0123*5E
$GPVTG,169.10,T,-470.80,M,003.737,N,006.921,K,D*03
$GPGGA,083100.30,5702.8675478,N,00949.5987758,E,2,5,1.6,-4.154,M,40.592,M,2.2,0123*53
$GPVTG,168.04,T,-471.86,M,003.737,N,006.921,K,D*00
$GPGGA,083100.35,5702.8674982,N,00949.5987984,E,2,5,1.6,-4.158,M,40.592,M,2.2,0123*5C
$GPVTG,166.84,T,-473.06,M,003.729,N,006.906,K,D*06
$GPGGA,083100.40,5702.8674491,N,00949.5988228,E,2,5,1.6,-4.160,M,40.592,M,2.2,0123*58
$GPVTG,165.61,T,-474.29,M,003.721,N,006.891,K,D*03
$GPGGA,083100.45,5702.8674028,N,00949.5988586,E,2,5,1.6,-4.159,M,40.592,M,2.5,0123*55
$GPVTG,163.83,T,-476.07,M,003.701,N,006.855,K,D*0D
$GPGGA,083100.50,5702.8673522,N,00949.5988858,E,2,5,1.6,-4.159,M,40.592,M,2.5,0123*57
$GPVTG,162.82,T,-477.08,M,003.718,N,006.886,K,D*05
$GPGGA,083100.55,5702.8673044,N,00949.5989161,E,2,5,1.6,-4.163,M,40.592,M,2.5,0123*5C
$GPVTG,161.50,T,-478.40,M,003.712,N,006.875,K,D*0C
$GPGGA,083100.60,5702.8672562,N,00949.5989449,E,2,5,1.6,-4.162,M,40.592,M,2.5,0123*54
$GPVTG,160.62,T,-479.28,M,003.706,N,006.864,K,D*06
$GPGGA,083100.65,5702.8672101,N,00949.5989759,E,2,5,1.6,-4.149,M,40.592,M,2.7,0123*59
$GPVTG,159.41,T,-480.49,M,003.694,N,006.841,K,D*01
$GPGGA,083100.70,5702.8671649,N,00949.5990097,E,2,5,1.6,-4.146,M,40.592,M,2.7,0123*57
$GPVTG,158.13,T,-481.77,M,003.666,N,006.790,K,D*05
$GPGGA,083100.75,5702.8671184,N,00949.5990415,E,2,5,1.6,-4.143,M,40.592,M,2.7,0123*5F
$GPVTG,157.39,T,-482.51,M,003.652,N,006.764,K,D*09
$GPGGA,083100.80,5702.8670708,N,00949.5990784,E,2,5,1.6,-4.139,M,40.592,M,2.7,0123*50
$GPVTG,156.36,T,-483.54,M,003.668,N,006.792,K,D*03
$GPGGA,083100.85,5702.8670382,N,00949.5991136,E,2,5,1.6,-4.156,M,40.592,M,2.9,0123*5A
$GPVTG,154.48,T,-485.42,M,003.488,N,006.461,K,D*0A
$GPGGA,083100.90,5702.8669929,N,00949.5991522,E,2,5,1.6,-4.161,M,40.592,M,2.9,0123*58
$GPVTG,153.62,T,-486.28,M,003.512,N,006.505,K,D*0B
$GPGGA,083100.95,5702.8669467,N,00949.5991914,E,2,5,1.6,-4.166,M,40.592,M,2.9,0123*54
$GPVTG,152.97,T,-486.93,M,003.549,N,006.572,K,D*0E
$GPGGA,083101.00,5702.8669031,N,00949.5992317,E,2,5,1.6,-4.170,M,40.592,M,2.9,0123*53
$GPVTG,152.03,T,-487.87,M,003.543,N,006.562,K,D*0C
$GPGGA,083101.05,5702.8668567,N,00949.5992665,E,2,5,1.6,-4.160,M,40.592,M,2.1,0123*58
$GPVTG,151.36,T,-488.54,M,003.507,N,006.496,K,D*02
$GPGGA,083101.10,5702.8668170,N,00949.5993081,E,2,5,1.6,-4.164,M,40.592,M,2.1,0123*57
$GPVTG,150.12,T,-489.78,M,003.458,N,006.404,K,D*0A
$GPGGA,083101.15,5702.8667756,N,00949.5993519,E,2,5,1.6,-4.163,M,40.592,M,2.1,0123*5C
$GPVTG,149.12,T,-490.78,M,003.450,N,006.390,K,D*08
$GPGGA,083101.20,5702.8667347,N,00949.5994003,E,2,5,1.6,-4.166,M,40.592,M,2.1,0123*52
$GPVTG,147.78,T,-492.12,M,003.457,N,006.402,K,D*0F
$GPGGA,083101.25,5702.8666953,N,00949.5994502,E,2,5,1.6,-4.159,M,40.592,M,2.4,0123*54
$GPVTG,146.71,T,-493.19,M,003.437,N,006.365,K,D*0D
$GPGGA,083101.30,5702.8666579,N,00949.5994985,E,2,5,1.6,-4.165,M,40.592,M,2.4,0123*58
$GPVTG,145.29,T,-494.61,M,003.403,N,006.302,K,D*0D
$GPGGA,083101.35,5702.8666170,N,00949.5995507,E,2,5,1.6,-4.170,M,40.592,M,2.4,0123*53
$GPVTG,144.28,T,-495.62,M,003.439,N,006.368,K,D*0A
$GPGGA,083101.40,5702.8665794,N,00949.5995979,E,2,5,1.6,-4.174,M,40.592,M,2.4,0123*5F
$GPVTG,143.47,T,-496.43,M,003.409,N,006.314,K,D*0C
$GPGGA,083101.45,5702.8665394,N,00949.5996465,E,2,5,1.6,-4.175,M,40.592,M,2.6,0123*5E
$GPVTG,142.37,T,-497.53,M,003.398,N,006.293,K,D*0B
$GPGGA,083101.50,5702.8665027,N,00949.5996998,E,2,5,1.6,-4.186,M,40.592,M,2.6,0123*52
$GPVTG,141.21,T,-498.69,M,003.392,N,006.283,K,D*02
$GPGGA,083101.55,5702.8664651,N,00949.5997537,E,2,5,1.6,-4.194,M,40.592,M,2.6,0123*5A
$GPVTG,140.36,T,-499.54,M,003.403,N,006.302,K,D*0D
$GPGGA,083101.60,5702.8664321,N,00949.5998096,E,2,5,1.6,-4.196,M,40.592,M,2.6,0123*5D
$GPVTG,138.76,T,-501.14,M,003.369,N,006.240,K,D*0E
$GPGGA,083101.65,5702.8663893,N,00949.5998764,E,2,5,1.6,-4.163,M,40.592,M,2.9,0123*52
$GPVTG,137.64,T,-502.26,M,003.390,N,006.279,K,D*0C
$GPGGA,083101.70,5702.8663549,N,00949.5999346,E,2,5,1.6,-4.165,M,40.592,M,2.9,0123*5F
$GPVTG,136.54,T,-503.36,M,003.391,N,006.280,K,D*09
$GPGGA,083101.75,5702.8663208,N,00949.5999959,E,2,5,1.6,-4.168,M,40.592,M,2.9,0123*51
$GPVTG,135.33,T,-504.57,M,003.403,N,006.303,K,D*0D
$GPGGA,083101.80,5702.8662867,N,00949.6000563,E,2,5,1.6,-4.169,M,40.592,M,2.9,0123*57
$GPVTG,134.38,T,-505.52,M,003.411,N,006.316,K,D*04
$GPGGA,083101.85,5702.8662516,N,00949.6001124,E,2,5,1.6,-4.169,M,40.592,M,3.1,0123*56
$GPVTG,133.59,T,-506.31,M,003.401,N,006.299,K,D*05
$GPGGA,083101.90,5702.8662183,N,00949.6001751,E,2,5,1.6,-4.168,M,40.592,M,3.1,0123*5F
$GPVTG,132.70,T,-507.20,M,003.413,N,006.322,K,D*0C
$GPGGA,083101.95,5702.8661847,N,00949.6002387,E,2,5,1.6,-4.169,M,40.592,M,3.1,0123*55
$GPVTG,131.97,T,-507.93,M,003.431,N,006.353,K,D*08
$GPGGA,083102.00,5702.8661551,N,00949.6003025,E,2,5,1.6,-4.170,M,40.592,M,3.1,0123*52
$GPVTG,130.80,T,-509.10,M,003.417,N,006.329,K,D*03
$GPGGA,083102.05,5702.8661292,N,00949.6003578,E,2,5,1.6,-4.170,M,40.592,M,1.4,0123*55
$GPVTG,129.41,T,-510.49,M,003.340,N,006.186,K,D*00
$GPGGA,083102.10,5702.8660985,N,00949.6004253,E,2,5,1.6,-4.171,M,40.592,M,1.4,0123*55
$GPVTG,128.65,T,-511.25,M,003.372,N,006.246,K,D*02
$GPGGA,083102.15,5702.8660700,N,00949.6004923,E,2,5,1.6,-4.174,M,40.592,M,1.4,0123*5A
$GPVTG,127.57,T,-512.33,M,003.371,N,006.244,K,D*09
$GPGGA,083102.20,5702.8660399,N,00949.6005589,E,2,5,1.6,-4.178,M,40.592,M,1.4,0123*59
$GPVTG,127.10,T,-512.80,M,003.386,N,006.270,K,D*0D
$GPGGA,083102.25,5702.8660082,N,00949.6006253,E,2,5,1.6,-4.163,M,40.592,M,1.7,0123*5F
