$GPGGA,090423.20,5702.8482712,N,00950.0598599,E,2,5,1.4,-3.793,M,40.592,M,2.6,0123*5D
$GPVTG,010.71,T,-629.19,M,004.981,N,009.226,K,D*02
$GPGGA,090423.25,5702.8483328,N,00950.0598743,E,2,5,1.4,-3.770,M,40.592,M,2.9,0123*53
$GPVTG,009.38,T,-630.52,M,005.019,N,009.294,K,D*00
$GPGGA,090423.30,5702.8483950,N,00950.0598915,E,2,5,1.4,-3.768,M,40.592,M,2.9,0123*56
$GPVTG,008.24,T,-631.66,M,004.987,N,009.235,K,D*0E
$GPGGA,090423.35,5702.8484666,N,00950.0599101,E,2,5,1.4,-3.761,M,40.592,M,2.9,0123*5B
$GPVTG,007.47,T,-632.43,M,005.046,N,009.346,K,D*00
$GPGGA,090423.40,5702.8485398,N,00950.0599252,E,2,5,1.4,-3.756,M,40.592,M,2.9,0123*5D
$GPVTG,006.48,T,-633.42,M,005.113,N,009.469,K,D*05
$GPGGA,090423.45,5702.8485882,N,00950.0599448,E,2,5,1.4,-3.772,M,40.592,M,3.1,0123*5A
$GPVTG,005.85,T,-634.05,M,005.096,N,009.437,K,D*04
$GPGGA,090423.50,5702.8486492,N,00950.0599554,E,2,5,1.4,-3.774,M,40.592,M,3.1,0123*5A
$GPVTG,004.87,T,-635.03,M,005.042,N,009.337,K,D*0E
$GPGGA,090423.55,5702.8487207,N,00950.0599652,E,2,5,1.4,-3.776,M,40.592,M,3.1,0123*53
$GPVTG,003.97,T,-635.93,M,005.087,N,009.421,K,D*08
$GPGGA,090423.60,5702.8487901,N,00950.0599733,E,2,5,1.4,-3.776,M,40.592,M,3.1,0123*5E
$GPVTG,003.14,T,-636.76,M,005.109,N,009.462,K,D*0B
$GPGGA,090423.65,5702.8488516,N,00950.0599719,E,2,5,1.4,-3.757,M,40.592,M,3.3,0123*57
$GPVTG,001.95,T,-637.95,M,005.137,N,009.513,K,D*06
$GPGGA,090423.70,5702.8489166,N,00950.0599800,E,2,5,1.4,-3.759,M,40.592,M,3.3,0123*58
$GPVTG,001.71,T,-638.19,M,005.114,N,009.470,K,D*02
$GPGGA,090423.75,5702.8489908,N,00950.0599826,E,2,5,1.4,-3.761,M,40.592,M,3.3,0123*52
$GPVTG,000.86,T,-639.04,M,005.173,N,009.580,K,D*09
$GPGGA,090423.80,5702.8490600,N,00950.0599814,E,2,5,1.4,-3.761,M,40.592,M,3.3,0123*56
$GPVTG,359.78,T,-280.12,M,005.182,N,009.596,K,D*0F
$GPGGA,090423.85,5702.8491225,N,00950.0599796,E,2,5,1.4,-3.754,M,40.592,M,3.5,0123*54
$GPVTG,359.20,T,-280.70,M,005.210,N,009.649,K,D*0F
$GPGGA,090423.90,5702.8491959,N,00950.0599765,E,2,5,1.4,-3.754,M,40.592,M,3.5,0123*5C
$GPVTG,358.39,T,-281.51,M,005.253,N,009.729,K,D*04
$GPGGA,090423.95,5702.8492684,N,00950.0599666,E,2,5,1.4,-3.757,M,40.592,M,3.5,0123*54
$GPVTG,356.94,T,-282.96,M,005.287,N,009.792,K,D*0C
$GPGGA,090424.00,5702.8493326,N,00950.0599568,E,2,5,1.4,-3.759,M,40.592,M,3.5,0123*50
$GPVTG,355.82,T,-284.08,M,005.241,N,009.707,K,D*0F
$GPGGA,090424.05,5702.8493967,N,00950.0599455,E,2,5,1.4,-3.760,M,40.592,M,1.9,0123*51
$GPVTG,354.98,T,-284.92,M,005.250,N,009.723,K,D*00
$GPGGA,090424.10,5702.8494712,N,00950.0599283,E,2,5,1.4,-3.760,M,40.592,M,1.9,0123*53
$GPVTG,353.53,T,-286.37,M,005.307,N,009.829,K,D*0B
$GPGGA,090424.15,5702.8495451,N,00950.0599092,E,2,5,1.4,-3.755,M,40.592,M,1.9,0123*57
$GPVTG,352.26,T,-287.64,M,005.354,N,009.916,K,D*04
$GPGGA,090424.20,5702.8496116,N,00950.0598948,E,2,5,1.4,-3.751,M,40.592,M,1.9,0123*5F
$GPVTG,351.81,T,-288.09,M,005.320,N,009.852,K,D*0C
$GPGGA,090424.25,5702.8496729,N,00950.0598784,E,2,5,1.4,-3.766,M,40.592,M,2.1,0123*51
$GPVTG,351.01,T,-288.89,M,005.312,N,009.838,K,D*01
$GPGGA,090424.30,5702.8497478,N,00950.0598557,E,2,5,1.4,-3.771,M,40.592,M,2.1,0123*59
$GPVTG,350.11,T,-289.79,M,005.365,N,009.937,K,D*01
$GPGGA,090424.35,5702.8498142,N,00950.0598369,E,2,5,1.4,-3.773,M,40.592,M,2.1,0123*56
$GPVTG,349.84,T,-290.06,M,005.324,N,009.861,K,D*02
$GPGGA,090424.40,5702.8498802,N,00950.0598164,E,2,5,1.4,-3.772,M,40.592,M,2.1,0123*57
$GPVTG,349.50,T,-290.40,M,005.283,N,009.785,K,D*00
$GPGGA,090424.45,5702.8499462,N,00950.0597842,E,2,5,1.4,-3.761,M,40.592,M,2.4,0123*5C
$GPVTG,348.28,T,-291.62,M,005.310,N,009.834,K,D*01
$GPGGA,090424.50,5702.8500219,N,00950.0597493,E,2,5,1.4,-3.761,M,40.592,M,2.4,0123*53
$GPVTG,346.77,T,-293.13,M,005.389,N,009.980,K,D*0F
$GPGGA,090424.55,5702.8500875,N,00950.0597161,E,2,5,1.4,-3.762,M,40.592,M,2.4,0123*5D
$GPVTG,345.64,T,-294.26,M,005.360,N,009.926,K,D*04
$GPGGA,090424.60,5702.8501583,N,00950.0596817,E,2,5,1.4,-3.763,M,40.592,M,2.4,0123*56
$GPVTG,344.79,T,-295.11,M,005.379,N,009.961,K,D*07
$GPGGA,090424.65,5702.8502158,N,00950.0596466,E,2,5,1.4,-3.771,M,40.592,M,2.6,0123*59
$GPVTG,344.00,T,-295.90,M,005.373,N,009.950,K,D*08
$GPGGA,090424.70,5702.8502894,N,00950.0596116,E,2,5,1.4,-3.772,M,40.592,M,2.6,0123*55
$GPVTG,343.65,T,-296.25,M,005.407,N,010.013,K,D*03
$GPGGA,090424.75,5702.8503593,N,00950.0595702,E,2,5,1.4,-3.773,M,40.592,M,2.6,0123*5A
$GPVTG,342.63,T,-297.27,M,005.426,N,010.049,K,D*0B
$GPGGA,090424.80,5702.8504293,N,00950.0595307,E,2,5,1.4,-3.777,M,40.592,M,2.6,0123*55
$GPVTG,342.10,T,-297.80,M,005.433,N,010.062,K,D*0F
$GPGGA,090424.85,5702.8504940,N,00950.0594826,E,2,5,1.4,-3.775,M,40.592,M,2.9,0123*51
$GPVTG,340.84,T,-299.06,M,005.404,N,010.008,K,D*08
$GPGGA,090424.90,5702.8505567,N,00950.0594352,E,2,5,1.4,-3.781,M,40.592,M,2.9,0123*5E
$GPVTG,339.60,T,-300.30,M,005.365,N,009.935,K,D*07
$GPGGA,090424.95,5702.8506179,N,00950.0593864,E,2,4,1.4,-3.784,M,40.592,M,2.9,0123*5E
$GPVTG,338.47,T,-301.43,M,005.327,N,009.866,K,D*07
$GPGGA,090425.00,5702.8506883,N,00950.0593385,E,2,4,1.4,-3.790,M,40.592,M,2.9,0123*5E
$GPVTG,338.01,T,-301.89,M,005.351,N,009.911,K,D*03
$GPGGA,090425.05,5702.8507647,N,00950.0592801,E,2,4,1.4,-3.760,M,40.592,M,2.0,0123*5C
$GPVTG,337.57,T,-302.33,M,005.395,N,009.991,K,D*0D
$GPGGA,090425.10,5702.8508412,N,00950.0592231,E,2,4,1.4,-3.755,M,40.592,M,2.0,0123*5A
$GPVTG,336.64,T,-303.26,M,005.493,N,010.173,K,D*04
$GPGGA,090425.15,5702.8509073,N,00950.0591665,E,2,4,1.4,-3.754,M,40.592,M,2.0,0123*5A
$GPVTG,335.71,T,-304.19,M,005.497,N,010.180,K,D*00
$GPGGA,090425.20,5702.8509672,N,00950.0591037,E,2,4,1.4,-3.755,M,40.592,M,2.0,0123*5B
$GPVTG,334.08,T,-305.82,M,005.476,N,010.142,K,D*0D
$GPGGA,090425.25,5702.8510347,N,00950.0590536,E,2,4,1.4,-3.788,M,40.592,M,2.3,0123*53
$GPVTG,333.44,T,-306.46,M,005.410,N,010.020,K,D*0C
$GPGGA,090425.30,5702.8511006,N,00950.0589883,E,2,4,1.4,-3.790,M,40.592,M,2.3,0123*52
$GPVTG,332.26,T,-307.64,M,005.442,N,010.078,K,D*02
$GPGGA,090425.35,5702.8511687,N,00950.0589221,E,2,4,1.4,-3.796,M,40.592,M,2.3,0123*5C
$GPVTG,331.39,T,-308.51,M,005.485,N,010.157,K,D*01
$GPGGA,090425.40,5702.8512376,N,00950.0588576,E,2,4,1.4,-3.801,M,40.592,M,2.3,0123*53
$GPVTG,331.00,T,-308.90,M,005.513,N,010.209,K,D*00
$GPGGA,090425.45,5702.8513121,N,00950.0587917,E,2,4,1.4,-3.803,M,40.592,M,2.5,0123*57
$GPVTG,330.74,T,-309.16,M,005.514,N,010.212,K,D*00
$GPGGA,090425.50,5702.8513781,N,00950.0587237,E,2,4,1.4,-3.803,M,40.592,M,2.5,0123*56
$GPVTG,330.16,T,-309.74,M,005.527,N,010.235,K,D*05
$GPGGA,090425.55,5702.8514366,N,00950.0586553,E,2,4,1.4,-3.803,M,40.592,M,2.5,0123*5D
$GPVTG,329.39,T,-310.51,M,005.482,N,010.153,K,D*02
$GPGGA,090425.60,5702.8515048,N,00950.0585786,E,2,4,1.4,-3.805,M,40.592,M,2.5,0123*5A
$GPVTG,328.36,T,-311.54,M,005.551,N,010.280,K,D*0A
$GPGGA,090425.65,5702.8515756,N,00950.0584994,E,2,4,1.4,-3.795,M,40.592,M,2.7,0123*5F
$GPVTG,327.81,T,-312.09,M,005.623,N,010.414,K,D*0F
$GPGGA,090425.70,5702.8516379,N,00950.0584193,E,2,4,1.4,-3.790,M,40.592,M,2.7,0123*5B
$GPVTG,326.59,T,-313.31,M,005.646,N,010.456,K,D*04
$GPGGA,090425.75,5702.8517016,N,00950.0583356,E,2,4,1.4,-3.787,M,40.592,M,2.7,0123*5F
$GPVTG,325.40,T,-314.50,M,005.691,N,010.540,K,D*03
$GPGGA,090425.80,5702.8517607,N,00950.0582503,E,2,4,1.4,-3.784,M,40.592,M,2.7,0123*57
$GPVTG,324.09,T,-315.81,M,005.700,N,010.556,K,D*0C
$GPGGA,090425.85,5702.8518229,N,00950.0581786,E,2,4,1.4,-3.833,M,40.592,M,3.0,0123*5C
$GPVTG,323.38,T,-316.52,M,005.657,N,010.477,K,D*05
$GPGGA,090425.90,5702.8518860,N,00950.0580970,E,2,4,1.4,-3.838,M,40.592,M,3.0,0123*52
$GPVTG,323.13,T,-316.77,M,005.652,N,010.467,K,D*0F
$GPGGA,090425.95,5702.8519468,N,00950.0580072,E,2,4,1.4,-3.841,M,40.592,M,3.0,0123*57
$GPVTG,322.07,T,-317.83,M,005.685,N,010.529,K,D*00
$GPGGA,090426.00,5702.8520094,N,00950.0579228,E,2,4,1.4,-3.846,M,40.592,M,3.0,0123*59
$GPVTG,321.86,T,-318.04,M,005.679,N,010.517,K,D*04
$GPGGA,090426.05,5702.8520718,N,00950.0578275,E,2,5,1.4,-3.833,M,40.592,M,1.5,0123*52
$GPVTG,321.13,T,-318.77,M,005.674,N,010.508,K,D*0F
$GPGGA,090426.10,5702.8521245,N,00950.0577265,E,2,5,1.4,-3.833,M,40.592,M,1.5,0123*54
$GPVTG,319.04,T,-320.86,M,005.711,N,010.576,K,D*0C
$GPGGA,090426.15,5702.8521880,N,00950.0576320,E,2,5,1.4,-3.836,M,40.592,M,1.5,0123*56
$GPVTG,318.63,T,-321.27,M,005.758,N,010.663,K,D*0C
$GPGGA,090426.20,5702.8522461,N,00950.0575385,E,2,5,1.4,-3.837,M,40.592,M,1.5,0123*5D
$GPVTG,318.13,T,-321.77,M,005.746,N,010.642,K,D*02
$GPGGA,090426.25,5702.8523011,N,00950.0574402,E,2,5,1.4,-3.847,M,40.592,M,1.7,0123*56
$GPVTG,317.10,T,-322.80,M,005.
$GPGGA,090435.10,5702.8483540,N,00950.0401322,E,2,4,1.4,-4.108,M,40.592,M,2.6,0123*58
$GPVTG,169.77,T,-470.13,M,004.660,N,008.631,K,D*0C
$GPGGA,090435.15,5702.8482925,N,00950.0401567,E,2,4,1.4,-4.117,M,40.592,M,2.6,0123*5A
$GPVTG,168.59,T,-471.31,M,004.648,N,008.607,K,D*0F
$GPGGA,090435.20,5702.8482311,N,00950.0401791,E,2,4,1.4,-4.126,M,40.592,M,2.6,0123*58
$GPVTG,167.75,T,-472.15,M,004.632,N,008.579,K,D*0C
$GPGGA,090435.25,5702.8481731,N,00950.0402045,E,2,4,1.4,-4.130,M,40.592,M,2.9,0123*5D
$GPVTG,167.00,T,-472.90,M,004.606,N,008.531,K,D*08
$GPGGA,090435.30,5702.8481143,N,00950.0402371,E,2,4,1.4,-4.132,M,40.592,M,2.9,0123*5C
$GPVTG,165.19,T,-474.71,M,004.593,N,008.507,K,D*01
$GPGGA,090435.35,5702.8480556,N,00950.0402612,E,2,4,1.4,-4.130,M,40.592,M,2.9,0123*5A
$GPVTG,165.01,T,-474.89,M,004.553,N,008.432,K,D*04
$GPGGA,090435.40,5702.8479936,N,00950.0402870,E,2,4,1.4,-4.135,M,40.592,M,2.9,0123*5B
$GPVTG,164.77,T,-475.13,M,004.548,N,008.423,K,D*0C
$GPGGA,090435.45,5702.8479435,N,00950.0403213,E,2,4,1.4,-4.145,M,40.592,M,3.1,0123*50
$GPVTG,163.63,T,-476.27,M,004.526,N,008.382,K,D*0E
$GPGGA,090435.50,5702.8478866,N,00950.0403629,E,2,4,1.4,-4.147,M,40.592,M,3.1,0123*50
$GPVTG,162.01,T,-477.89,M,004.513,N,008.358,K,D*0F
$GPGGA,090435.55,5702.8478307,N,00950.0404061,E,2,4,1.4,-4.144,M,40.592,M,3.1,0123*57
$GPVTG,160.35,T,-479.55,M,004.500,N,008.335,K,D*0C
$GPGGA,090435.60,5702.8477749,N,00950.0404425,E,2,4,1.4,-4.140,M,40.592,M,3.1,0123*50
$GPVTG,159.45,T,-480.45,M,004.473,N,008.283,K,D*0F
$GPGGA,090435.65,5702.8477369,N,00950.0404730,E,2,5,1.4,-4.166,M,40.592,M,3.3,0123*53
$GPVTG,159.18,T,-480.72,M,004.396,N,008.141,K,D*02
$GPGGA,090435.70,5702.8476819,N,00950.0405118,E,2,5,1.4,-4.173,M,40.592,M,3.3,0123*53
$GPVTG,158.42,T,-481.48,M,004.369,N,008.091,K,D*08
$GPGGA,090435.75,5702.8476268,N,00950.0405539,E,2,5,1.4,-4.181,M,40.592,M,3.3,0123*50
$GPVTG,157.39,T,-482.51,M,004.358,N,008.071,K,D*0C
$GPGGA,090435.80,5702.8475714,N,00950.0405933,E,2,5,1.4,-4.189,M,40.592,M,3.3,0123*59
$GPVTG,156.97,T,-482.93,M,004.335,N,008.029,K,D*01
$GPGGA,090435.85,5702.8475117,N,00950.0406366,E,2,5,1.4,-4.177,M,40.592,M,3.5,0123*57
$GPVTG,155.96,T,-483.94,M,004.333,N,008.026,K,D*0C
$GPGGA,090435.90,5702.8474578,N,00950.0406831,E,2,5,1.4,-4.183,M,40.592,M,3.5,0123*5D
$GPVTG,154.91,T,-484.99,M,004.327,N,008.013,K,D*03
$GPGGA,090435.95,5702.8474039,N,00950.0407354,E,2,5,1.4,-4.189,M,40.592,M,3.5,0123*5B
$GPVTG,153.38,T,-486.52,M,004.345,N,008.047,K,D*07
$GPGGA,090436.00,5702.8473552,N,00950.0407895,E,2,5,1.4,-4.188,M,40.592,M,3.5,0123*5C
$GPVTG,151.64,T,-488.26,M,004.319,N,007.998,K,D*0C
$GPGGA,090436.05,5702.8473059,N,00950.0408371,E,2,5,1.4,-4.188,M,40.592,M,1.9,0123*57
$GPVTG,151.07,T,-488.83,M,004.309,N,007.980,K,D*0E
$GPGGA,090436.10,5702.8472514,N,00950.0408875,E,2,5,1.4,-4.191,M,40.592,M,1.9,0123*59
$GPVTG,150.62,T,-489.28,M,004.315,N,007.992,K,D*02
$GPGGA,090436.15,5702.8472005,N,00950.0409408,E,2,5,1.4,-4.194,M,40.592,M,1.9,0123*5B
$GPVTG,149.76,T,-490.14,M,004.302,N,007.968,K,D*0B
$GPGGA,090436.20,5702.8471485,N,00950.0410027,E,2,5,1.4,-4.199,M,40.592,M,1.9,0123*5E
$GPVTG,148.18,T,-491.72,M,004.341,N,008.040,K,D*08
$GPGGA,090436.25,5702.8471001,N,00950.0410532,E,2,5,1.4,-4.209,M,40.592,M,2.1,0123*53
$GPVTG,147.94,T,-491.96,M,004.299,N,007.962,K,D*0B
$GPGGA,090436.30,5702.8470520,N,00950.0411142,E,2,5,1.4,-4.209,M,40.592,M,2.1,0123*52
$GPVTG,146.62,T,-493.28,M,004.297,N,007.959,K,D*02
$GPGGA,090436.35,5702.8470036,N,00950.0411825,E,2,5,1.4,-4.212,M,40.592,M,2.1,0123*57
$GPVTG,144.78,T,-495.12,M,004.336,N,008.031,K,D*06
$GPGGA,090436.40,5702.8469556,N,00950.0412520,E,2,5,1.4,-4.216,M,40.592,M,2.1,0123*51
$GPVTG,143.12,T,-496.78,M,004.372,N,008.097,K,D*0E
$GPGGA,090436.45,5702.8469104,N,00950.0413074,E,2,5,1.4,-4.227,M,40.592,M,2.4,0123*55
$GPVTG,143.20,T,-496.70,M,004.329,N,008.017,K,D*01
$GPGGA,090436.50,5702.8468642,N,00950.0413742,E,2,5,1.4,-4.234,M,40.592,M,2.4,0123*55
$GPVTG,142.09,T,-497.81,M,004.326,N,008.012,K,D*0E
$GPGGA,090436.55,5702.8468213,N,00950.0414411,E,2,5,1.4,-4.237,M,40.592,M,2.4,0123*51
$GPVTG,140.91,T,-498.99,M,004.295,N,007.955,K,D*07
$GPGGA,090436.60,5702.8467812,N,00950.0415097,E,2,5,1.4,-4.240,M,40.592,M,2.4,0123*58
$GPVTG,139.53,T,-500.37,M,004.252,N,007.875,K,D*0B
$GPGGA,090436.65,5702.8467384,N,00950.0415803,E,2,5,1.4,-4.219,M,40.592,M,2.6,0123*52
$GPVTG,138.03,T,-501.87,M,004.260,N,007.890,K,D*0F
$GPGGA,090436.70,5702.8466926,N,00950.0416513,E,2,5,1.4,-4.218,M,40.592,M,2.6,0123*5B
$GPVTG,137.40,T,-502.50,M,004.270,N,007.909,K,D*0E
$GPGGA,090436.75,5702.8466483,N,00950.0417178,E,2,5,1.4,-4.217,M,40.592,M,2.6,0123*5B
$GPVTG,137.26,T,-502.64,M,004.234,N,007.841,K,D*04
$GPGGA,090436.80,5702.8466093,N,00950.0418019,E,2,5,1.4,-4.215,M,40.592,M,2.6,0123*5F
$GPVTG,134.97,T,-504.93,M,004.284,N,007.934,K,D*0B
$GPGGA,090436.85,5702.8465681,N,00950.0418725,E,2,5,1.4,-4.218,M,40.592,M,2.9,0123*56
$GPVTG,134.25,T,-505.65,M,004.249,N,007.869,K,D*02
$GPGGA,090436.90,5702.8465279,N,00950.0419513,E,2,5,1.4,-4.219,M,40.592,M,2.9,0123*56
$GPVTG,133.12,T,-506.78,M,004.260,N,007.889,K,D*0B
$GPGGA,090436.95,5702.8464858,N,00950.0420272,E,2,5,1.4,-4.222,M,40.592,M,2.9,0123*59
$GPVTG,132.67,T,-507.23,M,004.255,N,007.880,K,D*08
$GPGGA,090437.00,5702.8464463,N,00950.0421055,E,2,5,1.4,-4.224,M,40.592,M,2.9,0123*50
$GPVTG,131.87,T,-508.03,M,004.248,N,007.868,K,D*02
$GPGGA,090437.05,5702.8464064,N,00950.0421828,E,2,5,1.4,-4.222,M,40.592,M,2.0,0123*5B
$GPVTG,130.94,T,-508.96,M,004.239,N,007.850,K,D*00
$GPGGA,090437.10,5702.8463711,N,00950.0422650,E,2,5,1.4,-4.225,M,40.592,M,2.0,0123*58
$GPVTG,129.71,T,-510.19,M,004.230,N,007.834,K,D*06
$GPGGA,090437.15,5702.8463376,N,00950.0423487,E,2,5,1.4,-4.226,M,40.592,M,2.0,0123*52
$GPVTG,128.36,T,-511.54,M,004.218,N,007.812,K,D*02
$GPGGA,090437.20,5702.8463037,N,00950.0424317,E,2,5,1.4,-4.228,M,40.592,M,2.0,0123*55
$GPVTG,127.32,T,-512.58,M,004.201,N,007.780,K,D*0A
$GPGGA,090437.25,5702.8462677,N,00950.0425135,E,2,5,1.4,-4.231,M,40.592,M,2.3,0123*5B
$GPVTG,126.27,T,-513.63,M,004.205,N,007.787,K,D*05
$GPGGA,090437.30,5702.8462338,N,00950.0425991,E,2,5,1.4,-4.237,M,40.592,M,2.3,0123*51
$GPVTG,125.33,T,-514.57,M,004.206,N,007.789,K,D*0E
$GPGGA,090437.35,5702.8462026,N,00950.0426833,E,2,5,1.4,-4.240,M,40.592,M,2.3,0123*52
$GPVTG,124.31,T,-515.59,M,004.183,N,007.747,K,D*0E
$GPGGA,090437.40,5702.8461716,N,00950.0427700,E,2,5,1.4,-4.243,M,40.592,M,2.3,0123*5A
$GPVTG,123.28,T,-516.62,M,004.172,N,007.727,K,D*02
$GPGGA,090437.45,5702.8461406,N,00950.0428608,E,2,5,1.4,-4.225,M,40.592,M,2.5,0123*5D
$GPVTG,121.50,T,-518.40,M,004.200,N,007.778,K,D*0D
$GPGGA,090437.50,5702.8461113,N,00950.0429459,E,2,5,1.4,-4.226,M,40.592,M,2.5,0123*5C
$GPVTG,120.95,T,-518.95,M,004.139,N,007.666,K,D*0A
$GPGGA,090437.55,5702.8460817,N,00950.0430414,E,2,5,1.4,-4.225,M,40.592,M,2.5,0123*57
$GPVTG,119.66,T,-520.24,M,004.192,N,007.764,K,D*0F
$GPGGA,090437.60,5702.8460557,N,00950.0431297,E,2,5,1.4,-4.227,M,40.592,M,2.5,0123*56
$GPVTG,118.73,T,-521.17,M,004.147,N,007.680,K,D*08
$GPGGA,090437.65,5702.8460302,N,00950.0432169,E,2,5,1.4,-4.220,M,40.592,M,2.7,0123*51
$GPVTG,117.52,T,-522.38,M,004.114,N,007.619,K,D*0C
$GPGGA,090437.70,5702.8460068,N,00950.0433080,E,2,5,1.4,-4.220,M,40.592,M,2.7,0123*5D
$GPVTG,116.35,T,-523.55,M,004.087,N,007.569,K,D*09
$GPGGA,090437.75,5702.8459851,N,00950.0433994,E,2,5,1.4,-4.219,M,40.592,M,2.7,0123*56
$GPVTG,115.10,T,-524.80,M,004.058,N,007.516,K,D*08
$GPGGA,090437.80,5702.8459648,N,00950.0434938,E,2,5,1.4,-4.221,M,40.592,M,2.7,0123*50
$GPVTG,113.67,T,-526.23,M,004.053,N,007.505,K,D*0C
$GPGGA,090437.85,5702.8459489,N,00950.0435905,E,2,5,1.4,-4.216,M,40.592,M,3.0,0123*57
$GPVTG,109.03,T,-530.87,M,004.038,N,007.478,K,D*0A
$GPGGA,090437.90,5702.8459295,N,00950.0436829,E,2,5,1.4,-4.221,M,40.592,M,3.0,0123*50
$GPVTG,108.37,T,-531.53,M,004.002,N,007.412,K,D*01
$GPGGA,090437.95,5702.8459120,N,00950.0437795,E,2,5,1.4,-4.224,M,40.592,M,3.0,0123*54
$GPVTG,107.23,T,-532.67,M,004.007,N,007.420,K,D*0B
$GPGGA,090438.00,5702.8458953,N,00950.0438723,E,2,5,1.4,-4.228,M,40.592,M,3.0,0123*54
$GPVTG,106.33,T,-533.57,M,003.965,N,007.344,K,D*06
$GPGGA,090438.05,5702.8458675,N,00950.0439730,E,2,5,1.4,-4.208,M,40.592,M,1.5,0123*5C
$GPVTG,104.80,T,-535.10,M,004.029,N,007.461,K,D*0F
$GPGGA,090438.10,5702.8458547,N,00950.0440725,E,2,5,1.4,-4.209,M,40.592,M,1.5,0123*51
$GPVTG,103.51,T,-536.39,M,004.041,N,007.485,K,D*08
$GPGGA,090438.15,5702.8458424,N,00950.0441710,E,2,5,1.4,-4.208,M,40.592,M,1.5,0123*56
$GPVTG,102.31,T,-537.59,M,004.040,N,007.482,K,D*0E
$GPGGA,090438.20,5702.8458300,N,00950.0442697,E,2,5,1.4,-4.207,M,40.592,M,1.5,0123*53
$GPVTG,101.21,T,-538.69,M,004.036,N,007.475,K,D*09
$GPGGA,090438.25,5702.8458113,N,00950.0443628,E,2,5,1.4,-4.191,M,40.592,M,1.7,0123*5D
$GPVTG,100.20,T,-539.70,M,004.008,N,007.424,K,D*09
$GPGGA,090438.30,5702.8458047,N,00950.0444571,E,2,5,1.4,-4.194,M,40.592,M,1.7,0123*54
$GPVTG,098.86,T,-541.04,M,003.952,N,007.319,K,D*01
$GPGGA,090438.35,5702.8457919,N,00950.0445574,E,2,5,1.4,-4.196,M,40.592,M,1.7,0123*5A
$GPVTG,098.19,T,-541.71,M,003.969,N,007.350,K,D*00
$GPGGA,090438.40,5702.8457832,N,00950.0446535,E,2,5,1.4,-4.200,M,40.592,M,1.7,0123*5A
$GPVTG,097.25,T,-542.65,M,003.936,N,007.289,K,D*09
$GPGGA,090438.45,5702.8457654,N,00950.0447534,E,2,5,1.4,-4.175,M,40.592,M,2.0,0123*54
$GPVTG,096.34,T,-543.56,M,003.998,N,007.405,K,D*0F
$GPGGA,090438.50,5702.8457601,N,00950.0448570,E,2,5,1.4,-4.173,M,40.592,M,2.0,0123*59
$GPVTG,095.11,T,-544.79,M,004.037,N,007.476,K,D*0E
$GPGGA,090438.55,5702.8457554,N,00950.0449569,E,2,5,1.4,-4.170,M,40.592,M,2.0,0123*55
$GPVTG,094.08,T,-545.82,M,004.023,N,007.451,K,D*02
$GPGGA,090438.60,5702.8457507,N,00950.0450533,E,2,5,1.4,-4.170,M,40.592,M,2.0,0123*52
$GPVTG,093.22,T,-546.68,M,003.973,N,007.359,K,D*0E
$GPGGA,090438.65,5702.8457383,N,00950.0451537,E,2,5,1.4,-4.165,M,40.592,M,2.2,0123*5E
$GPVTG,092.38,T,-547.52,M,004.004,N,007.416,K,D*0E
$GPGGA,090438.70,5702.8457366,N,00950.0452549,E,2,5,1.4,-4.169,M,40.592,M,2.2,0123*57
$GPVTG,091.30,T,-548.60,M,004.008,N,007.424,K,D*06
$GPGGA,090438.75,5702.8457383,N,00950.0453595,E,2,5,1.4,-4.171,M,40.592,M,2.2,0123*50
$GPVTG,090.03,T,-549.87,M,004.044,N,007.489,K,D*00
$GPGGA,090438.80,5702.8457383,N,00950.0454579,E,2,5,1.4,-4.172,M,40.592,M,2.2,0123*5C
$GPVTG,088.99,T,-550.91,M,004.016,N,007.437,K,D*07
$GPGGA,090438.85,5702.8457246,N,00950.0455594,E,2,5,1.4,-4.165,M,40.592,M,2.4,0123*53
$GPVTG,088.12,T,-551.78,M,004.041,N,007.485,K,D*09
$GPGGA,090438.90,5702.8457335,N,00950.0456664,E,2,5,1.4,-4.165,M,40.592,M,2.4,0123*5D
$GPVTG,086.45,T,-553.45,M,004.083,N,007.561,K,D*0C
$GPGGA,090438.95,5702.8457339,N,00950.0457667,E,2,5,1.4,-4.168,M,40.592,M,2.4,0123*5B
$GPVTG,085.73,T,-554.17,M,004.078,N,007.553,K,D*0F
$GPGGA,090439.00,5702.8457380,N,00950.0458656,E,2,5,1.4,-4.172,M,40.592,M,2.4,0123*52
$GPVTG,084.70,T,-555.20,M,004.064,N,007.527,K,D*06
$GPGGA,090439.05,5702.8457323,N,00950.0459657,E,2,5,1.4,-4.144,M,40.592,M,2.6,0123*59
$GPVTG,083.84,T,-556.06,M,004.097,N,007.588,K,D*04
$GPGGA,090439.10,5702.8457376,N,00950.0460633,E,2,5,1.4,-4.145,M,40.592,M,2.6,0123*54
$GPVTG,082.84,T,-557.06,M,004.040,N,007.482,K,D*05
$GPGGA,090439.15,5702.8457468,N,00950.0461675,E,2,5,1.4,-4.148,M,40.592,M,2.6,0123*57
$GPVTG,081.66,T,-558.24,M,004.079,N,007.554,K,D*05
$GPGGA,090439.20,5702.8457584,N,00950.0462639,E,2,5,1.4,-4.151,M,40.592,M,2.6,0123*51
$GPVTG,080.13,T,-559.77,M,004.031,N,007.466,K,D*0D
$GPGGA,090439.25,5702.8457592,N,00950.0463528,E,2,5,1.4,-4.117,M,40.592,M,2.9,0123*5C
$GPVTG,078.64,T,-561.26,M,003.973,N,007.359,K,D*06
$GPGGA,090439.30,5702.8457709,N,00950.0464600,E,2,5,1.4,-4.115,M,40.592,M,2.9,0123*54
$GPVTG,077.73,T,-562.17,M,004.062,N,007.523,K,D*0B
$GPGGA,090439.35,5702.8457808,N,00950.0465595,E,2,5,1.4,-4.109,M,40.592,M,2.9,0123*5C
$GPVTG,076.93,T,-562.97,M,004.059,N,007.518,K,D*0C
$GPGGA,090439.40,5702.8457974,N,00950.0466536,E,2,5,1.4,-4.107,M,40.592,M,2.9,0123*50
$GPVTG,075.23,T,-564.67,M,004.018,N,007.441,K,D*05
$GPGGA,090439.45,5702.8458035,N,00950.0467551,E,2,5,1.4,-4.089,M,40.592,M,3.1,0123*58
$GPVTG,074.34,T,-565.56,M,004.110,N,007.613,K,D*0D
$GPGGA,090439.50,5702.8458197,N,00950.0468563,E,2,5,1.4,-4.086,M,40.592,M,3.1,0123*54
$GPVTG,073.27,T,-566.63,M,004.138,N,007.663,K,D*00
$GPGGA,090439.55,5702.8458328,N,00950.0469498,E,2,5,1.4,-4.087,M,40.592,M,3.1,0123*52
$GPVTG,072.39,T,-567.51,M,004.078,N,007.552,K,D*0A
$GPGGA,090439.60,5702.8458512,N,00950.0470499,E,2,5,1.4,-4.089,M,40.592,M,3.1,0123*5C
$GPVTG,071.30,T,-568.60,M,004.108,N,007.608,K,D*07
$GPGGA,090439.65,5702.8458600,N,00950.0471426,E,2,5,1.4,-4.064,M,40.592,M,3.3,0123*5D
$GPVTG,070.03,T,-569.87,M,004.132,N,007.652,K,D*08
$GPGGA,090439.70,5702.8458880,N,00950.0472329,E,2,5,1.4,-4.064,M,40.592,M,3.3,0123*54
$GPVTG,067.34,T,-572.56,M,004.070,N,007.537,K,D*0B
$GPGGA,090439.75,5702.8459034,N,00950.0473279,E,2,5,1.4,-4.058,M,40.592,M,3.3,0123*5D
$GPVTG,066.99,T,-572.91,M,004.051,N,007.502,K,D*03
$GPGGA,090439.80,5702.8459240,N,00950.0474205,E,2,5,1.4,-4.055,M,40.592,M,3.3,0123*57
$GPVTG,065.93,T,-573.97,M,004.030,N,007.464,K,D*0B
$GPGGA,090439.85,5702.8459338,N,00950.0475118,E,2,5,1.4,-4.028,M,40.592,M,3.5,0123*5E
$GPVTG,065.38,T,-574.52,M,004.069,N,007.536,K,D*0E
$GPGGA,090439.90,5702.8459606,N,00950.0476062,E,2,5,1.4,-4.030,M,40.592,M,3.5,0123*54
$GPVTG,063.99,T,-575.91,M,004.100,N,007.593,K,D*0C
$GPGGA,090439.95,5702.8459925,N,00950.0476988,E,2,5,1.4,-4.033,M,40.592,M,3.5,0123*51
$GPVTG,062.09,T,-577.81,M,004.136,N,007.660,K,D*0D
$GPGGA,090440.00,5702.8460226,N,00950.0477913,E,2,5,1.4,-4.031,M,40.592,M,3.5,0123*50
$GPVTG,060.63,T,-579.27,M,004.168,N,007.719,K,D*05
$GPGGA,090440.05,5702.8460330,N,00950.0478744,E,2,5,1.4,-4.011,M,40.592,M,1.9,0123*5C
$GPVTG,059.78,T,-580.12,M,004.115,N,007.621,K,D*05
$GPGGA,090440.10,5702.8460593,N,00950.0479649,E,2,5,1.4,-4.009,M,40.592,M,1.9,0123*53
$GPVTG,059.00,T,-580.90,M,004.121,N,007.632,K,D*05
$GPGGA,090440.15,5702.8460901,N,00950.0480570,E,2,5,1.4,-4.007,M,40.592,M,1.9,0123*50
$GPVTG,058.00,T,-581.90,M,004.168,N,007.719,K,D*00
$GPGGA,090440.20,5702.8461191,N,00950.0481460,E,2,5,1.4,-4.005,M,40.592,M,1.9,0123*55
$GPVTG,057.10,T,-582.80,M,004.173,N,007.729,K,D*05
$GPGGA,090440.25,5702.8461346,N,00950.0482233,E,2,5,1.4,-3.970,M,40.592,M,2.1,0123*5C
$GPVTG,055.96,T,-583.94,M,004.128,N,007.644,K,D*09
$GPGGA,090440.30,5702.8461701,N,00950.0483083,E,2,5,1.4,-3.970,M,40.592,M,2.1,0123*57
$GPVTG,054.37,T,-585.53,M,004.142,N,007.672,K,D*07
$GPGGA,090440.35,5702.8462125,N,00950.0483928,E,2,5,1.4,-3.972,M,40.592,M,2.1,0123*5B
$GPVTG,052.30,T,-587.60,M,004.200,N,007.778,K,D*0A
$GPGGA,090440.40,5702.8462441,N,00950.0484824,E,2,5,1.4,-3.970,M,40.592,M,2.1,0123*56
$GPVTG,052.11,T,-587.79,M,004.245,N,007.863,K,D*05
$GPGGA,090440.45,5702.8462618,N,00950.0485630,E,2,5,1.4,-3.942,M,40.592,M,2.4,0123*53
$GPVTG,051.64,T,-588.26,M,004.279,N,007.925,K,D*0D
$GPGGA,090440.50,5702.8462999,N,00950.0486451,E,2,5,1.4,-3.944,M,40.592,M,2.4,0123*51
$GPVTG,050.29,T,-589.61,M,004.288,N,007.941,K,D*0B
$GPGGA,090440.55,5702.8463387,N,00950.0487300,E,2,5,1.4,-3.942,M,40.592,M,2.4,0123*54
$GPVTG,049.37,T,-590.53,M,004.331,N,008.020,K,D*07
$GPGGA,090440.60,5702.8463766,N,00950.0488106,E,2,5,1.4,-3.939,M,40.592,M,2.4,0123*5E
$GPVTG,048.26,T,-591.64,M,004.331,N,008.020,K,D*03
$GPGGA,090440.65,5702.8464032,N,00950.0488781,E,2,5,1.4,-3.894,M,40.592,M,2.6,0123*57
$GPVTG,046.68,T,-593.22,M,004.304,N,007.972,K,D*00
$GPGGA,090440.70,5702.8464430,N,00950.0489489,E,2,5,1.4,-3.888,M,40.592,M,2.6,0123*52
$GPVTG,044.79,T,-595.11,M,004.248,N,007.866,K,D*09
$GPGGA,090440.75,5702.8464809,N,00950.0490238,E,2,5,1.4,-3.885,M,40.592,M,2.6,0123*58
$GPVTG,043.87,T,-596.03,M,004.230,N,007.834,K,D*07
$GPGGA,090440.80,5702.8465270,N,00950.0490995,E,2,5,1.4,-3.884,M,40.592,M,2.6,0123*5A
$GPVTG,042.58,T,-597.32,M,004.281,N,007.929,K,D*00
$GPGGA,090440.85,5702.8465538,N,00950.0491820,E,2,5,1.4,-3.881,M,40.592,M,2.9,0123*50
$GPVTG,042.40,T,-597.50,M,004.377,N,008.106,K,D*0F
$GPGGA,090440.90,5702.8465982,N,00950.0492602,E,2,5,1.4,-3.885,M,40.592,M,2.9,0123*50
$GPVTG,041.90,T,-598.00,M,004.432,N,008.209,K,D*01
$GPGGA,090440.95,5702.8466448,N,00950.0493359,E,2,5,1.4,-3.892,M,40.592,M,2.9,0123*51
$GPVTG,041.05,T,-598.85,M,004.478,N,008.292,K,D*0C
$GPGGA,090441.00,5702.8466827,N,00950.0494051,E,2,5,1.4,-3.892,M,40.592,M,2.9,0123*55
$GPVTG,040.29,T,-599.61,M,004.407,N,008.161,K,D*0F
$GPGGA,090441.05,5702.8467242,N,00950.0494524,E,2,5,1.4,-3.836,M,40.592,M,2.0,0123*58
$GPVTG,037.48,T,-602.42,M,004.355,N,008.065,K,D*0D
$GPGGA,090441.10,5702.8467774,N,00950.0495159,E,2,5,1.4,-3.831,M,40.592,M,2.0,0123*54
$GPVTG,035.53,T,-604.37,M,004.389,N,008.129,K,D*09
$GPGGA,090441.15,5702.8468235,N,00950.0495854,E,2,5,1.4,-3.827,M,40.592,M,2.0,0123*5D
$GPVTG,035.23,T,-604.67,M,004.418,N,008.182,K,D*05
$GPGGA,090441.20,5702.8468763,N,00950.0496520,E,2,5,1.4,-3.829,M,40.592,M,2.0,0123*5E
$GPVTG,034.26,T,-605.64,M,004.478,N,008.293,K,D*06
$GPGGA,090441.25,5702.8469075,N,00950.0497120,E,2,5,1.4,-3.823,M,40.592,M,2.3,0123*56
$GPVTG,032.80,T,-607.10,M,004.505,N,008.343,K,D*0A
$GPGGA,090441.30,5702.8469607,N,00950.0497755,E,2,5,1.4,-3.827,M,40.592,M,2.3,0123*51
$GPVTG,031.95,T,-607.95,M,004.551,N,008.429,K,D*0A
$GPGGA,090441.35,5702.8470108,N,00950.0498354,E,2,5,1.4,-3.830,M,40.592,M,2.3,0123*58
$GPVTG,031.02,T,-608.88,M,004.553,N,008.433,K,D*0E
$GPGGA,090441.40,5702.8470650,N,00950.0498973,E,2,5,1.4,-3.829,M,40.592,M,2.3,0123*57
$GPVTG,030.35,T,-609.55,M,004.601,N,008.521,K,D*0C
$GPGGA,090441.45,5702.8471071,N,00950.0499458,E,2,5,1.4,-3.787,M,40.592,M,2.5,0123*5E
$GPVTG,029.44,T,-610.46,M,004.613,N,008.543,K,D*0F
$GPGGA,090441.50,5702.8471616,N,00950.0500032,E,2,5,1.4,-3.786,M,40.592,M,2.5,0123*55
$GPVTG,028.62,T,-611.28,M,004.638,N,008.590,K,D*04
$GPGGA,090441.55,5702.8472223,N,00950.0500607,E,2,5,1.4,-3.787,M,40.592,M,2.5,0123*50
$GPVTG,027.70,T,-612.20,M,004.715,N,008.732,K,D*07
$GPGGA,090441.60,5702.8472740,N,00950.0501118,E,2,5,1.4,-3.784,M,40.592,M,2.5,0123*5D
$GPVTG,026.61,T,-613.29,M,004.680,N,008.668,K,D*0D
$GPGGA,090441.65,5702.8473125,N,00950.0501499,E,2,5,1.4,-3.740,M,40.592,M,2.7,0123*5A
$GPVTG,024.93,T,-614.97,M,004.632,N,008.579,K,D*0A
$GPGGA,090441.70,5702.8473704,N,00950.0501963,E,2,5,1.4,-3.736,M,40.592,M,2.7,0123*52
$GPVTG,023.56,T,-616.34,M,004.644,N,008.601,K,D*02
$GPGGA,090441.75,5702.8474283,N,00950.0502458,E,2,5,1.4,-3.730,M,40.592,M,2.7,0123*5A
$GPVTG,022.94,T,-616.96,M,004.676,N,008.660,K,D*03
$GPGGA,090441.80,5702.8474966,N,00950.0502951,E,2,5,1.4,-3.724,M,40.592,M,2.7,0123*51
$GPVTG,022.05,T,-617.85,M,004.794,N,008.879,K,D*03
$GPGGA,090441.85,5702.8475347,N,00950.0503346,E,2,5,1.4,-3.718,M,40.592,M,3.0,0123*58
$GPVTG,020.27,T,-619.63,M,004.791,N,008.872,K,D*09
$GPGGA,090441.90,5702.8475933,N,00950.0503771,E,2,5,1.4,-3.716,M,40.592,M,3.0,0123*5B
$GPVTG,019.50,T,-620.40,M,004.798,N,008.886,K,D*0A
$GPGGA,090441.95,5702.8476454,N,00950.0504217,E,2,5,1.4,-3.712,M,40.592,M,3.0,0123*57
$GPVTG,019.50,T,-620.40,M,004.760,N,008.815,K,D*07
$GPGGA,090442.00,5702.8477040,N,00950.0504622,E,2,5,1.4,-3.708,M,40.592,M,3.0,0123*51
$GPVTG,018.84,T,-621.06,M,004.763,N,008.821,K,D*08
$GPGGA,090442.05,5702.8477507,N,00950.0504920,E,2,5,1.4,-3.664,M,40.592,M,1.5,0123*53
$GPVTG,017.97,T,-621.93,M,004.777,N,008.848,K,D*03
$GPGGA,090442.10,5702.8478276,N,00950.0505250,E,2,5,1.4,-3.664,M,40.592,M,1.5,0123*54
$GPVTG,016.18,T,-623.72,M,004.916,N,009.104,K,D*01
$GPGGA,090442.15,5702.8478875,N,00950.0505591,E,2,5,1.4,-3.663,M,40.592,M,1.5,0123*55
$GPVTG,015.42,T,-624.48,M,004.905,N,009.084,K,D*08
$GPGGA,090442.20,5702.8479502,N,00950.0505924,E,2,5,1.4,-3.665,M,40.592,M,1.5,0123*5B
$GPVTG,014.71,T,-625.19,M,004.919,N,009.111,K,D*0C
$GPGGA,090442.25,5702.8480029,N,00950.0506209,E,2,5,1.4,-3.648,M,40.592,M,1.7,0123*5E
$GPVTG,013.93,T,-625.97,M,004.994,N,009.250,K,D*02
$GPGGA,090442.30,5702.8480647,N,00950.0506494,E,2,5,1.4,-3.646,M,40.592,M,1.7,0123*58
$GPVTG,013.04,T,-626.86,M,004.982,N,009.227,K,D*08
$GPGGA,090442.35,5702.8481297,N,00950.0506713,E,2,5,1.4,-3.645,M,40.592,M,1.7,0123*5A
$GPVTG,011.46,T,-628.44,M,004.985,N,009.231,K,D*0C
$GPGGA,090442.40,5702.8481901,N,00950.0506976,E,2,5,1.4,-3.641,M,40.592,M,1.7,0123*55
$GPVTG,010.93,T,-628.97,M,004.959,N,009.185,K,D*06
$GPGGA,090442.45,5702.8482459,N,00950.0507103,E,2,5,1.4,-3.612,M,40.592,M,2.0,0123*5A
$GPVTG,009.36,T,-630.54,M,005.000,N,009.260,K,D*0B
$GPGGA,090442.50,5702.8483143,N,00950.0507326,E,2,5,1.4,-3.611,M,40.592,M,2.0,0123*57
$GPVTG,008.74,T,-631.16,M,005.038,N,009.331,K,D*05
$GPGGA,090442.55,5702.8483794,N,00950.0507548,E,2,5,1.4,-3.608,M,40.592,M,2.0,0123*58
$GPVTG,008.36,T,-631.54,M,005.045,N,009.344,K,D*0D
$GPGGA,090442.60,5702.8484504,N,00950.0507748,E,2,5,1.4,-3.607,M,40.592,M,2.0,0123*5F
$GPVTG,007.80,T,-632.10,M,005.100,N,009.444,K,D*0B
$GPGGA,090442.65,5702.8484904,N,00950.0507946,E,2,5,1.4,-3.604,M,40.592,M,2.2,0123*57
$GPVTG,007.45,T,-632.45,M,005.089,N,009.426,K,D*06
$GPGGA,090442.70,5702.8485630,N,00950.0508032,E,2,5,1.4,-3.607,M,40.592,M,2.2,0123*5C
$GPVTG,005.71,T,-634.19,M,005.139,N,009.517,K,D*05
$GPGGA,090442.75,5702.8486289,N,00950.0508163,E,2,5,1.4,-3.610,M,40.592,M,2.2,0123*5F
$GPVTG,005.03,T,-634.87,M,005.131,N,009.503,K,D*0A
$GPGGA,090442.80,5702.8486917,N,00950.0508269,E,2,5,1.4,-3.609,M,40.592,M,2.2,0123*58
$GPVTG,004.28,T,-635.62,M,005.093,N,009.433,K,D*03
$GPGGA,090442.85,5702.8487506,N,00950.0508278,E,2,5,1.4,-3.575,M,40.592,M,2.4,0123*5E
$GPVTG,003.50,T,-636.40,M,005.064,N,009.378,K,D*08
$GPGGA,090442.90,5702.8488187,N,00950.0508315,E,2,5,1.4,-3.577,M,40.592,M,2.4,0123*50
$GPVTG,002.24,T,-637.66,M,005.074,N,009.396,K,D*0E
$GPGGA,090442.95,5702.8488913,N,00950.0508355,E,2,5,1.4,-3.576,M,40.592,M,2.4,0123*55
$GPVTG,001.36,T,-638.54,M,005.123,N,009.488,K,D*0B
$GPGGA,090443.00,5702.8489597,N,00950.0508373,E,2,5,1.4,-3.576,M,40.592,M,2.4,0123*5D
$GPVTG,000.45,T,-639.45,M,005.131,N,009.503,K,D*0E
$GPGGA,090443.05,5702.8490115,N,00950.0508296,E,2,5,1.4,-3.549,M,40.592,M,2.6,0123*5A
$GPVTG,359.27,T,-280.63,M,005.117,N,009.476,K,D*00
$GPGGA,090443.10,5702.8490757,N,00950.0508270,E,2,5,1.4,-3.546,M,40.592,M,2.6,0123*59
$GPVTG,358.36,T,-281.54,M,005.082,N,009.412,K,D*0B
$GPGGA,090443.15,5702.8491451,N,00950.0508230,E,2,5,1.4,-3.545,M,40.592,M,2.6,0123*5F
$GPVTG,357.54,T,-282.36,M,005.100,N,009.445,K,D*0E
$GPGGA,090443.20,5702.8492177,N,00950.0508136,E,2,5,1.4,-3.547,M,40.592,M,2.6,0123*5C
$GPVTG,356.30,T,-283.60,M,005.147,N,009.532,K,D*0D
$GPGGA,090443.25,5702.8492711,N,00950.0508013,E,2,5,1.4,-3.531,M,40.592,M,2.9,0123*57
$GPVTG,355.54,T,-284.36,M,005.204,N,009.638,K,D*05
$GPGGA,090443.30,5702.8493377,N,00950.0507912,E,2,5,1.4,-3.536,M,40.592,M,2.9,0123*56
$GPVTG,354.76,T,-285.14,M,005.185,N,009.602,K,D*06
$GPGGA,090443.35,5702.8494024,N,00950.0507797,E,2,5,1.4,-3.534,M,40.592,M,2.9,0123*50
$GPVTG,354.03,T,-285.87,M,005.149,N,009.536,K,D*0A
$GPGGA,090443.40,5702.8494791,N,00950.0507629,E,2,5,1.4,-3.539,M,40.592,M,2.9,0123*52
$GPVTG,352.98,T,-286.92,M,005.232,N,009.690,K,D*09
$GPGGA,090443.45,5702.8495336,N,00950.0507364,E,2,5,1.4,-3.500,M,40.592,M,3.1,0123*50
$GPVTG,351.96,T,-287.94,M,005.224,N,009.674,K,D*0E
$GPGGA,090443.50,5702.8496043,N,00950.0507175,E,2,5,1.4,-3.497,M,40.592,M,3.1,0123*5B
$GPVTG,351.16,T,-288.74,M,005.244,N,009.712,K,D*00
$GPGGA,090443.55,5702.8496735,N,00950.0506957,E,2,5,1.4,-3.495,M,40.592,M,3.1,0123*53
$GPVTG,350.23,T,-289.67,M,005.251,N,009.726,K,D*07
$GPGGA,090443.60,5702.8497481,N,00950.0506715,E,2,5,1.4,-3.498,M,40.592,M,3.1,0123*5D
$GPVTG,349.37,T,-290.53,M,005.310,N,009.835,K,D*0C
$GPGGA,090443.65,5702.8497932,N,00950.0506459,E,2,5,1.4,-3.490,M,40.592,M,3.3,0123*5C
$GPVTG,348.38,T,-291.52,M,005.233,N,009.691,K,D*02
$GPGGA,090443.70,5702.8498597,N,00950.0506228,E,2,5,1.4,-3.492,M,40.592,M,3.3,0123*56
$GPVTG,348.03,T,-291.87,M,005.205,N,009.640,K,D*0B
$GPGGA,090443.75,5702.8499323,N,00950.0505893,E,2,5,1.4,-3.496,M,40.592,M,3.3,0123*56
$GPVTG,346.67,T,-293.23,M,005.263,N,009.746,K,D*0C
$GPGGA,090443.80,5702.8499947,N,00950.0505574,E,2,5,1.4,-3.500,M,40.592,M,3.3,0123*5E
$GPVTG,345.61,T,-294.29,M,005.212,N,009.653,K,D*07
$GPGGA,090443.85,5702.8500559,N,00950.0505148,E,2,5,1.4,-3.444,M,40.592,M,3.5,0123*55
$GPVTG,345.25,T,-294.65,M,005.259,N,009.740,K,D*03
$GPGGA,090443.90,5702.8501237,N,00950.0504840,E,2,5,1.4,-3.443,M,40.592,M,3.5,0123*58
$GPVTG,344.93,T,-294.97,M,005.246,N,009.716,K,D*0F
$GPGGA,090443.95,5702.8501926,N,00950.0504465,E,2,5,1.4,-3.447,M,40.592,M,3.5,0123*59
$GPVTG,343.94,T,-295.96,M,005.263,N,009.748,K,D*03
$GPGGA,090444.00,5702.8502619,N,00950.0504062,E,2,5,1.4,-3.452,M,40.592,M,3.5,0123*55
$GPVTG,342.89,T,-297.01,M,005.289,N,009.795,K,D*06
$GPGGA,090444.05,5702.8503161,N,00950.0503604,E,2,5,1.4,-3.425,M,40.592,M,1.9,0123*56
$GPVTG,342.10,T,-297.80,M,005.308,N,009.830,K,D*07
$GPGGA,090444.10,5702.8503861,N,00950.0503166,E,2,5,1.4,-3.430,M,40.592,M,1.9,0123*5C
$GPVTG,341.16,T,-298.74,M,005.340,N,009.890,K,D*00
$GPGGA,090444.15,5702.8504577,N,00950.0502734,E,2,5,1.4,-3.433,M,40.592,M,1.9,0123*57
$GPVTG,340.64,T,-299.26,M,005.377,N,009.958,K,D*03
$GPGGA,090444.20,5702.8505253,N,00950.0502261,E,2,5,1.4,-3.432,M,40.592,M,1.9,0123*55
$GPVTG,339.68,T,-300.22,M,005.386,N,009.975,K,D*05
$GPGGA,090444.25,5702.8505862,N,00950.0501689,E,2,5,1.4,-3.408,M,40.592,M,2.1,0123*5B
$GPVTG,338.61,T,-301.29,M,005.452,N,010.098,K,D*0B
$GPGGA,090444.30,5702.8506506,N,00950.0501119,E,2,5,1.4,-3.414,M,40.592,M,2.1,0123*50
$GPVTG,336.96,T,-302.94,M,005.460,N,010.112,K,D*0A
$GPGGA,090444.35,5702.8507185,N,00950.0500573,E,2,5,1.4,-3.416,M,40.592,M,2.1,0123*50
$GPVTG,336.09,T,-303.81,M,005.478,N,010.145,K,D*02
$GPGGA,090444.40,5702.8507911,N,00950.0500034,E,2,5,1.4,-3.419,M,40.592,M,2.1,0123*5E
$GPVTG,335.76,T,-304.14,M,005.525,N,010.233,K,D*09
$GPGGA,090444.45,5702.8508368,N,00950.0499462,E,2,5,1.4,-3.405,M,40.592,M,2.4,0123*5E
$GPVTG,335.09,T,-304.81,M,005.441,N,010.077,K,D*0C
$GPGGA,090444.50,5702.8508972,N,00950.0498897,E,2,5,1.4,-3.410,M,40.592,M,2.4,0123*58
$GPVTG,334.32,T,-305.58,M,005.385,N,009.972,K,D*0B
$GPGGA,090444.55,5702.8509643,N,00950.0498347,E,2,5,1.4,-3.414,M,40.592,M,2.4,0123*53
$GPVTG,334.18,T,-305.72,M,005.378,N,009.960,K,D*0A
$GPGGA,090444.60,5702.8510346,N,00950.0497754,E,2,5,1.4,-3.418,M,40.592,M,2.4,0123*58
$GPVTG,333.81,T,-306.09,M,005.417,N,010.033,K,D*0B
$GPGGA,090444.65,5702.8510879,N,00950.0496967,E,2,5,1.4,-3.359,M,40.592,M,2.6,0123*55
$GPVTG,332.40,T,-307.51,M,005.439,N,010.073,K,D*03
$GPGGA,090444.70,5702.8511570,N,00950.0496289,E,2,5,1.4,-3.356,M,40.592,M,2.6,0123*50
$GPVTG,331.49,T,-308.41,M,005.499,N,010.184,K,D*04
$GPGGA,090444.75,5702.8512097,N,00950.0495580,E,2,5,1.4,-3.356,M,40.592,M,2.6,0123*57
$GPVTG,329.70,T,-310.20,M,005.430,N,010.057,K,D*05
$GPGGA,090444.80,5702.8512759,N,00950.0494864,E,2,5,1.4,-3.358,M,40.592,M,2.6,0123*50
$GPVTG,328.84,T,-311.06,M,005.472,N,010.135,K,D*09
$GPGGA,090444.85,5702.8513273,N,00950.0494045,E,2,5,1.4,-3.323,M,40.592,M,2.9,0123*51
$GPVTG,327.58,T,-312.32,M,005.504,N,010.193,K,D*0F
$GPGGA,090444.90,5702.8513935,N,00950.0493309,E,2,5,1.4,-3.320,M,40.592,M,2.9,0123*53
$GPVTG,327.09,T,-312.81,M,005.534,N,010.249,K,D*04
$GPGGA,090444.95,5702.8514590,N,00950.0492565,E,2,5,1.4,-3.318,M,40.592,M,2.9,0123*54
$GPVTG,326.65,T,-313.25,M,005.554,N,010.286,K,D*05
$GPGGA,090445.00,5702.8515180,N,00950.0491785,E,2,5,1.4,-3.315,M,40.592,M,2.9,0123*5F
$GPVTG,325.68,T,-314.22,M,005.539,N,010.258,K,D*03
$GPGGA,090445.05,5702.8515760,N,00950.0490943,E,2,5,1.4,-3.293,M,40.592,M,2.0,0123*51
$GPVTG,325.15,T,-314.75,M,005.623,N,010.413,K,D*0A
$GPGGA,090445.10,5702.8516391,N,00950.0490110,E,2,5,1.4,-3.293,M,40.592,M,2.0,0123*52
$GPVTG,324.30,T,-315.60,M,005.653,N,010.469,K,D*03
$GPGGA,090445.15,5702.8516986,N,00950.0489297,E,2,5,1.4,-3.291,M,40.592,M,2.0,0123*5D
$GPVTG,323.68,T,-316.22,M,005.631,N,010.428,K,D*0D
$GPGGA,090445.20,5702.8517561,N,00950.0488428,E,2,5,1.4,-3.292,M,40.592,M,2.0,0123*5F
$GPVTG,322.55,T,-317.35,M,005.628,N,010.423,K,D*06
$GPGGA,090445.25,5702.8518045,N,00950.0487528,E,2,5,1.4,-3.276,M,40.592,M,2.3,0123*51
$GPVTG,321.81,T,-318.09,M,005.648,N,010.460,K,D*0D
$GPGGA,090445.30,5702.8518599,N,00950.0486630,E,2,5,1.4,-3.277,M,40.592,M,2.3,0123*5B
$GPVTG,320.70,T,-319.20,M,005.631,N,010.429,K,D*0B
$GPGGA,090445.35,5702.8519182,N,00950.0485717,E,2,5,1.4,-3.281,M,40.592,M,2.3,0123*5F
$GPVTG,319.86,T,-320.04,M,005.641,N,010.447,K,D*0B
$GPGGA,090445.40,5702.8519832,N,00950.0484812,E,2,5,1.4,-3.287,M,40.592,M,2.3,0123*52
$GPVTG,319.72,T,-320.18,M,005.685,N,010.528,K,D*0D
$GPGGA,090445.45,5702.8520263,N,00950.0483803,E,2,5,1.4,-3.264,M,40.592,M,2.5,0123*5F
$GPVTG,318.68,T,-321.22,M,005.699,N,010.554,K,D*09
$GPGGA,090445.50,5702.8520846,N,00950.0482830,E,2,5,1.4,-3.268,M,40.592,M,2.5,0123*5B
$GPVTG,317.86,T,-322.04,M,005.727,N,010.606,K,D*01
$GPGGA,090445.55,5702.8521418,N,00950.0481877,E,2,5,1.4,-3.271,M,40.592,M,2.5,0123*50
$GPVTG,317.34,T,-322.56,M,005.719,N,010.591,K,D*0F
$GPGGA,090445.60,5702.8521969,N,00950.0480869,E,2,5,1.4,-3.276,M,40.592,M,2.5,0123*54
$GPVTG,316.35,T,-323.55,M,005.736,N,010.622,K,D*0B
$GPGGA,090445.65,5702.8522397,N,00950.0479814,E,2,5,1.4,-3.254,M,40.592,M,2.7,0123*57
$GPVTG,315.33,T,-324.57,M,005.735,N,010.622,K,D*08
$GPGGA,090445.70,5702.8522885,N,00950.0478791,E,2,5,1.4,-3.259,M,40.592,M,2.7,0123*55
$GPVTG,314.17,T,-325.73,M,005.698,N,010.553,K,D*0B
$GPGGA,090445.75,5702.8523342,N,00950.0477776,E,2,5,1.4,-3.261,M,40.592,M,2.7,0123*5C
$GPVTG,313.04,T,-326.86,M,005.629,N,010.426,K,D*0E
$GPGGA,090445.80,5702.8523899,N,00950.0476714,E,2,5,1.4,-3.267,M,40.592,M,2.7,0123*58
$GPVTG,312.43,T,-327.47,M,005.670,N,010.501,K,D*08
$GPGGA,090445.85,5702.8524339,N,00950.0475517,E,2,5,1.4,-3.212,M,40.592,M,3.0,0123*5D
$GPVTG,311.66,T,-328.24,M,005.684,N,010.526,K,D*08
$GPGGA,090445.90,5702.8524870,N,00950.0474437,E,2,5,1.4,-3.208,M,40.592,M,3.0,0123*56
$GPVTG,311.06,T,-328.84,M,005.703,N,010.561,K,D*09
$GPGGA,090445.95,5702.8525412,N,00950.0473379,E,2,5,1.4,-3.204,M,40.592,M,3.0,0123*5C
$GPVTG,310.88,T,-329.02,M,005.697,N,010.552,K,D*0D
$GPGGA,090446.00,5702.8525886,N,00950.0472232,E,2,5,1.4,-3.205,M,40.592,M,3.0,0123*5C
$GPVTG,309.58,T,-330.32,M,005.729,N,010.611,K,D*03
$GPGGA,090446.05,5702.8526243,N,00950.0471124,E,2,5,1.4,-3.202,M,40.592,M,1.5,0123*5E
$GPVTG,308.77,T,-331.13,M,005.720,N,010.594,K,D*0A
$GPGGA,090446.10,5702.8526739,N,00950.0469992,E,2,5,1.4,-3.203,M,40.592,M,1.5,0123*5F
$GPVTG,308.15,T,-331.75,M,005.730,N,010.612,K,D*02
$GPGGA,090446.15,5702.8527144,N,00950.0468830,E,2,5,1.4,-3.208,M,40.592,M,1.5,0123*54
$GPVTG,306.77,T,-333.13,M,005.711,N,010.576,K,D*08
$GPGGA,090446.20,5702.8527563,N,00950.0467639,E,2,5,1.4,-3.209,M,40.592,M,1.5,0123*5A
$GPVTG,305.49,T,-334.41,M,005.720,N,010.594,K,D*08
$GPGGA,090446.25,5702.8527925,N,00950.0466422,E,2,5,1.4,-3.171,M,40.592,M,1.7,0123*56
$GPVTG,305.15,T,-334.75,M,005.691,N,010.540,K,D*04
$GPGGA,090446.30,5702.8528447,N,00950.0465169,E,2,5,1.4,-3.171,M,40.592,M,1.7,0123*5D
$GPVTG,304.53,T,-335.37,M,005.806,N,010.753,K,D*00
$GPGGA,090446.35,5702.8528839,N,00950.0463968,E,2,5,1.4,-3.168,M,40.592,M,1.7,0123*5A
$GPVTG,303.47,T,-336.43,M,005.778,N,010.701,K,D*03
$GPGGA,090446.40,5702.8529294,N,00950.0462786,E,2,5,1.4,-3.167,M,40.592,M,1.7,0123*54
$GPVTG,303.19,T,-336.71,M,005.757,N,010.662,K,D*00
$GPGGA,090446.45,5702.8529584,N,00950.0461581,E,2,5,1.4,-3.167,M,40.592,M,2.0,0123*55
$GPVTG,302.12,T,-337.78,M,005.721,N,010.595,K,D*08
$GPGGA,090446.50,5702.8529964,N,00950.0460316,E,2,5,1.4,-3.174,M,40.592,M,2.0,0123*58
$GPVTG,300.93,T,-338.97,M,005.742,N,010.634,K,D*00
$GPGGA,090446.55,5702.8530356,N,00950.0459079,E,2,5,1.4,-3.178,M,40.592,M,2.0,0123*52
$GPVTG,300.22,T,-339.68,M,005.728,N,010.609,K,D*09
$GPGGA,090446.60,5702.8530746,N,00950.0457856,E,2,5,1.4,-3.180,M,40.592,M,2.0,0123*5D
$GPVTG,299.68,T,-340.22,M,005.694,N,010.546,K,D*08
$GPGGA,090446.65,5702.8531027,N,00950.0456426,E,2,5,1.4,-3.131,M,40.592,M,2.2,0123*5B
$GPVTG,298.41,T,-341.49,M,005.740,N,010.631,K,D*05
$GPGGA,090446.70,5702.8531473,N,00950.0455096,E,2,5,1.4,-3.130,M,40.592,M,2.2,0123*57
$GPVTG,298.02,T,-341.88,M,005.832,N,010.800,K,D*09
$GPGGA,090446.75,5702.8531793,N,00950.0453770,E,2,5,1.4,-3.127,M,40.592,M,2.2,0123*50
$GPVTG,296.76,T,-343.14,M,005.843,N,010.820,K,D*07
$GPGGA,090446.80,5702.8532105,N,00950.0452448,E,2,5,1.4,-3.121,M,40.592,M,2.2,0123*5F
$GPVTG,295.63,T,-344.27,M,005.836,N,010.808,K,D*0F
$GPGGA,090446.85,5702.8532287,N,00950.0451157,E,2,5,1.4,-3.114,M,40.592,M,2.4,0123*5B
$GPVTG,294.67,T,-345.23,M,005.783,N,010.711,K,D*09
$GPGGA,090446.90,5702.8532627,N,00950.0449880,E,2,5,1.4,-3.112,M,40.592,M,2.4,0123*5D
$GPVTG,294.31,T,-345.59,M,005.729,N,010.610,K,D*07
$GPGGA,090446.95,5702.8532963,N,00950.0448575,E,2,5,1.4,-3.112,M,40.592,M,2.4,0123*51
$GPVTG,293.85,T,-346.05,M,005.708,N,010.572,K,D*01
$GPGGA,090447.00,5702.8533360,N,00950.0447228,E,2,5,1.4,-3.114,M,40.592,M,2.4,0123*52
$GPVTG,293.80,T,-346.10,M,005.760,N,010.667,K,D*09
$GPGGA,090447.05,5702.8533482,N,00950.0445858,E,2,5,1.4,-3.104,M,40.592,M,2.6,0123*50
$GPVTG,292.66,T,-347.24,M,005.753,N,010.655,K,D*07
$GPGGA,090447.10,5702.8533765,N,00950.0444516,E,2,5,1.4,-3.104,M,40.592,M,2.6,0123*58
$GPVTG,291.85,T,-348.05,M,005.740,N,010.630,K,D*04
$GPGGA,090447.15,5702.8534035,N,00950.0443134,E,2,5,1.4,-3.106,M,40.592,M,2.6,0123*59
$GPVTG,290.87,T,-349.03,M,005.765,N,010.676,K,D*05
$GPGGA,090447.20,5702.8534273,N,00950.0441785,E,2,5,1.4,-3.108,M,40.592,M,2.6,0123*5F
$GPVTG,289.89,T,-350.01,M,005.735,N,010.621,K,D*0E
$GPGGA,090447.25,5702.8534357,N,00950.0440229,E,2,5,1.4,-3.056,M,40.592,M,2.9,0123*5A
$GPVTG,288.99,T,-350.91,M,005.815,N,010.770,K,D*0F
$GPGGA,090447.30,5702.8534649,N,00950.0438853,E,2,5,1.4,-3.055,M,40.592,M,2.9,0123*5F
$GPVTG,288.67,T,-351.23,M,005.812,N,010.763,K,D*03
$GPGGA,090447.35,5702.8534859,N,00950.0437433,E,2,5,1.4,-3.051,M,40.592,M,2.9,0123*54
$GPVTG,287.50,T,-352.40,M,005.832,N,010.800,K,D*06
$GPGGA,090447.40,5702.8535069,N,00950.0436031,E,2,5,1.4,-3.048,M,40.592,M,2.9,0123*53
$GPVTG,286.55,T,-353.35,M,005.822,N,010.782,K,D*05
$GPGGA,090447.45,5702.8535244,N,00950.0434578,E,2,5,1.4,-3.028,M,40.592,M,3.1,0123*5E
$GPVTG,286.06,T,-353.84,M,005.850,N,010.835,K,D*0F
$GPGGA,090447.50,5702.8535376,N,00950.0433179,E,2,5,1.4,-3.022,M,40.592,M,3.1,0123*52
$GPVTG,284.65,T,-355.25,M,005.803,N,010.748,K,D*06
$GPGGA,090447.55,5702.8535573,N,00950.0431762,E,2,5,1.4,-3.016,M,40.592,M,3.1,0123*5D
$GPVTG,283.90,T,-356.00,M,005.798,N,010.738,K,D*05
$GPGGA,090447.60,5702.8535797,N,00950.0430326,E,2,5,1.4,-3.012,M,40.592,M,3.1,0123*52
$GPVTG,283.47,T,-356.43,M,005.817,N,010.773,K,D*0F
$GPGGA,090447.65,5702.8535880,N,00950.0428883,E,2,5,1.4,-3.018,M,40.592,M,3.3,0123*5B
$GPVTG,282.79,T,-357.11,M,005.865,N,010.862,K,D*0F
$GPGGA,090447.70,5702.8536006,N,00950.0427474,E,2,5,1.4,-3.020,M,40.592,M,3.3,0123*5A
$GPVTG,281.74,T,-358.16,M,005.812,N,010.764,K,D*00
$GPGGA,090447.75,5702.8536137,N,00950.0426060,E,2,5,1.4,-3.022,M,40.592,M,3.3,0123*5E
$GPVTG,280.83,T,-359.07,M,005.773,N,010.692,K,D*08
$GPGGA,090447.80,5702.8536332,N,00950.0424603,E,2,5,1.4,-3.028,M,40.592,M,3.3,0123*58
$GPVTG,280.50,T,-359.40,M,005.800,N,010.741,K,D*01
$GPGGA,090447.85,5702.8536362,N,00950.0423124,E,2,5,1.4,-3.007,M,40.592,M,3.5,0123*56
$GPVTG,279.73,T,-360.17,M,005.782,N,010.708,K,D*06
$GPGGA,090447.90,5702.8536474,N,00950.0421662,E,2,5,1.4,-3.008,M,40.592,M,3.5,0123*5A
$GPVTG,278.81,T,-361.09,M,005.795,N,010.733,K,D*0A
$GPGGA,090447.95,5702.8536603,N,00950.0420196,E,2,5,1.4,-3.009,M,40.592,M,3.5,0123*51
$GPVTG,278.16,T,-361.74,M,005.813,N,010.766,K,D*0F
$GPGGA,090448.00,5702.8536692,N,00950.0418729,E,2,5,1.4,-3.010,M,40.592,M,3.5,0123*5B
$GPVTG,277.25,T,-362.65,M,005.822,N,010.782,K,D*0B
$GPGGA,090448.05,5702.8536766,N,00950.0417230,E,2,4,1.4,-2.979,M,40.592,M,1.9,0123*5E
$GPVTG,276.86,T,-363.04,M,005.787,N,010.718,K,D*06
$GPGGA,090448.10,5702.8536843,N,00950.0415742,E,2,4,1.4,-2.978,M,40.592,M,1.9,0123*51
$GPVTG,276.00,T,-363.90,M,005.822,N,010.782,K,D*06
$GPGGA,090448.15,5702.8536928,N,00950.0414309,E,2,4,1.4,-2.975,M,40.592,M,1.9,0123*5F
$GPVTG,275.38,T,-364.52,M,005.781,N,010.707,K,D*0C
$GPGGA,090448.20,5702.8536976,N,00950.0412847,E,2,4,1.4,-2.973,M,40.592,M,1.9,0123*53
$GPVTG,274.48,T,-365.42,M,005.779,N,010.702,K,D*08
$GPGGA,090448.25,5702.8537089,N,00950.0411381,E,2,4,1.4,-2.992,M,40.592,M,2.1,0123*58
$GPVTG,273.62,T,-366.28,M,005.827,N,010.792,K,D*05
$GPGGA,090448.30,5702.8537125,N,00950.0409916,E,2,4,1.4,-2.996,M,40.592,M,2.1,0123*52
$GPVTG,272.81,T,-367.09,M,005.818,N,010.775,K,D*0E
$GPGGA,090448.35,5702.8537114,N,00950.0408523,E,2,4,1.4,-2.998,M,40.592,M,2.1,0123*50
$GPVTG,271.72,T,-368.18,M,005.720,N,010.593,K,D*00
$GPGGA,090448.40,5702.8537118,N,00950.0407040,E,2,4,1.4,-3.002,M,40.592,M,2.1,0123*5A
$GPVTG,270.82,T,-369.08,M,005.750,N,010.649,K,D*0D
$GPGGA,090448.45,5702.8537168,N,00950.0405660,E,2,4,1.4,-3.018,M,40.592,M,2.4,0123*50
$GPVTG,270.11,T,-369.79,M,005.691,N,010.540,K,D*07
$GPGGA,090448.50,5702.8537148,N,00950.0404163,E,2,4,1.4,-3.022,M,40.592,M,2.4,0123*5A
$GPVTG,269.22,T,-370.68,M,005.744,N,010.637,K,D*0D
$GPGGA,090448.55,5702.8537162,N,00950.0402698,E,2,4,1.4,-3.026,M,40.592,M,2.4,0123*56
$GPVTG,268.67,T,-371.23,M,005.752,N,010.653,K,D*06
$GPGGA,090448.60,5702.8537114,N,00950.0401245,E,2,4,1.4,-3.032,M,40.592,M,2.4,0123*53
$GPVTG,267.71,T,-372.19,M,005.747,N,010.643,K,D*01
$GPGGA,090448.65,5702.8537125,N,00950.0399798,E,2,4,1.4,-3.039,M,40.592,M,2.6,0123*5E
$GPVTG,266.92,T,-372.98,M,005.725,N,010.603,K,D*04
$GPGGA,090448.70,5702.8537040,N,00950.0398338,E,2,4,1.4,-3.042,M,40.592,M,2.6,0123*5B
$GPVTG,265.79,T,-374.11,M,005.738,N,010.628,K,D*00
$GPGGA,090448.75,5702.8537053,N,00950.0396877,E,2,4,1.4,-3.049,M,40.592,M,2.6,0123*59
$GPVTG,265.71,T,-374.19,M,005.744,N,010.638,K,D*0A
$GPGGA,090448.80,5702.8536963,N,00950.0395401,E,2,4,1.4,-3.051,M,40.592,M,2.6,0123*5F
$GPVTG,264.75,T,-375.15,M,005.776,N,010.697,K,D*06
$GPGGA,090448.85,5702.8536890,N,00950.0393951,E,2,4,1.4,-3.055,M,40.592,M,2.9,0123*52
$GPVTG,263.29,T,-376.61,M,005.768,N,010.681,K,D*00
$GPGGA,090448.90,5702.8536789,N,00950.0392552,E,2,4,1.4,-3.058,M,40.592,M,2.9,0123*52
$GPVTG,262.37,T,-377.53,M,005.705,N,010.566,K,D*0F
$GPGGA,090448.95,5702.8536718,N,00950.0391110,E,2,4,1.4,-3.062,M,40.592,M,2.9,0123*57
$GPVTG,261.92,T,-377.98,M,005.706,N,010.567,K,D*06
$GPGGA,090449.00,5702.8536574,N,00950.0389696,E,2,4,1.4,-3.062,M,40.592,M,2.9,0123*52
$GPVTG,260.82,T,-379.08,M,005.685,N,010.529,K,D*01
$GPGGA,090449.05,5702.8536465,N,00950.0388256,E,2,4,1.4,-3.060,M,40.592,M,2.0,0123*54
$GPVTG,259.71,T,-380.19,M,005.692,N,010.542,K,D*0A
$GPGGA,090449.10,5702.8536193,N,00950.0386851,E,2,4,1.4,-3.059,M,40.592,M,2.0,0123*55
$GPVTG,257.67,T,-382.23,M,005.697,N,010.551,K,D*0F
$GPGGA,090449.15,5702.8536052,N,00950.0385417,E,2,4,1.4,-3.058,M,40.592,M,2.0,0123*50
$GPVTG,257.11,T,-382.79,M,005.717,N,010.588,K,D*0C
$GPGGA,090449.20,5702.8535934,N,00950.0384042,E,2,4,1.4,-3.057,M,40.592,M,2.0,0123*56
$GPVTG,256.70,T,-383.20,M,005.662,N,010.486,K,D*0B
$GPGGA,090449.25,5702.8535842,N,00950.0382632,E,2,4,1.4,-3.062,M,40.592,M,2.3,0123*51
$GPVTG,255.83,T,-384.07,M,005.681,N,010.520,K,D*06
$GPGGA,090449.30,5702.8535676,N,00950.0381250,E,2,4,1.4,-3.063,M,40.592,M,2.3,0123*5E
$GPVTG,255.18,T,-384.72,M,005.659,N,010.480,K,D*08
$GPGGA,090449.35,5702.8535456,N,00950.0379809,E,2,4,1.4,-3.066,M,40.592,M,2.3,0123*5F
$GPVTG,254.37,T,-385.53,M,005.722,N,010.597,K,D*0C
$GPGGA,090449.40,5702.8535209,N,00950.0378403,E,2,4,1.4,-3.067,M,40.592,M,2.3,0123*57
$GPVTG,253.34,T,-386.56,M,005.748,N,010.646,K,D*0D
$GPGGA,090449.45,5702.8535033,N,00950.0377019,E,2,4,1.4,-3.070,M,40.592,M,2.5,0123*59
$GPVTG,252.42,T,-387.48,M,005.735,N,010.620,K,D*09
$GPGGA,090449.50,5702.8534832,N,00950.0375684,E,2,4,1.4,-3.071,M,40.592,M,2.5,0123*54
$GPVTG,251.73,T,-388.17,M,005.671,N,010.503,K,D*0E
$GPGGA,090449.55,5702.8534562,N,00950.0374328,E,2,4,1.4,-3.072,M,40.592,M,2.5,0123*58
$GPVTG,250.67,T,-389.23,M,005.668,N,010.497,K,D*08
$GPGGA,090449.60,5702.8534265,N,00950.0372977,E,2,4,1.4,-3.071,M,40.592,M,2.5,0123*5B
$GPVTG,249.51,T,-390.39,M,005.673,N,010.507,K,D*04
$GPGGA,090449.65,5702.8534074,N,00950.0371588,E,2,5,1.4,-3.076,M,40.592,M,2.7,0123*57
$GPVTG,248.94,T,-390.96,M,005.724,N,010.601,K,D*0F
$GPGGA,090449.70,5702.8533813,N,00950.0370233,E,2,5,1.4,-3.078,M,40.592,M,2.7,0123*55
$GPVTG,248.35,T,-391.55,M,005.725,N,010.602,K,D*08
$GPGGA,090449.75,5702.8533604,N,00950.0368950,E,2,5,1.4,-3.076,M,40.592,M,2.7,0123*51
$GPVTG,248.00,T,-391.90,M,005.626,N,010.420,K,D*07
$GPGGA,090449.80,5702.8533260,N,00950.0367655,E,2,5,1.4,-3.074,M,40.592,M,2.7,0123*5A
$GPVTG,246.59,T,-393.31,M,005.612,N,010.394,K,D*03
$GPGGA,090449.85,5702.8532975,N,00950.0366366,E,2,5,1.4,-3.089,M,40.592,M,3.0,0123*51
$GPVTG,244.90,T,-395.00,M,005.655,N,010.472,K,D*0C
$GPGGA,090449.90,5702.8532665,N,00950.0365129,E,2,5,1.4,-3.084,M,40.592,M,3.0,0123*5C
$GPVTG,243.91,T,-395.99,M,005.576,N,010.327,K,D*0F
$GPGGA,090449.95,5702.8532399,N,00950.0363840,E,2,4,1.4,-3.082,M,40.592,M,3.0,0123*58
$GPVTG,243.69,T,-396.21,M,005.561,N,010.299,K,D*0A
$GPGGA,090450.00,5702.8532012,N,00950.0362595,E,2,4,1.4,-3.077,M,40.592,M,3.0,0123*52
$GPVTG,242.35,T,-397.55,M,005.555,N,010.288,K,D*07
$GPGGA,090450.05,5702.8531671,N,00950.0361296,E,2,4,1.4,-3.077,M,40.592,M,1.5,0123*57
$GPVTG,241.69,T,-398.21,M,005.614,N,010.397,K,D*08
$GPGGA,090450.10,5702.8531393,N,00950.0360041,E,2,4,1.4,-3.076,M,40.592,M,1.5,0123*52
$GPVTG,241.58,T,-398.32,M,005.582,N,010.338,K,D*01
$GPGGA,090450.15,5702.8530991,N,00950.0358794,E,2,4,1.4,-3.074,M,40.592,M,1.5,0123*58
$GPVTG,240.52,T,-399.38,M,005.603,N,010.376,K,D*01
$GPGGA,090450.20,5702.8530604,N,00950.0357565,E,2,4,1.4,-3.075,M,40.592,M,1.5,0123*5F
$GPVTG,239.61,T,-400.29,M,005.603,N,010.378,K,D*06
$GPGGA,090450.25,5702.8530320,N,00950.0356354,E,2,4,1.4,-3.088,M,40.592,M,1.7,0123*5C
$GPVTG,239.01,T,-400.89,M,005.592,N,010.357,K,D*0C
$GPGGA,090450.30,5702.8529919,N,00950.0355125,E,2,4,1.4,-3.092,M,40.592,M,1.7,0123*5C
$GPVTG,238.28,T,-401.62,M,005.614,N,010.397,K,D*03
$GPGGA,090450.35,5702.8529505,N,00950.0353901,E,2,4,1.4,-3.092,M,40.592,M,1.7,0123*50
$GPVTG,237.55,T,-402.35,M,005.639,N,010.444,K,D*01
$GPGGA,090450.40,5702.8529072,N,00950.0352721,E,2,4,1.4,-3.094,M,40.592,M,1.7,0123*5C
$GPVTG,236.49,T,-403.41,M,005.631,N,010.429,K,D*0C
$GPGGA,090450.45,5702.8528709,N,00950.0351577,E,2,4,1.4,-3.103,M,40.592,M,2.0,0123*5A
$GPVTG,235.55,T,-404.35,M,005.586,N,010.345,K,D*04
$GPGGA,090450.50,5702.8528285,N,00950.0350469,E,2,4,1.4,-3.103,M,40.592,M,2.0,0123*50
$GPVTG,234.38,T,-405.52,M,005.522,N,010.226,K,D*04
$GPGGA,090450.55,5702.8527866,N,00950.0349355,E,2,4,1.4,-3.105,M,40.592,M,2.0,0123*5B
$GPVTG,233.52,T,-406.38,M,005.482,N,010.152,K,D*0B
$GPGGA,090450.60,5702.8527444,N,00950.0348263,E,2,4,1.4,-3.109,M,40.592,M,2.0,0123*58
$GPVTG,232.65,T,-407.25,M,005.436,N,010.068,K,D*04
$GPGGA,090450.65,5702.8527048,N,00950.0347144,E,2,4,1.4,-3.125,M,40.592,M,2.2,0123*50
$GPVTG,231.85,T,-408.05,M,005.481,N,010.151,K,D*03
$GPGGA,090450.70,5702.8526513,N,00950.0346104,E,2,4,1.4,-3.125,M,40.592,M,2.2,0123*5B
$GPVTG,230.06,T,-409.84,M,005.470,N,010.130,K,D*08
$GPGGA,090450.75,5702.8526085,N,00950.0345039,E,2,4,1.4,-3.126,M,40.592,M,2.2,0123*5B
$GPVTG,229.55,T,-410.35,M,005.435,N,010.066,K,D*07
$GPGGA,090450.80,5702.8525627,N,00950.0343980,E,2,4,1.4,-3.125,M,40.592,M,2.2,0123*52
$GPVTG,228.95,T,-410.95,M,005.425,N,010.048,K,D*0D
$GPGGA,090450.85,5702.8525184,N,00950.0342981,E,2,4,1.4,-3.145,M,40.592,M,2.4,0123*59
$GPVTG,227.71,T,-412.19,M,005.434,N,010.063,K,D*07
$GPGGA,090450.90,5702.8524677,N,00950.0342008,E,2,4,1.4,-3.147,M,40.592,M,2.4,0123*5D
$GPVTG,226.39,T,-413.51,M,005.395,N,009.992,K,D*04
$GPGGA,090450.95,5702.8524158,N,00950.0341052,E,2,4,1.4,-3.149,M,40.592,M,2.4,0123*50
$GPVTG,225.09,T,-414.81,M,005.367,N,009.939,K,D*02
$GPGGA,090451.00,5702.8523710,N,00950.0340058,E,2,4,1.4,-3.151,M,40.592,M,2.4,0123*52
$GPVTG,224.91,T,-414.99,M,005.340,N,009.890,K,D*0C
$GPGGA,090451.05,5702.8523175,N,00950.0339105,E,2,5,1.4,-3.135,M,40.592,M,2.6,0123*54
$GPVTG,223.54,T,-416.36,M,005.303,N,009.821,K,D*08
$GPGGA,090451.10,5702.8522613,N,00950.0338141,E,2,5,1.4,-3.133,M,40.592,M,2.6,0123*51
$GPVTG,222.73,T,-417.17,M,005.353,N,009.913,K,D*0B
$GPGGA,090451.15,5702.8522040,N,00950.0337144,E,2,5,1.4,-3.134,M,40.592,M,2.6,0123*59
$GPVTG,222.36,T,-417.54,M,005.439,N,010.074,K,D*06
$GPGGA,090451.20,5702.8521563,N,00950.0336206,E,2,5,1.4,-3.138,M,40.592,M,2.6,0123*50
$GPVTG,222.16,T,-417.74,M,005.406,N,010.012,K,D*0A
$GPGGA,090451.25,5702.8520987,N,00950.0335304,E,2,5,1.4,-3.115,M,40.592,M,2.9,0123*52
$GPVTG,220.93,T,-418.97,M,005.329,N,009.870,K,D*09
$GPGGA,090451.30,5702.8520384,N,00950.0334400,E,2,5,1.4,-3.113,M,40.592,M,2.9,0123*5B
$GPVTG,219.94,T,-419.96,M,005.387,N,009.977,K,D*06
$GPGGA,090451.35,5702.8519843,N,00950.0333506,E,2,5,1.4,-3.112,M,40.592,M,2.9,0123*55
$GPVTG,219.53,T,-420.37,M,005.385,N,009.973,K,D*0A
$GPGGA,090451.40,5702.8519277,N,00950.0332608,E,2,5,1.4,-3.110,M,40.592,M,2.9,0123*54
$GPVTG,219.10,T,-420.80,M,005.411,N,010.021,K,D*0D
$GPGGA,090451.45,5702.8518669,N,00950.0331674,E,2,5,1.4,-3.093,M,40.592,M,3.1,0123*50
$GPVTG,218.98,T,-420.92,M,005.434,N,010.063,K,D*0E
$GPGGA,090451.50,5702.8518106,N,00950.0330834,E,2,5,1.4,-3.092,M,40.592,M,3.1,0123*50
$GPVTG,218.22,T,-421.68,M,005.415,N,010.029,K,D*06
$GPGGA,090451.55,5702.8517536,N,00950.0330042,E,2,5,1.4,-3.089,M,40.592,M,3.1,0123*5E
$GPVTG,217.13,T,-422.77,M,005.375,N,009.954,K,D*0C
$GPGGA,090451.60,5702.8516926,N,00950.0329231,E,2,5,1.4,-3.086,M,40.592,M,3.1,0123*55
$GPVTG,216.19,T,-423.71,M,005.390,N,009.982,K,D*00
$GPGGA,090451.65,5702.8516225,N,00950.0328457,E,2,5,1.4,-3.072,M,40.592,M,3.3,0123*56
$GPVTG,215.10,T,-424.80,M,005.385,N,009.973,K,D*09
$GPGGA,090451.70,5702.8515639,N,00950.0327748,E,2,5,1.4,-3.072,M,40.592,M,3.3,0123*5A
$GPVTG,213.88,T,-426.02,M,005.337,N,009.884,K,D*06
$GPGGA,090451.75,5702.8515037,N,00950.0327008,E,2,5,1.4,-3.073,M,40.592,M,3.3,0123*55
$GPVTG,212.98,T,-426.92,M,005.324,N,009.860,K,D*07
$GPGGA,090451.80,5702.8514465,N,00950.0326241,E,2,5,1.4,-3.072,M,40.592,M,3.3,0123*52
$GPVTG,212.70,T,-427.20,M,005.306,N,009.827,K,D*0A
$GPGGA,090451.85,5702.8513699,N,00950.0325520,E,2,5,1.4,-3.046,M,40.592,M,3.5,0123*53
$GPVTG,211.33,T,-428.57,M,005.288,N,009.793,K,D*06
$GPGGA,090451.90,5702.8513058,N,00950.0324888,E,2,5,1.4,-3.048,M,40.592,M,3.5,0123*5C
$GPVTG,209.80,T,-430.10,M,005.273,N,009.765,K,D*00
$GPGGA,090451.95,5702.8512469,N,00950.0324258,E,2,5,1.4,-3.046,M,40.592,M,3.5,0123*57
$GPVTG,208.79,T,-431.11,M,005.221,N,009.669,K,D*0D
$GPGGA,090452.00,5702.8511833,N,00950.0323678,E,2,5,1.4,-3.044,M,40.592,M,3.5,0123*5B
$GPVTG,207.28,T,-432.62,M,005.196,N,009.624,K,D*07
$GPGGA,090452.05,5702.8511056,N,00950.0322931,E,2,5,1.4,-3.016,M,40.592,M,1.9,0123*5F
$GPVTG,207.09,T,-432.81,M,005.220,N,009.668,K,D*0F
$GPGGA,090452.10,5702.8510416,N,00950.0322284,E,2,5,1.4,-3.016,M,40.592,M,1.9,0123*5F
$GPVTG,206.66,T,-433.24,M,005.241,N,009.706,K,D*07
$GPGGA,090452.15,5702.8509792,N,00950.0321738,E,2,5,1.4,-3.017,M,40.592,M,1.9,0123*5D
$GPVTG,205.46,T,-434.44,M,005.204,N,009.638,K,D*0A
$GPGGA,090452.20,5702.8509169,N,00950.0321204,E,2,5,1.4,-3.016,M,40.592,M,1.9,0123*52
$GPVTG,204.38,T,-435.52,M,005.170,N,009.576,K,D*0D
$GPGGA,090452.25,5702.8508388,N,00950.0320581,E,2,5,1.4,-2.982,M,40.592,M,2.1,0123*5E
$GPVTG,203.62,T,-436.28,M,005.151,N,009.539,K,D*03
$GPGGA,090452.30,5702.8507733,N,00950.0319982,E,2,5,1.4,-2.982,M,40.592,M,2.1,0123*54
$GPVTG,203.53,T,-436.37,M,005.185,N,009.603,K,D*0C
$GPGGA,090452.35,5702.8507074,N,00950.0319490,E,2,5,1.4,-2.986,M,40.592,M,2.1,0123*5F
$GPVTG,202.43,T,-437.47,M,005.181,N,009.595,K,D*02
$GPGGA,090452.40,5702.8506428,N,00950.0319033,E,2,5,1.4,-2.988,M,40.592,M,2.1,0123*52
$GPVTG,201.24,T,-438.66,M,005.156,N,009.549,K,D*07
$GPGGA,090452.45,5702.8505603,N,00950.0318448,E,2,5,1.4,-2.925,M,40.592,M,2.4,0123*54
$GPVTG,200.69,T,-439.21,M,005.136,N,009.513,K,D*04
$GPGGA,090452.50,5702.8504982,N,00950.0317959,E,2,5,1.4,-2.920,M,40.592,M,2.4,0123*50
$GPVTG,200.19,T,-439.71,M,005.107,N,009.458,K,D*0A
$GPGGA,090452.55,5702.8504352,N,00950.0317534,E,2,5,1.4,-2.916,M,40.592,M,2.4,0123*50
$GPVTG,199.37,T,-440.53,M,005.076,N,009.400,K,D*01
$GPGGA,090452.60,5702.8503692,N,00950.0317149,E,2,5,1.4,-2.912,M,40.592,M,2.4,0123*52
$GPVTG,198.27,T,-441.63,M,005.066,N,009.382,K,D*0F
$GPGGA,090452.65,5702.8502854,N,00950.0316607,E,2,5,1.4,-2.877,M,40.592,M,2.6,0123*5E
$GPVTG,197.79,T,-442.11,M,005.096,N,009.437,K,D*0B
$GPGGA,090452.70,5702.8502213,N,00950.0316189,E,2,5,1.4,-2.877,M,40.592,M,2.6,0123*52
$GPVTG,197.31,T,-442.59,M,005.079,N,009.406,K,D*08
$GPGGA,090452.75,5702.8501581,N,00950.0315820,E,2,5,1.4,-2.877,M,40.592,M,2.6,0123*51
$GPVTG,196.58,T,-443.32,M,005.046,N,009.344,K,D*07
$GPGGA,090452.80,5702.8500902,N,00950.0315490,E,2,5,1.4,-2.880,M,40.592,M,2.6,0123*52
$GPVTG,195.51,T,-444.39,M,005.050,N,009.352,K,D*01
$GPGGA,090452.85,5702.8500144,N,00950.0315111,E,2,5,1.4,-2.853,M,40.592,M,2.9,0123*50
$GPVTG,194.57,T,-445.33,M,004.990,N,009.242,K,D*09
$GPGGA,090452.90,5702.8499475,N,00950.0314793,E,2,5,1.4,-2.856,M,40.592,M,2.9,0123*5A
$GPVTG,193.83,T,-446.07,M,004.992,N,009.245,K,D*06
$GPGGA,090452.95,5702.8498822,N,00950.0314479,E,2,5,1.4,-2.857,M,40.592,M,2.9,0123*56
$GPVTG,193.29,T,-446.61,M,004.981,N,009.225,K,D*02
$GPGGA,090453.00,5702.8498175,N,00950.0314138,E,2,5,1.4,-2.863,M,40.592,M,2.9,0123*57
$GPVTG,193.26,T,-446.64,M,004.974,N,009.212,K,D*06
$GPGGA,090453.05,5702.8497387,N,00950.0313800,E,2,5,1.4,-2.816,M,40.592,M,2.0,0123*5C
$GPVTG,192.34,T,-447.56,M,004.960,N,009.186,K,D*0F
$GPGGA,090453.10,5702.8496738,N,00950.0313609,E,2,5,1.4,-2.816,M,40.592,M,2.0,0123*5E
$GPVTG,190.79,T,-449.11,M,004.926,N,009.122,K,D*05
$GPGGA,090453.15,5702.8496070,N,00950.0313329,E,2,5,1.4,-2.818,M,40.592,M,2.0,0123*59
$GPVTG,190.58,T,-449.32,M,004.934,N,009.137,K,D*00
$GPGGA,090453.20,5702.8495404,N,00950.0313135,E,2,5,1.4,-2.818,M,40.592,M,2.0,0123*54
$GPVTG,189.49,T,-450.41,M,004.924,N,009.119,K,D*09
$GPGGA,090453.25,5702.8494649,N,00950.0312885,E,2,5,1.4,-2.786,M,40.592,M,2.3,0123*53
$GPVTG,188.67,T,-451.23,M,004.893,N,009.063,K,D*00
$GPGGA,090453.30,5702.8494004,N,00950.0312647,E,2,5,1.4,-2.787,M,40.592,M,2.3,0123*59
$GPVTG,188.57,T,-451.33,M,004.878,N,009.034,K,D*05
$GPGGA,090453.35,5702.8493364,N,00950.0312515,E,2,5,1.4,-2.787,M,40.592,M,2.3,0123*5A
$GPVTG,187.35,T,-452.55,M,004.844,N,008.972,K,D*08
$GPGGA,090453.40,5702.8492710,N,00950.0312389,E,2,5,1.4,-2.789,M,40.592,M,2.3,0123*53
$GPVTG,186.27,T,-453.63,M,004.829,N,008.943,K,D*07
$GPGGA,090453.45,5702.8491985,N,00950.0312225,E,2,5,1.4,-2.756,M,40.592,M,2.5,0123*54
$GPVTG,185.21,T,-454.69,M,004.806,N,008.901,K,D*04
$GPGGA,090453.50,5702.8491330,N,00950.0312101,E,2,5,1.4,-2.761,M,40.592,M,2.5,0123*55
$GPVTG,184.61,T,-455.29,M,004.799,N,008.888,K,D*0D
$GPGGA,090453.55,5702.8490668,N,00950.0311944,E,2,5,1.4,-2.763,M,40.592,M,2.5,0123*51
