$GPGGA,083828.45,5702.8914637,N,00949.4238608,E,2,6,1.5,-1.712,M,40.592,M,2.4,0123*5E
$GPVTG,188.35,T,-451.55,M,004.634,N,008.583,K,D*0F
$GPGGA,083828.50,5702.8914046,N,00949.4238431,E,2,6,1.5,-1.713,M,40.592,M,2.4,0123*53
$GPVTG,189.18,T,-450.72,M,004.547,N,008.421,K,D*0B
$GPGGA,083828.55,5702.8913434,N,00949.4238209,E,2,6,1.5,-1.712,M,40.592,M,2.4,0123*5C
$GPVTG,190.15,T,-449.75,M,004.539,N,008.407,K,D*0C
$GPGGA,083828.60,5702.8912805,N,00949.4237967,E,2,6,1.5,-1.711,M,40.592,M,2.4,0123*5A
$GPVTG,191.05,T,-448.85,M,004.572,N,008.467,K,D*0B
$GPGGA,083828.65,5702.8912155,N,00949.4237776,E,2,6,1.5,-1.716,M,40.592,M,2.6,0123*58
$GPVTG,191.68,T,-448.22,M,004.629,N,008.574,K,D*03
$GPGGA,083828.70,5702.8911562,N,00949.4237502,E,2,6,1.5,-1.714,M,40.592,M,2.6,0123*5C
$GPVTG,192.76,T,-447.14,M,004.593,N,008.506,K,D*02
$GPGGA,083828.75,5702.8910923,N,00949.4237259,E,2,6,1.5,-1.715,M,40.592,M,2.6,0123*59
$GPVTG,193.20,T,-446.70,M,004.630,N,008.575,K,D*0D
$GPGGA,083828.80,5702.8910342,N,00949.4237027,E,2,6,1.5,-1.713,M,40.592,M,2.6,0123*53
$GPVTG,193.73,T,-446.17,M,004.572,N,008.467,K,D*0D
$GPGGA,083828.85,5702.8909728,N,00949.4236745,E,2,6,1.5,-1.716,M,40.592,M,2.9,0123*5E
$GPVTG,194.81,T,-445.09,M,004.581,N,008.483,K,D*0D
$GPGGA,083828.90,5702.8909146,N,00949.4236451,E,2,6,1.5,-1.719,M,40.592,M,2.9,0123*5D
$GPVTG,195.60,T,-444.30,M,004.541,N,008.410,K,D*0E
$GPGGA,083828.95,5702.8908494,N,00949.4236092,E,2,6,1.5,-1.724,M,40.592,M,2.9,0123*56
$GPVTG,196.42,T,-443.48,M,004.623,N,008.561,K,D*05
$GPGGA,083829.00,5702.8907879,N,00949.4235801,E,2,6,1.5,-1.725,M,40.592,M,2.9,0123*5B
$GPVTG,196.73,T,-443.17,M,004.629,N,008.572,K,D*05
$GPGGA,083829.05,5702.8907223,N,00949.4235583,E,2,6,1.5,-1.715,M,40.592,M,2.0,0123*56
$GPVTG,197.01,T,-442.89,M,004.653,N,008.617,K,D*0A
$GPGGA,083829.10,5702.8906583,N,00949.4235230,E,2,6,1.5,-1.718,M,40.592,M,2.0,0123*5C
$GPVTG,197.51,T,-442.39,M,004.703,N,008.710,K,D*06
$GPGGA,083829.15,5702.8905937,N,00949.4234894,E,2,6,1.5,-1.718,M,40.592,M,2.0,0123*5C
$GPVTG,197.74,T,-442.16,M,004.751,N,008.800,K,D*05
$GPGGA,083829.20,5702.8905336,N,00949.4234577,E,2,6,1.5,-1.721,M,40.592,M,2.0,0123*5B
$GPVTG,198.00,T,-441.90,M,004.723,N,008.747,K,D*0D
$GPGGA,083829.25,5702.8904749,N,00949.4234290,E,2,6,1.5,-1.738,M,40.592,M,2.3,0123*56
$GPVTG,198.43,T,-441.47,M,004.704,N,008.712,K,D*05
$GPGGA,083829.30,5702.8904110,N,00949.4233873,E,2,6,1.5,-1.746,M,40.592,M,2.3,0123*51
$GPVTG,199.14,T,-440.76,M,004.760,N,008.815,K,D*0F
$GPGGA,083829.35,5702.8903474,N,00949.4233515,E,2,6,1.5,-1.754,M,40.592,M,2.3,0123*5A
$GPVTG,199.20,T,-440.70,M,004.785,N,008.862,K,D*05
$GPGGA,083829.40,5702.8902873,N,00949.4233118,E,2,6,1.5,-1.756,M,40.592,M,2.3,0123*59
$GPVTG,199.78,T,-440.12,M,004.766,N,008.826,K,D*01
$GPGGA,083829.45,5702.8902264,N,00949.4232801,E,2,6,1.5,-1.760,M,40.592,M,2.5,0123*53
$GPVTG,200.33,T,-439.57,M,004.730,N,008.761,K,D*0D
$GPGGA,083829.50,5702.8901636,N,00949.4232294,E,2,6,1.5,-1.764,M,40.592,M,2.5,0123*55
$GPVTG,202.29,T,-437.61,M,004.819,N,008.924,K,D*04
$GPGGA,083829.55,5702.8901005,N,00949.4231787,E,2,6,1.5,-1.769,M,40.592,M,2.5,0123*5F
$GPVTG,203.35,T,-436.55,M,004.881,N,009.039,K,D*0B
$GPGGA,083829.60,5702.8900407,N,00949.4231452,E,2,6,1.5,-1.771,M,40.592,M,2.5,0123*5C
$GPVTG,201.95,T,-437.95,M,004.789,N,008.869,K,D*05
$GPGGA,083829.65,5702.8899824,N,00949.4231041,E,2,6,1.5,-1.775,M,40.592,M,2.7,0123*55
$GPVTG,202.65,T,-437.25,M,004.737,N,008.772,K,D*02
$GPGGA,083829.70,5702.8899220,N,00949.4230500,E,2,6,1.5,-1.782,M,40.592,M,2.7,0123*56
$GPVTG,204.08,T,-435.82,M,004.773,N,008.840,K,D*0E
$GPGGA,083829.75,5702.8898640,N,00949.4229952,E,2,6,1.5,-1.787,M,40.592,M,2.7,0123*56
$GPVTG,205.46,T,-434.44,M,004.771,N,008.836,K,D*0D
$GPGGA,083829.80,5702.8898022,N,00949.4229537,E,2,6,1.5,-1.792,M,40.592,M,2.7,0123*55
$GPVTG,204.54,T,-435.36,M,004.759,N,008.814,K,D*01
$GPGGA,083829.85,5702.8897409,N,00949.4229080,E,2,6,1.5,-1.780,M,40.592,M,3.0,0123*5E
$GPVTG,204.93,T,-434.97,M,004.720,N,008.741,K,D*01
$GPGGA,083829.90,5702.8896816,N,00949.4228573,E,2,6,1.5,-1.781,M,40.592,M,3.0,0123*50
$GPVTG,205.34,T,-434.56,M,004.720,N,008.742,K,D*03
$GPGGA,083829.95,5702.8896233,N,00949.4228028,E,2,5,1.5,-1.783,M,40.592,M,3.0,0123*52
$GPVTG,206.20,T,-433.70,M,004.724,N,008.748,K,D*08
$GPGGA,083830.00,5702.8895638,N,00949.4227475,E,2,5,1.5,-1.784,M,40.592,M,3.0,0123*5E
$GPVTG,206.85,T,-433.05,M,004.747,N,008.792,K,D*07
$GPGGA,083830.05,5702.8895055,N,00949.4226943,E,2,5,1.5,-1.777,M,40.592,M,1.5,0123*54
$GPVTG,207.49,T,-432.41,M,004.754,N,008.804,K,D*05
$GPGGA,083830.10,5702.8894440,N,00949.4226355,E,2,5,1.5,-1.777,M,40.592,M,1.5,0123*5C
$GPVTG,208.06,T,-431.84,M,004.824,N,008.934,K,D*01
$GPGGA,083830.15,5702.8893811,N,00949.4225763,E,2,5,1.5,-1.779,M,40.592,M,1.5,0123*5A
$GPVTG,208.33,T,-431.57,M,004.905,N,009.084,K,D*08
$GPGGA,083830.20,5702.8893242,N,00949.4225156,E,2,5,1.5,-1.779,M,40.592,M,1.5,0123*50
$GPVTG,209.22,T,-430.68,M,004.889,N,009.054,K,D*0C
$GPGGA,083830.25,5702.8892663,N,00949.4224551,E,2,5,1.5,-1.759,M,40.592,M,1.7,0123*51
$GPVTG,209.91,T,-429.99,M,004.817,N,008.920,K,D*0E
$GPGGA,083830.30,5702.8892076,N,00949.4223966,E,2,5,1.5,-1.758,M,40.592,M,1.7,0123*59
$GPVTG,209.99,T,-429.91,M,004.820,N,008.927,K,D*0D
$GPGGA,083830.35,5702.8891482,N,00949.4223277,E,2,5,1.5,-1.758,M,40.592,M,1.7,0123*5B
$GPVTG,211.16,T,-428.74,M,004.894,N,009.065,K,D*08
$GPGGA,083830.40,5702.8890877,N,00949.4222539,E,2,5,1.5,-1.759,M,40.592,M,1.7,0123*53
$GPVTG,212.49,T,-427.41,M,005.003,N,009.266,K,D*0E
$GPGGA,083830.45,5702.8890352,N,00949.4221939,E,2,5,1.5,-1.763,M,40.592,M,2.0,0123*58
$GPVTG,213.03,T,-426.87,M,004.935,N,009.139,K,D*0E
$GPGGA,083830.50,5702.8889816,N,00949.4221343,E,2,5,1.5,-1.765,M,40.592,M,2.0,0123*5E
$GPVTG,212.97,T,-426.93,M,004.836,N,008.957,K,D*04
$GPGGA,083830.55,5702.8889255,N,00949.4220733,E,2,5,1.5,-1.765,M,40.592,M,2.0,0123*54
$GPVTG,212.76,T,-427.14,M,004.798,N,008.887,K,D*02
$GPGGA,083830.60,5702.8888665,N,00949.4220025,E,2,5,1.5,-1.770,M,40.592,M,2.0,0123*50
$GPVTG,213.35,T,-426.55,M,004.869,N,009.018,K,D*0E
$GPGGA,083830.65,5702.8888064,N,00949.4219276,E,2,5,1.5,-1.762,M,40.592,M,2.2,0123*5D
$GPVTG,214.72,T,-425.18,M,004.883,N,009.044,K,D*0D
$GPGGA,083830.70,5702.8887557,N,00949.4218569,E,2,5,1.5,-1.760,M,40.592,M,2.2,0123*59
$GPVTG,215.51,T,-424.39,M,004.857,N,008.996,K,D*01
$GPGGA,083830.75,5702.8886969,N,00949.4217838,E,2,5,1.5,-1.761,M,40.592,M,2.2,0123*5B
$GPVTG,215.94,T,-423.96,M,004.900,N,009.074,K,D*0D
$GPGGA,083830.80,5702.8886342,N,00949.4217075,E,2,5,1.5,-1.765,M,40.592,M,2.2,0123*57
$GPVTG,216.26,T,-423.64,M,004.991,N,009.244,K,D*03
$GPGGA,083830.85,5702.8885763,N,00949.4216475,E,2,5,1.5,-1.784,M,40.592,M,2.4,0123*5A
$GPVTG,215.80,T,-424.10,M,004.945,N,009.158,K,D*0F
$GPGGA,083830.90,5702.8885220,N,00949.4215766,E,2,5,1.5,-1.792,M,40.592,M,2.4,0123*59
$GPVTG,215.95,T,-423.95,M,004.925,N,009.120,K,D*08
$GPGGA,083830.95,5702.8884674,N,00949.4215050,E,2,5,1.5,-1.799,M,40.592,M,2.4,0123*51
$GPVTG,216.12,T,-423.78,M,004.910,N,009.094,K,D*0F
$GPGGA,083831.00,5702.8884183,N,00949.4214286,E,2,5,1.5,-1.808,M,40.592,M,2.4,0123*5C
$GPVTG,217.19,T,-422.71,M,004.877,N,009.031,K,D*02
$GPGGA,083831.05,5702.8883551,N,00949.4213509,E,2,5,1.5,-1.802,M,40.592,M,2.6,0123*5A
$GPVTG,216.95,T,-422.95,M,004.964,N,009.194,K,D*00
$GPGGA,083831.10,5702.8882979,N,00949.4212759,E,2,5,1.5,-1.807,M,40.592,M,2.6,0123*5A
$GPVTG,216.99,T,-422.91,M,004.988,N,009.237,K,D*00
$GPGGA,083831.15,5702.8882404,N,00949.4211998,E,2,5,1.5,-1.812,M,40.592,M,2.6,0123*5C
$GPVTG,217.04,T,-422.86,M,005.017,N,009.292,K,D*02
$GPGGA,083831.20,5702.8881913,N,00949.4211193,E,2,5,1.5,-1.817,M,40.592,M,2.6,0123*54
$GPVTG,218.23,T,-421.67,M,004.989,N,009.239,K,D*0A
$GPGGA,083831.25,5702.8881301,N,00949.4210391,E,2,5,1.5,-1.817,M,40.592,M,2.9,0123*56
$GPVTG,218.54,T,-421.36,M,005.072,N,009.394,K,D*04
$GPGGA,083831.30,5702.8880810,N,00949.4209602,E,2,5,1.5,-1.821,M,40.592,M,2.9,0123*5A
$GPVTG,219.29,T,-420.61,M,005.016,N,009.289,K,D*03
$GPGGA,083831.35,5702.8880240,N,00949.4208770,E,2,5,1.5,-1.826,M,40.592,M,2.9,0123*52
$GPVTG,219.58,T,-420.32,M,005.075,N,009.400,K,D*01
$GPGGA,083831.40,5702.8879774,N,00949.4207962,E,2,5,1.5,-1.830,M,40.592,M,2.9,0123*51
$GPVTG,220.54,T,-419.36,M,005.003,N,009.265,K,D*0D
$GPGGA,083831.45,5702.8879240,N,00949.4207119,E,2,6,1.5,-1.824,M,40.592,M,3.1,0123*5D
$GPVTG,220.86,T,-419.04,M,005.040,N,009.333,K,D*06
$GPGGA,083831.50,5702.8878682,N,00949.4206289,E,2,5,1.5,-1.827,M,40.592,M,3.1,0123*59
$GPVTG,220.83,T,-419.07,M,005.
$GPGGA,083841.55,5702.8885413,N,00949.3957517,E,2,5,1.5,-2.603,M,40.592,M,2.5,0123*55
$GPVTG,322.15,T,-317.75,M,005.469,N,010.128,K,D*0F
$GPGGA,083841.60,5702.8885978,N,00949.3956586,E,2,5,1.5,-2.610,M,40.592,M,2.5,0123*58
$GPVTG,321.79,T,-318.11,M,005.478,N,010.145,K,D*00
$GPGGA,083841.65,5702.8886656,N,00949.3955824,E,2,5,1.5,-2.663,M,40.592,M,2.7,0123*5D
$GPVTG,321.18,T,-318.72,M,005.433,N,010.062,K,D*09
$GPGGA,083841.70,5702.8887331,N,00949.3954955,E,2,5,1.5,-2.672,M,40.592,M,2.7,0123*5A
$GPVTG,322.29,T,-317.61,M,005.518,N,010.219,K,D*03
$GPGGA,083841.75,5702.8887877,N,00949.3954063,E,2,5,1.5,-2.677,M,40.592,M,2.7,0123*5F
$GPVTG,321.93,T,-317.97,M,005.483,N,010.154,K,D*01
$GPGGA,083841.80,5702.8888475,N,00949.3953281,E,2,5,1.5,-2.683,M,40.592,M,2.7,0123*56
$GPVTG,323.03,T,-316.87,M,005.429,N,010.054,K,D*0B
$GPGGA,083841.85,5702.8889268,N,00949.3952594,E,2,5,1.5,-2.711,M,40.592,M,3.0,0123*56
$GPVTG,324.29,T,-315.61,M,005.404,N,010.008,K,D*09
$GPGGA,083841.90,5702.8889853,N,00949.3951733,E,2,5,1.5,-2.719,M,40.592,M,3.0,0123*54
$GPVTG,324.04,T,-315.86,M,005.413,N,010.024,K,D*07
$GPGGA,083841.95,5702.8890484,N,00949.3950919,E,2,5,1.5,-2.726,M,40.592,M,3.0,0123*54
$GPVTG,324.61,T,-315.29,M,005.438,N,010.071,K,D*08
$GPGGA,083842.00,5702.8891139,N,00949.3950154,E,2,5,1.5,-2.727,M,40.592,M,3.0,0123*59
$GPVTG,325.73,T,-314.17,M,005.456,N,010.105,K,D*0C
$GPGGA,083842.05,5702.8891858,N,00949.3949500,E,2,5,1.5,-2.763,M,40.592,M,1.5,0123*58
$GPVTG,325.60,T,-314.30,M,005.403,N,010.006,K,D*09
$GPGGA,083842.10,5702.8892521,N,00949.3948650,E,2,5,1.5,-2.762,M,40.592,M,1.5,0123*5A
$GPVTG,325.61,T,-314.29,M,005.499,N,010.185,K,D*09
$GPGGA,083842.15,5702.8893152,N,00949.3947875,E,2,5,1.5,-2.765,M,40.592,M,1.5,0123*5F
$GPVTG,326.13,T,-313.77,M,005.499,N,010.184,K,D*02
$GPGGA,083842.20,5702.8893769,N,00949.3947146,E,2,5,1.5,-2.768,M,40.592,M,1.5,0123*53
$GPVTG,326.88,T,-313.02,M,005.457,N,010.106,K,D*0A
$GPGGA,083842.25,5702.8894529,N,00949.3946568,E,2,5,1.5,-2.803,M,40.592,M,1.7,0123*5E
$GPVTG,327.60,T,-312.30,M,005.400,N,010.000,K,D*08
$GPGGA,083842.30,5702.8895186,N,00949.3945850,E,2,5,1.5,-2.808,M,40.592,M,1.7,0123*54
$GPVTG,328.44,T,-311.46,M,005.414,N,010.026,K,D*02
$GPGGA,083842.35,5702.8895860,N,00949.3945128,E,2,5,1.5,-2.809,M,40.592,M,1.7,0123*57
$GPVTG,329.18,T,-310.72,M,005.453,N,010.099,K,D*0B
$GPGGA,083842.40,5702.8896507,N,00949.3944380,E,2,5,1.5,-2.811,M,40.592,M,1.7,0123*52
$GPVTG,329.27,T,-310.63,M,005.475,N,010.139,K,D*08
$GPGGA,083842.45,5702.8897253,N,00949.3943814,E,2,5,1.5,-2.856,M,40.592,M,2.0,0123*56
$GPVTG,329.48,T,-310.42,M,005.454,N,010.101,K,D*0A
$GPGGA,083842.50,5702.8897876,N,00949.3943069,E,2,5,1.5,-2.862,M,40.592,M,2.0,0123*5A
$GPVTG,329.25,T,-310.65,M,005.451,N,010.095,K,D*0D
$GPGGA,083842.55,5702.8898565,N,00949.3942432,E,2,5,1.5,-2.866,M,40.592,M,2.0,0123*50
$GPVTG,330.61,T,-309.29,M,005.458,N,010.109,K,D*08
$GPGGA,083842.60,5702.8899241,N,00949.3941809,E,2,5,1.5,-2.870,M,40.592,M,2.0,0123*56
$GPVTG,331.78,T,-308.12,M,005.450,N,010.093,K,D*02
$GPGGA,083842.65,5702.8899966,N,00949.3941248,E,2,5,1.5,-2.900,M,40.592,M,2.2,0123*56
$GPVTG,332.37,T,-307.53,M,005.437,N,010.069,K,D*04
$GPGGA,083842.70,5702.8900617,N,00949.3940602,E,2,5,1.5,-2.904,M,40.592,M,2.2,0123*55
$GPVTG,332.83,T,-307.07,M,005.431,N,010.057,K,D*01
$GPGGA,083842.75,5702.8901280,N,00949.3939997,E,2,5,1.5,-2.910,M,40.592,M,2.2,0123*53
$GPVTG,333.55,T,-306.35,M,005.418,N,010.035,K,D*04
$GPGGA,083842.80,5702.8901950,N,00949.3939329,E,2,5,1.5,-2.916,M,40.592,M,2.2,0123*56
$GPVTG,333.64,T,-306.26,M,005.439,N,010.073,K,D*05
$GPGGA,083842.85,5702.8902698,N,00949.3938758,E,2,5,1.5,-2.937,M,40.592,M,2.4,0123*5D
$GPVTG,333.68,T,-306.22,M,005.432,N,010.060,K,D*04
$GPGGA,083842.90,5702.8903330,N,00949.3938190,E,2,5,1.5,-2.940,M,40.592,M,2.4,0123*5D
$GPVTG,334.35,T,-305.55,M,005.384,N,009.970,K,D*02
$GPGGA,083842.95,5702.8904004,N,00949.3937590,E,2,5,1.5,-2.945,M,40.592,M,2.4,0123*55
$GPVTG,334.74,T,-305.16,M,005.387,N,009.978,K,D*0B
$GPGGA,083843.00,5702.8904669,N,00949.3937030,E,2,5,1.5,-2.951,M,40.592,M,2.4,0123*5F
$GPVTG,335.37,T,-304.53,M,005.369,N,009.943,K,D*05
$GPGGA,083843.05,5702.8905469,N,00949.3936522,E,2,5,1.5,-2.979,M,40.592,M,2.6,0123*56
$GPVTG,335.55,T,-304.35,M,005.415,N,010.028,K,D*01
$GPGGA,083843.10,5702.8906124,N,00949.3935886,E,2,5,1.5,-2.983,M,40.592,M,2.6,0123*58
$GPVTG,335.22,T,-304.68,M,005.421,N,010.041,K,D*01
$GPGGA,083843.15,5702.8906802,N,00949.3935341,E,2,5,1.5,-2.987,M,40.592,M,2.6,0123*54
$GPVTG,335.84,T,-304.06,M,005.409,N,010.018,K,D*03
$GPGGA,083843.20,5702.8907454,N,00949.3934804,E,2,5,1.5,-2.991,M,40.592,M,2.6,0123*50
$GPVTG,336.31,T,-303.59,M,005.374,N,009.953,K,D*00
$GPGGA,083843.25,5702.8908250,N,00949.3934384,E,2,5,1.5,-3.020,M,40.592,M,2.9,0123*56
$GPVTG,336.83,T,-303.07,M,005.354,N,009.916,K,D*01
$GPGGA,083843.30,5702.8908941,N,00949.3933793,E,2,5,1.5,-3.021,M,40.592,M,2.9,0123*5D
$GPVTG,336.72,T,-303.18,M,005.383,N,009.970,K,D*0B
$GPGGA,083843.35,5702.8909620,N,00949.3933283,E,2,5,1.5,-3.019,M,40.592,M,2.9,0123*5E
$GPVTG,337.31,T,-302.59,M,005.368,N,009.941,K,D*0E
$GPGGA,083843.40,5702.8910295,N,00949.3932735,E,2,5,1.5,-3.021,M,40.592,M,2.9,0123*5C
$GPVTG,337.41,T,-302.49,M,005.367,N,009.939,K,D*08
$GPGGA,083843.45,5702.8911173,N,00949.3932298,E,2,5,1.5,-3.036,M,40.592,M,3.1,0123*5E
$GPVTG,336.96,T,-302.94,M,005.321,N,009.854,K,D*0B
$GPGGA,083843.50,5702.8911807,N,00949.3931789,E,2,5,1.5,-3.036,M,40.592,M,3.1,0123*56
$GPVTG,337.13,T,-302.77,M,005.231,N,009.688,K,D*05
$GPGGA,083843.55,5702.8912500,N,00949.3931213,E,2,5,1.5,-3.037,M,40.592,M,3.1,0123*5D
$GPVTG,336.79,T,-303.11,M,005.292,N,009.802,K,D*0C
$GPGGA,083843.60,5702.8913228,N,00949.3930665,E,2,5,1.5,-3.038,M,40.592,M,3.1,0123*5C
$GPVTG,337.10,T,-302.80,M,005.377,N,009.958,K,D*0F
$GPGGA,083843.65,5702.8914057,N,00949.3930315,E,2,5,1.5,-3.064,M,40.592,M,3.3,0123*5D
$GPVTG,338.22,T,-301.68,M,005.356,N,009.919,K,D*02
$GPGGA,083843.70,5702.8914696,N,00949.3929822,E,2,5,1.5,-3.061,M,40.592,M,3.3,0123*50
$GPVTG,338.36,T,-301.54,M,005.286,N,009.789,K,D*03
$GPGGA,083843.75,5702.8915322,N,00949.3929260,E,2,5,1.5,-3.061,M,40.592,M,3.3,0123*52
$GPVTG,337.52,T,-302.38,M,005.242,N,009.708,K,D*06
$GPGGA,083843.80,5702.8915932,N,00949.3928771,E,2,5,1.5,-3.061,M,40.592,M,3.3,0123*57
$GPVTG,337.56,T,-302.34,M,005.152,N,009.541,K,D*03
$GPGGA,083843.85,5702.8916685,N,00949.3928465,E,2,5,1.5,-3.095,M,40.592,M,3.5,0123*59
$GPVTG,338.59,T,-301.31,M,005.102,N,009.448,K,D*08
$GPGGA,083843.90,5702.8917401,N,00949.3928041,E,2,5,1.5,-3.096,M,40.592,M,3.5,0123*53
$GPVTG,339.79,T,-300.11,M,005.136,N,009.511,K,D*02
$GPGGA,083843.95,5702.8918060,N,00949.3927540,E,2,5,1.5,-3.099,M,40.592,M,3.5,0123*5E
$GPVTG,339.49,T,-300.41,M,005.133,N,009.506,K,D*07
$GPGGA,083844.00,5702.8918815,N,00949.3927089,E,2,5,1.5,-3.102,M,40.592,M,3.5,0123*5C
$GPVTG,340.27,T,-299.63,M,005.230,N,009.685,K,D*08
$GPGGA,083844.05,5702.8919644,N,00949.3926677,E,2,5,1.5,-3.122,M,40.592,M,1.9,0123*58
$GPVTG,340.23,T,-299.67,M,005.257,N,009.737,K,D*01
$GPGGA,083844.10,5702.8920412,N,00949.3926290,E,2,5,1.5,-3.127,M,40.592,M,1.9,0123*5F
$GPVTG,341.68,T,-298.22,M,005.337,N,009.884,K,D*0F
$GPGGA,083844.15,5702.8921053,N,00949.3925894,E,2,5,1.5,-3.131,M,40.592,M,1.9,0123*50
$GPVTG,342.15,T,-297.75,M,005.257,N,009.735,K,D*09
$GPGGA,083844.20,5702.8921727,N,00949.3925521,E,2,5,1.5,-3.139,M,40.592,M,1.9,0123*59
$GPVTG,342.91,T,-296.99,M,005.221,N,009.668,K,D*0E
$GPGGA,083844.25,5702.8922630,N,00949.3925254,E,2,5,1.5,-3.158,M,40.592,M,2.1,0123*51
$GPVTG,344.78,T,-295.12,M,005.313,N,009.839,K,D*05
$GPGGA,083844.30,5702.8923378,N,00949.3924965,E,2,5,1.5,-3.164,M,40.592,M,2.1,0123*5A
$GPVTG,346.32,T,-293.58,M,005.347,N,009.903,K,D*08
$GPGGA,083844.35,5702.8924110,N,00949.3924642,E,2,5,1.5,-3.171,M,40.592,M,2.1,0123*5A
$GPVTG,347.03,T,-292.87,M,005.373,N,009.950,K,D*09
$GPGGA,083844.40,5702.8924773,N,00949.3924331,E,2,5,1.5,-3.178,M,40.592,M,2.1,0123*53
$GPVTG,347.46,T,-292.44,M,005.305,N,009.826,K,D*06
$GPGGA,083844.45,5702.8925468,N,00949.3924026,E,2,5,1.5,-3.203,M,40.592,M,2.4,0123*51
$GPVTG,346.76,T,-293.14,M,005.157,N,009.552,K,D*0B
$GPGGA,083844.50,5702.8926181,N,00949.3923734,E,2,5,1.5,-3.208,M,40.592,M,2.4,0123*5C
$GPVTG,347.41,T,-292.49,M,005.171,N,009.576,K,D*05
$GPGGA,083844.55,5702.8926944,N,00949.3923473,E,2,5,1.5,-3.210,M,40.592,M,2.4,0123*51
$GPVTG,348.42,T,-291.48,M,005.242,N,009.708,K,D*03
$GPGGA,083844.60,5702.8927678,N,00949.3923168,E,2,5,1.5,-3.212,M,40.592,M,2.4,0123*5B
$GPVTG,348.56,T,-291.34,M,005.281,N,009.780,K,D*02
$GPGGA,083844.65,5702.8928448,N,00949.3922828,E,2,6,1.5,-3.219,M,40.592,M,2.6,0123*56
$GPVTG,347.17,T,-292.73,M,005.240,N,009.705,K,D*08
$GPGGA,083844.70,5702.8929097,N,00949.3922484,E,2,6,1.5,-3.215,M,40.592,M,2.6,0123*53
$GPVTG,346.58,T,-293.32,M,005.180,N,009.593,K,D*04
$GPGGA,083844.75,5702.8929842,N,00949.3922201,E,2,6,1.5,-3.210,M,40.592,M,2.6,0123*58
$GPVTG,347.15,T,-292.75,M,005.232,N,009.689,K,D*0C
$GPGGA,083844.80,5702.8930617,N,00949.3921913,E,2,6,1.5,-3.204,M,40.592,M,2.6,0123*5A
$GPVTG,347.63,T,-292.27,M,005.320,N,009.853,K,D*01
$GPGGA,083844.85,5702.8931464,N,00949.3921716,E,2,6,1.5,-3.239,M,40.592,M,2.9,0123*52
$GPVTG,347.43,T,-292.47,M,005.424,N,010.045,K,D*01
$GPGGA,083844.90,5702.8932111,N,00949.3921445,E,2,6,1.5,-3.241,M,40.592,M,2.9,0123*58
$GPVTG,347.65,T,-292.25,M,005.316,N,009.845,K,D*07
$GPGGA,083844.95,5702.8932739,N,00949.3921237,E,2,6,1.5,-3.243,M,40.592,M,2.9,0123*50
$GPVTG,348.55,T,-291.35,M,005.181,N,009.596,K,D*06
$GPGGA,083845.00,5702.8933422,N,00949.3921044,E,2,6,1.5,-3.243,M,40.592,M,2.9,0123*53
$GPVTG,349.63,T,-290.27,M,005.134,N,009.508,K,D*09
$GPGGA,083845.05,5702.8934234,N,00949.3920819,E,2,6,1.5,-3.247,M,40.592,M,2.0,0123*5C
$GPVTG,349.86,T,-290.04,M,005.136,N,009.513,K,D*0B
$GPGGA,083845.10,5702.8934946,N,00949.3920603,E,2,6,1.5,-3.248,M,40.592,M,2.0,0123*5C
$GPVTG,350.42,T,-289.48,M,005.141,N,009.521,K,D*0A
$GPGGA,083845.15,5702.8935598,N,00949.3920433,E,2,6,1.5,-3.248,M,40.592,M,2.0,0123*56
$GPVTG,351.29,T,-288.61,M,005.061,N,009.373,K,D*0E
$GPGGA,083845.20,5702.8936268,N,00949.3920276,E,2,6,1.5,-3.248,M,40.592,M,2.0,0123*5C
$GPVTG,352.16,T,-287.74,M,005.013,N,009.284,K,D*06
$GPGGA,083845.25,5702.8937056,N,00949.3920247,E,2,6,1.5,-3.264,M,40.592,M,2.3,0123*58
$GPVTG,354.01,T,-285.89,M,005.003,N,009.265,K,D*08
$GPGGA,083845.30,5702.8937794,N,00949.3920132,E,2,6,1.5,-3.270,M,40.592,M,2.3,0123*51
$GPVTG,354.97,T,-284.93,M,005.052,N,009.356,K,D*08
$GPGGA,083845.35,5702.8938495,N,00949.3920025,E,2,6,1.5,-3.279,M,40.592,M,2.3,0123*57
$GPVTG,355.72,T,-284.18,M,005.049,N,009.351,K,D*0C
$GPGGA,083845.40,5702.8939215,N,00949.3919986,E,2,6,1.5,-3.288,M,40.592,M,2.3,0123*5E
$GPVTG,357.15,T,-282.75,M,005.069,N,009.388,K,D*04
$GPGGA,083845.45,5702.8940074,N,00949.3919900,E,2,6,1.5,-3.277,M,40.592,M,2.5,0123*58
$GPVTG,358.12,T,-281.78,M,005.095,N,009.436,K,D*03
$GPGGA,083845.50,5702.8940788,N,00949.3919849,E,2,6,1.5,-3.283,M,40.592,M,2.5,0123*5F
$GPVTG,358.76,T,-281.14,M,005.108,N,009.460,K,D*0D
$GPGGA,083845.55,5702.8941507,N,00949.3919816,E,2,6,1.5,-3.288,M,40.592,M,2.5,0123*5F
$GPVTG,359.43,T,-280.47,M,005.127,N,009.496,K,D*09
$GPGGA,083845.60,5702.8942259,N,00949.3919785,E,2,6,1.5,-3.293,M,40.592,M,2.5,0123*59
$GPVTG,359.89,T,-280.01,M,005.187,N,009.607,K,D*0D
$GPGGA,083845.65,5702.8943100,N,00949.3919827,E,2,6,1.5,-3.297,M,40.592,M,2.7,0123*53
$GPVTG,000.92,T,-638.98,M,005.241,N,009.707,K,D*07
$GPGGA,083845.70,5702.8943760,N,00949.3919741,E,2,6,1.5,-3.296,M,40.592,M,2.7,0123*59
$GPVTG,000.17,T,-639.73,M,005.165,N,009.565,K,D*0D
$GPGGA,083845.75,5702.8944468,N,00949.3919690,E,2,6,1.5,-3.289,M,40.592,M,2.7,0123*53
$GPVTG,359.94,T,-279.97,M,005.160,N,009.557,K,D*07
$GPGGA,083845.80,5702.8945242,N,00949.3919575,E,2,6,1.5,-3.285,M,40.592,M,2.7,0123*52
$GPVTG,358.88,T,-281.02,M,005.245,N,009.713,K,D*06
$GPGGA,083845.85,5702.8945908,N,00949.3919621,E,2,6,1.5,-3.304,M,40.592,M,3.0,0123*5E
$GPVTG,358.90,T,-281.00,M,005.096,N,009.438,K,D*0B
$GPGGA,083845.90,5702.8946664,N,00949.3919606,E,2,6,1.5,-3.306,M,40.592,M,3.0,0123*5B
$GPVTG,359.20,T,-280.70,M,005.161,N,009.558,K,D*09
$GPGGA,083845.95,5702.8947433,N,00949.3919560,E,2,6,1.5,-3.303,M,40.592,M,3.0,0123*59
$GPVTG,359.04,T,-280.86,M,005.236,N,009.698,K,D*08
$GPGGA,083846.00,5702.8948147,N,00949.3919568,E,2,6,1.5,-3.304,M,40.592,M,3.0,0123*50
$GPVTG,359.54,T,-280.36,M,005.230,N,009.687,K,D*0E
$GPGGA,083846.05,5702.8948893,N,00949.3919528,E,2,6,1.5,-3.297,M,40.592,M,1.5,0123*5D
$GPVTG,359.41,T,-280.49,M,005.148,N,009.533,K,D*02
$GPGGA,083846.10,5702.8949477,N,00949.3919494,E,2,6,1.5,-3.300,M,40.592,M,1.5,0123*57
$GPVTG,359.23,T,-280.67,M,004.976,N,009.215,K,D*0D
$GPGGA,083846.15,5702.8950278,N,00949.3919521,E,2,6,1.5,-3.303,M,40.592,M,1.5,0123*5F
$GPVTG,359.92,T,-279.98,M,005.109,N,009.462,K,D*06
$GPGGA,083846.20,5702.8950991,N,00949.3919654,E,2,6,1.5,-3.300,M,40.592,M,1.5,0123*57
$GPVTG,001.82,T,-638.08,M,005.118,N,009.478,K,D*0A
$GPGGA,083846.25,5702.8951735,N,00949.3919720,E,2,6,1.5,-3.302,M,40.592,M,1.7,0123*51
$GPVTG,002.52,T,-637.38,M,005.080,N,009.409,K,D*0E
$GPGGA,083846.30,5702.8952412,N,00949.3919790,E,2,6,1.5,-3.306,M,40.592,M,1.7,0123*5F
$GPVTG,003.14,T,-636.76,M,005.044,N,009.341,K,D*05
$GPGGA,083846.35,5702.8953097,N,00949.3919867,E,2,6,1.5,-3.309,M,40.592,M,1.7,0123*5A
$GPVTG,003.68,T,-636.22,M,005.023,N,009.302,K,D*09
$GPGGA,083846.40,5702.8953794,N,00949.3919981,E,2,6,1.5,-3.311,M,40.592,M,1.7,0123*5C
$GPVTG,004.53,T,-635.37,M,005.024,N,009.304,K,D*00
$GPGGA,083846.45,5702.8954561,N,00949.3920167,E,2,6,1.5,-3.308,M,40.592,M,2.0,0123*50
$GPVTG,006.37,T,-633.53,M,005.038,N,009.330,K,D*0E
$GPGGA,083846.50,5702.8955313,N,00949.3920311,E,2,6,1.5,-3.312,M,40.592,M,2.0,0123*5E
$GPVTG,006.94,T,-632.96,M,005.114,N,009.472,K,D*01
$GPGGA,083846.55,5702.8955979,N,00949.3920438,E,2,6,1.5,-3.317,M,40.592,M,2.0,0123*54
$GPVTG,007.23,T,-632.67,M,005.067,N,009.383,K,D*0E
$GPGGA,083846.60,5702.8956630,N,00949.3920608,E,2,6,1.5,-3.322,M,40.592,M,2.0,0123*54
$GPVTG,008.00,T,-631.90,M,005.011,N,009.280,K,D*08
$GPGGA,083846.65,5702.8957423,N,00949.3920846,E,2,6,1.5,-3.311,M,40.592,M,2.2,0123*56
$GPVTG,009.72,T,-630.18,M,005.068,N,009.387,K,D*05
$GPGGA,083846.70,5702.8958073,N,00949.3921002,E,2,6,1.5,-3.311,M,40.592,M,2.2,0123*55
$GPVTG,009.70,T,-630.20,M,005.004,N,009.268,K,D*06
$GPGGA,083846.75,5702.8958766,N,00949.3921199,E,2,6,1.5,-3.309,M,40.592,M,2.2,0123*59
$GPVTG,010.04,T,-629.86,M,005.012,N,009.282,K,D*0A
$GPGGA,083846.80,5702.8959484,N,00949.3921347,E,2,6,1.5,-3.309,M,40.592,M,2.2,0123*5C
$GPVTG,009.54,T,-630.36,M,005.040,N,009.334,K,D*0F
$GPGGA,083846.85,5702.8960159,N,00949.3921574,E,2,6,1.5,-3.310,M,40.592,M,2.4,0123*5E
$GPVTG,009.96,T,-629.94,M,004.958,N,009.181,K,D*0C
$GPGGA,083846.90,5702.8960766,N,00949.3921820,E,2,6,1.5,-3.313,M,40.592,M,2.4,0123*5F
$GPVTG,010.96,T,-628.94,M,004.865,N,009.010,K,D*03
$GPGGA,083846.95,5702.8961477,N,00949.3922055,E,2,6,1.5,-3.312,M,40.592,M,2.4,0123*50
$GPVTG,011.27,T,-628.63,M,004.917,N,009.106,K,D*02
$GPGGA,083847.00,5702.8962153,N,00949.3922266,E,2,6,1.5,-3.310,M,40.592,M,2.4,0123*5D
$GPVTG,011.25,T,-628.65,M,004.913,N,009.098,K,D*04
$GPGGA,083847.05,5702.8962981,N,00949.3922456,E,2,6,1.5,-3.286,M,40.592,M,2.6,0123*56
$GPVTG,011.17,T,-628.73,M,005.026,N,009.308,K,D*06
$GPGGA,083847.10,5702.8963666,N,00949.3922654,E,2,6,1.5,-3.281,M,40.592,M,2.6,0123*52
$GPVTG,010.80,T,-629.10,M,005.019,N,009.295,K,D*04
$GPGGA,083847.15,5702.8964253,N,00949.3922879,E,2,6,1.5,-3.277,M,40.592,M,2.6,0123*5A
$GPVTG,011.12,T,-628.78,M,004.891,N,009.058,K,D*0B
$GPGGA,083847.20,5702.8964977,N,00949.3923125,E,2,6,1.5,-3.277,M,40.592,M,2.6,0123*50
$GPVTG,011.24,T,-628.66,M,004.959,N,009.185,K,D*05
$GPGGA,083847.25,5702.8965746,N,00949.3923464,E,2,6,1.5,-3.292,M,40.592,M,2.9,0123*5C
$GPVTG,011.82,T,-628.08,M,005.074,N,009.398,K,D*08
$GPGGA,083847.30,5702.8966385,N,00949.3923788,E,2,6,1.5,-3.295,M,40.592,M,2.9,0123*56
$GPVTG,013.03,T,-626.87,M,005.033,N,009.320,K,D*0A
$GPGGA,083847.35,5702.8966966,N,00949.3924125,E,2,6,1.5,-3.300,M,40.592,M,2.9,0123*5F
$GPVTG,014.40,T,-625.50,M,004.923,N,009.116,K,D*0D
$GPGGA,083847.40,5702.8967589,N,00949.3924440,E,2,6,1.5,-3.309,M,40.592,M,2.9,0123*5E
$GPVTG,015.09,T,-624.81,M,004.872,N,009.022,K,D*0F
$GPGGA,083847.45,5702.8968342,N,00949.3924698,E,2,6,1.5,-3.287,M,40.592,M,3.1,0123*5C
$GPVTG,015.65,T,-624.25,M,004.933,N,009.135,K,D*08
$GPGGA,083847.50,5702.8969011,N,00949.3925048,E,2,6,1.5,-3.287,M,40.592,M,3.1,0123*56
$GPVTG,016.25,T,-623.65,M,004.949,N,009.166,K,D*07
$GPGGA,083847.55,5702.8969660,N,00949.3925450,E,2,6,1.5,-3.287,M,40.592,M,3.1,0123*5E
$GPVTG,017.44,T,-622.46,M,004.956,N,009.179,K,D*01
$GPGGA,083847.60,5702.8970332,N,00949.3925841,E,2,6,1.5,-3.286,M,40.592,M,3.1,0123*5F
$GPVTG,018.11,T,-621.79,M,004.984,N,009.231,K,D*01
$GPGGA,083847.65,5702.8970929,N,00949.3926127,E,2,6,1.5,-3.272,M,40.592,M,3.3,0123*59
$GPVTG,018.12,T,-621.78,M,004.834,N,008.953,K,D*07
$GPGGA,083847.70,5702.8971614,N,00949.3926445,E,2,6,1.5,-3.269,M,40.592,M,3.3,0123*56
$GPVTG,017.49,T,-622.41,M,004.861,N,009.003,K,D*02
$GPGGA,083847.75,5702.8972265,N,00949.3926819,E,2,6,1.5,-3.263,M,40.592,M,3.3,0123*5D
$GPVTG,017.82,T,-622.08,M,004.866,N,009.011,K,D*0C
$GPGGA,083847.80,5702.8972929,N,00949.3927170,E,2,6,1.5,-3.259,M,40.592,M,3.3,0123*5A
$GPVTG,017.69,T,-622.21,M,004.877,N,009.032,K,D*03
$GPGGA,083847.85,5702.8973581,N,00949.3927605,E,2,6,1.5,-3.253,M,40.592,M,3.5,0123*59
$GPVTG,018.58,T,-621.32,M,004.901,N,009.077,K,D*0E
$GPGGA,083847.90,5702.8974211,N,00949.3927988,E,2,6,1.5,-3.251,M,40.592,M,3.5,0123*5C
$GPVTG,018.80,T,-621.10,M,004.877,N,009.032,K,D*0A
$GPGGA,083847.95,5702.8974831,N,00949.3928487,E,2,6,1.5,-3.247,M,40.592,M,3.5,0123*5B
$GPVTG,020.51,T,-619.39,M,004.888,N,009.053,K,D*0A
$GPGGA,083848.00,5702.8975459,N,00949.3928875,E,2,6,1.5,-3.247,M,40.592,M,3.5,0123*5A
$GPVTG,020.43,T,-619.47,M,004.861,N,009.002,K,D*03
$GPGGA,083848.05,5702.8976053,N,00949.3929267,E,2,6,1.5,-3.237,M,40.592,M,1.9,0123*53
$GPVTG,020.68,T,-619.22,M,004.778,N,008.848,K,D*09
$GPGGA,083848.10,5702.8976724,N,00949.3929764,E,2,6,1.5,-3.235,M,40.592,M,1.9,0123*54
$GPVTG,021.66,T,-618.24,M,004.858,N,008.997,K,D*0F
$GPGGA,083848.15,5702.8977366,N,00949.3930218,E,2,6,1.5,-3.233,M,40.592,M,1.9,0123*52
$GPVTG,022.00,T,-617.90,M,004.876,N,009.030,K,D*05
$GPGGA,083848.20,5702.8977956,N,00949.3930661,E,2,6,1.5,-3.230,M,40.592,M,1.9,0123*54
$GPVTG,022.37,T,-617.53,M,004.824,N,008.933,K,D*02
$GPGGA,083848.25,5702.8978633,N,00949.3931106,E,2,6,1.5,-3.213,M,40.592,M,2.1,0123*5F
$GPVTG,022.60,T,-617.30,M,004.875,N,009.029,K,D*02
$GPGGA,083848.30,5702.8979223,N,00949.3931628,E,2,6,1.5,-3.214,M,40.592,M,2.1,0123*53
$GPVTG,023.78,T,-616.12,M,004.857,N,008.995,K,D*04
$GPGGA,083848.35,5702.8979787,N,00949.3932155,E,2,6,1.5,-3.209,M,40.592,M,2.1,0123*5F
$GPVTG,024.95,T,-614.95,M,004.809,N,008.907,K,D*0D
$GPGGA,083848.40,5702.8980426,N,00949.3932614,E,2,6,1.5,-3.205,M,40.592,M,2.1,0123*5D
$GPVTG,024.56,T,-615.34,M,004.820,N,008.927,K,D*01
$GPGGA,083848.45,5702.8981025,N,00949.3933105,E,2,6,1.5,-3.185,M,40.592,M,2.4,0123*56
$GPVTG,025.17,T,-614.73,M,004.818,N,008.923,K,D*08
$GPGGA,083848.50,5702.8981615,N,00949.3933602,E,2,6,1.5,-3.181,M,40.592,M,2.4,0123*53
$GPVTG,025.45,T,-614.45,M,004.796,N,008.883,K,D*08
$GPGGA,083848.55,5702.8982212,N,00949.3934159,E,2,6,1.5,-3.179,M,40.592,M,2.4,0123*5F
$GPVTG,026.21,T,-613.69,M,004.803,N,008.895,K,D*04
$GPGGA,083848.60,5702.8982805,N,00949.3934721,E,2,6,1.5,-3.176,M,40.592,M,2.4,0123*53
$GPVTG,026.92,T,-612.98,M,004.807,N,008.903,K,D*09
$GPGGA,083848.65,5702.8983374,N,00949.3935258,E,2,6,1.5,-3.168,M,40.592,M,2.6,0123*5D
$GPVTG,027.38,T,-612.52,M,004.807,N,008.903,K,D*0E
$GPGGA,083848.70,5702.8983975,N,00949.3935815,E,2,6,1.5,-3.168,M,40.592,M,2.6,0123*51
$GPVTG,027.74,T,-612.16,M,004.811,N,008.911,K,D*02
$GPGGA,083848.75,5702.8984529,N,00949.3936408,E,2,6,1.5,-3.172,M,40.592,M,2.6,0123*5E
$GPVTG,028.63,T,-611.27,M,004.791,N,008.872,K,D*09
$GPGGA,083848.80,5702.8985078,N,00949.3937032,E,2,6,1.5,-3.171,M,40.592,M,2.6,0123*5B
$GPVTG,029.74,T,-610.16,M,004.780,N,008.853,K,D*0E
$GPGGA,083848.85,5702.8985675,N,00949.3937571,E,2,6,1.5,-3.145,M,40.592,M,2.9,0123*5F
$GPVTG,030.24,T,-609.66,M,004.785,N,008.863,K,D*0A
$GPGGA,083848.90,5702.8986247,N,00949.3938183,E,2,6,1.5,-3.144,M,40.592,M,2.9,0123*5A
$GPVTG,030.77,T,-609.13,M,004.784,N,008.859,K,D*06
$GPGGA,083848.95,5702.8986794,N,00949.3938768,E,2,6,1.5,-3.140,M,40.592,M,2.9,0123*53
$GPVTG,031.05,T,-608.85,M,004.745,N,008.787,K,D*0D
$GPGGA,083849.00,5702.8987337,N,00949.3939463,E,2,6,1.5,-3.138,M,40.592,M,2.9,0123*54
$GPVTG,032.42,T,-607.48,M,004.761,N,008.817,K,D*03
$GPGGA,083849.05,5702.8987810,N,00949.3940074,E,2,6,1.5,-3.122,M,40.592,M,2.0,0123*51
$GPVTG,033.21,T,-606.69,M,004.766,N,008.827,K,D*01
$GPGGA,083849.10,5702.8988359,N,00949.3940694,E,2,6,1.5,-3.122,M,40.592,M,2.0,0123*54
$GPVTG,033.39,T,-606.51,M,004.740,N,008.779,K,D*03
$GPGGA,083849.15,5702.8988868,N,00949.3941365,E,2,6,1.5,-3.124,M,40.592,M,2.0,0123*54
$GPVTG,034.28,T,-605.62,M,004.709,N,008.721,K,D*07
$GPGGA,083849.20,5702.8989408,N,00949.3942036,E,2,6,1.5,-3.123,M,40.592,M,2.0,0123*58
$GPVTG,034.81,T,-605.09,M,004.704,N,008.712,K,D*04
$GPGGA,083849.25,5702.8989884,N,00949.3942518,E,2,6,1.5,-3.078,M,40.592,M,2.3,0123*50
$GPVTG,034.81,T,-605.09,M,004.657,N,008.625,K,D*06
$GPGGA,083849.30,5702.8990414,N,00949.3943220,E,2,6,1.5,-3.077,M,40.592,M,2.3,0123*5B
$GPVTG,035.56,T,-604.34,M,004.665,N,008.640,K,D*00
$GPGGA,083849.35,5702.8990935,N,00949.3943930,E,2,6,1.5,-3.073,M,40.592,M,2.3,0123*5E
$GPVTG,036.33,T,-603.57,M,004.667,N,008.643,K,D*03
$GPGGA,083849.40,5702.8991438,N,00949.3944687,E,2,6,1.5,-3.069,M,40.592,M,2.3,0123*52
$GPVTG,037.54,T,-602.36,M,004.680,N,008.668,K,D*05
$GPGGA,083849.45,5702.8991870,N,00949.3945272,E,2,6,1.5,-3.031,M,40.592,M,2.5,0123*53
$GPVTG,036.88,T,-603.02,M,004.837,N,008.958,K,D*0D
$GPGGA,083849.50,5702.8992366,N,00949.3945925,E,2,6,1.5,-3.026,M,40.592,M,2.5,0123*57
$GPVTG,036.72,T,-603.18,M,004.720,N,008.742,K,D*0F
$GPGGA,083849.55,5702.8992869,N,00949.3946655,E,2,6,1.5,-3.024,M,40.592,M,2.5,0123*5F
$GPVTG,037.50,T,-602.40,M,004.700,N,008.704,K,D*02
$GPGGA,083849.60,5702.8993288,N,00949.3947371,E,2,6,1.5,-3.023,M,40.592,M,2.5,0123*58
$GPVTG,038.90,T,-601.00,M,004.572,N,008.467,K,D*07
$GPGGA,083849.65,5702.8993755,N,00949.3947927,E,2,6,1.5,-2.976,M,40.592,M,2.7,0123*5B
$GPVTG,038.23,T,-601.67,M,004.629,N,008.573,K,D*07
$GPGGA,083849.70,5702.8994263,N,00949.3948700,E,2,6,1.5,-2.971,M,40.592,M,2.7,0123*5B
$GPVTG,039.07,T,-600.83,M,004.660,N,008.630,K,D*02
$GPGGA,083849.75,5702.8994723,N,00949.3949477,E,2,6,1.5,-2.967,M,40.592,M,2.7,0123*5A
$GPVTG,040.29,T,-599.61,M,004.635,N,008.584,K,D*03
$GPGGA,083849.80,5702.8995157,N,00949.3950236,E,2,6,1.5,-2.962,M,40.592,M,2.7,0123*5A
$GPVTG,041.38,T,-598.52,M,004.572,N,008.468,K,D*00
$GPGGA,083849.85,5702.8995461,N,00949.3950796,E,2,6,1.5,-2.926,M,40.592,M,3.0,0123*56
$GPVTG,041.56,T,-598.34,M,004.528,N,008.385,K,D*03
$GPGGA,083849.90,5702.8995937,N,00949.3951575,E,2,6,1.5,-2.924,M,40.592,M,3.0,0123*50
$GPVTG,042.16,T,-597.74,M,004.528,N,008.386,K,D*0C
$GPGGA,083849.95,5702.8996387,N,00949.3952400,E,2,6,1.5,-2.921,M,40.592,M,3.0,0123*52
$GPVTG,043.25,T,-596.65,M,004.541,N,008.409,K,D*03
$GPGGA,083850.00,5702.8996844,N,00949.3953221,E,2,6,1.5,-2.918,M,40.592,M,3.0,0123*5C
$GPVTG,044.10,T,-595.80,M,004.553,N,008.432,K,D*01
$GPGGA,083850.05,5702.8997115,N,00949.3953863,E,2,6,1.5,-2.876,M,40.592,M,1.5,0123*57
$GPVTG,044.75,T,-595.15,M,004.535,N,008.399,K,D*08
$GPGGA,083850.10,5702.8997535,N,00949.3954702,E,2,6,1.5,-2.872,M,40.592,M,1.5,0123*5E
$GPVTG,045.84,T,-594.06,M,004.532,N,008.393,K,D*09
$GPGGA,083850.15,5702.8997963,N,00949.3955471,E,2,6,1.5,-2.872,M,40.592,M,1.5,0123*52
$GPVTG,046.05,T,-593.85,M,004.480,N,008.298,K,D*0D
$GPGGA,083850.20,5702.8998363,N,00949.3956335,E,2,6,1.5,-2.870,M,40.592,M,1.5,0123*57
$GPVTG,047.32,T,-592.58,M,004.482,N,008.301,K,D*0A
$GPGGA,083850.25,5702.8998582,N,00949.3957081,E,2,6,1.5,-2.842,M,40.592,M,1.7,0123*55
$GPVTG,048.26,T,-591.64,M,004.513,N,008.358,K,D*09
$GPGGA,083850.30,5702.8999009,N,00949.3957934,E,2,6,1.5,-2.844,M,40.592,M,1.7,0123*57
$GPVTG,048.80,T,-591.10,M,004.517,N,008.365,K,D*0C
$GPGGA,083850.35,5702.8999408,N,00949.3958809,E,2,6,1.5,-2.844,M,40.592,M,1.7,0123*57
$GPVTG,049.68,T,-590.22,M,004.515,N,008.362,K,D*0E
$GPGGA,083850.40,5702.8999815,N,00949.3959654,E,2,6,1.5,-2.842,M,40.592,M,1.7,0123*54
$GPVTG,050.09,T,-589.81,M,004.493,N,008.322,K,D*0B
$GPGGA,083850.45,5702.9000101,N,00949.3960261,E,2,6,1.5,-2.788,M,40.592,M,2.0,0123*50
$GPVTG,049.67,T,-590.23,M,004.428,N,008.200,K,D*0A
$GPGGA,083850.50,5702.9000510,N,00949.3961057,E,2,6,1.5,-2.782,M,40.592,M,2.0,0123*5C
$GPVTG,049.54,T,-590.36,M,004.377,N,008.106,K,D*06
$GPGGA,083850.55,5702.9000894,N,00949.3961930,E,2,6,1.5,-2.776,M,40.592,M,2.0,0123*5B
$GPVTG,050.33,T,-589.57,M,004.375,N,008.102,K,D*06
$GPGGA,083850.60,5702.9001241,N,00949.3962805,E,2,6,1.5,-2.769,M,40.592,M,2.0,0123*54
$GPVTG,051.42,T,-588.48,M,004.348,N,008.053,K,D*05
$GPGGA,083850.65,5702.9001339,N,00949.3963607,E,2,6,1.5,-2.752,M,40.592,M,2.2,0123*58
$GPVTG,052.36,T,-587.54,M,004.354,N,008.063,K,D*09
$GPGGA,083850.70,5702.9001705,N,00949.3964541,E,2,6,1.5,-2.754,M,40.592,M,2.2,0123*57
$GPVTG,053.43,T,-586.47,M,004.389,N,008.128,K,D*07
$GPGGA,083850.75,5702.9002075,N,00949.3965439,E,2,6,1.5,-2.758,M,40.592,M,2.2,0123*52
$GPVTG,053.98,T,-585.92,M,004.391,N,008.132,K,D*08
$GPGGA,083850.80,5702.9002423,N,00949.3966357,E,2,6,1.5,-2.760,M,40.592,M,2.2,0123*58
$GPVTG,054.82,T,-585.08,M,004.393,N,008.137,K,D*00
$GPGGA,083850.85,5702.9002690,N,00949.3967037,E,2,6,1.5,-2.700,M,40.592,M,2.4,0123*53
$GPVTG,054.85,T,-585.05,M,004.378,N,008.108,K,D*03
$GPGGA,083850.90,5702.9003037,N,00949.3967961,E,2,6,1.5,-2.697,M,40.592,M,2.4,0123*58
$GPVTG,055.56,T,-584.34,M,004.385,N,008.121,K,D*06
$GPGGA,083850.95,5702.9003374,N,00949.3968907,E,2,6,1.5,-2.694,M,40.592,M,2.4,0123*55
$GPVTG,056.43,T,-583.47,M,004.400,N,008.149,K,D*06
$GPGGA,083851.00,5702.9003729,N,00949.3969789,E,2,6,1.5,-2.694,M,40.592,M,2.4,0123*5D
$GPVTG,056.43,T,-583.47,M,004.368,N,008.090,K,D*0A
$GPGGA,083851.05,5702.9003951,N,00949.3970573,E,2,6,1.5,-2.652,M,40.592,M,2.6,0123*5E
$GPVTG,056.40,T,-583.50,M,004.384,N,008.119,K,D*0D
$GPGGA,083851.10,5702.9004250,N,00949.3971515,E,2,6,1.5,-2.646,M,40.592,M,2.6,0123*53
$GPVTG,057.73,T,-582.17,M,004.360,N,008.075,K,D*0F
$GPGGA,083851.15,5702.9004507,N,00949.3972440,E,2,6,1.5,-2.643,M,40.592,M,2.6,0123*54
$GPVTG,059.35,T,-580.55,M,004.289,N,007.944,K,D*05
$GPGGA,083851.20,5702.9004826,N,00949.3973358,E,2,6,1.5,-2.644,M,40.592,M,2.6,0123*54
$GPVTG,059.54,T,-580.36,M,004.273,N,007.913,K,D*00
$GPGGA,083851.25,5702.9004973,N,00949.3974186,E,2,6,1.5,-2.612,M,40.592,M,2.9,0123*5A
$GPVTG,059.91,T,-579.99,M,004.292,N,007.949,K,D*0A
$GPGGA,083851.30,5702.9005345,N,00949.3975140,E,2,6,1.5,-2.607,M,40.592,M,2.9,0123*5F
$GPVTG,059.34,T,-580.56,M,004.349,N,008.054,K,D*0D
$GPGGA,083851.35,5702.9005599,N,00949.3976086,E,2,6,1.5,-2.607,M,40.592,M,2.9,0123*55
$GPVTG,060.62,T,-579.28,M,004.305,N,007.973,K,D*00
$GPGGA,083851.40,5702.9005882,N,00949.3977010,E,2,6,1.5,-2.606,M,40.592,M,2.9,0123*5F
$GPVTG,061.07,T,-578.83,M,004.264,N,007.897,K,D*0F
$GPGGA,083851.45,5702.9006050,N,00949.3977847,E,2,6,1.5,-2.557,M,40.592,M,3.1,0123*5A
$GPVTG,061.62,T,-578.28,M,004.305,N,007.972,K,D*01
$GPGGA,083851.50,5702.9006234,N,00949.3978840,E,2,6,1.5,-2.555,M,40.592,M,3.1,0123*54
$GPVTG,063.97,T,-575.93,M,004.273,N,007.915,K,D*05
$GPGGA,083851.55,5702.9006484,N,00949.3979820,E,2,6,1.5,-2.551,M,40.592,M,3.1,0123*5F
$GPVTG,064.83,T,-575.07,M,004.270,N,007.908,K,D*05
$GPGGA,083851.60,5702.9006760,N,00949.3980799,E,2,6,1.5,-2.550,M,40.592,M,3.1,0123*5A
$GPVTG,065.10,T,-574.80,M,004.278,N,007.923,K,D*01
$GPGGA,083851.65,5702.9006911,N,00949.3981684,E,2,6,1.5,-2.513,M,40.592,M,3.3,0123*5E
$GPVTG,065.10,T,-574.80,M,004.334,N,008.027,K,D*0A
$GPGGA,083851.70,5702.9007244,N,00949.3982663,E,2,6,1.5,-2.509,M,40.592,M,3.3,0123*51
$GPVTG,064.26,T,-575.64,M,004.362,N,008.079,K,D*0D
$GPGGA,083851.75,5702.9007453,N,00949.3983594,E,2,6,1.5,-2.507,M,40.592,M,3.3,0123*50
$GPVTG,065.11,T,-574.79,M,004.264,N,007.897,K,D*05
$GPGGA,083851.80,5702.9007618,N,00949.3984565,E,2,6,1.5,-2.502,M,40.592,M,3.3,0123*5B
$GPVTG,066.87,T,-573.03,M,004.200,N,007.779,K,D*0E
$GPGGA,083851.85,5702.9007643,N,00949.3985457,E,2,6,1.5,-2.472,M,40.592,M,3.5,0123*51
$GPVTG,068.27,T,-571.63,M,004.168,N,007.719,K,D*05
$GPGGA,083851.90,5702.9007902,N,00949.3986502,E,2,6,1.5,-2.467,M,40.592,M,3.5,0123*59
$GPVTG,068.52,T,-571.38,M,004.246,N,007.863,K,D*04
$GPGGA,083851.95,5702.9008077,N,00949.3987473,E,2,6,1.5,-2.466,M,40.592,M,3.5,0123*5F
$GPVTG,069.63,T,-570.27,M,004.190,N,007.760,K,D*0C
$GPGGA,083852.00,5702.9008260,N,00949.3988470,E,2,6,1.5,-2.466,M,40.592,M,3.5,0123*58
$GPVTG,070.60,T,-569.30,M,004.173,N,007.728,K,D*08
$GPGGA,083852.05,5702.9008437,N,00949.3989312,E,2,6,1.5,-2.413,M,40.592,M,1.9,0123*57
$GPVTG,069.65,T,-570.25,M,004.201,N,007.780,K,D*0D
$GPGGA,083852.10,5702.9008640,N,00949.3990295,E,2,6,1.5,-2.407,M,40.592,M,1.9,0123*52
$GPVTG,070.05,T,-569.85,M,004.175,N,007.732,K,D*08
$GPGGA,083852.15,5702.9008820,N,00949.3991308,E,2,6,1.5,-2.399,M,40.592,M,1.9,0123*5B
$GPVTG,070.95,T,-568.95,M,004.177,N,007.735,K,D*04
$GPGGA,083852.20,5702.9009052,N,00949.3992298,E,2,6,1.5,-2.395,M,40.592,M,1.9,0123*56
$GPVTG,070.68,T,-569.22,M,004.174,N,007.731,K,D*0C
$GPGGA,083852.25,5702.9009029,N,00949.3993221,E,2,6,1.5,-2.376,M,40.592,M,2.1,0123*5A
$GPVTG,072.55,T,-567.35,M,004.111,N,007.614,K,D*0D
$GPGGA,083852.30,5702.9009223,N,00949.3994247,E,2,6,1.5,-2.372,M,40.592,M,2.1,0123*55
$GPVTG,072.86,T,-567.04,M,004.143,N,007.673,K,D*07
$GPGGA,083852.35,5702.9009389,N,00949.3995270,E,2,6,1.5,-2.365,M,40.592,M,2.1,0123*52
$GPVTG,073.56,T,-566.34,M,004.154,N,007.694,K,D*06
$GPGGA,083852.40,5702.9009595,N,00949.3996225,E,2,6,1.5,-2.352,M,40.592,M,2.1,0123*5C
$GPVTG,073.09,T,-566.81,M,004.104,N,007.601,K,D*0B
$GPGGA,083852.45,5702.9009630,N,00949.3997150,E,2,6,1.5,-2.336,M,40.592,M,2.4,0123*52
$GPVTG,073.23,T,-566.67,M,004.048,N,007.497,K,D*0F
$GPGGA,083852.50,5702.9009793,N,00949.3998158,E,2,6,1.5,-2.331,M,40.592,M,2.4,0123*5E
$GPVTG,073.76,T,-566.14,M,004.059,N,007.517,K,D*02
$GPGGA,083852.55,5702.9009890,N,00949.3999156,E,2,6,1.5,-2.326,M,40.592,M,2.4,0123*5E
$GPVTG,075.33,T,-564.57,M,004.034,N,007.470,K,D*0B
$GPGGA,083852.60,5702.9009982,N,00949.4000206,E,2,6,1.5,-2.322,M,40.592,M,2.4,0123*56
$GPVTG,077.01,T,-562.89,M,004.071,N,007.540,K,D*0E
$GPGGA,083852.65,5702.9010021,N,00949.4001200,E,2,6,1.5,-2.306,M,40.592,M,2.6,0123*58
$GPVTG,077.15,T,-562.75,M,004.112,N,007.616,K,D*0C
$GPGGA,083852.70,5702.9010148,N,00949.4002205,E,2,6,1.5,-2.304,M,40.592,M,2.6,0123*56
$GPVTG,077.70,T,-562.20,M,004.097,N,007.587,K,D*08
$GPGGA,083852.75,5702.9010262,N,00949.4003172,E,2,6,1.5,-2.300,M,40.592,M,2.6,0123*5E
$GPVTG,078.24,T,-561.66,M,004.037,N,007.477,K,D*03
$GPGGA,083852.80,5702.9010301,N,00949.4004232,E,2,6,1.5,-2.295,M,40.592,M,2.6,0123*5D
$GPVTG,080.36,T,-559.54,M,004.074,N,007.544,K,D*0B
$GPGGA,083852.85,5702.9010393,N,00949.4005184,E,2,6,1.5,-2.264,M,40.592,M,2.9,0123*5D
$GPVTG,079.57,T,-560.33,M,004.097,N,007.587,K,D*03
$GPGGA,083852.90,5702.9010461,N,00949.4006177,E,2,6,1.5,-2.262,M,40.592,M,2.9,0123*5A
$GPVTG,080.67,T,-559.23,M,004.055,N,007.509,K,D*05
$GPGGA,083852.95,5702.9010593,N,00949.4007157,E,2,6,1.5,-2.260,M,40.592,M,2.9,0123*52
$GPVTG,080.43,T,-559.47,M,004.018,N,007.441,K,D*05
$GPGGA,083853.00,5702.9010694,N,00949.4008183,E,2,6,1.5,-2.254,M,40.592,M,2.9,0123*5A
$GPVTG,080.86,T,-559.04,M,004.033,N,007.468,K,D*09
$GPGGA,083853.05,5702.9010650,N,00949.4009160,E,2,6,1.5,-2.245,M,40.592,M,2.0,0123*52
$GPVTG,082.20,T,-557.70,M,003.997,N,007.402,K,D*06
$GPGGA,083853.10,5702.9010682,N,00949.4010177,E,2,6,1.5,-2.244,M,40.592,M,2.0,0123*56
$GPVTG,083.62,T,-556.28,M,003.995,N,007.399,K,D*0A
$GPGGA,083853.15,5702.9010614,N,00949.4011213,E,2,6,1.5,-2.241,M,40.592,M,2.0,0123*59
$GPVTG,086.74,T,-553.16,M,004.007,N,007.421,K,D*01
$GPGGA,083853.20,5702.9010717,N,00949.4012249,E,2,6,1.5,-2.238,M,40.592,M,2.0,0123*5F
$GPVTG,086.28,T,-553.62,M,004.035,N,007.472,K,D*0C
$GPGGA,083853.25,5702.9010679,N,00949.4013209,E,2,6,1.5,-2.219,M,40.592,M,2.3,0123*56
$GPVTG,086.78,T,-553.12,M,004.004,N,007.415,K,D*0D
$GPGGA,083853.30,5702.9010660,N,00949.4014222,E,2,6,1.5,-2.217,M,40.592,M,2.3,0123*5A
$GPVTG,088.45,T,-551.45,M,003.997,N,007.402,K,D*0F
$GPGGA,083853.35,5702.9010733,N,00949.4015204,E,2,6,1.5,-2.215,M,40.592,M,2.3,0123*5F
$GPVTG,088.12,T,-551.78,M,003.959,N,007.332,K,D*05
$GPGGA,083853.40,5702.9010698,N,00949.4016224,E,2,6,1.5,-2.213,M,40.592,M,2.3,0123*5A
$GPVTG,089.85,T,-550.05,M,003.969,N,007.350,K,D*06
$GPGGA,083853.45,5702.9010646,N,00949.4017258,E,2,6,1.5,-2.202,M,40.592,M,2.5,0123*50
$GPVTG,090.18,T,-549.72,M,004.006,N,007.418,K,D*0E
$GPGGA,083853.50,5702.9010659,N,00949.4018269,E,2,6,1.5,-2.202,M,40.592,M,2.5,0123*57
$GPVTG,090.64,T,-549.26,M,003.999,N,007.406,K,D*03
$GPGGA,083853.55,5702.9010646,N,00949.4019257,E,2,6,1.5,-2.197,M,40.592,M,2.5,0123*5F
$GPVTG,091.48,T,-548.42,M,003.969,N,007.351,K,D*05
$GPGGA,083853.60,5702.9010620,N,00949.4020252,E,2,6,1.5,-2.193,M,40.592,M,2.5,0123*52
$GPVTG,092.41,T,-547.49,M,003.953,N,007.321,K,D*05
$GPGGA,083853.65,5702.9010520,N,00949.4021191,E,2,6,1.5,-2.168,M,40.592,M,2.7,0123*5F
$GPVTG,093.77,T,-546.13,M,003.919,N,007.258,K,D*0E
$GPGGA,083853.70,5702.9010521,N,00949.4022148,E,2,6,1.5,-2.165,M,40.592,M,2.7,0123*50
$GPVTG,093.87,T,-546.03,M,003.866,N,007.159,K,D*0B
$GPGGA,083853.75,5702.9010502,N,00949.4023169,E,2,6,1.5,-2.161,M,40.592,M,2.7,0123*52
$GPVTG,094.22,T,-545.68,M,003.899,N,007.222,K,D*02
$GPGGA,083853.80,5702.9010524,N,00949.4024237,E,2,6,1.5,-2.160,M,40.592,M,2.7,0123*52
$GPVTG,093.64,T,-546.26,M,003.980,N,007.371,K,D*00
$GPGGA,083853.85,5702.9010357,N,00949.4025292,E,2,6,1.5,-2.150,M,40.592,M,3.0,0123*5E
$GPVTG,095.40,T,-544.50,M,004.044,N,007.489,K,D*05
$GPGGA,083853.90,5702.9010334,N,00949.4026269,E,2,6,1.5,-2.147,M,40.592,M,3.0,0123*5E
$GPVTG,095.54,T,-544.36,M,003.999,N,007.407,K,D*08
$GPGGA,083853.95,5702.9010217,N,00949.4027216,E,2,6,1.5,-2.142,M,40.592,M,3.0,0123*57
$GPVTG,097.48,T,-542.42,M,003.941,N,007.298,K,D*07
$GPGGA,083854.00,5702.9010144,N,00949.4028220,E,2,6,1.5,-2.135,M,40.592,M,3.0,0123*53
$GPVTG,098.22,T,-541.68,M,003.952,N,007.320,K,D*0F
$GPGGA,083854.05,5702.9010016,N,00949.4029258,E,2,6,1.5,-2.128,M,40.592,M,1.5,0123*55
$GPVTG,099.10,T,-540.80,M,003.985,N,007.380,K,D*08
$GPGGA,083854.10,5702.9009971,N,00949.4030270,E,2,6,1.5,-2.125,M,40.592,M,1.5,0123*5E
$GPVTG,099.19,T,-540.71,M,003.995,N,007.398,K,D*07
$GPGGA,083854.15,5702.9009888,N,00949.4031290,E,2,6,1.5,-2.124,M,40.592,M,1.5,0123*52
$GPVTG,099.73,T,-540.17,M,004.017,N,007.439,K,D*03
$GPGGA,083854.20,5702.9009802,N,00949.4032252,E,2,6,1.5,-2.124,M,40.592,M,1.5,0123*5B
$GPVTG,100.35,T,-539.55,M,003.982,N,007.375,K,D*05
$GPGGA,083854.25,5702.9009675,N,00949.4033312,E,2,6,1.5,-2.145,M,40.592,M,1.7,0123*51
$GPVTG,099.49,T,-540.41,M,003.965,N,007.343,K,D*08
$GPGGA,083854.30,5702.9009581,N,00949.4034353,E,2,6,1.5,-2.147,M,40.592,M,1.7,0123*5D
$GPVTG,099.97,T,-539.93,M,004.022,N,007.450,K,D*02
$GPGGA,083854.35,5702.9009467,N,00949.4035350,E,2,6,1.5,-2.145,M,40.592,M,1.7,0123*51
$GPVTG,101.00,T,-538.90,M,004.026,N,007.456,K,D*0C
$GPGGA,083854.40,5702.9009361,N,00949.4036339,E,2,6,1.5,-2.150,M,40.592,M,1.7,0123*5A
$GPVTG,101.52,T,-538.38,M,004.016,N,007.437,K,D*0D
$GPGGA,083854.45,5702.9009123,N,00949.4037312,E,2,6,1.5,-2.125,M,40.592,M,2.0,0123*55
$GPVTG,102.94,T,-536.96,M,004.015,N,007.437,K,D*0D
$GPGGA,083854.50,5702.9008958,N,00949.4038264,E,2,6,1.5,-2.124,M,40.592,M,2.0,0123*5A
$GPVTG,104.74,T,-535.16,M,003.993,N,007.395,K,D*01
$GPGGA,083854.55,5702.9008809,N,00949.4039238,E,2,6,1.5,-2.124,M,40.592,M,2.0,0123*52
$GPVTG,105.69,T,-534.21,M,003.993,N,007.394,K,D*08
$GPGGA,083854.60,5702.9008635,N,00949.4040172,E,2,6,1.5,-2.126,M,40.592,M,2.0,0123*54
$GPVTG,107.19,T,-532.71,M,003.963,N,007.339,K,D*06
$GPGGA,083854.65,5702.9008483,N,00949.4041217,E,2,6,1.5,-2.146,M,40.592,M,2.2,0123*5B
$GPVTG,107.61,T,-532.29,M,004.005,N,007.417,K,D*01
$GPGGA,083854.70,5702.9008336,N,00949.4042214,E,2,6,1.5,-2.151,M,40.592,M,2.2,0123*50
$GPVTG,107.70,T,-532.20,M,004.028,N,007.459,K,D*0D
$GPGGA,083854.75,5702.9008164,N,00949.4043204,E,2,6,1.5,-2.149,M,40.592,M,2.2,0123*59
$GPVTG,108.32,T,-531.58,M,004.053,N,007.506,K,D*0F
$GPGGA,083854.80,5702.9007954,N,00949.4044127,E,2,6,1.5,-2.151,M,40.592,M,2.2,0123*5B
$GPVTG,110.02,T,-529.88,M,004.026,N,007.455,K,D*04
$GPGGA,083854.85,5702.9007727,N,00949.4045085,E,2,6,1.5,-2.140,M,40.592,M,2.4,0123*5A
$GPVTG,110.36,T,-529.54,M,004.001,N,007.410,K,D*06
$GPGGA,083854.90,5702.9007531,N,00949.4046053,E,2,6,1.5,-2.145,M,40.592,M,2.4,0123*56
$GPVTG,111.06,T,-528.84,M,004.022,N,007.450,K,D*0D
$GPGGA,083854.95,5702.9007374,N,00949.4047085,E,2,6,1.5,-2.150,M,40.592,M,2.4,0123*5A
$GPVTG,110.28,T,-529.62,M,004.082,N,007.560,K,D*01
$GPGGA,083855.00,5702.9007176,N,00949.4048050,E,2,6,1.5,-2.154,M,40.592,M,2.4,0123*54
$GPVTG,110.88,T,-529.02,M,004.086,N,007.568,K,D*01
$GPGGA,083855.05,5702.9006880,N,00949.4048917,E,2,6,1.5,-2.139,M,40.592,M,2.6,0123*53
$GPVTG,112.81,T,-527.09,M,004.001,N,007.409,K,D*06
$GPGGA,083855.10,5702.9006715,N,00949.4049869,E,2,6,1.5,-2.137,M,40.592,M,2.6,0123*53
$GPVTG,112.20,T,-527.70,M,003.982,N,007.375,K,D*0A
$GPGGA,083855.15,5702.9006495,N,00949.4050817,E,2,6,1.5,-2.135,M,40.592,M,2.6,0123*5E
$GPVTG,112.92,T,-526.98,M,003.998,N,007.405,K,D*0F
$GPGGA,083855.20,5702.9006253,N,00949.4051707,E,2,6,1.5,-2.132,M,40.592,M,2.6,0123*5C
$GPVTG,114.34,T,-525.56,M,003.971,N,007.355,K,D*01
$GPGGA,083855.25,5702.9006010,N,00949.4052645,E,2,6,1.5,-2.135,M,40.592,M,2.9,0123*50
$GPVTG,115.37,T,-524.53,M,003.959,N,007.332,K,D*0C
$GPGGA,083855.30,5702.9005799,N,00949.4053598,E,2,6,1.5,-2.133,M,40.592,M,2.9,0123*55
$GPVTG,115.08,T,-524.82,M,003.983,N,007.377,K,D*0A
$GPGGA,083855.35,5702.9005499,N,00949.4054523,E,2,6,1.5,-2.135,M,40.592,M,2.9,0123*52
$GPVTG,117.14,T,-522.76,M,004.047,N,007.494,K,D*04
$GPGGA,083855.40,5702.9005283,N,00949.4055488,E,2,6,1.5,-2.138,M,40.592,M,2.9,0123*51
$GPVTG,116.53,T,-523.37,M,004.074,N,007.545,K,D*0F
$GPGGA,083855.45,5702.9004994,N,00949.4056329,E,2,6,1.5,-2.152,M,40.592,M,3.1,0123*52
$GPVTG,117.36,T,-522.54,M,004.081,N,007.558,K,D*0F
$GPGGA,083855.50,5702.9004725,N,00949.4057213,E,2,6,1.5,-2.159,M,40.592,M,3.1,0123*50
$GPVTG,118.16,T,-521.74,M,004.087,N,007.570,K,D*0F
$GPGGA,083855.55,5702.9004486,N,00949.4058082,E,2,6,1.5,-2.162,M,40.592,M,3.1,0123*52
$GPVTG,118.38,T,-521.52,M,004.064,N,007.526,K,D*09
$GPGGA,083855.60,5702.9004225,N,00949.4058964,E,2,6,1.5,-2.167,M,40.592,M,3.1,0123*5F
$GPVTG,118.89,T,-521.01,M,004.056,N,007.512,K,D*03
$GPGGA,083855.65,5702.9003918,N,00949.4059885,E,2,6,1.5,-2.162,M,40.592,M,3.3,0123*50
$GPVTG,119.48,T,-520.42,M,004.053,N,007.506,K,D*09
$GPGGA,083855.70,5702.9003614,N,00949.4060732,E,2,6,1.5,-2.168,M,40.592,M,3.3,0123*54
$GPVTG,120.67,T,-519.23,M,004.057,N,007.514,K,D*04
$GPGGA,083855.75,5702.9003334,N,00949.4061556,E,2,6,1.5,-2.171,M,40.592,M,3.3,0123*5F
$GPVTG,121.38,T,-518.52,M,004.029,N,007.461,K,D*02
$GPGGA,083855.80,5702.9003018,N,00949.4062436,E,2,6,1.5,-2.176,M,40.592,M,3.3,0123*5B
$GPVTG,122.41,T,-517.49,M,004.054,N,007.508,K,D*0E
$GPGGA,083855.85,5702.9002755,N,00949.4063241,E,2,6,1.5,-2.184,M,40.592,M,3.5,0123*5D
$GPVTG,122.27,T,-517.63,M,003.980,N,007.371,K,D*09
$GPGGA,083855.90,5702.9002434,N,00949.4064062,E,2,6,1.5,-2.191,M,40.592,M,3.5,0123*5D
$GPVTG,123.50,T,-516.40,M,003.981,N,007.374,K,D*0C
$GPGGA,083855.95,5702.9002111,N,00949.4064884,E,2,6,1.5,-2.195,M,40.592,M,3.5,0123*5E
$GPVTG,124.59,T,-515.31,M,003.985,N,007.379,K,D*0E
$GPGGA,083856.00,5702.9001790,N,00949.4065708,E,2,6,1.5,-2.201,M,40.592,M,3.5,0123*59
$GPVTG,125.43,T,-514.47,M,003.986,N,007.382,K,D*03
$GPGGA,083856.05,5702.9001459,N,00949.4066570,E,2,6,1.5,-2.189,M,40.592,M,1.9,0123*59
$GPVTG,125.36,T,-514.54,M,003.943,N,007.303,K,D*03
$GPGGA,083856.10,5702.9001139,N,00949.4067385,E,2,6,1.5,-2.195,M,40.592,M,1.9,0123*5E
$GPVTG,126.03,T,-513.87,M,003.942,N,007.300,K,D*0D
$GPGGA,083856.15,5702.9000802,N,00949.4068200,E,2,6,1.5,-2.199,M,40.592,M,1.9,0123*54
$GPVTG,126.87,T,-513.03,M,003.955,N,007.326,K,D*0F
$GPGGA,083856.20,5702.9000440,N,00949.4069032,E,2,6,1.5,-2.204,M,40.592,M,1.9,0123*5D
$GPVTG,127.90,T,-512.00,M,004.001,N,007.410,K,D*07
$GPGGA,083856.25,5702.9000069,N,00949.4069872,E,2,6,1.5,-2.203,M,40.592,M,2.1,0123*57
$GPVTG,128.58,T,-511.32,M,004.006,N,007.419,K,D*00
$GPGGA,083856.30,5702.8999712,N,00949.4070626,E,2,6,1.5,-2.210,M,40.592,M,2.1,0123*55
$GPVTG,129.66,T,-510.24,M,003.998,N,007.405,K,D*0E
$GPGGA,083856.35,5702.8999373,N,00949.4071391,E,2,6,1.5,-2.215,M,40.592,M,2.1,0123*5E
$GPVTG,130.19,T,-509.71,M,003.980,N,007.370,K,D*0A
$GPGGA,083856.40,5702.8999040,N,00949.4072143,E,2,6,1.5,-2.216,M,40.592,M,2.1,0123*52
$GPVTG,130.59,T,-509.31,M,003.948,N,007.311,K,D*09
$GPGGA,083856.45,5702.8998651,N,00949.4072914,E,2,6,1.5,-2.212,M,40.592,M,2.4,0123*5B
$GPVTG,131.59,T,-508.31,M,003.945,N,007.306,K,D*02
$GPGGA,083856.50,5702.8998259,N,00949.4073659,E,2,6,1.5,-2.215,M,40.592,M,2.4,0123*53
$GPVTG,132.87,T,-507.03,M,003.980,N,007.371,K,D*05
$GPGGA,083856.55,5702.8997860,N,00949.4074390,E,2,6,1.5,-2.216,M,40.592,M,2.4,0123*5D
$GPVTG,134.09,T,-505.81,M,004.008,N,007.423,K,D*03
$GPGGA,083856.60,5702.8997469,N,00949.4075123,E,2,6,1.5,-2.218,M,40.592,M,2.4,0123*5B
$GPVTG,134.89,T,-505.01,M,004.023,N,007.451,K,D*0F
$GPGGA,083856.65,5702.8997042,N,00949.4075803,E,2,6,1.5,-2.224,M,40.592,M,2.6,0123*55
$GPVTG,135.62,T,-504.28,M,004.034,N,007.472,K,D*06
$GPGGA,083856.70,5702.8996621,N,00949.4076483,E,2,6,1.5,-2.228,M,40.592,M,2.6,0123*58
$GPVTG,136.84,T,-503.06,M,004.051,N,007.502,K,D*03
$GPGGA,083856.75,5702.8996252,N,00949.4077136,E,2,6,1.5,-2.230,M,40.592,M,2.6,0123*5E
$GPVTG,137.37,T,-502.53,M,004.001,N,007.409,K,D*04
$GPGGA,083856.80,5702.8995846,N,00949.4077845,E,2,6,1.5,-2.232,M,40.592,M,2.6,0123*57
$GPVTG,137.94,T,-501.96,M,004.013,N,007.432,K,D*0C
$GPGGA,083856.85,5702.8995413,N,00949.4078518,E,2,6,1.5,-2.225,M,40.592,M,2.9,0123*5D
$GPVTG,138.89,T,-501.01,M,003.991,N,007.391,K,D*0B
$GPGGA,083856.90,5702.8994984,N,00949.4079132,E,2,6,1.5,-2.234,M,40.592,M,2.9,0123*56
$GPVTG,140.15,T,-499.75,M,003.988,N,007.387,K,D*0D
$GPGGA,083856.95,5702.8994580,N,00949.4079807,E,2,6,1.5,-2.235,M,40.592,M,2.9,0123*55
$GPVTG,140.43,T,-499.47,M,003.980,N,007.370,K,D*0F
$GPGGA,083857.00,5702.8994175,N,00949.4080472,E,2,6,1.5,-2.241,M,40.592,M,2.9,0123*5D
$GPVTG,140.71,T,-499.19,M,003.969,N,007.350,K,D*00
$GPGGA,083857.05,5702.8993688,N,00949.4081222,E,2,6,1.5,-2.231,M,40.592,M,2.0,0123*56
$GPVTG,141.55,T,-498.35,M,004.010,N,007.427,K,D*0F
$GPGGA,083857.10,5702.8993207,N,00949.4081872,E,2,6,1.5,-2.240,M,40.592,M,2.0,0123*58
$GPVTG,142.71,T,-497.19,M,004.079,N,007.554,K,D*01
$GPGGA,083857.15,5702.8992732,N,00949.4082501,E,2,6,1.5,-2.248,M,40.592,M,2.0,0123*5D
$GPVTG,143.72,T,-496.18,M,004.124,N,007.638,K,D*03
$GPGGA,083857.20,5702.8992305,N,00949.4083135,E,2,6,1.5,-2.250,M,40.592,M,2.0,0123*50
$GPVTG,143.90,T,-496.00,M,004.104,N,007.601,K,D*0E
$GPGGA,083857.25,5702.8991905,N,00949.4083810,E,2,6,1.5,-2.257,M,40.592,M,2.3,0123*56
$GPVTG,143.87,T,-496.03,M,004.045,N,007.492,K,D*07
$GPGGA,083857.30,5702.8991442,N,00949.4084392,E,2,6,1.5,-2.264,M,40.592,M,2.3,0123*5A
$GPVTG,144.80,T,-495.10,M,004.056,N,007.511,K,D*0E
$GPGGA,083857.35,5702.8990970,N,00949.4084968,E,2,6,1.5,-2.267,M,40.592,M,2.3,0123*5E
$GPVTG,145.72,T,-494.18,M,004.072,N,007.541,K,D*08
$GPGGA,083857.40,5702.8990473,N,00949.4085512,E,2,6,1.5,-2.273,M,40.592,M,2.3,0123*57
$GPVTG,147.03,T,-492.87,M,004.106,N,007.604,K,D*0C
$GPGGA,083857.45,5702.8989960,N,00949.4086046,E,2,6,1.5,-2.261,M,40.592,M,2.5,0123*57
$GPVTG,148.45,T,-491.45,M,004.093,N,007.580,K,D*0E
$GPGGA,083857.50,5702.8989522,N,00949.4086606,E,2,6,1.5,-2.265,M,40.592,M,2.5,0123*5F
$GPVTG,148.53,T,-491.37,M,004.050,N,007.501,K,D*0A
$GPGGA,083857.55,5702.8989064,N,00949.4087135,E,2,6,1.5,-2.272,M,40.592,M,2.5,0123*5D
$GPVTG,149.04,T,-490.86,M,004.026,N,007.455,K,D*03
$GPGGA,083857.60,5702.8988545,N,00949.4087674,E,2,6,1.5,-2.283,M,40.592,M,2.5,0123*50
$GPVTG,150.03,T,-489.87,M,004.088,N,007.570,K,D*07
$GPGGA,083857.65,5702.8988043,N,00949.4088289,E,2,6,1.5,-2.270,M,40.592,M,2.7,0123*51
$GPVTG,150.50,T,-489.40,M,004.060,N,007.519,K,D*03
$GPGGA,083857.70,5702.8987544,N,00949.4088828,E,2,6,1.5,-2.276,M,40.592,M,2.7,0123*5F
$GPVTG,150.99,T,-488.91,M,004.089,N,007.572,K,D*01
$GPGGA,083857.75,5702.8987032,N,00949.4089300,E,2,6,1.5,-2.282,M,40.592,M,2.7,0123*55
$GPVTG,152.06,T,-487.84,M,004.109,N,007.610,K,D*00
$GPGGA,083857.80,5702.8986509,N,00949.4089805,E,2,6,1.5,-2.291,M,40.592,M,2.7,0123*5F
$GPVTG,152.76,T,-487.14,M,004.150,N,007.687,K,D*0C
$GPGGA,083857.85,5702.8985929,N,00949.4090358,E,2,6,1.5,-2.274,M,40.592,M,3.0,0123*51
$GPVTG,153.95,T,-485.95,M,004.192,N,007.764,K,D*09
$GPGGA,083857.90,5702.8985450,N,00949.4090805,E,2,6,1.5,-2.276,M,40.592,M,3.0,0123*57
$GPVTG,154.41,T,-485.49,M,004.143,N,007.673,K,D*0D
$GPGGA,083857.95,5702.8984934,N,00949.4091249,E,2,6,1.5,-2.281,M,40.592,M,3.0,0123*57
$GPVTG,155.14,T,-484.76,M,004.148,N,007.682,K,D*04
$GPGGA,083858.00,5702.8984411,N,00949.4091657,E,2,6,1.5,-2.285,M,40.592,M,3.0,0123*51
$GPVTG,156.11,T,-483.79,M,004.151,N,007.688,K,D*08
$GPGGA,083858.05,5702.8983850,N,00949.4092159,E,2,6,1.5,-2.276,M,40.592,M,1.5,0123*5B
$GPVTG,156.69,T,-483.21,M,004.200,N,007.778,K,D*03
$GPGGA,083858.10,5702.8983329,N,00949.4092524,E,2,6,1.5,-2.283,M,40.592,M,1.5,0123*5E
$GPVTG,157.72,T,-482.18,M,004.180,N,007.741,K,D*02
$GPGGA,083858.15,5702.8982831,N,00949.4092874,E,2,6,1.5,-2.290,M,40.592,M,1.5,0123*52
$GPVTG,158.57,T,-481.33,M,004.124,N,007.638,K,D*01
$GPGGA,083858.20,5702.8982286,N,00949.4093227,E,2,6,1.5,-2.298,M,40.592,M,1.5,0123*57
$GPVTG,159.61,T,-480.29,M,004.142,N,007.671,K,D*02
$GPGGA,083858.25,5702.8981674,N,00949.4093685,E,2,6,1.5,-2.272,M,40.592,M,1.7,0123*52
$GPVTG,160.40,T,-479.50,M,004.154,N,007.693,K,D*08
$GPGGA,083858.30,5702.8981103,N,00949.4094074,E,2,6,1.5,-2.277,M,40.592,M,1.7,0123*5B
$GPVTG,160.89,T,-479.01,M,004.189,N,007.758,K,D*0F
$GPGGA,083858.35,5702.8980557,N,00949.4094466,E,2,6,1.5,-2.280,M,40.592,M,1.7,0123*55
$GPVTG,161.19,T,-478.71,M,004.210,N,007.798,K,D*0E
$GPGGA,083858.40,5702.8979976,N,00949.4094829,E,2,6,1.5,-2.287,M,40.592,M,1.7,0123*5E
$GPVTG,161.77,T,-478.13,M,004.250,N,007.871,K,D*0E
$GPGGA,083858.45,5702.8979415,N,00949.4095276,E,2,6,1.5,-2.271,M,40.592,M,2.0,0123*5F
$GPVTG,162.06,T,-477.84,M,004.266,N,007.901,K,D*09
$GPGGA,083858.50,5702.8978852,N,00949.4095659,E,2,6,1.5,-2.278,M,40.592,M,2.0,0123*55
$GPVTG,162.24,T,-477.66,M,004.293,N,007.950,K,D*0B
$GPGGA,083858.55,5702.8978286,N,00949.4096007,E,2,6,1.5,-2.281,M,40.592,M,2.0,0123*5B
$GPVTG,162.66,T,-477.24,M,004.314,N,007.989,K,D*01
$GPGGA,083858.60,5702.8977703,N,00949.4096297,E,2,6,1.5,-2.281,M,40.592,M,2.0,0123*51
$GPVTG,163.53,T,-476.37,M,004.334,N,008.027,K,D*05
$GPGGA,083858.65,5702.8977137,N,00949.4096558,E,2,6,1.5,-2.267,M,40.592,M,2.2,0123*5B
$GPVTG,164.85,T,-475.05,M,004.328,N,008.016,K,D*04
$GPGGA,083858.70,5702.8976537,N,00949.4096840,E,2,6,1.5,-2.269,M,40.592,M,2.2,0123*50
$GPVTG,165.56,T,-474.34,M,004.363,N,008.080,K,D*08
$GPGGA,083858.75,5702.8975947,N,00949.4097066,E,2,6,1.5,-2.273,M,40.592,M,2.2,0123*5B
$GPVTG,166.60,T,-473.30,M,004.379,N,008.109,K,D*06
$GPGGA,083858.80,5702.8975362,N,00949.4097337,E,2,6,1.5,-2.274,M,40.592,M,2.2,0123*5C
$GPVTG,167.09,T,-472.81,M,004.396,N,008.142,K,D*0D
$GPGGA,083858.85,5702.8974758,N,00949.4097537,E,2,6,1.5,-2.251,M,40.592,M,2.4,0123*52
$GPVTG,168.19,T,-471.71,M,004.415,N,008.176,K,D*04
$GPGGA,083858.90,5702.8974178,N,00949.4097753,E,2,6,1.5,-2.251,M,40.592,M,2.4,0123*52
$GPVTG,168.88,T,-471.02,M,004.416,N,008.178,K,D*05
$GPGGA,083858.95,5702.8973577,N,00949.4097969,E,2,6,1.5,-2.251,M,40.592,M,2.4,0123*5C
$GPVTG,169.51,T,-470.39,M,004.436,N,008.216,K,D*00
$GPGGA,083859.00,5702.8972993,N,00949.4098166,E,2,6,1.5,-2.251,M,40.592,M,2.4,0123*5E
$GPVTG,170.16,T,-469.74,M,004.435,N,008.214,K,D*0B
$GPGGA,083859.05,5702.8972417,N,00949.4098401,E,2,6,1.5,-2.232,M,40.592,M,2.6,0123*59
$GPVTG,170.47,T,-469.43,M,004.425,N,008.194,K,D*01
$GPGGA,083859.10,5702.8971810,N,00949.4098621,E,2,6,1.5,-2.230,M,40.592,M,2.6,0123*57
$GPVTG,170.77,T,-469.13,M,004.447,N,008.236,K,D*08
$GPGGA,083859.15,5702.8971202,N,00949.4098811,E,2,6,1.5,-2.235,M,40.592,M,2.6,0123*53
$GPVTG,171.25,T,-468.65,M,004.466,N,008.270,K,D*0F
$GPGGA,083859.20,5702.8970606,N,00949.4098950,E,2,6,1.5,-2.236,M,40.592,M,2.6,0123*53
$GPVTG,172.05,T,-467.85,M,004.465,N,008.269,K,D*04
$GPGGA,083859.25,5702.8969964,N,00949.4099217,E,2,6,1.5,-2.231,M,40.592,M,2.9,0123*54
$GPVTG,172.14,T,-467.76,M,004.503,N,008.340,K,D*03
$GPGGA,083859.30,5702.8969346,N,00949.4099385,E,2,6,1.5,-2.235,M,40.592,M,2.9,0123*54
$GPVTG,172.56,T,-467.34,M,004.523,N,008.376,K,D*04
$GPGGA,083859.35,5702.8968736,N,00949.4099506,E,2,6,1.5,-2.236,M,40.592,M,2.9,0123*5D
$GPVTG,173.27,T,-466.63,M,004.527,N,008.384,K,D*09
$GPGGA,083859.40,5702.8968101,N,00949.4099575,E,2,6,1.5,-2.242,M,40.592,M,2.9,0123*5A
$GPVTG,174.33,T,-465.57,M,004.554,N,008.434,K,D*07
$GPGGA,083859.45,5702.8967477,N,00949.4099683,E,2,6,1.5,-2.214,M,40.592,M,3.1,0123*54
$GPVTG,175.48,T,-464.42,M,004.550,N,008.427,K,D*09
$GPGGA,083859.50,5702.8966835,N,00949.4099815,E,2,6,1.5,-2.211,M,40.592,M,3.1,0123*5F
$GPVTG,175.73,T,-464.17,M,004.585,N,008.491,K,D*04
$GPGGA,083859.55,5702.8966204,N,00949.4099899,E,2,6,1.5,-2.209,M,40.592,M,3.1,0123*5F
$GPVTG,176.29,T,-463.61,M,004.602,N,008.524,K,D*0D
$GPGGA,083859.60,5702.8965590,N,00949.4099957,E,2,6,1.5,-2.211,M,40.592,M,3.1,0123*5A
$GPVTG,176.96,T,-462.94,M,004.598,N,008.515,K,D*00
$GPGGA,083859.65,5702.8964960,N,00949.4099979,E,2,6,1.5,-2.203,M,40.592,M,3.3,0123*50
$GPVTG,178.00,T,-461.90,M,004.594,N,008.508,K,D*06
$GPGGA,083859.70,5702.8964338,N,00949.4099916,E,2,6,1.5,-2.202,M,40.592,M,3.3,0123*5B
$GPVTG,179.44,T,-460.46,M,004.596,N,008.511,K,D*07
$GPGGA,083859.75,5702.8963726,N,00949.4099940,E,2,6,1.5,-2.194,M,40.592,M,3.3,0123*5D
$GPVTG,179.96,T,-459.94,M,004.588,N,008.497,K,D*0D
$GPGGA,083859.80,5702.8963098,N,00949.4099959,E,2,6,1.5,-2.190,M,40.592,M,3.3,0123*59
$GPVTG,180.43,T,-459.47,M,004.596,N,008.513,K,D*0F
$GPGGA,083859.85,5702.8962477,N,00949.4099897,E,2,6,1.5,-2.175,M,40.592,M,3.5,0123*56
$GPVTG,181.36,T,-458.54,M,004.602,N,008.522,K,D*03
$GPGGA,083859.90,5702.8961853,N,00949.4099880,E,2,6,1.5,-2.177,M,40.592,M,3.5,0123*5F
$GPVTG,181.89,T,-458.01,M,004.605,N,008.528,K,D*0A
$GPGGA,083859.95,5702.8961201,N,00949.4099832,E,2,6,1.5,-2.181,M,40.592,M,3.5,0123*57
$GPVTG,182.56,T,-457.34,M,004.635,N,008.585,K,D*06
$GPGGA,083900.00,5702.8960561,N,00949.4099791,E,2,6,1.5,-2.187,M,40.592,M,3.5,0123*56
