$GPGGA,092109.40,5702.9088171,N,00949.4724801,E,2,4,4.2,-4.553,M,40.592,M,2.0,0123*50
$GPVTG,314.29,T,-325.61,M,005.243,N,009.710,K,D*0A
$GPGGA,092109.45,5702.9089090,N,00949.4723863,E,2,4,4.2,-4.568,M,40.592,M,2.2,0123*53
$GPVTG,315.72,T,-324.18,M,005.230,N,009.686,K,D*00
$GPGGA,092109.50,5702.9089627,N,00949.4722944,E,2,4,4.2,-4.571,M,40.592,M,2.2,0123*50
$GPVTG,316.54,T,-323.36,M,005.239,N,009.703,K,D*09
$GPGGA,092109.55,5702.9090191,N,00949.4722045,E,2,4,4.2,-4.568,M,40.592,M,2.2,0123*57
$GPVTG,317.56,T,-322.34,M,005.254,N,009.730,K,D*02
$GPGGA,092109.60,5702.9090673,N,00949.4721109,E,2,4,4.2,-4.572,M,40.592,M,2.2,0123*5B
$GPVTG,317.60,T,-322.30,M,005.253,N,009.728,K,D*0D
$GPGGA,092109.65,5702.9091439,N,00949.4720194,E,2,4,4.2,-4.568,M,40.592,M,2.4,0123*5B
$GPVTG,318.78,T,-321.12,M,005.242,N,009.708,K,D*0A
$GPGGA,092109.70,5702.9091990,N,00949.4719307,E,2,4,4.2,-4.567,M,40.592,M,2.4,0123*5C
$GPVTG,319.38,T,-320.52,M,005.258,N,009.737,K,D*0D
$GPGGA,092109.75,5702.9092551,N,00949.4718451,E,2,4,4.2,-4.566,M,40.592,M,2.4,0123*5F
$GPVTG,320.20,T,-319.70,M,005.261,N,009.744,K,D*0A
$GPGGA,092109.80,5702.9093160,N,00949.4717625,E,2,4,4.2,-4.565,M,40.592,M,2.4,0123*5F
$GPVTG,321.39,T,-318.51,M,005.280,N,009.779,K,D*00
$GPGGA,092109.85,5702.9093767,N,00949.4716706,E,2,4,4.2,-4.545,M,40.592,M,2.7,0123*5B
$GPVTG,321.39,T,-318.51,M,005.235,N,009.695,K,D*0D
$GPGGA,092109.90,5702.9094259,N,00949.4715905,E,2,4,4.2,-4.544,M,40.592,M,2.7,0123*5F
$GPVTG,321.86,T,-318.04,M,005.172,N,009.578,K,D*09
$GPGGA,092109.95,5702.9094733,N,00949.4715066,E,2,4,4.2,-4.543,M,40.592,M,2.7,0123*58
$GPVTG,321.73,T,-318.17,M,005.134,N,009.508,K,D*04
$GPGGA,092110.00,5702.9095268,N,00949.4714267,E,2,4,4.2,-4.533,M,40.592,M,2.7,0123*53
$GPVTG,322.27,T,-317.63,M,005.115,N,009.473,K,D*04
$GPGGA,092110.05,5702.9096349,N,00949.4713481,E,2,4,4.2,-4.575,M,40.592,M,1.6,0123*5E
$GPVTG,323.43,T,-316.47,M,005.138,N,009.516,K,D*0D
$GPGGA,092110.10,5702.9096968,N,00949.4712719,E,2,4,4.2,-4.581,M,40.592,M,1.6,0123*5B
$GPVTG,324.48,T,-315.42,M,005.165,N,009.565,K,D*0B
$GPGGA,092110.15,5702.9097608,N,00949.4711936,E,2,4,4.2,-4.585,M,40.592,M,1.6,0123*52
$GPVTG,325.23,T,-314.67,M,005.223,N,009.672,K,D*05
$GPGGA,092110.20,5702.9098192,N,00949.4711278,E,2,4,4.2,-4.590,M,40.592,M,1.6,0123*5A
$GPVTG,326.79,T,-313.11,M,005.166,N,009.567,K,D*0A
$GPGGA,092110.25,5702.9098817,N,00949.4710519,E,2,4,4.2,-4.570,M,40.592,M,1.9,0123*5B
$GPVTG,327.55,T,-312.35,M,005.111,N,009.466,K,D*02
$GPGGA,092110.30,5702.9099418,N,00949.4709820,E,2,4,4.2,-4.568,M,40.592,M,1.9,0123*5B
$GPVTG,328.31,T,-311.59,M,005.116,N,009.476,K,D*00
$GPGGA,092110.35,5702.9100006,N,00949.4709110,E,2,4,4.2,-4.565,M,40.592,M,1.9,0123*53
$GPVTG,328.68,T,-311.22,M,005.123,N,009.488,K,D*07
$GPGGA,092110.40,5702.9100604,N,00949.4708448,E,2,4,4.2,-4.564,M,40.592,M,1.9,0123*5D
$GPVTG,329.49,T,-310.41,M,005.114,N,009.471,K,D*03
$GPGGA,092110.45,5702.9101358,N,00949.4707756,E,2,4,4.2,-4.564,M,40.592,M,2.1,0123*5D
$GPVTG,330.35,T,-309.55,M,005.105,N,009.455,K,D*0B
$GPGGA,092110.50,5702.9101983,N,00949.4707140,E,2,4,4.2,-4.560,M,40.592,M,2.1,0123*50
$GPVTG,331.34,T,-308.56,M,005.106,N,009.456,K,D*09
$GPGGA,092110.55,5702.9102567,N,00949.4706545,E,2,4,4.2,-4.555,M,40.592,M,2.1,0123*56
$GPVTG,332.20,T,-307.70,M,005.072,N,009.393,K,D*08
$GPGGA,092110.60,5702.9103160,N,00949.4705874,E,2,4,4.2,-4.553,M,40.592,M,2.1,0123*58
$GPVTG,332.15,T,-307.75,M,005.087,N,009.421,K,D*0F
$GPGGA,092110.65,5702.9104018,N,00949.4705259,E,2,4,4.2,-4.565,M,40.592,M,2.3,0123*56
$GPVTG,333.15,T,-306.75,M,005.058,N,009.367,K,D*08
$GPGGA,092110.70,5702.9104637,N,00949.4704618,E,2,4,4.2,-4.563,M,40.592,M,2.3,0123*5F
$GPVTG,333.21,T,-306.69,M,005.085,N,009.417,K,D*02
$GPGGA,092110.75,5702.9105259,N,00949.4703992,E,2,4,4.2,-4.560,M,40.592,M,2.3,0123*5E
$GPVTG,333.37,T,-306.53,M,005.106,N,009.457,K,D*02
$GPGGA,092110.80,5702.9105916,N,00949.4703356,E,2,4,4.2,-4.555,M,40.592,M,2.3,0123*50
$GPVTG,333.46,T,-306.44,M,005.158,N,009.552,K,D*0D
$GPGGA,092110.85,5702.9106718,N,00949.4702802,E,2,4,4.2,-4.552,M,40.592,M,2.6,0123*5F
$GPVTG,334.71,T,-305.19,M,005.131,N,009.502,K,D*0F
$GPGGA,092110.90,5702.9107349,N,00949.4702239,E,2,4,4.2,-4.546,M,40.592,M,2.6,0123*5D
$GPVTG,335.16,T,-304.74,M,005.135,N,009.510,K,D*02
$GPGGA,092110.95,5702.9107952,N,00949.4701682,E,2,4,4.2,-4.541,M,40.592,M,2.6,0123*58
$GPVTG,335.45,T,-304.45,M,005.117,N,009.477,K,D*06
$GPGGA,092111.00,5702.9108583,N,00949.4701160,E,2,4,4.2,-4.536,M,40.592,M,2.6,0123*51
$GPVTG,336.11,T,-303.79,M,005.109,N,009.462,K,D*07
$GPGGA,092111.05,5702.9109429,N,00949.4700549,E,2,4,4.2,-4.552,M,40.592,M,2.8,0123*56
$GPVTG,336.31,T,-303.59,M,005.124,N,009.489,K,D*0D
$GPGGA,092111.10,5702.9110075,N,00949.4700021,E,2,4,4.2,-4.552,M,40.592,M,2.8,0123*5C
$GPVTG,336.73,T,-303.17,M,005.133,N,009.506,K,D*01
$GPGGA,092111.15,5702.9110742,N,00949.4699520,E,2,4,4.2,-4.553,M,40.592,M,2.8,0123*5E
$GPVTG,337.40,T,-302.50,M,005.148,N,009.535,K,D*0E
$GPGGA,092111.20,5702.9111386,N,00949.4699080,E,2,4,4.2,-4.551,M,40.592,M,2.8,0123*58
$GPVTG,338.49,T,-301.41,M,005.125,N,009.492,K,D*0C
$GPGGA,092111.25,5702.9112148,N,00949.4698603,E,2,4,4.2,-4.538,M,40.592,M,3.0,0123*54
$GPVTG,339.37,T,-300.53,M,005.129,N,009.499,K,D*01
$GPGGA,092111.30,5702.9112802,N,00949.4698149,E,2,4,4.2,-4.537,M,40.592,M,3.0,0123*51
$GPVTG,339.96,T,-299.94,M,005.128,N,009.497,K,D*0F
$GPGGA,092111.35,5702.9113425,N,00949.4697732,E,2,4,4.2,-4.537,M,40.592,M,3.0,0123*59
$GPVTG,340.71,T,-299.19,M,005.093,N,009.432,K,D*03
$GPGGA,092111.40,5702.9114071,N,00949.4697343,E,2,4,4.2,-4.537,M,40.592,M,3.0,0123*5B
$GPVTG,341.67,T,-298.23,M,005.072,N,009.394,K,D*09
$GPGGA,092111.45,5702.9114893,N,00949.4696895,E,2,4,4.2,-4.549,M,40.592,M,3.2,0123*50
$GPVTG,342.35,T,-297.55,M,005.098,N,009.441,K,D*08
$GPGGA,092111.50,5702.9115548,N,00949.4696538,E,2,4,4.2,-4.551,M,40.592,M,3.2,0123*5D
$GPVTG,343.32,T,-296.58,M,005.081,N,009.409,K,D*06
$GPGGA,092111.55,5702.9116233,N,00949.4696250,E,2,4,4.2,-4.556,M,40.592,M,3.2,0123*5E
$GPVTG,344.93,T,-294.97,M,005.073,N,009.396,K,D*07
$GPGGA,092111.60,5702.9116895,N,00949.4695831,E,2,4,4.2,-4.560,M,40.592,M,3.2,0123*55
$GPVTG,344.69,T,-295.21,M,005.089,N,009.425,K,D*04
$GPGGA,092111.65,5702.9117638,N,00949.4695455,E,2,4,4.2,-4.560,M,40.592,M,3.4,0123*50
$GPVTG,345.29,T,-294.61,M,005.116,N,009.475,K,D*06
$GPGGA,092111.70,5702.9118382,N,00949.4695158,E,2,4,4.2,-4.561,M,40.592,M,3.4,0123*56
$GPVTG,346.44,T,-293.46,M,005.165,N,009.566,K,D*0B
$GPGGA,092111.75,5702.9119046,N,00949.4694876,E,2,4,4.2,-4.563,M,40.592,M,3.4,0123*5F
$GPVTG,347.33,T,-292.57,M,005.146,N,009.531,K,D*08
$GPGGA,092111.80,5702.9119660,N,00949.4694657,E,2,4,4.2,-4.566,M,40.592,M,3.4,0123*5F
$GPVTG,348.66,T,-291.24,M,005.077,N,009.402,K,D*02
$GPGGA,092111.85,5702.9120341,N,00949.4694351,E,2,4,4.2,-4.559,M,40.592,M,3.6,0123*5B
$GPVTG,349.11,T,-290.79,M,005.051,N,009.355,K,D*0B
$GPGGA,092111.90,5702.9121009,N,00949.4694138,E,2,4,4.2,-4.557,M,40.592,M,3.6,0123*52
$GPVTG,350.11,T,-289.79,M,005.039,N,009.333,K,D*05
$GPGGA,092111.95,5702.9121670,N,00949.4693857,E,2,4,4.2,-4.559,M,40.592,M,3.6,0123*56
$GPVTG,350.15,T,-289.75,M,005.036,N,009.327,K,D*07
$GPGGA,092112.00,5702.9122300,N,00949.4693630,E,2,4,4.2,-4.561,M,40.592,M,3.6,0123*5C
$GPVTG,350.63,T,-289.27,M,005.001,N,009.261,K,D*06
$GPGGA,092112.05,5702.9122924,N,00949.4693394,E,2,4,4.2,-4.553,M,40.592,M,1.9,0123*52
$GPVTG,351.02,T,-288.88,M,004.951,N,009.170,K,D*0A
$GPGGA,092112.10,5702.9123622,N,00949.4693252,E,2,4,4.2,-4.552,M,40.592,M,1.9,0123*54
$GPVTG,352.28,T,-287.62,M,004.963,N,009.191,K,D*04
$GPGGA,092112.15,5702.9124261,N,00949.4693191,E,2,4,4.2,-4.549,M,40.592,M,1.9,0123*53
$GPVTG,354.16,T,-285.74,M,004.922,N,009.115,K,D*03
$GPGGA,092112.20,5702.9124891,N,00949.4693051,E,2,4,4.2,-4.546,M,40.592,M,1.9,0123*52
$GPVTG,354.76,T,-285.14,M,004.888,N,009.053,K,D*01
$GPGGA,092112.25,5702.9125654,N,00949.4692864,E,2,4,4.2,-4.555,M,40.592,M,2.2,0123*54
$GPVTG,355.05,T,-284.85,M,004.858,N,008.997,K,D*00
$GPGGA,092112.30,5702.9126294,N,00949.4692735,E,2,4,4.2,-4.555,M,40.592,M,2.2,0123*50
$GPVTG,355.46,T,-284.44,M,004.835,N,008.955,K,D*0F
$GPGGA,092112.35,5702.9126987,N,00949.4692678,E,2,4,4.2,-4.558,M,40.592,M,2.2,0123*59
$GPVTG,356.63,T,-283.27,M,004.853,N,008.988,K,D*09
$GPGGA,092112.40,5702.9127656,N,00949.4692602,E,2,4,4.2,-4.556,M,40.592,M,2.2,0123*5A
$GPVTG,357.30,T,-282.60,M,004.853,N,008.988,K,D*0C
$GPGGA,092112.45,5702.9128392,N,00949.4692499,E,2,4,4.2,-4.554,M,40.592,M,2.4,0123*59
$GPVTG,357.75,T,-282.15,M,004.839,N,008.962,K,D*07
$GPGGA,092112.50,5702.9129073,N,00949.4692462,E,2,4,4.2,-4.552,M,40.592,M,2.4,0123*52
$GPVTG,358.55,T,-281.35,M,004.849,N,008.981,K,D*01
$GPGGA,092112.55,5702.9129736,N,00949.4692475,E,2,4,4.2,-4.554,M,40.592,M,2.4,0123*51
$GPVTG,359.74,T,-280.16,M,004.846,N,008.975,K,D*07
$GPGGA,092112.60,5702.9130354,N,00949.4692416,E,2,4,4.2,-4.555,M,40.592,M,2.4,0123*5B
$GPVTG,359.80,T,-280.10,M,004.809,N,008.906,K,D*05
$GPGGA,092112.65,5702.9130993,N,00949.4692419,E,2,4,4.2,-4.549,M,40.592,M,2.7,0123*5E
$GPVTG,000.72,T,-639.18,M,004.762,N,008.819,K,D*04
$GPGGA,092112.70,5702.9131654,N,00949.4692529,E,2,4,4.2,-4.549,M,40.592,M,2.7,0123*5D
$GPVTG,002.53,T,-637.37,M,004.766,N,008.827,K,D*0F
$GPGGA,092112.75,5702.9132291,N,00949.4692566,E,2,4,4.2,-4.549,M,40.592,M,2.7,0123*5D
$GPVTG,003.11,T,-636.79,M,004.750,N,008.798,K,D*0D
$GPGGA,092112.80,5702.9132941,N,00949.4692605,E,2,4,4.2,-4.544,M,40.592,M,2.7,0123*5A
$GPVTG,003.53,T,-636.37,M,004.746,N,008.789,K,D*06
$GPGGA,092112.85,5702.9133654,N,00949.4692693,E,2,4,4.2,-4.548,M,40.592,M,2.9,0123*58
$GPVTG,004.71,T,-635.19,M,004.751,N,008.799,K,D*09
$GPGGA,092112.90,5702.9134273,N,00949.4692819,E,2,4,4.2,-4.548,M,40.592,M,2.9,0123*56
$GPVTG,005.81,T,-634.09,M,004.728,N,008.757,K,D*0B
$GPGGA,092112.95,5702.9134886,N,00949.4692851,E,2,4,4.2,-4.548,M,40.592,M,2.9,0123*5F
$GPVTG,005.50,T,-634.40,M,004.693,N,008.692,K,D*03
$GPGGA,092113.00,5702.9135536,N,00949.4692906,E,2,4,4.2,-4.546,M,40.592,M,2.9,0123*58
$GPVTG,005.40,T,-634.50,M,004.689,N,008.685,K,D*0E
$GPGGA,092113.05,5702.9136201,N,00949.4693056,E,2,4,4.2,-4.539,M,40.592,M,1.7,0123*55
$GPVTG,006.70,T,-633.20,M,004.676,N,008.660,K,D*05
$GPGGA,092113.10,5702.9136820,N,00949.4693172,E,2,4,4.2,-4.535,M,40.592,M,1.7,0123*53
$GPVTG,007.07,T,-632.83,M,004.655,N,008.621,K,D*08
$GPGGA,092113.15,5702.9137474,N,00949.4693366,E,2,4,4.2,-4.533,M,40.592,M,1.7,0123*5B
$GPVTG,008.23,T,-631.67,M,004.671,N,008.651,K,D*09
$GPGGA,092113.20,5702.9138107,N,00949.4693480,E,2,4,4.2,-4.529,M,40.592,M,1.7,0123*57
$GPVTG,008.18,T,-631.72,M,004.658,N,008.627,K,D*0F
$GPGGA,092113.25,5702.9138832,N,00949.4693605,E,2,4,4.2,-4.532,M,40.592,M,2.0,0123*5C
$GPVTG,008.57,T,-631.33,M,004.649,N,008.611,K,D*04
$GPGGA,092113.30,5702.9139470,N,00949.4693779,E,2,4,4.2,-4.533,M,40.592,M,2.0,0123*58
$GPVTG,009.06,T,-630.84,M,004.649,N,008.609,K,D*05
$GPGGA,092113.35,5702.9140058,N,00949.4694023,E,2,4,4.2,-4.536,M,40.592,M,2.0,0123*57
$GPVTG,010.36,T,-629.54,M,004.624,N,008.563,K,D*0F
$GPGGA,092113.40,5702.9140652,N,00949.4694262,E,2,4,4.2,-4.534,M,40.592,M,2.0,0123*5C
$GPVTG,011.36,T,-628.54,M,004.603,N,008.525,K,D*08
$GPGGA,092113.45,5702.9141213,N,00949.4694448,E,2,4,4.2,-4.526,M,40.592,M,2.2,0123*56
$GPVTG,011.52,T,-628.38,M,004.579,N,008.481,K,D*01
$GPGGA,092113.50,5702.9141829,N,00949.4694746,E,2,4,4.2,-4.526,M,40.592,M,2.2,0123*5C
$GPVTG,012.90,T,-627.00,M,004.588,N,008.497,K,D*01
$GPGGA,092113.55,5702.9142465,N,00949.4694965,E,2,4,4.2,-4.530,M,40.592,M,2.2,0123*56
$GPVTG,013.01,T,-626.89,M,004.590,N,008.500,K,D*0E
$GPGGA,092113.60,5702.9143026,N,00949.4695255,E,2,4,4.2,-4.532,M,40.592,M,2.2,0123*59
$GPVTG,014.05,T,-625.85,M,004.555,N,008.437,K,D*0E
$GPGGA,092113.65,5702.9143636,N,00949.4695541,E,2,4,4.2,-4.521,M,40.592,M,2.4,0123*5D
$GPVTG,014.82,T,-625.08,M,004.564,N,008.452,K,D*05
$GPGGA,092113.70,5702.9144281,N,00949.4695824,E,2,4,4.2,-4.520,M,40.592,M,2.4,0123*59
$GPVTG,015.20,T,-624.70,M,004.584,N,008.489,K,D*0A
$GPGGA,092113.75,5702.9144878,N,00949.4696238,E,1,3,4.2,-4.523,M,40.592,M,,*7B
$GPVTG,,T,,M,,N,,K,A*23
$GPGGA,092113.80,5702.9143891,N,00949.4696366,E,1,3,4.2,-4.531,M,40.592,M,,*78
$GPVTG,,T,,M,,N,,K,A*23
$GPGGA,092113.85,5702.9145027,N,00949.4697097,E,1,3,4.2,-4.523,M,40.592,M,,*71
$GPVTG,021.63,T,-618.27,M,003.827,N,007.088,K,A*0B
$GPGGA,092113.90,5702.9145527,N,00949.4697457,E,1,3,4.2,-4.521,M,40.592,M,,*7A
$GPVTG,021.46,T,-618.44,M,003.872,N,007.171,K,A*0E
$GPGGA,092113.95,5702.9146030,N,00949.4697802,E,1,3,4.2,-4.520,M,40.592,M,,*72
$GPVTG,020.10,T,-619.80,M,003.872,N,007.171,K,A*05
$GPGGA,092114.00,5702.9146527,N,00949.4698262,E,1,3,4.2,-4.519,M,40.592,M,,*73
$GPVTG,026.83,T,-613.07,M,004.029,N,007.461,K,A*09
$GPGGA,092114.05,5702.9146241,N,00949.4698795,E,1,3,4.2,-4.500,M,40.592,M,,*74
$GPVTG,032.93,T,-606.97,M,003.407,N,006.309,K,A*07
$GPGGA,092114.10,5702.9146636,N,00949.4699251,E,1,3,4.2,-4.492,M,40.592,M,,*72
$GPVTG,035.33,T,-604.57,M,003.284,N,006.083,K,A*08
$GPGGA,092114.15,5702.9147012,N,00949.4699666,E,1,3,4.2,-4.487,M,40.592,M,,*72
$GPVTG,035.81,T,-604.09,M,003.116,N,005.771,K,A*0B
$GPGGA,092114.20,5702.9147362,N,00949.4700144,E,1,3,4.2,-4.483,M,40.592,M,,*72
$GPVTG,,T,,M,,N,,K,A*23
$GPGGA,092114.25,5702.9147824,N,00949.4700559,E,1,3,4.2,-4.480,M,40.592,M,,*75
$GPVTG,040.25,T,-599.65,M,002.984,N,005.526,K,A*08
$GPGGA,092114.30,5702.9148139,N,00949.4701097,E,1,3,4.2,-4.477,M,40.592,M,,*75
$GPVTG,043.96,T,-595.94,M,002.957,N,005.477,K,A*0A
$GPGGA,092114.35,5702.9148433,N,00949.4701591,E,1,3,4.2,-4.475,M,40.592,M,,*7E
$GPVTG,046.29,T,-593.61,M,002.864,N,005.305,K,A*04
$GPGGA,092114.40,5702.9148712,N,00949.4702083,E,1,3,4.2,-4.474,M,40.592,M,,*78
$GPVTG,,T,,M,,N,,K,A*23
$GPGGA,092114.45,5702.9149527,N,00949.4702468,E,1,3,4.2,-4.466,M,40.592,M,,*7A
$GPVTG,046.22,T,-593.68,M,002.839,N,005.257,K,A*08
$GPGGA,092114.50,5702.9149799,N,00949.4703001,E,1,3,4.2,-4.467,M,40.592,M,,*72
$GPVTG,048.67,T,-591.23,M,002.799,N,005.184,K,A*02
$GPGGA,092114.55,5702.9150060,N,00949.4703551,E,1,3,4.2,-4.468,M,40.592,M,,*71
$GPVTG,051.11,T,-588.79,M,002.773,N,005.135,K,A*02
$GPGGA,092114.60,5702.9150307,N,00949.4704164,E,1,3,4.2,-4.468,M,40.592,M,,*70
$GPVTG,,T,,M,,N,,K,A*23
$GPGGA,092114.65,5702.9151560,N,00949.4704601,E,1,3,4.2,-4.459,M,40.592,M,,*75
$GPVTG,050.42,T,-589.48,M,002.969,N,005.499,K,A*00
$GPGGA,092114.70,5702.9151825,N,00949.4705160,E,1,3,4.2,-4.461,M,40.592,M,,*77
$GPVTG,051.92,T,-587.98,M,002.939,N,005.444,K,A*0A
$GPGGA,092114.75,5702.9152081,N,00949.4705738,E,1,3,4.2,-4.462,M,40.592,M,,*7F
$GPVTG,053.51,T,-586.39,M,002.921,N,005.410,K,A*05
$GPGGA,092114.80,5702.9152323,N,00949.4706372,E,1,3,4.2,-4.465,M,40.592,M,,*70
$GPVTG,,T,,M,,N,,K,A*23
$GPGGA,092114.85,5702.9153303,N,00949.4706899,E,1,3,4.2,-4.453,M,40.592,M,,*7D
$GPVTG,052.78,T,-587.12,M,003.083,N,005.711,K,A*05
$GPGGA,092114.90,5702.9153572,N,00949.4707507,E,1,3,4.2,-4.453,M,40.592,M,,*72
$GPVTG,053.85,T,-586.05,M,003.080,N,005.703,K,A*01
$GPGGA,092114.95,5702.9153826,N,00949.4708162,E,1,3,4.2,-4.454,M,40.592,M,,*74
$GPVTG,055.36,T,-584.54,M,003.094,N,005.730,K,A*0C
$GPGGA,092115.00,5702.9154060,N,00949.4708845,E,1,3,4.2,-4.459,M,40.592,M,,*75
$GPVTG,,T,,M,,N,,K,A*23
$GPGGA,092115.05,5702.9154436,N,00949.4709491,E,1,3,4.2,-4.450,M,40.592,M,,*7A
$GPVTG,056.30,T,-583.60,M,003.180,N,005.890,K,A*08
$GPGGA,092115.10,5702.9154687,N,00949.4710151,E,1,3,4.2,-4.451,M,40.592,M,,*76
$GPVTG,057.36,T,-582.54,M,003.185,N,005.899,K,A*05
$GPGGA,092115.15,5702.9154929,N,00949.4710861,E,1,3,4.2,-4.450,M,40.592,M,,*73
$GPVTG,058.67,T,-581.23,M,003.210,N,005.946,K,A*01
$GPGGA,092115.20,5702.9155172,N,00949.4711510,E,1,3,4.2,-4.451,M,40.592,M,,*79
$GPVTG,,T,,M,,N,,K,A*23
$GPGGA,092115.25,5702.9156539,N,00949.4712013,E,2,4,4.2,-4.431,M,40.592,M,3.0,0123*5E
$GPVTG,055.43,T,-584.47,M,003.373,N,006.246,K,D*04
$GPGGA,092115.30,5702.9156807,N,00949.4712753,E,2,4,4.2,-4.431,M,40.592,M,3.0,0123*59
$GPVTG,056.37,T,-583.53,M,003.403,N,006.302,K,D*07
$GPGGA,092115.35,5702.9157077,N,00949.4713445,E,2,4,4.2,-4.428,M,40.592,M,3.0,0123*5F
$GPVTG,056.94,T,-582.96,M,003.418,N,006.330,K,D*0D
$GPGGA,092115.40,5702.9157337,N,00949.4714163,E,2,4,4.2,-4.425,M,40.592,M,3.0,0123*51
$GPVTG,057.73,T,-582.17,M,003.432,N,006.356,K,D*04
$GPGGA,092115.45,5702.9159195,N,00949.4714564,E,2,4,4.2,-4.439,M,40.592,M,3.2,0123*5C
$GPVTG,052.73,T,-587.17,M,003.635,N,006.733,K,D*06
$GPGGA,092115.50,5702.9159503,N,00949.4715327,E,2,4,4.2,-4.443,M,40.592,M,3.2,0123*5E
$GPVTG,053.40,T,-586.50,M,003.676,N,006.808,K,D*05
$GPGGA,092115.55,5702.9159832,N,00949.4715986,E,2,4,4.2,-4.442,M,40.592,M,3.2,0123*54
$GPVTG,052.85,T,-587.05,M,003.667,N,006.791,K,D*03
$GPGGA,092115.60,5702.9160156,N,00949.4716737,E,2,4,4.2,-4.446,M,40.592,M,3.2,0123*50
$GPVTG,053.13,T,-586.77,M,003.703,N,006.858,K,D*00
$GPGGA,092115.65,5702.9162202,N,00949.4717234,E,2,4,4.2,-4.445,M,40.592,M,3.4,0123*57
$GPVTG,052.62,T,-587.28,M,003.785,N,007.010,K,D*07
$GPGGA,092115.70,5702.9162518,N,00949.4718018,E,2,4,4.2,-4.450,M,40.592,M,3.4,0123*58
$GPVTG,053.19,T,-586.71,M,003.816,N,007.068,K,D*0D
$GPGGA,092115.75,5702.9162822,N,00949.4718804,E,2,4,4.2,-4.452,M,40.592,M,3.4,0123*5E
$GPVTG,053.82,T,-586.08,M,003.836,N,007.105,K,D*09
$GPGGA,092115.80,5702.9163148,N,00949.4719562,E,2,4,4.2,-4.454,M,40.592,M,3.4,0123*5A
$GPVTG,053.97,T,-585.93,M,003.852,N,007.134,K,D*0C
$GPGGA,092115.85,5702.9165004,N,00949.4720056,E,2,4,4.2,-4.468,M,40.592,M,3.6,0123*55
$GPVTG,054.42,T,-585.48,M,003.838,N,007.109,K,D*07
$GPGGA,092115.90,5702.9165315,N,00949.4720868,E,2,4,4.2,-4.471,M,40.592,M,3.6,0123*5F
$GPVTG,054.90,T,-585.00,M,003.869,N,007.165,K,D*0A
$GPGGA,092115.95,5702.9165623,N,00949.4721643,E,1,3,4.2,-4.474,M,40.592,M,,*76
$GPVTG,055.19,T,-584.71,M,003.878,N,007.182,K,A*01
$GPGGA,092116.00,5702.9165929,N,00949.4722451,E,1,3,4.2,-4.478,M,40.592,M,,*72
$GPVTG,055.59,T,-584.31,M,003.898,N,007.219,K,A*0E
$GPGGA,092116.05,5702.9165873,N,00949.4723320,E,2,4,4.2,-4.461,M,40.592,M,1.9,0123*53
$GPVTG,056.43,T,-583.47,M,003.917,N,007.255,K,D*0B
$GPGGA,092116.10,5702.9166173,N,00949.4724093,E,1,3,4.2,-4.460,M,40.592,M,,*72
$GPVTG,056.63,T,-583.27,M,003.917,N,007.254,K,A*0B
$GPGGA,092116.15,5702.9166470,N,00949.4724906,E,1,3,4.2,-4.464,M,40.592,M,,*70
$GPVTG,056.96,T,-582.94,M,003.929,N,007.277,K,A*04
$GPGGA,092116.20,5702.9166768,N,00949.4725726,E,1,3,4.2,-4.464,M,40.592,M,,*71
$GPVTG,057.29,T,-582.61,M,003.943,N,007.302,K,A*04
$GPGGA,092116.25,5702.9166898,N,00949.4726569,E,2,4,4.2,-4.447,M,40.592,M,2.2,0123*55
$GPVTG,058.00,T,-581.90,M,003.952,N,007.319,K,D*02
$GPGGA,092116.30,5702.9167182,N,00949.4727444,E,2,4,4.2,-4.445,M,40.592,M,2.2,0123*5F
$GPVTG,058.49,T,-581.41,M,003.979,N,007.369,K,D*0D
$GPGGA,092116.35,5702.9167470,N,00949.4728274,E,2,4,4.2,-4.446,M,40.592,M,2.2,0123*5B
$GPVTG,058.77,T,-581.13,M,003.986,N,007.382,K,D*02
$GPGGA,092116.40,5702.9167746,N,00949.4729089,E,2,4,4.2,-4.445,M,40.592,M,2.2,0123*5D
$GPVTG,059.01,T,-580.89,M,003.983,N,007.376,K,D*0E
$GPGGA,092116.45,5702.9167785,N,00949.4729945,E,2,4,4.2,-4.446,M,40.592,M,2.4,0123*5B
$GPVTG,059.71,T,-580.19,M,003.980,N,007.371,K,D*04
$GPGGA,092116.50,5702.9168055,N,00949.4730777,E,2,4,4.2,-4.450,M,40.592,M,2.4,0123*5A
$GPVTG,059.98,T,-579.92,M,003.978,N,007.367,K,D*06
$GPGGA,092116.55,5702.9168331,N,00949.4731663,E,2,4,4.2,-4.457,M,40.592,M,2.4,0123*5C
$GPVTG,060.38,T,-579.52,M,003.998,N,007.405,K,D*07
$GPGGA,092116.60,5702.9168598,N,00949.4732523,E,2,4,4.2,-4.458,M,40.592,M,2.4,0123*54
$GPVTG,060.70,T,-579.20,M,004.003,N,007.414,K,D*02
$GPGGA,092116.65,5702.9170234,N,00949.4733114,E,2,4,4.2,-4.446,M,40.592,M,2.7,0123*54
$GPVTG,063.62,T,-576.28,M,003.886,N,007.197,K,D*09
$GPGGA,092116.70,5702.9170463,N,00949.4733998,E,2,4,4.2,-4.445,M,40.592,M,2.7,0123*5B
$GPVTG,064.20,T,-575.70,M,003.892,N,007.207,K,D*09
$GPGGA,092116.75,5702.9170679,N,00949.4734855,E,2,4,4.2,-4.441,M,40.592,M,2.7,0123*54
$GPVTG,064.74,T,-575.16,M,003.879,N,007.184,K,D*05
$GPGGA,092116.80,5702.9170890,N,00949.4735696,E,2,4,4.2,-4.435,M,40.592,M,2.7,0123*54
$GPVTG,065.21,T,-574.69,M,003.858,N,007.145,K,D*03
$GPGGA,092116.85,5702.9172851,N,00949.4736237,E,2,4,4.2,-4.469,M,40.592,M,2.9,0123*55
$GPVTG,067.09,T,-572.81,M,003.815,N,007.065,K,D*01
$GPGGA,092116.90,5702.9173049,N,00949.4737130,E,2,4,4.2,-4.474,M,40.592,M,2.9,0123*58
$GPVTG,067.66,T,-572.24,M,003.820,N,007.075,K,D*00
$GPGGA,092116.95,5702.9173228,N,00949.4738002,E,2,4,4.2,-4.479,M,40.592,M,2.9,0123*5A
$GPVTG,068.29,T,-571.61,M,003.809,N,007.054,K,D*0E
$GPGGA,092117.00,5702.9173409,N,00949.4738851,E,2,4,4.2,-4.483,M,40.592,M,2.9,0123*59
$GPVTG,068.76,T,-571.14,M,003.788,N,007.015,K,D*05
$GPGGA,092117.05,5702.9175400,N,00949.4739401,E,2,4,4.2,-4.497,M,40.592,M,1.7,0123*53
$GPVTG,070.41,T,-569.49,M,003.741,N,006.928,K,D*0A
$GPGGA,092117.10,5702.9175559,N,00949.4740296,E,2,4,4.2,-4.499,M,40.592,M,1.7,0123*52
$GPVTG,071.09,T,-568.81,M,003.741,N,006.928,K,D*02
$GPGGA,092117.15,5702.9175701,N,00949.4741108,E,2,4,4.2,-4.502,M,40.592,M,1.7,0123*5E
$GPVTG,071.64,T,-568.26,M,003.696,N,006.845,K,D*05
$GPGGA,092117.20,5702.9175847,N,00949.4741942,E,2,4,4.2,-4.506,M,40.592,M,1.7,0123*57
$GPVTG,072.14,T,-567.76,M,003.666,N,006.790,K,D*03
$GPGGA,092117.25,5702.9177746,N,00949.4742497,E,2,4,4.2,-4.521,M,40.592,M,2.0,0123*59
$GPVTG,073.70,T,-566.20,M,003.641,N,006.743,K,D*09
$GPGGA,092117.30,5702.9177881,N,00949.4743378,E,2,4,4.2,-4.525,M,40.592,M,2.0,0123*5A
$GPVTG,074.31,T,-565.59,M,003.637,N,006.735,K,D*06
$GPGGA,092117.35,5702.9177993,N,00949.4744251,E,2,4,4.2,-4.532,M,40.592,M,2.0,0123*56
$GPVTG,075.05,T,-564.85,M,003.624,N,006.713,K,D*06
$GPGGA,092117.40,5702.9178093,N,00949.4745059,E,2,4,4.2,-4.535,M,40.592,M,2.0,0123*5E
$GPVTG,075.69,T,-564.21,M,003.579,N,006.628,K,D*00
$GPGGA,092117.45,5702.9179856,N,00949.4745608,E,2,4,4.2,-4.551,M,40.592,M,2.2,0123*59
$GPVTG,077.32,T,-562.58,M,003.538,N,006.552,K,D*0F
$GPGGA,092117.50,5702.9179940,N,00949.4746462,E,2,4,4.2,-4.556,M,40.592,M,2.2,0123*51
$GPVTG,078.12,T,-561.78,M,003.519,N,006.518,K,D*0E
$GPGGA,092117.55,5702.9180030,N,00949.4747366,E,2,4,4.2,-4.562,M,40.592,M,2.2,0123*59
$GPVTG,078.87,T,-561.03,M,003.529,N,006.537,K,D*00
$GPGGA,092117.60,5702.9180098,N,00949.4748211,E,2,4,4.2,-4.571,M,40.592,M,2.2,0123*51
$GPVTG,079.66,T,-560.24,M,003.507,N,006.494,K,D*0E
$GPGGA,092117.65,5702.9181574,N,00949.4748811,E,2,4,4.2,-4.577,M,40.592,M,2.4,0123*58
$GPVTG,081.69,T,-558.21,M,003.477,N,006.439,K,D*09
$GPGGA,092117.70,5702.9181620,N,00949.4749618,E,2,4,4.2,-4.581,M,40.592,M,2.4,0123*51
$GPVTG,082.53,T,-557.37,M,003.436,N,006.363,K,D*06
$GPGGA,092117.75,5702.9181658,N,00949.4750473,E,2,4,4.2,-4.583,M,40.592,M,2.4,0123*5E
$GPVTG,083.42,T,-556.48,M,003.424,N,006.342,K,D*0E
$GPGGA,092117.80,5702.9181708,N,00949.4751390,E,2,4,4.2,-4.584,M,40.592,M,2.4,0123*5C
$GPVTG,084.21,T,-555.69,M,003.447,N,006.385,K,D*02
$GPGGA,092117.85,5702.9183162,N,00949.4751955,E,2,4,4.2,-4.645,M,40.592,M,2.7,0123*5F
$GPVTG,085.68,T,-554.22,M,003.433,N,006.357,K,D*0C
$GPGGA,092117.90,5702.9183176,N,00949.4752744,E,2,4,4.2,-4.656,M,40.592,M,2.7,0123*51
$GPVTG,086.60,T,-553.30,M,003.408,N,006.312,K,D*0A
$GPGGA,092117.95,5702.9183191,N,00949.4753557,E,2,4,4.2,-4.672,M,40.592,M,2.7,0123*5A
$GPVTG,087.44,T,-552.46,M,003.391,N,006.279,K,D*06
$GPGGA,092118.00,5702.9183192,N,00949.4754385,E,2,4,4.2,-4.688,M,40.592,M,2.7,0123*51
$GPVTG,088.35,T,-551.55,M,003.378,N,006.256,K,D*04
$GPGGA,092118.05,5702.9184112,N,00949.4755007,E,2,4,4.2,-4.665,M,40.592,M,1.6,0123*52
$GPVTG,090.26,T,-549.64,M,003.348,N,006.200,K,D*04
$GPGGA,092118.10,5702.9184094,N,00949.4755831,E,2,4,4.2,-4.670,M,40.592,M,1.6,0123*50
$GPVTG,091.22,T,-548.68,M,003.328,N,006.164,K,D*0B
$GPGGA,092118.15,5702.9184066,N,00949.4756616,E,2,4,4.2,-4.676,M,40.592,M,1.6,0123*56
$GPVTG,092.22,T,-547.68,M,003.289,N,006.090,K,D*07
$GPGGA,092118.20,5702.9184019,N,00949.4757441,E,2,4,4.2,-4.683,M,40.592,M,1.6,0123*53
$GPVTG,093.29,T,-546.61,M,003.279,N,006.073,K,D*07
$GPGGA,092118.25,5702.9184952,N,00949.4758011,E,2,4,4.2,-4.690,M,40.592,M,1.9,0123*53
$GPVTG,095.15,T,-544.75,M,003.241,N,006.003,K,D*05
$GPGGA,092118.30,5702.9184881,N,00949.4758798,E,2,4,4.2,-4.695,M,40.592,M,1.9,0123*5B
$GPVTG,096.37,T,-543.53,M,003.220,N,005.963,K,D*0E
$GPGGA,092118.35,5702.9184807,N,00949.4759585,E,2,4,4.2,-4.700,M,40.592,M,1.9,0123*52
$GPVTG,097.53,T,-542.37,M,003.202,N,005.931,K,D*09
$GPGGA,092118.40,5702.9184738,N,00949.4760361,E,2,4,4.2,-4.705,M,40.592,M,1.9,0123*50
$GPVTG,098.58,T,-541.32,M,003.183,N,005.894,K,D*0F
$GPGGA,092118.45,5702.9185400,N,00949.4760965,E,2,4,4.2,-4.707,M,40.592,M,2.1,0123*5B
$GPVTG,100.63,T,-539.27,M,003.173,N,005.876,K,D*0F
$GPGGA,092118.50,5702.9185317,N,00949.4761775,E,2,4,4.2,-4.711,M,40.592,M,2.1,0123*57
$GPVTG,101.59,T,-538.31,M,003.179,N,005.888,K,D*0A
$GPGGA,092118.55,5702.9185198,N,00949.4762503,E,2,4,4.2,-4.720,M,40.592,M,2.1,0123*55
$GPVTG,102.96,T,-536.94,M,003.149,N,005.831,K,D*0A
$GPGGA,092118.60,5702.9185087,N,00949.4763320,E,2,4,4.2,-4.727,M,40.592,M,2.1,0123*5D
$GPVTG,103.98,T,-535.92,M,003.167,N,005.866,K,D*0E
$GPGGA,092118.65,5702.9185655,N,00949.4763870,E,2,4,4.2,-4.727,M,40.592,M,2.3,0123*5D
$GPVTG,106.15,T,-533.75,M,003.132,N,005.800,K,D*01
$GPGGA,092118.70,5702.9185505,N,00949.4764519,E,2,4,4.2,-4.731,M,40.592,M,2.3,0123*5D
$GPVTG,107.81,T,-532.09,M,003.079,N,005.702,K,D*04
$GPGGA,092118.75,5702.9185363,N,00949.4765250,E,2,4,4.2,-4.735,M,40.592,M,2.3,0123*51
$GPVTG,109.06,T,-530.84,M,003.073,N,005.690,K,D*02
$GPGGA,092118.80,5702.9185196,N,00949.4765991,E,2,4,4.2,-4.739,M,40.592,M,2.3,0123*59
$GPVTG,110.37,T,-529.53,M,003.078,N,005.701,K,D*08
$GPGGA,092118.85,5702.9185592,N,00949.4766546,E,2,4,4.2,-4.739,M,40.592,M,2.6,0123*5C
$GPVTG,112.51,T,-527.39,M,003.089,N,005.720,K,D*05
$GPGGA,092118.90,5702.9185407,N,00949.4767209,E,2,4,4.2,-4.741,M,40.592,M,2.6,0123*57
$GPVTG,114.09,T,-525.81,M,003.067,N,005.680,K,D*04
$GPGGA,092118.95,5702.9185238,N,00949.4767961,E,2,4,4.2,-4.742,M,40.592,M,2.6,0123*5E
$GPVTG,115.06,T,-524.84,M,003.088,N,005.720,K,D*04
$GPGGA,092119.00,5702.9185042,N,00949.4768674,E,2,4,4.2,-4.746,M,40.592,M,2.6,0123*5C
$GPVTG,116.31,T,-523.59,M,003.098,N,005.737,K,D*03
$GPGGA,092119.05,5702.9185441,N,00949.4769186,E,2,4,4.2,-4.768,M,40.592,M,2.8,0123*57
$GPVTG,118.33,T,-521.57,M,003.086,N,005.716,K,D*0F
$GPGGA,092119.10,5702.9185207,N,00949.4769798,E,2,4,4.2,-4.778,M,40.592,M,2.8,0123*5F
$GPVTG,120.15,T,-519.75,M,003.068,N,005.681,K,D*04
$GPGGA,092119.15,5702.9184990,N,00949.4770443,E,2,4,4.2,-4.787,M,40.592,M,2.8,0123*53
$GPVTG,121.53,T,-518.37,M,003.064,N,005.674,K,D*06
$GPGGA,092119.20,5702.9184763,N,00949.4771075,E,2,4,4.2,-4.794,M,40.592,M,2.8,0123*55
$GPVTG,122.95,T,-516.95,M,003.060,N,005.668,K,D*00
$GPGGA,092119.25,5702.9184847,N,00949.4771606,E,2,4,4.2,-4.773,M,40.592,M,3.0,0123*5B
$GPVTG,125.06,T,-514.84,M,003.089,N,005.721,K,D*04
$GPGGA,092119.30,5702.9184595,N,00949.4772222,E,2,4,4.2,-4.777,M,40.592,M,3.0,0123*58
$GPVTG,126.50,T,-513.40,M,003.092,N,005.727,K,D*07
$GPGGA,092119.35,5702.9184332,N,00949.4772843,E,2,4,4.2,-4.778,M,40.592,M,3.0,0123*54
$GPVTG,127.85,T,-512.05,M,003.104,N,005.750,K,D*00
$GPGGA,092119.40,5702.9184038,N,00949.4773431,E,2,4,4.2,-4.780,M,40.592,M,3.0,0123*50
$GPVTG,129.48,T,-510.42,M,003.114,N,005.768,K,D*04
$GPGGA,092119.45,5702.9184254,N,00949.4773872,E,2,4,4.2,-4.808,M,40.592,M,3.2,0123*5B
$GPVTG,131.31,T,-508.59,M,003.124,N,005.786,K,D*03
$GPGGA,092119.50,5702.9183950,N,00949.4774466,E,2,4,4.2,-4.814,M,40.592,M,3.2,0123*54
$GPVTG,132.70,T,-507.20,M,003.148,N,005.830,K,D*0C
$GPGGA,092119.55,5702.9183646,N,00949.4774981,E,2,4,4.2,-4.817,M,40.592,M,3.2,0123*5E
$GPVTG,134.46,T,-505.44,M,003.144,N,005.823,K,D*01
$GPGGA,092119.60,5702.9183330,N,00949.4775501,E,2,4,4.2,-4.819,M,40.592,M,3.2,0123*57
$GPVTG,136.10,T,-503.80,M,003.150,N,005.834,K,D*0D
$GPGGA,092119.65,5702.9183366,N,00949.4775921,E,2,4,4.2,-4.810,M,40.592,M,3.4,0123*50
$GPVTG,137.89,T,-502.01,M,003.174,N,005.878,K,D*0A
$GPGGA,092119.70,5702.9183040,N,00949.4776452,E,2,4,4.2,-4.813,M,40.592,M,3.4,0123*5A
$GPVTG,139.22,T,-500.68,M,003.194,N,005.915,K,D*0C
$GPGGA,092119.75,5702.9182699,N,00949.4776976,E,2,4,4.2,-4.815,M,40.592,M,3.4,0123*51
$GPVTG,140.53,T,-499.37,M,003.219,N,005.962,K,D*09
$GPGGA,092119.80,5702.9182323,N,00949.4777482,E,2,4,4.2,-4.817,M,40.592,M,3.4,0123*5A
$GPVTG,142.00,T,-497.90,M,003.252,N,006.023,K,D*0E
$GPGGA,092119.85,5702.9182339,N,00949.4777876,E,2,4,4.2,-4.829,M,40.592,M,3.6,0123*5C
$GPVTG,143.49,T,-496.41,M,003.280,N,006.074,K,D*02
$GPGGA,092119.90,5702.9181970,N,00949.4778323,E,2,4,4.2,-4.831,M,40.592,M,3.6,0123*51
$GPVTG,145.05,T,-494.85,M,003.297,N,006.105,K,D*07
$GPGGA,092119.95,5702.9181595,N,00949.4778757,E,2,4,4.2,-4.837,M,40.592,M,3.6,0123*52
$GPVTG,146.58,T,-493.32,M,003.316,N,006.140,K,D*0E
$GPGGA,092120.00,5702.9181203,N,00949.4779226,E,2,4,4.2,-4.836,M,40.592,M,3.6,0123*5F
$GPVTG,147.77,T,-492.13,M,003.352,N,006.208,K,D*0F
$GPGGA,092120.05,5702.9181287,N,00949.4779527,E,2,4,4.2,-4.827,M,40.592,M,1.9,0123*5D
$GPVTG,149.26,T,-490.64,M,003.364,N,006.231,K,D*08
$GPGGA,092120.10,5702.9180889,N,00949.4779973,E,2,4,4.2,-4.832,M,40.592,M,1.9,0123*55
$GPVTG,150.34,T,-489.56,M,003.400,N,006.296,K,D*02
$GPGGA,092120.15,5702.9180480,N,00949.4780385,E,2,4,4.2,-4.834,M,40.592,M,1.9,0123*56
$GPVTG,151.58,T,-488.32,M,003.432,N,006.356,K,D*06
$GPGGA,092120.20,5702.9180068,N,00949.4780773,E,2,4,4.2,-4.836,M,40.592,M,1.9,0123*5D
$GPVTG,152.88,T,-487.02,M,003.461,N,006.409,K,D*0F
$GPGGA,092120.25,5702.9180175,N,00949.4781098,E,2,4,4.2,-4.849,M,40.592,M,2.2,0123*56
$GPVTG,153.54,T,-486.36,M,003.480,N,006.445,K,D*0E
$GPGGA,092120.30,5702.9179751,N,00949.4781489,E,2,4,4.2,-4.855,M,40.592,M,2.2,0123*5D
$GPVTG,154.59,T,-485.31,M,003.514,N,006.508,K,D*04
$GPGGA,092120.35,5702.9179310,N,00949.4781796,E,2,4,4.2,-4.859,M,40.592,M,2.2,0123*58
$GPVTG,156.19,T,-483.71,M,003.539,N,006.553,K,D*01
$GPGGA,092120.40,5702.9178856,N,00949.4782142,E,2,4,4.2,-4.867,M,40.592,M,2.2,0123*53
$GPVTG,157.37,T,-482.53,M,003.578,N,006.626,K,D*09
$GPGGA,092120.45,5702.9178857,N,00949.4782356,E,2,4,4.2,-4.857,M,40.592,M,2.4,0123*55
$GPVTG,158.72,T,-481.18,M,003.591,N,006.650,K,D*0D
$GPGGA,092120.50,5702.9178407,N,00949.4782713,E,2,4,4.2,-4.857,M,40.592,M,2.4,0123*5D
$GPVTG,159.51,T,-480.39,M,003.630,N,006.723,K,D*02
$GPGGA,092120.55,5702.9177934,N,00949.4782927,E,2,4,4.2,-4.857,M,40.592,M,2.4,0123*53
$GPVTG,161.31,T,-478.59,M,003.656,N,006.770,K,D*08
$GPGGA,092120.60,5702.9177459,N,00949.4783207,E,2,4,4.2,-4.862,M,40.592,M,2.4,0123*5D
$GPVTG,162.43,T,-477.47,M,003.695,N,006.843,K,D*0E
$GPGGA,092120.65,5702.9177568,N,00949.4783338,E,2,4,4.2,-4.871,M,40.592,M,2.7,0123*57
$GPVTG,163.41,T,-476.49,M,003.698,N,006.849,K,D*05
$GPGGA,092120.70,5702.9177090,N,00949.4783637,E,2,4,4.2,-4.878,M,40.592,M,2.7,0123*52
$GPVTG,164.13,T,-475.77,M,003.739,N,006.925,K,D*0A
$GPGGA,092120.75,5702.9176592,N,00949.4783824,E,2,4,4.2,-4.883,M,40.592,M,2.7,0123*59
$GPVTG,165.60,T,-474.30,M,003.775,N,006.991,K,D*0A
$GPGGA,092120.80,5702.9176103,N,00949.4784075,E,2,4,4.2,-4.886,M,40.592,M,2.7,0123*51
$GPVTG,166.42,T,-473.48,M,003.815,N,007.065,K,D*0B
$GPGGA,092120.85,5702.9176145,N,00949.4784205,E,2,4,4.2,-4.884,M,40.592,M,2.9,0123*5F
$GPVTG,167.30,T,-472.60,M,003.822,N,007.078,K,D*0C
$GPGGA,092120.90,5702.9175644,N,00949.4784403,E,2,4,4.2,-4.886,M,40.592,M,2.9,0123*5C
$GPVTG,168.28,T,-471.62,M,003.858,N,007.144,K,D*08
$GPGGA,092120.95,5702.9175128,N,00949.4784539,E,2,4,4.2,-4.888,M,40.592,M,2.9,0123*52
$GPVTG,169.61,T,-470.29,M,003.895,N,007.214,K,D*0D
$GPGGA,092121.00,5702.9174600,N,00949.4784659,E,2,4,4.2,-4.894,M,40.592,M,2.9,0123*5B
$GPVTG,170.91,T,-468.99,M,003.937,N,007.291,K,D*0C
$GPGGA,092121.05,5702.9174565,N,00949.4784742,E,2,4,4.2,-4.888,M,40.592,M,1.7,0123*55
$GPVTG,171.50,T,-468.40,M,003.943,N,007.302,K,D*0C
$GPGGA,092121.10,5702.9174046,N,00949.4784933,E,2,4,4.2,-4.894,M,40.592,M,1.7,0123*50
$GPVTG,172.00,T,-467.90,M,003.982,N,007.374,K,D*04
$GPGGA,092121.15,5702.9173500,N,00949.4785013,E,2,4,4.2,-4.897,M,40.592,M,1.7,0123*5C
$GPVTG,173.26,T,-466.64,M,004.026,N,007.455,K,D*0F
$GPGGA,092121.20,5702.9172955,N,00949.4785073,E,2,4,4.2,-4.898,M,40.592,M,1.7,0123*5E
$GPVTG,174.48,T,-465.42,M,004.067,N,007.533,K,D*03
$GPGGA,092121.25,5702.9172958,N,00949.4785087,E,2,4,4.2,-4.898,M,40.592,M,2.0,0123*59
$GPVTG,175.24,T,-464.66,M,004.067,N,007.532,K,D*0E
$GPGGA,092121.30,5702.9172407,N,00949.4785148,E,2,4,4.2,-4.898,M,40.592,M,2.0,0123*58
$GPVTG,176.22,T,-463.68,M,004.109,N,007.609,K,D*00
$GPGGA,092121.35,5702.9171857,N,00949.4785202,E,2,4,4.2,-4.898,M,40.592,M,2.0,0123*5A
$GPVTG,177.09,T,-462.81,M,004.149,N,007.684,K,D*0F
$GPGGA,092121.40,5702.9171305,N,00949.4785228,E,2,4,4.2,-4.901,M,40.592,M,2.0,0123*5D
$GPVTG,178.05,T,-461.85,M,004.188,N,007.757,K,D*09
$GPGGA,092121.45,5702.9171358,N,00949.4785159,E,2,4,4.2,-4.905,M,40.592,M,2.2,0123*53
$GPVTG,178.81,T,-461.09,M,004.168,N,007.720,K,D*0F
$GPGGA,092121.50,5702.9170793,N,00949.4785139,E,2,4,4.2,-4.908,M,40.592,M,2.2,0123*5E
$GPVTG,179.84,T,-460.06,M,004.209,N,007.796,K,D*0C
$GPGGA,092121.55,5702.9170239,N,00949.4785152,E,2,4,4.2,-4.908,M,40.592,M,2.2,0123*53
$GPVTG,180.52,T,-459.38,M,004.244,N,007.861,K,D*08
$GPGGA,092121.60,5702.9169661,N,00949.4785148,E,2,4,4.2,-4.912,M,40.592,M,2.2,0123*54
$GPVTG,181.22,T,-458.68,M,004.289,N,007.943,K,D*0A
$GPGGA,092121.65,5702.9169664,N,00949.4785038,E,2,4,4.2,-4.917,M,40.592,M,2.4,0123*51
$GPVTG,181.98,T,-457.92,M,004.269,N,007.906,K,D*0E
$GPGGA,092121.70,5702.9169081,N,00949.4784972,E,2,4,4.2,-4.918,M,40.592,M,2.4,0123*51
$GPVTG,182.88,T,-457.02,M,004.313,N,007.987,K,D*00
$GPGGA,092121.75,5702.9168511,N,00949.4784917,E,2,4,4.2,-4.921,M,40.592,M,2.4,0123*50
$GPVTG,183.58,T,-456.32,M,004.348,N,008.053,K,D*0F
$GPGGA,092121.80,5702.9167928,N,00949.4784827,E,2,4,4.2,-4.924,M,40.592,M,2.4,0123*54
$GPVTG,184.40,T,-455.50,M,004.389,N,008.128,K,D*06
$GPGGA,092121.85,5702.9167797,N,00949.4784628,E,2,4,4.2,-4.920,M,40.592,M,2.7,0123*5D
$GPVTG,185.43,T,-454.47,M,004.381,N,008.114,K,D*04
$GPGGA,092121.90,5702.9167222,N,00949.4784533,E,2,4,4.2,-4.923,M,40.592,M,2.7,0123*58
$GPVTG,186.06,T,-453.84,M,004.412,N,008.171,K,D*00
$GPGGA,092121.95,5702.9166636,N,00949.4784408,E,2,4,4.2,-4.930,M,40.592,M,2.7,0123*56
$GPVTG,186.77,T,-453.13,M,004.449,N,008.240,K,D*07
$GPGGA,092122.00,5702.9166039,N,00949.4784247,E,2,4,4.2,-4.934,M,40.592,M,2.7,0123*59
$GPVTG,187.60,T,-452.30,M,004.492,N,008.320,K,D*01
$GPGGA,092122.05,5702.9165933,N,00949.4783973,E,2,4,4.2,-4.927,M,40.592,M,1.6,0123*57
$GPVTG,188.67,T,-451.23,M,004.480,N,008.297,K,D*06
$GPGGA,092122.10,5702.9165337,N,00949.4783816,E,2,4,4.2,-4.932,M,40.592,M,1.6,0123*5B
$GPVTG,189.24,T,-450.66,M,004.516,N,008.364,K,D*03
$GPGGA,092122.15,5702.9164737,N,00949.4783688,E,2,4,4.2,-4.938,M,40.592,M,1.6,0123*58
$GPVTG,189.54,T,-450.36,M,004.551,N,008.428,K,D*0D
$GPGGA,092122.20,5702.9164134,N,00949.4783484,E,2,4,4.2,-4.942,M,40.592,M,1.6,0123*58
$GPVTG,190.23,T,-449.67,M,004.590,N,008.501,K,D*0E
$GPGGA,092122.25,5702.9163873,N,00949.4783193,E,2,4,4.2,-4.928,M,40.592,M,1.9,0123*50
$GPVTG,191.08,T,-448.82,M,004.628,N,008.571,K,D*0B
$GPGGA,092122.30,5702.9163328,N,00949.4782934,E,2,4,4.2,-4.929,M,40.592,M,1.9,0123*54
$GPVTG,191.89,T,-448.01,M,004.661,N,008.633,K,D*01
$GPGGA,092122.35,5702.9162752,N,00949.4782689,E,2,4,4.2,-4.932,M,40.592,M,1.9,0123*5A
$GPVTG,192.52,T,-447.38,M,004.697,N,008.699,K,D*08
$GPGGA,092122.40,5702.9162183,N,00949.4782400,E,2,4,4.2,-4.929,M,40.592,M,1.9,0123*5B
$GPVTG,193.31,T,-446.59,M,004.733,N,008.765,K,D*07
$GPGGA,092122.45,5702.9161948,N,00949.4781998,E,2,4,4.2,-4.937,M,40.592,M,2.1,0123*59
$GPVTG,194.41,T,-445.49,M,004.760,N,008.815,K,D*0B
$GPGGA,092122.50,5702.9161378,N,00949.4781620,E,2,4,4.2,-4.940,M,40.592,M,2.1,0123*58
$GPVTG,195.64,T,-444.26,M,004.802,N,008.893,K,D*00
$GPGGA,092122.55,5702.9160838,N,00949.4781349,E,2,4,4.2,-4.946,M,40.592,M,2.1,0123*5F
$GPVTG,195.91,T,-443.99,M,004.809,N,008.906,K,D*0F
$GPGGA,092122.60,5702.9160242,N,00949.4780987,E,2,4,4.2,-4.950,M,40.592,M,2.1,0123*50
$GPVTG,196.76,T,-443.14,M,004.846,N,008.974,K,D*0E
$GPGGA,092122.65,5702.9159812,N,00949.4780611,E,2,4,4.2,-4.932,M,40.592,M,2.3,0123*56
$GPVTG,197.50,T,-442.40,M,004.864,N,009.008,K,D*08
$GPGGA,092122.70,5702.9159295,N,00949.4780252,E,2,4,4.2,-4.933,M,40.592,M,2.3,0123*55
$GPVTG,198.12,T,-441.78,M,004.854,N,008.990,K,D*03
$GPGGA,092122.75,5702.9158751,N,00949.4779867,E,2,4,4.2,-4.938,M,40.592,M,2.3,0123*5D
$GPVTG,198.83,T,-441.07,M,004.855,N,008.991,K,D*03
$GPGGA,092122.80,5702.9158165,N,00949.4779387,E,2,4,4.2,-4.940,M,40.592,M,2.3,0123*5C
$GPVTG,200.34,T,-439.56,M,004.896,N,009.067,K,D*08
$GPGGA,092122.85,5702.9157782,N,00949.4778831,E,2,4,4.2,-4.944,M,40.592,M,2.6,0123*5F
$GPVTG,202.13,T,-437.77,M,004.931,N,009.133,K,D*0E
$GPGGA,092122.90,5702.9157207,N,00949.4778404,E,2,4,4.2,-4.947,M,40.592,M,2.6,0123*5A
$GPVTG,202.50,T,-437.40,M,004.926,N,009.122,K,D*0B
$GPGGA,092122.95,5702.9156696,N,00949.4777980,E,2,4,4.2,-4.948,M,40.592,M,2.6,0123*53
$GPVTG,202.87,T,-437.03,M,004.876,N,009.030,K,D*00
$GPGGA,092123.00,5702.9156173,N,00949.4777459,E,2,4,4.2,-4.951,M,40.592,M,2.6,0123*53
$GPVTG,204.19,T,-435.71,M,004.864,N,009.008,K,D*0E
$GPGGA,092123.05,5702.9155804,N,00949.4776905,E,2,4,4.2,-4.944,M,40.592,M,2.8,0123*53
$GPVTG,205.60,T,-434.30,M,004.828,N,008.941,K,D*08
$GPGGA,092123.10,5702.9155242,N,00949.4776353,E,2,4,4.2,-4.945,M,40.592,M,2.8,0123*57
$GPVTG,206.69,T,-433.21,M,004.839,N,008.963,K,D*05
$GPGGA,092123.15,5702.9154679,N,00949.4775765,E,2,4,4.2,-4.944,M,40.592,M,2.8,0123*5C
$GPVTG,207.92,T,-431.98,M,004.860,N,009.001,K,D*00
$GPGGA,092123.20,5702.9154140,N,00949.4775225,E,2,4,4.2,-4.945,M,40.592,M,2.8,0123*57
$GPVTG,208.49,T,-431.41,M,004.833,N,008.950,K,D*07
$GPGGA,092123.25,5702.9153698,N,00949.4774750,E,2,4,4.2,-4.934,M,40.592,M,3.0,0123*5E
$GPVTG,208.24,T,-431.66,M,004.740,N,008.778,K,D*06
$GPGGA,092123.30,5702.9153173,N,00949.4774055,E,2,4,4.2,-4.931,M,40.592,M,3.0,0123*5F
$GPVTG,210.41,T,-429.49,M,004.782,N,008.855,K,D*06
$GPGGA,092123.35,5702.9152651,N,00949.4773443,E,2,4,4.2,-4.929,M,40.592,M,3.0,0123*51
$GPVTG,211.32,T,-428.58,M,004.766,N,008.827,K,D*0D
$GPGGA,092123.40,5702.9152115,N,00949.4772798,E,2,4,4.2,-4.931,M,40.592,M,3.0,0123*59
$GPVTG,212.35,T,-427.55,M,004.773,N,008.839,K,D*00
$GPGGA,092123.45,5702.9151692,N,00949.4772259,E,2,4,4.2,-4.940,M,40.592,M,3.2,0123*5B
$GPVTG,212.13,T,-427.77,M,004.670,N,008.649,K,D*0F
$GPGGA,092123.50,5702.9151188,N,00949.4771593,E,2,4,4.2,-4.945,M,40.592,M,3.2,0123*54
$GPVTG,213.33,T,-426.57,M,004.667,N,008.643,K,D*03
$GPGGA,092123.55,5702.9150664,N,00949.4770954,E,2,4,4.2,-4.946,M,40.592,M,3.2,0123*50
$GPVTG,213.94,T,-425.96,M,004.655,N,008.622,K,D*06
$GPGGA,092123.60,5702.9150167,N,00949.4770312,E,2,4,4.2,-4.951,M,40.592,M,3.2,0123*5C
$GPVTG,214.60,T,-425.30,M,004.624,N,008.564,K,D*01
$GPGGA,092123.65,5702.9149616,N,00949.4769592,E,2,4,4.2,-4.940,M,40.592,M,3.4,0123*50
$GPVTG,216.32,T,-423.58,M,004.631,N,008.577,K,D*0A
$GPGGA,092123.70,5702.9149088,N,00949.4768839,E,2,4,4.2,-4.943,M,40.592,M,3.4,0123*5B
$GPVTG,217.53,T,-422.37,M,004.678,N,008.664,K,D*08
$GPGGA,092123.75,5702.9148589,N,00949.4768139,E,2,4,4.2,-4.947,M,40.592,M,3.4,0123*56
$GPVTG,218.15,T,-421.75,M,004.665,N,008.640,K,D*0A
$GPGGA,092123.80,5702.9148086,N,00949.4767389,E,2,4,4.2,-4.949,M,40.592,M,3.4,0123*5E
$GPVTG,219.08,T,-420.82,M,004.682,N,008.672,K,D*06
$GPGGA,092123.85,5702.9147483,N,00949.4766642,E,2,4,4.2,-4.929,M,40.592,M,3.6,0123*52
$GPVTG,220.17,T,-419.73,M,004.691,N,008.687,K,D*0E
$GPGGA,092123.90,5702.9147015,N,00949.4765901,E,2,4,4.2,-4.925,M,40.592,M,3.6,0123*5A
$GPVTG,220.84,T,-419.06,M,004.666,N,008.641,K,D*04
$GPGGA,092123.95,5702.9146495,N,00949.4765149,E,2,4,4.2,-4.922,M,40.592,M,3.6,0123*51
$GPVTG,221.14,T,-418.76,M,004.678,N,008.664,K,D*02
$GPGGA,092124.00,5702.9145987,N,00949.4764347,E,2,4,4.2,-4.918,M,40.592,M,3.6,0123*53
$GPVTG,221.87,T,-418.03,M,004.711,N,008.726,K,D*03
$GPGGA,092124.05,5702.9145462,N,00949.4763511,E,2,4,4.2,-4.925,M,40.592,M,1.9,0123*51
$GPVTG,223.22,T,-416.68,M,004.721,N,008.743,K,D*0D
$GPGGA,092124.10,5702.9145022,N,00949.4762719,E,2,4,4.2,-4.927,M,40.592,M,1.9,0123*5C
$GPVTG,223.94,T,-415.96,M,004.689,N,008.684,K,D*0B
$GPGGA,092124.15,5702.9144607,N,00949.4761899,E,2,4,4.2,-4.927,M,40.592,M,1.9,0123*5D
$GPVTG,224.96,T,-414.94,M,004.659,N,008.629,K,D*07
$GPGGA,092124.20,5702.9144128,N,00949.4761024,E,2,4,4.2,-4.927,M,40.592,M,1.9,0123*5F
$GPVTG,225.84,T,-414.06,M,004.709,N,008.721,K,D*03
$GPGGA,092124.25,5702.9143574,N,00949.4760180,E,2,4,4.2,-4.918,M,40.592,M,2.2,0123*5A
$GPVTG,226.93,T,-412.97,M,004.700,N,008.704,K,D*06
$GPGGA,092124.30,5702.9143104,N,00949.4759206,E,2,4,4.2,-4.919,M,40.592,M,2.2,0123*5B
$GPVTG,228.33,T,-411.57,M,004.807,N,008.902,K,D*0D
$GPGGA,092124.35,5702.9142669,N,00949.4758298,E,2,4,4.2,-4.921,M,40.592,M,2.2,0123*5E
$GPVTG,229.15,T,-410.75,M,004.821,N,008.928,K,D*05
$GPGGA,092124.40,5702.9142206,N,00949.4757394,E,2,4,4.2,-4.922,M,40.592,M,2.2,0123*50
$GPVTG,229.52,T,-410.38,M,004.838,N,008.961,K,D*0A
$GPGGA,092124.45,5702.9141596,N,00949.4756550,E,2,4,4.2,-4.911,M,40.592,M,2.4,0123*51
$GPVTG,229.49,T,-410.41,M,004.812,N,008.911,K,D*01
$GPGGA,092124.50,5702.9141167,N,00949.4755552,E,2,4,4.2,-4.911,M,40.592,M,2.4,0123*5E
$GPVTG,230.79,T,-409.11,M,004.887,N,009.051,K,D*07
$GPGGA,092124.55,5702.9140740,N,00949.4754605,E,2,4,4.2,-4.908,M,40.592,M,2.4,0123*51
$GPVTG,231.35,T,-408.55,M,004.892,N,009.060,K,D*09
$GPGGA,092124.60,5702.9140342,N,00949.4753655,E,2,4,4.2,-4.903,M,40.592,M,2.4,0123*58
$GPVTG,232.05,T,-407.85,M,004.876,N,009.031,K,D*05
$GPGGA,092124.65,5702.9139977,N,00949.4752704,E,2,4,4.2,-4.917,M,40.592,M,2.7,0123*5D
$GPVTG,233.27,T,-406.63,M,004.858,N,008.998,K,D*0A
$GPGGA,092124.70,5702.9139554,N,00949.4751701,E,2,4,4.2,-4.918,M,40.592,M,2.7,0123*5D
$GPVTG,233.87,T,-406.03,M,004.896,N,009.067,K,D*0C
$GPGGA,092124.75,5702.9139119,N,00949.4750670,E,2,4,4.2,-4.923,M,40.592,M,2.7,0123*5B
$GPVTG,234.44,T,-405.46,M,004.954,N,009.176,K,D*08
$GPGGA,092124.80,5702.9138746,N,00949.4749688,E,2,4,4.2,-4.923,M,40.592,M,2.7,0123*53
$GPVTG,234.98,T,-404.92,M,004.921,N,009.113,K,D*00
$GPGGA,092124.85,5702.9138323,N,00949.4748728,E,2,4,4.2,-4.935,M,40.592,M,2.9,0123*52
$GPVTG,235.51,T,-404.39,M,004.894,N,009.063,K,D*0C
$GPGGA,092124.90,5702.9137970,N,00949.4747710,E,2,4,4.2,-4.943,M,40.592,M,2.9,0123*50
$GPVTG,236.30,T,-403.60,M,004.883,N,009.042,K,D*06
$GPGGA,092124.95,5702.9137598,N,00949.4746653,E,2,4,4.2,-4.944,M,40.592,M,2.9,0123*5F
$GPVTG,237.09,T,-402.81,M,004.911,N,009.095,K,D*03
$GPGGA,092125.00,5702.9137208,N,00949.4745589,E,2,4,4.2,-4.940,M,40.592,M,2.9,0123*5F
$GPVTG,237.63,T,-402.27,M,004.945,N,009.158,K,D*02
$GPGGA,092125.05,5702.9136756,N,00949.4744524,E,2,4,4.2,-4.926,M,40.592,M,1.7,0123*5E
$GPVTG,238.78,T,-401.12,M,004.931,N,009.131,K,D*0E
$GPGGA,092125.10,5702.9136383,N,00949.4743445,E,2,4,4.2,-4.927,M,40.592,M,1.7,0123*56
$GPVTG,239.26,T,-400.64,M,004.960,N,009.185,K,D*0F
$GPGGA,092125.15,5702.9136006,N,00949.4742379,E,2,4,4.2,-4.927,M,40.592,M,1.7,0123*54
$GPVTG,239.50,T,-400.40,M,004.966,N,009.196,K,D*0C
$GPGGA,092125.20,5702.9135677,N,00949.4741258,E,2,4,4.2,-4.925,M,40.592,M,1.7,0123*52
$GPVTG,240.47,T,-399.43,M,005.002,N,009.263,K,D*03
$GPGGA,092125.25,5702.9135379,N,00949.4740187,E,2,4,4.2,-4.930,M,40.592,M,2.0,0123*5C
$GPVTG,241.35,T,-398.55,M,004.975,N,009.214,K,D*09
$GPGGA,092125.30,5702.9135052,N,00949.4739032,E,2,4,4.2,-4.929,M,40.592,M,2.0,0123*5B
$GPVTG,242.27,T,-397.63,M,005.031,N,009.318,K,D*06
$GPGGA,092125.35,5702.9134691,N,00949.4737932,E,2,4,4.2,-4.935,M,40.592,M,2.0,0123*5C
$GPVTG,242.32,T,-397.58,M,005.031,N,009.317,K,D*05
$GPGGA,092125.40,5702.9134408,N,00949.4736792,E,2,4,4.2,-4.932,M,40.592,M,2.0,0123*5E
$GPVTG,243.32,T,-396.58,M,005.035,N,009.324,K,D*01
$GPGGA,092125.45,5702.9134058,N,00949.4735685,E,2,4,4.2,-4.923,M,40.592,M,2.2,0123*5C
$GPVTG,244.40,T,-395.50,M,004.993,N,009.247,K,D*08
$GPGGA,092125.50,5702.9133725,N,00949.4734505,E,2,4,4.2,-4.922,M,40.592,M,2.2,0123*59
$GPVTG,244.86,T,-395.04,M,005.053,N,009.358,K,D*08
$GPGGA,092125.55,5702.9133446,N,00949.4733320,E,2,4,4.2,-4.920,M,40.592,M,2.2,0123*5E
$GPVTG,245.75,T,-394.15,M,005.084,N,009.415,K,D*00
$GPGGA,092125.60,5702.9133190,N,00949.4732158,E,2,4,4.2,-4.920,M,40.592,M,2.2,0123*5A
$GPVTG,246.59,T,-393.31,M,005.070,N,009.389,K,D*05
$GPGGA,092125.65,5702.9132843,N,00949.4730977,E,2,4,4.2,-4.921,M,40.592,M,2.4,0123*59
$GPVTG,246.96,T,-392.94,M,005.103,N,009.450,K,D*0E
$GPGGA,092125.70,5702.9132599,N,00949.4729781,E,2,4,4.2,-4.922,M,40.592,M,2.4,0123*5B
$GPVTG,247.86,T,-392.04,M,005.109,N,009.461,K,D*0F
$GPGGA,092125.75,5702.9132349,N,00949.4728608,E,2,4,4.2,-4.924,M,40.592,M,2.4,0123*52
$GPVTG,248.47,T,-391.43,M,005.085,N,009.417,K,D*09
$GPGGA,092125.80,5702.9132156,N,00949.4727407,E,2,4,4.2,-4.925,M,40.592,M,2.4,0123*57
$GPVTG,249.67,T,-390.23,M,005.073,N,009.395,K,D*09
$GPGGA,092125.85,5702.9131853,N,00949.4726216,E,2,4,4.2,-4.930,M,40.592,M,2.7,0123*5D
$GPVTG,250.54,T,-389.36,M,005.067,N,009.385,K,D*09
$GPGGA,092125.90,5702.9131700,N,00949.4724957,E,2,4,4.2,-4.935,M,40.592,M,2.7,0123*59
$GPVTG,252.13,T,-387.77,M,005.101,N,009.447,K,D*0B
$GPGGA,092125.95,5702.9131483,N,00949.4723696,E,2,4,4.2,-4.938,M,40.592,M,2.7,0123*5C
$GPVTG,252.92,T,-386.98,M,005.145,N,009.528,K,D*0A
$GPGGA,092126.00,5702.9131275,N,00949.4722411,E,2,4,4.2,-4.940,M,40.592,M,2.7,0123*5F
$GPVTG,253.73,T,-386.17,M,005.201,N,009.631,K,D*0B
$GPGGA,092126.05,5702.9130982,N,00949.4721152,E,2,4,4.2,-4.927,M,40.592,M,1.6,0123*5A
$GPVTG,254.64,T,-385.26,M,005.205,N,009.640,K,D*09
$GPGGA,092126.10,5702.9130788,N,00949.4719924,E,2,4,4.2,-4.931,M,40.592,M,1.6,0123*5F
$GPVTG,255.13,T,-384.77,M,005.173,N,009.580,K,D*00
$GPGGA,092126.15,5702.9130567,N,00949.4718665,E,2,4,4.2,-4.930,M,40.592,M,1.6,0123*53
$GPVTG,255.41,T,-384.49,M,005.182,N,009.598,K,D*0D
$GPGGA,092126.20,5702.9130382,N,00949.4717424,E,2,4,4.2,-4.930,M,40.592,M,1.6,0123*50
$GPVTG,255.89,T,-384.01,M,005.158,N,009.553,K,D*05
$GPGGA,092126.25,5702.9130394,N,00949.4716159,E,2,4,4.2,-4.962,M,40.592,M,1.9,0123*54
$GPVTG,256.90,T,-383.00,M,005.182,N,009.597,K,D*07
$GPGGA,092126.30,5702.9130319,N,00949.4714860,E,2,4,4.2,-4.968,M,40.592,M,1.9,0123*5E
$GPVTG,258.37,T,-381.53,M,005.194,N,009.619,K,D*02
$GPGGA,092126.35,5702.9130180,N,00949.4713611,E,2,4,4.2,-4.972,M,40.592,M,1.9,0123*5D
$GPVTG,259.01,T,-380.89,M,005.157,N,009.552,K,D*03
$GPGGA,092126.40,5702.9130071,N,00949.4712311,E,2,4,4.2,-4.976,M,40.592,M,1.9,0123*50
$GPVTG,259.95,T,-379.95,M,005.175,N,009.584,K,D*0E
$GPGGA,092126.45,5702.9129723,N,00949.4710996,E,2,4,4.2,-4.942,M,40.592,M,2.1,0123*56
$GPVTG,260.68,T,-379.22,M,005.185,N,009.603,K,D*09
$GPGGA,092126.50,5702.9129573,N,00949.4709689,E,2,4,4.2,-4.940,M,40.592,M,2.1,0123*5E
$GPVTG,261.07,T,-378.83,M,005.206,N,009.642,K,D*06
$GPGGA,092126.55,5702.9129384,N,00949.4708429,E,2,4,4.2,-4.939,M,40.592,M,2.1,0123*52
$GPVTG,260.97,T,-378.93,M,005.173,N,009.581,K,D*02
$GPGGA,092126.60,5702.9129241,N,00949.4707155,E,2,4,4.2,-4.940,M,40.592,M,2.1,0123*53
$GPVTG,261.26,T,-378.64,M,005.153,N,009.544,K,D*0A
$GPGGA,092126.65,5702.9129295,N,00949.4705900,E,2,4,4.2,-4.970,M,40.592,M,2.3,0123*54
$GPVTG,261.85,T,-378.05,M,005.138,N,009.515,K,D*0D
$GPGGA,092126.70,5702.9129188,N,00949.4704649,E,2,4,4.2,-4.976,M,40.592,M,2.3,0123*5A
$GPVTG,262.30,T,-377.60,M,005.091,N,009.429,K,D*00
$GPGGA,092126.75,5702.9129116,N,00949.4703407,E,2,4,4.2,-4.982,M,40.592,M,2.3,0123*5C
$GPVTG,263.02,T,-376.88,M,005.038,N,009.331,K,D*0A
$GPGGA,092126.80,5702.9129056,N,00949.4702154,E,2,4,4.2,-4.992,M,40.592,M,2.3,0123*50
$GPVTG,263.81,T,-376.09,M,005.004,N,009.267,K,D*05
$GPGGA,092126.85,5702.9128724,N,00949.4700966,E,2,4,4.2,-4.989,M,40.592,M,2.6,0123*52
$GPVTG,263.83,T,-376.07,M,004.931,N,009.131,K,D*07
$GPGGA,092126.90,5702.9128662,N,00949.4699732,E,2,4,4.2,-4.993,M,40.592,M,2.6,0123*50
$GPVTG,264.50,T,-375.40,M,004.895,N,009.066,K,D*02
$GPGGA,092126.95,5702.9128561,N,00949.4698531,E,2,4,4.2,-4.998,M,40.592,M,2.6,0123*5E
$GPVTG,264.68,T,-375.22,M,004.835,N,008.954,K,D*0E
$GPGGA,092127.00,5702.9128491,N,00949.4697357,E,2,4,4.2,-5.004,M,40.592,M,2.6,0123*59
$GPVTG,265.10,T,-374.80,M,004.753,N,008.802,K,D*04
$GPGGA,092127.05,5702.9128553,N,00949.4696292,E,2,4,4.2,-5.042,M,40.592,M,2.8,0123*56
$GPVTG,265.93,T,-373.97,M,004.601,N,008.521,K,D*04
$GPGGA,092127.10,5702.9128566,N,00949.4695131,E,2,4,4.2,-5.053,M,40.592,M,2.8,0123*5D
$GPVTG,267.13,T,-372.77,M,004.547,N,008.421,K,D*01
$GPGGA,092127.15,5702.9128582,N,00949.4693971,E,2,4,4.2,-5.064,M,40.592,M,2.8,0123*5C
$GPVTG,268.28,T,-371.62,M,004.506,N,008.346,K,D*02
$GPGGA,092127.20,5702.9128606,N,00949.4692896,E,2,4,4.2,-5.076,M,40.592,M,2.8,0123*5F
$GPVTG,269.42,T,-370.48,M,004.385,N,008.121,K,D*08
$GPGGA,092127.25,5702.9128551,N,00949.4691809,E,2,4,4.2,-5.089,M,40.592,M,3.0,0123*57
$GPVTG,270.69,T,-369.21,M,004.326,N,008.012,K,D*06
$GPGGA,092127.30,5702.9128624,N,00949.4690717,E,2,4,4.2,-5.096,M,40.592,M,3.0,0123*5D
$GPVTG,272.23,T,-367.67,M,004.270,N,007.908,K,D*09
$GPGGA,092127.35,5702.9128704,N,00949.4689638,E,2,4,4.2,-5.102,M,40.592,M,3.0,0123*53
$GPVTG,273.73,T,-366.17,M,004.219,N,007.814,K,D*08
$GPGGA,092127.40,5702.9128741,N,00949.4688539,E,2,4,4.2,-5.105,M,40.592,M,3.0,0123*54
$GPVTG,274.61,T,-365.29,M,004.206,N,007.790,K,D*0F
$GPGGA,092127.45,5702.9128388,N,00949.4687478,E,2,4,4.2,-5.069,M,40.592,M,3.2,0123*52
$GPVTG,274.79,T,-365.11,M,004.156,N,007.696,K,D*0C
$GPGGA,092127.50,5702.9128358,N,00949.4686448,E,2,4,4.2,-5.072,M,40.592,M,3.2,0123*53
$GPVTG,274.79,T,-365.11,M,004.086,N,007.566,K,D*0C
$GPGGA,092127.55,5702.9128319,N,00949.4685424,E,2,4,4.2,-5.073,M,40.592,M,3.2,0123*5B
$GPVTG,274.65,T,-365.25,M,004.025,N,007.454,K,D*0F
$GPGGA,092127.60,5702.9128322,N,00949.4684449,E,2,4,4.2,-5.070,M,40.592,M,3.2,0123*5C
$GPVTG,275.02,T,-364.88,M,003.929,N,007.276,K,D*0D
$GPGGA,092127.65,5702.9128711,N,00949.4683470,E,2,4,4.2,-5.124,M,40.592,M,3.4,0123*56
$GPVTG,276.71,T,-363.19,M,003.941,N,007.298,K,D*0B
$GPGGA,092127.70,5702.9128818,N,00949.4682488,E,2,4,4.2,-5.130,M,40.592,M,3.4,0123*57
$GPVTG,278.12,T,-361.78,M,003.892,N,007.209,K,D*02
$GPGGA,092127.75,5702.9128948,N,00949.4681493,E,2,4,4.2,-5.138,M,40.592,M,3.4,0123*57
$GPVTG,279.65,T,-360.25,M,003.879,N,007.183,K,D*0E
$GPGGA,092127.80,5702.9129004,N,00949.4680547,E,2,4,4.2,-5.147,M,40.592,M,3.4,0123*5C
$GPVTG,280.27,T,-359.63,M,003.812,N,007.060,K,D*07
$GPGGA,092127.85,5702.9128862,N,00949.4679576,E,2,4,4.2,-5.129,M,40.592,M,3.6,0123*5E
$GPVTG,281.06,T,-358.84,M,003.821,N,007.077,K,D*0B
$GPGGA,092127.90,5702.9128957,N,00949.4678627,E,2,4,4.2,-5.128,M,40.592,M,3.6,0123*5A
$GPVTG,281.82,T,-358.08,M,003.786,N,007.012,K,D*02
$GPGGA,092127.95,5702.9129059,N,00949.4677671,E,2,4,4.2,-5.128,M,40.592,M,3.6,0123*55
$GPVTG,282.55,T,-357.35,M,003.775,N,006.991,K,D*05
$GPGGA,092128.00,5702.9129154,N,00949.4676721,E,2,4,4.2,-5.127,M,40.592,M,3.6,0123*50
$GPVTG,283.06,T,-356.84,M,003.764,N,006.970,K,D*06
$GPGGA,092128.05,5702.9129067,N,00949.4675818,E,2,4,4.2,-5.117,M,40.592,M,1.9,0123*5C
$GPVTG,283.27,T,-356.63,M,003.732,N,006.912,K,D*0B
$GPGGA,092128.10,5702.9129193,N,00949.4674883,E,2,4,4.2,-5.109,M,40.592,M,1.9,0123*5E
$GPVTG,284.17,T,-355.73,M,003.729,N,006.906,K,D*02
$GPGGA,092128.15,5702.9129303,N,00949.4673978,E,2,4,4.2,-5.109,M,40.592,M,1.9,0123*52
$GPVTG,284.82,T,-355.08,M,003.691,N,006.836,K,D*02
$GPGGA,092128.20,5702.9129395,N,00949.4673057,E,2,4,4.2,-5.107,M,40.592,M,1.9,0123*51
$GPVTG,285.02,T,-354.88,M,003.679,N,006.814,K,D*04
$GPGGA,092128.25,5702.9129353,N,00949.4672207,E,2,4,4.2,-5.118,M,40.592,M,2.2,0123*5E
$GPVTG,285.11,T,-354.79,M,003.679,N,006.814,K,D*08
$GPGGA,092128.30,5702.9129499,N,00949.4671291,E,2,4,4.2,-5.116,M,40.592,M,2.2,0123*59
$GPVTG,285.98,T,-353.92,M,003.687,N,006.829,K,D*04
$GPGGA,092128.35,5702.9129632,N,00949.4670373,E,2,4,4.2,-5.116,M,40.592,M,2.2,0123*53
$GPVTG,286.52,T,-353.38,M,003.695,N,006.844,K,D*09
$GPGGA,092128.40,5702.9129774,N,00949.4669480,E,2,4,4.2,-5.112,M,40.592,M,2.2,0123*55
$GPVTG,287.21,T,-352.69,M,003.681,N,006.817,K,D*0A
$GPGGA,092128.45,5702.9129613,N,00949.4668530,E,2,4,4.2,-5.079,M,40.592,M,2.4,0123*51
$GPVTG,286.37,T,-353.53,M,003.717,N,006.884,K,D*00
$GPGGA,092128.50,5702.9129730,N,00949.4667639,E,2,4,4.2,-5.075,M,40.592,M,2.4,0123*5C
$GPVTG,286.55,T,-353.35,M,003.691,N,006.836,K,D*02
$GPGGA,092128.55,5702.9129868,N,00949.4666711,E,2,4,4.2,-5.069,M,40.592,M,2.4,0123*5C
$GPVTG,286.82,T,-353.08,M,003.720,N,006.890,K,D*01
$GPGGA,092128.60,5702.9130017,N,00949.4665841,E,2,4,4.2,-5.061,M,40.592,M,2.4,0123*53
$GPVTG,287.52,T,-352.38,M,003.682,N,006.819,K,D*07
$GPGGA,092128.65,5702.9129792,N,00949.4665034,E,2,4,4.2,-5.067,M,40.592,M,2.7,0123*5B
$GPVTG,286.34,T,-353.56,M,003.652,N,006.764,K,D*07
$GPGGA,092128.70,5702.9129927,N,00949.4664206,E,2,4,4.2,-5.063,M,40.592,M,2.7,0123*59
$GPVTG,286.97,T,-352.93,M,003.570,N,006.612,K,D*05
$GPGGA,092128.75,5702.9130064,N,00949.4663318,E,2,4,4.2,-5.064,M,40.592,M,2.7,0123*54
$GPVTG,287.20,T,-352.70,M,003.577,N,006.625,K,D*06
$GPGGA,092128.80,5702.9130203,N,00949.4662431,E,2,4,4.2,-5.062,M,40.592,M,2.7,0123*56
$GPVTG,287.42,T,-352.48,M,003.585,N,006.640,K,D*07
$GPGGA,092128.85,5702.9130048,N,00949.4661649,E,2,4,4.2,-5.070,M,40.592,M,2.9,0123*5D
$GPVTG,286.63,T,-353.27,M,003.534,N,006.545,K,D*01
$GPGGA,092128.90,5702.9130180,N,00949.4660825,E,2,4,4.2,-5.068,M,40.592,M,2.9,0123*50
$GPVTG,287.01,T,-352.89,M,003.479,N,006.442,K,D*0F
$GPGGA,092128.95,5702.9130314,N,00949.4659956,E,2,4,4.2,-5.069,M,40.592,M,2.9,0123*54
$GPVTG,287.11,T,-352.79,M,003.484,N,006.453,K,D*03
$GPGGA,092129.00,5702.9130450,N,00949.4659140,E,2,4,4.2,-5.067,M,40.592,M,2.9,0123*5F
$GPVTG,287.51,T,-352.39,M,003.437,N,006.365,K,D*09
$GPGGA,092129.05,5702.9130352,N,00949.4658360,E,2,4,4.2,-5.070,M,40.592,M,1.7,0123*55
$GPVTG,287.13,T,-352.77,M,003.420,N,006.335,K,D*06
$GPGGA,092129.10,5702.9130475,N,00949.4657544,E,2,4,4.2,-5.068,M,40.592,M,1.7,0123*55
$GPVTG,287.21,T,-352.69,M,003.380,N,006.260,K,D*04
$GPGGA,092129.15,5702.9130593,N,00949.4656705,E,2,4,4.2,-5.069,M,40.592,M,1.7,0123*5E
$GPVTG,287.02,T,-352.88,M,003.378,N,006.256,K,D*08
$GPGGA,092129.20,5702.9130737,N,00949.4655913,E,2,4,4.2,-5.070,M,40.592,M,1.7,0123*56
$GPVTG,287.53,T,-352.37,M,003.330,N,006.167,K,D*05
$GPGGA,092129.25,5702.9130632,N,00949.4655142,E,2,4,4.2,-5.063,M,40.592,M,2.0,0123*5D
$GPVTG,287.26,T,-352.64,M,003.291,N,006.094,K,D*06
$GPGGA,092129.30,5702.9130754,N,00949.4654349,E,2,4,4.2,-5.062,M,40.592,M,2.0,0123*51
$GPVTG,287.27,T,-352.63,M,003.258,N,006.034,K,D*0F
$GPGGA,092129.35,5702.9130892,N,00949.4653536,E,2,4,4.2,-5.058,M,40.592,M,2.0,0123*51
$GPVTG,287.40,T,-352.50,M,003.263,N,006.043,K,D*06
$GPGGA,092129.40,5702.9130994,N,00949.4652742,E,2,4,4.2,-5.056,M,40.592,M,2.0,0123*5A
$GPVTG,287.06,T,-352.84,M,003.238,N,005.997,K,D*00
$GPGGA,092129.45,5702.9130824,N,00949.4652080,E,2,4,4.2,-5.061,M,40.592,M,2.2,0123*5A
$GPVTG,286.71,T,-353.19,M,003.135,N,005.805,K,D*00
$GPGGA,092129.50,5702.9130936,N,00949.4651298,E,2,4,4.2,-5.061,M,40.592,M,2.2,0123*54
$GPVTG,286.45,T,-353.45,M,003.125,N,005.787,K,D*0A
$GPGGA,092129.55,5702.9131051,N,00949.4650541,E,2,4,4.2,-5.066,M,40.592,M,2.2,0123*5D
$GPVTG,286.46,T,-353.44,M,003.092,N,005.727,K,D*0F
$GPGGA,092129.60,5702.9131187,N,00949.4649742,E,2,4,4.2,-5.068,M,40.592,M,2.2,0123*56
$GPVTG,286.49,T,-353.41,M,003.123,N,005.783,K,D*00
$GPGGA,092129.65,5702.9131143,N,00949.4649043,E,2,4,4.2,-5.075,M,40.592,M,2.4,0123*57
$GPVTG,286.70,T,-353.20,M,003.072,N,005.689,K,D*03
$GPGGA,092129.70,5702.9131255,N,00949.4648259,E,2,4,4.2,-5.079,M,40.592,M,2.4,0123*53
$GPVTG,286.34,T,-353.56,M,003.091,N,005.724,K,D*09
$GPGGA,092129.75,5702.9131375,N,00949.4647528,E,2,4,4.2,-5.080,M,40.592,M,2.4,0123*5D
$GPVTG,286.50,T,-353.40,M,003.049,N,005.646,K,D*0C
$GPGGA,092129.80,5702.9131471,N,00949.4646819,E,2,4,4.2,-5.087,M,40.592,M,2.4,0123*5D
$GPVTG,286.37,T,-353.53,M,002.985,N,005.528,K,D*0C
$GPGGA,092129.85,5702.9131325,N,00949.4646116,E,2,4,4.2,-5.084,M,40.592,M,2.7,0123*58
$GPVTG,285.68,T,-354.22,M,002.963,N,005.488,K,D*07
$GPGGA,092129.90,5702.9131436,N,00949.4645379,E,2,4,4.2,-5.088,M,40.592,M,2.7,0123*5D
$GPVTG,285.60,T,-354.30,M,002.955,N,005.472,K,D*0C
$GPGGA,092129.95,5702.9131572,N,00949.4644628,E,2,4,4.2,-5.088,M,40.592,M,2.7,0123*59
$GPVTG,285.87,T,-354.03,M,002.973,N,005.507,K,D*02
$GPGGA,092130.00,5702.9131688,N,00949.4643924,E,2,4,4.2,-5.094,M,40.592,M,2.7,0123*52
$GPVTG,286.06,T,-353.84,M,002.933,N,005.432,K,D*03
$GPGGA,092130.05,5702.9131533,N,00949.4643168,E,2,4,4.2,-5.065,M,40.592,M,1.6,0123*58
$GPVTG,285.23,T,-354.67,M,002.939,N,005.443,K,D*01
$GPGGA,092130.10,5702.9131620,N,00949.4642439,E,2,4,4.2,-5.064,M,40.592,M,1.6,0123*5C
$GPVTG,284.70,T,-355.20,M,002.929,N,005.424,K,D*04
$GPGGA,092130.15,5702.9131702,N,00949.4641783,E,2,4,4.2,-5.062,M,40.592,M,1.6,0123*5F
$GPVTG,284.58,T,-355.32,M,002.837,N,005.254,K,D*02
$GPGGA,092130.20,5702.9131796,N,00949.4641072,E,2,4,4.2,-5.058,M,40.592,M,1.6,0123*54
$GPVTG,284.32,T,-355.58,M,002.828,N,005.238,K,D*06
$GPGGA,092130.25,5702.9131771,N,00949.4640488,E,2,4,4.2,-5.096,M,40.592,M,1.9,0123*55
$GPVTG,284.27,T,-355.63,M,002.794,N,005.175,K,D*08
$GPGGA,092130.30,5702.9131865,N,00949.4639806,E,2,4,4.2,-5.102,M,40.592,M,1.9,0123*53
$GPVTG,284.17,T,-355.73,M,002.764,N,005.118,K,D*0E
$GPGGA,092130.35,5702.9131954,N,00949.4639141,E,2,4,4.2,-5.107,M,40.592,M,1.9,0123*5A
$GPVTG,284.08,T,-355.82,M,002.722,N,005.041,K,D*01
$GPGGA,092130.40,5702.9132080,N,00949.4638493,E,2,4,4.2,-5.110,M,40.592,M,1.9,0123*56
$GPVTG,284.76,T,-355.14,M,002.679,N,004.962,K,D*01
$GPGGA,092130.45,5702.9131955,N,00949.4637827,E,2,4,4.2,-5.093,M,40.592,M,2.1,0123*5C
$GPVTG,284.49,T,-355.41,M,002.660,N,004.927,K,D*04
$GPGGA,092130.50,5702.9132052,N,00949.4637171,E,2,4,4.2,-5.096,M,40.592,M,2.1,0123*5A
$GPVTG,284.52,T,-355.38,M,002.639,N,004.888,K,D*08
$GPGGA,092130.55,5702.9132165,N,00949.4636531,E,2,4,4.2,-5.097,M,40.592,M,2.1,0123*5A
$GPVTG,284.98,T,-354.92,M,002.609,N,004.831,K,D*0E
$GPGGA,092130.60,5702.9132273,N,00949.4635875,E,2,4,4.2,-5.099,M,40.592,M,2.1,0123*58
$GPVTG,285.14,T,-354.76,M,002.605,N,004.825,K,D*08
$GPGGA,092130.65,5702.9132116,N,00949.4635253,E,2,4,4.2,-5.085,M,40.592,M,2.3,0123*5C
$GPVTG,284.79,T,-355.11,M,002.587,N,004.791,K,D*0B
$GPGGA,092130.70,5702.9132210,N,00949.4634631,E,2,4,4.2,-5.087,M,40.592,M,2.3,0123*5E
$GPVTG,284.92,T,-354.98,M,002.552,N,004.726,K,D*0A
$GPGGA,092130.75,5702.9132304,N,00949.4634008,E,2,4,4.2,-5.090,M,40.592,M,2.3,0123*55
$GPVTG,284.98,T,-354.92,M,002.525,N,004.677,K,D*0F
$GPGGA,092130.80,5702.9132407,N,00949.4633409,E,2,4,4.2,-5.091,M,40.592,M,2.3,0123*58
$GPVTG,285.36,T,-354.54,M,002.484,N,004.600,K,D*0A
$GPGGA,092130.85,5702.9132266,N,00949.4632814,E,2,4,4.2,-5.081,M,40.592,M,2.6,0123*59
$GPVTG,284.96,T,-354.94,M,002.477,N,004.588,K,D*02
$GPGGA,092130.90,5702.9132358,N,00949.4632229,E,2,4,4.2,-5.079,M,40.592,M,2.6,0123*52
$GPVTG,285.17,T,-354.73,M,002.434,N,004.508,K,D*0C
$GPGGA,092130.95,5702.9132446,N,00949.4631603,E,2,4,4.2,-5.077,M,40.592,M,2.6,0123*5E
$GPVTG,284.98,T,-354.92,M,002.438,N,004.516,K,D*06
$GPGGA,092131.00,5702.9132536,N,00949.4631043,E,2,4,4.2,-5.077,M,40.592,M,2.6,0123*57
$GPVTG,285.27,T,-354.63,M,002.379,N,004.406,K,D*0F
$GPGGA,092131.05,5702.9132493,N,00949.4630457,E,2,4,4.2,-5.080,M,40.592,M,2.8,0123*5A
$GPVTG,285.41,T,-354.49,M,002.379,N,004.407,K,D*06
$GPGGA,092131.10,5702.9132590,N,00949.4629834,E,2,4,4.2,-5.079,M,40.592,M,2.8,0123*5B
