$GPGGA,085336.70,5702.8797178,N,00949.9723373,E,2,5,1.4,-3.845,M,40.592,M,2.6,0123*57
$GPVTG,277.01,T,-362.89,M,005.529,N,010.239,K,D*0C
$GPGGA,085336.75,5702.8797257,N,00949.9721964,E,2,5,1.4,-3.848,M,40.592,M,2.6,0123*5F
$GPVTG,277.30,T,-362.60,M,005.551,N,010.280,K,D*04
$GPGGA,085336.80,5702.8797353,N,00949.9720526,E,2,5,1.4,-3.852,M,40.592,M,2.6,0123*50
$GPVTG,277.67,T,-362.23,M,005.607,N,010.384,K,D*04
$GPGGA,085336.85,5702.8797425,N,00949.9719185,E,2,5,1.4,-3.848,M,40.592,M,2.9,0123*50
$GPVTG,278.18,T,-361.72,M,005.533,N,010.247,K,D*0E
$GPGGA,085336.90,5702.8797606,N,00949.9717833,E,2,5,1.4,-3.854,M,40.592,M,2.9,0123*50
$GPVTG,279.50,T,-360.40,M,005.500,N,010.186,K,D*0D
$GPGGA,085336.95,5702.8797683,N,00949.9716457,E,2,5,1.4,-3.860,M,40.592,M,2.9,0123*50
$GPVTG,279.49,T,-360.41,M,005.487,N,010.163,K,D*01
$GPGGA,085337.00,5702.8797844,N,00949.9715047,E,2,5,1.4,-3.866,M,40.592,M,2.9,0123*58
$GPVTG,280.29,T,-359.61,M,005.533,N,010.247,K,D*02
$GPGGA,085337.05,5702.8798040,N,00949.9713677,E,2,5,1.4,-3.856,M,40.592,M,2.0,0123*57
$GPVTG,281.63,T,-358.27,M,005.514,N,010.213,K,D*0A
$GPGGA,085337.10,5702.8798210,N,00949.9712356,E,2,5,1.4,-3.862,M,40.592,M,2.0,0123*54
$GPVTG,282.51,T,-357.39,M,005.456,N,010.105,K,D*0B
$GPGGA,085337.15,5702.8798229,N,00949.9710977,E,2,5,1.4,-3.869,M,40.592,M,2.0,0123*5B
$GPVTG,281.43,T,-358.47,M,005.449,N,010.091,K,D*0F
$GPGGA,085337.20,5702.8798427,N,00949.9709612,E,2,5,1.4,-3.877,M,40.592,M,2.0,0123*5E
$GPVTG,282.41,T,-357.49,M,005.464,N,010.118,K,D*00
$GPGGA,085337.25,5702.8798616,N,00949.9708112,E,2,5,1.4,-3.843,M,40.592,M,2.3,0123*59
$GPVTG,282.62,T,-357.28,M,005.540,N,010.261,K,D*0C
$GPGGA,085337.30,5702.8798829,N,00949.9706716,E,2,5,1.4,-3.844,M,40.592,M,2.3,0123*54
$GPVTG,283.49,T,-356.41,M,005.587,N,010.347,K,D*04
$GPGGA,085337.35,5702.8799076,N,00949.9705380,E,2,5,1.4,-3.845,M,40.592,M,2.3,0123*5B
$GPVTG,284.81,T,-355.09,M,005.566,N,010.308,K,D*0C
$GPGGA,085337.40,5702.8799220,N,00949.9704018,E,2,5,1.4,-3.846,M,40.592,M,2.3,0123*58
$GPVTG,284.80,T,-355.10,M,005.554,N,010.286,K,D*03
$GPGGA,085337.45,5702.8799327,N,00949.9702731,E,2,5,1.4,-3.854,M,40.592,M,2.5,0123*54
$GPVTG,284.99,T,-354.92,M,005.499,N,010.184,K,D*01
$GPGGA,085337.50,5702.8799507,N,00949.9701363,E,2,5,1.4,-3.859,M,40.592,M,2.5,0123*59
$GPVTG,285.23,T,-354.67,M,005.515,N,010.215,K,D*05
$GPGGA,085337.55,5702.8799691,N,00949.9700006,E,2,5,1.4,-3.865,M,40.592,M,2.5,0123*5E
$GPVTG,285.49,T,-354.41,M,005.518,N,010.220,K,D*06
$GPGGA,085337.60,5702.8799886,N,00949.9698689,E,2,5,1.4,-3.876,M,40.592,M,2.5,0123*53
$GPVTG,285.95,T,-353.95,M,005.479,N,010.147,K,D*0D
$GPGGA,085337.65,5702.8800236,N,00949.9697302,E,2,5,1.4,-3.842,M,40.592,M,2.7,0123*54
$GPVTG,287.82,T,-352.08,M,005.472,N,010.134,K,D*03
$GPGGA,085337.70,5702.8800464,N,00949.9696017,E,2,5,1.4,-3.844,M,40.592,M,2.7,0123*51
$GPVTG,288.50,T,-351.40,M,005.421,N,010.040,K,D*08
$GPGGA,085337.75,5702.8800659,N,00949.9694660,E,2,4,1.4,-3.847,M,40.592,M,2.7,0123*5E
$GPVTG,288.45,T,-351.45,M,005.456,N,010.105,K,D*09
$GPGGA,085337.80,5702.8800907,N,00949.9693316,E,2,4,1.4,-3.853,M,40.592,M,2.7,0123*56
$GPVTG,288.94,T,-350.96,M,005.490,N,010.167,K,D*04
$GPGGA,085337.85,5702.8801119,N,00949.9691967,E,2,4,1.4,-3.844,M,40.592,M,3.0,0123*5B
$GPVTG,288.86,T,-351.04,M,005.493,N,010.172,K,D*0A
$GPGGA,085337.90,5702.8801411,N,00949.9690610,E,2,4,1.4,-3.845,M,40.592,M,3.0,0123*5D
$GPVTG,289.62,T,-350.28,M,005.555,N,010.287,K,D*0C
$GPGGA,085337.95,5702.8801698,N,00949.9689324,E,2,4,1.4,-3.849,M,40.592,M,3.0,0123*5D
$GPVTG,290.54,T,-349.36,M,005.527,N,010.235,K,D*0A
$GPGGA,085338.00,5702.8802126,N,00949.9688047,E,2,4,1.4,-3.853,M,40.592,M,3.0,0123*53
$GPVTG,292.79,T,-347.11,M,005.551,N,010.281,K,D*02
$GPGGA,085338.05,5702.8802383,N,00949.9686847,E,2,4,1.4,-3.867,M,40.592,M,1.5,0123*5D
$GPVTG,293.62,T,-346.28,M,005.474,N,010.138,K,D*05
$GPGGA,085338.10,5702.8802557,N,00949.9685569,E,2,4,1.4,-3.881,M,40.592,M,1.5,0123*5C
$GPVTG,292.95,T,-346.95,M,005.422,N,010.041,K,D*06
$GPGGA,085338.15,5702.8802849,N,00949.9684286,E,2,4,1.4,-3.896,M,40.592,M,1.5,0123*5A
$GPVTG,293.45,T,-346.45,M,005.432,N,010.060,K,D*05
$GPGGA,085338.20,5702.8803135,N,00949.9683032,E,2,4,1.4,-3.904,M,40.592,M,1.5,0123*5F
$GPVTG,293.93,T,-345.97,M,005.409,N,010.018,K,D*05
$GPGGA,085338.25,5702.8803380,N,00949.9681533,E,2,4,1.4,-3.831,M,40.592,M,1.7,0123*55
$GPVTG,292.95,T,-346.95,M,005.423,N,010.044,K,D*02
$GPGGA,085338.30,5702.8803665,N,00949.9680260,E,2,4,1.4,-3.833,M,40.592,M,1.7,0123*5D
$GPVTG,293.27,T,-346.63,M,005.426,N,010.049,K,D*0B
$GPGGA,085338.35,5702.8804051,N,00949.9679003,E,2,4,1.4,-3.835,M,40.592,M,1.7,0123*59
$GPVTG,294.63,T,-345.27,M,005.454,N,010.101,K,D*07
$GPGGA,085338.40,5702.8804504,N,00949.9677701,E,2,4,1.4,-3.837,M,40.592,M,1.7,0123*57
$GPVTG,296.23,T,-343.67,M,005.565,N,010.307,K,D*04
$GPGGA,085338.45,5702.8804851,N,00949.9676484,E,2,4,1.4,-3.842,M,40.592,M,2.0,0123*56
$GPVTG,297.18,T,-342.72,M,005.568,N,010.312,K,D*01
$GPGGA,085338.50,5702.8805025,N,00949.9675229,E,2,4,1.4,-3.846,M,40.592,M,2.0,0123*5E
$GPVTG,296.03,T,-343.87,M,005.494,N,010.174,K,D*01
$GPGGA,085338.55,5702.8805341,N,00949.9673985,E,2,4,1.4,-3.854,M,40.592,M,2.0,0123*52
$GPVTG,296.35,T,-343.55,M,005.480,N,010.150,K,D*08
$GPGGA,085338.60,5702.8805714,N,00949.9672823,E,2,4,1.4,-3.856,M,40.592,M,2.0,0123*5E
$GPVTG,297.64,T,-342.26,M,005.411,N,010.020,K,D*06
$GPGGA,085338.65,5702.8806119,N,00949.9671465,E,2,4,1.4,-3.802,M,40.592,M,2.2,0123*5D
$GPVTG,298.08,T,-341.82,M,005.432,N,010.061,K,D*0A
$GPGGA,085338.70,5702.8806482,N,00949.9670196,E,2,4,1.4,-3.802,M,40.592,M,2.2,0123*56
$GPVTG,298.35,T,-341.55,M,005.492,N,010.171,K,D*04
$GPGGA,085338.75,5702.8806845,N,00949.9668983,E,2,4,1.4,-3.800,M,40.592,M,2.2,0123*53
$GPVTG,298.93,T,-340.97,M,005.483,N,010.155,K,D*01
$GPGGA,085338.80,5702.8807221,N,00949.9667752,E,2,4,1.4,-3.800,M,40.592,M,2.2,0123*5D
$GPVTG,299.41,T,-340.49,M,005.506,N,010.197,K,D*0E
$GPGGA,085338.85,5702.8807639,N,00949.9666626,E,2,4,1.4,-3.807,M,40.592,M,2.4,0123*57
$GPVTG,301.09,T,-338.81,M,005.492,N,010.172,K,D*0E
$GPGGA,085338.90,5702.8807971,N,00949.9665443,E,2,4,1.4,-3.814,M,40.592,M,2.4,0123*50
$GPVTG,301.16,T,-338.74,M,005.449,N,010.092,K,D*03
$GPGGA,085338.95,5702.8808376,N,00949.9664290,E,2,4,1.4,-3.818,M,40.592,M,2.4,0123*52
$GPVTG,302.04,T,-337.86,M,005.424,N,010.046,K,D*03
$GPGGA,085339.00,5702.8808755,N,00949.9663124,E,2,4,1.4,-3.822,M,40.592,M,2.4,0123*58
$GPVTG,302.45,T,-337.45,M,005.407,N,010.014,K,D*0F
$GPGGA,085339.05,5702.8809093,N,00949.9661862,E,2,5,1.4,-3.814,M,40.592,M,2.6,0123*5E
$GPVTG,302.07,T,-337.83,M,005.462,N,010.116,K,D*03
$GPGGA,085339.10,5702.8809462,N,00949.9660700,E,2,5,1.4,-3.819,M,40.592,M,2.6,0123*57
$GPVTG,302.31,T,-337.59,M,005.435,N,010.065,K,D*06
$GPGGA,085339.15,5702.8809890,N,00949.9659565,E,2,5,1.4,-3.824,M,40.592,M,2.6,0123*56
$GPVTG,303.21,T,-336.69,M,005.420,N,010.038,K,D*08
$GPGGA,085339.20,5702.8810271,N,00949.9658404,E,2,5,1.4,-3.831,M,40.592,M,2.6,0123*5E
$GPVTG,303.35,T,-336.55,M,005.412,N,010.023,K,D*09
$GPGGA,085339.25,5702.8810739,N,00949.9657216,E,2,5,1.4,-3.804,M,40.592,M,2.9,0123*51
$GPVTG,304.45,T,-335.45,M,005.413,N,010.024,K,D*0D
$GPGGA,085339.30,5702.8811052,N,00949.9656090,E,2,5,1.4,-3.809,M,40.592,M,2.9,0123*5E
$GPVTG,303.88,T,-336.02,M,005.332,N,009.876,K,D*08
$GPGGA,085339.35,5702.8811519,N,00949.9654906,E,2,5,1.4,-3.812,M,40.592,M,2.9,0123*5F
$GPVTG,304.44,T,-335.46,M,005.421,N,010.040,K,D*0C
$GPGGA,085339.40,5702.8812000,N,00949.9653738,E,2,5,1.4,-3.815,M,40.592,M,2.9,0123*50
$GPVTG,305.16,T,-334.74,M,005.494,N,010.174,K,D*02
$GPGGA,085339.45,5702.8812586,N,00949.9652587,E,2,5,1.4,-3.788,M,40.592,M,3.1,0123*5B
$GPVTG,306.69,T,-333.21,M,005.517,N,010.218,K,D*0D
$GPGGA,085339.50,5702.8813008,N,00949.9651500,E,2,5,1.4,-3.783,M,40.592,M,3.1,0123*5A
$GPVTG,307.16,T,-332.74,M,005.468,N,010.127,K,D*03
$GPGGA,085339.55,5702.8813404,N,00949.9650354,E,2,5,1.4,-3.785,M,40.592,M,3.1,0123*57
$GPVTG,306.80,T,-333.10,M,005.470,N,010.131,K,D*00
$GPGGA,085339.60,5702.8813840,N,00949.9649304,E,2,5,1.4,-3.784,M,40.592,M,3.1,0123*51
$GPVTG,307.56,T,-332.34,M,005.405,N,010.010,K,D*0D
$GPGGA,085339.65,5702.8814392,N,00949.9648098,E,2,5,1.4,-3.772,M,40.592,M,3.3,0123*5B
$GPVTG,307.65,T,-332.25,M,005.538,N,010.256,K,D*02
$GPGGA,085339.70,5702.8814879,N,00949.9647019,E,2,5,1.4,-3.769,M,40.592,M,3.3,0123*5D
$GPVTG,308.47,T,-331.43,M,005.532,N,010.245,K,D*06
$GPGGA,085339.75,5702.8815384,N,00949.9645935,E,2,5,1.4,-3.771,M,40.592,M,3.3,0123*5C
$GPVTG,309.28,T,-330.62,M,005.548,N,010.274,K,D*03
$GPGGA,085339.80,5702.8815849,N,00949.9644890,E,2,5,1.4,-3.769,M,40.592,M,3.3,0123*5A
$GPVTG,309.92,T,-329.98,M,005.502,N,010.190,K,D*08
$GPGGA,085339.85,5702.8816253,N,00949.9643893,E,2,5,1.4,-3.786,M,40.592,M,3.5,0123*5E
$GPVTG,309.99,T,-329.91,M,005.433,N,010.061,K,D*06
$GPGGA,085339.90,5702.8816731,N,00949.9642853,E,2,5,1.4,-3.793,M,40.592,M,3.5,0123*52
$GPVTG,310.56,T,-329.34,M,005.412,N,010.023,K,D*07
$GPGGA,085339.95,5702.8817212,N,00949.9641803,E,2,5,1.4,-3.798,M,40.592,M,3.5,0123*5F
$GPVTG,310.95,T,-328.95,M,005.410,N,010.019,K,D*09
$GPGGA,085340.00,5702.8817674,N,00949.9640787,E,2,5,1.4,-3.799,M,40.592,M,3.5,0123*5A
$GPVTG,311.36,T,-328.54,M,005.367,N,009.940,K,D*06
$GPGGA,085340.05,5702.8818250,N,00949.9639658,E,2,5,1.4,-3.772,M,40.592,M,1.9,0123*54
$GPVTG,311.62,T,-328.28,M,005.405,N,010.010,K,D*0B
$GPGGA,085340.10,5702.8818729,N,00949.9638610,E,2,5,1.4,-3.774,M,40.592,M,1.9,0123*50
$GPVTG,311.72,T,-328.18,M,005.413,N,010.024,K,D*09
$GPGGA,085340.15,5702.8819226,N,00949.9637499,E,2,5,1.4,-3.775,M,40.592,M,1.9,0123*53
$GPVTG,311.38,T,-328.52,M,005.490,N,010.168,K,D*0B
$GPGGA,085340.20,5702.8819737,N,00949.9636492,E,2,5,1.4,-3.773,M,40.592,M,1.9,0123*5C
$GPVTG,312.06,T,-327.84,M,005.474,N,010.137,K,D*01
$GPGGA,085340.25,5702.8820161,N,00949.9635615,E,2,5,1.4,-3.794,M,40.592,M,2.1,0123*5A
$GPVTG,312.79,T,-327.11,M,005.342,N,009.893,K,D*08
$GPGGA,085340.30,5702.8820793,N,00949.9634623,E,2,5,1.4,-3.798,M,40.592,M,2.1,0123*5D
$GPVTG,314.32,T,-325.58,M,005.429,N,010.054,K,D*0F
$GPGGA,085340.35,5702.8821309,N,00949.9633669,E,2,5,1.4,-3.800,M,40.592,M,2.1,0123*59
$GPVTG,315.04,T,-324.86,M,005.395,N,009.991,K,D*01
$GPGGA,085340.40,5702.8821825,N,00949.9632676,E,2,5,1.4,-3.806,M,40.592,M,2.1,0123*57
$GPVTG,315.24,T,-324.66,M,005.403,N,010.007,K,D*0B
$GPGGA,085340.45,5702.8822466,N,00949.9631686,E,2,5,1.4,-3.789,M,40.592,M,2.4,0123*5B
$GPVTG,315.80,T,-324.10,M,005.397,N,009.995,K,D*04
$GPGGA,085340.50,5702.8823014,N,00949.9630738,E,2,5,1.4,-3.789,M,40.592,M,2.4,0123*5A
$GPVTG,316.46,T,-323.44,M,005.400,N,010.000,K,D*0F
$GPGGA,085340.55,5702.8823553,N,00949.9629845,E,2,5,1.4,-3.787,M,40.592,M,2.4,0123*5A
$GPVTG,317.43,T,-322.47,M,005.355,N,009.918,K,D*06
$GPGGA,085340.60,5702.8824159,N,00949.9628882,E,2,5,1.4,-3.790,M,40.592,M,2.4,0123*59
$GPVTG,318.05,T,-321.85,M,005.433,N,010.062,K,D*0D
$GPGGA,085340.65,5702.8824778,N,00949.9627943,E,2,5,1.4,-3.787,M,40.592,M,2.6,0123*5E
$GPVTG,318.07,T,-321.83,M,005.445,N,010.084,K,D*00
$GPGGA,085340.70,5702.8825322,N,00949.9626988,E,2,5,1.4,-3.787,M,40.592,M,2.6,0123*56
$GPVTG,318.10,T,-321.80,M,005.464,N,010.120,K,D*09
$GPGGA,085340.75,5702.8825812,N,00949.9626111,E,2,5,1.4,-3.786,M,40.592,M,2.6,0123*52
$GPVTG,318.43,T,-321.47,M,005.374,N,009.953,K,D*06
$GPGGA,085340.80,5702.8826413,N,00949.9625255,E,2,5,1.4,-3.787,M,40.592,M,2.6,0123*57
$GPVTG,319.67,T,-320.23,M,005.372,N,009.949,K,D*0F
$GPGGA,085340.85,5702.8827126,N,00949.9624286,E,2,5,1.4,-3.776,M,40.592,M,2.9,0123*5E
$GPVTG,319.90,T,-320.00,M,005.484,N,010.156,K,D*06
$GPGGA,085340.90,5702.8827760,N,00949.9623387,E,2,5,1.4,-3.774,M,40.592,M,2.9,0123*5B
$GPVTG,320.69,T,-319.21,M,005.540,N,010.260,K,D*0C
$GPGGA,085340.95,5702.8828331,N,00949.9622483,E,2,5,1.4,-3.772,M,40.592,M,2.9,0123*55
$GPVTG,320.85,T,-319.05,M,005.546,N,010.271,K,D*0E
$GPGGA,085341.00,5702.8828966,N,00949.9621596,E,2,5,1.4,-3.770,M,40.592,M,2.9,0123*54
$GPVTG,321.56,T,-318.34,M,005.591,N,010.355,K,D*0F
$GPGGA,085341.05,5702.8829620,N,00949.9620796,E,2,5,1.4,-3.791,M,40.592,M,2.0,0123*58
$GPVTG,322.09,T,-317.81,M,005.597,N,010.367,K,D*00
$GPGGA,085341.10,5702.8830156,N,00949.9619980,E,2,5,1.4,-3.789,M,40.592,M,2.0,0123*58
$GPVTG,322.57,T,-317.33,M,005.507,N,010.198,K,D*09
$GPGGA,085341.15,5702.8830798,N,00949.9619130,E,2,5,1.4,-3.791,M,40.592,M,2.0,0123*53
$GPVTG,323.29,T,-316.61,M,005.545,N,010.269,K,D*0C
$GPGGA,085341.20,5702.8831476,N,00949.9618305,E,2,5,1.4,-3.795,M,40.592,M,2.0,0123*56
$GPVTG,324.34,T,-315.56,M,005.597,N,010.366,K,D*01
$GPGGA,085341.25,5702.8832116,N,00949.9617544,E,2,5,1.4,-3.800,M,40.592,M,2.3,0123*5F
$GPVTG,324.95,T,-314.95,M,005.534,N,010.249,K,D*01
$GPGGA,085341.30,5702.8832626,N,00949.9616733,E,2,5,1.4,-3.798,M,40.592,M,2.3,0123*52
$GPVTG,324.68,T,-315.22,M,005.438,N,010.072,K,D*09
$GPGGA,085341.35,5702.8833213,N,00949.9615928,E,2,5,1.4,-3.801,M,40.592,M,2.3,0123*5C
$GPVTG,324.93,T,-314.97,M,005.418,N,010.033,K,D*05
$GPGGA,085341.40,5702.8833817,N,00949.9615151,E,2,5,1.4,-3.804,M,40.592,M,2.3,0123*53
$GPVTG,325.46,T,-314.44,M,005.399,N,009.999,K,D*0D
$GPGGA,085341.45,5702.8834533,N,00949.9614388,E,2,5,1.4,-3.782,M,40.592,M,2.5,0123*5A
$GPVTG,326.62,T,-313.28,M,005.385,N,009.972,K,D*0D
$GPGGA,085341.50,5702.8835149,N,00949.9613539,E,2,5,1.4,-3.778,M,40.592,M,2.5,0123*58
$GPVTG,326.07,T,-313.83,M,005.440,N,010.075,K,D*07
$GPGGA,085341.55,5702.8835831,N,00949.9612703,E,2,5,1.4,-3.774,M,40.592,M,2.5,0123*5D
$GPVTG,326.16,T,-313.74,M,005.538,N,010.257,K,D*03
$GPGGA,085341.60,5702.8836486,N,00949.9611946,E,2,5,1.4,-3.771,M,40.592,M,2.5,0123*51
$GPVTG,326.85,T,-313.05,M,005.551,N,010.280,K,D*0A
$GPGGA,085341.65,5702.8837123,N,00949.9611306,E,2,5,1.4,-3.806,M,40.592,M,2.7,0123*5C
$GPVTG,327.43,T,-312.47,M,005.525,N,010.233,K,D*0D
$GPGGA,085341.70,5702.8837736,N,00949.9610589,E,2,5,1.4,-3.809,M,40.592,M,2.7,0123*55
$GPVTG,328.04,T,-311.86,M,005.479,N,010.148,K,D*08
$GPGGA,085341.75,5702.8838320,N,00949.9609872,E,2,5,1.4,-3.811,M,40.592,M,2.7,0123*54
$GPVTG,328.31,T,-311.59,M,005.417,N,010.032,K,D*08
$GPGGA,085341.80,5702.8838984,N,00949.9609158,E,2,5,1.4,-3.813,M,40.592,M,2.7,0123*59
$GPVTG,328.99,T,-310.91,M,005.434,N,010.064,K,D*0D
$GPGGA,085341.85,5702.8839718,N,00949.9608458,E,2,5,1.4,-3.802,M,40.592,M,3.0,0123*54
$GPVTG,329.76,T,-310.14,M,005.407,N,010.014,K,D*07
$GPGGA,085341.90,5702.8840298,N,00949.9607758,E,2,5,1.4,-3.804,M,40.592,M,3.0,0123*59
$GPVTG,329.75,T,-310.15,M,005.348,N,009.904,K,D*09
$GPGGA,085341.95,5702.8840956,N,00949.9607057,E,2,5,1.4,-3.806,M,40.592,M,3.0,0123*5F
$GPVTG,330.11,T,-309.79,M,005.369,N,009.944,K,D*06
$GPGGA,085342.00,5702.8841628,N,00949.9606407,E,2,5,1.4,-3.808,M,40.592,M,3.0,0123*59
$GPVTG,331.00,T,-308.90,M,005.377,N,009.958,K,D*03
$GPGGA,085342.05,5702.8842376,N,00949.9605772,E,2,5,1.4,-3.801,M,40.592,M,1.5,0123*5D
$GPVTG,331.76,T,-308.14,M,005.361,N,009.929,K,D*0F
$GPGGA,085342.10,5702.8843035,N,00949.9605145,E,2,5,1.4,-3.800,M,40.592,M,1.5,0123*5F
$GPVTG,332.47,T,-307.43,M,005.353,N,009.914,K,D*0C
$GPGGA,085342.15,5702.8843662,N,00949.9604448,E,2,5,1.4,-3.799,M,40.592,M,1.5,0123*58
$GPVTG,332.05,T,-307.85,M,005.359,N,009.925,K,D*08
$GPGGA,085342.20,5702.8844356,N,00949.9603793,E,2,5,1.4,-3.797,M,40.592,M,1.5,0123*57
$GPVTG,332.45,T,-307.45,M,005.405,N,010.010,K,D*09
$GPGGA,085342.25,5702.8845157,N,00949.9603253,E,2,5,1.4,-3.810,M,40.592,M,1.7,0123*5B
$GPVTG,333.70,T,-306.20,M,005.438,N,010.072,K,D*06
$GPGGA,085342.30,5702.8845765,N,00949.9602621,E,2,5,1.4,-3.814,M,40.592,M,1.7,0123*5C
$GPVTG,333.59,T,-306.31,M,005.391,N,009.985,K,D*00
$GPGGA,085342.35,5702.8846382,N,00949.9602012,E,2,5,1.4,-3.818,M,40.592,M,1.7,0123*5D
$GPVTG,333.73,T,-306.17,M,005.345,N,009.899,K,D*09
$GPGGA,085342.40,5702.8847105,N,00949.9601429,E,2,5,1.4,-3.819,M,40.592,M,1.7,0123*5D
$GPVTG,334.60,T,-305.30,M,005.392,N,009.986,K,D*0F
$GPGGA,085342.45,5702.8847906,N,00949.9600891,E,2,5,1.4,-3.817,M,40.592,M,2.0,0123*57
$GPVTG,335.63,T,-304.27,M,005.396,N,009.993,K,D*0A
$GPGGA,085342.50,5702.8848546,N,00949.9600333,E,2,5,1.4,-3.813,M,40.592,M,2.0,0123*53
$GPVTG,336.01,T,-303.89,M,005.355,N,009.918,K,D*02
$GPGGA,085342.55,5702.8849162,N,00949.9599736,E,2,5,1.4,-3.815,M,40.592,M,2.0,0123*51
$GPVTG,335.67,T,-304.23,M,005.316,N,009.846,K,D*0B
$GPGGA,085342.60,5702.8849849,N,00949.9599182,E,2,5,1.4,-3.814,M,40.592,M,2.0,0123*5F
$GPVTG,336.15,T,-303.75,M,005.330,N,009.871,K,D*09
$GPGGA,085342.65,5702.8850589,N,00949.9598721,E,2,5,1.4,-3.827,M,40.592,M,2.2,0123*5F
$GPVTG,336.77,T,-303.13,M,005.306,N,009.826,K,D*0A
$GPGGA,085342.70,5702.8851283,N,00949.9598176,E,2,5,1.4,-3.822,M,40.592,M,2.2,0123*56
$GPVTG,337.17,T,-302.73,M,005.320,N,009.853,K,D*0C
$GPGGA,085342.75,5702.8852014,N,00949.9597660,E,2,5,1.4,-3.820,M,40.592,M,2.2,0123*51
$GPVTG,337.82,T,-302.08,M,005.355,N,009.918,K,D*00
$GPGGA,085342.80,5702.8852651,N,00949.9597186,E,2,5,1.4,-3.821,M,40.592,M,2.2,0123*52
$GPVTG,338.42,T,-301.48,M,005.307,N,009.829,K,D*00
$GPGGA,085342.85,5702.8853412,N,00949.9596744,E,2,5,1.4,-3.836,M,40.592,M,2.4,0123*5A
$GPVTG,338.85,T,-301.05,M,005.293,N,009.803,K,D*06
$GPGGA,085342.90,5702.8854107,N,00949.9596392,E,2,5,1.4,-3.838,M,40.592,M,2.4,0123*59
$GPVTG,340.56,T,-299.34,M,005.259,N,009.739,K,D*05
$GPGGA,085342.95,5702.8854819,N,00949.9595971,E,2,5,1.4,-3.835,M,40.592,M,2.4,0123*53
$GPVTG,341.45,T,-298.45,M,005.268,N,009.756,K,D*0A
$GPGGA,085343.00,5702.8855508,N,00949.9595480,E,2,5,1.4,-3.840,M,40.592,M,2.4,0123*53
$GPVTG,341.41,T,-298.49,M,005.283,N,009.783,K,D*0F
$GPGGA,085343.05,5702.8856311,N,00949.9595154,E,2,5,1.4,-3.848,M,40.592,M,2.6,0123*5D
$GPVTG,342.61,T,-297.29,M,005.275,N,009.770,K,D*02
$GPGGA,085343.10,5702.8856995,N,00949.9594710,E,2,5,1.4,-3.845,M,40.592,M,2.6,0123*55
$GPVTG,342.73,T,-297.17,M,005.276,N,009.771,K,D*0E
$GPGGA,085343.15,5702.8857680,N,00949.9594289,E,2,5,1.4,-3.842,M,40.592,M,2.6,0123*58
$GPVTG,343.00,T,-296.90,M,005.271,N,009.763,K,D*01
$GPGGA,085343.20,5702.8858367,N,00949.9593943,E,2,5,1.4,-3.841,M,40.592,M,2.6,0123*54
$GPVTG,343.93,T,-295.97,M,005.251,N,009.725,K,D*0F
$GPGGA,085343.25,5702.8859160,N,00949.9593593,E,2,5,1.4,-3.867,M,40.592,M,2.9,0123*5F
$GPVTG,343.91,T,-295.99,M,005.253,N,009.729,K,D*0D
$GPGGA,085343.30,5702.8859872,N,00949.9593271,E,2,5,1.4,-3.867,M,40.592,M,2.9,0123*5A
$GPVTG,344.91,T,-294.99,M,005.253,N,009.729,K,D*0B
$GPGGA,085343.35,5702.8860573,N,00949.9592915,E,2,5,1.4,-3.866,M,40.592,M,2.9,0123*50
$GPVTG,345.35,T,-294.55,M,005.254,N,009.730,K,D*0B
$GPGGA,085343.40,5702.8861269,N,00949.9592595,E,2,5,1.4,-3.866,M,40.592,M,2.9,0123*5B
$GPVTG,346.01,T,-293.89,M,005.245,N,009.713,K,D*08
$GPGGA,085343.45,5702.8862077,N,00949.9592267,E,2,5,1.4,-3.878,M,40.592,M,3.1,0123*5C
$GPVTG,345.85,T,-294.05,M,005.243,N,009.710,K,D*01
$GPGGA,085343.50,5702.8862745,N,00949.9591949,E,2,5,1.4,-3.876,M,40.592,M,3.1,0123*54
$GPVTG,346.28,T,-293.62,M,005.210,N,009.649,K,D*08
$GPGGA,085343.55,5702.8863467,N,00949.9591619,E,2,5,1.4,-3.878,M,40.592,M,3.1,0123*57
$GPVTG,346.60,T,-293.30,M,005.232,N,009.690,K,D*07
$GPGGA,085343.60,5702.8864143,N,00949.9591302,E,2,5,1.4,-3.878,M,40.592,M,3.1,0123*5A
$GPVTG,346.85,T,-293.05,M,005.210,N,009.648,K,D*0F
$GPGGA,085343.65,5702.8864917,N,00949.9591084,E,2,5,1.4,-3.894,M,40.592,M,3.3,0123*5B
$GPVTG,347.36,T,-292.54,M,005.182,N,009.596,K,D*0B
$GPGGA,085343.70,5702.8865620,N,00949.9590743,E,2,5,1.4,-3.890,M,40.592,M,3.3,0123*5C
$GPVTG,347.20,T,-292.70,M,005.194,N,009.619,K,D*09
$GPGGA,085343.75,5702.8866305,N,00949.9590478,E,2,5,1.4,-3.889,M,40.592,M,3.3,0123*5B
$GPVTG,347.80,T,-292.10,M,005.174,N,009.581,K,D*09
$GPGGA,085343.80,5702.8867037,N,00949.9590252,E,2,5,1.4,-3.889,M,40.592,M,3.3,0123*5C
$GPVTG,348.78,T,-291.12,M,005.191,N,009.614,K,D*04
$GPGGA,085343.85,5702.8867863,N,00949.9590124,E,2,5,1.4,-3.923,M,40.592,M,3.5,0123*55
$GPVTG,349.78,T,-290.12,M,005.174,N,009.583,K,D*02
$GPGGA,085343.90,5702.8868585,N,00949.9589847,E,2,5,1.4,-3.920,M,40.592,M,3.5,0123*5C
$GPVTG,349.83,T,-290.07,M,005.197,N,009.624,K,D*01
$GPGGA,085343.95,5702.8869276,N,00949.9589615,E,2,5,1.4,-3.918,M,40.592,M,3.5,0123*51
$GPVTG,350.23,T,-289.67,M,005.182,N,009.596,K,D*03
$GPGGA,085344.00,5702.8869951,N,00949.9589296,E,2,5,1.4,-3.917,M,40.592,M,3.5,0123*54
$GPVTG,349.56,T,-290.34,M,005.169,N,009.572,K,D*08
$GPGGA,085344.05,5702.8870768,N,00949.9589210,E,2,5,1.4,-3.934,M,40.592,M,1.9,0123*5C
$GPVTG,350.92,T,-288.98,M,005.161,N,009.558,K,D*07
$GPGGA,085344.10,5702.8871478,N,00949.9589048,E,2,5,1.4,-3.936,M,40.592,M,1.9,0123*56
$GPVTG,351.82,T,-288.08,M,005.158,N,009.553,K,D*0F
$GPGGA,085344.15,5702.8872189,N,00949.9588887,E,2,5,1.4,-3.935,M,40.592,M,1.9,0123*52
$GPVTG,352.56,T,-287.34,M,005.159,N,009.554,K,D*03
$GPGGA,085344.20,5702.8872869,N,00949.9588683,E,2,5,1.4,-3.936,M,40.592,M,1.9,0123*5A
$GPVTG,352.63,T,-287.27,M,005.137,N,009.514,K,D*0B
$GPGGA,085344.25,5702.8873682,N,00949.9588549,E,2,5,1.4,-3.946,M,40.592,M,2.1,0123*5C
$GPVTG,352.92,T,-286.98,M,005.135,N,009.511,K,D*07
$GPGGA,085344.30,5702.8874403,N,00949.9588347,E,2,5,1.4,-3.943,M,40.592,M,2.1,0123*59
$GPVTG,352.89,T,-287.01,M,005.154,N,009.545,K,D*0A
$GPGGA,085344.35,5702.8875097,N,00949.9588208,E,2,5,1.4,-3.946,M,40.592,M,2.1,0123*5B
$GPVTG,353.48,T,-286.42,M,005.139,N,009.517,K,D*0C
$GPGGA,085344.40,5702.8875837,N,00949.9588148,E,2,5,1.4,-3.944,M,40.592,M,2.1,0123*5E
$GPVTG,354.86,T,-285.04,M,005.161,N,009.559,K,D*0F
$GPGGA,085344.45,5702.8876660,N,00949.9588092,E,2,5,1.4,-3.981,M,40.592,M,2.4,0123*5E
$GPVTG,355.17,T,-284.73,M,005.156,N,009.549,K,D*02
$GPGGA,085344.50,5702.8877354,N,00949.9587975,E,2,5,1.4,-3.980,M,40.592,M,2.4,0123*57
$GPVTG,355.53,T,-284.37,M,005.141,N,009.522,K,D*09
$GPGGA,085344.55,5702.8878045,N,00949.9587819,E,2,5,1.4,-3.977,M,40.592,M,2.4,0123*5D
$GPVTG,355.32,T,-284.58,M,005.128,N,009.496,K,D*06
$GPGGA,085344.60,5702.8878715,N,00949.9587653,E,2,5,1.4,-3.978,M,40.592,M,2.4,0123*56
$GPVTG,354.97,T,-284.93,M,005.096,N,009.438,K,D*0F
$GPGGA,085344.65,5702.8879515,N,00949.9587655,E,2,5,1.4,-3.999,M,40.592,M,2.6,0123*5B
$GPVTG,355.87,T,-284.03,M,005.096,N,009.437,K,D*09
$GPGGA,085344.70,5702.8880200,N,00949.9587557,E,2,5,1.4,-3.998,M,40.592,M,2.6,0123*5A
$GPVTG,356.15,T,-283.75,M,005.076,N,009.400,K,D*0D
$GPGGA,085344.75,5702.8880886,N,00949.9587392,E,2,5,1.4,-3.993,M,40.592,M,2.6,0123*5F
$GPVTG,355.57,T,-284.33,M,005.064,N,009.378,K,D*06
$GPGGA,085344.80,5702.8881557,N,00949.9587303,E,2,5,1.4,-3.990,M,40.592,M,2.6,0123*5E
$GPVTG,355.89,T,-284.01,M,005.032,N,009.318,K,D*01
$GPGGA,085344.85,5702.8882302,N,00949.9587347,E,2,5,1.4,-4.008,M,40.592,M,2.9,0123*5E
$GPVTG,356.87,T,-283.03,M,005.016,N,009.289,K,D*06
$GPGGA,085344.90,5702.8883068,N,00949.9587270,E,2,5,1.4,-4.004,M,40.592,M,2.9,0123*5D
$GPVTG,357.15,T,-282.75,M,005.083,N,009.414,K,D*02
$GPGGA,085344.95,5702.8883717,N,00949.9587183,E,2,5,1.4,-3.997,M,40.592,M,2.9,0123*5C
$GPVTG,357.16,T,-282.74,M,005.031,N,009.317,K,D*0D
$GPGGA,085345.00,5702.8884379,N,00949.9587113,E,2,5,1.4,-3.995,M,40.592,M,2.9,0123*51
$GPVTG,357.33,T,-282.57,M,004.993,N,009.247,K,D*0F
$GPGGA,085345.05,5702.8885124,N,00949.9587141,E,2,5,1.4,-4.029,M,40.592,M,2.0,0123*58
$GPVTG,358.27,T,-281.63,M,004.883,N,009.043,K,D*07
$GPGGA,085345.10,5702.8885855,N,00949.9587110,E,2,5,1.4,-4.030,M,40.592,M,2.0,0123*5F
$GPVTG,358.71,T,-281.19,M,004.944,N,009.156,K,D*06
$GPGGA,085345.15,5702.8886543,N,00949.9587135,E,2,5,1.4,-4.034,M,40.592,M,2.0,0123*50
$GPVTG,359.87,T,-280.03,M,004.940,N,009.150,K,D*06
$GPGGA,085345.20,5702.8887217,N,00949.9587175,E,2,5,1.4,-4.040,M,40.592,M,2.0,0123*56
$GPVTG,000.91,T,-638.99,M,004.922,N,009.115,K,D*0F
$GPGGA,085345.25,5702.8887946,N,00949.9587250,E,2,5,1.4,-4.042,M,40.592,M,2.3,0123*59
$GPVTG,002.30,T,-637.60,M,004.858,N,008.998,K,D*0F
$GPGGA,085345.30,5702.8888684,N,00949.9587301,E,2,5,1.4,-4.043,M,40.592,M,2.3,0123*57
$GPVTG,002.88,T,-637.02,M,004.926,N,009.123,K,D*09
$GPGGA,085345.35,5702.8889379,N,00949.9587327,E,2,5,1.4,-4.048,M,40.592,M,2.3,0123*5B
$GPVTG,002.92,T,-636.98,M,004.936,N,009.142,K,D*06
$GPGGA,085345.40,5702.8890082,N,00949.9587433,E,2,5,1.4,-4.050,M,40.592,M,2.3,0123*5D
$GPVTG,003.98,T,-635.92,M,004.960,N,009.185,K,D*0C
$GPGGA,085345.45,5702.8890787,N,00949.9587571,E,2,5,1.4,-4.071,M,40.592,M,2.5,0123*58
$GPVTG,004.68,T,-635.22,M,004.902,N,009.078,K,D*08
$GPGGA,085345.50,5702.8891427,N,00949.9587692,E,2,5,1.4,-4.072,M,40.592,M,2.5,0123*59
$GPVTG,005.55,T,-634.35,M,004.861,N,009.002,K,D*09
$GPGGA,085345.55,5702.8892120,N,00949.9587799,E,2,5,1.4,-4.074,M,40.592,M,2.5,0123*51
$GPVTG,005.95,T,-633.95,M,004.879,N,009.036,K,D*06
$GPGGA,085345.60,5702.8892819,N,00949.9587920,E,2,5,1.4,-4.078,M,40.592,M,2.5,0123*54
$GPVTG,006.35,T,-633.55,M,004.904,N,009.083,K,D*06
$GPGGA,085345.65,5702.8893547,N,00949.9588078,E,2,5,1.4,-4.088,M,40.592,M,2.7,0123*50
$GPVTG,006.85,T,-633.05,M,004.879,N,009.035,K,D*0E
$GPGGA,085345.70,5702.8894185,N,00949.9588238,E,2,5,1.4,-4.089,M,40.592,M,2.7,0123*5E
$GPVTG,007.58,T,-632.32,M,004.843,N,008.969,K,D*02
$GPGGA,085345.75,5702.8894926,N,00949.9588380,E,2,5,1.4,-4.087,M,40.592,M,2.7,0123*56
$GPVTG,007.68,T,-632.22,M,004.916,N,009.104,K,D*03
$GPGGA,085345.80,5702.8895568,N,00949.9588534,E,2,5,1.4,-4.085,M,40.592,M,2.7,0123*50
$GPVTG,008.03,T,-631.87,M,004.880,N,009.037,K,D*02
$GPGGA,085345.85,5702.8896352,N,00949.9588750,E,2,5,1.4,-4.103,M,40.592,M,3.0,0123*50
$GPVTG,008.14,T,-631.76,M,004.936,N,009.141,K,D*06
$GPGGA,085345.90,5702.8897026,N,00949.9588903,E,2,5,1.4,-4.102,M,40.592,M,3.0,0123*5C
$GPVTG,008.19,T,-631.71,M,004.930,N,009.130,K,D*0C
$GPGGA,085345.95,5702.8897666,N,00949.9589061,E,2,5,1.4,-4.100,M,40.592,M,3.0,0123*55
$GPVTG,008.29,T,-631.61,M,004.889,N,009.055,K,D*0F
$GPGGA,085346.00,5702.8898293,N,00949.9589236,E,2,5,1.4,-4.094,M,40.592,M,3.0,0123*57
$GPVTG,008.61,T,-631.29,M,004.841,N,008.966,K,D*03
$GPGGA,085346.05,5702.8898991,N,00949.9589496,E,2,5,1.4,-4.104,M,40.592,M,1.5,0123*58
$GPVTG,009.36,T,-630.54,M,004.811,N,008.910,K,D*0F
$GPGGA,085346.10,5702.8899729,N,00949.9589697,E,2,5,1.4,-4.103,M,40.592,M,1.5,0123*54
$GPVTG,009.55,T,-630.35,M,004.891,N,009.057,K,D*0E
$GPGGA,085346.15,5702.8900385,N,00949.9590014,E,2,5,1.4,-4.102,M,40.592,M,1.5,0123*56
$GPVTG,011.43,T,-628.47,M,004.902,N,009.079,K,D*0B
$GPGGA,085346.20,5702.8901037,N,00949.9590254,E,2,5,1.4,-4.100,M,40.592,M,1.5,0123*5F
$GPVTG,011.88,T,-628.02,M,004.890,N,009.055,K,D*09
$GPGGA,085346.25,5702.8901627,N,00949.9590603,E,2,5,1.4,-4.124,M,40.592,M,1.7,0123*5F
$GPVTG,012.93,T,-626.97,M,004.790,N,008.872,K,D*01
$GPGGA,085346.30,5702.8902258,N,00949.9590901,E,2,5,1.4,-4.124,M,40.592,M,1.7,0123*59
$GPVTG,013.88,T,-626.02,M,004.777,N,008.848,K,D*06
$GPGGA,085346.35,5702.8902889,N,00949.9591196,E,2,5,1.4,-4.123,M,40.592,M,1.7,0123*5A
$GPVTG,014.57,T,-625.33,M,004.763,N,008.821,K,D*08
$GPGGA,085346.40,5702.8903564,N,00949.9591535,E,2,5,1.4,-4.124,M,40.592,M,1.7,0123*5D
$GPVTG,015.50,T,-624.40,M,004.807,N,008.903,K,D*07
$GPGGA,085346.45,5702.8904331,N,00949.9591796,E,2,5,1.4,-4.115,M,40.592,M,2.0,0123*54
$GPVTG,014.99,T,-624.91,M,004.852,N,008.986,K,D*02
$GPGGA,085346.50,5702.8905013,N,00949.9592090,E,2,5,1.4,-4.109,M,40.592,M,2.0,0123*5D
$GPVTG,014.99,T,-624.91,M,004.880,N,009.038,K,D*00
$GPGGA,085346.55,5702.8905585,N,00949.9592463,E,2,5,1.4,-4.105,M,40.592,M,2.0,0123*56
$GPVTG,016.40,T,-623.50,M,004.816,N,008.920,K,D*02
$GPGGA,085346.60,5702.8906253,N,00949.9592791,E,2,5,1.4,-4.103,M,40.592,M,2.0,0123*57
$GPVTG,016.56,T,-623.34,M,004.839,N,008.963,K,D*0D
$GPGGA,085346.65,5702.8906932,N,00949.9593211,E,2,5,1.4,-4.123,M,40.592,M,2.2,0123*52
$GPVTG,017.16,T,-622.74,M,004.843,N,008.969,K,D*0A
$GPGGA,085346.70,5702.8907583,N,00949.9593619,E,2,5,1.4,-4.122,M,40.592,M,2.2,0123*5C
$GPVTG,018.20,T,-621.70,M,004.871,N,009.022,K,D*01
$GPGGA,085346.75,5702.8908262,N,00949.9593997,E,2,5,1.4,-4.121,M,40.592,M,2.2,0123*54
$GPVTG,018.46,T,-621.44,M,004.911,N,009.095,K,D*0D
$GPGGA,085346.80,5702.8908827,N,00949.9594343,E,2,5,1.4,-4.118,M,40.592,M,2.2,0123*5B
$GPVTG,018.62,T,-621.28,M,004.818,N,008.924,K,D*0B
$GPGGA,085346.85,5702.8909357,N,00949.9594725,E,2,5,1.4,-4.122,M,40.592,M,2.4,0123*58
$GPVTG,019.21,T,-620.69,M,004.661,N,008.633,K,D*00
$GPGGA,085346.90,5702.8910039,N,00949.9595160,E,2,5,1.4,-4.117,M,40.592,M,2.4,0123*5F
$GPVTG,019.93,T,-619.97,M,004.740,N,008.778,K,D*0E
$GPGGA,085346.95,5702.8910710,N,00949.9595534,E,2,5,1.4,-4.117,M,40.592,M,2.4,0123*53
$GPVTG,019.66,T,-620.24,M,004.774,N,008.841,K,D*04
$GPGGA,085347.00,5702.8911391,N,00949.9595935,E,2,5,1.4,-4.115,M,40.592,M,2.4,0123*5D
$GPVTG,019.68,T,-620.22,M,004.825,N,008.935,K,D*05
$GPGGA,085347.05,5702.8911990,N,00949.9596456,E,2,5,1.4,-4.116,M,40.592,M,2.6,0123*59
$GPVTG,020.40,T,-619.50,M,004.840,N,008.964,K,D*0D
$GPGGA,085347.10,5702.8912574,N,00949.9596885,E,2,5,1.4,-4.112,M,40.592,M,2.6,0123*5E
$GPVTG,020.94,T,-618.96,M,004.811,N,008.910,K,D*08
$GPGGA,085347.15,5702.8913123,N,00949.9597310,E,2,5,1.4,-4.107,M,40.592,M,2.6,0123*5E
$GPVTG,021.47,T,-618.43,M,004.753,N,008.803,K,D*05
$GPGGA,085347.20,5702.8913735,N,00949.9597713,E,2,5,1.4,-4.106,M,40.592,M,2.6,0123*5F
$GPVTG,021.47,T,-618.43,M,004.735,N,008.770,K,D*0E
$GPGGA,085347.25,5702.8914311,N,00949.9598147,E,2,5,1.4,-4.111,M,40.592,M,2.9,0123*5E
$GPVTG,021.49,T,-618.41,M,004.695,N,008.694,K,D*02
$GPGGA,085347.30,5702.8914891,N,00949.9598622,E,2,5,1.4,-4.114,M,40.592,M,2.9,0123*58
$GPVTG,022.29,T,-617.61,M,004.679,N,008.666,K,D*05
$GPGGA,085347.35,5702.8915502,N,00949.9599166,E,2,5,1.4,-4.116,M,40.592,M,2.9,0123*5F
$GPVTG,023.59,T,-616.31,M,004.715,N,008.733,K,D*0D
$GPGGA,085347.40,5702.8916110,N,00949.9599697,E,2,5,1.4,-4.118,M,40.592,M,2.9,0123*5E
$GPVTG,024.55,T,-615.35,M,004.741,N,008.780,K,D*08
$GPGGA,085347.45,5702.8916650,N,00949.9600223,E,2,5,1.4,-4.107,M,40.592,M,3.1,0123*57
$GPVTG,025.40,T,-614.50,M,004.720,N,008.742,K,D*06
$GPGGA,085347.50,5702.8917232,N,00949.9600666,E,2,5,1.4,-4.105,M,40.592,M,3.1,0123*55
$GPVTG,025.14,T,-614.76,M,004.680,N,008.668,K,D*01
$GPGGA,085347.55,5702.8917813,N,00949.9601196,E,2,5,1.4,-4.103,M,40.592,M,3.1,0123*56
$GPVTG,025.87,T,-614.03,M,004.681,N,008.670,K,D*01
$GPGGA,085347.60,5702.8918381,N,00949.9601695,E,2,5,1.4,-4.095,M,40.592,M,3.1,0123*55
$GPVTG,026.19,T,-613.71,M,004.655,N,008.621,K,D*0A
$GPGGA,085347.65,5702.8919010,N,00949.9602197,E,2,5,1.4,-4.092,M,40.592,M,3.3,0123*59
$GPVTG,025.00,T,-614.90,M,004.708,N,008.719,K,D*0A
$GPGGA,085347.70,5702.8919605,N,00949.9602704,E,2,5,1.4,-4.087,M,40.592,M,3.3,0123*57
$GPVTG,025.24,T,-614.66,M,004.709,N,008.722,K,D*0C
$GPGGA,085347.75,5702.8920179,N,00949.9603207,E,2,5,1.4,-4.084,M,40.592,M,3.3,0123*50
$GPVTG,025.50,T,-614.40,M,004.682,N,008.672,K,D*0D
$GPGGA,085347.80,5702.8920746,N,00949.9603789,E,2,5,1.4,-4.078,M,40.592,M,3.3,0123*50
$GPVTG,026.81,T,-613.09,M,004.695,N,008.695,K,D*07
$GPGGA,085347.85,5702.8921260,N,00949.9604416,E,2,5,1.4,-4.102,M,40.592,M,3.5,0123*5D
$GPVTG,027.36,T,-612.54,M,004.686,N,008.679,K,D*03
$GPGGA,085347.90,5702.8921860,N,00949.9604965,E,2,5,1.4,-4.102,M,40.592,M,3.5,0123*5A
$GPVTG,027.61,T,-612.29,M,004.709,N,008.721,K,D*01
$GPGGA,085347.95,5702.8922395,N,00949.9605522,E,2,5,1.4,-4.103,M,40.592,M,3.5,0123*52
$GPVTG,028.28,T,-611.62,M,004.667,N,008.643,K,D*03
$GPGGA,085348.00,5702.8922968,N,00949.9606146,E,2,5,1.4,-4.106,M,40.592,M,3.5,0123*59
$GPVTG,029.42,T,-610.48,M,004.704,N,008.711,K,D*05
$GPGGA,085348.05,5702.8923444,N,00949.9606720,E,2,5,1.4,-4.098,M,40.592,M,1.9,0123*50
$GPVTG,030.47,T,-609.43,M,004.626,N,008.567,K,D*09
$GPGGA,085348.10,5702.8923908,N,00949.9607364,E,2,5,1.4,-4.093,M,40.592,M,1.9,0123*5F
$GPVTG,032.25,T,-607.65,M,004.571,N,008.466,K,D*04
$GPGGA,085348.15,5702.8924454,N,00949.9607985,E,2,5,1.4,-4.090,M,40.592,M,1.9,0123*5F
$GPVTG,032.82,T,-607.08,M,004.579,N,008.481,K,D*03
$GPGGA,085348.20,5702.8925008,N,00949.9608637,E,2,5,1.4,-4.092,M,40.592,M,1.9,0123*5E
$GPVTG,033.55,T,-606.35,M,004.610,N,008.537,K,D*07
$GPGGA,085348.25,5702.8925587,N,00949.9609201,E,2,5,1.4,-4.076,M,40.592,M,2.1,0123*58
$GPVTG,032.98,T,-606.92,M,004.627,N,008.569,K,D*05
$GPGGA,085348.30,5702.8926045,N,00949.9609860,E,2,5,1.4,-4.076,M,40.592,M,2.1,0123*59
$GPVTG,034.30,T,-605.60,M,004.567,N,008.459,K,D*0A
$GPGGA,085348.35,5702.8926514,N,00949.9610522,E,2,5,1.4,-4.077,M,40.592,M,2.1,0123*5F
$GPVTG,035.37,T,-604.53,M,004.521,N,008.374,K,D*07
$GPGGA,085348.40,5702.8927051,N,00949.9611181,E,2,5,1.4,-4.074,M,40.592,M,2.1,0123*57
$GPVTG,035.68,T,-604.22,M,004.534,N,008.396,K,D*03
$GPGGA,085348.45,5702.8927510,N,00949.9611814,E,2,5,1.4,-4.061,M,40.592,M,2.4,0123*56
$GPVTG,036.01,T,-603.89,M,004.486,N,008.308,K,D*06
$GPGGA,085348.50,5702.8928009,N,00949.9612467,E,2,5,1.4,-4.055,M,40.592,M,2.4,0123*5C
$GPVTG,036.34,T,-603.56,M,004.460,N,008.260,K,D*05
$GPGGA,085348.55,5702.8928645,N,00949.9613157,E,2,5,1.4,-4.055,M,40.592,M,2.4,0123*50
$GPVTG,035.90,T,-604.00,M,004.584,N,008.490,K,D*0E
$GPGGA,085348.60,5702.8929196,N,00949.9613813,E,2,5,1.4,-4.053,M,40.592,M,2.4,0123*51
$GPVTG,035.69,T,-604.21,M,004.595,N,008.510,K,D*02
$GPGGA,085348.65,5702.8929533,N,00949.9614544,E,2,5,1.4,-4.069,M,40.592,M,2.6,0123*5C
$GPVTG,036.95,T,-602.95,M,004.481,N,008.298,K,D*08
$GPGGA,085348.70,5702.8930077,N,00949.9615241,E,2,5,1.4,-4.071,M,40.592,M,2.6,0123*5F
$GPVTG,037.11,T,-602.79,M,004.523,N,008.376,K,D*0F
$GPGGA,085348.75,5702.8930560,N,00949.9616000,E,2,5,1.4,-4.072,M,40.592,M,2.6,0123*5E
$GPVTG,038.43,T,-601.47,M,004.550,N,008.427,K,D*0E
$GPGGA,085348.80,5702.8930966,N,00949.9616709,E,2,5,1.4,-4.072,M,40.592,M,2.6,0123*50
$GPVTG,039.58,T,-600.32,M,004.468,N,008.274,K,D*0C
$GPGGA,085348.85,5702.8931426,N,00949.9617339,E,2,5,1.4,-4.027,M,40.592,M,2.9,0123*54
$GPVTG,040.03,T,-599.87,M,004.453,N,008.246,K,D*08
$GPGGA,085348.90,5702.8931948,N,00949.9618062,E,2,5,1.4,-4.022,M,40.592,M,2.9,0123*52
$GPVTG,040.03,T,-599.87,M,004.483,N,008.303,K,D*05
$GPGGA,085348.95,5702.8932454,N,00949.9618781,E,2,5,1.4,-4.019,M,40.592,M,2.9,0123*56
$GPVTG,040.05,T,-599.85,M,004.492,N,008.319,K,D*0A
$GPGGA,085349.00,5702.8932983,N,00949.9619496,E,2,5,1.4,-4.015,M,40.592,M,2.9,0123*54
$GPVTG,039.77,T,-600.13,M,004.516,N,008.363,K,D*0D
$GPGGA,085349.05,5702.8933436,N,00949.9620289,E,2,5,1.4,-4.034,M,40.592,M,2.0,0123*5B
$GPVTG,039.64,T,-600.26,M,004.552,N,008.431,K,D*09
$GPGGA,085349.10,5702.8933794,N,00949.9621150,E,2,5,1.4,-4.033,M,40.592,M,2.0,0123*55
$GPVTG,042.51,T,-597.39,M,004.548,N,008.423,K,D*08
$GPGGA,085349.15,5702.8934170,N,00949.9621903,E,2,5,1.4,-4.032,M,40.592,M,2.0,0123*54
$GPVTG,043.56,T,-596.34,M,004.461,N,008.262,K,D*0B
$GPGGA,085349.20,5702.8934646,N,00949.9622708,E,2,5,1.4,-4.034,M,40.592,M,2.0,0123*50
$GPVTG,044.14,T,-595.76,M,004.500,N,008.334,K,D*0B
$GPGGA,085349.25,5702.8935051,N,00949.9623445,E,2,5,1.4,-3.998,M,40.592,M,2.3,0123*54
$GPVTG,044.93,T,-594.97,M,004.524,N,008.379,K,D*05
$GPGGA,085349.30,5702.8935449,N,00949.9624259,E,2,5,1.4,-3.995,M,40.592,M,2.3,0123*5C
$GPVTG,045.99,T,-593.91,M,004.496,N,008.327,K,D*0C
$GPGGA,085349.35,5702.8935958,N,00949.9625132,E,2,5,1.4,-3.992,M,40.592,M,2.3,0123*5C
$GPVTG,046.40,T,-593.50,M,004.601,N,008.520,K,D*0B
$GPGGA,085349.40,5702.8936405,N,00949.9625924,E,2,5,1.4,-3.993,M,40.592,M,2.3,0123*56
$GPVTG,046.39,T,-593.51,M,004.572,N,008.467,K,D*01
$GPGGA,085349.45,5702.8936703,N,00949.9626747,E,2,5,1.4,-3.984,M,40.592,M,2.5,0123*5E
$GPVTG,047.15,T,-592.75,M,004.535,N,008.399,K,D*0C
$GPGGA,085349.50,5702.8937130,N,00949.9627548,E,2,5,1.4,-3.981,M,40.592,M,2.5,0123*54
$GPVTG,047.22,T,-592.68,M,004.497,N,008.329,K,D*06
$GPGGA,085349.55,5702.8937457,N,00949.9628418,E,2,5,1.4,-3.974,M,40.592,M,2.5,0123*54
$GPVTG,048.99,T,-590.91,M,004.453,N,008.248,K,D*03
$GPGGA,085349.60,5702.8937826,N,00949.9629271,E,2,5,1.4,-3.974,M,40.592,M,2.5,0123*50
$GPVTG,049.93,T,-589.97,M,004.424,N,008.194,K,D*04
$GPGGA,085349.65,5702.8938264,N,00949.9630046,E,2,5,1.4,-3.933,M,40.592,M,2.7,0123*59
$GPVTG,049.24,T,-590.66,M,004.484,N,008.305,K,D*0E
$GPGGA,085349.70,5702.8938747,N,00949.9630879,E,2,5,1.4,-3.925,M,40.592,M,2.7,0123*5A
$GPVTG,048.61,T,-591.29,M,004.508,N,008.349,K,D*09
$GPGGA,085349.75,5702.8939121,N,00949.9631690,E,2,5,1.4,-3.916,M,40.592,M,2.7,0123*50
$GPVTG,048.90,T,-591.00,M,004.434,N,008.211,K,D*0E
$GPGGA,085349.80,5702.8939524,N,00949.9632551,E,2,5,1.4,-3.914,M,40.592,M,2.7,0123*54
$GPVTG,049.38,T,-590.52,M,004.433,N,008.210,K,D*0D
$GPGGA,085349.85,5702.8939763,N,00949.9633483,E,2,5,1.4,-3.918,M,40.592,M,3.0,0123*55
$GPVTG,050.72,T,-589.18,M,004.428,N,008.201,K,D*07
$GPGGA,085349.90,5702.8940179,N,00949.9634387,E,2,5,1.4,-3.915,M,40.592,M,3.0,0123*5B
$GPVTG,051.21,T,-588.69,M,004.473,N,008.283,K,D*03
$GPGGA,085349.95,5702.8940494,N,00949.9635321,E,2,5,1.4,-3.914,M,40.592,M,3.0,0123*54
$GPVTG,052.92,T,-586.98,M,004.470,N,008.278,K,D*0F
$GPGGA,085350.00,5702.8940893,N,00949.9636239,E,2,5,1.4,-3.915,M,40.592,M,3.0,0123*51
$GPVTG,053.31,T,-586.59,M,004.500,N,008.335,K,D*04
$GPGGA,085350.05,5702.8941250,N,00949.9637065,E,2,5,1.4,-3.879,M,40.592,M,1.5,0123*56
$GPVTG,052.84,T,-587.06,M,004.546,N,008.420,K,D*01
$GPGGA,085350.10,5702.8941553,N,00949.9637924,E,2,5,1.4,-3.876,M,40.592,M,1.5,0123*55
$GPVTG,053.56,T,-586.34,M,004.443,N,008.229,K,D*04
$GPGGA,085350.15,5702.8941952,N,00949.9638885,E,2,5,1.4,-3.874,M,40.592,M,1.5,0123*5A
$GPVTG,054.12,T,-585.78,M,004.509,N,008.351,K,D*09
$GPGGA,085350.20,5702.8942298,N,00949.9639900,E,2,5,1.4,-3.872,M,40.592,M,1.5,0123*59
$GPVTG,055.55,T,-584.35,M,004.585,N,008.491,K,D*0C
$GPGGA,085350.25,5702.8942489,N,00949.9640799,E,2,5,1.4,-3.849,M,40.592,M,1.7,0123*50
$GPVTG,056.59,T,-583.31,M,004.552,N,008.431,K,D*00
$GPGGA,085350.30,5702.8942853,N,00949.9641745,E,2,5,1.4,-3.850,M,40.592,M,1.7,0123*57
$GPVTG,056.81,T,-583.09,M,004.552,N,008.431,K,D*0E
$GPGGA,085350.35,5702.8943238,N,00949.9642659,E,2,5,1.4,-3.848,M,40.592,M,1.7,0123*52
$GPVTG,056.46,T,-583.44,M,004.528,N,008.386,K,D*0A
$GPGGA,085350.40,5702.8943547,N,00949.9643593,E,2,5,1.4,-3.843,M,40.592,M,1.7,0123*50
$GPVTG,057.13,T,-582.77,M,004.482,N,008.301,K,D*04
$GPGGA,085350.45,5702.8943773,N,00949.9644489,E,2,5,1.4,-3.820,M,40.592,M,2.0,0123*5C
$GPVTG,056.98,T,-582.92,M,004.470,N,008.279,K,D*0E
$GPGGA,085350.50,5702.8944088,N,00949.9645468,E,2,5,1.4,-3.815,M,40.592,M,2.0,0123*54
$GPVTG,057.85,T,-582.05,M,004.478,N,008.292,K,D*00
$GPGGA,085350.55,5702.8944359,N,00949.9646409,E,2,5,1.4,-3.811,M,40.592,M,2.0,0123*5E
$GPVTG,058.80,T,-581.10,M,004.419,N,008.184,K,D*0E
$GPGGA,085350.60,5702.8944644,N,00949.9647393,E,2,5,1.4,-3.809,M,40.592,M,2.0,0123*5D
$GPVTG,059.82,T,-580.08,M,004.416,N,008.179,K,D*08
$GPGGA,085350.65,5702.8944878,N,00949.9648312,E,2,5,1.4,-3.765,M,40.592,M,2.2,0123*58
$GPVTG,059.96,T,-579.94,M,004.467,N,008.272,K,D*00
$GPGGA,085350.70,5702.8945203,N,00949.9649244,E,2,5,1.4,-3.760,M,40.592,M,2.2,0123*5D
$GPVTG,059.86,T,-580.04,M,004.419,N,008.185,K,D*0C
$GPGGA,085350.75,5702.8945475,N,00949.9650254,E,2,5,1.4,-3.755,M,40.592,M,2.2,0123*50
$GPVTG,061.01,T,-578.89,M,004.435,N,008.213,K,D*08
$GPGGA,085350.80,5702.8945816,N,00949.9651250,E,2,5,1.4,-3.753,M,40.592,M,2.2,0123*50
$GPVTG,061.04,T,-578.86,M,004.464,N,008.267,K,D*05
$GPGGA,085350.85,5702.8945871,N,00949.9652244,E,2,5,1.4,-3.734,M,40.592,M,2.4,0123*55
$GPVTG,062.61,T,-577.29,M,004.468,N,008.274,K,D*01
$GPGGA,085350.90,5702.8946224,N,00949.9653230,E,2,5,1.4,-3.730,M,40.592,M,2.4,0123*5E
$GPVTG,062.13,T,-577.77,M,004.480,N,008.298,K,D*0B
$GPGGA,085350.95,5702.8946503,N,00949.9654267,E,2,5,1.4,-3.725,M,40.592,M,2.4,0123*58
$GPVTG,062.93,T,-576.97,M,004.509,N,008.351,K,D*08
$GPGGA,085351.00,5702.8946687,N,00949.9655240,E,2,5,1.4,-3.720,M,40.592,M,2.4,0123*5B
$GPVTG,064.34,T,-575.56,M,004.415,N,008.177,K,D*07
$GPGGA,085351.05,5702.8946811,N,00949.9656148,E,2,5,1.4,-3.677,M,40.592,M,2.6,0123*56
$GPVTG,064.18,T,-575.72,M,004.396,N,008.142,K,D*05
$GPGGA,085351.10,5702.8947033,N,00949.9657184,E,2,5,1.4,-3.669,M,40.592,M,2.6,0123*55
$GPVTG,065.41,T,-574.49,M,004.403,N,008.155,K,D*0C
$GPGGA,085351.15,5702.8947296,N,00949.9658194,E,2,5,1.4,-3.666,M,40.592,M,2.6,0123*5C
$GPVTG,065.76,T,-574.14,M,004.395,N,008.140,K,D*0C
$GPGGA,085351.20,5702.8947613,N,00949.9659214,E,2,5,1.4,-3.663,M,40.592,M,2.6,0123*5C
$GPVTG,065.43,T,-574.47,M,004.421,N,008.188,K,D*00
$GPGGA,085351.25,5702.8947586,N,00949.9660198,E,2,5,1.4,-3.652,M,40.592,M,2.9,0123*56
$GPVTG,066.89,T,-573.01,M,004.347,N,008.050,K,D*03
$GPGGA,085351.30,5702.8947872,N,00949.9661256,E,2,5,1.4,-3.651,M,40.592,M,2.9,0123*57
$GPVTG,067.01,T,-572.89,M,004.406,N,008.161,K,D*02
$GPGGA,085351.35,5702.8948080,N,00949.9662265,E,2,5,1.4,-3.650,M,40.592,M,2.9,0123*5A
$GPVTG,067.77,T,-572.13,M,004.367,N,008.088,K,D*06
$GPGGA,085351.40,5702.8948259,N,00949.9663349,E,2,5,1.4,-3.648,M,40.592,M,2.9,0123*59
$GPVTG,069.23,T,-570.67,M,004.406,N,008.160,K,D*0F
$GPGGA,085351.45,5702.8948286,N,00949.9664276,E,2,5,1.4,-3.599,M,40.592,M,3.1,0123*52
$GPVTG,070.34,T,-569.56,M,004.372,N,008.097,K,D*06
$GPGGA,085351.50,5702.8948534,N,00949.9665269,E,2,5,1.4,-3.597,M,40.592,M,3.1,0123*59
$GPVTG,070.06,T,-569.84,M,004.325,N,008.010,K,D*05
$GPGGA,085351.55,5702.8948726,N,00949.9666311,E,2,5,1.4,-3.592,M,40.592,M,3.1,0123*55
$GPVTG,070.82,T,-569.08,M,004.322,N,008.004,K,D*0F
$GPGGA,085351.60,5702.8948881,N,00949.9667388,E,2,5,1.4,-3.584,M,40.592,M,3.1,0123*57
$GPVTG,072.12,T,-567.78,M,004.345,N,008.047,K,D*0B
$GPGGA,085351.65,5702.8948861,N,00949.9668433,E,2,5,1.4,-3.574,M,40.592,M,3.3,0123*59
$GPVTG,072.57,T,-567.33,M,004.349,N,008.053,K,D*0C
$GPGGA,085351.70,5702.8948962,N,00949.9669503,E,2,5,1.4,-3.571,M,40.592,M,3.3,0123*59
$GPVTG,074.33,T,-565.57,M,004.341,N,008.040,K,D*02
$GPGGA,085351.75,5702.8949122,N,00949.9670505,E,2,5,1.4,-3.573,M,40.592,M,3.3,0123*5D
$GPVTG,074.78,T,-565.12,M,004.271,N,007.910,K,D*0D
$GPGGA,085351.80,5702.8949318,N,00949.9671527,E,2,5,1.4,-3.575,M,40.592,M,3.3,0123*5B
$GPVTG,074.75,T,-565.15,M,004.244,N,007.860,K,D*07
$GPGGA,085351.85,5702.8949252,N,00949.9672543,E,2,5,1.4,-3.549,M,40.592,M,3.5,0123*59
$GPVTG,075.94,T,-563.96,M,004.245,N,007.861,K,D*04
$GPGGA,085351.90,5702.8949390,N,00949.9673654,E,2,5,1.4,-3.546,M,40.592,M,3.5,0123*59
$GPVTG,076.80,T,-563.10,M,004.286,N,007.937,K,D*01
$GPGGA,085351.95,5702.8949538,N,00949.9674732,E,2,5,1.4,-3.544,M,40.592,M,3.5,0123*5C
$GPVTG,077.38,T,-562.52,M,004.301,N,007.966,K,D*0E
$GPGGA,085352.00,5702.8949689,N,00949.9675807,E,2,5,1.4,-3.542,M,40.592,M,3.5,0123*54
$GPVTG,077.82,T,-562.08,M,004.314,N,007.990,K,D*0D
$GPGGA,085352.05,5702.8949622,N,00949.9676747,E,2,5,1.4,-3.501,M,40.592,M,1.9,0123*51
$GPVTG,078.55,T,-561.35,M,004.246,N,007.863,K,D*0E
$GPGGA,085352.10,5702.8949729,N,00949.9677781,E,2,5,1.4,-3.493,M,40.592,M,1.9,0123*5E
$GPVTG,079.25,T,-560.65,M,004.216,N,007.808,K,D*04
$GPGGA,085352.15,5702.8949856,N,00949.9678844,E,2,5,1.4,-3.487,M,40.592,M,1.9,0123*50
$GPVTG,079.69,T,-560.21,M,004.221,N,007.818,K,D*09
$GPGGA,085352.20,5702.8949967,N,00949.9679952,E,2,5,1.4,-3.484,M,40.592,M,1.9,0123*51
$GPVTG,080.36,T,-559.54,M,004.267,N,007.902,K,D*05
$GPGGA,085352.25,5702.8949927,N,00949.9681024,E,2,5,1.4,-3.472,M,40.592,M,2.1,0123*5D
$GPVTG,081.05,T,-558.85,M,004.303,N,007.970,K,D*0F
$GPGGA,085352.30,5702.8949968,N,00949.9682086,E,2,5,1.4,-3.475,M,40.592,M,2.1,0123*5E
$GPVTG,082.32,T,-557.58,M,004.281,N,007.929,K,D*00
$GPGGA,085352.35,5702.8950032,N,00949.9683205,E,2,5,1.4,-3.475,M,40.592,M,2.1,0123*5D
$GPVTG,083.24,T,-556.66,M,004.325,N,008.010,K,D*09
$GPGGA,085352.40,5702.8950109,N,00949.9684258,E,2,5,1.4,-3.477,M,40.592,M,2.1,0123*5B
$GPVTG,083.76,T,-556.14,M,004.294,N,007.952,K,D*00
$GPGGA,085352.45,5702.8949987,N,00949.9685319,E,2,5,1.4,-3.435,M,40.592,M,2.4,0123*5E
$GPVTG,084.52,T,-555.38,M,004.338,N,008.034,K,D*0D
$GPGGA,085352.50,5702.8950065,N,00949.9686365,E,2,5,1.4,-3.434,M,40.592,M,2.4,0123*5E
$GPVTG,084.85,T,-555.05,M,004.295,N,007.954,K,D*0F
$GPGGA,085352.55,5702.8950106,N,00949.9687465,E,2,5,1.4,-3.428,M,40.592,M,2.4,0123*54
$GPVTG,085.66,T,-554.24,M,004.310,N,007.983,K,D*07
$GPGGA,085352.60,5702.8950156,N,00949.9688515,E,2,5,1.4,-3.423,M,40.592,M,2.4,0123*55
$GPVTG,086.20,T,-553.70,M,004.272,N,007.912,K,D*0D
$GPGGA,085352.65,5702.8950037,N,00949.9689543,E,2,5,1.4,-3.406,M,40.592,M,2.6,0123*51
$GPVTG,086.94,T,-552.96,M,004.240,N,007.853,K,D*0E
$GPGGA,085352.70,5702.8950056,N,00949.9690646,E,2,5,1.4,-3.407,M,40.592,M,2.6,0123*5D
$GPVTG,087.75,T,-552.15,M,004.264,N,007.897,K,D*05
$GPGGA,085352.75,5702.8950072,N,00949.9691734,E,2,5,1.4,-3.410,M,40.592,M,2.6,0123*5D
$GPVTG,088.50,T,-551.40,M,004.269,N,007.907,K,D*0B
$GPGGA,085352.80,5702.8950089,N,00949.9692870,E,2,5,1.4,-3.414,M,40.592,M,2.6,0123*5B
$GPVTG,089.14,T,-550.76,M,004.323,N,008.007,K,D*07
$GPGGA,085352.85,5702.8949901,N,00949.9693832,E,2,5,1.4,-3.369,M,40.592,M,2.9,0123*5A
$GPVTG,090.14,T,-549.76,M,004.261,N,007.891,K,D*08
$GPGGA,085352.90,5702.8949899,N,00949.9694906,E,2,5,1.4,-3.367,M,40.592,M,2.9,0123*51
$GPVTG,090.82,T,-549.08,M,004.252,N,007.875,K,D*04
$GPGGA,085352.95,5702.8949923,N,00949.9695978,E,2,5,1.4,-3.367,M,40.592,M,2.9,0123*5C
$GPVTG,091.05,T,-548.85,M,004.242,N,007.857,K,D*0F
$GPGGA,085353.00,5702.8949896,N,00949.9697078,E,2,5,1.4,-3.361,M,40.592,M,2.9,0123*53
$GPVTG,091.90,T,-548.00,M,004.265,N,007.898,K,D*08
$GPGGA,085353.05,5702.8949761,N,00949.9698123,E,2,5,1.4,-3.335,M,40.592,M,2.0,0123*59
$GPVTG,092.21,T,-547.69,M,004.266,N,007.901,K,D*03
$GPGGA,085353.10,5702.8949716,N,00949.9699163,E,2,5,1.4,-3.337,M,40.592,M,2.0,0123*5A
$GPVTG,093.15,T,-546.75,M,004.225,N,007.825,K,D*09
$GPGGA,085353.15,5702.8949663,N,00949.9700246,E,2,5,1.4,-3.335,M,40.592,M,2.0,0123*5B
$GPVTG,094.07,T,-545.83,M,004.236,N,007.846,K,D*00
$GPGGA,085353.20,5702.8949616,N,00949.9701298,E,2,5,1.4,-3.335,M,40.592,M,2.0,0123*5D
$GPVTG,094.81,T,-545.09,M,004.215,N,007.806,K,D*09
$GPGGA,085353.25,5702.8949430,N,00949.9702307,E,2,5,1.4,-3.296,M,40.592,M,2.3,0123*51
$GPVTG,095.42,T,-544.48,M,004.214,N,007.804,K,D*00
$GPGGA,085353.30,5702.8949397,N,00949.9703414,E,2,5,1.4,-3.294,M,40.592,M,2.3,0123*59
$GPVTG,095.71,T,-544.19,M,004.253,N,007.876,K,D*02
$GPGGA,085353.35,5702.8949362,N,00949.9704479,E,2,5,1.4,-3.291,M,40.592,M,2.3,0123*5F
$GPVTG,096.04,T,-543.86,M,004.243,N,007.858,K,D*0F
$GPGGA,085353.40,5702.8949284,N,00949.9705518,E,2,5,1.4,-3.289,M,40.592,M,2.3,0123*5A
$GPVTG,096.92,T,-542.98,M,004.214,N,007.805,K,D*04
$GPGGA,085353.45,5702.8949073,N,00949.9706499,E,2,5,1.4,-3.258,M,40.592,M,2.5,0123*54
$GPVTG,097.80,T,-542.10,M,004.179,N,007.739,K,D*0E
$GPGGA,085353.50,5702.8948996,N,00949.9707557,E,2,5,1.4,-3.256,M,40.592,M,2.5,0123*5F
$GPVTG,098.42,T,-541.48,M,004.181,N,007.743,K,D*0B
$GPGGA,085353.55,5702.8948912,N,00949.9708550,E,2,5,1.4,-3.254,M,40.592,M,2.5,0123*5C
$GPVTG,099.19,T,-540.71,M,004.119,N,007.628,K,D*02
$GPGGA,085353.60,5702.8948860,N,00949.9709680,E,2,5,1.4,-3.252,M,40.592,M,2.5,0123*57
$GPVTG,099.09,T,-540.81,M,004.202,N,007.782,K,D*04
$GPGGA,085353.65,5702.8948639,N,00949.9710743,E,2,5,1.4,-3.224,M,40.592,M,2.7,0123*55
$GPVTG,099.55,T,-540.35,M,004.259,N,007.887,K,D*06
$GPGGA,085353.70,5702.8948515,N,00949.9711743,E,2,5,1.4,-3.222,M,40.592,M,2.7,0123*5B
$GPVTG,100.64,T,-539.26,M,004.203,N,007.785,K,D*0B
$GPGGA,085353.75,5702.8948412,N,00949.9712771,E,2,5,1.4,-3.219,M,40.592,M,2.7,0123*52
$GPVTG,101.25,T,-538.65,M,004.182,N,007.745,K,D*0F
$GPGGA,085353.80,5702.8948295,N,00949.9713852,E,2,5,1.4,-3.220,M,40.592,M,2.7,0123*54
$GPVTG,101.80,T,-538.10,M,004.222,N,007.818,K,D*0C
$GPGGA,085353.85,5702.8948058,N,00949.9714890,E,2,5,1.4,-3.190,M,40.592,M,3.0,0123*55
$GPVTG,102.00,T,-537.90,M,004.257,N,007.883,K,D*00
$GPGGA,085353.90,5702.8947929,N,00949.9715960,E,2,5,1.4,-3.190,M,40.592,M,3.0,0123*5E
$GPVTG,102.60,T,-537.30,M,004.278,N,007.922,K,D*0B
$GPGGA,085353.95,5702.8947765,N,00949.9716952,E,2,5,1.4,-3.189,M,40.592,M,3.0,0123*57
$GPVTG,103.85,T,-536.05,M,004.227,N,007.828,K,D*07
$GPGGA,085354.00,5702.8947638,N,00949.9717985,E,2,5,1.4,-3.186,M,40.592,M,3.0,0123*51
$GPVTG,104.31,T,-535.59,M,004.217,N,007.811,K,D*0C
$GPGGA,085354.05,5702.8947369,N,00949.9719004,E,2,5,1.4,-3.159,M,40.592,M,1.5,0123*5E
$GPVTG,104.95,T,-534.95,M,004.245,N,007.862,K,D*00
$GPGGA,085354.10,5702.8947255,N,00949.9720027,E,2,5,1.4,-3.153,M,40.592,M,1.5,0123*55
$GPVTG,105.10,T,-534.80,M,004.222,N,007.820,K,D*0F
$GPGGA,085354.15,5702.8947110,N,00949.9721019,E,2,5,1.4,-3.155,M,40.592,M,1.5,0123*58
$GPVTG,105.74,T,-534.16,M,004.180,N,007.741,K,D*01
$GPGGA,085354.20,5702.8946926,N,00949.9722097,E,2,5,1.4,-3.155,M,40.592,M,1.5,0123*57
$GPVTG,106.45,T,-533.45,M,004.240,N,007.853,K,D*02
$GPGGA,085354.25,5702.8946647,N,00949.9723125,E,2,5,1.4,-3.139,M,40.592,M,1.7,0123*5B
$GPVTG,107.05,T,-532.85,M,004.274,N,007.916,K,D*0D
$GPGGA,085354.30,5702.8946467,N,00949.9724120,E,2,5,1.4,-3.143,M,40.592,M,1.7,0123*50
$GPVTG,107.88,T,-532.02,M,004.244,N,007.859,K,D*0E
$GPGGA,085354.35,5702.8946326,N,00949.9725173,E,2,5,1.4,-3.143,M,40.592,M,1.7,0123*50
$GPVTG,107.83,T,-532.07,M,004.262,N,007.893,K,D*02
$GPGGA,085354.40,5702.8946136,N,00949.9726177,E,2,5,1.4,-3.146,M,40.592,M,1.7,0123*53
$GPVTG,108.59,T,-531.31,M,004.246,N,007.863,K,D*05
$GPGGA,085354.45,5702.8945814,N,00949.9727144,E,2,5,1.4,-3.106,M,40.592,M,2.0,0123*5D
$GPVTG,109.25,T,-530.65,M,004.251,N,007.874,K,D*0F
$GPGGA,085354.50,5702.8945578,N,00949.9728196,E,2,5,1.4,-3.106,M,40.592,M,2.0,0123*5E
$GPVTG,110.19,T,-529.71,M,004.301,N,007.966,K,D*03
$GPGGA,085354.55,5702.8945390,N,00949.9729240,E,2,5,1.4,-3.104,M,40.592,M,2.0,0123*50
$GPVTG,110.43,T,-529.47,M,004.322,N,008.005,K,D*0B
$GPGGA,085354.60,5702.8945163,N,00949.9730211,E,2,5,1.4,-3.101,M,40.592,M,2.0,0123*51
$GPVTG,111.47,T,-528.43,M,004.286,N,007.938,K,D*0C
$GPGGA,085354.65,5702.8944846,N,00949.9731193,E,2,5,1.4,-3.079,M,40.592,M,2.2,0123*5F
$GPVTG,112.05,T,-527.85,M,004.296,N,007.956,K,D*05
$GPGGA,085354.70,5702.8944631,N,00949.9732161,E,2,5,1.4,-3.075,M,40.592,M,2.2,0123*57
$GPVTG,112.75,T,-527.15,M,004.256,N,007.882,K,D*0F
$GPGGA,085354.75,5702.8944375,N,00949.9733160,E,2,5,1.4,-3.069,M,40.592,M,2.2,0123*5A
$GPVTG,113.70,T,-526.20,M,004.272,N,007.912,K,D*02
$GPGGA,085354.80,5702.8944154,N,00949.9734192,E,2,5,1.4,-3.066,M,40.592,M,2.2,0123*54
$GPVTG,113.86,T,-526.04,M,004.306,N,007.976,K,D*0D
$GPGGA,085354.85,5702.8943844,N,00949.9735145,E,2,5,1.4,-3.043,M,40.592,M,2.4,0123*54
$GPVTG,114.59,T,-525.31,M,004.321,N,008.003,K,D*0C
$GPGGA,085354.90,5702.8943546,N,00949.9736060,E,2,5,1.4,-3.040,M,40.592,M,2.4,0123*59
$GPVTG,116.62,T,-523.28,M,004.248,N,007.867,K,D*03
$GPGGA,085354.95,5702.8943323,N,00949.9737029,E,2,5,1.4,-3.038,M,40.592,M,2.4,0123*5A
$GPVTG,116.67,T,-523.23,M,004.229,N,007.833,K,D*0B
$GPGGA,085355.00,5702.8943100,N,00949.9738062,E,2,5,1.4,-3.037,M,40.592,M,2.4,0123*5B
$GPVTG,116.17,T,-523.73,M,004.289,N,007.943,K,D*05
$GPGGA,085355.05,5702.8942766,N,00949.9739027,E,2,5,1.4,-3.011,M,40.592,M,2.6,0123*5F
$GPVTG,116.58,T,-523.32,M,004.325,N,008.009,K,D*04
$GPGGA,085355.10,5702.8942472,N,00949.9739956,E,2,5,1.4,-3.011,M,40.592,M,2.6,0123*52
$GPVTG,117.65,T,-522.25,M,004.308,N,007.977,K,D*0C
$GPGGA,085355.15,5702.8942166,N,00949.9740912,E,2,5,1.4,-3.009,M,40.592,M,2.6,0123*50
$GPVTG,118.60,T,-521.30,M,004.318,N,007.998,K,D*01
$GPGGA,085355.20,5702.8941856,N,00949.9741851,E,2,5,1.4,-3.006,M,40.592,M,2.6,0123*57
$GPVTG,119.60,T,-520.30,M,004.317,N,007.996,K,D*00
$GPGGA,085355.25,5702.8941499,N,00949.9742760,E,2,5,1.4,-2.982,M,40.592,M,2.9,0123*58
$GPVTG,120.02,T,-519.88,M,004.297,N,007.958,K,D*0C
$GPGGA,085355.30,5702.8941205,N,00949.9743695,E,2,5,1.4,-2.983,M,40.592,M,2.9,0123*54
$GPVTG,120.65,T,-519.25,M,004.291,N,007.947,K,D*02
$GPGGA,085355.35,5702.8940909,N,00949.9744678,E,2,5,1.4,-2.981,M,40.592,M,2.9,0123*51
$GPVTG,120.87,T,-519.03,M,004.331,N,008.020,K,D*06
$GPGGA,085355.40,5702.8940643,N,00949.9745598,E,2,5,1.4,-2.982,M,40.592,M,2.9,0123*5D
$GPVTG,121.13,T,-518.77,M,004.297,N,007.959,K,D*0D
$GPGGA,085355.45,5702.8940309,N,00949.9746536,E,2,5,1.4,-2.968,M,40.592,M,3.1,0123*59
$GPVTG,121.33,T,-518.57,M,004.334,N,008.027,K,D*0A
$GPGGA,085355.50,5702.8939979,N,00949.9747443,E,2,5,1.4,-2.968,M,40.592,M,3.1,0123*5C
$GPVTG,122.30,T,-517.60,M,004.322,N,008.005,K,D*06
$GPGGA,085355.55,5702.8939621,N,00949.9748270,E,2,5,1.4,-2.967,M,40.592,M,3.1,0123*5D
$GPVTG,124.07,T,-515.83,M,004.261,N,007.892,K,D*04
$GPGGA,085355.60,5702.8939302,N,00949.9749183,E,2,5,1.4,-2.966,M,40.592,M,3.1,0123*50
$GPVTG,124.47,T,-515.43,M,004.268,N,007.905,K,D*0A
$GPGGA,085355.65,5702.8938879,N,00949.9750052,E,2,5,1.4,-2.936,M,40.592,M,3.3,0123*51
$GPVTG,125.09,T,-514.82,M,004.279,N,007.924,K,D*0E
$GPGGA,085355.70,5702.8938560,N,00949.9750998,E,2,5,1.4,-2.930,M,40.592,M,3.3,0123*59
$GPVTG,125.02,T,-514.88,M,004.316,N,007.993,K,D*0B
$GPGGA,085355.75,5702.8938200,N,00949.9751906,E,2,5,1.4,-2.932,M,40.592,M,3.3,0123*59
$GPVTG,125.67,T,-514.23,M,004.342,N,008.041,K,D*01
$GPGGA,085355.80,5702.8937831,N,00949.9752765,E,2,5,1.4,-2.933,M,40.592,M,3.3,0123*5D
$GPVTG,126.72,T,-513.18,M,004.331,N,008.022,K,D*08
$GPGGA,085355.85,5702.8937413,N,00949.9753600,E,2,5,1.4,-2.918,M,40.592,M,3.5,0123*58
$GPVTG,127.69,T,-512.21,M,004.315,N,007.991,K,D*00
$GPGGA,085355.90,5702.8937070,N,00949.9754491,E,2,5,1.4,-2.917,M,40.592,M,3.5,0123*5F
$GPVTG,127.89,T,-512.01,M,004.325,N,008.009,K,D*08
$GPGGA,085355.95,5702.8936708,N,00949.9755383,E,2,5,1.4,-2.915,M,40.592,M,3.5,0123*54
$GPVTG,128.20,T,-511.70,M,004.348,N,008.052,K,D*04
$GPGGA,085356.00,5702.8936326,N,00949.9756214,E,2,5,1.4,-2.917,M,40.592,M,3.5,0123*5D
$GPVTG,129.15,T,-510.75,M,004.334,N,008.026,K,D*0F
$GPGGA,085356.05,5702.8935916,N,00949.9757072,E,2,5,1.4,-2.902,M,40.592,M,1.9,0123*5B
$GPVTG,129.43,T,-510.47,M,004.344,N,008.044,K,D*0E
$GPGGA,085356.10,5702.8935528,N,00949.9757915,E,2,5,1.4,-2.903,M,40.592,M,1.9,0123*57
$GPVTG,130.13,T,-509.77,M,004.348,N,008.053,K,D*02
$GPGGA,085356.15,5702.8935114,N,00949.9758712,E,2,5,1.4,-2.901,M,40.592,M,1.9,0123*5D
$GPVTG,131.39,T,-508.51,M,004.336,N,008.031,K,D*03
$GPGGA,085356.20,5702.8934747,N,00949.9759491,E,2,5,1.4,-2.902,M,40.592,M,1.9,0123*50
$GPVTG,132.14,T,-507.76,M,004.284,N,007.934,K,D*0E
$GPGGA,085356.25,5702.8934308,N,00949.9760298,E,2,5,1.4,-2.884,M,40.592,M,2.1,0123*5B
$GPVTG,132.67,T,-507.23,M,004.298,N,007.960,K,D*06
$GPGGA,085356.30,5702.8933874,N,00949.9761085,E,2,5,1.4,-2.885,M,40.592,M,2.1,0123*56
$GPVTG,133.76,T,-506.14,M,004.312,N,007.985,K,D*0A
$GPGGA,085356.35,5702.8933498,N,00949.9761960,E,2,5,1.4,-2.884,M,40.592,M,2.1,0123*5E
$GPVTG,133.24,T,-506.66,M,004.353,N,008.062,K,D*02
$GPGGA,085356.40,5702.8933090,N,00949.9762806,E,2,5,1.4,-2.881,M,40.592,M,2.1,0123*57
$GPVTG,133.33,T,-506.57,M,004.389,N,008.129,K,D*0F
$GPGGA,085356.45,5702.8932638,N,00949.9763590,E,2,5,1.4,-2.864,M,40.592,M,2.4,0123*5A
$GPVTG,134.01,T,-505.89,M,004.393,N,008.136,K,D*0C
$GPGGA,085356.50,5702.8932201,N,00949.9764314,E,2,5,1.4,-2.862,M,40.592,M,2.4,0123*5B
$GPVTG,135.37,T,-504.53,M,004.360,N,008.075,K,D*04
$GPGGA,085356.55,5702.8931771,N,00949.9765107,E,2,5,1.4,-2.864,M,40.592,M,2.4,0123*58
$GPVTG,135.82,T,-504.08,M,004.378,N,008.107,K,D*09
$GPGGA,085356.60,5702.8931377,N,00949.9765850,E,2,5,1.4,-2.867,M,40.592,M,2.4,0123*54
$GPVTG,136.29,T,-503.61,M,004.334,N,008.027,K,D*08
$GPGGA,085356.65,5702.8930947,N,00949.9766621,E,2,5,1.4,-2.859,M,40.592,M,2.6,0123*5D
$GPVTG,136.37,T,-503.53,M,004.332,N,008.022,K,D*05
$GPGGA,085356.70,5702.8930474,N,00949.9767340,E,2,5,1.4,-2.863,M,40.592,M,2.6,0123*5E
$GPVTG,137.64,T,-502.26,M,004.339,N,008.035,K,D*0C
$GPGGA,085356.75,5702.8930035,N,00949.9768084,E,2,5,1.4,-2.865,M,40.592,M,2.6,0123*58
$GPVTG,138.17,T,-501.73,M,004.341,N,008.039,K,D*07
$GPGGA,085356.80,5702.8929572,N,00949.9768755,E,2,5,1.4,-2.863,M,40.592,M,2.6,0123*51
$GPVTG,139.53,T,-500.37,M,004.314,N,007.990,K,D*02
$GPGGA,085356.85,5702.8929070,N,00949.9769458,E,2,5,1.4,-2.835,M,40.592,M,2.9,0123*50
$GPVTG,139.89,T,-500.01,M,004.323,N,008.007,K,D*0C
$GPGGA,085356.90,5702.8928571,N,00949.9770145,E,2,5,1.4,-2.836,M,40.592,M,2.9,0123*53
$GPVTG,141.07,T,-498.83,M,004.347,N,008.051,K,D*0E
$GPGGA,085356.95,5702.8928078,N,00949.9770844,E,2,5,1.4,-2.839,M,40.592,M,2.9,0123*5D
$GPVTG,141.86,T,-498.04,M,004.376,N,008.104,K,D*0B
$GPGGA,085357.00,5702.8927625,N,00949.9771514,E,2,5,1.4,-2.843,M,40.592,M,2.9,0123*55
$GPVTG,142.48,T,-497.42,M,004.355,N,008.065,K,D*00
$GPGGA,085357.05,5702.8927067,N,00949.9772065,E,2,5,1.4,-2.828,M,40.592,M,2.0,0123*54
$GPVTG,144.48,T,-495.42,M,004.321,N,008.002,K,D*06
$GPGGA,085357.10,5702.8926593,N,00949.9772769,E,2,5,1.4,-2.831,M,40.592,M,2.0,0123*5C
$GPVTG,144.46,T,-495.44,M,004.352,N,008.059,K,D*04
$GPGGA,085357.15,5702.8926091,N,00949.9773419,E,2,5,1.4,-2.831,M,40.592,M,2.0,0123*5B
$GPVTG,145.14,T,-494.76,M,004.372,N,008.097,K,D*02
$GPGGA,085357.20,5702.8925554,N,00949.9774031,E,2,5,1.4,-2.832,M,40.592,M,2.0,0123*58
$GPVTG,146.36,T,-493.54,M,004.402,N,008.153,K,D*0F
$GPGGA,085357.25,5702.8925013,N,00949.9774644,E,2,5,1.4,-2.810,M,40.592,M,2.3,0123*5C
$GPVTG,146.82,T,-493.08,M,004.406,N,008.160,K,D*0D
$GPGGA,085357.30,5702.8924536,N,00949.9775244,E,2,5,1.4,-2.811,M,40.592,M,2.3,0123*5F
$GPVTG,147.37,T,-492.53,M,004.381,N,008.114,K,D*06
$GPGGA,085357.35,5702.8924052,N,00949.9775864,E,2,5,1.4,-2.812,M,40.592,M,2.3,0123*56
$GPVTG,147.62,T,-492.28,M,004.378,N,008.109,K,D*00
$GPGGA,085357.40,5702.8923516,N,00949.9776470,E,2,5,1.4,-2.816,M,40.592,M,2.3,0123*58
$GPVTG,148.29,T,-491.61,M,004.413,N,008.172,K,D*08
$GPGGA,085357.45,5702.8922992,N,00949.9777043,E,2,5,1.4,-2.802,M,40.592,M,2.5,0123*5A
$GPVTG,148.75,T,-491.15,M,004.411,N,008.170,K,D*02
$GPGGA,085357.50,5702.8922491,N,00949.9777693,E,2,5,1.4,-2.805,M,40.592,M,2.5,0123*5C
$GPVTG,148.42,T,-491.48,M,004.441,N,008.224,K,D*09
$GPGGA,085357.55,5702.8921987,N,00949.9778266,E,2,5,1.4,-2.808,M,40.592,M,2.5,0123*5C
$GPVTG,148.96,T,-490.94,M,004.428,N,008.200,K,D*09
$GPGGA,085357.60,5702.8921470,N,00949.9778820,E,2,5,1.4,-2.807,M,40.592,M,2.5,0123*58
$GPVTG,149.69,T,-490.21,M,004.419,N,008.184,K,D*0B
$GPGGA,085357.65,5702.8920922,N,00949.9779338,E,2,5,1.4,-2.784,M,40.592,M,2.7,0123*53
$GPVTG,150.26,T,-489.64,M,004.396,N,008.142,K,D*0B
$GPGGA,085357.70,5702.8920384,N,00949.9779913,E,2,5,1.4,-2.788,M,40.592,M,2.7,0123*5E
$GPVTG,150.60,T,-489.30,M,004.423,N,008.192,K,D*0C
$GPGGA,085357.75,5702.8919843,N,00949.9780486,E,2,5,1.4,-2.792,M,40.592,M,2.7,0123*5D
$GPVTG,150.89,T,-489.01,M,004.451,N,008.242,K,D*02
$GPGGA,085357.80,5702.8919316,N,00949.9780953,E,2,5,1.4,-2.796,M,40.592,M,2.7,0123*5D
$GPVTG,152.23,T,-487.67,M,004.414,N,008.174,K,D*09
$GPGGA,085357.85,5702.8918737,N,00949.9781451,E,2,5,1.4,-2.779,M,40.592,M,3.0,0123*57
$GPVTG,152.75,T,-487.15,M,004.410,N,008.168,K,D*06
$GPGGA,085357.90,5702.8918183,N,00949.9781937,E,2,5,1.4,-2.784,M,40.592,M,3.0,0123*55
$GPVTG,153.51,T,-486.39,M,004.422,N,008.189,K,D*00
$GPGGA,085357.95,5702.8917614,N,00949.9782459,E,2,5,1.4,-2.787,M,40.592,M,3.0,0123*53
$GPVTG,154.10,T,-485.80,M,004.452,N,008.245,K,D*07
$GPGGA,085358.00,5702.8917083,N,00949.9782984,E,2,5,1.4,-2.790,M,40.592,M,3.0,0123*53
$GPVTG,154.36,T,-485.54,M,004.447,N,008.236,K,D*0A
$GPGGA,085358.05,5702.8916517,N,00949.9783426,E,2,5,1.4,-2.791,M,40.592,M,1.5,0123*5D
$GPVTG,155.06,T,-484.84,M,004.443,N,008.228,K,D*0F
$GPGGA,085358.10,5702.8915967,N,00949.9783862,E,2,5,1.4,-2.799,M,40.592,M,1.5,0123*55
$GPVTG,155.80,T,-484.10,M,004.436,N,008.215,K,D*00
$GPGGA,085358.15,5702.8915435,N,00949.9784329,E,2,5,1.4,-2.805,M,40.592,M,1.5,0123*53
$GPVTG,156.19,T,-483.71,M,004.418,N,008.183,K,D*03
$GPGGA,085358.20,5702.8914836,N,00949.9784755,E,2,5,1.4,-2.815,M,40.592,M,1.5,0123*55
$GPVTG,157.12,T,-482.78,M,004.454,N,008.249,K,D*0C
$GPGGA,085358.25,5702.8914200,N,00949.9785185,E,2,5,1.4,-2.791,M,40.592,M,1.7,0123*54
