$GPGGA,081547.50,5702.8073975,N,00950.0595100,E,2,5,2.0,-1.783,M,40.592,M,2.7,0123*50
$GPVTG,052.50,T,-587.40,M,003.826,N,007.086,K,D*01
$GPGGA,081547.55,5702.8074290,N,00950.0595835,E,2,5,2.0,-1.781,M,40.592,M,2.7,0123*5F
$GPVTG,053.65,T,-586.25,M,003.808,N,007.053,K,D*00
$GPGGA,081547.60,5702.8074591,N,00950.0596585,E,2,5,2.0,-1.778,M,40.592,M,2.7,0123*5C
$GPVTG,054.87,T,-585.03,M,003.790,N,007.019,K,D*0C
$GPGGA,081547.65,5702.8074855,N,00950.0597328,E,2,5,2.0,-1.765,M,40.592,M,2.9,0123*5E
$GPVTG,056.42,T,-583.48,M,003.780,N,007.001,K,D*06
$GPGGA,081547.70,5702.8075165,N,00950.0598088,E,2,5,2.0,-1.758,M,40.592,M,2.9,0123*59
$GPVTG,057.02,T,-582.88,M,003.773,N,006.988,K,D*0B
$GPGGA,081547.75,5702.8075454,N,00950.0598837,E,2,5,2.0,-1.752,M,40.592,M,2.9,0123*5D
$GPVTG,057.74,T,-582.16,M,003.743,N,006.933,K,D*0E
$GPGGA,081547.80,5702.8075694,N,00950.0599660,E,2,5,2.0,-1.743,M,40.592,M,2.9,0123*54
$GPVTG,059.60,T,-580.30,M,003.738,N,006.924,K,D*09
$GPGGA,081547.85,5702.8075910,N,00950.0600551,E,2,5,2.0,-1.753,M,40.592,M,3.1,0123*58
$GPVTG,061.28,T,-578.62,M,003.739,N,006.924,K,D*0F
$GPGGA,081547.90,5702.8076150,N,00950.0601367,E,2,5,2.0,-1.745,M,40.592,M,3.1,0123*56
$GPVTG,062.53,T,-577.37,M,003.727,N,006.902,K,D*04
$GPGGA,081547.95,5702.8076381,N,00950.0602168,E,2,5,2.0,-1.741,M,40.592,M,3.1,0123*57
$GPVTG,063.64,T,-576.26,M,003.698,N,006.849,K,D*0B
$GPGGA,081548.00,5702.8076603,N,00950.0602983,E,2,5,2.0,-1.737,M,40.592,M,3.1,0123*57
$GPVTG,064.75,T,-575.15,M,003.678,N,006.813,K,D*0E
$GPGGA,081548.05,5702.8076677,N,00950.0603861,E,2,5,2.0,-1.751,M,40.592,M,2.4,0123*59
$GPVTG,067.89,T,-572.01,M,003.673,N,006.802,K,D*07
$GPGGA,081548.10,5702.8076856,N,00950.0604728,E,2,5,2.0,-1.752,M,40.592,M,2.4,0123*56
$GPVTG,069.49,T,-570.41,M,003.675,N,006.807,K,D*00
$GPGGA,081548.15,5702.8077018,N,00950.0605623,E,2,5,2.0,-1.747,M,40.592,M,2.4,0123*5F
$GPVTG,071.22,T,-568.68,M,003.696,N,006.844,K,D*0C
$GPGGA,081548.20,5702.8077160,N,00950.0606498,E,2,5,2.0,-1.746,M,40.592,M,2.4,0123*57
$GPVTG,072.96,T,-566.94,M,003.687,N,006.828,K,D*07
$GPGGA,081548.25,5702.8077204,N,00950.0607303,E,2,5,2.0,-1.740,M,40.592,M,2.7,0123*52
$GPVTG,075.86,T,-564.04,M,003.615,N,006.696,K,D*0A
$GPGGA,081548.30,5702.8077311,N,00950.0608167,E,2,5,2.0,-1.737,M,40.592,M,2.7,0123*5C
$GPVTG,077.67,T,-562.23,M,003.593,N,006.655,K,D*06
$GPGGA,081548.35,5702.8077394,N,00950.0609071,E,2,5,2.0,-1.731,M,40.592,M,2.7,0123*55
$GPVTG,079.78,T,-560.12,M,003.606,N,006.678,K,D*06
$GPGGA,081548.40,5702.8077457,N,00950.0609944,E,2,5,2.0,-1.724,M,40.592,M,2.7,0123*54
$GPVTG,081.90,T,-558.00,M,003.587,N,006.643,K,D*0D
$GPGGA,081548.45,5702.8077469,N,00950.0610729,E,2,5,2.0,-1.748,M,40.592,M,2.9,0123*55
$GPVTG,083.27,T,-556.63,M,003.535,N,006.548,K,D*09
$GPGGA,081548.50,5702.8077489,N,00950.0611655,E,2,5,2.0,-1.751,M,40.592,M,2.9,0123*5C
$GPVTG,085.79,T,-554.11,M,003.560,N,006.593,K,D*05
$GPGGA,081548.55,5702.8077505,N,00950.0612542,E,2,5,2.0,-1.754,M,40.592,M,2.9,0123*5F
$GPVTG,087.88,T,-552.02,M,003.563,N,006.599,K,D*04
$GPGGA,081548.60,5702.8077509,N,00950.0613439,E,2,5,2.0,-1.756,M,40.592,M,2.9,0123*5B
$GPVTG,089.83,T,-550.07,M,003.575,N,006.620,K,D*00
$GPGGA,081548.65,5702.8077483,N,00950.0614223,E,2,5,2.0,-1.783,M,40.592,M,3.1,0123*56
$GPVTG,091.25,T,-548.65,M,003.530,N,006.538,K,D*03
$GPGGA,081548.70,5702.8077496,N,00950.0615067,E,2,5,2.0,-1.786,M,40.592,M,3.1,0123*50
$GPVTG,092.30,T,-547.60,M,003.504,N,006.489,K,D*02
$GPGGA,081548.75,5702.8077466,N,00950.0615939,E,2,5,2.0,-1.793,M,40.592,M,3.1,0123*5C
$GPVTG,094.10,T,-545.80,M,003.503,N,006.488,K,D*0C
$GPGGA,081548.80,5702.8077407,N,00950.0616804,E,2,5,2.0,-1.799,M,40.592,M,3.1,0123*57
$GPVTG,096.26,T,-543.64,M,003.504,N,006.489,K,D*01
$GPGGA,081548.85,5702.8077353,N,00950.0617686,E,2,5,2.0,-1.780,M,40.592,M,3.4,0123*5C
$GPVTG,097.54,T,-542.36,M,003.437,N,006.366,K,D*04
$GPGGA,081548.90,5702.8077276,N,00950.0618479,E,2,5,2.0,-1.778,M,40.592,M,3.4,0123*54
$GPVTG,099.66,T,-540.24,M,003.372,N,006.246,K,D*0F
$GPGGA,081548.95,5702.8077184,N,00950.0619350,E,2,5,2.0,-1.775,M,40.592,M,3.4,0123*5F
$GPVTG,101.54,T,-538.36,M,003.407,N,006.311,K,D*04
$GPGGA,081549.00,5702.8077058,N,00950.0620197,E,2,5,2.0,-1.774,M,40.592,M,3.4,0123*50
$GPVTG,103.89,T,-536.01,M,003.428,N,006.350,K,D*04
$GPGGA,081549.05,5702.8076925,N,00950.0620975,E,2,5,2.0,-1.798,M,40.592,M,2.5,0123*51
$GPVTG,105.52,T,-534.38,M,003.396,N,006.290,K,D*03
$GPGGA,081549.10,5702.8076815,N,00950.0621762,E,2,5,2.0,-1.800,M,40.592,M,2.5,0123*50
$GPVTG,106.91,T,-532.99,M,003.376,N,006.252,K,D*02
$GPGGA,081549.15,5702.8076689,N,00950.0622598,E,2,5,2.0,-1.805,M,40.592,M,2.5,0123*5F
$GPVTG,108.21,T,-531.69,M,003.392,N,006.282,K,D*0C
$GPGGA,081549.20,5702.8076524,N,00950.0623416,E,2,5,2.0,-1.815,M,40.592,M,2.5,0123*5A
$GPVTG,110.16,T,-529.74,M,003.415,N,006.325,K,D*00
$GPGGA,081549.25,5702.8076368,N,00950.0624172,E,2,5,2.0,-1.830,M,40.592,M,2.8,0123*5B
$GPVTG,111.86,T,-528.04,M,003.381,N,006.262,K,D*06
$GPGGA,081549.30,5702.8076224,N,00950.0624922,E,2,5,2.0,-1.836,M,40.592,M,2.8,0123*5D
$GPVTG,112.91,T,-526.99,M,003.348,N,006.200,K,D*08
$GPGGA,081549.35,5702.8076078,N,00950.0625661,E,2,5,2.0,-1.840,M,40.592,M,2.8,0123*5B
$GPVTG,113.85,T,-526.05,M,003.311,N,006.133,K,D*06
$GPGGA,081549.40,5702.8075886,N,00950.0626427,E,2,5,2.0,-1.847,M,40.592,M,2.8,0123*57
$GPVTG,115.45,T,-524.45,M,003.321,N,006.151,K,D*0D
$GPGGA,081549.45,5702.8075671,N,00950.0627279,E,2,5,2.0,-1.833,M,40.592,M,3.1,0123*53
$GPVTG,117.11,T,-522.79,M,003.370,N,006.241,K,D*01
$GPGGA,081549.50,5702.8075438,N,00950.0628038,E,2,5,2.0,-1.831,M,40.592,M,3.1,0123*52
$GPVTG,118.98,T,-520.92,M,003.399,N,006.294,K,D*07
$GPGGA,081549.55,5702.8075182,N,00950.0628754,E,2,5,2.0,-1.829,M,40.592,M,3.1,0123*57
$GPVTG,121.22,T,-518.68,M,003.415,N,006.324,K,D*0B
$GPGGA,081549.60,5702.8074939,N,00950.0629451,E,2,5,2.0,-1.828,M,40.592,M,3.1,0123*5E
$GPVTG,122.92,T,-516.98,M,003.409,N,006.313,K,D*0B
$GPGGA,081549.65,5702.8074657,N,00950.0629949,E,2,5,2.0,-1.872,M,40.592,M,3.3,0123*55
$GPVTG,125.19,T,-514.71,M,003.352,N,006.207,K,D*07
$GPGGA,081549.70,5702.8074374,N,00950.0630650,E,2,5,2.0,-1.880,M,40.592,M,3.3,0123*57
$GPVTG,126.98,T,-512.92,M,003.387,N,006.272,K,D*0C
$GPGGA,081549.75,5702.8074084,N,00950.0631364,E,2,5,2.0,-1.890,M,40.592,M,3.3,0123*5C
$GPVTG,128.43,T,-511.47,M,003.431,N,006.354,K,D*00
$GPGGA,081549.80,5702.8073786,N,00950.0632075,E,2,5,2.0,-1.906,M,40.592,M,3.3,0123*5A
$GPVTG,129.72,T,-510.18,M,003.476,N,006.437,K,D*09
$GPGGA,081549.85,5702.8073511,N,00950.0632895,E,2,5,2.0,-1.907,M,40.592,M,3.6,0123*51
$GPVTG,130.64,T,-509.26,M,003.468,N,006.423,K,D*09
$GPGGA,081549.90,5702.8073236,N,00950.0633533,E,2,5,2.0,-1.918,M,40.592,M,3.6,0123*59
$GPVTG,131.52,T,-508.38,M,003.439,N,006.370,K,D*06
$GPGGA,081549.95,5702.8072909,N,00950.0634161,E,2,5,2.0,-1.927,M,40.592,M,3.6,0123*52
$GPVTG,133.22,T,-506.68,M,003.458,N,006.405,K,D*0A
$GPGGA,081550.00,5702.8072558,N,00950.0634765,E,2,5,2.0,-1.933,M,40.592,M,3.6,0123*59
$GPVTG,135.20,T,-504.70,M,003.487,N,006.458,K,D*0F
$GPGGA,081550.05,5702.8072210,N,00950.0635401,E,2,5,2.0,-1.921,M,40.592,M,1.2,0123*52
$GPVTG,137.23,T,-502.67,M,003.492,N,006.466,K,D*07
$GPGGA,081550.10,5702.8071846,N,00950.0635931,E,2,5,2.0,-1.914,M,40.592,M,1.2,0123*54
$GPVTG,139.43,T,-500.47,M,003.492,N,006.466,K,D*0F
$GPGGA,081550.15,5702.8071454,N,00950.0636486,E,2,5,2.0,-1.911,M,40.592,M,1.2,0123*59
$GPVTG,141.39,T,-498.51,M,003.537,N,006.551,K,D*01
$GPGGA,081550.20,5702.8071079,N,00950.0637000,E,2,5,2.0,-1.909,M,40.592,M,1.2,0123*56
$GPVTG,143.12,T,-496.78,M,003.539,N,006.554,K,D*04
$GPGGA,081550.25,5702.8070655,N,00950.0637340,E,2,5,2.0,-1.928,M,40.592,M,1.4,0123*58
$GPVTG,145.99,T,-493.91,M,003.549,N,006.573,K,D*01
$GPGGA,081550.30,5702.8070253,N,00950.0637816,E,2,5,2.0,-1.936,M,40.592,M,1.4,0123*59
$GPVTG,147.73,T,-492.17,M,003.564,N,006.600,K,D*00
$GPGGA,081550.35,5702.8069837,N,00950.0638313,E,2,5,2.0,-1.950,M,40.592,M,1.4,0123*5D
$GPVTG,149.03,T,-490.87,M,003.601,N,006.670,K,D*05
$GPGGA,081550.40,5702.8069403,N,00950.0638778,E,2,5,2.0,-1.962,M,40.592,M,1.4,0123*5C
$GPVTG,150.58,T,-489.32,M,003.643,N,006.747,K,D*06
$GPGGA,081550.45,5702.8068960,N,00950.0639385,E,2,5,2.0,-1.951,M,40.592,M,1.6,0123*55
$GPVTG,151.87,T,-488.03,M,003.694,N,006.841,K,D*05
$GPGGA,081550.50,5702.8068552,N,00950.0639904,E,2,5,2.0,-1.952,M,40.592,M,1.6,0123*5C
$GPVTG,151.58,T,-488.32,M,003.717,N,006.884,K,D*06
$GPGGA,081550.55,5702.8068113,N,00950.0640361,E,2,5,2.0,-1.956,M,40.592,M,1.6,0123*5B
$GPVTG,152.48,T,-487.42,M,003.
$GPGGA,081604.10,5702.8073951,N,00950.0591968,E,2,5,2.0,-2.405,M,40.592,M,2.4,0123*59
$GPVTG,165.03,T,-474.87,M,003.738,N,006.922,K,D*02
$GPGGA,081604.15,5702.8073462,N,00950.0592166,E,2,5,2.0,-2.404,M,40.592,M,2.4,0123*55
$GPVTG,166.86,T,-473.04,M,003.753,N,006.951,K,D*09
$GPGGA,081604.20,5702.8072963,N,00950.0592317,E,2,5,2.0,-2.407,M,40.592,M,2.4,0123*59
$GPVTG,168.96,T,-470.94,M,003.771,N,006.983,K,D*03
$GPGGA,081604.25,5702.8072445,N,00950.0592475,E,2,5,2.0,-2.400,M,40.592,M,2.7,0123*52
$GPVTG,170.81,T,-469.09,M,003.827,N,007.088,K,D*0F
$GPGGA,081604.30,5702.8071944,N,00950.0592651,E,2,5,2.0,-2.399,M,40.592,M,2.7,0123*5A
$GPVTG,171.72,T,-468.18,M,003.842,N,007.115,K,D*05
$GPGGA,081604.35,5702.8071429,N,00950.0592799,E,2,5,2.0,-2.397,M,40.592,M,2.7,0123*52
$GPVTG,172.81,T,-467.09,M,003.869,N,007.166,K,D*08
$GPGGA,081604.40,5702.8070921,N,00950.0592903,E,2,5,2.0,-2.396,M,40.592,M,2.7,0123*58
$GPVTG,174.16,T,-465.74,M,003.875,N,007.176,K,D*04
$GPGGA,081604.45,5702.8070442,N,00950.0593029,E,2,5,2.0,-2.386,M,40.592,M,2.9,0123*5A
$GPVTG,175.57,T,-464.33,M,003.856,N,007.140,K,D*06
$GPGGA,081604.50,5702.8069878,N,00950.0593095,E,2,5,2.0,-2.393,M,40.592,M,2.9,0123*50
$GPVTG,176.88,T,-463.02,M,003.937,N,007.291,K,D*0B
$GPGGA,081604.55,5702.8069333,N,00950.0593108,E,2,5,2.0,-2.395,M,40.592,M,2.9,0123*52
$GPVTG,178.51,T,-461.40,M,003.978,N,007.368,K,D*09
$GPGGA,081604.60,5702.8068808,N,00950.0593087,E,2,5,2.0,-2.389,M,40.592,M,2.9,0123*5D
$GPVTG,180.23,T,-459.67,M,003.984,N,007.377,K,D*08
$GPGGA,081604.65,5702.8068321,N,00950.0593141,E,2,5,2.0,-2.403,M,40.592,M,3.1,0123*5F
$GPVTG,181.40,T,-458.50,M,003.973,N,007.359,K,D*0D
$GPGGA,081604.70,5702.8067778,N,00950.0593074,E,2,5,2.0,-2.410,M,40.592,M,3.1,0123*59
$GPVTG,182.96,T,-456.94,M,004.006,N,007.419,K,D*0C
$GPGGA,081604.75,5702.8067215,N,00950.0592967,E,2,5,2.0,-2.412,M,40.592,M,3.1,0123*5A
$GPVTG,184.64,T,-455.26,M,004.057,N,007.514,K,D*05
$GPGGA,081604.80,5702.8066689,N,00950.0592865,E,2,5,2.0,-2.414,M,40.592,M,3.1,0123*55
$GPVTG,186.06,T,-453.84,M,004.063,N,007.525,K,D*08
$GPGGA,081604.85,5702.8066131,N,00950.0592646,E,2,5,2.0,-2.421,M,40.592,M,3.4,0123*58
$GPVTG,187.44,T,-452.46,M,004.097,N,007.587,K,D*03
$GPGGA,081604.90,5702.8065608,N,00950.0592427,E,2,5,2.0,-2.425,M,40.592,M,3.4,0123*53
$GPVTG,189.28,T,-450.62,M,004.098,N,007.590,K,D*0A
$GPGGA,081604.95,5702.8065108,N,00950.0592192,E,2,5,2.0,-2.423,M,40.592,M,3.4,0123*5C
$GPVTG,191.18,T,-448.72,M,004.073,N,007.543,K,D*03
$GPGGA,081605.00,5702.8064549,N,00950.0591971,E,2,5,2.0,-2.426,M,40.592,M,3.4,0123*52
$GPVTG,192.57,T,-447.33,M,004.120,N,007.630,K,D*01
$GPGGA,081605.05,5702.8064021,N,00950.0591752,E,2,5,2.0,-2.433,M,40.592,M,2.5,0123*57
$GPVTG,193.84,T,-446.06,M,004.128,N,007.646,K,D*00
$GPGGA,081605.10,5702.8063468,N,00950.0591509,E,2,5,2.0,-2.440,M,40.592,M,2.5,0123*55
$GPVTG,195.01,T,-444.89,M,004.163,N,007.710,K,D*03
$GPGGA,081605.15,5702.8062921,N,00950.0591199,E,2,5,2.0,-2.443,M,40.592,M,2.5,0123*5F
$GPVTG,196.51,T,-443.39,M,004.197,N,007.773,K,D*07
$GPGGA,081605.20,5702.8062404,N,00950.0590807,E,2,5,2.0,-2.448,M,40.592,M,2.5,0123*57
$GPVTG,198.60,T,-441.30,M,004.204,N,007.787,K,D*02
$GPGGA,081605.25,5702.8061841,N,00950.0590455,E,2,5,2.0,-2.451,M,40.592,M,2.8,0123*52
$GPVTG,200.32,T,-439.58,M,004.275,N,007.918,K,D*08
$GPGGA,081605.30,5702.8061328,N,00950.0590068,E,2,5,2.0,-2.457,M,40.592,M,2.8,0123*5E
$GPVTG,201.88,T,-438.02,M,004.272,N,007.912,K,D*0B
$GPGGA,081605.35,5702.8060805,N,00950.0589707,E,2,5,2.0,-2.465,M,40.592,M,2.8,0123*59
$GPVTG,202.93,T,-436.97,M,004.273,N,007.913,K,D*00
$GPGGA,081605.40,5702.8060304,N,00950.0589288,E,2,5,2.0,-2.472,M,40.592,M,2.8,0123*55
$GPVTG,204.39,T,-435.51,M,004.260,N,007.890,K,D*07
$GPGGA,081605.45,5702.8059750,N,00950.0589028,E,2,5,2.0,-2.473,M,40.592,M,3.1,0123*5E
$GPVTG,204.71,T,-435.19,M,004.290,N,007.945,K,D*01
$GPGGA,081605.50,5702.8059201,N,00950.0588529,E,2,5,2.0,-2.481,M,40.592,M,3.1,0123*53
$GPVTG,206.07,T,-433.83,M,004.351,N,008.058,K,D*01
$GPGGA,081605.55,5702.8058657,N,00950.0588057,E,2,5,2.0,-2.489,M,40.592,M,3.1,0123*54
$GPVTG,207.03,T,-432.87,M,004.392,N,008.134,K,D*05
$GPGGA,081605.60,5702.8058172,N,00950.0587518,E,2,5,2.0,-2.497,M,40.592,M,3.1,0123*5C
$GPVTG,208.77,T,-431.13,M,004.380,N,008.112,K,D*00
$GPGGA,081605.65,5702.8057636,N,00950.0586967,E,2,5,2.0,-2.503,M,40.592,M,3.3,0123*5A
$GPVTG,210.42,T,-429.48,M,004.433,N,008.209,K,D*0E
$GPGGA,081605.70,5702.8057150,N,00950.0586415,E,2,5,2.0,-2.512,M,40.592,M,3.3,0123*51
$GPVTG,211.75,T,-428.15,M,004.421,N,008.187,K,D*04
$GPGGA,081605.75,5702.8056600,N,00950.0585855,E,2,5,2.0,-2.523,M,40.592,M,3.3,0123*5E
$GPVTG,212.36,T,-427.54,M,004.483,N,008.302,K,D*0D
$GPGGA,081605.80,5702.8056138,N,00950.0585228,E,2,5,2.0,-2.532,M,40.592,M,3.3,0123*58
$GPVTG,214.09,T,-425.81,M,004.463,N,008.266,K,D*00
$GPGGA,081605.85,5702.8055634,N,00950.0584741,E,2,5,2.0,-2.524,M,40.592,M,3.6,0123*5C
$GPVTG,214.99,T,-424.91,M,004.490,N,008.315,K,D*00
$GPGGA,081605.90,5702.8055150,N,00950.0584024,E,2,5,2.0,-2.533,M,40.592,M,3.6,0123*5F
$GPVTG,216.70,T,-423.20,M,004.527,N,008.385,K,D*0C
$GPGGA,081605.95,5702.8054613,N,00950.0583355,E,2,5,2.0,-2.538,M,40.592,M,3.6,0123*52
$GPVTG,217.30,T,-422.61,M,004.596,N,008.513,K,D*0E
$GPGGA,081606.00,5702.8054167,N,00950.0582564,E,2,5,2.0,-2.542,M,40.592,M,3.6,0123*51
$GPVTG,219.43,T,-420.47,M,004.614,N,008.545,K,D*08
$GPGGA,081606.05,5702.8053708,N,00950.0581957,E,2,5,2.0,-2.528,M,40.592,M,1.2,0123*59
$GPVTG,220.50,T,-419.40,M,004.633,N,008.580,K,D*01
$GPGGA,081606.10,5702.8053264,N,00950.0581230,E,2,5,2.0,-2.532,M,40.592,M,1.2,0123*53
$GPVTG,221.77,T,-418.13,M,004.619,N,008.554,K,D*03
$GPGGA,081606.15,5702.8052799,N,00950.0580458,E,2,5,2.0,-2.533,M,40.592,M,1.2,0123*58
$GPVTG,222.87,T,-417.03,M,004.643,N,008.599,K,D*0F
$GPGGA,081606.20,5702.8052353,N,00950.0579596,E,2,5,2.0,-2.533,M,40.592,M,1.2,0123*59
$GPVTG,224.51,T,-415.39,M,004.687,N,008.680,K,D*0A
$GPGGA,081606.25,5702.8051963,N,00950.0578889,E,2,5,2.0,-2.538,M,40.592,M,1.4,0123*59
$GPVTG,225.50,T,-414.40,M,004.708,N,008.720,K,D*08
$GPGGA,081606.30,5702.8051498,N,00950.0578014,E,2,5,2.0,-2.547,M,40.592,M,1.4,0123*50
$GPVTG,226.55,T,-413.35,M,004.767,N,008.829,K,D*04
$GPGGA,081606.35,5702.8051050,N,00950.0577203,E,2,5,2.0,-2.556,M,40.592,M,1.4,0123*5E
$GPVTG,227.26,T,-412.64,M,004.775,N,008.844,K,D*0C
$GPGGA,081606.40,5702.8050625,N,00950.0576291,E,2,5,2.0,-2.562,M,40.592,M,1.4,0123*54
$GPVTG,228.57,T,-411.33,M,004.808,N,008.905,K,D*05
$GPGGA,081606.45,5702.8050173,N,00950.0575531,E,2,5,2.0,-2.541,M,40.592,M,1.6,0123*58
$GPVTG,229.28,T,-410.62,M,004.844,N,008.971,K,D*02
$GPGGA,081606.50,5702.8049753,N,00950.0574640,E,2,5,2.0,-2.542,M,40.592,M,1.6,0123*57
$GPVTG,230.19,T,-409.71,M,004.853,N,008.987,K,D*0D
$GPGGA,081606.55,5702.8049401,N,00950.0573649,E,2,5,2.0,-2.545,M,40.592,M,1.6,0123*5F
$GPVTG,232.21,T,-407.69,M,004.854,N,008.990,K,D*02
$GPGGA,081606.60,5702.8049056,N,00950.0572605,E,2,5,2.0,-2.548,M,40.592,M,1.6,0123*5B
$GPVTG,234.30,T,-405.60,M,004.880,N,009.037,K,D*03
$GPGGA,081606.65,5702.8048656,N,00950.0571796,E,2,5,2.0,-2.533,M,40.592,M,1.8,0123*53
$GPVTG,235.16,T,-404.74,M,004.906,N,009.085,K,D*04
$GPGGA,081606.70,5702.8048270,N,00950.0570821,E,2,5,2.0,-2.536,M,40.592,M,1.8,0123*50
$GPVTG,236.03,T,-403.87,M,004.924,N,009.118,K,D*0D
$GPGGA,081606.75,5702.8047903,N,00950.0569844,E,2,5,2.0,-2.541,M,40.592,M,1.8,0123*5E
$GPVTG,236.90,T,-403.00,M,004.929,N,009.129,K,D*07
$GPGGA,081606.80,5702.8047549,N,00950.0568795,E,2,5,2.0,-2.544,M,40.592,M,1.8,0123*51
$GPVTG,238.03,T,-401.87,M,004.959,N,009.184,K,D*0E
$GPGGA,081606.85,5702.8047215,N,00950.0567890,E,2,5,2.0,-2.534,M,40.592,M,2.1,0123*52
$GPVTG,238.97,T,-400.93,M,004.965,N,009.195,K,D*08
$GPGGA,081606.90,5702.8046876,N,00950.0566826,E,2,5,2.0,-2.540,M,40.592,M,2.1,0123*57
$GPVTG,239.99,T,-399.91,M,004.987,N,009.235,K,D*07
$GPGGA,081606.95,5702.8046545,N,00950.0565754,E,2,5,2.0,-2.547,M,40.592,M,2.1,0123*51
$GPVTG,240.96,T,-398.94,M,005.005,N,009.269,K,D*09
$GPGGA,081607.00,5702.8046216,N,00950.0564666,E,2,5,2.0,-2.557,M,40.592,M,2.1,0123*5D
$GPVTG,241.87,T,-398.03,M,005.026,N,009.307,K,D*0E
$GPGGA,081607.05,5702.8045966,N,00950.0563656,E,2,5,2.0,-2.529,M,40.592,M,2.3,0123*58
$GPVTG,243.02,T,-396.88,M,005.018,N,009.293,K,D*0D
$GPGGA,081607.10,5702.8045696,N,00950.0562572,E,2,5,2.0,-2.533,M,40.592,M,2.3,0123*53
$GPVTG,244.27,T,-395.63,M,004.990,N,009.242,K,D*0F
$GPGGA,081607.15,5702.8045440,N,00950.0561477,E,2,5,2.0,-2.538,M,40.592,M,2.3,0123*53
$GPVTG,245.55,T,-394.35,M,004.966,N,009.198,K,D*04
$GPGGA,081607.20,5702.8045160,N,00950.0560362,E,2,5,2.0,-2.543,M,40.592,M,2.3,0123*5C
$GPVTG,246.41,T,-393.49,M,004.970,N,009.205,K,D*0E
$GPGGA,081607.25,5702.8045022,N,00950.0559346,E,2,5,2.0,-2.524,M,40.592,M,2.5,0123*55
$GPVTG,248.85,T,-391.05,M,004.849,N,008.980,K,D*0E
$GPGGA,081607.30,5702.8044748,N,00950.0558136,E,2,5,2.0,-2.531,M,40.592,M,2.5,0123*5B
$GPVTG,249.48,T,-390.42,M,004.953,N,009.172,K,D*02
$GPGGA,081607.35,5702.8044522,N,00950.0557002,E,2,5,2.0,-2.534,M,40.592,M,2.5,0123*5C
$GPVTG,250.48,T,-389.42,M,004.928,N,009.126,K,D*0F
$GPGGA,081607.40,5702.8044325,N,00950.0555864,E,2,5,2.0,-2.538,M,40.592,M,2.5,0123*59
$GPVTG,251.80,T,-388.10,M,004.897,N,009.068,K,D*02
$GPGGA,081607.45,5702.8044083,N,00950.0554663,E,2,5,2.0,-2.528,M,40.592,M,2.7,0123*58
$GPVTG,252.53,T,-387.37,M,004.956,N,009.179,K,D*08
$GPGGA,081607.50,5702.8043954,N,00950.0553495,E,2,5,2.0,-2.529,M,40.592,M,2.7,0123*55
$GPVTG,254.57,T,-385.33,M,004.923,N,009.118,K,D*09
$GPGGA,081607.55,5702.8043767,N,00950.0552310,E,2,5,2.0,-2.530,M,40.592,M,2.7,0123*5D
$GPVTG,255.42,T,-384.48,M,004.930,N,009.131,K,D*08
$GPGGA,081607.60,5702.8043544,N,00950.0551082,E,2,5,2.0,-2.536,M,40.592,M,2.7,0123*55
$GPVTG,255.67,T,-384.23,M,004.981,N,009.226,K,D*0D
$GPGGA,081607.65,5702.8043434,N,00950.0549965,E,2,5,2.0,-2.534,M,40.592,M,2.9,0123*53
$GPVTG,257.36,T,-382.54,M,004.933,N,009.136,K,D*06
$GPGGA,081607.70,5702.8043379,N,00950.0548831,E,2,5,2.0,-2.536,M,40.592,M,2.9,0123*5A
$GPVTG,259.61,T,-380.29,M,004.856,N,008.992,K,D*07
$GPGGA,081607.75,5702.8043284,N,00950.0547616,E,2,5,2.0,-2.541,M,40.592,M,2.9,0123*58
$GPVTG,261.07,T,-378.83,M,004.866,N,009.012,K,D*08
$GPGGA,081607.80,5702.8043180,N,00950.0546416,E,2,5,2.0,-2.550,M,40.592,M,2.9,0123*56
$GPVTG,262.14,T,-377.76,M,004.863,N,009.007,K,D*0D
$GPGGA,081607.85,5702.8043050,N,00950.0545117,E,2,5,2.0,-2.514,M,40.592,M,3.1,0123*51
$GPVTG,263.23,T,-376.67,M,004.872,N,009.022,K,D*0E
$GPGGA,081607.90,5702.8042940,N,00950.0543831,E,2,5,2.0,-2.514,M,40.592,M,3.1,0123*57
$GPVTG,263.86,T,-376.04,M,004.938,N,009.146,K,D*08
$GPGGA,081607.95,5702.8042908,N,00950.0542603,E,2,5,2.0,-2.511,M,40.592,M,3.1,0123*55
$GPVTG,265.48,T,-374.42,M,004.939,N,009.147,K,D*0C
$GPGGA,081608.00,5702.8042783,N,00950.0541315,E,2,5,2.0,-2.519,M,40.592,M,3.1,0123*52
$GPVTG,265.44,T,-374.46,M,004.999,N,009.257,K,D*0C
$GPGGA,081608.05,5702.8042802,N,00950.0540149,E,2,5,2.0,-2.524,M,40.592,M,2.4,0123*51
$GPVTG,267.47,T,-372.43,M,004.977,N,009.218,K,D*05
$GPGGA,081608.10,5702.8042825,N,00950.0539007,E,2,5,2.0,-2.527,M,40.592,M,2.4,0123*56
$GPVTG,269.26,T,-370.64,M,004.899,N,009.074,K,D*02
$GPGGA,081608.15,5702.8042849,N,00950.0537835,E,2,5,2.0,-2.530,M,40.592,M,2.4,0123*58
$GPVTG,270.85,T,-369.05,M,004.857,N,008.995,K,D*09
$GPGGA,081608.20,5702.8042852,N,00950.0536538,E,2,5,2.0,-2.536,M,40.592,M,2.4,0123*53
$GPVTG,271.83,T,-368.07,M,004.920,N,009.113,K,D*0B
$GPGGA,081608.25,5702.8042785,N,00950.0535098,E,2,5,2.0,-2.490,M,40.592,M,2.7,0123*51
$GPVTG,272.41,T,-367.49,M,004.986,N,009.234,K,D*09
$GPGGA,081608.30,5702.8042802,N,00950.0533838,E,2,5,2.0,-2.488,M,40.592,M,2.7,0123*58
$GPVTG,273.23,T,-366.67,M,005.004,N,009.267,K,D*05
$GPGGA,081608.35,5702.8042847,N,00950.0532599,E,2,5,2.0,-2.486,M,40.592,M,2.7,0123*55
$GPVTG,274.31,T,-365.59,M,005.003,N,009.266,K,D*09
$GPGGA,081608.40,5702.8042927,N,00950.0531318,E,2,5,2.0,-2.484,M,40.592,M,2.7,0123*5E
$GPVTG,275.68,T,-364.22,M,005.041,N,009.336,K,D*0B
$GPGGA,081608.45,5702.8043045,N,00950.0530129,E,2,5,2.0,-2.487,M,40.592,M,2.9,0123*5B
$GPVTG,277.17,T,-362.73,M,005.062,N,009.376,K,D*06
$GPGGA,081608.50,5702.8043159,N,00950.0528905,E,2,5,2.0,-2.491,M,40.592,M,2.9,0123*5B
$GPVTG,278.63,T,-361.27,M,005.052,N,009.357,K,D*08
$GPGGA,081608.55,5702.8043227,N,00950.0527675,E,2,5,2.0,-2.497,M,40.592,M,2.9,0123*55
$GPVTG,279.16,T,-360.74,M,005.039,N,009.332,K,D*02
$GPGGA,081608.60,5702.8043335,N,00950.0526432,E,2,5,2.0,-2.502,M,40.592,M,2.9,0123*5C
$GPVTG,280.14,T,-359.76,M,005.045,N,009.343,K,D*03
$GPGGA,081608.65,5702.8043445,N,00950.0525168,E,2,5,2.0,-2.481,M,40.592,M,3.1,0123*53
$GPVTG,281.70,T,-358.20,M,005.022,N,009.301,K,D*05
$GPGGA,081608.70,5702.8043612,N,00950.0523913,E,2,5,2.0,-2.478,M,40.592,M,3.1,0123*53
$GPVTG,283.08,T,-356.82,M,005.055,N,009.362,K,D*0B
$GPGGA,081608.75,5702.8043779,N,00950.0522682,E,2,5,2.0,-2.477,M,40.592,M,3.1,0123*53
$GPVTG,284.25,T,-355.65,M,005.065,N,009.380,K,D*06
$GPGGA,081608.80,5702.8043939,N,00950.0521517,E,2,5,2.0,-2.481,M,40.592,M,3.1,0123*56
$GPVTG,285.29,T,-354.61,M,005.021,N,009.299,K,D*07
$GPGGA,081608.85,5702.8044065,N,00950.0520255,E,2,5,2.0,-2.462,M,40.592,M,3.4,0123*5C
$GPVTG,285.57,T,-354.33,M,005.027,N,009.311,K,D*0E
$GPGGA,081608.90,5702.8044255,N,00950.0519026,E,2,5,2.0,-2.463,M,40.592,M,3.4,0123*54
$GPVTG,286.56,T,-353.34,M,005.045,N,009.344,K,D*08
$GPGGA,081608.95,5702.8044542,N,00950.0517889,E,2,5,2.0,-2.460,M,40.592,M,3.4,0123*50
$GPVTG,288.99,T,-350.91,M,005.029,N,009.314,K,D*06
$GPGGA,081609.00,5702.8044792,N,00950.0516747,E,2,5,2.0,-2.456,M,40.592,M,3.4,0123*5B
$GPVTG,290.58,T,-349.32,M,005.010,N,009.278,K,D*02
$GPGGA,081609.05,5702.8044933,N,00950.0515363,E,2,5,2.0,-2.428,M,40.592,M,2.5,0123*53
$GPVTG,290.63,T,-349.27,M,005.079,N,009.406,K,D*0E
$GPGGA,081609.10,5702.8045155,N,00950.0514110,E,2,5,2.0,-2.427,M,40.592,M,2.5,0123*56
$GPVTG,291.11,T,-348.79,M,005.123,N,009.487,K,D*07
$GPGGA,081609.15,5702.8045402,N,00950.0512930,E,2,4,2.0,-2.422,M,40.592,M,2.5,0123*5C
$GPVTG,292.03,T,-347.87,M,005.123,N,009.487,K,D*09
$GPGGA,081609.20,5702.8045714,N,00950.0511834,E,2,4,2.0,-2.414,M,40.592,M,2.5,0123*5D
$GPVTG,293.82,T,-346.08,M,005.096,N,009.437,K,D*03
$GPGGA,081609.25,5702.8045984,N,00950.0510916,E,2,5,2.0,-2.444,M,40.592,M,2.8,0123*56
$GPVTG,295.17,T,-344.73,M,005.040,N,009.335,K,D*09
$GPGGA,081609.30,5702.8046326,N,00950.0509792,E,2,5,2.0,-2.454,M,40.592,M,2.8,0123*58
$GPVTG,296.65,T,-343.25,M,005.052,N,009.356,K,D*0D
$GPGGA,081609.35,5702.8046648,N,00950.0508687,E,2,5,2.0,-2.457,M,40.592,M,2.8,0123*57
$GPVTG,297.92,T,-341.98,M,005.049,N,009.351,K,D*0D
$GPGGA,081609.40,5702.8046937,N,00950.0507621,E,2,5,2.0,-2.462,M,40.592,M,2.8,0123*57
$GPVTG,298.94,T,-340.96,M,005.012,N,009.282,K,D*0A
$GPGGA,081609.45,5702.8047116,N,00950.0506397,E,2,5,2.0,-2.459,M,40.592,M,3.1,0123*51
$GPVTG,299.92,T,-339.98,M,004.993,N,009.248,K,D*0A
$GPGGA,081609.50,5702.8047448,N,00950.0505408,E,2,5,2.0,-2.463,M,40.592,M,3.1,0123*50
$GPVTG,301.37,T,-338.53,M,004.923,N,009.118,K,D*0E
$GPGGA,081609.55,5702.8047810,N,00950.0504392,E,2,5,2.0,-2.466,M,40.592,M,3.1,0123*54
$GPVTG,302.79,T,-337.11,M,004.901,N,009.077,K,D*06
$GPGGA,081609.60,5702.8048180,N,00950.0503389,E,2,5,2.0,-2.473,M,40.592,M,3.1,0123*54
$GPVTG,304.14,T,-335.76,M,004.882,N,009.042,K,D*04
$GPGGA,081609.65,5702.8048477,N,00950.0502225,E,2,5,2.0,-2.457,M,40.592,M,3.3,0123*5E
$GPVTG,304.94,T,-334.96,M,004.887,N,009.051,K,D*04
$GPGGA,081609.70,5702.8048849,N,00950.0501221,E,2,5,2.0,-2.460,M,40.592,M,3.3,0123*58
$GPVTG,305.92,T,-333.98,M,004.877,N,009.032,K,D*00
$GPGGA,081609.75,5702.8049272,N,00950.0500279,E,2,5,2.0,-2.468,M,40.592,M,3.3,0123*5A
$GPVTG,307.62,T,-332.28,M,004.865,N,009.009,K,D*0C
$GPGGA,081609.80,5702.8049660,N,00950.0499326,E,2,5,2.0,-2.473,M,40.592,M,3.3,0123*57
$GPVTG,308.64,T,-331.26,M,004.842,N,008.968,K,D*02
$GPGGA,081609.85,5702.8050046,N,00950.0498207,E,2,5,2.0,-2.431,M,40.592,M,3.6,0123*58
$GPVTG,309.90,T,-330.00,M,004.838,N,008.960,K,D*08
$GPGGA,081609.90,5702.8050465,N,00950.0497270,E,2,5,2.0,-2.429,M,40.592,M,3.6,0123*5F
$GPVTG,310.86,T,-329.04,M,004.831,N,008.946,K,D*06
$GPGGA,081609.95,5702.8050929,N,00950.0496357,E,2,5,2.0,-2.429,M,40.592,M,3.6,0123*5A
$GPVTG,312.37,T,-327.53,M,004.857,N,008.995,K,D*0C
$GPGGA,081610.00,5702.8051397,N,00950.0495445,E,2,5,2.0,-2.428,M,40.592,M,3.6,0123*56
$GPVTG,313.64,T,-326.26,M,004.885,N,009.047,K,D*00
$GPGGA,081610.05,5702.8051786,N,00950.0494446,E,2,5,2.0,-2.406,M,40.592,M,1.2,0123*5F
$GPVTG,314.41,T,-325.49,M,004.883,N,009.044,K,D*0F
$GPGGA,081610.10,5702.8052246,N,00950.0493597,E,2,5,2.0,-2.406,M,40.592,M,1.2,0123*5B
$GPVTG,315.56,T,-324.34,M,004.864,N,009.008,K,D*02
$GPGGA,081610.15,5702.8052747,N,00950.0492753,E,2,5,2.0,-2.406,M,40.592,M,1.2,0123*51
$GPVTG,316.98,T,-322.92,M,004.886,N,009.049,K,D*00
$GPGGA,081610.20,5702.8053237,N,00950.0491908,E,2,5,2.0,-2.412,M,40.592,M,1.2,0123*52
$GPVTG,317.99,T,-321.91,M,004.896,N,009.068,K,D*02
$GPGGA,081610.25,5702.8053645,N,00950.0491009,E,2,5,2.0,-2.403,M,40.592,M,1.4,0123*58
$GPVTG,319.00,T,-320.90,M,004.875,N,009.028,K,D*05
$GPGGA,081610.30,5702.8054161,N,00950.0490336,E,2,5,2.0,-2.405,M,40.592,M,1.4,0123*52
$GPVTG,321.15,T,-318.75,M,004.825,N,008.936,K,D*08
$GPGGA,081610.35,5702.8054726,N,00950.0489644,E,2,5,2.0,-2.406,M,40.592,M,1.4,0123*59
$GPVTG,323.28,T,-316.62,M,004.847,N,008.976,K,D*0C
$GPGGA,081610.40,5702.8055215,N,00950.0488896,E,2,5,2.0,-2.409,M,40.592,M,1.4,0123*50
$GPVTG,323.95,T,-315.95,M,004.818,N,008.922,K,D*0A
$GPGGA,081610.45,5702.8055633,N,00950.0488060,E,2,5,2.0,-2.372,M,40.592,M,1.6,0123*5D
$GPVTG,325.03,T,-314.87,M,004.769,N,008.832,K,D*08
$GPGGA,081610.50,5702.8056166,N,00950.0487382,E,2,5,2.0,-2.373,M,40.592,M,1.6,0123*5C
$GPVTG,326.23,T,-313.67,M,004.763,N,008.821,K,D*08
$GPGGA,081610.55,5702.8056714,N,00950.0486723,E,2,5,2.0,-2.374,M,40.592,M,1.6,0123*53
$GPVTG,327.48,T,-312.42,M,004.768,N,008.831,K,D*08
$GPGGA,081610.60,5702.8057253,N,00950.0486122,E,2,5,2.0,-2.372,M,40.592,M,1.6,0123*53
$GPVTG,328.88,T,-311.02,M,004.739,N,008.777,K,D*05
$GPGGA,081610.65,5702.8057736,N,00950.0485439,E,2,5,2.0,-2.348,M,40.592,M,1.8,0123*5B
$GPVTG,330.07,T,-309.83,M,004.708,N,008.719,K,D*01
$GPGGA,081610.70,5702.8058288,N,00950.0484847,E,2,5,2.0,-2.351,M,40.592,M,1.8,0123*5C
$GPVTG,331.15,T,-308.75,M,004.701,N,008.705,K,D*0F
$GPGGA,081610.75,5702.8058868,N,00950.0484279,E,2,5,2.0,-2.350,M,40.592,M,1.8,0123*5B
$GPVTG,332.43,T,-307.47,M,004.718,N,008.738,K,D*07
$GPGGA,081610.80,5702.8059425,N,00950.0483798,E,2,5,2.0,-2.349,M,40.592,M,1.8,0123*50
$GPVTG,334.05,T,-305.85,M,004.678,N,008.663,K,D*07
$GPGGA,081610.85,5702.8059890,N,00950.0483106,E,2,5,2.0,-2.318,M,40.592,M,2.1,0123*58
$GPVTG,334.41,T,-305.49,M,004.642,N,008.596,K,D*07
$GPGGA,081610.90,5702.8060473,N,00950.0482543,E,2,5,2.0,-2.314,M,40.592,M,2.1,0123*5F
$GPVTG,335.02,T,-304.88,M,004.670,N,008.649,K,D*0D
$GPGGA,081610.95,5702.8061026,N,00950.0482018,E,2,5,2.0,-2.314,M,40.592,M,2.1,0123*54
$GPVTG,335.61,T,-304.29,M,004.648,N,008.608,K,D*0D
$GPGGA,081611.00,5702.8061602,N,00950.0481593,E,2,5,2.0,-2.313,M,40.592,M,2.1,0123*5B
$GPVTG,337.10,T,-302.80,M,004.622,N,008.560,K,D*0D
$GPGGA,081611.05,5702.8062156,N,00950.0481194,E,2,5,2.0,-2.309,M,40.592,M,2.3,0123*51
$GPVTG,338.78,T,-301.12,M,004.592,N,008.504,K,D*0E
$GPGGA,081611.10,5702.8062719,N,00950.0480758,E,2,5,2.0,-2.311,M,40.592,M,2.3,0123*56
$GPVTG,339.54,T,-300.36,M,004.563,N,008.451,K,D*09
$GPGGA,081611.15,5702.8063311,N,00950.0480391,E,2,5,2.0,-2.312,M,40.592,M,2.3,0123*5C
$GPVTG,340.96,T,-298.94,M,004.557,N,008.440,K,D*06
$GPGGA,081611.20,5702.8063871,N,00950.0479998,E,2,5,2.0,-2.313,M,40.592,M,2.3,0123*53
$GPVTG,341.69,T,-298.21,M,004.520,N,008.371,K,D*0C
$GPGGA,081611.25,5702.8064420,N,00950.0479587,E,2,5,2.0,-2.294,M,40.592,M,2.5,0123*53
$GPVTG,343.10,T,-296.80,M,004.519,N,008.369,K,D*06
$GPGGA,081611.30,5702.8065028,N,00950.0479328,E,2,5,2.0,-2.290,M,40.592,M,2.5,0123*5D
$GPVTG,344.96,T,-294.94,M,004.519,N,008.369,K,D*08
$GPGGA,081611.35,5702.8065624,N,00950.0479031,E,2,5,2.0,-2.291,M,40.592,M,2.5,0123*58
$GPVTG,346.06,T,-293.84,M,004.515,N,008.361,K,D*01
$GPGGA,081611.40,5702.8066214,N,00950.0478755,E,2,5,2.0,-2.292,M,40.592,M,2.5,0123*59
$GPVTG,347.10,T,-292.80,M,004.499,N,008.332,K,D*01
$GPGGA,081611.45,5702.8066737,N,00950.0478370,E,2,5,2.0,-2.257,M,40.592,M,2.7,0123*50
$GPVTG,347.90,T,-292.00,M,004.464,N,008.268,K,D*0D
$GPGGA,081611.50,5702.8067312,N,00950.0478090,E,2,5,2.0,-2.253,M,40.592,M,2.7,0123*5F
$GPVTG,348.39,T,-291.51,M,004.435,N,008.214,K,D*09
$GPGGA,081611.55,5702.8067861,N,00950.0477844,E,2,5,2.0,-2.250,M,40.592,M,2.7,0123*58
$GPVTG,349.00,T,-290.90,M,004.368,N,008.090,K,D*0F
$GPGGA,081611.60,5702.8068448,N,00950.0477656,E,2,5,2.0,-2.245,M,40.592,M,2.7,0123*5F
$GPVTG,350.20,T,-289.70,M,004.353,N,008.061,K,D*05
$GPGGA,081611.65,5702.8069031,N,00950.0477551,E,2,5,2.0,-2.239,M,40.592,M,2.9,0123*50
$GPVTG,352.21,T,-287.69,M,004.344,N,008.045,K,D*00
$GPGGA,081611.70,5702.8069612,N,00950.0477454,E,2,5,2.0,-2.236,M,40.592,M,2.9,0123*58
$GPVTG,353.86,T,-286.04,M,004.317,N,007.996,K,D*08
$GPGGA,081611.75,5702.8070187,N,00950.0477340,E,2,5,2.0,-2.237,M,40.592,M,2.9,0123*5D
$GPVTG,354.97,T,-284.93,M,004.289,N,007.944,K,D*0A
$GPGGA,081611.80,5702.8070758,N,00950.0477260,E,2,5,2.0,-2.237,M,40.592,M,2.9,0123*50
$GPVTG,356.24,T,-283.66,M,004.258,N,007.885,K,D*0D
$GPGGA,081611.85,5702.8071318,N,00950.0477117,E,2,5,2.0,-2.217,M,40.592,M,3.1,0123*5C
$GPVTG,357.02,T,-282.88,M,004.255,N,007.880,K,D*01
$GPGGA,081611.90,5702.8071882,N,00950.0477075,E,2,5,2.0,-2.219,M,40.592,M,3.1,0123*5B
$GPVTG,358.25,T,-281.65,M,004.213,N,007.803,K,D*02
$GPGGA,081611.95,5702.8072436,N,00950.0477066,E,2,5,2.0,-2.221,M,40.592,M,3.1,0123*57
$GPVTG,359.65,T,-280.25,M,004.161,N,007.706,K,D*0E
$GPGGA,081612.00,5702.8073014,N,00950.0477115,E,2,5,2.0,-2.220,M,40.592,M,3.1,0123*59
$GPVTG,001.49,T,-638.41,M,004.160,N,007.705,K,D*09
$GPGGA,081612.05,5702.8073577,N,00950.0477160,E,2,5,2.0,-2.208,M,40.592,M,2.4,0123*50
$GPVTG,004.60,T,-635.30,M,004.260,N,007.890,K,D*0C
$GPGGA,081612.10,5702.8074144,N,00950.0477223,E,2,5,2.0,-2.211,M,40.592,M,2.4,0123*5B
$GPVTG,005.26,T,-634.64,M,004.203,N,007.784,K,D*00
$GPGGA,081612.15,5702.8074683,N,00950.0477349,E,2,5,2.0,-2.211,M,40.592,M,2.4,0123*5F
$GPVTG,007.14,T,-632.76,M,004.113,N,007.618,K,D*00
$GPGGA,081612.20,5702.8075251,N,00950.0477517,E,2,5,2.0,-2.212,M,40.592,M,2.4,0123*5D
$GPVTG,009.11,T,-630.79,M,004.126,N,007.641,K,D*0C
$GPGGA,081612.25,5702.8075736,N,00950.0477622,E,2,5,2.0,-2.221,M,40.592,M,2.7,0123*5A
$GPVTG,009.78,T,-630.12,M,004.099,N,007.592,K,D*06
$GPGGA,081612.30,5702.8076288,N,00950.0477802,E,2,5,2.0,-2.226,M,40.592,M,2.7,0123*56
$GPVTG,011.06,T,-628.84,M,004.090,N,007.575,K,D*00
$GPGGA,081612.35,5702.8076820,N,00950.0478036,E,2,5,2.0,-2.230,M,40.592,M,2.7,0123*5C
$GPVTG,012.96,T,-626.94,M,004.068,N,007.534,K,D*07
$GPGGA,081612.40,5702.8077297,N,00950.0478216,E,2,5,2.0,-2.236,M,40.592,M,2.7,0123*5F
$GPVTG,013.63,T,-626.27,M,003.951,N,007.317,K,D*07
$GPGGA,081612.45,5702.8077754,N,00950.0478430,E,2,5,2.0,-2.237,M,40.592,M,2.9,0123*5D
$GPVTG,014.91,T,-624.99,M,003.875,N,007.176,K,D*08
$GPGGA,081612.50,5702.8078260,N,00950.0478708,E,2,5,2.0,-2.241,M,40.592,M,2.9,0123*5D
$GPVTG,016.66,T,-623.24,M,003.844,N,007.119,K,D*08
$GPGGA,081612.55,5702.8078761,N,00950.0479009,E,2,5,2.0,-2.240,M,40.592,M,2.9,0123*5A
$GPVTG,018.36,T,-621.54,M,003.821,N,007.077,K,D*0C
$GPGGA,081612.60,5702.8079247,N,00950.0479278,E,2,5,2.0,-2.239,M,40.592,M,2.9,0123*56
$GPVTG,019.07,T,-620.83,M,003.765,N,006.972,K,D*06
$GPGGA,081612.65,5702.8079718,N,00950.0479630,E,2,5,2.0,-2.220,M,40.592,M,3.1,0123*55
$GPVTG,021.06,T,-618.84,M,003.724,N,006.897,K,D*0F
$GPGGA,081612.70,5702.8080190,N,00950.0480003,E,2,5,2.0,-2.222,M,40.592,M,3.1,0123*53
$GPVTG,022.83,T,-617.07,M,003.705,N,006.862,K,D*0C
$GPGGA,081612.75,5702.8080700,N,00950.0480345,E,2,5,2.0,-2.225,M,40.592,M,3.1,0123*5F
$GPVTG,023.77,T,-616.13,M,003.720,N,006.889,K,D*00
$GPGGA,081612.80,5702.8081177,N,00950.0480689,E,2,5,2.0,-2.228,M,40.592,M,3.1,0123*5A
$GPVTG,024.63,T,-615.27,M,003.701,N,006.855,K,D*04
$GPGGA,081612.85,5702.8081667,N,00950.0481076,E,2,5,2.0,-2.210,M,40.592,M,3.4,0123*50
$GPVTG,026.08,T,-613.82,M,003.706,N,006.864,K,D*07
$GPGGA,081612.90,5702.8082119,N,00950.0481574,E,2,5,2.0,-2.210,M,40.592,M,3.4,0123*5E
$GPVTG,028.34,T,-611.56,M,003.720,N,006.890,K,D*02
$GPGGA,081612.95,5702.8082562,N,00950.0482020,E,2,5,2.0,-2.211,M,40.592,M,3.4,0123*55
$GPVTG,029.77,T,-610.13,M,003.708,N,006.867,K,D*06
$GPGGA,081613.00,5702.8083026,N,00950.0482463,E,2,5,2.0,-2.212,M,40.592,M,3.4,0123*5C
$GPVTG,030.70,T,-609.20,M,003.715,N,006.880,K,D*04
$GPGGA,081613.05,5702.8083581,N,00950.0482896,E,2,5,2.0,-2.172,M,40.592,M,2.5,0123*52
$GPVTG,031.55,T,-608.35,M,003.715,N,006.880,K,D*07
$GPGGA,081613.10,5702.8084039,N,00950.0483421,E,2,5,2.0,-2.173,M,40.592,M,2.5,0123*57
$GPVTG,032.94,T,-606.96,M,003.741,N,006.928,K,D*0C
$GPGGA,081613.15,5702.8084472,N,00950.0483910,E,2,5,2.0,-2.171,M,40.592,M,2.5,0123*54
$GPVTG,033.97,T,-605.94,M,003.735,N,006.917,K,D*00
$GPGGA,081613.20,5702.8084912,N,00950.0484415,E,2,5,2.0,-2.168,M,40.592,M,2.5,0123*5E
$GPVTG,034.87,T,-605.03,M,003.738,N,006.922,K,D*03
$GPGGA,081613.25,5702.8085289,N,00950.0485055,E,2,5,2.0,-2.154,M,40.592,M,2.8,0123*50
$GPVTG,038.04,T,-601.86,M,003.757,N,006.959,K,D*08
$GPGGA,081613.30,5702.8085692,N,00950.0485596,E,2,5,2.0,-2.152,M,40.592,M,2.8,0123*56
$GPVTG,038.82,T,-601.08,M,003.730,N,006.908,K,D*05
$GPGGA,081613.35,5702.8086094,N,00950.0486185,E,2,5,2.0,-2.150,M,40.592,M,2.8,0123*57
$GPVTG,039.99,T,-599.91,M,003.736,N,006.919,K,D*0A
$GPGGA,081613.40,5702.8086496,N,00950.0486777,E,2,5,2.0,-2.147,M,40.592,M,2.8,0123*5E
$GPVTG,040.94,T,-598.96,M,003.741,N,006.928,K,D*0D
$GPGGA,081613.45,5702.8086881,N,00950.0487345,E,2,5,2.0,-2.119,M,40.592,M,3.1,0123*56
$GPVTG,041.63,T,-598.27,M,003.709,N,006.869,K,D*06
$GPGGA,081613.50,5702.8087247,N,00950.0488016,E,2,5,2.0,-2.112,M,40.592,M,3.1,0123*52
$GPVTG,043.47,T,-596.43,M,003.727,N,006.902,K,D*0E
$GPGGA,081613.55,5702.8087647,N,00950.0488622,E,2,5,2.0,-2.106,M,40.592,M,3.1,0123*57
$GPVTG,043.84,T,-596.06,M,003.732,N,006.912,K,D*05
$GPGGA,081613.60,5702.8088011,N,00950.0489301,E,2,5,2.0,-2.101,M,40.592,M,3.1,0123*59
$GPVTG,045.25,T,-594.65,M,003.747,N,006.940,K,D*0A
$GPGGA,081613.65,5702.8088355,N,00950.0490019,E,2,5,2.0,-2.084,M,40.592,M,3.3,0123*53
$GPVTG,047.06,T,-592.84,M,003.752,N,006.948,K,D*0C
$GPGGA,081613.70,5702.8088710,N,00950.0490691,E,2,5,2.0,-2.084,M,40.592,M,3.3,0123*54
$GPVTG,047.95,T,-591.95,M,003.749,N,006.943,K,D*04
$GPGGA,081613.75,5702.8089047,N,00950.0491403,E,2,5,2.0,-2.078,M,40.592,M,3.3,0123*5E
$GPVTG,049.23,T,-590.67,M,003.755,N,006.954,K,D*00
$GPGGA,081613.80,5702.8089379,N,00950.0492106,E,2,5,2.0,-2.070,M,40.592,M,3.3,0123*51
$GPVTG,050.26,T,-589.64,M,003.749,N,006.943,K,D*0D
$GPGGA,081613.85,5702.8089660,N,00950.0492816,E,2,5,2.0,-2.045,M,40.592,M,3.6,0123*52
$GPVTG,051.88,T,-588.02,M,003.749,N,006.942,K,D*08
$GPGGA,081613.90,5702.8089975,N,00950.0493578,E,2,5,2.0,-2.040,M,40.592,M,3.6,0123*5C
$GPVTG,053.17,T,-586.73,M,003.765,N,006.974,K,D*0F
$GPGGA,081613.95,5702.8090273,N,00950.0494324,E,2,5,2.0,-2.036,M,40.592,M,3.6,0123*55
$GPVTG,054.34,T,-585.56,M,003.756,N,006.955,K,D*0E
$GPGGA,081614.00,5702.8090580,N,00950.0495096,E,2,5,2.0,-2.034,M,40.592,M,3.6,0123*5C
$GPVTG,055.34,T,-584.56,M,003.768,N,006.979,K,D*0D
$GPGGA,081614.05,5702.8090856,N,00950.0495905,E,2,5,2.0,-2.018,M,40.592,M,1.2,0123*54
$GPVTG,056.78,T,-583.12,M,003.779,N,006.999,K,D*0F
$GPGGA,081614.10,5702.8091139,N,00950.0496670,E,2,5,2.0,-2.014,M,40.592,M,1.2,0123*53
$GPVTG,057.62,T,-582.28,M,003.761,N,006.965,K,D*07
$GPGGA,081614.15,5702.8091374,N,00950.0497482,E,2,5,2.0,-2.011,M,40.592,M,1.2,0123*56
$GPVTG,059.42,T,-580.48,M,003.748,N,006.941,K,D*02
$GPGGA,081614.20,5702.8091644,N,00950.0498289,E,2,5,2.0,-2.008,M,40.592,M,1.2,0123*5C
$GPVTG,060.33,T,-579.57,M,003.753,N,006.951,K,D*0D
$GPGGA,081614.25,5702.8091834,N,00950.0499046,E,2,5,2.0,-1.989,M,40.592,M,1.4,0123*55
$GPVTG,061.84,T,-578.06,M,003.723,N,006.894,K,D*0A
$GPGGA,081614.30,5702.8092063,N,00950.0499886,E,2,5,2.0,-1.980,M,40.592,M,1.4,0123*55
$GPVTG,063.22,T,-576.68,M,003.728,N,006.904,K,D*01
$GPGGA,081614.35,5702.8092266,N,00950.0500738,E,2,5,2.0,-1.973,M,40.592,M,1.4,0123*50
$GPVTG,064.87,T,-575.03,M,003.727,N,006.903,K,D*0F
$GPGGA,081614.40,5702.8092467,N,00950.0501574,E,2,5,2.0,-1.967,M,40.592,M,1.4,0123*5B
$GPVTG,066.21,T,-573.69,M,003.711,N,006.873,K,D*08
$GPGGA,081614.45,5702.8092566,N,00950.0502346,E,2,5,2.0,-1.953,M,40.592,M,1.6,0123*5F
$GPVTG,067.70,T,-572.20,M,003.637,N,006.735,K,D*09
$GPGGA,081614.50,5702.8092742,N,00950.0503196,E,2,5,2.0,-1.945,M,40.592,M,1.6,0123*56
$GPVTG,069.14,T,-570.76,M,003.628,N,006.719,K,D*04
$GPGGA,081614.55,5702.8092897,N,00950.0504105,E,2,5,2.0,-1.935,M,40.592,M,1.6,0123*5E
$GPVTG,071.00,T,-568.90,M,003.662,N,006.781,K,D*06
$GPGGA,081614.60,5702.8093047,N,00950.0504989,E,2,5,2.0,-1.928,M,40.592,M,1.6,0123*5C
$GPVTG,072.51,T,-567.39,M,003.668,N,006.793,K,D*04
$GPGGA,081614.65,5702.8093085,N,00950.0505797,E,2,5,2.0,-1.922,M,40.592,M,1.8,0123*53
$GPVTG,074.48,T,-565.42,M,003.590,N,006.649,K,D*06
$GPGGA,081614.70,5702.8093193,N,00950.0506688,E,2,5,2.0,-1.921,M,40.592,M,1.8,0123*5E
$GPVTG,076.35,T,-563.55,M,003.596,N,006.660,K,D*03
$GPGGA,081614.75,5702.8093312,N,00950.0507558,E,2,5,2.0,-1.919,M,40.592,M,1.8,0123*54
$GPVTG,077.61,T,-562.29,M,003.588,N,006.644,K,D*00
$GPGGA,081614.80,5702.8093403,N,00950.0508447,E,2,5,2.0,-1.916,M,40.592,M,1.8,0123*56
$GPVTG,079.25,T,-560.65,M,003.589,N,006.647,K,D*06
$GPGGA,081614.85,5702.8093306,N,00950.0509161,E,2,5,2.0,-1.919,M,40.592,M,2.1,0123*54
$GPVTG,082.65,T,-557.25,M,003.470,N,006.426,K,D*04
$GPGGA,081614.90,5702.8093339,N,00950.0510059,E,2,5,2.0,-1.914,M,40.592,M,2.1,0123*53
$GPVTG,085.03,T,-554.87,M,003.487,N,006.458,K,D*09
$GPGGA,081614.95,5702.8093347,N,00950.0510964,E,2,5,2.0,-1.912,M,40.592,M,2.1,0123*5E
$GPVTG,087.51,T,-552.39,M,003.511,N,006.502,K,D*0F
$GPGGA,081615.00,5702.8093338,N,00950.0511871,E,2,5,2.0,-1.909,M,40.592,M,2.1,0123*55
$GPVTG,089.90,T,-550.00,M,003.537,N,006.550,K,D*07
$GPGGA,081615.05,5702.8093222,N,00950.0512599,E,2,5,2.0,-1.907,M,40.592,M,2.3,0123*5E
$GPVTG,092.76,T,-547.14,M,003.451,N,006.392,K,D*0F
$GPGGA,081615.10,5702.8093199,N,00950.0513404,E,2,5,2.0,-1.905,M,40.592,M,2.3,0123*5F
$GPVTG,094.61,T,-545.29,M,003.397,N,006.291,K,D*0C
$GPGGA,081615.15,5702.8093146,N,00950.0514209,E,2,5,2.0,-1.900,M,40.592,M,2.3,0123*51
$GPVTG,096.89,T,-543.01,M,003.358,N,006.219,K,D*07
$GPGGA,081615.20,5702.8093102,N,00950.0515017,E,2,5,2.0,-1.889,M,40.592,M,2.3,0123*5B
$GPVTG,098.51,T,-541.39,M,003.327,N,006.162,K,D*02
$GPGGA,081615.25,5702.8092938,N,00950.0515784,E,2,5,2.0,-1.906,M,40.592,M,2.5,0123*53
$GPVTG,101.97,T,-537.93,M,003.351,N,006.205,K,D*0B
$GPGGA,081615.30,5702.8092859,N,00950.0516603,E,2,5,2.0,-1.909,M,40.592,M,2.5,0123*53
$GPVTG,103.49,T,-536.41,M,003.350,N,006.204,K,D*04
$GPGGA,081615.35,5702.8092744,N,00950.0517415,E,2,5,2.0,-1.914,M,40.592,M,2.5,0123*5D
$GPVTG,105.57,T,-534.33,M,003.357,N,006.218,K,D*00
$GPGGA,081615.40,5702.8092631,N,00950.0518222,E,2,5,2.0,-1.919,M,40.592,M,2.5,0123*5C
$GPVTG,107.18,T,-532.72,M,003.361,N,006.224,K,D*00
$GPGGA,081615.45,5702.8092473,N,00950.0518923,E,2,5,2.0,-1.923,M,40.592,M,2.7,0123*5C
$GPVTG,108.67,T,-531.23,M,003.306,N,006.123,K,D*05
$GPGGA,081615.50,5702.8092340,N,00950.0519688,E,2,5,2.0,-1.927,M,40.592,M,2.7,0123*54
$GPVTG,110.24,T,-529.66,M,003.293,N,006.098,K,D*0F
$GPGGA,081615.55,5702.8092181,N,00950.0520445,E,2,5,2.0,-1.934,M,40.592,M,2.7,0123*55
$GPVTG,112.12,T,-527.78,M,003.289,N,006.091,K,D*0B
$GPGGA,081615.60,5702.8091993,N,00950.0521231,E,2,5,2.0,-1.940,M,40.592,M,2.7,0123*5C
$GPVTG,114.18,T,-525.72,M,003.321,N,006.151,K,D*01
$GPGGA,081615.65,5702.8091763,N,00950.0521900,E,2,5,2.0,-1.935,M,40.592,M,2.9,0123*5D
$GPVTG,116.10,T,-523.80,M,003.319,N,006.147,K,D*0C
$GPGGA,081615.70,5702.8091543,N,00950.0522621,E,2,5,2.0,-1.935,M,40.592,M,2.9,0123*56
$GPVTG,118.41,T,-521.50,M,003.328,N,006.164,K,D*0A
$GPGGA,081615.75,5702.8091322,N,00950.0523327,E,2,5,2.0,-1.936,M,40.592,M,2.9,0123*53
$GPVTG,120.40,T,-519.50,M,003.330,N,006.167,K,D*01
$GPGGA,081615.80,5702.8091096,N,00950.0524016,E,2,5,2.0,-1.938,M,40.592,M,2.9,0123*5D
$GPVTG,122.23,T,-517.67,M,003.324,N,006.156,K,D*0B
$GPGGA,081615.85,5702.8090813,N,00950.0524509,E,2,5,2.0,-1.947,M,40.592,M,3.1,0123*56
$GPVTG,124.49,T,-515.41,M,003.270,N,006.055,K,D*05
$GPGGA,081615.90,5702.8090552,N,00950.0525181,E,2,5,2.0,-1.951,M,40.592,M,3.1,0123*58
$GPVTG,126.42,T,-513.48,M,003.286,N,006.085,K,D*07
$GPGGA,081615.95,5702.8090266,N,00950.0525841,E,2,5,2.0,-1.959,M,40.592,M,3.1,0123*50
$GPVTG,128.54,T,-511.36,M,003.317,N,006.143,K,D*07
$GPGGA,081616.00,5702.8089978,N,00950.0526486,E,2,5,2.0,-1.971,M,40.592,M,3.1,0123*5D
$GPVTG,130.39,T,-509.51,M,003.338,N,006.181,K,D*0E
$GPGGA,081616.05,5702.8089650,N,00950.0526983,E,2,5,2.0,-1.979,M,40.592,M,2.4,0123*59
$GPVTG,132.53,T,-507.37,M,003.282,N,006.078,K,D*09
$GPGGA,081616.10,5702.8089378,N,00950.0527569,E,2,5,2.0,-1.984,M,40.592,M,2.4,0123*59
$GPVTG,133.82,T,-506.08,M,003.254,N,006.026,K,D*09
$GPGGA,081616.15,5702.8089059,N,00950.0528167,E,2,5,2.0,-1.990,M,40.592,M,2.4,0123*5C
$GPVTG,135.58,T,-504.32,M,003.283,N,006.079,K,D*03
$GPGGA,081616.20,5702.8088730,N,00950.0528763,E,2,5,2.0,-1.999,M,40.592,M,2.4,0123*58
$GPVTG,137.17,T,-502.73,M,003.318,N,006.146,K,D*07
$GPGGA,081616.25,5702.8088397,N,00950.0529396,E,2,5,2.0,-1.971,M,40.592,M,2.7,0123*5E
$GPVTG,138.92,T,-500.98,M,003.317,N,006.143,K,D*08
$GPGGA,081616.30,5702.8088026,N,00950.0529898,E,2,5,2.0,-1.969,M,40.592,M,2.7,0123*5F
$GPVTG,141.44,T,-498.46,M,003.347,N,006.198,K,D*0D
$GPGGA,081616.35,5702.8087636,N,00950.0530408,E,2,5,2.0,-1.968,M,40.592,M,2.7,0123*5E
$GPVTG,143.64,T,-496.26,M,003.401,N,006.299,K,D*02
$GPGGA,081616.40,5702.8087276,N,00950.0530855,E,2,5,2.0,-1.962,M,40.592,M,2.7,0123*52
$GPVTG,145.65,T,-494.25,M,003.387,N,006.273,K,D*09
$GPGGA,081616.45,5702.8086813,N,00950.0531004,E,2,5,2.0,-1.979,M,40.592,M,2.9,0123*56
$GPVTG,148.65,T,-491.25,M,003.369,N,006.240,K,D*01
$GPGGA,081616.50,5702.8086452,N,00950.0531406,E,2,5,2.0,-1.986,M,40.592,M,2.9,0123*5D
$GPVTG,150.36,T,-489.54,M,003.338,N,006.182,K,D*08
$GPGGA,081616.55,5702.8086040,N,00950.0531814,E,2,5,2.0,-1.993,M,40.592,M,2.9,0123*54
$GPVTG,152.29,T,-487.61,M,003.378,N,006.257,K,D*03
$GPGGA,081616.60,5702.8085619,N,00950.0532214,E,2,5,2.0,-2.000,M,40.592,M,2.9,0123*52
$GPVTG,153.98,T,-485.92,M,003.421,N,006.336,K,D*0B
$GPGGA,081616.65,5702.8085203,N,00950.0532681,E,2,5,2.0,-1.982,M,40.592,M,3.1,0123*59
$GPVTG,155.01,T,-484.89,M,003.435,N,006.362,K,D*02
$GPGGA,081616.70,5702.8084766,N,00950.0533045,E,2,5,2.0,-1.988,M,40.592,M,3.1,0123*5F
$GPVTG,156.61,T,-483.29,M,003.479,N,006.443,K,D*06
$GPGGA,081616.75,5702.8084342,N,00950.0533407,E,2,5,2.0,-1.997,M,40.592,M,3.1,0123*54
$GPVTG,157.79,T,-482.11,M,003.497,N,006.476,K,D*02
$GPGGA,081616.80,5702.8083896,N,00950.0533743,E,2,5,2.0,-2.005,M,40.592,M,3.1,0123*59
$GPVTG,159.16,T,-480.74,M,003.532,N,006.540,K,D*0E
$GPGGA,081616.85,5702.8083446,N,00950.0534157,E,2,5,2.0,-1.985,M,40.592,M,3.4,0123*5E
$GPVTG,159.56,T,-480.34,M,003.558,N,006.590,K,D*0F
$GPGGA,081616.90,5702.8083015,N,00950.0534398,E,2,5,2.0,-1.984,M,40.592,M,3.4,0123*58
$GPVTG,161.73,T,-478.17,M,003.529,N,006.535,K,D*0C
$GPGGA,081616.95,5702.8082558,N,00950.0534622,E,2,5,2.0,-1.981,M,40.592,M,3.4,0123*51
$GPVTG,163.81,T,-476.09,M,003.538,N,006.552,K,D*03
$GPGGA,081617.00,5702.8082087,N,00950.0534855,E,2,5,2.0,-1.981,M,40.592,M,3.4,0123*55
$GPVTG,165.37,T,-474.53,M,003.568,N,006.609,K,D*0D
$GPGGA,081617.05,5702.8081620,N,00950.0535069,E,2,5,2.0,-1.964,M,40.592,M,2.5,0123*55
$GPVTG,167.07,T,-472.83,M,003.586,N,006.641,K,D*0B
$GPGGA,081617.10,5702.8081151,N,00950.0535340,E,2,5,2.0,-1.965,M,40.592,M,2.5,0123*59
$GPVTG,167.34,T,-472.56,M,003.614,N,006.693,K,D*04
$GPGGA,081617.15,5702.8080688,N,00950.0535513,E,2,5,2.0,-1.969,M,40.592,M,2.5,0123*52
$GPVTG,168.78,T,-471.12,M,003.609,N,006.684,K,D*0A
$GPGGA,081617.20,5702.8080193,N,00950.0535721,E,2,5,2.0,-1.974,M,40.592,M,2.5,0123*56
$GPVTG,169.57,T,-470.33,M,003.653,N,006.765,K,D*05
$GPGGA,081617.25,5702.8079673,N,00950.0535896,E,2,5,2.0,-1.966,M,40.592,M,2.8,0123*51
$GPVTG,170.63,T,-469.27,M,003.701,N,006.854,K,D*0C
$GPGGA,081617.30,5702.8079164,N,00950.0536111,E,2,5,2.0,-1.969,M,40.592,M,2.8,0123*5E
$GPVTG,170.85,T,-469.05,M,003.750,N,006.945,K,D*01
$GPGGA,081617.35,5702.8078664,N,00950.0536319,E,2,5,2.0,-1.972,M,40.592,M,2.8,0123*5D
$GPVTG,171.01,T,-468.89,M,003.778,N,006.997,K,D*0C
$GPGGA,081617.40,5702.8078153,N,00950.0536435,E,2,5,2.0,-1.982,M,40.592,M,2.8,0123*5A
$GPVTG,172.27,T,-467.63,M,003.801,N,007.040,K,D*03
$GPGGA,081617.45,5702.8077575,N,00950.0536549,E,2,5,2.0,-1.970,M,40.592,M,3.1,0123*5F
$GPVTG,172.85,T,-467.05,M,003.877,N,007.179,K,D*01
$GPGGA,081617.50,5702.8077102,N,00950.0536645,E,2,5,2.0,-1.972,M,40.592,M,3.1,0123*52
$GPVTG,173.84,T,-466.06,M,003.827,N,007.087,K,D*06
$GPGGA,081617.55,5702.8076540,N,00950.0536682,E,2,5,2.0,-1.978,M,40.592,M,3.1,0123*55
$GPVTG,175.56,T,-464.34,M,003.903,N,007.228,K,D*0C
$GPGGA,081617.60,5702.8076002,N,00950.0536680,E,2,5,2.0,-1.981,M,40.592,M,3.1,0123*54
$GPVTG,177.42,T,-462.48,M,003.934,N,007.286,K,D*06
$GPGGA,081617.65,5702.8075402,N,00950.0536577,E,2,5,2.0,-1.992,M,40.592,M,3.3,0123*5D
$GPVTG,178.68,T,-461.22,M,003.983,N,007.376,K,D*0C
$GPGGA,081617.70,5702.8074860,N,00950.0536518,E,2,5,2.0,-1.993,M,40.592,M,3.3,0123*58
$GPVTG,180.10,T,-459.80,M,004.015,N,007.436,K,D*05
$GPGGA,081617.75,5702.8074319,N,00950.0536441,E,2,5,2.0,-1.995,M,40.592,M,3.3,0123*53
$GPVTG,181.55,T,-458.35,M,004.043,N,007.488,K,D*0C
$GPGGA,081617.80,5702.8073812,N,00950.0536245,E,2,5,2.0,-1.990,M,40.592,M,3.3,0123*59
$GPVTG,183.72,T,-456.18,M,004.032,N,007.467,K,D*0D
$GPGGA,081617.85,5702.8073275,N,00950.0536042,E,2,5,2.0,-2.000,M,40.592,M,3.6,0123*54
$GPVTG,185.34,T,-454.56,M,004.060,N,007.519,K,D*0E
$GPGGA,081617.90,5702.8072735,N,00950.0535911,E,2,5,2.0,-2.006,M,40.592,M,3.6,0123*5A
$GPVTG,186.75,T,-453.15,M,004.078,N,007.553,K,D*0F
$GPGGA,081617.95,5702.8072186,N,00950.0535714,E,2,5,2.0,-2.011,M,40.592,M,3.6,0123*5C
$GPVTG,188.45,T,-451.45,M,004.110,N,007.612,K,D*0C
$GPGGA,081618.00,5702.8071643,N,00950.0535454,E,2,5,2.0,-2.014,M,40.592,M,3.6,0123*50
$GPVTG,190.46,T,-449.44,M,004.136,N,007.660,K,D*0F
$GPGGA,081618.05,5702.8071066,N,00950.0535324,E,2,5,2.0,-2.005,M,40.592,M,1.2,0123*52
$GPVTG,191.47,T,-448.43,M,004.164,N,007.712,K,D*0A
$GPGGA,081618.10,5702.8070552,N,00950.0535161,E,2,5,2.0,-2.012,M,40.592,M,1.2,0123*50
$GPVTG,192.36,T,-447.54,M,004.135,N,007.658,K,D*0D
$GPGGA,081618.15,5702.8070014,N,00950.0535052,E,2,5,2.0,-2.026,M,40.592,M,1.2,0123*54
$GPVTG,192.49,T,-447.41,M,004.127,N,007.643,K,D*08
$GPGGA,081618.20,5702.8069523,N,00950.0534837,E,2,5,2.0,-2.039,M,40.592,M,1.2,0123*5F
$GPVTG,193.68,T,-446.22,M,004.074,N,007.545,K,D*0C
$GPGGA,081618.25,5702.8068987,N,00950.0534632,E,2,5,2.0,-2.040,M,40.592,M,1.4,0123*5A
$GPVTG,194.42,T,-445.48,M,003.957,N,007.328,K,D*0E
$GPGGA,081618.30,5702.8068481,N,00950.0534349,E,2,5,2.0,-2.051,M,40.592,M,1.4,0123*5C
$GPVTG,196.03,T,-443.87,M,003.935,N,007.289,K,D*02
$GPGGA,081618.35,5702.8068018,N,00950.0534049,E,2,5,2.0,-2.062,M,40.592,M,1.4,0123*5E
$GPVTG,197.77,T,-442.13,M,003.861,N,007.151,K,D*0A
$GPGGA,081618.40,5702.8067504,N,00950.0533768,E,2,5,2.0,-2.079,M,40.592,M,1.4,0123*52
$GPVTG,198.63,T,-441.27,M,003.871,N,007.168,K,D*0F
$GPGGA,081618.45,5702.8067040,N,00950.0533527,E,2,5,2.0,-2.076,M,40.592,M,1.6,0123*56
$GPVTG,199.53,T,-440.37,M,003.816,N,007.068,K,D*0D
$GPGGA,081618.50,5702.8066552,N,00950.0533264,E,2,5,2.0,-2.090,M,40.592,M,1.6,0123*5D
$GPVTG,200.01,T,-439.89,M,003.791,N,007.020,K,D*0E
$GPGGA,081618.55,5702.8066086,N,00950.0532918,E,2,5,2.0,-2.104,M,40.592,M,1.6,0123*59
$GPVTG,201.41,T,-438.49,M,003.762,N,006.967,K,D*01
$GPGGA,081618.60,5702.8065662,N,00950.0532545,E,2,5,2.0,-2.116,M,40.592,M,1.6,0123*57
$GPVTG,203.21,T,-436.69,M,003.690,N,006.835,K,D*03
$GPGGA,081618.65,5702.8065305,N,00950.0532310,E,2,5,2.0,-2.113,M,40.592,M,1.8,0123*5B
$GPVTG,204.86,T,-435.04,M,003.555,N,006.585,K,D*0D
$GPGGA,081618.70,5702.8064909,N,00950.0531893,E,2,5,2.0,-2.123,M,40.592,M,1.8,0123*58
$GPVTG,207.03,T,-432.87,M,003.488,N,006.459,K,D*0E
$GPGGA,081618.75,5702.8064466,N,00950.0531551,E,2,5,2.0,-2.138,M,40.592,M,1.8,0123*50
$GPVTG,207.61,T,-432.29,M,003.468,N,006.423,K,D*0D
$GPGGA,081618.80,5702.8064069,N,00950.0531145,E,2,5,2.0,-2.148,M,40.592,M,1.8,0123*57
$GPVTG,209.17,T,-430.73,M,003.417,N,006.329,K,D*0A
$GPGGA,081618.85,5702.8063804,N,00950.0530851,E,2,5,2.0,-2.149,M,40.592,M,2.1,0123*50
$GPVTG,211.27,T,-428.63,M,003.268,N,006.052,K,D*09
$GPGGA,081618.90,5702.8063423,N,00950.0530431,E,2,5,2.0,-2.159,M,40.592,M,2.1,0123*56
$GPVTG,212.68,T,-427.22,M,003.230,N,005.983,K,D*00
$GPGGA,081618.95,5702.8063072,N,00950.0529966,E,2,5,2.0,-2.170,M,40.592,M,2.1,0123*5F
$GPVTG,214.70,T,-425.20,M,003.186,N,005.900,K,D*0A
$GPGGA,081619.00,5702.8062722,N,00950.0529479,E,2,5,2.0,-2.184,M,40.592,M,2.1,0123*59
$GPVTG,216.70,T,-423.20,M,003.158,N,005.849,K,D*01
$GPGGA,081619.05,5702.8062462,N,00950.0529074,E,2,5,2.0,-2.167,M,40.592,M,2.3,0123*5D
$GPVTG,219.58,T,-420.32,M,003.048,N,005.644,K,D*07
$GPGGA,081619.10,5702.8062144,N,00950.0528568,E,2,5,2.0,-2.174,M,40.592,M,2.3,0123*53
$GPVTG,221.60,T,-418.30,M,003.022,N,005.598,K,D*00
$GPGGA,081619.15,5702.8061826,N,00950.0528087,E,2,5,2.0,-2.182,M,40.592,M,2.3,0123*55
$GPVTG,223.07,T,-416.83,M,002.992,N,005.542,K,D*01
$GPGGA,081619.20,5702.8061507,N,00950.0527595,E,2,5,2.0,-2.187,M,40.592,M,2.3,0123*51
$GPVTG,224.32,T,-415.58,M,002.976,N,005.512,K,D*0A
$GPGGA,081619.25,5702.8061313,N,00950.0527189,E,2,5,2.0,-2.172,M,40.592,M,2.5,0123*52
$GPVTG,227.38,T,-412.52,M,002.874,N,005.323,K,D*09
$GPGGA,081619.30,5702.8061066,N,00950.0526653,E,2,5,2.0,-2.178,M,40.592,M,2.5,0123*5C
$GPVTG,229.80,T,-410.10,M,002.832,N,005.246,K,D*00
$GPGGA,081619.35,5702.8060791,N,00950.0526154,E,2,5,2.0,-2.183,M,40.592,M,2.5,0123*53
$GPVTG,230.89,T,-409.01,M,002.807,N,005.199,K,D*0E
$GPGGA,081619.40,5702.8060570,N,00950.0525574,E,2,4,2.0,-2.187,M,40.592,M,2.5,0123*5C
$GPVTG,233.54,T,-406.36,M,002.787,N,005.161,K,D*06
$GPGGA,081619.45,5702.8060440,N,00950.0525312,E,2,4,2.0,-2.164,M,40.592,M,2.7,0123*52
$GPVTG,234.60,T,-405.30,M,002.689,N,004.980,K,D*0A
$GPGGA,081619.50,5702.8060204,N,00950.0524806,E,2,4,2.0,-2.166,M,40.592,M,2.7,0123*5D
$GPVTG,235.63,T,-404.27,M,002.657,N,004.922,K,D*04
$GPGGA,081619.55,5702.8059950,N,00950.0524357,E,2,4,2.0,-2.167,M,40.592,M,2.7,0123*56
$GPVTG,235.66,T,-404.24,M,002.615,N,004.842,K,D*03
$GPGGA,081619.60,5702.8059716,N,00950.0523889,E,2,4,2.0,-2.170,M,40.592,M,2.7,0123*55
$GPVTG,236.11,T,-403.79,M,002.573,N,004.765,K,D*06
$GPGGA,081619.65,5702.8059542,N,00950.0523641,E,2,5,2.0,-2.160,M,40.592,M,2.9,0123*57
$GPVTG,236.37,T,-403.53,M,002.477,N,004.587,K,D*01
$GPGGA,081619.70,5702.8059298,N,00950.0523190,E,2,5,2.0,-2.163,M,40.592,M,2.9,0123*5B
$GPVTG,235.78,T,-404.12,M,002.448,N,004.533,K,D*08
$GPGGA,081619.75,5702.8059039,N,00950.0522769,E,2,5,2.0,-2.164,M,40.592,M,2.9,0123*51
$GPVTG,234.61,T,-405.29,M,002.420,N,004.481,K,D*0E
$GPGGA,081619.80,5702.8058821,N,00950.0522330,E,2,5,2.0,-2.167,M,40.592,M,2.9,0123*50
$GPVTG,234.60,T,-405.30,M,002.376,N,004.400,K,D*0A
$GPGGA,081619.85,5702.8058556,N,00950.0522047,E,2,5,2.0,-2.146,M,40.592,M,3.1,0123*51
$GPVTG,232.15,T,-407.75,M,002.338,N,004.331,K,D*02
$GPGGA,081619.90,5702.8058320,N,00950.0521621,E,2,4,2.0,-2.148,M,40.592,M,3.1,0123*58
$GPVTG,231.32,T,-408.58,M,002.316,N,004.288,K,D*0B
$GPGGA,081619.95,5702.8058081,N,00950.0521227,E,2,4,2.0,-2.143,M,40.592,M,3.1,0123*5C
$GPVTG,230.25,T,-409.65,M,002.283,N,004.227,K,D*0B
$GPGGA,081620.00,5702.8057861,N,00950.0520826,E,2,4,2.0,-2.141,M,40.592,M,3.1,0123*5B
$GPVTG,229.71,T,-410.19,M,002.244,N,004.157,K,D*0E
$GPGGA,081620.05,5702.8057621,N,00950.0520556,E,2,4,2.0,-2.137,M,40.592,M,2.4,0123*5B
$GPVTG,227.04,T,-412.86,M,002.193,N,004.062,K,D*08
$GPGGA,081620.10,5702.8057385,N,00950.0520203,E,2,4,2.0,-2.140,M,40.592,M,2.4,0123*53
$GPVTG,225.51,T,-414.39,M,002.161,N,004.002,K,D*03
$GPGGA,081620.15,5702.8057151,N,00950.0519833,E,2,4,2.0,-2.143,M,40.592,M,2.4,0123*5D
$GPVTG,224.48,T,-415.42,M,002.140,N,003.964,K,D*0A
$GPGGA,081620.20,5702.8056887,N,00950.0519522,E,2,4,2.0,-2.147,M,40.592,M,2.4,0123*51
$GPVTG,222.15,T,-417.75,M,002.126,N,003.937,K,D*04
$GPGGA,081620.25,5702.8056646,N,00950.0519330,E,2,4,2.0,-2.136,M,40.592,M,2.7,0123*57
$GPVTG,220.60,T,-419.30,M,002.083,N,003.859,K,D*0C
$GPGGA,081620.30,5702.8056406,N,00950.0519005,E,2,4,2.0,-2.136,M,40.592,M,2.7,0123*50
$GPVTG,219.17,T,-420.73,M,002.068,N,003.830,K,D*01
$GPGGA,081620.35,5702.8056183,N,00950.0518677,E,2,4,2.0,-2.137,M,40.592,M,2.7,0123*5E
$GPVTG,218.38,T,-421.52,M,002.041,N,003.780,K,D*00
$GPGGA,081620.40,5702.8055956,N,00950.0518381,E,2,4,2.0,-2.139,M,40.592,M,2.7,0123*5D
$GPVTG,217.14,T,-422.76,M,002.010,N,003.722,K,D*08
$GPGGA,081620.45,5702.8055782,N,00950.0518184,E,2,4,2.0,-2.120,M,40.592,M,2.9,0123*5E
$GPVTG,217.38,T,-422.52,M,001.951,N,003.614,K,D*0B
$GPGGA,081620.50,5702.8055567,N,00950.0517893,E,2,4,2.0,-2.125,M,40.592,M,2.9,0123*56
$GPVTG,216.44,T,-423.46,M,001.917,N,003.551,K,D*05
$GPGGA,081620.55,5702.8055349,N,00950.0517589,E,2,4,2.0,-2.127,M,40.592,M,2.9,0123*5D
$GPVTG,215.93,T,-423.97,M,001.901,N,003.521,K,D*00
$GPGGA,081620.60,5702.8055153,N,00950.0517332,E,2,4,2.0,-2.126,M,40.592,M,2.9,0123*55
$GPVTG,215.04,T,-424.86,M,001.845,N,003.417,K,D*0C
$GPGGA,081620.65,5702.8054914,N,00950.0516960,E,2,4,2.0,-2.107,M,40.592,M,3.1,0123*5C
$GPVTG,215.92,T,-423.98,M,001.834,N,003.396,K,D*03
$GPGGA,081620.70,5702.8054685,N,00950.0516625,E,2,4,2.0,-2.112,M,40.592,M,3.1,0123*55
$GPVTG,216.12,T,-423.78,M,001.865,N,003.453,K,D*0C
$GPGGA,081620.75,5702.8054494,N,00950.0516350,E,2,4,2.0,-2.113,M,40.592,M,3.1,0123*54
$GPVTG,215.93,T,-423.97,M,001.823,N,003.377,K,D*04
$GPGGA,081620.80,5702.8054295,N,00950.0516027,E,2,4,2.0,-2.114,M,40.592,M,3.1,0123*5D
$GPVTG,216.60,T,-423.30,M,001.818,N,003.368,K,D*00
$GPGGA,081620.85,5702.8054083,N,00950.0515693,E,2,4,2.0,-2.114,M,40.592,M,3.4,0123*52
$GPVTG,218.05,T,-421.85,M,001.832,N,003.393,K,D*0D
$GPGGA,081620.90,5702.8053934,N,00950.0515364,E,2,4,2.0,-2.119,M,40.592,M,3.4,0123*54
$GPVTG,220.20,T,-419.70,M,001.782,N,003.301,K,D*0F
$GPGGA,081620.95,5702.8053783,N,00950.0515116,E,2,4,2.0,-2.120,M,40.592,M,3.4,0123*5E
$GPVTG,220.44,T,-419.46,M,001.704,N,003.155,K,D*05
$GPGGA,081621.00,5702.8053570,N,00950.0514804,E,2,4,2.0,-2.127,M,40.592,M,3.4,0123*51
$GPVTG,220.25,T,-419.65,M,001.725,N,003.195,K,D*0C
$GPGGA,081621.05,5702.8053344,N,00950.0514429,E,2,5,2.0,-2.104,M,40.592,M,2.5,0123*56
$GPVTG,220.40,T,-419.50,M,001.709,N,003.165,K,D*08
$GPGGA,081621.10,5702.8053171,N,00950.0514151,E,2,5,2.0,-2.108,M,40.592,M,2.5,0123*50
$GPVTG,220.63,T,-419.27,M,001.680,N,003.111,K,D*0A
$GPGGA,081621.15,5702.8052992,N,00950.0513856,E,2,5,2.0,-2.113,M,40.592,M,2.5,0123*52
$GPVTG,221.04,T,-418.86,M,001.669,N,003.092,K,D*0D
$GPGGA,081621.20,5702.8052823,N,00950.0513549,E,2,5,2.0,-2.119,M,40.592,M,2.5,0123*56
$GPVTG,221.89,T,-418.01,M,001.660,N,003.074,K,D*06
$GPGGA,081621.25,5702.8052608,N,00950.0513165,E,2,5,2.0,-2.114,M,40.592,M,2.8,0123*5E
$GPVTG,223.25,T,-416.65,M,001.677,N,003.105,K,D*0F
$GPGGA,081621.30,5702.8052413,N,00950.0512910,E,2,5,2.0,-2.116,M,40.592,M,2.8,0123*5B
$GPVTG,222.03,T,-417.87,M,001.661,N,003.076,K,D*05
$GPGGA,081621.35,5702.8052248,N,00950.0512602,E,2,5,2.0,-2.121,M,40.592,M,2.8,0123*5E
$GPVTG,222.93,T,-416.97,M,001.656,N,003.066,K,D*09
$GPGGA,081621.40,5702.8052089,N,00950.0512294,E,2,5,2.0,-2.125,M,40.592,M,2.8,0123*5C
$GPVTG,223.90,T,-416.00,M,001.648,N,003.051,K,D*0E
$GPGGA,081621.45,5702.8051818,N,00950.0511873,E,2,5,2.0,-2.119,M,40.592,M,3.1,0123*5D
$GPVTG,223.83,T,-416.07,M,001.675,N,003.103,K,D*03
$GPGGA,081621.50,5702.8051635,N,00950.0511623,E,2,5,2.0,-2.125,M,40.592,M,3.1,0123*5C
$GPVTG,222.67,T,-417.23,M,001.652,N,003.060,K,D*0E
$GPGGA,081621.55,5702.8051473,N,00950.0511306,E,2,5,2.0,-2.130,M,40.592,M,3.1,0123*5F
$GPVTG,223.68,T,-416.22,M,001.656,N,003.066,K,D*02
$GPGGA,081621.60,5702.8051296,N,00950.0511032,E,2,5,2.0,-2.138,M,40.592,M,3.1,0123*58
$GPVTG,223.26,T,-416.64,M,001.646,N,003.048,K,D*07
$GPGGA,081621.65,5702.8051127,N,00950.0510636,E,2,5,2.0,-2.115,M,40.592,M,3.3,0123*5A
$GPVTG,224.37,T,-415.53,M,001.647,N,003.051,K,D*0E
$GPGGA,081621.70,5702.8050956,N,00950.0510315,E,2,5,2.0,-2.116,M,40.592,M,3.3,0123*56
$GPVTG,225.03,T,-414.87,M,001.665,N,003.084,K,D*08
$GPGGA,081621.75,5702.8050796,N,00950.0509995,E,2,5,2.0,-2.115,M,40.592,M,3.3,0123*58
$GPVTG,225.86,T,-414.04,M,001.670,N,003.093,K,D*0C
$GPGGA,081621.80,5702.8050641,N,00950.0509669,E,2,5,2.0,-2.111,M,40.592,M,3.3,0123*51
$GPVTG,226.78,T,-413.12,M,001.674,N,003.101,K,D*00
$GPGGA,081621.85,5702.8050384,N,00950.0509301,E,2,5,2.0,-2.109,M,40.592,M,3.6,0123*5F
$GPVTG,226.22,T,-413.68,M,001.685,N,003.120,K,D*0F
$GPGGA,081621.90,5702.8050238,N,00950.0508957,E,2,5,2.0,-2.110,M,40.592,M,3.6,0123*5D
$GPVTG,227.76,T,-412.14,M,001.693,N,003.135,K,D*06
$GPGGA,081621.95,5702.8050092,N,00950.0508606,E,2,5,2.0,-2.110,M,40.592,M,3.6,0123*51
$GPVTG,229.19,T,-410.71,M,001.704,N,003.156,K,D*0A
$GPGGA,081622.00,5702.8049936,N,00950.0508277,E,2,5,2.0,-2.109,M,40.592,M,3.6,0123*5B
$GPVTG,229.68,T,-410.22,M,001.707,N,003.162,K,D*0E
$GPGGA,081622.05,5702.8049712,N,00950.0507945,E,2,5,2.0,-2.115,M,40.592,M,1.2,0123*58
$GPVTG,230.04,T,-409.86,M,001.650,N,003.056,K,D*0F
$GPGGA,081622.10,5702.8049564,N,00950.0507658,E,2,5,2.0,-2.119,M,40.592,M,1.2,0123*50
$GPVTG,229.76,T,-410.14,M,001.624,N,003.008,K,D*09
$GPGGA,081622.15,5702.8049403,N,00950.0507326,E,2,5,2.0,-2.125,M,40.592,M,1.2,0123*56
$GPVTG,229.83,T,-410.07,M,001.646,N,003.048,K,D*01
$GPGGA,081622.20,5702.8049258,N,00950.0506995,E,2,5,2.0,-2.127,M,40.592,M,1.2,0123*59
$GPVTG,230.53,T,-409.37,M,001.646,N,003.049,K,D*0E
$GPGGA,081622.25,5702.8049087,N,00950.0506559,E,2,5,2.0,-2.084,M,40.592,M,1.4,0123*5E
$GPVTG,231.98,T,-407.92,M,001.603,N,002.968,K,D*03
$GPGGA,081622.30,5702.8048981,N,00950.0506247,E,2,5,2.0,-2.080,M,40.592,M,1.4,0123*58
$GPVTG,233.67,T,-406.23,M,001.562,N,002.892,K,D*0A
$GPGGA,081622.35,5702.8048845,N,00950.0505934,E,2,5,2.0,-2.079,M,40.592,M,1.4,0123*5E
$GPVTG,233.87,T,-406.03,M,001.554,N,002.877,K,D*08
$GPGGA,081622.40,5702.8048685,N,00950.0505605,E,2,5,2.0,-2.083,M,40.592,M,1.4,0123*56
$GPVTG,233.20,T,-406.70,M,001.580,N,002.926,K,D*0D
$GPGGA,081622.45,5702.8048525,N,00950.0505273,E,2,5,2.0,-2.062,M,40.592,M,1.6,0123*52
$GPVTG,232.21,T,-407.69,M,001.529,N,002.832,K,D*03
$GPGGA,081622.50,5702.8048413,N,00950.0504992,E,2,5,2.0,-2.060,M,40.592,M,1.6,0123*55
$GPVTG,232.74,T,-407.16,M,001.484,N,002.749,K,D*0E
$GPGGA,081622.55,5702.8048296,N,00950.0504695,E,2,5,2.0,-2.059,M,40.592,M,1.6,0123*59
