$GPVTG,356.28,T,-283.62,M,003.921,N,007.262,K,D*04
$GPGGA,082407.45,5702.8203754,N,00949.8187840,E,2,5,1.8,-2.879,M,40.592,M,2.9,0123*5C
$GPVTG,354.71,T,-285.19,M,003.914,N,007.249,K,D*0F
$GPGGA,082407.50,5702.8204291,N,00949.8187713,E,2,5,1.8,-2.880,M,40.592,M,2.9,0123*5C
$GPVTG,353.33,T,-286.57,M,003.972,N,007.356,K,D*08
$GPGGA,082407.55,5702.8204827,N,00949.8187578,E,2,5,1.8,-2.881,M,40.592,M,2.9,0123*50
$GPVTG,352.10,T,-287.80,M,004.027,N,007.457,K,D*0B
$GPGGA,082407.60,5702.8205372,N,00949.8187359,E,2,5,1.8,-2.887,M,40.592,M,2.9,0123*5F
$GPVTG,350.51,T,-289.39,M,004.089,N,007.574,K,D*04
$GPGGA,082407.65,5702.8205751,N,00949.8187097,E,2,5,1.8,-2.905,M,40.592,M,3.1,0123*5C
$GPVTG,348.66,T,-291.24,M,004.106,N,007.605,K,D*0F
$GPGGA,082407.70,5702.8206277,N,00949.8186861,E,2,5,1.8,-2.909,M,40.592,M,3.1,0123*56
$GPVTG,347.33,T,-292.57,M,004.150,N,007.686,K,D*0F
$GPGGA,082407.75,5702.8206799,N,00949.8186637,E,2,5,1.8,-2.914,M,40.592,M,3.1,0123*57
$GPVTG,346.26,T,-293.65,M,004.190,N,007.759,K,D*05
$GPGGA,082407.80,5702.8207324,N,00949.8186349,E,2,5,1.8,-2.918,M,40.592,M,3.1,0123*5E
$GPVTG,344.96,T,-294.94,M,004.234,N,007.842,K,D*0D
$GPGGA,082407.85,5702.8207651,N,00949.8185829,E,2,5,1.8,-2.905,M,40.592,M,3.3,0123*5C
$GPVTG,342.89,T,-297.01,M,004.239,N,007.851,K,D*05
$GPGGA,082407.90,5702.8208190,N,00949.8185519,E,2,5,1.8,-2.905,M,40.592,M,3.3,0123*53
$GPVTG,341.87,T,-298.03,M,004.289,N,007.943,K,D*0C
$GPGGA,082407.95,5702.8208712,N,00949.8185154,E,2,5,1.8,-2.904,M,40.592,M,3.3,0123*56
$GPVTG,340.63,T,-299.27,M,004.334,N,008.026,K,D*02
$GPGGA,082408.00,5702.8209227,N,00949.8184748,E,2,5,1.8,-2.904,M,40.592,M,3.3,0123*5D
$GPVTG,339.32,T,-300.58,M,004.378,N,008.108,K,D*04
$GPGGA,082408.05,5702.8209464,N,00949.8184240,E,2,5,1.8,-2.916,M,40.592,M,2.2,0123*57
$GPVTG,337.49,T,-302.41,M,004.356,N,008.068,K,D*07
$GPGGA,082408.10,5702.8209972,N,00949.8183837,E,2,5,1.8,-2.922,M,40.592,M,2.2,0123*53
$GPVTG,336.48,T,-303.42,M,004.388,N,008.127,K,D*0C
$GPGGA,082408.15,5702.8210480,N,00949.8183363,E,2,5,1.8,-2.928,M,40.592,M,2.2,0123*5E
$GPVTG,335.24,T,-304.66,M,004.433,N,008.210,K,D*04
$GPGGA,082408.20,5702.8210980,N,00949.8182890,E,2,5,1.8,-2.933,M,40.592,M,2.2,0123*59
$GPVTG,334.14,T,-305.76,M,004.471,N,008.280,K,D*09
$GPGGA,082408.25,5702.8211241,N,00949.8182133,E,2,5,1.8,-2.909,M,40.592,M,2.4,0123*54
$GPVTG,332.10,T,-307.80,M,004.471,N,008.280,K,D*00
$GPGGA,082408.30,5702.8211758,N,00949.8181593,E,2,5,1.8,-2.911,M,40.592,M,2.4,0123*59
$GPVTG,331.03,T,-308.87,M,004.522,N,008.376,K,D*06
$GPGGA,082408.35,5702.8212250,N,00949.8181080,E,2,5,1.8,-2.911,M,40.592,M,2.4,0123*55
$GPVTG,330.13,T,-309.77,M,004.553,N,008.432,K,D*09
$GPGGA,082408.40,5702.8212724,N,00949.8180544,E,2,5,1.8,-2.915,M,40.592,M,2.4,0123*59
$GPVTG,329.17,T,-310.73,M,004.578,N,008.478,K,D*0E
$GPGGA,082408.45,5702.8212977,N,00949.8179728,E,2,5,1.8,-2.904,M,40.592,M,2.7,0123*59
$GPVTG,327.66,T,-312.24,M,004.623,N,008.561,K,D*02
$GPGGA,082408.50,5702.8213422,N,00949.8179043,E,2,5,1.8,-2.907,M,40.592,M,2.7,0123*58
$GPVTG,326.43,T,-313.47,M,004.673,N,008.654,K,D*00
$GPGGA,082408.55,5702.8213845,N,00949.8178374,E,2,5,1.8,-2.909,M,40.592,M,2.7,0123*58
$GPVTG,325.26,T,-314.64,M,004.711,N,008.724,K,D*05
$GPGGA,082408.60,5702.8214265,N,00949.8177714,E,2,5,1.8,-2.914,M,40.592,M,2.7,0123*50
$GPVTG,324.18,T,-315.72,M,004.740,N,008.779,K,D*03
$GPGGA,082408.65,5702.8214674,N,00949.8177016,E,2,5,1.8,-2.902,M,40.592,M,2.9,0123*5D
$GPVTG,323.09,T,-316.81,M,004.734,N,008.768,K,D*08
$GPGGA,082408.70,5702.8215066,N,00949.8176214,E,2,5,1.8,-2.909,M,40.592,M,2.9,0123*57
$GPVTG,320.92,T,-318.98,M,004.717,N,008.735,K,D*06
$GPGGA,082408.75,5702.8215465,N,00949.8175440,E,2,5,1.8,-2.918,M,40.592,M,2.9,0123*51
$GPVTG,319.11,T,-320.79,M,004.699,N,008.702,K,D*00
$GPGGA,082408.80,5702.8215889,N,00949.8174652,E,2,5,1.8,-2.921,M,40.592,M,2.9,0123*5F
$GPVTG,317.60,T,-322.30,M,004.705,N,008.713,K,D*03
$GPGGA,082408.85,5702.8216225,N,00949.8173788,E,2,5,1.8,-2.891,M,40.592,M,3.2,0123*54
$GPVTG,315.90,T,-324.00,M,004.665,N,008.639,K,D*05
$GPGGA,082408.90,5702.8216522,N,00949.8172922,E,2,5,1.8,-2.895,M,40.592,M,3.2,0123*5B
$GPVTG,313.04,T,-326.86,M,004.601,N,008.521,K,D*0A
$GPGGA,082408.95,5702.8216856,N,00949.8172068,E,2,5,1.8,-2.896,M,40.592,M,3.2,0123*54
$GPVTG,310.84,T,-329.06,M,004.563,N,008.451,K,D*07
$GPGGA,082409.00,5702.8217263,N,00949.8171293,E,2,5,1.8,-2.891,M,40.592,M,3.2,0123*56
$GPVTG,310.21,T,-329.69,M,004.533,N,008.396,K,D*08
$GPGGA,082409.05,5702.8217580,N,00949.8170365,E,2,5,1.8,-2.875,M,40.592,M,2.1,0123*58
$GPVTG,307.36,T,-332.54,M,004.527,N,008.383,K,D*0D
$GPGGA,082409.10,5702.8217815,N,00949.8169368,E,2,5,1.8,-2.874,M,40.592,M,2.1,0123*59
$GPVTG,303.71,T,-336.19,M,004.507,N,008.346,K,D*0C
$GPGGA,082409.15,5702.8218105,N,00949.8168456,E,2,5,1.8,-2.869,M,40.592,M,2.1,0123*5C
$GPVTG,301.72,T,-338.18,M,004.472,N,008.282,K,D*08
$GPGGA,082409.20,5702.8218290,N,00949.8167447,E,2,5,1.8,-2.869,M,40.592,M,2.1,0123*5A
$GPVTG,297.98,T,-341.92,M,004.443,N,008.229,K,D*0D
$GPGGA,082409.25,5702.8218654,N,00949.8166637,E,2,5,1.8,-2.881,M,40.592,M,2.4,0123*54
$GPVTG,296.58,T,-343.32,M,004.435,N,008.214,K,D*07
$GPGGA,082409.30,5702.8218941,N,00949.8165704,E,2,5,1.8,-2.886,M,40.592,M,2.4,0123*5E
$GPVTG,295.53,T,-344.37,M,004.414,N,008.176,K,D*09
$GPGGA,082409.35,5702.8219184,N,00949.8164762,E,2,5,1.8,-2.890,M,40.592,M,2.4,0123*5D
$GPVTG,293.99,T,-345.91,M,004.376,N,008.104,K,D*02
$GPGGA,082409.40,5702.8219500,N,00949.8163915,E,2,5,1.8,-2.888,M,40.592,M,2.4,0123*57
$GPVTG,294.35,T,-345.55,M,004.307,N,007.977,K,D*0E
$GPGGA,082409.45,5702.8219553,N,00949.8162648,E,2,5,1.8,-2.830,M,40.592,M,2.6,0123*53
$GPVTG,291.33,T,-348.57,M,004.327,N,008.013,K,D*04
$GPGGA,082409.50,5702.8219640,N,00949.8161537,E,2,5,1.8,-2.827,M,40.592,M,2.6,0123*58
$GPVTG,287.29,T,-352.61,M,004.358,N,008.071,K,D*0A
$GPGGA,082409.55,5702.8219798,N,00949.8160481,E,2,5,1.8,-2.821,M,40.592,M,2.6,0123*52
$GPVTG,285.27,T,-354.63,M,004.377,N,008.107,K,D*0F
$GPGGA,082409.60,5702.8219871,N,00949.8159348,E,2,5,1.8,-2.817,M,40.592,M,2.6,0123*51
$GPVTG,281.99,T,-357.91,M,004.432,N,008.208,K,D*0A
$GPGGA,082409.65,5702.8220152,N,00949.8158590,E,2,5,1.8,-2.841,M,40.592,M,2.9,0123*58
$GPVTG,280.72,T,-359.18,M,004.388,N,008.127,K,D*09
$GPGGA,082409.70,5702.8220356,N,00949.8157716,E,2,4,1.8,-2.841,M,40.592,M,2.9,0123*58
$GPVTG,280.90,T,-359.00,M,004.273,N,007.914,K,D*0E
$GPGGA,082409.75,5702.8220484,N,00949.8156683,E,2,4,1.8,-2.845,M,40.592,M,2.9,0123*5D
$GPVTG,279.67,T,-360.23,M,004.271,N,007.909,K,D*05
$GPGGA,082409.80,5702.8220482,N,00949.8155549,E,2,4,1.8,-2.852,M,40.592,M,2.9,0123*51
$GPVTG,276.42,T,-363.48,M,004.322,N,008.004,K,D*0F
$GPGGA,082409.85,5702.8220616,N,00949.8154568,E,2,4,1.8,-2.837,M,40.592,M,3.1,0123*53
$GPVTG,275.82,T,-364.08,M,004.278,N,007.923,K,D*0E
$GPGGA,082409.90,5702.8220705,N,00949.8153549,E,2,4,1.8,-2.835,M,40.592,M,3.1,0123*52
$GPVTG,274.89,T,-365.01,M,004.253,N,007.877,K,D*05
$GPGGA,082409.95,5702.8220743,N,00949.8152476,E,2,4,1.8,-2.838,M,40.592,M,3.1,0123*54
$GPVTG,273.22,T,-366.68,M,004.268,N,007.905,K,D*03
$GPGGA,082410.00,5702.8220779,N,00949.8151459,E,2,4,1.8,-2.839,M,40.592,M,3.1,0123*56
$GPVTG,271.84,T,-368.06,M,004.239,N,007.850,K,D*0E
$GPGGA,082410.05,5702.8220920,N,00949.8150544,E,2,4,1.8,-2.840,M,40.592,M,1.3,0123*53
$GPVTG,271.32,T,-368.58,M,004.211,N,007.798,K,D*09
$GPGGA,082410.10,5702.8220918,N,00949.8149494,E,2,4,1.8,-2.843,M,40.592,M,1.3,0123*5B
$GPVTG,269.69,T,-370.21,M,004.209,N,007.795,K,D*0D
$GPGGA,082410.15,5702.8220925,N,00949.8148453,E,2,4,1.8,-2.847,M,40.592,M,1.3,0123*5E
$GPVTG,268.52,T,-371.38,M,004.201,N,007.780,K,D*01
$GPGGA,082410.20,5702.8220952,N,00949.8147419,E,2,4,1.8,-2.849,M,40.592,M,1.3,0123*57
$GPVTG,267.93,T,-371.97,M,004.188,N,007.756,K,D*0F
$GPGGA,082410.25,5702.8220968,N,00949.8146420,E,2,4,1.8,-2.838,M,40.592,M,1.6,0123*53
$GPVTG,267.29,T,-372.61,M,004.142,N,007.671,K,D*06
$GPGGA,082410.30,5702.8220904,N,00949.8145386,E,2,4,1.8,-2.839,M,40.592,M,1.6,0123*54
$GPVTG,265.37,T,-374.53,M,004.139,N,007.666,K,D*06
$GPGGA,082410.35,5702.8220811,N,00949.8144304,E,2,4,1.8,-2.842,M,40.592,M,1.6,0123*53
$GPVTG,263.30,T,-376.60,M,004.185,N,007.750,K,D*06
$GPGGA,082410.40,5702.8220689,N,00949.8143258,E,2,4,1.8,-2.845,M,40.592,M,1.6,0123*56
$GPVTG,261.03,T,-378.87,M,004.204,N,007.786,K,D*02
$GPGGA,082410.45,5702.8220710,N,00949.8142454,E,2,4,1.8,-2.856,M,40.592,M,1.8,0123*55
$GPVTG,259.70,T,-380.20,M,004.138,N,007.663,K,D*01
$GPGGA,082410.50,5702.8220611,N,00949.8141437,E,2,4,1.8,-2.861,M,40.592,M,1.8,0123*53
$GPVTG,258.37,T,-381.53,M,004.137,N,007.661,K,D*0B
$GPGGA,082410.55,5702.8220469,N,00949.8140380,E,2,4,1.8,-2.866,M,40.592,M,1.8,0123*56
$GPVTG,256.63,T,-383.27,M,004.182,N,007.745,K,D*0C
$GPGGA,082410.60,5702.8220360,N,00949.8139397,E,2,4,1.8,-2.867,M,40.592,M,1.8,0123*57
$GPVTG,255.60,T,-384.30,M,004.154,N,007.693,K,D*0C
$GPGGA,082410.65,5702.8220230,N,00949.8138463,E,2,4,1.8,-2.862,M,40.592,M,2.0,0123*55
$GPVTG,253.85,T,-386.05,M,004.130,N,007.649,K,D*00
$GPGGA,082410.70,5702.8220131,N,00949.8137536,E,2,4,1.8,-2.863,M,40.592,M,2.0,0123*5C
$GPVTG,253.36,T,-386.54,M,004.055,N,007.510,K,D*01
$GPGGA,082410.75,5702.8219959,N,00949.8136574,E,2,4,1.8,-2.865,M,40.592,M,2.0,0123*54
$GPVTG,251.79,T,-388.11,M,004.048,N,007.497,K,D*05
$GPGGA,082410.80,5702.8219733,N,00949.8135516,E,2,4,1.8,-2.868,M,40.592,M,2.0,0123*56
$GPVTG,249.93,T,-389.97,M,004.143,N,007.673,K,D*05
$GPGGA,082410.85,5702.8219518,N,00949.8134597,E,2,4,1.8,-2.853,M,40.592,M,2.2,0123*5A
$GPVTG,248.17,T,-391.73,M,004.156,N,007.698,K,D*0A
$GPGGA,082410.90,5702.8219325,N,00949.8133671,E,2,4,1.8,-2.852,M,40.592,M,2.2,0123*5B
$GPVTG,247.06,T,-392.84,M,004.151,N,007.687,K,D*07
$GPGGA,082410.95,5702.8219113,N,00949.8132789,E,2,4,1.8,-2.850,M,40.592,M,2.2,0123*5C
$GPVTG,245.74,T,-394.16,M,004.133,N,007.655,K,D*06
$GPGGA,082411.00,5702.8218836,N,00949.8131849,E,2,4,1.8,-2.852,M,40.592,M,2.2,0123*5C
$GPVTG,243.79,T,-396.11,M,004.167,N,007.718,K,D*01
$GPGGA,082411.05,5702.8218608,N,00949.8131028,E,2,4,1.8,-2.840,M,40.592,M,2.5,0123*51
$GPVTG,242.16,T,-397.74,M,004.193,N,007.765,K,D*0A
$GPGGA,082411.10,5702.8218341,N,00949.8130170,E,2,4,1.8,-2.840,M,40.592,M,2.5,0123*50
$GPVTG,240.66,T,-399.24,M,004.184,N,007.749,K,D*0C
$GPGGA,082411.15,5702.8218081,N,00949.8129295,E,2,4,1.8,-2.837,M,40.592,M,2.5,0123*5A
$GPVTG,239.53,T,-400.37,M,004.173,N,007.729,K,D*0F
$GPGGA,082411.20,5702.8217831,N,00949.8128445,E,2,4,1.8,-2.833,M,40.592,M,2.5,0123*5E
$GPVTG,238.65,T,-401.25,M,004.141,N,007.670,K,D*05
$GPGGA,082411.25,5702.8217597,N,00949.8127748,E,2,5,1.8,-2.825,M,40.592,M,2.7,0123*5F
$GPVTG,236.62,T,-403.28,M,004.065,N,007.529,K,D*0B
$GPGGA,082411.30,5702.8217249,N,00949.8126952,E,2,5,1.8,-2.826,M,40.592,M,2.7,0123*58
$GPVTG,234.06,T,-405.84,M,004.072,N,007.541,K,D*03
$GPGGA,082411.35,5702.8216887,N,00949.8126173,E,2,5,1.8,-2.827,M,40.592,M,2.7,0123*5E
$GPVTG,231.73,T,-408.17,M,004.085,N,007.566,K,D*0E
$GPGGA,082411.40,5702.8216538,N,00949.8125330,E,2,5,1.8,-2.828,M,40.592,M,2.7,0123*5C
$GPVTG,230.53,T,-409.37,M,004.122,N,007.633,K,D*01
$GPGGA,082411.45,5702.8216269,N,00949.8124633,E,2,5,1.8,-2.843,M,40.592,M,2.9,0123*5E
$GPVTG,229.50,T,-410.40,M,004.110,N,007.612,K,D*00
$GPGGA,082411.50,5702.8215896,N,00949.8123870,E,2,5,1.8,-2.847,M,40.592,M,2.9,0123*59
$GPVTG,227.97,T,-411.93,M,004.124,N,007.639,K,D*04
$GPGGA,082411.55,5702.8215573,N,00949.8123114,E,2,4,1.8,-2.848,M,40.592,M,2.9,0123*5F
$GPVTG,227.10,T,-412.80,M,004.103,N,007.600,K,D*05
$GPGGA,082411.60,5702.8215196,N,00949.8122435,E,2,4,1.8,-2.850,M,40.592,M,2.9,0123*58
$GPVTG,225.52,T,-414.38,M,004.092,N,007.578,K,D*01
$GPGGA,082411.65,5702.8214885,N,00949.8122008,E,2,4,1.8,-2.833,M,40.592,M,3.1,0123*51
$GPVTG,223.37,T,-416.53,M,003.977,N,007.366,K,D*07
$GPGGA,082411.70,5702.8214443,N,00949.8121348,E,2,4,1.8,-2.836,M,40.592,M,3.1,0123*52
$GPVTG,221.04,T,-418.86,M,004.026,N,007.455,K,D*0E
$GPGGA,082411.75,5702.8214049,N,00949.8120690,E,2,4,1.8,-2.836,M,40.592,M,3.1,0123*58
$GPVTG,219.92,T,-419.98,M,004.007,N,007.421,K,D*04
$GPGGA,082411.80,5702.8213631,N,00949.8120078,E,2,4,1.8,-2.837,M,40.592,M,3.1,0123*5D
$GPVTG,218.34,T,-421.56,M,003.998,N,007.404,K,D*0F
$GPGGA,082411.85,5702.8213305,N,00949.8119681,E,2,4,1.8,-2.847,M,40.592,M,3.3,0123*55
$GPVTG,216.61,T,-423.29,M,003.939,N,007.294,K,D*0F
$GPGGA,082411.90,5702.8212894,N,00949.8119087,E,2,4,1.8,-2.849,M,40.592,M,3.3,0123*5D
$GPVTG,215.56,T,-424.34,M,003.917,N,007.254,K,D*03
$GPGGA,082411.95,5702.8212414,N,00949.8118560,E,2,4,1.8,-2.852,M,40.592,M,3.3,0123*5B
$GPVTG,213.35,T,-426.55,M,003.955,N,007.326,K,D*07
$GPGGA,082412.00,5702.8211993,N,00949.8118018,E,2,4,1.8,-2.852,M,40.592,M,3.3,0123*5F
$GPVTG,212.27,T,-427.63,M,003.926,N,007.272,K,D*05
$GPGGA,082412.05,5702.8211698,N,00949.8117684,E,2,4,1.8,-2.859,M,40.592,M,2.2,0123*59
$GPVTG,211.44,T,-428.46,M,003.833,N,007.098,K,D*08
$GPGGA,082412.10,5702.8211236,N,00949.8117221,E,2,4,1.8,-2.863,M,40.592,M,2.2,0123*5F
$GPVTG,209.60,T,-430.30,M,003.835,N,007.103,K,D*0A
$GPGGA,082412.15,5702.8210789,N,00949.8116756,E,2,4,1.8,-2.866,M,40.592,M,2.2,0123*5B
$GPVTG,208.26,T,-431.64,M,003.820,N,007.075,K,D*0D
$GPGGA,082412.20,5702.8210336,N,00949.8116336,E,2,4,1.8,-2.872,M,40.592,M,2.2,0123*5A
$GPVTG,206.69,T,-433.21,M,003.801,N,007.039,K,D*00
$GPGGA,082412.25,5702.8210005,N,00949.8116199,E,2,4,1.8,-2.868,M,40.592,M,2.4,0123*56
$GPVTG,204.99,T,-434.91,M,003.711,N,006.873,K,D*08
$GPGGA,082412.30,5702.8209530,N,00949.8115822,E,2,4,1.8,-2.871,M,40.592,M,2.4,0123*5B
$GPVTG,203.30,T,-436.60,M,003.719,N,006.888,K,D*0C
$GPGGA,082412.35,5702.8209079,N,00949.8115448,E,2,4,1.8,-2.874,M,40.592,M,2.4,0123*53
$GPVTG,202.07,T,-437.83,M,003.694,N,006.842,K,D*07
$GPGGA,082412.40,5702.8208600,N,00949.8115142,E,2,4,1.8,-2.881,M,40.592,M,2.4,0123*5D
$GPVTG,200.21,T,-439.69,M,003.693,N,006.840,K,D*0E
$GPGGA,082412.45,5702.8208233,N,00949.8114966,E,2,4,1.8,-2.885,M,40.592,M,2.7,0123*54
$GPVTG,198.99,T,-440.91,M,003.611,N,006.688,K,D*06
$GPGGA,082412.50,5702.8207777,N,00949.8114719,E,2,4,1.8,-2.889,M,40.592,M,2.7,0123*50
$GPVTG,197.14,T,-442.76,M,003.574,N,006.619,K,D*0F
$GPGGA,082412.55,5702.8207295,N,00949.8114482,E,2,4,1.8,-2.894,M,40.592,M,2.7,0123*51
$GPVTG,195.32,T,-444.58,M,003.578,N,006.627,K,D*02
$GPGGA,082412.60,5702.8206840,N,00949.8114252,E,2,4,1.8,-2.897,M,40.592,M,2.7,0123*5C
$GPVTG,193.87,T,-446.03,M,003.547,N,006.569,K,D*03
$GPGGA,082412.65,5702.8206567,N,00949.8114260,E,2,4,1.8,-2.897,M,40.592,M,2.9,0123*5E
$GPVTG,193.06,T,-446.84,M,003.385,N,006.269,K,D*0A
$GPGGA,082412.70,5702.8206122,N,00949.8114092,E,2,4,1.8,-2.904,M,40.592,M,2.9,0123*5B
$GPVTG,191.36,T,-448.54,M,003.349,N,006.202,K,D*05
$GPGGA,082412.75,5702.8205667,N,00949.8113947,E,2,4,1.8,-2.911,M,40.592,M,2.9,0123*59
$GPVTG,189.61,T,-450.29,M,003.333,N,006.173,K,D*05
$GPGGA,082412.80,5702.8205220,N,00949.8113864,E,2,4,1.8,-2.917,M,40.592,M,2.9,0123*52
$GPVTG,187.46,T,-452.44,M,003.306,N,006.122,K,D*05
$GPGGA,082412.85,5702.8204872,N,00949.8114061,E,2,5,1.8,-2.906,M,40.592,M,3.2,0123*5A
$GPVTG,184.65,T,-455.25,M,003.242,N,006.004,K,D*03
$GPGGA,082412.90,5702.8204447,N,00949.8113969,E,2,5,1.8,-2.913,M,40.592,M,3.2,0123*56
$GPVTG,183.30,T,-456.60,M,003.197,N,005.921,K,D*00
$GPGGA,082412.95,5702.8203999,N,00949.8113954,E,2,5,1.8,-2.918,M,40.592,M,3.2,0123*5F
$GPVTG,181.22,T,-458.68,M,003.194,N,005.916,K,D*00
$GPGGA,082413.00,5702.8203619,N,00949.8113956,E,2,5,1.8,-2.920,M,40.592,M,3.2,0123*5C
$GPVTG,179.25,T,-460.65,M,003.100,N,005.742,K,D*04
$GPGGA,082413.05,5702.8203238,N,00949.8114253,E,2,5,1.8,-2.902,M,40.592,M,2.1,0123*55
$GPVTG,176.13,T,-463.77,M,003.114,N,005.767,K,D*0C
$GPGGA,082413.10,5702.8202813,N,00949.8114339,E,2,5,1.8,-2.907,M,40.592,M,2.1,0123*5B
$GPVTG,173.79,T,-466.11,M,003.105,N,005.750,K,D*04
$GPGGA,082413.15,5702.8202409,N,00949.8114464,E,2,5,1.8,-2.910,M,40.592,M,2.1,0123*50
$GPVTG,171.26,T,-468.64,M,003.073,N,005.690,K,D*0D
$GPGGA,082413.20,5702.8201997,N,00949.8114637,E,2,5,1.8,-2.913,M,40.592,M,2.1,0123*58
$GPVTG,168.53,T,-471.37,M,003.069,N,005.683,K,D*00
$GPGGA,082413.25,5702.8201739,N,00949.8114891,E,2,5,1.8,-2.934,M,40.592,M,2.4,0123*55
$GPVTG,166.31,T,-473.59,M,002.935,N,005.436,K,D*0D
$GPGGA,082413.30,5702.8201340,N,00949.8115073,E,2,5,1.8,-2.943,M,40.592,M,2.4,0123*5E
$GPVTG,164.17,T,-475.73,M,002.940,N,005.445,K,D*03
$GPGGA,082413.35,5702.8200968,N,00949.8115298,E,2,5,1.8,-2.951,M,40.592,M,2.4,0123*5E
$GPVTG,161.61,T,-478.29,M,002.916,N,005.401,K,D*06
$GPGGA,082413.40,5702.8200601,N,00949.8115582,E,2,5,1.8,-2.961,M,40.592,M,2.4,0123*53
$GPVTG,158.65,T,-481.25,M,002.909,N,005.388,K,D*0A
$GPGGA,082413.45,5702.8200334,N,00949.8116149,E,2,5,1.8,-2.948,M,40.592,M,2.6,0123*5C
$GPVTG,155.18,T,-484.72,M,002.900,N,005.370,K,D*04
$GPGGA,082413.50,5702.8199985,N,00949.8116435,E,2,5,1.8,-2.952,M,40.592,M,2.6,0123*5E
$GPVTG,153.01,T,-486.89,M,002.883,N,005.339,K,D*0B
$GPGGA,082413.55,5702.8199694,N,00949.8116743,E,2,5,1.8,-2.956,M,40.592,M,2.6,0123*52
$GPVTG,150.08,T,-489.82,M,002.802,N,005.189,K,D*05
$GPGGA,082413.60,5702.8199346,N,00949.8117134,E,2,5,1.8,-2.960,M,40.592,M,2.6,0123*5C
$GPVTG,147.48,T,-492.42,M,002.842,N,005.263,K,D*02
$GPGGA,082413.65,5702.8199092,N,00949.8117590,E,2,5,1.8,-2.964,M,40.592,M,2.9,0123*52
$GPVTG,144.88,T,-495.02,M,002.838,N,005.256,K,D*05
$GPGGA,082413.70,5702.8198806,N,00949.8117964,E,2,5,1.8,-2.968,M,40.592,M,2.9,0123*59
$GPVTG,142.40,T,-497.50,M,002.795,N,005.176,K,D*0B
$GPGGA,082413.75,5702.8198539,N,00949.8118356,E,2,5,1.8,-2.974,M,40.592,M,2.9,0123*54
$GPVTG,139.75,T,-500.15,M,002.750,N,005.093,K,D*0C
$GPGGA,082413.80,5702.8198291,N,00949.8118779,E,2,5,1.8,-2.977,M,40.592,M,2.9,0123*51
$GPVTG,136.78,T,-503.12,M,002.706,N,005.012,K,D*00
$GPGGA,082413.85,5702.8198082,N,00949.8119350,E,2,5,1.8,-2.964,M,40.592,M,3.1,0123*51
$GPVTG,134.08,T,-505.82,M,002.734,N,005.063,K,D*0D
$GPGGA,082413.90,5702.8197851,N,00949.8119780,E,2,5,1.8,-2.968,M,40.592,M,3.1,0123*59
$GPVTG,131.65,T,-508.25,M,002.685,N,004.972,K,D*00
$GPGGA,082413.95,5702.8197647,N,00949.8120246,E,2,5,1.8,-2.974,M,40.592,M,3.1,0123*5D
$GPVTG,128.59,T,-511.31,M,002.640,N,004.889,K,D*06
$GPGGA,082414.00,5702.8197469,N,00949.8120719,E,2,5,1.8,-2.973,M,40.592,M,3.1,0123*50
$GPVTG,125.27,T,-514.63,M,002.588,N,004.792,K,D*02
$GPGGA,082414.05,5702.8197293,N,00949.8121317,E,2,5,1.8,-2.957,M,40.592,M,1.3,0123*5B
$GPVTG,123.53,T,-516.37,M,002.624,N,004.859,K,D*09
$GPGGA,082414.10,5702.8197094,N,00949.8121862,E,2,5,1.8,-2.959,M,40.592,M,1.3,0123*5D
$GPVTG,121.19,T,-518.71,M,002.640,N,004.890,K,D*0E
$GPGGA,082414.15,5702.8196936,N,00949.8122390,E,2,5,1.8,-2.959,M,40.592,M,1.3,0123*5D
$GPVTG,118.33,T,-521.57,M,002.617,N,004.846,K,D*0B
$GPGGA,082414.20,5702.8196773,N,00949.8122977,E,2,5,1.8,-2.965,M,40.592,M,1.3,0123*58
$GPVTG,115.71,T,-524.19,M,002.640,N,004.890,K,D*06
$GPGGA,082414.25,5702.8196642,N,00949.8123493,E,2,5,1.8,-2.968,M,40.592,M,1.6,0123*50
$GPVTG,113.54,T,-526.36,M,002.600,N,004.815,K,D*01
$GPGGA,082414.30,5702.8196526,N,00949.8124026,E,2,5,1.8,-2.975,M,40.592,M,1.6,0123*54
$GPVTG,110.81,T,-529.09,M,002.560,N,004.741,K,D*02
$GPGGA,082414.35,5702.8196403,N,00949.8124609,E,2,5,1.8,-2.980,M,40.592,M,1.6,0123*56
$GPVTG,108.56,T,-531.34,M,002.569,N,004.757,K,D*08
$GPGGA,082414.40,5702.8196265,N,00949.8125238,E,2,5,1.8,-2.989,M,40.592,M,1.6,0123*5C
$GPVTG,107.11,T,-532.79,M,002.617,N,004.847,K,D*0A
$GPGGA,082414.45,5702.8196154,N,00949.8125889,E,2,5,1.8,-2.971,M,40.592,M,1.8,0123*51
$GPVTG,105.47,T,-534.43,M,002.627,N,004.866,K,D*04
$GPGGA,082414.50,5702.8196087,N,00949.8126514,E,2,5,1.8,-2.974,M,40.592,M,1.8,0123*55
$GPVTG,102.58,T,-537.32,M,002.637,N,004.883,K,D*02
$GPGGA,082414.55,5702.8196007,N,00949.8127130,E,2,5,1.8,-2.978,M,40.592,M,1.8,0123*57
$GPVTG,100.69,T,-539.21,M,002.645,N,004.898,K,D*01
$GPGGA,082414.60,5702.8195946,N,00949.8127768,E,2,5,1.8,-2.979,M,40.592,M,1.8,0123*54
$GPVTG,098.61,T,-541.29,M,002.663,N,004.932,K,D*0B
$GPGGA,082414.65,5702.8195897,N,00949.8128522,E,2,5,1.8,-2.963,M,40.592,M,2.0,0123*5F
$GPVTG,097.71,T,-542.19,M,002.700,N,005.000,K,D*08
$GPGGA,082414.70,5702.8195839,N,00949.8129160,E,2,5,1.8,-2.963,M,40.592,M,2.0,0123*5C
$GPVTG,096.35,T,-543.55,M,002.703,N,005.005,K,D*06
$GPGGA,082414.75,5702.8195810,N,00949.8129801,E,2,5,1.8,-2.964,M,40.592,M,2.0,0123*5B
$GPVTG,094.36,T,-545.54,M,002.703,N,005.007,K,D*02
$GPGGA,082414.80,5702.8195803,N,00949.8130460,E,2,5,1.8,-2.961,M,40.592,M,2.0,0123*55
$GPVTG,092.02,T,-547.88,M,002.716,N,005.030,K,D*00
$GPGGA,082414.85,5702.8195757,N,00949.8131088,E,2,5,1.8,-2.941,M,40.592,M,2.2,0123*5D
$GPVTG,091.30,T,-548.60,M,002.708,N,005.015,K,D*03
$GPGGA,082414.90,5702.8195730,N,00949.8131765,E,2,5,1.8,-2.941,M,40.592,M,2.2,0123*5C
$GPVTG,090.41,T,-549.49,M,002.722,N,005.042,K,D*04
$GPGGA,082414.95,5702.8195758,N,00949.8132426,E,2,5,1.8,-2.939,M,40.592,M,2.2,0123*5F
$GPVTG,087.92,T,-551.98,M,002.718,N,005.034,K,D*01
$GPGGA,082415.00,5702.8195779,N,00949.8133039,E,2,5,1.8,-2.936,M,40.592,M,2.2,0123*55
$GPVTG,086.05,T,-553.85,M,002.665,N,004.936,K,D*01
$GPGGA,082415.05,5702.8195861,N,00949.8133773,E,2,5,1.8,-2.919,M,40.592,M,2.5,0123*55
$GPVTG,084.44,T,-555.46,M,002.707,N,005.014,K,D*02
$GPGGA,082415.10,5702.8195899,N,00949.8134482,E,2,5,1.8,-2.916,M,40.592,M,2.5,0123*53
$GPVTG,082.93,T,-556.97,M,002.758,N,005.108,K,D*07
$GPGGA,082415.15,5702.8195977,N,00949.8135138,E,2,5,1.8,-2.911,M,40.592,M,2.5,0123*55
$GPVTG,080.67,T,-559.23,M,002.756,N,005.104,K,D*0C
$GPGGA,082415.20,5702.8196047,N,00949.8135843,E,2,5,1.8,-2.906,M,40.592,M,2.5,0123*59
$GPVTG,079.02,T,-560.88,M,002.800,N,005.186,K,D*04
$GPGGA,082415.25,5702.8196228,N,00949.8136626,E,2,5,1.8,-2.886,M,40.592,M,2.7,0123*52
$GPVTG,076.95,T,-562.95,M,002.847,N,005.273,K,D*01
$GPGGA,082415.30,5702.8196340,N,00949.8137302,E,2,5,1.8,-2.884,M,40.592,M,2.7,0123*59
$GPVTG,074.82,T,-565.08,M,002.863,N,005.302,K,D*07
$GPGGA,082415.35,5702.8196445,N,00949.8137961,E,2,5,1.8,-2.881,M,40.592,M,2.7,0123*54
$GPVTG,073.06,T,-566.84,M,002.860,N,005.296,K,D*04
$GPGGA,082415.40,5702.8196580,N,00949.8138622,E,2,5,1.8,-2.881,M,40.592,M,2.7,0123*59
$GPVTG,070.93,T,-568.97,M,002.869,N,005.313,K,D*02
$GPGGA,082415.45,5702.8196772,N,00949.8139322,E,2,5,1.8,-2.860,M,40.592,M,2.9,0123*56
$GPVTG,069.12,T,-570.78,M,002.900,N,005.370,K,D*00
$GPGGA,082415.50,5702.8196923,N,00949.8139982,E,2,5,1.8,-2.858,M,40.592,M,2.9,0123*53
$GPVTG,067.25,T,-572.65,M,002.912,N,005.393,K,D*0A
$GPGGA,082415.55,5702.8197093,N,00949.8140647,E,2,5,1.8,-2.858,M,40.592,M,2.9,0123*5D
$GPVTG,065.32,T,-574.58,M,002.937,N,005.439,K,D*06
$GPGGA,082415.60,5702.8197272,N,00949.8141293,E,2,5,1.8,-2.859,M,40.592,M,2.9,0123*5B
$GPVTG,063.39,T,-576.51,M,002.949,N,005.461,K,D*04
$GPGGA,082415.65,5702.8197545,N,00949.8141942,E,2,5,1.8,-2.834,M,40.592,M,3.1,0123*58
$GPVTG,060.93,T,-578.97,M,002.968,N,005.496,K,D*08
$GPGGA,082415.70,5702.8197771,N,00949.8142551,E,2,5,1.8,-2.828,M,40.592,M,3.1,0123*59
$GPVTG,058.34,T,-581.56,M,002.978,N,005.515,K,D*0E
$GPGGA,082415.75,5702.8198009,N,00949.8143161,E,2,5,1.8,-2.822,M,40.592,M,3.1,0123*57
$GPVTG,055.99,T,-583.91,M,003.001,N,005.559,K,D*03
$GPGGA,082415.80,5702.8198229,N,00949.8143810,E,2,5,1.8,-2.818,M,40.592,M,3.1,0123*5B
$GPVTG,054.80,T,-585.10,M,003.042,N,005.634,K,D*0A
$GPGGA,082415.85,5702.8198476,N,00949.8144543,E,2,5,1.8,-2.816,M,40.592,M,3.3,0123*52
$GPVTG,053.93,T,-585.97,M,003.105,N,005.750,K,D*01
$GPGGA,082415.90,5702.8198772,N,00949.8145051,E,2,5,1.8,-2.817,M,40.592,M,3.3,0123*57
$GPVTG,050.28,T,-589.62,M,003.082,N,005.707,K,D*08
$GPGGA,082415.95,5702.8199054,N,00949.8145607,E,2,5,1.8,-2.815,M,40.592,M,3.3,0123*57
$GPVTG,047.99,T,-591.91,M,003.095,N,005.732,K,D*01
$GPGGA,082416.00,5702.8199352,N,00949.8146159,E,2,5,1.8,-2.813,M,40.592,M,3.3,0123*54
$GPVTG,045.81,T,-594.09,M,003.122,N,005.781,K,D*0B
$GPGGA,082416.05,5702.8199718,N,00949.8146723,E,2,5,1.8,-2.795,M,40.592,M,2.2,0123*51
$GPVTG,043.96,T,-595.94,M,003.160,N,005.852,K,D*09
$GPGGA,082416.10,5702.8200049,N,00949.8147241,E,2,5,1.8,-2.794,M,40.592,M,2.2,0123*54
$GPVTG,041.63,T,-598.27,M,003.192,N,005.912,K,D*0C
$GPGGA,082416.15,5702.8200391,N,00949.8147711,E,2,5,1.8,-2.792,M,40.592,M,2.2,0123*51
$GPVTG,038.98,T,-600.92,M,003.206,N,005.938,K,D*0C
$GPGGA,082416.20,5702.8200730,N,00949.8148235,E,2,5,1.8,-2.792,M,40.592,M,2.2,0123*54
$GPVTG,037.57,T,-602.33,M,003.252,N,006.024,K,D*0F
$GPGGA,082416.25,5702.8201067,N,00949.8148758,E,2,5,1.8,-2.780,M,40.592,M,2.4,0123*5E
$GPVTG,036.62,T,-603.28,M,003.275,N,006.066,K,D*00
$GPGGA,082416.30,5702.8201441,N,00949.8149223,E,2,5,1.8,-2.779,M,40.592,M,2.4,0123*54
$GPVTG,034.59,T,-605.31,M,003.315,N,006.140,K,D*06
$GPGGA,082416.35,5702.8201830,N,00949.8149655,E,2,5,1.8,-2.778,M,40.592,M,2.4,0123*5F
$GPVTG,032.39,T,-607.51,M,003.350,N,006.204,K,D*00
$GPGGA,082416.40,5702.8202221,N,00949.8150087,E,2,5,1.8,-2.773,M,40.592,M,2.4,0123*5E
$GPVTG,030.59,T,-609.31,M,003.387,N,006.273,K,D*06
$GPGGA,082416.45,5702.8202588,N,00949.8150469,E,2,5,1.8,-2.769,M,40.592,M,2.7,0123*53
$GPVTG,028.26,T,-611.64,M,003.387,N,006.273,K,D*0E
$GPGGA,082416.50,5702.8203014,N,00949.8150819,E,2,5,1.8,-2.767,M,40.592,M,2.7,0123*53
$GPVTG,025.80,T,-614.10,M,003.426,N,006.344,K,D*00
$GPGGA,082416.55,5702.8203434,N,00949.8151152,E,2,5,1.8,-2.765,M,40.592,M,2.7,0123*55
$GPVTG,023.67,T,-616.23,M,003.451,N,006.392,K,D*06
$GPGGA,082416.60,5702.8203882,N,00949.8151456,E,2,5,1.8,-2.760,M,40.592,M,2.7,0123*56
$GPVTG,021.35,T,-618.55,M,003.497,N,006.477,K,D*0A
$GPGGA,082416.65,5702.8204268,N,00949.8151719,E,2,5,1.8,-2.763,M,40.592,M,2.9,0123*5F
$GPVTG,018.90,T,-621.00,M,003.512,N,006.504,K,D*0C
$GPGGA,082416.70,5702.8204702,N,00949.8152030,E,2,5,1.8,-2.760,M,40.592,M,2.9,0123*5E
$GPVTG,017.79,T,-622.11,M,003.540,N,006.556,K,D*07
$GPGGA,082416.75,5702.8205149,N,00949.8152257,E,2,5,1.8,-2.754,M,40.592,M,2.9,0123*57
$GPVTG,015.72,T,-624.18,M,003.559,N,006.592,K,D*01
$GPGGA,082416.80,5702.8205634,N,00949.8152456,E,2,5,1.8,-2.755,M,40.592,M,2.9,0123*56
$GPVTG,013.55,T,-626.35,M,003.615,N,006.696,K,D*03
$GPGGA,082416.85,5702.8206000,N,00949.8152640,E,2,5,1.8,-2.765,M,40.592,M,3.2,0123*5D
$GPVTG,011.63,T,-628.27,M,003.598,N,006.663,K,D*05
$GPGGA,082416.90,5702.8206477,N,00949.8152832,E,2,5,1.8,-2.765,M,40.592,M,3.2,0123*56
$GPVTG,010.26,T,-629.64,M,003.640,N,006.740,K,D*05
$GPGGA,082416.95,5702.8206976,N,00949.8152946,E,2,5,1.8,-2.767,M,40.592,M,3.2,0123*5F
$GPVTG,008.19,T,-631.71,M,003.691,N,006.836,K,D*0F
$GPGGA,082417.00,5702.8207461,N,00949.8153125,E,2,5,1.8,-2.768,M,40.592,M,3.2,0123*5B
$GPVTG,007.30,T,-632.60,M,003.732,N,006.912,K,D*07
$GPGGA,082417.05,5702.8207897,N,00949.8153191,E,2,5,1.8,-2.762,M,40.592,M,2.1,0123*5C
$GPVTG,005.72,T,-634.18,M,003.727,N,006.903,K,D*0E
$GPGGA,082417.10,5702.8208412,N,00949.8153251,E,2,5,1.8,-2.763,M,40.592,M,2.1,0123*58
$GPVTG,003.98,T,-635.92,M,003.783,N,007.006,K,D*0C
$GPGGA,082417.15,5702.8208923,N,00949.8153268,E,2,5,1.8,-2.767,M,40.592,M,2.1,0123*5C
$GPVTG,002.15,T,-637.75,M,003.828,N,007.090,K,D*02
$GPGGA,082417.20,5702.8209441,N,00949.8153280,E,2,5,1.8,-2.766,M,40.592,M,2.1,0123*55
$GPVTG,000.59,T,-639.31,M,003.878,N,007.181,K,D*02
$GPGGA,082417.25,5702.8209805,N,00949.8153186,E,2,5,1.8,-2.768,M,40.592,M,2.4,0123*52
$GPVTG,358.59,T,-281.31,M,003.856,N,007.141,K,D*0B
$GPGGA,082417.30,5702.8210333,N,00949.8153111,E,2,5,1.8,-2.771,M,40.592,M,2.4,0123*56
$GPVTG,356.80,T,-283.10,M,003.912,N,007.244,K,D*07
$GPGGA,082417.35,5702.8210851,N,00949.8153038,E,2,5,1.8,-2.775,M,40.592,M,2.4,0123*52
$GPVTG,355.34,T,-284.56,M,003.954,N,007.324,K,D*0B
$GPGGA,082417.40,5702.8211362,N,00949.8152956,E,2,5,1.8,-2.775,M,40.592,M,2.4,0123*5A
$GPVTG,354.03,T,-285.87,M,003.989,N,007.387,K,D*0A
$GPGGA,082417.45,5702.8211710,N,00949.8152709,E,2,5,1.8,-2.780,M,40.592,M,2.6,0123*52
$GPVTG,351.93,T,-287.97,M,003.970,N,007.353,K,D*0A
$GPGGA,082417.50,5702.8212241,N,00949.8152521,E,2,5,1.8,-2.782,M,40.592,M,2.6,0123*5E
$GPVTG,350.27,T,-289.63,M,004.025,N,007.455,K,D*0E
$GPGGA,082417.55,5702.8212772,N,00949.8152326,E,2,5,1.8,-2.780,M,40.592,M,2.6,0123*5D
$GPVTG,348.84,T,-291.06,M,004.078,N,007.553,K,D*0B
$GPGGA,082417.60,5702.8213297,N,00949.8152116,E,2,5,1.8,-2.781,M,40.592,M,2.6,0123*54
$GPVTG,347.52,T,-292.38,M,004.124,N,007.638,K,D*07
$GPGGA,082417.65,5702.8213647,N,00949.8151817,E,2,5,1.8,-2.791,M,40.592,M,2.9,0123*5D
$GPVTG,345.80,T,-294.10,M,004.097,N,007.588,K,D*07
$GPGGA,082417.70,5702.8214181,N,00949.8151530,E,2,5,1.8,-2.797,M,40.592,M,2.9,0123*5D
$GPVTG,344.37,T,-295.53,M,004.154,N,007.694,K,D*0C
$GPGGA,082417.75,5702.8214709,N,00949.8151255,E,2,5,1.8,-2.803,M,40.592,M,2.9,0123*58
$GPVTG,343.21,T,-296.69,M,004.202,N,007.782,K,D*00
$GPGGA,082417.80,5702.8215213,N,00949.8150936,E,2,5,1.8,-2.806,M,40.592,M,2.9,0123*57
$GPVTG,341.88,T,-298.02,M,004.236,N,007.845,K,D*01
$GPGGA,082417.85,5702.8215564,N,00949.8150423,E,2,5,1.8,-2.791,M,40.592,M,3.1,0123*54
$GPVTG,339.96,T,-299.94,M,004.228,N,007.830,K,D*02
$GPGGA,082417.90,5702.8216082,N,00949.8150062,E,2,5,1.8,-2.794,M,40.592,M,3.1,0123*5A
$GPVTG,338.79,T,-301.11,M,004.271,N,007.910,K,D*00
$GPGGA,082417.95,5702.8216603,N,00949.8149638,E,2,5,1.8,-2.796,M,40.592,M,3.1,0123*53
$GPVTG,337.45,T,-302.45,M,004.326,N,008.011,K,D*06
$GPGGA,082418.00,5702.8217122,N,00949.8149218,E,2,5,1.8,-2.798,M,40.592,M,3.1,0123*5D
$GPVTG,336.30,T,-303.60,M,004.375,N,008.102,K,D*06
$GPGGA,082418.05,5702.8217402,N,00949.8148643,E,2,5,1.8,-2.803,M,40.592,M,1.3,0123*59
$GPVTG,334.40,T,-305.50,M,004.362,N,008.079,K,D*0D
$GPGGA,082418.10,5702.8217897,N,00949.8148194,E,2,5,1.8,-2.806,M,40.592,M,1.3,0123*55
$GPVTG,333.33,T,-306.57,M,004.394,N,008.137,K,D*08
$GPGGA,082418.15,5702.8218404,N,00949.8147671,E,2,5,1.8,-2.812,M,40.592,M,1.3,0123*5F
$GPVTG,332.09,T,-307.81,M,004.446,N,008.234,K,D*02
$GPGGA,082418.20,5702.8218895,N,00949.8147111,E,2,5,1.8,-2.818,M,40.592,M,1.3,0123*56
$GPVTG,330.77,T,-309.13,M,004.494,N,008.324,K,D*03
$GPGGA,082418.25,5702.8219098,N,00949.8146377,E,2,5,1.8,-2.820,M,40.592,M,1.6,0123*5A
$GPVTG,328.79,T,-311.11,M,004.462,N,008.264,K,D*03
$GPGGA,082418.30,5702.8219573,N,00949.8145839,E,2,5,1.8,-2.824,M,40.592,M,1.6,0123*58
$GPVTG,327.82,T,-312.08,M,004.488,N,008.312,K,D*07
$GPGGA,082418.35,5702.8220050,N,00949.8145272,E,2,5,1.8,-2.825,M,40.592,M,1.6,0123*57
$GPVTG,326.85,T,-313.05,M,004.522,N,008.375,K,D*0D
$GPGGA,082418.40,5702.8220517,N,00949.8144654,E,2,5,1.8,-2.829,M,40.592,M,1.6,0123*5E
$GPVTG,325.74,T,-314.16,M,004.560,N,008.444,K,D*06
$GPGGA,082418.45,5702.8220823,N,00949.8143786,E,2,5,1.8,-2.807,M,40.592,M,1.8,0123*5A
$GPVTG,324.30,T,-315.60,M,004.608,N,008.534,K,D*0C
$GPGGA,082418.50,5702.8221186,N,00949.8143092,E,2,5,1.8,-2.808,M,40.592,M,1.8,0123*54
$GPVTG,322.95,T,-316.95,M,004.635,N,008.583,K,D*0E
$GPGGA,082418.55,5702.8221607,N,00949.8142418,E,2,5,1.8,-2.809,M,40.592,M,1.8,0123*59
$GPVTG,321.89,T,-318.01,M,004.670,N,008.649,K,D*07
$GPGGA,082418.60,5702.8222025,N,00949.8141690,E,2,5,1.8,-2.811,M,40.592,M,1.8,0123*52
$GPVTG,320.75,T,-319.15,M,004.709,N,008.721,K,D*01
$GPGGA,082418.65,5702.8222439,N,00949.8140985,E,2,5,1.8,-2.800,M,40.592,M,2.0,0123*5F
$GPVTG,319.55,T,-320.35,M,004.685,N,008.676,K,D*07
$GPGGA,082418.70,5702.8222803,N,00949.8140189,E,2,5,1.8,-2.803,M,40.592,M,2.0,0123*59
$GPVTG,317.50,T,-322.40,M,004.653,N,008.618,K,D*0F
$GPGGA,082418.75,5702.8223081,N,00949.8139280,E,2,5,1.8,-2.807,M,40.592,M,2.0,0123*5F
$GPVTG,314.31,T,-325.59,M,004.608,N,008.534,K,D*07
$GPGGA,082418.80,5702.8223483,N,00949.8138455,E,2,5,1.8,-2.806,M,40.592,M,2.0,0123*5D
$GPVTG,312.93,T,-326.97,M,004.625,N,008.565,K,D*03
$GPGGA,082418.85,5702.8223793,N,00949.8137539,E,2,5,1.8,-2.792,M,40.592,M,2.2,0123*5E
$GPVTG,310.23,T,-329.67,M,004.595,N,008.510,K,D*00
$GPGGA,082418.90,5702.8224117,N,00949.8136749,E,2,5,1.8,-2.792,M,40.592,M,2.2,0123*53
$GPVTG,308.73,T,-331.17,M,004.526,N,008.382,K,D*07
$GPGGA,082418.95,5702.8224397,N,00949.8135873,E,2,5,1.8,-2.794,M,40.592,M,2.2,0123*5F
$GPVTG,306.41,T,-333.49,M,004.475,N,008.287,K,D*02
$GPGGA,082419.00,5702.8224676,N,00949.8134895,E,2,5,1.8,-2.796,M,40.592,M,2.2,0123*53
$GPVTG,303.73,T,-336.17,M,004.488,N,008.312,K,D*07
$GPGGA,082419.05,5702.8224970,N,00949.8134079,E,2,5,1.8,-2.807,M,40.592,M,2.5,0123*55
$GPVTG,302.24,T,-337.66,M,004.468,N,008.275,K,D*0D
$GPGGA,082419.10,5702.8225207,N,00949.8133162,E,2,5,1.8,-2.810,M,40.592,M,2.5,0123*51
$GPVTG,300.51,T,-339.39,M,004.447,N,008.237,K,D*02
$GPGGA,082419.15,5702.8225451,N,00949.8132232,E,2,5,1.8,-2.814,M,40.592,M,2.5,0123*52
$GPVTG,298.85,T,-341.05,M,004.427,N,008.199,K,D*0A
$GPGGA,082419.20,5702.8225671,N,00949.8131313,E,2,5,1.8,-2.816,M,40.592,M,2.5,0123*57
$GPVTG,297.17,T,-342.73,M,004.385,N,008.121,K,D*00
$GPGGA,082419.25,5702.8225921,N,00949.8130358,E,2,5,1.8,-2.801,M,40.592,M,2.7,0123*52
$GPVTG,295.60,T,-344.30,M,004.344,N,008.045,K,D*0D
$GPGGA,082419.30,5702.8226131,N,00949.8129362,E,2,5,1.8,-2.801,M,40.592,M,2.7,0123*5D
$GPVTG,293.72,T,-346.18,M,004.347,N,008.051,K,D*06
$GPGGA,082419.35,5702.8226310,N,00949.8128387,E,2,5,1.8,-2.802,M,40.592,M,2.7,0123*50
$GPVTG,291.79,T,-348.11,M,004.321,N,008.002,K,D*0E
$GPGGA,082419.40,5702.8226469,N,00949.8127400,E,2,4,1.8,-2.803,M,40.592,M,2.7,0123*5C
$GPVTG,289.84,T,-350.06,M,004.305,N,007.973,K,D*0C
$GPGGA,082419.45,5702.8226680,N,00949.8126439,E,2,4,1.8,-2.788,M,40.592,M,2.9,0123*55
$GPVTG,288.09,T,-351.81,M,004.256,N,007.882,K,D*0E
$GPGGA,082419.50,5702.8226796,N,00949.8125450,E,2,4,1.8,-2.786,M,40.592,M,2.9,0123*55
$GPVTG,285.27,T,-354.63,M,004.208,N,007.793,K,D*02
$GPGGA,082419.55,5702.8226902,N,00949.8124382,E,2,4,1.8,-2.789,M,40.592,M,2.9,0123*55
$GPVTG,282.64,T,-357.26,M,004.237,N,007.846,K,D*0B
$GPGGA,082419.60,5702.8227031,N,00949.8123327,E,2,4,1.8,-2.790,M,40.592,M,2.9,0123*5B
$GPVTG,281.08,T,-358.82,M,004.264,N,007.897,K,D*09
$GPGGA,082419.65,5702.8227226,N,00949.8122407,E,2,4,1.8,-2.786,M,40.592,M,3.1,0123*50
$GPVTG,280.01,T,-359.89,M,004.229,N,007.832,K,D*0D
$GPGGA,082419.70,5702.8227352,N,00949.8121457,E,2,4,1.8,-2.785,M,40.592,M,3.1,0123*53
$GPVTG,279.18,T,-360.72,M,004.166,N,007.716,K,D*0C
$GPGGA,082419.75,5702.8227427,N,00949.8120489,E,2,4,1.8,-2.786,M,40.592,M,3.1,0123*52
$GPVTG,277.52,T,-362.38,M,004.116,N,007.622,K,D*01
$GPGGA,082419.80,5702.8227507,N,00949.8119439,E,2,4,1.8,-2.790,M,40.592,M,3.1,0123*5D
$GPVTG,276.12,T,-363.78,M,004.139,N,007.666,K,D*0C
$GPGGA,082419.85,5702.8227583,N,00949.8118416,E,2,4,1.8,-2.767,M,40.592,M,3.3,0123*52
$GPVTG,275.40,T,-364.50,M,004.078,N,007.553,K,D*04
$GPGGA,082419.90,5702.8227607,N,00949.8117394,E,2,4,1.8,-2.769,M,40.592,M,3.3,0123*55
$GPVTG,273.45,T,-366.45,M,004.076,N,007.549,K,D*04
$GPGGA,082419.95,5702.8227664,N,00949.8116356,E,2,4,1.8,-2.769,M,40.592,M,3.3,0123*5A
$GPVTG,272.45,T,-367.45,M,004.092,N,007.578,K,D*0C
$GPGGA,082420.00,5702.8227716,N,00949.8115292,E,2,4,1.8,-2.766,M,40.592,M,3.3,0123*5D
$GPVTG,271.60,T,-368.30,M,004.127,N,007.643,K,D*01
$GPGGA,082420.05,5702.8227664,N,00949.8114154,E,2,5,1.8,-2.746,M,40.592,M,2.2,0123*57
$GPVTG,268.79,T,-371.11,M,004.202,N,007.781,K,D*01
$GPGGA,082420.10,5702.8227626,N,00949.8113100,E,2,5,1.8,-2.746,M,40.592,M,2.2,0123*53
$GPVTG,266.94,T,-372.96,M,004.219,N,007.813,K,D*0E
$GPGGA,082420.15,5702.8227575,N,00949.8112075,E,2,5,1.8,-2.749,M,40.592,M,2.2,0123*5E
$GPVTG,265.15,T,-374.75,M,004.210,N,007.798,K,D*0A
$GPGGA,082420.20,5702.8227497,N,00949.8110996,E,2,5,1.8,-2.752,M,40.592,M,2.2,0123*59
$GPVTG,263.25,T,-376.65,M,004.254,N,007.878,K,D*0D
$GPGGA,082420.25,5702.8227545,N,00949.8110145,E,2,5,1.8,-2.759,M,40.592,M,2.4,0123*59
$GPVTG,262.58,T,-377.32,M,004.157,N,007.699,K,D*04
$GPGGA,082420.30,5702.8227500,N,00949.8109182,E,2,5,1.8,-2.760,M,40.592,M,2.4,0123*55
$GPVTG,261.71,T,-378.19,M,004.092,N,007.579,K,D*0F
$GPGGA,082420.35,5702.8227393,N,00949.8108096,E,2,5,1.8,-2.767,M,40.592,M,2.4,0123*5E
$GPVTG,260.01,T,-379.89,M,004.163,N,007.710,K,D*03
$GPGGA,082420.40,5702.8227306,N,00949.8107111,E,2,5,1.8,-2.769,M,40.592,M,2.4,0123*5F
$GPVTG,258.83,T,-381.07,M,004.132,N,007.653,K,D*01
$GPGGA,082420.45,5702.8227107,N,00949.8105966,E,2,5,1.8,-2.735,M,40.592,M,2.7,0123*59
$GPVTG,256.87,T,-383.03,M,004.146,N,007.678,K,D*07
$GPGGA,082420.50,5702.8226987,N,00949.8105017,E,2,5,1.8,-2.736,M,40.592,M,2.7,0123*50
$GPVTG,255.52,T,-384.38,M,004.095,N,007.584,K,D*0C
$GPGGA,082420.55,5702.8226771,N,00949.8103977,E,2,5,1.8,-2.736,M,40.592,M,2.7,0123*5B
$GPVTG,252.90,T,-387.00,M,004.168,N,007.719,K,D*08
$GPGGA,082420.60,5702.8226586,N,00949.8102966,E,2,5,1.8,-2.734,M,40.592,M,2.7,0123*54
$GPVTG,251.24,T,-388.66,M,004.199,N,007.777,K,D*0D
$GPGGA,082420.65,5702.8226475,N,00949.8102112,E,2,5,1.8,-2.740,M,40.592,M,2.9,0123*5A
$GPVTG,249.95,T,-389.95,M,004.145,N,007.677,K,D*03
$GPGGA,082420.70,5702.8226245,N,00949.8101135,E,2,5,1.8,-2.742,M,40.592,M,2.9,0123*5F
$GPVTG,247.90,T,-392.00,M,004.175,N,007.732,K,D*0D
$GPGGA,082420.75,5702.8226081,N,00949.8100204,E,2,5,1.8,-2.743,M,40.592,M,2.9,0123*51
$GPVTG,247.24,T,-392.66,M,004.129,N,007.646,K,D*09
$GPGGA,082420.80,5702.8225908,N,00949.8099288,E,2,5,1.8,-2.747,M,40.592,M,2.9,0123*51
$GPVTG,246.55,T,-393.35,M,004.080,N,007.556,K,D*09
$GPGGA,082420.85,5702.8225779,N,00949.8098390,E,2,5,1.8,-2.751,M,40.592,M,3.2,0123*58
$GPVTG,247.03,T,-392.87,M,004.035,N,007.472,K,D*0A
$GPGGA,082420.90,5702.8225633,N,00949.8097546,E,2,5,1.8,-2.758,M,40.592,M,3.2,0123*58
$GPVTG,247.11,T,-392.79,M,003.889,N,007.203,K,D*00
$GPGGA,082420.95,5702.8225438,N,00949.8096640,E,2,5,1.8,-2.768,M,40.592,M,3.2,0123*53
$GPVTG,246.39,T,-393.51,M,003.868,N,007.164,K,D*0D
$GPGGA,082421.00,5702.8225234,N,00949.8095694,E,2,5,1.8,-2.782,M,40.592,M,3.2,0123*5A
$GPVTG,245.89,T,-394.01,M,003.893,N,007.210,K,D*03
$GPGGA,082421.05,5702.8225080,N,00949.8094754,E,2,5,1.8,-2.771,M,40.592,M,2.1,0123*50
$GPVTG,246.30,T,-393.60,M,003.890,N,007.204,K,D*04
$GPGGA,082421.10,5702.8224895,N,00949.8093836,E,2,5,1.8,-2.779,M,40.592,M,2.1,0123*5D
$GPVTG,246.27,T,-393.63,M,003.877,N,007.180,K,D*07
$GPGGA,082421.15,5702.8224728,N,00949.8092933,E,2,5,1.8,-2.792,M,40.592,M,2.1,0123*51
$GPVTG,246.58,T,-393.32,M,003.843,N,007.117,K,D*02
$GPGGA,082421.20,5702.8224561,N,00949.8092058,E,2,5,1.8,-2.803,M,40.592,M,2.1,0123*5B
$GPVTG,246.79,T,-393.11,M,003.791,N,007.020,K,D*05
$GPGGA,082421.25,5702.8224501,N,00949.8091329,E,2,5,1.8,-2.810,M,40.592,M,2.4,0123*59
$GPVTG,247.75,T,-392.15,M,003.629,N,006.720,K,D*09
$GPGGA,082421.30,5702.8224300,N,00949.8090552,E,2,5,1.8,-2.818,M,40.592,M,2.4,0123*59
$GPVTG,246.67,T,-393.23,M,003.540,N,006.556,K,D*00
$GPGGA,082421.35,5702.8224113,N,00949.8089780,E,2,5,1.8,-2.830,M,40.592,M,2.4,0123*53
$GPVTG,245.99,T,-393.91,M,003.457,N,006.402,K,D*0C
$GPGGA,082421.40,5702.8223903,N,00949.8089056,E,2,5,1.8,-2.838,M,40.592,M,2.4,0123*5B
$GPVTG,244.62,T,-395.28,M,003.364,N,006.230,K,D*0D
$GPGGA,082421.45,5702.8223763,N,00949.8088535,E,2,5,1.8,-2.834,M,40.592,M,2.6,0123*59
$GPVTG,242.61,T,-397.29,M,003.164,N,005.860,K,D*05
$GPGGA,082421.50,5702.8223556,N,00949.8087848,E,2,5,1.8,-2.843,M,40.592,M,2.6,0123*51
$GPVTG,241.43,T,-398.47,M,003.087,N,005.717,K,D*02
$GPGGA,082421.55,5702.8223355,N,00949.8087202,E,2,5,1.8,-2.847,M,40.592,M,2.6,0123*51
$GPVTG,240.20,T,-399.70,M,002.994,N,005.545,K,D*0C
$GPGGA,082421.60,5702.8223174,N,00949.8086561,E,2,5,1.8,-2.849,M,40.592,M,2.6,0123*5B
$GPVTG,239.42,T,-400.48,M,002.907,N,005.383,K,D*0C
$GPGGA,082421.65,5702.8222980,N,00949.8086167,E,2,5,1.8,-2.856,M,40.592,M,2.9,0123*5F
$GPVTG,236.13,T,-403.77,M,002.722,N,005.041,K,D*0C
$GPGGA,082421.70,5702.8222757,N,00949.8085668,E,2,5,1.8,-2.863,M,40.592,M,2.9,0123*52
$GPVTG,233.58,T,-406.32,M,002.604,N,004.822,K,D*0B
$GPGGA,082421.75,5702.8222537,N,00949.8085180,E,2,5,1.8,-2.867,M,40.592,M,2.9,0123*56
$GPVTG,231.26,T,-408.64,M,002.506,N,004.641,K,D*07
$GPGGA,082421.80,5702.8222328,N,00949.8084678,E,2,5,1.8,-2.865,M,40.592,M,2.9,0123*57
$GPVTG,229.63,T,-410.27,M,002.433,N,004.506,K,D*06
$GPGGA,082421.85,5702.8222159,N,00949.8084279,E,2,5,1.8,-2.854,M,40.592,M,3.1,0123*58
$GPVTG,228.03,T,-411.87,M,002.347,N,004.347,K,D*0D
$GPGGA,082421.90,5702.8221942,N,00949.8083844,E,2,5,1.8,-2.856,M,40.592,M,3.1,0123*5C
$GPVTG,225.92,T,-413.98,M,002.276,N,004.215,K,D*01
$GPGGA,082421.95,5702.8221719,N,00949.8083421,E,2,5,1.8,-2.860,M,40.592,M,3.1,0123*53
$GPVTG,223.89,T,-416.01,M,002.220,N,004.112,K,D*0F
$GPGGA,082422.00,5702.8221511,N,00949.8082987,E,2,5,1.8,-2.859,M,40.592,M,3.1,0123*5C
$GPVTG,222.67,T,-417.23,M,002.176,N,004.030,K,D*0E
$GPGGA,082422.05,5702.8221405,N,00949.8082490,E,2,4,1.8,-2.835,M,40.592,M,1.3,0123*5D
$GPVTG,224.29,T,-415.61,M,002.141,N,003.965,K,D*0C
$GPGGA,082422.10,5702.8221224,N,00949.8082064,E,2,4,1.8,-2.834,M,40.592,M,1.3,0123*52
$GPVTG,224.02,T,-415.88,M,002.090,N,003.870,K,D*0A
$GPGGA,082422.15,5702.8221037,N,00949.8081591,E,2,4,1.8,-2.833,M,40.592,M,1.3,0123*5C
$GPVTG,224.42,T,-415.48,M,002.079,N,003.850,K,D*07
$GPGGA,082422.20,5702.8220862,N,00949.8081129,E,2,4,1.8,-2.833,M,40.592,M,1.3,0123*54
$GPVTG,225.03,T,-414.87,M,002.060,N,003.816,K,D*0B
$GPGGA,082422.25,5702.8220911,N,00949.8080727,E,2,4,1.8,-2.820,M,40.592,M,1.6,0123*5A
$GPVTG,228.11,T,-411.79,M,001.950,N,003.612,K,D*02
$GPGGA,082422.30,5702.8220769,N,00949.8080286,E,2,4,1.8,-2.821,M,40.592,M,1.6,0123*50
$GPVTG,229.09,T,-410.81,M,001.896,N,003.511,K,D*07
$GPGGA,082422.35,5702.8220611,N,00949.8079867,E,2,4,1.8,-2.823,M,40.592,M,1.6,0123*5A
$GPVTG,229.42,T,-410.48,M,001.856,N,003.437,K,D*04
$GPGGA,082422.40,5702.8220480,N,00949.8079443,E,2,4,1.8,-2.821,M,40.592,M,1.6,0123*5A
$GPVTG,230.54,T,-409.36,M,001.810,N,003.352,K,D*0C
$GPGGA,082422.45,5702.8220528,N,00949.8078736,E,2,4,1.8,-2.786,M,40.592,M,1.8,0123*50
$GPVTG,236.49,T,-403.41,M,001.757,N,003.254,K,D*07
$GPGGA,082422.50,5702.8220409,N,00949.8078322,E,2,4,1.8,-2.789,M,40.592,M,1.8,0123*58
$GPVTG,238.04,T,-401.86,M,001.720,N,003.185,K,D*06
$GPGGA,082422.55,5702.8220306,N,00949.8077861,E,2,4,1.8,-2.791,M,40.592,M,1.8,0123*5F
$GPVTG,240.47,T,-399.43,M,001.703,N,003.153,K,D*0B
$GPGGA,082422.60,5702.8220233,N,00949.8077400,E,2,4,1.8,-2.791,M,40.592,M,1.8,0123*55
$GPVTG,243.89,T,-396.01,M,001.677,N,003.106,K,D*01
$GPGGA,082422.65,5702.8220113,N,00949.8076631,E,2,4,1.8,-2.774,M,40.592,M,2.0,0123*50
$GPVTG,248.95,T,-390.95,M,001.772,N,003.281,K,D*04
$GPGGA,082422.70,5702.8220035,N,00949.8076156,E,2,4,1.8,-2.774,M,40.592,M,2.0,0123*57
$GPVTG,251.24,T,-388.66,M,001.782,N,003.300,K,D*04
$GPGGA,082422.75,5702.8219968,N,00949.8075703,E,2,4,1.8,-2.778,M,40.592,M,2.0,0123*50
$GPVTG,253.43,T,-386.47,M,001.775,N,003.287,K,D*0C
$GPGGA,082422.80,5702.8219897,N,00949.8075243,E,2,4,1.8,-2.780,M,40.592,M,2.0,0123*5D
$GPVTG,255.12,T,-384.78,M,001.779,N,003.294,K,D*0E
$GPGGA,082422.85,5702.8219740,N,00949.8074657,E,2,4,1.8,-2.744,M,40.592,M,2.2,0123*57
$GPVTG,254.12,T,-385.78,M,001.841,N,003.409,K,D*08
$GPGGA,082422.90,5702.8219690,N,00949.8074174,E,2,4,1.8,-2.740,M,40.592,M,2.2,0123*5D
$GPVTG,256.46,T,-383.44,M,001.852,N,003.430,K,D*0A
$GPGGA,082422.95,5702.8219600,N,00949.8073729,E,2,4,1.8,-2.740,M,40.592,M,2.2,0123*58
$GPVTG,256.49,T,-383.41,M,001.852,N,003.430,K,D*00
$GPGGA,082423.00,5702.8219541,N,00949.8073246,E,2,4,1.8,-2.738,M,40.592,M,2.2,0123*50
$GPVTG,257.85,T,-382.05,M,001.866,N,003.456,K,D*07
$GPGGA,082423.05,5702.8219425,N,00949.8072618,E,2,4,1.8,-2.737,M,40.592,M,2.5,0123*50
$GPVTG,257.16,T,-382.74,M,001.912,N,003.541,K,D*0E
$GPGGA,082423.10,5702.8219350,N,00949.8072168,E,2,4,1.8,-2.739,M,40.592,M,2.5,0123*5F
$GPVTG,257.32,T,-382.58,M,001.905,N,003.529,K,D*0E
$GPGGA,082423.15,5702.8219265,N,00949.8071707,E,2,4,1.8,-2.742,M,40.592,M,2.5,0123*5D
$GPVTG,257.05,T,-382.85,M,001.910,N,003.538,K,D*0E
$GPGGA,082423.20,5702.8219181,N,00949.8071236,E,2,4,1.8,-2.742,M,40.592,M,2.5,0123*55
$GPVTG,256.87,T,-383.03,M,001.920,N,003.555,K,D*02
$GPGGA,082423.25,5702.8219054,N,00949.8070690,E,2,4,1.8,-2.732,M,40.592,M,2.7,0123*55
$GPVTG,256.11,T,-383.79,M,001.941,N,003.594,K,D*0A
$GPGGA,082423.30,5702.8218998,N,00949.8070216,E,2,4,1.8,-2.736,M,40.592,M,2.7,0123*57
$GPVTG,256.97,T,-382.93,M,001.940,N,003.592,K,D*06
$GPGGA,082423.35,5702.8218930,N,00949.8069755,E,2,4,1.8,-2.739,M,40.592,M,2.7,0123*55
$GPVTG,257.17,T,-382.73,M,001.935,N,003.583,K,D*03
$GPGGA,082423.40,5702.8218856,N,00949.8069287,E,2,4,1.8,-2.740,M,40.592,M,2.7,0123*52
$GPVTG,257.06,T,-382.84,M,001.936,N,003.585,K,D*0E
$GPGGA,082423.45,5702.8218786,N,00949.8068924,E,2,4,1.8,-2.717,M,40.592,M,2.9,0123*5A
$GPVTG,256.16,T,-383.74,M,001.888,N,003.497,K,D*06
$GPGGA,082423.50,5702.8218720,N,00949.8068470,E,2,4,1.8,-2.716,M,40.592,M,2.9,0123*5F
$GPVTG,256.28,T,-383.62,M,001.880,N,003.482,K,D*00
$GPGGA,082423.55,5702.8218685,N,00949.8067996,E,2,4,1.8,-2.715,M,40.592,M,2.9,0123*5D
$GPVTG,257.74,T,-382.16,M,001.877,N,003.476,K,D*09
$GPGGA,082423.60,5702.8218589,N,00949.8067580,E,2,4,1.8,-2.717,M,40.592,M,2.9,0123*5D
$GPVTG,256.29,T,-383.61,M,001.856,N,003.437,K,D*07
$GPGGA,082423.65,5702.8218581,N,00949.8067235,E,2,4,1.8,-2.708,M,40.592,M,3.1,0123*5E
$GPVTG,257.04,T,-382.86,M,001.801,N,003.335,K,D*06
$GPGGA,082423.70,5702.8218509,N,00949.8066800,E,2,4,1.8,-2.710,M,40.592,M,3.1,0123*5E
$GPVTG,256.52,T,-383.38,M,001.791,N,003.317,K,D*06
$GPGGA,082423.75,5702.8218480,N,00949.8066363,E,2,4,1.8,-2.708,M,40.592,M,3.1,0123*5C
$GPVTG,257.98,T,-381.92,M,001.770,N,003.279,K,D*05
$GPGGA,082423.80,5702.8218400,N,00949.8065975,E,2,4,1.8,-2.709,M,40.592,M,3.1,0123*51
$GPVTG,256.81,T,-383.09,M,001.738,N,003.218,K,D*07
$GPGGA,082423.85,5702.8218381,N,00949.8065648,E,2,4,1.8,-2.689,M,40.592,M,3.3,0123*50
$GPVTG,257.88,T,-382.02,M,001.694,N,003.137,K,D*0C
$GPGGA,082423.90,5702.8218313,N,00949.8065230,E,2,4,1.8,-2.693,M,40.592,M,3.3,0123*5F
$GPVTG,257.22,T,-382.68,M,001.684,N,003.119,K,D*0D
$GPGGA,082423.95,5702.8218252,N,00949.8064838,E,2,4,1.8,-2.697,M,40.592,M,3.3,0123*59
$GPVTG,256.88,T,-383.02,M,001.658,N,003.070,K,D*0E
$GPGGA,082424.00,5702.8218211,N,00949.8064436,E,2,4,1.8,-2.697,M,40.592,M,3.3,0123*57
$GPVTG,257.46,T,-382.44,M,001.635,N,003.028,K,D*08
$GPGGA,082424.05,5702.8218187,N,00949.8063972,E,2,4,1.8,-2.686,M,40.592,M,2.2,0123*54
$GPVTG,259.87,T,-380.03,M,001.652,N,003.060,K,D*07
$GPGGA,082424.10,5702.8218144,N,00949.8063576,E,2,4,1.8,-2.686,M,40.592,M,2.2,0123*57
$GPVTG,260.09,T,-379.81,M,001.629,N,003.017,K,D*0B
$GPGGA,082424.15,5702.8218071,N,00949.8063178,E,2,4,1.8,-2.688,M,40.592,M,2.2,0123*51
$GPVTG,258.82,T,-381.08,M,001.619,N,002.998,K,D*09
$GPGGA,082424.20,5702.8218007,N,00949.8062805,E,2,4,1.8,-2.690,M,40.592,M,2.2,0123*5D
$GPVTG,257.92,T,-381.98,M,001.593,N,002.950,K,D*0B
$GPGGA,082424.25,5702.8217940,N,00949.8062387,E,2,4,1.8,-2.678,M,40.592,M,2.4,0123*5C
$GPVTG,257.24,T,-382.66,M,001.575,N,002.916,K,D*0E
$GPGGA,082424.30,5702.8217892,N,00949.8061968,E,2,4,1.8,-2.677,M,40.592,M,2.4,0123*51
$GPVTG,257.40,T,-382.50,M,001.581,N,002.928,K,D*0F
$GPGGA,082424.35,5702.8217868,N,00949.8061563,E,2,4,1.8,-2.674,M,40.592,M,2.4,0123*55
$GPVTG,258.68,T,-381.22,M,001.570,N,002.908,K,D*00
$GPGGA,082424.40,5702.8217824,N,00949.8061172,E,2,4,1.8,-2.675,M,40.592,M,2.4,0123*5A
$GPVTG,258.81,T,-381.09,M,001.558,N,002.886,K,D*03
$GPGGA,082424.45,5702.8217809,N,00949.8060812,E,2,4,1.8,-2.662,M,40.592,M,2.7,0123*5B
$GPVTG,258.94,T,-380.96,M,001.533,N,002.840,K,D*07
$GPGGA,082424.50,5702.8217780,N,00949.8060415,E,2,4,1.8,-2.656,M,40.592,M,2.7,0123*5D
$GPVTG,259.82,T,-380.08,M,001.528,N,002.830,K,D*0B
$GPGGA,082424.55,5702.8217751,N,00949.8060022,E,2,4,1.8,-2.656,M,40.592,M,2.7,0123*54
$GPVTG,260.54,T,-379.36,M,001.521,N,002.816,K,D*0C
$GPGGA,082424.60,5702.8217712,N,00949.8059640,E,2,4,1.8,-2.653,M,40.592,M,2.7,0123*58
$GPVTG,260.57,T,-379.33,M,001.511,N,002.799,K,D*01
$GPGGA,082424.65,5702.8217689,N,00949.8059238,E,2,4,1.8,-2.639,M,40.592,M,2.9,0123*57
$GPVTG,260.47,T,-379.43,M,001.508,N,002.794,K,D*02
$GPGGA,082424.70,5702.8217649,N,00949.8058850,E,2,4,1.8,-2.633,M,40.592,M,2.9,0123*50
$GPVTG,260.45,T,-379.45,M,001.507,N,002.791,K,D*0C
$GPGGA,082424.75,5702.8217624,N,00949.8058462,E,2,4,1.8,-2.628,M,40.592,M,2.9,0123*59
$GPVTG,261.18,T,-378.72,M,001.502,N,002.782,K,D*07
$GPGGA,082424.80,5702.8217601,N,00949.8058083,E,2,4,1.8,-2.625,M,40.592,M,2.9,0123*52
$GPVTG,261.89,T,-378.01,M,001.492,N,002.764,K,D*0B
$GPGGA,082424.85,5702.8217580,N,00949.8057589,E,2,4,1.8,-2.622,M,40.592,M,3.2,0123*50
$GPVTG,262.72,T,-377.18,M,001.523,N,002.821,K,D*0E
$GPGGA,082424.90,5702.8217526,N,00949.8057216,E,2,4,1.8,-2.620,M,40.592,M,3.2,0123*5B
$GPVTG,261.49,T,-378.41,M,001.516,N,002.808,K,D*0B
$GPGGA,082424.95,5702.8217507,N,00949.8056825,E,2,4,1.8,-2.615,M,40.592,M,3.2,0123*50
$GPVTG,262.33,T,-377.57,M,001.515,N,002.806,K,D*00
$GPGGA,082425.00,5702.8217473,N,00949.8056462,E,2,4,1.8,-2.614,M,40.592,M,3.2,0123*51
$GPVTG,262.19,T,-377.71,M,001.499,N,002.777,K,D*00
$GPGGA,082425.05,5702.8217443,N,00949.8056013,E,2,4,1.8,-2.610,M,40.592,M,2.1,0123*53
$GPVTG,262.98,T,-376.92,M,001.515,N,002.805,K,D*0A
$GPGGA,082425.10,5702.8217423,N,00949.8055605,E,2,4,1.8,-2.613,M,40.592,M,2.1,0123*50
$GPVTG,263.64,T,-376.26,M,001.528,N,002.829,K,D*07
$GPGGA,082425.15,5702.8217376,N,00949.8055224,E,2,4,1.8,-2.612,M,40.592,M,2.1,0123*54
$GPVTG,262.70,T,-377.20,M,001.526,N,002.827,K,D*04
$GPGGA,082425.20,5702.8217341,N,00949.8054842,E,2,4,1.8,-2.613,M,40.592,M,2.1,0123*5C
$GPVTG,262.46,T,-377.44,M,001.523,N,002.821,K,D*00
$GPGGA,082425.25,5702.8217319,N,00949.8054370,E,2,4,1.8,-2.601,M,40.592,M,2.4,0123*58
$GPVTG,264.46,T,-375.44,M,001.562,N,002.893,K,D*08
$GPGGA,082425.30,5702.8217294,N,00949.8053965,E,2,4,1.8,-2.600,M,40.592,M,2.4,0123*50
$GPVTG,264.59,T,-375.31,M,001.571,N,002.909,K,D*04
$GPGGA,082425.35,5702.8217268,N,00949.8053567,E,2,4,1.8,-2.600,M,40.592,M,2.4,0123*58
$GPVTG,264.61,T,-375.29,M,001.574,N,002.916,K,D*0D
$GPGGA,082425.40,5702.8217252,N,00949.8053177,E,2,4,1.8,-2.600,M,40.592,M,2.4,0123*56
$GPVTG,265.07,T,-374.83,M,001.571,N,002.909,K,D*06
$GPGGA,082425.45,5702.8217194,N,00949.8052841,E,2,4,1.8,-2.577,M,40.592,M,2.6,0123*56
$GPVTG,261.96,T,-377.94,M,001.530,N,002.833,K,D*02
$GPGGA,082425.50,5702.8217182,N,00949.8052439,E,2,4,1.8,-2.574,M,40.592,M,2.6,0123*55
$GPVTG,262.96,T,-376.94,M,001.536,N,002.845,K,D*07
$GPGGA,082425.55,5702.8217148,N,00949.8052052,E,2,4,1.8,-2.574,M,40.592,M,2.6,0123*5F
$GPVTG,262.60,T,-377.30,M,001.535,N,002.843,K,D*04
$GPGGA,082425.60,5702.8217109,N,00949.8051667,E,2,4,1.8,-2.573,M,40.592,M,2.6,0123*58
$GPVTG,262.02,T,-377.88,M,001.535,N,002.843,K,D*03
$GPGGA,082425.65,5702.8217085,N,00949.8051196,E,2,4,1.8,-2.580,M,40.592,M,2.9,0123*52
$GPVTG,262.30,T,-377.60,M,001.545,N,002.861,K,D*03
$GPGGA,082425.70,5702.8217062,N,00949.8050804,E,2,4,1.8,-2.580,M,40.592,M,2.9,0123*5C
$GPVTG,262.63,T,-377.27,M,001.545,N,002.862,K,D*05
$GPGGA,082425.75,5702.8217067,N,00949.8050385,E,2,4,1.8,-2.579,M,40.592,M,2.9,0123*58
$GPVTG,264.37,T,-375.53,M,001.559,N,002.887,K,D*05
$GPGGA,082425.80,5702.8217036,N,00949.8049987,E,2,4,1.8,-2.578,M,40.592,M,2.9,0123*57
$GPVTG,264.08,T,-375.82,M,001.564,N,002.896,K,D*0B
$GPGGA,082425.85,5702.8217039,N,00949.8049620,E,2,4,1.8,-2.561,M,40.592,M,3.1,0123*5E
$GPVTG,264.75,T,-375.15,M,001.559,N,002.888,K,D*0E
$GPGGA,082425.90,5702.8216996,N,00949.8049250,E,2,4,1.8,-2.563,M,40.592,M,3.1,0123*56
$GPVTG,263.64,T,-376.26,M,001.546,N,002.864,K,D*06
$GPGGA,082425.95,5702.8216990,N,00949.8048865,E,2,4,1.8,-2.561,M,40.592,M,3.1,0123*5A
$GPVTG,264.56,T,-375.34,M,001.539,N,002.851,K,D*0E
$GPGGA,082426.00,5702.8216959,N,00949.8048466,E,2,4,1.8,-2.557,M,40.592,M,3.1,0123*5A
$GPVTG,264.18,T,-375.72,M,001.546,N,002.863,K,D*0F
$GPGGA,082426.05,5702.8216939,N,00949.8048058,E,2,4,1.8,-2.559,M,40.592,M,1.3,0123*5E
$GPVTG,263.67,T,-376.23,M,001.532,N,002.837,K,D*05
$GPGGA,082426.10,5702.8216922,N,00949.8047664,E,2,4,1.8,-2.556,M,40.592,M,1.3,0123*59
$GPVTG,264.07,T,-375.83,M,001.533,N,002.840,K,D*0C
$GPGGA,082426.15,5702.8216912,N,00949.8047284,E,2,4,1.8,-2.553,M,40.592,M,1.3,0123*50
$GPVTG,264.64,T,-375.26,M,001.527,N,002.827,K,D*02
$GPGGA,082426.20,5702.8216900,N,00949.8046894,E,2,4,1.8,-2.552,M,40.592,M,1.3,0123*5E
$GPVTG,265.12,T,-374.78,M,001.527,N,002.827,K,D*08
$GPGGA,082426.25,5702.8216916,N,00949.8046559,E,2,4,1.8,-2.549,M,40.592,M,1.6,0123*5F
$GPVTG,265.03,T,-374.87,M,001.511,N,002.798,K,D*06
$GPGGA,082426.30,5702.8216892,N,00949.8046142,E,2,4,1.8,-2.549,M,40.592,M,1.6,0123*58
$GPVTG,264.97,T,-374.93,M,001.529,N,002.832,K,D*0B
$GPGGA,082426.35,5702.8216878,N,00949.8045788,E,2,4,1.8,-2.550,M,40.592,M,1.6,0123*52
$GPVTG,265.21,T,-374.69,M,001.510,N,002.797,K,D*08
$GPGGA,082426.40,5702.8216867,N,00949.8045393,E,2,4,1.8,-2.550,M,40.592,M,1.6,0123*50
$GPVTG,265.58,T,-374.32,M,001.514,N,002.805,K,D*08
$GPGGA,082426.45,5702.8216801,N,00949.8044910,E,2,4,1.8,-2.544,M,40.592,M,1.8,0123*5E
$GPVTG,264.52,T,-375.38,M,001.514,N,002.803,K,D*0E
$GPGGA,082426.50,5702.8216786,N,00949.8044513,E,2,4,1.8,-2.538,M,40.592,M,1.8,0123*5E
$GPVTG,264.79,T,-375.11,M,001.519,N,002.813,K,D*00
$GPGGA,082426.55,5702.8216752,N,00949.8044155,E,2,4,1.8,-2.532,M,40.592,M,1.8,0123*5E
$GPVTG,264.29,T,-375.61,M,001.506,N,002.790,K,D*08
$GPGGA,082426.60,5702.8216713,N,00949.8043774,E,2,4,1.8,-2.532,M,40.592,M,1.8,0123*5F
$GPVTG,263.70,T,-376.20,M,001.506,N,002.789,K,D*0D
$GPGGA,082426.65,5702.8216756,N,00949.8043384,E,2,4,1.8,-2.546,M,40.592,M,2.0,0123*58
$GPVTG,264.40,T,-375.50,M,001.505,N,002.787,K,D*00
$GPGGA,082426.70,5702.8216761,N,00949.8042978,E,2,4,1.8,-2.544,M,40.592,M,2.0,0123*52
$GPVTG,265.39,T,-374.51,M,001.513,N,002.803,K,D*0B
$GPGGA,082426.75,5702.8216752,N,00949.8042564,E,2,4,1.8,-2.541,M,40.592,M,2.0,0123*53
$GPVTG,265.79,T,-374.11,M,001.525,N,002.824,K,D*0B
