$GPGGA,092826.30,5702.9505704,N,00949.2213826,E,2,4,4.1,-3.495,M,40.592,M,2.0,0123*5A
$GPVTG,059.13,T,-580.77,M,003.168,N,005.867,K,D*08
$GPGGA,092826.35,5702.9505917,N,00949.2214470,E,2,4,4.1,-3.502,M,40.592,M,2.0,0123*54
$GPVTG,060.28,T,-579.62,M,003.162,N,005.856,K,D*00
$GPGGA,092826.40,5702.9506113,N,00949.2215014,E,2,4,4.1,-3.501,M,40.592,M,2.0,0123*5D
$GPVTG,061.00,T,-578.90,M,003.106,N,005.752,K,D*0E
$GPGGA,092826.45,5702.9506054,N,00949.2215586,E,2,4,4.1,-3.505,M,40.592,M,2.2,0123*52
$GPVTG,063.20,T,-576.70,M,003.031,N,005.613,K,D*0F
$GPGGA,092826.50,5702.9506216,N,00949.2216181,E,2,4,4.1,-3.506,M,40.592,M,2.2,0123*51
$GPVTG,064.35,T,-575.55,M,002.993,N,005.543,K,D*0E
$GPGGA,092826.55,5702.9506371,N,00949.2216795,E,2,4,4.1,-3.506,M,40.592,M,2.2,0123*57
$GPVTG,065.53,T,-574.37,M,002.965,N,005.491,K,D*0D
$GPGGA,092826.60,5702.9506499,N,00949.2217412,E,2,4,4.1,-3.504,M,40.592,M,2.2,0123*5F
$GPVTG,066.87,T,-573.03,M,002.934,N,005.434,K,D*0C
$GPGGA,092826.65,5702.9506425,N,00949.2217934,E,2,4,4.1,-3.555,M,40.592,M,2.4,0123*56
$GPVTG,069.43,T,-570.47,M,002.885,N,005.344,K,D*03
$GPGGA,092826.70,5702.9506549,N,00949.2218549,E,2,4,4.1,-3.561,M,40.592,M,2.4,0123*57
$GPVTG,070.79,T,-569.11,M,002.873,N,005.321,K,D*03
$GPGGA,092826.75,5702.9506666,N,00949.2219179,E,2,4,4.1,-3.569,M,40.592,M,2.4,0123*52
$GPVTG,072.12,T,-567.78,M,002.864,N,005.304,K,D*0C
$GPGGA,092826.80,5702.9506770,N,00949.2219816,E,2,4,4.1,-3.576,M,40.592,M,2.4,0123*50
$GPVTG,073.49,T,-566.41,M,002.855,N,005.288,K,D*0F
$GPGGA,092826.85,5702.9506849,N,00949.2220300,E,2,4,4.1,-3.579,M,40.592,M,2.7,0123*5A
$GPVTG,075.55,T,-564.35,M,002.742,N,005.079,K,D*00
$GPGGA,092826.90,5702.9506926,N,00949.2220866,E,2,4,4.1,-3.586,M,40.592,M,2.7,0123*5D
$GPVTG,076.77,T,-563.13,M,002.679,N,004.962,K,D*0B
$GPGGA,092826.95,5702.9506996,N,00949.2221549,E,2,4,4.1,-3.591,M,40.592,M,2.7,0123*54
$GPVTG,078.36,T,-561.54,M,002.692,N,004.986,K,D*0E
$GPGGA,092827.00,5702.9507047,N,00949.2222146,E,2,4,4.1,-3.595,M,40.592,M,2.7,0123*51
$GPVTG,079.80,T,-560.10,M,002.654,N,004.914,K,D*02
$GPGGA,092827.05,5702.9507021,N,00949.2222698,E,2,4,4.1,-3.594,M,40.592,M,1.6,0123*53
$GPVTG,082.63,T,-557.27,M,002.601,N,004.818,K,D*06
$GPGGA,092827.10,5702.9507034,N,00949.2223221,E,2,4,4.1,-3.595,M,40.592,M,1.6,0123*55
$GPVTG,084.33,T,-555.57,M,002.530,N,004.685,K,D*0B
$GPGGA,092827.15,5702.9507027,N,00949.2223757,E,2,4,4.1,-3.594,M,40.592,M,1.6,0123*57
$GPVTG,086.21,T,-553.69,M,002.473,N,004.581,K,D*00
$GPGGA,092827.20,5702.9507022,N,00949.2224282,E,2,4,4.1,-3.594,M,40.592,M,1.6,0123*5E
$GPVTG,088.00,T,-551.90,M,002.418,N,004.479,K,D*02
$GPGGA,092827.25,5702.9507006,N,00949.2224712,E,2,4,4.1,-3.635,M,40.592,M,1.9,0123*56
$GPVTG,091.28,T,-548.62,M,002.387,N,004.422,K,D*0A
$GPGGA,092827.30,5702.9506983,N,00949.2225238,E,2,4,4.1,-3.645,M,40.592,M,1.9,0123*5C
$GPVTG,093.16,T,-546.74,M,002.365,N,004.381,K,D*0E
$GPGGA,092827.35,5702.9506936,N,00949.2225699,E,2,4,4.1,-3.657,M,40.592,M,1.9,0123*5B
$GPVTG,095.27,T,-544.63,M,002.326,N,004.308,K,D*08
$GPGGA,092827.40,5702.9506881,N,00949.2226184,E,2,4,4.1,-3.666,M,40.592,M,1.9,0123*5E
$GPVTG,097.37,T,-542.53,M,002.297,N,004.254,K,D*0D
$GPGGA,092827.45,5702.9506746,N,00949.2226631,E,2,4,4.1,-3.652,M,40.592,M,2.1,0123*5A
$GPVTG,101.28,T,-538.62,M,002.271,N,004.205,K,D*0E
$GPGGA,092827.50,5702.9506655,N,00949.2227114,E,2,4,4.1,-3.653,M,40.592,M,2.1,0123*5D
$GPVTG,103.81,T,-536.09,M,002.231,N,004.131,K,D*0C
$GPGGA,092827.55,5702.9506558,N,00949.2227555,E,2,4,4.1,-3.651,M,40.592,M,2.1,0123*55
$GPVTG,106.45,T,-533.45,M,002.179,N,004.035,K,D*06
$GPGGA,092827.60,5702.9506433,N,00949.2227948,E,2,4,4.1,-3.653,M,40.592,M,2.1,0123*5D
$GPVTG,109.56,T,-530.34,M,002.116,N,003.919,K,D*07
$GPGGA,092827.65,5702.9506267,N,00949.2228358,E,2,4,4.1,-3.668,M,40.592,M,2.3,0123*51
$GPVTG,113.70,T,-526.20,M,002.128,N,003.941,K,D*0A
$GPGGA,092827.70,5702.9506116,N,00949.2228767,E,2,4,4.1,-3.677,M,40.592,M,2.3,0123*56
$GPVTG,116.80,T,-523.10,M,002.105,N,003.898,K,D*0C
$GPGGA,092827.75,5702.9505956,N,00949.2229180,E,2,4,4.1,-3.683,M,40.592,M,2.3,0123*59
$GPVTG,119.75,T,-520.15,M,002.095,N,003.879,K,D*08
$GPGGA,092827.80,5702.9505797,N,00949.2229505,E,2,4,4.1,-3.682,M,40.592,M,2.3,0123*58
$GPVTG,123.17,T,-516.73,M,002.053,N,003.802,K,D*06
$GPGGA,092827.85,5702.9505553,N,00949.2229805,E,2,4,4.1,-3.675,M,40.592,M,2.6,0123*57
$GPVTG,128.06,T,-511.84,M,002.066,N,003.826,K,D*02
$GPGGA,092827.90,5702.9505348,N,00949.2230126,E,2,4,4.1,-3.678,M,40.592,M,2.6,0123*52
$GPVTG,131.55,T,-508.35,M,002.063,N,003.820,K,D*0D
$GPGGA,092827.95,5702.9505138,N,00949.2230437,E,2,4,4.1,-3.680,M,40.592,M,2.6,0123*50
$GPVTG,134.87,T,-505.03,M,002.066,N,003.826,K,D*0C
$GPGGA,092828.00,5702.9504905,N,00949.2230775,E,2,4,4.1,-3.678,M,40.592,M,2.6,0123*56
$GPVTG,137.79,T,-502.11,M,002.094,N,003.878,K,D*0C
$GPGGA,092828.05,5702.9504650,N,00949.2230933,E,2,4,4.1,-3.693,M,40.592,M,2.8,0123*5B
$GPVTG,142.51,T,-497.39,M,002.127,N,003.940,K,D*00
$GPGGA,092828.10,5702.9504415,N,00949.2231218,E,2,4,4.1,-3.693,M,40.592,M,2.8,0123*5F
$GPVTG,145.27,T,-494.63,M,002.155,N,003.991,K,D*03
$GPGGA,092828.15,5702.9504151,N,00949.2231558,E,2,4,4.1,-3.699,M,40.592,M,2.8,0123*56
$GPVTG,147.29,T,-492.61,M,002.213,N,004.098,K,D*0D
$GPGGA,092828.20,5702.9503876,N,00949.2231778,E,2,4,4.1,-3.701,M,40.592,M,2.8,0123*5B
$GPVTG,150.40,T,-489.50,M,002.245,N,004.157,K,D*0D
$GPGGA,092828.25,5702.9503683,N,00949.2231944,E,2,4,4.1,-3.702,M,40.592,M,3.0,0123*51
$GPVTG,153.75,T,-486.15,M,002.300,N,004.259,K,D*0B
$GPGGA,092828.30,5702.9503381,N,00949.2232105,E,2,4,4.1,-3.707,M,40.592,M,3.0,0123*59
$GPVTG,156.91,T,-482.99,M,002.342,N,004.338,K,D*04
$GPGGA,092828.35,5702.9503072,N,00949.2232255,E,2,4,4.1,-3.712,M,40.592,M,3.0,0123*51
$GPVTG,159.81,T,-480.09,M,002.390,N,004.426,K,D*06
$GPGGA,092828.40,5702.9502748,N,00949.2232453,E,2,4,4.1,-3.716,M,40.592,M,3.0,0123*58
$GPVTG,161.87,T,-478.03,M,002.455,N,004.546,K,D*0F
$GPGGA,092828.45,5702.9502356,N,00949.2232587,E,2,4,4.1,-3.713,M,40.592,M,3.2,0123*59
$GPVTG,164.31,T,-475.59,M,002.534,N,004.693,K,D*08
$GPGGA,092828.50,5702.9502022,N,00949.2232681,E,2,4,4.1,-3.720,M,40.592,M,3.2,0123*58
$GPVTG,166.89,T,-473.01,M,002.589,N,004.795,K,D*03
$GPGGA,092828.55,5702.9501655,N,00949.2232771,E,2,4,4.1,-3.723,M,40.592,M,3.2,0123*55
$GPVTG,169.29,T,-470.61,M,002.661,N,004.928,K,D*0E
$GPGGA,092828.60,5702.9501285,N,00949.2232790,E,2,4,4.1,-3.722,M,40.592,M,3.2,0123*54
$GPVTG,172.28,T,-467.62,M,002.728,N,005.051,K,D*0A
$GPGGA,092828.65,5702.9501030,N,00949.2232740,E,2,4,4.1,-3.710,M,40.592,M,3.4,0123*57
$GPVTG,175.57,T,-464.33,M,002.795,N,005.177,K,D*01
$GPGGA,092828.70,5702.9500645,N,00949.2232780,E,2,4,4.1,-3.711,M,40.592,M,3.4,0123*5B
$GPVTG,177.47,T,-462.43,M,002.873,N,005.321,K,D*05
$GPGGA,092828.75,5702.9500257,N,00949.2232794,E,2,4,4.1,-3.717,M,40.592,M,3.4,0123*5A
$GPVTG,179.33,T,-460.57,M,002.948,N,005.460,K,D*04
$GPGGA,092828.80,5702.9499850,N,00949.2232717,E,2,4,4.1,-3.719,M,40.592,M,3.4,0123*59
$GPVTG,182.26,T,-457.64,M,003.033,N,005.617,K,D*06
$GPGGA,092828.85,5702.9499605,N,00949.2232602,E,2,4,4.1,-3.720,M,40.592,M,3.6,0123*5F
$GPVTG,184.82,T,-455.08,M,003.092,N,005.727,K,D*0F
$GPGGA,092828.90,5702.9499171,N,00949.2232510,E,2,4,4.1,-3.724,M,40.592,M,3.6,0123*5B
$GPVTG,186.77,T,-453.13,M,003.188,N,005.904,K,D*0E
$GPGGA,092828.95,5702.9498755,N,00949.2232405,E,2,4,4.1,-3.726,M,40.592,M,3.6,0123*58
$GPVTG,188.39,T,-451.51,M,003.263,N,006.044,K,D*06
$GPGGA,092829.00,5702.9498328,N,00949.2232206,E,2,4,4.1,-3.729,M,40.592,M,3.6,0123*51
$GPVTG,191.15,T,-448.75,M,003.355,N,006.213,K,D*0A
$GPGGA,092829.05,5702.9498062,N,00949.2232067,E,2,4,4.1,-3.717,M,40.592,M,1.9,0123*5C
$GPVTG,192.13,T,-447.77,M,003.374,N,006.249,K,D*0E
$GPGGA,092829.10,5702.9497613,N,00949.2231872,E,2,4,4.1,-3.717,M,40.592,M,1.9,0123*58
$GPVTG,193.66,T,-446.24,M,003.458,N,006.404,K,D*0C
$GPGGA,092829.15,5702.9497159,N,00949.2231629,E,2,4,4.1,-3.719,M,40.592,M,1.9,0123*5A
$GPVTG,195.49,T,-444.41,M,003.547,N,006.570,K,D*0B
$GPGGA,092829.20,5702.9496711,N,00949.2231357,E,2,4,4.1,-3.721,M,40.592,M,1.9,0123*50
$GPVTG,197.25,T,-442.65,M,003.626,N,006.716,K,D*05
$GPGGA,092829.25,5702.9496574,N,00949.2231030,E,2,4,4.1,-3.729,M,40.592,M,2.2,0123*56
$GPVTG,199.58,T,-440.32,M,003.626,N,006.715,K,D*02
$GPGGA,092829.30,5702.9496118,N,00949.2230713,E,2,4,4.1,-3.731,M,40.592,M,2.2,0123*52
$GPVTG,200.99,T,-438.91,M,003.698,N,006.849,K,D*09
$GPGGA,092829.35,5702.9495680,N,00949.2230345,E,2,4,4.1,-3.735,M,40.592,M,2.2,0123*51
$GPVTG,202.79,T,-437.11,M,003.762,N,006.968,K,D*04
$GPGGA,092829.40,5702.9495224,N,00949.2229962,E,2,4,4.1,-3.738,M,40.592,M,2.2,0123*53
$GPVTG,204.22,T,-435.68,M,003.834,N,007.100,K,D*0B
$GPGGA,092829.45,5702.9495127,N,00949.2229535,E,2,4,4.1,-3.733,M,40.592,M,2.4,0123*55
$GPVTG,206.37,T,-433.53,M,003.796,N,007.029,K,D*0E
$GPGGA,092829.50,5702.9494671,N,00949.2229112,E,2,4,4.1,-3.739,M,40.592,M,2.4,0123*5F
$GPVTG,207.50,T,-432.40,M,003.857,N,007.142,K,D*03
$GPGGA,092829.55,5702.9494237,N,00949.2228642,E,2,4,4.1,-3.741,M,40.592,M,2.4,0123*50
$GPVTG,209.03,T,-430.87,M,003.910,N,007.242,K,D*03
$GPGGA,092829.60,5702.9493785,N,00949.2228133,E,2,4,4.1,-3.745,M,40.592,M,2.4,0123*58
$GPVTG,210.52,T,-429.38,M,003.984,N,007.379,K,D*07
$GPGGA,092829.65,5702.9493677,N,00949.2227647,E,2,4,4.1,-3.729,M,40.592,M,2.7,0123*53
$GPVTG,212.28,T,-427.62,M,003.942,N,007.301,K,D*0C
$GPGGA,092829.70,5702.9493239,N,00949.2227178,E,2,4,4.1,-3.731,M,40.592,M,2.7,0123*5B
$GPVTG,212.73,T,-427.17,M,003.960,N,007.334,K,D*06
$GPGGA,092829.75,5702.9492799,N,00949.2226595,E,2,4,4.1,-3.728,M,40.592,M,2.7,0123*5E
$GPVTG,214.24,T,-425.66,M,004.031,N,007.465,K,D*0F
$GPGGA,092829.80,5702.9492345,N,00949.2225992,E,2,4,4.1,-3.728,M,40.592,M,2.7,0123*59
$GPVTG,215.49,T,-424.41,M,004.110,N,007.611,K,D*02
$GPGGA,092829.85,5702.9492181,N,00949.2225416,E,2,4,4.1,-3.726,M,40.592,M,2.9,0123*57
$GPVTG,217.23,T,-422.67,M,004.070,N,007.537,K,D*0E
$GPGGA,092829.90,5702.9491753,N,00949.2224790,E,2,4,4.1,-3.728,M,40.592,M,2.9,0123*5B
$GPVTG,218.34,T,-421.56,M,004.121,N,007.632,K,D*05
$GPGGA,092829.95,5702.9491331,N,00949.2224178,E,2,4,4.1,-3.728,M,40.592,M,2.9,0123*5E
$GPVTG,219.13,T,-420.77,M,004.154,N,007.693,K,D*0A
$GPGGA,092830.00,5702.9490911,N,00949.2223504,E,2,4,4.1,-3.729,M,40.592,M,2.9,0123*5A
$GPVTG,220.24,T,-419.66,M,004.207,N,007.792,K,D*0B
$GPGGA,092830.05,5702.9490979,N,00949.2222730,E,2,4,4.1,-3.730,M,40.592,M,1.7,0123*50
$GPVTG,222.99,T,-416.91,M,004.189,N,007.758,K,D*0B
$GPGGA,092830.10,5702.9490578,N,00949.2221988,E,2,4,4.1,-3.733,M,40.592,M,1.7,0123*54
$GPVTG,224.21,T,-415.69,M,004.247,N,007.865,K,D*0A
$GPGGA,092830.15,5702.9490197,N,00949.2221230,E,2,4,4.1,-3.733,M,40.592,M,1.7,0123*5C
$GPVTG,225.44,T,-414.46,M,004.294,N,007.952,K,D*0F
$GPGGA,092830.20,5702.9489799,N,00949.2220474,E,2,4,4.1,-3.729,M,40.592,M,1.7,0123*56
$GPVTG,226.33,T,-413.57,M,004.341,N,008.039,K,D*09
$GPGGA,092830.25,5702.9489769,N,00949.2219712,E,2,4,4.1,-3.702,M,40.592,M,2.0,0123*58
$GPVTG,228.51,T,-411.39,M,004.287,N,007.939,K,D*04
$GPGGA,092830.30,5702.9489401,N,00949.2218879,E,2,4,4.1,-3.700,M,40.592,M,2.0,0123*50
$GPVTG,229.70,T,-410.20,M,004.343,N,008.043,K,D*0D
$GPGGA,092830.35,5702.9489037,N,00949.2218038,E,2,4,4.1,-3.697,M,40.592,M,2.0,0123*56
$GPVTG,230.76,T,-409.14,M,004.394,N,008.138,K,D*0B
$GPGGA,092830.40,5702.9488677,N,00949.2217216,E,2,4,4.1,-3.701,M,40.592,M,2.0,0123*58
$GPVTG,231.57,T,-408.33,M,004.427,N,008.199,K,D*09
$GPGGA,092830.45,5702.9488772,N,00949.2216335,E,2,4,4.1,-3.727,M,40.592,M,2.2,0123*5E
$GPVTG,233.88,T,-406.02,M,004.364,N,008.081,K,D*0D
$GPGGA,092830.50,5702.9488462,N,00949.2215487,E,2,4,4.1,-3.730,M,40.592,M,2.2,0123*53
$GPVTG,234.86,T,-405.04,M,004.372,N,008.097,K,D*01
$GPGGA,092830.55,5702.9488163,N,00949.2214602,E,2,4,4.1,-3.739,M,40.592,M,2.2,0123*55
$GPVTG,235.95,T,-403.95,M,004.397,N,008.143,K,D*0F
$GPGGA,092830.60,5702.9487871,N,00949.2213690,E,2,4,4.1,-3.745,M,40.592,M,2.2,0123*51
$GPVTG,237.06,T,-402.84,M,004.429,N,008.202,K,D*02
$GPGGA,092830.65,5702.9487821,N,00949.2212628,E,2,4,4.1,-3.701,M,40.592,M,2.4,0123*55
$GPVTG,238.07,T,-401.83,M,004.467,N,008.273,K,D*04
$GPGGA,092830.70,5702.9487580,N,00949.2211690,E,2,4,4.1,-3.699,M,40.592,M,2.4,0123*57
$GPVTG,239.11,T,-400.79,M,004.497,N,008.329,K,D*07
$GPGGA,092830.75,5702.9487386,N,00949.2210738,E,2,4,4.1,-3.696,M,40.592,M,2.4,0123*5F
$GPVTG,240.28,T,-399.62,M,004.517,N,008.366,K,D*0C
$GPGGA,092830.80,5702.9487205,N,00949.2209728,E,2,4,4.1,-3.695,M,40.592,M,2.4,0123*55
$GPVTG,241.61,T,-398.29,M,004.556,N,008.438,K,D*07
$GPGGA,092830.85,5702.9487053,N,00949.2208732,E,2,4,4.1,-3.706,M,40.592,M,2.7,0123*53
$GPVTG,242.74,T,-397.16,M,004.586,N,008.493,K,D*0F
$GPGGA,092830.90,5702.9486928,N,00949.2207774,E,2,4,4.1,-3.708,M,40.592,M,2.7,0123*50
$GPVTG,243.93,T,-395.97,M,004.554,N,008.434,K,D*0E
$GPGGA,092830.95,5702.9486772,N,00949.2206783,E,2,4,4.1,-3.710,M,40.592,M,2.7,0123*54
$GPVTG,245.04,T,-394.86,M,004.538,N,008.405,K,D*0F
$GPGGA,092831.00,5702.9486613,N,00949.2205741,E,2,4,4.1,-3.712,M,40.592,M,2.7,0123*50
$GPVTG,246.27,T,-393.63,M,004.553,N,008.431,K,D*0B
$GPGGA,092831.05,5702.9486617,N,00949.2204709,E,2,4,4.1,-3.709,M,40.592,M,1.6,0123*54
$GPVTG,248.07,T,-391.83,M,004.514,N,008.359,K,D*01
$GPGGA,092831.10,5702.9486494,N,00949.2203671,E,2,4,4.1,-3.710,M,40.592,M,1.6,0123*58
$GPVTG,249.39,T,-390.51,M,004.497,N,008.328,K,D*0F
$GPGGA,092831.15,5702.9486390,N,00949.2202653,E,2,4,4.1,-3.711,M,40.592,M,1.6,0123*5E
$GPVTG,250.66,T,-389.24,M,004.448,N,008.238,K,D*05
$GPGGA,092831.20,5702.9486322,N,00949.2201634,E,2,4,4.1,-3.711,M,40.592,M,1.6,0123*53
$GPVTG,252.15,T,-387.75,M,004.392,N,008.134,K,D*06
$GPGGA,092831.25,5702.9486434,N,00949.2200507,E,2,4,4.1,-3.698,M,40.592,M,1.9,0123*5B
$GPVTG,255.12,T,-384.78,M,004.409,N,008.165,K,D*09
$GPGGA,092831.30,5702.9486341,N,00949.2199455,E,2,4,4.1,-3.699,M,40.592,M,1.9,0123*5E
$GPVTG,256.45,T,-383.45,M,004.383,N,008.117,K,D*01
$GPGGA,092831.35,5702.9486292,N,00949.2198403,E,2,4,4.1,-3.703,M,40.592,M,1.9,0123*54
$GPVTG,258.08,T,-381.82,M,004.350,N,008.056,K,D*05
$GPGGA,092831.40,5702.9486414,N,00949.2197299,E,2,4,4.1,-3.705,M,40.592,M,1.9,0123*52
$GPVTG,261.20,T,-378.70,M,004.355,N,008.065,K,D*0B
$GPGGA,092831.45,5702.9486177,N,00949.2196161,E,2,4,4.1,-3.663,M,40.592,M,2.1,0123*58
$GPVTG,263.24,T,-376.66,M,004.409,N,008.165,K,D*0B
$GPGGA,092831.50,5702.9486106,N,00949.2195156,E,2,4,4.1,-3.661,M,40.592,M,2.1,0123*5F
$GPVTG,264.25,T,-375.65,M,004.314,N,007.990,K,D*0B
$GPGGA,092831.55,5702.9486172,N,00949.2194024,E,2,4,4.1,-3.658,M,40.592,M,2.1,0123*56
$GPVTG,266.60,T,-373.30,M,004.362,N,008.079,K,D*0E
$GPGGA,092831.60,5702.9486114,N,00949.2192929,E,2,4,4.1,-3.656,M,40.592,M,2.1,0123*5C
$GPVTG,267.60,T,-372.30,M,004.367,N,008.087,K,D*0A
$GPGGA,092831.65,5702.9486286,N,00949.2191840,E,2,4,4.1,-3.659,M,40.592,M,2.3,0123*51
$GPVTG,269.51,T,-370.39,M,004.354,N,008.064,K,D*00
$GPGGA,092831.70,5702.9486403,N,00949.2190752,E,2,4,4.1,-3.658,M,40.592,M,2.3,0123*52
$GPVTG,271.91,T,-367.99,M,004.353,N,008.062,K,D*08
$GPGGA,092831.75,5702.9486481,N,00949.2189706,E,2,4,4.1,-3.661,M,40.592,M,2.3,0123*5E
$GPVTG,273.80,T,-366.10,M,004.309,N,007.980,K,D*0F
$GPGGA,092831.80,5702.9486695,N,00949.2188593,E,2,4,4.1,-3.661,M,40.592,M,2.3,0123*5C
$GPVTG,276.77,T,-363.13,M,004.356,N,008.067,K,D*01
$GPGGA,092831.85,5702.9486672,N,00949.2187510,E,2,4,4.1,-3.631,M,40.592,M,2.6,0123*54
$GPVTG,279.18,T,-360.72,M,004.378,N,008.109,K,D*06
$GPGGA,092831.90,5702.9486793,N,00949.2186479,E,2,4,4.1,-3.630,M,40.592,M,2.6,0123*50
$GPVTG,281.02,T,-358.88,M,004.337,N,008.032,K,D*06
$GPGGA,092831.95,5702.9486833,N,00949.2185407,E,2,4,4.1,-3.630,M,40.592,M,2.6,0123*5A
$GPVTG,281.79,T,-358.11,M,004.336,N,008.030,K,D*09
$GPGGA,092832.00,5702.9486992,N,00949.2184310,E,2,4,4.1,-3.627,M,40.592,M,2.6,0123*59
$GPVTG,283.51,T,-356.39,M,004.381,N,008.113,K,D*09
$GPGGA,092832.05,5702.9487303,N,00949.2183250,E,2,4,4.1,-3.632,M,40.592,M,2.8,0123*57
$GPVTG,285.92,T,-353.98,M,004.400,N,008.150,K,D*07
$GPGGA,092832.10,5702.9487500,N,00949.2182201,E,2,4,4.1,-3.637,M,40.592,M,2.8,0123*56
$GPVTG,287.77,T,-352.13,M,004.408,N,008.163,K,D*04
$GPGGA,092832.15,5702.9487808,N,00949.2181123,E,2,4,4.1,-3.635,M,40.592,M,2.8,0123*54
$GPVTG,290.34,T,-349.56,M,004.480,N,008.296,K,D*07
$GPGGA,092832.20,5702.9488066,N,00949.2180135,E,2,4,4.1,-3.639,M,40.592,M,2.8,0123*57
$GPVTG,292.61,T,-347.29,M,004.450,N,008.241,K,D*04
$GPGGA,092832.25,5702.9488089,N,00949.2179112,E,2,4,4.1,-3.612,M,40.592,M,3.0,0123*50
$GPVTG,294.32,T,-345.58,M,004.494,N,008.323,K,D*0D
$GPGGA,092832.30,5702.9488349,N,00949.2178090,E,2,4,4.1,-3.611,M,40.592,M,3.0,0123*52
$GPVTG,295.96,T,-343.94,M,004.513,N,008.358,K,D*06
$GPGGA,092832.35,5702.9488595,N,00949.2177051,E,2,4,4.1,-3.611,M,40.592,M,3.0,0123*52
$GPVTG,297.13,T,-342.77,M,004.548,N,008.423,K,D*00
$GPGGA,092832.40,5702.9488808,N,00949.2176091,E,2,4,4.1,-3.611,M,40.592,M,3.0,0123*54
$GPVTG,298.32,T,-341.58,M,004.494,N,008.322,K,D*04
$GPGGA,092832.45,5702.9488941,N,00949.2175191,E,2,4,4.1,-3.588,M,40.592,M,3.2,0123*5E
$GPVTG,300.13,T,-339.77,M,004.472,N,008.281,K,D*05
$GPGGA,092832.50,5702.9489215,N,00949.2174198,E,1,3,4.1,-3.589,M,40.592,M,,*73
$GPVTG,301.46,T,-338.44,M,004.505,N,008.343,K,A*0E
$GPGGA,092832.55,5702.9489575,N,00949.2173185,E,1,3,4.1,-3.589,M,40.592,M,,*7C
$GPVTG,,T,,M,,N,,K,A*23
$GPGGA,092832.60,5702.9489706,N,00949.2173189,E,1,3,4.1,-3.587,M,40.592,M,,*7E
$GPVTG,,T,,M,,N,,K,A*23
$GPGGA,092832.65,5702.9489498,N,00949.2171386,E,1,3,4.1,-3.546,M,40.592,M,,*7D
$GPVTG,,T,,M,,N,,K,A*23
$GPGGA,092832.70,5702.9489366,N,00949.2171393,E,1,3,4.1,-3.545,M,40.592,M,,*78
$GPVTG,,T,,M,,N,,K,A*23
$GPGGA,092832.75,5702.9489123,N,00949.2171512,E,1,3,4.1,-3.549,M,40.592,M,,*7D
$GPVTG,,T,,M,,N,,K,A*23
$GPGGA,092832.80,5702.9489635,N,00949.2171379,E,1,3,4.1,-3.541,M,40.592,M,,*74
$GPVTG,,T,,M,,N,,K,A*23
$GPGGA,092832.85,5702.9490729,N,00949.2167799,E,1,3,4.1,-3.537,M,40.592,M,,*79
$GPVTG,,T,,M,,N,,K,A*23
$GPGGA,092832.90,5702.9490976,N,00949.2167722,E,1,3,4.1,-3.535,M,40.592,M,,*7B
$GPVTG,,T,,M,,N,,K,A*23
$GPGGA,092832.95,5702.9490713,N,00949.2167748,E,1,3,4.1,-3.539,M,40.592,M,,*73
$GPVTG,,T,,M,,N,,K,A*23
$GPGGA,092833.00,5702.9490314,N,00949.2167961,E,1,3,4.1,-3.547,M,40.592,M,,*71
$GPVTG,,T,,M,,N,,K,A*23
$GPGGA,092833.05,5702.9491999,N,00949.2164505,E,1,3,4.1,-3.536,M,40.592,M,,*71
$GPVTG,,T,,M,,N,,K,A*23
$GPGGA,092833.10,5702.9492180,N,00949.2164470,E,1,3,4.1,-3.535,M,40.592,M,,*76
$GPVTG,,T,,M,,N,,K,A*23
$GPGGA,092833.15,5702.9492144,N,00949.2164483,E,1,3,4.1,-3.537,M,40.592,M,,*75
$GPVTG,,T,,M,,N,,K,A*23
$GPGGA,092833.20,5702.9492070,N,00949.2164559,E,1,3,4.1,-3.536,M,40.592,M,,*72
$GPVTG,,T,,M,,N,,K,A*23
$GPGGA,092833.25,5702.9493951,N,00949.2161478,E,1,3,4.1,-3.528,M,40.592,M,,*74
$GPVTG,,T,,M,,N,,K,A*23
$GPGGA,092833.30,5702.9493991,N,00949.2161530,E,1,3,4.1,-3.525,M,40.592,M,,*7C
$GPVTG,,T,,M,,N,,K,A*23
$GPGGA,092833.35,5702.9494117,N,00949.2161561,E,1,3,4.1,-3.524,M,40.592,M,,*7D
$GPVTG,,T,,M,,N,,K,A*23
$GPGGA,092833.40,5702.9494067,N,00949.2161561,E,1,3,4.1,-3.524,M,40.592,M,,*79
$GPVTG,,T,,M,,N,,K,A*23
$GPGGA,092833.45,5702.9496120,N,00949.2158873,E,1,3,4.1,-3.514,M,40.592,M,,*7B
$GPVTG,,T,,M,,N,,K,A*23
$GPGGA,092833.50,5702.9496145,N,00949.2158864,E,1,3,4.1,-3.514,M,40.592,M,,*7A
$GPVTG,,T,,M,,N,,K,A*23
$GPGGA,092833.55,5702.9496196,N,00949.2158904,E,1,3,4.1,-3.513,M,40.592,M,,*71
$GPVTG,,T,,M,,N,,K,A*23
$GPGGA,092833.60,5702.9496029,N,00949.2159026,E,1,3,4.1,-3.511,M,40.592,M,,*78
$GPVTG,,T,,M,,N,,K,A*23
$GPGGA,092833.65,5702.9498819,N,00949.2156625,E,2,4,4.1,-3.512,M,40.592,M,2.7,0123*5E
$GPVTG,,T,,M,,N,,K,D*26
$GPGGA,092833.70,5702.9498861,N,00949.2156627,E,2,4,4.1,-3.511,M,40.592,M,2.7,0123*54
$GPVTG,,T,,M,,N,,K,D*26
$GPGGA,092833.75,5702.9498332,N,00949.2156957,E,2,4,4.1,-3.528,M,40.592,M,2.7,0123*5E
$GPVTG,,T,,M,,N,,K,D*26
$GPGGA,092833.80,5702.9494351,N,00949.2158577,E,2,4,4.1,-3.699,M,40.592,M,2.7,0123*54
$GPVTG,,T,,M,,N,,K,D*26
$GPGGA,092833.85,5702.9501382,N,00949.2154757,E,2,4,4.1,-3.517,M,40.592,M,2.9,0123*55
$GPVTG,339.78,T,-300.12,M,004.401,N,008.150,K,D*00
$GPGGA,092833.90,5702.9501969,N,00949.2154353,E,2,4,4.1,-3.516,M,40.592,M,2.9,0123*5F
$GPVTG,339.48,T,-300.42,M,004.530,N,008.390,K,D*0B
$GPGGA,092833.95,5702.9502533,N,00949.2154064,E,2,4,4.1,-3.519,M,40.592,M,2.9,0123*52
$GPVTG,347.09,T,-292.81,M,004.128,N,007.645,K,D*0D
$GPGGA,092834.00,5702.9503057,N,00949.2153730,E,2,4,4.1,-3.519,M,40.592,M,2.9,0123*5E
$GPVTG,342.88,T,-297.02,M,003.880,N,007.186,K,D*0B
$GPGGA,092834.05,5702.9504058,N,00949.2153389,E,2,4,4.1,-3.513,M,40.592,M,1.7,0123*52
$GPVTG,344.14,T,-295.76,M,003.698,N,006.849,K,D*05
$GPGGA,092834.10,5702.9504583,N,00949.2153134,E,2,4,4.1,-3.516,M,40.592,M,1.7,0123*54
$GPVTG,345.65,T,-294.25,M,003.703,N,006.857,K,D*09
$GPGGA,092834.15,5702.9505104,N,00949.2152945,E,2,4,4.1,-3.517,M,40.592,M,1.7,0123*55
$GPVTG,348.58,T,-291.32,M,003.669,N,006.794,K,D*04
$GPGGA,092834.20,5702.9505612,N,00949.2152693,E,2,4,4.1,-3.518,M,40.592,M,1.7,0123*58
$GPVTG,347.91,T,-291.99,M,003.639,N,006.740,K,D*03
$GPGGA,092834.25,5702.9506565,N,00949.2152476,E,2,4,4.1,-3.505,M,40.592,M,2.0,0123*5C
$GPVTG,350.18,T,-289.72,M,003.587,N,006.643,K,D*0C
$GPGGA,092834.30,5702.9507061,N,00949.2152397,E,2,4,4.1,-3.503,M,40.592,M,2.0,0123*56
$GPVTG,353.64,T,-286.26,M,003.523,N,006.525,K,D*07
$GPGGA,092834.35,5702.9507554,N,00949.2152340,E,2,4,4.1,-3.501,M,40.592,M,2.0,0123*58
$GPVTG,356.36,T,-283.54,M,003.477,N,006.439,K,D*09
$GPGGA,092834.40,5702.9508037,N,00949.2152277,E,2,4,4.1,-3.494,M,40.592,M,2.0,0123*5D
$GPVTG,358.01,T,-281.89,M,003.428,N,006.349,K,D*0B
$GPGGA,092834.45,5702.9509130,N,00949.2152105,E,2,4,4.1,-3.512,M,40.592,M,2.2,0123*54
$GPVTG,359.43,T,-280.47,M,003.455,N,006.399,K,D*08
$GPGGA,092834.50,5702.9509611,N,00949.2152060,E,2,4,4.1,-3.508,M,40.592,M,2.2,0123*5D
$GPVTG,000.81,T,-639.09,M,003.424,N,006.342,K,D*05
$GPGGA,092834.55,5702.9510096,N,00949.2152080,E,2,4,4.1,-3.505,M,40.592,M,2.2,0123*5A
$GPVTG,002.72,T,-637.18,M,003.410,N,006.316,K,D*03
$GPGGA,092834.60,5702.9510576,N,00949.2152098,E,2,4,4.1,-3.499,M,40.592,M,2.2,0123*5A
$GPVTG,004.22,T,-635.68,M,003.396,N,006.289,K,D*0B
$GPGGA,092834.65,5702.9511490,N,00949.2152061,E,2,4,4.1,-3.506,M,40.592,M,2.4,0123*50
$GPVTG,006.13,T,-633.77,M,003.432,N,006.356,K,D*09
$GPGGA,092834.70,5702.9511966,N,00949.2152119,E,2,4,4.1,-3.502,M,40.592,M,2.4,0123*5A
$GPVTG,007.13,T,-632.77,M,003.417,N,006.328,K,D*07
$GPGGA,092834.75,5702.9512435,N,00949.2152128,E,2,4,4.1,-3.497,M,40.592,M,2.4,0123*58
$GPVTG,007.06,T,-632.84,M,003.389,N,006.277,K,D*04
$GPGGA,092834.80,5702.9512903,N,00949.2152240,E,2,4,4.1,-3.494,M,40.592,M,2.4,0123*54
$GPVTG,008.70,T,-631.20,M,003.378,N,006.256,K,D*0A
$GPGGA,092834.85,5702.9513605,N,00949.2152315,E,2,4,4.1,-3.488,M,40.592,M,2.7,0123*56
$GPVTG,010.09,T,-629.81,M,003.363,N,006.228,K,D*0C
$GPGGA,092834.90,5702.9514065,N,00949.2152456,E,2,4,4.1,-3.482,M,40.592,M,2.7,0123*5F
$GPVTG,011.52,T,-628.38,M,003.354,N,006.213,K,D*0C
$GPGGA,092834.95,5702.9514521,N,00949.2152638,E,2,4,4.1,-3.475,M,40.592,M,2.7,0123*5D
$GPVTG,013.21,T,-626.69,M,003.351,N,006.206,K,D*01
$GPGGA,092835.00,5702.9514965,N,00949.2152837,E,2,4,4.1,-3.469,M,40.592,M,2.7,0123*50
$GPVTG,014.86,T,-625.04,M,003.339,N,006.184,K,D*04
$GPGGA,092835.05,5702.9515543,N,00949.2152972,E,2,4,4.1,-3.485,M,40.592,M,1.6,0123*5C
$GPVTG,015.89,T,-624.01,M,003.328,N,006.163,K,D*07
$GPGGA,092835.10,5702.9515988,N,00949.2153192,E,2,4,4.1,-3.482,M,40.592,M,1.6,0123*53
$GPVTG,017.28,T,-622.62,M,003.327,N,006.161,K,D*00
$GPGGA,092835.15,5702.9516426,N,00949.2153425,E,2,4,4.1,-3.483,M,40.592,M,1.6,0123*54
$GPVTG,018.63,T,-621.27,M,003.321,N,006.150,K,D*06
$GPGGA,092835.20,5702.9516855,N,00949.2153670,E,2,4,4.1,-3.488,M,40.592,M,1.6,0123*53
$GPVTG,019.92,T,-619.98,M,003.313,N,006.135,K,D*04
$GPGGA,092835.25,5702.9517270,N,00949.2153971,E,2,4,4.1,-3.484,M,40.592,M,1.9,0123*57
$GPVTG,021.52,T,-618.38,M,003.311,N,006.132,K,D*0D
$GPGGA,092835.30,5702.9517705,N,00949.2154282,E,2,4,4.1,-3.485,M,40.592,M,1.9,0123*55
$GPVTG,023.01,T,-616.89,M,003.327,N,006.162,K,D*0D
$GPGGA,092835.35,5702.9518126,N,00949.2154600,E,2,4,4.1,-3.487,M,40.592,M,1.9,0123*54
$GPVTG,024.47,T,-615.43,M,003.332,N,006.171,K,D*0B
$GPGGA,092835.40,5702.9518538,N,00949.2154937,E,2,4,4.1,-3.489,M,40.592,M,1.9,0123*58
$GPVTG,025.95,T,-613.95,M,003.335,N,006.177,K,D*09
$GPGGA,092835.45,5702.9518929,N,00949.2155367,E,2,4,4.1,-3.484,M,40.592,M,2.1,0123*59
$GPVTG,027.67,T,-612.23,M,003.324,N,006.157,K,D*08
$GPGGA,092835.50,5702.9519325,N,00949.2155743,E,2,4,4.1,-3.486,M,40.592,M,2.1,0123*5A
$GPVTG,029.02,T,-610.88,M,003.323,N,006.153,K,D*05
$GPGGA,092835.55,5702.9519735,N,00949.2156144,E,2,4,4.1,-3.487,M,40.592,M,2.1,0123*59
$GPVTG,030.32,T,-609.58,M,003.339,N,006.183,K,D*0D
$GPGGA,092835.60,5702.9520137,N,00949.2156583,E,2,4,4.1,-3.487,M,40.592,M,2.1,0123*5E
$GPVTG,031.80,T,-608.10,M,003.360,N,006.222,K,D*0C
$GPGGA,092835.65,5702.9520397,N,00949.2157014,E,2,4,4.1,-3.489,M,40.592,M,2.3,0123*55
$GPVTG,033.46,T,-606.44,M,003.327,N,006.162,K,D*0F
$GPGGA,092835.70,5702.9520771,N,00949.2157496,E,2,4,4.1,-3.494,M,40.592,M,2.3,0123*5F
$GPVTG,035.07,T,-604.83,M,003.344,N,006.192,K,D*0F
$GPGGA,092835.75,5702.9521137,N,00949.2157948,E,2,4,4.1,-3.497,M,40.592,M,2.3,0123*52
$GPVTG,036.28,T,-603.62,M,003.344,N,006.193,K,D*08
$GPGGA,092835.80,5702.9521494,N,00949.2158426,E,2,4,4.1,-3.500,M,40.592,M,2.3,0123*51
$GPVTG,037.58,T,-602.32,M,003.348,N,006.200,K,D*0F
$GPGGA,092835.85,5702.9521568,N,00949.2158929,E,2,4,4.1,-3.493,M,40.592,M,2.6,0123*5A
$GPVTG,039.62,T,-600.28,M,003.291,N,006.096,K,D*09
$GPGGA,092835.90,5702.9521918,N,00949.2159449,E,2,4,4.1,-3.493,M,40.592,M,2.6,0123*5F
$GPVTG,040.91,T,-598.99,M,003.307,N,006.125,K,D*04
$GPGGA,092835.95,5702.9522248,N,00949.2159960,E,2,4,4.1,-3.492,M,40.592,M,2.6,0123*50
$GPVTG,042.12,T,-597.78,M,003.308,N,006.126,K,D*01
$GPGGA,092836.00,5702.9522564,N,00949.2160468,E,2,4,4.1,-3.488,M,40.592,M,2.6,0123*52
$GPVTG,043.25,T,-596.65,M,003.300,N,006.111,K,D*05
$GPGGA,092836.05,5702.9522689,N,00949.2160979,E,2,4,4.1,-3.491,M,40.592,M,2.8,0123*5C
$GPVTG,045.12,T,-594.78,M,003.251,N,006.022,K,D*0D
$GPGGA,092836.10,5702.9522998,N,00949.2161547,E,2,4,4.1,-3.491,M,40.592,M,2.8,0123*57
$GPVTG,046.42,T,-593.48,M,003.262,N,006.041,K,D*0A
$GPGGA,092836.15,5702.9523296,N,00949.2162085,E,2,4,4.1,-3.488,M,40.592,M,2.8,0123*56
$GPVTG,047.44,T,-592.46,M,003.255,N,006.028,K,D*09
$GPGGA,092836.20,5702.9523587,N,00949.2162610,E,2,4,4.1,-3.484,M,40.592,M,2.8,0123*51
$GPVTG,048.32,T,-591.58,M,003.239,N,005.999,K,D*01
$GPGGA,092836.25,5702.9523675,N,00949.2163158,E,2,4,4.1,-3.492,M,40.592,M,3.0,0123*5E
$GPVTG,050.10,T,-589.80,M,003.204,N,005.934,K,D*0D
$GPGGA,092836.30,5702.9523938,N,00949.2163722,E,2,4,4.1,-3.493,M,40.592,M,3.0,0123*56
$GPVTG,051.21,T,-588.69,M,003.191,N,005.909,K,D*09
$GPGGA,092836.35,5702.9524200,N,00949.2164301,E,2,4,4.1,-3.495,M,40.592,M,3.0,0123*50
$GPVTG,052.27,T,-587.63,M,003.183,N,005.896,K,D*0D
$GPGGA,092836.40,5702.9524452,N,00949.2164903,E,2,4,4.1,-3.495,M,40.592,M,3.0,0123*5B
$GPVTG,053.41,T,-586.49,M,003.181,N,005.891,K,D*00
$GPGGA,092836.45,5702.9524354,N,00949.2165501,E,2,4,4.1,-3.503,M,40.592,M,3.2,0123*5C
$GPVTG,055.23,T,-584.67,M,003.137,N,005.810,K,D*08
$GPGGA,092836.50,5702.9524582,N,00949.2166155,E,2,4,4.1,-3.511,M,40.592,M,3.2,0123*50
$GPVTG,056.63,T,-583.27,M,003.148,N,005.830,K,D*06
$GPGGA,092836.55,5702.9524797,N,00949.2166745,E,2,4,4.1,-3.513,M,40.592,M,3.2,0123*56
$GPVTG,057.65,T,-582.25,M,003.126,N,005.789,K,D*07
$GPGGA,092836.60,5702.9525016,N,00949.2167303,E,2,4,4.1,-3.518,M,40.592,M,3.2,0123*53
$GPVTG,058.38,T,-581.52,M,003.091,N,005.724,K,D*09
$GPGGA,092836.65,5702.9524770,N,00949.2167967,E,2,4,4.1,-3.500,M,40.592,M,3.4,0123*57
$GPVTG,060.60,T,-579.30,M,003.049,N,005.646,K,D*0C
$GPGGA,092836.70,5702.9524952,N,00949.2168578,E,2,4,4.1,-3.503,M,40.592,M,3.4,0123*53
$GPVTG,061.75,T,-578.15,M,003.027,N,005.606,K,D*03
$GPGGA,092836.75,5702.9525111,N,00949.2169184,E,2,4,4.1,-3.503,M,40.592,M,3.4,0123*5E
$GPVTG,062.96,T,-576.94,M,002.999,N,005.555,K,D*02
$GPGGA,092836.80,5702.9525265,N,00949.2169839,E,2,4,4.1,-3.505,M,40.592,M,3.4,0123*5D
$GPVTG,064.33,T,-575.57,M,002.994,N,005.545,K,D*0B
$GPGGA,092836.85,5702.9524895,N,00949.2170443,E,2,4,4.1,-3.524,M,40.592,M,3.6,0123*54
$GPVTG,066.80,T,-573.10,M,002.927,N,005.421,K,D*0F
$GPGGA,092836.90,5702.9525034,N,00949.2171020,E,2,4,4.1,-3.528,M,40.592,M,3.6,0123*5E
$GPVTG,067.83,T,-572.07,M,002.883,N,005.340,K,D*05
$GPGGA,092836.95,5702.9525165,N,00949.2171568,E,2,4,4.1,-3.532,M,40.592,M,3.6,0123*5C
$GPVTG,068.75,T,-571.15,M,002.827,N,005.237,K,D*0C
$GPGGA,092837.00,5702.9525274,N,00949.2172182,E,2,4,4.1,-3.535,M,40.592,M,3.6,0123*56
$GPVTG,070.05,T,-569.85,M,002.802,N,005.190,K,D*0B
$GPGGA,092837.05,5702.9524881,N,00949.2172793,E,2,4,4.1,-3.509,M,40.592,M,1.9,0123*56
$GPVTG,072.81,T,-567.09,M,002.741,N,005.077,K,D*0F
$GPGGA,092837.10,5702.9524952,N,00949.2173377,E,2,4,4.1,-3.506,M,40.592,M,1.9,0123*5D
$GPVTG,074.30,T,-565.60,M,002.701,N,005.001,K,D*0B
$GPGGA,092837.15,5702.9525025,N,00949.2173918,E,2,4,4.1,-3.499,M,40.592,M,1.9,0123*54
$GPVTG,075.56,T,-564.34,M,002.642,N,004.893,K,D*0E
$GPGGA,092837.20,5702.9525083,N,00949.2174465,E,2,4,4.1,-3.495,M,40.592,M,1.9,0123*52
$GPVTG,076.93,T,-562.97,M,002.590,N,004.796,K,D*0D
$GPGGA,092837.25,5702.9524672,N,00949.2174993,E,2,4,4.1,-3.516,M,40.592,M,2.2,0123*58
$GPVTG,080.06,T,-559.84,M,002.531,N,004.688,K,D*07
$GPGGA,092837.30,5702.9524708,N,00949.2175553,E,2,4,4.1,-3.519,M,40.592,M,2.2,0123*5E
$GPVTG,081.66,T,-558.24,M,002.492,N,004.616,K,D*04
$GPGGA,092837.35,5702.9524733,N,00949.2176035,E,2,4,4.1,-3.519,M,40.592,M,2.2,0123*55
$GPVTG,083.17,T,-556.73,M,002.416,N,004.475,K,D*07
$GPGGA,092837.40,5702.9524734,N,00949.2176557,E,2,4,4.1,-3.523,M,40.592,M,2.2,0123*58
$GPVTG,084.98,T,-554.92,M,002.367,N,004.383,K,D*05
$GPGGA,092837.45,5702.9524214,N,00949.2177071,E,2,4,4.1,-3.515,M,40.592,M,2.4,0123*59
$GPVTG,088.79,T,-551.11,M,002.305,N,004.269,K,D*09
$GPGGA,092837.50,5702.9524194,N,00949.2177577,E,2,4,4.1,-3.518,M,40.592,M,2.4,0123*58
$GPVTG,090.81,T,-549.09,M,002.260,N,004.186,K,D*07
$GPGGA,092837.55,5702.9524166,N,00949.2178108,E,2,4,4.1,-3.520,M,40.592,M,2.4,0123*58
$GPVTG,092.82,T,-547.08,M,002.235,N,004.139,K,D*0D
$GPGGA,092837.60,5702.9524117,N,00949.2178538,E,2,4,4.1,-3.524,M,40.592,M,2.4,0123*5B
$GPVTG,095.09,T,-544.81,M,002.164,N,004.008,K,D*0F
$GPGGA,092837.65,5702.9523673,N,00949.2178930,E,2,4,4.1,-3.520,M,40.592,M,2.7,0123*5F
$GPVTG,099.56,T,-540.34,M,002.094,N,003.879,K,D*04
$GPGGA,092837.70,5702.9523606,N,00949.2179390,E,2,4,4.1,-3.522,M,40.592,M,2.7,0123*5A
$GPVTG,102.00,T,-537.90,M,002.061,N,003.817,K,D*08
$GPGGA,092837.75,5702.9523522,N,00949.2179852,E,2,4,4.1,-3.522,M,40.592,M,2.7,0123*5F
$GPVTG,104.53,T,-535.37,M,002.037,N,003.773,K,D*09
$GPGGA,092837.80,5702.9523411,N,00949.2180320,E,2,4,4.1,-3.524,M,40.592,M,2.7,0123*5A
$GPVTG,107.23,T,-532.67,M,002.027,N,003.754,K,D*0B
$GPGGA,092837.85,5702.9522933,N,00949.2180681,E,2,4,4.1,-3.551,M,40.592,M,2.9,0123*51
$GPVTG,111.37,T,-528.53,M,002.016,N,003.733,K,D*06
$GPGGA,092837.90,5702.9522823,N,00949.2181054,E,2,4,4.1,-3.561,M,40.592,M,2.9,0123*59
$GPVTG,114.00,T,-525.90,M,001.997,N,003.698,K,D*06
$GPGGA,092837.95,5702.9522689,N,00949.2181434,E,2,4,4.1,-3.572,M,40.592,M,2.9,0123*52
$GPVTG,116.80,T,-523.10,M,001.987,N,003.680,K,D*0A
$GPGGA,092838.00,5702.9522543,N,00949.2181852,E,2,4,4.1,-3.583,M,40.592,M,2.9,0123*56
$GPVTG,119.43,T,-520.47,M,001.994,N,003.693,K,D*0B
$GPGGA,092838.05,5702.9521877,N,00949.2182241,E,2,4,4.1,-3.551,M,40.592,M,1.7,0123*53
$GPVTG,124.14,T,-515.76,M,001.993,N,003.692,K,D*05
$GPGGA,092838.10,5702.9521697,N,00949.2182542,E,2,4,4.1,-3.557,M,40.592,M,1.7,0123*55
$GPVTG,127.97,T,-511.93,M,001.964,N,003.637,K,D*05
$GPGGA,092838.15,5702.9521506,N,00949.2182803,E,2,4,4.1,-3.562,M,40.592,M,1.7,0123*55
$GPVTG,132.05,T,-507.85,M,001.935,N,003.583,K,D*02
$GPGGA,092838.20,5702.9521298,N,00949.2183109,E,2,4,4.1,-3.565,M,40.592,M,1.7,0123*56
$GPVTG,135.41,T,-504.49,M,001.945,N,003.601,K,D*08
$GPGGA,092838.25,5702.9520484,N,00949.2183420,E,2,4,4.1,-3.550,M,40.592,M,2.0,0123*55
$GPVTG,139.97,T,-499.93,M,002.003,N,003.710,K,D*04
$GPGGA,092838.30,5702.9520259,N,00949.2183609,E,2,4,4.1,-3.550,M,40.592,M,2.0,0123*5E
$GPVTG,144.16,T,-495.74,M,001.998,N,003.700,K,D*0B
$GPGGA,092838.35,5702.9520010,N,00949.2183857,E,2,4,4.1,-3.549,M,40.592,M,2.0,0123*59
$GPVTG,147.33,T,-492.57,M,002.032,N,003.763,K,D*06
$GPGGA,092838.40,5702.9519738,N,00949.2184083,E,2,4,4.1,-3.548,M,40.592,M,2.0,0123*5B
$GPVTG,150.51,T,-489.39,M,002.074,N,003.841,K,D*0B
$GPGGA,092838.45,5702.9519074,N,00949.2184221,E,2,4,4.1,-3.553,M,40.592,M,2.2,0123*53
$GPVTG,154.84,T,-485.06,M,002.137,N,003.957,K,D*07
$GPGGA,092838.50,5702.9518797,N,00949.2184380,E,2,4,4.1,-3.558,M,40.592,M,2.2,0123*5D
$GPVTG,157.94,T,-481.96,M,002.180,N,004.037,K,D*0C
$GPGGA,092838.55,5702.9518509,N,00949.2184440,E,2,4,4.1,-3.561,M,40.592,M,2.2,0123*5C
$GPVTG,161.92,T,-477.98,M,002.216,N,004.103,K,D*02
$GPGGA,092838.60,5702.9518203,N,00949.2184622,E,2,4,4.1,-3.567,M,40.592,M,2.2,0123*57
$GPVTG,163.94,T,-475.96,M,002.284,N,004.230,K,D*02
$GPGGA,092838.65,5702.9517549,N,00949.2184697,E,2,4,4.1,-3.545,M,40.592,M,2.4,0123*5C
$GPVTG,167.35,T,-472.55,M,002.359,N,004.368,K,D*08
$GPGGA,092838.70,5702.9517224,N,00949.2184716,E,2,4,4.1,-3.547,M,40.592,M,2.4,0123*5E
$GPVTG,170.55,T,-469.35,M,002.420,N,004.482,K,D*0E
$GPGGA,092838.75,5702.9516870,N,00949.2184787,E,2,4,4.1,-3.549,M,40.592,M,2.4,0123*57
$GPVTG,172.72,T,-467.18,M,002.501,N,004.632,K,D*03
$GPGGA,092838.80,5702.9516527,N,00949.2184855,E,2,4,4.1,-3.551,M,40.592,M,2.4,0123*5B
$GPVTG,174.54,T,-465.36,M,002.576,N,004.770,K,D*08
$GPGGA,092838.85,5702.9515943,N,00949.2184922,E,2,4,4.1,-3.532,M,40.592,M,2.7,0123*54
$GPVTG,176.24,T,-463.66,M,002.660,N,004.927,K,D*06
$GPGGA,092838.90,5702.9515569,N,00949.2184929,E,2,4,4.1,-3.530,M,40.592,M,2.7,0123*5D
$GPVTG,178.16,T,-461.74,M,002.742,N,005.078,K,D*0B
$GPGGA,092838.95,5702.9515184,N,00949.2184875,E,2,4,4.1,-3.532,M,40.592,M,2.7,0123*55
$GPVTG,180.47,T,-459.43,M,002.827,N,005.235,K,D*00
$GPGGA,092839.00,5702.9514790,N,00949.2184802,E,2,4,4.1,-3.534,M,40.592,M,2.7,0123*5C
$GPVTG,182.68,T,-457.22,M,002.914,N,005.397,K,D*0E
$GPGGA,092839.05,5702.9514279,N,00949.2184604,E,2,4,4.1,-3.540,M,40.592,M,1.6,0123*52
$GPVTG,186.21,T,-453.69,M,003.001,N,005.559,K,D*04
$GPGGA,092839.10,5702.9513872,N,00949.2184466,E,2,4,4.1,-3.545,M,40.592,M,1.6,0123*53
$GPVTG,188.47,T,-451.43,M,003.095,N,005.732,K,D*02
$GPGGA,092839.15,5702.9513463,N,00949.2184349,E,2,4,4.1,-3.552,M,40.592,M,1.6,0123*56
$GPVTG,189.90,T,-450.00,M,003.181,N,005.892,K,D*0E
$GPGGA,092839.20,5702.9513036,N,00949.2184246,E,2,4,4.1,-3.554,M,40.592,M,1.6,0123*5C
$GPVTG,190.61,T,-449.29,M,003.266,N,006.049,K,D*0C
$GPGGA,092839.25,5702.9512520,N,00949.2184127,E,2,4,4.1,-3.531,M,40.592,M,1.9,0123*52
$GPVTG,191.71,T,-448.19,M,003.318,N,006.146,K,D*08
$GPGGA,092839.30,5702.9512091,N,00949.2183854,E,2,4,4.1,-3.535,M,40.592,M,1.9,0123*57
$GPVTG,194.45,T,-445.45,M,003.417,N,006.328,K,D*0C
$GPGGA,092839.35,5702.9511650,N,00949.2183596,E,2,4,4.1,-3.535,M,40.592,M,1.9,0123*59
$GPVTG,196.26,T,-443.64,M,003.510,N,006.501,K,D*05
$GPGGA,092839.40,5702.9511203,N,00949.2183315,E,2,4,4.1,-3.538,M,40.592,M,1.9,0123*59
$GPVTG,197.87,T,-442.03,M,003.602,N,006.672,K,D*08
$GPGGA,092839.45,5702.9510909,N,00949.2182969,E,2,4,4.1,-3.528,M,40.592,M,2.1,0123*56
$GPVTG,200.23,T,-439.67,M,003.622,N,006.708,K,D*0B
$GPGGA,092839.50,5702.9510457,N,00949.2182670,E,2,4,4.1,-3.533,M,40.592,M,2.1,0123*59
$GPVTG,201.16,T,-438.74,M,003.695,N,006.842,K,D*02
$GPGGA,092839.55,5702.9510008,N,00949.2182328,E,2,4,4.1,-3.535,M,40.592,M,2.1,0123*5C
$GPVTG,202.34,T,-437.56,M,003.769,N,006.980,K,D*03
$GPGGA,092839.60,5702.9509557,N,00949.2181961,E,2,4,4.1,-3.537,M,40.592,M,2.1,0123*5B
$GPVTG,203.50,T,-436.40,M,003.841,N,007.114,K,D*07
$GPGGA,092839.65,5702.9509280,N,00949.2181543,E,2,4,4.1,-3.519,M,40.592,M,2.3,0123*51
$GPVTG,205.86,T,-434.04,M,003.825,N,007.084,K,D*02
$GPGGA,092839.70,5702.9508821,N,00949.2181073,E,2,4,4.1,-3.523,M,40.592,M,2.3,0123*5A
$GPVTG,207.43,T,-432.47,M,003.916,N,007.252,K,D*00
$GPGGA,092839.75,5702.9508356,N,00949.2180589,E,2,4,4.1,-3.527,M,40.592,M,2.3,0123*51
$GPVTG,208.72,T,-431.18,M,004.005,N,007.418,K,D*00
$GPGGA,092839.80,5702.9507892,N,00949.2180089,E,2,4,4.1,-3.530,M,40.592,M,2.3,0123*54
$GPVTG,209.85,T,-430.05,M,004.087,N,007.568,K,D*08
$GPGGA,092839.85,5702.9507643,N,00949.2179577,E,2,4,4.1,-3.506,M,40.592,M,2.6,0123*51
$GPVTG,211.64,T,-428.26,M,004.065,N,007.529,K,D*0F
$GPGGA,092839.90,5702.9507192,N,00949.2179038,E,2,4,4.1,-3.505,M,40.592,M,2.6,0123*53
$GPVTG,212.68,T,-427.22,M,004.132,N,007.653,K,D*06
$GPGGA,092839.95,5702.9506730,N,00949.2178493,E,2,4,4.1,-3.505,M,40.592,M,2.6,0123*5D
$GPVTG,213.48,T,-426.42,M,004.200,N,007.778,K,D*08
$GPGGA,092840.00,5702.9506270,N,00949.2177973,E,2,4,4.1,-3.509,M,40.592,M,2.6,0123*5E
$GPVTG,213.94,T,-425.96,M,004.248,N,007.868,K,D*01
$GPGGA,092840.05,5702.9506174,N,00949.2177373,E,2,4,4.1,-3.503,M,40.592,M,2.8,0123*52
$GPVTG,215.94,T,-423.96,M,004.213,N,007.803,K,D*02
$GPGGA,092840.10,5702.9505718,N,00949.2176750,E,2,4,4.1,-3.509,M,40.592,M,2.8,0123*57
$GPVTG,216.80,T,-423.10,M,004.282,N,007.930,K,D*03
$GPGGA,092840.15,5702.9505271,N,00949.2176178,E,2,4,4.1,-3.518,M,40.592,M,2.8,0123*54
$GPVTG,217.22,T,-422.68,M,004.319,N,007.999,K,D*04
$GPGGA,092840.20,5702.9504824,N,00949.2175588,E,2,4,4.1,-3.522,M,40.592,M,2.8,0123*58
$GPVTG,217.65,T,-422.25,M,004.358,N,008.071,K,D*0B
$GPGGA,092840.25,5702.9504682,N,00949.2174980,E,2,4,4.1,-3.507,M,40.592,M,3.0,0123*54
$GPVTG,219.24,T,-420.66,M,004.316,N,007.994,K,D*02
$GPGGA,092840.30,5702.9504241,N,00949.2174377,E,2,4,4.1,-3.515,M,40.592,M,3.0,0123*5A
$GPVTG,219.58,T,-420.32,M,004.343,N,008.043,K,D*04
$GPGGA,092840.35,5702.9503797,N,00949.2173771,E,2,4,4.1,-3.522,M,40.592,M,3.0,0123*57
$GPVTG,219.82,T,-420.08,M,004.369,N,008.091,K,D*0D
$GPGGA,092840.40,5702.9503366,N,00949.2173166,E,2,4,4.1,-3.531,M,40.592,M,3.0,0123*5D
$GPVTG,220.05,T,-419.85,M,004.384,N,008.120,K,D*0F
$GPGGA,092840.45,5702.9503085,N,00949.2172681,E,2,4,4.1,-3.510,M,40.592,M,3.2,0123*58
$GPVTG,220.63,T,-419.27,M,004.321,N,008.002,K,D*09
$GPGGA,092840.50,5702.9502662,N,00949.2172087,E,2,4,4.1,-3.512,M,40.592,M,3.2,0123*50
$GPVTG,220.75,T,-419.15,M,004.320,N,008.000,K,D*0C
$GPGGA,092840.55,5702.9502246,N,00949.2171460,E,2,4,4.1,-3.516,M,40.592,M,3.2,0123*5D
$GPVTG,221.02,T,-418.88,M,004.327,N,008.013,K,D*0D
$GPGGA,092840.60,5702.9501815,N,00949.2170885,E,2,4,4.1,-3.523,M,40.592,M,3.2,0123*54
$GPVTG,220.89,T,-419.01,M,004.320,N,008.001,K,D*0B
$GPGGA,092840.65,5702.9501826,N,00949.2170327,E,2,4,4.1,-3.547,M,40.592,M,3.4,0123*56
$GPVTG,221.61,T,-418.29,M,004.228,N,007.831,K,D*0A
$GPGGA,092840.70,5702.9501420,N,00949.2169732,E,2,4,4.1,-3.558,M,40.592,M,3.4,0123*5E
$GPVTG,221.60,T,-418.30,M,004.212,N,007.801,K,D*09
$GPGGA,092840.75,5702.9501034,N,00949.2169080,E,2,4,4.1,-3.565,M,40.592,M,3.4,0123*5A
$GPVTG,221.97,T,-417.93,M,004.211,N,007.798,K,D*0B
$GPGGA,092840.80,5702.9500654,N,00949.2168447,E,2,4,4.1,-3.572,M,40.592,M,3.4,0123*59
$GPVTG,222.20,T,-417.70,M,004.198,N,007.776,K,D*0B
$GPGGA,092840.85,5702.9500945,N,00949.2167807,E,2,4,4.1,-3.585,M,40.592,M,3.6,0123*5E
$GPVTG,223.54,T,-416.36,M,004.050,N,007.501,K,D*0D
$GPGGA,092840.90,5702.9500584,N,00949.2167193,E,2,4,4.1,-3.593,M,40.592,M,3.6,0123*58
$GPVTG,223.53,T,-416.37,M,004.008,N,007.423,K,D*07
$GPGGA,092840.95,5702.9500252,N,00949.2166559,E,2,4,4.1,-3.601,M,40.592,M,3.6,0123*5A
$GPVTG,223.83,T,-416.07,M,003.972,N,007.356,K,D*0F
$GPGGA,092841.00,5702.9499918,N,00949.2165934,E,2,4,4.1,-3.608,M,40.592,M,3.6,0123*5E
$GPVTG,224.04,T,-415.86,M,003.937,N,007.292,K,D*05
$GPGGA,092841.05,5702.9500354,N,00949.2165209,E,2,4,4.1,-3.608,M,40.592,M,1.9,0123*50
$GPVTG,226.34,T,-413.56,M,003.752,N,006.949,K,D*0E
$GPGGA,092841.10,5702.9500049,N,00949.2164639,E,2,4,4.1,-3.608,M,40.592,M,1.9,0123*5D
$GPVTG,226.33,T,-413.57,M,003.683,N,006.822,K,D*09
$GPGGA,092841.15,5702.9499766,N,00949.2164002,E,2,4,4.1,-3.611,M,40.592,M,1.9,0123*55
$GPVTG,226.89,T,-413.01,M,003.646,N,006.752,K,D*0A
$GPGGA,092841.20,5702.9499506,N,00949.2163420,E,2,4,4.1,-3.607,M,40.592,M,1.9,0123*53
$GPVTG,227.19,T,-412.71,M,003.580,N,006.630,K,D*08
$GPGGA,092841.25,5702.9500161,N,00949.2162647,E,2,4,4.1,-3.599,M,40.592,M,2.2,0123*5C
$GPVTG,230.79,T,-409.11,M,003.392,N,006.283,K,D*0D
$GPGGA,092841.30,5702.9499958,N,00949.2162007,E,2,4,4.1,-3.595,M,40.592,M,2.2,0123*55
$GPVTG,231.91,T,-407.99,M,003.338,N,006.181,K,D*05
$GPGGA,092841.35,5702.9499735,N,00949.2161483,E,2,4,4.1,-3.595,M,40.592,M,2.2,0123*5E
$GPVTG,232.01,T,-407.89,M,003.244,N,006.008,K,D*04
$GPGGA,092841.40,5702.9499501,N,00949.2160989,E,2,4,4.1,-3.593,M,40.592,M,2.2,0123*59
$GPVTG,231.82,T,-408.08,M,003.149,N,005.833,K,D*07
$GPGGA,092841.45,5702.9500043,N,00949.2160304,E,2,4,4.1,-3.580,M,40.592,M,2.4,0123*55
$GPVTG,235.31,T,-404.59,M,002.977,N,005.514,K,D*0F
$GPGGA,092841.50,5702.9499907,N,00949.2159740,E,2,4,4.1,-3.578,M,40.592,M,2.4,0123*50
$GPVTG,236.50,T,-403.40,M,002.894,N,005.360,K,D*0D
$GPGGA,092841.55,5702.9499773,N,00949.2159195,E,2,4,4.1,-3.576,M,40.592,M,2.4,0123*58
$GPVTG,237.48,T,-402.42,M,002.812,N,005.208,K,D*07
$GPGGA,092841.60,5702.9499622,N,00949.2158680,E,2,4,4.1,-3.577,M,40.592,M,2.4,0123*58
$GPVTG,238.09,T,-401.81,M,002.728,N,005.053,K,D*0B
$GPGGA,092841.65,5702.9499888,N,00949.2158043,E,2,4,4.1,-3.533,M,40.592,M,2.7,0123*59
$GPVTG,240.44,T,-399.46,M,002.606,N,004.826,K,D*06
$GPGGA,092841.70,5702.9499749,N,00949.2157510,E,2,4,4.1,-3.522,M,40.592,M,2.7,0123*53
$GPVTG,241.34,T,-398.56,M,002.541,N,004.706,K,D*0D
$GPGGA,092841.75,5702.9499589,N,00949.2157014,E,2,4,4.1,-3.515,M,40.592,M,2.7,0123*5D
$GPVTG,241.77,T,-398.13,M,002.470,N,004.574,K,D*0F
$GPGGA,092841.80,5702.9499422,N,00949.2156554,E,2,4,4.1,-3.510,M,40.592,M,2.7,0123*52
$GPVTG,241.91,T,-397.99,M,002.389,N,004.425,K,D*0E
$GPGGA,092841.85,5702.9499509,N,00949.2156074,E,2,4,4.1,-3.537,M,40.592,M,2.9,0123*53
$GPVTG,243.80,T,-396.10,M,002.323,N,004.302,K,D*0E
$GPGGA,092841.90,5702.9499391,N,00949.2155599,E,2,4,4.1,-3.539,M,40.592,M,2.9,0123*5B
$GPVTG,244.59,T,-395.31,M,002.250,N,004.167,K,D*09
$GPGGA,092841.95,5702.9499300,N,00949.2155096,E,2,4,4.1,-3.541,M,40.592,M,2.9,0123*53
$GPVTG,245.86,T,-394.04,M,002.195,N,004.065,K,D*04
$GPGGA,092842.00,5702.9499173,N,00949.2154642,E,2,4,4.1,-3.546,M,40.592,M,2.9,0123*53
$GPVTG,246.44,T,-393.46,M,002.127,N,003.940,K,D*08
$GPGGA,092842.05,5702.9499172,N,00949.2154137,E,2,4,4.1,-3.533,M,40.592,M,1.7,0123*5D
$GPVTG,247.69,T,-392.21,M,002.065,N,003.824,K,D*02
$GPGGA,092842.10,5702.9499066,N,00949.2153667,E,2,4,4.1,-3.532,M,40.592,M,1.7,0123*59
$GPVTG,248.65,T,-391.25,M,002.015,N,003.731,K,D*0A
$GPGGA,092842.15,5702.9498953,N,00949.2153206,E,2,4,4.1,-3.537,M,40.592,M,1.7,0123*54
$GPVTG,249.48,T,-390.42,M,001.966,N,003.642,K,D*0F
$GPGGA,092842.20,5702.9498839,N,00949.2152738,E,2,4,4.1,-3.543,M,40.592,M,1.7,0123*55
$GPVTG,250.36,T,-389.54,M,001.927,N,003.570,K,D*06
$GPGGA,092842.25,5702.9498676,N,00949.2152311,E,2,4,4.1,-3.551,M,40.592,M,2.0,0123*5D
$GPVTG,251.33,T,-388.57,M,001.892,N,003.504,K,D*0C
$GPGGA,092842.30,5702.9498590,N,00949.2151835,E,2,4,4.1,-3.554,M,40.592,M,2.0,0123*59
$GPVTG,252.57,T,-387.33,M,001.864,N,003.452,K,D*0B
$GPGGA,092842.35,5702.9498522,N,00949.2151410,E,2,4,4.1,-3.558,M,40.592,M,2.0,0123*52
$GPVTG,253.77,T,-386.13,M,001.811,N,003.353,K,D*0F
$GPGGA,092842.40,5702.9498439,N,00949.2150978,E,1,3,4.1,-3.568,M,40.592,M,,*72
$GPVTG,254.86,T,-385.04,M,001.769,N,003.276,K,A*00
$GPGGA,092842.45,5702.9498574,N,00949.2150476,E,1,3,4.1,-3.568,M,40.592,M,,*7C
$GPVTG,256.18,T,-383.72,M,001.737,N,003.217,K,A*0E
$GPGGA,092842.50,5702.9498542,N,00949.2150001,E,1,3,4.1,-3.570,M,40.592,M,,*70
$GPVTG,257.93,T,-381.97,M,001.721,N,003.188,K,A*07
$GPGGA,092842.55,5702.9498507,N,00949.2149561,E,1,3,4.1,-3.572,M,40.592,M,,*7D
$GPVTG,259.53,T,-380.37,M,001.693,N,003.135,K,A*00
$GPGGA,092842.60,5702.9498471,N,00949.2149113,E,1,3,4.1,-3.577,M,40.592,M,,*7F
$GPVTG,261.15,T,-378.75,M,001.672,N,003.097,K,A*0E
$GPGGA,092842.65,5702.9498443,N,00949.2148669,E,2,4,4.1,-3.571,M,40.592,M,2.4,0123*5A
$GPVTG,262.66,T,-377.24,M,001.645,N,003.046,K,D*0F
$GPGGA,092842.70,5702.9498414,N,00949.2148256,E,2,4,4.1,-3.573,M,40.592,M,2.4,0123*56
$GPVTG,264.27,T,-375.63,M,001.616,N,002.993,K,D*0B
$GPGGA,092842.75,5702.9498380,N,00949.2147829,E,2,4,4.1,-3.574,M,40.592,M,2.4,0123*53
$GPVTG,265.86,T,-374.04,M,001.598,N,002.960,K,D*08
$GPGGA,092842.80,5702.9498372,N,00949.2147381,E,2,4,4.1,-3.573,M,40.592,M,2.4,0123*5A
$GPVTG,267.68,T,-372.22,M,001.595,N,002.953,K,D*05
$GPGGA,092842.85,5702.9498090,N,00949.2147049,E,2,4,4.1,-3.575,M,40.592,M,2.7,0123*52
$GPVTG,268.18,T,-371.72,M,001.576,N,002.918,K,D*09
$GPGGA,092842.90,5702.9498095,N,00949.2146632,E,2,4,4.1,-3.574,M,40.592,M,2.7,0123*59
$GPVTG,270.13,T,-369.77,M,001.566,N,002.900,K,D*0F
$GPGGA,092842.95,5702.9498080,N,00949.2146200,E,2,4,4.1,-3.577,M,40.592,M,2.7,0123*5E
$GPVTG,271.53,T,-368.37,M,001.568,N,002.904,K,D*05
$GPGGA,092843.00,5702.9498070,N,00949.2145805,E,2,4,4.1,-3.579,M,40.592,M,2.7,0123*5E
$GPVTG,272.99,T,-366.91,M,001.550,N,002.870,K,D*0B
$GPGGA,092843.05,5702.9497796,N,00949.2145487,E,2,4,4.1,-3.563,M,40.592,M,1.6,0123*54
$GPVTG,273.12,T,-366.78,M,001.506,N,002.788,K,D*05
$GPGGA,092843.10,5702.9497805,N,00949.2145087,E,2,4,4.1,-3.563,M,40.592,M,1.6,0123*51
$GPVTG,274.79,T,-365.11,M,001.500,N,002.778,K,D*0A
$GPGGA,092843.15,5702.9497794,N,00949.2144652,E,2,4,4.1,-3.564,M,40.592,M,1.6,0123*5B
$GPVTG,275.86,T,-364.04,M,001.516,N,002.807,K,D*0E
$GPGGA,092843.20,5702.9497793,N,00949.2144212,E,2,4,4.1,-3.567,M,40.592,M,1.6,0123*59
$GPVTG,277.03,T,-362.87,M,001.535,N,002.842,K,D*0C
$GPGGA,092843.25,5702.9497536,N,00949.2143899,E,2,4,4.1,-3.572,M,40.592,M,1.9,0123*54
$GPVTG,276.43,T,-363.47,M,001.505,N,002.788,K,D*0E
$GPGGA,092843.30,5702.9497514,N,00949.2143513,E,2,4,4.1,-3.575,M,40.592,M,1.9,0123*58
$GPVTG,277.07,T,-362.83,M,001.496,N,002.770,K,D*0A
$GPGGA,092843.35,5702.9497537,N,00949.2143074,E,2,4,4.1,-3.576,M,40.592,M,1.9,0123*5B
$GPVTG,278.45,T,-361.45,M,001.520,N,002.816,K,D*09
$GPGGA,092843.40,5702.9497542,N,00949.2142616,E,2,4,4.1,-3.579,M,40.592,M,1.9,0123*57
$GPVTG,279.33,T,-360.57,M,001.554,N,002.878,K,D*00
$GPGGA,092843.45,5702.9497299,N,00949.2142289,E,2,4,4.1,-3.602,M,40.592,M,2.1,0123*55
$GPVTG,279.36,T,-360.54,M,001.558,N,002.886,K,D*0B
$GPGGA,092843.50,5702.9497335,N,00949.2141909,E,2,4,4.1,-3.611,M,40.592,M,2.1,0123*54
$GPVTG,280.87,T,-359.03,M,001.550,N,002.871,K,D*0F
$GPGGA,092843.55,5702.9497361,N,00949.2141486,E,2,4,4.1,-3.624,M,40.592,M,2.1,0123*5C
$GPVTG,281.93,T,-357.97,M,001.567,N,002.903,K,D*08
$GPGGA,092843.60,5702.9497372,N,00949.2141081,E,2,4,4.1,-3.635,M,40.592,M,2.1,0123*5B
$GPVTG,282.76,T,-357.14,M,001.574,N,002.914,K,D*0F
$GPGGA,092843.65,5702.9496932,N,00949.2140718,E,2,4,4.1,-3.606,M,40.592,M,2.3,0123*55
$GPVTG,281.58,T,-358.32,M,001.560,N,002.889,K,D*0B
$GPGGA,092843.70,5702.9496975,N,00949.2140258,E,2,4,4.1,-3.605,M,40.592,M,2.3,0123*50
$GPVTG,282.58,T,-357.32,M,001.601,N,002.965,K,D*00
$GPGGA,092843.75,5702.9496998,N,00949.2139858,E,2,4,4.1,-3.606,M,40.592,M,2.3,0123*51
$GPVTG,283.41,T,-356.49,M,001.604,N,002.970,K,D*05
$GPGGA,092843.80,5702.9496998,N,00949.2139483,E,2,4,4.1,-3.605,M,40.592,M,2.3,0123*52
$GPVTG,283.98,T,-355.92,M,001.592,N,002.948,K,D*03
$GPGGA,092843.85,5702.9496913,N,00949.2139151,E,2,4,4.1,-3.614,M,40.592,M,2.6,0123*5B
$GPVTG,283.62,T,-356.28,M,001.575,N,002.917,K,D*07
$GPGGA,092843.90,5702.9496977,N,00949.2138708,E,2,4,4.1,-3.609,M,40.592,M,2.6,0123*5A
$GPVTG,284.76,T,-355.14,M,001.610,N,002.981,K,D*06
$GPGGA,092843.95,5702.9497008,N,00949.2138296,E,2,4,4.1,-3.610,M,40.592,M,2.6,0123*55
$GPVTG,285.41,T,-354.49,M,001.620,N,003.001,K,D*09
$GPGGA,092844.00,5702.9497019,N,00949.2137915,E,2,4,4.1,-3.609,M,40.592,M,2.6,0123*59
$GPVTG,285.91,T,-353.99,M,001.612,N,002.986,K,D*08
$GPGGA,092844.05,5702.9496933,N,00949.2137601,E,2,4,4.1,-3.617,M,40.592,M,2.8,0123*57
$GPVTG,286.26,T,-353.64,M,001.594,N,002.952,K,D*01
$GPGGA,092844.10,5702.9496988,N,00949.2137229,E,2,4,4.1,-3.615,M,40.592,M,2.8,0123*5F
$GPVTG,287.33,T,-352.57,M,001.588,N,002.942,K,D*09
$GPGGA,092844.15,5702.9497028,N,00949.2136879,E,2,4,4.1,-3.612,M,40.592,M,2.8,0123*51
$GPVTG,288.25,T,-351.65,M,001.571,N,002.910,K,D*02
$GPGGA,092844.20,5702.9497069,N,00949.2136531,E,2,4,4.1,-3.612,M,40.592,M,2.8,0123*53
$GPVTG,289.17,T,-350.73,M,001.555,N,002.879,K,D*0C
$GPGGA,092844.25,5702.9496910,N,00949.2136170,E,2,4,4.1,-3.607,M,40.592,M,3.0,0123*5C
$GPVTG,288.25,T,-351.65,M,001.565,N,002.897,K,D*09
$GPGGA,092844.30,5702.9496979,N,00949.2135773,E,2,4,4.1,-3.603,M,40.592,M,3.0,0123*55
$GPVTG,289.15,T,-350.75,M,001.579,N,002.924,K,D*0F
$GPGGA,092844.35,5702.9497045,N,00949.2135395,E,2,4,4.1,-3.599,M,40.592,M,3.0,0123*5B
$GPVTG,290.09,T,-349.81,M,001.582,N,002.930,K,D*08
$GPGGA,092844.40,5702.9497117,N,00949.2135019,E,2,4,4.1,-3.596,M,40.592,M,3.0,0123*57
$GPVTG,291.06,T,-348.84,M,001.586,N,002.937,K,D*01
$GPGGA,092844.45,5702.9496921,N,00949.2134695,E,2,4,4.1,-3.575,M,40.592,M,3.2,0123*52
$GPVTG,290.55,T,-349.35,M,001.553,N,002.876,K,D*01
$GPGGA,092844.50,5702.9496963,N,00949.2134286,E,2,4,4.1,-3.571,M,40.592,M,3.2,0123*52
$GPVTG,290.61,T,-349.29,M,001.571,N,002.910,K,D*0A
$GPGGA,092844.55,5702.9496977,N,00949.2133903,E,2,4,4.1,-3.573,M,40.592,M,3.2,0123*51
$GPVTG,290.47,T,-349.43,M,001.570,N,002.908,K,D*0A
$GPGGA,092844.60,5702.9497028,N,00949.2133495,E,2,4,4.1,-3.566,M,40.592,M,3.2,0123*53
$GPVTG,290.74,T,-349.16,M,001.589,N,002.942,K,D*02
$GPGGA,092844.65,5702.9496733,N,00949.2133249,E,2,4,4.1,-3.581,M,40.592,M,3.4,0123*52
$GPVTG,289.20,T,-350.70,M,001.547,N,002.864,K,D*04
$GPGGA,092844.70,5702.9496797,N,00949.2132856,E,2,4,4.1,-3.583,M,40.592,M,3.4,0123*5F
$GPVTG,289.70,T,-350.20,M,001.560,N,002.890,K,D*0A
$GPGGA,092844.75,5702.9496867,N,00949.2132449,E,2,4,4.1,-3.584,M,40.592,M,3.4,0123*5F
$GPVTG,290.19,T,-349.71,M,001.581,N,002.927,K,D*03
$GPGGA,092844.80,5702.9496913,N,00949.2132081,E,2,4,4.1,-3.585,M,40.592,M,3.4,0123*56
$GPVTG,290.55,T,-349.35,M,001.577,N,002.921,K,D*04
$GPGGA,092844.85,5702.9496687,N,00949.2131731,E,2,4,4.1,-3.584,M,40.592,M,3.6,0123*5D
$GPVTG,288.91,T,-350.99,M,001.562,N,002.893,K,D*07
$GPGGA,092844.90,5702.9496711,N,00949.2131374,E,2,4,4.1,-3.594,M,40.592,M,3.6,0123*53
$GPVTG,288.84,T,-351.06,M,001.548,N,002.867,K,D*07
$GPGGA,092844.95,5702.9496752,N,00949.2131011,E,2,4,4.1,-3.600,M,40.592,M,3.6,0123*5F
$GPVTG,289.09,T,-350.81,M,001.541,N,002.854,K,D*04
$GPGGA,092845.00,5702.9496822,N,00949.2130623,E,2,4,4.1,-3.605,M,40.592,M,3.6,0123*59
$GPVTG,289.60,T,-350.30,M,001.553,N,002.875,K,D*01
$GPGGA,092845.05,5702.9496430,N,00949.2130373,E,2,4,4.1,-3.610,M,40.592,M,1.9,0123*5A
$GPVTG,287.67,T,-352.23,M,001.507,N,002.792,K,D*0F
$GPGGA,092845.10,5702.9496464,N,00949.2129967,E,2,4,4.1,-3.616,M,40.592,M,1.9,0123*5E
$GPVTG,287.41,T,-352.49,M,001.525,N,002.824,K,D*05
$GPGGA,092845.15,5702.9496517,N,00949.2129630,E,2,4,4.1,-3.620,M,40.592,M,1.9,0123*56
$GPVTG,287.96,T,-351.94,M,001.508,N,002.792,K,D*01
$GPGGA,092845.20,5702.9496554,N,00949.2129261,E,2,4,4.1,-3.624,M,40.592,M,1.9,0123*53
$GPVTG,288.03,T,-351.87,M,001.506,N,002.790,K,D*0C
$GPGGA,092845.25,5702.9496325,N,00949.2129008,E,2,4,4.1,-3.632,M,40.592,M,2.2,0123*54
$GPVTG,287.31,T,-352.59,M,001.467,N,002.716,K,D*0A
$GPGGA,092845.30,5702.9496368,N,00949.2128665,E,2,4,4.1,-3.640,M,40.592,M,2.2,0123*50
$GPVTG,287.55,T,-352.35,M,001.455,N,002.694,K,D*08
$GPGGA,092845.35,5702.9496442,N,00949.2128302,E,2,4,4.1,-3.646,M,40.592,M,2.2,0123*58
$GPVTG,288.18,T,-351.72,M,001.459,N,002.703,K,D*0D
$GPGGA,092845.40,5702.9496482,N,00949.2127944,E,2,4,4.1,-3.653,M,40.592,M,2.2,0123*55
$GPVTG,288.26,T,-351.64,M,001.457,N,002.698,K,D*0A
$GPGGA,092845.45,5702.9496070,N,00949.2127645,E,2,4,4.1,-3.631,M,40.592,M,2.4,0123*55
$GPVTG,286.56,T,-353.34,M,001.437,N,002.661,K,D*04
$GPGGA,092845.50,5702.9496116,N,00949.2127303,E,2,4,4.1,-3.633,M,40.592,M,2.4,0123*55
$GPVTG,286.80,T,-353.10,M,001.428,N,002.645,K,D*01
$GPGGA,092845.55,5702.9496143,N,00949.2126972,E,2,4,4.1,-3.632,M,40.592,M,2.4,0123*5C
$GPVTG,286.77,T,-353.13,M,001.412,N,002.615,K,D*06
$GPGGA,092845.60,5702.9496190,N,00949.2126599,E,2,4,4.1,-3.631,M,40.592,M,2.4,0123*5E
$GPVTG,286.81,T,-353.09,M,001.422,N,002.634,K,D*04
$GPGGA,092845.65,5702.9495925,N,00949.2126368,E,2,4,4.1,-3.644,M,40.592,M,2.7,0123*57
$GPVTG,286.33,T,-353.57,M,001.403,N,002.598,K,D*00
$GPGGA,092845.70,5702.9495977,N,00949.2125974,E,2,4,4.1,-3.648,M,40.592,M,2.7,0123*5C
$GPVTG,286.28,T,-353.62,M,001.427,N,002.643,K,D*0F
$GPGGA,092845.75,5702.9496023,N,00949.2125598,E,2,4,4.1,-3.651,M,40.592,M,2.7,0123*54
$GPVTG,286.25,T,-353.65,M,001.439,N,002.664,K,D*0F
$GPGGA,092845.80,5702.9496039,N,00949.2125308,E,2,4,4.1,-3.655,M,40.592,M,2.7,0123*5E
$GPVTG,286.28,T,-353.62,M,001.401,N,002.595,K,D*03
$GPGGA,092845.85,5702.9495659,N,00949.2125075,E,2,4,4.1,-3.643,M,40.592,M,2.9,0123*58
$GPVTG,285.90,T,-354.00,M,001.372,N,002.541,K,D*0A
$GPGGA,092845.90,5702.9495728,N,00949.2124743,E,2,4,4.1,-3.641,M,40.592,M,2.9,0123*5A
$GPVTG,286.55,T,-353.35,M,001.368,N,002.533,K,D*0F
$GPGGA,092845.95,5702.9495782,N,00949.2124403,E,2,4,4.1,-3.641,M,40.592,M,2.9,0123*58
$GPVTG,286.81,T,-353.09,M,001.367,N,002.531,K,D*04
$GPGGA,092846.00,5702.9495846,N,00949.2124034,E,2,4,4.1,-3.640,M,40.592,M,2.9,0123*51
$GPVTG,287.03,T,-352.87,M,001.382,N,002.560,K,D*07
$GPGGA,092846.05,5702.9495617,N,00949.2123684,E,2,4,4.1,-3.607,M,40.592,M,1.7,0123*5A
$GPVTG,286.54,T,-353.36,M,001.390,N,002.575,K,D*08
$GPGGA,092846.10,5702.9495654,N,00949.2123332,E,2,4,4.1,-3.604,M,40.592,M,1.7,0123*52
$GPVTG,286.35,T,-353.55,M,001.393,N,002.580,K,D*03
$GPGGA,092846.15,5702.9495719,N,00949.2122988,E,2,4,4.1,-3.601,M,40.592,M,1.7,0123*50
$GPVTG,286.75,T,-353.15,M,001.395,N,002.583,K,D*06
$GPGGA,092846.20,5702.9495736,N,00949.2122655,E,2,4,4.1,-3.600,M,40.592,M,1.7,0123*55
$GPVTG,286.39,T,-353.51,M,001.385,N,002.565,K,D*07
$GPGGA,092846.25,5702.9495329,N,00949.2122402,E,2,4,4.1,-3.601,M,40.592,M,2.0,0123*5F
$GPVTG,285.28,T,-354.62,M,001.393,N,002.581,K,D*0E
$GPGGA,092846.30,5702.9495382,N,00949.2122126,E,2,4,4.1,-3.597,M,40.592,M,2.0,0123*55
$GPVTG,285.90,T,-354.00,M,001.356,N,002.512,K,D*0A
$GPGGA,092846.35,5702.9495429,N,00949.2121764,E,2,4,4.1,-3.598,M,40.592,M,2.0,0123*5A
$GPVTG,285.83,T,-354.07,M,001.368,N,002.534,K,D*06
$GPGGA,092846.40,5702.9495436,N,00949.2121410,E,2,4,4.1,-3.602,M,40.592,M,2.0,0123*56
$GPVTG,285.17,T,-354.73,M,001.371,N,002.539,K,D*0D
$GPGGA,092846.45,5702.9495154,N,00949.2121171,E,1,3,4.1,-3.605,M,40.592,M,,*7F
$GPVTG,285.01,T,-354.89,M,001.355,N,002.509,K,A*0F
$GPGGA,092846.50,5702.9495195,N,00949.2120850,E,1,3,4.1,-3.606,M,40.592,M,,*7E
$GPVTG,285.09,T,-354.81,M,001.345,N,002.491,K,A*0E
$GPGGA,092846.55,5702.9495226,N,00949.2120487,E,1,3,4.1,-3.610,M,40.592,M,,*71
$GPVTG,284.80,T,-355.10,M,001.357,N,002.512,K,A*0E
$GPGGA,092846.60,5702.9495320,N,00949.2120137,E,1,3,4.1,-3.610,M,40.592,M,,*7E
$GPVTG,285.41,T,-354.49,M,001.365,N,002.529,K,A*06
$GPGGA,092846.65,5702.9495486,N,00949.2119754,E,1,3,4.1,-3.605,M,40.592,M,,*7D
$GPVTG,285.59,T,-354.31,M,001.370,N,002.538,K,A*04
$GPGGA,092846.70,5702.9495520,N,00949.2119380,E,1,3,4.1,-3.609,M,40.592,M,,*75
$GPVTG,285.32,T,-354.58,M,001.387,N,002.568,K,A*0B
$GPGGA,092846.75,5702.9495547,N,00949.2119022,E,1,3,4.1,-3.618,M,40.592,M,,*7A
$GPVTG,285.10,T,-354.80,M,001.393,N,002.580,K,A*0D
$GPGGA,092846.80,5702.9495605,N,00949.2118681,E,1,3,4.1,-3.623,M,40.592,M,,*73
$GPVTG,285.27,T,-354.63,M,001.394,N,002.582,K,A*01
$GPGGA,092846.85,5702.9495388,N,00949.2118399,E,1,3,4.1,-3.630,M,40.592,M,,*78
$GPVTG,285.02,T,-354.88,M,001.394,N,002.581,K,A*00
$GPGGA,092846.90,5702.9495431,N,00949.2118081,E,1,3,4.1,-3.634,M,40.592,M,,*77
$GPVTG,285.16,T,-354.74,M,001.382,N,002.559,K,A*04
$GPGGA,092846.95,5702.9495486,N,00949.2117721,E,1,3,4.1,-3.638,M,40.592,M,,*70
$GPVTG,285.19,T,-354.71,M,001.392,N,002.577,K,A*03
$GPGGA,092847.00,5702.9495526,N,00949.2117373,E,1,3,4.1,-3.639,M,40.592,M,,*74
$GPVTG,285.14,T,-354.76,M,001.395,N,002.583,K,A*05
$GPGGA,092847.05,5702.9495547,N,00949.2117043,E,1,3,4.1,-3.640,M,40.592,M,,*78
$GPVTG,284.91,T,-354.99,M,001.385,N,002.565,K,A*01
$GPGGA,092847.10,5702.9495591,N,00949.2116667,E,1,3,4.1,-3.639,M,40.592,M,,*78
$GPVTG,284.72,T,-355.18,M,001.403,N,002.598,K,A*0F
$GPGGA,092847.15,5702.9495625,N,00949.2116306,E,1,3,4.1,-3.639,M,40.592,M,,*73
$GPVTG,284.53,T,-355.37,M,001.411,N,002.614,K,A*05
$GPGGA,092847.20,5702.9495668,N,00949.2115967,E,1,3,4.1,-3.642,M,40.592,M,,*7E
$GPVTG,284.55,T,-355.35,M,001.409,N,002.609,K,A*04
$GPGGA,092847.25,5702.9495593,N,00949.2115680,E,1,3,4.1,-3.653,M,40.592,M,,*7A
$GPVTG,284.30,T,-355.60,M,001.399,N,002.590,K,A*0A
$GPGGA,092847.30,5702.9495618,N,00949.2115353,E,1,3,4.1,-3.656,M,40.592,M,,*70
$GPVTG,284.15,T,-355.75,M,001.389,N,002.572,K,A*04
$GPGGA,092847.35,5702.9495669,N,00949.2115037,E,1,3,4.1,-3.655,M,40.592,M,,*71
$GPVTG,284.36,T,-355.54,M,001.376,N,002.549,K,A*0E
$GPGGA,092847.40,5702.9495712,N,00949.2114669,E,1,3,4.1,-3.657,M,40.592,M,,*70
$GPVTG,284.22,T,-355.68,M,001.389,N,002.573,K,A*0D
$GPGGA,092847.45,5702.9495719,N,00949.2114352,E,1,3,4.1,-3.664,M,40.592,M,,*73
$GPVTG,284.26,T,-355.64,M,001.390,N,002.574,K,A*0A
$GPGGA,092847.50,5702.9495762,N,00949.2114013,E,1,3,4.1,-3.667,M,40.592,M,,*7E
$GPVTG,284.25,T,-355.65,M,001.388,N,002.570,K,A*05
$GPGGA,092847.55,5702.9495790,N,00949.2113710,E,1,3,4.1,-3.669,M,40.592,M,,*7B
$GPVTG,284.25,T,-355.65,M,001.368,N,002.533,K,A*0C
$GPGGA,092847.60,5702.9495836,N,00949.2113382,E,1,3,4.1,-3.668,M,40.592,M,,*70
$GPVTG,284.33,T,-355.57,M,001.362,N,002.522,K,A*00
$GPGGA,092847.65,5702.9495948,N,00949.2113032,E,1,3,4.1,-3.669,M,40.592,M,,*74
$GPVTG,284.41,T,-355.49,M,001.363,N,002.524,K,A*0D
$GPGGA,092847.70,5702.9496002,N,00949.2112701,E,1,3,4.1,-3.670,M,40.592,M,,*7A
$GPVTG,284.58,T,-355.32,M,001.359,N,002.518,K,A*0F
$GPGGA,092847.75,5702.9496035,N,00949.2112352,E,1,3,4.1,-3.673,M,40.592,M,,*7A
$GPVTG,284.36,T,-355.54,M,001.364,N,002.526,K,A*04
$GPGGA,092847.80,5702.9496083,N,00949.2112025,E,1,3,4.1,-3.674,M,40.592,M,,*79
$GPVTG,284.45,T,-355.45,M,001.359,N,002.516,K,A*0D
$GPGGA,092847.85,5702.9496029,N,00949.2111694,E,1,3,4.1,-3.681,M,40.592,M,,*79
$GPVTG,283.61,T,-356.29,M,001.362,N,002.523,K,A*0B
$GPGGA,092847.90,5702.9496106,N,00949.2111334,E,1,3,4.1,-3.680,M,40.592,M,,*7F
$GPVTG,284.00,T,-355.90,M,001.377,N,002.549,K,A*02
$GPGGA,092847.95,5702.9496174,N,00949.2110987,E,1,3,4.1,-3.683,M,40.592,M,,*7F
$GPVTG,284.29,T,-355.61,M,001.382,N,002.560,K,A*06
$GPGGA,092848.00,5702.9496220,N,00949.2110660,E,1,3,4.1,-3.683,M,40.592,M,,*78
$GPVTG,284.36,T,-355.54,M,001.376,N,002.548,K,A*0F
$GPGGA,092848.05,5702.9496196,N,00949.2110327,E,1,3,4.1,-3.687,M,40.592,M,,*71
$GPVTG,283.82,T,-356.08,M,001.379,N,002.554,K,A*0F
$GPGGA,092848.10,5702.9496216,N,00949.2109982,E,1,3,4.1,-3.686,M,40.592,M,,*72
$GPVTG,283.39,T,-356.51,M,001.379,N,002.554,K,A*03
$GPGGA,092848.15,5702.9496260,N,00949.2109641,E,1,3,4.1,-3.688,M,40.592,M,,*78
$GPVTG,283.40,T,-356.50,M,001.380,N,002.555,K,A*0B
$GPGGA,092848.20,5702.9496307,N,00949.2109264,E,1,3,4.1,-3.689,M,40.592,M,,*7C
$GPVTG,283.26,T,-356.64,M,001.397,N,002.587,K,A*05
$GPGGA,092848.25,5702.9496233,N,00949.2108993,E,1,3,4.1,-3.709,M,40.592,M,,*74
