$GPGGA,090851.85,5702.8471387,N,00949.9054674,E,2,4,1.3,-5.429,M,40.592,M,3.5,0123*5B
$GPVTG,048.07,T,-591.83,M,004.312,N,007.986,K,D*02
$GPGGA,090851.90,5702.8471726,N,00949.9055496,E,2,4,1.3,-5.428,M,40.592,M,3.5,0123*5E
$GPVTG,047.66,T,-592.24,M,004.307,N,007.976,K,D*0F
$GPGGA,090851.95,5702.8472108,N,00949.9056278,E,2,4,1.3,-5.428,M,40.592,M,3.5,0123*57
$GPVTG,046.60,T,-593.30,M,004.293,N,007.950,K,D*04
$GPGGA,090852.00,5702.8472535,N,00949.9057051,E,2,4,1.3,-5.426,M,40.592,M,3.5,0123*54
$GPVTG,045.33,T,-594.57,M,004.304,N,007.972,K,D*08
$GPGGA,090852.05,5702.8472821,N,00949.9057775,E,2,4,1.3,-5.394,M,40.592,M,1.9,0123*58
$GPVTG,044.59,T,-595.31,M,004.268,N,007.904,K,D*0E
$GPGGA,090852.10,5702.8473287,N,00949.9058546,E,2,4,1.3,-5.396,M,40.592,M,1.9,0123*54
$GPVTG,043.43,T,-596.47,M,004.316,N,007.993,K,D*06
$GPGGA,090852.15,5702.8473753,N,00949.9059311,E,2,4,1.3,-5.396,M,40.592,M,1.9,0123*58
$GPVTG,042.41,T,-597.49,M,004.362,N,008.078,K,D*0A
$GPGGA,090852.20,5702.8474209,N,00949.9060073,E,2,4,1.3,-5.392,M,40.592,M,1.9,0123*5A
$GPVTG,041.60,T,-598.30,M,004.402,N,008.152,K,D*03
$GPGGA,090852.25,5702.8474589,N,00949.9060793,E,2,4,1.3,-5.397,M,40.592,M,2.1,0123*57
$GPVTG,039.90,T,-600.00,M,004.386,N,008.123,K,D*0F
$GPGGA,090852.30,5702.8475102,N,00949.9061492,E,2,4,1.3,-5.398,M,40.592,M,2.1,0123*59
$GPVTG,038.47,T,-601.43,M,004.426,N,008.198,K,D*0F
$GPGGA,090852.35,5702.8475497,N,00949.9062199,E,2,4,1.3,-5.398,M,40.592,M,2.1,0123*58
$GPVTG,038.12,T,-601.78,M,004.405,N,008.158,K,D*0A
$GPGGA,090852.40,5702.8476007,N,00949.9062909,E,2,4,1.3,-5.403,M,40.592,M,2.1,0123*50
$GPVTG,037.25,T,-602.65,M,004.460,N,008.261,K,D*04
$GPGGA,090852.45,5702.8476429,N,00949.9063619,E,2,4,1.3,-5.395,M,40.592,M,2.4,0123*5F
$GPVTG,036.59,T,-603.31,M,004.516,N,008.364,K,D*0A
$GPGGA,090852.50,5702.8476943,N,00949.9064223,E,2,4,1.3,-5.395,M,40.592,M,2.4,0123*50
$GPVTG,034.75,T,-605.15,M,004.501,N,008.336,K,D*07
$GPGGA,090852.55,5702.8477441,N,00949.9064825,E,2,4,1.3,-5.392,M,40.592,M,2.4,0123*50
$GPVTG,033.31,T,-606.59,M,004.488,N,008.311,K,D*0E
$GPGGA,090852.60,5702.8477936,N,00949.9065419,E,2,4,1.3,-5.389,M,40.592,M,2.4,0123*53
$GPVTG,032.07,T,-607.83,M,004.478,N,008.293,K,D*08
$GPGGA,090852.65,5702.8478409,N,00949.9066042,E,2,4,1.3,-5.372,M,40.592,M,2.6,0123*57
$GPVTG,031.26,T,-608.64,M,004.520,N,008.371,K,D*0F
$GPGGA,090852.70,5702.8478961,N,00949.9066585,E,2,4,1.3,-5.371,M,40.592,M,2.6,0123*5D
$GPVTG,029.57,T,-610.33,M,004.528,N,008.386,K,D*0B
$GPGGA,090852.75,5702.8479433,N,00949.9067143,E,2,4,1.3,-5.373,M,40.592,M,2.6,0123*5E
$GPVTG,028.77,T,-611.13,M,004.500,N,008.334,K,D*08
$GPGGA,090852.80,5702.8479987,N,00949.9067742,E,2,4,1.3,-5.374,M,40.592,M,2.6,0123*56
$GPVTG,028.36,T,-611.54,M,004.556,N,008.438,K,D*06
$GPGGA,090852.85,5702.8480502,N,00949.9068339,E,2,4,1.3,-5.370,M,40.592,M,2.9,0123*58
$GPVTG,027.64,T,-612.26,M,004.647,N,008.606,K,D*04
$GPGGA,090852.90,5702.8481036,N,00949.9068877,E,2,4,1.3,-5.369,M,40.592,M,2.9,0123*56
$GPVTG,026.87,T,-613.03,M,004.652,N,008.615,K,D*08
$GPGGA,090852.95,5702.8481626,N,00949.9069379,E,2,4,1.3,-5.365,M,40.592,M,2.9,0123*5C
$GPVTG,025.60,T,-614.30,M,004.680,N,008.668,K,D*00
$GPGGA,090853.00,5702.8482168,N,00949.9069811,E,2,4,1.3,-5.359,M,40.592,M,2.9,0123*55
$GPVTG,023.90,T,-616.00,M,004.647,N,008.606,K,D*0B
$GPGGA,090853.05,5702.8482701,N,00949.9070359,E,2,4,1.3,-5.374,M,40.592,M,2.0,0123*50
$GPVTG,023.54,T,-616.36,M,004.668,N,008.644,K,D*0D
$GPGGA,090853.10,5702.8483314,N,00949.9070848,E,2,4,1.3,-5.373,M,40.592,M,2.0,0123*59
$GPVTG,022.81,T,-617.09,M,004.721,N,008.742,K,D*02
$GPGGA,090853.15,5702.8483848,N,00949.9071231,E,2,4,1.3,-5.373,M,40.592,M,2.0,0123*5B
$GPVTG,021.19,T,-618.71,M,004.673,N,008.654,K,D*00
$GPGGA,090853.20,5702.8484494,N,00949.9071663,E,2,4,1.3,-5.372,M,40.592,M,2.0,0123*55
$GPVTG,020.18,T,-619.72,M,004.734,N,008.767,K,D*01
$GPGGA,090853.25,5702.8484966,N,00949.9072062,E,2,4,1.3,-5.365,M,40.592,M,2.3,0123*51
$GPVTG,019.34,T,-620.56,M,004.725,N,008.750,K,D*0D
$GPGGA,090853.30,5702.8485575,N,00949.9072390,E,2,4,1.3,-5.360,M,40.592,M,2.3,0123*51
$GPVTG,017.60,T,-622.30,M,004.727,N,008.754,K,D*06
$GPGGA,090853.35,5702.8486202,N,00949.9072713,E,2,4,1.3,-5.358,M,40.592,M,2.3,0123*54
$GPVTG,016.13,T,-623.77,M,004.748,N,008.793,K,D*03
$GPGGA,090853.40,5702.8486849,N,00949.9073102,E,2,4,1.3,-5.358,M,40.592,M,2.3,0123*54
$GPVTG,015.79,T,-624.11,M,004.806,N,008.901,K,D*0B
$GPGGA,090853.45,5702.8487463,N,00949.9073554,E,2,4,1.3,-5.395,M,40.592,M,2.5,0123*54
$GPVTG,015.60,T,-624.30,M,004.791,N,008.873,K,D*05
$GPGGA,090853.50,5702.8488029,N,00949.9073868,E,2,4,1.3,-5.396,M,40.592,M,2.5,0123*54
$GPVTG,014.83,T,-625.07,M,004.763,N,008.822,K,D*05
$GPGGA,090853.55,5702.8488681,N,00949.9074119,E,2,4,1.3,-5.400,M,40.592,M,2.5,0123*55
$GPVTG,013.23,T,-626.67,M,004.790,N,008.871,K,D*07
$GPGGA,090853.60,5702.8489309,N,00949.9074314,E,2,4,1.3,-5.407,M,40.592,M,2.5,0123*5F
$GPVTG,011.29,T,-628.61,M,004.788,N,008.867,K,D*09
$GPGGA,090853.65,5702.8489901,N,00949.9074541,E,2,4,1.3,-5.382,M,40.592,M,2.7,0123*56
$GPVTG,010.96,T,-628.94,M,004.803,N,008.896,K,D*04
$GPGGA,090853.70,5702.8490514,N,00949.9074823,E,2,4,1.3,-5.377,M,40.592,M,2.7,0123*51
$GPVTG,010.85,T,-629.05,M,004.813,N,008.914,K,D*05
$GPGGA,090853.75,5702.8491168,N,00949.9075007,E,2,4,1.3,-5.375,M,40.592,M,2.7,0123*57
$GPVTG,009.48,T,-630.42,M,004.835,N,008.954,K,D*07
$GPGGA,090853.80,5702.8491794,N,00949.9075205,E,2,4,1.3,-5.373,M,40.592,M,2.7,0123*5E
$GPVTG,008.66,T,-631.24,M,004.838,N,008.960,K,D*01
$GPGGA,090853.85,5702.8492415,N,00949.9075346,E,2,4,1.3,-5.364,M,40.592,M,3.0,0123*54
$GPVTG,007.33,T,-632.57,M,004.839,N,008.961,K,D*09
$GPGGA,090853.90,5702.8493084,N,00949.9075491,E,2,4,1.3,-5.362,M,40.592,M,3.0,0123*56
$GPVTG,006.34,T,-633.56,M,004.871,N,009.022,K,D*0C
$GPGGA,090853.95,5702.8493820,N,00949.9075644,E,2,4,1.3,-5.359,M,40.592,M,3.0,0123*57
$GPVTG,005.67,T,-634.23,M,004.957,N,009.180,K,D*00
$GPGGA,090854.00,5702.8494424,N,00949.9075742,E,2,4,1.3,-5.358,M,40.592,M,3.0,0123*55
$GPVTG,004.61,T,-635.29,M,004.927,N,009.126,K,D*07
$GPGGA,090854.05,5702.8495018,N,00949.9075891,E,2,4,1.3,-5.379,M,40.592,M,1.5,0123*5F
$GPVTG,003.93,T,-635.97,M,004.920,N,009.111,K,D*0B
$GPGGA,090854.10,5702.8495708,N,00949.9076010,E,2,4,1.3,-5.381,M,40.592,M,1.5,0123*58
$GPVTG,003.62,T,-636.28,M,004.963,N,009.191,K,D*0D
$GPGGA,090854.15,5702.8496365,N,00949.9076081,E,2,4,1.3,-5.381,M,40.592,M,1.5,0123*59
$GPVTG,002.85,T,-637.05,M,004.971,N,009.207,K,D*04
$GPGGA,090854.20,5702.8497050,N,00949.9076139,E,2,4,1.3,-5.380,M,40.592,M,1.5,0123*58
$GPVTG,002.11,T,-637.79,M,005.001,N,009.262,K,D*0E
$GPGGA,090854.25,5702.8497767,N,00949.9076135,E,2,4,1.3,-5.374,M,40.592,M,1.7,0123*5B
$GPVTG,000.98,T,-638.92,M,005.032,N,009.320,K,D*00
$GPGGA,090854.30,5702.8498394,N,00949.9076118,E,2,4,1.3,-5.375,M,40.592,M,1.7,0123*56
$GPVTG,359.77,T,-280.13,M,005.008,N,009.276,K,D*0B
$GPGGA,090854.35,5702.8499094,N,00949.9076051,E,2,4,1.3,-5.380,M,40.592,M,1.7,0123*57
$GPVTG,358.24,T,-281.66,M,005.047,N,009.347,K,D*07
$GPGGA,090854.40,5702.8499837,N,00949.9076008,E,2,4,1.3,-5.375,M,40.592,M,1.7,0123*52
$GPVTG,357.40,T,-282.50,M,005.117,N,009.477,K,D*0C
$GPGGA,090854.45,5702.8500579,N,00949.9075977,E,2,4,1.3,-5.398,M,40.592,M,2.0,0123*54
$GPVTG,356.46,T,-283.44,M,005.144,N,009.526,K,D*0C
$GPGGA,090854.50,5702.8501288,N,00949.9075824,E,2,4,1.3,-5.401,M,40.592,M,2.0,0123*58
$GPVTG,354.77,T,-285.13,M,005.186,N,009.605,K,D*04
$GPGGA,090854.55,5702.8501973,N,00949.9075661,E,2,4,1.3,-5.401,M,40.592,M,2.0,0123*5D
$GPVTG,353.35,T,-286.55,M,005.207,N,009.643,K,D*0C
$GPGGA,090854.60,5702.8502618,N,00949.9075534,E,2,4,1.3,-5.397,M,40.592,M,2.0,0123*51
$GPVTG,352.71,T,-287.19,M,005.186,N,009.605,K,D*0C
$GPGGA,090854.65,5702.8503384,N,00949.9075358,E,2,4,1.3,-5.403,M,40.592,M,2.2,0123*51
$GPVTG,351.63,T,-288.27,M,005.241,N,009.706,K,D*04
$GPGGA,090854.70,5702.8504099,N,00949.9075147,E,2,4,1.3,-5.407,M,40.592,M,2.2,0123*55
$GPVTG,350.59,T,-289.31,M,005.282,N,009.783,K,D*08
$GPGGA,090854.75,5702.8504779,N,00949.9074930,E,2,4,1.3,-5.410,M,40.592,M,2.2,0123*56
$GPVTG,349.74,T,-290.16,M,005.291,N,009.798,K,D*0A
$GPGGA,090854.80,5702.8505439,N,00949.9074634,E,2,4,1.3,-5.414,M,40.592,M,2.2,0123*55
$GPVTG,348.18,T,-291.72,M,005.297,N,009.809,K,D*03
$GPGGA,090854.85,5702.8506122,N,00949.9074341,E,2,4,1.3,-5.409,M,40.592,M,2.4,0123*51
$GPVTG,347.26,T,-292.64,M,005.316,N,009.846,K,D*06
$GPGGA,090854.90,5702.8506841,N,00949.9074032,E,2,4,1.3,-5.412,M,40.592,M,2.4,0123*54
$GPVTG,346.30,T,-293.60,M,005.
$GPGGA,090900.15,5702.8546038,N,00949.8956374,E,2,4,1.3,-5.434,M,40.592,M,1.9,0123*58
$GPVTG,260.06,T,-379.84,M,005.818,N,010.774,K,D*09
$GPGGA,090900.20,5702.8545905,N,00949.8954946,E,2,4,1.3,-5.433,M,40.592,M,1.9,0123*54
$GPVTG,259.28,T,-380.62,M,005.784,N,010.712,K,D*0B
$GPGGA,090900.25,5702.8545771,N,00949.8953531,E,2,4,1.3,-5.459,M,40.592,M,2.1,0123*50
$GPVTG,257.96,T,-381.94,M,005.819,N,010.776,K,D*01
$GPGGA,090900.30,5702.8545571,N,00949.8952089,E,2,4,1.3,-5.464,M,40.592,M,2.1,0123*5F
$GPVTG,256.87,T,-383.03,M,005.823,N,010.785,K,D*09
$GPGGA,090900.35,5702.8545498,N,00949.8950677,E,2,4,1.3,-5.469,M,40.592,M,2.1,0123*54
$GPVTG,256.92,T,-382.98,M,005.771,N,010.688,K,D*0A
$GPGGA,090900.40,5702.8545314,N,00949.8949258,E,2,4,1.3,-5.477,M,40.592,M,2.1,0123*5B
$GPVTG,256.09,T,-383.81,M,005.760,N,010.667,K,D*00
$GPGGA,090900.45,5702.8545023,N,00949.8947770,E,2,4,1.3,-5.449,M,40.592,M,2.4,0123*50
$GPVTG,255.00,T,-384.90,M,005.777,N,010.700,K,D*0B
$GPGGA,090900.50,5702.8544843,N,00949.8946327,E,2,4,1.3,-5.448,M,40.592,M,2.4,0123*5D
$GPVTG,254.53,T,-385.37,M,005.803,N,010.747,K,D*0F
$GPGGA,090900.55,5702.8544627,N,00949.8944945,E,2,4,1.3,-5.449,M,40.592,M,2.4,0123*59
$GPVTG,253.63,T,-386.27,M,005.765,N,010.676,K,D*05
$GPGGA,090900.60,5702.8544387,N,00949.8943551,E,2,4,1.3,-5.448,M,40.592,M,2.4,0123*5F
$GPVTG,252.68,T,-387.22,M,005.758,N,010.663,K,D*01
$GPGGA,090900.65,5702.8544146,N,00949.8942139,E,2,4,1.3,-5.447,M,40.592,M,2.6,0123*53
$GPVTG,251.82,T,-388.08,M,005.786,N,010.715,K,D*02
$GPGGA,090900.70,5702.8543848,N,00949.8940730,E,2,4,1.3,-5.452,M,40.592,M,2.6,0123*5E
$GPVTG,250.68,T,-389.22,M,005.821,N,010.781,K,D*01
$GPGGA,090900.75,5702.8543595,N,00949.8939390,E,2,4,1.3,-5.454,M,40.592,M,2.6,0123*50
$GPVTG,249.79,T,-390.11,M,005.764,N,010.675,K,D*05
$GPGGA,090900.80,5702.8543394,N,00949.8938086,E,2,4,1.3,-5.458,M,40.592,M,2.6,0123*54
$GPVTG,249.32,T,-390.58,M,005.664,N,010.491,K,D*0E
$GPGGA,090900.85,5702.8543135,N,00949.8936711,E,2,4,1.3,-5.444,M,40.592,M,2.9,0123*5D
$GPVTG,248.70,T,-391.20,M,005.645,N,010.455,K,D*0C
$GPGGA,090900.90,5702.8542812,N,00949.8935374,E,2,4,1.3,-5.447,M,40.592,M,2.9,0123*53
$GPVTG,247.55,T,-392.35,M,005.653,N,010.469,K,D*0B
$GPGGA,090900.95,5702.8542435,N,00949.8934017,E,2,4,1.3,-5.448,M,40.592,M,2.9,0123*57
$GPVTG,246.20,T,-393.70,M,005.712,N,010.578,K,D*0D
$GPGGA,090901.00,5702.8542139,N,00949.8932664,E,2,4,1.3,-5.450,M,40.592,M,2.9,0123*5E
$GPVTG,245.70,T,-394.20,M,005.735,N,010.622,K,D*00
$GPGGA,090901.05,5702.8541796,N,00949.8931379,E,2,4,1.3,-5.438,M,40.592,M,2.0,0123*56
$GPVTG,244.82,T,-395.08,M,005.680,N,010.520,K,D*09
$GPGGA,090901.10,5702.8541478,N,00949.8930096,E,2,4,1.3,-5.437,M,40.592,M,2.0,0123*5D
$GPVTG,244.01,T,-395.89,M,005.651,N,010.466,K,D*04
$GPGGA,090901.15,5702.8541093,N,00949.8928828,E,2,4,1.3,-5.436,M,40.592,M,2.0,0123*5C
$GPVTG,242.71,T,-397.19,M,005.646,N,010.455,K,D*08
$GPGGA,090901.20,5702.8540754,N,00949.8927576,E,2,4,1.3,-5.441,M,40.592,M,2.0,0123*5E
$GPVTG,241.89,T,-398.01,M,005.613,N,010.395,K,D*01
$GPGGA,090901.25,5702.8540342,N,00949.8926223,E,2,4,1.3,-5.417,M,40.592,M,2.3,0123*5E
$GPVTG,241.12,T,-398.78,M,005.697,N,010.552,K,D*0C
$GPGGA,090901.30,5702.8540010,N,00949.8924958,E,2,4,1.3,-5.411,M,40.592,M,2.3,0123*5D
$GPVTG,240.67,T,-399.23,M,005.685,N,010.529,K,D*0F
$GPGGA,090901.35,5702.8539640,N,00949.8923728,E,2,4,1.3,-5.412,M,40.592,M,2.3,0123*58
$GPVTG,239.83,T,-400.07,M,005.658,N,010.478,K,D*0F
$GPGGA,090901.40,5702.8539202,N,00949.8922508,E,2,4,1.3,-5.414,M,40.592,M,2.3,0123*5F
$GPVTG,238.55,T,-401.35,M,005.661,N,010.485,K,D*0D
$GPGGA,090901.45,5702.8538762,N,00949.8921339,E,2,4,1.3,-5.419,M,40.592,M,2.5,0123*54
$GPVTG,237.37,T,-402.53,M,005.636,N,010.438,K,D*01
$GPGGA,090901.50,5702.8538352,N,00949.8920126,E,2,4,1.3,-5.422,M,40.592,M,2.5,0123*52
$GPVTG,236.63,T,-403.27,M,005.643,N,010.451,K,D*0E
$GPGGA,090901.55,5702.8537955,N,00949.8918951,E,2,4,1.3,-5.425,M,40.592,M,2.5,0123*51
$GPVTG,235.87,T,-404.03,M,005.613,N,010.395,K,D*0C
$GPGGA,090901.60,5702.8537521,N,00949.8917766,E,2,4,1.3,-5.429,M,40.592,M,2.5,0123*51
$GPVTG,235.06,T,-404.84,M,005.621,N,010.411,K,D*00
$GPGGA,090901.65,5702.8536991,N,00949.8916546,E,2,4,1.3,-5.403,M,40.592,M,2.7,0123*59
$GPVTG,234.03,T,-405.87,M,005.661,N,010.484,K,D*0E
$GPGGA,090901.70,5702.8536543,N,00949.8915371,E,2,4,1.3,-5.402,M,40.592,M,2.7,0123*5E
$GPVTG,233.37,T,-406.53,M,005.677,N,010.514,K,D*0B
$GPGGA,090901.75,5702.8536082,N,00949.8914295,E,2,4,1.3,-5.405,M,40.592,M,2.7,0123*5E
$GPVTG,232.02,T,-407.88,M,005.610,N,010.391,K,D*01
$GPGGA,090901.80,5702.8535649,N,00949.8913204,E,2,4,1.3,-5.412,M,40.592,M,2.7,0123*5F
$GPVTG,231.20,T,-408.70,M,005.563,N,010.304,K,D*01
$GPGGA,090901.85,5702.8535133,N,00949.8912053,E,2,4,1.3,-5.405,M,40.592,M,3.0,0123*51
$GPVTG,230.51,T,-409.39,M,005.616,N,010.401,K,D*09
$GPGGA,090901.90,5702.8534630,N,00949.8910969,E,2,4,1.3,-5.401,M,40.592,M,3.0,0123*56
$GPVTG,229.49,T,-410.41,M,005.615,N,010.399,K,D*0A
$GPGGA,090901.95,5702.8534185,N,00949.8909929,E,2,4,1.3,-5.403,M,40.592,M,3.0,0123*54
$GPVTG,228.67,T,-411.23,M,005.554,N,010.285,K,D*08
$GPGGA,090902.00,5702.8533637,N,00949.8908902,E,2,4,1.3,-5.403,M,40.592,M,3.0,0123*5A
$GPVTG,227.27,T,-412.63,M,005.553,N,010.284,K,D*02
$GPGGA,090902.05,5702.8533095,N,00949.8907759,E,2,4,1.3,-5.356,M,40.592,M,1.5,0123*5E
$GPVTG,226.71,T,-413.19,M,005.582,N,010.337,K,D*09
$GPGGA,090902.10,5702.8532539,N,00949.8906781,E,2,4,1.3,-5.349,M,40.592,M,1.5,0123*52
$GPVTG,225.23,T,-414.67,M,005.561,N,010.299,K,D*0B
$GPGGA,090902.15,5702.8532042,N,00949.8905746,E,2,4,1.3,-5.346,M,40.592,M,1.5,0123*59
$GPVTG,224.87,T,-415.03,M,005.568,N,010.313,K,D*0D
$GPGGA,090902.20,5702.8531494,N,00949.8904737,E,2,4,1.3,-5.340,M,40.592,M,1.5,0123*52
$GPVTG,224.11,T,-415.79,M,005.589,N,010.351,K,D*06
$GPGGA,090902.25,5702.8530963,N,00949.8903852,E,2,4,1.3,-5.353,M,40.592,M,1.7,0123*58
$GPVTG,223.37,T,-416.53,M,005.578,N,010.330,K,D*07
$GPGGA,090902.30,5702.8530388,N,00949.8902859,E,2,4,1.3,-5.355,M,40.592,M,1.7,0123*5F
$GPVTG,222.59,T,-417.31,M,005.609,N,010.388,K,D*0D
$GPGGA,090902.35,5702.8529849,N,00949.8901999,E,2,4,1.3,-5.354,M,40.592,M,1.7,0123*5B
$GPVTG,221.25,T,-418.65,M,005.541,N,010.261,K,D*02
$GPGGA,090902.40,5702.8529259,N,00949.8901101,E,2,4,1.3,-5.356,M,40.592,M,1.7,0123*59
$GPVTG,220.07,T,-419.83,M,005.539,N,010.258,K,D*0F
$GPGGA,090902.45,5702.8528702,N,00949.8900180,E,2,4,1.3,-5.351,M,40.592,M,2.0,0123*5D
$GPVTG,219.50,T,-420.40,M,005.530,N,010.242,K,D*00
$GPGGA,090902.50,5702.8528145,N,00949.8899307,E,2,4,1.3,-5.354,M,40.592,M,2.0,0123*55
$GPVTG,218.66,T,-421.24,M,005.505,N,010.195,K,D*08
$GPGGA,090902.55,5702.8527547,N,00949.8898398,E,2,4,1.3,-5.354,M,40.592,M,2.0,0123*5E
$GPVTG,218.07,T,-421.83,M,005.537,N,010.254,K,D*0D
$GPGGA,090902.60,5702.8526971,N,00949.8897537,E,2,4,1.3,-5.355,M,40.592,M,2.0,0123*5D
$GPVTG,217.34,T,-422.56,M,005.527,N,010.235,K,D*0F
$GPGGA,090902.65,5702.8526328,N,00949.8896649,E,2,4,1.3,-5.327,M,40.592,M,2.2,0123*52
$GPVTG,216.78,T,-423.12,M,005.560,N,010.297,K,D*0C
$GPGGA,090902.70,5702.8525773,N,00949.8895922,E,2,4,1.3,-5.324,M,40.592,M,2.2,0123*5D
$GPVTG,215.32,T,-424.58,M,005.461,N,010.114,K,D*00
$GPGGA,090902.75,5702.8525175,N,00949.8895218,E,2,4,1.3,-5.321,M,40.592,M,2.2,0123*5F
$GPVTG,213.68,T,-426.22,M,005.398,N,009.997,K,D*0C
$GPGGA,090902.80,5702.8524529,N,00949.8894389,E,2,4,1.3,-5.316,M,40.592,M,2.2,0123*55
$GPVTG,213.23,T,-426.67,M,005.458,N,010.107,K,D*00
$GPGGA,090902.85,5702.8524004,N,00949.8893594,E,2,4,1.3,-5.329,M,40.592,M,2.4,0123*5D
$GPVTG,212.81,T,-427.09,M,005.447,N,010.087,K,D*07
$GPGGA,090902.90,5702.8523368,N,00949.8892817,E,2,4,1.3,-5.329,M,40.592,M,2.4,0123*50
$GPVTG,212.23,T,-427.67,M,005.473,N,010.137,K,D*0A
$GPGGA,090902.95,5702.8522749,N,00949.8892153,E,2,4,1.3,-5.329,M,40.592,M,2.4,0123*5A
$GPVTG,210.84,T,-429.06,M,005.428,N,010.053,K,D*01
$GPGGA,090903.00,5702.8522140,N,00949.8891482,E,2,4,1.3,-5.332,M,40.592,M,2.4,0123*58
$GPVTG,209.82,T,-430.08,M,005.391,N,009.985,K,D*06
$GPGGA,090903.05,5702.8521501,N,00949.8890798,E,2,4,1.3,-5.326,M,40.592,M,2.6,0123*51
$GPVTG,209.05,T,-430.85,M,005.382,N,009.968,K,D*0D
$GPGGA,090903.10,5702.8520848,N,00949.8890074,E,2,4,1.3,-5.325,M,40.592,M,2.6,0123*52
$GPVTG,208.77,T,-431.13,M,005.421,N,010.040,K,D*02
$GPGGA,090903.15,5702.8520219,N,00949.8889511,E,2,4,1.3,-5.325,M,40.592,M,2.6,0123*57
$GPVTG,207.15,T,-432.75,M,005.363,N,009.931,K,D*0C
$GPGGA,090903.20,5702.8519588,N,00949.8888915,E,2,4,1.3,-5.325,M,40.592,M,2.6,0123*5D
$GPVTG,206.16,T,-433.74,M,005.334,N,009.878,K,D*00
$GPGGA,090903.25,5702.8518938,N,00949.8888296,E,2,4,1.3,-5.325,M,40.592,M,2.9,0123*51
$GPVTG,205.43,T,-434.47,M,005.351,N,009.910,K,D*08
$GPGGA,090903.30,5702.8518296,N,00949.8887668,E,2,4,1.3,-5.325,M,40.592,M,2.9,0123*50
$GPVTG,205.14,T,-434.76,M,005.357,N,009.922,K,D*0F
$GPGGA,090903.35,5702.8517658,N,00949.8887091,E,2,4,1.3,-5.326,M,40.592,M,2.9,0123*5F
$GPVTG,204.48,T,-435.42,M,005.339,N,009.887,K,D*07
$GPGGA,090903.40,5702.8517031,N,00949.8886514,E,2,4,1.3,-5.326,M,40.592,M,2.9,0123*5D
$GPVTG,204.06,T,-435.84,M,005.317,N,009.846,K,D*06
$GPGGA,090903.45,5702.8516393,N,00949.8885996,E,2,4,1.3,-5.312,M,40.592,M,3.1,0123*59
$GPVTG,203.08,T,-436.82,M,005.274,N,009.768,K,D*0D
$GPGGA,090903.50,5702.8515736,N,00949.8885581,E,2,4,1.3,-5.310,M,40.592,M,3.1,0123*5D
$GPVTG,201.23,T,-438.67,M,005.225,N,009.677,K,D*08
$GPGGA,090903.55,5702.8515049,N,00949.8885089,E,2,4,1.3,-5.309,M,40.592,M,3.1,0123*52
$GPVTG,200.42,T,-439.48,M,005.244,N,009.712,K,D*07
$GPGGA,090903.60,5702.8514356,N,00949.8884543,E,2,4,1.3,-5.307,M,40.592,M,3.1,0123*54
$GPVTG,200.39,T,-439.51,M,005.290,N,009.797,K,D*07
$GPGGA,090903.65,5702.8513708,N,00949.8884077,E,2,4,1.3,-5.310,M,40.592,M,3.3,0123*5F
$GPVTG,199.57,T,-440.33,M,005.293,N,009.803,K,D*07
$GPGGA,090903.70,5702.8513050,N,00949.8883655,E,2,4,1.3,-5.313,M,40.592,M,3.3,0123*53
$GPVTG,198.64,T,-441.26,M,005.265,N,009.751,K,D*02
$GPGGA,090903.75,5702.8512391,N,00949.8883255,E,2,4,1.3,-5.313,M,40.592,M,3.3,0123*5D
$GPVTG,197.69,T,-442.21,M,005.238,N,009.701,K,D*09
$GPGGA,090903.80,5702.8511725,N,00949.8882892,E,2,4,1.3,-5.317,M,40.592,M,3.3,0123*5B
$GPVTG,196.54,T,-443.36,M,005.212,N,009.652,K,D*0E
$GPGGA,090903.85,5702.8511045,N,00949.8882498,E,2,4,1.3,-5.310,M,40.592,M,3.5,0123*58
$GPVTG,195.92,T,-443.98,M,005.210,N,009.649,K,D*0B
$GPGGA,090903.90,5702.8510392,N,00949.8882124,E,2,4,1.3,-5.311,M,40.592,M,3.5,0123*57
$GPVTG,195.37,T,-444.53,M,005.183,N,009.600,K,D*00
$GPGGA,090903.95,5702.8509672,N,00949.8881763,E,2,4,1.3,-5.309,M,40.592,M,3.5,0123*5E
$GPVTG,194.69,T,-445.21,M,005.218,N,009.664,K,D*0D
$GPGGA,090904.00,5702.8509000,N,00949.8881472,E,2,4,1.3,-5.307,M,40.592,M,3.5,0123*5B
$GPVTG,193.53,T,-446.37,M,005.192,N,009.615,K,D*00
$GPGGA,090904.05,5702.8508291,N,00949.8881138,E,2,4,1.3,-5.293,M,40.592,M,1.9,0123*5C
$GPVTG,192.97,T,-446.93,M,005.210,N,009.648,K,D*06
$GPGGA,090904.10,5702.8507621,N,00949.8880956,E,2,4,1.3,-5.294,M,40.592,M,1.9,0123*5E
$GPVTG,191.04,T,-448.86,M,005.166,N,009.567,K,D*09
$GPGGA,090904.15,5702.8506962,N,00949.8880733,E,2,4,1.3,-5.295,M,40.592,M,1.9,0123*5E
$GPVTG,189.94,T,-449.96,M,005.129,N,009.499,K,D*02
$GPGGA,090904.20,5702.8506229,N,00949.8880500,E,2,4,1.3,-5.291,M,40.592,M,1.9,0123*5A
$GPVTG,189.11,T,-450.79,M,005.167,N,009.569,K,D*02
$GPGGA,090904.25,5702.8505597,N,00949.8880224,E,2,4,1.3,-5.299,M,40.592,M,2.1,0123*5C
$GPVTG,188.45,T,-451.45,M,005.156,N,009.548,K,D*0D
$GPGGA,090904.30,5702.8504921,N,00949.8880024,E,2,4,1.3,-5.300,M,40.592,M,2.1,0123*5B
$GPVTG,187.63,T,-452.27,M,005.138,N,009.515,K,D*01
$GPGGA,090904.35,5702.8504257,N,00949.8879840,E,2,4,1.3,-5.299,M,40.592,M,2.1,0123*59
$GPVTG,186.86,T,-453.04,M,005.110,N,009.464,K,D*06
$GPGGA,090904.40,5702.8503549,N,00949.8879683,E,2,4,1.3,-5.297,M,40.592,M,2.1,0123*5B
$GPVTG,186.01,T,-453.89,M,005.122,N,009.486,K,D*01
$GPGGA,090904.45,5702.8502937,N,00949.8879528,E,2,4,1.3,-5.299,M,40.592,M,2.4,0123*53
$GPVTG,185.06,T,-454.84,M,005.091,N,009.428,K,D*02
$GPGGA,090904.50,5702.8502235,N,00949.8879380,E,2,4,1.3,-5.300,M,40.592,M,2.4,0123*5B
$GPVTG,184.40,T,-455.50,M,005.099,N,009.442,K,D*0D
$GPGGA,090904.55,5702.8501535,N,00949.8879246,E,2,4,1.3,-5.301,M,40.592,M,2.4,0123*50
$GPVTG,183.78,T,-456.12,M,005.105,N,009.454,K,D*07
$GPGGA,090904.60,5702.8500884,N,00949.8879214,E,2,4,1.3,-5.298,M,40.592,M,2.4,0123*56
$GPVTG,182.68,T,-457.22,M,005.063,N,009.377,K,D*02
$GPGGA,090904.65,5702.8500270,N,00949.8879140,E,2,4,1.3,-5.298,M,40.592,M,2.6,0123*52
$GPVTG,181.85,T,-458.05,M,005.013,N,009.283,K,D*05
$GPGGA,090904.70,5702.8499594,N,00949.8879065,E,2,4,1.3,-5.301,M,40.592,M,2.6,0123*5D
$GPVTG,181.32,T,-458.58,M,005.002,N,009.263,K,D*0F
$GPGGA,090904.75,5702.8498920,N,00949.8878970,E,2,4,1.3,-5.307,M,40.592,M,2.6,0123*50
$GPVTG,181.08,T,-458.82,M,004.990,N,009.242,K,D*01
$GPGGA,090904.80,5702.8498239,N,00949.8878961,E,2,4,1.3,-5.312,M,40.592,M,2.6,0123*5D
$GPVTG,180.23,T,-459.67,M,004.984,N,009.231,K,D*02
$GPGGA,090904.85,5702.8497525,N,00949.8879038,E,2,4,1.3,-5.291,M,40.592,M,2.9,0123*5C
$GPVTG,179.27,T,-460.63,M,004.964,N,009.194,K,D*0C
$GPGGA,090904.90,5702.8496876,N,00949.8879081,E,2,4,1.3,-5.288,M,40.592,M,2.9,0123*58
$GPVTG,178.13,T,-461.77,M,004.934,N,009.138,K,D*0D
$GPGGA,090904.95,5702.8496181,N,00949.8879111,E,2,4,1.3,-5.287,M,40.592,M,2.9,0123*5B
$GPVTG,177.59,T,-462.31,M,004.947,N,009.162,K,D*06
$GPGGA,090905.00,5702.8495519,N,00949.8879193,E,2,4,1.3,-5.289,M,40.592,M,2.9,0123*54
$GPVTG,176.48,T,-463.42,M,004.932,N,009.134,K,D*03
$GPGGA,090905.05,5702.8494883,N,00949.8879297,E,2,4,1.3,-5.278,M,40.592,M,2.0,0123*5E
$GPVTG,175.27,T,-464.63,M,004.904,N,009.082,K,D*04
$GPGGA,090905.10,5702.8494219,N,00949.8879432,E,2,4,1.3,-5.280,M,40.592,M,2.0,0123*5D
$GPVTG,174.08,T,-465.82,M,004.899,N,009.074,K,D*0A
$GPGGA,090905.15,5702.8493564,N,00949.8879561,E,2,4,1.3,-5.283,M,40.592,M,2.0,0123*56
$GPVTG,173.25,T,-466.65,M,004.887,N,009.051,K,D*00
$GPGGA,090905.20,5702.8492894,N,00949.8879682,E,2,4,1.3,-5.287,M,40.592,M,2.0,0123*59
$GPVTG,172.74,T,-467.16,M,004.886,N,009.049,K,D*08
$GPGGA,090905.25,5702.8492279,N,00949.8879849,E,2,4,1.3,-5.279,M,40.592,M,2.3,0123*5E
$GPVTG,171.70,T,-468.20,M,004.881,N,009.039,K,D*05
$GPGGA,090905.30,5702.8491617,N,00949.8880020,E,2,4,1.3,-5.280,M,40.592,M,2.3,0123*52
$GPVTG,171.01,T,-468.89,M,004.879,N,009.035,K,D*0B
$GPGGA,090905.35,5702.8490989,N,00949.8880177,E,2,4,1.3,-5.278,M,40.592,M,2.3,0123*5A
$GPVTG,170.64,T,-469.26,M,004.843,N,008.969,K,D*05
$GPGGA,090905.40,5702.8490363,N,00949.8880440,E,2,4,1.3,-5.279,M,40.592,M,2.3,0123*56
$GPVTG,169.12,T,-470.78,M,004.826,N,008.937,K,D*07
$GPGGA,090905.45,5702.8489835,N,00949.8880670,E,2,4,1.3,-5.283,M,40.592,M,2.5,0123*51
$GPVTG,168.05,T,-471.85,M,004.790,N,008.871,K,D*02
$GPGGA,090905.50,5702.8489204,N,00949.8880822,E,2,4,1.3,-5.284,M,40.592,M,2.5,0123*53
$GPVTG,168.43,T,-471.47,M,004.754,N,008.805,K,D*05
$GPGGA,090905.55,5702.8488576,N,00949.8881114,E,2,4,1.3,-5.286,M,40.592,M,2.5,0123*5A
$GPVTG,167.13,T,-472.77,M,004.748,N,008.793,K,D*02
$GPGGA,090905.60,5702.8487959,N,00949.8881383,E,2,4,1.3,-5.285,M,40.592,M,2.5,0123*5D
$GPVTG,166.36,T,-473.54,M,004.726,N,008.753,K,D*00
$GPGGA,090905.65,5702.8487380,N,00949.8881686,E,2,4,1.3,-5.282,M,40.592,M,2.7,0123*53
$GPVTG,165.23,T,-474.67,M,004.737,N,008.774,K,D*05
$GPGGA,090905.70,5702.8486759,N,00949.8882017,E,2,4,1.3,-5.286,M,40.592,M,2.7,0123*5F
$GPVTG,164.15,T,-475.75,M,004.733,N,008.766,K,D*04
$GPGGA,090905.75,5702.8486174,N,00949.8882340,E,2,4,1.3,-5.292,M,40.592,M,2.7,0123*57
$GPVTG,163.31,T,-476.59,M,004.693,N,008.692,K,D*09
$GPGGA,090905.80,5702.8485592,N,00949.8882626,E,2,4,1.3,-5.293,M,40.592,M,2.7,0123*56
$GPVTG,163.09,T,-476.81,M,004.641,N,008.596,K,D*0F
$GPGGA,090905.85,5702.8485025,N,00949.8882948,E,2,4,1.3,-5.281,M,40.592,M,3.0,0123*58
$GPVTG,162.45,T,-477.45,M,004.611,N,008.539,K,D*0F
$GPGGA,090905.90,5702.8484405,N,00949.8883400,E,2,4,1.3,-5.286,M,40.592,M,3.0,0123*5C
$GPVTG,160.65,T,-479.25,M,004.647,N,008.606,K,D*0B
$GPGGA,090905.95,5702.8483788,N,00949.8883887,E,2,4,1.3,-5.289,M,40.592,M,3.0,0123*54
$GPVTG,158.77,T,-481.13,M,004.689,N,008.685,K,D*08
$GPGGA,090906.00,5702.8483256,N,00949.8884320,E,2,4,1.3,-5.290,M,40.592,M,3.0,0123*54
$GPVTG,157.57,T,-482.33,M,004.638,N,008.589,K,D*01
$GPGGA,090906.05,5702.8482804,N,00949.8884727,E,2,4,1.3,-5.300,M,40.592,M,1.5,0123*51
$GPVTG,156.77,T,-483.13,M,004.585,N,008.492,K,D*0F
$GPGGA,090906.10,5702.8482282,N,00949.8885120,E,2,4,1.3,-5.307,M,40.592,M,1.5,0123*56
$GPVTG,156.41,T,-483.49,M,004.512,N,008.355,K,D*07
$GPGGA,090906.15,5702.8481700,N,00949.8885616,E,2,4,1.3,-5.315,M,40.592,M,1.5,0123*5E
$GPVTG,155.22,T,-484.68,M,004.530,N,008.389,K,D*04
$GPGGA,090906.20,5702.8481147,N,00949.8886152,E,2,4,1.3,-5.324,M,40.592,M,1.5,0123*5B
$GPVTG,153.69,T,-486.21,M,004.539,N,008.407,K,D*0A
$GPGGA,090906.25,5702.8480604,N,00949.8886612,E,2,4,1.3,-5.301,M,40.592,M,1.7,0123*59
$GPVTG,153.17,T,-486.73,M,004.503,N,008.340,K,D*09
$GPGGA,090906.30,5702.8480070,N,00949.8887081,E,2,4,1.3,-5.303,M,40.592,M,1.7,0123*57
$GPVTG,152.76,T,-487.14,M,004.462,N,008.264,K,D*0E
$GPGGA,090906.35,5702.8479527,N,00949.8887621,E,2,4,1.3,-5.303,M,40.592,M,1.7,0123*5F
$GPVTG,151.69,T,-488.21,M,004.463,N,008.265,K,D*0A
$GPGGA,090906.40,5702.8479050,N,00949.8888243,E,2,4,1.3,-5.305,M,40.592,M,1.7,0123*51
$GPVTG,149.58,T,-490.32,M,004.452,N,008.245,K,D*0A
$GPGGA,090906.45,5702.8478605,N,00949.8888737,E,2,4,1.3,-5.300,M,40.592,M,2.0,0123*54
$GPVTG,149.31,T,-490.59,M,004.419,N,008.183,K,D*0E
$GPGGA,090906.50,5702.8478068,N,00949.8889283,E,2,4,1.3,-5.303,M,40.592,M,2.0,0123*55
$GPVTG,148.84,T,-491.06,M,004.409,N,008.166,K,D*00
$GPGGA,090906.55,5702.8477553,N,00949.8889908,E,2,4,1.3,-5.309,M,40.592,M,2.0,0123*50
$GPVTG,147.49,T,-492.41,M,004.425,N,008.194,K,D*0D
$GPGGA,090906.60,5702.8477099,N,00949.8890577,E,2,4,1.3,-5.312,M,40.592,M,2.0,0123*53
$GPVTG,145.56,T,-494.34,M,004.415,N,008.177,K,D*0B
$GPGGA,090906.65,5702.8476654,N,00949.8891230,E,2,4,1.3,-5.304,M,40.592,M,2.2,0123*50
$GPVTG,143.96,T,-495.94,M,004.392,N,008.133,K,D*02
$GPGGA,090906.70,5702.8476167,N,00949.8891829,E,2,4,1.3,-5.306,M,40.592,M,2.2,0123*53
$GPVTG,143.57,T,-496.33,M,004.357,N,008.069,K,D*06
$GPGGA,090906.75,5702.8475675,N,00949.8892532,E,2,4,1.3,-5.308,M,40.592,M,2.2,0123*5B
$GPVTG,142.23,T,-497.67,M,004.389,N,008.128,K,D*03
$GPGGA,090906.80,5702.8475204,N,00949.8893227,E,2,4,1.3,-5.308,M,40.592,M,2.2,0123*51
$GPVTG,141.10,T,-498.80,M,004.394,N,008.137,K,D*04
$GPGGA,090906.85,5702.8474814,N,00949.8893892,E,2,4,1.3,-5.303,M,40.592,M,2.4,0123*57
$GPVTG,140.08,T,-499.82,M,004.354,N,008.064,K,D*04
$GPGGA,090906.90,5702.8474364,N,00949.8894576,E,2,4,1.3,-5.306,M,40.592,M,2.4,0123*5A
$GPVTG,139.33,T,-500.57,M,004.331,N,008.021,K,D*09
$GPGGA,090906.95,5702.8473943,N,00949.8895305,E,2,4,1.3,-5.315,M,40.592,M,2.4,0123*56
$GPVTG,138.03,T,-501.87,M,004.316,N,007.993,K,D*0D
$GPGGA,090907.00,5702.8473527,N,00949.8896020,E,2,4,1.3,-5.322,M,40.592,M,2.4,0123*56
$GPVTG,137.06,T,-502.84,M,004.285,N,007.937,K,D*02
$GPGGA,090907.05,5702.8473121,N,00949.8896747,E,2,4,1.3,-5.304,M,40.592,M,2.6,0123*51
$GPVTG,135.99,T,-503.91,M,004.263,N,007.895,K,D*02
$GPGGA,090907.10,5702.8472710,N,00949.8897451,E,2,4,1.3,-5.305,M,40.592,M,2.6,0123*54
$GPVTG,135.43,T,-504.47,M,004.218,N,007.812,K,D*0A
$GPGGA,090907.15,5702.8472310,N,00949.8898235,E,2,4,1.3,-5.303,M,40.592,M,2.6,0123*58
$GPVTG,134.12,T,-505.78,M,004.225,N,007.824,K,D*09
$GPGGA,090907.20,5702.8471872,N,00949.8898972,E,2,4,1.3,-5.303,M,40.592,M,2.6,0123*5A
$GPVTG,133.82,T,-506.08,M,004.217,N,007.809,K,D*0D
$GPGGA,090907.25,5702.8471551,N,00949.8899788,E,2,4,1.3,-5.299,M,40.592,M,2.9,0123*54
$GPVTG,132.00,T,-507.90,M,004.226,N,007.827,K,D*08
$GPGGA,090907.30,5702.8471209,N,00949.8900614,E,2,4,1.3,-5.308,M,40.592,M,2.9,0123*56
$GPVTG,130.38,T,-509.52,M,004.219,N,007.813,K,D*0A
$GPGGA,090907.35,5702.8470845,N,00949.8901364,E,2,4,1.3,-5.309,M,40.592,M,2.9,0123*52
$GPVTG,129.88,T,-510.02,M,004.161,N,007.706,K,D*03
$GPGGA,090907.40,5702.8470482,N,00949.8902215,E,2,4,1.3,-5.313,M,40.592,M,2.9,0123*58
$GPVTG,128.55,T,-511.35,M,004.185,N,007.750,K,D*0E
$GPGGA,090907.45,5702.8470141,N,00949.8903006,E,2,4,1.3,-5.306,M,40.592,M,3.1,0123*5B
$GPVTG,127.75,T,-512.15,M,004.147,N,007.680,K,D*00
$GPGGA,090907.50,5702.8469812,N,00949.8903838,E,2,4,1.3,-5.312,M,40.592,M,3.1,0123*58
$GPVTG,126.62,T,-513.28,M,004.132,N,007.652,K,D*05
$GPGGA,090907.55,5702.8469552,N,00949.8904708,E,2,4,1.3,-5.321,M,40.592,M,3.1,0123*5F
$GPVTG,124.67,T,-515.23,M,004.111,N,007.613,K,D*0B
$GPGGA,090907.60,5702.8469257,N,00949.8905606,E,2,4,1.3,-5.329,M,40.592,M,3.1,0123*5D
$GPVTG,123.08,T,-516.82,M,004.130,N,007.648,K,D*00
$GPGGA,090907.65,5702.8468899,N,00949.8906434,E,2,4,1.3,-5.307,M,40.592,M,3.3,0123*5F
$GPVTG,122.55,T,-517.35,M,004.101,N,007.595,K,D*05
$GPGGA,090907.70,5702.8468603,N,00949.8907296,E,2,4,1.3,-5.310,M,40.592,M,3.3,0123*5F
$GPVTG,121.60,T,-518.30,M,004.083,N,007.561,K,D*0A
$GPGGA,090907.75,5702.8468365,N,00949.8908193,E,2,4,1.3,-5.312,M,40.592,M,3.3,0123*54
$GPVTG,119.92,T,-519.98,M,004.068,N,007.533,K,D*0D
$GPGGA,090907.80,5702.8468073,N,00949.8909056,E,2,4,1.3,-5.314,M,40.592,M,3.3,0123*55
$GPVTG,119.24,T,-520.66,M,004.043,N,007.488,K,D*03
$GPGGA,090907.85,5702.8467755,N,00949.8909902,E,2,4,1.3,-5.296,M,40.592,M,3.5,0123*59
$GPVTG,118.83,T,-521.07,M,004.015,N,007.435,K,D*0C
$GPGGA,090907.90,5702.8467496,N,00949.8910844,E,2,4,1.3,-5.303,M,40.592,M,3.5,0123*57
$GPVTG,117.48,T,-522.42,M,004.049,N,007.498,K,D*08
$GPGGA,090907.95,5702.8467282,N,00949.8911773,E,2,4,1.3,-5.308,M,40.592,M,3.5,0123*50
$GPVTG,115.94,T,-523.96,M,004.047,N,007.495,K,D*00
$GPGGA,090908.00,5702.8467024,N,00949.8912700,E,2,4,1.3,-5.314,M,40.592,M,3.5,0123*57
$GPVTG,115.07,T,-524.83,M,004.055,N,007.510,K,D*06
$GPGGA,090908.05,5702.8466726,N,00949.8913619,E,2,4,1.3,-5.293,M,40.592,M,1.9,0123*5E
$GPVTG,114.11,T,-525.79,M,004.044,N,007.489,K,D*05
$GPGGA,090908.10,5702.8466529,N,00949.8914588,E,2,4,1.3,-5.293,M,40.592,M,1.9,0123*5B
$GPVTG,112.64,T,-527.26,M,004.065,N,007.529,K,D*01
$GPGGA,090908.15,5702.8466325,N,00949.8915505,E,2,4,1.3,-5.294,M,40.592,M,1.9,0123*57
$GPVTG,111.70,T,-528.20,M,004.034,N,007.471,K,D*06
$GPGGA,090908.20,5702.8466092,N,00949.8916456,E,2,4,1.3,-5.295,M,40.592,M,1.9,0123*5B
$GPVTG,110.99,T,-528.91,M,004.043,N,007.488,K,D*0C
$GPGGA,090908.25,5702.8465897,N,00949.8917379,E,2,4,1.3,-5.273,M,40.592,M,2.1,0123*58
$GPVTG,109.97,T,-529.93,M,004.018,N,007.442,K,D*01
$GPGGA,090908.30,5702.8465686,N,00949.8918368,E,2,4,1.3,-5.274,M,40.592,M,2.1,0123*5A
$GPVTG,109.10,T,-530.80,M,004.053,N,007.506,K,D*0A
$GPGGA,090908.35,5702.8465495,N,00949.8919307,E,2,4,1.3,-5.274,M,40.592,M,2.1,0123*57
$GPVTG,108.40,T,-531.50,M,004.028,N,007.460,K,D*0F
$GPGGA,090908.40,5702.8465334,N,00949.8920384,E,2,4,1.3,-5.275,M,40.592,M,2.1,0123*59
$GPVTG,106.86,T,-533.04,M,004.129,N,007.648,K,D*00
$GPGGA,090908.45,5702.8465195,N,00949.8921262,E,2,4,1.3,-5.283,M,40.592,M,2.4,0123*51
$GPVTG,106.39,T,-533.51,M,004.027,N,007.458,K,D*08
$GPGGA,090908.50,5702.8465076,N,00949.8922185,E,2,4,1.3,-5.278,M,40.592,M,2.4,0123*54
$GPVTG,105.26,T,-534.64,M,003.962,N,007.338,K,D*0A
$GPGGA,090908.55,5702.8464934,N,00949.8923215,E,2,4,1.3,-5.277,M,40.592,M,2.4,0123*5B
$GPVTG,104.10,T,-535.80,M,004.015,N,007.435,K,D*01
$GPGGA,090908.60,5702.8464811,N,00949.8924197,E,2,4,1.3,-5.287,M,40.592,M,2.4,0123*5A
$GPVTG,103.04,T,-536.86,M,004.009,N,007.425,K,D*0A
$GPGGA,090908.65,5702.8464772,N,00949.8925178,E,2,4,1.3,-5.308,M,40.592,M,2.6,0123*51
$GPVTG,100.53,T,-539.37,M,003.982,N,007.375,K,D*01
$GPGGA,090908.70,5702.8464667,N,00949.8926164,E,2,4,1.3,-5.318,M,40.592,M,2.6,0123*5F
$GPVTG,099.70,T,-540.20,M,003.983,N,007.377,K,D*0A
$GPGGA,090908.75,5702.8464580,N,00949.8927212,E,2,4,1.3,-5.325,M,40.592,M,2.6,0123*5D
$GPVTG,098.52,T,-541.38,M,004.026,N,007.457,K,D*07
$GPGGA,090908.80,5702.8464504,N,00949.8928211,E,2,4,1.3,-5.330,M,40.592,M,2.6,0123*53
$GPVTG,097.46,T,-542.44,M,004.025,N,007.454,K,D*05
$GPGGA,090908.85,5702.8464371,N,00949.8929250,E,2,4,1.3,-5.293,M,40.592,M,2.9,0123*51
$GPVTG,096.50,T,-543.40,M,004.006,N,007.420,K,D*04
$GPGGA,090908.90,5702.8464279,N,00949.8930245,E,2,4,1.3,-5.288,M,40.592,M,2.9,0123*5A
$GPVTG,095.71,T,-544.19,M,003.996,N,007.401,K,D*0B
$GPGGA,090908.95,5702.8464230,N,00949.8931233,E,2,4,1.3,-5.290,M,40.592,M,2.9,0123*5B
$GPVTG,094.70,T,-545.20,M,003.977,N,007.365,K,D*0A
$GPGGA,090909.00,5702.8464190,N,00949.8932270,E,2,4,1.3,-5.296,M,40.592,M,2.9,0123*5D
$GPVTG,093.63,T,-546.27,M,004.012,N,007.430,K,D*01
$GPGGA,090909.05,5702.8464111,N,00949.8933280,E,2,4,1.3,-5.279,M,40.592,M,2.0,0123*57
$GPVTG,092.75,T,-547.15,M,004.020,N,007.446,K,D*07
$GPGGA,090909.10,5702.8464120,N,00949.8934357,E,2,4,1.3,-5.278,M,40.592,M,2.0,0123*5C
$GPVTG,091.44,T,-548.46,M,004.086,N,007.568,K,D*0E
$GPGGA,090909.15,5702.8464110,N,00949.8935359,E,2,4,1.3,-5.276,M,40.592,M,2.0,0123*5B
$GPVTG,090.44,T,-549.46,M,004.067,N,007.532,K,D*0E
$GPGGA,090909.20,5702.8464065,N,00949.8936368,E,2,4,1.3,-5.273,M,40.592,M,2.0,0123*5A
$GPVTG,089.86,T,-550.04,M,004.057,N,007.513,K,D*06
$GPGGA,090909.25,5702.8464071,N,00949.8937349,E,2,4,1.3,-5.268,M,40.592,M,2.3,0123*51
$GPVTG,088.76,T,-551.14,M,004.022,N,007.448,K,D*05
$GPGGA,090909.30,5702.8464071,N,00949.8938381,E,2,4,1.3,-5.270,M,40.592,M,2.3,0123*57
$GPVTG,087.94,T,-551.96,M,004.040,N,007.481,K,D*0D
$GPGGA,090909.35,5702.8464138,N,00949.8939415,E,2,4,1.3,-5.278,M,40.592,M,2.3,0123*5D
$GPVTG,086.52,T,-553.38,M,004.059,N,007.518,K,D*09
$GPGGA,090909.40,5702.8464226,N,00949.8940462,E,2,4,1.3,-5.285,M,40.592,M,2.3,0123*5F
$GPVTG,085.01,T,-554.89,M,004.092,N,007.578,K,D*00
$GPGGA,090909.45,5702.8464209,N,00949.8941462,E,2,4,1.3,-5.258,M,40.592,M,2.5,0123*50
$GPVTG,083.86,T,-556.04,M,004.073,N,007.543,K,D*09
$GPGGA,090909.50,5702.8464235,N,00949.8942454,E,2,4,1.3,-5.255,M,40.592,M,2.5,0123*50
$GPVTG,083.22,T,-556.68,M,004.045,N,007.491,K,D*06
$GPGGA,090909.55,5702.8464284,N,00949.8943488,E,2,4,1.3,-5.250,M,40.592,M,2.5,0123*5A
$GPVTG,082.48,T,-557.42,M,004.065,N,007.529,K,D*02
$GPGGA,090909.60,5702.8464366,N,00949.8944452,E,2,4,1.3,-5.244,M,40.592,M,2.5,0123*54
$GPVTG,081.32,T,-558.58,M,004.017,N,007.439,K,D*0D
$GPGGA,090909.65,5702.8464477,N,00949.8945424,E,2,4,1.3,-5.238,M,40.592,M,2.7,0123*5F
$GPVTG,079.84,T,-560.06,M,003.997,N,007.403,K,D*08
$GPGGA,090909.70,5702.8464600,N,00949.8946418,E,2,4,1.3,-5.245,M,40.592,M,2.7,0123*5F
$GPVTG,078.54,T,-561.36,M,004.000,N,007.408,K,D*0D
$GPGGA,090909.75,5702.8464720,N,00949.8947412,E,2,4,1.3,-5.252,M,40.592,M,2.7,0123*54
$GPVTG,077.40,T,-562.50,M,004.005,N,007.417,K,D*0F
$GPGGA,090909.80,5702.8464859,N,00949.8948473,E,2,4,1.3,-5.255,M,40.592,M,2.7,0123*50
$GPVTG,076.42,T,-563.48,M,004.082,N,007.561,K,D*0B
$GPGGA,090909.85,5702.8464878,N,00949.8949469,E,2,4,1.3,-5.222,M,40.592,M,3.0,0123*5A
$GPVTG,075.50,T,-564.40,M,004.080,N,007.557,K,D*03
$GPGGA,090909.90,5702.8465022,N,00949.8950450,E,2,4,1.3,-5.218,M,40.592,M,3.0,0123*53
$GPVTG,074.43,T,-565.47,M,004.073,N,007.544,K,D*08
$GPGGA,090909.95,5702.8465143,N,00949.8951423,E,2,4,1.3,-5.215,M,40.592,M,3.0,0123*58
$GPVTG,073.67,T,-566.23,M,004.057,N,007.514,K,D*0B
$GPGGA,090910.00,5702.8465325,N,00949.8952382,E,2,4,1.3,-5.208,M,40.592,M,3.0,0123*5D
$GPVTG,072.33,T,-567.57,M,004.044,N,007.490,K,D*06
$GPGGA,090910.05,5702.8465522,N,00949.8953306,E,2,4,1.3,-5.214,M,40.592,M,1.5,0123*5E
$GPVTG,071.12,T,-568.78,M,004.010,N,007.427,K,D*09
$GPGGA,090910.10,5702.8465731,N,00949.8954252,E,2,4,1.3,-5.217,M,40.592,M,1.5,0123*5E
$GPVTG,069.71,T,-570.19,M,004.008,N,007.423,K,D*06
$GPGGA,090910.15,5702.8466002,N,00949.8955274,E,2,4,1.3,-5.218,M,40.592,M,1.5,0123*55
$GPVTG,068.23,T,-571.67,M,004.100,N,007.594,K,D*0C
$GPGGA,090910.20,5702.8466280,N,00949.8956200,E,2,4,1.3,-5.221,M,40.592,M,1.5,0123*51
$GPVTG,066.31,T,-573.59,M,004.100,N,007.594,K,D*0E
$GPGGA,090910.25,5702.8466552,N,00949.8957143,E,2,4,1.3,-5.236,M,40.592,M,1.7,0123*5D
$GPVTG,065.03,T,-574.87,M,004.119,N,007.628,K,D*04
$GPGGA,090910.30,5702.8466789,N,00949.8958064,E,2,4,1.3,-5.241,M,40.592,M,1.7,0123*56
$GPVTG,063.90,T,-576.00,M,004.120,N,007.630,K,D*06
$GPGGA,090910.35,5702.8467083,N,00949.8958973,E,2,4,1.3,-5.241,M,40.592,M,1.7,0123*50
$GPVTG,062.29,T,-577.61,M,004.134,N,007.657,K,D*07
$GPGGA,090910.40,5702.8467384,N,00949.8959820,E,2,4,1.3,-5.246,M,40.592,M,1.7,0123*57
$GPVTG,060.48,T,-579.42,M,004.114,N,007.619,K,D*05
$GPGGA,090910.45,5702.8467455,N,00949.8960699,E,2,4,1.3,-5.205,M,40.592,M,2.0,0123*5C
$GPVTG,059.30,T,-580.60,M,004.053,N,007.506,K,D*09
$GPGGA,090910.50,5702.8467729,N,00949.8961593,E,2,4,1.3,-5.204,M,40.592,M,2.0,0123*59
$GPVTG,058.34,T,-581.56,M,004.069,N,007.536,K,D*02
$GPGGA,090910.55,5702.8468047,N,00949.8962509,E,2,4,1.3,-5.203,M,40.592,M,2.0,0123*5B
$GPVTG,057.31,T,-582.59,M,004.128,N,007.645,K,D*07
$GPGGA,090910.60,5702.8468364,N,00949.8963413,E,2,4,1.3,-5.205,M,40.592,M,2.0,0123*52
$GPVTG,056.33,T,-583.57,M,004.172,N,007.726,K,D*00
$GPGGA,090910.65,5702.8468654,N,00949.8964272,E,2,4,1.3,-5.215,M,40.592,M,2.2,0123*54
$GPVTG,055.32,T,-584.58,M,004.181,N,007.743,K,D*05
$GPGGA,090910.70,5702.8469027,N,00949.8965107,E,2,4,1.3,-5.222,M,40.592,M,2.2,0123*57
$GPVTG,053.46,T,-586.44,M,004.183,N,007.747,K,D*09
$GPGGA,090910.75,5702.8469425,N,00949.8966035,E,2,4,1.3,-5.228,M,40.592,M,2.2,0123*5D
$GPVTG,052.68,T,-587.22,M,004.308,N,007.978,K,D*06
$GPGGA,090910.80,5702.8469807,N,00949.8966862,E,2,4,1.3,-5.234,M,40.592,M,2.2,0123*5C
$GPVTG,051.10,T,-588.80,M,004.312,N,007.985,K,D*04
$GPGGA,090910.85,5702.8470085,N,00949.8967577,E,2,4,1.3,-5.188,M,40.592,M,2.4,0123*59
$GPVTG,049.88,T,-590.02,M,004.253,N,007.876,K,D*06
$GPGGA,090910.90,5702.8470395,N,00949.8968330,E,2,4,1.3,-5.182,M,40.592,M,2.4,0123*5F
$GPVTG,048.61,T,-591.29,M,004.174,N,007.731,K,D*02
$GPGGA,090910.95,5702.8470807,N,00949.8969126,E,2,4,1.3,-5.175,M,40.592,M,2.4,0123*56
$GPVTG,047.21,T,-592.69,M,004.208,N,007.793,K,D*0E
$GPGGA,090911.00,5702.8471136,N,00949.8969922,E,2,4,1.3,-5.166,M,40.592,M,2.4,0123*5F
$GPVTG,046.74,T,-593.16,M,004.200,N,007.779,K,D*0A
$GPGGA,090911.05,5702.8471400,N,00949.8970690,E,2,4,1.3,-5.149,M,40.592,M,2.6,0123*5B
$GPVTG,047.22,T,-592.68,M,004.098,N,007.590,K,D*06
$GPGGA,090911.10,5702.8471798,N,00949.8971454,E,2,4,1.3,-5.144,M,40.592,M,2.6,0123*5B
$GPVTG,046.03,T,-593.87,M,004.124,N,007.638,K,D*03
$GPGGA,090911.15,5702.8472200,N,00949.8972201,E,2,4,1.3,-5.142,M,40.592,M,2.6,0123*5A
$GPVTG,044.88,T,-595.02,M,004.137,N,007.662,K,D*04
$GPGGA,090911.20,5702.8472615,N,00949.8972985,E,2,4,1.3,-5.141,M,40.592,M,2.6,0123*58
$GPVTG,044.31,T,-595.59,M,004.197,N,007.773,K,D*03
$GPGGA,090911.25,5702.8473104,N,00949.8973715,E,2,5,1.3,-5.156,M,40.592,M,2.9,0123*55
$GPVTG,042.74,T,-597.16,M,004.197,N,007.773,K,D*0D
$GPGGA,090911.30,5702.8473485,N,00949.8974459,E,2,5,1.3,-5.155,M,40.592,M,2.9,0123*52
$GPVTG,042.13,T,-597.77,M,004.220,N,007.816,K,D*08
$GPGGA,090911.35,5702.8473969,N,00949.8975108,E,2,5,1.3,-5.158,M,40.592,M,2.9,0123*55
$GPVTG,040.22,T,-599.68,M,004.213,N,007.802,K,D*0D
$GPGGA,090911.40,5702.8474494,N,00949.8975810,E,2,5,1.3,-5.162,M,40.592,M,2.9,0123*56
$GPVTG,039.00,T,-600.90,M,004.271,N,007.910,K,D*01
$GPGGA,090911.45,5702.8474805,N,00949.8976451,E,2,5,1.3,-5.135,M,40.592,M,3.1,0123*56
$GPVTG,037.97,T,-601.93,M,004.282,N,007.931,K,D*0C
$GPGGA,090911.50,5702.8475250,N,00949.8977119,E,2,5,1.3,-5.135,M,40.592,M,3.1,0123*51
$GPVTG,037.06,T,-602.84,M,004.298,N,007.960,K,D*0E
$GPGGA,090911.55,5702.8475767,N,00949.8977776,E,2,5,1.3,-5.135,M,40.592,M,3.1,0123*5A
$GPVTG,035.89,T,-604.01,M,004.345,N,008.047,K,D*02
$GPGGA,090911.60,5702.8476252,N,00949.8978391,E,2,5,1.3,-5.134,M,40.592,M,3.1,0123*5F
$GPVTG,034.56,T,-605.34,M,004.354,N,008.063,K,D*00
$GPGGA,090911.65,5702.8476551,N,00949.8978950,E,2,5,1.3,-5.097,M,40.592,M,3.3,0123*53
$GPVTG,032.96,T,-606.94,M,004.356,N,008.068,K,D*0A
$GPGGA,090911.70,5702.8477076,N,00949.8979583,E,2,5,1.3,-5.096,M,40.592,M,3.3,0123*54
$GPVTG,032.25,T,-607.65,M,004.415,N,008.177,K,D*02
$GPGGA,090911.75,5702.8477581,N,00949.8980141,E,2,5,1.3,-5.093,M,40.592,M,3.3,0123*55
$GPVTG,030.84,T,-609.06,M,004.418,N,008.182,K,D*07
$GPGGA,090911.80,5702.8478166,N,00949.8980690,E,2,5,1.3,-5.091,M,40.592,M,3.3,0123*54
$GPVTG,029.25,T,-610.65,M,004.472,N,008.282,K,D*06
$GPGGA,090911.85,5702.8478457,N,00949.8981274,E,2,5,1.3,-5.063,M,40.592,M,3.5,0123*52
$GPVTG,028.23,T,-611.67,M,004.484,N,008.305,K,D*05
$GPGGA,090911.90,5702.8479007,N,00949.8981774,E,2,5,1.3,-5.060,M,40.592,M,3.5,0123*50
$GPVTG,026.83,T,-613.07,M,004.504,N,008.342,K,D*0F
$GPGGA,090911.95,5702.8479545,N,00949.8982333,E,2,5,1.3,-5.057,M,40.592,M,3.5,0123*56
$GPVTG,026.30,T,-613.60,M,004.543,N,008.414,K,D*01
$GPGGA,090912.00,5702.8480067,N,00949.8982776,E,2,5,1.3,-5.055,M,40.592,M,3.5,0123*5D
$GPVTG,024.78,T,-615.12,M,004.524,N,008.378,K,D*00
$GPGGA,090912.05,5702.8480332,N,00949.8983297,E,2,5,1.3,-5.007,M,40.592,M,1.9,0123*59
$GPVTG,024.63,T,-615.27,M,004.538,N,008.403,K,D*0A
$GPGGA,090912.10,5702.8480947,N,00949.8983749,E,2,5,1.3,-5.000,M,40.592,M,1.9,0123*54
$GPVTG,023.23,T,-616.67,M,004.592,N,008.504,K,D*08
$GPGGA,090912.15,5702.8481526,N,00949.8984190,E,2,5,1.3,-4.993,M,40.592,M,1.9,0123*5C
$GPVTG,022.12,T,-617.78,M,004.618,N,008.552,K,D*06
$GPGGA,090912.20,5702.8482096,N,00949.8984598,E,2,5,1.3,-4.989,M,40.592,M,1.9,0123*50
$GPVTG,020.89,T,-619.01,M,004.626,N,008.568,K,D*02
$GPGGA,090912.25,5702.8482524,N,00949.8985033,E,2,5,1.3,-4.991,M,40.592,M,2.1,0123*5E
$GPVTG,021.20,T,-618.70,M,004.660,N,008.631,K,D*0A
$GPGGA,090912.30,5702.8483181,N,00949.8985426,E,2,5,1.3,-4.995,M,40.592,M,2.1,0123*54
$GPVTG,019.72,T,-620.18,M,004.726,N,008.752,K,D*04
$GPGGA,090912.35,5702.8483858,N,00949.8985803,E,2,5,1.3,-4.999,M,40.592,M,2.1,0123*5B
$GPVTG,018.33,T,-621.57,M,004.803,N,008.895,K,D*06
$GPGGA,090912.40,5702.8484521,N,00949.8986164,E,2,5,1.3,-4.997,M,40.592,M,2.1,0123*58
$GPVTG,017.11,T,-622.79,M,004.863,N,009.006,K,D*03
$GPGGA,090912.45,5702.8484830,N,00949.8986493,E,2,5,1.3,-4.980,M,40.592,M,2.4,0123*5E
$GPVTG,016.06,T,-623.84,M,004.798,N,008.886,K,D*0D
$GPGGA,090912.50,5702.8485360,N,00949.8986784,E,2,5,1.3,-4.980,M,40.592,M,2.4,0123*50
$GPVTG,014.83,T,-625.07,M,004.740,N,008.779,K,D*05
$GPGGA,090912.55,5702.8485990,N,00949.8987113,E,2,5,1.3,-4.978,M,40.592,M,2.4,0123*5E
$GPVTG,014.19,T,-625.71,M,004.778,N,008.850,K,D*08
$GPGGA,090912.60,5702.8486635,N,00949.8987408,E,2,5,1.3,-4.980,M,40.592,M,2.4,0123*53
$GPVTG,013.29,T,-626.61,M,004.817,N,008.922,K,D*0C
$GPGGA,090912.65,5702.8487008,N,00949.8987580,E,2,5,1.3,-4.916,M,40.592,M,2.6,0123*53
$GPVTG,012.27,T,-627.63,M,004.789,N,008.869,K,D*06
$GPGGA,090912.70,5702.8487732,N,00949.8987804,E,2,5,1.3,-4.915,M,40.592,M,2.6,0123*5B
$GPVTG,010.81,T,-629.09,M,004.876,N,009.031,K,D*01
$GPGGA,090912.75,5702.8488380,N,00949.8987989,E,2,5,1.3,-4.909,M,40.592,M,2.6,0123*55
$GPVTG,009.35,T,-630.55,M,004.896,N,009.067,K,D*0A
$GPGGA,090912.80,5702.8489072,N,00949.8988185,E,2,5,1.3,-4.908,M,40.592,M,2.6,0123*5A
$GPVTG,008.32,T,-631.58,M,004.952,N,009.172,K,D*0C
$GPGGA,090912.85,5702.8489445,N,00949.8988417,E,2,5,1.3,-4.912,M,40.592,M,2.9,0123*55
$GPVTG,007.63,T,-632.27,M,004.923,N,009.117,K,D*09
$GPGGA,090912.90,5702.8490077,N,00949.8988567,E,2,5,1.3,-4.915,M,40.592,M,2.9,0123*5D
$GPVTG,006.61,T,-633.29,M,004.923,N,009.118,K,D*0A
$GPGGA,090912.95,5702.8490801,N,00949.8988727,E,2,5,1.3,-4.923,M,40.592,M,2.9,0123*52
$GPVTG,005.91,T,-633.99,M,005.003,N,009.266,K,D*0D
$GPGGA,090913.00,5702.8491515,N,00949.8988866,E,2,5,1.3,-4.924,M,40.592,M,2.9,0123*5B
$GPVTG,005.20,T,-634.70,M,005.066,N,009.381,K,D*0C
$GPGGA,090913.05,5702.8491930,N,00949.8988850,E,2,5,1.3,-4.869,M,40.592,M,2.0,0123*51
$GPVTG,003.81,T,-636.09,M,005.035,N,009.324,K,D*04
$GPGGA,090913.10,5702.8492586,N,00949.8988909,E,2,5,1.3,-4.864,M,40.592,M,2.0,0123*57
$GPVTG,002.68,T,-637.22,M,005.040,N,009.334,K,D*09
$GPGGA,090913.15,5702.8493261,N,00949.8988919,E,2,5,1.3,-4.861,M,40.592,M,2.0,0123*59
$GPVTG,001.21,T,-638.69,M,005.060,N,009.371,K,D*04
$GPGGA,090913.20,5702.8493949,N,00949.8988959,E,2,5,1.3,-4.857,M,40.592,M,2.0,0123*5F
$GPVTG,000.49,T,-639.41,M,005.090,N,009.427,K,D*0B
$GPGGA,090913.25,5702.8494356,N,00949.8988941,E,2,5,1.3,-4.837,M,40.592,M,2.3,0123*55
$GPVTG,359.20,T,-280.70,M,005.055,N,009.362,K,D*00
$GPGGA,090913.30,5702.8495021,N,00949.8988873,E,2,5,1.3,-4.836,M,40.592,M,2.3,0123*52
$GPVTG,357.67,T,-282.23,M,005.065,N,009.381,K,D*07
$GPGGA,090913.35,5702.8495744,N,00949.8988903,E,2,5,1.3,-4.832,M,40.592,M,2.3,0123*51
$GPVTG,357.83,T,-282.07,M,005.118,N,009.479,K,D*00
$GPGGA,090913.40,5702.8496440,N,00949.8988833,E,2,5,1.3,-4.829,M,40.592,M,2.3,0123*5F
$GPVTG,356.82,T,-283.08,M,005.148,N,009.535,K,D*02
$GPGGA,090913.45,5702.8496924,N,00949.8988758,E,2,5,1.3,-4.815,M,40.592,M,2.5,0123*5E
$GPVTG,355.92,T,-283.98,M,005.150,N,009.537,K,D*02
$GPGGA,090913.50,5702.8497665,N,00949.8988700,E,2,5,1.3,-4.813,M,40.592,M,2.5,0123*5A
$GPVTG,355.66,T,-284.24,M,005.211,N,009.650,K,D*0D
$GPGGA,090913.55,5702.8498320,N,00949.8988607,E,2,5,1.3,-4.811,M,40.592,M,2.5,0123*50
$GPVTG,355.03,T,-284.87,M,005.193,N,009.618,K,D*02
$GPGGA,090913.60,5702.8499001,N,00949.8988453,E,2,5,1.3,-4.809,M,40.592,M,2.5,0123*5D
$GPVTG,353.86,T,-286.04,M,005.204,N,009.638,K,D*0F
$GPGGA,090913.65,5702.8499508,N,00949.8988255,E,2,5,1.3,-4.786,M,40.592,M,2.7,0123*5E
$GPVTG,352.65,T,-287.25,M,005.203,N,009.637,K,D*09
$GPGGA,090913.70,5702.8500200,N,00949.8988071,E,2,5,1.3,-4.780,M,40.592,M,2.7,0123*56
$GPVTG,351.72,T,-288.18,M,005.221,N,009.668,K,D*07
$GPGGA,090913.75,5702.8500876,N,00949.8987890,E,2,5,1.3,-4.776,M,40.592,M,2.7,0123*59
$GPVTG,351.07,T,-288.83,M,005.220,N,009.668,K,D*06
$GPGGA,090913.80,5702.8501541,N,00949.8987635,E,2,5,1.3,-4.772,M,40.592,M,2.7,0123*5E
$GPVTG,349.69,T,-290.21,M,005.221,N,009.670,K,D*0E
$GPGGA,090913.85,5702.8502112,N,00949.8987380,E,2,5,1.3,-4.751,M,40.592,M,3.0,0123*56
$GPVTG,349.02,T,-290.88,M,005.282,N,009.783,K,D*04
$GPGGA,090913.90,5702.8502850,N,00949.8987086,E,2,5,1.3,-4.746,M,40.592,M,3.0,0123*5E
$GPVTG,347.87,T,-292.03,M,005.345,N,009.898,K,D*09
$GPGGA,090913.95,5702.8503513,N,00949.8986819,E,2,5,1.3,-4.744,M,40.592,M,3.0,0123*5D
$GPVTG,347.24,T,-292.66,M,005.326,N,009.863,K,D*02
$GPGGA,090914.00,5702.8504176,N,00949.8986538,E,2,5,1.3,-4.740,M,40.592,M,3.0,0123*5C
$GPVTG,346.64,T,-293.26,M,005.308,N,009.830,K,D*08
$GPGGA,090914.05,5702.8504736,N,00949.8986283,E,2,5,1.3,-4.728,M,40.592,M,1.5,0123*55
$GPVTG,346.72,T,-293.18,M,005.297,N,009.811,K,D*06
$GPGGA,090914.10,5702.8505432,N,00949.8985979,E,2,5,1.3,-4.731,M,40.592,M,1.5,0123*52
$GPVTG,346.21,T,-293.69,M,005.308,N,009.831,K,D*03
$GPGGA,090914.15,5702.8506140,N,00949.8985638,E,2,5,1.3,-4.731,M,40.592,M,1.5,0123*5E
$GPVTG,345.45,T,-294.45,M,005.335,N,009.881,K,D*0E
$GPGGA,090914.20,5702.8506917,N,00949.8985233,E,2,4,1.3,-4.736,M,40.592,M,1.5,0123*5B
$GPVTG,344.31,T,-295.59,M,005.432,N,010.060,K,D*0F
$GPGGA,090914.25,5702.8507678,N,00949.8984896,E,2,4,1.3,-4.758,M,40.592,M,1.7,0123*57
$GPVTG,343.89,T,-296.01,M,005.457,N,010.106,K,D*07
$GPGGA,090914.30,5702.8508354,N,00949.8984504,E,2,4,1.3,-4.766,M,40.592,M,1.7,0123*5C
$GPVTG,343.14,T,-296.76,M,005.452,N,010.097,K,D*0F
$GPGGA,090914.35,5702.8509045,N,00949.8984124,E,2,4,1.3,-4.774,M,40.592,M,1.7,0123*5E
$GPVTG,342.77,T,-297.13,M,005.450,N,010.094,K,D*08
$GPGGA,090914.40,5702.8509718,N,00949.8983663,E,2,4,1.3,-4.778,M,40.592,M,1.7,0123*5C
$GPVTG,341.56,T,-298.34,M,005.459,N,010.110,K,D*06
$GPGGA,090914.45,5702.8510392,N,00949.8983100,E,2,4,1.3,-4.751,M,40.592,M,2.0,0123*5A
$GPVTG,340.41,T,-299.49,M,005.521,N,010.226,K,D*02
$GPGGA,090914.50,5702.8511100,N,00949.8982577,E,2,4,1.3,-4.753,M,40.592,M,2.0,0123*51
$GPVTG,339.17,T,-300.73,M,005.566,N,010.307,K,D*06
$GPGGA,090914.55,5702.8511769,N,00949.8982119,E,2,4,1.3,-4.752,M,40.592,M,2.0,0123*50
$GPVTG,338.84,T,-301.06,M,005.541,N,010.262,K,D*09
$GPGGA,090914.60,5702.8512448,N,00949.8981586,E,2,4,1.3,-4.751,M,40.592,M,2.0,0123*57
$GPVTG,337.84,T,-302.06,M,005.553,N,010.284,K,D*0E
$GPGGA,090914.65,5702.8513108,N,00949.8981101,E,2,5,1.3,-4.752,M,40.592,M,2.2,0123*59
$GPVTG,337.51,T,-302.39,M,005.538,N,010.257,K,D*09
$GPGGA,090914.70,5702.8513808,N,00949.8980517,E,2,5,1.3,-4.755,M,40.592,M,2.2,0123*51
$GPVTG,336.41,T,-303.49,M,005.579,N,010.333,K,D*09
$GPGGA,090914.75,5702.8514515,N,00949.8979937,E,2,5,1.3,-4.757,M,40.592,M,2.2,0123*58
$GPVTG,335.67,T,-304.23,M,005.615,N,010.398,K,D*0D
$GPGGA,090914.80,5702.8515189,N,00949.8979354,E,2,5,1.3,-4.758,M,40.592,M,2.2,0123*52
$GPVTG,334.99,T,-304.91,M,005.615,N,010.398,K,D*04
$GPGGA,090914.85,5702.8515724,N,00949.8978731,E,2,5,1.3,-4.733,M,40.592,M,2.4,0123*5B
$GPVTG,334.29,T,-305.61,M,005.578,N,010.331,K,D*0A
$GPGGA,090914.90,5702.8516369,N,00949.8978095,E,2,5,1.3,-4.735,M,40.592,M,2.4,0123*5E
$GPVTG,333.24,T,-306.66,M,005.565,N,010.307,K,D*0D
$GPGGA,090914.95,5702.8517034,N,00949.8977433,E,2,5,1.3,-4.736,M,40.592,M,2.4,0123*55
$GPVTG,332.28,T,-307.62,M,005.581,N,010.336,K,D*0D
$GPGGA,090915.00,5702.8517713,N,00949.8976761,E,2,5,1.3,-4.738,M,40.592,M,2.4,0123*51
$GPVTG,331.51,T,-308.39,M,005.607,N,010.385,K,D*04
$GPGGA,090915.05,5702.8518226,N,00949.8975990,E,2,5,1.3,-4.714,M,40.592,M,2.6,0123*57
$GPVTG,329.91,T,-309.99,M,005.617,N,010.403,K,D*02
$GPGGA,090915.10,5702.8518852,N,00949.8975201,E,2,5,1.3,-4.715,M,40.592,M,2.6,0123*58
$GPVTG,328.18,T,-311.72,M,005.651,N,010.465,K,D*0C
$GPGGA,090915.15,5702.8519533,N,00949.8974471,E,2,5,1.3,-4.714,M,40.592,M,2.6,0123*57
$GPVTG,327.78,T,-312.12,M,005.679,N,010.517,K,D*0E
$GPGGA,090915.20,5702.8520126,N,00949.8973703,E,2,5,1.3,-4.713,M,40.592,M,2.6,0123*5D
$GPVTG,326.68,T,-313.22,M,005.649,N,010.462,K,D*0C
$GPGGA,090915.25,5702.8520709,N,00949.8972824,E,2,5,1.3,-4.662,M,40.592,M,2.9,0123*50
$GPVTG,325.99,T,-313.91,M,005.687,N,010.532,K,D*0F
$GPGGA,090915.30,5702.8521387,N,00949.8972041,E,2,5,1.3,-4.663,M,40.592,M,2.9,0123*5D
$GPVTG,325.69,T,-314.21,M,005.718,N,010.589,K,D*0B
$GPGGA,090915.35,5702.8522042,N,00949.8971222,E,2,5,1.3,-4.663,M,40.592,M,2.9,0123*55
$GPVTG,325.06,T,-314.84,M,005.745,N,010.640,K,D*03
$GPGGA,090915.40,5702.8522633,N,00949.8970380,E,2,5,1.3,-4.659,M,40.592,M,2.9,0123*56
$GPVTG,324.05,T,-315.85,M,005.727,N,010.607,K,D*06
$GPGGA,090915.45,5702.8523136,N,00949.8969466,E,2,5,1.3,-4.654,M,40.592,M,3.1,0123*53
$GPVTG,322.75,T,-317.15,M,005.777,N,010.698,K,D*0F
$GPGGA,090915.50,5702.8523735,N,00949.8968579,E,2,5,1.3,-4.658,M,40.592,M,3.1,0123*50
$GPVTG,321.86,T,-318.04,M,005.778,N,010.700,K,D*00
$GPGGA,090915.55,5702.8524337,N,00949.8967736,E,2,5,1.3,-4.660,M,40.592,M,3.1,0123*59
$GPVTG,321.59,T,-318.31,M,005.741,N,010.632,K,D*0E
$GPGGA,090915.60,5702.8524981,N,00949.8966846,E,2,5,1.3,-4.661,M,40.592,M,3.1,0123*50
$GPVTG,321.25,T,-318.65,M,005.763,N,010.674,K,D*06
$GPGGA,090915.65,5702.8525508,N,00949.8965836,E,2,5,1.3,-4.633,M,40.592,M,3.3,0123*58
$GPVTG,320.26,T,-319.64,M,005.812,N,010.764,K,D*0D
$GPGGA,090915.70,5702.8526113,N,00949.8964859,E,2,5,1.3,-4.637,M,40.592,M,3.3,0123*5D
$GPVTG,319.28,T,-320.62,M,005.851,N,010.837,K,D*0B
$GPGGA,090915.75,5702.8526666,N,00949.8963850,E,2,5,1.3,-4.639,M,40.592,M,3.3,0123*5D
$GPVTG,317.95,T,-321.95,M,005.866,N,010.864,K,D*08
$GPGGA,090915.80,5702.8527243,N,00949.8962859,E,2,5,1.3,-4.638,M,40.592,M,3.3,0123*5C
$GPVTG,317.20,T,-322.70,M,005.870,N,010.871,K,D*0D
$GPGGA,090915.85,5702.8527673,N,00949.8961947,E,2,5,1.3,-4.628,M,40.592,M,3.5,0123*54
$GPVTG,317.09,T,-322.81,M,005.770,N,010.685,K,D*02
$GPGGA,090915.90,5702.8528262,N,00949.8960968,E,2,5,1.3,-4.629,M,40.592,M,3.5,0123*56
$GPVTG,316.73,T,-323.17,M,005.768,N,010.682,K,D*0E
$GPGGA,090915.95,5702.8528811,N,00949.8960051,E,2,5,1.3,-4.631,M,40.592,M,3.5,0123*57
$GPVTG,316.76,T,-323.14,M,005.683,N,010.525,K,D*02
$GPGGA,090916.00,5702.8529350,N,00949.8959108,E,2,5,1.3,-4.636,M,40.592,M,3.5,0123*57
$GPVTG,316.49,T,-323.41,M,005.620,N,010.408,K,D*09
$GPGGA,090916.05,5702.8529859,N,00949.8958072,E,2,5,1.3,-4.618,M,40.592,M,1.9,0123*5F
$GPVTG,316.15,T,-323.75,M,005.635,N,010.435,K,D*0D
$GPGGA,090916.10,5702.8530426,N,00949.8957173,E,2,5,1.3,-4.624,M,40.592,M,1.9,0123*57
$GPVTG,316.60,T,-323.30,M,005.553,N,010.285,K,D*00
$GPGGA,090916.15,5702.8530904,N,00949.8956207,E,2,5,1.3,-4.629,M,40.592,M,1.9,0123*53
$GPVTG,315.82,T,-324.08,M,005.479,N,010.148,K,D*08
$GPGGA,090916.20,5702.8531421,N,00949.8955296,E,2,5,1.3,-4.636,M,40.592,M,1.9,0123*5B
$GPVTG,315.84,T,-324.06,M,005.392,N,009.986,K,D*00
$GPGGA,090916.25,5702.8531804,N,00949.8954386,E,2,5,1.3,-4.642,M,40.592,M,2.1,0123*5C
$GPVTG,315.74,T,-324.16,M,005.294,N,009.805,K,D*03
$GPGGA,090916.30,5702.8532306,N,00949.8953514,E,2,4,1.3,-4.651,M,40.592,M,2.1,0123*5B
$GPVTG,315.99,T,-323.91,M,005.191,N,009.614,K,D*00
$GPGGA,090916.35,5702.8532768,N,00949.8952617,E,2,4,1.3,-4.661,M,40.592,M,2.1,0123*50
$GPVTG,315.69,T,-324.21,M,005.102,N,009.449,K,D*03
$GPGGA,090916.40,5702.8533242,N,00949.8951724,E,2,4,1.3,-4.677,M,40.592,M,2.1,0123*5B
$GPVTG,315.44,T,-324.46,M,005.028,N,009.312,K,D*0D
$GPGGA,090916.45,5702.8533561,N,00949.8950802,E,2,4,1.3,-4.696,M,40.592,M,2.4,0123*58
$GPVTG,314.30,T,-325.60,M,004.950,N,009.167,K,D*0D
$GPGGA,090916.50,5702.8534049,N,00949.8949861,E,2,4,1.3,-4.707,M,40.592,M,2.4,0123*50
$GPVTG,313.70,T,-326.20,M,004.942,N,009.152,K,D*0C
$GPGGA,090916.55,5702.8534457,N,00949.8948983,E,2,4,1.3,-4.717,M,40.592,M,2.4,0123*53
$GPVTG,313.23,T,-326.67,M,004.838,N,008.959,K,D*07
$GPGGA,090916.60,5702.8534832,N,00949.8948091,E,2,4,1.3,-4.727,M,40.592,M,2.4,0123*53
$GPVTG,312.34,T,-327.56,M,004.741,N,008.781,K,D*09
$GPGGA,090916.65,5702.8535059,N,00949.8947239,E,2,4,1.3,-4.745,M,40.592,M,2.6,0123*5B
$GPVTG,311.41,T,-328.49,M,004.622,N,008.560,K,D*00
$GPGGA,090916.70,5702.8535403,N,00949.8946318,E,2,4,1.3,-4.756,M,40.592,M,2.6,0123*55
$GPVTG,310.04,T,-329.86,M,004.563,N,008.452,K,D*04
$GPGGA,090916.75,5702.8535788,N,00949.8945404,E,2,4,1.3,-4.768,M,40.592,M,2.6,0123*54
$GPVTG,309.12,T,-330.78,M,004.525,N,008.381,K,D*09
$GPGGA,090916.80,5702.8536125,N,00949.8944551,E,2,4,1.3,-4.779,M,40.592,M,2.6,0123*5C
$GPVTG,308.44,T,-331.46,M,004.415,N,008.176,K,D*0F
$GPGGA,090916.85,5702.8536343,N,00949.8943710,E,2,4,1.3,-4.794,M,40.592,M,2.9,0123*57
$GPVTG,307.33,T,-332.57,M,004.300,N,007.963,K,D*03
$GPGGA,090916.90,5702.8536662,N,00949.8942782,E,2,4,1.3,-4.800,M,40.592,M,2.9,0123*5D
$GPVTG,305.79,T,-334.11,M,004.282,N,007.930,K,D*06
$GPGGA,090916.95,5702.8537058,N,00949.8941877,E,2,4,1.3,-4.809,M,40.592,M,2.9,0123*59
$GPVTG,305.27,T,-334.63,M,004.276,N,007.920,K,D*02
$GPGGA,090917.00,5702.8537258,N,00949.8940993,E,2,4,1.3,-4.814,M,40.592,M,2.9,0123*50
$GPVTG,303.28,T,-336.62,M,004.167,N,007.718,K,D*0E
$GPGGA,090917.05,5702.8537461,N,00949.8940177,E,2,4,1.3,-4.826,M,40.592,M,2.0,0123*53
$GPVTG,302.23,T,-337.67,M,004.042,N,007.485,K,D*01
$GPGGA,090917.10,5702.8537737,N,00949.8939327,E,2,4,1.3,-4.831,M,40.592,M,2.0,0123*58
$GPVTG,301.32,T,-338.59,M,003.961,N,007.336,K,D*00
$GPGGA,090917.15,5702.8538021,N,00949.8938428,E,2,4,1.3,-4.838,M,40.592,M,2.0,0123*52
$GPVTG,300.08,T,-339.82,M,003.946,N,007.307,K,D*08
$GPGGA,090917.20,5702.8538311,N,00949.8937544,E,2,4,1.3,-4.841,M,40.592,M,2.0,0123*5E
$GPVTG,299.14,T,-340.76,M,003.921,N,007.262,K,D*02
$GPGGA,090917.25,5702.8538609,N,00949.8936713,E,2,4,1.3,-4.853,M,40.592,M,2.3,0123*56
$GPVTG,298.32,T,-341.58,M,003.848,N,007.126,K,D*07
$GPGGA,090917.30,5702.8538870,N,00949.8935874,E,2,4,1.3,-4.859,M,40.592,M,2.3,0123*55
$GPVTG,297.82,T,-342.08,M,003.788,N,007.015,K,D*07
$GPGGA,090917.35,5702.8539118,N,00949.8935016,E,2,4,1.3,-4.864,M,40.592,M,2.3,0123*54
$GPVTG,296.91,T,-342.99,M,003.750,N,006.945,K,D*04
$GPGGA,090917.40,5702.8539350,N,00949.8934147,E,2,4,1.3,-4.871,M,40.592,M,2.3,0123*58
$GPVTG,295.75,T,-344.15,M,003.725,N,006.898,K,D*0C
$GPGGA,090917.45,5702.8539608,N,00949.8933294,E,2,4,1.3,-4.864,M,40.592,M,2.5,0123*5D
$GPVTG,295.35,T,-344.55,M,003.672,N,006.800,K,D*0E
$GPGGA,090917.50,5702.8539823,N,00949.8932443,E,2,4,1.3,-4.869,M,40.592,M,2.5,0123*5E
$GPVTG,294.29,T,-345.61,M,003.637,N,006.736,K,D*0F
$GPGGA,090917.55,5702.8540043,N,00949.8931591,E,2,4,1.3,-4.870,M,40.592,M,2.5,0123*5E
$GPVTG,293.43,T,-346.47,M,003.613,N,006.692,K,D*0A
$GPGGA,090917.60,5702.8540258,N,00949.8930739,E,2,4,1.3,-4.873,M,40.592,M,2.5,0123*52
$GPVTG,292.57,T,-347.33,M,003.593,N,006.654,K,D*0D
$GPGGA,090917.65,5702.8540504,N,00949.8929839,E,2,4,1.3,-4.844,M,40.592,M,2.7,0123*58
$GPVTG,292.06,T,-347.84,M,003.566,N,006.604,K,D*0A
$GPGGA,090917.70,5702.8540687,N,00949.8928943,E,2,4,1.3,-4.845,M,40.592,M,2.7,0123*58
$GPVTG,290.62,T,-349.28,M,003.602,N,006.672,K,D*02
$GPGGA,090917.75,5702.8540872,N,00949.8928091,E,2,4,1.3,-4.848,M,40.592,M,2.7,0123*52
$GPVTG,289.78,T,-350.12,M,003.578,N,006.626,K,D*0F
$GPGGA,090917.80,5702.8541080,N,00949.8927300,E,2,4,1.3,-4.845,M,40.592,M,2.7,0123*55
$GPVTG,289.72,T,-350.18,M,003.494,N,006.471,K,D*0C
$GPGGA,090917.85,5702.8541414,N,00949.8926465,E,2,4,1.3,-4.848,M,40.592,M,3.0,0123*57
$GPVTG,289.81,T,-350.09,M,003.501,N,006.484,K,D*07
$GPGGA,090917.90,5702.8541579,N,00949.8925636,E,2,4,1.3,-4.849,M,40.592,M,3.0,0123*5F
$GPVTG,289.05,T,-350.85,M,003.464,N,006.416,K,D*06
$GPGGA,090917.95,5702.8541738,N,00949.8924780,E,2,4,1.3,-4.847,M,40.592,M,3.0,0123*5E
$GPVTG,288.06,T,-351.84,M,003.467,N,006.421,K,D*03
$GPGGA,090918.00,5702.8541923,N,00949.8923963,E,2,4,1.3,-4.846,M,40.592,M,3.0,0123*5C
$GPVTG,287.82,T,-352.08,M,003.431,N,006.353,K,D*06
$GPGGA,090918.05,5702.8542222,N,00949.8923039,E,2,4,1.3,-4.812,M,40.592,M,1.5,0123*50
$GPVTG,288.32,T,-351.58,M,003.457,N,006.403,K,D*06
$GPGGA,090918.10,5702.8542378,N,00949.8922205,E,2,4,1.3,-4.809,M,40.592,M,1.5,0123*5C
$GPVTG,287.71,T,-352.19,M,003.440,N,006.371,K,D*0C
$GPGGA,090918.15,5702.8542520,N,00949.8921380,E,2,4,1.3,-4.806,M,40.592,M,1.5,0123*52
$GPVTG,287.00,T,-352.90,M,003.413,N,006.321,K,D*08
$GPGGA,090918.20,5702.8542682,N,00949.8920557,E,2,4,1.3,-4.806,M,40.592,M,1.5,0123*52
$GPVTG,286.68,T,-353.22,M,003.392,N,006.282,K,D*09
$GPGGA,090918.25,5702.8543047,N,00949.8919700,E,2,4,1.3,-4.798,M,40.592,M,1.7,0123*59
$GPVTG,287.82,T,-352.08,M,003.403,N,006.303,K,D*02
$GPGGA,090918.30,5702.8543205,N,00949.8918886,E,2,4,1.3,-4.799,M,40.592,M,1.7,0123*58
$GPVTG,287.62,T,-352.28,M,003.379,N,006.258,K,D*0B
$GPGGA,090918.35,5702.8543360,N,00949.8918069,E,2,4,1.3,-4.796,M,40.592,M,1.7,0123*59
$GPVTG,287.33,T,-352.57,M,003.363,N,006.228,K,D*0B
$GPGGA,090918.40,5702.8543508,N,00949.8917275,E,2,4,1.3,-4.795,M,40.592,M,1.7,0123*50
$GPVTG,287.11,T,-352.79,M,003.321,N,006.151,K,D*0C
$GPGGA,090918.45,5702.8543875,N,00949.8916424,E,2,4,1.3,-4.786,M,40.592,M,2.0,0123*57
$GPVTG,288.54,T,-351.36,M,003.340,N,006.186,K,D*07
$GPGGA,090918.50,5702.8544030,N,00949.8915602,E,2,4,1.3,-4.787,M,40.592,M,2.0,0123*59
$GPVTG,288.25,T,-351.65,M,003.346,N,006.197,K,D*01
$GPGGA,090918.55,5702.8544192,N,00949.8914795,E,2,4,1.3,-4.788,M,40.592,M,2.0,0123*54
$GPVTG,288.22,T,-351.68,M,003.336,N,006.178,K,D*0D
$GPGGA,090918.60,5702.8544346,N,00949.8914020,E,2,4,1.3,-4.788,M,40.592,M,2.0,0123*50
