$GPGGA,085624.45,5702.9130182,N,00950.0014656,E,2,5,1.4,-1.507,M,40.592,M,2.4,0123*53
$GPVTG,077.14,T,-562.76,M,004.767,N,008.828,K,D*06
$GPGGA,085624.50,5702.9130317,N,00950.0015901,E,2,5,1.4,-1.499,M,40.592,M,2.4,0123*53
$GPVTG,078.04,T,-561.86,M,004.834,N,008.952,K,D*01
$GPGGA,085624.55,5702.9130493,N,00950.0017085,E,2,5,1.4,-1.492,M,40.592,M,2.4,0123*51
$GPVTG,078.11,T,-561.79,M,004.822,N,008.931,K,D*07
$GPGGA,085624.60,5702.9130587,N,00950.0018276,E,2,5,1.4,-1.490,M,40.592,M,2.4,0123*50
$GPVTG,079.17,T,-560.73,M,004.803,N,008.895,K,D*07
$GPGGA,085624.65,5702.9130639,N,00950.0019520,E,2,5,1.4,-1.493,M,40.592,M,2.6,0123*57
$GPVTG,078.84,T,-561.06,M,004.858,N,008.998,K,D*0D
$GPGGA,085624.70,5702.9130729,N,00950.0020757,E,2,5,1.4,-1.491,M,40.592,M,2.6,0123*59
$GPVTG,079.94,T,-559.96,M,004.887,N,009.050,K,D*01
$GPGGA,085624.75,5702.9130857,N,00950.0021946,E,2,5,1.4,-1.490,M,40.592,M,2.6,0123*54
$GPVTG,080.27,T,-559.63,M,004.855,N,008.992,K,D*0C
$GPGGA,085624.80,5702.9130966,N,00950.0023098,E,2,5,1.4,-1.487,M,40.592,M,2.6,0123*53
$GPVTG,080.70,T,-559.20,M,004.780,N,008.852,K,D*03
$GPGGA,085624.85,5702.9130897,N,00950.0024319,E,2,5,1.4,-1.480,M,40.592,M,2.9,0123*5C
$GPVTG,081.90,T,-558.00,M,004.821,N,008.928,K,D*07
$GPGGA,085624.90,5702.9130909,N,00950.0025545,E,2,5,1.4,-1.482,M,40.592,M,2.9,0123*52
$GPVTG,083.53,T,-556.37,M,004.826,N,008.938,K,D*06
$GPGGA,085624.95,5702.9130988,N,00950.0026771,E,2,5,1.4,-1.485,M,40.592,M,2.9,0123*5F
$GPVTG,084.13,T,-555.77,M,004.837,N,008.959,K,D*05
$GPGGA,085625.00,5702.9131017,N,00950.0028005,E,2,5,1.4,-1.487,M,40.592,M,2.9,0123*54
$GPVTG,085.26,T,-554.64,M,004.851,N,008.985,K,D*00
$GPGGA,085625.05,5702.9130967,N,00950.0029119,E,2,5,1.4,-1.456,M,40.592,M,2.0,0123*56
$GPVTG,085.75,T,-554.15,M,004.821,N,008.929,K,D*01
$GPGGA,085625.10,5702.9131064,N,00950.0030317,E,2,5,1.4,-1.451,M,40.592,M,2.0,0123*5A
$GPVTG,085.74,T,-554.16,M,004.797,N,008.883,K,D*00
$GPGGA,085625.15,5702.9131145,N,00950.0031526,E,2,5,1.4,-1.440,M,40.592,M,2.0,0123*58
$GPVTG,085.91,T,-553.99,M,004.787,N,008.866,K,D*01
$GPGGA,085625.20,5702.9131165,N,00950.0032709,E,2,5,1.4,-1.434,M,40.592,M,2.0,0123*53
$GPVTG,086.81,T,-553.09,M,004.745,N,008.787,K,D*04
$GPGGA,085625.25,5702.9131081,N,00950.0033926,E,2,5,1.4,-1.426,M,40.592,M,2.3,0123*5F
$GPVTG,087.72,T,-552.18,M,004.765,N,008.825,K,D*0D
$GPGGA,085625.30,5702.9131035,N,00950.0035164,E,2,5,1.4,-1.422,M,40.592,M,2.3,0123*58
$GPVTG,089.28,T,-550.62,M,004.795,N,008.880,K,D*03
$GPGGA,085625.35,5702.9131026,N,00950.0036359,E,2,5,1.4,-1.423,M,40.592,M,2.3,0123*51
$GPVTG,090.17,T,-549.73,M,004.768,N,008.830,K,D*06
$GPGGA,085625.40,5702.9131010,N,00950.0037585,E,2,5,1.4,-1.423,M,40.592,M,2.3,0123*50
$GPVTG,091.04,T,-548.86,M,004.786,N,008.863,K,D*08
$GPGGA,085625.45,5702.9130861,N,00950.0038787,E,2,5,1.4,-1.410,M,40.592,M,2.5,0123*53
$GPVTG,091.97,T,-547.93,M,004.826,N,008.939,K,D*02
$GPGGA,085625.50,5702.9130871,N,00950.0039996,E,2,5,1.4,-1.406,M,40.592,M,2.5,0123*5E
$GPVTG,092.24,T,-547.66,M,004.813,N,008.913,K,D*0D
$GPGGA,085625.55,5702.9130865,N,00950.0041154,E,2,5,1.4,-1.399,M,40.592,M,2.5,0123*56
$GPVTG,092.70,T,-547.20,M,004.737,N,008.774,K,D*08
$GPGGA,085625.60,5702.9130877,N,00950.0042357,E,2,5,1.4,-1.394,M,40.592,M,2.5,0123*5C
$GPVTG,092.78,T,-547.12,M,004.730,N,008.761,K,D*02
$GPGGA,085625.65,5702.9130753,N,00950.0043521,E,2,5,1.4,-1.387,M,40.592,M,2.7,0123*56
$GPVTG,093.58,T,-546.32,M,004.699,N,008.703,K,D*04
$GPGGA,085625.70,5702.9130701,N,00950.0044788,E,2,5,1.4,-1.385,M,40.592,M,2.7,0123*51
$GPVTG,094.28,T,-545.62,M,004.785,N,008.861,K,D*05
$GPGGA,085625.75,5702.9130592,N,00950.0046000,E,2,5,1.4,-1.385,M,40.592,M,2.7,0123*59
$GPVTG,095.66,T,-544.24,M,004.795,N,008.881,K,D*02
$GPGGA,085625.80,5702.9130492,N,00950.0047200,E,2,5,1.4,-1.383,M,40.592,M,2.7,0123*57
$GPVTG,096.78,T,-543.12,M,004.791,N,008.872,K,D*04
$GPGGA,085625.85,5702.9130351,N,00950.0048377,E,2,5,1.4,-1.364,M,40.592,M,3.0,0123*5B
$GPVTG,097.01,T,-542.89,M,004.816,N,008.919,K,D*04
$GPGGA,085625.90,5702.9130328,N,00950.0049552,E,2,5,1.4,-1.364,M,40.592,M,3.0,0123*51
$GPVTG,097.00,T,-542.90,M,004.768,N,008.830,K,D*01
$GPGGA,085625.95,5702.9130207,N,00950.0050761,E,2,5,1.4,-1.361,M,40.592,M,3.0,0123*57
$GPVTG,098.12,T,-541.78,M,004.783,N,008.857,K,D*0C
$GPGGA,085626.00,5702.9130138,N,00950.0051968,E,2,5,1.4,-1.352,M,40.592,M,3.0,0123*51
$GPVTG,098.44,T,-541.46,M,004.787,N,008.865,K,D*07
$GPGGA,085626.05,5702.9129996,N,00950.0053140,E,2,5,1.4,-1.337,M,40.592,M,1.5,0123*54
$GPVTG,098.71,T,-541.19,M,004.775,N,008.843,K,D*02
$GPGGA,085626.10,5702.9129907,N,00950.0054303,E,2,5,1.4,-1.334,M,40.592,M,1.5,0123*59
$GPVTG,099.24,T,-540.66,M,004.731,N,008.762,K,D*06
$GPGGA,085626.15,5702.9129768,N,00950.0055491,E,2,5,1.4,-1.334,M,40.592,M,1.5,0123*56
$GPVTG,100.26,T,-539.64,M,004.735,N,008.770,K,D*0E
$GPGGA,085626.20,5702.9129661,N,00950.0056704,E,2,5,1.4,-1.333,M,40.592,M,1.5,0123*53
$GPVTG,100.66,T,-539.24,M,004.766,N,008.827,K,D*05
$GPGGA,085626.25,5702.9129374,N,00950.0057897,E,2,5,1.4,-1.325,M,40.592,M,1.7,0123*56
$GPVTG,102.05,T,-537.85,M,004.807,N,008.902,K,D*09
$GPGGA,085626.30,5702.9129244,N,00950.0059063,E,2,5,1.4,-1.323,M,40.592,M,1.7,0123*5B
$GPVTG,102.66,T,-537.24,M,004.778,N,008.850,K,D*06
$GPGGA,085626.35,5702.9129160,N,00950.0060248,E,2,5,1.4,-1.321,M,40.592,M,1.7,0123*58
$GPVTG,102.53,T,-537.37,M,004.768,N,008.830,K,D*05
$GPGGA,085626.40,5702.9128999,N,00950.0061420,E,2,5,1.4,-1.318,M,40.592,M,1.7,0123*56
$GPVTG,103.37,T,-536.53,M,004.762,N,008.820,K,D*0E
$GPGGA,085626.45,5702.9128769,N,00950.0062589,E,2,5,1.4,-1.310,M,40.592,M,2.0,0123*5F
$GPVTG,103.71,T,-536.19,M,004.780,N,008.853,K,D*0A
$GPGGA,085626.50,5702.9128583,N,00950.0063747,E,2,5,1.4,-1.310,M,40.592,M,2.0,0123*5C
$GPVTG,104.73,T,-535.17,M,004.766,N,008.827,K,D*09
$GPGGA,085626.55,5702.9128480,N,00950.0064924,E,2,5,1.4,-1.310,M,40.592,M,2.0,0123*57
$GPVTG,104.50,T,-535.40,M,004.757,N,008.810,K,D*0C
$GPGGA,085626.60,5702.9128269,N,00950.0066119,E,2,5,1.4,-1.311,M,40.592,M,2.0,0123*55
$GPVTG,105.52,T,-534.38,M,004.801,N,008.892,K,D*07
$GPGGA,085626.65,5702.9127998,N,00950.0067224,E,2,5,1.4,-1.293,M,40.592,M,2.2,0123*5F
$GPVTG,106.49,T,-533.41,M,004.789,N,008.869,K,D*0C
$GPGGA,085626.70,5702.9127834,N,00950.0068346,E,2,5,1.4,-1.289,M,40.592,M,2.2,0123*5D
$GPVTG,106.98,T,-532.92,M,004.733,N,008.766,K,D*0E
$GPGGA,085626.75,5702.9127662,N,00950.0069498,E,2,5,1.4,-1.283,M,40.592,M,2.2,0123*5A
$GPVTG,107.33,T,-532.57,M,004.727,N,008.754,K,D*03
$GPGGA,085626.80,5702.9127477,N,00950.0070642,E,2,5,1.4,-1.280,M,40.592,M,2.2,0123*58
$GPVTG,107.80,T,-532.10,M,004.719,N,008.739,K,D*0E
$GPGGA,085626.85,5702.9127160,N,00950.0071825,E,2,5,1.4,-1.287,M,40.592,M,2.4,0123*51
$GPVTG,108.67,T,-531.23,M,004.753,N,008.803,K,D*03
$GPGGA,085626.90,5702.9126953,N,00950.0072991,E,2,5,1.4,-1.284,M,40.592,M,2.4,0123*52
$GPVTG,109.10,T,-530.80,M,004.781,N,008.855,K,D*06
$GPGGA,085626.95,5702.9126707,N,00950.0074140,E,2,5,1.4,-1.283,M,40.592,M,2.4,0123*5D
$GPVTG,110.00,T,-529.90,M,004.799,N,008.889,K,D*0E
$GPGGA,085627.00,5702.9126481,N,00950.0075239,E,2,5,1.4,-1.280,M,40.592,M,2.4,0123*52
$GPVTG,110.79,T,-529.11,M,004.754,N,008.805,K,D*0C
$GPGGA,085627.05,5702.9126190,N,00950.0076231,E,2,5,1.4,-1.252,M,40.592,M,2.6,0123*54
$GPVTG,111.99,T,-527.91,M,004.670,N,008.649,K,D*04
$GPGGA,085627.10,5702.9125967,N,00950.0077359,E,2,5,1.4,-1.246,M,40.592,M,2.6,0123*58
$GPVTG,112.29,T,-527.61,M,004.685,N,008.677,K,D*04
$GPGGA,085627.15,5702.9125697,N,00950.0078462,E,2,5,1.4,-1.241,M,40.592,M,2.6,0123*5A
$GPVTG,113.19,T,-526.71,M,004.693,N,008.691,K,D*09
$GPGGA,085627.20,5702.9125457,N,00950.0079610,E,2,5,1.4,-1.239,M,40.592,M,2.6,0123*5B
$GPVTG,113.36,T,-526.54,M,004.740,N,008.779,K,D*0B
$GPGGA,085627.25,5702.9125102,N,00950.0080814,E,2,5,1.4,-1.259,M,40.592,M,2.9,0123*5E
$GPVTG,113.60,T,-526.30,M,004.798,N,008.887,K,D*01
$GPGGA,085627.30,5702.9124772,N,00950.0081879,E,2,5,1.4,-1.262,M,40.592,M,2.9,0123*58
$GPVTG,115.16,T,-524.74,M,004.780,N,008.852,K,D*05
$GPGGA,085627.35,5702.9124473,N,00950.0083026,E,2,5,1.4,-1.263,M,40.592,M,2.9,0123*5E
$GPVTG,115.67,T,-524.23,M,004.848,N,008.978,K,D*03
$GPGGA,085627.40,5702.9124169,N,00950.0084074,E,2,5,1.4,-1.265,M,40.592,M,2.9,0123*54
$GPVTG,116.79,T,-523.11,M,004.803,N,008.895,K,D*04
$GPGGA,085627.45,5702.9123833,N,00950.0085117,E,2,5,1.4,-1.241,M,40.592,M,3.1,0123*5A
$GPVTG,117.27,T,-522.63,M,004.829,N,008.944,K,D*0F
$GPGGA,085627.50,5702.9123455,N,00950.0086222,E,2,5,1.4,-1.239,M,40.592,M,3.1,0123*5B
$GPVTG,118.56,T,-521.34,M,004.
$GPGGA,085636.35,5702.9015169,N,00950.0103084,E,2,5,1.4,-1.339,M,40.592,M,2.1,0123*54
$GPVTG,221.75,T,-418.15,M,005.618,N,010.404,K,D*0A
$GPGGA,085636.40,5702.9014557,N,00950.0102153,E,2,5,1.4,-1.342,M,40.592,M,2.1,0123*58
$GPVTG,221.71,T,-418.19,M,005.630,N,010.427,K,D*09
$GPGGA,085636.45,5702.9014187,N,00950.0101082,E,2,5,1.4,-1.317,M,40.592,M,2.4,0123*5F
$GPVTG,223.56,T,-416.34,M,005.587,N,010.347,K,D*01
$GPGGA,085636.50,5702.9013603,N,00950.0100041,E,2,5,1.4,-1.316,M,40.592,M,2.4,0123*58
$GPVTG,224.42,T,-415.48,M,005.663,N,010.487,K,D*09
$GPGGA,085636.55,5702.9013007,N,00950.0099017,E,2,5,1.4,-1.313,M,40.592,M,2.4,0123*58
$GPVTG,224.80,T,-415.10,M,005.715,N,010.585,K,D*09
$GPGGA,085636.60,5702.9012347,N,00950.0097993,E,2,5,1.4,-1.308,M,40.592,M,2.4,0123*59
$GPVTG,224.57,T,-415.33,M,005.805,N,010.751,K,D*07
$GPGGA,085636.65,5702.9011919,N,00950.0097061,E,2,5,1.4,-1.313,M,40.592,M,2.6,0123*52
$GPVTG,225.14,T,-414.76,M,005.675,N,010.510,K,D*0F
$GPGGA,085636.70,5702.9011444,N,00950.0095999,E,2,5,1.4,-1.311,M,40.592,M,2.6,0123*5D
$GPVTG,226.49,T,-413.41,M,005.658,N,010.478,K,D*07
$GPGGA,085636.75,5702.9010962,N,00950.0094936,E,2,5,1.4,-1.309,M,40.592,M,2.6,0123*5D
$GPVTG,227.58,T,-412.32,M,005.641,N,010.447,K,D*07
$GPGGA,085636.80,5702.9010364,N,00950.0093859,E,2,5,1.4,-1.309,M,40.592,M,2.6,0123*54
$GPVTG,227.71,T,-412.19,M,005.713,N,010.580,K,D*09
$GPGGA,085636.85,5702.9009770,N,00950.0092891,E,2,5,1.4,-1.337,M,40.592,M,2.9,0123*5F
$GPVTG,227.24,T,-412.66,M,005.758,N,010.664,K,D*07
$GPGGA,085636.90,5702.9009322,N,00950.0091831,E,2,5,1.4,-1.340,M,40.592,M,2.9,0123*51
$GPVTG,228.23,T,-411.67,M,005.689,N,010.537,K,D*05
$GPGGA,085636.95,5702.9008828,N,00950.0090763,E,2,5,1.4,-1.340,M,40.592,M,2.9,0123*5D
$GPVTG,228.82,T,-411.08,M,005.663,N,010.487,K,D*09
$GPGGA,085637.00,5702.9008300,N,00950.0089721,E,2,5,1.4,-1.344,M,40.592,M,2.9,0123*5B
$GPVTG,228.82,T,-411.08,M,005.633,N,010.433,K,D*03
$GPGGA,085637.05,5702.9007823,N,00950.0088638,E,2,5,1.4,-1.344,M,40.592,M,2.0,0123*5A
$GPVTG,228.97,T,-410.93,M,005.643,N,010.451,K,D*07
$GPGGA,085637.10,5702.9007364,N,00950.0087522,E,2,5,1.4,-1.344,M,40.592,M,2.0,0123*51
$GPVTG,230.05,T,-409.85,M,005.636,N,010.438,K,D*07
$GPGGA,085637.15,5702.9006887,N,00950.0086408,E,2,5,1.4,-1.345,M,40.592,M,2.0,0123*5A
$GPVTG,230.78,T,-409.12,M,005.633,N,010.432,K,D*0C
$GPGGA,085637.20,5702.9006316,N,00950.0085291,E,2,5,1.4,-1.348,M,40.592,M,2.0,0123*57
$GPVTG,230.64,T,-409.26,M,005.692,N,010.542,K,D*0B
$GPGGA,085637.25,5702.9005821,N,00950.0084202,E,2,5,1.4,-1.348,M,40.592,M,2.3,0123*56
$GPVTG,230.43,T,-409.47,M,005.693,N,010.543,K,D*09
$GPGGA,085637.30,5702.9005366,N,00950.0083068,E,2,5,1.4,-1.348,M,40.592,M,2.3,0123*53
$GPVTG,231.29,T,-408.61,M,005.681,N,010.521,K,D*06
$GPGGA,085637.35,5702.9004924,N,00950.0081877,E,2,5,1.4,-1.350,M,40.592,M,2.3,0123*56
$GPVTG,232.58,T,-407.32,M,005.712,N,010.578,K,D*0D
$GPGGA,085637.40,5702.9004411,N,00950.0080718,E,2,5,1.4,-1.351,M,40.592,M,2.3,0123*59
$GPVTG,232.81,T,-407.09,M,005.746,N,010.642,K,D*0A
$GPGGA,085637.45,5702.9004007,N,00950.0079556,E,2,5,1.4,-1.344,M,40.592,M,2.5,0123*53
$GPVTG,233.30,T,-406.60,M,005.740,N,010.631,K,D*0D
$GPGGA,085637.50,5702.9003462,N,00950.0078419,E,2,5,1.4,-1.339,M,40.592,M,2.5,0123*56
$GPVTG,232.88,T,-407.02,M,005.759,N,010.665,K,D*03
$GPGGA,085637.55,5702.9003039,N,00950.0077167,E,2,5,1.4,-1.339,M,40.592,M,2.5,0123*5A
$GPVTG,234.34,T,-405.56,M,005.812,N,010.764,K,D*01
$GPGGA,085637.60,5702.9002638,N,00950.0075947,E,2,5,1.4,-1.340,M,40.592,M,2.5,0123*5C
$GPVTG,235.50,T,-404.40,M,005.806,N,010.752,K,D*04
$GPGGA,085637.65,5702.9002189,N,00950.0074850,E,2,5,1.4,-1.354,M,40.592,M,2.7,0123*55
$GPVTG,235.42,T,-404.48,M,005.749,N,010.647,K,D*0E
$GPGGA,085637.70,5702.9001741,N,00950.0073690,E,2,5,1.4,-1.357,M,40.592,M,2.7,0123*56
$GPVTG,235.57,T,-404.33,M,005.705,N,010.565,K,D*0D
$GPGGA,085637.75,5702.9001261,N,00950.0072479,E,2,5,1.4,-1.359,M,40.592,M,2.7,0123*5E
$GPVTG,235.76,T,-404.14,M,005.738,N,010.627,K,D*00
$GPGGA,085637.80,5702.9000834,N,00950.0071292,E,2,5,1.4,-1.363,M,40.592,M,2.7,0123*56
$GPVTG,236.18,T,-403.72,M,005.707,N,010.570,K,D*01
$GPGGA,085637.85,5702.9000534,N,00950.0069966,E,2,5,1.4,-1.340,M,40.592,M,3.0,0123*50
$GPVTG,237.38,T,-402.52,M,005.757,N,010.661,K,D*07
$GPGGA,085637.90,5702.9000100,N,00950.0068739,E,2,5,1.4,-1.339,M,40.592,M,3.0,0123*5C
$GPVTG,237.75,T,-402.15,M,005.758,N,010.664,K,D*07
$GPGGA,085637.95,5702.8999727,N,00950.0067513,E,2,5,1.4,-1.337,M,40.592,M,3.0,0123*59
$GPVTG,238.58,T,-401.32,M,005.722,N,010.597,K,D*03
$GPGGA,085638.00,5702.8999334,N,00950.0066212,E,2,5,1.4,-1.338,M,40.592,M,3.0,0123*54
$GPVTG,239.58,T,-400.32,M,005.775,N,010.695,K,D*00
$GPGGA,085638.05,5702.8998873,N,00950.0065021,E,2,5,1.4,-1.368,M,40.592,M,1.5,0123*5B
$GPVTG,239.71,T,-400.19,M,005.802,N,010.745,K,D*01
$GPGGA,085638.10,5702.8998464,N,00950.0063743,E,2,5,1.4,-1.372,M,40.592,M,1.5,0123*5B
$GPVTG,240.17,T,-399.73,M,005.818,N,010.776,K,D*0F
$GPGGA,085638.15,5702.8998108,N,00950.0062495,E,2,5,1.4,-1.373,M,40.592,M,1.5,0123*59
$GPVTG,240.82,T,-399.08,M,005.768,N,010.682,K,D*0D
$GPGGA,085638.20,5702.8997748,N,00950.0061220,E,2,5,1.4,-1.378,M,40.592,M,1.5,0123*52
$GPVTG,241.52,T,-398.38,M,005.750,N,010.650,K,D*07
$GPGGA,085638.25,5702.8997458,N,00950.0059914,E,2,5,1.4,-1.372,M,40.592,M,1.7,0123*5A
$GPVTG,242.28,T,-397.62,M,005.747,N,010.644,K,D*0A
$GPGGA,085638.30,5702.8997054,N,00950.0058603,E,2,5,1.4,-1.373,M,40.592,M,1.7,0123*5F
$GPVTG,242.56,T,-397.34,M,005.786,N,010.716,K,D*0B
$GPGGA,085638.35,5702.8996750,N,00950.0057259,E,2,5,1.4,-1.375,M,40.592,M,1.7,0123*5A
$GPVTG,243.84,T,-396.06,M,005.804,N,010.749,K,D*0A
$GPGGA,085638.40,5702.8996319,N,00950.0055969,E,2,5,1.4,-1.378,M,40.592,M,1.7,0123*56
$GPVTG,243.48,T,-396.42,M,005.811,N,010.762,K,D*07
$GPGGA,085638.45,5702.8996018,N,00950.0054650,E,2,5,1.4,-1.373,M,40.592,M,2.0,0123*5A
$GPVTG,244.11,T,-395.79,M,005.806,N,010.754,K,D*04
$GPGGA,085638.50,5702.8995730,N,00950.0053330,E,2,5,1.4,-1.371,M,40.592,M,2.0,0123*56
$GPVTG,245.12,T,-394.78,M,005.773,N,010.692,K,D*00
$GPGGA,085638.55,5702.8995366,N,00950.0051982,E,2,5,1.4,-1.369,M,40.592,M,2.0,0123*5C
$GPVTG,245.43,T,-394.47,M,005.806,N,010.753,K,D*09
$GPGGA,085638.60,5702.8994999,N,00950.0050668,E,2,5,1.4,-1.366,M,40.592,M,2.0,0123*54
$GPVTG,245.46,T,-394.44,M,005.795,N,010.733,K,D*0C
$GPGGA,085638.65,5702.8994775,N,00950.0049370,E,2,5,1.4,-1.377,M,40.592,M,2.2,0123*5B
$GPVTG,246.78,T,-393.12,M,005.757,N,010.661,K,D*0E
$GPGGA,085638.70,5702.8994382,N,00950.0048017,E,2,5,1.4,-1.375,M,40.592,M,2.2,0123*52
$GPVTG,246.56,T,-393.34,M,005.798,N,010.739,K,D*09
$GPGGA,085638.75,5702.8994092,N,00950.0046633,E,2,5,1.4,-1.373,M,40.592,M,2.2,0123*5D
$GPVTG,247.43,T,-392.47,M,005.825,N,010.787,K,D*05
$GPGGA,085638.80,5702.8993803,N,00950.0045259,E,2,5,1.4,-1.371,M,40.592,M,2.2,0123*59
$GPVTG,248.12,T,-391.78,M,005.831,N,010.798,K,D*0A
$GPGGA,085638.85,5702.8993476,N,00950.0043943,E,2,5,1.4,-1.384,M,40.592,M,2.4,0123*58
$GPVTG,248.01,T,-391.89,M,005.832,N,010.800,K,D*0B
$GPGGA,085638.90,5702.8993175,N,00950.0042562,E,2,5,1.4,-1.389,M,40.592,M,2.4,0123*59
$GPVTG,248.49,T,-391.41,M,005.842,N,010.820,K,D*06
$GPGGA,085638.95,5702.8992889,N,00950.0041188,E,2,5,1.4,-1.390,M,40.592,M,2.4,0123*5C
$GPVTG,248.99,T,-390.91,M,005.834,N,010.805,K,D*01
$GPGGA,085639.00,5702.8992595,N,00950.0039807,E,2,5,1.4,-1.391,M,40.592,M,2.4,0123*51
$GPVTG,249.36,T,-390.54,M,005.836,N,010.808,K,D*03
$GPGGA,085639.05,5702.8992391,N,00950.0038366,E,2,5,1.4,-1.389,M,40.592,M,2.6,0123*50
$GPVTG,250.44,T,-389.46,M,005.877,N,010.884,K,D*04
$GPGGA,085639.10,5702.8992089,N,00950.0036941,E,2,5,1.4,-1.391,M,40.592,M,2.6,0123*56
$GPVTG,250.69,T,-389.21,M,005.917,N,010.959,K,D*0C
$GPGGA,085639.15,5702.8991798,N,00950.0035554,E,2,5,1.4,-1.392,M,40.592,M,2.6,0123*5F
$GPVTG,250.82,T,-389.08,M,005.899,N,010.925,K,D*0E
$GPGGA,085639.20,5702.8991543,N,00950.0034145,E,2,5,1.4,-1.390,M,40.592,M,2.6,0123*5A
$GPVTG,251.34,T,-388.56,M,005.894,N,010.916,K,D*05
$GPGGA,085639.25,5702.8991337,N,00950.0032735,E,2,5,1.4,-1.391,M,40.592,M,2.9,0123*53
$GPVTG,251.90,T,-388.00,M,005.892,N,010.913,K,D*0B
$GPGGA,085639.30,5702.8991098,N,00950.0031315,E,2,5,1.4,-1.387,M,40.592,M,2.9,0123*53
$GPVTG,252.47,T,-387.43,M,005.888,N,010.905,K,D*06
$GPGGA,085639.35,5702.8990900,N,00950.0029894,E,2,5,1.4,-1.386,M,40.592,M,2.9,0123*55
$GPVTG,253.35,T,-386.55,M,005.870,N,010.872,K,D*02
$GPGGA,085639.40,5702.8990647,N,00950.0028478,E,2,5,1.4,-1.386,M,40.592,M,2.9,0123*54
$GPVTG,253.56,T,-386.34,M,005.863,N,010.859,K,D*0B
$GPGGA,085639.45,5702.8990445,N,00950.0027092,E,2,5,1.4,-1.403,M,40.592,M,3.1,0123*5D
$GPVTG,254.12,T,-385.78,M,005.857,N,010.848,K,D*00
$GPGGA,085639.50,5702.8990244,N,00950.0025685,E,2,5,1.4,-1.405,M,40.592,M,3.1,0123*5A
$GPVTG,254.69,T,-385.21,M,005.820,N,010.779,K,D*0D
$GPGGA,085639.55,5702.8989988,N,00950.0024237,E,2,5,1.4,-1.407,M,40.592,M,3.1,0123*52
$GPVTG,254.76,T,-385.14,M,005.853,N,010.840,K,D*04
$GPGGA,085639.60,5702.8989728,N,00950.0022812,E,2,5,1.4,-1.407,M,40.592,M,3.1,0123*5B
$GPVTG,254.68,T,-385.22,M,005.853,N,010.840,K,D*0E
$GPGGA,085639.65,5702.8989571,N,00950.0021316,E,2,5,1.4,-1.388,M,40.592,M,3.3,0123*5E
$GPVTG,255.04,T,-384.86,M,005.883,N,010.895,K,D*0F
$GPGGA,085639.70,5702.8989419,N,00950.0019870,E,2,5,1.4,-1.383,M,40.592,M,3.3,0123*5E
$GPVTG,256.02,T,-383.88,M,005.871,N,010.873,K,D*06
$GPGGA,085639.75,5702.8989273,N,00950.0018377,E,2,5,1.4,-1.383,M,40.592,M,3.3,0123*5C
$GPVTG,257.06,T,-382.84,M,005.915,N,010.955,K,D*08
$GPGGA,085639.80,5702.8989091,N,00950.0016938,E,2,5,1.4,-1.378,M,40.592,M,3.3,0123*53
$GPVTG,257.47,T,-382.43,M,005.892,N,010.912,K,D*0B
$GPGGA,085639.85,5702.8988838,N,00950.0015561,E,2,5,1.4,-1.406,M,40.592,M,3.5,0123*57
$GPVTG,257.28,T,-382.62,M,005.902,N,010.931,K,D*08
$GPGGA,085639.90,5702.8988616,N,00950.0014097,E,2,5,1.4,-1.406,M,40.592,M,3.5,0123*5C
$GPVTG,257.25,T,-382.65,M,005.917,N,010.958,K,D*09
$GPGGA,085639.95,5702.8988556,N,00950.0012653,E,2,5,1.4,-1.406,M,40.592,M,3.5,0123*56
$GPVTG,258.79,T,-381.11,M,005.866,N,010.864,K,D*06
$GPGGA,085640.00,5702.8988362,N,00950.0011161,E,2,5,1.4,-1.410,M,40.592,M,3.5,0123*57
$GPVTG,258.94,T,-380.96,M,005.908,N,010.943,K,D*06
$GPGGA,085640.05,5702.8988240,N,00950.0009738,E,2,5,1.4,-1.407,M,40.592,M,1.9,0123*58
$GPVTG,259.28,T,-380.62,M,005.843,N,010.821,K,D*00
$GPGGA,085640.10,5702.8988118,N,00950.0008289,E,2,5,1.4,-1.409,M,40.592,M,1.9,0123*52
$GPVTG,259.97,T,-379.93,M,005.819,N,010.777,K,D*0F
$GPGGA,085640.15,5702.8987938,N,00950.0006809,E,2,5,1.4,-1.408,M,40.592,M,1.9,0123*5F
$GPVTG,260.04,T,-379.86,M,005.848,N,010.830,K,D*03
$GPGGA,085640.20,5702.8987755,N,00950.0005299,E,2,5,1.4,-1.407,M,40.592,M,1.9,0123*53
$GPVTG,260.09,T,-379.81,M,005.909,N,010.943,K,D*08
$GPGGA,085640.25,5702.8987732,N,00950.0003804,E,2,5,1.4,-1.398,M,40.592,M,2.1,0123*55
$GPVTG,261.38,T,-378.52,M,005.910,N,010.946,K,D*09
$GPGGA,085640.30,5702.8987633,N,00950.0002304,E,2,5,1.4,-1.396,M,40.592,M,2.1,0123*55
$GPVTG,262.07,T,-377.83,M,005.931,N,010.984,K,D*08
$GPGGA,085640.35,5702.8987592,N,00950.0000815,E,2,5,1.4,-1.394,M,40.592,M,2.1,0123*53
$GPVTG,263.27,T,-376.63,M,005.925,N,010.972,K,D*08
$GPGGA,085640.40,5702.8987462,N,00949.9999320,E,2,5,1.4,-1.387,M,40.592,M,2.1,0123*58
$GPVTG,263.42,T,-376.48,M,005.936,N,010.994,K,D*08
$GPGGA,085640.45,5702.8987278,N,00949.9997935,E,2,5,1.4,-1.417,M,40.592,M,2.4,0123*5B
$GPVTG,263.02,T,-376.88,M,005.919,N,010.962,K,D*04
$GPGGA,085640.50,5702.8987201,N,00949.9996437,E,2,5,1.4,-1.422,M,40.592,M,2.4,0123*59
$GPVTG,263.67,T,-376.23,M,005.925,N,010.973,K,D*09
$GPGGA,085640.55,5702.8987157,N,00949.9994907,E,2,5,1.4,-1.424,M,40.592,M,2.4,0123*56
$GPVTG,264.60,T,-375.30,M,005.965,N,011.047,K,D*03
$GPGGA,085640.60,5702.8987112,N,00949.9993513,E,2,5,1.4,-1.425,M,40.592,M,2.4,0123*5E
$GPVTG,265.28,T,-374.62,M,005.832,N,010.800,K,D*01
$GPGGA,085640.65,5702.8987046,N,00949.9991967,E,2,5,1.4,-1.421,M,40.592,M,2.6,0123*50
$GPVTG,265.48,T,-374.42,M,005.901,N,010.929,K,D*0E
$GPGGA,085640.70,5702.8986990,N,00949.9990479,E,2,5,1.4,-1.421,M,40.592,M,2.6,0123*54
$GPVTG,266.01,T,-373.89,M,005.892,N,010.913,K,D*02
$GPGGA,085640.75,5702.8986962,N,00949.9988982,E,2,5,1.4,-1.421,M,40.592,M,2.6,0123*5C
$GPVTG,266.75,T,-373.15,M,005.895,N,010.917,K,D*07
$GPGGA,085640.80,5702.8986878,N,00949.9987459,E,2,5,1.4,-1.419,M,40.592,M,2.6,0123*53
$GPVTG,266.85,T,-373.05,M,005.931,N,010.984,K,D*0C
$GPGGA,085640.85,5702.8986864,N,00949.9986007,E,2,5,1.4,-1.433,M,40.592,M,2.9,0123*52
$GPVTG,267.70,T,-372.20,M,005.910,N,010.945,K,D*0F
$GPGGA,085640.90,5702.8986770,N,00949.9984546,E,2,5,1.4,-1.430,M,40.592,M,2.9,0123*5D
$GPVTG,267.51,T,-372.39,M,005.864,N,010.860,K,D*00
$GPGGA,085640.95,5702.8986792,N,00949.9983061,E,2,5,1.4,-1.432,M,40.592,M,2.9,0123*51
$GPVTG,268.52,T,-371.38,M,005.852,N,010.838,K,D*06
$GPGGA,085641.00,5702.8986791,N,00949.9981563,E,2,5,1.4,-1.435,M,40.592,M,2.9,0123*5D
$GPVTG,269.19,T,-370.71,M,005.860,N,010.853,K,D*08
$GPGGA,085641.05,5702.8986914,N,00949.9980068,E,2,5,1.4,-1.439,M,40.592,M,2.0,0123*51
$GPVTG,270.73,T,-369.17,M,005.885,N,010.899,K,D*09
$GPGGA,085641.10,5702.8986791,N,00949.9978567,E,2,5,1.4,-1.437,M,40.592,M,2.0,0123*55
$GPVTG,269.91,T,-369.99,M,005.892,N,010.912,K,D*0F
$GPGGA,085641.15,5702.8986805,N,00949.9977028,E,2,5,1.4,-1.434,M,40.592,M,2.0,0123*50
$GPVTG,270.50,T,-369.40,M,005.946,N,011.012,K,D*0E
$GPGGA,085641.20,5702.8986812,N,00949.9975501,E,2,5,1.4,-1.433,M,40.592,M,2.0,0123*5B
$GPVTG,270.94,T,-368.96,M,005.974,N,011.064,K,D*0C
$GPGGA,085641.25,5702.8986861,N,00949.9974061,E,2,5,1.4,-1.437,M,40.592,M,2.3,0123*5F
$GPVTG,271.67,T,-368.23,M,005.918,N,010.959,K,D*03
$GPGGA,085641.30,5702.8986888,N,00949.9972571,E,2,5,1.4,-1.434,M,40.592,M,2.3,0123*5D
$GPVTG,272.17,T,-367.73,M,005.903,N,010.932,K,D*0A
$GPGGA,085641.35,5702.8986964,N,00949.9971075,E,2,5,1.4,-1.434,M,40.592,M,2.3,0123*59
$GPVTG,273.09,T,-366.81,M,005.903,N,010.932,K,D*08
$GPGGA,085641.40,5702.8986968,N,00949.9969586,E,2,5,1.4,-1.433,M,40.592,M,2.3,0123*50
$GPVTG,273.18,T,-366.72,M,005.890,N,010.908,K,D*06
$GPGGA,085641.45,5702.8986958,N,00949.9968117,E,2,5,1.4,-1.442,M,40.592,M,2.5,0123*5B
$GPVTG,272.92,T,-366.98,M,005.895,N,010.917,K,D*0A
$GPGGA,085641.50,5702.8987027,N,00949.9966609,E,2,5,1.4,-1.440,M,40.592,M,2.5,0123*5B
$GPVTG,273.59,T,-366.31,M,005.911,N,010.947,K,D*07
$GPGGA,085641.55,5702.8987132,N,00949.9965163,E,2,5,1.4,-1.437,M,40.592,M,2.5,0123*53
$GPVTG,274.59,T,-365.31,M,005.852,N,010.838,K,D*0C
$GPGGA,085641.60,5702.8987251,N,00949.9963651,E,2,5,1.4,-1.437,M,40.592,M,2.5,0123*53
$GPVTG,275.55,T,-364.35,M,005.887,N,010.902,K,D*04
$GPGGA,085641.65,5702.8987345,N,00949.9962164,E,2,5,1.4,-1.445,M,40.592,M,2.7,0123*55
$GPVTG,276.03,T,-363.87,M,005.921,N,010.965,K,D*06
$GPGGA,085641.70,5702.8987369,N,00949.9960685,E,2,5,1.4,-1.441,M,40.592,M,2.7,0123*51
$GPVTG,275.94,T,-363.96,M,005.898,N,010.923,K,D*0A
$GPGGA,085641.75,5702.8987505,N,00949.9959224,E,2,5,1.4,-1.439,M,40.592,M,2.7,0123*52
$GPVTG,276.94,T,-362.96,M,005.869,N,010.870,K,D*01
$GPGGA,085641.80,5702.8987572,N,00949.9957748,E,2,5,1.4,-1.441,M,40.592,M,2.7,0123*56
$GPVTG,277.13,T,-362.77,M,005.857,N,010.848,K,D*06
$GPGGA,085641.85,5702.8987635,N,00949.9956279,E,2,5,1.4,-1.450,M,40.592,M,3.0,0123*53
$GPVTG,277.17,T,-362.73,M,005.872,N,010.875,K,D*0F
$GPGGA,085641.90,5702.8987763,N,00949.9954749,E,2,5,1.4,-1.451,M,40.592,M,3.0,0123*50
$GPVTG,277.79,T,-362.11,M,005.937,N,010.995,K,D*0C
$GPGGA,085641.95,5702.8988009,N,00949.9953262,E,2,5,1.4,-1.451,M,40.592,M,3.0,0123*5A
$GPVTG,279.55,T,-360.35,M,005.957,N,011.032,K,D*0B
$GPGGA,085642.00,5702.8988201,N,00949.9951760,E,2,5,1.4,-1.454,M,40.592,M,3.0,0123*5F
$GPVTG,280.58,T,-359.32,M,005.988,N,011.089,K,D*0F
$GPGGA,085642.05,5702.8988273,N,00949.9950324,E,2,5,1.4,-1.472,M,40.592,M,1.5,0123*59
$GPVTG,280.31,T,-359.59,M,005.959,N,011.037,K,D*04
$GPGGA,085642.10,5702.8988416,N,00949.9948844,E,2,5,1.4,-1.478,M,40.592,M,1.5,0123*56
$GPVTG,280.78,T,-359.12,M,005.955,N,011.028,K,D*04
$GPGGA,085642.15,5702.8988448,N,00949.9947375,E,2,5,1.4,-1.485,M,40.592,M,1.5,0123*5C
$GPVTG,280.12,T,-359.78,M,005.916,N,010.957,K,D*03
$GPGGA,085642.20,5702.8988585,N,00949.9945911,E,2,5,1.4,-1.488,M,40.592,M,1.5,0123*5D
$GPVTG,280.50,T,-359.40,M,005.897,N,010.921,K,D*07
$GPGGA,085642.25,5702.8988854,N,00949.9944377,E,2,5,1.4,-1.446,M,40.592,M,1.7,0123*52
$GPVTG,281.72,T,-358.18,M,005.878,N,010.886,K,D*07
$GPGGA,085642.30,5702.8989104,N,00949.9942871,E,2,5,1.4,-1.442,M,40.592,M,1.7,0123*54
$GPVTG,282.90,T,-357.00,M,005.946,N,011.012,K,D*06
$GPGGA,085642.35,5702.8989327,N,00949.9941385,E,2,5,1.4,-1.437,M,40.592,M,1.7,0123*53
$GPVTG,283.75,T,-356.15,M,005.977,N,011.070,K,D*0F
$GPGGA,085642.40,5702.8989560,N,00949.9939885,E,2,5,1.4,-1.430,M,40.592,M,1.7,0123*57
$GPVTG,284.53,T,-355.37,M,006.024,N,011.156,K,D*06
$GPGGA,085642.45,5702.8989713,N,00949.9938552,E,2,5,1.4,-1.475,M,40.592,M,2.0,0123*57
$GPVTG,284.90,T,-355.00,M,006.003,N,011.117,K,D*0D
$GPGGA,085642.50,5702.8989850,N,00949.9937124,E,2,5,1.4,-1.474,M,40.592,M,2.0,0123*50
$GPVTG,284.83,T,-355.07,M,005.936,N,010.994,K,D*06
$GPGGA,085642.55,5702.8990000,N,00949.9935705,E,2,5,1.4,-1.473,M,40.592,M,2.0,0123*50
$GPVTG,284.85,T,-355.05,M,005.875,N,010.881,K,D*01
$GPGGA,085642.60,5702.8990170,N,00949.9934261,E,2,5,1.4,-1.474,M,40.592,M,2.0,0123*51
$GPVTG,284.94,T,-354.96,M,005.860,N,010.852,K,D*00
$GPGGA,085642.65,5702.8990392,N,00949.9932775,E,2,5,1.4,-1.456,M,40.592,M,2.2,0123*5E
$GPVTG,285.52,T,-354.38,M,005.883,N,010.895,K,D*09
$GPGGA,085642.70,5702.8990637,N,00949.9931301,E,2,5,1.4,-1.450,M,40.592,M,2.2,0123*52
$GPVTG,286.11,T,-353.79,M,005.930,N,010.982,K,D*01
$GPGGA,085642.75,5702.8990881,N,00949.9929854,E,2,5,1.4,-1.446,M,40.592,M,2.2,0123*51
$GPVTG,286.70,T,-353.20,M,005.938,N,010.997,K,D*06
$GPGGA,085642.80,5702.8991175,N,00949.9928411,E,2,5,1.4,-1.445,M,40.592,M,2.2,0123*57
$GPVTG,287.70,T,-352.20,M,005.957,N,011.033,K,D*09
$GPGGA,085642.85,5702.8991418,N,00949.9927047,E,2,5,1.4,-1.466,M,40.592,M,2.4,0123*53
$GPVTG,288.16,T,-351.74,M,005.948,N,011.015,K,D*0E
$GPGGA,085642.90,5702.8991590,N,00949.9925586,E,2,5,1.4,-1.466,M,40.592,M,2.4,0123*5C
$GPVTG,287.72,T,-352.18,M,005.955,N,011.028,K,D*08
$GPGGA,085642.95,5702.8991856,N,00949.9924146,E,2,5,1.4,-1.465,M,40.592,M,2.4,0123*54
$GPVTG,288.28,T,-351.62,M,005.964,N,011.046,K,D*0C
$GPGGA,085643.00,5702.8992032,N,00949.9922735,E,2,5,1.4,-1.467,M,40.592,M,2.4,0123*56
$GPVTG,288.01,T,-351.89,M,005.913,N,010.950,K,D*0D
$GPGGA,085643.05,5702.8992292,N,00949.9921292,E,2,5,1.4,-1.454,M,40.592,M,2.6,0123*52
$GPVTG,288.44,T,-351.46,M,005.900,N,010.927,K,D*0D
$GPGGA,085643.10,5702.8992668,N,00949.9919874,E,2,5,1.4,-1.450,M,40.592,M,2.6,0123*5A
$GPVTG,289.97,T,-349.93,M,005.935,N,010.991,K,D*08
$GPGGA,085643.15,5702.8992964,N,00949.9918441,E,2,5,1.4,-1.445,M,40.592,M,2.6,0123*53
$GPVTG,290.50,T,-349.40,M,005.961,N,011.039,K,D*0E
$GPGGA,085643.20,5702.8993299,N,00949.9917019,E,2,5,1.4,-1.438,M,40.592,M,2.6,0123*51
$GPVTG,291.37,T,-348.53,M,005.987,N,011.088,K,D*0F
$GPGGA,085643.25,5702.8993495,N,00949.9915701,E,2,5,1.4,-1.470,M,40.592,M,2.9,0123*51
$GPVTG,291.00,T,-348.90,M,005.946,N,011.012,K,D*0A
$GPGGA,085643.30,5702.8993784,N,00949.9914319,E,2,5,1.4,-1.472,M,40.592,M,2.9,0123*58
$GPVTG,291.49,T,-348.41,M,005.913,N,010.952,K,D*07
$GPGGA,085643.35,5702.8994102,N,00949.9912903,E,2,5,1.4,-1.476,M,40.592,M,2.9,0123*51
$GPVTG,292.01,T,-347.89,M,005.939,N,011.000,K,D*04
$GPGGA,085643.40,5702.8994355,N,00949.9911516,E,2,5,1.4,-1.479,M,40.592,M,2.9,0123*57
$GPVTG,291.97,T,-347.93,M,005.907,N,010.939,K,D*0C
$GPGGA,085643.45,5702.8994738,N,00949.9910098,E,2,5,1.4,-1.469,M,40.592,M,3.1,0123*57
$GPVTG,293.23,T,-346.67,M,005.952,N,011.023,K,D*08
$GPGGA,085643.50,5702.8995062,N,00949.9908687,E,2,5,1.4,-1.469,M,40.592,M,3.1,0123*5B
$GPVTG,293.56,T,-346.34,M,005.981,N,011.077,K,D*03
$GPGGA,085643.55,5702.8995333,N,00949.9907275,E,2,5,1.4,-1.469,M,40.592,M,3.1,0123*5F
$GPVTG,293.35,T,-346.55,M,005.986,N,011.085,K,D*0B
$GPGGA,085643.60,5702.8995703,N,00949.9905907,E,2,5,1.4,-1.470,M,40.592,M,3.1,0123*5A
$GPVTG,294.24,T,-345.66,M,005.980,N,011.075,K,D*06
$GPGGA,085643.65,5702.8995987,N,00949.9904590,E,2,5,1.4,-1.485,M,40.592,M,3.3,0123*56
$GPVTG,294.20,T,-345.70,M,005.934,N,010.990,K,D*09
$GPGGA,085643.70,5702.8996354,N,00949.9903238,E,2,5,1.4,-1.485,M,40.592,M,3.3,0123*57
$GPVTG,295.00,T,-344.90,M,005.921,N,010.967,K,D*09
$GPGGA,085643.75,5702.8996746,N,00949.9901898,E,2,5,1.4,-1.486,M,40.592,M,3.3,0123*54
$GPVTG,295.97,T,-343.93,M,005.915,N,010.955,K,D*05
$GPGGA,085643.80,5702.8997074,N,00949.9900521,E,2,5,1.4,-1.487,M,40.592,M,3.3,0123*56
$GPVTG,296.02,T,-343.88,M,005.927,N,010.977,K,D*01
$GPGGA,085643.85,5702.8997384,N,00949.9899174,E,2,5,1.4,-1.487,M,40.592,M,3.5,0123*5C
$GPVTG,295.87,T,-344.03,M,005.902,N,010.931,K,D*0E
$GPGGA,085643.90,5702.8997784,N,00949.9897829,E,2,5,1.4,-1.490,M,40.592,M,3.5,0123*55
$GPVTG,296.69,T,-343.21,M,005.916,N,010.957,K,D*0F
$GPGGA,085643.95,5702.8998211,N,00949.9896515,E,2,5,1.4,-1.489,M,40.592,M,3.5,0123*5D
$GPVTG,297.81,T,-342.09,M,005.915,N,010.954,K,D*03
$GPGGA,085644.00,5702.8998635,N,00949.9895188,E,2,5,1.4,-1.489,M,40.592,M,3.5,0123*57
$GPVTG,298.67,T,-341.23,M,005.934,N,010.989,K,D*0C
$GPGGA,085644.05,5702.8999017,N,00949.9893917,E,2,5,1.4,-1.495,M,40.592,M,1.9,0123*5E
$GPVTG,299.29,T,-340.61,M,005.888,N,010.904,K,D*03
$GPGGA,085644.10,5702.8999379,N,00949.9892604,E,2,5,1.4,-1.494,M,40.592,M,1.9,0123*5C
$GPVTG,299.42,T,-340.48,M,005.873,N,010.877,K,D*04
$GPGGA,085644.15,5702.8999690,N,00949.9891270,E,2,5,1.4,-1.492,M,40.592,M,1.9,0123*59
$GPVTG,298.89,T,-341.01,M,005.861,N,010.854,K,D*0C
$GPGGA,085644.20,5702.9000080,N,00949.9889943,E,2,5,1.4,-1.490,M,40.592,M,1.9,0123*50
$GPVTG,299.14,T,-340.76,M,005.883,N,010.895,K,D*09
$GPGGA,085644.25,5702.9000510,N,00949.9888610,E,2,5,1.4,-1.487,M,40.592,M,2.1,0123*5C
$GPVTG,299.84,T,-340.06,M,005.943,N,011.007,K,D*08
$GPGGA,085644.30,5702.9001031,N,00949.9887328,E,2,5,1.4,-1.485,M,40.592,M,2.1,0123*5C
$GPVTG,301.37,T,-338.53,M,005.981,N,011.077,K,D*06
$GPGGA,085644.35,5702.9001473,N,00949.9886057,E,2,5,1.4,-1.485,M,40.592,M,2.1,0123*51
$GPVTG,302.08,T,-337.82,M,005.969,N,011.055,K,D*0C
$GPGGA,085644.40,5702.9001852,N,00949.9884729,E,2,5,1.4,-1.482,M,40.592,M,2.1,0123*57
$GPVTG,301.78,T,-338.12,M,005.986,N,011.086,K,D*01
$GPGGA,085644.45,5702.9002222,N,00949.9883524,E,2,5,1.4,-1.509,M,40.592,M,2.4,0123*53
$GPVTG,301.89,T,-338.01,M,005.934,N,010.990,K,D*0B
$GPGGA,085644.50,5702.9002661,N,00949.9882282,E,2,5,1.4,-1.509,M,40.592,M,2.4,0123*5E
$GPVTG,302.58,T,-337.32,M,005.901,N,010.929,K,D*0F
$GPGGA,085644.55,5702.9003100,N,00949.9881042,E,2,5,1.4,-1.508,M,40.592,M,2.4,0123*56
$GPVTG,303.16,T,-336.74,M,005.875,N,010.881,K,D*06
$GPGGA,085644.60,5702.9003629,N,00949.9879819,E,2,5,1.4,-1.506,M,40.592,M,2.4,0123*53
$GPVTG,304.50,T,-335.40,M,005.894,N,010.916,K,D*07
$GPGGA,085644.65,5702.9004114,N,00949.9878563,E,2,5,1.4,-1.508,M,40.592,M,2.6,0123*55
$GPVTG,305.00,T,-334.90,M,005.925,N,010.973,K,D*07
$GPGGA,085644.70,5702.9004633,N,00949.9877357,E,2,5,1.4,-1.505,M,40.592,M,2.6,0123*50
$GPVTG,306.08,T,-333.82,M,005.928,N,010.979,K,D*0F
$GPGGA,085644.75,5702.9005010,N,00949.9876105,E,2,5,1.4,-1.499,M,40.592,M,2.6,0123*53
$GPVTG,305.54,T,-334.36,M,005.901,N,010.928,K,D*02
$GPGGA,085644.80,5702.9005480,N,00949.9874894,E,2,5,1.4,-1.496,M,40.592,M,2.6,0123*58
$GPVTG,306.01,T,-333.89,M,005.891,N,010.911,K,D*00
$GPGGA,085644.85,5702.9006000,N,00949.9873703,E,2,5,1.4,-1.492,M,40.592,M,2.9,0123*5F
$GPVTG,306.89,T,-333.01,M,005.890,N,010.909,K,D*08
$GPGGA,085644.90,5702.9006571,N,00949.9872561,E,2,5,1.4,-1.488,M,40.592,M,2.9,0123*54
$GPVTG,308.43,T,-331.47,M,005.887,N,010.903,K,D*0C
$GPGGA,085644.95,5702.9007113,N,00949.9871355,E,2,5,1.4,-1.487,M,40.592,M,2.9,0123*5D
$GPVTG,309.03,T,-330.87,M,005.941,N,011.003,K,D*07
$GPGGA,085645.00,5702.9007616,N,00949.9870155,E,2,5,1.4,-1.483,M,40.592,M,2.9,0123*55
$GPVTG,309.26,T,-330.64,M,005.962,N,011.042,K,D*09
$GPGGA,085645.05,5702.9008097,N,00949.9869083,E,2,5,1.4,-1.513,M,40.592,M,2.0,0123*53
$GPVTG,309.89,T,-330.01,M,005.938,N,010.998,K,D*0F
$GPGGA,085645.10,5702.9008629,N,00949.9867938,E,2,5,1.4,-1.516,M,40.592,M,2.0,0123*56
$GPVTG,310.55,T,-329.35,M,005.935,N,010.992,K,D*0E
$GPGGA,085645.15,5702.9009082,N,00949.9866830,E,2,5,1.4,-1.519,M,40.592,M,2.0,0123*52
$GPVTG,310.77,T,-329.13,M,005.852,N,010.837,K,D*04
$GPGGA,085645.20,5702.9009550,N,00949.9865699,E,2,5,1.4,-1.522,M,40.592,M,2.0,0123*58
$GPVTG,310.81,T,-329.09,M,005.814,N,010.767,K,D*0E
$GPGGA,085645.25,5702.9010140,N,00949.9864507,E,2,5,1.4,-1.505,M,40.592,M,2.3,0123*53
$GPVTG,311.44,T,-328.46,M,005.853,N,010.840,K,D*05
$GPGGA,085645.30,5702.9010708,N,00949.9863428,E,2,5,1.4,-1.503,M,40.592,M,2.3,0123*50
$GPVTG,312.46,T,-327.44,M,005.843,N,010.822,K,D*0C
$GPGGA,085645.35,5702.9011233,N,00949.9862341,E,2,5,1.4,-1.502,M,40.592,M,2.3,0123*51
$GPVTG,312.91,T,-326.99,M,005.820,N,010.779,K,D*03
$GPGGA,085645.40,5702.9011800,N,00949.9861257,E,2,5,1.4,-1.498,M,40.592,M,2.3,0123*5E
$GPVTG,313.57,T,-326.33,M,005.832,N,010.801,K,D*0B
$GPGGA,085645.45,5702.9012398,N,00949.9860203,E,2,5,1.4,-1.508,M,40.592,M,2.5,0123*5C
$GPVTG,314.26,T,-325.64,M,005.866,N,010.863,K,D*0E
$GPGGA,085645.50,5702.9013006,N,00949.9859158,E,2,5,1.4,-1.502,M,40.592,M,2.5,0123*50
$GPVTG,315.30,T,-324.60,M,005.881,N,010.891,K,D*09
$GPGGA,085645.55,5702.9013551,N,00949.9858096,E,2,5,1.4,-1.500,M,40.592,M,2.5,0123*52
$GPVTG,315.52,T,-324.38,M,005.869,N,010.870,K,D*09
$GPGGA,085645.60,5702.9014124,N,00949.9856997,E,2,5,1.4,-1.500,M,40.592,M,2.5,0123*53
$GPVTG,315.54,T,-324.36,M,005.914,N,010.953,K,D*0A
$GPGGA,085645.65,5702.9014624,N,00949.9856085,E,2,5,1.4,-1.524,M,40.592,M,2.7,0123*5F
$GPVTG,316.31,T,-323.59,M,005.802,N,010.745,K,D*0B
$GPGGA,085645.70,5702.9015230,N,00949.9855085,E,2,5,1.4,-1.527,M,40.592,M,2.7,0123*5B
$GPVTG,317.18,T,-322.72,M,005.805,N,010.751,K,D*0B
$GPGGA,085645.75,5702.9015859,N,00949.9854068,E,2,5,1.4,-1.533,M,40.592,M,2.7,0123*5C
$GPVTG,317.89,T,-322.01,M,005.846,N,010.828,K,D*01
$GPGGA,085645.80,5702.9016441,N,00949.9853023,E,2,5,1.4,-1.536,M,40.592,M,2.7,0123*5D
$GPVTG,317.88,T,-322.02,M,005.876,N,010.881,K,D*03
$GPGGA,085645.85,5702.9016926,N,00949.9851969,E,2,5,1.4,-1.531,M,40.592,M,3.0,0123*50
$GPVTG,317.11,T,-322.79,M,005.793,N,010.728,K,D*07
$GPGGA,085645.90,5702.9017501,N,00949.9850990,E,2,5,1.4,-1.530,M,40.592,M,3.0,0123*5A
$GPVTG,317.60,T,-322.30,M,005.766,N,010.679,K,D*03
$GPGGA,085645.95,5702.9018079,N,00949.9849994,E,2,5,1.4,-1.532,M,40.592,M,3.0,0123*54
$GPVTG,317.84,T,-322.06,M,005.765,N,010.676,K,D*00
$GPGGA,085646.00,5702.9018682,N,00949.9848993,E,2,5,1.4,-1.531,M,40.592,M,3.0,0123*5C
$GPVTG,318.13,T,-321.77,M,005.789,N,010.721,K,D*05
$GPGGA,085646.05,5702.9019371,N,00949.9848041,E,2,5,1.4,-1.529,M,40.592,M,1.5,0123*59
$GPVTG,319.51,T,-320.39,M,005.841,N,010.818,K,D*07
$GPGGA,085646.10,5702.9019905,N,00949.9847010,E,2,5,1.4,-1.531,M,40.592,M,1.5,0123*56
$GPVTG,318.78,T,-321.12,M,005.838,N,010.812,K,D*01
$GPGGA,085646.15,5702.9020471,N,00949.9846031,E,2,5,1.4,-1.535,M,40.592,M,1.5,0123*51
$GPVTG,318.80,T,-321.10,M,005.815,N,010.769,K,D*08
$GPGGA,085646.20,5702.9021126,N,00949.9845126,E,2,5,1.4,-1.536,M,40.592,M,1.5,0123*56
$GPVTG,320.03,T,-319.87,M,005.808,N,010.757,K,D*0C
$GPGGA,085646.25,5702.9021761,N,00949.9844165,E,2,5,1.4,-1.537,M,40.592,M,1.7,0123*53
$GPVTG,320.16,T,-319.74,M,005.806,N,010.753,K,D*0E
$GPGGA,085646.30,5702.9022381,N,00949.9843233,E,2,5,1.4,-1.538,M,40.592,M,1.7,0123*56
$GPVTG,320.65,T,-319.25,M,005.801,N,010.744,K,D*0F
$GPGGA,085646.35,5702.9022919,N,00949.9842337,E,2,5,1.4,-1.538,M,40.592,M,1.7,0123*5C
$GPVTG,320.84,T,-319.06,M,005.707,N,010.570,K,D*0D
$GPGGA,085646.40,5702.9023557,N,00949.9841423,E,2,5,1.4,-1.541,M,40.592,M,1.7,0123*56
$GPVTG,321.40,T,-318.50,M,005.722,N,010.598,K,D*07
$GPGGA,085646.45,5702.9024272,N,00949.9840584,E,2,5,1.4,-1.554,M,40.592,M,2.0,0123*59
$GPVTG,323.02,T,-316.89,M,005.782,N,010.707,K,D*07
$GPGGA,085646.50,5702.9024877,N,00949.9839679,E,2,5,1.4,-1.552,M,40.592,M,2.0,0123*5B
$GPVTG,323.07,T,-316.83,M,005.770,N,010.686,K,D*0D
$GPGGA,085646.55,5702.9025477,N,00949.9838844,E,2,5,1.4,-1.551,M,40.592,M,2.0,0123*51
$GPVTG,323.73,T,-316.17,M,005.706,N,010.568,K,D*01
$GPGGA,085646.60,5702.9026017,N,00949.9838010,E,2,5,1.4,-1.552,M,40.592,M,2.0,0123*5C
$GPVTG,323.85,T,-316.05,M,005.603,N,010.377,K,D*07
$GPGGA,085646.65,5702.9026750,N,00949.9837099,E,2,5,1.4,-1.545,M,40.592,M,2.2,0123*57
$GPVTG,324.17,T,-315.73,M,005.676,N,010.513,K,D*0F
$GPGGA,085646.70,5702.9027446,N,00949.9836323,E,2,5,1.4,-1.544,M,40.592,M,2.2,0123*54
$GPVTG,325.64,T,-314.26,M,005.676,N,010.511,K,D*09
$GPGGA,085646.75,5702.9028007,N,00949.9835583,E,2,5,1.4,-1.538,M,40.592,M,2.2,0123*5B
$GPVTG,326.42,T,-313.48,M,005.545,N,010.269,K,D*0A
$GPGGA,085646.80,5702.9028721,N,00949.9834746,E,2,5,1.4,-1.540,M,40.592,M,2.2,0123*57
$GPVTG,326.85,T,-313.05,M,005.632,N,010.430,K,D*01
$GPGGA,085646.85,5702.9029365,N,00949.9833978,E,2,5,1.4,-1.555,M,40.592,M,2.4,0123*51
$GPVTG,327.08,T,-312.82,M,005.625,N,010.417,K,D*08
$GPGGA,085646.90,5702.9029970,N,00949.9833167,E,2,5,1.4,-1.558,M,40.592,M,2.4,0123*50
$GPVTG,326.91,T,-312.99,M,005.601,N,010.374,K,D*07
$GPGGA,085646.95,5702.9030640,N,00949.9832431,E,2,5,1.4,-1.559,M,40.592,M,2.4,0123*57
$GPVTG,327.87,T,-312.03,M,005.589,N,010.351,K,D*06
$GPGGA,085647.00,5702.9031196,N,00949.9831642,E,2,5,1.4,-1.558,M,40.592,M,2.4,0123*53
$GPVTG,327.42,T,-312.48,M,005.518,N,010.219,K,D*05
$GPGGA,085647.05,5702.9031921,N,00949.9830824,E,2,5,1.4,-1.546,M,40.592,M,2.6,0123*50
$GPVTG,327.84,T,-312.06,M,005.594,N,010.359,K,D*04
$GPGGA,085647.10,5702.9032633,N,00949.9830060,E,2,5,1.4,-1.541,M,40.592,M,2.6,0123*54
$GPVTG,328.42,T,-311.48,M,005.649,N,010.462,K,D*04
$GPGGA,085647.15,5702.9033302,N,00949.9829343,E,2,5,1.4,-1.536,M,40.592,M,2.6,0123*5D
$GPVTG,329.15,T,-310.75,M,005.633,N,010.433,K,D*01
$GPGGA,085647.20,5702.9034002,N,00949.9828624,E,2,5,1.4,-1.531,M,40.592,M,2.6,0123*5D
$GPVTG,329.87,T,-310.03,M,005.654,N,010.471,K,D*0C
$GPGGA,085647.25,5702.9034731,N,00949.9827936,E,2,5,1.4,-1.561,M,40.592,M,2.9,0123*56
$GPVTG,330.08,T,-309.82,M,005.734,N,010.619,K,D*09
$GPGGA,085647.30,5702.9035393,N,00949.9827233,E,2,5,1.4,-1.565,M,40.592,M,2.9,0123*55
$GPVTG,330.56,T,-309.34,M,005.707,N,010.570,K,D*03
$GPGGA,085647.35,5702.9036120,N,00949.9826565,E,2,5,1.4,-1.569,M,40.592,M,2.9,0123*50
$GPVTG,331.61,T,-308.29,M,005.724,N,010.602,K,D*0C
$GPGGA,085647.40,5702.9036758,N,00949.9825966,E,2,5,1.4,-1.567,M,40.592,M,2.9,0123*59
$GPVTG,332.76,T,-307.14,M,005.626,N,010.419,K,D*03
$GPGGA,085647.45,5702.9037377,N,00949.9825372,E,2,5,1.4,-1.573,M,40.592,M,3.1,0123*57
$GPVTG,333.65,T,-306.25,M,005.522,N,010.226,K,D*0E
$GPGGA,085647.50,5702.9038051,N,00949.9824669,E,2,5,1.4,-1.577,M,40.592,M,3.1,0123*51
$GPVTG,333.29,T,-306.61,M,005.546,N,010.272,K,D*05
$GPGGA,085647.55,5702.9038793,N,00949.9824035,E,2,5,1.4,-1.574,M,40.592,M,3.1,0123*51
$GPVTG,334.03,T,-305.87,M,005.594,N,010.360,K,D*0C
$GPGGA,085647.60,5702.9039482,N,00949.9823397,E,2,5,1.4,-1.576,M,40.592,M,3.1,0123*5B
$GPVTG,334.32,T,-305.58,M,005.596,N,010.363,K,D*0D
$GPGGA,085647.65,5702.9040228,N,00949.9822802,E,2,5,1.4,-1.566,M,40.592,M,3.3,0123*53
$GPVTG,335.43,T,-304.47,M,005.597,N,010.366,K,D*01
$GPGGA,085647.70,5702.9040898,N,00949.9822220,E,2,5,1.4,-1.565,M,40.592,M,3.3,0123*5F
$GPVTG,335.91,T,-303.99,M,005.561,N,010.298,K,D*03
$GPGGA,085647.75,5702.9041630,N,00949.9821578,E,2,5,1.4,-1.563,M,40.592,M,3.3,0123*58
$GPVTG,335.82,T,-304.08,M,005.619,N,010.405,K,D*00
$GPGGA,085647.80,5702.9042327,N,00949.9820989,E,2,5,1.4,-1.562,M,40.592,M,3.3,0123*50
$GPVTG,336.13,T,-303.77,M,005.614,N,010.396,K,D*04
$GPGGA,085647.85,5702.9042986,N,00949.9820472,E,2,5,1.4,-1.571,M,40.592,M,3.5,0123*59
$GPVTG,336.76,T,-303.14,M,005.562,N,010.300,K,D*0F
$GPGGA,085647.90,5702.9043639,N,00949.9819906,E,2,5,1.4,-1.572,M,40.592,M,3.5,0123*50
$GPVTG,336.88,T,-303.02,M,005.515,N,010.213,K,D*0A
$GPGGA,085647.95,5702.9044338,N,00949.9819413,E,2,5,1.4,-1.572,M,40.592,M,3.5,0123*5F
$GPVTG,337.93,T,-301.97,M,005.484,N,010.156,K,D*04
$GPGGA,085648.00,5702.9045078,N,00949.9818891,E,2,5,1.4,-1.577,M,40.592,M,3.5,0123*58
$GPVTG,338.59,T,-301.31,M,005.512,N,010.209,K,D*06
$GPGGA,085648.05,5702.9045824,N,00949.9818332,E,2,5,1.4,-1.564,M,40.592,M,1.9,0123*52
$GPVTG,338.98,T,-300.92,M,005.523,N,010.228,K,D*02
$GPGGA,085648.10,5702.9046578,N,00949.9817777,E,2,5,1.4,-1.561,M,40.592,M,1.9,0123*5E
$GPVTG,338.98,T,-300.92,M,005.584,N,010.342,K,D*02
$GPGGA,085648.15,5702.9047254,N,00949.9817293,E,2,5,1.4,-1.559,M,40.592,M,1.9,0123*57
$GPVTG,339.47,T,-300.43,M,005.535,N,010.251,K,D*04
$GPGGA,085648.20,5702.9047972,N,00949.9816864,E,2,5,1.4,-1.555,M,40.592,M,1.9,0123*51
$GPVTG,340.62,T,-299.28,M,005.512,N,010.208,K,D*08
$GPGGA,085648.25,5702.9048748,N,00949.9816364,E,2,5,1.4,-1.562,M,40.592,M,2.1,0123*58
$GPVTG,340.72,T,-299.18,M,005.585,N,010.344,K,D*0D
$GPGGA,085648.30,5702.9049429,N,00949.9815877,E,2,5,1.4,-1.564,M,40.592,M,2.1,0123*55
$GPVTG,340.74,T,-299.16,M,005.551,N,010.281,K,D*04
$GPGGA,085648.35,5702.9050207,N,00949.9815404,E,2,5,1.4,-1.565,M,40.592,M,2.1,0123*5B
$GPVTG,341.19,T,-298.71,M,005.609,N,010.388,K,D*08
$GPGGA,085648.40,5702.9050915,N,00949.9814952,E,2,5,1.4,-1.562,M,40.592,M,2.1,0123*59
$GPVTG,341.54,T,-298.36,M,005.588,N,010.348,K,D*04
$GPGGA,085648.45,5702.9051602,N,00949.9814519,E,2,5,1.4,-1.578,M,40.592,M,2.4,0123*59
$GPVTG,341.65,T,-298.25,M,005.578,N,010.331,K,D*05
$GPGGA,085648.50,5702.9052380,N,00949.9814058,E,2,5,1.4,-1.581,M,40.592,M,2.4,0123*57
$GPVTG,341.94,T,-297.96,M,005.634,N,010.434,K,D*05
$GPGGA,085648.55,5702.9053110,N,00949.9813630,E,2,5,1.4,-1.580,M,40.592,M,2.4,0123*56
$GPVTG,342.39,T,-297.51,M,005.627,N,010.421,K,D*0C
$GPGGA,085648.60,5702.9053809,N,00949.9813248,E,2,5,1.4,-1.578,M,40.592,M,2.4,0123*5D
$GPVTG,343.15,T,-296.75,M,005.574,N,010.323,K,D*04
$GPGGA,085648.65,5702.9054496,N,00949.9812815,E,2,5,1.4,-1.586,M,40.592,M,2.6,0123*55
$GPVTG,342.97,T,-296.93,M,005.555,N,010.288,K,D*04
$GPGGA,085648.70,5702.9055177,N,00949.9812382,E,2,5,1.4,-1.589,M,40.592,M,2.6,0123*50
$GPVTG,342.85,T,-297.05,M,005.511,N,010.206,K,D*0F
$GPGGA,085648.75,5702.9055902,N,00949.9812008,E,2,5,1.4,-1.589,M,40.592,M,2.6,0123*5E
$GPVTG,343.57,T,-296.33,M,005.493,N,010.173,K,D*0F
$GPGGA,085648.80,5702.9056666,N,00949.9811656,E,2,5,1.4,-1.588,M,40.592,M,2.6,0123*55
$GPVTG,344.49,T,-295.41,M,005.512,N,010.209,K,D*07
$GPGGA,085648.85,5702.9057317,N,00949.9811269,E,2,5,1.4,-1.588,M,40.592,M,2.9,0123*55
$GPVTG,344.62,T,-295.28,M,005.426,N,010.050,K,D*09
$GPGGA,085648.90,5702.9058076,N,00949.9810912,E,2,5,1.4,-1.588,M,40.592,M,2.9,0123*5C
$GPVTG,345.18,T,-294.72,M,005.453,N,010.099,K,D*0C
$GPGGA,085648.95,5702.9058763,N,00949.9810543,E,2,5,1.4,-1.590,M,40.592,M,2.9,0123*5B
$GPVTG,345.25,T,-294.65,M,005.411,N,010.021,K,D*01
$GPGGA,085649.00,5702.9059467,N,00949.9810240,E,2,5,1.4,-1.589,M,40.592,M,2.9,0123*5C
$GPVTG,346.11,T,-293.79,M,005.370,N,009.946,K,D*0F
$GPGGA,085649.05,5702.9060226,N,00949.9809883,E,2,5,1.4,-1.579,M,40.592,M,2.0,0123*5B
$GPVTG,346.62,T,-293.28,M,005.398,N,009.997,K,D*05
$GPGGA,085649.10,5702.9060946,N,00949.9809591,E,2,5,1.4,-1.575,M,40.592,M,2.0,0123*50
$GPVTG,347.33,T,-292.57,M,005.377,N,009.959,K,D*0A
$GPGGA,085649.15,5702.9061674,N,00949.9809319,E,2,5,1.4,-1.571,M,40.592,M,2.0,0123*58
$GPVTG,348.11,T,-291.79,M,005.367,N,009.939,K,D*0D
$GPGGA,085649.20,5702.9062412,N,00949.9809032,E,2,5,1.4,-1.571,M,40.592,M,2.0,0123*55
$GPVTG,348.53,T,-291.37,M,005.372,N,009.950,K,D*0A
$GPGGA,085649.25,5702.9063103,N,00949.9808716,E,2,5,1.4,-1.579,M,40.592,M,2.3,0123*5F
$GPVTG,348.14,T,-291.76,M,005.337,N,009.884,K,D*05
$GPGGA,085649.30,5702.9063859,N,00949.9808466,E,2,5,1.4,-1.582,M,40.592,M,2.3,0123*5D
$GPVTG,348.92,T,-290.98,M,005.358,N,009.923,K,D*0F
$GPGGA,085649.35,5702.9064610,N,00949.9808219,E,2,5,1.4,-1.583,M,40.592,M,2.3,0123*53
$GPVTG,349.55,T,-290.35,M,005.374,N,009.953,K,D*0B
$GPGGA,085649.40,5702.9065396,N,00949.9808011,E,2,5,1.4,-1.588,M,40.592,M,2.3,0123*5A
$GPVTG,350.56,T,-289.34,M,005.420,N,010.038,K,D*03
$GPGGA,085649.45,5702.9066155,N,00949.9807766,E,2,5,1.4,-1.602,M,40.592,M,2.5,0123*5E
$GPVTG,350.74,T,-289.16,M,005.467,N,010.125,K,D*0D
$GPGGA,085649.50,5702.9066916,N,00949.9807590,E,2,5,1.4,-1.607,M,40.592,M,2.5,0123*5B
$GPVTG,351.78,T,-288.12,M,005.477,N,010.143,K,D*04
$GPGGA,085649.55,5702.9067570,N,00949.9807455,E,2,5,1.4,-1.612,M,40.592,M,2.5,0123*5F
$GPVTG,352.93,T,-286.97,M,005.372,N,009.950,K,D*01
$GPGGA,085649.60,5702.9068316,N,00949.9807267,E,2,5,1.4,-1.619,M,40.592,M,2.5,0123*5C
$GPVTG,353.27,T,-286.63,M,005.381,N,009.966,K,D*0D
$GPGGA,085649.65,5702.9069041,N,00949.9806952,E,2,5,1.4,-1.605,M,40.592,M,2.7,0123*5A
$GPVTG,352.39,T,-287.51,M,005.357,N,009.921,K,D*0B
$GPGGA,085649.70,5702.9069790,N,00949.9806768,E,2,5,1.4,-1.601,M,40.592,M,2.7,0123*56
$GPVTG,352.69,T,-287.21,M,005.370,N,009.946,K,D*0D
$GPGGA,085649.75,5702.9070573,N,00949.9806604,E,2,5,1.4,-1.600,M,40.592,M,2.7,0123*5E
$GPVTG,353.20,T,-286.70,M,005.415,N,010.028,K,D*09
$GPGGA,085649.80,5702.9071242,N,00949.9806456,E,2,5,1.4,-1.597,M,40.592,M,2.7,0123*58
$GPVTG,353.63,T,-286.27,M,005.338,N,009.885,K,D*03
$GPGGA,085649.85,5702.9071994,N,00949.9806324,E,2,5,1.4,-1.600,M,40.592,M,3.0,0123*54
$GPVTG,354.22,T,-285.68,M,005.363,N,009.932,K,D*0A
$GPGGA,085649.90,5702.9072682,N,00949.9806167,E,2,5,1.4,-1.599,M,40.592,M,3.0,0123*5D
$GPVTG,354.27,T,-285.63,M,005.311,N,009.836,K,D*04
$GPGGA,085649.95,5702.9073420,N,00949.9806073,E,2,5,1.4,-1.597,M,40.592,M,3.0,0123*59
$GPVTG,355.13,T,-284.77,M,005.310,N,009.833,K,D*02
$GPGGA,085650.00,5702.9074213,N,00949.9805950,E,2,5,1.4,-1.591,M,40.592,M,3.0,0123*51
$GPVTG,355.46,T,-284.44,M,005.371,N,009.947,K,D*07
$GPGGA,085650.05,5702.9075021,N,00949.9805894,E,2,5,1.4,-1.602,M,40.592,M,1.5,0123*51
$GPVTG,356.22,T,-283.68,M,005.457,N,010.106,K,D*09
$GPGGA,085650.10,5702.9075743,N,00949.9805754,E,2,5,1.4,-1.601,M,40.592,M,1.5,0123*56
$GPVTG,355.95,T,-283.95,M,005.434,N,010.064,K,D*04
$GPGGA,085650.15,5702.9076417,N,00949.9805618,E,2,5,1.4,-1.598,M,40.592,M,1.5,0123*58
$GPVTG,355.69,T,-284.21,M,005.363,N,009.931,K,D*0B
$GPGGA,085650.20,5702.9077114,N,00949.9805592,E,2,5,1.4,-1.594,M,40.592,M,1.5,0123*54
$GPVTG,356.87,T,-283.03,M,005.311,N,009.836,K,D*0C
$GPGGA,085650.25,5702.9077810,N,00949.9805578,E,2,5,1.4,-1.600,M,40.592,M,1.7,0123*54
$GPVTG,357.94,T,-281.96,M,005.289,N,009.795,K,D*07
$GPGGA,085650.30,5702.9078495,N,00949.9805508,E,2,5,1.4,-1.605,M,40.592,M,1.7,0123*5C
$GPVTG,358.06,T,-281.84,M,005.238,N,009.700,K,D*06
$GPGGA,085650.35,5702.9079260,N,00949.9805524,E,2,5,1.4,-1.609,M,40.592,M,1.7,0123*56
$GPVTG,359.27,T,-280.63,M,005.270,N,009.761,K,D*07
$GPGGA,085650.40,5702.9079955,N,00949.9805533,E,2,5,1.4,-1.613,M,40.592,M,1.7,0123*54
$GPVTG,000.11,T,-639.79,M,005.231,N,009.689,K,D*02
$GPGGA,085650.45,5702.9080698,N,00949.9805442,E,2,5,1.4,-1.586,M,40.592,M,2.0,0123*55
$GPVTG,000.54,T,-639.36,M,005.194,N,009.620,K,D*07
$GPGGA,085650.50,5702.9081572,N,00949.9805452,E,2,5,1.4,-1.584,M,40.592,M,2.0,0123*54
$GPVTG,000.99,T,-638.91,M,005.346,N,009.900,K,D*0A
$GPGGA,085650.55,5702.9082201,N,00949.9805489,E,2,5,1.4,-1.579,M,40.592,M,2.0,0123*55
$GPVTG,001.67,T,-638.23,M,005.237,N,009.698,K,D*0A
$GPGGA,085650.60,5702.9083026,N,00949.9805466,E,2,5,1.4,-1.576,M,40.592,M,2.0,0123*5B
$GPVTG,001.34,T,-638.56,M,005.334,N,009.879,K,D*0D
$GPGGA,085650.65,5702.9083808,N,00949.9805486,E,2,5,1.4,-1.591,M,40.592,M,2.2,0123*5F
$GPVTG,001.18,T,-638.72,M,005.393,N,009.987,K,D*08
$GPGGA,085650.70,5702.9084560,N,00949.9805556,E,2,5,1.4,-1.590,M,40.592,M,2.2,0123*52
$GPVTG,002.01,T,-637.89,M,005.407,N,010.013,K,D*0E
$GPGGA,085650.75,5702.9085303,N,00949.9805622,E,2,5,1.4,-1.590,M,40.592,M,2.2,0123*55
$GPVTG,002.60,T,-637.30,M,005.410,N,010.020,K,D*0D
$GPGGA,085650.80,5702.9085946,N,00949.9805706,E,2,5,1.4,-1.591,M,40.592,M,2.2,0123*52
$GPVTG,003.30,T,-636.60,M,005.311,N,009.837,K,D*0D
$GPGGA,085650.85,5702.9086734,N,00949.9805761,E,2,5,1.4,-1.590,M,40.592,M,2.4,0123*59
$GPVTG,003.57,T,-636.33,M,005.385,N,009.973,K,D*06
$GPGGA,085650.90,5702.9087425,N,00949.9805777,E,2,5,1.4,-1.587,M,40.592,M,2.4,0123*5E
$GPVTG,003.07,T,-636.83,M,005.330,N,009.872,K,D*06
$GPGGA,085650.95,5702.9088171,N,00949.9805844,E,2,5,1.4,-1.586,M,40.592,M,2.4,0123*5E
$GPVTG,003.26,T,-636.64,M,005.340,N,009.891,K,D*06
$GPGGA,085651.00,5702.9088922,N,00949.9805952,E,2,5,1.4,-1.588,M,40.592,M,2.4,0123*55
$GPVTG,003.88,T,-636.02,M,005.358,N,009.922,K,D*02
$GPGGA,085651.05,5702.9089655,N,00949.9806125,E,2,5,1.4,-1.597,M,40.592,M,2.6,0123*59
$GPVTG,005.20,T,-634.70,M,005.372,N,009.949,K,D*04
$GPGGA,085651.10,5702.9090360,N,00949.9806234,E,2,5,1.4,-1.599,M,40.592,M,2.6,0123*5B
$GPVTG,005.45,T,-634.45,M,005.339,N,009.887,K,D*0D
$GPGGA,085651.15,5702.9091070,N,00949.9806410,E,2,5,1.4,-1.603,M,40.592,M,2.6,0123*5D
$GPVTG,006.47,T,-633.43,M,005.320,N,009.853,K,D*0C
$GPGGA,085651.20,5702.9091823,N,00949.9806517,E,2,5,1.4,-1.608,M,40.592,M,2.6,0123*58
$GPVTG,006.32,T,-633.58,M,005.337,N,009.885,K,D*09
$GPGGA,085651.25,5702.9092573,N,00949.9806589,E,2,5,1.4,-1.589,M,40.592,M,2.9,0123*54
$GPVTG,006.60,T,-633.30,M,005.313,N,009.840,K,D*0F
$GPGGA,085651.30,5702.9093361,N,00949.9806766,E,2,5,1.4,-1.585,M,40.592,M,2.9,0123*5B
$GPVTG,007.15,T,-632.75,M,005.378,N,009.959,K,D*08
$GPGGA,085651.35,5702.9094195,N,00949.9806879,E,2,5,1.4,-1.587,M,40.592,M,2.9,0123*53
$GPVTG,006.65,T,-633.25,M,005.474,N,010.138,K,D*06
$GPGGA,085651.40,5702.9094928,N,00949.9807068,E,2,5,1.4,-1.584,M,40.592,M,2.9,0123*55
$GPVTG,007.27,T,-632.63,M,005.467,N,010.125,K,D*0C
$GPGGA,085651.45,5702.9095595,N,00949.9807381,E,2,5,1.4,-1.608,M,40.592,M,3.1,0123*51
$GPVTG,008.89,T,-631.01,M,005.451,N,010.096,K,D*0C
$GPGGA,085651.50,5702.9096261,N,00949.9807603,E,2,5,1.4,-1.610,M,40.592,M,3.1,0123*5C
$GPVTG,009.59,T,-630.31,M,005.378,N,009.960,K,D*06
$GPGGA,085651.55,5702.9096866,N,00949.9807834,E,2,5,1.4,-1.613,M,40.592,M,3.1,0123*5D
$GPVTG,010.35,T,-629.55,M,005.247,N,009.717,K,D*0D
$GPGGA,085651.60,5702.9097713,N,00949.9808072,E,2,5,1.4,-1.618,M,40.592,M,3.1,0123*59
$GPVTG,010.55,T,-629.35,M,005.381,N,009.966,K,D*0E
$GPGGA,085651.65,5702.9098482,N,00949.9808262,E,2,5,1.4,-1.603,M,40.592,M,3.3,0123*53
$GPVTG,010.84,T,-629.06,M,005.421,N,010.040,K,D*0A
$GPGGA,085651.70,5702.9099161,N,00949.9808506,E,2,5,1.4,-1.603,M,40.592,M,3.3,0123*5B
$GPVTG,011.18,T,-628.72,M,005.365,N,009.935,K,D*08
$GPGGA,085651.75,5702.9099806,N,00949.9808763,E,2,5,1.4,-1.601,M,40.592,M,3.3,0123*55
$GPVTG,011.66,T,-628.24,M,005.279,N,009.776,K,D*07
$GPGGA,085651.80,5702.9100554,N,00949.9809015,E,2,5,1.4,-1.599,M,40.592,M,3.3,0123*51
$GPVTG,011.73,T,-628.17,M,005.304,N,009.823,K,D*07
$GPGGA,085651.85,5702.9101354,N,00949.9809267,E,2,5,1.4,-1.593,M,40.592,M,3.5,0123*58
$GPVTG,011.87,T,-628.03,M,005.412,N,010.023,K,D*09
$GPGGA,085651.90,5702.9102095,N,00949.9809506,E,2,5,1.4,-1.589,M,40.592,M,3.5,0123*5A
$GPVTG,011.60,T,-628.30,M,005.414,N,010.027,K,D*02
$GPGGA,085651.95,5702.9102681,N,00949.9809841,E,2,5,1.4,-1.585,M,40.592,M,3.5,0123*5E
$GPVTG,012.91,T,-626.99,M,005.282,N,009.783,K,D*0A
$GPGGA,085652.00,5702.9103292,N,00949.9810131,E,2,5,1.4,-1.578,M,40.592,M,3.5,0123*52
$GPVTG,013.41,T,-626.49,M,005.172,N,009.579,K,D*00
$GPGGA,085652.05,5702.9104040,N,00949.9810392,E,2,5,1.4,-1.561,M,40.592,M,1.9,0123*50
$GPVTG,013.46,T,-626.44,M,005.225,N,009.676,K,D*07
$GPGGA,085652.10,5702.9104798,N,00949.9810675,E,2,5,1.4,-1.554,M,40.592,M,1.9,0123*5C
$GPVTG,013.28,T,-626.62,M,005.266,N,009.752,K,D*0B
$GPGGA,085652.15,5702.9105546,N,00949.9811030,E,2,5,1.4,-1.548,M,40.592,M,1.9,0123*52
$GPVTG,014.04,T,-625.86,M,005.314,N,009.842,K,D*01
$GPGGA,085652.20,5702.9106264,N,00949.9811388,E,2,5,1.4,-1.542,M,40.592,M,1.9,0123*5A
$GPVTG,014.72,T,-625.18,M,005.328,N,009.868,K,D*00
$GPGGA,085652.25,5702.9106842,N,00949.9811886,E,2,5,1.4,-1.580,M,40.592,M,2.1,0123*51
$GPVTG,016.21,T,-623.69,M,005.288,N,009.794,K,D*03
$GPGGA,085652.30,5702.9107490,N,00949.9812247,E,2,5,1.4,-1.585,M,40.592,M,2.1,0123*56
$GPVTG,016.69,T,-623.21,M,005.229,N,009.685,K,D*09
$GPGGA,085652.35,5702.9108200,N,00949.9812613,E,2,5,1.4,-1.590,M,40.592,M,2.1,0123*52
$GPVTG,016.90,T,-623.00,M,005.238,N,009.701,K,D*01
$GPGGA,085652.40,5702.9108854,N,00949.9813038,E,2,5,1.4,-1.591,M,40.592,M,2.1,0123*54
$GPVTG,017.94,T,-621.96,M,005.210,N,009.649,K,D*0E
$GPGGA,085652.45,5702.9109560,N,00949.9813372,E,2,5,1.4,-1.563,M,40.592,M,2.4,0123*5F
$GPVTG,018.57,T,-621.33,M,005.204,N,009.638,K,D*02
$GPGGA,085652.50,5702.9110294,N,00949.9813796,E,2,5,1.4,-1.562,M,40.592,M,2.4,0123*50
$GPVTG,018.91,T,-620.99,M,005.253,N,009.728,K,D*0B
$GPGGA,085652.55,5702.9110945,N,00949.9814261,E,2,5,1.4,-1.563,M,40.592,M,2.4,0123*59
$GPVTG,019.94,T,-619.96,M,005.231,N,009.687,K,D*0A
$GPGGA,085652.60,5702.9111638,N,00949.9814713,E,2,5,1.4,-1.565,M,40.592,M,2.4,0123*5D
$GPVTG,020.40,T,-619.50,M,005.243,N,009.709,K,D*01
$GPGGA,085652.65,5702.9112197,N,00949.9815129,E,2,5,1.4,-1.565,M,40.592,M,2.6,0123*55
$GPVTG,020.91,T,-618.99,M,005.121,N,009.484,K,D*08
$GPGGA,085652.70,5702.9112986,N,00949.9815602,E,2,5,1.4,-1.562,M,40.592,M,2.6,0123*50
$GPVTG,020.99,T,-618.91,M,005.239,N,009.703,K,D*0E
$GPGGA,085652.75,5702.9113664,N,00949.9816098,E,2,5,1.4,-1.562,M,40.592,M,2.6,0123*51
$GPVTG,021.66,T,-618.24,M,005.249,N,009.721,K,D*06
$GPGGA,085652.80,5702.9114346,N,00949.9816590,E,2,5,1.4,-1.565,M,40.592,M,2.6,0123*53
$GPVTG,022.08,T,-617.82,M,005.256,N,009.735,K,D*05
$GPGGA,085652.85,5702.9114898,N,00949.9817123,E,2,5,1.4,-1.577,M,40.592,M,2.9,0123*5F
$GPVTG,023.21,T,-616.69,M,005.167,N,009.569,K,D*01
$GPGGA,085652.90,5702.9115603,N,00949.9817665,E,2,5,1.4,-1.579,M,40.592,M,2.9,0123*5D
$GPVTG,023.80,T,-616.10,M,005.221,N,009.669,K,D*06
$GPGGA,085652.95,5702.9116266,N,00949.9818183,E,2,5,1.4,-1.581,M,40.592,M,2.9,0123*5B
$GPVTG,024.10,T,-615.80,M,005.215,N,009.658,K,D*07
$GPGGA,085653.00,5702.9116928,N,00949.9818733,E,2,5,1.4,-1.583,M,40.592,M,2.9,0123*58
$GPVTG,024.66,T,-615.24,M,005.222,N,009.672,K,D*04
$GPGGA,085653.05,5702.9117518,N,00949.9819214,E,2,5,1.4,-1.572,M,40.592,M,2.0,0123*55
$GPVTG,025.16,T,-614.74,M,005.120,N,009.483,K,D*0B
$GPGGA,085653.10,5702.9118238,N,00949.9819743,E,2,5,1.4,-1.573,M,40.592,M,2.0,0123*5D
$GPVTG,024.92,T,-614.98,M,005.174,N,009.582,K,D*05
$GPGGA,085653.15,5702.9118895,N,00949.9820274,E,2,5,1.4,-1.572,M,40.592,M,2.0,0123*5F
$GPVTG,024.98,T,-614.92,M,005.165,N,009.565,K,D*0C
$GPGGA,085653.20,5702.9119522,N,00949.9820885,E,2,5,1.4,-1.571,M,40.592,M,2.0,0123*5E
$GPVTG,026.09,T,-613.81,M,005.169,N,009.573,K,D*08
$GPGGA,085653.25,5702.9120171,N,00949.9821480,E,2,5,1.4,-1.558,M,40.592,M,2.3,0123*53
$GPVTG,027.19,T,-612.71,M,005.201,N,009.633,K,D*0C
$GPGGA,085653.30,5702.9120871,N,00949.9822041,E,2,5,1.4,-1.558,M,40.592,M,2.3,0123*54
$GPVTG,026.85,T,-613.05,M,005.234,N,009.694,K,D*01
$GPGGA,085653.35,5702.9121459,N,00949.9822609,E,2,5,1.4,-1.554,M,40.592,M,2.3,0123*50
$GPVTG,027.16,T,-612.74,M,005.164,N,009.564,K,D*07
$GPGGA,085653.40,5702.9122061,N,00949.9823139,E,2,5,1.4,-1.548,M,40.592,M,2.3,0123*56
$GPVTG,026.86,T,-613.04,M,005.091,N,009.428,K,D*0B
$GPGGA,085653.45,5702.9122680,N,00949.9823759,E,2,5,1.4,-1.545,M,40.592,M,2.5,0123*51
$GPVTG,027.52,T,-612.38,M,005.114,N,009.470,K,D*0C
$GPGGA,085653.50,5702.9123282,N,00949.9824412,E,2,5,1.4,-1.538,M,40.592,M,2.5,0123*53
$GPVTG,028.62,T,-611.28,M,005.113,N,009.469,K,D*0D
$GPGGA,085653.55,5702.9123968,N,00949.9825074,E,2,5,1.4,-1.535,M,40.592,M,2.5,0123*51
$GPVTG,029.14,T,-610.76,M,005.189,N,009.611,K,D*09
$GPGGA,085653.60,5702.9124616,N,00949.9825744,E,2,5,1.4,-1.532,M,40.592,M,2.5,0123*55
$GPVTG,029.76,T,-610.14,M,005.227,N,009.680,K,D*06
$GPGGA,085653.65,5702.9125112,N,00949.9826407,E,2,5,1.4,-1.539,M,40.592,M,2.7,0123*5C
$GPVTG,030.86,T,-609.04,M,005.118,N,009.478,K,D*02
$GPGGA,085653.70,5702.9125742,N,00949.9827059,E,2,5,1.4,-1.542,M,40.592,M,2.7,0123*59
$GPVTG,031.03,T,-608.87,M,005.124,N,009.491,K,D*0C
$GPGGA,085653.75,5702.9126324,N,00949.9827745,E,2,5,1.4,-1.543,M,40.592,M,2.7,0123*50
$GPVTG,031.80,T,-608.10,M,005.109,N,009.462,K,D*0A
$GPGGA,085653.80,5702.9126868,N,00949.9828485,E,2,5,1.4,-1.544,M,40.592,M,2.7,0123*5E
$GPVTG,033.25,T,-606.65,M,005.094,N,009.433,K,D*0A
$GPGGA,085653.85,5702.9127554,N,00949.9829050,E,2,5,1.4,-1.515,M,40.592,M,3.0,0123*57
$GPVTG,032.82,T,-607.08,M,005.105,N,009.454,K,D*04
$GPGGA,085653.90,5702.9128163,N,00949.9829734,E,2,5,1.4,-1.511,M,40.592,M,3.0,0123*5D
$GPVTG,032.95,T,-606.95,M,005.103,N,009.451,K,D*04
$GPGGA,085653.95,5702.9128775,N,00949.9830448,E,2,5,1.4,-1.509,M,40.592,M,3.0,0123*50
$GPVTG,033.33,T,-606.57,M,005.122,N,009.485,K,D*0D
$GPGGA,085654.00,5702.9129332,N,00949.9831130,E,2,5,1.4,-1.505,M,40.592,M,3.0,0123*5A
$GPVTG,033.58,T,-606.32,M,005.066,N,009.382,K,D*02
$GPGGA,085654.05,5702.9129901,N,00949.9831947,E,2,5,1.4,-1.525,M,40.592,M,1.5,0123*58
$GPVTG,034.61,T,-605.29,M,005.133,N,009.506,K,D*0D
$GPGGA,085654.10,5702.9130492,N,00949.9832676,E,2,5,1.4,-1.524,M,40.592,M,1.5,0123*5C
$GPVTG,034.89,T,-605.01,M,005.131,N,009.502,K,D*07
$GPGGA,085654.15,5702.9131025,N,00949.9833435,E,2,5,1.4,-1.524,M,40.592,M,1.5,0123*54
$GPVTG,035.78,T,-604.12,M,005.099,N,009.444,K,D*0B
$GPGGA,085654.20,5702.9131598,N,00949.9834222,E,2,5,1.4,-1.524,M,40.592,M,1.5,0123*56
$GPVTG,036.54,T,-603.36,M,005.119,N,009.481,K,D*07
$GPGGA,085654.25,5702.9132249,N,00949.9834827,E,2,5,1.4,-1.509,M,40.592,M,1.7,0123*59
$GPVTG,035.16,T,-604.74,M,005.083,N,009.413,K,D*0A
$GPGGA,085654.30,5702.9132751,N,00949.9835556,E,2,5,1.4,-1.501,M,40.592,M,1.7,0123*53
$GPVTG,035.73,T,-604.17,M,005.005,N,009.269,K,D*09
$GPGGA,085654.35,5702.9133302,N,00949.9836299,E,2,5,1.4,-1.498,M,40.592,M,1.7,0123*53
$GPVTG,036.08,T,-603.82,M,004.983,N,009.228,K,D*0E
$GPGGA,085654.40,5702.9133867,N,00949.9837076,E,2,5,1.4,-1.495,M,40.592,M,1.7,0123*56
$GPVTG,036.64,T,-603.26,M,004.997,N,009.254,K,D*04
$GPGGA,085654.45,5702.9134418,N,00949.9837907,E,2,5,1.4,-1.490,M,40.592,M,2.0,0123*5E
$GPVTG,037.99,T,-601.91,M,005.057,N,009.366,K,D*0D
$GPGGA,085654.50,5702.9134905,N,00949.9838751,E,2,5,1.4,-1.491,M,40.592,M,2.0,0123*58
$GPVTG,039.47,T,-600.43,M,005.047,N,009.347,K,D*0C
$GPGGA,085654.55,5702.9135470,N,00949.9839583,E,2,5,1.4,-1.498,M,40.592,M,2.0,0123*56
$GPVTG,039.99,T,-599.91,M,005.081,N,009.410,K,D*0C
$GPGGA,085654.60,5702.9135977,N,00949.9840405,E,2,5,1.4,-1.500,M,40.592,M,2.0,0123*5B
$GPVTG,040.69,T,-599.21,M,005.056,N,009.364,K,D*08
$GPGGA,085654.65,5702.9136551,N,00949.9841178,E,2,5,1.4,-1.476,M,40.592,M,2.2,0123*59
$GPVTG,041.14,T,-598.76,M,005.089,N,009.425,K,D*00
$GPGGA,085654.70,5702.9137082,N,00949.9842048,E,2,5,1.4,-1.471,M,40.592,M,2.2,0123*51
$GPVTG,041.86,T,-598.04,M,005.109,N,009.462,K,D*04
$GPGGA,085654.75,5702.9137615,N,00949.9842881,E,2,5,1.4,-1.468,M,40.592,M,2.2,0123*59
$GPVTG,042.01,T,-597.89,M,005.094,N,009.435,K,D*05
$GPGGA,085654.80,5702.9138154,N,00949.9843767,E,2,5,1.4,-1.466,M,40.592,M,2.2,0123*56
