$GPGGA,091840.25,5702.8987273,N,00949.5702040,E,2,4,4.2,-3.569,M,40.592,M,2.2,0123*56
$GPVTG,160.34,T,-479.56,M,003.997,N,007.402,K,D*07
$GPGGA,091840.30,5702.8986770,N,00949.5702336,E,2,4,4.2,-3.575,M,40.592,M,2.2,0123*5A
$GPVTG,161.49,T,-478.41,M,004.021,N,007.446,K,D*08
$GPGGA,091840.35,5702.8986239,N,00949.5702660,E,2,4,4.2,-3.581,M,40.592,M,2.2,0123*5A
$GPVTG,162.37,T,-477.53,M,004.063,N,007.524,K,D*0D
$GPGGA,091840.40,5702.8985711,N,00949.5702949,E,2,4,4.2,-3.585,M,40.592,M,2.2,0123*54
$GPVTG,163.38,T,-476.52,M,004.098,N,007.590,K,D*08
$GPGGA,091840.45,5702.8985195,N,00949.5703223,E,2,4,4.2,-3.568,M,40.592,M,2.4,0123*58
$GPVTG,164.45,T,-475.45,M,004.099,N,007.591,K,D*00
$GPGGA,091840.50,5702.8984656,N,00949.5703458,E,2,4,4.2,-3.574,M,40.592,M,2.4,0123*52
$GPVTG,165.58,T,-474.32,M,004.131,N,007.651,K,D*00
$GPGGA,091840.55,5702.8984100,N,00949.5703709,E,2,4,4.2,-3.576,M,40.592,M,2.4,0123*56
$GPVTG,166.50,T,-473.40,M,004.173,N,007.728,K,D*00
$GPGGA,091840.60,5702.8983552,N,00949.5703947,E,2,4,4.2,-3.574,M,40.592,M,2.4,0123*52
$GPVTG,167.37,T,-472.53,M,004.210,N,007.797,K,D*01
$GPGGA,091840.65,5702.8983031,N,00949.5704177,E,2,4,4.2,-3.568,M,40.592,M,2.7,0123*55
$GPVTG,168.21,T,-471.69,M,004.203,N,007.784,K,D*03
$GPGGA,091840.70,5702.8982469,N,00949.5704365,E,2,4,4.2,-3.570,M,40.592,M,2.7,0123*51
$GPVTG,169.21,T,-470.69,M,004.239,N,007.850,K,D*0C
$GPGGA,091840.75,5702.8981895,N,00949.5704474,E,2,4,4.2,-3.573,M,40.592,M,2.7,0123*5C
$GPVTG,170.62,T,-469.28,M,004.273,N,007.914,K,D*01
$GPGGA,091840.80,5702.8981328,N,00949.5704640,E,2,4,4.2,-3.576,M,40.592,M,2.7,0123*5B
$GPVTG,171.49,T,-468.41,M,004.310,N,007.983,K,D*0D
$GPGGA,091840.85,5702.8980803,N,00949.5704772,E,2,4,4.2,-3.580,M,40.592,M,2.9,0123*5A
$GPVTG,172.50,T,-467.40,M,004.291,N,007.947,K,D*08
$GPGGA,091840.90,5702.8980231,N,00949.5704924,E,2,4,4.2,-3.584,M,40.592,M,2.9,0123*5C
$GPVTG,173.22,T,-466.68,M,004.326,N,008.011,K,D*0F
$GPGGA,091840.95,5702.8979654,N,00949.5705086,E,2,4,4.2,-3.585,M,40.592,M,2.9,0123*59
$GPVTG,173.78,T,-466.12,M,004.363,N,008.081,K,D*05
$GPGGA,091841.00,5702.8979066,N,00949.5705188,E,2,4,4.2,-3.592,M,40.592,M,2.9,0123*5A
$GPVTG,174.64,T,-465.26,M,004.401,N,008.151,K,D*04
$GPGGA,091841.05,5702.8978460,N,00949.5705332,E,2,4,4.2,-3.586,M,40.592,M,1.7,0123*57
$GPVTG,175.41,T,-464.49,M,004.393,N,008.135,K,D*04
$GPGGA,091841.10,5702.8977873,N,00949.5705432,E,2,4,4.2,-3.590,M,40.592,M,1.7,0123*52
$GPVTG,176.07,T,-463.83,M,004.427,N,008.198,K,D*0B
$GPGGA,091841.15,5702.8977295,N,00949.5705474,E,2,4,4.2,-3.592,M,40.592,M,1.7,0123*55
$GPVTG,177.00,T,-462.90,M,004.454,N,008.250,K,D*0D
$GPGGA,091841.20,5702.8976683,N,00949.5705438,E,2,4,4.2,-3.599,M,40.592,M,1.7,0123*52
$GPVTG,178.31,T,-461.59,M,004.496,N,008.326,K,D*08
$GPGGA,091841.25,5702.8976097,N,00949.5705402,E,2,4,4.2,-3.591,M,40.592,M,2.0,0123*51
$GPVTG,179.61,T,-460.29,M,004.482,N,008.300,K,D*0B
$GPGGA,091841.30,5702.8975485,N,00949.5705402,E,2,4,4.2,-3.597,M,40.592,M,2.0,0123*57
$GPVTG,180.41,T,-459.49,M,004.522,N,008.374,K,D*0B
$GPGGA,091841.35,5702.8974875,N,00949.5705377,E,2,4,4.2,-3.602,M,40.592,M,2.0,0123*5A
$GPVTG,181.24,T,-458.66,M,004.560,N,008.445,K,D*06
$GPGGA,091841.40,5702.8974260,N,00949.5705310,E,2,4,4.2,-3.607,M,40.592,M,2.0,0123*52
$GPVTG,182.23,T,-457.67,M,004.599,N,008.518,K,D*03
$GPGGA,091841.45,5702.8973584,N,00949.5705239,E,2,4,4.2,-3.592,M,40.592,M,2.2,0123*5A
$GPVTG,183.21,T,-456.69,M,004.641,N,008.595,K,D*0C
$GPGGA,091841.50,5702.8972979,N,00949.5705074,E,2,4,4.2,-3.593,M,40.592,M,2.2,0123*5B
$GPVTG,184.45,T,-455.45,M,004.685,N,008.677,K,D*03
$GPGGA,091841.55,5702.8972385,N,00949.5704970,E,2,4,4.2,-3.593,M,40.592,M,2.2,0123*5B
$GPVTG,185.27,T,-454.63,M,004.725,N,008.751,K,D*0D
$GPGGA,091841.60,5702.8971819,N,00949.5704890,E,2,4,4.2,-3.595,M,40.592,M,2.2,0123*59
$GPVTG,185.82,T,-454.08,M,004.755,N,008.807,K,D*04
$GPGGA,091841.65,5702.8971206,N,00949.5704755,E,2,4,4.2,-3.598,M,40.592,M,2.4,0123*55
$GPVTG,186.83,T,-453.07,M,004.783,N,008.859,K,D*0E
$GPGGA,091841.70,5702.8970591,N,00949.5704520,E,2,4,4.2,-3.600,M,40.592,M,2.4,0123*5B
$GPVTG,188.20,T,-451.70,M,004.830,N,008.945,K,D*00
$GPGGA,091841.75,5702.8970005,N,00949.5704385,E,2,4,4.2,-3.604,M,40.592,M,2.4,0123*5B
$GPVTG,188.64,T,-451.26,M,004.856,N,008.993,K,D*08
$GPGGA,091841.80,5702.8969420,N,00949.5704198,E,2,4,4.2,-3.607,M,40.592,M,2.4,0123*57
$GPVTG,189.36,T,-450.54,M,004.882,N,009.041,K,D*04
$GPGGA,091841.85,5702.8968772,N,00949.5703987,E,2,4,4.2,-3.601,M,40.592,M,2.7,0123*53
$GPVTG,190.60,T,-449.30,M,004.900,N,009.074,K,D*08
$GPGGA,091841.90,5702.8968184,N,00949.5703739,E,2,4,4.2,-3.606,M,40.592,M,2.7,0123*54
$GPVTG,191.54,T,-448.36,M,004.922,N,009.115,K,D*0F
$GPGGA,091841.95,5702.8967614,N,00949.5703460,E,2,4,4.2,-3.610,M,40.592,M,2.7,0123*58
$GPVTG,192.63,T,-447.27,M,004.936,N,009.142,K,D*00
$GPGGA,091842.00,5702.8967031,N,00949.5703166,E,2,4,4.2,-3.620,M,40.592,M,2.7,0123*56
$GPVTG,193.63,T,-446.27,M,004.950,N,009.167,K,D*07
$GPGGA,091842.05,5702.8966300,N,00949.5702944,E,2,4,4.2,-3.595,M,40.592,M,1.6,0123*55
$GPVTG,194.27,T,-445.63,M,004.951,N,009.169,K,D*0C
$GPGGA,091842.10,5702.8965648,N,00949.5702683,E,2,4,4.2,-3.597,M,40.592,M,1.6,0123*5D
$GPVTG,194.40,T,-445.50,M,004.972,N,009.208,K,D*08
$GPGGA,091842.15,5702.8965046,N,00949.5702286,E,2,4,4.2,-3.597,M,40.592,M,1.6,0123*51
$GPVTG,196.04,T,-443.86,M,004.997,N,009.255,K,D*04
$GPGGA,091842.20,5702.8964453,N,00949.5701944,E,2,4,4.2,-3.596,M,40.592,M,1.6,0123*51
$GPVTG,196.75,T,-443.15,M,004.993,N,009.247,K,D*0F
$GPGGA,091842.25,5702.8963854,N,00949.5701616,E,2,4,4.2,-3.602,M,40.592,M,1.9,0123*51
$GPVTG,197.60,T,-442.30,M,004.953,N,009.173,K,D*04
$GPGGA,091842.30,5702.8963235,N,00949.5701152,E,2,4,4.2,-3.604,M,40.592,M,1.9,0123*59
$GPVTG,199.28,T,-440.62,M,004.990,N,009.242,K,D*0D
$GPGGA,091842.35,5702.8962657,N,00949.5700741,E,2,4,4.2,-3.605,M,40.592,M,1.9,0123*59
$GPVTG,200.13,T,-439.77,M,004.973,N,009.211,K,D*07
$GPGGA,091842.40,5702.8962086,N,00949.5700338,E,2,4,4.2,-3.610,M,40.592,M,1.9,0123*5F
$GPVTG,200.73,T,-439.17,M,004.942,N,009.153,K,D*00
$GPGGA,091842.45,5702.8961455,N,00949.5699929,E,2,4,4.2,-3.603,M,40.592,M,2.1,0123*51
$GPVTG,201.75,T,-438.15,M,004.909,N,009.092,K,D*07
$GPGGA,091842.50,5702.8960884,N,00949.5699490,E,2,4,4.2,-3.605,M,40.592,M,2.1,0123*5D
$GPVTG,202.40,T,-437.50,M,004.881,N,009.040,K,D*02
$GPGGA,091842.55,5702.8960266,N,00949.5699021,E,2,4,4.2,-3.604,M,40.592,M,2.1,0123*51
$GPVTG,203.06,T,-436.84,M,004.895,N,009.066,K,D*08
$GPGGA,091842.60,5702.8959680,N,00949.5698500,E,2,4,4.2,-3.603,M,40.592,M,2.1,0123*51
$GPVTG,204.22,T,-435.68,M,004.902,N,009.079,K,D*09
$GPGGA,091842.65,5702.8959054,N,00949.5698106,E,2,4,4.2,-3.594,M,40.592,M,2.3,0123*56
$GPVTG,204.44,T,-435.46,M,004.821,N,008.928,K,D*09
$GPGGA,091842.70,5702.8958493,N,00949.5697558,E,2,4,4.2,-3.596,M,40.592,M,2.3,0123*5E
$GPVTG,205.69,T,-434.21,M,004.817,N,008.921,K,D*0B
$GPGGA,091842.75,5702.8957928,N,00949.5696997,E,2,4,4.2,-3.597,M,40.592,M,2.3,0123*56
$GPVTG,206.84,T,-433.06,M,004.818,N,008.924,K,D*03
$GPGGA,091842.80,5702.8957353,N,00949.5696467,E,2,4,4.2,-3.601,M,40.592,M,2.3,0123*54
$GPVTG,207.37,T,-432.53,M,004.807,N,008.902,K,D*01
$GPGGA,091842.85,5702.8956599,N,00949.5695961,E,2,4,4.2,-3.588,M,40.592,M,2.6,0123*5F
$GPVTG,208.07,T,-431.83,M,004.807,N,008.902,K,D*03
$GPGGA,091842.90,5702.8956065,N,00949.5695379,E,2,4,4.2,-3.590,M,40.592,M,2.6,0123*57
$GPVTG,209.05,T,-430.85,M,004.784,N,008.859,K,D*0C
$GPGGA,091842.95,5702.8955564,N,00949.5694803,E,2,4,4.2,-3.595,M,40.592,M,2.6,0123*57
$GPVTG,209.93,T,-429.97,M,004.731,N,008.762,K,D*01
$GPGGA,091843.00,5702.8955020,N,00949.5694090,E,2,4,4.2,-3.596,M,40.592,M,2.6,0123*5E
$GPVTG,211.92,T,-427.98,M,004.782,N,008.856,K,D*08
$GPGGA,091843.05,5702.8954278,N,00949.5693462,E,2,4,4.2,-3.584,M,40.592,M,2.8,0123*56
$GPVTG,213.25,T,-426.65,M,004.818,N,008.923,K,D*0A
$GPGGA,091843.10,5702.8953726,N,00949.5692816,E,2,4,4.2,-3.580,M,40.592,M,2.8,0123*51
$GPVTG,213.77,T,-426.13,M,004.813,N,008.913,K,D*04
$GPGGA,091843.15,5702.8953198,N,00949.5692135,E,2,4,4.2,-3.577,M,40.592,M,2.8,0123*57
$GPVTG,214.69,T,-425.21,M,004.811,N,008.910,K,D*0F
$GPGGA,091843.20,5702.8952680,N,00949.5691405,E,2,4,4.2,-3.574,M,40.592,M,2.8,0123*58
$GPVTG,215.99,T,-423.91,M,004.829,N,008.942,K,D*00
$GPGGA,091843.25,5702.8951972,N,00949.5690728,E,2,4,4.2,-3.562,M,40.592,M,3.0,0123*5F
$GPVTG,216.81,T,-423.09,M,004.841,N,008.966,K,D*03
$GPGGA,091843.30,5702.8951462,N,00949.5689962,E,2,4,4.2,-3.559,M,40.592,M,3.0,0123*57
$GPVTG,218.03,T,-421.87,M,004.
$GPGGA,091851.15,5702.8965258,N,00949.5512375,E,2,4,4.2,-3.610,M,40.592,M,2.8,0123*51
$GPVTG,332.60,T,-307.30,M,005.273,N,009.765,K,D*06
$GPGGA,091851.20,5702.8965903,N,00949.5511759,E,2,4,4.2,-3.607,M,40.592,M,2.8,0123*5D
$GPVTG,333.22,T,-306.68,M,005.282,N,009.782,K,D*0A
$GPGGA,091851.25,5702.8966582,N,00949.5511123,E,2,4,4.2,-3.586,M,40.592,M,3.0,0123*56
$GPVTG,333.53,T,-306.37,M,005.246,N,009.716,K,D*03
$GPGGA,091851.30,5702.8967189,N,00949.5510574,E,2,4,4.2,-3.581,M,40.592,M,3.0,0123*5C
$GPVTG,334.42,T,-305.48,M,005.201,N,009.632,K,D*0B
$GPGGA,091851.35,5702.8967794,N,00949.5509984,E,2,4,4.2,-3.573,M,40.592,M,3.0,0123*55
$GPVTG,334.68,T,-305.22,M,005.182,N,009.598,K,D*04
$GPGGA,091851.40,5702.8968414,N,00949.5509398,E,2,4,4.2,-3.566,M,40.592,M,3.0,0123*50
$GPVTG,334.93,T,-304.97,M,005.177,N,009.588,K,D*04
$GPGGA,091851.45,5702.8969524,N,00949.5508955,E,2,4,4.2,-3.625,M,40.592,M,3.2,0123*5A
$GPVTG,336.19,T,-303.71,M,005.231,N,009.687,K,D*06
$GPGGA,091851.50,5702.8970239,N,00949.5508439,E,2,4,4.2,-3.628,M,40.592,M,3.2,0123*57
$GPVTG,337.24,T,-302.66,M,005.274,N,009.768,K,D*0F
$GPGGA,091851.55,5702.8970894,N,00949.5507922,E,2,4,4.2,-3.633,M,40.592,M,3.2,0123*5D
$GPVTG,337.81,T,-302.09,M,005.272,N,009.764,K,D*03
$GPGGA,091851.60,5702.8971565,N,00949.5507429,E,2,4,4.2,-3.635,M,40.592,M,3.2,0123*59
$GPVTG,338.56,T,-301.34,M,005.275,N,009.769,K,D*01
$GPGGA,091851.65,5702.8972168,N,00949.5506892,E,2,4,4.2,-3.600,M,40.592,M,3.4,0123*5B
$GPVTG,339.14,T,-300.76,M,005.242,N,009.708,K,D*02
$GPGGA,091851.70,5702.8972783,N,00949.5506441,E,2,4,4.2,-3.596,M,40.592,M,3.4,0123*52
$GPVTG,339.82,T,-300.08,M,005.190,N,009.612,K,D*02
$GPGGA,091851.75,5702.8973430,N,00949.5506052,E,2,4,4.2,-3.595,M,40.592,M,3.4,0123*58
$GPVTG,341.15,T,-298.75,M,005.150,N,009.538,K,D*0E
$GPGGA,091851.80,5702.8974082,N,00949.5505612,E,2,4,4.2,-3.591,M,40.592,M,3.4,0123*5D
$GPVTG,341.59,T,-298.31,M,005.142,N,009.522,K,D*0E
$GPGGA,091851.85,5702.8974987,N,00949.5505114,E,2,4,4.2,-3.601,M,40.592,M,3.6,0123*5D
$GPVTG,341.36,T,-298.54,M,005.191,N,009.615,K,D*0D
$GPGGA,091851.90,5702.8975614,N,00949.5504671,E,2,4,4.2,-3.602,M,40.592,M,3.6,0123*5B
$GPVTG,341.48,T,-298.42,M,005.163,N,009.563,K,D*0C
$GPGGA,091851.95,5702.8976261,N,00949.5504298,E,2,4,4.2,-3.600,M,40.592,M,3.6,0123*5A
$GPVTG,342.42,T,-297.48,M,005.132,N,009.504,K,D*05
$GPGGA,091852.00,5702.8976899,N,00949.5503904,E,2,4,4.2,-3.598,M,40.592,M,3.6,0123*53
$GPVTG,342.85,T,-297.05,M,005.106,N,009.456,K,D*06
$GPGGA,091852.05,5702.8977866,N,00949.5503553,E,2,4,4.2,-3.617,M,40.592,M,1.9,0123*50
$GPVTG,344.01,T,-295.89,M,005.110,N,009.463,K,D*0B
$GPGGA,091852.10,5702.8978607,N,00949.5503199,E,2,4,4.2,-3.622,M,40.592,M,1.9,0123*56
$GPVTG,344.81,T,-295.09,M,005.163,N,009.561,K,D*0C
$GPGGA,091852.15,5702.8979277,N,00949.5502845,E,2,4,4.2,-3.623,M,40.592,M,1.9,0123*59
$GPVTG,345.24,T,-294.66,M,005.158,N,009.552,K,D*02
$GPGGA,091852.20,5702.8979924,N,00949.5502527,E,2,4,4.2,-3.625,M,40.592,M,1.9,0123*5D
$GPVTG,345.89,T,-294.01,M,005.127,N,009.495,K,D*06
$GPGGA,091852.25,5702.8980749,N,00949.5502213,E,2,4,4.2,-3.610,M,40.592,M,2.2,0123*55
$GPVTG,347.07,T,-292.83,M,005.121,N,009.484,K,D*08
$GPGGA,091852.30,5702.8981412,N,00949.5501911,E,2,4,4.2,-3.609,M,40.592,M,2.2,0123*5F
$GPVTG,347.52,T,-292.38,M,005.106,N,009.457,K,D*03
$GPGGA,091852.35,5702.8982076,N,00949.5501608,E,2,4,4.2,-3.608,M,40.592,M,2.2,0123*59
$GPVTG,347.80,T,-292.10,M,005.096,N,009.437,K,D*08
$GPGGA,091852.40,5702.8982777,N,00949.5501325,E,2,4,4.2,-3.607,M,40.592,M,2.2,0123*58
$GPVTG,348.27,T,-291.63,M,005.113,N,009.468,K,D*0B
$GPGGA,091852.45,5702.8983655,N,00949.5501048,E,2,4,4.2,-3.598,M,40.592,M,2.4,0123*56
$GPVTG,349.07,T,-290.83,M,005.055,N,009.362,K,D*09
$GPGGA,091852.50,5702.8984258,N,00949.5500837,E,2,4,4.2,-3.595,M,40.592,M,2.4,0123*50
$GPVTG,349.90,T,-290.00,M,004.983,N,009.229,K,D*01
$GPGGA,091852.55,5702.8984928,N,00949.5500609,E,2,4,4.2,-3.593,M,40.592,M,2.4,0123*5C
$GPVTG,350.42,T,-289.48,M,004.976,N,009.216,K,D*04
$GPGGA,091852.60,5702.8985581,N,00949.5500432,E,2,4,4.2,-3.590,M,40.592,M,2.4,0123*5D
$GPVTG,351.39,T,-288.51,M,004.949,N,009.165,K,D*0B
$GPGGA,091852.65,5702.8986549,N,00949.5500265,E,2,4,4.2,-3.607,M,40.592,M,2.7,0123*55
$GPVTG,352.37,T,-287.53,M,004.910,N,009.093,K,D*0F
$GPGGA,091852.70,5702.8987189,N,00949.5500052,E,2,4,4.2,-3.608,M,40.592,M,2.7,0123*51
$GPVTG,352.39,T,-287.51,M,004.886,N,009.049,K,D*0A
$GPGGA,091852.75,5702.8987839,N,00949.5499902,E,2,4,4.2,-3.608,M,40.592,M,2.7,0123*5B
$GPVTG,353.13,T,-286.77,M,004.865,N,009.010,K,D*07
$GPGGA,091852.80,5702.8988539,N,00949.5499792,E,2,4,4.2,-3.606,M,40.592,M,2.7,0123*5A
$GPVTG,354.25,T,-285.65,M,004.882,N,009.042,K,D*0B
$GPGGA,091852.85,5702.8989621,N,00949.5499669,E,2,4,4.2,-3.623,M,40.592,M,2.9,0123*58
$GPVTG,355.24,T,-284.66,M,004.907,N,009.087,K,D*0C
$GPGGA,091852.90,5702.8990322,N,00949.5499537,E,2,4,4.2,-3.627,M,40.592,M,2.9,0123*5E
$GPVTG,355.55,T,-284.35,M,004.929,N,009.128,K,D*04
$GPGGA,091852.95,5702.8990964,N,00949.5499456,E,2,4,4.2,-3.634,M,40.592,M,2.9,0123*57
$GPVTG,356.35,T,-283.55,M,004.900,N,009.075,K,D*02
$GPGGA,091853.00,5702.8991634,N,00949.5499397,E,2,4,4.2,-3.636,M,40.592,M,2.9,0123*59
$GPVTG,357.23,T,-282.67,M,004.895,N,009.066,K,D*0B
$GPGGA,091853.05,5702.8992510,N,00949.5499346,E,2,4,4.2,-3.631,M,40.592,M,1.7,0123*5C
$GPVTG,358.58,T,-281.32,M,004.895,N,009.065,K,D*08
$GPGGA,091853.10,5702.8993175,N,00949.5499288,E,2,4,4.2,-3.629,M,40.592,M,1.7,0123*54
$GPVTG,358.94,T,-280.96,M,004.888,N,009.052,K,D*0F
$GPGGA,091853.15,5702.8993853,N,00949.5499225,E,2,4,4.2,-3.623,M,40.592,M,1.7,0123*51
$GPVTG,359.09,T,-280.81,M,004.892,N,009.060,K,D*06
$GPGGA,091853.20,5702.8994504,N,00949.5499241,E,2,4,4.2,-3.621,M,40.592,M,1.7,0123*5F
$GPVTG,000.13,T,-639.77,M,004.874,N,009.027,K,D*06
$GPGGA,091853.25,5702.8995471,N,00949.5499212,E,2,4,4.2,-3.627,M,40.592,M,2.0,0123*5C
$GPVTG,000.99,T,-638.91,M,004.864,N,009.009,K,D*00
$GPGGA,091853.30,5702.8996150,N,00949.5499244,E,2,4,4.2,-3.627,M,40.592,M,2.0,0123*5E
$GPVTG,001.77,T,-638.13,M,004.872,N,009.022,K,D*05
$GPGGA,091853.35,5702.8996829,N,00949.5499265,E,2,4,4.2,-3.624,M,40.592,M,2.0,0123*5C
$GPVTG,002.24,T,-637.66,M,004.878,N,009.034,K,D*00
$GPGGA,091853.40,5702.8997436,N,00949.5499302,E,2,4,4.2,-3.625,M,40.592,M,2.0,0123*5C
$GPVTG,002.76,T,-637.14,M,004.832,N,008.949,K,D*0E
$GPGGA,091853.45,5702.8998376,N,00949.5499335,E,2,4,4.2,-3.632,M,40.592,M,2.2,0123*55
$GPVTG,003.39,T,-636.51,M,004.837,N,008.958,K,D*01
$GPGGA,091853.50,5702.8999054,N,00949.5499421,E,2,4,4.2,-3.634,M,40.592,M,2.2,0123*57
$GPVTG,004.14,T,-635.76,M,004.847,N,008.978,K,D*0A
$GPGGA,091853.55,5702.8999749,N,00949.5499494,E,2,4,4.2,-3.633,M,40.592,M,2.2,0123*50
$GPVTG,004.53,T,-635.37,M,004.869,N,009.018,K,D*0E
$GPGGA,091853.60,5702.9000407,N,00949.5499519,E,2,4,4.2,-3.632,M,40.592,M,2.2,0123*52
$GPVTG,004.24,T,-635.66,M,004.857,N,008.995,K,D*0A
$GPGGA,091853.65,5702.9001339,N,00949.5499625,E,2,4,4.2,-3.621,M,40.592,M,2.4,0123*54
$GPVTG,005.28,T,-634.62,M,004.849,N,008.981,K,D*08
$GPGGA,091853.70,5702.9001980,N,00949.5499783,E,2,4,4.2,-3.624,M,40.592,M,2.4,0123*50
$GPVTG,006.34,T,-633.56,M,004.837,N,008.957,K,D*04
$GPGGA,091853.75,5702.9002615,N,00949.5499913,E,2,4,4.2,-3.625,M,40.592,M,2.4,0123*53
$GPVTG,006.87,T,-633.03,M,004.817,N,008.921,K,D*0F
$GPGGA,091853.80,5702.9003279,N,00949.5500047,E,2,4,4.2,-3.621,M,40.592,M,2.4,0123*5B
$GPVTG,007.27,T,-632.63,M,004.819,N,008.925,K,D*09
$GPGGA,091853.85,5702.9004170,N,00949.5500169,E,2,4,4.2,-3.626,M,40.592,M,2.7,0123*5A
$GPVTG,007.71,T,-632.19,M,004.821,N,008.928,K,D*01
$GPGGA,091853.90,5702.9004799,N,00949.5500321,E,2,4,4.2,-3.624,M,40.592,M,2.7,0123*53
$GPVTG,008.12,T,-631.78,M,004.798,N,008.887,K,D*06
$GPGGA,091853.95,5702.9005442,N,00949.5500509,E,2,4,4.2,-3.623,M,40.592,M,2.7,0123*59
$GPVTG,008.81,T,-631.09,M,004.792,N,008.876,K,D*0E
$GPGGA,091854.00,5702.9006089,N,00949.5500772,E,2,4,4.2,-3.624,M,40.592,M,2.7,0123*5B
$GPVTG,010.22,T,-629.68,M,004.801,N,008.891,K,D*0C
$GPGGA,091854.05,5702.9007040,N,00949.5500958,E,2,4,4.2,-3.635,M,40.592,M,1.6,0123*5E
$GPVTG,010.91,T,-628.99,M,004.802,N,008.894,K,D*0D
$GPGGA,091854.10,5702.9007680,N,00949.5501137,E,2,4,4.2,-3.638,M,40.592,M,1.6,0123*5D
$GPVTG,010.91,T,-628.99,M,004.787,N,008.865,K,D*01
$GPGGA,091854.15,5702.9008320,N,00949.5501424,E,2,4,4.2,-3.644,M,40.592,M,1.6,0123*54
$GPVTG,012.12,T,-627.78,M,004.794,N,008.878,K,D*06
$GPGGA,091854.20,5702.9008975,N,00949.5501738,E,2,4,4.2,-3.647,M,40.592,M,1.6,0123*55
$GPVTG,013.37,T,-626.53,M,004.815,N,008.917,K,D*06
$GPGGA,091854.25,5702.9009755,N,00949.5502037,E,2,4,4.2,-3.632,M,40.592,M,1.9,0123*5B
$GPVTG,014.34,T,-625.56,M,004.807,N,008.902,K,D*03
$GPGGA,091854.30,5702.9010372,N,00949.5502261,E,2,4,4.2,-3.631,M,40.592,M,1.9,0123*54
$GPVTG,014.14,T,-625.76,M,004.773,N,008.840,K,D*08
$GPGGA,091854.35,5702.9010944,N,00949.5502562,E,2,4,4.2,-3.631,M,40.592,M,1.9,0123*5A
$GPVTG,014.90,T,-625.00,M,004.729,N,008.758,K,D*0C
$GPGGA,091854.40,5702.9011572,N,00949.5502900,E,2,4,4.2,-3.630,M,40.592,M,1.9,0123*59
$GPVTG,015.82,T,-624.08,M,004.734,N,008.768,K,D*08
$GPGGA,091854.45,5702.9012404,N,00949.5503231,E,2,4,4.2,-3.635,M,40.592,M,2.1,0123*59
$GPVTG,017.01,T,-622.89,M,004.702,N,008.709,K,D*0C
$GPGGA,091854.50,5702.9013036,N,00949.5503593,E,2,4,4.2,-3.634,M,40.592,M,2.1,0123*57
$GPVTG,017.77,T,-622.13,M,004.715,N,008.733,K,D*01
$GPGGA,091854.55,5702.9013619,N,00949.5503915,E,2,4,4.2,-3.630,M,40.592,M,2.1,0123*5F
$GPVTG,018.01,T,-621.89,M,004.677,N,008.662,K,D*0F
$GPGGA,091854.60,5702.9014208,N,00949.5504204,E,2,4,4.2,-3.626,M,40.592,M,2.1,0123*51
$GPVTG,017.73,T,-622.17,M,004.633,N,008.580,K,D*0E
$GPGGA,091854.65,5702.9015014,N,00949.5504574,E,2,4,4.2,-3.634,M,40.592,M,2.3,0123*5B
$GPVTG,018.89,T,-621.01,M,004.603,N,008.524,K,D*0D
$GPGGA,091854.70,5702.9015564,N,00949.5505009,E,2,4,4.2,-3.635,M,40.592,M,2.3,0123*52
$GPVTG,020.29,T,-619.61,M,004.579,N,008.481,K,D*01
$GPGGA,091854.75,5702.9016181,N,00949.5505409,E,2,4,4.2,-3.636,M,40.592,M,2.3,0123*5C
$GPVTG,020.80,T,-619.10,M,004.591,N,008.503,K,D*09
$GPGGA,091854.80,5702.9016779,N,00949.5505820,E,2,4,4.2,-3.634,M,40.592,M,2.3,0123*52
$GPVTG,021.35,T,-618.55,M,004.591,N,008.503,K,D*06
$GPGGA,091854.85,5702.9017531,N,00949.5506211,E,2,4,4.2,-3.639,M,40.592,M,2.6,0123*5B
$GPVTG,021.76,T,-618.14,M,004.567,N,008.458,K,D*02
$GPGGA,091854.90,5702.9018084,N,00949.5506670,E,2,4,4.2,-3.642,M,40.592,M,2.6,0123*54
$GPVTG,022.81,T,-617.09,M,004.550,N,008.427,K,D*06
$GPGGA,091854.95,5702.9018640,N,00949.5507142,E,2,4,4.2,-3.645,M,40.592,M,2.6,0123*5F
$GPVTG,023.78,T,-616.12,M,004.539,N,008.407,K,D*07
$GPGGA,091855.00,5702.9019221,N,00949.5507678,E,2,4,4.2,-3.651,M,40.592,M,2.6,0123*5B
$GPVTG,025.21,T,-614.69,M,004.572,N,008.467,K,D*0A
$GPGGA,091855.05,5702.9019827,N,00949.5508291,E,2,4,4.2,-3.637,M,40.592,M,2.8,0123*50
$GPVTG,027.44,T,-612.46,M,004.592,N,008.505,K,D*0B
$GPGGA,091855.10,5702.9020358,N,00949.5508778,E,2,4,4.2,-3.638,M,40.592,M,2.8,0123*50
$GPVTG,027.87,T,-612.03,M,004.554,N,008.434,K,D*0C
$GPGGA,091855.15,5702.9020874,N,00949.5509279,E,2,4,4.2,-3.638,M,40.592,M,2.8,0123*55
$GPVTG,028.39,T,-611.51,M,004.512,N,008.356,K,D*03
$GPGGA,091855.20,5702.9021392,N,00949.5509811,E,2,4,4.2,-3.637,M,40.592,M,2.8,0123*5A
$GPVTG,029.12,T,-610.78,M,004.485,N,008.306,K,D*0B
$GPGGA,091855.25,5702.9022026,N,00949.5510455,E,2,4,4.2,-3.638,M,40.592,M,3.0,0123*52
$GPVTG,031.28,T,-608.62,M,004.504,N,008.342,K,D*01
$GPGGA,091855.30,5702.9022519,N,00949.5511057,E,2,4,4.2,-3.640,M,40.592,M,3.0,0123*57
$GPVTG,032.43,T,-607.47,M,004.488,N,008.312,K,D*07
$GPGGA,091855.35,5702.9023009,N,00949.5511585,E,2,4,4.2,-3.637,M,40.592,M,3.0,0123*5D
$GPVTG,032.54,T,-607.36,M,004.426,N,008.196,K,D*0D
$GPGGA,091855.40,5702.9023463,N,00949.5512173,E,2,4,4.2,-3.636,M,40.592,M,3.0,0123*58
$GPVTG,033.47,T,-606.43,M,004.375,N,008.103,K,D*00
$GPGGA,091855.45,5702.9024107,N,00949.5512709,E,2,4,4.2,-3.651,M,40.592,M,3.2,0123*55
$GPVTG,033.87,T,-606.03,M,004.306,N,007.974,K,D*0B
$GPGGA,091855.50,5702.9024587,N,00949.5513314,E,2,4,4.2,-3.650,M,40.592,M,3.2,0123*55
$GPVTG,034.61,T,-605.29,M,004.283,N,007.933,K,D*00
$GPGGA,091855.55,5702.9025091,N,00949.5514011,E,2,4,4.2,-3.650,M,40.592,M,3.2,0123*52
$GPVTG,036.09,T,-603.81,M,004.331,N,008.022,K,D*06
$GPGGA,091855.60,5702.9025549,N,00949.5514604,E,2,4,4.2,-3.654,M,40.592,M,3.2,0123*52
$GPVTG,036.43,T,-603.47,M,004.278,N,007.923,K,D*09
$GPGGA,091855.65,5702.9026037,N,00949.5515257,E,2,4,4.2,-3.639,M,40.592,M,3.4,0123*56
$GPVTG,037.35,T,-602.55,M,004.251,N,007.872,K,D*05
$GPGGA,091855.70,5702.9026452,N,00949.5515934,E,2,4,4.2,-3.637,M,40.592,M,3.4,0123*55
$GPVTG,038.67,T,-601.23,M,004.223,N,007.820,K,D*0D
$GPGGA,091855.75,5702.9026873,N,00949.5516636,E,2,4,4.2,-3.638,M,40.592,M,3.4,0123*5E
$GPVTG,040.04,T,-599.86,M,004.214,N,007.804,K,D*08
$GPGGA,091855.80,5702.9027345,N,00949.5517293,E,2,4,4.2,-3.635,M,40.592,M,3.4,0123*5C
$GPVTG,040.34,T,-599.56,M,004.203,N,007.784,K,D*07
$GPGGA,091855.85,5702.9027860,N,00949.5517986,E,2,4,4.2,-3.633,M,40.592,M,3.6,0123*5E
$GPVTG,041.37,T,-598.53,M,004.185,N,007.751,K,D*04
$GPGGA,091855.90,5702.9028262,N,00949.5518700,E,2,4,4.2,-3.633,M,40.592,M,3.6,0123*52
$GPVTG,042.50,T,-597.40,M,004.167,N,007.718,K,D*0A
$GPGGA,091855.95,5702.9028673,N,00949.5519435,E,2,4,4.2,-3.630,M,40.592,M,3.6,0123*54
$GPVTG,043.60,T,-596.30,M,004.167,N,007.718,K,D*0E
$GPGGA,091856.00,5702.9029092,N,00949.5520163,E,2,4,4.2,-3.634,M,40.592,M,3.6,0123*5B
$GPVTG,044.39,T,-595.51,M,004.162,N,007.708,K,D*05
$GPGGA,091856.05,5702.9029599,N,00949.5520906,E,2,4,4.2,-3.642,M,40.592,M,1.9,0123*57
$GPVTG,045.48,T,-594.42,M,004.155,N,007.695,K,D*00
$GPGGA,091856.10,5702.9030031,N,00949.5521696,E,2,4,4.2,-3.643,M,40.592,M,1.9,0123*5A
$GPVTG,046.46,T,-593.44,M,004.194,N,007.768,K,D*02
$GPGGA,091856.15,5702.9030414,N,00949.5522442,E,2,4,4.2,-3.645,M,40.592,M,1.9,0123*52
$GPVTG,047.17,T,-592.73,M,004.167,N,007.718,K,D*09
$GPGGA,091856.20,5702.9030795,N,00949.5523163,E,2,4,4.2,-3.650,M,40.592,M,1.9,0123*5D
$GPVTG,047.55,T,-592.35,M,004.120,N,007.630,K,D*05
$GPGGA,091856.25,5702.9031114,N,00949.5523985,E,2,4,4.2,-3.627,M,40.592,M,2.2,0123*5E
$GPVTG,049.42,T,-590.48,M,004.091,N,007.576,K,D*0F
$GPGGA,091856.30,5702.9031463,N,00949.5524772,E,2,4,4.2,-3.627,M,40.592,M,2.2,0123*5E
$GPVTG,050.39,T,-589.51,M,004.075,N,007.547,K,D*03
$GPGGA,091856.35,5702.9031841,N,00949.5525656,E,2,4,4.2,-3.625,M,40.592,M,2.2,0123*53
$GPVTG,051.85,T,-588.05,M,004.148,N,007.682,K,D*00
$GPGGA,091856.40,5702.9032171,N,00949.5526416,E,2,4,4.2,-3.625,M,40.592,M,2.2,0123*5D
$GPVTG,052.36,T,-587.54,M,004.086,N,007.567,K,D*0B
$GPGGA,091856.45,5702.9032535,N,00949.5527117,E,2,4,4.2,-3.627,M,40.592,M,2.4,0123*5D
$GPVTG,053.00,T,-586.90,M,003.940,N,007.296,K,D*0B
$GPGGA,091856.50,5702.9032815,N,00949.5527923,E,2,4,4.2,-3.627,M,40.592,M,2.4,0123*59
$GPVTG,054.30,T,-585.60,M,003.907,N,007.235,K,D*09
$GPGGA,091856.55,5702.9033140,N,00949.5528755,E,2,4,4.2,-3.625,M,40.592,M,2.4,0123*56
$GPVTG,055.27,T,-584.63,M,003.918,N,007.256,K,D*07
$GPGGA,091856.60,5702.9033451,N,00949.5529633,E,2,4,4.2,-3.622,M,40.592,M,2.4,0123*52
$GPVTG,056.60,T,-583.30,M,003.958,N,007.331,K,D*02
$GPGGA,091856.65,5702.9033851,N,00949.5530483,E,2,4,4.2,-3.623,M,40.592,M,2.7,0123*58
$GPVTG,058.53,T,-581.37,M,003.937,N,007.292,K,D*08
$GPGGA,091856.70,5702.9034126,N,00949.5531290,E,2,4,4.2,-3.621,M,40.592,M,2.7,0123*55
$GPVTG,059.23,T,-580.67,M,003.879,N,007.184,K,D*05
$GPGGA,091856.75,5702.9034397,N,00949.5532095,E,2,4,4.2,-3.620,M,40.592,M,2.7,0123*5D
$GPVTG,059.82,T,-580.08,M,003.826,N,007.086,K,D*0E
$GPGGA,091856.80,5702.9034668,N,00949.5532935,E,2,4,4.2,-3.621,M,40.592,M,2.7,0123*50
$GPVTG,060.62,T,-579.28,M,003.817,N,007.069,K,D*0D
$GPGGA,091856.85,5702.9035084,N,00949.5533805,E,2,4,4.2,-3.616,M,40.592,M,2.9,0123*59
$GPVTG,061.77,T,-578.13,M,003.845,N,007.121,K,D*0B
$GPGGA,091856.90,5702.9035334,N,00949.5534657,E,2,4,4.2,-3.618,M,40.592,M,2.9,0123*55
$GPVTG,062.61,T,-577.29,M,003.829,N,007.091,K,D*09
$GPGGA,091856.95,5702.9035576,N,00949.5535496,E,2,4,4.2,-3.617,M,40.592,M,2.9,0123*51
$GPVTG,063.33,T,-576.57,M,003.797,N,007.032,K,D*04
$GPGGA,091857.00,5702.9035819,N,00949.5536379,E,2,4,4.2,-3.618,M,40.592,M,2.9,0123*52
$GPVTG,064.26,T,-575.64,M,003.811,N,007.057,K,D*06
$GPGGA,091857.05,5702.9036252,N,00949.5537218,E,2,4,4.2,-3.619,M,40.592,M,1.7,0123*5A
$GPVTG,064.85,T,-575.05,M,003.779,N,006.998,K,D*02
$GPGGA,091857.10,5702.9036471,N,00949.5538105,E,2,4,4.2,-3.623,M,40.592,M,1.7,0123*50
$GPVTG,065.86,T,-574.04,M,003.786,N,007.011,K,D*09
$GPGGA,091857.15,5702.9036690,N,00949.5539051,E,2,4,4.2,-3.625,M,40.592,M,1.7,0123*5F
$GPVTG,067.09,T,-572.81,M,003.850,N,007.130,K,D*01
$GPGGA,091857.20,5702.9036895,N,00949.5539983,E,2,4,4.2,-3.626,M,40.592,M,1.7,0123*57
$GPVTG,068.19,T,-571.71,M,003.883,N,007.191,K,D*06
$GPGGA,091857.25,5702.9037207,N,00949.5540815,E,2,4,4.2,-3.628,M,40.592,M,2.0,0123*58
$GPVTG,068.67,T,-571.23,M,003.805,N,007.047,K,D*0C
$GPGGA,091857.30,5702.9037406,N,00949.5541665,E,2,4,4.2,-3.629,M,40.592,M,2.0,0123*52
$GPVTG,069.23,T,-570.67,M,003.757,N,006.958,K,D*02
$GPGGA,091857.35,5702.9037571,N,00949.5542533,E,2,4,4.2,-3.630,M,40.592,M,2.0,0123*5D
$GPVTG,070.10,T,-569.80,M,003.721,N,006.892,K,D*0D
$GPGGA,091857.40,5702.9037722,N,00949.5543472,E,2,4,4.2,-3.631,M,40.592,M,2.0,0123*5F
$GPVTG,071.39,T,-568.51,M,003.754,N,006.952,K,D*05
$GPGGA,091857.45,5702.9038018,N,00949.5544390,E,2,4,4.2,-3.619,M,40.592,M,2.2,0123*5F
$GPVTG,072.60,T,-567.30,M,003.759,N,006.962,K,D*0C
$GPGGA,091857.50,5702.9038176,N,00949.5545255,E,2,4,4.2,-3.616,M,40.592,M,2.2,0123*54
$GPVTG,073.16,T,-566.74,M,003.704,N,006.860,K,D*06
$GPGGA,091857.55,5702.9038325,N,00949.5546145,E,2,4,4.2,-3.616,M,40.592,M,2.2,0123*54
$GPVTG,073.93,T,-565.97,M,003.684,N,006.823,K,D*0B
$GPGGA,091857.60,5702.9038465,N,00949.5547072,E,2,4,4.2,-3.615,M,40.592,M,2.2,0123*56
$GPVTG,074.92,T,-564.98,M,003.705,N,006.862,K,D*0E
$GPGGA,091857.65,5702.9038766,N,00949.5547998,E,2,4,4.2,-3.616,M,40.592,M,2.4,0123*5B
$GPVTG,075.93,T,-563.97,M,003.723,N,006.896,K,D*09
$GPGGA,091857.70,5702.9038883,N,00949.5548884,E,2,4,4.2,-3.617,M,40.592,M,2.4,0123*59
$GPVTG,076.79,T,-563.11,M,003.686,N,006.826,K,D*05
$GPGGA,091857.75,5702.9038999,N,00949.5549796,E,2,4,4.2,-3.618,M,40.592,M,2.4,0123*54
$GPVTG,077.65,T,-562.25,M,003.681,N,006.816,K,D*0B
$GPGGA,091857.80,5702.9039096,N,00949.5550696,E,2,4,4.2,-3.620,M,40.592,M,2.4,0123*5B
$GPVTG,078.66,T,-561.24,M,003.659,N,006.777,K,D*08
$GPGGA,091857.85,5702.9039269,N,00949.5551655,E,2,4,4.2,-3.619,M,40.592,M,2.7,0123*5B
$GPVTG,079.99,T,-559.91,M,003.699,N,006.850,K,D*0A
$GPGGA,091857.90,5702.9039348,N,00949.5552570,E,2,4,4.2,-3.620,M,40.592,M,2.7,0123*50
$GPVTG,081.02,T,-558.88,M,003.686,N,006.827,K,D*08
$GPGGA,091857.95,5702.9039411,N,00949.5553453,E,2,4,4.2,-3.620,M,40.592,M,2.7,0123*5F
$GPVTG,082.07,T,-557.83,M,003.639,N,006.740,K,D*00
$GPGGA,091858.00,5702.9039471,N,00949.5554344,E,2,4,4.2,-3.620,M,40.592,M,2.7,0123*5C
$GPVTG,083.07,T,-556.83,M,003.606,N,006.679,K,D*07
$GPGGA,091858.05,5702.9039679,N,00949.5555238,E,2,4,4.2,-3.633,M,40.592,M,1.6,0123*58
$GPVTG,084.26,T,-555.64,M,003.596,N,006.660,K,D*0B
$GPGGA,091858.10,5702.9039731,N,00949.5556112,E,2,4,4.2,-3.634,M,40.592,M,1.6,0123*5E
$GPVTG,085.09,T,-554.81,M,003.551,N,006.577,K,D*03
$GPGGA,091858.15,5702.9039769,N,00949.5557027,E,2,4,4.2,-3.639,M,40.592,M,1.6,0123*5D
$GPVTG,086.12,T,-553.78,M,003.559,N,006.591,K,D*0B
$GPGGA,091858.20,5702.9039802,N,00949.5557952,E,2,4,4.2,-3.645,M,40.592,M,1.6,0123*59
$GPVTG,087.09,T,-552.81,M,003.577,N,006.624,K,D*06
$GPGGA,091858.25,5702.9039989,N,00949.5558849,E,2,4,4.2,-3.638,M,40.592,M,1.9,0123*5F
$GPVTG,088.26,T,-551.64,M,003.561,N,006.595,K,D*02
$GPGGA,091858.30,5702.9039999,N,00949.5559733,E,2,4,4.2,-3.641,M,40.592,M,1.9,0123*57
$GPVTG,089.30,T,-550.60,M,003.535,N,006.547,K,D*0F
$GPGGA,091858.35,5702.9040006,N,00949.5560642,E,2,4,4.2,-3.646,M,40.592,M,1.9,0123*59
$GPVTG,090.25,T,-549.65,M,003.542,N,006.560,K,D*0B
$GPGGA,091858.40,5702.9039987,N,00949.5561556,E,2,4,4.2,-3.648,M,40.592,M,1.9,0123*5C
$GPVTG,091.45,T,-548.45,M,003.555,N,006.584,K,D*03
$GPGGA,091858.45,5702.9039996,N,00949.5562470,E,2,4,4.2,-3.654,M,40.592,M,2.1,0123*59
$GPVTG,092.94,T,-546.96,M,003.553,N,006.581,K,D*0F
$GPGGA,091858.50,5702.9039969,N,00949.5563370,E,2,4,4.2,-3.656,M,40.592,M,2.1,0123*59
$GPVTG,093.96,T,-545.94,M,003.553,N,006.581,K,D*0D
$GPGGA,091858.55,5702.9039930,N,00949.5564223,E,2,4,4.2,-3.660,M,40.592,M,2.1,0123*55
$GPVTG,095.11,T,-544.79,M,003.504,N,006.490,K,D*05
$GPGGA,091858.60,5702.9039881,N,00949.5565079,E,2,4,4.2,-3.663,M,40.592,M,2.1,0123*57
$GPVTG,096.28,T,-543.62,M,003.467,N,006.422,K,D*0C
$GPGGA,091858.65,5702.9039980,N,00949.5565963,E,2,4,4.2,-3.661,M,40.592,M,2.3,0123*50
$GPVTG,097.32,T,-542.58,M,003.484,N,006.452,K,D*04
$GPGGA,091858.70,5702.9039905,N,00949.5566862,E,2,4,4.2,-3.665,M,40.592,M,2.3,0123*5E
$GPVTG,098.52,T,-541.38,M,003.506,N,006.494,K,D*09
$GPGGA,091858.75,5702.9039833,N,00949.5567714,E,2,4,4.2,-3.668,M,40.592,M,2.3,0123*5D
$GPVTG,099.64,T,-540.26,M,003.477,N,006.440,K,D*0D
$GPGGA,091858.80,5702.9039744,N,00949.5568571,E,2,4,4.2,-3.671,M,40.592,M,2.3,0123*5E
$GPVTG,100.86,T,-539.04,M,003.463,N,006.414,K,D*0A
$GPGGA,091858.85,5702.9039719,N,00949.5569432,E,2,4,4.2,-3.677,M,40.592,M,2.6,0123*57
$GPVTG,102.17,T,-537.73,M,003.444,N,006.378,K,D*06
$GPGGA,091858.90,5702.9039619,N,00949.5570342,E,2,4,4.2,-3.683,M,40.592,M,2.6,0123*51
$GPVTG,102.99,T,-536.91,M,003.502,N,006.485,K,D*0B
$GPGGA,091858.95,5702.9039502,N,00949.5571177,E,2,4,4.2,-3.688,M,40.592,M,2.6,0123*53
$GPVTG,104.28,T,-535.62,M,003.476,N,006.437,K,D*03
$GPGGA,091859.00,5702.9039375,N,00949.5572038,E,2,4,4.2,-3.690,M,40.592,M,2.6,0123*58
$GPVTG,105.44,T,-534.46,M,003.488,N,006.460,K,D*0C
$GPGGA,091859.05,5702.9039350,N,00949.5572860,E,2,4,4.2,-3.687,M,40.592,M,2.8,0123*57
$GPVTG,107.00,T,-532.90,M,003.445,N,006.381,K,D*0A
$GPGGA,091859.10,5702.9039222,N,00949.5573727,E,2,4,4.2,-3.687,M,40.592,M,2.8,0123*5A
$GPVTG,107.72,T,-532.18,M,003.475,N,006.435,K,D*04
$GPGGA,091859.15,5702.9039066,N,00949.5574545,E,2,4,4.2,-3.689,M,40.592,M,2.8,0123*52
$GPVTG,109.04,T,-530.86,M,003.460,N,006.408,K,D*04
$GPGGA,091859.20,5702.9038907,N,00949.5575376,E,2,4,4.2,-3.696,M,40.592,M,2.8,0123*52
$GPVTG,110.17,T,-529.73,M,003.466,N,006.419,K,D*0A
$GPGGA,091859.25,5702.9038888,N,00949.5576186,E,2,4,4.2,-3.705,M,40.592,M,3.0,0123*5D
$GPVTG,111.18,T,-528.72,M,003.450,N,006.390,K,D*07
$GPGGA,091859.30,5702.9038718,N,00949.5576968,E,2,4,4.2,-3.709,M,40.592,M,3.0,0123*5B
$GPVTG,112.44,T,-527.46,M,003.418,N,006.331,K,D*02
$GPGGA,091859.35,5702.9038537,N,00949.5577794,E,2,4,4.2,-3.715,M,40.592,M,3.0,0123*50
$GPVTG,113.36,T,-526.54,M,003.444,N,006.378,K,D*00
$GPGGA,091859.40,5702.9038344,N,00949.5578561,E,2,4,4.2,-3.720,M,40.592,M,3.0,0123*51
$GPVTG,114.75,T,-525.16,M,003.415,N,006.325,K,D*09
$GPGGA,091859.45,5702.9038243,N,00949.5579355,E,2,4,4.2,-3.715,M,40.592,M,3.2,0123*56
$GPVTG,115.89,T,-524.01,M,003.410,N,006.315,K,D*0A
$GPGGA,091859.50,5702.9038033,N,00949.5580135,E,2,4,4.2,-3.721,M,40.592,M,3.2,0123*52
$GPVTG,117.04,T,-522.86,M,003.416,N,006.327,K,D*03
$GPGGA,091859.55,5702.9037822,N,00949.5580924,E,2,4,4.2,-3.726,M,40.592,M,3.2,0123*5F
$GPVTG,117.93,T,-521.97,M,003.436,N,006.363,K,D*0C
$GPGGA,091859.60,5702.9037571,N,00949.5581660,E,2,4,4.2,-3.728,M,40.592,M,3.2,0123*52
$GPVTG,119.68,T,-520.22,M,003.423,N,006.340,K,D*0C
$GPGGA,091859.65,5702.9037349,N,00949.5582379,E,2,4,4.2,-3.729,M,40.592,M,3.4,0123*53
$GPVTG,121.75,T,-518.15,M,003.381,N,006.263,K,D*0B
$GPGGA,091859.70,5702.9037110,N,00949.5583121,E,2,4,4.2,-3.732,M,40.592,M,3.4,0123*5D
$GPVTG,122.71,T,-517.19,M,003.391,N,006.281,K,D*02
$GPGGA,091859.75,5702.9036850,N,00949.5583891,E,2,4,4.2,-3.739,M,40.592,M,3.4,0123*5D
$GPVTG,123.51,T,-516.39,M,003.441,N,006.374,K,D*03
$GPGGA,091859.80,5702.9036570,N,00949.5584608,E,2,4,4.2,-3.745,M,40.592,M,3.4,0123*5A
$GPVTG,124.94,T,-514.96,M,003.452,N,006.393,K,D*01
$GPGGA,091859.85,5702.9036400,N,00949.5585294,E,2,4,4.2,-3.752,M,40.592,M,3.6,0123*5D
$GPVTG,126.64,T,-513.26,M,003.424,N,006.342,K,D*0D
$GPGGA,091859.90,5702.9036118,N,00949.5585962,E,2,4,4.2,-3.755,M,40.592,M,3.6,0123*50
$GPVTG,128.13,T,-511.77,M,003.408,N,006.311,K,D*0D
$GPGGA,091859.95,5702.9035844,N,00949.5586640,E,2,4,4.2,-3.758,M,40.592,M,3.6,0123*57
$GPVTG,129.13,T,-510.77,M,003.403,N,006.303,K,D*05
$GPGGA,091900.00,5702.9035546,N,00949.5587384,E,2,4,4.2,-3.768,M,40.592,M,3.6,0123*56
$GPVTG,129.46,T,-510.44,M,003.475,N,006.436,K,D*05
$GPGGA,091900.05,5702.9035421,N,00949.5588074,E,2,4,4.2,-3.766,M,40.592,M,1.9,0123*53
$GPVTG,130.17,T,-509.73,M,003.459,N,006.407,K,D*09
$GPGGA,091900.10,5702.9035114,N,00949.5588748,E,2,4,4.2,-3.765,M,40.592,M,1.9,0123*5F
$GPVTG,131.11,T,-508.79,M,003.476,N,006.438,K,D*04
$GPGGA,091900.15,5702.9034793,N,00949.5589388,E,2,4,4.2,-3.770,M,40.592,M,1.9,0123*5F
$GPVTG,132.45,T,-507.45,M,003.476,N,006.437,K,D*09
$GPGGA,091900.20,5702.9034441,N,00949.5589942,E,2,4,4.2,-3.773,M,40.592,M,1.9,0123*5A
$GPVTG,135.00,T,-504.90,M,003.433,N,006.358,K,D*0B
$GPGGA,091900.25,5702.9034168,N,00949.5590607,E,2,4,4.2,-3.770,M,40.592,M,2.2,0123*5C
$GPVTG,135.49,T,-504.41,M,003.463,N,006.414,K,D*00
$GPGGA,091900.30,5702.9033828,N,00949.5591265,E,2,4,4.2,-3.775,M,40.592,M,2.2,0123*56
$GPVTG,135.99,T,-503.91,M,003.508,N,006.496,K,D*01
$GPGGA,091900.35,5702.9033482,N,00949.5591903,E,2,4,4.2,-3.777,M,40.592,M,2.2,0123*56
$GPVTG,136.72,T,-503.18,M,003.539,N,006.553,K,D*0C
$GPGGA,091900.40,5702.9033119,N,00949.5592528,E,2,4,4.2,-3.781,M,40.592,M,2.2,0123*5C
$GPVTG,137.60,T,-502.30,M,003.571,N,006.613,K,D*0E
$GPGGA,091900.45,5702.9032935,N,00949.5593153,E,2,4,4.2,-3.793,M,40.592,M,2.4,0123*52
$GPVTG,138.45,T,-501.45,M,003.554,N,006.582,K,D*0B
$GPGGA,091900.50,5702.9032558,N,00949.5593667,E,2,4,4.2,-3.799,M,40.592,M,2.4,0123*5B
$GPVTG,140.59,T,-499.31,M,003.522,N,006.523,K,D*00
$GPGGA,091900.55,5702.9032180,N,00949.5594244,E,2,4,4.2,-3.806,M,40.592,M,2.4,0123*54
$GPVTG,141.52,T,-498.38,M,003.546,N,006.567,K,D*00
$GPGGA,091900.60,5702.9031789,N,00949.5594782,E,2,4,4.2,-3.813,M,40.592,M,2.4,0123*55
$GPVTG,142.89,T,-497.01,M,003.555,N,006.583,K,D*08
$GPGGA,091900.65,5702.9031464,N,00949.5595347,E,2,4,4.2,-3.802,M,40.592,M,2.7,0123*5F
$GPVTG,143.65,T,-496.25,M,003.569,N,006.609,K,D*02
$GPGGA,091900.70,5702.9031060,N,00949.5595829,E,2,4,4.2,-3.800,M,40.592,M,2.7,0123*5A
$GPVTG,145.46,T,-494.44,M,003.560,N,006.592,K,D*08
$GPGGA,091900.75,5702.9030644,N,00949.5596288,E,2,4,4.2,-3.798,M,40.592,M,2.7,0123*52
$GPVTG,147.40,T,-492.50,M,003.554,N,006.581,K,D*0A
$GPGGA,091900.80,5702.9030231,N,00949.5596823,E,2,4,4.2,-3.799,M,40.592,M,2.7,0123*54
$GPVTG,147.80,T,-492.10,M,003.598,N,006.664,K,D*0A
$GPGGA,091900.85,5702.9030027,N,00949.5597268,E,2,4,4.2,-3.821,M,40.592,M,2.9,0123*52
$GPVTG,149.12,T,-490.78,M,003.559,N,006.592,K,D*04
$GPGGA,091900.90,5702.9029599,N,00949.5597659,E,2,4,4.2,-3.825,M,40.592,M,2.9,0123*5C
$GPVTG,151.33,T,-488.57,M,003.542,N,006.560,K,D*0D
$GPGGA,091900.95,5702.9029164,N,00949.5598059,E,2,4,4.2,-3.833,M,40.592,M,2.9,0123*51
$GPVTG,153.03,T,-486.87,M,003.546,N,006.568,K,D*03
$GPGGA,091901.00,5702.9028731,N,00949.5598497,E,2,4,4.2,-3.842,M,40.592,M,2.9,0123*5B
$GPVTG,153.75,T,-486.15,M,003.573,N,006.617,K,D*04
$GPGGA,091901.05,5702.9028355,N,00949.5598961,E,2,4,4.2,-3.827,M,40.592,M,1.7,0123*52
$GPVTG,154.19,T,-485.71,M,003.594,N,006.655,K,D*07
$GPGGA,091901.10,5702.9027887,N,00949.5599311,E,2,4,4.2,-3.826,M,40.592,M,1.7,0123*50
$GPVTG,156.09,T,-483.81,M,003.613,N,006.691,K,D*09
$GPGGA,091901.15,5702.9027435,N,00949.5599711,E,2,4,4.2,-3.831,M,40.592,M,1.7,0123*52
$GPVTG,156.72,T,-483.18,M,003.642,N,006.745,K,D*09
$GPGGA,091901.20,5702.9026974,N,00949.5600068,E,2,4,4.2,-3.833,M,40.592,M,1.7,0123*55
$GPVTG,157.85,T,-482.05,M,003.661,N,006.781,K,D*04
$GPGGA,091901.25,5702.9026668,N,00949.5600419,E,2,4,4.2,-3.840,M,40.592,M,2.0,0123*50
$GPVTG,159.12,T,-480.78,M,003.659,N,006.777,K,D*0E
$GPGGA,091901.30,5702.9026195,N,00949.5600761,E,2,4,4.2,-3.837,M,40.592,M,2.0,0123*5D
$GPVTG,159.96,T,-479.94,M,003.686,N,006.826,K,D*0F
$GPGGA,091901.35,5702.9025716,N,00949.5601087,E,2,4,4.2,-3.838,M,40.592,M,2.0,0123*57
$GPVTG,160.84,T,-479.06,M,003.712,N,006.874,K,D*06
$GPGGA,091901.40,5702.9025233,N,00949.5601338,E,2,4,4.2,-3.839,M,40.592,M,2.0,0123*51
$GPVTG,162.68,T,-477.22,M,003.718,N,006.885,K,D*0A
$GPGGA,091901.45,5702.9024995,N,00949.5601526,E,2,4,4.2,-3.850,M,40.592,M,2.2,0123*56
$GPVTG,164.90,T,-475.00,M,003.673,N,006.802,K,D*0A
$GPGGA,091901.50,5702.9024505,N,00949.5601771,E,2,4,4.2,-3.855,M,40.592,M,2.2,0123*52
$GPVTG,166.02,T,-473.88,M,003.694,N,006.841,K,D*0B
$GPGGA,091901.55,5702.9023999,N,00949.5601958,E,2,4,4.2,-3.861,M,40.592,M,2.2,0123*5B
$GPVTG,167.79,T,-472.11,M,003.717,N,006.885,K,D*05
$GPGGA,091901.60,5702.9023504,N,00949.5602222,E,2,4,4.2,-3.871,M,40.592,M,2.2,0123*51
$GPVTG,167.89,T,-472.01,M,003.750,N,006.945,K,D*05
$GPGGA,091901.65,5702.9023065,N,00949.5602492,E,2,4,4.2,-3.870,M,40.592,M,2.4,0123*5C
$GPVTG,168.13,T,-471.77,M,003.771,N,006.984,K,D*05
$GPGGA,091901.70,5702.9022550,N,00949.5602661,E,2,4,4.2,-3.877,M,40.592,M,2.4,0123*53
$GPVTG,169.47,T,-470.43,M,003.796,N,007.030,K,D*0D
$GPGGA,091901.75,5702.9022041,N,00949.5602811,E,2,4,4.2,-3.882,M,40.592,M,2.4,0123*50
$GPVTG,170.77,T,-469.13,M,003.812,N,007.060,K,D*0D
$GPGGA,091901.80,5702.9021529,N,00949.5602964,E,2,4,4.2,-3.887,M,40.592,M,2.4,0123*54
$GPVTG,171.71,T,-468.19,M,003.832,N,007.096,K,D*0A
$GPGGA,091901.85,5702.9021154,N,00949.5603086,E,2,4,4.2,-3.868,M,40.592,M,2.7,0123*59
$GPVTG,173.47,T,-466.43,M,003.840,N,007.113,K,D*05
$GPGGA,091901.90,5702.9020616,N,00949.5603124,E,2,4,4.2,-3.867,M,40.592,M,2.7,0123*5B
$GPVTG,175.61,T,-464.29,M,003.873,N,007.172,K,D*0E
$GPGGA,091901.95,5702.9020086,N,00949.5603221,E,2,4,4.2,-3.866,M,40.592,M,2.7,0123*56
$GPVTG,176.34,T,-463.56,M,003.901,N,007.225,K,D*07
$GPGGA,091902.00,5702.9019562,N,00949.5603392,E,2,4,4.2,-3.868,M,40.592,M,2.7,0123*5B
$GPVTG,175.63,T,-464.27,M,003.925,N,007.269,K,D*09
$GPGGA,091902.05,5702.9019217,N,00949.5603479,E,2,4,4.2,-3.894,M,40.592,M,1.6,0123*58
$GPVTG,176.29,T,-463.61,M,003.908,N,007.238,K,D*0A
$GPGGA,091902.10,5702.9018686,N,00949.5603534,E,2,4,4.2,-3.897,M,40.592,M,1.6,0123*5A
$GPVTG,177.18,T,-462.72,M,003.924,N,007.266,K,D*0F
$GPGGA,091902.15,5702.9018141,N,00949.5603576,E,2,4,4.2,-3.900,M,40.592,M,1.6,0123*5A
$GPVTG,178.04,T,-461.86,M,003.953,N,007.321,K,D*07
$GPGGA,091902.20,5702.9017590,N,00949.5603525,E,2,4,4.2,-3.899,M,40.592,M,1.6,0123*5C
$GPVTG,180.08,T,-459.82,M,003.984,N,007.377,K,D*0A
$GPGGA,091902.25,5702.9017203,N,00949.5603530,E,2,4,4.2,-3.896,M,40.592,M,1.9,0123*50
$GPVTG,181.02,T,-458.88,M,003.976,N,007.364,K,D*05
$GPGGA,091902.30,5702.9016647,N,00949.5603444,E,2,4,4.2,-3.897,M,40.592,M,1.9,0123*52
$GPVTG,182.90,T,-457.00,M,004.013,N,007.432,K,D*0B
$GPGGA,091902.35,5702.9016097,N,00949.5603452,E,2,4,4.2,-3.900,M,40.592,M,1.9,0123*54
$GPVTG,182.93,T,-456.97,M,004.035,N,007.472,K,D*07
$GPGGA,091902.40,5702.9015541,N,00949.5603376,E,2,4,4.2,-3.903,M,40.592,M,1.9,0123*59
$GPVTG,184.08,T,-455.82,M,004.064,N,007.527,K,D*01
$GPGGA,091902.45,5702.9015094,N,00949.5603332,E,2,4,4.2,-3.909,M,40.592,M,2.1,0123*50
$GPVTG,184.83,T,-455.07,M,004.092,N,007.579,K,D*0D
$GPGGA,091902.50,5702.9014548,N,00949.5603330,E,2,4,4.2,-3.909,M,40.592,M,2.1,0123*53
$GPVTG,184.55,T,-455.35,M,004.109,N,007.610,K,D*08
$GPGGA,091902.55,5702.9013982,N,00949.5603170,E,2,4,4.2,-3.909,M,40.592,M,2.1,0123*5D
$GPVTG,186.20,T,-453.70,M,004.145,N,007.677,K,D*06
$GPGGA,091902.60,5702.9013425,N,00949.5603072,E,2,4,4.2,-3.913,M,40.592,M,2.1,0123*53
$GPVTG,186.75,T,-453.15,M,004.168,N,007.719,K,D*03
$GPGGA,091902.65,5702.9013015,N,00949.5602913,E,2,4,4.2,-3.926,M,40.592,M,2.3,0123*5A
$GPVTG,188.16,T,-451.74,M,004.206,N,007.790,K,D*07
$GPGGA,091902.70,5702.9012477,N,00949.5602769,E,2,4,4.2,-3.927,M,40.592,M,2.3,0123*5D
$GPVTG,188.85,T,-451.05,M,004.214,N,007.804,K,D*0A
$GPGGA,091902.75,5702.9011873,N,00949.5602525,E,2,4,4.2,-3.930,M,40.592,M,2.3,0123*5F
$GPVTG,190.55,T,-449.35,M,004.277,N,007.920,K,D*06
$GPGGA,091902.80,5702.9011305,N,00949.5602291,E,2,4,4.2,-3.933,M,40.592,M,2.3,0123*54
$GPVTG,191.82,T,-448.08,M,004.310,N,007.981,K,D*09
$GPGGA,091902.85,5702.9010846,N,00949.5602081,E,2,4,4.2,-3.932,M,40.592,M,2.6,0123*5B
$GPVTG,192.83,T,-447.07,M,004.338,N,008.034,K,D*09
$GPGGA,091902.90,5702.9010292,N,00949.5601844,E,2,4,4.2,-3.931,M,40.592,M,2.6,0123*5D
$GPVTG,193.61,T,-446.29,M,004.349,N,008.054,K,D*09
$GPGGA,091902.95,5702.9009692,N,00949.5601568,E,2,4,4.2,-3.930,M,40.592,M,2.6,0123*56
$GPVTG,194.54,T,-445.36,M,004.400,N,008.149,K,D*02
$GPGGA,091903.00,5702.9009122,N,00949.5601265,E,2,4,4.2,-3.928,M,40.592,M,2.6,0123*54
$GPVTG,195.65,T,-444.25,M,004.428,N,008.200,K,D*06
$GPGGA,091903.05,5702.9008799,N,00949.5600984,E,2,4,4.2,-3.947,M,40.592,M,2.8,0123*54
$GPVTG,196.38,T,-443.52,M,004.413,N,008.173,K,D*05
$GPGGA,091903.10,5702.9008231,N,00949.5600676,E,2,4,4.2,-3.950,M,40.592,M,2.8,0123*53
$GPVTG,197.07,T,-442.83,M,004.431,N,008.205,K,D*07
$GPGGA,091903.15,5702.9007673,N,00949.5600286,E,2,4,4.2,-3.953,M,40.592,M,2.8,0123*53
$GPVTG,198.61,T,-441.29,M,004.460,N,008.259,K,D*06
$GPGGA,091903.20,5702.9007107,N,00949.5599970,E,2,4,4.2,-3.955,M,40.592,M,2.8,0123*56
$GPVTG,198.88,T,-441.02,M,004.465,N,008.269,K,D*0E
$GPGGA,091903.25,5702.9006698,N,00949.5599594,E,2,4,4.2,-3.966,M,40.592,M,3.0,0123*5C
$GPVTG,200.13,T,-439.77,M,004.481,N,008.298,K,D*07
$GPGGA,091903.30,5702.9006121,N,00949.5599186,E,2,4,4.2,-3.963,M,40.592,M,3.0,0123*5F
$GPVTG,201.06,T,-438.84,M,004.515,N,008.362,K,D*07
$GPGGA,091903.35,5702.9005561,N,00949.5598778,E,2,4,4.2,-3.965,M,40.592,M,3.0,0123*59
$GPVTG,201.82,T,-438.08,M,004.529,N,008.387,K,D*0B
$GPGGA,091903.40,5702.9004998,N,00949.5598380,E,2,4,4.2,-3.968,M,40.592,M,3.0,0123*5E
$GPVTG,202.24,T,-437.66,M,004.535,N,008.399,K,D*01
$GPGGA,091903.45,5702.9004608,N,00949.5597947,E,2,4,4.2,-3.980,M,40.592,M,3.2,0123*57
$GPVTG,203.32,T,-436.58,M,004.532,N,008.393,K,D*06
$GPGGA,091903.50,5702.9004043,N,00949.5597391,E,2,4,4.2,-3.986,M,40.592,M,3.2,0123*5D
$GPVTG,205.21,T,-434.69,M,004.595,N,008.511,K,D*03
$GPGGA,091903.55,5702.9003482,N,00949.5596915,E,2,4,4.2,-3.988,M,40.592,M,3.2,0123*5F
$GPVTG,205.80,T,-434.10,M,004.610,N,008.537,K,D*0C
$GPGGA,091903.60,5702.9002930,N,00949.5596352,E,2,4,4.2,-3.991,M,40.592,M,3.2,0123*5D
$GPVTG,207.23,T,-432.67,M,004.651,N,008.614,K,D*06
$GPGGA,091903.65,5702.9002477,N,00949.5595871,E,2,4,4.2,-3.982,M,40.592,M,3.4,0123*5B
$GPVTG,207.94,T,-431.96,M,004.640,N,008.593,K,D*0B
$GPGGA,091903.70,5702.9001911,N,00949.5595413,E,2,4,4.2,-3.980,M,40.592,M,3.4,0123*5B
$GPVTG,207.62,T,-432.28,M,004.625,N,008.565,K,D*0E
$GPGGA,091903.75,5702.9001342,N,00949.5594864,E,2,4,4.2,-3.976,M,40.592,M,3.4,0123*56
$GPVTG,208.26,T,-431.64,M,004.655,N,008.622,K,D*0D
$GPGGA,091903.80,5702.9000772,N,00949.5594277,E,2,4,4.2,-3.974,M,40.592,M,3.4,0123*50
$GPVTG,209.13,T,-430.77,M,004.698,N,008.700,K,D*09
$GPGGA,091903.85,5702.9000379,N,00949.5593727,E,2,4,4.2,-3.995,M,40.592,M,3.6,0123*50
$GPVTG,209.92,T,-429.98,M,004.676,N,008.660,K,D*0E
$GPGGA,091903.90,5702.8999854,N,00949.5593074,E,2,4,4.2,-3.995,M,40.592,M,3.6,0123*59
$GPVTG,211.35,T,-428.55,M,004.708,N,008.720,K,D*07
$GPGGA,091903.95,5702.8999314,N,00949.5592442,E,2,4,4.2,-3.994,M,40.592,M,3.6,0123*52
$GPVTG,212.19,T,-427.71,M,004.730,N,008.761,K,D*0D
$GPGGA,091904.00,5702.8998769,N,00949.5591829,E,2,4,4.2,-3.996,M,40.592,M,3.6,0123*56
$GPVTG,212.60,T,-427.30,M,004.738,N,008.775,K,D*0B
$GPGGA,091904.05,5702.8998293,N,00949.5591164,E,2,4,4.2,-4.005,M,40.592,M,1.9,0123*5A
$GPVTG,213.60,T,-426.30,M,004.795,N,008.881,K,D*08
$GPGGA,091904.10,5702.8997764,N,00949.5590430,E,2,4,4.2,-4.006,M,40.592,M,1.9,0123*5A
$GPVTG,214.97,T,-424.93,M,004.845,N,008.973,K,D*02
$GPGGA,091904.15,5702.8997230,N,00949.5589697,E,2,4,4.2,-4.007,M,40.592,M,1.9,0123*5D
$GPVTG,216.01,T,-423.89,M,004.885,N,009.047,K,D*00
$GPGGA,091904.20,5702.8996761,N,00949.5588999,E,2,4,4.2,-4.012,M,40.592,M,1.9,0123*5F
$GPVTG,216.82,T,-423.08,M,004.850,N,008.983,K,D*0A
$GPGGA,091904.25,5702.8996329,N,00949.5588274,E,2,4,4.2,-3.999,M,40.592,M,2.2,0123*5F
$GPVTG,218.40,T,-421.50,M,004.847,N,008.978,K,D*07
$GPGGA,091904.30,5702.8995780,N,00949.5587517,E,2,4,4.2,-3.997,M,40.592,M,2.2,0123*5C
$GPVTG,218.87,T,-421.03,M,004.885,N,009.047,K,D*00
$GPGGA,091904.35,5702.8995252,N,00949.5586771,E,2,4,4.2,-3.995,M,40.592,M,2.2,0123*52
$GPVTG,219.17,T,-420.73,M,004.891,N,009.058,K,D*05
$GPGGA,091904.40,5702.8994759,N,00949.5586013,E,2,4,4.2,-3.992,M,40.592,M,2.2,0123*5B
$GPVTG,219.69,T,-420.21,M,004.877,N,009.032,K,D*0F
$GPGGA,091904.45,5702.8994387,N,00949.5585242,E,2,4,4.2,-3.995,M,40.592,M,2.4,0123*5D
$GPVTG,220.59,T,-419.31,M,004.866,N,009.012,K,D*0F
$GPGGA,091904.50,5702.8993853,N,00949.5584439,E,2,4,4.2,-3.992,M,40.592,M,2.4,0123*50
$GPVTG,221.02,T,-418.88,M,004.898,N,009.072,K,D*04
$GPGGA,091904.55,5702.8993301,N,00949.5583591,E,2,4,4.2,-3.991,M,40.592,M,2.4,0123*5E
$GPVTG,221.63,T,-418.27,M,004.967,N,009.198,K,D*02
$GPGGA,091904.60,5702.8992808,N,00949.5582752,E,2,4,4.2,-3.988,M,40.592,M,2.4,0123*5F
$GPVTG,222.32,T,-417.58,M,004.979,N,009.221,K,D*0C
$GPGGA,091904.65,5702.8992506,N,00949.5581929,E,2,4,4.2,-4.021,M,40.592,M,2.7,0123*56
$GPVTG,223.13,T,-416.77,M,005.009,N,009.276,K,D*0F
$GPGGA,091904.70,5702.8992067,N,00949.5581075,E,2,4,4.2,-4.020,M,40.592,M,2.7,0123*51
$GPVTG,223.96,T,-415.94,M,004.983,N,009.228,K,D*0D
$GPGGA,091904.75,5702.8991667,N,00949.5580188,E,2,4,4.2,-4.022,M,40.592,M,2.7,0123*51
$GPVTG,225.20,T,-414.70,M,004.957,N,009.181,K,D*04
$GPGGA,091904.80,5702.8991244,N,00949.5579249,E,2,4,4.2,-4.026,M,40.592,M,2.7,0123*52
$GPVTG,226.59,T,-413.31,M,004.980,N,009.223,K,D*0A
$GPGGA,091904.85,5702.8990881,N,00949.5578324,E,2,4,4.2,-4.029,M,40.592,M,2.9,0123*5F
$GPVTG,227.55,T,-412.35,M,005.001,N,009.262,K,D*06
$GPGGA,091904.90,5702.8990381,N,00949.5577367,E,2,4,4.2,-4.029,M,40.592,M,2.9,0123*58
$GPVTG,228.15,T,-411.75,M,005.057,N,009.366,K,D*0C
$GPGGA,091904.95,5702.8989963,N,00949.5576382,E,2,4,4.2,-4.030,M,40.592,M,2.9,0123*51
$GPVTG,229.34,T,-410.56,M,005.082,N,009.412,K,D*02
$GPGGA,091905.00,5702.8989509,N,00949.5575396,E,2,4,4.2,-4.032,M,40.592,M,2.9,0123*58
$GPVTG,230.08,T,-409.83,M,005.113,N,009.469,K,D*00
$GPGGA,091905.05,5702.8989177,N,00949.5574463,E,2,4,4.2,-4.047,M,40.592,M,1.7,0123*53
$GPVTG,230.89,T,-409.01,M,005.082,N,009.412,K,D*06
$GPGGA,091905.10,5702.8988752,N,00949.5573450,E,2,4,4.2,-4.049,M,40.592,M,1.7,0123*5E
$GPVTG,231.74,T,-408.16,M,005.105,N,009.455,K,D*0F
$GPGGA,091905.15,5702.8988365,N,00949.5572426,E,2,4,4.2,-4.052,M,40.592,M,1.7,0123*51
$GPVTG,232.75,T,-407.15,M,005.110,N,009.463,K,D*00
$GPGGA,091905.20,5702.8987992,N,00949.5571377,E,2,4,4.2,-4.051,M,40.592,M,1.7,0123*59
$GPVTG,233.90,T,-406.00,M,005.121,N,009.485,K,D*05
$GPGGA,091905.25,5702.8987714,N,00949.5570364,E,2,4,4.2,-4.052,M,40.592,M,2.0,0123*58
$GPVTG,234.74,T,-405.16,M,005.086,N,009.420,K,D*0F
$GPGGA,091905.30,5702.8987326,N,00949.5569271,E,2,4,4.2,-4.055,M,40.592,M,2.0,0123*53
$GPVTG,235.78,T,-404.12,M,005.130,N,009.501,K,D*09
$GPGGA,091905.35,5702.8986933,N,00949.5568209,E,2,4,4.2,-4.058,M,40.592,M,2.0,0123*5A
$GPVTG,236.39,T,-403.51,M,005.135,N,009.511,K,D*0B
$GPGGA,091905.40,5702.8986594,N,00949.5567106,E,2,4,4.2,-4.061,M,40.592,M,2.0,0123*50
$GPVTG,237.53,T,-402.37,M,005.147,N,009.532,K,D*03
$GPGGA,091905.45,5702.8986189,N,00949.5566043,E,2,4,4.2,-4.060,M,40.592,M,2.2,0123*5F
$GPVTG,237.88,T,-402.02,M,005.148,N,009.534,K,D*0A
$GPGGA,091905.50,5702.8985812,N,00949.5564941,E,2,4,4.2,-4.053,M,40.592,M,2.2,0123*5A
$GPVTG,238.49,T,-401.41,M,005.159,N,009.554,K,D*0A
$GPGGA,091905.55,5702.8985424,N,00949.5563835,E,2,4,4.2,-4.050,M,40.592,M,2.2,0123*50
$GPVTG,238.94,T,-400.96,M,005.171,N,009.576,K,D*0B
$GPGGA,091905.60,5702.8985099,N,00949.5562709,E,2,4,4.2,-4.041,M,40.592,M,2.2,0123*55
$GPVTG,239.85,T,-400.05,M,005.170,N,009.574,K,D*03
$GPGGA,091905.65,5702.8985017,N,00949.5561614,E,2,4,4.2,-4.064,M,40.592,M,2.4,0123*59
$GPVTG,240.61,T,-399.29,M,005.159,N,009.555,K,D*06
$GPGGA,091905.70,5702.8984642,N,00949.5560479,E,2,4,4.2,-4.066,M,40.592,M,2.4,0123*50
$GPVTG,240.98,T,-398.92,M,005.174,N,009.582,K,D*04
$GPGGA,091905.75,5702.8984330,N,00949.5559332,E,2,4,4.2,-4.061,M,40.592,M,2.4,0123*50
$GPVTG,241.81,T,-398.09,M,005.170,N,009.574,K,D*02
$GPGGA,091905.80,5702.8983989,N,00949.5558179,E,2,4,4.2,-4.063,M,40.592,M,2.4,0123*5B
$GPVTG,242.35,T,-397.55,M,005.177,N,009.587,K,D*03
$GPGGA,091905.85,5702.8983896,N,00949.5557019,E,2,4,4.2,-4.086,M,40.592,M,2.7,0123*51
$GPVTG,243.90,T,-396.00,M,005.181,N,009.594,K,D*07
$GPGGA,091905.90,5702.8983682,N,00949.5555856,E,2,4,4.2,-4.088,M,40.592,M,2.7,0123*51
$GPVTG,245.27,T,-394.63,M,005.139,N,009.518,K,D*0D
$GPGGA,091905.95,5702.8983376,N,00949.5554683,E,2,4,4.2,-4.095,M,40.592,M,2.7,0123*51
$GPVTG,245.79,T,-394.11,M,005.137,N,009.514,K,D*01
$GPGGA,091906.00,5702.8983104,N,00949.5553520,E,2,4,4.2,-4.101,M,40.592,M,2.7,0123*58
$GPVTG,246.45,T,-393.45,M,005.111,N,009.465,K,D*08
$GPGGA,091906.05,5702.8982868,N,00949.5552308,E,2,4,4.2,-4.099,M,40.592,M,1.6,0123*50
$GPVTG,247.57,T,-392.33,M,005.121,N,009.485,K,D*07
$GPGGA,091906.10,5702.8982593,N,00949.5551080,E,2,4,4.2,-4.099,M,40.592,M,1.6,0123*5D
$GPVTG,248.31,T,-391.59,M,005.154,N,009.546,K,D*0B
$GPGGA,091906.15,5702.8982337,N,00949.5549821,E,2,4,4.2,-4.096,M,40.592,M,1.6,0123*55
$GPVTG,249.21,T,-390.69,M,005.205,N,009.639,K,D*05
$GPGGA,091906.20,5702.8982031,N,00949.5548558,E,2,4,4.2,-4.095,M,40.592,M,1.6,0123*57
$GPVTG,249.57,T,-390.33,M,005.262,N,009.745,K,D*00
$GPGGA,091906.25,5702.8981907,N,00949.5547331,E,2,4,4.2,-4.112,M,40.592,M,1.9,0123*5A
$GPVTG,250.66,T,-389.24,M,005.263,N,009.747,K,D*07
$GPGGA,091906.30,5702.8981648,N,00949.5546105,E,2,4,4.2,-4.112,M,40.592,M,1.9,0123*5E
$GPVTG,251.02,T,-388.88,M,005.249,N,009.720,K,D*0A
$GPGGA,091906.35,5702.8981493,N,00949.5544810,E,2,4,4.2,-4.111,M,40.592,M,1.9,0123*53
$GPVTG,252.48,T,-387.42,M,005.276,N,009.771,K,D*06
$GPGGA,091906.40,5702.8981254,N,00949.5543541,E,2,4,4.2,-4.114,M,40.592,M,1.9,0123*57
$GPVTG,252.95,T,-386.95,M,005.288,N,009.793,K,D*00
$GPGGA,091906.45,5702.8981118,N,00949.5542289,E,2,4,4.2,-4.122,M,40.592,M,2.1,0123*55
$GPVTG,253.48,T,-386.42,M,005.283,N,009.783,K,D*01
$GPGGA,091906.50,5702.8980897,N,00949.5541034,E,2,4,4.2,-4.124,M,40.592,M,2.1,0123*5F
$GPVTG,253.88,T,-386.02,M,005.265,N,009.750,K,D*0F
$GPGGA,091906.55,5702.8980689,N,00949.5539793,E,2,4,4.2,-4.124,M,40.592,M,2.1,0123*5E
$GPVTG,254.31,T,-385.59,M,005.227,N,009.680,K,D*0D
$GPGGA,091906.60,5702.8980548,N,00949.5538529,E,2,4,4.2,-4.120,M,40.592,M,2.1,0123*50
$GPVTG,255.34,T,-384.56,M,005.202,N,009.635,K,D*0E
$GPGGA,091906.65,5702.8980500,N,00949.5537258,E,2,4,4.2,-4.141,M,40.592,M,2.3,0123*52
$GPVTG,255.95,T,-383.95,M,005.223,N,009.673,K,D*0C
$GPGGA,091906.70,5702.8980286,N,00949.5536052,E,2,4,4.2,-4.150,M,40.592,M,2.3,0123*56
$GPVTG,256.00,T,-383.90,M,005.147,N,009.533,K,D*00
$GPGGA,091906.75,5702.8980117,N,00949.5534887,E,2,4,4.2,-4.160,M,40.592,M,2.3,0123*59
$GPVTG,256.30,T,-383.60,M,005.029,N,009.314,K,D*06
$GPGGA,091906.80,5702.8980033,N,00949.5533693,E,2,4,4.2,-4.167,M,40.592,M,2.3,0123*5F
$GPVTG,257.43,T,-382.47,M,004.944,N,009.156,K,D*00
$GPGGA,091906.85,5702.8980235,N,00949.5532531,E,2,4,4.2,-4.225,M,40.592,M,2.6,0123*54
$GPVTG,258.61,T,-381.29,M,004.888,N,009.053,K,D*01
$GPGGA,091906.90,5702.8980055,N,00949.5531362,E,2,4,4.2,-4.240,M,40.592,M,2.6,0123*54
$GPVTG,258.67,T,-381.23,M,004.815,N,008.917,K,D*01
$GPGGA,091906.95,5702.8979990,N,00949.5530170,E,2,4,4.2,-4.252,M,40.592,M,2.6,0123*54
$GPVTG,259.87,T,-380.03,M,004.764,N,008.822,K,D*03
$GPGGA,091907.00,5702.8979925,N,00949.5529020,E,2,4,4.2,-4.263,M,40.592,M,2.6,0123*59
$GPVTG,260.91,T,-378.99,M,004.678,N,008.663,K,D*0D
$GPGGA,091907.05,5702.8979841,N,00949.5527862,E,2,4,4.2,-4.272,M,40.592,M,2.8,0123*51
$GPVTG,262.08,T,-377.82,M,004.624,N,008.564,K,D*07
$GPGGA,091907.10,5702.8979761,N,00949.5526795,E,2,4,4.2,-4.281,M,40.592,M,2.8,0123*52
$GPVTG,262.71,T,-377.19,M,004.477,N,008.291,K,D*02
$GPGGA,091907.15,5702.8979654,N,00949.5525740,E,2,4,4.2,-4.290,M,40.592,M,2.8,0123*5B
$GPVTG,263.02,T,-376.88,M,004.349,N,008.054,K,D*0F
$GPGGA,091907.20,5702.8979598,N,00949.5524624,E,2,4,4.2,-4.294,M,40.592,M,2.8,0123*58
$GPVTG,263.96,T,-375.94,M,004.310,N,007.982,K,D*0D
$GPGGA,091907.25,5702.8979805,N,00949.5523535,E,2,4,4.2,-4.328,M,40.592,M,3.0,0123*5F
$GPVTG,265.52,T,-374.38,M,004.277,N,007.921,K,D*0D
$GPGGA,091907.30,5702.8979832,N,00949.5522456,E,2,4,4.2,-4.335,M,40.592,M,3.0,0123*56
$GPVTG,267.19,T,-372.71,M,004.220,N,007.815,K,D*0F
$GPGGA,091907.35,5702.8979830,N,00949.5521432,E,2,4,4.2,-4.343,M,40.592,M,3.0,0123*51
$GPVTG,268.38,T,-371.52,M,004.119,N,007.629,K,D*09
$GPGGA,091907.40,5702.8979760,N,00949.5520443,E,2,4,4.2,-4.357,M,40.592,M,3.0,0123*5B
$GPVTG,268.67,T,-371.23,M,004.005,N,007.417,K,D*06
$GPGGA,091907.45,5702.8979972,N,00949.5519428,E,2,4,4.2,-4.386,M,40.592,M,3.2,0123*5A
$GPVTG,270.50,T,-369.40,M,003.973,N,007.357,K,D*0B
$GPGGA,091907.50,5702.8980066,N,00949.5518402,E,2,4,4.2,-4.389,M,40.592,M,3.2,0123*52
$GPVTG,272.59,T,-367.31,M,003.942,N,007.300,K,D*08
$GPGGA,091907.55,5702.8980113,N,00949.5517400,E,2,4,4.2,-4.394,M,40.592,M,3.2,0123*55
$GPVTG,273.96,T,-365.94,M,003.900,N,007.222,K,D*00
$GPGGA,091907.60,5702.8980152,N,00949.5516416,E,2,4,4.2,-4.404,M,40.592,M,3.2,0123*5E
$GPVTG,275.14,T,-364.76,M,003.852,N,007.134,K,D*03
$GPGGA,091907.65,5702.8980000,N,00949.5515483,E,2,4,4.2,-4.377,M,40.592,M,3.4,0123*57
$GPVTG,274.94,T,-364.96,M,003.734,N,006.915,K,D*01
$GPGGA,091907.70,5702.8980005,N,00949.5514536,E,2,4,4.2,-4.372,M,40.592,M,3.4,0123*5D
$GPVTG,275.58,T,-364.32,M,003.684,N,006.822,K,D*01
$GPGGA,091907.75,5702.8980048,N,00949.5513547,E,2,4,4.2,-4.369,M,40.592,M,3.4,0123*5A
$GPVTG,276.51,T,-363.39,M,003.698,N,006.848,K,D*06
$GPGGA,091907.80,5702.8980098,N,00949.5512585,E,2,4,4.2,-4.362,M,40.592,M,3.4,0123*59
$GPVTG,277.45,T,-362.45,M,003.691,N,006.835,K,D*0B
$GPGGA,091907.85,5702.8980415,N,00949.5511727,E,2,4,4.2,-4.396,M,40.592,M,3.6,0123*5D
$GPVTG,278.51,T,-361.39,M,003.629,N,006.721,K,D*00
$GPGGA,091907.90,5702.8980489,N,00949.5510799,E,2,4,4.2,-4.397,M,40.592,M,3.6,0123*59
$GPVTG,279.48,T,-360.42,M,003.618,N,006.701,K,D*04
$GPGGA,091907.95,5702.8980557,N,00949.5509891,E,2,4,4.2,-4.397,M,40.592,M,3.6,0123*51
$GPVTG,280.24,T,-359.66,M,003.588,N,006.645,K,D*0F
$GPGGA,091908.00,5702.8980630,N,00949.5509016,E,2,4,4.2,-4.394,M,40.592,M,3.6,0123*54
$GPVTG,281.10,T,-358.80,M,003.531,N,006.540,K,D*04
$GPGGA,091908.05,5702.8980649,N,00949.5508167,E,2,4,4.2,-4.413,M,40.592,M,1.9,0123*5C
$GPVTG,281.04,T,-358.86,M,003.527,N,006.531,K,D*06
$GPGGA,091908.10,5702.8980743,N,00949.5507239,E,2,4,4.2,-4.410,M,40.592,M,1.9,0123*57
$GPVTG,281.83,T,-358.07,M,003.563,N,006.599,K,D*02
$GPGGA,091908.15,5702.8980836,N,00949.5506351,E,2,4,4.2,-4.409,M,40.592,M,1.9,0123*59
$GPVTG,282.64,T,-357.26,M,003.549,N,006.572,K,D*09
$GPGGA,091908.20,5702.8980931,N,00949.5505477,E,2,4,4.2,-4.408,M,40.592,M,1.9,0123*58
$GPVTG,283.44,T,-356.46,M,003.526,N,006.531,K,D*03
$GPGGA,091908.25,5702.8980888,N,00949.5504587,E,2,4,4.2,-4.398,M,40.592,M,2.2,0123*57
$GPVTG,282.80,T,-357.10,M,003.523,N,006.524,K,D*09
$GPGGA,091908.30,5702.8980989,N,00949.5503741,E,2,4,4.2,-4.395,M,40.592,M,2.2,0123*51
$GPVTG,283.63,T,-356.27,M,003.478,N,006.442,K,D*0E
$GPGGA,091908.35,5702.8981093,N,00949.5502837,E,2,4,4.2,-4.389,M,40.592,M,2.2,0123*55
$GPVTG,284.10,T,-355.80,M,003.515,N,006.510,K,D*0F
$GPGGA,091908.40,5702.8981197,N,00949.5501943,E,2,4,4.2,-4.384,M,40.592,M,2.2,0123*5E
$GPVTG,284.55,T,-355.35,M,003.538,N,006.552,K,D*09
$GPGGA,091908.45,5702.8981140,N,00949.5501139,E,2,4,4.2,-4.395,M,40.592,M,2.4,0123*52
$GPVTG,283.60,T,-356.30,M,003.503,N,006.487,K,D*0F
$GPGGA,091908.50,5702.8981240,N,00949.5500275,E,2,4,4.2,-4.394,M,40.592,M,2.4,0123*5E
$GPVTG,283.99,T,-355.91,M,003.492,N,006.468,K,D*09
$GPGGA,091908.55,5702.8981351,N,00949.5499432,E,2,4,4.2,-4.393,M,40.592,M,2.4,0123*59
$GPVTG,284.61,T,-355.29,M,003.465,N,006.418,K,D*05
$GPGGA,091908.60,5702.8981467,N,00949.5498554,E,2,4,4.2,-4.387,M,40.592,M,2.4,0123*58
$GPVTG,285.02,T,-354.88,M,003.487,N,006.459,K,D*02
$GPGGA,091908.65,5702.8981487,N,00949.5497793,E,2,4,4.2,-4.412,M,40.592,M,2.7,0123*5D
$GPVTG,284.29,T,-355.61,M,003.431,N,006.355,K,D*0A
$GPGGA,091908.70,5702.8981600,N,00949.5496951,E,2,4,4.2,-4.413,M,40.592,M,2.7,0123*54
$GPVTG,284.73,T,-355.17,M,003.419,N,006.332,K,D*0F
$GPGGA,091908.75,5702.8981724,N,00949.5496150,E,2,4,4.2,-4.414,M,40.592,M,2.7,0123*58
$GPVTG,285.51,T,-354.39,M,003.365,N,006.232,K,D*0E
$GPGGA,091908.80,5702.8981834,N,00949.5495311,E,2,4,4.2,-4.412,M,40.592,M,2.7,0123*5E
$GPVTG,285.73,T,-354.17,M,003.364,N,006.231,K,D*00
$GPGGA,091908.85,5702.8981779,N,00949.5494511,E,2,4,4.2,-4.415,M,40.592,M,2.9,0123*53
$GPVTG,284.58,T,-355.32,M,003.359,N,006.222,K,D*02
$GPGGA,091908.90,5702.8981878,N,00949.5493699,E,2,4,4.2,-4.412,M,40.592,M,2.9,0123*5A
$GPVTG,284.68,T,-355.22,M,003.328,N,006.164,K,D*07
$GPGGA,091908.95,5702.8981990,N,00949.5492897,E,2,4,4.2,-4.412,M,40.592,M,2.9,0123*59
$GPVTG,285.06,T,-354.84,M,003.296,N,006.104,K,D*01
$GPGGA,091909.00,5702.8982101,N,00949.5492105,E,2,4,4.2,-4.408,M,40.592,M,2.9,0123*5E
$GPVTG,285.40,T,-354.50,M,003.262,N,006.040,K,D*00
$GPGGA,091909.05,5702.8982203,N,00949.5491366,E,2,4,4.2,-4.433,M,40.592,M,1.7,0123*5B
$GPVTG,285.07,T,-354.83,M,003.245,N,006.009,K,D*05
$GPGGA,091909.10,5702.8982320,N,00949.5490556,E,2,4,4.2,-4.438,M,40.592,M,1.7,0123*50
$GPVTG,285.30,T,-354.60,M,003.246,N,006.011,K,D*06
$GPGGA,091909.15,5702.8982432,N,00949.5489795,E,2,4,4.2,-4.441,M,40.592,M,1.7,0123*5A
$GPVTG,285.69,T,-354.21,M,003.192,N,005.911,K,D*0F
$GPGGA,091909.20,5702.8982541,N,00949.5488998,E,2,4,4.2,-4.443,M,40.592,M,1.7,0123*59
$GPVTG,285.77,T,-354.13,M,003.189,N,005.906,K,D*0D
$GPGGA,091909.25,5702.8982434,N,00949.5488247,E,2,4,4.2,-4.435,M,40.592,M,2.0,0123*53
$GPVTG,284.73,T,-355.17,M,003.135,N,005.806,K,D*0B
$GPGGA,091909.30,5702.8982532,N,00949.5487500,E,2,4,4.2,-4.433,M,40.592,M,2.0,0123*5D
$GPVTG,284.82,T,-355.08,M,003.085,N,005.713,K,D*0A
$GPGGA,091909.35,5702.8982633,N,00949.5486729,E,2,4,4.2,-4.429,M,40.592,M,2.0,0123*59
$GPVTG,284.81,T,-355.09,M,003.075,N,005.696,K,D*0B
$GPGGA,091909.40,5702.8982711,N,00949.5485971,E,2,4,4.2,-4.429,M,40.592,M,2.0,0123*5A
$GPVTG,284.46,T,-355.44,M,003.050,N,005.649,K,D*0C
$GPGGA,091909.45,5702.8982712,N,00949.5485308,E,2,4,4.2,-4.465,M,40.592,M,2.2,0123*52
$GPVTG,283.43,T,-356.47,M,003.035,N,005.622,K,D*00
$GPGGA,091909.50,5702.8982807,N,00949.5484516,E,2,4,4.2,-4.466,M,40.592,M,2.2,0123*56
$GPVTG,283.21,T,-356.69,M,003.067,N,005.679,K,D*01
$GPGGA,091909.55,5702.8982904,N,00949.5483818,E,2,4,4.2,-4.470,M,40.592,M,2.2,0123*52
$GPVTG,283.53,T,-356.37,M,002.986,N,005.530,K,D*06
$GPGGA,091909.60,5702.8982991,N,00949.5483086,E,2,4,4.2,-4.473,M,40.592,M,2.2,0123*54
