$GPGGA,094450.65,5703.5194410,N,00952.5048487,E,2,10,0.8,-1.298,M,40.593,M,2.3,0123*63\r\n
$GPGGA,094450.70,5703.5194353,N,00952.5049087,E,2,10,0.8,-1.301,M,40.593,M,2.3,0123*63\r\n
$GPGGA,094450.75,5703.5194299,N,00952.5049691,E,2,10,0.8,-1.299,M,40.593,M,2.3,0123*60\r\n
$GPGGA,094450.80,5703.5194259,N,00952.5050287,E,2,10,0.8,-1.298,M,40.593,M,2.3,0123*6C\r\n
$GPGGA,094450.85,5703.5194220,N,00952.5050884,E,2,10,0.8,-1.294,M,40.593,M,2.5,0123*64\r\n
$GPGGA,094450.90,5703.5194183,N,00952.5051495,E,2,10,0.8,-1.291,M,40.593,M,2.5,0123*62\r\n
$GPGGA,094450.95,5703.5194131,N,00952.5052087,E,2,10,0.8,-1.288,M,40.593,M,2.5,0123*62\r\n
$GPGGA,094451.00,5703.5194074,N,00952.5052692,E,2,10,0.8,-1.286,M,40.593,M,2.5,0123*63\r\n
$GPGGA,094451.05,5703.5194015,N,00952.5053300,E,2,10,0.8,-1.286,M,40.593,M,2.8,0123*63\r\n
$GPGGA,094451.10,5703.5193976,N,00952.5053918,E,2,10,0.8,-1.285,M,40.593,M,2.8,0123*6C\r\n
$GPGGA,094451.15,5703.5193939,N,00952.5054528,E,2,10,0.8,-1.283,M,40.593,M,2.8,0123*6C\r\n
$GPGGA,094451.20,5703.5193884,N,00952.5055145,E,2,10,0.8,-1.283,M,40.593,M,2.8,0123*63\r\n
$GPGGA,094451.25,5703.5193830,N,00952.5055776,E,2,10,0.8,-1.285,M,40.593,M,1.9,0123*6B\r\n
$GPGGA,094451.30,5703.5193796,N,00952.5056416,E,2,10,0.8,-1.287,M,40.593,M,1.9,0123*68\r\n
$GPGGA,094451.35,5703.5193750,N,00952.5057061,E,2,10,0.8,-1.288,M,40.593,M,1.9,0123*6D\r\n
$GPGGA,094451.40,5703.5193721,N,00952.5057708,E,2,10,0.8,-1.292,M,40.593,M,1.9,0123*6A\r\n
$GPGGA,094451.45,5703.5193691,N,00952.5058348,E,2,10,0.8,-1.290,M,40.593,M,2.1,0123*63\r\n
$GPGGA,094451.50,5703.5193660,N,00952.5058981,E,2,10,0.8,-1.292,M,40.593,M,2.1,0123*64\r\n
$GPGGA,094451.55,5703.5193621,N,00952.5059630,E,2,10,0.8,-1.292,M,40.593,M,2.1,0123*60\r\n
$GPGGA,094451.60,5703.5193592,N,00952.5060276,E,2,10,0.8,-1.291,M,40.593,M,2.1,0123*62\r\n
$GPGGA,094451.65,5703.5193571,N,00952.5060919,E,2,10,0.8,-1.290,M,40.593,M,2.4,0123*6C\r\n
$GPGGA,094451.70,5703.5193560,N,00952.5061557,E,2,10,0.8,-1.288,M,40.593,M,2.4,0123*66\r\n
$GPGGA,094451.75,5703.5193548,N,00952.5062195,E,2,10,0.8,-1.285,M,40.593,M,2.4,0123*6D\r\n
$GPGGA,094451.80,5703.5193512,N,00952.5062822,E,2,10,0.8,-1.282,M,40.593,M,2.4,0123*6A\r\n
$GPGGA,094451.85,5703.5193480,N,00952.5063438,E,2,10,0.8,-1.277,M,40.593,M,2.6,0123*6B\r\n
$GPGGA,094451.90,5703.5193452,N,00952.5064053,E,2,10,0.8,-1.273,M,40.593,M,2.6,0123*6A\r\n
$GPGGA,094451.95,5703.5193417,N,00952.5064654,E,2,10,0.8,-1.270,M,40.593,M,2.6,0123*6C\r\n
$GPGGA,094452.00,5703.5193387,N,00952.5065251,E,2,10,0.8,-1.268,M,40.593,M,2.6,0123*64\r\n
$GPGGA,094452.05,5703.5193340,N,00952.5065848,E,2,10,0.8,-1.262,M,40.593,M,2.8,0123*6C\r\n
$GPGGA,094452.10,5703.5193294,N,00952.5066448,E,2,10,0.8,-1.261,M,40.593,M,2.8,0123*6C\r\n
$GPGGA,094452.15,5703.5193247,N,00952.5067048,E,2,10,0.8,-1.257,M,40.593,M,2.8,0123*67\r\n
$GPGGA,094452.20,5703.5193199,N,00952.5067636,E,2,10,0.8,-1.257,M,40.593,M,2.8,0123*6E\r\n
$GPGGA,094452.25,5703.5193156,N,00952.5068231,E,2,10,0.8,-1.263,M,40.593,M,2.2,0123*69\r\n
$GPGGA,094452.30,5703.5193117,N,00952.5068834,E,2,10,0.8,-1.264,M,40.593,M,2.2,0123*60\r\n
$GPGGA,094452.35,5703.5193067,N,00952.5069456,E,2,10,0.8,-1.265,M,40.593,M,2.2,0123*6B\r\n
$GPGGA,094452.40,5703.5193032,N,00952.5070071,E,2,10,0.8,-1.266,M,40.593,M,2.2,0123*63\r\n
$GPGGA,094452.45,5703.5192982,N,00952.5070689,E,2,10,0.8,-1.268,M,40.593,M,2.4,0123*6C\r\n
$GPGGA,094452.50,5703.5192934,N,00952.5071299,E,2,10,0.8,-1.273,M,40.593,M,2.4,0123*6B\r\n
$GPGGA,094452.55,5703.5192890,N,00952.5071914,E,2,10,0.8,-1.277,M,40.593,M,2.4,0123*6B\r\n
$GPGGA,094452.60,5703.5192849,N,00952.5072526,E,2,10,0.8,-1.281,M,40.593,M,2.4,0123*6E\r\n
$GPGGA,094452.65,5703.5192807,N,00952.5073142,E,2,10,0.8,-1.282,M,40.593,M,2.6,0123*67\r\n
$GPGGA,094452.70,5703.5192768,N,00952.5073766,E,2,10,0.8,-1.285,M,40.593,M,2.6,0123*62\r\n
$GPGGA,094452.75,5703.5192734,N,00952.5074400,E,2,10,0.8,-1.287,M,40.593,M,2.6,0123*68\r\n
$GPGGA,094452.80,5703.5192710,N,00952.5075039,E,2,10,0.8,-1.291,M,40.593,M,2.6,0123*6C\r\n
$GPGGA,094452.85,5703.5192687,N,00952.5075673,E,2,10,0.8,-1.292,M,40.593,M,2.9,0123*62\r\n
$GPGGA,094452.90,5703.5192662,N,00952.5076306,E,2,10,0.8,-1.296,M,40.593,M,2.9,0123*6D\r\n
$GPGGA,094452.95,5703.5192631,N,00952.5076955,E,2,10,0.8,-1.298,M,40.593,M,2.9,0123*6C\r\n
$GPGGA,094453.00,5703.5192601,N,00952.5077600,E,2,10,0.8,-1.300,M,40.593,M,2.9,0123*6C\r\n
$GPGGA,094453.05,5703.5192573,N,00952.5078231,E,2,10,0.8,-1.302,M,40.593,M,3.1,0123*6D\r\n
$GPGGA,094453.10,5703.5192546,N,00952.5078871,E,2,10,0.8,-1.303,M,40.593,M,3.1,0123*60\r\n
$GPGGA,094453.15,5703.5192525,N,00952.5079503,E,2,10,0.8,-1.303,M,40.593,M,3.1,0123*69\r\n
$GPGGA,094453.20,5703.5192493,N,00952.5080149,E,2,10,0.8,-1.301,M,40.593,M,3.1,0123*6D\r\n
$GPGGA,094453.25,5703.5192467,N,00952.5080784,E,2,10,0.8,-1.302,M,40.593,M,3.3,0123*65\r\n
$GPGGA,094453.30,5703.5192438,N,00952.5081419,E,2,10,0.8,-1.301,M,40.593,M,3.3,0123*6E\r\n
$GPGGA,094453.35,5703.5192395,N,00952.5082053,E,2,10,0.8,-1.301,M,40.593,M,3.3,0123*62\r\n
$GPGGA,094453.40,5703.5192363,N,00952.5082682,E,2,10,0.8,-1.297,M,40.593,M,3.3,0123*6D\r\n
$GPGGA,094453.45,5703.5192323,N,00952.5083304,E,2,10,0.8,-1.296,M,40.593,M,3.5,0123*61\r\n
$GPGGA,094453.50,5703.5192289,N,00952.5083917,E,2,10,0.8,-1.293,M,40.593,M,3.5,0123*69\r\n
$GPGGA,094453.55,5703.5192253,N,00952.5084535,E,2,10,0.8,-1.291,M,40.593,M,3.5,0123*62\r\n
$GPGGA,094453.60,5703.5192215,N,00952.5085147,E,2,10,0.8,-1.288,M,40.593,M,3.5,0123*6E\r\n
$GPGGA,094453.65,5703.5192158,N,00952.5085765,E,2,10,0.8,-1.282,M,40.593,M,3.7,0123*6F\r\n
$GPGGA,094453.70,5703.5192110,N,00952.5086377,E,2,10,0.8,-1.276,M,40.593,M,3.7,0123*68\r\n
$GPGGA,094453.75,5703.5192077,N,00952.5087003,E,2,10,0.8,-1.272,M,40.593,M,3.7,0123*68\r\n
$GPGGA,094453.80,5703.5192052,N,00952.5087621,E,2,10,0.8,-1.270,M,40.593,M,3.7,0123*61\r\n
$GPGGA,094453.85,5703.5192011,N,00952.5088239,E,2,10,0.8,-1.275,M,40.593,M,3.9,0123*6A\r\n
$GPGGA,094453.90,5703.5191970,N,00952.5088868,E,2,10,0.8,-1.276,M,40.593,M,3.9,0123*6E\r\n
$GPGGA,094453.95,5703.5191924,N,00952.5089499,E,2,10,0.8,-1.279,M,40.593,M,3.9,0123*66\r\n
$GPGGA,094454.00,5703.5191892,N,00952.5090136,E,2,10,0.8,-1.280,M,40.593,M,3.9,0123*6F\r\n
$GPGGA,094454.05,5703.5191851,N,00952.5090771,E,2,10,0.8,-1.284,M,40.593,M,4.1,0123*6B\r\n
$GPGGA,094454.10,5703.5191816,N,00952.5091403,E,2,10,0.8,-1.291,M,40.593,M,4.1,0123*6F\r\n
$GPGGA,094454.15,5703.5191773,N,00952.5092038,E,2,10,0.8,-1.297,M,40.593,M,4.1,0123*6F\r\n
$GPGGA,094454.20,5703.5191725,N,00952.5092670,E,2,10,0.8,-1.302,M,40.593,M,4.1,0123*6D\r\n
$GPGGA,094454.25,5703.5191684,N,00952.5093309,E,2,10,0.8,-1.307,M,40.593,M,4.3,0123*6F\r\n
$GPGGA,094454.30,5703.5191652,N,00952.5093955,E,2,10,0.8,-1.309,M,40.593,M,4.3,0123*6D\r\n
$GPGGA,094454.35,5703.5191618,N,00952.5094599,E,2,10,0.8,-1.310,M,40.593,M,4.3,0123*65\r\n
$GPGGA,094454.40,5703.5191600,N,00952.5095234,E,2,10,0.8,-1.308,M,40.593,M,4.3,0123*66\r\n
$GPGGA,094454.45,5703.5191588,N,00952.5095873,E,2,10,0.8,-1.303,M,40.593,M,2.1,0123*66\r\n
$GPGGA,094454.50,5703.5191560,N,00952.5096503,E,2,10,0.8,-1.299,M,40.593,M,2.1,0123*6F\r\n
$GPGGA,094454.55,5703.5191534,N,00952.5097130,E,2,10,0.8,-1.295,M,40.593,M,2.1,0123*62\r\n
$GPGGA,094454.60,5703.5191510,N,00952.5097755,E,2,10,0.8,-1.288,M,40.593,M,2.1,0123*6B\r\n
$GPGGA,094454.65,5703.5191498,N,00952.5098375,E,2,10,0.8,-1.279,M,40.593,M,2.3,0123*6A\r\n
$GPGGA,094454.70,5703.5191460,N,00952.5098983,E,2,10,0.8,-1.273,M,40.593,M,2.3,0123*60\r\n
$GPGGA,094454.75,5703.5191417,N,00952.5099601,E,2,10,0.8,-1.268,M,40.593,M,2.3,0123*6B\r\n
$GPGGA,094454.80,5703.5191380,N,00952.5100224,E,2,10,0.8,-1.264,M,40.593,M,2.3,0123*66\r\n
$GPGGA,094454.85,5703.5191339,N,00952.5100836,E,2,10,0.8,-1.261,M,40.593,M,2.5,0123*6B\r\n
$GPGGA,094454.90,5703.5191298,N,00952.5101456,E,2,10,0.8,-1.259,M,40.593,M,2.5,0123*65\r\n
$GPGGA,094454.95,5703.5191258,N,00952.5102084,E,2,10,0.8,-1.258,M,40.593,M,2.5,0123*65\r\n
$GPGGA,094455.00,5703.5191221,N,00952.5102713,E,2,10,0.8,-1.258,M,40.593,M,2.5,0123*6F\r\n
$GPGGA,094455.05,5703.5191183,N,00952.5103343,E,2,10,0.8,-1.263,M,40.593,M,2.8,0123*64\r\n
$GPGGA,094455.10,5703.5191154,N,00952.5103989,E,2,10,0.8,-1.265,M,40.593,M,2.8,0123*60\r\n
$GPGGA,094455.15,5703.5191108,N,00952.5104623,E,2,10,0.8,-1.269,M,40.593,M,2.8,0123*68\r\n
$GPGGA,094455.20,5703.5191077,N,00952.5105273,E,2,10,0.8,-1.274,M,40.593,M,2.8,0123*6B\r\n
$GPGGA,094455.25,5703.5191046,N,00952.5105928,E,2,10,0.8,-1.279,M,40.593,M,3.0,0123*6D\r\n
$GPGGA,094455.30,5703.5191016,N,00952.5106558,E,2,10,0.8,-1.283,M,40.593,M,3.0,0123*61\r\n
$GPGGA,094455.35,5703.5190990,N,00952.5107205,E,2,10,0.8,-1.284,M,40.593,M,3.0,0123*6B\r\n
$GPGGA,094455.40,5703.5190962,N,00952.5107853,E,2,10,0.8,-1.285,M,40.593,M,3.0,0123*6C\r\n
$GPGGA,094455.45,5703.5190933,N,00952.5108491,E,2,10,0.8,-1.291,M,40.593,M,2.1,0123*65\r\n
$GPGGA,094455.50,5703.5190892,N,00952.5109127,E,2,10,0.8,-1.294,M,40.593,M,2.1,0123*67\r\n
$GPGGA,094455.55,5703.5190863,N,00952.5109751,E,2,10,0.8,-1.296,M,40.593,M,2.1,0123*69\r\n
$GPGGA,094455.60,5703.5190832,N,00952.5110377,E,2,10,0.8,-1.296,M,40.593,M,2.1,0123*63\r\n
$GPGGA,094455.65,5703.5190799,N,00952.5111019,E,2,10,0.8,-1.299,M,40.593,M,2.4,0123*68\r\n
$GPGGA,094455.70,5703.5190771,N,00952.5111648,E,2,10,0.8,-1.297,M,40.593,M,2.4,0123*66\r\n
$GPGGA,094455.75,5703.5190738,N,00952.5112277,E,2,10,0.8,-1.297,M,40.593,M,2.4,0123*65\r\n
$GPGGA,094455.80,5703.5190717,N,00952.5112907,E,2,10,0.8,-1.296,M,40.593,M,2.4,0123*6F\r\n
$GPGGA,094455.85,5703.5190694,N,00952.5113547,E,2,10,0.8,-1.292,M,40.593,M,2.6,0123*6F\r\n
$GPGGA,094455.90,5703.5190661,N,00952.5114187,E,2,10,0.8,-1.293,M,40.593,M,2.6,0123*6F\r\n
$GPGGA,094455.95,5703.5190629,N,00952.5114837,E,2,10,0.8,-1.292,M,40.593,M,2.6,0123*65\r\n
$GPGGA,094456.00,5703.5190611,N,00952.5115486,E,2,10,0.8,-1.293,M,40.593,M,2.6,0123*67\r\n
$GPGGA,094456.05,5703.5190575,N,00952.5116134,E,2,10,0.8,-1.297,M,40.593,M,2.8,0123*66\r\n
$GPGGA,094456.10,5703.5190535,N,00952.5116793,E,2,10,0.8,-1.301,M,40.593,M,2.8,0123*63\r\n
$GPGGA,094456.15,5703.5190506,N,00952.5117458,E,2,10,0.8,-1.303,M,40.593,M,2.8,0123*61\r\n
$GPGGA,094456.20,5703.5190481,N,00952.5118117,E,2,10,0.8,-1.305,M,40.593,M,2.8,0123*6E\r\n
$GPGGA,094456.25,5703.5190445,N,00952.5118771,E,2,10,0.8,-1.311,M,40.593,M,3.0,0123*69\r\n
$GPGGA,094456.30,5703.5190421,N,00952.5119427,E,2,10,0.8,-1.314,M,40.593,M,3.0,0123*6B\r\n
$GPGGA,094456.35,5703.5190396,N,00952.5120086,E,2,10,0.8,-1.315,M,40.593,M,3.0,0123*61\r\n
$GPGGA,094456.40,5703.5190367,N,00952.5120755,E,2,10,0.8,-1.315,M,40.593,M,3.0,0123*64\r\n
$GPGGA,094456.45,5703.5190337,N,00952.5121405,E,2,10,0.8,-1.314,M,40.593,M,2.4,0123*67\r\n
$GPGGA,094456.50,5703.5190307,N,00952.5122052,E,2,10,0.8,-1.314,M,40.593,M,2.4,0123*65\r\n
$GPGGA,094456.55,5703.5190279,N,00952.5122701,E,2,10,0.8,-1.312,M,40.593,M,2.4,0123*6F\r\n
$GPGGA,094456.60,5703.5190251,N,00952.5123343,E,2,10,0.8,-1.308,M,40.593,M,2.4,0123*6B\r\n
$GPGGA,094456.65,5703.5190239,N,00952.5123978,E,2,10,0.8,-1.303,M,40.593,M,2.6,0123*6B\r\n
$GPGGA,094456.70,5703.5190220,N,00952.5124628,E,2,10,0.8,-1.299,M,40.593,M,2.6,0123*68\r\n
$GPGGA,094456.75,5703.5190199,N,00952.5125272,E,2,10,0.8,-1.293,M,40.593,M,2.6,0123*6C\r\n
$GPGGA,094456.80,5703.5190164,N,00952.5125921,E,2,10,0.8,-1.289,M,40.593,M,2.6,0123*62\r\n
$GPGGA,094456.85,5703.5190135,N,00952.5126566,E,2,10,0.8,-1.283,M,40.593,M,2.9,0123*6A\r\n
$GPGGA,094456.90,5703.5190120,N,00952.5127212,E,2,10,0.8,-1.278,M,40.593,M,2.9,0123*6B\r\n
$GPGGA,094456.95,5703.5190102,N,00952.5127856,E,2,10,0.8,-1.273,M,40.593,M,2.9,0123*6F\r\n
$GPGGA,094457.00,5703.5190075,N,00952.5128502,E,2,10,0.8,-1.270,M,40.593,M,2.9,0123*63\r\n
$GPGGA,094457.05,5703.5190044,N,00952.5129152,E,2,10,0.8,-1.269,M,40.593,M,3.1,0123*65\r\n
$GPGGA,094457.10,5703.5190015,N,00952.5129801,E,2,10,0.8,-1.268,M,40.593,M,3.1,0123*6B\r\n
$GPGGA,094457.15,5703.5189978,N,00952.5130458,E,2,10,0.8,-1.269,M,40.593,M,3.1,0123*6D\r\n
$GPGGA,094457.20,5703.5189955,N,00952.5131110,E,2,10,0.8,-1.270,M,40.593,M,3.1,0123*64\r\n
$GPGGA,094457.25,5703.5189942,N,00952.5131776,E,2,10,0.8,-1.276,M,40.593,M,3.3,0123*65\r\n
$GPGGA,094457.30,5703.5189924,N,00952.5132432,E,2,10,0.8,-1.281,M,40.593,M,3.3,0123*69\r\n
$GPGGA,094457.35,5703.5189900,N,00952.5133094,E,2,10,0.8,-1.285,M,40.593,M,3.3,0123*67\r\n
$GPGGA,094457.40,5703.5189870,N,00952.5133764,E,2,10,0.8,-1.291,M,40.593,M,3.3,0123*6E\r\n
$GPGGA,094457.45,5703.5189844,N,00952.5134422,E,2,10,0.8,-1.293,M,40.593,M,3.5,0123*6E\r\n
$GPGGA,094457.50,5703.5189813,N,00952.5135075,E,2,10,0.8,-1.295,M,40.593,M,3.5,0123*69\r\n
$GPGGA,094457.55,5703.5189783,N,00952.5135733,E,2,10,0.8,-1.294,M,40.593,M,3.5,0123*6E\r\n
$GPGGA,094457.60,5703.5189765,N,00952.5136367,E,2,10,0.8,-1.293,M,40.593,M,3.5,0123*61\r\n
$GPGGA,094457.65,5703.5189716,N,00952.5136997,E,2,10,0.8,-1.295,M,40.593,M,3.7,0123*61\r\n
$GPGGA,094457.70,5703.5189692,N,00952.5137633,E,2,10,0.8,-1.296,M,40.593,M,3.7,0123*6B\r\n
$GPGGA,094457.75,5703.5189664,N,00952.5138279,E,2,10,0.8,-1.295,M,40.593,M,3.7,0123*61\r\n
$GPGGA,094457.80,5703.5189641,N,00952.5138917,E,2,10,0.8,-1.293,M,40.593,M,3.7,0123*69\r\n
$GPGGA,094457.85,5703.5189611,N,00952.5139560,E,2,10,0.8,-1.290,M,40.593,M,3.9,0123*69\r\n
$GPGGA,094457.90,5703.5189579,N,00952.5140200,E,2,10,0.8,-1.288,M,40.593,M,3.9,0123*66\r\n
$GPGGA,094457.95,5703.5189544,N,00952.5140837,E,2,10,0.8,-1.289,M,40.593,M,3.9,0123*62\r\n
$GPGGA,094458.00,5703.5189522,N,00952.5141483,E,2,10,0.8,-1.288,M,40.593,M,3.9,0123*62\r\n
$GPGGA,094458.05,5703.5189500,N,00952.5142123,E,2,10,0.8,-1.286,M,40.593,M,4.1,0123*6A\r\n
$GPGGA,094458.10,5703.5189472,N,00952.5142774,E,2,10,0.8,-1.287,M,40.593,M,4.1,0123*6F\r\n
$GPGGA,094458.15,5703.5189441,N,00952.5143436,E,2,10,0.8,-1.288,M,40.593,M,4.1,0123*61\r\n
$GPGGA,094458.20,5703.5189412,N,00952.5144097,E,2,10,0.8,-1.289,M,40.593,M,4.1,0123*68\r\n
$GPGGA,094458.25,5703.5189388,N,00952.5144759,E,2,10,0.8,-1.289,M,40.593,M,4.3,0123*6E\r\n
$GPGGA,094458.30,5703.5189352,N,00952.5145415,E,2,10,0.8,-1.291,M,40.593,M,4.3,0123*6E\r\n
$GPGGA,094458.35,5703.5189336,N,00952.5146087,E,2,10,0.8,-1.292,M,40.593,M,4.3,0123*66\r\n
$GPGGA,094458.40,5703.5189317,N,00952.5146755,E,2,10,0.8,-1.294,M,40.593,M,4.3,0123*69\r\n
$GPGGA,094458.45,5703.5189300,N,00952.5147407,E,2,10,0.8,-1.304,M,40.593,M,0.9,0123*69\r\n
$GPGGA,094458.50,5703.5189273,N,00952.5148082,E,2,10,0.8,-1.309,M,40.593,M,0.9,0123*63\r\n
$GPGGA,094458.55,5703.5189243,N,00952.5148751,E,2,10,0.8,-1.313,M,40.593,M,0.9,0123*67\r\n
$GPGGA,094458.60,5703.5189227,N,00952.5149415,E,2,10,0.8,-1.315,M,40.593,M,0.9,0123*67\r\n
$GPGGA,094458.65,5703.5189216,N,00952.5150089,E,2,10,0.8,-1.315,M,40.593,M,1.2,0123*63\r\n
$GPGGA,094458.70,5703.5189190,N,00952.5150756,E,2,10,0.8,-1.317,M,40.593,M,1.2,0123*6D\r\n
$GPGGA,094458.75,5703.5189166,N,00952.5151418,E,2,10,0.8,-1.320,M,40.593,M,1.2,0123*6D\r\n
$GPGGA,094458.80,5703.5189146,N,00952.5152075,E,2,10,0.8,-1.321,M,40.593,M,1.2,0123*68\r\n
$GPGGA,094458.85,5703.5189125,N,00952.5152736,E,2,10,0.8,-1.318,M,40.593,M,1.4,0123*64\r\n
$GPGGA,094458.90,5703.5189101,N,00952.5153401,E,2,10,0.8,-1.318,M,40.593,M,1.4,0123*60\r\n
$GPGGA,094458.95,5703.5189073,N,00952.5154068,E,2,10,0.8,-1.316,M,40.593,M,1.4,0123*63\r\n
$GPGGA,094459.00,5703.5189048,N,00952.5154730,E,2,10,0.8,-1.314,M,40.593,M,1.4,0123*6E\r\n
$GPGGA,094459.05,5703.5189026,N,00952.5155382,E,2,10,0.8,-1.311,M,40.593,M,1.7,0123*69\r\n
$GPGGA,094459.10,5703.5189008,N,00952.5156040,E,2,10,0.8,-1.312,M,40.593,M,1.7,0123*6C\r\n
$GPGGA,094459.15,5703.5188986,N,00952.5156711,E,2,10,0.8,-1.310,M,40.593,M,1.7,0123*66\r\n
$GPGGA,094459.20,5703.5188976,N,00952.5157371,E,2,10,0.8,-1.308,M,40.593,M,1.7,0123*65\r\n
$GPGGA,094459.25,5703.5188945,N,00952.5158047,E,2,10,0.8,-1.310,M,40.593,M,1.9,0123*6E\r\n
$GPGGA,094459.30,5703.5188930,N,00952.5158727,E,2,10,0.8,-1.308,M,40.593,M,1.9,0123*60\r\n
$GPGGA,094459.35,5703.5188907,N,00952.5159397,E,2,10,0.8,-1.308,M,40.593,M,1.9,0123*6F\r\n
$GPGGA,094459.40,5703.5188884,N,00952.5160066,E,2,10,0.8,-1.310,M,40.593,M,1.9,0123*69\r\n
$GPGGA,094459.45,5703.5188872,N,00952.5160747,E,2,10,0.8,-1.308,M,40.593,M,1.1,0123*60\r\n
$GPGGA,094459.50,5703.5188847,N,00952.5161414,E,2,10,0.8,-1.306,M,40.593,M,1.1,0123*68\r\n
$GPGGA,094459.55,5703.5188821,N,00952.5162079,E,2,10,0.8,-1.303,M,40.593,M,1.1,0123*64\r\n
$GPGGA,094459.60,5703.5188803,N,00952.5162736,E,2,10,0.8,-1.302,M,40.593,M,1.1,0123*6F\r\n
$GPGGA,094459.65,5703.5188787,N,00952.5163393,E,2,10,0.8,-1.298,M,40.593,M,1.4,0123*64\r\n
$GPGGA,094459.70,5703.5188759,N,00952.5164050,E,2,10,0.8,-1.295,M,40.593,M,1.4,0123*65\r\n
$GPGGA,094459.75,5703.5188731,N,00952.5164706,E,2,10,0.8,-1.290,M,40.593,M,1.4,0123*6F\r\n
$GPGGA,094459.80,5703.5188698,N,00952.5165357,E,2,10,0.8,-1.287,M,40.593,M,1.4,0123*60\r\n
$GPGGA,094459.85,5703.5188674,N,00952.5166007,E,2,10,0.8,-1.282,M,40.593,M,1.7,0123*64\r\n
$GPGGA,094459.90,5703.5188642,N,00952.5166654,E,2,10,0.8,-1.279,M,40.593,M,1.7,0123*61\r\n
$GPGGA,094459.95,5703.5188615,N,00952.5167297,E,2,10,0.8,-1.275,M,40.593,M,1.7,0123*60\r\n
$GPGGA,094500.00,5703.5188588,N,00952.5167938,E,2,10,0.8,-1.271,M,40.593,M,1.7,0123*6C\r\n
$GPGGA,094500.05,5703.5188546,N,00952.5168581,E,2,10,0.8,-1.266,M,40.593,M,1.9,0123*62\r\n
$GPGGA,094500.10,5703.5188523,N,00952.5169248,E,2,10,0.8,-1.265,M,40.593,M,1.9,0123*65\r\n
$GPGGA,094500.15,5703.5188509,N,00952.5169934,E,2,10,0.8,-1.262,M,40.593,M,1.9,0123*6F\r\n
$GPGGA,094500.20,5703.5188491,N,00952.5170618,E,2,10,0.8,-1.261,M,40.593,M,1.9,0123*63\r\n
$GPGGA,094500.25,5703.5188481,N,00952.5171331,E,2,10,0.8,-1.261,M,40.593,M,2.2,0123*60\r\n
$GPGGA,094500.30,5703.5188475,N,00952.5172051,E,2,10,0.8,-1.265,M,40.593,M,2.2,0123*6D\r\n
$GPGGA,094500.35,5703.5188466,N,00952.5172765,E,2,10,0.8,-1.269,M,40.593,M,2.2,0123*66\r\n
$GPGGA,094500.40,5703.5188451,N,00952.5173489,E,2,10,0.8,-1.270,M,40.593,M,2.2,0123*68\r\n
$GPGGA,094500.45,5703.5188427,N,00952.5174214,E,2,10,0.8,-1.275,M,40.593,M,2.4,0123*6A\r\n
$GPGGA,094500.50,5703.5188389,N,00952.5174924,E,2,10,0.8,-1.276,M,40.593,M,2.4,0123*66\r\n
$GPGGA,094500.55,5703.5188324,N,00952.5175632,E,2,10,0.8,-1.277,M,40.593,M,2.4,0123*6C\r\n
$GPGGA,094500.60,5703.5188273,N,00952.5176347,E,2,10,0.8,-1.277,M,40.593,M,2.4,0123*6D\r\n
$GPGGA,094500.65,5703.5188226,N,00952.5177063,E,2,10,0.8,-1.273,M,40.593,M,2.6,0123*6A\r\n
$GPGGA,094500.70,5703.5188178,N,00952.5177781,E,2,10,0.8,-1.272,M,40.593,M,2.6,0123*6C\r\n
$GPGGA,094500.75,5703.5188124,N,00952.5178516,E,2,10,0.8,-1.270,M,40.593,M,2.6,0123*61\r\n
$GPGGA,094500.80,5703.5188061,N,00952.5179252,E,2,10,0.8,-1.267,M,40.593,M,2.6,0123*6B\r\n
$GPGGA,094500.85,5703.5188001,N,00952.5179998,E,2,10,0.8,-1.265,M,40.593,M,2.9,0123*68\r\n
$GPGGA,094500.90,5703.5187933,N,00952.5180747,E,2,10,0.8,-1.263,M,40.593,M,2.9,0123*67\r\n
$GPGGA,094500.95,5703.5187869,N,00952.5181508,E,2,10,0.8,-1.261,M,40.593,M,2.9,0123*66\r\n
$GPGGA,094501.00,5703.5187806,N,00952.5182282,E,2,10,0.8,-1.259,M,40.593,M,2.9,0123*6F\r\n
$GPGGA,094501.05,5703.5187733,N,00952.5183070,E,2,10,0.8,-1.259,M,40.593,M,3.1,0123*64\r\n
$GPGGA,094501.10,5703.5187662,N,00952.5183874,E,2,10,0.8,-1.259,M,40.593,M,3.1,0123*69\r\n
$GPGGA,094501.15,5703.5187593,N,00952.5184696,E,2,10,0.8,-1.260,M,40.593,M,3.1,0123*6E\r\n
$GPGGA,094501.20,5703.5187508,N,00952.5185523,E,2,10,0.8,-1.262,M,40.593,M,3.1,0123*64\r\n
$GPGGA,094501.25,5703.5187428,N,00952.5186355,E,2,10,0.8,-1.264,M,40.593,M,3.3,0123*62\r\n
$GPGGA,094501.30,5703.5187350,N,00952.5187199,E,2,10,0.8,-1.265,M,40.593,M,3.3,0123*6C\r\n
$GPGGA,094501.35,5703.5187274,N,00952.5188068,E,2,10,0.8,-1.266,M,40.593,M,3.3,0123*6D\r\n
$GPGGA,094501.40,5703.5187193,N,00952.5188930,E,2,10,0.8,-1.269,M,40.593,M,3.3,0123*6E\r\n
$GPGGA,094501.45,5703.5187096,N,00952.5189784,E,2,10,0.8,-1.272,M,40.593,M,3.5,0123*63\r\n
$GPGGA,094501.50,5703.5187005,N,00952.5190668,E,2,10,0.8,-1.273,M,40.593,M,3.5,0123*67\r\n
$GPGGA,094501.55,5703.5186908,N,00952.5191542,E,2,10,0.8,-1.275,M,40.593,M,3.5,0123*6B\r\n
$GPGGA,094501.60,5703.5186807,N,00952.5192436,E,2,10,0.8,-1.277,M,40.593,M,3.5,0123*60\r\n
$GPGGA,094501.65,5703.5186709,N,00952.5193324,E,2,10,0.8,-1.271,M,40.593,M,3.7,0123*65\r\n
$GPGGA,094501.70,5703.5186604,N,00952.5194211,E,2,10,0.8,-1.269,M,40.593,M,3.7,0123*64\r\n
$GPGGA,094501.75,5703.5186492,N,00952.5195116,E,2,10,0.8,-1.265,M,40.593,M,3.7,0123*65\r\n
$GPGGA,094501.80,5703.5186378,N,00952.5196037,E,2,10,0.8,-1.262,M,40.593,M,3.7,0123*6A\r\n
$GPGGA,094501.85,5703.5186258,N,00952.5196948,E,2,10,0.8,-1.259,M,40.593,M,3.9,0123*6B\r\n
$GPGGA,094501.90,5703.5186147,N,00952.5197858,E,2,10,0.8,-1.256,M,40.593,M,3.9,0123*6C\r\n
$GPGGA,094501.95,5703.5186024,N,00952.5198787,E,2,10,0.8,-1.254,M,40.593,M,3.9,0123*6D\r\n
$GPGGA,094502.00,5703.5185908,N,00952.5199726,E,2,10,0.8,-1.251,M,40.593,M,3.9,0123*69\r\n
$GPGGA,094502.05,5703.5185787,N,00952.5200669,E,2,10,0.8,-1.253,M,40.593,M,4.1,0123*61\r\n
$GPGGA,094502.10,5703.5185659,N,00952.5201627,E,2,10,0.8,-1.253,M,40.593,M,4.1,0123*6C\r\n
$GPGGA,094502.15,5703.5185525,N,00952.5202583,E,2,10,0.8,-1.253,M,40.593,M,4.1,0123*6F\r\n
$GPGGA,094502.20,5703.5185385,N,00952.5203548,E,2,10,0.8,-1.251,M,40.593,M,4.1,0123*61\r\n
$GPGGA,094502.25,5703.5185232,N,00952.5204515,E,2,10,0.8,-1.251,M,40.593,M,4.3,0123*64\r\n
$GPGGA,094502.30,5703.5185092,N,00952.5205493,E,2,10,0.8,-1.249,M,40.593,M,4.3,0123*6F\r\n
$GPGGA,094502.35,5703.5184954,N,00952.5206466,E,2,10,0.8,-1.250,M,40.593,M,4.3,0123*69\r\n
$GPGGA,094502.40,5703.5184806,N,00952.5207455,E,2,10,0.8,-1.250,M,40.593,M,4.3,0123*6C\r\n
$GPGGA,094502.45,5703.5184649,N,00952.5208433,E,2,10,0.8,-1.250,M,40.593,M,2.1,0123*67\r\n
$GPGGA,094502.50,5703.5184486,N,00952.5209416,E,2,10,0.8,-1.249,M,40.593,M,2.1,0123*6C\r\n
$GPGGA,094502.55,5703.5184326,N,00952.5210406,E,2,10,0.8,-1.248,M,40.593,M,2.1,0123*6C\r\n
$GPGGA,094502.60,5703.5184162,N,00952.5211403,E,2,10,0.8,-1.246,M,40.593,M,2.1,0123*62\r\n
$GPGGA,094502.65,5703.5184011,N,00952.5212400,E,2,10,0.8,-1.243,M,40.593,M,2.3,0123*65\r\n
$GPGGA,094502.70,5703.5183845,N,00952.5213382,E,2,10,0.8,-1.241,M,40.593,M,2.3,0123*61\r\n
$GPGGA,094502.75,5703.5183672,N,00952.5214397,E,2,10,0.8,-1.240,M,40.593,M,2.3,0123*6C\r\n
$GPGGA,094502.80,5703.5183504,N,00952.5215413,E,2,10,0.8,-1.239,M,40.593,M,2.3,0123*60\r\n
$GPGGA,094502.85,5703.5183333,N,00952.5216436,E,2,10,0.8,-1.235,M,40.593,M,2.5,0123*69\r\n
$GPGGA,094502.90,5703.5183165,N,00952.5217469,E,2,10,0.8,-1.233,M,40.593,M,2.5,0123*61\r\n
$GPGGA,094502.95,5703.5182997,N,00952.5218496,E,2,10,0.8,-1.230,M,40.593,M,2.5,0123*6C\r\n
$GPGGA,094503.00,5703.5182816,N,00952.5219519,E,2,10,0.8,-1.230,M,40.593,M,2.5,0123*6E\r\n
$GPGGA,094503.05,5703.5182620,N,00952.5220543,E,2,10,0.8,-1.236,M,40.593,M,2.8,0123*6E\r\n
$GPGGA,094503.10,5703.5182447,N,00952.5221579,E,2,10,0.8,-1.236,M,40.593,M,2.8,0123*61\r\n
$GPGGA,094503.15,5703.5182272,N,00952.5222619,E,2,10,0.8,-1.236,M,40.593,M,2.8,0123*62\r\n
$GPGGA,094503.20,5703.5182090,N,00952.5223657,E,2,10,0.8,-1.235,M,40.593,M,2.8,0123*62\r\n
$GPGGA,094503.25,5703.5181910,N,00952.5224714,E,2,10,0.8,-1.233,M,40.593,M,3.0,0123*6B\r\n
$GPGGA,094503.30,5703.5181723,N,00952.5225776,E,2,10,0.8,-1.236,M,40.593,M,3.0,0123*61\r\n
$GPGGA,094503.35,5703.5181544,N,00952.5226852,E,2,10,0.8,-1.237,M,40.593,M,3.0,0123*6C\r\n
$GPGGA,094503.40,5703.5181352,N,00952.5227921,E,2,10,0.8,-1.242,M,40.593,M,3.0,0123*69\r\n
$GPGGA,094503.45,5703.5181160,N,00952.5228993,E,2,10,0.8,-1.252,M,40.593,M,2.1,0123*68\r\n
$GPGGA,094503.50,5703.5180974,N,00952.5230082,E,2,10,0.8,-1.259,M,40.593,M,2.1,0123*6B\r\n
$GPGGA,094503.55,5703.5180782,N,00952.5231179,E,2,10,0.8,-1.264,M,40.593,M,2.1,0123*63\r\n
$GPGGA,094503.60,5703.5180608,N,00952.5232286,E,2,10,0.8,-1.269,M,40.593,M,2.1,0123*6B\r\n
$GPGGA,094503.65,5703.5180419,N,00952.5233397,E,2,10,0.8,-1.274,M,40.593,M,2.4,0123*65\r\n
$GPGGA,094503.70,5703.5180227,N,00952.5234506,E,2,10,0.8,-1.283,M,40.593,M,2.4,0123*6B\r\n
$GPGGA,094503.75,5703.5180031,N,00952.5235617,E,2,10,0.8,-1.288,M,40.593,M,2.4,0123*62\r\n
$GPGGA,094503.80,5703.5179834,N,00952.5236722,E,2,10,0.8,-1.292,M,40.593,M,2.4,0123*6C\r\n
$GPGGA,094503.85,5703.5179636,N,00952.5237817,E,2,10,0.8,-1.297,M,40.593,M,2.6,0123*6A\r\n
$GPGGA,094503.90,5703.5179434,N,00952.5238919,E,2,10,0.8,-1.297,M,40.593,M,2.6,0123*6E\r\n
$GPGGA,094503.95,5703.5179212,N,00952.5240006,E,2,10,0.8,-1.297,M,40.593,M,2.6,0123*61\r\n
$GPGGA,094504.00,5703.5179010,N,00952.5241094,E,2,10,0.8,-1.296,M,40.593,M,2.6,0123*61\r\n
$GPGGA,094504.05,5703.5178805,N,00952.5242185,E,2,10,0.8,-1.291,M,40.593,M,2.8,0123*62\r\n
$GPGGA,094504.10,5703.5178595,N,00952.5243282,E,2,10,0.8,-1.285,M,40.593,M,2.8,0123*62\r\n
$GPGGA,094504.15,5703.5178377,N,00952.5244384,E,2,10,0.8,-1.282,M,40.593,M,2.8,0123*6A\r\n
$GPGGA,094504.20,5703.5178161,N,00952.5245483,E,2,10,0.8,-1.277,M,40.593,M,2.8,0123*62\r\n
$GPGGA,094504.25,5703.5177960,N,00952.5246594,E,2,10,0.8,-1.268,M,40.593,M,3.0,0123*62\r\n
$GPGGA,094504.30,5703.5177751,N,00952.5247709,E,2,10,0.8,-1.261,M,40.593,M,3.0,0123*64\r\n
$GPGGA,094504.35,5703.5177538,N,00952.5248826,E,2,10,0.8,-1.256,M,40.593,M,3.0,0123*65\r\n
$GPGGA,094504.40,5703.5177327,N,00952.5249944,E,2,10,0.8,-1.252,M,40.593,M,3.0,0123*6F\r\n
$GPGGA,094504.45,5703.5177117,N,00952.5251074,E,2,10,0.8,-1.245,M,40.593,M,2.4,0123*6B\r\n
$GPGGA,094504.50,5703.5176902,N,00952.5252212,E,2,10,0.8,-1.243,M,40.593,M,2.4,0123*65\r\n
$GPGGA,094504.55,5703.5176688,N,00952.5253343,E,2,10,0.8,-1.239,M,40.593,M,2.4,0123*64\r\n
$GPGGA,094504.60,5703.5176475,N,00952.5254468,E,2,10,0.8,-1.238,M,40.593,M,2.4,0123*6A\r\n
$GPGGA,094504.65,5703.5176258,N,00952.5255597,E,2,10,0.8,-1.236,M,40.593,M,2.6,0123*6A\r\n
$GPGGA,094504.70,5703.5176049,N,00952.5256727,E,2,10,0.8,-1.235,M,40.593,M,2.6,0123*65\r\n
$GPGGA,094504.75,5703.5175831,N,00952.5257849,E,2,10,0.8,-1.237,M,40.593,M,2.6,0123*60\r\n
$GPGGA,094504.80,5703.5175614,N,00952.5258988,E,2,10,0.8,-1.238,M,40.593,M,2.6,0123*6F\r\n
$GPGGA,094504.85,5703.5175383,N,00952.5260134,E,2,10,0.8,-1.244,M,40.593,M,2.9,0123*61\r\n
$GPGGA,094504.90,5703.5175154,N,00952.5261273,E,2,10,0.8,-1.247,M,40.593,M,2.9,0123*6F\r\n
$GPGGA,094504.95,5703.5174928,N,00952.5262417,E,2,10,0.8,-1.247,M,40.593,M,2.9,0123*6F\r\n
$GPGGA,094505.00,5703.5174718,N,00952.5263563,E,2,10,0.8,-1.244,M,40.593,M,2.9,0123*6F\r\n
$GPGGA,094505.05,5703.5174506,N,00952.5264704,E,2,10,0.8,-1.243,M,40.593,M,3.1,0123*6D\r\n
$GPGGA,094505.10,5703.5174291,N,00952.5265848,E,2,10,0.8,-1.243,M,40.593,M,3.1,0123*66\r\n
$GPGGA,094505.15,5703.5174073,N,00952.5267000,E,2,10,0.8,-1.245,M,40.593,M,3.1,0123*6D\r\n
$GPGGA,094505.20,5703.5173868,N,00952.5268155,E,2,10,0.8,-1.244,M,40.593,M,3.1,0123*61\r\n
$GPGGA,094505.25,5703.5173650,N,00952.5269316,E,2,10,0.8,-1.247,M,40.593,M,3.3,0123*64\r\n
$GPGGA,094505.30,5703.5173426,N,00952.5270480,E,2,10,0.8,-1.251,M,40.593,M,3.3,0123*64\r\n
$GPGGA,094505.35,5703.5173201,N,00952.5271646,E,2,10,0.8,-1.255,M,40.593,M,3.3,0123*6F\r\n
$GPGGA,094505.40,5703.5172978,N,00952.5272827,E,2,10,0.8,-1.259,M,40.593,M,3.3,0123*6F\r\n
$GPGGA,094505.45,5703.5172762,N,00952.5273998,E,2,10,0.8,-1.265,M,40.593,M,3.5,0123*62\r\n
$GPGGA,094505.50,5703.5172542,N,00952.5275192,E,2,10,0.8,-1.269,M,40.593,M,3.5,0123*6E\r\n
$GPGGA,094505.55,5703.5172327,N,00952.5276387,E,2,10,0.8,-1.274,M,40.593,M,3.5,0123*67\r\n
$GPGGA,094505.60,5703.5172104,N,00952.5277576,E,2,10,0.8,-1.278,M,40.593,M,3.5,0123*67\r\n
$GPGGA,094505.65,5703.5171885,N,00952.5278752,E,2,10,0.8,-1.280,M,40.593,M,3.7,0123*6F\r\n
$GPGGA,094505.70,5703.5171661,N,00952.5279917,E,2,10,0.8,-1.279,M,40.593,M,3.7,0123*67\r\n
$GPGGA,094505.75,5703.5171432,N,00952.5281073,E,2,10,0.8,-1.279,M,40.593,M,3.7,0123*6A\r\n
$GPGGA,094505.80,5703.5171205,N,00952.5282244,E,2,10,0.8,-1.276,M,40.593,M,3.7,0123*68\r\n
$GPGGA,094505.85,5703.5170979,N,00952.5283414,E,2,10,0.8,-1.276,M,40.593,M,3.9,0123*60\r\n
$GPGGA,094505.90,5703.5170740,N,00952.5284581,E,2,10,0.8,-1.277,M,40.593,M,3.9,0123*6B\r\n
$GPGGA,094505.95,5703.5170512,N,00952.5285760,E,2,10,0.8,-1.275,M,40.593,M,3.9,0123*65\r\n
$GPGGA,094506.00,5703.5170295,N,00952.5286954,E,2,10,0.8,-1.273,M,40.593,M,3.9,0123*6E\r\n
$GPGGA,094506.05,5703.5170063,N,00952.5288129,E,2,10,0.8,-1.273,M,40.593,M,4.1,0123*63\r\n
$GPGGA,094506.10,5703.5169835,N,00952.5289329,E,2,10,0.8,-1.271,M,40.593,M,4.1,0123*65\r\n
$GPGGA,094506.15,5703.5169626,N,00952.5290511,E,2,10,0.8,-1.268,M,40.593,M,4.1,0123*61\r\n
$GPGGA,094506.20,5703.5169401,N,00952.5291689,E,2,10,0.8,-1.267,M,40.593,M,4.1,0123*6C\r\n
$GPGGA,094506.25,5703.5169173,N,00952.5292876,E,2,10,0.8,-1.268,M,40.593,M,4.3,0123*69\r\n
$GPGGA,094506.30,5703.5168965,N,00952.5294064,E,2,10,0.8,-1.262,M,40.593,M,4.3,0123*64\r\n
$GPGGA,094506.35,5703.5168741,N,00952.5295256,E,2,10,0.8,-1.258,M,40.593,M,4.3,0123*62\r\n
$GPGGA,094506.40,5703.5168515,N,00952.5296460,E,2,10,0.8,-1.254,M,40.593,M,4.3,0123*6F\r\n
$GPGGA,094506.45,5703.5168291,N,00952.5297644,E,2,10,0.8,-1.249,M,40.593,M,2.1,0123*6C\r\n
$GPGGA,094506.50,5703.5168061,N,00952.5298822,E,2,10,0.8,-1.249,M,40.593,M,2.1,0123*64\r\n
$GPGGA,094506.55,5703.5167840,N,00952.5300016,E,2,10,0.8,-1.247,M,40.593,M,2.1,0123*64\r\n
$GPGGA,094506.60,5703.5167616,N,00952.5301212,E,2,10,0.8,-1.246,M,40.593,M,2.1,0123*69\r\n
$GPGGA,094506.65,5703.5167380,N,00952.5302408,E,2,10,0.8,-1.246,M,40.593,M,2.3,0123*6A\r\n
$GPGGA,094506.70,5703.5167150,N,00952.5303605,E,2,10,0.8,-1.247,M,40.593,M,2.3,0123*6E\r\n
$GPGGA,094506.75,5703.5166922,N,00952.5304811,E,2,10,0.8,-1.249,M,40.593,M,2.3,0123*65\r\n
$GPGGA,094506.80,5703.5166689,N,00952.5306015,E,2,10,0.8,-1.250,M,40.593,M,2.3,0123*67\r\n
$GPGGA,094506.85,5703.5166457,N,00952.5307221,E,2,10,0.8,-1.255,M,40.593,M,2.5,0123*64\r\n
$GPGGA,094506.90,5703.5166230,N,00952.5308418,E,2,10,0.8,-1.256,M,40.593,M,2.5,0123*67\r\n
$GPGGA,094506.95,5703.5165992,N,00952.5309618,E,2,10,0.8,-1.258,M,40.593,M,2.5,0123*6F\r\n
$GPGGA,094507.00,5703.5165753,N,00952.5310801,E,2,10,0.8,-1.260,M,40.593,M,2.5,0123*64\r\n
$GPGGA,094507.05,5703.5165516,N,00952.5311967,E,2,10,0.8,-1.262,M,40.593,M,2.8,0123*6D\r\n
$GPGGA,094507.10,5703.5165276,N,00952.5313166,E,2,10,0.8,-1.260,M,40.593,M,2.8,0123*61\r\n
$GPGGA,094507.15,5703.5165041,N,00952.5314360,E,2,10,0.8,-1.261,M,40.593,M,2.8,0123*60\r\n
$GPGGA,094507.20,5703.5164806,N,00952.5315568,E,2,10,0.8,-1.264,M,40.593,M,2.8,0123*66\r\n
$GPGGA,094507.25,5703.5164575,N,00952.5316770,E,2,10,0.8,-1.265,M,40.593,M,3.0,0123*6A\r\n
$GPGGA,094507.30,5703.5164338,N,00952.5317964,E,2,10,0.8,-1.267,M,40.593,M,3.0,0123*69\r\n
$GPGGA,094507.35,5703.5164108,N,00952.5319165,E,2,10,0.8,-1.267,M,40.593,M,3.0,0123*6A\r\n
$GPGGA,094507.40,5703.5163879,N,00952.5320367,E,2,10,0.8,-1.268,M,40.593,M,3.0,0123*65\r\n
$GPGGA,094507.45,5703.5163644,N,00952.5321579,E,2,10,0.8,-1.267,M,40.593,M,2.1,0123*67\r\n
$GPGGA,094507.50,5703.5163421,N,00952.5322763,E,2,10,0.8,-1.271,M,40.593,M,2.1,0123*6F\r\n
$GPGGA,094507.55,5703.5163180,N,00952.5323943,E,2,10,0.8,-1.273,M,40.593,M,2.1,0123*6B\r\n
$GPGGA,094507.60,5703.5162934,N,00952.5325141,E,2,10,0.8,-1.270,M,40.593,M,2.1,0123*64\r\n
$GPGGA,094507.65,5703.5162695,N,00952.5326337,E,2,10,0.8,-1.267,M,40.593,M,2.4,0123*66\r\n
$GPGGA,094507.70,5703.5162454,N,00952.5327522,E,2,10,0.8,-1.266,M,40.593,M,2.4,0123*6F\r\n
$GPGGA,094507.75,5703.5162202,N,00952.5328702,E,2,10,0.8,-1.266,M,40.593,M,2.4,0123*60\r\n
$GPGGA,094507.80,5703.5161968,N,00952.5329890,E,2,10,0.8,-1.264,M,40.593,M,2.4,0123*69\r\n
$GPGGA,094507.85,5703.5161733,N,00952.5331086,E,2,10,0.8,-1.267,M,40.593,M,2.6,0123*6B\r\n
$GPGGA,094507.90,5703.5161504,N,00952.5332288,E,2,10,0.8,-1.268,M,40.593,M,2.6,0123*69\r\n
$GPGGA,094507.95,5703.5161275,N,00952.5333489,E,2,10,0.8,-1.267,M,40.593,M,2.6,0123*64\r\n
$GPGGA,094508.00,5703.5161034,N,00952.5334686,E,2,10,0.8,-1.269,M,40.593,M,2.6,0123*64\r\n
$GPGGA,094508.05,5703.5160780,N,00952.5335874,E,2,10,0.8,-1.273,M,40.593,M,2.8,0123*6F\r\n
$GPGGA,094508.10,5703.5160545,N,00952.5337082,E,2,10,0.8,-1.273,M,40.593,M,2.8,0123*63\r\n
$GPGGA,094508.15,5703.5160314,N,00952.5338291,E,2,10,0.8,-1.274,M,40.593,M,2.8,0123*6C\r\n
$GPGGA,094508.20,5703.5160080,N,00952.5339487,E,2,10,0.8,-1.274,M,40.593,M,2.8,0123*64\r\n
$GPGGA,094508.25,5703.5159844,N,00952.5340682,E,2,10,0.8,-1.270,M,40.593,M,3.0,0123*6F\r\n
$GPGGA,094508.30,5703.5159608,N,00952.5341862,E,2,10,0.8,-1.265,M,40.593,M,3.0,0123*68\r\n
$GPGGA,094508.35,5703.5159360,N,00952.5343048,E,2,10,0.8,-1.261,M,40.593,M,3.0,0123*60\r\n
$GPGGA,094508.40,5703.5159106,N,00952.5344219,E,2,10,0.8,-1.255,M,40.593,M,3.0,0123*66\r\n
$GPGGA,094508.45,5703.5158858,N,00952.5345381,E,2,10,0.8,-1.252,M,40.593,M,2.4,0123*63\r\n
$GPGGA,094508.50,5703.5158607,N,00952.5346550,E,2,10,0.8,-1.248,M,40.593,M,2.4,0123*61\r\n
$GPGGA,094508.55,5703.5158360,N,00952.5347721,E,2,10,0.8,-1.245,M,40.593,M,2.4,0123*68\r\n
$GPGGA,094508.60,5703.5158099,N,00952.5348888,E,2,10,0.8,-1.241,M,40.593,M,2.4,0123*6C\r\n
$GPGGA,094508.65,5703.5157833,N,00952.5350089,E,2,10,0.8,-1.236,M,40.593,M,2.6,0123*6C\r\n
$GPGGA,094508.70,5703.5157592,N,00952.5351282,E,2,10,0.8,-1.234,M,40.593,M,2.6,0123*64\r\n
$GPGGA,094508.75,5703.5157371,N,00952.5352485,E,2,10,0.8,-1.236,M,40.593,M,2.6,0123*6A\r\n
$GPGGA,094508.80,5703.5157135,N,00952.5353701,E,2,10,0.8,-1.241,M,40.593,M,2.6,0123*6C\r\n
$GPGGA,094508.85,5703.5156888,N,00952.5354921,E,2,10,0.8,-1.248,M,40.593,M,2.9,0123*6A\r\n
$GPGGA,094508.90,5703.5156645,N,00952.5356136,E,2,10,0.8,-1.254,M,40.593,M,2.9,0123*60\r\n
$GPGGA,094508.95,5703.5156414,N,00952.5357363,E,2,10,0.8,-1.263,M,40.593,M,2.9,0123*64\r\n
$GPGGA,094509.00,5703.5156184,N,00952.5358601,E,2,10,0.8,-1.270,M,40.593,M,2.9,0123*69\r\n
$GPGGA,094509.05,5703.5155936,N,00952.5359812,E,2,10,0.8,-1.281,M,40.593,M,3.1,0123*64\r\n
$GPGGA,094509.10,5703.5155688,N,00952.5361020,E,2,10,0.8,-1.287,M,40.593,M,3.1,0123*6E\r\n
$GPGGA,094509.15,5703.5155443,N,00952.5362227,E,2,10,0.8,-1.291,M,40.593,M,3.1,0123*6F\r\n
$GPGGA,094509.20,5703.5155196,N,00952.5363428,E,2,10,0.8,-1.294,M,40.593,M,3.1,0123*69\r\n
$GPGGA,094509.25,5703.5154954,N,00952.5364625,E,2,10,0.8,-1.299,M,40.593,M,3.3,0123*6C\r\n
$GPGGA,094509.30,5703.5154708,N,00952.5365825,E,2,10,0.8,-1.301,M,40.593,M,3.3,0123*60\r\n
$GPGGA,094509.35,5703.5154441,N,00952.5367033,E,2,10,0.8,-1.303,M,40.593,M,3.3,0123*64\r\n
$GPGGA,094509.40,5703.5154187,N,00952.5368227,E,2,10,0.8,-1.302,M,40.593,M,3.3,0123*60\r\n
$GPGGA,094509.45,5703.5153935,N,00952.5369428,E,2,10,0.8,-1.302,M,40.593,M,0.7,0123*6C\r\n
$GPGGA,094509.50,5703.5153680,N,00952.5370632,E,2,10,0.8,-1.302,M,40.593,M,0.7,0123*68\r\n
$GPGGA,094509.55,5703.5153425,N,00952.5371828,E,2,10,0.8,-1.301,M,40.593,M,0.7,0123*67\r\n
$GPGGA,094509.60,5703.5153171,N,00952.5373028,E,2,10,0.8,-1.299,M,40.593,M,0.7,0123*6F\r\n
$GPGGA,094509.65,5703.5152921,N,00952.5374234,E,2,10,0.8,-1.291,M,40.593,M,1.0,0123*60\r\n
$GPGGA,094509.70,5703.5152663,N,00952.5375424,E,2,10,0.8,-1.288,M,40.593,M,1.0,0123*63\r\n
$GPGGA,094509.75,5703.5152400,N,00952.5376604,E,2,10,0.8,-1.284,M,40.593,M,1.0,0123*6E\r\n
$GPGGA,094509.80,5703.5152133,N,00952.5377794,E,2,10,0.8,-1.277,M,40.593,M,1.0,0123*64\r\n
$GPGGA,094509.85,5703.5151870,N,00952.5378974,E,2,10,0.8,-1.266,M,40.593,M,1.3,0123*60\r\n
$GPGGA,094509.90,5703.5151611,N,00952.5380139,E,2,10,0.8,-1.259,M,40.593,M,1.3,0123*67\r\n
$GPGGA,094509.95,5703.5151352,N,00952.5381318,E,2,10,0.8,-1.252,M,40.593,M,1.3,0123*6B\r\n
$GPGGA,094510.00,5703.5151082,N,00952.5382488,E,2,10,0.8,-1.246,M,40.593,M,1.3,0123*69\r\n
$GPGGA,094510.05,5703.5150804,N,00952.5383640,E,2,10,0.8,-1.241,M,40.593,M,1.6,0123*6E\r\n
$GPGGA,094510.10,5703.5150530,N,00952.5384812,E,2,10,0.8,-1.236,M,40.593,M,1.6,0123*6E\r\n
$GPGGA,094510.15,5703.5150271,N,00952.5386004,E,2,10,0.8,-1.232,M,40.593,M,1.6,0123*60\r\n
$GPGGA,094510.20,5703.5150013,N,00952.5387207,E,2,10,0.8,-1.229,M,40.593,M,1.6,0123*6A\r\n
$GPGGA,094510.25,5703.5149752,N,00952.5388416,E,2,10,0.8,-1.227,M,40.593,M,1.8,0123*6C\r\n
$GPGGA,094510.30,5703.5149489,N,00952.5389614,E,2,10,0.8,-1.226,M,40.593,M,1.8,0123*6D\r\n
$GPGGA,094510.35,5703.5149219,N,00952.5390802,E,2,10,0.8,-1.228,M,40.593,M,1.8,0123*68\r\n
$GPGGA,094510.40,5703.5148945,N,00952.5391991,E,2,10,0.8,-1.231,M,40.593,M,1.8,0123*6B\r\n
$GPGGA,094510.45,5703.5148671,N,00952.5393147,E,2,10,0.8,-1.235,M,40.593,M,0.9,0123*63\r\n
$GPGGA,094510.50,5703.5148395,N,00952.5394311,E,2,10,0.8,-1.237,M,40.593,M,0.9,0123*6C\r\n
$GPGGA,094510.55,5703.5148119,N,00952.5395480,E,2,10,0.8,-1.239,M,40.593,M,0.9,0123*6F\r\n
$GPGGA,094510.60,5703.5147836,N,00952.5396641,E,2,10,0.8,-1.244,M,40.593,M,0.9,0123*64\r\n
$GPGGA,094510.65,5703.5147567,N,00952.5397812,E,2,10,0.8,-1.244,M,40.593,M,1.2,0123*6B\r\n
$GPGGA,094510.70,5703.5147302,N,00952.5398978,E,2,10,0.8,-1.248,M,40.593,M,1.2,0123*64\r\n
$GPGGA,094510.75,5703.5147043,N,00952.5400153,E,2,10,0.8,-1.251,M,40.593,M,1.2,0123*68\r\n
$GPGGA,094510.80,5703.5146779,N,00952.5401343,E,2,10,0.8,-1.256,M,40.593,M,1.2,0123*68\r\n
$GPGGA,094510.85,5703.5146506,N,00952.5402521,E,2,10,0.8,-1.266,M,40.593,M,1.4,0123*63\r\n
$GPGGA,094510.90,5703.5146250,N,00952.5403726,E,2,10,0.8,-1.274,M,40.593,M,1.4,0123*64\r\n
$GPGGA,094510.95,5703.5145990,N,00952.5404945,E,2,10,0.8,-1.280,M,40.593,M,1.4,0123*62\r\n
$GPGGA,094511.00,5703.5145722,N,00952.5406172,E,2,10,0.8,-1.288,M,40.593,M,1.4,0123*6E\r\n
$GPGGA,094511.05,5703.5145452,N,00952.5407363,E,2,10,0.8,-1.302,M,40.593,M,1.7,0123*6C\r\n
$GPGGA,094511.10,5703.5145189,N,00952.5408553,E,2,10,0.8,-1.311,M,40.593,M,1.7,0123*63\r\n
$GPGGA,094511.15,5703.5144910,N,00952.5409738,E,2,10,0.8,-1.317,M,40.593,M,1.7,0123*67\r\n
$GPGGA,094511.20,5703.5144632,N,00952.5410921,E,2,10,0.8,-1.322,M,40.593,M,1.7,0123*66\r\n
$GPGGA,094511.25,5703.5144352,N,00952.5412096,E,2,10,0.8,-1.325,M,40.593,M,1.9,0123*6E\r\n
$GPGGA,094511.30,5703.5144081,N,00952.5413270,E,2,10,0.8,-1.326,M,40.593,M,1.9,0123*6F\r\n
$GPGGA,094511.35,5703.5143821,N,00952.5414452,E,2,10,0.8,-1.323,M,40.593,M,1.9,0123*6B\r\n
$GPGGA,094511.40,5703.5143554,N,00952.5415594,E,2,10,0.8,-1.318,M,40.593,M,1.9,0123*64\r\n
$GPGGA,094511.45,5703.5143282,N,00952.5416719,E,2,10,0.8,-1.312,M,40.593,M,1.1,0123*6B\r\n
$GPGGA,094511.50,5703.5143007,N,00952.5417838,E,2,10,0.8,-1.309,M,40.593,M,1.1,0123*67\r\n
$GPGGA,094511.55,5703.5142742,N,00952.5418952,E,2,10,0.8,-1.305,M,40.593,M,1.1,0123*6B\r\n
$GPGGA,094511.60,5703.5142490,N,00952.5420069,E,2,10,0.8,-1.301,M,40.593,M,1.1,0123*6F\r\n
$GPGGA,094511.65,5703.5142229,N,00952.5421186,E,2,10,0.8,-1.298,M,40.593,M,1.4,0123*6B\r\n
$GPGGA,094511.70,5703.5141978,N,00952.5422294,E,2,10,0.8,-1.296,M,40.593,M,1.4,0123*6E\r\n
$GPGGA,094511.75,5703.5141734,N,00952.5423388,E,2,10,0.8,-1.295,M,40.593,M,1.4,0123*63\r\n
$GPGGA,094511.80,5703.5141491,N,00952.5424479,E,2,10,0.8,-1.293,M,40.593,M,1.4,0123*6D\r\n
$GPGGA,094511.85,5703.5141246,N,00952.5425558,E,2,10,0.8,-1.293,M,40.593,M,1.7,0123*64\r\n
$GPGGA,094511.90,5703.5141013,N,00952.5426639,E,2,10,0.8,-1.295,M,40.593,M,1.7,0123*63\r\n
$GPGGA,094511.95,5703.5140771,N,00952.5427713,E,2,10,0.8,-1.298,M,40.593,M,1.7,0123*61\r\n
$GPGGA,094512.00,5703.5140540,N,00952.5428775,E,2,10,0.8,-1.302,M,40.593,M,1.7,0123*63\r\n
$GPGGA,094512.05,5703.5140300,N,00952.5429842,E,2,10,0.8,-1.309,M,40.593,M,1.9,0123*6B\r\n
$GPGGA,094512.10,5703.5140081,N,00952.5430901,E,2,10,0.8,-1.312,M,40.593,M,1.9,0123*61\r\n
$GPGGA,094512.15,5703.5139865,N,00952.5431960,E,2,10,0.8,-1.316,M,40.593,M,1.9,0123*6A\r\n
$GPGGA,094512.20,5703.5139652,N,00952.5433002,E,2,10,0.8,-1.321,M,40.593,M,1.9,0123*6D\r\n
$GPGGA,094512.25,5703.5139441,N,00952.5434041,E,2,10,0.8,-1.326,M,40.593,M,2.2,0123*67\r\n
$GPGGA,094512.30,5703.5139236,N,00952.5435074,E,2,10,0.8,-1.328,M,40.593,M,2.2,0123*6C\r\n
$GPGGA,094512.35,5703.5139035,N,00952.5436090,E,2,10,0.8,-1.330,M,40.593,M,2.2,0123*68\r\n
$GPGGA,094512.40,5703.5138835,N,00952.5437115,E,2,10,0.8,-1.333,M,40.593,M,2.2,0123*6D\r\n
$GPGGA,094512.45,5703.5138640,N,00952.5438127,E,2,10,0.8,-1.337,M,40.593,M,2.4,0123*68\r\n
$GPGGA,094512.50,5703.5138438,N,00952.5439149,E,2,10,0.8,-1.334,M,40.593,M,2.4,0123*6B\r\n
$GPGGA,094512.55,5703.5138239,N,00952.5440136,E,2,10,0.8,-1.336,M,40.593,M,2.4,0123*6D\r\n
$GPGGA,094512.60,5703.5138051,N,00952.5441138,E,2,10,0.8,-1.338,M,40.593,M,2.4,0123*66\r\n
$GPGGA,094512.65,5703.5137868,N,00952.5442142,E,2,10,0.8,-1.334,M,40.593,M,2.6,0123*6E\r\n
$GPGGA,094512.70,5703.5137682,N,00952.5443133,E,2,10,0.8,-1.336,M,40.593,M,2.6,0123*65\r\n
$GPGGA,094512.75,5703.5137491,N,00952.5444151,E,2,10,0.8,-1.337,M,40.593,M,2.6,0123*62\r\n
$GPGGA,094512.80,5703.5137319,N,00952.5445155,E,2,10,0.8,-1.339,M,40.593,M,2.6,0123*64\r\n
$GPGGA,094512.85,5703.5137153,N,00952.5446175,E,2,10,0.8,-1.342,M,40.593,M,2.9,0123*6F\r\n
$GPGGA,094512.90,5703.5136980,N,00952.5447183,E,2,10,0.8,-1.346,M,40.593,M,2.9,0123*60\r\n
$GPGGA,094512.95,5703.5136822,N,00952.5448210,E,2,10,0.8,-1.349,M,40.593,M,2.9,0123*65\r\n
$GPGGA,094513.00,5703.5136664,N,00952.5449241,E,2,10,0.8,-1.353,M,40.593,M,2.9,0123*6A\r\n
$GPGGA,094513.05,5703.5136496,N,00952.5450256,E,2,10,0.8,-1.357,M,40.593,M,3.1,0123*63\r\n
$GPGGA,094513.10,5703.5136341,N,00952.5451281,E,2,10,0.8,-1.360,M,40.593,M,3.1,0123*65\r\n
$GPGGA,094513.15,5703.5136191,N,00952.5452303,E,2,10,0.8,-1.362,M,40.593,M,3.1,0123*65\r\n
$GPGGA,094513.20,5703.5136055,N,00952.5453296,E,2,10,0.8,-1.364,M,40.593,M,3.1,0123*60\r\n
$GPGGA,094513.25,5703.5135907,N,00952.5454290,E,2,10,0.8,-1.368,M,40.593,M,3.3,0123*67\r\n
$GPGGA,094513.30,5703.5135760,N,00952.5455283,E,2,10,0.8,-1.367,M,40.593,M,3.3,0123*60\r\n
$GPGGA,094513.35,5703.5135625,N,00952.5456295,E,2,10,0.8,-1.362,M,40.593,M,3.3,0123*64\r\n
$GPGGA,094513.40,5703.5135503,N,00952.5457282,E,2,10,0.8,-1.357,M,40.593,M,3.3,0123*60\r\n
$GPGGA,094513.45,5703.5135390,N,00952.5458275,E,2,10,0.8,-1.351,M,40.593,M,3.5,0123*6E\r\n
$GPGGA,094513.50,5703.5135274,N,00952.5459268,E,2,10,0.8,-1.347,M,40.593,M,3.5,0123*6B\r\n
$GPGGA,094513.55,5703.5135163,N,00952.5460256,E,2,10,0.8,-1.343,M,40.593,M,3.5,0123*68\r\n
$GPGGA,094513.60,5703.5135052,N,00952.5461251,E,2,10,0.8,-1.337,M,40.593,M,3.5,0123*68\r\n
$GPGGA,094513.65,5703.5134944,N,00952.5462256,E,2,10,0.8,-1.333,M,40.593,M,3.7,0123*60\r\n
$GPGGA,094513.70,5703.5134831,N,00952.5463251,E,2,10,0.8,-1.331,M,40.593,M,3.7,0123*63\r\n
$GPGGA,094513.75,5703.5134723,N,00952.5464255,E,2,10,0.8,-1.330,M,40.593,M,3.7,0123*68\r\n
$GPGGA,094513.80,5703.5134637,N,00952.5465231,E,2,10,0.8,-1.331,M,40.593,M,3.7,0123*64\r\n
$GPGGA,094513.85,5703.5134574,N,00952.5466199,E,2,10,0.8,-1.326,M,40.593,M,3.9,0123*6F\r\n
$GPGGA,094513.90,5703.5134506,N,00952.5467168,E,2,10,0.8,-1.320,M,40.593,M,3.9,0123*67\r\n
$GPGGA,094513.95,5703.5134434,N,00952.5468126,E,2,10,0.8,-1.316,M,40.593,M,3.9,0123*62\r\n
$GPGGA,094514.00,5703.5134314,N,00952.5469112,E,2,10,0.8,-1.318,M,40.593,M,3.9,0123*64\r\n
$GPGGA,094514.05,5703.5134201,N,00952.5470092,E,2,10,0.8,-1.323,M,40.593,M,4.1,0123*62\r\n
$GPGGA,094514.10,5703.5134116,N,00952.5471059,E,2,10,0.8,-1.325,M,40.593,M,4.1,0123*63\r\n
$GPGGA,094514.15,5703.5134039,N,00952.5472019,E,2,10,0.8,-1.327,M,40.593,M,4.1,0123*6F\r\n
$GPGGA,094514.20,5703.5133978,N,00952.5472993,E,2,10,0.8,-1.328,M,40.593,M,4.1,0123*66\r\n
$GPGGA,094514.25,5703.5133926,N,00952.5473948,E,2,10,0.8,-1.331,M,40.593,M,4.3,0123*65\r\n
$GPGGA,094514.30,5703.5133880,N,00952.5474913,E,2,10,0.8,-1.330,M,40.593,M,4.3,0123*64\r\n
$GPGGA,094514.35,5703.5133844,N,00952.5475873,E,2,10,0.8,-1.331,M,40.593,M,4.3,0123*6E\r\n
$GPGGA,094514.40,5703.5133805,N,00952.5476825,E,2,10,0.8,-1.331,M,40.593,M,4.3,0123*69\r\n
$GPGGA,094514.45,5703.5133762,N,00952.5477781,E,2,10,0.8,-1.328,M,40.593,M,2.1,0123*6E\r\n
$GPGGA,094514.50,5703.5133721,N,00952.5478722,E,2,10,0.8,-1.328,M,40.593,M,2.1,0123*6B\r\n
$GPGGA,094514.55,5703.5133675,N,00952.5479672,E,2,10,0.8,-1.327,M,40.593,M,2.1,0123*64\r\n
$GPGGA,094514.60,5703.5133643,N,00952.5480610,E,2,10,0.8,-1.325,M,40.593,M,2.1,0123*67\r\n
$GPGGA,094514.65,5703.5133610,N,00952.5481539,E,2,10,0.8,-1.322,M,40.593,M,2.3,0123*68\r\n
$GPGGA,094514.70,5703.5133567,N,00952.5482459,E,2,10,0.8,-1.320,M,40.593,M,2.3,0123*69\r\n
$GPGGA,094514.75,5703.5133533,N,00952.5483393,E,2,10,0.8,-1.317,M,40.593,M,2.3,0123*69\r\n
$GPGGA,094514.80,5703.5133505,N,00952.5484322,E,2,10,0.8,-1.315,M,40.593,M,2.3,0123*69\r\n
$GPGGA,094514.85,5703.5133483,N,00952.5485223,E,2,10,0.8,-1.312,M,40.593,M,2.5,0123*63\r\n
$GPGGA,094514.90,5703.5133462,N,00952.5486123,E,2,10,0.8,-1.308,M,40.593,M,2.5,0123*63\r\n
$GPGGA,094514.95,5703.5133443,N,00952.5487020,E,2,10,0.8,-1.304,M,40.593,M,2.5,0123*6A\r\n
$GPGGA,094515.00,5703.5133430,N,00952.5487916,E,2,10,0.8,-1.298,M,40.593,M,2.5,0123*6B\r\n
$GPGGA,094515.05,5703.5133416,N,00952.5488794,E,2,10,0.8,-1.296,M,40.593,M,2.8,0123*62\r\n
$GPGGA,094515.10,5703.5133398,N,00952.5489680,E,2,10,0.8,-1.293,M,40.593,M,2.8,0123*67\r\n
$GPGGA,094515.15,5703.5133385,N,00952.5490545,E,2,10,0.8,-1.293,M,40.593,M,2.8,0123*6C\r\n
$GPGGA,094515.20,5703.5133379,N,00952.5491406,E,2,10,0.8,-1.287,M,40.593,M,2.8,0123*6B\r\n
$GPGGA,094515.25,5703.5133372,N,00952.5492282,E,2,10,0.8,-1.285,M,40.593,M,3.0,0123*67\r\n
$GPGGA,094515.30,5703.5133382,N,00952.5493142,E,2,10,0.8,-1.283,M,40.593,M,3.0,0123*64\r\n
$GPGGA,094515.35,5703.5133392,N,00952.5494008,E,2,10,0.8,-1.282,M,40.593,M,3.0,0123*69\r\n
$GPGGA,094515.40,5703.5133403,N,00952.5494883,E,2,10,0.8,-1.282,M,40.593,M,3.0,0123*6F\r\n
$GPGGA,094515.45,5703.5133409,N,00952.5495743,E,2,10,0.8,-1.284,M,40.593,M,2.1,0123*64\r\n
$GPGGA,094515.50,5703.5133421,N,00952.5496602,E,2,10,0.8,-1.285,M,40.593,M,2.1,0123*6C\r\n
$GPGGA,094515.55,5703.5133451,N,00952.5497463,E,2,10,0.8,-1.287,M,40.593,M,2.1,0123*68\r\n
$GPGGA,094515.60,5703.5133485,N,00952.5498311,E,2,10,0.8,-1.292,M,40.593,M,2.1,0123*6E\r\n
$GPGGA,094515.65,5703.5133500,N,00952.5499162,E,2,10,0.8,-1.298,M,40.593,M,2.4,0123*6F\r\n
$GPGGA,094515.70,5703.5133539,N,00952.5499994,E,2,10,0.8,-1.302,M,40.593,M,2.4,0123*62\r\n
$GPGGA,094515.75,5703.5133569,N,00952.5500843,E,2,10,0.8,-1.308,M,40.593,M,2.4,0123*62\r\n
$GPGGA,094515.80,5703.5133595,N,00952.5501683,E,2,10,0.8,-1.313,M,40.593,M,2.4,0123*62\r\n
$GPGGA,094515.85,5703.5133632,N,00952.5502520,E,2,10,0.8,-1.320,M,40.593,M,2.6,0123*62\r\n
$GPGGA,094515.90,5703.5133674,N,00952.5503345,E,2,10,0.8,-1.326,M,40.593,M,2.6,0123*66\r\n
$GPGGA,094515.95,5703.5133730,N,00952.5504166,E,2,10,0.8,-1.333,M,40.593,M,2.6,0123*62\r\n
$GPGGA,094516.00,5703.5133787,N,00952.5504994,E,2,10,0.8,-1.339,M,40.593,M,2.6,0123*6E\r\n
$GPGGA,094516.05,5703.5133836,N,00952.5505805,E,2,10,0.8,-1.346,M,40.593,M,2.8,0123*60\r\n
$GPGGA,094516.10,5703.5133881,N,00952.5506622,E,2,10,0.8,-1.349,M,40.593,M,2.8,0123*6F\r\n
$GPGGA,094516.15,5703.5133924,N,00952.5507428,E,2,10,0.8,-1.352,M,40.593,M,2.8,0123*67\r\n
$GPGGA,094516.20,5703.5133976,N,00952.5508232,E,2,10,0.8,-1.351,M,40.593,M,2.8,0123*67\r\n
$GPGGA,094516.25,5703.5134037,N,00952.5509020,E,2,10,0.8,-1.350,M,40.593,M,3.0,0123*61\r\n
$GPGGA,094516.30,5703.5134100,N,00952.5509814,E,2,10,0.8,-1.349,M,40.593,M,3.0,0123*67\r\n
$GPGGA,094516.35,5703.5134160,N,00952.5510617,E,2,10,0.8,-1.346,M,40.593,M,3.0,0123*6E\r\n
$GPGGA,094516.40,5703.5134221,N,00952.5511410,E,2,10,0.8,-1.342,M,40.593,M,3.0,0123*6A\r\n
$GPGGA,094516.45,5703.5134283,N,00952.5512180,E,2,10,0.8,-1.339,M,40.593,M,2.4,0123*61\r\n
$GPGGA,094516.50,5703.5134339,N,00952.5512958,E,2,10,0.8,-1.335,M,40.593,M,2.4,0123*64\r\n
$GPGGA,094516.55,5703.5134407,N,00952.5513736,E,2,10,0.8,-1.330,M,40.593,M,2.4,0123*69\r\n
$GPGGA,094516.60,5703.5134479,N,00952.5514503,E,2,10,0.8,-1.324,M,40.593,M,2.4,0123*60\r\n
$GPGGA,094516.65,5703.5134567,N,00952.5515263,E,2,10,0.8,-1.315,M,40.593,M,2.6,0123*6B\r\n
$GPGGA,094516.70,5703.5134651,N,00952.5516031,E,2,10,0.8,-1.311,M,40.593,M,2.6,0123*6B\r\n
$GPGGA,094516.75,5703.5134744,N,00952.5516799,E,2,10,0.8,-1.306,M,40.593,M,2.6,0123*68\r\n
$GPGGA,094516.80,5703.5134822,N,00952.5517575,E,2,10,0.8,-1.305,M,40.593,M,2.6,0123*6F\r\n
$GPGGA,094516.85,5703.5134905,N,00952.5518350,E,2,10,0.8,-1.304,M,40.593,M,2.9,0123*6E\r\n
$GPGGA,094516.90,5703.5134988,N,00952.5519117,E,2,10,0.8,-1.302,M,40.593,M,2.9,0123*69\r\n
$GPGGA,094516.95,5703.5135077,N,00952.5519887,E,2,10,0.8,-1.303,M,40.593,M,2.9,0123*65\r\n
$GPGGA,094517.00,5703.5135166,N,00952.5520666,E,2,10,0.8,-1.303,M,40.593,M,2.9,0123*62\r\n
$GPGGA,094517.05,5703.5135247,N,00952.5521429,E,2,10,0.8,-1.306,M,40.593,M,3.1,0123*63\r\n
$GPGGA,094517.10,5703.5135346,N,00952.5522186,E,2,10,0.8,-1.308,M,40.593,M,3.1,0123*6A\r\n
$GPGGA,094517.15,5703.5135465,N,00952.5522943,E,2,10,0.8,-1.308,M,40.593,M,3.1,0123*68\r\n
$GPGGA,094517.20,5703.5135563,N,00952.5523682,E,2,10,0.8,-1.312,M,40.593,M,3.1,0123*61\r\n
$GPGGA,094517.25,5703.5135670,N,00952.5524421,E,2,10,0.8,-1.315,M,40.593,M,3.3,0123*6C\r\n
$GPGGA,094517.30,5703.5135786,N,00952.5525159,E,2,10,0.8,-1.317,M,40.593,M,3.3,0123*69\r\n
$GPGGA,094517.35,5703.5135887,N,00952.5525903,E,2,10,0.8,-1.318,M,40.593,M,3.3,0123*6A\r\n
$GPGGA,094517.40,5703.5136002,N,00952.5526631,E,2,10,0.8,-1.316,M,40.593,M,3.3,0123*6D\r\n
$GPGGA,094517.45,5703.5136122,N,00952.5527352,E,2,10,0.8,-1.314,M,40.593,M,3.5,0123*6E\r\n
$GPGGA,094517.50,5703.5136240,N,00952.5528061,E,2,10,0.8,-1.312,M,40.593,M,3.5,0123*67\r\n
$GPGGA,094517.55,5703.5136350,N,00952.5528767,E,2,10,0.8,-1.312,M,40.593,M,3.5,0123*63\r\n
$GPGGA,094517.60,5703.5136465,N,00952.5529484,E,2,10,0.8,-1.310,M,40.593,M,3.5,0123*69\r\n
$GPGGA,094517.65,5703.5136583,N,00952.5530200,E,2,10,0.8,-1.303,M,40.593,M,3.7,0123*67\r\n
$GPGGA,094517.70,5703.5136706,N,00952.5530908,E,2,10,0.8,-1.299,M,40.593,M,3.7,0123*6D\r\n
$GPGGA,094517.75,5703.5136825,N,00952.5531615,E,2,10,0.8,-1.297,M,40.593,M,3.7,0123*6A\r\n
$GPGGA,094517.80,5703.5136940,N,00952.5532310,E,2,10,0.8,-1.296,M,40.593,M,3.7,0123*60\r\n
$GPGGA,094517.85,5703.5137050,N,00952.5533016,E,2,10,0.8,-1.300,M,40.593,M,3.9,0123*68\r\n
$GPGGA,094517.90,5703.5137165,N,00952.5533722,E,2,10,0.8,-1.299,M,40.593,M,3.9,0123*6A\r\n
$GPGGA,094517.95,5703.5137293,N,00952.5534427,E,2,10,0.8,-1.298,M,40.593,M,3.9,0123*65\r\n
$GPGGA,094518.00,5703.5137422,N,00952.5535125,E,2,10,0.8,-1.300,M,40.593,M,3.9,0123*6C\r\n
$GPGGA,094518.05,5703.5137532,N,00952.5535813,E,2,10,0.8,-1.307,M,40.593,M,4.1,0123*6D\r\n
$GPGGA,094518.10,5703.5137659,N,00952.5536503,E,2,10,0.8,-1.308,M,40.593,M,4.1,0123*67\r\n
$GPGGA,094518.15,5703.5137780,N,00952.5537203,E,2,10,0.8,-1.310,M,40.593,M,4.1,0123*68\r\n
$GPGGA,094518.20,5703.5137903,N,00952.5537893,E,2,10,0.8,-1.310,M,40.593,M,4.1,0123*68\r\n
$GPGGA,094518.25,5703.5138032,N,00952.5538576,E,2,10,0.8,-1.313,M,40.593,M,4.3,0123*61\r\n
$GPGGA,094518.30,5703.5138158,N,00952.5539253,E,2,10,0.8,-1.315,M,40.593,M,4.3,0123*6F\r\n
$GPGGA,094518.35,5703.5138276,N,00952.5539927,E,2,10,0.8,-1.313,M,40.593,M,4.3,0123*6B\r\n
$GPGGA,094518.40,5703.5138407,N,00952.5540591,E,2,10,0.8,-1.312,M,40.593,M,4.3,0123*67\r\n
$GPGGA,094518.45,5703.5138542,N,00952.5541254,E,2,10,0.8,-1.307,M,40.593,M,2.1,0123*6D\r\n
$GPGGA,094518.50,5703.5138683,N,00952.5541908,E,2,10,0.8,-1.305,M,40.593,M,2.1,0123*67\r\n
$GPGGA,094518.55,5703.5138815,N,00952.5542568,E,2,10,0.8,-1.303,M,40.593,M,2.1,0123*6C\r\n
$GPGGA,094518.60,5703.5138950,N,00952.5543222,E,2,10,0.8,-1.300,M,40.593,M,2.1,0123*61\r\n
$GPGGA,094518.65,5703.5139084,N,00952.5543868,E,2,10,0.8,-1.299,M,40.593,M,2.3,0123*62\r\n
$GPGGA,094518.70,5703.5139220,N,00952.5544508,E,2,10,0.8,-1.298,M,40.593,M,2.3,0123*67\r\n
$GPGGA,094518.75,5703.5139356,N,00952.5545145,E,2,10,0.8,-1.297,M,40.593,M,2.3,0123*61\r\n
$GPGGA,094518.80,5703.5139505,N,00952.5545781,E,2,10,0.8,-1.295,M,40.593,M,2.3,0123*67\r\n
$GPGGA,094518.85,5703.5139651,N,00952.5546427,E,2,10,0.8,-1.295,M,40.593,M,2.5,0123*6A\r\n
$GPGGA,094518.90,5703.5139796,N,00952.5547079,E,2,10,0.8,-1.296,M,40.593,M,2.5,0123*69\r\n
$GPGGA,094518.95,5703.5139936,N,00952.5547724,E,2,10,0.8,-1.300,M,40.593,M,2.5,0123*69\r\n
$GPGGA,094519.00,5703.5140084,N,00952.5548372,E,2,10,0.8,-1.308,M,40.593,M,2.5,0123*6A\r\n
$GPGGA,094519.05,5703.5140229,N,00952.5549000,E,2,10,0.8,-1.315,M,40.593,M,2.8,0123*6C\r\n
$GPGGA,094519.10,5703.5140369,N,00952.5549659,E,2,10,0.8,-1.321,M,40.593,M,2.8,0123*60\r\n
$GPGGA,094519.15,5703.5140527,N,00952.5550298,E,2,10,0.8,-1.326,M,40.593,M,2.8,0123*6F\r\n
$GPGGA,094519.20,5703.5140679,N,00952.5550944,E,2,10,0.8,-1.331,M,40.593,M,2.8,0123*6D\r\n
$GPGGA,094519.25,5703.5140838,N,00952.5551581,E,2,10,0.8,-1.334,M,40.593,M,3.0,0123*6B\r\n
$GPGGA,094519.30,5703.5140987,N,00952.5552221,E,2,10,0.8,-1.339,M,40.593,M,3.0,0123*69\r\n
$GPGGA,094519.35,5703.5141139,N,00952.5552840,E,2,10,0.8,-1.343,M,40.593,M,3.0,0123*60\r\n
$GPGGA,094519.40,5703.5141305,N,00952.5553445,E,2,10,0.8,-1.343,M,40.593,M,3.0,0123*67\r\n
$GPGGA,094519.45,5703.5141463,N,00952.5554044,E,2,10,0.8,-1.345,M,40.593,M,1.1,0123*62\r\n
$GPGGA,094519.50,5703.5141622,N,00952.5554648,E,2,10,0.8,-1.344,M,40.593,M,1.1,0123*6A\r\n
$GPGGA,094519.55,5703.5141776,N,00952.5555252,E,2,10,0.8,-1.342,M,40.593,M,1.1,0123*67\r\n
$GPGGA,094519.60,5703.5141936,N,00952.5555847,E,2,10,0.8,-1.338,M,40.593,M,1.1,0123*68\r\n
$GPGGA,094519.65,5703.5142113,N,00952.5556442,E,2,10,0.8,-1.334,M,40.593,M,1.4,0123*62\r\n
$GPGGA,094519.70,5703.5142271,N,00952.5557025,E,2,10,0.8,-1.330,M,40.593,M,1.4,0123*61\r\n
$GPGGA,094519.75,5703.5142431,N,00952.5557623,E,2,10,0.8,-1.326,M,40.593,M,1.4,0123*61\r\n
$GPGGA,094519.80,5703.5142592,N,00952.5558209,E,2,10,0.8,-1.319,M,40.593,M,1.4,0123*6C\r\n
$GPGGA,094519.85,5703.5142755,N,00952.5558810,E,2,10,0.8,-1.312,M,40.593,M,1.7,0123*6A\r\n
$GPGGA,094519.90,5703.5142924,N,00952.5559402,E,2,10,0.8,-1.308,M,40.593,M,1.7,0123*63\r\n
$GPGGA,094519.95,5703.5143097,N,00952.5559989,E,2,10,0.8,-1.305,M,40.593,M,1.7,0123*65\r\n
$GPGGA,094520.00,5703.5143259,N,00952.5560576,E,2,10,0.8,-1.300,M,40.593,M,1.7,0123*60\r\n
$GPGGA,094520.05,5703.5143415,N,00952.5561160,E,2,10,0.8,-1.302,M,40.593,M,1.9,0123*65\r\n
$GPGGA,094520.10,5703.5143571,N,00952.5561745,E,2,10,0.8,-1.299,M,40.593,M,1.9,0123*60\r\n
$GPGGA,094520.15,5703.5143740,N,00952.5562328,E,2,10,0.8,-1.296,M,40.593,M,1.9,0123*66\r\n
$GPGGA,094520.20,5703.5143915,N,00952.5562909,E,2,10,0.8,-1.295,M,40.593,M,1.9,0123*64\r\n
$GPGGA,094520.25,5703.5144092,N,00952.5563484,E,2,10,0.8,-1.289,M,40.593,M,2.2,0123*6C\r\n
$GPGGA,094520.30,5703.5144256,N,00952.5564061,E,2,10,0.8,-1.287,M,40.593,M,2.2,0123*64\r\n
$GPGGA,094520.35,5703.5144425,N,00952.5564646,E,2,10,0.8,-1.284,M,40.593,M,2.2,0123*63\r\n
$GPGGA,094520.40,5703.5144598,N,00952.5565213,E,2,10,0.8,-1.284,M,40.593,M,2.2,0123*63\r\n
$GPGGA,094520.45,5703.5144767,N,00952.5565785,E,2,10,0.8,-1.285,M,40.593,M,2.4,0123*69\r\n
$GPGGA,094520.50,5703.5144940,N,00952.5566343,E,2,10,0.8,-1.286,M,40.593,M,2.4,0123*68\r\n
$GPGGA,094520.55,5703.5145118,N,00952.5566907,E,2,10,0.8,-1.285,M,40.593,M,2.4,0123*60\r\n
$GPGGA,094520.60,5703.5145299,N,00952.5567469,E,2,10,0.8,-1.285,M,40.593,M,2.4,0123*68\r\n
$GPGGA,094520.65,5703.5145472,N,00952.5568030,E,2,10,0.8,-1.290,M,40.593,M,2.6,0123*6F\r\n
$GPGGA,094520.70,5703.5145643,N,00952.5568589,E,2,10,0.8,-1.293,M,40.593,M,2.6,0123*6F\r\n
$GPGGA,094520.75,5703.5145819,N,00952.5569155,E,2,10,0.8,-1.296,M,40.593,M,2.6,0123*6A\r\n
$GPGGA,094520.80,5703.5145980,N,00952.5569743,E,2,10,0.8,-1.297,M,40.593,M,2.6,0123*61\r\n
$GPGGA,094520.85,5703.5146153,N,00952.5570308,E,2,10,0.8,-1.299,M,40.593,M,2.9,0123*63\r\n
$GPGGA,094520.90,5703.5146325,N,00952.5570872,E,2,10,0.8,-1.304,M,40.593,M,2.9,0123*67\r\n
$GPGGA,094520.95,5703.5146494,N,00952.5571448,E,2,10,0.8,-1.308,M,40.593,M,2.9,0123*67\r\n
$GPGGA,094521.00,5703.5146663,N,00952.5572013,E,2,10,0.8,-1.313,M,40.593,M,2.9,0123*63\r\n
$GPGGA,094521.05,5703.5146827,N,00952.5572566,E,2,10,0.8,-1.322,M,40.593,M,3.1,0123*64\r\n
$GPGGA,094521.10,5703.5146995,N,00952.5573136,E,2,10,0.8,-1.326,M,40.593,M,3.1,0123*6C\r\n
$GPGGA,094521.15,5703.5147164,N,00952.5573689,E,2,10,0.8,-1.332,M,40.593,M,3.1,0123*68\r\n
$GPGGA,094521.20,5703.5147331,N,00952.5574251,E,2,10,0.8,-1.338,M,40.593,M,3.1,0123*60\r\n
$GPGGA,094521.25,5703.5147502,N,00952.5574797,E,2,10,0.8,-1.340,M,40.593,M,3.3,0123*61\r\n
$GPGGA,094521.30,5703.5147677,N,00952.5575356,E,2,10,0.8,-1.342,M,40.593,M,3.3,0123*6E\r\n
$GPGGA,094521.35,5703.5147858,N,00952.5575905,E,2,10,0.8,-1.345,M,40.593,M,3.3,0123*63\r\n
$GPGGA,094521.40,5703.5148039,N,00952.5576456,E,2,10,0.8,-1.346,M,40.593,M,3.3,0123*6A\r\n
$GPGGA,094521.45,5703.5148213,N,00952.5576990,E,2,10,0.8,-1.346,M,40.593,M,0.7,0123*65\r\n
$GPGGA,094521.50,5703.5148405,N,00952.5577521,E,2,10,0.8,-1.348,M,40.593,M,0.7,0123*69\r\n
$GPGGA,094521.55,5703.5148583,N,00952.5578057,E,2,10,0.8,-1.349,M,40.593,M,0.7,0123*69\r\n
$GPGGA,094521.60,5703.5148777,N,00952.5578589,E,2,10,0.8,-1.349,M,40.593,M,0.7,0123*60\r\n
$GPGGA,094521.65,5703.5148968,N,00952.5579121,E,2,10,0.8,-1.343,M,40.593,M,1.0,0123*6E\r\n
$GPGGA,094521.70,5703.5149153,N,00952.5579642,E,2,10,0.8,-1.341,M,40.593,M,1.0,0123*6B\r\n
$GPGGA,094521.75,5703.5149349,N,00952.5580169,E,2,10,0.8,-1.339,M,40.593,M,1.0,0123*60\r\n
$GPGGA,094521.80,5703.5149550,N,00952.5580686,E,2,10,0.8,-1.338,M,40.593,M,1.0,0123*63\r\n
$GPGGA,094521.85,5703.5149751,N,00952.5581211,E,2,10,0.8,-1.337,M,40.593,M,1.3,0123*62\r\n
$GPGGA,094521.90,5703.5149953,N,00952.5581729,E,2,10,0.8,-1.335,M,40.593,M,1.3,0123*66\r\n
$GPGGA,094521.95,5703.5150151,N,00952.5582245,E,2,10,0.8,-1.333,M,40.593,M,1.3,0123*6B\r\n
$GPGGA,094522.00,5703.5150348,N,00952.5582766,E,2,10,0.8,-1.330,M,40.593,M,1.3,0123*69\r\n
$GPGGA,094522.05,5703.5150548,N,00952.5583270,E,2,10,0.8,-1.330,M,40.593,M,1.6,0123*6C\r\n
$GPGGA,094522.10,5703.5150739,N,00952.5583798,E,2,10,0.8,-1.327,M,40.593,M,1.6,0123*69\r\n
$GPGGA,094522.15,5703.5150941,N,00952.5584303,E,2,10,0.8,-1.323,M,40.593,M,1.6,0123*68\r\n
$GPGGA,094522.20,5703.5151149,N,00952.5584822,E,2,10,0.8,-1.318,M,40.593,M,1.6,0123*6F\r\n
$GPGGA,094522.25,5703.5151349,N,00952.5585344,E,2,10,0.8,-1.313,M,40.593,M,1.8,0123*67\r\n
$GPGGA,094522.30,5703.5151538,N,00952.5585855,E,2,10,0.8,-1.308,M,40.593,M,1.8,0123*62\r\n
$GPGGA,094522.35,5703.5151738,N,00952.5586363,E,2,10,0.8,-1.305,M,40.593,M,1.8,0123*65\r\n
$GPGGA,094522.40,5703.5151934,N,00952.5586880,E,2,10,0.8,-1.301,M,40.593,M,1.8,0123*67\r\n
$GPGGA,094522.45,5703.5152145,N,00952.5587382,E,2,10,0.8,-1.296,M,40.593,M,0.9,0123*68\r\n
$GPGGA,094522.50,5703.5152340,N,00952.5587889,E,2,10,0.8,-1.292,M,40.593,M,0.9,0123*6F\r\n
$GPGGA,094522.55,5703.5152534,N,00952.5588408,E,2,10,0.8,-1.288,M,40.593,M,0.9,0123*6E\r\n
$GPGGA,094522.60,5703.5152732,N,00952.5588932,E,2,10,0.8,-1.286,M,40.593,M,0.9,0123*66\r\n
$GPGGA,094522.65,5703.5152924,N,00952.5589451,E,2,10,0.8,-1.285,M,40.593,M,1.2,0123*6A\r\n
$GPGGA,094522.70,5703.5153128,N,00952.5589962,E,2,10,0.8,-1.283,M,40.593,M,1.2,0123*60\r\n
$GPGGA,094522.75,5703.5153330,N,00952.5590468,E,2,10,0.8,-1.281,M,40.593,M,1.2,0123*63\r\n
$GPGGA,094522.80,5703.5153528,N,00952.5590975,E,2,10,0.8,-1.281,M,40.593,M,1.2,0123*67\r\n
$GPGGA,094522.85,5703.5153733,N,00952.5591489,E,2,10,0.8,-1.280,M,40.593,M,1.4,0123*62\r\n
$GPGGA,094522.90,5703.5153932,N,00952.5591976,E,2,10,0.8,-1.281,M,40.593,M,1.4,0123*65\r\n
$GPGGA,094522.95,5703.5154134,N,00952.5592482,E,2,10,0.8,-1.283,M,40.593,M,1.4,0123*6E\r\n
$GPGGA,094523.00,5703.5154331,N,00952.5592978,E,2,10,0.8,-1.284,M,40.593,M,1.4,0123*6B\r\n
$GPGGA,094523.05,5703.5154524,N,00952.5593458,E,2,10,0.8,-1.294,M,40.593,M,1.7,0123*60\r\n
$GPGGA,094523.10,5703.5154726,N,00952.5593952,E,2,10,0.8,-1.299,M,40.593,M,1.7,0123*6E\r\n
$GPGGA,094523.15,5703.5154931,N,00952.5594439,E,2,10,0.8,-1.305,M,40.593,M,1.7,0123*60\r\n
$GPGGA,094523.20,5703.5155137,N,00952.5594920,E,2,10,0.8,-1.311,M,40.593,M,1.7,0123*69\r\n
$GPGGA,094523.25,5703.5155348,N,00952.5595406,E,2,10,0.8,-1.319,M,40.593,M,1.9,0123*68\r\n
$GPGGA,094523.30,5703.5155564,N,00952.5595883,E,2,10,0.8,-1.325,M,40.593,M,1.9,0123*6A\r\n
$GPGGA,094523.35,5703.5155784,N,00952.5596358,E,2,10,0.8,-1.331,M,40.593,M,1.9,0123*68\r\n
$GPGGA,094523.40,5703.5155991,N,00952.5596835,E,2,10,0.8,-1.338,M,40.593,M,1.9,0123*69\r\n
$GPGGA,094523.45,5703.5156211,N,00952.5597319,E,2,10,0.8,-1.341,M,40.593,M,1.1,0123*6E\r\n
$GPGGA,094523.50,5703.5156429,N,00952.5597796,E,2,10,0.8,-1.344,M,40.593,M,1.1,0123*61\r\n
$GPGGA,094523.55,5703.5156649,N,00952.5598268,E,2,10,0.8,-1.348,M,40.593,M,1.1,0123*67\r\n
