$GPGGA,135423.15,5703.4313968,N,00952.4315421,E,2,12,0.7,-1.444,M,40.593,M,3.5,0123*6F\r\n
$GPGGA,135423.20,5703.4313843,N,00952.4315288,E,2,12,0.7,-1.443,M,40.593,M,3.5,0123*63\r\n
$GPGGA,135423.25,5703.4313726,N,00952.4315146,E,2,12,0.7,-1.439,M,40.593,M,3.8,0123*6B\r\n
$GPGGA,135423.30,5703.4313611,N,00952.4315012,E,2,12,0.7,-1.437,M,40.593,M,3.8,0123*64\r\n
$GPGGA,135423.35,5703.4313492,N,00952.4314865,E,2,12,0.7,-1.436,M,40.593,M,3.8,0123*60\r\n
$GPGGA,135423.40,5703.4313375,N,00952.4314735,E,2,12,0.7,-1.435,M,40.593,M,3.8,0123*65\r\n
$GPGGA,135423.45,5703.4313261,N,00952.4314598,E,2,12,0.7,-1.435,M,40.593,M,2.3,0123*6B\r\n
$GPGGA,135423.50,5703.4313148,N,00952.4314448,E,2,12,0.7,-1.432,M,40.593,M,2.3,0123*6C\r\n
$GPGGA,135423.55,5703.4313028,N,00952.4314304,E,2,12,0.7,-1.432,M,40.593,M,2.3,0123*61\r\n
$GPGGA,135423.60,5703.4312899,N,00952.4314165,E,2,12,0.7,-1.432,M,40.593,M,2.3,0123*61\r\n
$GPGGA,135423.65,5703.4312780,N,00952.4314022,E,2,12,0.7,-1.431,M,40.593,M,2.6,0123*67\r\n
$GPGGA,135423.70,5703.4312661,N,00952.4313883,E,2,12,0.7,-1.430,M,40.593,M,2.6,0123*68\r\n
$GPGGA,135423.75,5703.4312544,N,00952.4313736,E,2,12,0.7,-1.429,M,40.593,M,2.6,0123*60\r\n
$GPGGA,135423.80,5703.4312427,N,00952.4313616,E,2,12,0.7,-1.429,M,40.593,M,2.6,0123*6D\r\n
$GPGGA,135423.85,5703.4312304,N,00952.4313471,E,2,12,0.7,-1.431,M,40.593,M,2.8,0123*6A\r\n
$GPGGA,135423.90,5703.4312179,N,00952.4313319,E,2,12,0.7,-1.433,M,40.593,M,2.8,0123*6D\r\n
$GPGGA,135423.95,5703.4312061,N,00952.4313170,E,2,12,0.7,-1.433,M,40.593,M,2.8,0123*6D\r\n
$GPGGA,135424.00,5703.4311938,N,00952.4313033,E,2,12,0.7,-1.434,M,40.593,M,2.8,0123*61\r\n
$GPGGA,135424.05,5703.4311827,N,00952.4312892,E,2,12,0.7,-1.434,M,40.593,M,3.0,0123*60\r\n
$GPGGA,135424.10,5703.4311705,N,00952.4312753,E,2,12,0.7,-1.434,M,40.593,M,3.0,0123*69\r\n
$GPGGA,135424.15,5703.4311574,N,00952.4312616,E,2,12,0.7,-1.436,M,40.593,M,3.0,0123*6A\r\n
$GPGGA,135424.20,5703.4311460,N,00952.4312471,E,2,12,0.7,-1.436,M,40.593,M,3.0,0123*6B\r\n
$GPGGA,135424.25,5703.4311334,N,00952.4312323,E,2,12,0.7,-1.435,M,40.593,M,3.3,0123*68\r\n
$GPGGA,135424.30,5703.4311212,N,00952.4312189,E,2,12,0.7,-1.434,M,40.593,M,3.3,0123*6A\r\n
$GPGGA,135424.35,5703.4311090,N,00952.4312038,E,2,12,0.7,-1.433,M,40.593,M,3.3,0123*6B\r\n
$GPGGA,135424.40,5703.4310975,N,00952.4311896,E,2,12,0.7,-1.432,M,40.593,M,3.3,0123*64\r\n
$GPGGA,135424.45,5703.4310852,N,00952.4311764,E,2,12,0.7,-1.436,M,40.593,M,3.0,0123*60\r\n
$GPGGA,135424.50,5703.4310731,N,00952.4311631,E,2,12,0.7,-1.436,M,40.593,M,3.0,0123*6F\r\n
$GPGGA,135424.55,5703.4310612,N,00952.4311493,E,2,12,0.7,-1.437,M,40.593,M,3.0,0123*61\r\n
$GPGGA,135424.60,5703.4310489,N,00952.4311350,E,2,12,0.7,-1.438,M,40.593,M,3.0,0123*60\r\n
$GPGGA,135424.65,5703.4310368,N,00952.4311214,E,2,12,0.7,-1.438,M,40.593,M,3.3,0123*6F\r\n
$GPGGA,135424.70,5703.4310245,N,00952.4311086,E,2,12,0.7,-1.437,M,40.593,M,3.3,0123*63\r\n
$GPGGA,135424.75,5703.4310126,N,00952.4310955,E,2,12,0.7,-1.437,M,40.593,M,3.3,0123*66\r\n
$GPGGA,135424.80,5703.4310012,N,00952.4310823,E,2,12,0.7,-1.438,M,40.593,M,3.3,0123*65\r\n
$GPGGA,135424.85,5703.4309892,N,00952.4310693,E,2,12,0.7,-1.439,M,40.593,M,3.5,0123*6A\r\n
$GPGGA,135424.90,5703.4309772,N,00952.4310556,E,2,12,0.7,-1.439,M,40.593,M,3.5,0123*65\r\n
$GPGGA,135424.95,5703.4309659,N,00952.4310418,E,2,12,0.7,-1.438,M,40.593,M,3.5,0123*62\r\n
$GPGGA,135425.00,5703.4309541,N,00952.4310288,E,2,12,0.7,-1.438,M,40.593,M,3.5,0123*6A\r\n
$GPGGA,135425.05,5703.4309436,N,00952.4310152,E,2,12,0.7,-1.438,M,40.593,M,3.7,0123*68\r\n
$GPGGA,135425.10,5703.4309318,N,00952.4310016,E,2,12,0.7,-1.438,M,40.593,M,3.7,0123*66\r\n
$GPGGA,135425.15,5703.4309207,N,00952.4309874,E,2,12,0.7,-1.443,M,40.593,M,3.7,0123*64\r\n
$GPGGA,135425.20,5703.4309076,N,00952.4309729,E,2,12,0.7,-1.445,M,40.593,M,3.7,0123*67\r\n
$GPGGA,135425.25,5703.4308951,N,00952.4309584,E,2,12,0.7,-1.448,M,40.593,M,3.9,0123*69\r\n
$GPGGA,135425.30,5703.4308830,N,00952.4309435,E,2,12,0.7,-1.448,M,40.593,M,3.9,0123*60\r\n
$GPGGA,135425.35,5703.4308714,N,00952.4309289,E,2,12,0.7,-1.448,M,40.593,M,3.9,0123*6D\r\n
$GPGGA,135425.40,5703.4308601,N,00952.4309126,E,2,12,0.7,-1.448,M,40.593,M,3.9,0123*6C\r\n
$GPGGA,135425.45,5703.4308485,N,00952.4308972,E,2,12,0.7,-1.448,M,40.593,M,1.8,0123*6C\r\n
$GPGGA,135425.50,5703.4308375,N,00952.4308815,E,2,12,0.7,-1.450,M,40.593,M,1.8,0123*69\r\n
$GPGGA,135425.55,5703.4308252,N,00952.4308667,E,2,12,0.7,-1.450,M,40.593,M,1.8,0123*63\r\n
$GPGGA,135425.60,5703.4308140,N,00952.4308505,E,2,12,0.7,-1.450,M,40.593,M,1.8,0123*62\r\n
$GPGGA,135425.65,5703.4308035,N,00952.4308344,E,2,12,0.7,-1.447,M,40.593,M,2.0,0123*6A\r\n
$GPGGA,135425.70,5703.4307926,N,00952.4308172,E,2,12,0.7,-1.445,M,40.593,M,2.0,0123*6F\r\n
$GPGGA,135425.75,5703.4307814,N,00952.4308010,E,2,12,0.7,-1.446,M,40.593,M,2.0,0123*6C\r\n
$GPGGA,135425.80,5703.4307702,N,00952.4307849,E,2,12,0.7,-1.447,M,40.593,M,2.0,0123*64\r\n
$GPGGA,135425.85,5703.4307582,N,00952.4307673,E,2,12,0.7,-1.447,M,40.593,M,2.3,0123*6F\r\n
$GPGGA,135425.90,5703.4307468,N,00952.4307494,E,2,12,0.7,-1.446,M,40.593,M,2.3,0123*64\r\n
$GPGGA,135425.95,5703.4307352,N,00952.4307327,E,2,12,0.7,-1.446,M,40.593,M,2.3,0123*60\r\n
$GPGGA,135426.00,5703.4307234,N,00952.4307165,E,2,12,0.7,-1.445,M,40.593,M,2.3,0123*69\r\n
$GPGGA,135426.05,5703.4307123,N,00952.4306982,E,2,12,0.7,-1.447,M,40.593,M,2.5,0123*6D\r\n
$GPGGA,135426.10,5703.4307009,N,00952.4306813,E,2,12,0.7,-1.447,M,40.593,M,2.5,0123*69\r\n
$GPGGA,135426.15,5703.4306895,N,00952.4306648,E,2,12,0.7,-1.446,M,40.593,M,2.5,0123*61\r\n
$GPGGA,135426.20,5703.4306775,N,00952.4306483,E,2,12,0.7,-1.449,M,40.593,M,2.5,0123*6C\r\n
$GPGGA,135426.25,5703.4306656,N,00952.4306316,E,2,12,0.7,-1.447,M,40.593,M,2.7,0123*6E\r\n
$GPGGA,135426.30,5703.4306536,N,00952.4306156,E,2,12,0.7,-1.446,M,40.593,M,2.7,0123*68\r\n
$GPGGA,135426.35,5703.4306419,N,00952.4305990,E,2,12,0.7,-1.444,M,40.593,M,2.7,0123*62\r\n
$GPGGA,135426.40,5703.4306302,N,00952.4305835,E,2,12,0.7,-1.445,M,40.593,M,2.7,0123*62\r\n
$GPGGA,135426.45,5703.4306181,N,00952.4305661,E,2,12,0.7,-1.442,M,40.593,M,2.9,0123*68\r\n
$GPGGA,135426.50,5703.4306052,N,00952.4305497,E,2,12,0.7,-1.441,M,40.593,M,2.9,0123*6B\r\n
$GPGGA,135426.55,5703.4305931,N,00952.4305319,E,2,12,0.7,-1.440,M,40.593,M,2.9,0123*61\r\n
$GPGGA,135426.60,5703.4305816,N,00952.4305163,E,2,12,0.7,-1.440,M,40.593,M,2.9,0123*6C\r\n
$GPGGA,135426.65,5703.4305698,N,00952.4304997,E,2,12,0.7,-1.440,M,40.593,M,3.1,0123*6A\r\n
$GPGGA,135426.70,5703.4305567,N,00952.4304828,E,2,12,0.7,-1.440,M,40.593,M,3.1,0123*68\r\n
$GPGGA,135426.75,5703.4305429,N,00952.4304657,E,2,12,0.7,-1.443,M,40.593,M,3.1,0123*63\r\n
$GPGGA,135426.80,5703.4305309,N,00952.4304485,E,2,12,0.7,-1.443,M,40.593,M,3.1,0123*61\r\n
$GPGGA,135426.85,5703.4305187,N,00952.4304318,E,2,12,0.7,-1.442,M,40.593,M,3.3,0123*60\r\n
$GPGGA,135426.90,5703.4305063,N,00952.4304165,E,2,12,0.7,-1.442,M,40.593,M,3.3,0123*67\r\n
$GPGGA,135426.95,5703.4304932,N,00952.4303998,E,2,12,0.7,-1.442,M,40.593,M,3.3,0123*63\r\n
$GPGGA,135427.00,5703.4304812,N,00952.4303827,E,2,12,0.7,-1.442,M,40.593,M,3.3,0123*68\r\n
$GPGGA,135427.05,5703.4304699,N,00952.4303657,E,2,12,0.7,-1.442,M,40.593,M,3.5,0123*6F\r\n
$GPGGA,135427.10,5703.4304574,N,00952.4303506,E,2,12,0.7,-1.442,M,40.593,M,3.5,0123*6C\r\n
$GPGGA,135427.15,5703.4304450,N,00952.4303343,E,2,12,0.7,-1.441,M,40.593,M,3.5,0123*6A\r\n
$GPGGA,135427.20,5703.4304323,N,00952.4303186,E,2,12,0.7,-1.443,M,40.593,M,3.5,0123*66\r\n
$GPGGA,135427.25,5703.4304193,N,00952.4303023,E,2,12,0.7,-1.444,M,40.593,M,3.8,0123*6E\r\n
$GPGGA,135427.30,5703.4304071,N,00952.4302848,E,2,12,0.7,-1.446,M,40.593,M,3.8,0123*61\r\n
$GPGGA,135427.35,5703.4303963,N,00952.4302696,E,2,12,0.7,-1.446,M,40.593,M,3.8,0123*64\r\n
$GPGGA,135427.40,5703.4303840,N,00952.4302539,E,2,12,0.7,-1.446,M,40.593,M,3.8,0123*60\r\n
$GPGGA,135427.45,5703.4303725,N,00952.4302369,E,2,12,0.7,-1.444,M,40.593,M,1.6,0123*64\r\n
$GPGGA,135427.50,5703.4303606,N,00952.4302200,E,2,12,0.7,-1.445,M,40.593,M,1.6,0123*6F\r\n
$GPGGA,135427.55,5703.4303495,N,00952.4302024,E,2,12,0.7,-1.445,M,40.593,M,1.6,0123*66\r\n
$GPGGA,135427.60,5703.4303377,N,00952.4301856,E,2,12,0.7,-1.446,M,40.593,M,1.6,0123*66\r\n
$GPGGA,135427.65,5703.4303263,N,00952.4301683,E,2,12,0.7,-1.442,M,40.593,M,2.0,0123*60\r\n
$GPGGA,135427.70,5703.4303161,N,00952.4301514,E,2,12,0.7,-1.441,M,40.593,M,2.0,0123*6B\r\n
$GPGGA,135427.75,5703.4303049,N,00952.4301333,E,2,12,0.7,-1.440,M,40.593,M,2.0,0123*67\r\n
$GPGGA,135427.80,5703.4302935,N,00952.4301152,E,2,12,0.7,-1.440,M,40.593,M,2.0,0123*6B\r\n
$GPGGA,135427.85,5703.4302827,N,00952.4300963,E,2,12,0.7,-1.441,M,40.593,M,2.3,0123*65\r\n
$GPGGA,135427.90,5703.4302722,N,00952.4300788,E,2,12,0.7,-1.441,M,40.593,M,2.3,0123*60\r\n
$GPGGA,135427.95,5703.4302609,N,00952.4300613,E,2,12,0.7,-1.441,M,40.593,M,2.3,0123*6E\r\n
$GPGGA,135428.00,5703.4302505,N,00952.4300424,E,2,12,0.7,-1.440,M,40.593,M,2.3,0123*65\r\n
$GPGGA,135428.05,5703.4302397,N,00952.4300237,E,2,12,0.7,-1.442,M,40.593,M,2.5,0123*6D\r\n
$GPGGA,135428.10,5703.4302284,N,00952.4300050,E,2,12,0.7,-1.444,M,40.593,M,2.5,0123*6F\r\n
$GPGGA,135428.15,5703.4302179,N,00952.4299859,E,2,12,0.7,-1.445,M,40.593,M,2.5,0123*6A\r\n
$GPGGA,135428.20,5703.4302071,N,00952.4299687,E,2,12,0.7,-1.445,M,40.593,M,2.5,0123*68\r\n
$GPGGA,135428.25,5703.4301960,N,00952.4299494,E,2,12,0.7,-1.444,M,40.593,M,2.8,0123*6B\r\n
$GPGGA,135428.30,5703.4301841,N,00952.4299292,E,2,12,0.7,-1.442,M,40.593,M,2.8,0123*6B\r\n
$GPGGA,135428.35,5703.4301720,N,00952.4299107,E,2,12,0.7,-1.442,M,40.593,M,2.8,0123*69\r\n
$GPGGA,135428.40,5703.4301597,N,00952.4298907,E,2,12,0.7,-1.443,M,40.593,M,2.8,0123*6D\r\n
$GPGGA,135428.45,5703.4301478,N,00952.4298707,E,2,12,0.7,-1.444,M,40.593,M,0.6,0123*6D\r\n
$GPGGA,135428.50,5703.4301346,N,00952.4298498,E,2,12,0.7,-1.441,M,40.593,M,0.6,0123*63\r\n
$GPGGA,135428.55,5703.4301219,N,00952.4298277,E,2,12,0.7,-1.440,M,40.593,M,0.6,0123*6B\r\n
$GPGGA,135428.60,5703.4301082,N,00952.4298045,E,2,12,0.7,-1.437,M,40.593,M,0.6,0123*6E\r\n
$GPGGA,135428.65,5703.4300957,N,00952.4297815,E,2,12,0.7,-1.433,M,40.593,M,0.9,0123*62\r\n
$GPGGA,135428.70,5703.4300823,N,00952.4297588,E,2,12,0.7,-1.429,M,40.593,M,0.9,0123*66\r\n
$GPGGA,135428.75,5703.4300682,N,00952.4297354,E,2,12,0.7,-1.427,M,40.593,M,0.9,0123*6F\r\n
$GPGGA,135428.80,5703.4300527,N,00952.4297091,E,2,12,0.7,-1.423,M,40.593,M,0.9,0123*67\r\n
$GPGGA,135428.85,5703.4300370,N,00952.4296805,E,2,12,0.7,-1.418,M,40.593,M,1.1,0123*63\r\n
$GPGGA,135428.90,5703.4300215,N,00952.4296525,E,2,12,0.7,-1.412,M,40.593,M,1.1,0123*60\r\n
$GPGGA,135428.95,5703.4300063,N,00952.4296251,E,2,12,0.7,-1.408,M,40.593,M,1.1,0123*69\r\n
$GPGGA,135429.00,5703.4299896,N,00952.4295956,E,2,12,0.7,-1.406,M,40.593,M,1.1,0123*66\r\n
$GPGGA,135429.05,5703.4299722,N,00952.4295636,E,2,12,0.7,-1.402,M,40.593,M,1.4,0123*6B\r\n
$GPGGA,135429.10,5703.4299547,N,00952.4295314,E,2,12,0.7,-1.398,M,40.593,M,1.4,0123*6F\r\n
$GPGGA,135429.15,5703.4299360,N,00952.4294981,E,2,12,0.7,-1.394,M,40.593,M,1.4,0123*62\r\n
$GPGGA,135429.20,5703.4299165,N,00952.4294632,E,2,12,0.7,-1.392,M,40.593,M,1.4,0123*62\r\n
$GPGGA,135429.25,5703.4298968,N,00952.4294267,E,2,12,0.7,-1.391,M,40.593,M,1.6,0123*66\r\n
$GPGGA,135429.30,5703.4298769,N,00952.4293922,E,2,12,0.7,-1.390,M,40.593,M,1.6,0123*61\r\n
$GPGGA,135429.35,5703.4298561,N,00952.4293564,E,2,12,0.7,-1.388,M,40.593,M,1.6,0123*69\r\n
$GPGGA,135429.40,5703.4298353,N,00952.4293185,E,2,12,0.7,-1.388,M,40.593,M,1.6,0123*67\r\n
$GPGGA,135429.45,5703.4298140,N,00952.4292792,E,2,12,0.7,-1.388,M,40.593,M,1.8,0123*6D\r\n
$GPGGA,135429.50,5703.4297916,N,00952.4292397,E,2,12,0.7,-1.388,M,40.593,M,1.8,0123*6C\r\n
$GPGGA,135429.55,5703.4297684,N,00952.4291977,E,2,12,0.7,-1.390,M,40.593,M,1.8,0123*63\r\n
$GPGGA,135429.60,5703.4297451,N,00952.4291556,E,2,12,0.7,-1.390,M,40.593,M,1.8,0123*60\r\n
$GPGGA,135429.65,5703.4297221,N,00952.4291121,E,2,12,0.7,-1.387,M,40.593,M,2.0,0123*6D\r\n
$GPGGA,135429.70,5703.4296984,N,00952.4290675,E,2,12,0.7,-1.388,M,40.593,M,2.0,0123*64\r\n
$GPGGA,135429.75,5703.4296742,N,00952.4290209,E,2,12,0.7,-1.388,M,40.593,M,2.0,0123*6A\r\n
$GPGGA,135429.80,5703.4296488,N,00952.4289746,E,2,12,0.7,-1.388,M,40.593,M,2.0,0123*63\r\n
$GPGGA,135429.85,5703.4296238,N,00952.4289274,E,2,12,0.7,-1.389,M,40.593,M,2.3,0123*6D\r\n
$GPGGA,135429.90,5703.4295986,N,00952.4288792,E,2,12,0.7,-1.388,M,40.593,M,2.3,0123*69\r\n
$GPGGA,135429.95,5703.4295723,N,00952.4288274,E,2,12,0.7,-1.387,M,40.593,M,2.3,0123*6F\r\n
$GPGGA,135430.00,5703.4295460,N,00952.4287771,E,2,12,0.7,-1.386,M,40.593,M,2.3,0123*61\r\n
$GPGGA,135430.05,5703.4295202,N,00952.4287258,E,2,12,0.7,-1.386,M,40.593,M,2.5,0123*6E\r\n
$GPGGA,135430.10,5703.4294933,N,00952.4286722,E,2,12,0.7,-1.384,M,40.593,M,2.5,0123*69\r\n
$GPGGA,135430.15,5703.4294665,N,00952.4286181,E,2,12,0.7,-1.381,M,40.593,M,2.5,0123*6A\r\n
$GPGGA,135430.20,5703.4294385,N,00952.4285633,E,2,12,0.7,-1.380,M,40.593,M,2.5,0123*6B\r\n
$GPGGA,135430.25,5703.4294104,N,00952.4285080,E,2,12,0.7,-1.382,M,40.593,M,2.7,0123*6B\r\n
$GPGGA,135430.30,5703.4293819,N,00952.4284510,E,2,12,0.7,-1.381,M,40.593,M,2.7,0123*63\r\n
$GPGGA,135430.35,5703.4293538,N,00952.4283931,E,2,12,0.7,-1.380,M,40.593,M,2.7,0123*61\r\n
$GPGGA,135430.40,5703.4293258,N,00952.4283336,E,2,12,0.7,-1.382,M,40.593,M,2.7,0123*6D\r\n
$GPGGA,135430.45,5703.4292971,N,00952.4282727,E,2,12,0.7,-1.380,M,40.593,M,0.9,0123*62\r\n
$GPGGA,135430.50,5703.4292687,N,00952.4282119,E,2,12,0.7,-1.380,M,40.593,M,0.9,0123*6B\r\n
$GPGGA,135430.55,5703.4292395,N,00952.4281499,E,2,12,0.7,-1.380,M,40.593,M,0.9,0123*66\r\n
$GPGGA,135430.60,5703.4292097,N,00952.4280883,E,2,12,0.7,-1.381,M,40.593,M,0.9,0123*66\r\n
$GPGGA,135430.65,5703.4291800,N,00952.4280236,E,2,12,0.7,-1.378,M,40.593,M,1.2,0123*6E\r\n
$GPGGA,135430.70,5703.4291502,N,00952.4279587,E,2,12,0.7,-1.377,M,40.593,M,1.2,0123*61\r\n
$GPGGA,135430.75,5703.4291199,N,00952.4278936,E,2,12,0.7,-1.377,M,40.593,M,1.2,0123*65\r\n
$GPGGA,135430.80,5703.4290897,N,00952.4278279,E,2,12,0.7,-1.377,M,40.593,M,1.2,0123*69\r\n
$GPGGA,135430.85,5703.4290584,N,00952.4277617,E,2,12,0.7,-1.378,M,40.593,M,1.5,0123*68\r\n
$GPGGA,135430.90,5703.4290269,N,00952.4276941,E,2,12,0.7,-1.377,M,40.593,M,1.5,0123*6A\r\n
$GPGGA,135430.95,5703.4289961,N,00952.4276264,E,2,12,0.7,-1.377,M,40.593,M,1.5,0123*68\r\n
$GPGGA,135431.00,5703.4289649,N,00952.4275576,E,2,12,0.7,-1.378,M,40.593,M,1.5,0123*68\r\n
$GPGGA,135431.05,5703.4289326,N,00952.4274878,E,2,12,0.7,-1.381,M,40.593,M,1.8,0123*68\r\n
$GPGGA,135431.10,5703.4289008,N,00952.4274188,E,2,12,0.7,-1.381,M,40.593,M,1.8,0123*65\r\n
$GPGGA,135431.15,5703.4288695,N,00952.4273488,E,2,12,0.7,-1.383,M,40.593,M,1.8,0123*63\r\n
$GPGGA,135431.20,5703.4288376,N,00952.4272765,E,2,12,0.7,-1.382,M,40.593,M,1.8,0123*6D\r\n
$GPGGA,135431.25,5703.4288050,N,00952.4272038,E,2,12,0.7,-1.380,M,40.593,M,2.1,0123*68\r\n
$GPGGA,135431.30,5703.4287725,N,00952.4271315,E,2,12,0.7,-1.380,M,40.593,M,2.1,0123*69\r\n
$GPGGA,135431.35,5703.4287399,N,00952.4270587,E,2,12,0.7,-1.380,M,40.593,M,2.1,0123*63\r\n
$GPGGA,135431.40,5703.4287069,N,00952.4269860,E,2,12,0.7,-1.381,M,40.593,M,2.1,0123*60\r\n
$GPGGA,135431.45,5703.4286736,N,00952.4269126,E,2,12,0.7,-1.380,M,40.593,M,2.3,0123*61\r\n
$GPGGA,135431.50,5703.4286409,N,00952.4268396,E,2,12,0.7,-1.381,M,40.593,M,2.3,0123*63\r\n
$GPGGA,135431.55,5703.4286078,N,00952.4267641,E,2,12,0.7,-1.381,M,40.593,M,2.3,0123*64\r\n
$GPGGA,135431.60,5703.4285743,N,00952.4266886,E,2,12,0.7,-1.381,M,40.593,M,2.3,0123*6A\r\n
$GPGGA,135431.65,5703.4285409,N,00952.4266130,E,2,12,0.7,-1.379,M,40.593,M,2.6,0123*64\r\n
$GPGGA,135431.70,5703.4285070,N,00952.4265379,E,2,12,0.7,-1.379,M,40.593,M,2.6,0123*66\r\n
$GPGGA,135431.75,5703.4284734,N,00952.4264624,E,2,12,0.7,-1.378,M,40.593,M,2.6,0123*68\r\n
$GPGGA,135431.80,5703.4284406,N,00952.4263865,E,2,12,0.7,-1.378,M,40.593,M,2.6,0123*6C\r\n
$GPGGA,135431.85,5703.4284071,N,00952.4263086,E,2,12,0.7,-1.378,M,40.593,M,2.8,0123*66\r\n
$GPGGA,135431.90,5703.4283732,N,00952.4262303,E,2,12,0.7,-1.376,M,40.593,M,2.8,0123*64\r\n
$GPGGA,135431.95,5703.4283393,N,00952.4261529,E,2,12,0.7,-1.376,M,40.593,M,2.8,0123*63\r\n
$GPGGA,135432.00,5703.4283061,N,00952.4260750,E,2,12,0.7,-1.376,M,40.593,M,2.8,0123*6F\r\n
$GPGGA,135432.05,5703.4282714,N,00952.4259960,E,2,12,0.7,-1.377,M,40.593,M,3.0,0123*61\r\n
$GPGGA,135432.10,5703.4282367,N,00952.4259173,E,2,12,0.7,-1.378,M,40.593,M,3.0,0123*60\r\n
$GPGGA,135432.15,5703.4282024,N,00952.4258396,E,2,12,0.7,-1.376,M,40.593,M,3.0,0123*67\r\n
$GPGGA,135432.20,5703.4281691,N,00952.4257597,E,2,12,0.7,-1.372,M,40.593,M,3.0,0123*66\r\n
$GPGGA,135432.25,5703.4281345,N,00952.4256804,E,2,12,0.7,-1.371,M,40.593,M,2.8,0123*63\r\n
$GPGGA,135432.30,5703.4280993,N,00952.4256008,E,2,12,0.7,-1.372,M,40.593,M,2.8,0123*60\r\n
$GPGGA,135432.35,5703.4280652,N,00952.4255210,E,2,12,0.7,-1.373,M,40.593,M,2.8,0123*6E\r\n
$GPGGA,135432.40,5703.4280305,N,00952.4254423,E,2,12,0.7,-1.376,M,40.593,M,2.8,0123*69\r\n
$GPGGA,135432.45,5703.4279960,N,00952.4253636,E,2,12,0.7,-1.378,M,40.593,M,3.0,0123*65\r\n
$GPGGA,135432.50,5703.4279609,N,00952.4252841,E,2,12,0.7,-1.377,M,40.593,M,3.0,0123*61\r\n
$GPGGA,135432.55,5703.4279266,N,00952.4252040,E,2,12,0.7,-1.376,M,40.593,M,3.0,0123*61\r\n
$GPGGA,135432.60,5703.4278921,N,00952.4251249,E,2,12,0.7,-1.376,M,40.593,M,3.0,0123*66\r\n
$GPGGA,135432.65,5703.4278586,N,00952.4250454,E,2,12,0.7,-1.374,M,40.593,M,3.3,0123*68\r\n
$GPGGA,135432.70,5703.4278239,N,00952.4249659,E,2,12,0.7,-1.374,M,40.593,M,3.3,0123*68\r\n
$GPGGA,135432.75,5703.4277896,N,00952.4248869,E,2,12,0.7,-1.373,M,40.593,M,3.3,0123*66\r\n
$GPGGA,135432.80,5703.4277551,N,00952.4248070,E,2,12,0.7,-1.371,M,40.593,M,3.3,0123*68\r\n
$GPGGA,135432.85,5703.4277200,N,00952.4247269,E,2,12,0.7,-1.374,M,40.593,M,3.5,0123*68\r\n
$GPGGA,135432.90,5703.4276854,N,00952.4246476,E,2,12,0.7,-1.374,M,40.593,M,3.5,0123*6F\r\n
$GPGGA,135432.95,5703.4276508,N,00952.4245682,E,2,12,0.7,-1.375,M,40.593,M,3.5,0123*65\r\n
$GPGGA,135433.00,5703.4276161,N,00952.4244872,E,2,12,0.7,-1.375,M,40.593,M,3.5,0123*63\r\n
$GPGGA,135433.05,5703.4275804,N,00952.4244071,E,2,12,0.7,-1.379,M,40.593,M,3.7,0123*6A\r\n
$GPGGA,135433.10,5703.4275451,N,00952.4243276,E,2,12,0.7,-1.378,M,40.593,M,3.7,0123*61\r\n
$GPGGA,135433.15,5703.4275106,N,00952.4242476,E,2,12,0.7,-1.378,M,40.593,M,3.7,0123*64\r\n
$GPGGA,135433.20,5703.4274752,N,00952.4241675,E,2,12,0.7,-1.378,M,40.593,M,3.7,0123*66\r\n
$GPGGA,135433.25,5703.4274405,N,00952.4240876,E,2,12,0.7,-1.383,M,40.593,M,1.6,0123*69\r\n
$GPGGA,135433.30,5703.4274052,N,00952.4240069,E,2,12,0.7,-1.385,M,40.593,M,1.6,0123*6B\r\n
$GPGGA,135433.35,5703.4273693,N,00952.4239277,E,2,12,0.7,-1.385,M,40.593,M,1.6,0123*61\r\n
$GPGGA,135433.40,5703.4273340,N,00952.4238465,E,2,12,0.7,-1.386,M,40.593,M,1.6,0123*6F\r\n
$GPGGA,135433.45,5703.4272986,N,00952.4237649,E,2,12,0.7,-1.385,M,40.593,M,1.8,0123*65\r\n
$GPGGA,135433.50,5703.4272627,N,00952.4236851,E,2,12,0.7,-1.387,M,40.593,M,1.8,0123*61\r\n
$GPGGA,135433.55,5703.4272269,N,00952.4236042,E,2,12,0.7,-1.389,M,40.593,M,1.8,0123*6E\r\n
$GPGGA,135433.60,5703.4271907,N,00952.4235233,E,2,12,0.7,-1.390,M,40.593,M,1.8,0123*67\r\n
$GPGGA,135433.65,5703.4271542,N,00952.4234435,E,2,12,0.7,-1.388,M,40.593,M,2.0,0123*6C\r\n
$GPGGA,135433.70,5703.4271175,N,00952.4233622,E,2,12,0.7,-1.387,M,40.593,M,2.0,0123*64\r\n
$GPGGA,135433.75,5703.4270806,N,00952.4232802,E,2,12,0.7,-1.388,M,40.593,M,2.0,0123*6F\r\n
$GPGGA,135433.80,5703.4270443,N,00952.4231994,E,2,12,0.7,-1.389,M,40.593,M,2.0,0123*64\r\n
$GPGGA,135433.85,5703.4270085,N,00952.4231178,E,2,12,0.7,-1.389,M,40.593,M,2.3,0123*66\r\n
$GPGGA,135433.90,5703.4269714,N,00952.4230364,E,2,12,0.7,-1.388,M,40.593,M,2.3,0123*6A\r\n
$GPGGA,135433.95,5703.4269348,N,00952.4229544,E,2,12,0.7,-1.386,M,40.593,M,2.3,0123*60\r\n
$GPGGA,135434.00,5703.4268980,N,00952.4228721,E,2,12,0.7,-1.386,M,40.593,M,2.3,0123*64\r\n
$GPGGA,135434.05,5703.4268602,N,00952.4227899,E,2,12,0.7,-1.385,M,40.593,M,2.5,0123*62\r\n
$GPGGA,135434.10,5703.4268226,N,00952.4227079,E,2,12,0.7,-1.386,M,40.593,M,2.5,0123*61\r\n
$GPGGA,135434.15,5703.4267857,N,00952.4226250,E,2,12,0.7,-1.383,M,40.593,M,2.5,0123*6A\r\n
$GPGGA,135434.20,5703.4267491,N,00952.4225427,E,2,12,0.7,-1.380,M,40.593,M,2.5,0123*6C\r\n
$GPGGA,135434.25,5703.4267111,N,00952.4224599,E,2,12,0.7,-1.381,M,40.593,M,2.7,0123*62\r\n
$GPGGA,135434.30,5703.4266730,N,00952.4223766,E,2,12,0.7,-1.380,M,40.593,M,2.7,0123*66\r\n
$GPGGA,135434.35,5703.4266352,N,00952.4222939,E,2,12,0.7,-1.378,M,40.593,M,2.7,0123*61\r\n
$GPGGA,135434.40,5703.4265968,N,00952.4222122,E,2,12,0.7,-1.378,M,40.593,M,2.7,0123*61\r\n
$GPGGA,135434.45,5703.4265584,N,00952.4221300,E,2,12,0.7,-1.377,M,40.593,M,2.9,0123*6A\r\n
$GPGGA,135434.50,5703.4265205,N,00952.4220471,E,2,12,0.7,-1.376,M,40.593,M,2.9,0123*61\r\n
$GPGGA,135434.55,5703.4264815,N,00952.4219638,E,2,12,0.7,-1.376,M,40.593,M,2.9,0123*6B\r\n
$GPGGA,135434.60,5703.4264430,N,00952.4218814,E,2,12,0.7,-1.374,M,40.593,M,2.9,0123*65\r\n
$GPGGA,135434.65,5703.4264045,N,00952.4217965,E,2,12,0.7,-1.372,M,40.593,M,3.1,0123*61\r\n
$GPGGA,135434.70,5703.4263659,N,00952.4217127,E,2,12,0.7,-1.369,M,40.593,M,3.1,0123*6D\r\n
$GPGGA,135434.75,5703.4263274,N,00952.4216296,E,2,12,0.7,-1.368,M,40.593,M,3.1,0123*6A\r\n
$GPGGA,135434.80,5703.4262885,N,00952.4215456,E,2,12,0.7,-1.366,M,40.593,M,3.1,0123*62\r\n
$GPGGA,135434.85,5703.4262495,N,00952.4214614,E,2,12,0.7,-1.367,M,40.593,M,3.3,0123*6C\r\n
$GPGGA,135434.90,5703.4262114,N,00952.4213782,E,2,12,0.7,-1.366,M,40.593,M,3.3,0123*6C\r\n
$GPGGA,135434.95,5703.4261740,N,00952.4212934,E,2,12,0.7,-1.365,M,40.593,M,3.3,0123*6C\r\n
$GPGGA,135435.00,5703.4261360,N,00952.4212094,E,2,12,0.7,-1.362,M,40.593,M,3.3,0123*63\r\n
$GPGGA,135435.05,5703.4260981,N,00952.4211235,E,2,12,0.7,-1.360,M,40.593,M,3.5,0123*6C\r\n
$GPGGA,135435.10,5703.4260593,N,00952.4210386,E,2,12,0.7,-1.360,M,40.593,M,3.5,0123*6F\r\n
$GPGGA,135435.15,5703.4260212,N,00952.4209537,E,2,12,0.7,-1.358,M,40.593,M,3.5,0123*6B\r\n
$GPGGA,135435.20,5703.4259823,N,00952.4208700,E,2,12,0.7,-1.356,M,40.593,M,3.5,0123*66\r\n
$GPGGA,135435.25,5703.4259437,N,00952.4207858,E,2,12,0.7,-1.354,M,40.593,M,2.1,0123*60\r\n
$GPGGA,135435.30,5703.4259045,N,00952.4207010,E,2,12,0.7,-1.356,M,40.593,M,2.1,0123*63\r\n
$GPGGA,135435.35,5703.4258655,N,00952.4206152,E,2,12,0.7,-1.356,M,40.593,M,2.1,0123*66\r\n
$GPGGA,135435.40,5703.4258271,N,00952.4205305,E,2,12,0.7,-1.354,M,40.593,M,2.1,0123*67\r\n
$GPGGA,135435.45,5703.4257884,N,00952.4204461,E,2,12,0.7,-1.355,M,40.593,M,2.3,0123*6A\r\n
$GPGGA,135435.50,5703.4257503,N,00952.4203612,E,2,12,0.7,-1.356,M,40.593,M,2.3,0123*6E\r\n
$GPGGA,135435.55,5703.4257120,N,00952.4202751,E,2,12,0.7,-1.359,M,40.593,M,2.3,0123*66\r\n
$GPGGA,135435.60,5703.4256731,N,00952.4201908,E,2,12,0.7,-1.359,M,40.593,M,2.3,0123*66\r\n
$GPGGA,135435.65,5703.4256337,N,00952.4201074,E,2,12,0.7,-1.357,M,40.593,M,2.6,0123*68\r\n
$GPGGA,135435.70,5703.4255940,N,00952.4200233,E,2,12,0.7,-1.358,M,40.593,M,2.6,0123*6A\r\n
$GPGGA,135435.75,5703.4255555,N,00952.4199379,E,2,12,0.7,-1.356,M,40.593,M,2.6,0123*65\r\n
$GPGGA,135435.80,5703.4255169,N,00952.4198535,E,2,12,0.7,-1.355,M,40.593,M,2.6,0123*68\r\n
$GPGGA,135435.85,5703.4254784,N,00952.4197704,E,2,12,0.7,-1.353,M,40.593,M,2.8,0123*6E\r\n
$GPGGA,135435.90,5703.4254398,N,00952.4196851,E,2,12,0.7,-1.352,M,40.593,M,2.8,0123*6C\r\n
$GPGGA,135435.95,5703.4254015,N,00952.4195988,E,2,12,0.7,-1.353,M,40.593,M,2.8,0123*68\r\n
$GPGGA,135436.00,5703.4253627,N,00952.4195142,E,2,12,0.7,-1.353,M,40.593,M,2.8,0123*69\r\n
$GPGGA,135436.05,5703.4253251,N,00952.4194277,E,2,12,0.7,-1.354,M,40.593,M,3.0,0123*63\r\n
$GPGGA,135436.10,5703.4252877,N,00952.4193423,E,2,12,0.7,-1.354,M,40.593,M,3.0,0123*68\r\n
$GPGGA,135436.15,5703.4252496,N,00952.4192560,E,2,12,0.7,-1.354,M,40.593,M,3.0,0123*69\r\n
$GPGGA,135436.20,5703.4252123,N,00952.4191704,E,2,12,0.7,-1.352,M,40.593,M,3.0,0123*61\r\n
$GPGGA,135436.25,5703.4251734,N,00952.4190840,E,2,12,0.7,-1.352,M,40.593,M,2.8,0123*60\r\n
$GPGGA,135436.30,5703.4251350,N,00952.4189973,E,2,12,0.7,-1.352,M,40.593,M,2.8,0123*6B\r\n
$GPGGA,135436.35,5703.4250965,N,00952.4189120,E,2,12,0.7,-1.351,M,40.593,M,2.8,0123*6E\r\n
$GPGGA,135436.40,5703.4250591,N,00952.4188251,E,2,12,0.7,-1.353,M,40.593,M,2.8,0123*6D\r\n
$GPGGA,135436.45,5703.4250211,N,00952.4187393,E,2,12,0.7,-1.355,M,40.593,M,3.0,0123*68\r\n
$GPGGA,135436.50,5703.4249838,N,00952.4186528,E,2,12,0.7,-1.355,M,40.593,M,3.0,0123*62\r\n
$GPGGA,135436.55,5703.4249458,N,00952.4185660,E,2,12,0.7,-1.356,M,40.593,M,3.0,0123*62\r\n
$GPGGA,135436.60,5703.4249078,N,00952.4184784,E,2,12,0.7,-1.358,M,40.593,M,3.0,0123*66\r\n
$GPGGA,135436.65,5703.4248697,N,00952.4183916,E,2,12,0.7,-1.357,M,40.593,M,3.3,0123*6B\r\n
$GPGGA,135436.70,5703.4248320,N,00952.4183055,E,2,12,0.7,-1.359,M,40.593,M,3.3,0123*66\r\n
$GPGGA,135436.75,5703.4247938,N,00952.4182185,E,2,12,0.7,-1.361,M,40.593,M,3.3,0123*69\r\n
$GPGGA,135436.80,5703.4247559,N,00952.4181314,E,2,12,0.7,-1.363,M,40.593,M,3.3,0123*63\r\n
$GPGGA,135436.85,5703.4247186,N,00952.4180450,E,2,12,0.7,-1.363,M,40.593,M,3.5,0123*60\r\n
$GPGGA,135436.90,5703.4246813,N,00952.4179581,E,2,12,0.7,-1.361,M,40.593,M,3.5,0123*69\r\n
$GPGGA,135436.95,5703.4246439,N,00952.4178713,E,2,12,0.7,-1.361,M,40.593,M,3.5,0123*60\r\n
$GPGGA,135437.00,5703.4246067,N,00952.4177839,E,2,12,0.7,-1.361,M,40.593,M,3.5,0123*6A\r\n
$GPGGA,135437.05,5703.4245699,N,00952.4176947,E,2,12,0.7,-1.362,M,40.593,M,3.7,0123*63\r\n
$GPGGA,135437.10,5703.4245336,N,00952.4176058,E,2,12,0.7,-1.362,M,40.593,M,3.7,0123*60\r\n
$GPGGA,135437.15,5703.4244963,N,00952.4175178,E,2,12,0.7,-1.362,M,40.593,M,3.7,0123*6E\r\n
$GPGGA,135437.20,5703.4244589,N,00952.4174297,E,2,12,0.7,-1.363,M,40.593,M,3.7,0123*62\r\n
$GPGGA,135437.25,5703.4244227,N,00952.4173399,E,2,12,0.7,-1.359,M,40.593,M,1.6,0123*66\r\n
$GPGGA,135437.30,5703.4243871,N,00952.4172513,E,2,12,0.7,-1.359,M,40.593,M,1.6,0123*69\r\n
$GPGGA,135437.35,5703.4243503,N,00952.4171621,E,2,12,0.7,-1.358,M,40.593,M,1.6,0123*64\r\n
$GPGGA,135437.40,5703.4243128,N,00952.4170733,E,2,12,0.7,-1.357,M,40.593,M,1.6,0123*67\r\n
$GPGGA,135437.45,5703.4242768,N,00952.4169843,E,2,12,0.7,-1.355,M,40.593,M,1.8,0123*6D\r\n
$GPGGA,135437.50,5703.4242398,N,00952.4168941,E,2,12,0.7,-1.356,M,40.593,M,1.8,0123*63\r\n
$GPGGA,135437.55,5703.4242031,N,00952.4168058,E,2,12,0.7,-1.357,M,40.593,M,1.8,0123*66\r\n
$GPGGA,135437.60,5703.4241666,N,00952.4167164,E,2,12,0.7,-1.357,M,40.593,M,1.8,0123*66\r\n
$GPGGA,135437.65,5703.4241293,N,00952.4166264,E,2,12,0.7,-1.356,M,40.593,M,2.0,0123*65\r\n
$GPGGA,135437.70,5703.4240929,N,00952.4165362,E,2,12,0.7,-1.357,M,40.593,M,2.0,0123*6F\r\n
$GPGGA,135437.75,5703.4240563,N,00952.4164461,E,2,12,0.7,-1.357,M,40.593,M,2.0,0123*6D\r\n
$GPGGA,135437.80,5703.4240197,N,00952.4163573,E,2,12,0.7,-1.358,M,40.593,M,2.0,0123*62\r\n
$GPGGA,135437.85,5703.4239827,N,00952.4162674,E,2,12,0.7,-1.360,M,40.593,M,2.3,0123*66\r\n
$GPGGA,135437.90,5703.4239459,N,00952.4161772,E,2,12,0.7,-1.360,M,40.593,M,2.3,0123*63\r\n
$GPGGA,135437.95,5703.4239091,N,00952.4160867,E,2,12,0.7,-1.359,M,40.593,M,2.3,0123*66\r\n
$GPGGA,135438.00,5703.4238726,N,00952.4159967,E,2,12,0.7,-1.361,M,40.593,M,2.3,0123*6F\r\n
$GPGGA,135438.05,5703.4238366,N,00952.4159045,E,2,12,0.7,-1.362,M,40.593,M,2.5,0123*66\r\n
$GPGGA,135438.10,5703.4238003,N,00952.4158127,E,2,12,0.7,-1.362,M,40.593,M,2.5,0123*66\r\n
$GPGGA,135438.15,5703.4237638,N,00952.4157217,E,2,12,0.7,-1.363,M,40.593,M,2.5,0123*6C\r\n
$GPGGA,135438.20,5703.4237281,N,00952.4156301,E,2,12,0.7,-1.364,M,40.593,M,2.5,0123*6C\r\n
$GPGGA,135438.25,5703.4236917,N,00952.4155388,E,2,12,0.7,-1.368,M,40.593,M,2.7,0123*60\r\n
$GPGGA,135438.30,5703.4236561,N,00952.4154461,E,2,12,0.7,-1.369,M,40.593,M,2.7,0123*69\r\n
$GPGGA,135438.35,5703.4236199,N,00952.4153553,E,2,12,0.7,-1.369,M,40.593,M,2.7,0123*68\r\n
$GPGGA,135438.40,5703.4235836,N,00952.4152639,E,2,12,0.7,-1.370,M,40.593,M,2.7,0123*63\r\n
$GPGGA,135438.45,5703.4235476,N,00952.4151715,E,2,12,0.7,-1.373,M,40.593,M,2.9,0123*6F\r\n
$GPGGA,135438.50,5703.4235117,N,00952.4150788,E,2,12,0.7,-1.371,M,40.593,M,2.9,0123*6E\r\n
$GPGGA,135438.55,5703.4234763,N,00952.4149874,E,2,12,0.7,-1.369,M,40.593,M,2.9,0123*62\r\n
$GPGGA,135438.60,5703.4234405,N,00952.4148966,E,2,12,0.7,-1.369,M,40.593,M,2.9,0123*64\r\n
$GPGGA,135438.65,5703.4234041,N,00952.4148041,E,2,12,0.7,-1.368,M,40.593,M,3.1,0123*61\r\n
$GPGGA,135438.70,5703.4233682,N,00952.4147113,E,2,12,0.7,-1.366,M,40.593,M,3.1,0123*6C\r\n
$GPGGA,135438.75,5703.4233320,N,00952.4146205,E,2,12,0.7,-1.369,M,40.593,M,3.1,0123*6E\r\n
$GPGGA,135438.80,5703.4232957,N,00952.4145299,E,2,12,0.7,-1.368,M,40.593,M,3.1,0123*68\r\n
$GPGGA,135438.85,5703.4232587,N,00952.4144378,E,2,12,0.7,-1.369,M,40.593,M,3.3,0123*60\r\n
$GPGGA,135438.90,5703.4232219,N,00952.4143451,E,2,12,0.7,-1.367,M,40.593,M,3.3,0123*61\r\n
$GPGGA,135438.95,5703.4231859,N,00952.4142524,E,2,12,0.7,-1.368,M,40.593,M,3.3,0123*64\r\n
$GPGGA,135439.00,5703.4231500,N,00952.4141600,E,2,12,0.7,-1.369,M,40.593,M,3.3,0123*6F\r\n
$GPGGA,135439.05,5703.4231142,N,00952.4140661,E,2,12,0.7,-1.368,M,40.593,M,3.5,0123*69\r\n
$GPGGA,135439.10,5703.4230785,N,00952.4139723,E,2,12,0.7,-1.367,M,40.593,M,3.5,0123*67\r\n
$GPGGA,135439.15,5703.4230416,N,00952.4138801,E,2,12,0.7,-1.369,M,40.593,M,3.5,0123*6B\r\n
$GPGGA,135439.20,5703.4230051,N,00952.4137871,E,2,12,0.7,-1.371,M,40.593,M,3.5,0123*6B\r\n
$GPGGA,135439.25,5703.4229696,N,00952.4136949,E,2,12,0.7,-1.367,M,40.593,M,2.1,0123*62\r\n
$GPGGA,135439.30,5703.4229337,N,00952.4136018,E,2,12,0.7,-1.365,M,40.593,M,2.1,0123*67\r\n
$GPGGA,135439.35,5703.4228972,N,00952.4135081,E,2,12,0.7,-1.363,M,40.593,M,2.1,0123*6D\r\n
$GPGGA,135439.40,5703.4228601,N,00952.4134154,E,2,12,0.7,-1.362,M,40.593,M,2.1,0123*6D\r\n
$GPGGA,135439.45,5703.4228234,N,00952.4133231,E,2,12,0.7,-1.362,M,40.593,M,2.3,0123*6F\r\n
$GPGGA,135439.50,5703.4227871,N,00952.4132318,E,2,12,0.7,-1.361,M,40.593,M,2.3,0123*67\r\n
$GPGGA,135439.55,5703.4227501,N,00952.4131412,E,2,12,0.7,-1.361,M,40.593,M,2.3,0123*66\r\n
$GPGGA,135439.60,5703.4227128,N,00952.4130490,E,2,12,0.7,-1.361,M,40.593,M,2.3,0123*64\r\n
$GPGGA,135439.65,5703.4226752,N,00952.4129572,E,2,12,0.7,-1.361,M,40.593,M,2.6,0123*6B\r\n
$GPGGA,135439.70,5703.4226378,N,00952.4128643,E,2,12,0.7,-1.359,M,40.593,M,2.6,0123*68\r\n
$GPGGA,135439.75,5703.4226012,N,00952.4127719,E,2,12,0.7,-1.360,M,40.593,M,2.6,0123*69\r\n
$GPGGA,135439.80,5703.4225646,N,00952.4126791,E,2,12,0.7,-1.358,M,40.593,M,2.6,0123*6D\r\n
$GPGGA,135439.85,5703.4225275,N,00952.4125855,E,2,12,0.7,-1.357,M,40.593,M,2.8,0123*69\r\n
$GPGGA,135439.90,5703.4224905,N,00952.4124937,E,2,12,0.7,-1.358,M,40.593,M,2.8,0123*6B\r\n
$GPGGA,135439.95,5703.4224536,N,00952.4124006,E,2,12,0.7,-1.359,M,40.593,M,2.8,0123*68\r\n
$GPGGA,135440.00,5703.4224166,N,00952.4123073,E,2,12,0.7,-1.356,M,40.593,M,2.8,0123*61\r\n
$GPGGA,135440.05,5703.4223796,N,00952.4122130,E,2,12,0.7,-1.358,M,40.593,M,3.0,0123*6A\r\n
$GPGGA,135440.10,5703.4223431,N,00952.4121197,E,2,12,0.7,-1.356,M,40.593,M,3.0,0123*60\r\n
$GPGGA,135440.15,5703.4223066,N,00952.4120265,E,2,12,0.7,-1.357,M,40.593,M,3.0,0123*6D\r\n
$GPGGA,135440.20,5703.4222697,N,00952.4119342,E,2,12,0.7,-1.358,M,40.593,M,3.0,0123*63\r\n
$GPGGA,135440.25,5703.4222326,N,00952.4118413,E,2,12,0.7,-1.358,M,40.593,M,2.8,0123*62\r\n
$GPGGA,135440.30,5703.4221966,N,00952.4117484,E,2,12,0.7,-1.359,M,40.593,M,2.8,0123*6B\r\n
$GPGGA,135440.35,5703.4221595,N,00952.4116553,E,2,12,0.7,-1.358,M,40.593,M,2.8,0123*65\r\n
$GPGGA,135440.40,5703.4221214,N,00952.4115637,E,2,12,0.7,-1.356,M,40.593,M,2.8,0123*65\r\n
$GPGGA,135440.45,5703.4220836,N,00952.4114719,E,2,12,0.7,-1.356,M,40.593,M,3.0,0123*6E\r\n
$GPGGA,135440.50,5703.4220463,N,00952.4113796,E,2,12,0.7,-1.356,M,40.593,M,3.0,0123*66\r\n
$GPGGA,135440.55,5703.4220092,N,00952.4112870,E,2,12,0.7,-1.355,M,40.593,M,3.0,0123*6C\r\n
$GPGGA,135440.60,5703.4219721,N,00952.4111962,E,2,12,0.7,-1.353,M,40.593,M,3.0,0123*68\r\n
$GPGGA,135440.65,5703.4219363,N,00952.4111026,E,2,12,0.7,-1.351,M,40.593,M,3.3,0123*67\r\n
$GPGGA,135440.70,5703.4218991,N,00952.4110101,E,2,12,0.7,-1.350,M,40.593,M,3.3,0123*61\r\n
$GPGGA,135440.75,5703.4218616,N,00952.4109176,E,2,12,0.7,-1.351,M,40.593,M,3.3,0123*6D\r\n
$GPGGA,135440.80,5703.4218239,N,00952.4108250,E,2,12,0.7,-1.350,M,40.593,M,3.3,0123*69\r\n
$GPGGA,135440.85,5703.4217865,N,00952.4107327,E,2,12,0.7,-1.353,M,40.593,M,3.5,0123*6B\r\n
$GPGGA,135440.90,5703.4217489,N,00952.4106404,E,2,12,0.7,-1.353,M,40.593,M,3.5,0123*66\r\n
$GPGGA,135440.95,5703.4217118,N,00952.4105471,E,2,12,0.7,-1.353,M,40.593,M,3.5,0123*6F\r\n
$GPGGA,135441.00,5703.4216748,N,00952.4104545,E,2,12,0.7,-1.353,M,40.593,M,3.5,0123*67\r\n
$GPGGA,135441.05,5703.4216385,N,00952.4103588,E,2,12,0.7,-1.347,M,40.593,M,3.7,0123*66\r\n
$GPGGA,135441.10,5703.4216013,N,00952.4102655,E,2,12,0.7,-1.347,M,40.593,M,3.7,0123*6C\r\n
$GPGGA,135441.15,5703.4215638,N,00952.4101734,E,2,12,0.7,-1.346,M,40.593,M,3.7,0123*61\r\n
$GPGGA,135441.20,5703.4215267,N,00952.4100809,E,2,12,0.7,-1.347,M,40.593,M,3.7,0123*68\r\n
$GPGGA,135441.25,5703.4214885,N,00952.4099888,E,2,12,0.7,-1.354,M,40.593,M,1.6,0123*63\r\n
$GPGGA,135441.30,5703.4214513,N,00952.4098947,E,2,12,0.7,-1.355,M,40.593,M,1.6,0123*67\r\n
$GPGGA,135441.35,5703.4214143,N,00952.4098018,E,2,12,0.7,-1.354,M,40.593,M,1.6,0123*61\r\n
$GPGGA,135441.40,5703.4213772,N,00952.4097070,E,2,12,0.7,-1.356,M,40.593,M,1.6,0123*63\r\n
$GPGGA,135441.45,5703.4213391,N,00952.4096142,E,2,12,0.7,-1.355,M,40.593,M,1.8,0123*63\r\n
$GPGGA,135441.50,5703.4213006,N,00952.4095221,E,2,12,0.7,-1.357,M,40.593,M,1.8,0123*6D\r\n
$GPGGA,135441.55,5703.4212633,N,00952.4094297,E,2,12,0.7,-1.362,M,40.593,M,1.8,0123*63\r\n
$GPGGA,135441.60,5703.4212256,N,00952.4093366,E,2,12,0.7,-1.363,M,40.593,M,1.8,0123*6B\r\n
$GPGGA,135441.65,5703.4211884,N,00952.4092426,E,2,12,0.7,-1.364,M,40.593,M,2.0,0123*66\r\n
$GPGGA,135441.70,5703.4211514,N,00952.4091482,E,2,12,0.7,-1.365,M,40.593,M,2.0,0123*6A\r\n
$GPGGA,135441.75,5703.4211148,N,00952.4090546,E,2,12,0.7,-1.365,M,40.593,M,2.0,0123*6A\r\n
$GPGGA,135441.80,5703.4210773,N,00952.4089616,E,2,12,0.7,-1.367,M,40.593,M,2.0,0123*63\r\n
$GPGGA,135441.85,5703.4210410,N,00952.4088676,E,2,12,0.7,-1.367,M,40.593,M,2.3,0123*64\r\n
$GPGGA,135441.90,5703.4210050,N,00952.4087738,E,2,12,0.7,-1.367,M,40.593,M,2.3,0123*64\r\n
$GPGGA,135441.95,5703.4209693,N,00952.4086788,E,2,12,0.7,-1.367,M,40.593,M,2.3,0123*6A\r\n
$GPGGA,135442.00,5703.4209332,N,00952.4085826,E,2,12,0.7,-1.366,M,40.593,M,2.3,0123*62\r\n
$GPGGA,135442.05,5703.4208974,N,00952.4084873,E,2,12,0.7,-1.365,M,40.593,M,2.5,0123*6A\r\n
$GPGGA,135442.10,5703.4208608,N,00952.4083939,E,2,12,0.7,-1.364,M,40.593,M,2.5,0123*63\r\n
$GPGGA,135442.15,5703.4208248,N,00952.4083006,E,2,12,0.7,-1.364,M,40.593,M,2.5,0123*63\r\n
$GPGGA,135442.20,5703.4207884,N,00952.4082046,E,2,12,0.7,-1.364,M,40.593,M,2.5,0123*65\r\n
$GPGGA,135442.25,5703.4207525,N,00952.4081088,E,2,12,0.7,-1.363,M,40.593,M,2.7,0123*62\r\n
$GPGGA,135442.30,5703.4207153,N,00952.4080147,E,2,12,0.7,-1.365,M,40.593,M,2.7,0123*66\r\n
$GPGGA,135442.35,5703.4206791,N,00952.4079198,E,2,12,0.7,-1.364,M,40.593,M,2.7,0123*6F\r\n
$GPGGA,135442.40,5703.4206437,N,00952.4078247,E,2,12,0.7,-1.364,M,40.593,M,2.7,0123*62\r\n
$GPGGA,135442.45,5703.4206084,N,00952.4077302,E,2,12,0.7,-1.362,M,40.593,M,2.9,0123*6C\r\n
$GPGGA,135442.50,5703.4205724,N,00952.4076336,E,2,12,0.7,-1.362,M,40.593,M,2.9,0123*60\r\n
$GPGGA,135442.55,5703.4205359,N,00952.4075391,E,2,12,0.7,-1.364,M,40.593,M,2.9,0123*63\r\n
$GPGGA,135442.60,5703.4205010,N,00952.4074440,E,2,12,0.7,-1.366,M,40.593,M,2.9,0123*63\r\n
$GPGGA,135442.65,5703.4204656,N,00952.4073487,E,2,12,0.7,-1.362,M,40.593,M,3.1,0123*62\r\n
$GPGGA,135442.70,5703.4204302,N,00952.4072535,E,2,12,0.7,-1.362,M,40.593,M,3.1,0123*6B\r\n
$GPGGA,135442.75,5703.4203952,N,00952.4071580,E,2,12,0.7,-1.361,M,40.593,M,3.1,0123*68\r\n
$GPGGA,135442.80,5703.4203600,N,00952.4070620,E,2,12,0.7,-1.361,M,40.593,M,3.1,0123*62\r\n
$GPGGA,135442.85,5703.4203249,N,00952.4069675,E,2,12,0.7,-1.361,M,40.593,M,3.3,0123*64\r\n
$GPGGA,135442.90,5703.4202901,N,00952.4068715,E,2,12,0.7,-1.361,M,40.593,M,3.3,0123*60\r\n
$GPGGA,135442.95,5703.4202553,N,00952.4067761,E,2,12,0.7,-1.360,M,40.593,M,3.3,0123*63\r\n
$GPGGA,135443.00,5703.4202201,N,00952.4066807,E,2,12,0.7,-1.360,M,40.593,M,3.3,0123*60\r\n
$GPGGA,135443.05,5703.4201864,N,00952.4065846,E,2,12,0.7,-1.358,M,40.593,M,3.5,0123*64\r\n
$GPGGA,135443.10,5703.4201516,N,00952.4064904,E,2,12,0.7,-1.357,M,40.593,M,3.5,0123*61\r\n
$GPGGA,135443.15,5703.4201169,N,00952.4063950,E,2,12,0.7,-1.357,M,40.593,M,3.5,0123*6E\r\n
$GPGGA,135443.20,5703.4200818,N,00952.4062991,E,2,12,0.7,-1.355,M,40.593,M,3.5,0123*68\r\n
$GPGGA,135443.25,5703.4200475,N,00952.4062041,E,2,12,0.7,-1.352,M,40.593,M,2.1,0123*6C\r\n
$GPGGA,135443.30,5703.4200133,N,00952.4061100,E,2,12,0.7,-1.352,M,40.593,M,2.1,0123*68\r\n
$GPGGA,135443.35,5703.4199784,N,00952.4060160,E,2,12,0.7,-1.353,M,40.593,M,2.1,0123*62\r\n
$GPGGA,135443.40,5703.4199433,N,00952.4059204,E,2,12,0.7,-1.352,M,40.593,M,2.1,0123*65\r\n
$GPGGA,135443.45,5703.4199092,N,00952.4058261,E,2,12,0.7,-1.353,M,40.593,M,2.3,0123*6E\r\n
$GPGGA,135443.50,5703.4198753,N,00952.4057306,E,2,12,0.7,-1.354,M,40.593,M,2.3,0123*69\r\n
$GPGGA,135443.55,5703.4198409,N,00952.4056338,E,2,12,0.7,-1.355,M,40.593,M,2.3,0123*6D\r\n
$GPGGA,135443.60,5703.4198065,N,00952.4055371,E,2,12,0.7,-1.356,M,40.593,M,2.3,0123*68\r\n
$GPGGA,135443.65,5703.4197722,N,00952.4054402,E,2,12,0.7,-1.356,M,40.593,M,2.6,0123*61\r\n
$GPGGA,135443.70,5703.4197384,N,00952.4053443,E,2,12,0.7,-1.358,M,40.593,M,2.6,0123*61\r\n
$GPGGA,135443.75,5703.4197042,N,00952.4052484,E,2,12,0.7,-1.356,M,40.593,M,2.6,0123*69\r\n
$GPGGA,135443.80,5703.4196699,N,00952.4051505,E,2,12,0.7,-1.356,M,40.593,M,2.6,0123*69\r\n
$GPGGA,135443.85,5703.4196364,N,00952.4050528,E,2,12,0.7,-1.360,M,40.593,M,2.8,0123*6E\r\n
$GPGGA,135443.90,5703.4196031,N,00952.4049555,E,2,12,0.7,-1.361,M,40.593,M,2.8,0123*6A\r\n
$GPGGA,135443.95,5703.4195694,N,00952.4048588,E,2,12,0.7,-1.362,M,40.593,M,2.8,0123*67\r\n
$GPGGA,135444.00,5703.4195354,N,00952.4047633,E,2,12,0.7,-1.361,M,40.593,M,2.8,0123*6A\r\n
$GPGGA,135444.05,5703.4195012,N,00952.4046654,E,2,12,0.7,-1.361,M,40.593,M,3.0,0123*67\r\n
$GPGGA,135444.10,5703.4194668,N,00952.4045699,E,2,12,0.7,-1.361,M,40.593,M,3.0,0123*6B\r\n
$GPGGA,135444.15,5703.4194319,N,00952.4044733,E,2,12,0.7,-1.362,M,40.593,M,3.0,0123*6E\r\n
$GPGGA,135444.20,5703.4193984,N,00952.4043775,E,2,12,0.7,-1.361,M,40.593,M,3.0,0123*67\r\n
$GPGGA,135444.25,5703.4193639,N,00952.4042828,E,2,12,0.7,-1.361,M,40.593,M,2.8,0123*64\r\n
$GPGGA,135444.30,5703.4193292,N,00952.4041862,E,2,12,0.7,-1.361,M,40.593,M,2.8,0123*68\r\n
$GPGGA,135444.35,5703.4192948,N,00952.4040898,E,2,12,0.7,-1.362,M,40.593,M,2.8,0123*67\r\n
$GPGGA,135444.40,5703.4192607,N,00952.4039928,E,2,12,0.7,-1.360,M,40.593,M,2.8,0123*67\r\n
$GPGGA,135444.45,5703.4192264,N,00952.4038951,E,2,12,0.7,-1.359,M,40.593,M,3.0,0123*6F\r\n
$GPGGA,135444.50,5703.4191923,N,00952.4037980,E,2,12,0.7,-1.358,M,40.593,M,3.0,0123*62\r\n
$GPGGA,135444.55,5703.4191578,N,00952.4037016,E,2,12,0.7,-1.357,M,40.593,M,3.0,0123*6C\r\n
$GPGGA,135444.60,5703.4191238,N,00952.4036045,E,2,12,0.7,-1.357,M,40.593,M,3.0,0123*6E\r\n
$GPGGA,135444.65,5703.4190889,N,00952.4035067,E,2,12,0.7,-1.357,M,40.593,M,3.3,0123*6A\r\n
$GPGGA,135444.70,5703.4190543,N,00952.4034092,E,2,12,0.7,-1.356,M,40.593,M,3.3,0123*6F\r\n
$GPGGA,135444.75,5703.4190203,N,00952.4033122,E,2,12,0.7,-1.355,M,40.593,M,3.3,0123*67\r\n
$GPGGA,135444.80,5703.4189867,N,00952.4032142,E,2,12,0.7,-1.354,M,40.593,M,3.3,0123*6B\r\n
$GPGGA,135444.85,5703.4189527,N,00952.4031165,E,2,12,0.7,-1.355,M,40.593,M,3.5,0123*66\r\n
$GPGGA,135444.90,5703.4189189,N,00952.4030199,E,2,12,0.7,-1.354,M,40.593,M,3.5,0123*61\r\n
$GPGGA,135444.95,5703.4188858,N,00952.4029235,E,2,12,0.7,-1.351,M,40.593,M,3.5,0123*68\r\n
$GPGGA,135445.00,5703.4188525,N,00952.4028258,E,2,12,0.7,-1.349,M,40.593,M,3.5,0123*61\r\n
$GPGGA,135445.05,5703.4188191,N,00952.4027280,E,2,12,0.7,-1.350,M,40.593,M,3.7,0123*6F\r\n
$GPGGA,135445.10,5703.4187848,N,00952.4026321,E,2,12,0.7,-1.349,M,40.593,M,3.7,0123*6A\r\n
$GPGGA,135445.15,5703.4187504,N,00952.4025353,E,2,12,0.7,-1.349,M,40.593,M,3.7,0123*6C\r\n
$GPGGA,135445.20,5703.4187156,N,00952.4024384,E,2,12,0.7,-1.350,M,40.593,M,3.7,0123*6A\r\n
$GPGGA,135445.25,5703.4186815,N,00952.4023424,E,2,12,0.7,-1.349,M,40.593,M,1.6,0123*61\r\n
$GPGGA,135445.30,5703.4186461,N,00952.4022454,E,2,12,0.7,-1.349,M,40.593,M,1.6,0123*6C\r\n
$GPGGA,135445.35,5703.4186100,N,00952.4021486,E,2,12,0.7,-1.351,M,40.593,M,1.6,0123*6E\r\n
$GPGGA,135445.40,5703.4185741,N,00952.4020522,E,2,12,0.7,-1.353,M,40.593,M,1.6,0123*60\r\n
$GPGGA,135445.45,5703.4185383,N,00952.4019565,E,2,12,0.7,-1.356,M,40.593,M,1.8,0123*6D\r\n
$GPGGA,135445.50,5703.4185024,N,00952.4018611,E,2,12,0.7,-1.356,M,40.593,M,1.8,0123*66\r\n
$GPGGA,135445.55,5703.4184671,N,00952.4017653,E,2,12,0.7,-1.356,M,40.593,M,1.8,0123*6D\r\n
$GPGGA,135445.60,5703.4184319,N,00952.4016701,E,2,12,0.7,-1.355,M,40.593,M,1.8,0123*64\r\n
$GPGGA,135445.65,5703.4183962,N,00952.4015748,E,2,12,0.7,-1.355,M,40.593,M,2.0,0123*65\r\n
$GPGGA,135445.70,5703.4183601,N,00952.4014796,E,2,12,0.7,-1.358,M,40.593,M,2.0,0123*64\r\n
$GPGGA,135445.75,5703.4183249,N,00952.4013860,E,2,12,0.7,-1.358,M,40.593,M,2.0,0123*68\r\n
$GPGGA,135445.80,5703.4182890,N,00952.4012919,E,2,12,0.7,-1.357,M,40.593,M,2.0,0123*6C\r\n
$GPGGA,135445.85,5703.4182532,N,00952.4011967,E,2,12,0.7,-1.357,M,40.593,M,2.3,0123*65\r\n
$GPGGA,135445.90,5703.4182175,N,00952.4011030,E,2,12,0.7,-1.355,M,40.593,M,2.3,0123*6F\r\n
$GPGGA,135445.95,5703.4181818,N,00952.4010099,E,2,12,0.7,-1.354,M,40.593,M,2.3,0123*68\r\n
$GPGGA,135446.00,5703.4181460,N,00952.4009168,E,2,12,0.7,-1.353,M,40.593,M,2.3,0123*64\r\n
$GPGGA,135446.05,5703.4181116,N,00952.4008202,E,2,12,0.7,-1.350,M,40.593,M,2.5,0123*6E\r\n
$GPGGA,135446.10,5703.4180762,N,00952.4007252,E,2,12,0.7,-1.348,M,40.593,M,2.5,0123*6D\r\n
$GPGGA,135446.15,5703.4180406,N,00952.4006297,E,2,12,0.7,-1.348,M,40.593,M,2.5,0123*61\r\n
$GPGGA,135446.20,5703.4180053,N,00952.4005356,E,2,12,0.7,-1.346,M,40.593,M,2.5,0123*62\r\n
$GPGGA,135446.25,5703.4179701,N,00952.4004426,E,2,12,0.7,-1.346,M,40.593,M,2.7,0123*62\r\n
$GPGGA,135446.30,5703.4179335,N,00952.4003504,E,2,12,0.7,-1.347,M,40.593,M,2.7,0123*62\r\n
$GPGGA,135446.35,5703.4178970,N,00952.4002562,E,2,12,0.7,-1.347,M,40.593,M,2.7,0123*6C\r\n
$GPGGA,135446.40,5703.4178608,N,00952.4001633,E,2,12,0.7,-1.346,M,40.593,M,2.7,0123*6B\r\n
$GPGGA,135446.45,5703.4178254,N,00952.4000704,E,2,12,0.7,-1.347,M,40.593,M,2.9,0123*68\r\n
$GPGGA,135446.50,5703.4177895,N,00952.3999786,E,2,12,0.7,-1.349,M,40.593,M,2.9,0123*6E\r\n
$GPGGA,135446.55,5703.4177526,N,00952.3998870,E,2,12,0.7,-1.349,M,40.593,M,2.9,0123*69\r\n
$GPGGA,135446.60,5703.4177159,N,00952.3997964,E,2,12,0.7,-1.348,M,40.593,M,2.9,0123*69\r\n
$GPGGA,135446.65,5703.4176799,N,00952.3997064,E,2,12,0.7,-1.348,M,40.593,M,3.1,0123*67\r\n
$GPGGA,135446.70,5703.4176435,N,00952.3996155,E,2,12,0.7,-1.349,M,40.593,M,3.1,0123*65\r\n
$GPGGA,135446.75,5703.4176074,N,00952.3995243,E,2,12,0.7,-1.348,M,40.593,M,3.1,0123*67\r\n
$GPGGA,135446.80,5703.4175718,N,00952.3994324,E,2,12,0.7,-1.349,M,40.593,M,3.1,0123*63\r\n
$GPGGA,135446.85,5703.4175369,N,00952.3993418,E,2,12,0.7,-1.346,M,40.593,M,3.3,0123*66\r\n
$GPGGA,135446.90,5703.4175014,N,00952.3992513,E,2,12,0.7,-1.345,M,40.593,M,3.3,0123*63\r\n
$GPGGA,135446.95,5703.4174659,N,00952.3991613,E,2,12,0.7,-1.346,M,40.593,M,3.3,0123*6B\r\n
$GPGGA,135447.00,5703.4174297,N,00952.3990688,E,2,12,0.7,-1.346,M,40.593,M,3.3,0123*63\r\n
$GPGGA,135447.05,5703.4173937,N,00952.3989765,E,2,12,0.7,-1.348,M,40.593,M,3.5,0123*62\r\n
$GPGGA,135447.10,5703.4173587,N,00952.3988843,E,2,12,0.7,-1.348,M,40.593,M,3.5,0123*6B\r\n
$GPGGA,135447.15,5703.4173236,N,00952.3987925,E,2,12,0.7,-1.349,M,40.593,M,3.5,0123*6C\r\n
$GPGGA,135447.20,5703.4172892,N,00952.3986996,E,2,12,0.7,-1.350,M,40.593,M,3.5,0123*6E\r\n
$GPGGA,135447.25,5703.4172536,N,00952.3986072,E,2,12,0.7,-1.348,M,40.593,M,2.1,0123*67\r\n
$GPGGA,135447.30,5703.4172179,N,00952.3985150,E,2,12,0.7,-1.349,M,40.593,M,2.1,0123*6F\r\n
$GPGGA,135447.35,5703.4171829,N,00952.3984224,E,2,12,0.7,-1.351,M,40.593,M,2.1,0123*6D\r\n
$GPGGA,135447.40,5703.4171474,N,00952.3983304,E,2,12,0.7,-1.353,M,40.593,M,2.1,0123*6D\r\n
$GPGGA,135447.45,5703.4171120,N,00952.3982389,E,2,12,0.7,-1.355,M,40.593,M,2.3,0123*6C\r\n
$GPGGA,135447.50,5703.4170759,N,00952.3981470,E,2,12,0.7,-1.355,M,40.593,M,2.3,0123*63\r\n
$GPGGA,135447.55,5703.4170405,N,00952.3980539,E,2,12,0.7,-1.357,M,40.593,M,2.3,0123*63\r\n
$GPGGA,135447.60,5703.4170055,N,00952.3979613,E,2,12,0.7,-1.358,M,40.593,M,2.3,0123*66\r\n
$GPGGA,135447.65,5703.4169698,N,00952.3978686,E,2,12,0.7,-1.358,M,40.593,M,2.6,0123*64\r\n
$GPGGA,135447.70,5703.4169348,N,00952.3977758,E,2,12,0.7,-1.360,M,40.593,M,2.6,0123*6E\r\n
$GPGGA,135447.75,5703.4168999,N,00952.3976817,E,2,12,0.7,-1.360,M,40.593,M,2.6,0123*69\r\n
$GPGGA,135447.80,5703.4168642,N,00952.3975878,E,2,12,0.7,-1.362,M,40.593,M,2.6,0123*62\r\n
$GPGGA,135447.85,5703.4168288,N,00952.3974939,E,2,12,0.7,-1.366,M,40.593,M,2.8,0123*6A\r\n
$GPGGA,135447.90,5703.4167944,N,00952.3973995,E,2,12,0.7,-1.366,M,40.593,M,2.8,0123*6B\r\n
$GPGGA,135447.95,5703.4167596,N,00952.3973047,E,2,12,0.7,-1.367,M,40.593,M,2.8,0123*6A\r\n
$GPGGA,135448.00,5703.4167249,N,00952.3972108,E,2,12,0.7,-1.368,M,40.593,M,2.8,0123*68\r\n
$GPGGA,135448.05,5703.4166899,N,00952.3971144,E,2,12,0.7,-1.367,M,40.593,M,3.0,0123*66\r\n
$GPGGA,135448.10,5703.4166545,N,00952.3970191,E,2,12,0.7,-1.367,M,40.593,M,3.0,0123*67\r\n
$GPGGA,135448.15,5703.4166197,N,00952.3969230,E,2,12,0.7,-1.366,M,40.593,M,3.0,0123*68\r\n
$GPGGA,135448.20,5703.4165849,N,00952.3968283,E,2,12,0.7,-1.367,M,40.593,M,3.0,0123*6F\r\n
$GPGGA,135448.25,5703.4165497,N,00952.3967342,E,2,12,0.7,-1.370,M,40.593,M,2.8,0123*69\r\n
$GPGGA,135448.30,5703.4165147,N,00952.3966387,E,2,12,0.7,-1.368,M,40.593,M,2.8,0123*64\r\n
$GPGGA,135448.35,5703.4164797,N,00952.3965424,E,2,12,0.7,-1.368,M,40.593,M,2.8,0123*66\r\n
$GPGGA,135448.40,5703.4164462,N,00952.3964452,E,2,12,0.7,-1.366,M,40.593,M,2.8,0123*63\r\n
$GPGGA,135448.45,5703.4164115,N,00952.3963490,E,2,12,0.7,-1.363,M,40.593,M,3.0,0123*66\r\n
$GPGGA,135448.50,5703.4163775,N,00952.3962520,E,2,12,0.7,-1.362,M,40.593,M,3.0,0123*6F\r\n
$GPGGA,135448.55,5703.4163437,N,00952.3961561,E,2,12,0.7,-1.361,M,40.593,M,3.0,0123*6A\r\n
$GPGGA,135448.60,5703.4163087,N,00952.3960601,E,2,12,0.7,-1.361,M,40.593,M,3.0,0123*67\r\n
$GPGGA,135448.65,5703.4162735,N,00952.3959631,E,2,12,0.7,-1.362,M,40.593,M,3.3,0123*64\r\n
$GPGGA,135448.70,5703.4162388,N,00952.3958650,E,2,12,0.7,-1.361,M,40.593,M,3.3,0123*67\r\n
$GPGGA,135448.75,5703.4162048,N,00952.3957657,E,2,12,0.7,-1.362,M,40.593,M,3.3,0123*66\r\n
$GPGGA,135448.80,5703.4161705,N,00952.3956680,E,2,12,0.7,-1.363,M,40.593,M,3.3,0123*6B\r\n
$GPGGA,135448.85,5703.4161371,N,00952.3955691,E,2,12,0.7,-1.358,M,40.593,M,3.5,0123*64\r\n
$GPGGA,135448.90,5703.4161032,N,00952.3954719,E,2,12,0.7,-1.355,M,40.593,M,3.5,0123*69\r\n
$GPGGA,135448.95,5703.4160697,N,00952.3953739,E,2,12,0.7,-1.353,M,40.593,M,3.5,0123*67\r\n
$GPGGA,135449.00,5703.4160361,N,00952.3952731,E,2,12,0.7,-1.353,M,40.593,M,3.5,0123*6F\r\n
$GPGGA,135449.05,5703.4160021,N,00952.3951732,E,2,12,0.7,-1.355,M,40.593,M,3.7,0123*69\r\n
$GPGGA,135449.10,5703.4159673,N,00952.3950753,E,2,12,0.7,-1.355,M,40.593,M,3.7,0123*60\r\n
$GPGGA,135449.15,5703.4159334,N,00952.3949766,E,2,12,0.7,-1.353,M,40.593,M,3.7,0123*6B\r\n
$GPGGA,135449.20,5703.4159004,N,00952.3948779,E,2,12,0.7,-1.351,M,40.593,M,3.7,0123*60\r\n
$GPGGA,135449.25,5703.4158678,N,00952.3947793,E,2,12,0.7,-1.346,M,40.593,M,1.6,0123*67\r\n
$GPGGA,135449.30,5703.4158350,N,00952.3946803,E,2,12,0.7,-1.344,M,40.593,M,1.6,0123*69\r\n
$GPGGA,135449.35,5703.4158012,N,00952.3945814,E,2,12,0.7,-1.341,M,40.593,M,1.6,0123*69\r\n
$GPGGA,135449.40,5703.4157674,N,00952.3944826,E,2,12,0.7,-1.340,M,40.593,M,1.6,0123*63\r\n
$GPGGA,135449.45,5703.4157350,N,00952.3943834,E,2,12,0.7,-1.341,M,40.593,M,1.8,0123*6E\r\n
$GPGGA,135449.50,5703.4157032,N,00952.3942838,E,2,12,0.7,-1.339,M,40.593,M,1.8,0123*6F\r\n
$GPGGA,135449.55,5703.4156707,N,00952.3941827,E,2,12,0.7,-1.337,M,40.593,M,1.8,0123*69\r\n
$GPGGA,135449.60,5703.4156383,N,00952.3940829,E,2,12,0.7,-1.335,M,40.593,M,1.8,0123*6A\r\n
$GPGGA,135449.65,5703.4156065,N,00952.3939831,E,2,12,0.7,-1.332,M,40.593,M,2.0,0123*6F\r\n
$GPGGA,135449.70,5703.4155744,N,00952.3938824,E,2,12,0.7,-1.330,M,40.593,M,2.0,0123*6B\r\n
$GPGGA,135449.75,5703.4155412,N,00952.3937827,E,2,12,0.7,-1.330,M,40.593,M,2.0,0123*62\r\n
$GPGGA,135449.80,5703.4155092,N,00952.3936838,E,2,12,0.7,-1.330,M,40.593,M,2.0,0123*6B\r\n
$GPGGA,135449.85,5703.4154769,N,00952.3935849,E,2,12,0.7,-1.333,M,40.593,M,2.3,0123*69\r\n
$GPGGA,135449.90,5703.4154439,N,00952.3934848,E,2,12,0.7,-1.335,M,40.593,M,2.3,0123*6D\r\n
$GPGGA,135449.95,5703.4154108,N,00952.3933847,E,2,12,0.7,-1.336,M,40.593,M,2.3,0123*64\r\n
$GPGGA,135450.00,5703.4153784,N,00952.3932846,E,2,12,0.7,-1.336,M,40.593,M,2.3,0123*65\r\n
$GPGGA,135450.05,5703.4153458,N,00952.3931843,E,2,12,0.7,-1.339,M,40.593,M,2.5,0123*6D\r\n
$GPGGA,135450.10,5703.4153136,N,00952.3930870,E,2,12,0.7,-1.341,M,40.593,M,2.5,0123*6A\r\n
$GPGGA,135450.15,5703.4152810,N,00952.3929883,E,2,12,0.7,-1.341,M,40.593,M,2.5,0123*67\r\n
$GPGGA,135450.20,5703.4152483,N,00952.3928891,E,2,12,0.7,-1.341,M,40.593,M,2.5,0123*65\r\n
$GPGGA,135450.25,5703.4152158,N,00952.3927888,E,2,12,0.7,-1.342,M,40.593,M,2.7,0123*65\r\n
$GPGGA,135450.30,5703.4151836,N,00952.3926894,E,2,12,0.7,-1.344,M,40.593,M,2.7,0123*69\r\n
$GPGGA,135450.35,5703.4151519,N,00952.3925914,E,2,12,0.7,-1.344,M,40.593,M,2.7,0123*66\r\n
$GPGGA,135450.40,5703.4151194,N,00952.3924937,E,2,12,0.7,-1.345,M,40.593,M,2.7,0123*64\r\n
$GPGGA,135450.45,5703.4150876,N,00952.3923957,E,2,12,0.7,-1.345,M,40.593,M,2.9,0123*6A\r\n
$GPGGA,135450.50,5703.4150557,N,00952.3922976,E,2,12,0.7,-1.342,M,40.593,M,2.9,0123*65\r\n
$GPGGA,135450.55,5703.4150247,N,00952.3921986,E,2,12,0.7,-1.344,M,40.593,M,2.9,0123*6C\r\n
$GPGGA,135450.60,5703.4149942,N,00952.3920995,E,2,12,0.7,-1.346,M,40.593,M,2.9,0123*6D\r\n
$GPGGA,135450.65,5703.4149623,N,00952.3920003,E,2,12,0.7,-1.345,M,40.593,M,3.1,0123*6C\r\n
$GPGGA,135450.70,5703.4149312,N,00952.3919005,E,2,12,0.7,-1.344,M,40.593,M,3.1,0123*62\r\n
$GPGGA,135450.75,5703.4149013,N,00952.3917990,E,2,12,0.7,-1.344,M,40.593,M,3.1,0123*6E\r\n
$GPGGA,135450.80,5703.4148708,N,00952.3916994,E,2,12,0.7,-1.345,M,40.593,M,3.1,0123*6C\r\n
$GPGGA,135450.85,5703.4148399,N,00952.3915992,E,2,12,0.7,-1.346,M,40.593,M,3.3,0123*61\r\n
$GPGGA,135450.90,5703.4148091,N,00952.3914992,E,2,12,0.7,-1.346,M,40.593,M,3.3,0123*6F\r\n
$GPGGA,135450.95,5703.4147780,N,00952.3913983,E,2,12,0.7,-1.348,M,40.593,M,3.3,0123*6B\r\n
$GPGGA,135451.00,5703.4147457,N,00952.3912997,E,2,12,0.7,-1.350,M,40.593,M,3.3,0123*62\r\n
$GPGGA,135451.05,5703.4147134,N,00952.3911983,E,2,12,0.7,-1.349,M,40.593,M,3.5,0123*6F\r\n
$GPGGA,135451.10,5703.4146811,N,00952.3910987,E,2,12,0.7,-1.350,M,40.593,M,3.5,0123*69\r\n
$GPGGA,135451.15,5703.4146490,N,00952.3910008,E,2,12,0.7,-1.349,M,40.593,M,3.5,0123*6F\r\n
$GPGGA,135451.20,5703.4146169,N,00952.3909016,E,2,12,0.7,-1.348,M,40.593,M,3.5,0123*6C\r\n
$GPGGA,135451.25,5703.4145842,N,00952.3908039,E,2,12,0.7,-1.350,M,40.593,M,2.1,0123*6A\r\n
$GPGGA,135451.30,5703.4145511,N,00952.3907055,E,2,12,0.7,-1.351,M,40.593,M,2.1,0123*61\r\n
$GPGGA,135451.35,5703.4145190,N,00952.3906071,E,2,12,0.7,-1.352,M,40.593,M,2.1,0123*6D\r\n
$GPGGA,135451.40,5703.4144863,N,00952.3905082,E,2,12,0.7,-1.353,M,40.593,M,2.1,0123*65\r\n
$GPGGA,135451.45,5703.4144544,N,00952.3904089,E,2,12,0.7,-1.350,M,40.593,M,2.3,0123*63\r\n
$GPGGA,135451.50,5703.4144224,N,00952.3903106,E,2,12,0.7,-1.349,M,40.593,M,2.3,0123*6F\r\n
$GPGGA,135451.55,5703.4143900,N,00952.3902116,E,2,12,0.7,-1.348,M,40.593,M,2.3,0123*61\r\n
$GPGGA,135451.60,5703.4143577,N,00952.3901137,E,2,12,0.7,-1.349,M,40.593,M,2.3,0123*6A\r\n
$GPGGA,135451.65,5703.4143258,N,00952.3900162,E,2,12,0.7,-1.346,M,40.593,M,2.6,0123*6E\r\n
$GPGGA,135451.70,5703.4142935,N,00952.3899172,E,2,12,0.7,-1.345,M,40.593,M,2.6,0123*68\r\n
$GPGGA,135451.75,5703.4142621,N,00952.3898180,E,2,12,0.7,-1.343,M,40.593,M,2.6,0123*6D\r\n
$GPGGA,135451.80,5703.4142302,N,00952.3897201,E,2,12,0.7,-1.340,M,40.593,M,2.6,0123*65\r\n
$GPGGA,135451.85,5703.4141976,N,00952.3896215,E,2,12,0.7,-1.339,M,40.593,M,2.8,0123*6E\r\n
$GPGGA,135451.90,5703.4141664,N,00952.3895225,E,2,12,0.7,-1.338,M,40.593,M,2.8,0123*67\r\n
$GPGGA,135451.95,5703.4141346,N,00952.3894249,E,2,12,0.7,-1.338,M,40.593,M,2.8,0123*6C\r\n
$GPGGA,135452.00,5703.4141017,N,00952.3893264,E,2,12,0.7,-1.339,M,40.593,M,2.8,0123*6D\r\n
$GPGGA,135452.05,5703.4140692,N,00952.3892277,E,2,12,0.7,-1.338,M,40.593,M,3.0,0123*69\r\n
$GPGGA,135452.10,5703.4140375,N,00952.3891310,E,2,12,0.7,-1.334,M,40.593,M,3.0,0123*6E\r\n
$GPGGA,135452.15,5703.4140051,N,00952.3890323,E,2,12,0.7,-1.334,M,40.593,M,3.0,0123*6F\r\n
$GPGGA,135452.20,5703.4139726,N,00952.3889340,E,2,12,0.7,-1.334,M,40.593,M,3.0,0123*6D\r\n
$GPGGA,135452.25,5703.4139394,N,00952.3888367,E,2,12,0.7,-1.334,M,40.593,M,2.8,0123*68\r\n
$GPGGA,135452.30,5703.4139060,N,00952.3887390,E,2,12,0.7,-1.334,M,40.593,M,2.8,0123*63\r\n
$GPGGA,135452.35,5703.4138731,N,00952.3886423,E,2,12,0.7,-1.334,M,40.593,M,2.8,0123*6A\r\n
$GPGGA,135452.40,5703.4138398,N,00952.3885459,E,2,12,0.7,-1.336,M,40.593,M,2.8,0123*63\r\n
$GPGGA,135452.45,5703.4138052,N,00952.3884493,E,2,12,0.7,-1.340,M,40.593,M,3.0,0123*6C\r\n
$GPGGA,135452.50,5703.4137711,N,00952.3883522,E,2,12,0.7,-1.341,M,40.593,M,3.0,0123*6A\r\n
$GPGGA,135452.55,5703.4137383,N,00952.3882540,E,2,12,0.7,-1.340,M,40.593,M,3.0,0123*64\r\n
$GPGGA,135452.60,5703.4137051,N,00952.3881575,E,2,12,0.7,-1.341,M,40.593,M,3.0,0123*6A\r\n
$GPGGA,135452.65,5703.4136712,N,00952.3880622,E,2,12,0.7,-1.343,M,40.593,M,3.3,0123*6F\r\n
$GPGGA,135452.70,5703.4136368,N,00952.3879668,E,2,12,0.7,-1.344,M,40.593,M,3.3,0123*6D\r\n
$GPGGA,135452.75,5703.4136032,N,00952.3878707,E,2,12,0.7,-1.346,M,40.593,M,3.3,0123*6F\r\n
$GPGGA,135452.80,5703.4135699,N,00952.3877740,E,2,12,0.7,-1.346,M,40.593,M,3.3,0123*6D\r\n
$GPGGA,135452.85,5703.4135365,N,00952.3876761,E,2,12,0.7,-1.344,M,40.593,M,3.5,0123*68\r\n
$GPGGA,135452.90,5703.4135035,N,00952.3875779,E,2,12,0.7,-1.341,M,40.593,M,3.5,0123*65\r\n
$GPGGA,135452.95,5703.4134707,N,00952.3874806,E,2,12,0.7,-1.341,M,40.593,M,3.5,0123*61\r\n
$GPGGA,135453.00,5703.4134374,N,00952.3873838,E,2,12,0.7,-1.340,M,40.593,M,3.5,0123*67\r\n
$GPGGA,135453.05,5703.4134038,N,00952.3872855,E,2,12,0.7,-1.342,M,40.593,M,3.7,0123*63\r\n
$GPGGA,135453.10,5703.4133709,N,00952.3871888,E,2,12,0.7,-1.340,M,40.593,M,3.7,0123*64\r\n
$GPGGA,135453.15,5703.4133376,N,00952.3870919,E,2,12,0.7,-1.338,M,40.593,M,3.7,0123*6A\r\n
$GPGGA,135453.20,5703.4133036,N,00952.3869948,E,2,12,0.7,-1.337,M,40.593,M,3.7,0123*68\r\n
$GPGGA,135453.25,5703.4132690,N,00952.3868992,E,2,12,0.7,-1.336,M,40.593,M,1.6,0123*62\r\n
$GPGGA,135453.30,5703.4132345,N,00952.3868023,E,2,12,0.7,-1.336,M,40.593,M,1.6,0123*68\r\n
$GPGGA,135453.35,5703.4132009,N,00952.3867051,E,2,12,0.7,-1.335,M,40.593,M,1.6,0123*6F\r\n
$GPGGA,135453.40,5703.4131674,N,00952.3866085,E,2,12,0.7,-1.335,M,40.593,M,1.6,0123*6A\r\n
$GPGGA,135453.45,5703.4131337,N,00952.3865126,E,2,12,0.7,-1.334,M,40.593,M,1.8,0123*69\r\n
$GPGGA,135453.50,5703.4130990,N,00952.3864164,E,2,12,0.7,-1.334,M,40.593,M,1.8,0123*6C\r\n
$GPGGA,135453.55,5703.4130636,N,00952.3863199,E,2,12,0.7,-1.335,M,40.593,M,1.8,0123*6E\r\n
$GPGGA,135453.60,5703.4130283,N,00952.3862234,E,2,12,0.7,-1.337,M,40.593,M,1.8,0123*65\r\n
$GPGGA,135453.65,5703.4129947,N,00952.3861269,E,2,12,0.7,-1.337,M,40.593,M,2.0,0123*6B\r\n
$GPGGA,135453.70,5703.4129611,N,00952.3860299,E,2,12,0.7,-1.336,M,40.593,M,2.0,0123*6C\r\n
$GPGGA,135453.75,5703.4129258,N,00952.3859328,E,2,12,0.7,-1.337,M,40.593,M,2.0,0123*60\r\n
$GPGGA,135453.80,5703.4128910,N,00952.3858354,E,2,12,0.7,-1.338,M,40.593,M,2.0,0123*69\r\n
$GPGGA,135453.85,5703.4128572,N,00952.3857389,E,2,12,0.7,-1.338,M,40.593,M,2.3,0123*68\r\n
$GPGGA,135453.90,5703.4128237,N,00952.3856414,E,2,12,0.7,-1.336,M,40.593,M,2.3,0123*66\r\n
$GPGGA,135453.95,5703.4127903,N,00952.3855452,E,2,12,0.7,-1.338,M,40.593,M,2.3,0123*6F\r\n
$GPGGA,135454.00,5703.4127560,N,00952.3854466,E,2,12,0.7,-1.341,M,40.593,M,2.3,0123*65\r\n
$GPGGA,135454.05,5703.4127219,N,00952.3853489,E,2,12,0.7,-1.341,M,40.593,M,2.5,0123*69\r\n
$GPGGA,135454.10,5703.4126893,N,00952.3852503,E,2,12,0.7,-1.341,M,40.593,M,2.5,0123*66\r\n
$GPGGA,135454.15,5703.4126550,N,00952.3851505,E,2,12,0.7,-1.342,M,40.593,M,2.5,0123*67\r\n
$GPGGA,135454.20,5703.4126213,N,00952.3850514,E,2,12,0.7,-1.345,M,40.593,M,2.5,0123*67\r\n
$GPGGA,135454.25,5703.4125879,N,00952.3849531,E,2,12,0.7,-1.347,M,40.593,M,2.7,0123*68\r\n
$GPGGA,135454.30,5703.4125540,N,00952.3848543,E,2,12,0.7,-1.347,M,40.593,M,2.7,0123*6F\r\n
$GPGGA,135454.35,5703.4125206,N,00952.3847550,E,2,12,0.7,-1.347,M,40.593,M,2.7,0123*62\r\n
$GPGGA,135454.40,5703.4124870,N,00952.3846564,E,2,12,0.7,-1.348,M,40.593,M,2.7,0123*63\r\n
$GPGGA,135454.45,5703.4124541,N,00952.3845573,E,2,12,0.7,-1.347,M,40.593,M,2.9,0123*6D\r\n
$GPGGA,135454.50,5703.4124206,N,00952.3844577,E,2,12,0.7,-1.347,M,40.593,M,2.9,0123*68\r\n
$GPGGA,135454.55,5703.4123878,N,00952.3843585,E,2,12,0.7,-1.349,M,40.593,M,2.9,0123*6D\r\n
$GPGGA,135454.60,5703.4123551,N,00952.3842585,E,2,12,0.7,-1.347,M,40.593,M,2.9,0123*62\r\n
$GPGGA,135454.65,5703.4123223,N,00952.3841591,E,2,12,0.7,-1.344,M,40.593,M,3.1,0123*69\r\n
$GPGGA,135454.70,5703.4122889,N,00952.3840606,E,2,12,0.7,-1.343,M,40.593,M,3.1,0123*6D\r\n
$GPGGA,135454.75,5703.4122562,N,00952.3839612,E,2,12,0.7,-1.344,M,40.593,M,3.1,0123*6C\r\n
$GPGGA,135454.80,5703.4122233,N,00952.3838610,E,2,12,0.7,-1.343,M,40.593,M,3.1,0123*61\r\n
$GPGGA,135454.85,5703.4121904,N,00952.3837613,E,2,12,0.7,-1.345,M,40.593,M,3.3,0123*60\r\n
$GPGGA,135454.90,5703.4121570,N,00952.3836619,E,2,12,0.7,-1.345,M,40.593,M,3.3,0123*60\r\n
$GPGGA,135454.95,5703.4121239,N,00952.3835619,E,2,12,0.7,-1.346,M,40.593,M,3.3,0123*6F\r\n
$GPGGA,135455.00,5703.4120914,N,00952.3834610,E,2,12,0.7,-1.344,M,40.593,M,3.3,0123*6D\r\n
$GPGGA,135455.05,5703.4120587,N,00952.3833615,E,2,12,0.7,-1.343,M,40.593,M,3.5,0123*6D\r\n
$GPGGA,135455.10,5703.4120260,N,00952.3832619,E,2,12,0.7,-1.344,M,40.593,M,3.5,0123*6D\r\n
$GPGGA,135455.15,5703.4119929,N,00952.3831618,E,2,12,0.7,-1.345,M,40.593,M,3.5,0123*67\r\n
$GPGGA,135455.20,5703.4119592,N,00952.3830616,E,2,12,0.7,-1.344,M,40.593,M,3.5,0123*63\r\n
$GPGGA,135455.25,5703.4119260,N,00952.3829618,E,2,12,0.7,-1.345,M,40.593,M,2.1,0123*6E\r\n
$GPGGA,135455.30,5703.4118933,N,00952.3828616,E,2,12,0.7,-1.345,M,40.593,M,2.1,0123*69\r\n
$GPGGA,135455.35,5703.4118609,N,00952.3827614,E,2,12,0.7,-1.344,M,40.593,M,2.1,0123*66\r\n
$GPGGA,135455.40,5703.4118286,N,00952.3826602,E,2,12,0.7,-1.342,M,40.593,M,2.1,0123*67\r\n
$GPGGA,135455.45,5703.4117958,N,00952.3825587,E,2,12,0.7,-1.344,M,40.593,M,2.3,0123*6C\r\n
$GPGGA,135455.50,5703.4117629,N,00952.3824572,E,2,12,0.7,-1.346,M,40.593,M,2.3,0123*68\r\n
$GPGGA,135455.55,5703.4117305,N,00952.3823579,E,2,12,0.7,-1.348,M,40.593,M,2.3,0123*64\r\n
$GPGGA,135455.60,5703.4116980,N,00952.3822574,E,2,12,0.7,-1.346,M,40.593,M,2.3,0123*66\r\n
$GPGGA,135455.65,5703.4116654,N,00952.3821569,E,2,12,0.7,-1.346,M,40.593,M,2.6,0123*6F\r\n
$GPGGA,135455.70,5703.4116324,N,00952.3820551,E,2,12,0.7,-1.346,M,40.593,M,2.6,0123*63\r\n
$GPGGA,135455.75,5703.4115992,N,00952.3819545,E,2,12,0.7,-1.345,M,40.593,M,2.6,0123*6E\r\n
$GPGGA,135455.80,5703.4115669,N,00952.3818545,E,2,12,0.7,-1.344,M,40.593,M,2.6,0123*6F\r\n
$GPGGA,135455.85,5703.4115335,N,00952.3817546,E,2,12,0.7,-1.346,M,40.593,M,2.8,0123*66\r\n
$GPGGA,135455.90,5703.4115000,N,00952.3816555,E,2,12,0.7,-1.346,M,40.593,M,2.8,0123*64\r\n
$GPGGA,135455.95,5703.4114669,N,00952.3815586,E,2,12,0.7,-1.344,M,40.593,M,2.8,0123*66\r\n
$GPGGA,135456.00,5703.4114336,N,00952.3814592,E,2,12,0.7,-1.340,M,40.593,M,2.8,0123*66\r\n
$GPGGA,135456.05,5703.4114004,N,00952.3813610,E,2,12,0.7,-1.341,M,40.593,M,3.0,0123*67\r\n
