$GPGGA,085610.45,5703.3240502,N,00952.3221356,E,2,9,1.2,-2.350,M,40.593,M,3.2,0123*5C\r\n
$GPGGA,085610.50,5703.3240377,N,00952.3221358,E,2,9,1.2,-2.352,M,40.593,M,3.2,0123*50\r\n
$GPGGA,085610.55,5703.3240265,N,00952.3221364,E,2,9,1.2,-2.352,M,40.593,M,3.2,0123*58\r\n
$GPGGA,085610.60,5703.3240138,N,00952.3221368,E,2,9,1.2,-2.351,M,40.593,M,3.2,0123*5A\r\n
$GPGGA,085610.65,5703.3240010,N,00952.3221363,E,2,9,1.2,-2.354,M,40.593,M,3.4,0123*5C\r\n
$GPGGA,085610.70,5703.3239885,N,00952.3221351,E,2,9,1.2,-2.355,M,40.593,M,3.4,0123*52\r\n
$GPGGA,085610.75,5703.3239760,N,00952.3221348,E,2,9,1.2,-2.354,M,40.593,M,3.4,0123*5A\r\n
$GPGGA,085610.80,5703.3239640,N,00952.3221349,E,2,9,1.2,-2.353,M,40.593,M,3.4,0123*55\r\n
$GPGGA,085610.85,5703.3239531,N,00952.3221360,E,2,9,1.2,-2.352,M,40.593,M,3.6,0123*5D\r\n
$GPGGA,085610.90,5703.3239408,N,00952.3221367,E,2,9,1.2,-2.353,M,40.593,M,3.6,0123*54\r\n
$GPGGA,085610.95,5703.3239285,N,00952.3221372,E,2,9,1.2,-2.353,M,40.593,M,3.6,0123*56\r\n
$GPGGA,085611.00,5703.3239158,N,00952.3221375,E,2,9,1.2,-2.354,M,40.593,M,3.6,0123*58\r\n
$GPGGA,085611.05,5703.3239036,N,00952.3221383,E,2,9,1.2,-2.353,M,40.593,M,3.8,0123*54\r\n
$GPGGA,085611.10,5703.3238914,N,00952.3221380,E,2,9,1.2,-2.354,M,40.593,M,3.8,0123*5C\r\n
$GPGGA,085611.15,5703.3238803,N,00952.3221380,E,2,9,1.2,-2.353,M,40.593,M,3.8,0123*59\r\n
$GPGGA,085611.20,5703.3238683,N,00952.3221386,E,2,9,1.2,-2.352,M,40.593,M,3.8,0123*5E\r\n
$GPGGA,085611.25,5703.3238559,N,00952.3221380,E,2,9,1.2,-2.348,M,40.593,M,4.0,0123*5D\r\n
$GPGGA,085611.30,5703.3238435,N,00952.3221379,E,2,9,1.2,-2.349,M,40.593,M,4.0,0123*55\r\n
$GPGGA,085611.35,5703.3238311,N,00952.3221385,E,2,9,1.2,-2.351,M,40.593,M,4.0,0123*5B\r\n
$GPGGA,085611.40,5703.3238180,N,00952.3221381,E,2,9,1.2,-2.353,M,40.593,M,4.0,0123*55\r\n
$GPGGA,085611.45,5703.3238044,N,00952.3221382,E,2,9,1.2,-2.358,M,40.593,M,2.4,0123*53\r\n
$GPGGA,085611.50,5703.3237914,N,00952.3221381,E,2,9,1.2,-2.360,M,40.593,M,2.4,0123*5C\r\n
$GPGGA,085611.55,5703.3237793,N,00952.3221382,E,2,9,1.2,-2.362,M,40.593,M,2.4,0123*59\r\n
$GPGGA,085611.60,5703.3237653,N,00952.3221393,E,2,9,1.2,-2.364,M,40.593,M,2.4,0123*54\r\n
$GPGGA,085611.65,5703.3237519,N,00952.3221394,E,2,9,1.2,-2.358,M,40.593,M,2.7,0123*57\r\n
$GPGGA,085611.70,5703.3237395,N,00952.3221386,E,2,9,1.2,-2.358,M,40.593,M,2.7,0123*52\r\n
$GPGGA,085611.75,5703.3237268,N,00952.3221386,E,2,9,1.2,-2.357,M,40.593,M,2.7,0123*5B\r\n
$GPGGA,085611.80,5703.3237139,N,00952.3221401,E,2,9,1.2,-2.356,M,40.593,M,2.7,0123*5F\r\n
$GPGGA,085611.85,5703.3237008,N,00952.3221424,E,2,9,1.2,-2.358,M,40.593,M,2.9,0123*5E\r\n
$GPGGA,085611.90,5703.3236871,N,00952.3221449,E,2,9,1.2,-2.360,M,40.593,M,2.9,0123*5D\r\n
$GPGGA,085611.95,5703.3236741,N,00952.3221470,E,2,9,1.2,-2.361,M,40.593,M,2.9,0123*5F\r\n
$GPGGA,085612.00,5703.3236612,N,00952.3221482,E,2,9,1.2,-2.364,M,40.593,M,2.9,0123*5F\r\n
$GPGGA,085612.05,5703.3236493,N,00952.3221481,E,2,9,1.2,-2.356,M,40.593,M,3.2,0123*59\r\n
$GPGGA,085612.10,5703.3236364,N,00952.3221481,E,2,9,1.2,-2.354,M,40.593,M,3.2,0123*50\r\n
$GPGGA,085612.15,5703.3236227,N,00952.3221494,E,2,9,1.2,-2.354,M,40.593,M,3.2,0123*57\r\n
$GPGGA,085612.20,5703.3236092,N,00952.3221500,E,2,9,1.2,-2.355,M,40.593,M,3.2,0123*50\r\n
$GPGGA,085612.25,5703.3235968,N,00952.3221516,E,2,9,1.2,-2.352,M,40.593,M,3.4,0123*5C\r\n
$GPGGA,085612.30,5703.3235825,N,00952.3221528,E,2,9,1.2,-2.352,M,40.593,M,3.4,0123*5D\r\n
$GPGGA,085612.35,5703.3235690,N,00952.3221538,E,2,9,1.2,-2.351,M,40.593,M,3.4,0123*5A\r\n
$GPGGA,085612.40,5703.3235559,N,00952.3221541,E,2,9,1.2,-2.349,M,40.593,M,3.4,0123*59\r\n
$GPGGA,085612.45,5703.3235415,N,00952.3221544,E,2,9,1.2,-2.354,M,40.593,M,2.2,0123*5B\r\n
$GPGGA,085612.50,5703.3235272,N,00952.3221554,E,2,9,1.2,-2.356,M,40.593,M,2.2,0123*5B\r\n
$GPGGA,085612.55,5703.3235128,N,00952.3221569,E,2,9,1.2,-2.357,M,40.593,M,2.2,0123*5D\r\n
$GPGGA,085612.60,5703.3234984,N,00952.3221573,E,2,9,1.2,-2.357,M,40.593,M,2.2,0123*5F\r\n
$GPGGA,085612.65,5703.3234850,N,00952.3221584,E,2,9,1.2,-2.353,M,40.593,M,2.4,0123*58\r\n
$GPGGA,085612.70,5703.3234724,N,00952.3221599,E,2,9,1.2,-2.352,M,40.593,M,2.4,0123*5D\r\n
$GPGGA,085612.75,5703.3234580,N,00952.3221616,E,2,9,1.2,-2.354,M,40.593,M,2.4,0123*56\r\n
$GPGGA,085612.80,5703.3234429,N,00952.3221640,E,2,9,1.2,-2.355,M,40.593,M,2.4,0123*5C\r\n
$GPGGA,085612.85,5703.3234285,N,00952.3221664,E,2,9,1.2,-2.362,M,40.593,M,2.7,0123*58\r\n
$GPGGA,085612.90,5703.3234151,N,00952.3221672,E,2,9,1.2,-2.362,M,40.593,M,2.7,0123*51\r\n
$GPGGA,085612.95,5703.3234013,N,00952.3221678,E,2,9,1.2,-2.364,M,40.593,M,2.7,0123*5F\r\n
$GPGGA,085613.00,5703.3233881,N,00952.3221688,E,2,9,1.2,-2.364,M,40.593,M,2.7,0123*59\r\n
$GPGGA,085613.05,5703.3233748,N,00952.3221699,E,2,9,1.2,-2.358,M,40.593,M,2.9,0123*57\r\n
$GPGGA,085613.10,5703.3233608,N,00952.3221715,E,2,9,1.2,-2.359,M,40.593,M,2.9,0123*52\r\n
$GPGGA,085613.15,5703.3233478,N,00952.3221732,E,2,9,1.2,-2.360,M,40.593,M,2.9,0123*5D\r\n
$GPGGA,085613.20,5703.3233343,N,00952.3221739,E,2,9,1.2,-2.359,M,40.593,M,2.9,0123*55\r\n
$GPGGA,085613.25,5703.3233200,N,00952.3221746,E,2,9,1.2,-2.364,M,40.593,M,3.1,0123*59\r\n
$GPGGA,085613.30,5703.3233070,N,00952.3221760,E,2,9,1.2,-2.364,M,40.593,M,3.1,0123*5C\r\n
$GPGGA,085613.35,5703.3232937,N,00952.3221769,E,2,9,1.2,-2.364,M,40.593,M,3.1,0123*5B\r\n
$GPGGA,085613.40,5703.3232797,N,00952.3221769,E,2,9,1.2,-2.364,M,40.593,M,3.1,0123*5D\r\n
$GPGGA,085613.45,5703.3232664,N,00952.3221789,E,2,9,1.2,-2.361,M,40.593,M,2.1,0123*5F\r\n
$GPGGA,085613.50,5703.3232534,N,00952.3221804,E,2,9,1.2,-2.361,M,40.593,M,2.1,0123*57\r\n
$GPGGA,085613.55,5703.3232400,N,00952.3221818,E,2,9,1.2,-2.362,M,40.593,M,2.1,0123*5A\r\n
$GPGGA,085613.60,5703.3232272,N,00952.3221836,E,2,9,1.2,-2.361,M,40.593,M,2.1,0123*50\r\n
$GPGGA,085613.65,5703.3232136,N,00952.3221857,E,2,9,1.2,-2.364,M,40.593,M,2.3,0123*56\r\n
$GPGGA,085613.70,5703.3232005,N,00952.3221869,E,2,9,1.2,-2.365,M,40.593,M,2.3,0123*5F\r\n
$GPGGA,085613.75,5703.3231881,N,00952.3221886,E,2,9,1.2,-2.364,M,40.593,M,2.3,0123*5D\r\n
$GPGGA,085613.80,5703.3231758,N,00952.3221894,E,2,9,1.2,-2.362,M,40.593,M,2.3,0123*59\r\n
$GPGGA,085613.85,5703.3231630,N,00952.3221890,E,2,9,1.2,-2.358,M,40.593,M,2.6,0123*5B\r\n
$GPGGA,085613.90,5703.3231498,N,00952.3221911,E,2,9,1.2,-2.356,M,40.593,M,2.6,0123*59\r\n
$GPGGA,085613.95,5703.3231371,N,00952.3221919,E,2,9,1.2,-2.355,M,40.593,M,2.6,0123*57\r\n
$GPGGA,085614.00,5703.3231247,N,00952.3221934,E,2,9,1.2,-2.357,M,40.593,M,2.6,0123*55\r\n
$GPGGA,085614.05,5703.3231128,N,00952.3221937,E,2,9,1.2,-2.354,M,40.593,M,2.8,0123*54\r\n
$GPGGA,085614.10,5703.3230993,N,00952.3221938,E,2,9,1.2,-2.355,M,40.593,M,2.8,0123*57\r\n
$GPGGA,085614.15,5703.3230846,N,00952.3221948,E,2,9,1.2,-2.356,M,40.593,M,2.8,0123*5F\r\n
$GPGGA,085614.20,5703.3230716,N,00952.3221961,E,2,9,1.2,-2.358,M,40.593,M,2.8,0123*56\r\n
$GPGGA,085614.25,5703.3230594,N,00952.3221977,E,2,9,1.2,-2.355,M,40.593,M,3.0,0123*58\r\n
$GPGGA,085614.30,5703.3230473,N,00952.3221988,E,2,9,1.2,-2.357,M,40.593,M,3.0,0123*56\r\n
$GPGGA,085614.35,5703.3230351,N,00952.3221995,E,2,9,1.2,-2.356,M,40.593,M,3.0,0123*59\r\n
$GPGGA,085614.40,5703.3230226,N,00952.3222003,E,2,9,1.2,-2.358,M,40.593,M,3.0,0123*51\r\n
$GPGGA,085614.45,5703.3230090,N,00952.3222011,E,2,9,1.2,-2.359,M,40.593,M,3.2,0123*5B\r\n
$GPGGA,085614.50,5703.3229952,N,00952.3222027,E,2,9,1.2,-2.360,M,40.593,M,3.2,0123*5F\r\n
$GPGGA,085614.55,5703.3229823,N,00952.3222050,E,2,9,1.2,-2.362,M,40.593,M,3.2,0123*5F\r\n
$GPGGA,085614.60,5703.3229697,N,00952.3222066,E,2,9,1.2,-2.363,M,40.593,M,3.2,0123*5C\r\n
$GPGGA,085614.65,5703.3229584,N,00952.3222073,E,2,9,1.2,-2.364,M,40.593,M,3.4,0123*5D\r\n
$GPGGA,085614.70,5703.3229465,N,00952.3222082,E,2,9,1.2,-2.363,M,40.593,M,3.4,0123*5E\r\n
$GPGGA,085614.75,5703.3229332,N,00952.3222096,E,2,9,1.2,-2.361,M,40.593,M,3.4,0123*59\r\n
$GPGGA,085614.80,5703.3229200,N,00952.3222122,E,2,9,1.2,-2.361,M,40.593,M,3.4,0123*5D\r\n
$GPGGA,085614.85,5703.3229082,N,00952.3222134,E,2,9,1.2,-2.354,M,40.593,M,3.6,0123*53\r\n
$GPGGA,085614.90,5703.3228961,N,00952.3222145,E,2,9,1.2,-2.355,M,40.593,M,3.6,0123*55\r\n
$GPGGA,085614.95,5703.3228834,N,00952.3222154,E,2,9,1.2,-2.355,M,40.593,M,3.6,0123*51\r\n
$GPGGA,085615.00,5703.3228709,N,00952.3222168,E,2,9,1.2,-2.354,M,40.593,M,3.6,0123*53\r\n
$GPGGA,085615.05,5703.3228581,N,00952.3222193,E,2,9,1.2,-2.355,M,40.593,M,3.8,0123*5F\r\n
$GPGGA,085615.10,5703.3228464,N,00952.3222213,E,2,9,1.2,-2.356,M,40.593,M,3.8,0123*59\r\n
$GPGGA,085615.15,5703.3228342,N,00952.3222239,E,2,9,1.2,-2.357,M,40.593,M,3.8,0123*56\r\n
$GPGGA,085615.20,5703.3228211,N,00952.3222256,E,2,9,1.2,-2.358,M,40.593,M,3.8,0123*51\r\n
$GPGGA,085615.25,5703.3228078,N,00952.3222274,E,2,9,1.2,-2.361,M,40.593,M,4.0,0123*5C\r\n
$GPGGA,085615.30,5703.3227955,N,00952.3222280,E,2,9,1.2,-2.362,M,40.593,M,4.0,0123*59\r\n
$GPGGA,085615.35,5703.3227847,N,00952.3222293,E,2,9,1.2,-2.361,M,40.593,M,4.0,0123*5F\r\n
$GPGGA,085615.40,5703.3227731,N,00952.3222304,E,2,9,1.2,-2.362,M,40.593,M,4.0,0123*5F\r\n
$GPGGA,085615.45,5703.3227620,N,00952.3222316,E,2,9,1.2,-2.356,M,40.593,M,0.9,0123*52\r\n
$GPGGA,085615.50,5703.3227498,N,00952.3222324,E,2,9,1.2,-2.358,M,40.593,M,0.9,0123*58\r\n
$GPGGA,085615.55,5703.3227377,N,00952.3222346,E,2,9,1.2,-2.359,M,40.593,M,0.9,0123*5E\r\n
$GPGGA,085615.60,5703.3227269,N,00952.3222353,E,2,9,1.2,-2.359,M,40.593,M,0.9,0123*52\r\n
$GPGGA,085615.65,5703.3227145,N,00952.3222371,E,2,9,1.2,-2.360,M,40.593,M,1.2,0123*5A\r\n
$GPGGA,085615.70,5703.3227021,N,00952.3222388,E,2,9,1.2,-2.360,M,40.593,M,1.2,0123*5B\r\n
$GPGGA,085615.75,5703.3226898,N,00952.3222401,E,2,9,1.2,-2.360,M,40.593,M,1.2,0123*53\r\n
$GPGGA,085615.80,5703.3226776,N,00952.3222430,E,2,9,1.2,-2.360,M,40.593,M,1.2,0123*54\r\n
$GPGGA,085615.85,5703.3226675,N,00952.3222440,E,2,9,1.2,-2.358,M,40.593,M,1.5,0123*58\r\n
$GPGGA,085615.90,5703.3226567,N,00952.3222464,E,2,9,1.2,-2.358,M,40.593,M,1.5,0123*5A\r\n
$GPGGA,085615.95,5703.3226448,N,00952.3222483,E,2,9,1.2,-2.358,M,40.593,M,1.5,0123*5A\r\n
$GPGGA,085616.00,5703.3226316,N,00952.3222495,E,2,9,1.2,-2.358,M,40.593,M,1.5,0123*5E\r\n
$GPGGA,085616.05,5703.3226181,N,00952.3222504,E,2,9,1.2,-2.355,M,40.593,M,1.7,0123*51\r\n
$GPGGA,085616.10,5703.3226058,N,00952.3222516,E,2,9,1.2,-2.356,M,40.593,M,1.7,0123*50\r\n
$GPGGA,085616.15,5703.3225943,N,00952.3222539,E,2,9,1.2,-2.356,M,40.593,M,1.7,0123*58\r\n
$GPGGA,085616.20,5703.3225828,N,00952.3222577,E,2,9,1.2,-2.356,M,40.593,M,1.7,0123*58\r\n
$GPGGA,085616.25,5703.3225711,N,00952.3222608,E,2,9,1.2,-2.360,M,40.593,M,2.0,0123*52\r\n
$GPGGA,085616.30,5703.3225595,N,00952.3222631,E,2,9,1.2,-2.361,M,40.593,M,2.0,0123*53\r\n
$GPGGA,085616.35,5703.3225483,N,00952.3222647,E,2,9,1.2,-2.363,M,40.593,M,2.0,0123*53\r\n
$GPGGA,085616.40,5703.3225369,N,00952.3222670,E,2,9,1.2,-2.365,M,40.593,M,2.0,0123*50\r\n
$GPGGA,085616.45,5703.3225263,N,00952.3222685,E,2,9,1.2,-2.359,M,40.593,M,0.8,0123*51\r\n
$GPGGA,085616.50,5703.3225135,N,00952.3222708,E,2,9,1.2,-2.359,M,40.593,M,0.8,0123*51\r\n
$GPGGA,085616.55,5703.3225020,N,00952.3222722,E,2,9,1.2,-2.360,M,40.593,M,0.8,0123*53\r\n
$GPGGA,085616.60,5703.3224908,N,00952.3222745,E,2,9,1.2,-2.361,M,40.593,M,0.8,0123*57\r\n
$GPGGA,085616.65,5703.3224796,N,00952.3222756,E,2,9,1.2,-2.360,M,40.593,M,1.1,0123*50\r\n
$GPGGA,085616.70,5703.3224678,N,00952.3222782,E,2,9,1.2,-2.359,M,40.593,M,1.1,0123*56\r\n
$GPGGA,085616.75,5703.3224553,N,00952.3222810,E,2,9,1.2,-2.359,M,40.593,M,1.1,0123*5D\r\n
$GPGGA,085616.80,5703.3224447,N,00952.3222828,E,2,9,1.2,-2.358,M,40.593,M,1.1,0123*59\r\n
$GPGGA,085616.85,5703.3224330,N,00952.3222839,E,2,9,1.2,-2.360,M,40.593,M,1.4,0123*55\r\n
$GPGGA,085616.90,5703.3224218,N,00952.3222855,E,2,9,1.2,-2.360,M,40.593,M,1.4,0123*50\r\n
$GPGGA,085616.95,5703.3224108,N,00952.3222874,E,2,9,1.2,-2.359,M,40.593,M,1.4,0123*5E\r\n
$GPGGA,085617.00,5703.3223993,N,00952.3222895,E,2,9,1.2,-2.359,M,40.593,M,1.4,0123*51\r\n
$GPGGA,085617.05,5703.3223878,N,00952.3222926,E,2,9,1.2,-2.355,M,40.593,M,1.6,0123*57\r\n
$GPGGA,085617.10,5703.3223766,N,00952.3222959,E,2,9,1.2,-2.355,M,40.593,M,1.6,0123*5B\r\n
$GPGGA,085617.15,5703.3223652,N,00952.3222975,E,2,9,1.2,-2.355,M,40.593,M,1.6,0123*56\r\n
$GPGGA,085617.20,5703.3223554,N,00952.3222983,E,2,9,1.2,-2.355,M,40.593,M,1.6,0123*5C\r\n
$GPGGA,085617.25,5703.3223444,N,00952.3223002,E,2,9,1.2,-2.356,M,40.593,M,1.9,0123*54\r\n
$GPGGA,085617.30,5703.3223342,N,00952.3223030,E,2,9,1.2,-2.357,M,40.593,M,1.9,0123*51\r\n
$GPGGA,085617.35,5703.3223239,N,00952.3223059,E,2,9,1.2,-2.356,M,40.593,M,1.9,0123*57\r\n
$GPGGA,085617.40,5703.3223116,N,00952.3223085,E,2,9,1.2,-2.356,M,40.593,M,1.9,0123*5A\r\n
$GPGGA,085617.45,5703.3223000,N,00952.3223105,E,2,9,1.2,-2.356,M,40.593,M,2.1,0123*5B\r\n
$GPGGA,085617.50,5703.3222894,N,00952.3223134,E,2,9,1.2,-2.357,M,40.593,M,2.1,0123*58\r\n
$GPGGA,085617.55,5703.3222782,N,00952.3223167,E,2,9,1.2,-2.356,M,40.593,M,2.1,0123*52\r\n
$GPGGA,085617.60,5703.3222677,N,00952.3223182,E,2,9,1.2,-2.356,M,40.593,M,2.1,0123*54\r\n
$GPGGA,085617.65,5703.3222581,N,00952.3223190,E,2,9,1.2,-2.353,M,40.593,M,2.3,0123*5F\r\n
$GPGGA,085617.70,5703.3222476,N,00952.3223213,E,2,9,1.2,-2.351,M,40.593,M,2.3,0123*58\r\n
$GPGGA,085617.75,5703.3222369,N,00952.3223239,E,2,9,1.2,-2.351,M,40.593,M,2.3,0123*5C\r\n
$GPGGA,085617.80,5703.3222248,N,00952.3223264,E,2,9,1.2,-2.351,M,40.593,M,2.3,0123*5C\r\n
$GPGGA,085617.85,5703.3222124,N,00952.3223305,E,2,9,1.2,-2.357,M,40.593,M,2.6,0123*55\r\n
$GPGGA,085617.90,5703.3222013,N,00952.3223334,E,2,9,1.2,-2.357,M,40.593,M,2.6,0123*56\r\n
$GPGGA,085617.95,5703.3221919,N,00952.3223356,E,2,9,1.2,-2.355,M,40.593,M,2.6,0123*55\r\n
$GPGGA,085618.00,5703.3221825,N,00952.3223383,E,2,9,1.2,-2.354,M,40.593,M,2.6,0123*51\r\n
$GPGGA,085618.05,5703.3221719,N,00952.3223397,E,2,9,1.2,-2.352,M,40.593,M,2.8,0123*59\r\n
$GPGGA,085618.10,5703.3221600,N,00952.3223417,E,2,9,1.2,-2.353,M,40.593,M,2.8,0123*5A\r\n
$GPGGA,085618.15,5703.3221488,N,00952.3223448,E,2,9,1.2,-2.354,M,40.593,M,2.8,0123*50\r\n
$GPGGA,085618.20,5703.3221382,N,00952.3223473,E,2,9,1.2,-2.354,M,40.593,M,2.8,0123*53\r\n
$GPGGA,085618.25,5703.3221285,N,00952.3223483,E,2,9,1.2,-2.352,M,40.593,M,3.0,0123*50\r\n
$GPGGA,085618.30,5703.3221176,N,00952.3223508,E,2,9,1.2,-2.352,M,40.593,M,3.0,0123*59\r\n
$GPGGA,085618.35,5703.3221078,N,00952.3223544,E,2,9,1.2,-2.352,M,40.593,M,3.0,0123*5B\r\n
$GPGGA,085618.40,5703.3220977,N,00952.3223570,E,2,9,1.2,-2.350,M,40.593,M,3.0,0123*5B\r\n
$GPGGA,085618.45,5703.3220851,N,00952.3223612,E,2,9,1.2,-2.358,M,40.593,M,0.9,0123*5E\r\n
$GPGGA,085618.50,5703.3220738,N,00952.3223643,E,2,9,1.2,-2.362,M,40.593,M,0.9,0123*57\r\n
$GPGGA,085618.55,5703.3220630,N,00952.3223665,E,2,9,1.2,-2.364,M,40.593,M,0.9,0123*59\r\n
$GPGGA,085618.60,5703.3220530,N,00952.3223686,E,2,9,1.2,-2.365,M,40.593,M,0.9,0123*50\r\n
$GPGGA,085618.65,5703.3220427,N,00952.3223717,E,2,9,1.2,-2.359,M,40.593,M,1.3,0123*5F\r\n
$GPGGA,085618.70,5703.3220326,N,00952.3223736,E,2,9,1.2,-2.357,M,40.593,M,1.3,0123*50\r\n
$GPGGA,085618.75,5703.3220230,N,00952.3223762,E,2,9,1.2,-2.356,M,40.593,M,1.3,0123*53\r\n
$GPGGA,085618.80,5703.3220128,N,00952.3223793,E,2,9,1.2,-2.356,M,40.593,M,1.3,0123*5D\r\n
$GPGGA,085618.85,5703.3220024,N,00952.3223833,E,2,9,1.2,-2.356,M,40.593,M,1.6,0123*55\r\n
$GPGGA,085618.90,5703.3219922,N,00952.3223861,E,2,9,1.2,-2.356,M,40.593,M,1.6,0123*53\r\n
$GPGGA,085618.95,5703.3219817,N,00952.3223887,E,2,9,1.2,-2.356,M,40.593,M,1.6,0123*59\r\n
$GPGGA,085619.00,5703.3219715,N,00952.3223904,E,2,9,1.2,-2.356,M,40.593,M,1.6,0123*53\r\n
$GPGGA,085619.05,5703.3219607,N,00952.3223930,E,2,9,1.2,-2.354,M,40.593,M,1.9,0123*5E\r\n
$GPGGA,085619.10,5703.3219506,N,00952.3223956,E,2,9,1.2,-2.353,M,40.593,M,1.9,0123*5F\r\n
$GPGGA,085619.15,5703.3219411,N,00952.3223993,E,2,9,1.2,-2.353,M,40.593,M,1.9,0123*54\r\n
$GPGGA,085619.20,5703.3219309,N,00952.3224024,E,2,9,1.2,-2.353,M,40.593,M,1.9,0123*5E\r\n
$GPGGA,085619.25,5703.3219219,N,00952.3224048,E,2,9,1.2,-2.353,M,40.593,M,2.2,0123*59\r\n
$GPGGA,085619.30,5703.3219131,N,00952.3224063,E,2,9,1.2,-2.352,M,40.593,M,2.2,0123*5C\r\n
$GPGGA,085619.35,5703.3219038,N,00952.3224095,E,2,9,1.2,-2.350,M,40.593,M,2.2,0123*5A\r\n
$GPGGA,085619.40,5703.3218937,N,00952.3224119,E,2,9,1.2,-2.350,M,40.593,M,2.2,0123*5A\r\n
$GPGGA,085619.45,5703.3218834,N,00952.3224150,E,2,9,1.2,-2.352,M,40.593,M,0.9,0123*5B\r\n
$GPGGA,085619.50,5703.3218729,N,00952.3224182,E,2,9,1.2,-2.352,M,40.593,M,0.9,0123*53\r\n
$GPGGA,085619.55,5703.3218631,N,00952.3224209,E,2,9,1.2,-2.352,M,40.593,M,0.9,0123*5E\r\n
$GPGGA,085619.60,5703.3218530,N,00952.3224238,E,2,9,1.2,-2.351,M,40.593,M,0.9,0123*5B\r\n
$GPGGA,085619.65,5703.3218436,N,00952.3224274,E,2,9,1.2,-2.351,M,40.593,M,1.2,0123*5B\r\n
$GPGGA,085619.70,5703.3218348,N,00952.3224301,E,2,9,1.2,-2.349,M,40.593,M,1.2,0123*5B\r\n
$GPGGA,085619.75,5703.3218246,N,00952.3224320,E,2,9,1.2,-2.349,M,40.593,M,1.2,0123*52\r\n
$GPGGA,085619.80,5703.3218154,N,00952.3224351,E,2,9,1.2,-2.350,M,40.593,M,1.2,0123*56\r\n
$GPGGA,085619.85,5703.3218066,N,00952.3224380,E,2,9,1.2,-2.348,M,40.593,M,1.5,0123*51\r\n
$GPGGA,085619.90,5703.3217957,N,00952.3224409,E,2,9,1.2,-2.345,M,40.593,M,1.5,0123*5A\r\n
$GPGGA,085619.95,5703.3217846,N,00952.3224442,E,2,9,1.2,-2.345,M,40.593,M,1.5,0123*51\r\n
$GPGGA,085620.00,5703.3217745,N,00952.3224470,E,2,9,1.2,-2.345,M,40.593,M,1.5,0123*5A\r\n
$GPGGA,085620.05,5703.3217633,N,00952.3224511,E,2,9,1.2,-2.349,M,40.593,M,1.7,0123*57\r\n
$GPGGA,085620.10,5703.3217535,N,00952.3224538,E,2,9,1.2,-2.349,M,40.593,M,1.7,0123*5D\r\n
$GPGGA,085620.15,5703.3217437,N,00952.3224568,E,2,9,1.2,-2.349,M,40.593,M,1.7,0123*5E\r\n
$GPGGA,085620.20,5703.3217339,N,00952.3224599,E,2,9,1.2,-2.350,M,40.593,M,1.7,0123*57\r\n
$GPGGA,085620.25,5703.3217237,N,00952.3224628,E,2,9,1.2,-2.350,M,40.593,M,2.0,0123*50\r\n
$GPGGA,085620.30,5703.3217144,N,00952.3224662,E,2,9,1.2,-2.349,M,40.593,M,2.0,0123*55\r\n
$GPGGA,085620.35,5703.3217042,N,00952.3224708,E,2,9,1.2,-2.351,M,40.593,M,2.0,0123*53\r\n
$GPGGA,085620.40,5703.3216946,N,00952.3224739,E,2,9,1.2,-2.350,M,40.593,M,2.0,0123*5E\r\n
$GPGGA,085620.45,5703.3216839,N,00952.3224776,E,2,9,1.2,-2.353,M,40.593,M,0.8,0123*50\r\n
$GPGGA,085620.50,5703.3216739,N,00952.3224804,E,2,9,1.2,-2.354,M,40.593,M,0.8,0123*56\r\n
$GPGGA,085620.55,5703.3216650,N,00952.3224836,E,2,9,1.2,-2.356,M,40.593,M,0.8,0123*5E\r\n
$GPGGA,085620.60,5703.3216554,N,00952.3224868,E,2,9,1.2,-2.356,M,40.593,M,0.8,0123*54\r\n
$GPGGA,085620.65,5703.3216463,N,00952.3224904,E,2,9,1.2,-2.355,M,40.593,M,1.1,0123*54\r\n
$GPGGA,085620.70,5703.3216367,N,00952.3224935,E,2,9,1.2,-2.353,M,40.593,M,1.1,0123*57\r\n
$GPGGA,085620.75,5703.3216265,N,00952.3224964,E,2,9,1.2,-2.353,M,40.593,M,1.1,0123*55\r\n
$GPGGA,085620.80,5703.3216170,N,00952.3224994,E,2,9,1.2,-2.352,M,40.593,M,1.1,0123*56\r\n
$GPGGA,085620.85,5703.3216074,N,00952.3225029,E,2,9,1.2,-2.350,M,40.593,M,1.4,0123*5F\r\n
$GPGGA,085620.90,5703.3215993,N,00952.3225067,E,2,9,1.2,-2.351,M,40.593,M,1.4,0123*53\r\n
$GPGGA,085620.95,5703.3215899,N,00952.3225093,E,2,9,1.2,-2.353,M,40.593,M,1.4,0123*54\r\n
$GPGGA,085621.00,5703.3215800,N,00952.3225121,E,2,9,1.2,-2.351,M,40.593,M,1.4,0123*53\r\n
$GPGGA,085621.05,5703.3215690,N,00952.3225150,E,2,9,1.2,-2.350,M,40.593,M,1.6,0123*54\r\n
$GPGGA,085621.10,5703.3215597,N,00952.3225183,E,2,9,1.2,-2.352,M,40.593,M,1.6,0123*58\r\n
$GPGGA,085621.15,5703.3215496,N,00952.3225210,E,2,9,1.2,-2.353,M,40.593,M,1.6,0123*55\r\n
$GPGGA,085621.20,5703.3215416,N,00952.3225241,E,2,9,1.2,-2.356,M,40.593,M,1.6,0123*5A\r\n
$GPGGA,085621.25,5703.3215312,N,00952.3225258,E,2,9,1.2,-2.359,M,40.593,M,1.9,0123*54\r\n
$GPGGA,085621.30,5703.3215220,N,00952.3225291,E,2,9,1.2,-2.357,M,40.593,M,1.9,0123*5B\r\n
$GPGGA,085621.35,5703.3215127,N,00952.3225322,E,2,9,1.2,-2.357,M,40.593,M,1.9,0123*53\r\n
$GPGGA,085621.40,5703.3215050,N,00952.3225355,E,2,9,1.2,-2.359,M,40.593,M,1.9,0123*5E\r\n
$GPGGA,085621.45,5703.3214973,N,00952.3225383,E,2,9,1.2,-2.349,M,40.593,M,2.1,0123*53\r\n
$GPGGA,085621.50,5703.3214878,N,00952.3225423,E,2,9,1.2,-2.348,M,40.593,M,2.1,0123*51\r\n
$GPGGA,085621.55,5703.3214779,N,00952.3225459,E,2,9,1.2,-2.349,M,40.593,M,2.1,0123*56\r\n
$GPGGA,085621.60,5703.3214693,N,00952.3225480,E,2,9,1.2,-2.349,M,40.593,M,2.1,0123*51\r\n
$GPGGA,085621.65,5703.3214598,N,00952.3225506,E,2,9,1.2,-2.348,M,40.593,M,2.3,0123*50\r\n
$GPGGA,085621.70,5703.3214514,N,00952.3225543,E,2,9,1.2,-2.348,M,40.593,M,2.3,0123*51\r\n
$GPGGA,085621.75,5703.3214423,N,00952.3225574,E,2,9,1.2,-2.348,M,40.593,M,2.3,0123*55\r\n
$GPGGA,085621.80,5703.3214336,N,00952.3225613,E,2,9,1.2,-2.348,M,40.593,M,2.3,0123*5E\r\n
$GPGGA,085621.85,5703.3214235,N,00952.3225653,E,2,9,1.2,-2.348,M,40.593,M,2.6,0123*58\r\n
$GPGGA,085621.90,5703.3214141,N,00952.3225688,E,2,9,1.2,-2.350,M,40.593,M,2.6,0123*53\r\n
$GPGGA,085621.95,5703.3214045,N,00952.3225717,E,2,9,1.2,-2.349,M,40.593,M,2.6,0123*5C\r\n
$GPGGA,085622.00,5703.3213955,N,00952.3225749,E,2,9,1.2,-2.349,M,40.593,M,2.6,0123*57\r\n
$GPGGA,085622.05,5703.3213866,N,00952.3225775,E,2,9,1.2,-2.349,M,40.593,M,2.8,0123*52\r\n
$GPGGA,085622.10,5703.3213775,N,00952.3225797,E,2,9,1.2,-2.348,M,40.593,M,2.8,0123*56\r\n
$GPGGA,085622.15,5703.3213688,N,00952.3225827,E,2,9,1.2,-2.348,M,40.593,M,2.8,0123*54\r\n
$GPGGA,085622.20,5703.3213594,N,00952.3225872,E,2,9,1.2,-2.349,M,40.593,M,2.8,0123*5D\r\n
$GPGGA,085622.25,5703.3213500,N,00952.3225912,E,2,9,1.2,-2.355,M,40.593,M,3.0,0123*56\r\n
$GPGGA,085622.30,5703.3213406,N,00952.3225940,E,2,9,1.2,-2.355,M,40.593,M,3.0,0123*52\r\n
$GPGGA,085622.35,5703.3213311,N,00952.3225979,E,2,9,1.2,-2.355,M,40.593,M,3.0,0123*5C\r\n
$GPGGA,085622.40,5703.3213220,N,00952.3226009,E,2,9,1.2,-2.355,M,40.593,M,3.0,0123*50\r\n
$GPGGA,085622.45,5703.3213132,N,00952.3226027,E,2,9,1.2,-2.346,M,40.593,M,3.2,0123*59\r\n
$GPGGA,085622.50,5703.3213054,N,00952.3226060,E,2,9,1.2,-2.345,M,40.593,M,3.2,0123*5C\r\n
$GPGGA,085622.55,5703.3212970,N,00952.3226088,E,2,9,1.2,-2.346,M,40.593,M,3.2,0123*52\r\n
$GPGGA,085622.60,5703.3212880,N,00952.3226129,E,2,9,1.2,-2.346,M,40.593,M,3.2,0123*50\r\n
$GPGGA,085622.65,5703.3212791,N,00952.3226170,E,2,9,1.2,-2.349,M,40.593,M,3.4,0123*5F\r\n
$GPGGA,085622.70,5703.3212700,N,00952.3226211,E,2,9,1.2,-2.350,M,40.593,M,3.4,0123*5F\r\n
$GPGGA,085622.75,5703.3212603,N,00952.3226241,E,2,9,1.2,-2.351,M,40.593,M,3.4,0123*5C\r\n
$GPGGA,085622.80,5703.3212498,N,00952.3226273,E,2,9,1.2,-2.351,M,40.593,M,3.4,0123*57\r\n
$GPGGA,085622.85,5703.3212409,N,00952.3226296,E,2,9,1.2,-2.353,M,40.593,M,3.6,0123*51\r\n
$GPGGA,085622.90,5703.3212327,N,00952.3226322,E,2,9,1.2,-2.353,M,40.593,M,3.6,0123*50\r\n
$GPGGA,085622.95,5703.3212245,N,00952.3226352,E,2,9,1.2,-2.354,M,40.593,M,3.6,0123*50\r\n
$GPGGA,085623.00,5703.3212155,N,00952.3226381,E,2,9,1.2,-2.355,M,40.593,M,3.6,0123*50\r\n
$GPGGA,085623.05,5703.3212061,N,00952.3226407,E,2,9,1.2,-2.351,M,40.593,M,3.8,0123*50\r\n
$GPGGA,085623.10,5703.3211972,N,00952.3226431,E,2,9,1.2,-2.354,M,40.593,M,3.8,0123*5C\r\n
$GPGGA,085623.15,5703.3211891,N,00952.3226466,E,2,9,1.2,-2.354,M,40.593,M,3.8,0123*57\r\n
$GPGGA,085623.20,5703.3211817,N,00952.3226492,E,2,9,1.2,-2.352,M,40.593,M,3.8,0123*52\r\n
$GPGGA,085623.25,5703.3211732,N,00952.3226531,E,2,9,1.2,-2.348,M,40.593,M,4.0,0123*53\r\n
$GPGGA,085623.30,5703.3211641,N,00952.3226561,E,2,9,1.2,-2.349,M,40.593,M,4.0,0123*56\r\n
$GPGGA,085623.35,5703.3211556,N,00952.3226592,E,2,9,1.2,-2.350,M,40.593,M,4.0,0123*52\r\n
$GPGGA,085623.40,5703.3211477,N,00952.3226616,E,2,9,1.2,-2.349,M,40.593,M,4.0,0123*55\r\n
$GPGGA,085623.45,5703.3211374,N,00952.3226652,E,2,9,1.2,-2.353,M,40.593,M,2.4,0123*5D\r\n
$GPGGA,085623.50,5703.3211282,N,00952.3226689,E,2,9,1.2,-2.353,M,40.593,M,2.4,0123*57\r\n
$GPGGA,085623.55,5703.3211200,N,00952.3226725,E,2,9,1.2,-2.352,M,40.593,M,2.4,0123*5E\r\n
$GPGGA,085623.60,5703.3211121,N,00952.3226749,E,2,9,1.2,-2.352,M,40.593,M,2.4,0123*52\r\n
$GPGGA,085623.65,5703.3211040,N,00952.3226776,E,2,9,1.2,-2.352,M,40.593,M,2.7,0123*5E\r\n
$GPGGA,085623.70,5703.3210945,N,00952.3226805,E,2,9,1.2,-2.350,M,40.593,M,2.7,0123*5E\r\n
$GPGGA,085623.75,5703.3210853,N,00952.3226830,E,2,9,1.2,-2.352,M,40.593,M,2.7,0123*59\r\n
$GPGGA,085623.80,5703.3210767,N,00952.3226864,E,2,9,1.2,-2.350,M,40.593,M,2.7,0123*58\r\n
$GPGGA,085623.85,5703.3210673,N,00952.3226893,E,2,9,1.2,-2.353,M,40.593,M,2.9,0123*5C\r\n
$GPGGA,085623.90,5703.3210595,N,00952.3226927,E,2,9,1.2,-2.352,M,40.593,M,2.9,0123*5C\r\n
$GPGGA,085623.95,5703.3210511,N,00952.3226957,E,2,9,1.2,-2.353,M,40.593,M,2.9,0123*53\r\n
$GPGGA,085624.00,5703.3210430,N,00952.3226995,E,2,9,1.2,-2.354,M,40.593,M,2.9,0123*53\r\n
$GPGGA,085624.05,5703.3210340,N,00952.3227035,E,2,9,1.2,-2.361,M,40.593,M,3.2,0123*58\r\n
$GPGGA,085624.10,5703.3210263,N,00952.3227057,E,2,9,1.2,-2.360,M,40.593,M,3.2,0123*59\r\n
$GPGGA,085624.15,5703.3210173,N,00952.3227086,E,2,9,1.2,-2.359,M,40.593,M,3.2,0123*58\r\n
$GPGGA,085624.20,5703.3210079,N,00952.3227119,E,2,9,1.2,-2.359,M,40.593,M,3.2,0123*52\r\n
$GPGGA,085624.25,5703.3209993,N,00952.3227141,E,2,9,1.2,-2.352,M,40.593,M,3.4,0123*52\r\n
$GPGGA,085624.30,5703.3209895,N,00952.3227168,E,2,9,1.2,-2.351,M,40.593,M,3.4,0123*59\r\n
$GPGGA,085624.35,5703.3209818,N,00952.3227201,E,2,9,1.2,-2.351,M,40.593,M,3.4,0123*55\r\n
$GPGGA,085624.40,5703.3209740,N,00952.3227229,E,2,9,1.2,-2.350,M,40.593,M,3.4,0123*5E\r\n
$GPGGA,085624.45,5703.3209652,N,00952.3227256,E,2,9,1.2,-2.353,M,40.593,M,2.2,0123*55\r\n
$GPGGA,085624.50,5703.3209575,N,00952.3227293,E,2,9,1.2,-2.353,M,40.593,M,2.2,0123*5E\r\n
$GPGGA,085624.55,5703.3209492,N,00952.3227317,E,2,9,1.2,-2.352,M,40.593,M,2.2,0123*5F\r\n
$GPGGA,085624.60,5703.3209399,N,00952.3227348,E,2,9,1.2,-2.353,M,40.593,M,2.2,0123*5E\r\n
$GPGGA,085624.65,5703.3209316,N,00952.3227368,E,2,9,1.2,-2.353,M,40.593,M,2.4,0123*58\r\n
$GPGGA,085624.70,5703.3209238,N,00952.3227400,E,2,9,1.2,-2.355,M,40.593,M,2.4,0123*5E\r\n
$GPGGA,085624.75,5703.3209155,N,00952.3227435,E,2,9,1.2,-2.356,M,40.593,M,2.4,0123*56\r\n
$GPGGA,085624.80,5703.3209069,N,00952.3227468,E,2,9,1.2,-2.356,M,40.593,M,2.4,0123*5A\r\n
$GPGGA,085624.85,5703.3208981,N,00952.3227497,E,2,9,1.2,-2.356,M,40.593,M,2.7,0123*52\r\n
$GPGGA,085624.90,5703.3208897,N,00952.3227523,E,2,9,1.2,-2.357,M,40.593,M,2.7,0123*5F\r\n
$GPGGA,085624.95,5703.3208815,N,00952.3227557,E,2,9,1.2,-2.357,M,40.593,M,2.7,0123*53\r\n
$GPGGA,085625.00,5703.3208739,N,00952.3227584,E,2,9,1.2,-2.356,M,40.593,M,2.7,0123*50\r\n
$GPGGA,085625.05,5703.3208653,N,00952.3227609,E,2,9,1.2,-2.359,M,40.593,M,2.9,0123*5F\r\n
$GPGGA,085625.10,5703.3208561,N,00952.3227642,E,2,9,1.2,-2.362,M,40.593,M,2.9,0123*5E\r\n
$GPGGA,085625.15,5703.3208480,N,00952.3227682,E,2,9,1.2,-2.362,M,40.593,M,2.9,0123*59\r\n
$GPGGA,085625.20,5703.3208395,N,00952.3227720,E,2,9,1.2,-2.363,M,40.593,M,2.9,0123*54\r\n
$GPGGA,085625.25,5703.3208316,N,00952.3227748,E,2,9,1.2,-2.357,M,40.593,M,3.1,0123*5A\r\n
$GPGGA,085625.30,5703.3208235,N,00952.3227781,E,2,9,1.2,-2.356,M,40.593,M,3.1,0123*5A\r\n
$GPGGA,085625.35,5703.3208153,N,00952.3227804,E,2,9,1.2,-2.355,M,40.593,M,3.1,0123*5D\r\n
$GPGGA,085625.40,5703.3208069,N,00952.3227833,E,2,9,1.2,-2.356,M,40.593,M,3.1,0123*50\r\n
$GPGGA,085625.45,5703.3207997,N,00952.3227858,E,2,9,1.2,-2.358,M,40.593,M,2.1,0123*50\r\n
$GPGGA,085625.50,5703.3207915,N,00952.3227894,E,2,9,1.2,-2.357,M,40.593,M,2.1,0123*51\r\n
$GPGGA,085625.55,5703.3207838,N,00952.3227929,E,2,9,1.2,-2.355,M,40.593,M,2.1,0123*5F\r\n
$GPGGA,085625.60,5703.3207757,N,00952.3227964,E,2,9,1.2,-2.354,M,40.593,M,2.1,0123*57\r\n
$GPGGA,085625.65,5703.3207668,N,00952.3227996,E,2,9,1.2,-2.355,M,40.593,M,2.3,0123*51\r\n
$GPGGA,085625.70,5703.3207587,N,00952.3228026,E,2,9,1.2,-2.356,M,40.593,M,2.3,0123*59\r\n
$GPGGA,085625.75,5703.3207496,N,00952.3228067,E,2,9,1.2,-2.356,M,40.593,M,2.3,0123*58\r\n
$GPGGA,085625.80,5703.3207421,N,00952.3228100,E,2,9,1.2,-2.352,M,40.593,M,2.3,0123*5A\r\n
$GPGGA,085625.85,5703.3207352,N,00952.3228125,E,2,9,1.2,-2.351,M,40.593,M,2.6,0123*5D\r\n
$GPGGA,085625.90,5703.3207282,N,00952.3228152,E,2,9,1.2,-2.354,M,40.593,M,2.6,0123*50\r\n
$GPGGA,085625.95,5703.3207189,N,00952.3228166,E,2,9,1.2,-2.355,M,40.593,M,2.6,0123*5B\r\n
$GPGGA,085626.00,5703.3207101,N,00952.3228178,E,2,9,1.2,-2.354,M,40.593,M,2.6,0123*5A\r\n
$GPGGA,085626.05,5703.3207016,N,00952.3228211,E,2,9,1.2,-2.361,M,40.593,M,2.8,0123*5C\r\n
$GPGGA,085626.10,5703.3206931,N,00952.3228240,E,2,9,1.2,-2.362,M,40.593,M,2.8,0123*52\r\n
$GPGGA,085626.15,5703.3206842,N,00952.3228272,E,2,9,1.2,-2.362,M,40.593,M,2.8,0123*53\r\n
$GPGGA,085626.20,5703.3206760,N,00952.3228289,E,2,9,1.2,-2.363,M,40.593,M,2.8,0123*5F\r\n
$GPGGA,085626.25,5703.3206689,N,00952.3228321,E,2,9,1.2,-2.360,M,40.593,M,3.0,0123*55\r\n
$GPGGA,085626.30,5703.3206622,N,00952.3228351,E,2,9,1.2,-2.359,M,40.593,M,3.0,0123*5D\r\n
$GPGGA,085626.35,5703.3206544,N,00952.3228392,E,2,9,1.2,-2.357,M,40.593,M,3.0,0123*5A\r\n
$GPGGA,085626.40,5703.3206464,N,00952.3228442,E,2,9,1.2,-2.355,M,40.593,M,3.0,0123*53\r\n
$GPGGA,085626.45,5703.3206385,N,00952.3228488,E,2,9,1.2,-2.354,M,40.593,M,0.9,0123*53\r\n
$GPGGA,085626.50,5703.3206305,N,00952.3228525,E,2,9,1.2,-2.354,M,40.593,M,0.9,0123*59\r\n
$GPGGA,085626.55,5703.3206230,N,00952.3228568,E,2,9,1.2,-2.354,M,40.593,M,0.9,0123*52\r\n
$GPGGA,085626.60,5703.3206150,N,00952.3228602,E,2,9,1.2,-2.352,M,40.593,M,0.9,0123*58\r\n
$GPGGA,085626.65,5703.3206064,N,00952.3228645,E,2,9,1.2,-2.359,M,40.593,M,1.3,0123*58\r\n
$GPGGA,085626.70,5703.3205993,N,00952.3228679,E,2,9,1.2,-2.360,M,40.593,M,1.3,0123*5B\r\n
$GPGGA,085626.75,5703.3205917,N,00952.3228706,E,2,9,1.2,-2.360,M,40.593,M,1.3,0123*5B\r\n
$GPGGA,085626.80,5703.3205837,N,00952.3228735,E,2,9,1.2,-2.359,M,40.593,M,1.3,0123*58\r\n
$GPGGA,085626.85,5703.3205754,N,00952.3228756,E,2,9,1.2,-2.358,M,40.593,M,1.6,0123*56\r\n
$GPGGA,085626.90,5703.3205668,N,00952.3228780,E,2,9,1.2,-2.360,M,40.593,M,1.6,0123*5C\r\n
$GPGGA,085626.95,5703.3205590,N,00952.3228810,E,2,9,1.2,-2.361,M,40.593,M,1.6,0123*5A\r\n
$GPGGA,085627.00,5703.3205514,N,00952.3228838,E,2,9,1.2,-2.361,M,40.593,M,1.6,0123*51\r\n
$GPGGA,085627.05,5703.3205435,N,00952.3228881,E,2,9,1.2,-2.362,M,40.593,M,1.9,0123*58\r\n
$GPGGA,085627.10,5703.3205346,N,00952.3228911,E,2,9,1.2,-2.361,M,40.593,M,1.9,0123*54\r\n
$GPGGA,085627.15,5703.3205260,N,00952.3228941,E,2,9,1.2,-2.360,M,40.593,M,1.9,0123*50\r\n
$GPGGA,085627.20,5703.3205189,N,00952.3228967,E,2,9,1.2,-2.360,M,40.593,M,1.9,0123*56\r\n
$GPGGA,085627.25,5703.3205110,N,00952.3229001,E,2,9,1.2,-2.361,M,40.593,M,2.2,0123*52\r\n
$GPGGA,085627.30,5703.3205032,N,00952.3229031,E,2,9,1.2,-2.362,M,40.593,M,2.2,0123*57\r\n
$GPGGA,085627.35,5703.3204956,N,00952.3229052,E,2,9,1.2,-2.362,M,40.593,M,2.2,0123*5D\r\n
$GPGGA,085627.40,5703.3204878,N,00952.3229077,E,2,9,1.2,-2.361,M,40.593,M,2.2,0123*56\r\n
$GPGGA,085627.45,5703.3204807,N,00952.3229106,E,2,9,1.2,-2.361,M,40.593,M,0.9,0123*55\r\n
$GPGGA,085627.50,5703.3204722,N,00952.3229141,E,2,9,1.2,-2.363,M,40.593,M,0.9,0123*58\r\n
$GPGGA,085627.55,5703.3204643,N,00952.3229167,E,2,9,1.2,-2.364,M,40.593,M,0.9,0123*58\r\n
$GPGGA,085627.60,5703.3204570,N,00952.3229193,E,2,9,1.2,-2.363,M,40.593,M,0.9,0123*51\r\n
$GPGGA,085627.65,5703.3204497,N,00952.3229231,E,2,9,1.2,-2.360,M,40.593,M,1.2,0123*5E\r\n
$GPGGA,085627.70,5703.3204420,N,00952.3229265,E,2,9,1.2,-2.359,M,40.593,M,1.2,0123*5D\r\n
$GPGGA,085627.75,5703.3204334,N,00952.3229298,E,2,9,1.2,-2.360,M,40.593,M,1.2,0123*52\r\n
$GPGGA,085627.80,5703.3204257,N,00952.3229329,E,2,9,1.2,-2.360,M,40.593,M,1.2,0123*57\r\n
$GPGGA,085627.85,5703.3204189,N,00952.3229353,E,2,9,1.2,-2.359,M,40.593,M,1.5,0123*52\r\n
$GPGGA,085627.90,5703.3204119,N,00952.3229374,E,2,9,1.2,-2.358,M,40.593,M,1.5,0123*5B\r\n
$GPGGA,085627.95,5703.3204047,N,00952.3229396,E,2,9,1.2,-2.357,M,40.593,M,1.5,0123*57\r\n
$GPGGA,085628.00,5703.3203969,N,00952.3229420,E,2,9,1.2,-2.357,M,40.593,M,1.5,0123*5C\r\n
$GPGGA,085628.05,5703.3203892,N,00952.3229455,E,2,9,1.2,-2.356,M,40.593,M,1.7,0123*5D\r\n
$GPGGA,085628.10,5703.3203817,N,00952.3229487,E,2,9,1.2,-2.358,M,40.593,M,1.7,0123*55\r\n
$GPGGA,085628.15,5703.3203731,N,00952.3229520,E,2,9,1.2,-2.360,M,40.593,M,1.7,0123*5C\r\n
$GPGGA,085628.20,5703.3203655,N,00952.3229550,E,2,9,1.2,-2.363,M,40.593,M,1.7,0123*5D\r\n
$GPGGA,085628.25,5703.3203575,N,00952.3229580,E,2,9,1.2,-2.361,M,40.593,M,2.0,0123*52\r\n
$GPGGA,085628.30,5703.3203492,N,00952.3229615,E,2,9,1.2,-2.359,M,40.593,M,2.0,0123*5A\r\n
$GPGGA,085628.35,5703.3203410,N,00952.3229646,E,2,9,1.2,-2.361,M,40.593,M,2.0,0123*58\r\n
$GPGGA,085628.40,5703.3203338,N,00952.3229670,E,2,9,1.2,-2.361,M,40.593,M,2.0,0123*52\r\n
$GPGGA,085628.45,5703.3203263,N,00952.3229707,E,2,9,1.2,-2.362,M,40.593,M,0.8,0123*50\r\n
$GPGGA,085628.50,5703.3203196,N,00952.3229735,E,2,9,1.2,-2.363,M,40.593,M,0.8,0123*5D\r\n
$GPGGA,085628.55,5703.3203115,N,00952.3229762,E,2,9,1.2,-2.363,M,40.593,M,0.8,0123*51\r\n
$GPGGA,085628.60,5703.3203038,N,00952.3229791,E,2,9,1.2,-2.363,M,40.593,M,0.8,0123*55\r\n
$GPGGA,085628.65,5703.3202969,N,00952.3229819,E,2,9,1.2,-2.356,M,40.593,M,1.1,0123*5D\r\n
$GPGGA,085628.70,5703.3202881,N,00952.3229850,E,2,9,1.2,-2.354,M,40.593,M,1.1,0123*51\r\n
$GPGGA,085628.75,5703.3202797,N,00952.3229874,E,2,9,1.2,-2.354,M,40.593,M,1.1,0123*5A\r\n
$GPGGA,085628.80,5703.3202711,N,00952.3229905,E,2,9,1.2,-2.354,M,40.593,M,1.1,0123*59\r\n
$GPGGA,085628.85,5703.3202634,N,00952.3229940,E,2,9,1.2,-2.358,M,40.593,M,1.4,0123*52\r\n
$GPGGA,085628.90,5703.3202566,N,00952.3229972,E,2,9,1.2,-2.357,M,40.593,M,1.4,0123*5C\r\n
$GPGGA,085628.95,5703.3202483,N,00952.3230004,E,2,9,1.2,-2.359,M,40.593,M,1.4,0123*5D\r\n
$GPGGA,085629.00,5703.3202396,N,00952.3230031,E,2,9,1.2,-2.358,M,40.593,M,1.4,0123*54\r\n
$GPGGA,085629.05,5703.3202293,N,00952.3230071,E,2,9,1.2,-2.356,M,40.593,M,1.6,0123*5D\r\n
$GPGGA,085629.10,5703.3202201,N,00952.3230112,E,2,9,1.2,-2.355,M,40.593,M,1.6,0123*55\r\n
$GPGGA,085629.15,5703.3202100,N,00952.3230152,E,2,9,1.2,-2.356,M,40.593,M,1.6,0123*55\r\n
$GPGGA,085629.20,5703.3202004,N,00952.3230189,E,2,9,1.2,-2.358,M,40.593,M,1.6,0123*5E\r\n
$GPGGA,085629.25,5703.3201913,N,00952.3230223,E,2,9,1.2,-2.357,M,40.593,M,1.9,0123*54\r\n
$GPGGA,085629.30,5703.3201818,N,00952.3230263,E,2,9,1.2,-2.356,M,40.593,M,1.9,0123*5F\r\n
$GPGGA,085629.35,5703.3201723,N,00952.3230307,E,2,9,1.2,-2.355,M,40.593,M,1.9,0123*5D\r\n
$GPGGA,085629.40,5703.3201629,N,00952.3230342,E,2,9,1.2,-2.357,M,40.593,M,1.9,0123*57\r\n
$GPGGA,085629.45,5703.3201525,N,00952.3230385,E,2,9,1.2,-2.363,M,40.593,M,2.1,0123*5A\r\n
$GPGGA,085629.50,5703.3201429,N,00952.3230435,E,2,9,1.2,-2.362,M,40.593,M,2.1,0123*5E\r\n
$GPGGA,085629.55,5703.3201336,N,00952.3230486,E,2,9,1.2,-2.365,M,40.593,M,2.1,0123*5D\r\n
$GPGGA,085629.60,5703.3201240,N,00952.3230534,E,2,9,1.2,-2.364,M,40.593,M,2.1,0123*52\r\n
$GPGGA,085629.65,5703.3201156,N,00952.3230564,E,2,9,1.2,-2.360,M,40.593,M,2.3,0123*50\r\n
$GPGGA,085629.70,5703.3201062,N,00952.3230597,E,2,9,1.2,-2.358,M,40.593,M,2.3,0123*55\r\n
$GPGGA,085629.75,5703.3200958,N,00952.3230635,E,2,9,1.2,-2.359,M,40.593,M,2.3,0123*5B\r\n
$GPGGA,085629.80,5703.3200855,N,00952.3230688,E,2,9,1.2,-2.360,M,40.593,M,2.3,0123*51\r\n
$GPGGA,085629.85,5703.3200754,N,00952.3230747,E,2,9,1.2,-2.364,M,40.593,M,2.6,0123*59\r\n
$GPGGA,085629.90,5703.3200642,N,00952.3230794,E,2,9,1.2,-2.367,M,40.593,M,2.6,0123*56\r\n
$GPGGA,085629.95,5703.3200541,N,00952.3230838,E,2,9,1.2,-2.368,M,40.593,M,2.6,0123*55\r\n
$GPGGA,085630.00,5703.3200440,N,00952.3230885,E,2,9,1.2,-2.365,M,40.593,M,2.6,0123*5A\r\n
$GPGGA,085630.05,5703.3200326,N,00952.3230931,E,2,9,1.2,-2.363,M,40.593,M,2.8,0123*5E\r\n
$GPGGA,085630.10,5703.3200223,N,00952.3230969,E,2,9,1.2,-2.363,M,40.593,M,2.8,0123*53\r\n
$GPGGA,085630.15,5703.3200123,N,00952.3231010,E,2,9,1.2,-2.364,M,40.593,M,2.8,0123*54\r\n
$GPGGA,085630.20,5703.3200019,N,00952.3231060,E,2,9,1.2,-2.367,M,40.593,M,2.8,0123*5E\r\n
$GPGGA,085630.25,5703.3199922,N,00952.3231120,E,2,9,1.2,-2.373,M,40.593,M,3.0,0123*50\r\n
$GPGGA,085630.30,5703.3199811,N,00952.3231169,E,2,9,1.2,-2.373,M,40.593,M,3.0,0123*58\r\n
$GPGGA,085630.35,5703.3199699,N,00952.3231212,E,2,9,1.2,-2.366,M,40.593,M,3.0,0123*58\r\n
$GPGGA,085630.40,5703.3199581,N,00952.3231261,E,2,9,1.2,-2.364,M,40.593,M,3.0,0123*56\r\n
$GPGGA,085630.45,5703.3199492,N,00952.3231303,E,2,9,1.2,-2.352,M,40.593,M,0.9,0123*5A\r\n
$GPGGA,085630.50,5703.3199387,N,00952.3231359,E,2,9,1.2,-2.353,M,40.593,M,0.9,0123*53\r\n
$GPGGA,085630.55,5703.3199283,N,00952.3231421,E,2,9,1.2,-2.354,M,40.593,M,0.9,0123*5C\r\n
$GPGGA,085630.60,5703.3199172,N,00952.3231470,E,2,9,1.2,-2.355,M,40.593,M,0.9,0123*52\r\n
$GPGGA,085630.65,5703.3199043,N,00952.3231516,E,2,9,1.2,-2.370,M,40.593,M,1.3,0123*59\r\n
$GPGGA,085630.70,5703.3198910,N,00952.3231561,E,2,9,1.2,-2.371,M,40.593,M,1.3,0123*52\r\n
$GPGGA,085630.75,5703.3198798,N,00952.3231614,E,2,9,1.2,-2.374,M,40.593,M,1.3,0123*5D\r\n
$GPGGA,085630.80,5703.3198682,N,00952.3231670,E,2,9,1.2,-2.374,M,40.593,M,1.3,0123*5F\r\n
$GPGGA,085630.85,5703.3198564,N,00952.3231726,E,2,9,1.2,-2.367,M,40.593,M,1.6,0123*54\r\n
$GPGGA,085630.90,5703.3198435,N,00952.3231784,E,2,9,1.2,-2.364,M,40.593,M,1.6,0123*5E\r\n
$GPGGA,085630.95,5703.3198320,N,00952.3231845,E,2,9,1.2,-2.363,M,40.593,M,1.6,0123*5D\r\n
$GPGGA,085631.00,5703.3198216,N,00952.3231894,E,2,9,1.2,-2.361,M,40.593,M,1.6,0123*5A\r\n
$GPGGA,085631.05,5703.3198105,N,00952.3231940,E,2,9,1.2,-2.363,M,40.593,M,1.9,0123*5B\r\n
$GPGGA,085631.10,5703.3197989,N,00952.3232003,E,2,9,1.2,-2.366,M,40.593,M,1.9,0123*54\r\n
$GPGGA,085631.15,5703.3197847,N,00952.3232067,E,2,9,1.2,-2.364,M,40.593,M,1.9,0123*52\r\n
$GPGGA,085631.20,5703.3197703,N,00952.3232123,E,2,9,1.2,-2.365,M,40.593,M,1.9,0123*5B\r\n
$GPGGA,085631.25,5703.3197581,N,00952.3232166,E,2,9,1.2,-2.365,M,40.593,M,2.2,0123*5F\r\n
$GPGGA,085631.30,5703.3197474,N,00952.3232224,E,2,9,1.2,-2.366,M,40.593,M,2.2,0123*56\r\n
$GPGGA,085631.35,5703.3197360,N,00952.3232284,E,2,9,1.2,-2.367,M,40.593,M,2.2,0123*5A\r\n
$GPGGA,085631.40,5703.3197225,N,00952.3232355,E,2,9,1.2,-2.369,M,40.593,M,2.2,0123*5B\r\n
$GPGGA,085631.45,5703.3197086,N,00952.3232419,E,2,9,1.2,-2.373,M,40.593,M,0.9,0123*58\r\n
$GPGGA,085631.50,5703.3196960,N,00952.3232474,E,2,9,1.2,-2.371,M,40.593,M,0.9,0123*55\r\n
$GPGGA,085631.55,5703.3196849,N,00952.3232526,E,2,9,1.2,-2.372,M,40.593,M,0.9,0123*5F\r\n
$GPGGA,085631.60,5703.3196742,N,00952.3232591,E,2,9,1.2,-2.373,M,40.593,M,0.9,0123*50\r\n
$GPGGA,085631.65,5703.3196607,N,00952.3232663,E,2,9,1.2,-2.371,M,40.593,M,1.2,0123*53\r\n
$GPGGA,085631.70,5703.3196453,N,00952.3232744,E,2,9,1.2,-2.369,M,40.593,M,1.2,0123*59\r\n
$GPGGA,085631.75,5703.3196313,N,00952.3232805,E,2,9,1.2,-2.368,M,40.593,M,1.2,0123*54\r\n
$GPGGA,085631.80,5703.3196194,N,00952.3232855,E,2,9,1.2,-2.368,M,40.593,M,1.2,0123*56\r\n
$GPGGA,085631.85,5703.3196084,N,00952.3232900,E,2,9,1.2,-2.365,M,40.593,M,1.5,0123*58\r\n
$GPGGA,085631.90,5703.3195962,N,00952.3232947,E,2,9,1.2,-2.363,M,40.593,M,1.5,0123*5B\r\n
$GPGGA,085631.95,5703.3195805,N,00952.3233016,E,2,9,1.2,-2.363,M,40.593,M,1.5,0123*52\r\n
$GPGGA,085632.00,5703.3195661,N,00952.3233090,E,2,9,1.2,-2.364,M,40.593,M,1.5,0123*58\r\n
$GPGGA,085632.05,5703.3195522,N,00952.3233169,E,2,9,1.2,-2.373,M,40.593,M,1.7,0123*5A\r\n
$GPGGA,085632.10,5703.3195401,N,00952.3233229,E,2,9,1.2,-2.375,M,40.593,M,1.7,0123*5F\r\n
$GPGGA,085632.15,5703.3195277,N,00952.3233289,E,2,9,1.2,-2.377,M,40.593,M,1.7,0123*55\r\n
$GPGGA,085632.20,5703.3195136,N,00952.3233359,E,2,9,1.2,-2.378,M,40.593,M,1.7,0123*56\r\n
$GPGGA,085632.25,5703.3194991,N,00952.3233422,E,2,9,1.2,-2.372,M,40.593,M,2.0,0123*52\r\n
$GPGGA,085632.30,5703.3194851,N,00952.3233484,E,2,9,1.2,-2.371,M,40.593,M,2.0,0123*54\r\n
$GPGGA,085632.35,5703.3194726,N,00952.3233539,E,2,9,1.2,-2.367,M,40.593,M,2.0,0123*5E\r\n
$GPGGA,085632.40,5703.3194594,N,00952.3233590,E,2,9,1.2,-2.369,M,40.593,M,2.0,0123*5A\r\n
$GPGGA,085632.45,5703.3194449,N,00952.3233663,E,2,9,1.2,-2.370,M,40.593,M,2.2,0123*5B\r\n
$GPGGA,085632.50,5703.3194308,N,00952.3233740,E,2,9,1.2,-2.372,M,40.593,M,2.2,0123*5F\r\n
$GPGGA,085632.55,5703.3194171,N,00952.3233812,E,2,9,1.2,-2.371,M,40.593,M,2.2,0123*5D\r\n
$GPGGA,085632.60,5703.3194041,N,00952.3233877,E,2,9,1.2,-2.369,M,40.593,M,2.2,0123*53\r\n
$GPGGA,085632.65,5703.3193902,N,00952.3233948,E,2,9,1.2,-2.367,M,40.593,M,2.4,0123*5A\r\n
$GPGGA,085632.70,5703.3193741,N,00952.3234034,E,2,9,1.2,-2.369,M,40.593,M,2.4,0123*5C\r\n
$GPGGA,085632.75,5703.3193587,N,00952.3234130,E,2,9,1.2,-2.371,M,40.593,M,2.4,0123*5D\r\n
$GPGGA,085632.80,5703.3193459,N,00952.3234210,E,2,9,1.2,-2.371,M,40.593,M,2.4,0123*54\r\n
$GPGGA,085632.85,5703.3193331,N,00952.3234259,E,2,9,1.2,-2.368,M,40.593,M,2.7,0123*5E\r\n
$GPGGA,085632.90,5703.3193191,N,00952.3234320,E,2,9,1.2,-2.366,M,40.593,M,2.7,0123*53\r\n
$GPGGA,085632.95,5703.3193052,N,00952.3234395,E,2,9,1.2,-2.363,M,40.593,M,2.7,0123*53\r\n
$GPGGA,085633.00,5703.3192913,N,00952.3234460,E,2,9,1.2,-2.364,M,40.593,M,2.7,0123*59\r\n
$GPGGA,085633.05,5703.3192770,N,00952.3234525,E,2,9,1.2,-2.369,M,40.593,M,2.9,0123*54\r\n
$GPGGA,085633.10,5703.3192632,N,00952.3234581,E,2,9,1.2,-2.368,M,40.593,M,2.9,0123*58\r\n
$GPGGA,085633.15,5703.3192484,N,00952.3234645,E,2,9,1.2,-2.367,M,40.593,M,2.9,0123*56\r\n
$GPGGA,085633.20,5703.3192332,N,00952.3234727,E,2,9,1.2,-2.365,M,40.593,M,2.9,0123*5D\r\n
$GPGGA,085633.25,5703.3192179,N,00952.3234818,E,2,9,1.2,-2.363,M,40.593,M,3.1,0123*59\r\n
$GPGGA,085633.30,5703.3192023,N,00952.3234904,E,2,9,1.2,-2.365,M,40.593,M,3.1,0123*59\r\n
$GPGGA,085633.35,5703.3191870,N,00952.3234977,E,2,9,1.2,-2.366,M,40.593,M,3.1,0123*56\r\n
$GPGGA,085633.40,5703.3191730,N,00952.3235025,E,2,9,1.2,-2.365,M,40.593,M,3.1,0123*53\r\n
$GPGGA,085633.45,5703.3191580,N,00952.3235109,E,2,9,1.2,-2.372,M,40.593,M,2.1,0123*57\r\n
$GPGGA,085633.50,5703.3191434,N,00952.3235177,E,2,9,1.2,-2.371,M,40.593,M,2.1,0123*57\r\n
$GPGGA,085633.55,5703.3191289,N,00952.3235257,E,2,9,1.2,-2.373,M,40.593,M,2.1,0123*51\r\n
$GPGGA,085633.60,5703.3191135,N,00952.3235333,E,2,9,1.2,-2.376,M,40.593,M,2.1,0123*55\r\n
$GPGGA,085633.65,5703.3190975,N,00952.3235426,E,2,9,1.2,-2.374,M,40.593,M,2.3,0123*5E\r\n
$GPGGA,085633.70,5703.3190813,N,00952.3235509,E,2,9,1.2,-2.374,M,40.593,M,2.3,0123*57\r\n
$GPGGA,085633.75,5703.3190660,N,00952.3235577,E,2,9,1.2,-2.376,M,40.593,M,2.3,0123*53\r\n
$GPGGA,085633.80,5703.3190517,N,00952.3235644,E,2,9,1.2,-2.377,M,40.593,M,2.3,0123*58\r\n
$GPGGA,085633.85,5703.3190360,N,00952.3235726,E,2,9,1.2,-2.378,M,40.593,M,2.6,0123*54\r\n
$GPGGA,085633.90,5703.3190204,N,00952.3235827,E,2,9,1.2,-2.378,M,40.593,M,2.6,0123*5D\r\n
$GPGGA,085633.95,5703.3190049,N,00952.3235908,E,2,9,1.2,-2.377,M,40.593,M,2.6,0123*50\r\n
$GPGGA,085634.00,5703.3189912,N,00952.3235987,E,2,9,1.2,-2.373,M,40.593,M,2.6,0123*57\r\n
$GPGGA,085634.05,5703.3189775,N,00952.3236056,E,2,9,1.2,-2.367,M,40.593,M,2.8,0123*50\r\n
$GPGGA,085634.10,5703.3189618,N,00952.3236124,E,2,9,1.2,-2.368,M,40.593,M,2.8,0123*55\r\n
$GPGGA,085634.15,5703.3189451,N,00952.3236207,E,2,9,1.2,-2.369,M,40.593,M,2.8,0123*5C\r\n
$GPGGA,085634.20,5703.3189276,N,00952.3236293,E,2,9,1.2,-2.370,M,40.593,M,2.8,0123*5C\r\n
$GPGGA,085634.25,5703.3189099,N,00952.3236384,E,2,9,1.2,-2.375,M,40.593,M,3.0,0123*51\r\n
$GPGGA,085634.30,5703.3188945,N,00952.3236476,E,2,9,1.2,-2.375,M,40.593,M,3.0,0123*56\r\n
$GPGGA,085634.35,5703.3188775,N,00952.3236570,E,2,9,1.2,-2.375,M,40.593,M,3.0,0123*59\r\n
$GPGGA,085634.40,5703.3188617,N,00952.3236647,E,2,9,1.2,-2.374,M,40.593,M,3.0,0123*58\r\n
$GPGGA,085634.45,5703.3188476,N,00952.3236724,E,2,9,1.2,-2.374,M,40.593,M,3.2,0123*5E\r\n
$GPGGA,085634.50,5703.3188339,N,00952.3236815,E,2,9,1.2,-2.371,M,40.593,M,3.2,0123*5E\r\n
$GPGGA,085634.55,5703.3188179,N,00952.3236907,E,2,9,1.2,-2.371,M,40.593,M,3.2,0123*5F\r\n
$GPGGA,085634.60,5703.3188003,N,00952.3236987,E,2,9,1.2,-2.372,M,40.593,M,3.2,0123*5E\r\n
$GPGGA,085634.65,5703.3187844,N,00952.3237057,E,2,9,1.2,-2.368,M,40.593,M,3.4,0123*57\r\n
$GPGGA,085634.70,5703.3187681,N,00952.3237148,E,2,9,1.2,-2.370,M,40.593,M,3.4,0123*52\r\n
$GPGGA,085634.75,5703.3187507,N,00952.3237244,E,2,9,1.2,-2.372,M,40.593,M,3.4,0123*57\r\n
$GPGGA,085634.80,5703.3187324,N,00952.3237340,E,2,9,1.2,-2.374,M,40.593,M,3.4,0123*59\r\n
$GPGGA,085634.85,5703.3187141,N,00952.3237443,E,2,9,1.2,-2.382,M,40.593,M,3.6,0123*52\r\n
$GPGGA,085634.90,5703.3186988,N,00952.3237544,E,2,9,1.2,-2.382,M,40.593,M,3.6,0123*5C\r\n
$GPGGA,085634.95,5703.3186838,N,00952.3237642,E,2,9,1.2,-2.380,M,40.593,M,3.6,0123*54\r\n
$GPGGA,085635.00,5703.3186669,N,00952.3237735,E,2,9,1.2,-2.378,M,40.593,M,3.6,0123*55\r\n
$GPGGA,085635.05,5703.3186526,N,00952.3237802,E,2,9,1.2,-2.363,M,40.593,M,3.8,0123*57\r\n
$GPGGA,085635.10,5703.3186355,N,00952.3237891,E,2,9,1.2,-2.364,M,40.593,M,3.8,0123*5C\r\n
$GPGGA,085635.15,5703.3186174,N,00952.3237984,E,2,9,1.2,-2.364,M,40.593,M,3.8,0123*5D\r\n
$GPGGA,085635.20,5703.3186008,N,00952.3238078,E,2,9,1.2,-2.362,M,40.593,M,3.8,0123*52\r\n
$GPGGA,085635.25,5703.3185839,N,00952.3238184,E,2,9,1.2,-2.370,M,40.593,M,4.0,0123*50\r\n
$GPGGA,085635.30,5703.3185687,N,00952.3238290,E,2,9,1.2,-2.371,M,40.593,M,4.0,0123*58\r\n
$GPGGA,085635.35,5703.3185534,N,00952.3238378,E,2,9,1.2,-2.372,M,40.593,M,4.0,0123*52\r\n
$GPGGA,085635.40,5703.3185367,N,00952.3238453,E,2,9,1.2,-2.371,M,40.593,M,4.0,0123*5D\r\n
$GPGGA,085635.45,5703.3185183,N,00952.3238535,E,2,9,1.2,-2.368,M,40.593,M,2.4,0123*5B\r\n
$GPGGA,085635.50,5703.3185012,N,00952.3238625,E,2,9,1.2,-2.367,M,40.593,M,2.4,0123*5B\r\n
$GPGGA,085635.55,5703.3184844,N,00952.3238734,E,2,9,1.2,-2.369,M,40.593,M,2.4,0123*5B\r\n
$GPGGA,085635.60,5703.3184677,N,00952.3238842,E,2,9,1.2,-2.369,M,40.593,M,2.4,0123*5D\r\n
$GPGGA,085635.65,5703.3184502,N,00952.3238945,E,2,9,1.2,-2.370,M,40.593,M,2.7,0123*54\r\n
$GPGGA,085635.70,5703.3184325,N,00952.3239048,E,2,9,1.2,-2.369,M,40.593,M,2.7,0123*5E\r\n
$GPGGA,085635.75,5703.3184149,N,00952.3239158,E,2,9,1.2,-2.369,M,40.593,M,2.7,0123*53\r\n
$GPGGA,085635.80,5703.3183986,N,00952.3239266,E,2,9,1.2,-2.371,M,40.593,M,2.7,0123*52\r\n
$GPGGA,085635.85,5703.3183824,N,00952.3239347,E,2,9,1.2,-2.369,M,40.593,M,2.9,0123*5B\r\n
$GPGGA,085635.90,5703.3183636,N,00952.3239448,E,2,9,1.2,-2.370,M,40.593,M,2.9,0123*52\r\n
$GPGGA,085635.95,5703.3183462,N,00952.3239552,E,2,9,1.2,-2.373,M,40.593,M,2.9,0123*5D\r\n
$GPGGA,085636.00,5703.3183296,N,00952.3239663,E,2,9,1.2,-2.372,M,40.593,M,2.9,0123*5F\r\n
$GPGGA,085636.05,5703.3183129,N,00952.3239763,E,2,9,1.2,-2.370,M,40.593,M,3.2,0123*54\r\n
$GPGGA,085636.10,5703.3182937,N,00952.3239854,E,2,9,1.2,-2.370,M,40.593,M,3.2,0123*5D\r\n
$GPGGA,085636.15,5703.3182768,N,00952.3239955,E,2,9,1.2,-2.372,M,40.593,M,3.2,0123*5E\r\n
$GPGGA,085636.20,5703.3182606,N,00952.3240061,E,2,9,1.2,-2.375,M,40.593,M,3.2,0123*56\r\n
$GPGGA,085636.25,5703.3182449,N,00952.3240178,E,2,9,1.2,-2.376,M,40.593,M,3.4,0123*56\r\n
$GPGGA,085636.30,5703.3182281,N,00952.3240285,E,2,9,1.2,-2.374,M,40.593,M,3.4,0123*53\r\n
$GPGGA,085636.35,5703.3182108,N,00952.3240390,E,2,9,1.2,-2.370,M,40.593,M,3.4,0123*55\r\n
$GPGGA,085636.40,5703.3181934,N,00952.3240484,E,2,9,1.2,-2.368,M,40.593,M,3.4,0123*58\r\n
$GPGGA,085636.45,5703.3181770,N,00952.3240592,E,2,9,1.2,-2.364,M,40.593,M,2.2,0123*5E\r\n
$GPGGA,085636.50,5703.3181588,N,00952.3240709,E,2,9,1.2,-2.366,M,40.593,M,2.2,0123*5D\r\n
$GPGGA,085636.55,5703.3181412,N,00952.3240824,E,2,9,1.2,-2.366,M,40.593,M,2.2,0123*5A\r\n
$GPGGA,085636.60,5703.3181235,N,00952.3240927,E,2,9,1.2,-2.363,M,40.593,M,2.2,0123*58\r\n
$GPGGA,085636.65,5703.3181065,N,00952.3241039,E,2,9,1.2,-2.368,M,40.593,M,2.4,0123*50\r\n
$GPGGA,085636.70,5703.3180909,N,00952.3241156,E,2,9,1.2,-2.370,M,40.593,M,2.4,0123*57\r\n
$GPGGA,085636.75,5703.3180735,N,00952.3241281,E,2,9,1.2,-2.370,M,40.593,M,2.4,0123*5A\r\n
$GPGGA,085636.80,5703.3180547,N,00952.3241404,E,2,9,1.2,-2.368,M,40.593,M,2.4,0123*55\r\n
$GPGGA,085636.85,5703.3180362,N,00952.3241524,E,2,9,1.2,-2.368,M,40.593,M,2.7,0123*51\r\n
$GPGGA,085636.90,5703.3180184,N,00952.3241634,E,2,9,1.2,-2.372,M,40.593,M,2.7,0123*56\r\n
$GPGGA,085636.95,5703.3180002,N,00952.3241734,E,2,9,1.2,-2.373,M,40.593,M,2.7,0123*5C\r\n
$GPGGA,085637.00,5703.3179835,N,00952.3241831,E,2,9,1.2,-2.371,M,40.593,M,2.7,0123*53\r\n
$GPGGA,085637.05,5703.3179679,N,00952.3241944,E,2,9,1.2,-2.367,M,40.593,M,2.9,0123*5A\r\n
$GPGGA,085637.10,5703.3179517,N,00952.3242081,E,2,9,1.2,-2.367,M,40.593,M,2.9,0123*56\r\n
$GPGGA,085637.15,5703.3179339,N,00952.3242219,E,2,9,1.2,-2.366,M,40.593,M,2.9,0123*5B\r\n
$GPGGA,085637.20,5703.3179154,N,00952.3242346,E,2,9,1.2,-2.366,M,40.593,M,2.9,0123*5F\r\n
$GPGGA,085637.25,5703.3178972,N,00952.3242459,E,2,9,1.2,-2.370,M,40.593,M,3.1,0123*50\r\n
$GPGGA,085637.30,5703.3178784,N,00952.3242592,E,2,9,1.2,-2.374,M,40.593,M,3.1,0123*51\r\n
$GPGGA,085637.35,5703.3178604,N,00952.3242702,E,2,9,1.2,-2.376,M,40.593,M,3.1,0123*54\r\n
$GPGGA,085637.40,5703.3178432,N,00952.3242810,E,2,9,1.2,-2.376,M,40.593,M,3.1,0123*5D\r\n
$GPGGA,085637.45,5703.3178252,N,00952.3242935,E,2,9,1.2,-2.378,M,40.593,M,2.1,0123*51\r\n
$GPGGA,085637.50,5703.3178071,N,00952.3243064,E,2,9,1.2,-2.380,M,40.593,M,2.1,0123*5D\r\n
$GPGGA,085637.55,5703.3177922,N,00952.3243187,E,2,9,1.2,-2.378,M,40.593,M,2.1,0123*53\r\n
$GPGGA,085637.60,5703.3177737,N,00952.3243325,E,2,9,1.2,-2.377,M,40.593,M,2.1,0123*5A\r\n
$GPGGA,085637.65,5703.3177562,N,00952.3243471,E,2,9,1.2,-2.371,M,40.593,M,2.3,0123*5F\r\n
$GPGGA,085637.70,5703.3177373,N,00952.3243609,E,2,9,1.2,-2.370,M,40.593,M,2.3,0123*51\r\n
$GPGGA,085637.75,5703.3177201,N,00952.3243726,E,2,9,1.2,-2.373,M,40.593,M,2.3,0123*5F\r\n
$GPGGA,085637.80,5703.3177022,N,00952.3243841,E,2,9,1.2,-2.376,M,40.593,M,2.3,0123*5D\r\n
$GPGGA,085637.85,5703.3176833,N,00952.3243990,E,2,9,1.2,-2.385,M,40.593,M,2.6,0123*55\r\n
$GPGGA,085637.90,5703.3176655,N,00952.3244125,E,2,9,1.2,-2.384,M,40.593,M,2.6,0123*5F\r\n
$GPGGA,085637.95,5703.3176497,N,00952.3244266,E,2,9,1.2,-2.382,M,40.593,M,2.6,0123*54\r\n
$GPGGA,085638.00,5703.3176328,N,00952.3244416,E,2,9,1.2,-2.379,M,40.593,M,2.6,0123*51\r\n
$GPGGA,085638.05,5703.3176157,N,00952.3244532,E,2,9,1.2,-2.364,M,40.593,M,2.8,0123*5B\r\n
$GPGGA,085638.10,5703.3175966,N,00952.3244641,E,2,9,1.2,-2.366,M,40.593,M,2.8,0123*53\r\n
$GPGGA,085638.15,5703.3175792,N,00952.3244764,E,2,9,1.2,-2.367,M,40.593,M,2.8,0123*54\r\n
$GPGGA,085638.20,5703.3175613,N,00952.3244912,E,2,9,1.2,-2.367,M,40.593,M,2.8,0123*55\r\n
$GPGGA,085638.25,5703.3175422,N,00952.3245081,E,2,9,1.2,-2.374,M,40.593,M,3.0,0123*59\r\n
$GPGGA,085638.30,5703.3175244,N,00952.3245228,E,2,9,1.2,-2.375,M,40.593,M,3.0,0123*5B\r\n
$GPGGA,085638.35,5703.3175075,N,00952.3245351,E,2,9,1.2,-2.376,M,40.593,M,3.0,0123*52\r\n
$GPGGA,085638.40,5703.3174894,N,00952.3245478,E,2,9,1.2,-2.378,M,40.593,M,3.0,0123*54\r\n
$GPGGA,085638.45,5703.3174707,N,00952.3245614,E,2,9,1.2,-2.375,M,40.593,M,0.9,0123*5B\r\n
$GPGGA,085638.50,5703.3174524,N,00952.3245752,E,2,9,1.2,-2.374,M,40.593,M,0.9,0123*5E\r\n
$GPGGA,085638.55,5703.3174347,N,00952.3245910,E,2,9,1.2,-2.374,M,40.593,M,0.9,0123*50\r\n
$GPGGA,085638.60,5703.3174170,N,00952.3246072,E,2,9,1.2,-2.372,M,40.593,M,0.9,0123*58\r\n
$GPGGA,085638.65,5703.3173993,N,00952.3246224,E,2,9,1.2,-2.373,M,40.593,M,1.3,0123*54\r\n
$GPGGA,085638.70,5703.3173811,N,00952.3246364,E,2,9,1.2,-2.374,M,40.593,M,1.3,0123*59\r\n
$GPGGA,085638.75,5703.3173628,N,00952.3246506,E,2,9,1.2,-2.379,M,40.593,M,1.3,0123*57\r\n
$GPGGA,085638.80,5703.3173453,N,00952.3246646,E,2,9,1.2,-2.382,M,40.593,M,1.3,0123*50\r\n
$GPGGA,085638.85,5703.3173278,N,00952.3246797,E,2,9,1.2,-2.388,M,40.593,M,1.6,0123*58\r\n
$GPGGA,085638.90,5703.3173096,N,00952.3246956,E,2,9,1.2,-2.385,M,40.593,M,1.6,0123*50\r\n
$GPGGA,085638.95,5703.3172917,N,00952.3247136,E,2,9,1.2,-2.385,M,40.593,M,1.6,0123*5B\r\n
$GPGGA,085639.00,5703.3172740,N,00952.3247292,E,2,9,1.2,-2.385,M,40.593,M,1.6,0123*57\r\n
$GPGGA,085639.05,5703.3172579,N,00952.3247423,E,2,9,1.2,-2.373,M,40.593,M,1.9,0123*50\r\n
$GPGGA,085639.10,5703.3172380,N,00952.3247564,E,2,9,1.2,-2.371,M,40.593,M,1.9,0123*54\r\n
$GPGGA,085639.15,5703.3172209,N,00952.3247717,E,2,9,1.2,-2.373,M,40.593,M,1.9,0123*55\r\n
$GPGGA,085639.20,5703.3172050,N,00952.3247872,E,2,9,1.2,-2.372,M,40.593,M,1.9,0123*50\r\n
$GPGGA,085639.25,5703.3171871,N,00952.3248031,E,2,9,1.2,-2.376,M,40.593,M,2.2,0123*51\r\n
$GPGGA,085639.30,5703.3171680,N,00952.3248190,E,2,9,1.2,-2.377,M,40.593,M,2.2,0123*5E\r\n
$GPGGA,085639.35,5703.3171496,N,00952.3248352,E,2,9,1.2,-2.377,M,40.593,M,2.2,0123*52\r\n
$GPGGA,085639.40,5703.3171328,N,00952.3248508,E,2,9,1.2,-2.376,M,40.593,M,2.2,0123*5A\r\n
$GPGGA,085639.45,5703.3171146,N,00952.3248679,E,2,9,1.2,-2.372,M,40.593,M,0.9,0123*5D\r\n
$GPGGA,085639.50,5703.3170957,N,00952.3248863,E,2,9,1.2,-2.372,M,40.593,M,0.9,0123*55\r\n
$GPGGA,085639.55,5703.3170790,N,00952.3249018,E,2,9,1.2,-2.371,M,40.593,M,0.9,0123*53\r\n
$GPGGA,085639.60,5703.3170614,N,00952.3249172,E,2,9,1.2,-2.372,M,40.593,M,0.9,0123*56\r\n
$GPGGA,085639.65,5703.3170418,N,00952.3249338,E,2,9,1.2,-2.379,M,40.593,M,1.2,0123*50\r\n
$GPGGA,085639.70,5703.3170234,N,00952.3249494,E,2,9,1.2,-2.379,M,40.593,M,1.2,0123*5D\r\n
$GPGGA,085639.75,5703.3170055,N,00952.3249658,E,2,9,1.2,-2.381,M,40.593,M,1.2,0123*58\r\n
$GPGGA,085639.80,5703.3169874,N,00952.3249827,E,2,9,1.2,-2.384,M,40.593,M,1.2,0123*52\r\n
$GPGGA,085639.85,5703.3169700,N,00952.3249998,E,2,9,1.2,-2.384,M,40.593,M,1.5,0123*59\r\n
$GPGGA,085639.90,5703.3169515,N,00952.3250163,E,2,9,1.2,-2.383,M,40.593,M,1.5,0123*58\r\n
$GPGGA,085639.95,5703.3169325,N,00952.3250336,E,2,9,1.2,-2.384,M,40.593,M,1.5,0123*5D\r\n
$GPGGA,085640.00,5703.3169148,N,00952.3250517,E,2,9,1.2,-2.387,M,40.593,M,1.5,0123*50\r\n
$GPGGA,085640.05,5703.3168993,N,00952.3250686,E,2,9,1.2,-2.379,M,40.593,M,1.7,0123*52\r\n
$GPGGA,085640.10,5703.3168824,N,00952.3250840,E,2,9,1.2,-2.380,M,40.593,M,1.7,0123*59\r\n
$GPGGA,085640.15,5703.3168637,N,00952.3251000,E,2,9,1.2,-2.380,M,40.593,M,1.7,0123*5D\r\n
$GPGGA,085640.20,5703.3168441,N,00952.3251169,E,2,9,1.2,-2.379,M,40.593,M,1.7,0123*50\r\n
$GPGGA,085640.25,5703.3168252,N,00952.3251335,E,2,9,1.2,-2.384,M,40.593,M,2.0,0123*5C\r\n
$GPGGA,085640.30,5703.3168067,N,00952.3251509,E,2,9,1.2,-2.383,M,40.593,M,2.0,0123*52\r\n
$GPGGA,085640.35,5703.3167894,N,00952.3251705,E,2,9,1.2,-2.382,M,40.593,M,2.0,0123*53\r\n
$GPGGA,085640.40,5703.3167720,N,00952.3251885,E,2,9,1.2,-2.379,M,40.593,M,2.0,0123*52\r\n
$GPGGA,085640.45,5703.3167559,N,00952.3252054,E,2,9,1.2,-2.378,M,40.593,M,0.8,0123*57\r\n
$GPGGA,085640.50,5703.3167369,N,00952.3252226,E,2,9,1.2,-2.379,M,40.593,M,0.8,0123*50\r\n
$GPGGA,085640.55,5703.3167193,N,00952.3252414,E,2,9,1.2,-2.377,M,40.593,M,0.8,0123*5B\r\n
$GPGGA,085640.60,5703.3167008,N,00952.3252589,E,2,9,1.2,-2.378,M,40.593,M,0.8,0123*54\r\n
$GPGGA,085640.65,5703.3166810,N,00952.3252766,E,2,9,1.2,-2.380,M,40.593,M,1.1,0123*5D\r\n
$GPGGA,085640.70,5703.3166623,N,00952.3252948,E,2,9,1.2,-2.384,M,40.593,M,1.1,0123*51\r\n
$GPGGA,085640.75,5703.3166444,N,00952.3253120,E,2,9,1.2,-2.385,M,40.593,M,1.1,0123*51\r\n
$GPGGA,085640.80,5703.3166273,N,00952.3253303,E,2,9,1.2,-2.387,M,40.593,M,1.1,0123*58\r\n
$GPGGA,085640.85,5703.3166104,N,00952.3253486,E,2,9,1.2,-2.389,M,40.593,M,1.4,0123*5F\r\n
$GPGGA,085640.90,5703.3165934,N,00952.3253676,E,2,9,1.2,-2.390,M,40.593,M,1.4,0123*56\r\n
$GPGGA,085640.95,5703.3165740,N,00952.3253866,E,2,9,1.2,-2.391,M,40.593,M,1.4,0123*50\r\n
$GPGGA,085641.00,5703.3165547,N,00952.3254063,E,2,9,1.2,-2.395,M,40.593,M,1.4,0123*56\r\n
$GPGGA,085641.05,5703.3165366,N,00952.3254233,E,2,9,1.2,-2.389,M,40.593,M,1.6,0123*5E\r\n
$GPGGA,085641.10,5703.3165186,N,00952.3254407,E,2,9,1.2,-2.386,M,40.593,M,1.6,0123*58\r\n
$GPGGA,085641.15,5703.3165017,N,00952.3254609,E,2,9,1.2,-2.382,M,40.593,M,1.6,0123*5C\r\n
$GPGGA,085641.20,5703.3164849,N,00952.3254815,E,2,9,1.2,-2.377,M,40.593,M,1.6,0123*51\r\n
$GPGGA,085641.25,5703.3164691,N,00952.3254983,E,2,9,1.2,-2.378,M,40.593,M,1.9,0123*51\r\n
$GPGGA,085641.30,5703.3164518,N,00952.3255146,E,2,9,1.2,-2.381,M,40.593,M,1.9,0123*51\r\n
$GPGGA,085641.35,5703.3164319,N,00952.3255324,E,2,9,1.2,-2.384,M,40.593,M,1.9,0123*50\r\n
$GPGGA,085641.40,5703.3164127,N,00952.3255536,E,2,9,1.2,-2.384,M,40.593,M,1.9,0123*58\r\n
$GPGGA,085641.45,5703.3163952,N,00952.3255760,E,2,9,1.2,-2.391,M,40.593,M,2.1,0123*5E\r\n
$GPGGA,085641.50,5703.3163817,N,00952.3255949,E,2,9,1.2,-2.388,M,40.593,M,2.1,0123*57\r\n
$GPGGA,085641.55,5703.3163619,N,00952.3256133,E,2,9,1.2,-2.386,M,40.593,M,2.1,0123*5A\r\n
$GPGGA,085641.60,5703.3163409,N,00952.3256320,E,2,9,1.2,-2.389,M,40.593,M,2.1,0123*50\r\n
$GPGGA,085641.65,5703.3163249,N,00952.3256475,E,2,9,1.2,-2.381,M,40.593,M,2.3,0123*5A\r\n
$GPGGA,085641.70,5703.3163075,N,00952.3256679,E,2,9,1.2,-2.380,M,40.593,M,2.3,0123*5C\r\n
$GPGGA,085641.75,5703.3162881,N,00952.3256909,E,2,9,1.2,-2.379,M,40.593,M,2.3,0123*55\r\n
$GPGGA,085641.80,5703.3162709,N,00952.3257108,E,2,9,1.2,-2.378,M,40.593,M,2.3,0123*59\r\n
$GPGGA,085641.85,5703.3162531,N,00952.3257306,E,2,9,1.2,-2.388,M,40.593,M,2.6,0123*53\r\n
$GPGGA,085641.90,5703.3162368,N,00952.3257500,E,2,9,1.2,-2.388,M,40.593,M,2.6,0123*5D\r\n
$GPGGA,085641.95,5703.3162197,N,00952.3257694,E,2,9,1.2,-2.386,M,40.593,M,2.6,0123*5A\r\n
$GPGGA,085642.00,5703.3161998,N,00952.3257901,E,2,9,1.2,-2.385,M,40.593,M,2.6,0123*51\r\n
$GPGGA,085642.05,5703.3161810,N,00952.3258106,E,2,9,1.2,-2.378,M,40.593,M,2.8,0123*59\r\n
$GPGGA,085642.10,5703.3161647,N,00952.3258311,E,2,9,1.2,-2.380,M,40.593,M,2.8,0123*52\r\n
$GPGGA,085642.15,5703.3161490,N,00952.3258502,E,2,9,1.2,-2.382,M,40.593,M,2.8,0123*59\r\n
$GPGGA,085642.20,5703.3161282,N,00952.3258711,E,2,9,1.2,-2.380,M,40.593,M,2.8,0123*58\r\n
$GPGGA,085642.25,5703.3161063,N,00952.3258927,E,2,9,1.2,-2.388,M,40.593,M,3.0,0123*5A\r\n
$GPGGA,085642.30,5703.3160891,N,00952.3259122,E,2,9,1.2,-2.388,M,40.593,M,3.0,0123*56\r\n
$GPGGA,085642.35,5703.3160735,N,00952.3259322,E,2,9,1.2,-2.391,M,40.593,M,3.0,0123*58\r\n
$GPGGA,085642.40,5703.3160570,N,00952.3259546,E,2,9,1.2,-2.393,M,40.593,M,3.0,0123*5F\r\n
$GPGGA,085642.45,5703.3160395,N,00952.3259763,E,2,9,1.2,-2.392,M,40.593,M,0.9,0123*59\r\n
$GPGGA,085642.50,5703.3160210,N,00952.3259963,E,2,9,1.2,-2.391,M,40.593,M,0.9,0123*5C\r\n
$GPGGA,085642.55,5703.3160022,N,00952.3260165,E,2,9,1.2,-2.395,M,40.593,M,0.9,0123*5A\r\n
$GPGGA,085642.60,5703.3159841,N,00952.3260369,E,2,9,1.2,-2.397,M,40.593,M,0.9,0123*57\r\n
$GPGGA,085642.65,5703.3159682,N,00952.3260588,E,2,9,1.2,-2.391,M,40.593,M,1.3,0123*57\r\n
$GPGGA,085642.70,5703.3159510,N,00952.3260811,E,2,9,1.2,-2.390,M,40.593,M,1.3,0123*57\r\n
$GPGGA,085642.75,5703.3159345,N,00952.3261031,E,2,9,1.2,-2.392,M,40.593,M,1.3,0123*5D\r\n
$GPGGA,085642.80,5703.3159145,N,00952.3261242,E,2,9,1.2,-2.394,M,40.593,M,1.3,0123*55\r\n
$GPGGA,085642.85,5703.3158956,N,00952.3261449,E,2,9,1.2,-2.393,M,40.593,M,1.6,0123*54\r\n
$GPGGA,085642.90,5703.3158785,N,00952.3261656,E,2,9,1.2,-2.392,M,40.593,M,1.6,0123*5D\r\n
$GPGGA,085642.95,5703.3158609,N,00952.3261858,E,2,9,1.2,-2.395,M,40.593,M,1.6,0123*5A\r\n
$GPGGA,085643.00,5703.3158432,N,00952.3262082,E,2,9,1.2,-2.397,M,40.593,M,1.6,0123*53\r\n
$GPGGA,085643.05,5703.3158256,N,00952.3262303,E,2,9,1.2,-2.399,M,40.593,M,1.9,0123*59\r\n
$GPGGA,085643.10,5703.3158073,N,00952.3262529,E,2,9,1.2,-2.396,M,40.593,M,1.9,0123*59\r\n
$GPGGA,085643.15,5703.3157889,N,00952.3262762,E,2,9,1.2,-2.395,M,40.593,M,1.9,0123*50\r\n
$GPGGA,085643.20,5703.3157717,N,00952.3262980,E,2,9,1.2,-2.398,M,40.593,M,1.9,0123*51\r\n
$GPGGA,085643.25,5703.3157567,N,00952.3263158,E,2,9,1.2,-2.388,M,40.593,M,2.2,0123*54\r\n
$GPGGA,085643.30,5703.3157389,N,00952.3263351,E,2,9,1.2,-2.386,M,40.593,M,2.2,0123*53\r\n
$GPGGA,085643.35,5703.3157184,N,00952.3263581,E,2,9,1.2,-2.387,M,40.593,M,2.2,0123*53\r\n
$GPGGA,085643.40,5703.3156992,N,00952.3263816,E,2,9,1.2,-2.389,M,40.593,M,2.2,0123*52\r\n
$GPGGA,085643.45,5703.3156817,N,00952.3264048,E,2,9,1.2,-2.399,M,40.593,M,0.9,0123*57\r\n
$GPGGA,085643.50,5703.3156669,N,00952.3264255,E,2,9,1.2,-2.395,M,40.593,M,0.9,0123*56\r\n
$GPGGA,085643.55,5703.3156499,N,00952.3264475,E,2,9,1.2,-2.390,M,40.593,M,0.9,0123*5F\r\n
$GPGGA,085643.60,5703.3156304,N,00952.3264698,E,2,9,1.2,-2.390,M,40.593,M,0.9,0123*5B\r\n
$GPGGA,085643.65,5703.3156123,N,00952.3264909,E,2,9,1.2,-2.387,M,40.593,M,1.2,0123*52\r\n
$GPGGA,085643.70,5703.3155950,N,00952.3265136,E,2,9,1.2,-2.392,M,40.593,M,1.2,0123*58\r\n
