$GPGGA,072428.20,5703.4296999,N,00952.1237298,E,2,11,0.8,-1.762,M,40.593,M,3.8,0123*64\r\n
$GPGGA,072428.25,5703.4296804,N,00952.1237456,E,2,11,0.8,-1.769,M,40.593,M,2.3,0123*61\r\n
$GPGGA,072428.30,5703.4296624,N,00952.1237609,E,2,11,0.8,-1.768,M,40.593,M,2.3,0123*60\r\n
$GPGGA,072428.35,5703.4296440,N,00952.1237766,E,2,11,0.8,-1.772,M,40.593,M,2.3,0123*66\r\n
$GPGGA,072428.40,5703.4296263,N,00952.1237933,E,2,11,0.8,-1.775,M,40.593,M,2.3,0123*6A\r\n
$GPGGA,072428.45,5703.4296091,N,00952.1238098,E,2,11,0.8,-1.776,M,40.593,M,2.5,0123*62\r\n
$GPGGA,072428.50,5703.4295912,N,00952.1238255,E,2,11,0.8,-1.779,M,40.593,M,2.5,0123*6B\r\n
$GPGGA,072428.55,5703.4295739,N,00952.1238423,E,2,11,0.8,-1.780,M,40.593,M,2.5,0123*68\r\n
$GPGGA,072428.60,5703.4295560,N,00952.1238583,E,2,11,0.8,-1.781,M,40.593,M,2.5,0123*6A\r\n
$GPGGA,072428.65,5703.4295377,N,00952.1238744,E,2,11,0.8,-1.780,M,40.593,M,2.8,0123*6A\r\n
$GPGGA,072428.70,5703.4295190,N,00952.1238900,E,2,11,0.8,-1.779,M,40.593,M,2.8,0123*6D\r\n
$GPGGA,072428.75,5703.4295003,N,00952.1239041,E,2,11,0.8,-1.780,M,40.593,M,2.8,0123*68\r\n
$GPGGA,072428.80,5703.4294823,N,00952.1239195,E,2,11,0.8,-1.779,M,40.593,M,2.8,0123*67\r\n
$GPGGA,072428.85,5703.4294637,N,00952.1239344,E,2,11,0.8,-1.780,M,40.593,M,3.0,0123*68\r\n
$GPGGA,072428.90,5703.4294450,N,00952.1239493,E,2,11,0.8,-1.776,M,40.593,M,3.0,0123*6B\r\n
$GPGGA,072428.95,5703.4294269,N,00952.1239648,E,2,11,0.8,-1.773,M,40.593,M,3.0,0123*63\r\n
$GPGGA,072429.00,5703.4294089,N,00952.1239801,E,2,11,0.8,-1.770,M,40.593,M,3.0,0123*62\r\n
$GPGGA,072429.05,5703.4293913,N,00952.1239953,E,2,11,0.8,-1.765,M,40.593,M,3.3,0123*6B\r\n
$GPGGA,072429.10,5703.4293742,N,00952.1240114,E,2,11,0.8,-1.761,M,40.593,M,3.3,0123*64\r\n
$GPGGA,072429.15,5703.4293573,N,00952.1240272,E,2,11,0.8,-1.758,M,40.593,M,3.3,0123*68\r\n
$GPGGA,072429.20,5703.4293390,N,00952.1240443,E,2,11,0.8,-1.758,M,40.593,M,3.3,0123*61\r\n
$GPGGA,072429.25,5703.4293203,N,00952.1240614,E,2,11,0.8,-1.763,M,40.593,M,1.8,0123*6E\r\n
$GPGGA,072429.30,5703.4293021,N,00952.1240776,E,2,11,0.8,-1.763,M,40.593,M,1.8,0123*6D\r\n
$GPGGA,072429.35,5703.4292846,N,00952.1240931,E,2,11,0.8,-1.762,M,40.593,M,1.8,0123*6C\r\n
$GPGGA,072429.40,5703.4292675,N,00952.1241096,E,2,11,0.8,-1.764,M,40.593,M,1.8,0123*63\r\n
$GPGGA,072429.45,5703.4292503,N,00952.1241267,E,2,11,0.8,-1.768,M,40.593,M,2.1,0123*6E\r\n
$GPGGA,072429.50,5703.4292339,N,00952.1241449,E,2,11,0.8,-1.767,M,40.593,M,2.1,0123*60\r\n
$GPGGA,072429.55,5703.4292160,N,00952.1241625,E,2,11,0.8,-1.769,M,40.593,M,2.1,0123*6D\r\n
$GPGGA,072429.60,5703.4291986,N,00952.1241794,E,2,11,0.8,-1.771,M,40.593,M,2.1,0123*6A\r\n
$GPGGA,072429.65,5703.4291811,N,00952.1241956,E,2,11,0.8,-1.769,M,40.593,M,2.3,0123*6B\r\n
$GPGGA,072429.70,5703.4291641,N,00952.1242126,E,2,11,0.8,-1.770,M,40.593,M,2.3,0123*60\r\n
$GPGGA,072429.75,5703.4291465,N,00952.1242295,E,2,11,0.8,-1.771,M,40.593,M,2.3,0123*6B\r\n
$GPGGA,072429.80,5703.4291286,N,00952.1242452,E,2,11,0.8,-1.768,M,40.593,M,2.3,0123*6F\r\n
$GPGGA,072429.85,5703.4291113,N,00952.1242601,E,2,11,0.8,-1.767,M,40.593,M,2.6,0123*6B\r\n
$GPGGA,072429.90,5703.4290931,N,00952.1242757,E,2,11,0.8,-1.769,M,40.593,M,2.6,0123*6A\r\n
$GPGGA,072429.95,5703.4290752,N,00952.1242925,E,2,11,0.8,-1.769,M,40.593,M,2.6,0123*6F\r\n
$GPGGA,072430.00,5703.4290571,N,00952.1243099,E,2,11,0.8,-1.768,M,40.593,M,2.6,0123*66\r\n
$GPGGA,072430.05,5703.4290391,N,00952.1243251,E,2,11,0.8,-1.767,M,40.593,M,2.8,0123*6C\r\n
$GPGGA,072430.10,5703.4290221,N,00952.1243409,E,2,11,0.8,-1.767,M,40.593,M,2.8,0123*69\r\n
$GPGGA,072430.15,5703.4290042,N,00952.1243575,E,2,11,0.8,-1.768,M,40.593,M,2.8,0123*6E\r\n
$GPGGA,072430.20,5703.4289868,N,00952.1243757,E,2,11,0.8,-1.770,M,40.593,M,2.8,0123*6B\r\n
$GPGGA,072430.25,5703.4289698,N,00952.1243936,E,2,11,0.8,-1.772,M,40.593,M,1.9,0123*66\r\n
$GPGGA,072430.30,5703.4289530,N,00952.1244119,E,2,11,0.8,-1.773,M,40.593,M,1.9,0123*60\r\n
$GPGGA,072430.35,5703.4289355,N,00952.1244294,E,2,11,0.8,-1.774,M,40.593,M,1.9,0123*61\r\n
$GPGGA,072430.40,5703.4289180,N,00952.1244463,E,2,11,0.8,-1.773,M,40.593,M,1.9,0123*60\r\n
$GPGGA,072430.45,5703.4289012,N,00952.1244624,E,2,11,0.8,-1.775,M,40.593,M,2.1,0123*63\r\n
$GPGGA,072430.50,5703.4288840,N,00952.1244796,E,2,11,0.8,-1.773,M,40.593,M,2.1,0123*67\r\n
$GPGGA,072430.55,5703.4288665,N,00952.1244971,E,2,11,0.8,-1.773,M,40.593,M,2.1,0123*6C\r\n
$GPGGA,072430.60,5703.4288493,N,00952.1245146,E,2,11,0.8,-1.776,M,40.593,M,2.1,0123*69\r\n
$GPGGA,072430.65,5703.4288315,N,00952.1245321,E,2,11,0.8,-1.778,M,40.593,M,2.4,0123*6D\r\n
$GPGGA,072430.70,5703.4288137,N,00952.1245479,E,2,11,0.8,-1.779,M,40.593,M,2.4,0123*60\r\n
$GPGGA,072430.75,5703.4287973,N,00952.1245646,E,2,11,0.8,-1.777,M,40.593,M,2.4,0123*62\r\n
$GPGGA,072430.80,5703.4287798,N,00952.1245820,E,2,11,0.8,-1.775,M,40.593,M,2.4,0123*6F\r\n
$GPGGA,072430.85,5703.4287631,N,00952.1245988,E,2,11,0.8,-1.772,M,40.593,M,2.6,0123*6E\r\n
$GPGGA,072430.90,5703.4287462,N,00952.1246165,E,2,11,0.8,-1.770,M,40.593,M,2.6,0123*64\r\n
$GPGGA,072430.95,5703.4287295,N,00952.1246346,E,2,11,0.8,-1.768,M,40.593,M,2.6,0123*65\r\n
$GPGGA,072431.00,5703.4287127,N,00952.1246529,E,2,11,0.8,-1.767,M,40.593,M,2.6,0123*62\r\n
$GPGGA,072431.05,5703.4286960,N,00952.1246703,E,2,11,0.8,-1.770,M,40.593,M,2.8,0123*6F\r\n
$GPGGA,072431.10,5703.4286795,N,00952.1246875,E,2,11,0.8,-1.767,M,40.593,M,2.8,0123*67\r\n
$GPGGA,072431.15,5703.4286628,N,00952.1247043,E,2,11,0.8,-1.763,M,40.593,M,2.8,0123*6D\r\n
$GPGGA,072431.20,5703.4286454,N,00952.1247215,E,2,11,0.8,-1.761,M,40.593,M,2.8,0123*61\r\n
$GPGGA,072431.25,5703.4286280,N,00952.1247386,E,2,11,0.8,-1.759,M,40.593,M,3.0,0123*62\r\n
$GPGGA,072431.30,5703.4286114,N,00952.1247565,E,2,11,0.8,-1.758,M,40.593,M,3.0,0123*62\r\n
$GPGGA,072431.35,5703.4285941,N,00952.1247739,E,2,11,0.8,-1.759,M,40.593,M,3.0,0123*66\r\n
$GPGGA,072431.40,5703.4285760,N,00952.1247923,E,2,11,0.8,-1.761,M,40.593,M,3.0,0123*67\r\n
$GPGGA,072431.45,5703.4285584,N,00952.1248110,E,2,11,0.8,-1.765,M,40.593,M,3.2,0123*6B\r\n
$GPGGA,072431.50,5703.4285405,N,00952.1248300,E,2,11,0.8,-1.767,M,40.593,M,3.2,0123*66\r\n
$GPGGA,072431.55,5703.4285229,N,00952.1248483,E,2,11,0.8,-1.769,M,40.593,M,3.2,0123*69\r\n
$GPGGA,072431.60,5703.4285060,N,00952.1248650,E,2,11,0.8,-1.768,M,40.593,M,3.2,0123*6D\r\n
$GPGGA,072431.65,5703.4284889,N,00952.1248825,E,2,11,0.8,-1.766,M,40.593,M,3.4,0123*62\r\n
$GPGGA,072431.70,5703.4284718,N,00952.1248991,E,2,11,0.8,-1.764,M,40.593,M,3.4,0123*6D\r\n
$GPGGA,072431.75,5703.4284554,N,00952.1249171,E,2,11,0.8,-1.764,M,40.593,M,3.4,0123*65\r\n
$GPGGA,072431.80,5703.4284391,N,00952.1249359,E,2,11,0.8,-1.766,M,40.593,M,3.4,0123*6A\r\n
$GPGGA,072431.85,5703.4284220,N,00952.1249553,E,2,11,0.8,-1.763,M,40.593,M,3.6,0123*6F\r\n
$GPGGA,072431.90,5703.4284060,N,00952.1249737,E,2,11,0.8,-1.760,M,40.593,M,3.6,0123*6E\r\n
$GPGGA,072431.95,5703.4283892,N,00952.1249933,E,2,11,0.8,-1.760,M,40.593,M,3.6,0123*63\r\n
$GPGGA,072432.00,5703.4283729,N,00952.1250112,E,2,11,0.8,-1.758,M,40.593,M,3.6,0123*6B\r\n
$GPGGA,072432.05,5703.4283566,N,00952.1250277,E,2,11,0.8,-1.757,M,40.593,M,3.8,0123*66\r\n
$GPGGA,072432.10,5703.4283406,N,00952.1250459,E,2,11,0.8,-1.760,M,40.593,M,3.8,0123*6B\r\n
$GPGGA,072432.15,5703.4283248,N,00952.1250648,E,2,11,0.8,-1.760,M,40.593,M,3.8,0123*60\r\n
$GPGGA,072432.20,5703.4283083,N,00952.1250835,E,2,11,0.8,-1.758,M,40.593,M,3.8,0123*6C\r\n
$GPGGA,072432.25,5703.4282912,N,00952.1251022,E,2,11,0.8,-1.759,M,40.593,M,2.3,0123*6D\r\n
$GPGGA,072432.30,5703.4282742,N,00952.1251213,E,2,11,0.8,-1.760,M,40.593,M,2.3,0123*68\r\n
$GPGGA,072432.35,5703.4282579,N,00952.1251394,E,2,11,0.8,-1.764,M,40.593,M,2.3,0123*6D\r\n
$GPGGA,072432.40,5703.4282418,N,00952.1251575,E,2,11,0.8,-1.767,M,40.593,M,2.3,0123*63\r\n
$GPGGA,072432.45,5703.4282248,N,00952.1251753,E,2,11,0.8,-1.770,M,40.593,M,2.5,0123*63\r\n
$GPGGA,072432.50,5703.4282085,N,00952.1251928,E,2,11,0.8,-1.770,M,40.593,M,2.5,0123*66\r\n
$GPGGA,072432.55,5703.4281922,N,00952.1252123,E,2,11,0.8,-1.768,M,40.593,M,2.5,0123*6D\r\n
$GPGGA,072432.60,5703.4281761,N,00952.1252300,E,2,11,0.8,-1.770,M,40.593,M,2.5,0123*68\r\n
$GPGGA,072432.65,5703.4281601,N,00952.1252485,E,2,11,0.8,-1.774,M,40.593,M,2.8,0123*69\r\n
$GPGGA,072432.70,5703.4281437,N,00952.1252679,E,2,11,0.8,-1.774,M,40.593,M,2.8,0123*6B\r\n
$GPGGA,072432.75,5703.4281274,N,00952.1252877,E,2,11,0.8,-1.774,M,40.593,M,2.8,0123*6F\r\n
$GPGGA,072432.80,5703.4281109,N,00952.1253055,E,2,11,0.8,-1.777,M,40.593,M,2.8,0123*66\r\n
$GPGGA,072432.85,5703.4280951,N,00952.1253244,E,2,11,0.8,-1.778,M,40.593,M,3.0,0123*63\r\n
$GPGGA,072432.90,5703.4280795,N,00952.1253442,E,2,11,0.8,-1.778,M,40.593,M,3.0,0123*61\r\n
$GPGGA,072432.95,5703.4280653,N,00952.1253640,E,2,11,0.8,-1.776,M,40.593,M,3.0,0123*61\r\n
$GPGGA,072433.00,5703.4280502,N,00952.1253843,E,2,11,0.8,-1.773,M,40.593,M,3.0,0123*63\r\n
$GPGGA,072433.05,5703.4280353,N,00952.1254023,E,2,11,0.8,-1.763,M,40.593,M,3.3,0123*6F\r\n
$GPGGA,072433.10,5703.4280191,N,00952.1254202,E,2,11,0.8,-1.760,M,40.593,M,3.3,0123*65\r\n
$GPGGA,072433.15,5703.4280044,N,00952.1254403,E,2,11,0.8,-1.757,M,40.593,M,3.3,0123*6A\r\n
$GPGGA,072433.20,5703.4279887,N,00952.1254603,E,2,11,0.8,-1.752,M,40.593,M,3.3,0123*6A\r\n
$GPGGA,072433.25,5703.4279734,N,00952.1254801,E,2,11,0.8,-1.749,M,40.593,M,1.8,0123*67\r\n
$GPGGA,072433.30,5703.4279582,N,00952.1255011,E,2,11,0.8,-1.746,M,40.593,M,1.8,0123*6B\r\n
$GPGGA,072433.35,5703.4279420,N,00952.1255223,E,2,11,0.8,-1.742,M,40.593,M,1.8,0123*60\r\n
$GPGGA,072433.40,5703.4279260,N,00952.1255441,E,2,11,0.8,-1.741,M,40.593,M,1.8,0123*61\r\n
$GPGGA,072433.45,5703.4279103,N,00952.1255664,E,2,11,0.8,-1.740,M,40.593,M,2.1,0123*6C\r\n
$GPGGA,072433.50,5703.4278950,N,00952.1255886,E,2,11,0.8,-1.739,M,40.593,M,2.1,0123*6B\r\n
$GPGGA,072433.55,5703.4278793,N,00952.1256126,E,2,11,0.8,-1.736,M,40.593,M,2.1,0123*60\r\n
$GPGGA,072433.60,5703.4278635,N,00952.1256390,E,2,11,0.8,-1.734,M,40.593,M,2.1,0123*66\r\n
$GPGGA,072433.65,5703.4278474,N,00952.1256650,E,2,11,0.8,-1.734,M,40.593,M,2.3,0123*6F\r\n
$GPGGA,072433.70,5703.4278306,N,00952.1256929,E,2,11,0.8,-1.734,M,40.593,M,2.3,0123*68\r\n
$GPGGA,072433.75,5703.4278139,N,00952.1257223,E,2,11,0.8,-1.735,M,40.593,M,2.3,0123*62\r\n
$GPGGA,072433.80,5703.4277972,N,00952.1257541,E,2,11,0.8,-1.736,M,40.593,M,2.3,0123*60\r\n
$GPGGA,072433.85,5703.4277815,N,00952.1257857,E,2,11,0.8,-1.737,M,40.593,M,2.6,0123*6B\r\n
$GPGGA,072433.90,5703.4277647,N,00952.1258182,E,2,11,0.8,-1.735,M,40.593,M,2.6,0123*6A\r\n
$GPGGA,072433.95,5703.4277474,N,00952.1258517,E,2,11,0.8,-1.734,M,40.593,M,2.6,0123*64\r\n
$GPGGA,072434.00,5703.4277289,N,00952.1258868,E,2,11,0.8,-1.731,M,40.593,M,2.6,0123*6B\r\n
$GPGGA,072434.05,5703.4277110,N,00952.1259224,E,2,11,0.8,-1.731,M,40.593,M,2.8,0123*60\r\n
$GPGGA,072434.10,5703.4276925,N,00952.1259591,E,2,11,0.8,-1.730,M,40.593,M,2.8,0123*63\r\n
$GPGGA,072434.15,5703.4276733,N,00952.1259981,E,2,11,0.8,-1.727,M,40.593,M,2.8,0123*64\r\n
$GPGGA,072434.20,5703.4276543,N,00952.1260402,E,2,11,0.8,-1.725,M,40.593,M,2.8,0123*69\r\n
$GPGGA,072434.25,5703.4276347,N,00952.1260828,E,2,11,0.8,-1.719,M,40.593,M,1.9,0123*67\r\n
$GPGGA,072434.30,5703.4276138,N,00952.1261244,E,2,11,0.8,-1.715,M,40.593,M,1.9,0123*64\r\n
$GPGGA,072434.35,5703.4275919,N,00952.1261670,E,2,11,0.8,-1.712,M,40.593,M,1.9,0123*6D\r\n
$GPGGA,072434.40,5703.4275690,N,00952.1262114,E,2,11,0.8,-1.709,M,40.593,M,1.9,0123*6D\r\n
$GPGGA,072434.45,5703.4275478,N,00952.1262564,E,2,11,0.8,-1.709,M,40.593,M,2.1,0123*64\r\n
$GPGGA,072434.50,5703.4275265,N,00952.1263046,E,2,11,0.8,-1.708,M,40.593,M,2.1,0123*6F\r\n
$GPGGA,072434.55,5703.4275037,N,00952.1263542,E,2,11,0.8,-1.705,M,40.593,M,2.1,0123*63\r\n
$GPGGA,072434.60,5703.4274816,N,00952.1264050,E,2,11,0.8,-1.703,M,40.593,M,2.1,0123*68\r\n
$GPGGA,072434.65,5703.4274579,N,00952.1264569,E,2,11,0.8,-1.700,M,40.593,M,2.4,0123*60\r\n
$GPGGA,072434.70,5703.4274338,N,00952.1265095,E,2,11,0.8,-1.699,M,40.593,M,2.4,0123*61\r\n
$GPGGA,072434.75,5703.4274100,N,00952.1265642,E,2,11,0.8,-1.697,M,40.593,M,2.4,0123*6F\r\n
$GPGGA,072434.80,5703.4273867,N,00952.1266196,E,2,11,0.8,-1.694,M,40.593,M,2.4,0123*64\r\n
$GPGGA,072434.85,5703.4273632,N,00952.1266768,E,2,11,0.8,-1.695,M,40.593,M,2.6,0123*6B\r\n
$GPGGA,072434.90,5703.4273390,N,00952.1267346,E,2,11,0.8,-1.696,M,40.593,M,2.6,0123*68\r\n
$GPGGA,072434.95,5703.4273147,N,00952.1267944,E,2,11,0.8,-1.694,M,40.593,M,2.6,0123*6F\r\n
$GPGGA,072435.00,5703.4272895,N,00952.1268551,E,2,11,0.8,-1.692,M,40.593,M,2.6,0123*64\r\n
$GPGGA,072435.05,5703.4272637,N,00952.1269145,E,2,11,0.8,-1.687,M,40.593,M,2.8,0123*6D\r\n
$GPGGA,072435.10,5703.4272379,N,00952.1269750,E,2,11,0.8,-1.685,M,40.593,M,2.8,0123*66\r\n
$GPGGA,072435.15,5703.4272130,N,00952.1270383,E,2,11,0.8,-1.687,M,40.593,M,2.8,0123*6C\r\n
$GPGGA,072435.20,5703.4271860,N,00952.1271029,E,2,11,0.8,-1.691,M,40.593,M,2.8,0123*60\r\n
$GPGGA,072435.25,5703.4271591,N,00952.1271685,E,2,11,0.8,-1.695,M,40.593,M,0.6,0123*6E\r\n
$GPGGA,072435.30,5703.4271315,N,00952.1272361,E,2,11,0.8,-1.695,M,40.593,M,0.6,0123*6C\r\n
$GPGGA,072435.35,5703.4271045,N,00952.1273059,E,2,11,0.8,-1.693,M,40.593,M,0.6,0123*60\r\n
$GPGGA,072435.40,5703.4270769,N,00952.1273748,E,2,11,0.8,-1.691,M,40.593,M,0.6,0123*6F\r\n
$GPGGA,072435.45,5703.4270475,N,00952.1274433,E,2,11,0.8,-1.697,M,40.593,M,1.0,0123*6D\r\n
$GPGGA,072435.50,5703.4270185,N,00952.1275115,E,2,11,0.8,-1.703,M,40.593,M,1.0,0123*6F\r\n
$GPGGA,072435.55,5703.4269904,N,00952.1275820,E,2,11,0.8,-1.706,M,40.593,M,1.0,0123*69\r\n
$GPGGA,072435.60,5703.4269625,N,00952.1276534,E,2,11,0.8,-1.708,M,40.593,M,1.0,0123*66\r\n
$GPGGA,072435.65,5703.4269338,N,00952.1277260,E,2,11,0.8,-1.709,M,40.593,M,1.4,0123*68\r\n
$GPGGA,072435.70,5703.4269034,N,00952.1277978,E,2,11,0.8,-1.708,M,40.593,M,1.4,0123*60\r\n
$GPGGA,072435.75,5703.4268717,N,00952.1278694,E,2,11,0.8,-1.707,M,40.593,M,1.4,0123*6F\r\n
$GPGGA,072435.80,5703.4268409,N,00952.1279422,E,2,11,0.8,-1.707,M,40.593,M,1.4,0123*67\r\n
$GPGGA,072435.85,5703.4268097,N,00952.1280163,E,2,11,0.8,-1.703,M,40.593,M,1.7,0123*60\r\n
$GPGGA,072435.90,5703.4267783,N,00952.1280895,E,2,11,0.8,-1.702,M,40.593,M,1.7,0123*68\r\n
$GPGGA,072435.95,5703.4267464,N,00952.1281628,E,2,11,0.8,-1.699,M,40.593,M,1.7,0123*6D\r\n
$GPGGA,072436.00,5703.4267140,N,00952.1282372,E,2,11,0.8,-1.695,M,40.593,M,1.7,0123*64\r\n
$GPGGA,072436.05,5703.4266816,N,00952.1283108,E,2,11,0.8,-1.689,M,40.593,M,2.0,0123*6D\r\n
$GPGGA,072436.10,5703.4266481,N,00952.1283862,E,2,11,0.8,-1.687,M,40.593,M,2.0,0123*60\r\n
$GPGGA,072436.15,5703.4266155,N,00952.1284627,E,2,11,0.8,-1.685,M,40.593,M,2.0,0123*63\r\n
$GPGGA,072436.20,5703.4265826,N,00952.1285400,E,2,11,0.8,-1.681,M,40.593,M,2.0,0123*69\r\n
$GPGGA,072436.25,5703.4265491,N,00952.1286176,E,2,11,0.8,-1.682,M,40.593,M,2.3,0123*6B\r\n
$GPGGA,072436.30,5703.4265155,N,00952.1286968,E,2,11,0.8,-1.681,M,40.593,M,2.3,0123*66\r\n
$GPGGA,072436.35,5703.4264808,N,00952.1287759,E,2,11,0.8,-1.681,M,40.593,M,2.3,0123*6E\r\n
$GPGGA,072436.40,5703.4264468,N,00952.1288540,E,2,11,0.8,-1.684,M,40.593,M,2.3,0123*66\r\n
$GPGGA,072436.45,5703.4264123,N,00952.1289333,E,2,11,0.8,-1.685,M,40.593,M,2.5,0123*6D\r\n
$GPGGA,072436.50,5703.4263770,N,00952.1290124,E,2,11,0.8,-1.687,M,40.593,M,2.5,0123*60\r\n
$GPGGA,072436.55,5703.4263411,N,00952.1290930,E,2,11,0.8,-1.688,M,40.593,M,2.5,0123*63\r\n
$GPGGA,072436.60,5703.4263051,N,00952.1291727,E,2,11,0.8,-1.691,M,40.593,M,2.5,0123*64\r\n
$GPGGA,072436.65,5703.4262682,N,00952.1292508,E,2,11,0.8,-1.691,M,40.593,M,2.8,0123*69\r\n
$GPGGA,072436.70,5703.4262318,N,00952.1293305,E,2,11,0.8,-1.694,M,40.593,M,2.8,0123*64\r\n
$GPGGA,072436.75,5703.4261944,N,00952.1294109,E,2,11,0.8,-1.694,M,40.593,M,2.8,0123*68\r\n
$GPGGA,072436.80,5703.4261581,N,00952.1294906,E,2,11,0.8,-1.695,M,40.593,M,2.8,0123*61\r\n
$GPGGA,072436.85,5703.4261214,N,00952.1295714,E,2,11,0.8,-1.701,M,40.593,M,3.0,0123*66\r\n
$GPGGA,072436.90,5703.4260839,N,00952.1296517,E,2,11,0.8,-1.705,M,40.593,M,3.0,0123*60\r\n
$GPGGA,072436.95,5703.4260454,N,00952.1297318,E,2,11,0.8,-1.708,M,40.593,M,3.0,0123*67\r\n
$GPGGA,072437.00,5703.4260072,N,00952.1298107,E,2,11,0.8,-1.711,M,40.593,M,3.0,0123*61\r\n
$GPGGA,072437.05,5703.4259679,N,00952.1298901,E,2,11,0.8,-1.708,M,40.593,M,3.3,0123*66\r\n
$GPGGA,072437.10,5703.4259300,N,00952.1299691,E,2,11,0.8,-1.706,M,40.593,M,3.3,0123*60\r\n
$GPGGA,072437.15,5703.4258907,N,00952.1300485,E,2,11,0.8,-1.705,M,40.593,M,3.3,0123*6C\r\n
$GPGGA,072437.20,5703.4258498,N,00952.1301278,E,2,11,0.8,-1.707,M,40.593,M,3.3,0123*66\r\n
$GPGGA,072437.25,5703.4258090,N,00952.1302042,E,2,11,0.8,-1.706,M,40.593,M,3.5,0123*60\r\n
$GPGGA,072437.30,5703.4257684,N,00952.1302806,E,2,11,0.8,-1.703,M,40.593,M,3.5,0123*65\r\n
$GPGGA,072437.35,5703.4257273,N,00952.1303586,E,2,11,0.8,-1.701,M,40.593,M,3.5,0123*6A\r\n
$GPGGA,072437.40,5703.4256854,N,00952.1304374,E,2,11,0.8,-1.698,M,40.593,M,3.5,0123*6B\r\n
$GPGGA,072437.45,5703.4256435,N,00952.1305172,E,2,11,0.8,-1.693,M,40.593,M,2.1,0123*6E\r\n
$GPGGA,072437.50,5703.4256018,N,00952.1305938,E,2,11,0.8,-1.693,M,40.593,M,2.1,0123*67\r\n
$GPGGA,072437.55,5703.4255584,N,00952.1306697,E,2,11,0.8,-1.694,M,40.593,M,2.1,0123*6F\r\n
$GPGGA,072437.60,5703.4255149,N,00952.1307472,E,2,11,0.8,-1.694,M,40.593,M,2.1,0123*64\r\n
$GPGGA,072437.65,5703.4254720,N,00952.1308249,E,2,11,0.8,-1.694,M,40.593,M,2.3,0123*6A\r\n
$GPGGA,072437.70,5703.4254292,N,00952.1309022,E,2,11,0.8,-1.690,M,40.593,M,2.3,0123*68\r\n
$GPGGA,072437.75,5703.4253854,N,00952.1309799,E,2,11,0.8,-1.691,M,40.593,M,2.3,0123*6C\r\n
$GPGGA,072437.80,5703.4253400,N,00952.1310573,E,2,11,0.8,-1.693,M,40.593,M,2.3,0123*67\r\n
$GPGGA,072437.85,5703.4252952,N,00952.1311349,E,2,11,0.8,-1.692,M,40.593,M,2.6,0123*63\r\n
$GPGGA,072437.90,5703.4252503,N,00952.1312105,E,2,11,0.8,-1.691,M,40.593,M,2.6,0123*65\r\n
$GPGGA,072437.95,5703.4252052,N,00952.1312861,E,2,11,0.8,-1.691,M,40.593,M,2.6,0123*6A\r\n
$GPGGA,072438.00,5703.4251592,N,00952.1313625,E,2,11,0.8,-1.693,M,40.593,M,2.6,0123*6E\r\n
$GPGGA,072438.05,5703.4251126,N,00952.1314357,E,2,11,0.8,-1.695,M,40.593,M,2.8,0123*6F\r\n
$GPGGA,072438.10,5703.4250672,N,00952.1315122,E,2,11,0.8,-1.695,M,40.593,M,2.8,0123*6D\r\n
$GPGGA,072438.15,5703.4250218,N,00952.1315893,E,2,11,0.8,-1.694,M,40.593,M,2.8,0123*62\r\n
$GPGGA,072438.20,5703.4249748,N,00952.1316648,E,2,11,0.8,-1.696,M,40.593,M,2.8,0123*65\r\n
$GPGGA,072438.25,5703.4249280,N,00952.1317398,E,2,11,0.8,-1.702,M,40.593,M,3.0,0123*6D\r\n
$GPGGA,072438.30,5703.4248812,N,00952.1318153,E,2,11,0.8,-1.707,M,40.593,M,3.0,0123*66\r\n
$GPGGA,072438.35,5703.4248350,N,00952.1318913,E,2,11,0.8,-1.707,M,40.593,M,3.0,0123*62\r\n
$GPGGA,072438.40,5703.4247883,N,00952.1319647,E,2,11,0.8,-1.702,M,40.593,M,3.0,0123*60\r\n
$GPGGA,072438.45,5703.4247410,N,00952.1320379,E,2,11,0.8,-1.696,M,40.593,M,2.1,0123*6D\r\n
$GPGGA,072438.50,5703.4246921,N,00952.1321102,E,2,11,0.8,-1.696,M,40.593,M,2.1,0123*68\r\n
$GPGGA,072438.55,5703.4246434,N,00952.1321815,E,2,11,0.8,-1.696,M,40.593,M,2.1,0123*6B\r\n
$GPGGA,072438.60,5703.4245951,N,00952.1322538,E,2,11,0.8,-1.694,M,40.593,M,2.1,0123*63\r\n
$GPGGA,072438.65,5703.4245457,N,00952.1323257,E,2,11,0.8,-1.700,M,40.593,M,2.4,0123*6B\r\n
$GPGGA,072438.70,5703.4244960,N,00952.1323971,E,2,11,0.8,-1.699,M,40.593,M,2.4,0123*69\r\n
$GPGGA,072438.75,5703.4244466,N,00952.1324697,E,2,11,0.8,-1.699,M,40.593,M,2.4,0123*67\r\n
$GPGGA,072438.80,5703.4243974,N,00952.1325436,E,2,11,0.8,-1.699,M,40.593,M,2.4,0123*6C\r\n
$GPGGA,072438.85,5703.4243473,N,00952.1326175,E,2,11,0.8,-1.690,M,40.593,M,2.6,0123*69\r\n
$GPGGA,072438.90,5703.4242963,N,00952.1326903,E,2,11,0.8,-1.692,M,40.593,M,2.6,0123*6B\r\n
$GPGGA,072438.95,5703.4242459,N,00952.1327611,E,2,11,0.8,-1.692,M,40.593,M,2.6,0123*67\r\n
$GPGGA,072439.00,5703.4241953,N,00952.1328320,E,2,11,0.8,-1.692,M,40.593,M,2.6,0123*66\r\n
$GPGGA,072439.05,5703.4241446,N,00952.1329007,E,2,11,0.8,-1.696,M,40.593,M,2.8,0123*67\r\n
$GPGGA,072439.10,5703.4240929,N,00952.1329711,E,2,11,0.8,-1.696,M,40.593,M,2.8,0123*66\r\n
$GPGGA,072439.15,5703.4240410,N,00952.1330429,E,2,11,0.8,-1.695,M,40.593,M,2.8,0123*67\r\n
$GPGGA,072439.20,5703.4239891,N,00952.1331129,E,2,11,0.8,-1.693,M,40.593,M,2.8,0123*68\r\n
$GPGGA,072439.25,5703.4239376,N,00952.1331824,E,2,11,0.8,-1.690,M,40.593,M,3.0,0123*61\r\n
$GPGGA,072439.30,5703.4238856,N,00952.1332521,E,2,11,0.8,-1.687,M,40.593,M,3.0,0123*60\r\n
$GPGGA,072439.35,5703.4238326,N,00952.1333245,E,2,11,0.8,-1.685,M,40.593,M,3.0,0123*6F\r\n
$GPGGA,072439.40,5703.4237801,N,00952.1333948,E,2,11,0.8,-1.684,M,40.593,M,3.0,0123*6B\r\n
$GPGGA,072439.45,5703.4237271,N,00952.1334635,E,2,11,0.8,-1.684,M,40.593,M,3.2,0123*63\r\n
$GPGGA,072439.50,5703.4236733,N,00952.1335318,E,2,11,0.8,-1.683,M,40.593,M,3.2,0123*69\r\n
$GPGGA,072439.55,5703.4236190,N,00952.1336017,E,2,11,0.8,-1.681,M,40.593,M,3.2,0123*6E\r\n
$GPGGA,072439.60,5703.4235651,N,00952.1336718,E,2,11,0.8,-1.684,M,40.593,M,3.2,0123*6C\r\n
$GPGGA,072439.65,5703.4235110,N,00952.1337417,E,2,11,0.8,-1.684,M,40.593,M,3.4,0123*60\r\n
$GPGGA,072439.70,5703.4234554,N,00952.1338117,E,2,11,0.8,-1.685,M,40.593,M,3.4,0123*6A\r\n
$GPGGA,072439.75,5703.4234001,N,00952.1338809,E,2,11,0.8,-1.689,M,40.593,M,3.4,0123*60\r\n
$GPGGA,072439.80,5703.4233450,N,00952.1339506,E,2,11,0.8,-1.695,M,40.593,M,3.4,0123*63\r\n
$GPGGA,072439.85,5703.4232884,N,00952.1340193,E,2,11,0.8,-1.698,M,40.593,M,3.6,0123*6B\r\n
$GPGGA,072439.90,5703.4232319,N,00952.1340875,E,2,11,0.8,-1.700,M,40.593,M,3.6,0123*61\r\n
$GPGGA,072439.95,5703.4231753,N,00952.1341564,E,2,11,0.8,-1.704,M,40.593,M,3.6,0123*65\r\n
$GPGGA,072440.00,5703.4231180,N,00952.1342241,E,2,11,0.8,-1.705,M,40.593,M,3.6,0123*6D\r\n
$GPGGA,072440.05,5703.4230610,N,00952.1342888,E,2,11,0.8,-1.703,M,40.593,M,3.8,0123*60\r\n
$GPGGA,072440.10,5703.4230041,N,00952.1343554,E,2,11,0.8,-1.703,M,40.593,M,3.8,0123*6B\r\n
$GPGGA,072440.15,5703.4229459,N,00952.1344224,E,2,11,0.8,-1.703,M,40.593,M,3.8,0123*6C\r\n
$GPGGA,072440.20,5703.4228883,N,00952.1344900,E,2,11,0.8,-1.702,M,40.593,M,3.8,0123*6C\r\n
$GPGGA,072440.25,5703.4228327,N,00952.1345559,E,2,11,0.8,-1.699,M,40.593,M,4.1,0123*60\r\n
$GPGGA,072440.30,5703.4227758,N,00952.1346241,E,2,11,0.8,-1.697,M,40.593,M,4.1,0123*64\r\n
$GPGGA,072440.35,5703.4227187,N,00952.1346933,E,2,11,0.8,-1.694,M,40.593,M,4.1,0123*68\r\n
$GPGGA,072440.40,5703.4226612,N,00952.1347631,E,2,11,0.8,-1.692,M,40.593,M,4.1,0123*6A\r\n
$GPGGA,072440.45,5703.4226044,N,00952.1348311,E,2,11,0.8,-1.684,M,40.593,M,2.5,0123*67\r\n
$GPGGA,072440.50,5703.4225479,N,00952.1348981,E,2,11,0.8,-1.679,M,40.593,M,2.5,0123*6B\r\n
$GPGGA,072440.55,5703.4224896,N,00952.1349660,E,2,11,0.8,-1.677,M,40.593,M,2.5,0123*6D\r\n
$GPGGA,072440.60,5703.4224318,N,00952.1350343,E,2,11,0.8,-1.673,M,40.593,M,2.5,0123*6E\r\n
$GPGGA,072440.65,5703.4223736,N,00952.1351018,E,2,11,0.8,-1.675,M,40.593,M,2.8,0123*63\r\n
$GPGGA,072440.70,5703.4223163,N,00952.1351709,E,2,11,0.8,-1.673,M,40.593,M,2.8,0123*60\r\n
$GPGGA,072440.75,5703.4222597,N,00952.1352368,E,2,11,0.8,-1.668,M,40.593,M,2.8,0123*61\r\n
$GPGGA,072440.80,5703.4222019,N,00952.1353043,E,2,11,0.8,-1.664,M,40.593,M,2.8,0123*6F\r\n
$GPGGA,072440.85,5703.4221418,N,00952.1353707,E,2,11,0.8,-1.664,M,40.593,M,3.0,0123*62\r\n
$GPGGA,072440.90,5703.4220824,N,00952.1354364,E,2,11,0.8,-1.665,M,40.593,M,3.0,0123*63\r\n
$GPGGA,072440.95,5703.4220234,N,00952.1355023,E,2,11,0.8,-1.666,M,40.593,M,3.0,0123*6F\r\n
$GPGGA,072441.00,5703.4219648,N,00952.1355687,E,2,11,0.8,-1.665,M,40.593,M,3.0,0123*6C\r\n
$GPGGA,072441.05,5703.4219051,N,00952.1356332,E,2,11,0.8,-1.667,M,40.593,M,3.3,0123*6E\r\n
$GPGGA,072441.10,5703.4218452,N,00952.1357002,E,2,11,0.8,-1.670,M,40.593,M,3.3,0123*6B\r\n
$GPGGA,072441.15,5703.4217867,N,00952.1357673,E,2,11,0.8,-1.673,M,40.593,M,3.3,0123*68\r\n
$GPGGA,072441.20,5703.4217290,N,00952.1358351,E,2,11,0.8,-1.672,M,40.593,M,3.3,0123*67\r\n
$GPGGA,072441.25,5703.4216716,N,00952.1359045,E,2,11,0.8,-1.674,M,40.593,M,3.5,0123*6F\r\n
$GPGGA,072441.30,5703.4216136,N,00952.1359743,E,2,11,0.8,-1.673,M,40.593,M,3.5,0123*69\r\n
$GPGGA,072441.35,5703.4215555,N,00952.1360429,E,2,11,0.8,-1.671,M,40.593,M,3.5,0123*69\r\n
$GPGGA,072441.40,5703.4214986,N,00952.1361125,E,2,11,0.8,-1.672,M,40.593,M,3.5,0123*63\r\n
$GPGGA,072441.45,5703.4214423,N,00952.1361835,E,2,11,0.8,-1.674,M,40.593,M,2.1,0123*6F\r\n
$GPGGA,072441.50,5703.4213854,N,00952.1362526,E,2,11,0.8,-1.679,M,40.593,M,2.1,0123*61\r\n
$GPGGA,072441.55,5703.4213270,N,00952.1363226,E,2,11,0.8,-1.680,M,40.593,M,2.1,0123*68\r\n
$GPGGA,072441.60,5703.4212684,N,00952.1363911,E,2,11,0.8,-1.680,M,40.593,M,2.1,0123*6F\r\n
$GPGGA,072441.65,5703.4212111,N,00952.1364593,E,2,11,0.8,-1.681,M,40.593,M,2.3,0123*63\r\n
$GPGGA,072441.70,5703.4211537,N,00952.1365284,E,2,11,0.8,-1.680,M,40.593,M,2.3,0123*65\r\n
$GPGGA,072441.75,5703.4210958,N,00952.1365967,E,2,11,0.8,-1.678,M,40.593,M,2.3,0123*65\r\n
$GPGGA,072441.80,5703.4210370,N,00952.1366645,E,2,11,0.8,-1.680,M,40.593,M,2.3,0123*64\r\n
$GPGGA,072441.85,5703.4209789,N,00952.1367332,E,2,11,0.8,-1.682,M,40.593,M,2.6,0123*68\r\n
$GPGGA,072441.90,5703.4209217,N,00952.1368018,E,2,11,0.8,-1.682,M,40.593,M,2.6,0123*6A\r\n
$GPGGA,072441.95,5703.4208647,N,00952.1368728,E,2,11,0.8,-1.683,M,40.593,M,2.6,0123*6A\r\n
$GPGGA,072442.00,5703.4208082,N,00952.1369439,E,2,11,0.8,-1.683,M,40.593,M,2.6,0123*68\r\n
$GPGGA,072442.05,5703.4207510,N,00952.1370141,E,2,11,0.8,-1.682,M,40.593,M,2.8,0123*61\r\n
$GPGGA,072442.10,5703.4206942,N,00952.1370844,E,2,11,0.8,-1.683,M,40.593,M,2.8,0123*62\r\n
$GPGGA,072442.15,5703.4206372,N,00952.1371547,E,2,11,0.8,-1.683,M,40.593,M,2.8,0123*61\r\n
$GPGGA,072442.20,5703.4205800,N,00952.1372255,E,2,11,0.8,-1.682,M,40.593,M,2.8,0123*6C\r\n
$GPGGA,072442.25,5703.4205238,N,00952.1372964,E,2,11,0.8,-1.675,M,40.593,M,3.0,0123*60\r\n
$GPGGA,072442.30,5703.4204688,N,00952.1373676,E,2,11,0.8,-1.673,M,40.593,M,3.0,0123*61\r\n
$GPGGA,072442.35,5703.4204136,N,00952.1374389,E,2,11,0.8,-1.672,M,40.593,M,3.0,0123*65\r\n
$GPGGA,072442.40,5703.4203567,N,00952.1375110,E,2,11,0.8,-1.670,M,40.593,M,3.0,0123*61\r\n
$GPGGA,072442.45,5703.4202992,N,00952.1375826,E,2,11,0.8,-1.671,M,40.593,M,2.1,0123*6E\r\n
$GPGGA,072442.50,5703.4202438,N,00952.1376539,E,2,11,0.8,-1.667,M,40.593,M,2.1,0123*60\r\n
$GPGGA,072442.55,5703.4201897,N,00952.1377259,E,2,11,0.8,-1.663,M,40.593,M,2.1,0123*6B\r\n
$GPGGA,072442.60,5703.4201338,N,00952.1377990,E,2,11,0.8,-1.663,M,40.593,M,2.1,0123*6D\r\n
$GPGGA,072442.65,5703.4200790,N,00952.1378726,E,2,11,0.8,-1.666,M,40.593,M,2.4,0123*63\r\n
$GPGGA,072442.70,5703.4200231,N,00952.1379455,E,2,11,0.8,-1.666,M,40.593,M,2.4,0123*6F\r\n
$GPGGA,072442.75,5703.4199678,N,00952.1380190,E,2,11,0.8,-1.663,M,40.593,M,2.4,0123*6F\r\n
$GPGGA,072442.80,5703.4199140,N,00952.1380949,E,2,11,0.8,-1.659,M,40.593,M,2.4,0123*6C\r\n
$GPGGA,072442.85,5703.4198611,N,00952.1381721,E,2,11,0.8,-1.664,M,40.593,M,2.6,0123*66\r\n
$GPGGA,072442.90,5703.4198074,N,00952.1382477,E,2,11,0.8,-1.665,M,40.593,M,2.6,0123*65\r\n
$GPGGA,072442.95,5703.4197538,N,00952.1383234,E,2,11,0.8,-1.669,M,40.593,M,2.6,0123*6E\r\n
$GPGGA,072443.00,5703.4197012,N,00952.1383994,E,2,11,0.8,-1.670,M,40.593,M,2.6,0123*67\r\n
$GPGGA,072443.05,5703.4196484,N,00952.1384781,E,2,11,0.8,-1.669,M,40.593,M,2.8,0123*63\r\n
$GPGGA,072443.10,5703.4195960,N,00952.1385557,E,2,11,0.8,-1.668,M,40.593,M,2.8,0123*6A\r\n
$GPGGA,072443.15,5703.4195429,N,00952.1386312,E,2,11,0.8,-1.671,M,40.593,M,2.8,0123*63\r\n
$GPGGA,072443.20,5703.4194885,N,00952.1387070,E,2,11,0.8,-1.673,M,40.593,M,2.8,0123*6A\r\n
$GPGGA,072443.25,5703.4194353,N,00952.1387829,E,2,11,0.8,-1.676,M,40.593,M,3.0,0123*67\r\n
$GPGGA,072443.30,5703.4193816,N,00952.1388590,E,2,11,0.8,-1.676,M,40.593,M,3.0,0123*6E\r\n
$GPGGA,072443.35,5703.4193279,N,00952.1389364,E,2,11,0.8,-1.676,M,40.593,M,3.0,0123*64\r\n
$GPGGA,072443.40,5703.4192749,N,00952.1390139,E,2,11,0.8,-1.680,M,40.593,M,3.0,0123*6A\r\n
$GPGGA,072443.45,5703.4192234,N,00952.1390916,E,2,11,0.8,-1.680,M,40.593,M,3.2,0123*67\r\n
$GPGGA,072443.50,5703.4191724,N,00952.1391711,E,2,11,0.8,-1.677,M,40.593,M,3.2,0123*64\r\n
$GPGGA,072443.55,5703.4191192,N,00952.1392512,E,2,11,0.8,-1.675,M,40.593,M,3.2,0123*6A\r\n
$GPGGA,072443.60,5703.4190667,N,00952.1393311,E,2,11,0.8,-1.677,M,40.593,M,3.2,0123*66\r\n
$GPGGA,072443.65,5703.4190167,N,00952.1394118,E,2,11,0.8,-1.680,M,40.593,M,3.4,0123*66\r\n
$GPGGA,072443.70,5703.4189679,N,00952.1394926,E,2,11,0.8,-1.679,M,40.593,M,3.4,0123*61\r\n
$GPGGA,072443.75,5703.4189176,N,00952.1395741,E,2,11,0.8,-1.680,M,40.593,M,3.4,0123*64\r\n
$GPGGA,072443.80,5703.4188681,N,00952.1396581,E,2,11,0.8,-1.679,M,40.593,M,3.4,0123*6B\r\n
$GPGGA,072443.85,5703.4188200,N,00952.1397414,E,2,11,0.8,-1.675,M,40.593,M,3.6,0123*61\r\n
$GPGGA,072443.90,5703.4187718,N,00952.1398249,E,2,11,0.8,-1.673,M,40.593,M,3.6,0123*61\r\n
$GPGGA,072443.95,5703.4187219,N,00952.1399066,E,2,11,0.8,-1.673,M,40.593,M,3.6,0123*6E\r\n
$GPGGA,072444.00,5703.4186721,N,00952.1399894,E,2,11,0.8,-1.672,M,40.593,M,3.6,0123*6E\r\n
$GPGGA,072444.05,5703.4186233,N,00952.1400733,E,2,11,0.8,-1.670,M,40.593,M,3.8,0123*64\r\n
$GPGGA,072444.10,5703.4185755,N,00952.1401576,E,2,11,0.8,-1.668,M,40.593,M,3.8,0123*6D\r\n
$GPGGA,072444.15,5703.4185276,N,00952.1402406,E,2,11,0.8,-1.667,M,40.593,M,3.8,0123*66\r\n
$GPGGA,072444.20,5703.4184792,N,00952.1403250,E,2,11,0.8,-1.665,M,40.593,M,3.8,0123*68\r\n
$GPGGA,072444.25,5703.4184312,N,00952.1404077,E,2,11,0.8,-1.665,M,40.593,M,4.1,0123*6F\r\n
$GPGGA,072444.30,5703.4183846,N,00952.1404932,E,2,11,0.8,-1.662,M,40.593,M,4.1,0123*69\r\n
$GPGGA,072444.35,5703.4183380,N,00952.1405798,E,2,11,0.8,-1.662,M,40.593,M,4.1,0123*62\r\n
$GPGGA,072444.40,5703.4182910,N,00952.1406654,E,2,11,0.8,-1.662,M,40.593,M,4.1,0123*60\r\n
$GPGGA,072444.45,5703.4182459,N,00952.1407522,E,2,11,0.8,-1.658,M,40.593,M,2.5,0123*6D\r\n
$GPGGA,072444.50,5703.4181991,N,00952.1408389,E,2,11,0.8,-1.657,M,40.593,M,2.5,0123*64\r\n
$GPGGA,072444.55,5703.4181521,N,00952.1409244,E,2,11,0.8,-1.656,M,40.593,M,2.5,0123*66\r\n
$GPGGA,072444.60,5703.4181066,N,00952.1410109,E,2,11,0.8,-1.656,M,40.593,M,2.5,0123*64\r\n
$GPGGA,072444.65,5703.4180617,N,00952.1410999,E,2,11,0.8,-1.661,M,40.593,M,2.8,0123*68\r\n
$GPGGA,072444.70,5703.4180153,N,00952.1411891,E,2,11,0.8,-1.663,M,40.593,M,2.8,0123*61\r\n
$GPGGA,072444.75,5703.4179681,N,00952.1412772,E,2,11,0.8,-1.667,M,40.593,M,2.8,0123*6F\r\n
$GPGGA,072444.80,5703.4179223,N,00952.1413657,E,2,11,0.8,-1.667,M,40.593,M,2.8,0123*6E\r\n
$GPGGA,072444.85,5703.4178768,N,00952.1414545,E,2,11,0.8,-1.671,M,40.593,M,3.0,0123*69\r\n
$GPGGA,072444.90,5703.4178326,N,00952.1415452,E,2,11,0.8,-1.673,M,40.593,M,3.0,0123*67\r\n
$GPGGA,072444.95,5703.4177874,N,00952.1416356,E,2,11,0.8,-1.678,M,40.593,M,3.0,0123*6A\r\n
$GPGGA,072445.00,5703.4177429,N,00952.1417259,E,2,11,0.8,-1.678,M,40.593,M,3.0,0123*6C\r\n
$GPGGA,072445.05,5703.4177000,N,00952.1418152,E,2,11,0.8,-1.671,M,40.593,M,3.3,0123*6B\r\n
$GPGGA,072445.10,5703.4176570,N,00952.1419073,E,2,11,0.8,-1.670,M,40.593,M,3.3,0123*6E\r\n
$GPGGA,072445.15,5703.4176148,N,00952.1419995,E,2,11,0.8,-1.671,M,40.593,M,3.3,0123*64\r\n
$GPGGA,072445.20,5703.4175721,N,00952.1420892,E,2,11,0.8,-1.671,M,40.593,M,3.3,0123*64\r\n
$GPGGA,072445.25,5703.4175299,N,00952.1421800,E,2,11,0.8,-1.673,M,40.593,M,3.5,0123*69\r\n
$GPGGA,072445.30,5703.4174874,N,00952.1422711,E,2,11,0.8,-1.672,M,40.593,M,3.5,0123*68\r\n
$GPGGA,072445.35,5703.4174439,N,00952.1423623,E,2,11,0.8,-1.670,M,40.593,M,3.5,0123*6B\r\n
$GPGGA,072445.40,5703.4174006,N,00952.1424540,E,2,11,0.8,-1.670,M,40.593,M,3.5,0123*60\r\n
$GPGGA,072445.45,5703.4173588,N,00952.1425458,E,2,11,0.8,-1.669,M,40.593,M,2.1,0123*65\r\n
$GPGGA,072445.50,5703.4173172,N,00952.1426375,E,2,11,0.8,-1.669,M,40.593,M,2.1,0123*6B\r\n
$GPGGA,072445.55,5703.4172746,N,00952.1427292,E,2,11,0.8,-1.668,M,40.593,M,2.1,0123*66\r\n
$GPGGA,072445.60,5703.4172330,N,00952.1428205,E,2,11,0.8,-1.666,M,40.593,M,2.1,0123*6A\r\n
$GPGGA,072445.65,5703.4171917,N,00952.1429138,E,2,11,0.8,-1.666,M,40.593,M,2.3,0123*6D\r\n
$GPGGA,072445.70,5703.4171506,N,00952.1430087,E,2,11,0.8,-1.666,M,40.593,M,2.3,0123*68\r\n
$GPGGA,072445.75,5703.4171095,N,00952.1431034,E,2,11,0.8,-1.666,M,40.593,M,2.3,0123*6B\r\n
$GPGGA,072445.80,5703.4170702,N,00952.1431948,E,2,11,0.8,-1.663,M,40.593,M,2.3,0123*6E\r\n
$GPGGA,072445.85,5703.4170296,N,00952.1432873,E,2,11,0.8,-1.666,M,40.593,M,2.6,0123*69\r\n
$GPGGA,072445.90,5703.4169874,N,00952.1433790,E,2,11,0.8,-1.669,M,40.593,M,2.6,0123*6F\r\n
$GPGGA,072445.95,5703.4169450,N,00952.1434727,E,2,11,0.8,-1.670,M,40.593,M,2.6,0123*63\r\n
$GPGGA,072446.00,5703.4169037,N,00952.1435682,E,2,11,0.8,-1.670,M,40.593,M,2.6,0123*66\r\n
$GPGGA,072446.05,5703.4168636,N,00952.1436616,E,2,11,0.8,-1.666,M,40.593,M,2.8,0123*62\r\n
$GPGGA,072446.10,5703.4168235,N,00952.1437565,E,2,11,0.8,-1.667,M,40.593,M,2.8,0123*66\r\n
$GPGGA,072446.15,5703.4167824,N,00952.1438534,E,2,11,0.8,-1.668,M,40.593,M,2.8,0123*62\r\n
$GPGGA,072446.20,5703.4167416,N,00952.1439496,E,2,11,0.8,-1.670,M,40.593,M,2.8,0123*68\r\n
$GPGGA,072446.25,5703.4167027,N,00952.1440440,E,2,11,0.8,-1.671,M,40.593,M,3.0,0123*66\r\n
$GPGGA,072446.30,5703.4166623,N,00952.1441378,E,2,11,0.8,-1.670,M,40.593,M,3.0,0123*6D\r\n
$GPGGA,072446.35,5703.4166221,N,00952.1442329,E,2,11,0.8,-1.668,M,40.593,M,3.0,0123*60\r\n
$GPGGA,072446.40,5703.4165830,N,00952.1443285,E,2,11,0.8,-1.670,M,40.593,M,3.0,0123*64\r\n
$GPGGA,072446.45,5703.4165443,N,00952.1444241,E,2,11,0.8,-1.669,M,40.593,M,2.1,0123*6E\r\n
$GPGGA,072446.50,5703.4165049,N,00952.1445204,E,2,11,0.8,-1.666,M,40.593,M,2.1,0123*6B\r\n
$GPGGA,072446.55,5703.4164654,N,00952.1446155,E,2,11,0.8,-1.665,M,40.593,M,2.1,0123*62\r\n
$GPGGA,072446.60,5703.4164253,N,00952.1447097,E,2,11,0.8,-1.666,M,40.593,M,2.1,0123*6A\r\n
$GPGGA,072446.65,5703.4163850,N,00952.1448049,E,2,11,0.8,-1.667,M,40.593,M,2.4,0123*69\r\n
$GPGGA,072446.70,5703.4163447,N,00952.1449026,E,2,11,0.8,-1.667,M,40.593,M,2.4,0123*6F\r\n
$GPGGA,072446.75,5703.4163054,N,00952.1449999,E,2,11,0.8,-1.669,M,40.593,M,2.4,0123*6F\r\n
$GPGGA,072446.80,5703.4162646,N,00952.1450934,E,2,11,0.8,-1.672,M,40.593,M,2.4,0123*64\r\n
$GPGGA,072446.85,5703.4162236,N,00952.1451870,E,2,11,0.8,-1.675,M,40.593,M,2.6,0123*67\r\n
$GPGGA,072446.90,5703.4161838,N,00952.1452822,E,2,11,0.8,-1.674,M,40.593,M,2.6,0123*61\r\n
$GPGGA,072446.95,5703.4161438,N,00952.1453794,E,2,11,0.8,-1.672,M,40.593,M,2.6,0123*6D\r\n
$GPGGA,072447.00,5703.4161039,N,00952.1454761,E,2,11,0.8,-1.672,M,40.593,M,2.6,0123*68\r\n
$GPGGA,072447.05,5703.4160646,N,00952.1455717,E,2,11,0.8,-1.668,M,40.593,M,2.8,0123*67\r\n
$GPGGA,072447.10,5703.4160249,N,00952.1456681,E,2,11,0.8,-1.668,M,40.593,M,2.8,0123*65\r\n
$GPGGA,072447.15,5703.4159852,N,00952.1457633,E,2,11,0.8,-1.668,M,40.593,M,2.8,0123*62\r\n
$GPGGA,072447.20,5703.4159460,N,00952.1458558,E,2,11,0.8,-1.669,M,40.593,M,2.8,0123*69\r\n
$GPGGA,072447.25,5703.4159059,N,00952.1459487,E,2,11,0.8,-1.672,M,40.593,M,3.0,0123*63\r\n
$GPGGA,072447.30,5703.4158656,N,00952.1460397,E,2,11,0.8,-1.672,M,40.593,M,3.0,0123*63\r\n
$GPGGA,072447.35,5703.4158253,N,00952.1461339,E,2,11,0.8,-1.672,M,40.593,M,3.0,0123*62\r\n
$GPGGA,072447.40,5703.4157842,N,00952.1462286,E,2,11,0.8,-1.675,M,40.593,M,3.0,0123*64\r\n
$GPGGA,072447.45,5703.4157434,N,00952.1463249,E,2,11,0.8,-1.676,M,40.593,M,1.0,0123*6F\r\n
$GPGGA,072447.50,5703.4157031,N,00952.1464187,E,2,11,0.8,-1.680,M,40.593,M,1.0,0123*65\r\n
$GPGGA,072447.55,5703.4156628,N,00952.1465103,E,2,11,0.8,-1.680,M,40.593,M,1.0,0123*62\r\n
$GPGGA,072447.60,5703.4156219,N,00952.1466036,E,2,11,0.8,-1.676,M,40.593,M,1.0,0123*6F\r\n
$GPGGA,072447.65,5703.4155804,N,00952.1466985,E,2,11,0.8,-1.682,M,40.593,M,1.4,0123*61\r\n
$GPGGA,072447.70,5703.4155398,N,00952.1467908,E,2,11,0.8,-1.685,M,40.593,M,1.4,0123*68\r\n
$GPGGA,072447.75,5703.4154986,N,00952.1468844,E,2,11,0.8,-1.687,M,40.593,M,1.4,0123*6D\r\n
$GPGGA,072447.80,5703.4154565,N,00952.1469763,E,2,11,0.8,-1.688,M,40.593,M,1.4,0123*62\r\n
$GPGGA,072447.85,5703.4154164,N,00952.1470672,E,2,11,0.8,-1.682,M,40.593,M,1.7,0123*62\r\n
$GPGGA,072447.90,5703.4153759,N,00952.1471593,E,2,11,0.8,-1.682,M,40.593,M,1.7,0123*64\r\n
$GPGGA,072447.95,5703.4153351,N,00952.1472504,E,2,11,0.8,-1.678,M,40.593,M,1.7,0123*65\r\n
$GPGGA,072448.00,5703.4152955,N,00952.1473417,E,2,11,0.8,-1.676,M,40.593,M,1.7,0123*65\r\n
$GPGGA,072448.05,5703.4152547,N,00952.1474317,E,2,11,0.8,-1.681,M,40.593,M,2.0,0123*63\r\n
$GPGGA,072448.10,5703.4152133,N,00952.1475217,E,2,11,0.8,-1.681,M,40.593,M,2.0,0123*60\r\n
$GPGGA,072448.15,5703.4151712,N,00952.1476116,E,2,11,0.8,-1.681,M,40.593,M,2.0,0123*62\r\n
$GPGGA,072448.20,5703.4151307,N,00952.1477016,E,2,11,0.8,-1.678,M,40.593,M,2.0,0123*62\r\n
$GPGGA,072448.25,5703.4150910,N,00952.1477918,E,2,11,0.8,-1.677,M,40.593,M,2.3,0123*61\r\n
$GPGGA,072448.30,5703.4150508,N,00952.1478820,E,2,11,0.8,-1.676,M,40.593,M,2.3,0123*64\r\n
$GPGGA,072448.35,5703.4150090,N,00952.1479719,E,2,11,0.8,-1.676,M,40.593,M,2.3,0123*61\r\n
$GPGGA,072448.40,5703.4149675,N,00952.1480617,E,2,11,0.8,-1.676,M,40.593,M,2.3,0123*6F\r\n
$GPGGA,072448.45,5703.4149275,N,00952.1481515,E,2,11,0.8,-1.676,M,40.593,M,2.5,0123*68\r\n
$GPGGA,072448.50,5703.4148875,N,00952.1482407,E,2,11,0.8,-1.677,M,40.593,M,2.5,0123*67\r\n
$GPGGA,072448.55,5703.4148460,N,00952.1483315,E,2,11,0.8,-1.680,M,40.593,M,2.5,0123*67\r\n
$GPGGA,072448.60,5703.4148036,N,00952.1484202,E,2,11,0.8,-1.683,M,40.593,M,2.5,0123*65\r\n
$GPGGA,072448.65,5703.4147621,N,00952.1485106,E,2,11,0.8,-1.683,M,40.593,M,2.8,0123*64\r\n
$GPGGA,072448.70,5703.4147211,N,00952.1486009,E,2,11,0.8,-1.685,M,40.593,M,2.8,0123*6C\r\n
$GPGGA,072448.75,5703.4146802,N,00952.1486918,E,2,11,0.8,-1.688,M,40.593,M,2.8,0123*64\r\n
$GPGGA,072448.80,5703.4146383,N,00952.1487821,E,2,11,0.8,-1.690,M,40.593,M,2.8,0123*6F\r\n
$GPGGA,072448.85,5703.4145964,N,00952.1488722,E,2,11,0.8,-1.694,M,40.593,M,3.0,0123*64\r\n
$GPGGA,072448.90,5703.4145555,N,00952.1489612,E,2,11,0.8,-1.697,M,40.593,M,3.0,0123*6E\r\n
$GPGGA,072448.95,5703.4145140,N,00952.1490510,E,2,11,0.8,-1.699,M,40.593,M,3.0,0123*6C\r\n
$GPGGA,072449.00,5703.4144731,N,00952.1491393,E,2,11,0.8,-1.699,M,40.593,M,3.0,0123*6C\r\n
$GPGGA,072449.05,5703.4144319,N,00952.1492269,E,2,11,0.8,-1.696,M,40.593,M,3.3,0123*6C\r\n
$GPGGA,072449.10,5703.4143890,N,00952.1493147,E,2,11,0.8,-1.696,M,40.593,M,3.3,0123*6B\r\n
$GPGGA,072449.15,5703.4143462,N,00952.1494022,E,2,11,0.8,-1.696,M,40.593,M,3.3,0123*6A\r\n
$GPGGA,072449.20,5703.4143043,N,00952.1494914,E,2,11,0.8,-1.696,M,40.593,M,3.3,0123*67\r\n
$GPGGA,072449.25,5703.4142638,N,00952.1495800,E,2,11,0.8,-1.697,M,40.593,M,3.5,0123*6B\r\n
$GPGGA,072449.30,5703.4142228,N,00952.1496682,E,2,11,0.8,-1.695,M,40.593,M,3.5,0123*6F\r\n
$GPGGA,072449.35,5703.4141798,N,00952.1497554,E,2,11,0.8,-1.693,M,40.593,M,3.5,0123*68\r\n
$GPGGA,072449.40,5703.4141371,N,00952.1498415,E,2,11,0.8,-1.694,M,40.593,M,3.5,0123*65\r\n
$GPGGA,072449.45,5703.4140953,N,00952.1499294,E,2,11,0.8,-1.697,M,40.593,M,2.1,0123*63\r\n
$GPGGA,072449.50,5703.4140531,N,00952.1500165,E,2,11,0.8,-1.697,M,40.593,M,2.1,0123*63\r\n
$GPGGA,072449.55,5703.4140116,N,00952.1501039,E,2,11,0.8,-1.698,M,40.593,M,2.1,0123*61\r\n
$GPGGA,072449.60,5703.4139703,N,00952.1501925,E,2,11,0.8,-1.702,M,40.593,M,2.1,0123*6D\r\n
$GPGGA,072449.65,5703.4139293,N,00952.1502807,E,2,11,0.8,-1.703,M,40.593,M,2.3,0123*65\r\n
$GPGGA,072449.70,5703.4138880,N,00952.1503677,E,2,11,0.8,-1.705,M,40.593,M,2.3,0123*66\r\n
$GPGGA,072449.75,5703.4138473,N,00952.1504544,E,2,11,0.8,-1.704,M,40.593,M,2.3,0123*66\r\n
$GPGGA,072449.80,5703.4138045,N,00952.1505420,E,2,11,0.8,-1.706,M,40.593,M,2.3,0123*6D\r\n
$GPGGA,072449.85,5703.4137616,N,00952.1506288,E,2,11,0.8,-1.715,M,40.593,M,2.6,0123*67\r\n
$GPGGA,072449.90,5703.4137189,N,00952.1507142,E,2,11,0.8,-1.720,M,40.593,M,2.6,0123*60\r\n
$GPGGA,072449.95,5703.4136764,N,00952.1507996,E,2,11,0.8,-1.725,M,40.593,M,2.6,0123*65\r\n
$GPGGA,072450.00,5703.4136341,N,00952.1508846,E,2,11,0.8,-1.727,M,40.593,M,2.6,0123*63\r\n
$GPGGA,072450.05,5703.4135911,N,00952.1509697,E,2,11,0.8,-1.731,M,40.593,M,2.8,0123*60\r\n
$GPGGA,072450.10,5703.4135482,N,00952.1510533,E,2,11,0.8,-1.735,M,40.593,M,2.8,0123*62\r\n
$GPGGA,072450.15,5703.4135066,N,00952.1511392,E,2,11,0.8,-1.736,M,40.593,M,2.8,0123*66\r\n
$GPGGA,072450.20,5703.4134661,N,00952.1512243,E,2,11,0.8,-1.737,M,40.593,M,2.8,0123*6F\r\n
$GPGGA,072450.25,5703.4134262,N,00952.1513094,E,2,11,0.8,-1.733,M,40.593,M,3.0,0123*69\r\n
$GPGGA,072450.30,5703.4133845,N,00952.1513934,E,2,11,0.8,-1.733,M,40.593,M,3.0,0123*66\r\n
$GPGGA,072450.35,5703.4133429,N,00952.1514767,E,2,11,0.8,-1.735,M,40.593,M,3.0,0123*6C\r\n
$GPGGA,072450.40,5703.4133030,N,00952.1515618,E,2,11,0.8,-1.730,M,40.593,M,3.0,0123*6F\r\n
$GPGGA,072450.45,5703.4132624,N,00952.1516475,E,2,11,0.8,-1.726,M,40.593,M,2.1,0123*65\r\n
$GPGGA,072450.50,5703.4132208,N,00952.1517323,E,2,11,0.8,-1.726,M,40.593,M,2.1,0123*6E\r\n
$GPGGA,072450.55,5703.4131800,N,00952.1518163,E,2,11,0.8,-1.728,M,40.593,M,2.1,0123*6D\r\n
$GPGGA,072450.60,5703.4131394,N,00952.1518988,E,2,11,0.8,-1.727,M,40.593,M,2.1,0123*6F\r\n
$GPGGA,072450.65,5703.4130969,N,00952.1519820,E,2,11,0.8,-1.729,M,40.593,M,2.4,0123*6A\r\n
$GPGGA,072450.70,5703.4130539,N,00952.1520651,E,2,11,0.8,-1.732,M,40.593,M,2.4,0123*6F\r\n
$GPGGA,072450.75,5703.4130106,N,00952.1521488,E,2,11,0.8,-1.731,M,40.593,M,2.4,0123*66\r\n
$GPGGA,072450.80,5703.4129686,N,00952.1522316,E,2,11,0.8,-1.733,M,40.593,M,2.4,0123*6A\r\n
$GPGGA,072450.85,5703.4129275,N,00952.1523143,E,2,11,0.8,-1.733,M,40.593,M,2.6,0123*66\r\n
$GPGGA,072450.90,5703.4128860,N,00952.1523961,E,2,11,0.8,-1.734,M,40.593,M,2.6,0123*62\r\n
$GPGGA,072450.95,5703.4128436,N,00952.1524791,E,2,11,0.8,-1.732,M,40.593,M,2.6,0123*68\r\n
$GPGGA,072451.00,5703.4128018,N,00952.1525642,E,2,11,0.8,-1.734,M,40.593,M,2.6,0123*65\r\n
$GPGGA,072451.05,5703.4127603,N,00952.1526486,E,2,11,0.8,-1.729,M,40.593,M,2.8,0123*68\r\n
$GPGGA,072451.10,5703.4127195,N,00952.1527316,E,2,11,0.8,-1.729,M,40.593,M,2.8,0123*6B\r\n
$GPGGA,072451.15,5703.4126787,N,00952.1528155,E,2,11,0.8,-1.728,M,40.593,M,2.8,0123*61\r\n
$GPGGA,072451.20,5703.4126373,N,00952.1528988,E,2,11,0.8,-1.732,M,40.593,M,2.8,0123*6B\r\n
$GPGGA,072451.25,5703.4125940,N,00952.1529834,E,2,11,0.8,-1.738,M,40.593,M,3.0,0123*63\r\n
$GPGGA,072451.30,5703.4125520,N,00952.1530662,E,2,11,0.8,-1.736,M,40.593,M,3.0,0123*66\r\n
$GPGGA,072451.35,5703.4125107,N,00952.1531483,E,2,11,0.8,-1.734,M,40.593,M,3.0,0123*6C\r\n
$GPGGA,072451.40,5703.4124702,N,00952.1532293,E,2,11,0.8,-1.731,M,40.593,M,3.0,0123*6D\r\n
$GPGGA,072451.45,5703.4124283,N,00952.1533100,E,2,11,0.8,-1.731,M,40.593,M,3.2,0123*6E\r\n
$GPGGA,072451.50,5703.4123856,N,00952.1533905,E,2,11,0.8,-1.730,M,40.593,M,3.2,0123*63\r\n
$GPGGA,072451.55,5703.4123444,N,00952.1534729,E,2,11,0.8,-1.730,M,40.593,M,3.2,0123*6E\r\n
$GPGGA,072451.60,5703.4123032,N,00952.1535545,E,2,11,0.8,-1.726,M,40.593,M,3.2,0123*63\r\n
$GPGGA,072451.65,5703.4122615,N,00952.1536368,E,2,11,0.8,-1.726,M,40.593,M,3.4,0123*68\r\n
$GPGGA,072451.70,5703.4122199,N,00952.1537184,E,2,11,0.8,-1.727,M,40.593,M,3.4,0123*6F\r\n
$GPGGA,072451.75,5703.4121779,N,00952.1537993,E,2,11,0.8,-1.728,M,40.593,M,3.4,0123*60\r\n
$GPGGA,072451.80,5703.4121362,N,00952.1538814,E,2,11,0.8,-1.728,M,40.593,M,3.4,0123*65\r\n
$GPGGA,072451.85,5703.4120950,N,00952.1539625,E,2,11,0.8,-1.731,M,40.593,M,3.6,0123*6D\r\n
$GPGGA,072451.90,5703.4120542,N,00952.1540444,E,2,11,0.8,-1.730,M,40.593,M,3.6,0123*6C\r\n
$GPGGA,072451.95,5703.4120139,N,00952.1541257,E,2,11,0.8,-1.729,M,40.593,M,3.6,0123*6C\r\n
$GPGGA,072452.00,5703.4119718,N,00952.1542052,E,2,11,0.8,-1.730,M,40.593,M,3.6,0123*60\r\n
$GPGGA,072452.05,5703.4119307,N,00952.1542852,E,2,11,0.8,-1.727,M,40.593,M,3.8,0123*6F\r\n
$GPGGA,072452.10,5703.4118894,N,00952.1543669,E,2,11,0.8,-1.727,M,40.593,M,3.8,0123*6C\r\n
$GPGGA,072452.15,5703.4118486,N,00952.1544475,E,2,11,0.8,-1.725,M,40.593,M,3.8,0123*6C\r\n
$GPGGA,072452.20,5703.4118067,N,00952.1545278,E,2,11,0.8,-1.723,M,40.593,M,3.8,0123*6D\r\n
$GPGGA,072452.25,5703.4117651,N,00952.1546085,E,2,11,0.8,-1.726,M,40.593,M,4.1,0123*6C\r\n
$GPGGA,072452.30,5703.4117243,N,00952.1546882,E,2,11,0.8,-1.727,M,40.593,M,4.1,0123*61\r\n
$GPGGA,072452.35,5703.4116827,N,00952.1547687,E,2,11,0.8,-1.728,M,40.593,M,4.1,0123*68\r\n
$GPGGA,072452.40,5703.4116412,N,00952.1548493,E,2,11,0.8,-1.730,M,40.593,M,4.1,0123*61\r\n
$GPGGA,072452.45,5703.4115992,N,00952.1549286,E,2,11,0.8,-1.733,M,40.593,M,2.5,0123*60\r\n
$GPGGA,072452.50,5703.4115578,N,00952.1550089,E,2,11,0.8,-1.734,M,40.593,M,2.5,0123*6E\r\n
$GPGGA,072452.55,5703.4115164,N,00952.1550894,E,2,11,0.8,-1.735,M,40.593,M,2.5,0123*67\r\n
$GPGGA,072452.60,5703.4114749,N,00952.1551697,E,2,11,0.8,-1.732,M,40.593,M,2.5,0123*62\r\n
$GPGGA,072452.65,5703.4114326,N,00952.1552486,E,2,11,0.8,-1.732,M,40.593,M,2.8,0123*66\r\n
$GPGGA,072452.70,5703.4113911,N,00952.1553282,E,2,11,0.8,-1.734,M,40.593,M,2.8,0123*6E\r\n
$GPGGA,072452.75,5703.4113512,N,00952.1554069,E,2,11,0.8,-1.735,M,40.593,M,2.8,0123*65\r\n
$GPGGA,072452.80,5703.4113095,N,00952.1554860,E,2,11,0.8,-1.734,M,40.593,M,2.8,0123*65\r\n
$GPGGA,072452.85,5703.4112685,N,00952.1555658,E,2,11,0.8,-1.731,M,40.593,M,3.0,0123*6E\r\n
$GPGGA,072452.90,5703.4112272,N,00952.1556462,E,2,11,0.8,-1.731,M,40.593,M,3.0,0123*6E\r\n
$GPGGA,072452.95,5703.4111862,N,00952.1557265,E,2,11,0.8,-1.732,M,40.593,M,3.0,0123*60\r\n
$GPGGA,072453.00,5703.4111453,N,00952.1558071,E,2,11,0.8,-1.733,M,40.593,M,3.0,0123*6A\r\n
$GPGGA,072453.05,5703.4111039,N,00952.1558859,E,2,11,0.8,-1.728,M,40.593,M,3.3,0123*6C\r\n
$GPGGA,072453.10,5703.4110623,N,00952.1559668,E,2,11,0.8,-1.732,M,40.593,M,3.3,0123*62\r\n
$GPGGA,072453.15,5703.4110214,N,00952.1560486,E,2,11,0.8,-1.734,M,40.593,M,3.3,0123*69\r\n
$GPGGA,072453.20,5703.4109809,N,00952.1561288,E,2,11,0.8,-1.734,M,40.593,M,3.3,0123*68\r\n
$GPGGA,072453.25,5703.4109406,N,00952.1562098,E,2,11,0.8,-1.738,M,40.593,M,3.5,0123*64\r\n
$GPGGA,072453.30,5703.4109004,N,00952.1562917,E,2,11,0.8,-1.737,M,40.593,M,3.5,0123*67\r\n
$GPGGA,072453.35,5703.4108591,N,00952.1563713,E,2,11,0.8,-1.738,M,40.593,M,3.5,0123*6E\r\n
$GPGGA,072453.40,5703.4108187,N,00952.1564516,E,2,11,0.8,-1.739,M,40.593,M,3.5,0123*6E\r\n
$GPGGA,072453.45,5703.4107792,N,00952.1565341,E,2,11,0.8,-1.737,M,40.593,M,2.1,0123*68\r\n
$GPGGA,072453.50,5703.4107406,N,00952.1566172,E,2,11,0.8,-1.737,M,40.593,M,2.1,0123*63\r\n
$GPGGA,072453.55,5703.4107008,N,00952.1566983,E,2,11,0.8,-1.737,M,40.593,M,2.1,0123*6A\r\n
$GPGGA,072453.60,5703.4106606,N,00952.1567784,E,2,11,0.8,-1.736,M,40.593,M,2.1,0123*6C\r\n
$GPGGA,072453.65,5703.4106222,N,00952.1568604,E,2,11,0.8,-1.729,M,40.593,M,2.3,0123*61\r\n
$GPGGA,072453.70,5703.4105831,N,00952.1569435,E,2,11,0.8,-1.729,M,40.593,M,2.3,0123*6F\r\n
$GPGGA,072453.75,5703.4105442,N,00952.1570275,E,2,11,0.8,-1.729,M,40.593,M,2.3,0123*68\r\n
$GPGGA,072453.80,5703.4105052,N,00952.1571093,E,2,11,0.8,-1.727,M,40.593,M,2.3,0123*62\r\n
$GPGGA,072453.85,5703.4104661,N,00952.1571908,E,2,11,0.8,-1.731,M,40.593,M,2.6,0123*69\r\n
$GPGGA,072453.90,5703.4104279,N,00952.1572726,E,2,11,0.8,-1.731,M,40.593,M,2.6,0123*61\r\n
$GPGGA,072453.95,5703.4103898,N,00952.1573550,E,2,11,0.8,-1.729,M,40.593,M,2.6,0123*6D\r\n
$GPGGA,072454.00,5703.4103513,N,00952.1574381,E,2,11,0.8,-1.726,M,40.593,M,2.6,0123*6A\r\n
$GPGGA,072454.05,5703.4103137,N,00952.1575185,E,2,11,0.8,-1.721,M,40.593,M,2.8,0123*63\r\n
$GPGGA,072454.10,5703.4102755,N,00952.1575997,E,2,11,0.8,-1.721,M,40.593,M,2.8,0123*6F\r\n
$GPGGA,072454.15,5703.4102376,N,00952.1576824,E,2,11,0.8,-1.721,M,40.593,M,2.8,0123*65\r\n
$GPGGA,072454.20,5703.4101997,N,00952.1577658,E,2,11,0.8,-1.720,M,40.593,M,2.8,0123*60\r\n
$GPGGA,072454.25,5703.4101622,N,00952.1578475,E,2,11,0.8,-1.722,M,40.593,M,3.0,0123*6D\r\n
$GPGGA,072454.30,5703.4101243,N,00952.1579302,E,2,11,0.8,-1.727,M,40.593,M,3.0,0123*69\r\n
$GPGGA,072454.35,5703.4100889,N,00952.1580125,E,2,11,0.8,-1.729,M,40.593,M,3.0,0123*6E\r\n
$GPGGA,072454.40,5703.4100534,N,00952.1580948,E,2,11,0.8,-1.728,M,40.593,M,3.0,0123*65\r\n
$GPGGA,072454.45,5703.4100161,N,00952.1581766,E,2,11,0.8,-1.725,M,40.593,M,2.1,0123*6A\r\n
$GPGGA,072454.50,5703.4099790,N,00952.1582588,E,2,11,0.8,-1.725,M,40.593,M,2.1,0123*66\r\n
$GPGGA,072454.55,5703.4099422,N,00952.1583414,E,2,11,0.8,-1.724,M,40.593,M,2.1,0123*6D\r\n
$GPGGA,072454.60,5703.4099065,N,00952.1584236,E,2,11,0.8,-1.723,M,40.593,M,2.1,0123*6A\r\n
$GPGGA,072454.65,5703.4098700,N,00952.1585051,E,2,11,0.8,-1.729,M,40.593,M,2.4,0123*67\r\n
$GPGGA,072454.70,5703.4098335,N,00952.1585861,E,2,11,0.8,-1.731,M,40.593,M,2.4,0123*63\r\n
$GPGGA,072454.75,5703.4097982,N,00952.1586683,E,2,11,0.8,-1.728,M,40.593,M,2.4,0123*66\r\n
$GPGGA,072454.80,5703.4097632,N,00952.1587504,E,2,11,0.8,-1.727,M,40.593,M,2.4,0123*6A\r\n
$GPGGA,072454.85,5703.4097283,N,00952.1588314,E,2,11,0.8,-1.721,M,40.593,M,2.6,0123*6D\r\n
$GPGGA,072454.90,5703.4096929,N,00952.1589126,E,2,11,0.8,-1.724,M,40.593,M,2.6,0123*64\r\n
$GPGGA,072454.95,5703.4096575,N,00952.1589949,E,2,11,0.8,-1.723,M,40.593,M,2.6,0123*62\r\n
$GPGGA,072455.00,5703.4096222,N,00952.1590793,E,2,11,0.8,-1.722,M,40.593,M,2.6,0123*6A\r\n
$GPGGA,072455.05,5703.4095877,N,00952.1591603,E,2,11,0.8,-1.728,M,40.593,M,2.8,0123*6B\r\n
$GPGGA,072455.10,5703.4095538,N,00952.1592409,E,2,11,0.8,-1.729,M,40.593,M,2.8,0123*63\r\n
$GPGGA,072455.15,5703.4095191,N,00952.1593229,E,2,11,0.8,-1.732,M,40.593,M,2.8,0123*6E\r\n
$GPGGA,072455.20,5703.4094845,N,00952.1594064,E,2,11,0.8,-1.735,M,40.593,M,2.8,0123*62\r\n
$GPGGA,072455.25,5703.4094496,N,00952.1594897,E,2,11,0.8,-1.734,M,40.593,M,3.0,0123*69\r\n
$GPGGA,072455.30,5703.4094153,N,00952.1595720,E,2,11,0.8,-1.736,M,40.593,M,3.0,0123*61\r\n
$GPGGA,072455.35,5703.4093813,N,00952.1596536,E,2,11,0.8,-1.739,M,40.593,M,3.0,0123*67\r\n
$GPGGA,072455.40,5703.4093471,N,00952.1597361,E,2,11,0.8,-1.743,M,40.593,M,3.0,0123*65\r\n
$GPGGA,072455.45,5703.4093123,N,00952.1598176,E,2,11,0.8,-1.745,M,40.593,M,3.2,0123*6D\r\n
$GPGGA,072455.50,5703.4092777,N,00952.1598992,E,2,11,0.8,-1.744,M,40.593,M,3.2,0123*6C\r\n
$GPGGA,072455.55,5703.4092438,N,00952.1599801,E,2,11,0.8,-1.744,M,40.593,M,3.2,0123*6B\r\n
$GPGGA,072455.60,5703.4092098,N,00952.1600614,E,2,11,0.8,-1.741,M,40.593,M,3.2,0123*6F\r\n
$GPGGA,072455.65,5703.4091748,N,00952.1601407,E,2,11,0.8,-1.737,M,40.593,M,3.4,0123*65\r\n
$GPGGA,072455.70,5703.4091403,N,00952.1602208,E,2,11,0.8,-1.735,M,40.593,M,3.4,0123*65\r\n
$GPGGA,072455.75,5703.4091057,N,00952.1603024,E,2,11,0.8,-1.733,M,40.593,M,3.4,0123*6E\r\n
$GPGGA,072455.80,5703.4090720,N,00952.1603845,E,2,11,0.8,-1.731,M,40.593,M,3.4,0123*6F\r\n
$GPGGA,072455.85,5703.4090381,N,00952.1604639,E,2,11,0.8,-1.732,M,40.593,M,3.6,0123*66\r\n
$GPGGA,072455.90,5703.4090039,N,00952.1605431,E,2,11,0.8,-1.731,M,40.593,M,3.6,0123*6A\r\n
$GPGGA,072455.95,5703.4089707,N,00952.1606240,E,2,11,0.8,-1.729,M,40.593,M,3.6,0123*67\r\n
$GPGGA,072456.00,5703.4089367,N,00952.1607067,E,2,11,0.8,-1.726,M,40.593,M,3.6,0123*63\r\n
$GPGGA,072456.05,5703.4089041,N,00952.1607879,E,2,11,0.8,-1.720,M,40.593,M,3.8,0123*6E\r\n
$GPGGA,072456.10,5703.4088717,N,00952.1608691,E,2,11,0.8,-1.721,M,40.593,M,3.8,0123*69\r\n
$GPGGA,072456.15,5703.4088389,N,00952.1609515,E,2,11,0.8,-1.724,M,40.593,M,3.8,0123*64\r\n
$GPGGA,072456.20,5703.4088053,N,00952.1610345,E,2,11,0.8,-1.726,M,40.593,M,3.8,0123*6F\r\n
$GPGGA,072456.25,5703.4087729,N,00952.1611169,E,2,11,0.8,-1.726,M,40.593,M,2.3,0123*68\r\n
$GPGGA,072456.30,5703.4087413,N,00952.1612006,E,2,11,0.8,-1.728,M,40.593,M,2.3,0123*63\r\n
$GPGGA,072456.35,5703.4087093,N,00952.1612845,E,2,11,0.8,-1.732,M,40.593,M,2.3,0123*6E\r\n
$GPGGA,072456.40,5703.4086767,N,00952.1613657,E,2,11,0.8,-1.735,M,40.593,M,2.3,0123*6A\r\n
$GPGGA,072456.45,5703.4086439,N,00952.1614473,E,2,11,0.8,-1.742,M,40.593,M,2.5,0123*62\r\n
$GPGGA,072456.50,5703.4086118,N,00952.1615311,E,2,11,0.8,-1.746,M,40.593,M,2.5,0123*66\r\n
$GPGGA,072456.55,5703.4085799,N,00952.1616159,E,2,11,0.8,-1.750,M,40.593,M,2.5,0123*65\r\n
$GPGGA,072456.60,5703.4085466,N,00952.1616981,E,2,11,0.8,-1.758,M,40.593,M,2.5,0123*65\r\n
$GPGGA,072456.65,5703.4085138,N,00952.1617801,E,2,11,0.8,-1.758,M,40.593,M,2.8,0123*6B\r\n
$GPGGA,072456.70,5703.4084816,N,00952.1618628,E,2,11,0.8,-1.756,M,40.593,M,2.8,0123*6F\r\n
$GPGGA,072456.75,5703.4084480,N,00952.1619446,E,2,11,0.8,-1.757,M,40.593,M,2.8,0123*63\r\n
$GPGGA,072456.80,5703.4084150,N,00952.1620253,E,2,11,0.8,-1.756,M,40.593,M,2.8,0123*68\r\n
$GPGGA,072456.85,5703.4083814,N,00952.1621061,E,2,11,0.8,-1.752,M,40.593,M,3.0,0123*6C\r\n
$GPGGA,072456.90,5703.4083482,N,00952.1621873,E,2,11,0.8,-1.749,M,40.593,M,3.0,0123*6A\r\n
$GPGGA,072456.95,5703.4083158,N,00952.1622689,E,2,11,0.8,-1.747,M,40.593,M,3.0,0123*6B\r\n
$GPGGA,072457.00,5703.4082835,N,00952.1623499,E,2,11,0.8,-1.743,M,40.593,M,3.0,0123*63\r\n
$GPGGA,072457.05,5703.4082507,N,00952.1624309,E,2,11,0.8,-1.738,M,40.593,M,3.3,0123*6C\r\n
$GPGGA,072457.10,5703.4082180,N,00952.1625129,E,2,11,0.8,-1.734,M,40.593,M,3.3,0123*6E\r\n
$GPGGA,072457.15,5703.4081858,N,00952.1625958,E,2,11,0.8,-1.731,M,40.593,M,3.3,0123*6F\r\n
$GPGGA,072457.20,5703.4081539,N,00952.1626785,E,2,11,0.8,-1.727,M,40.593,M,3.3,0123*69\r\n
$GPGGA,072457.25,5703.4081206,N,00952.1627597,E,2,11,0.8,-1.728,M,40.593,M,1.8,0123*61\r\n
$GPGGA,072457.30,5703.4080879,N,00952.1628429,E,2,11,0.8,-1.726,M,40.593,M,1.8,0123*63\r\n
$GPGGA,072457.35,5703.4080559,N,00952.1629249,E,2,11,0.8,-1.723,M,40.593,M,1.8,0123*6D\r\n
$GPGGA,072457.40,5703.4080249,N,00952.1630069,E,2,11,0.8,-1.722,M,40.593,M,1.8,0123*60\r\n
$GPGGA,072457.45,5703.4079933,N,00952.1630888,E,2,11,0.8,-1.722,M,40.593,M,2.1,0123*68\r\n
$GPGGA,072457.50,5703.4079608,N,00952.1631700,E,2,11,0.8,-1.721,M,40.593,M,2.1,0123*66\r\n
$GPGGA,072457.55,5703.4079295,N,00952.1632536,E,2,11,0.8,-1.718,M,40.593,M,2.1,0123*6D\r\n
$GPGGA,072457.60,5703.4078979,N,00952.1633375,E,2,11,0.8,-1.713,M,40.593,M,2.1,0123*68\r\n
$GPGGA,072457.65,5703.4078663,N,00952.1634189,E,2,11,0.8,-1.711,M,40.593,M,2.3,0123*6F\r\n
$GPGGA,072457.70,5703.4078350,N,00952.1635001,E,2,11,0.8,-1.711,M,40.593,M,2.3,0123*6E\r\n
$GPGGA,072457.75,5703.4078042,N,00952.1635840,E,2,11,0.8,-1.711,M,40.593,M,2.3,0123*66\r\n
$GPGGA,072457.80,5703.4077731,N,00952.1636688,E,2,11,0.8,-1.714,M,40.593,M,2.3,0123*6C\r\n
$GPGGA,072457.85,5703.4077415,N,00952.1637513,E,2,11,0.8,-1.730,M,40.593,M,2.6,0123*6F\r\n
$GPGGA,072457.90,5703.4077098,N,00952.1638344,E,2,11,0.8,-1.735,M,40.593,M,2.6,0123*64\r\n
$GPGGA,072457.95,5703.4076792,N,00952.1639179,E,2,11,0.8,-1.737,M,40.593,M,2.6,0123*62\r\n
$GPGGA,072458.00,5703.4076493,N,00952.1640022,E,2,11,0.8,-1.741,M,40.593,M,2.6,0123*63\r\n
$GPGGA,072458.05,5703.4076182,N,00952.1640856,E,2,11,0.8,-1.735,M,40.593,M,2.8,0123*65\r\n
$GPGGA,072458.10,5703.4075878,N,00952.1641677,E,2,11,0.8,-1.741,M,40.593,M,2.8,0123*61\r\n
$GPGGA,072458.15,5703.4075563,N,00952.1642509,E,2,11,0.8,-1.744,M,40.593,M,2.8,0123*6F\r\n
$GPGGA,072458.20,5703.4075249,N,00952.1643327,E,2,11,0.8,-1.743,M,40.593,M,2.8,0123*6A\r\n
$GPGGA,072458.25,5703.4074939,N,00952.1644124,E,2,11,0.8,-1.748,M,40.593,M,1.9,0123*6D\r\n
$GPGGA,072458.30,5703.4074632,N,00952.1644936,E,2,11,0.8,-1.746,M,40.593,M,1.9,0123*68\r\n
$GPGGA,072458.35,5703.4074319,N,00952.1645748,E,2,11,0.8,-1.744,M,40.593,M,1.9,0123*65\r\n
$GPGGA,072458.40,5703.4073995,N,00952.1646546,E,2,11,0.8,-1.742,M,40.593,M,1.9,0123*67\r\n
$GPGGA,072458.45,5703.4073684,N,00952.1647350,E,2,11,0.8,-1.736,M,40.593,M,2.1,0123*65\r\n
$GPGGA,072458.50,5703.4073373,N,00952.1648135,E,2,11,0.8,-1.729,M,40.593,M,2.1,0123*6C\r\n
$GPGGA,072458.55,5703.4073059,N,00952.1648936,E,2,11,0.8,-1.723,M,40.593,M,2.1,0123*63\r\n
$GPGGA,072458.60,5703.4072735,N,00952.1649744,E,2,11,0.8,-1.719,M,40.593,M,2.1,0123*6A\r\n
$GPGGA,072458.65,5703.4072413,N,00952.1650561,E,2,11,0.8,-1.712,M,40.593,M,2.4,0123*6B\r\n
$GPGGA,072458.70,5703.4072101,N,00952.1651364,E,2,11,0.8,-1.708,M,40.593,M,2.4,0123*60\r\n
$GPGGA,072458.75,5703.4071774,N,00952.1652166,E,2,11,0.8,-1.706,M,40.593,M,2.4,0123*6F\r\n
$GPGGA,072458.80,5703.4071453,N,00952.1652970,E,2,11,0.8,-1.709,M,40.593,M,2.4,0123*63\r\n
$GPGGA,072458.85,5703.4071138,N,00952.1653779,E,2,11,0.8,-1.711,M,40.593,M,2.6,0123*63\r\n
$GPGGA,072458.90,5703.4070829,N,00952.1654599,E,2,11,0.8,-1.713,M,40.593,M,2.6,0123*66\r\n
$GPGGA,072458.95,5703.4070520,N,00952.1655428,E,2,11,0.8,-1.715,M,40.593,M,2.6,0123*6B\r\n
$GPGGA,072459.00,5703.4070200,N,00952.1656245,E,2,11,0.8,-1.717,M,40.593,M,2.6,0123*6F\r\n
$GPGGA,072459.05,5703.4069889,N,00952.1657044,E,2,11,0.8,-1.715,M,40.593,M,2.8,0123*67\r\n
$GPGGA,072459.10,5703.4069584,N,00952.1657867,E,2,11,0.8,-1.721,M,40.593,M,2.8,0123*6D\r\n
$GPGGA,072459.15,5703.4069275,N,00952.1658695,E,2,11,0.8,-1.725,M,40.593,M,2.8,0123*69\r\n
$GPGGA,072459.20,5703.4068959,N,00952.1659523,E,2,11,0.8,-1.728,M,40.593,M,2.8,0123*69\r\n
$GPGGA,072459.25,5703.4068643,N,00952.1660343,E,2,11,0.8,-1.735,M,40.593,M,3.0,0123*67\r\n
$GPGGA,072459.30,5703.4068321,N,00952.1661143,E,2,11,0.8,-1.738,M,40.593,M,3.0,0123*6C\r\n
$GPGGA,072459.35,5703.4068001,N,00952.1661930,E,2,11,0.8,-1.741,M,40.593,M,3.0,0123*6A\r\n
$GPGGA,072459.40,5703.4067695,N,00952.1662734,E,2,11,0.8,-1.743,M,40.593,M,3.0,0123*67\r\n
$GPGGA,072459.45,5703.4067384,N,00952.1663535,E,2,11,0.8,-1.743,M,40.593,M,3.2,0123*67\r\n
$GPGGA,072459.50,5703.4067070,N,00952.1664350,E,2,11,0.8,-1.743,M,40.593,M,3.2,0123*69\r\n
$GPGGA,072459.55,5703.4066746,N,00952.1665161,E,2,11,0.8,-1.741,M,40.593,M,3.2,0123*6C\r\n
$GPGGA,072459.60,5703.4066419,N,00952.1665960,E,2,11,0.8,-1.741,M,40.593,M,3.2,0123*6A\r\n
$GPGGA,072459.65,5703.4066100,N,00952.1666757,E,2,11,0.8,-1.738,M,40.593,M,3.4,0123*63\r\n
$GPGGA,072459.70,5703.4065770,N,00952.1667550,E,2,11,0.8,-1.737,M,40.593,M,3.4,0123*6E\r\n
$GPGGA,072459.75,5703.4065437,N,00952.1668350,E,2,11,0.8,-1.735,M,40.593,M,3.4,0123*60\r\n
$GPGGA,072459.80,5703.4065108,N,00952.1669157,E,2,11,0.8,-1.735,M,40.593,M,3.4,0123*67\r\n
$GPGGA,072459.85,5703.4064790,N,00952.1669946,E,2,11,0.8,-1.737,M,40.593,M,3.6,0123*6C\r\n
$GPGGA,072459.90,5703.4064469,N,00952.1670742,E,2,11,0.8,-1.733,M,40.593,M,3.6,0123*6B\r\n
$GPGGA,072459.95,5703.4064145,N,00952.1671548,E,2,11,0.8,-1.732,M,40.593,M,3.6,0123*6D\r\n
$GPGGA,072500.00,5703.4063796,N,00952.1672326,E,2,11,0.8,-1.732,M,40.593,M,3.6,0123*6E\r\n
$GPGGA,072500.05,5703.4063458,N,00952.1673095,E,2,11,0.8,-1.724,M,40.593,M,3.8,0123*69\r\n
$GPGGA,072500.10,5703.4063130,N,00952.1673882,E,2,11,0.8,-1.722,M,40.593,M,3.8,0123*6E\r\n
$GPGGA,072500.15,5703.4062794,N,00952.1674669,E,2,11,0.8,-1.717,M,40.593,M,3.8,0123*68\r\n
$GPGGA,072500.20,5703.4062456,N,00952.1675457,E,2,11,0.8,-1.715,M,40.593,M,3.8,0123*6F\r\n
$GPGGA,072500.25,5703.4062117,N,00952.1676260,E,2,11,0.8,-1.719,M,40.593,M,2.3,0123*6D\r\n
$GPGGA,072500.30,5703.4061773,N,00952.1677047,E,2,11,0.8,-1.720,M,40.593,M,2.3,0123*62\r\n
$GPGGA,072500.35,5703.4061450,N,00952.1677827,E,2,11,0.8,-1.722,M,40.593,M,2.3,0123*69\r\n
$GPGGA,072500.40,5703.4061128,N,00952.1678617,E,2,11,0.8,-1.724,M,40.593,M,2.3,0123*65\r\n
$GPGGA,072500.45,5703.4060793,N,00952.1679417,E,2,11,0.8,-1.723,M,40.593,M,2.5,0123*65\r\n
$GPGGA,072500.50,5703.4060457,N,00952.1680213,E,2,11,0.8,-1.722,M,40.593,M,2.5,0123*6F\r\n
$GPGGA,072500.55,5703.4060135,N,00952.1681020,E,2,11,0.8,-1.724,M,40.593,M,2.5,0123*6E\r\n
$GPGGA,072500.60,5703.4059818,N,00952.1681818,E,2,11,0.8,-1.726,M,40.593,M,2.5,0123*65\r\n
$GPGGA,072500.65,5703.4059495,N,00952.1682629,E,2,11,0.8,-1.727,M,40.593,M,2.8,0123*6A\r\n
$GPGGA,072500.70,5703.4059171,N,00952.1683448,E,2,11,0.8,-1.730,M,40.593,M,2.8,0123*63\r\n
$GPGGA,072500.75,5703.4058844,N,00952.1684244,E,2,11,0.8,-1.733,M,40.593,M,2.8,0123*66\r\n
$GPGGA,072500.80,5703.4058511,N,00952.1685034,E,2,11,0.8,-1.734,M,40.593,M,2.8,0123*62\r\n
$GPGGA,072500.85,5703.4058169,N,00952.1685821,E,2,11,0.8,-1.739,M,40.593,M,3.0,0123*64\r\n
$GPGGA,072500.90,5703.4057833,N,00952.1686622,E,2,11,0.8,-1.742,M,40.593,M,3.0,0123*6B\r\n
$GPGGA,072500.95,5703.4057501,N,00952.1687418,E,2,11,0.8,-1.743,M,40.593,M,3.0,0123*69\r\n
$GPGGA,072501.00,5703.4057156,N,00952.1688196,E,2,11,0.8,-1.742,M,40.593,M,3.0,0123*6F\r\n
$GPGGA,072501.05,5703.4056810,N,00952.1688967,E,2,11,0.8,-1.737,M,40.593,M,3.3,0123*67\r\n
$GPGGA,072501.10,5703.4056467,N,00952.1689750,E,2,11,0.8,-1.737,M,40.593,M,3.3,0123*64\r\n
