$GPGGA,090208.15,5703.2876781,N,00952.3672211,E,2,8,1.2,-2.210,M,40.593,M,1.7,0123*54\r\n
$GPGGA,090208.20,5703.2876781,N,00952.3672219,E,2,8,1.2,-2.210,M,40.593,M,1.7,0123*5A\r\n
$GPGGA,090208.25,5703.2876798,N,00952.3672222,E,2,8,1.2,-2.214,M,40.593,M,2.0,0123*5F\r\n
$GPGGA,090208.30,5703.2876798,N,00952.3672230,E,2,8,1.2,-2.214,M,40.593,M,2.0,0123*58\r\n
$GPGGA,090208.35,5703.2876796,N,00952.3672237,E,2,8,1.2,-2.215,M,40.593,M,2.0,0123*55\r\n
$GPGGA,090208.40,5703.2876796,N,00952.3672245,E,2,8,1.2,-2.215,M,40.593,M,2.0,0123*52\r\n
$GPGGA,090208.45,5703.2876784,N,00952.3672262,E,2,8,1.2,-2.214,M,40.593,M,0.8,0123*5A\r\n
$GPGGA,090208.50,5703.2876783,N,00952.3672270,E,2,8,1.2,-2.214,M,40.593,M,0.8,0123*5A\r\n
$GPGGA,090208.55,5703.2876782,N,00952.3672277,E,2,8,1.2,-2.215,M,40.593,M,0.8,0123*58\r\n
$GPGGA,090208.60,5703.2876783,N,00952.3672287,E,2,8,1.2,-2.215,M,40.593,M,0.8,0123*50\r\n
$GPGGA,090208.65,5703.2876794,N,00952.3672298,E,2,8,1.2,-2.220,M,40.593,M,1.1,0123*53\r\n
$GPGGA,090208.70,5703.2876792,N,00952.3672306,E,2,8,1.2,-2.221,M,40.593,M,1.1,0123*56\r\n
$GPGGA,090208.75,5703.2876790,N,00952.3672307,E,2,8,1.2,-2.222,M,40.593,M,1.1,0123*53\r\n
$GPGGA,090208.80,5703.2876787,N,00952.3672315,E,2,8,1.2,-2.223,M,40.593,M,1.1,0123*5D\r\n
$GPGGA,090208.85,5703.2876767,N,00952.3672308,E,2,8,1.2,-2.217,M,40.593,M,1.4,0123*58\r\n
$GPGGA,090208.90,5703.2876766,N,00952.3672313,E,2,8,1.2,-2.217,M,40.593,M,1.4,0123*57\r\n
$GPGGA,090208.95,5703.2876761,N,00952.3672315,E,2,8,1.2,-2.218,M,40.593,M,1.4,0123*5C\r\n
$GPGGA,090209.00,5703.2876753,N,00952.3672317,E,2,8,1.2,-2.218,M,40.593,M,1.4,0123*52\r\n
$GPGGA,090209.05,5703.2876729,N,00952.3672297,E,2,8,1.2,-2.215,M,40.593,M,1.6,0123*5C\r\n
$GPGGA,090209.10,5703.2876725,N,00952.3672300,E,2,8,1.2,-2.214,M,40.593,M,1.6,0123*5A\r\n
$GPGGA,090209.15,5703.2876720,N,00952.3672301,E,2,8,1.2,-2.214,M,40.593,M,1.6,0123*5B\r\n
$GPGGA,090209.20,5703.2876714,N,00952.3672305,E,2,8,1.2,-2.214,M,40.593,M,1.6,0123*5E\r\n
$GPGGA,090209.25,5703.2876733,N,00952.3672311,E,2,8,1.2,-2.213,M,40.593,M,1.9,0123*53\r\n
$GPGGA,090209.30,5703.2876728,N,00952.3672312,E,2,8,1.2,-2.212,M,40.593,M,1.9,0123*5F\r\n
$GPGGA,090209.35,5703.2876724,N,00952.3672317,E,2,8,1.2,-2.211,M,40.593,M,1.9,0123*50\r\n
$GPGGA,090209.40,5703.2876724,N,00952.3672323,E,2,8,1.2,-2.210,M,40.593,M,1.9,0123*54\r\n
$GPGGA,090209.45,5703.2876724,N,00952.3672339,E,2,8,1.2,-2.210,M,40.593,M,2.1,0123*51\r\n
$GPGGA,090209.50,5703.2876721,N,00952.3672342,E,2,8,1.2,-2.209,M,40.593,M,2.1,0123*54\r\n
$GPGGA,090209.55,5703.2876719,N,00952.3672350,E,2,8,1.2,-2.208,M,40.593,M,2.1,0123*58\r\n
$GPGGA,090209.60,5703.2876719,N,00952.3672355,E,2,8,1.2,-2.207,M,40.593,M,2.1,0123*54\r\n
$GPGGA,090209.65,5703.2876714,N,00952.3672368,E,2,8,1.2,-2.217,M,40.593,M,2.3,0123*51\r\n
$GPGGA,090209.70,5703.2876710,N,00952.3672376,E,2,8,1.2,-2.216,M,40.593,M,2.3,0123*5F\r\n
$GPGGA,090209.75,5703.2876709,N,00952.3672384,E,2,8,1.2,-2.216,M,40.593,M,2.3,0123*5F\r\n
$GPGGA,090209.80,5703.2876708,N,00952.3672385,E,2,8,1.2,-2.216,M,40.593,M,2.3,0123*55\r\n
$GPGGA,090209.85,5703.2876705,N,00952.3672378,E,2,8,1.2,-2.216,M,40.593,M,2.6,0123*5A\r\n
$GPGGA,090209.90,5703.2876703,N,00952.3672382,E,2,8,1.2,-2.216,M,40.593,M,2.6,0123*5D\r\n
$GPGGA,090209.95,5703.2876700,N,00952.3672384,E,2,8,1.2,-2.216,M,40.593,M,2.6,0123*5D\r\n
$GPGGA,090210.00,5703.2876699,N,00952.3672384,E,2,8,1.2,-2.216,M,40.593,M,2.6,0123*58\r\n
$GPGGA,090210.05,5703.2876677,N,00952.3672354,E,2,8,1.2,-2.216,M,40.593,M,2.8,0123*5E\r\n
$GPGGA,090210.10,5703.2876675,N,00952.3672359,E,2,8,1.2,-2.216,M,40.593,M,2.8,0123*55\r\n
$GPGGA,090210.15,5703.2876674,N,00952.3672363,E,2,8,1.2,-2.216,M,40.593,M,2.8,0123*58\r\n
$GPGGA,090210.20,5703.2876673,N,00952.3672364,E,2,8,1.2,-2.216,M,40.593,M,2.8,0123*5E\r\n
$GPGGA,090210.25,5703.2876677,N,00952.3672367,E,2,8,1.2,-2.217,M,40.593,M,3.0,0123*54\r\n
$GPGGA,090210.30,5703.2876677,N,00952.3672369,E,2,8,1.2,-2.218,M,40.593,M,3.0,0123*51\r\n
$GPGGA,090210.35,5703.2876677,N,00952.3672371,E,2,8,1.2,-2.218,M,40.593,M,3.0,0123*5D\r\n
$GPGGA,090210.40,5703.2876675,N,00952.3672373,E,2,8,1.2,-2.218,M,40.593,M,3.0,0123*5F\r\n
$GPGGA,090210.45,5703.2876674,N,00952.3672374,E,2,8,1.2,-2.215,M,40.593,M,3.2,0123*53\r\n
$GPGGA,090210.50,5703.2876674,N,00952.3672377,E,2,8,1.2,-2.215,M,40.593,M,3.2,0123*54\r\n
$GPGGA,090210.55,5703.2876674,N,00952.3672376,E,2,8,1.2,-2.215,M,40.593,M,3.2,0123*50\r\n
$GPGGA,090210.60,5703.2876674,N,00952.3672379,E,2,8,1.2,-2.215,M,40.593,M,3.2,0123*59\r\n
$GPGGA,090210.65,5703.2876674,N,00952.3672385,E,2,8,1.2,-2.215,M,40.593,M,3.4,0123*59\r\n
$GPGGA,090210.70,5703.2876674,N,00952.3672388,E,2,8,1.2,-2.215,M,40.593,M,3.4,0123*50\r\n
$GPGGA,090210.75,5703.2876676,N,00952.3672391,E,2,8,1.2,-2.216,M,40.593,M,3.4,0123*5C\r\n
$GPGGA,090210.80,5703.2876674,N,00952.3672393,E,2,8,1.2,-2.216,M,40.593,M,3.4,0123*56\r\n
$GPGGA,090210.85,5703.2876664,N,00952.3672407,E,2,8,1.2,-2.214,M,40.593,M,3.6,0123*58\r\n
$GPGGA,090210.90,5703.2876665,N,00952.3672413,E,2,8,1.2,-2.215,M,40.593,M,3.6,0123*59\r\n
$GPGGA,090210.95,5703.2876664,N,00952.3672415,E,2,8,1.2,-2.215,M,40.593,M,3.6,0123*5B\r\n
$GPGGA,090211.00,5703.2876666,N,00952.3672422,E,2,8,1.2,-2.215,M,40.593,M,3.6,0123*50\r\n
$GPGGA,090211.05,5703.2876666,N,00952.3672420,E,2,8,1.2,-2.217,M,40.593,M,4.0,0123*54\r\n
$GPGGA,090211.10,5703.2876667,N,00952.3672425,E,2,8,1.2,-2.217,M,40.593,M,4.0,0123*54\r\n
$GPGGA,090211.15,5703.2876668,N,00952.3672430,E,2,8,1.2,-2.218,M,40.593,M,4.0,0123*55\r\n
$GPGGA,090211.20,5703.2876667,N,00952.3672436,E,2,8,1.2,-2.218,M,40.593,M,4.0,0123*5A\r\n
$GPGGA,090211.25,5703.2876635,N,00952.3672456,E,2,8,1.2,-2.216,M,40.593,M,2.1,0123*57\r\n
$GPGGA,090211.30,5703.2876634,N,00952.3672461,E,2,8,1.2,-2.216,M,40.593,M,2.1,0123*56\r\n
$GPGGA,090211.35,5703.2876633,N,00952.3672464,E,2,8,1.2,-2.216,M,40.593,M,2.1,0123*51\r\n
$GPGGA,090211.40,5703.2876630,N,00952.3672472,E,2,8,1.2,-2.216,M,40.593,M,2.1,0123*57\r\n
$GPGGA,090211.45,5703.2876617,N,00952.3672477,E,2,8,1.2,-2.213,M,40.593,M,2.3,0123*55\r\n
$GPGGA,090211.50,5703.2876616,N,00952.3672484,E,2,8,1.2,-2.213,M,40.593,M,2.3,0123*5C\r\n
$GPGGA,090211.55,5703.2876616,N,00952.3672491,E,2,8,1.2,-2.213,M,40.593,M,2.3,0123*5D\r\n
$GPGGA,090211.60,5703.2876612,N,00952.3672501,E,2,8,1.2,-2.213,M,40.593,M,2.3,0123*57\r\n
$GPGGA,090211.65,5703.2876612,N,00952.3672516,E,2,8,1.2,-2.220,M,40.593,M,2.6,0123*51\r\n
$GPGGA,090211.70,5703.2876613,N,00952.3672524,E,2,8,1.2,-2.221,M,40.593,M,2.6,0123*54\r\n
$GPGGA,090211.75,5703.2876610,N,00952.3672530,E,2,8,1.2,-2.221,M,40.593,M,2.6,0123*57\r\n
$GPGGA,090211.80,5703.2876606,N,00952.3672535,E,2,8,1.2,-2.221,M,40.593,M,2.6,0123*5F\r\n
$GPGGA,090211.85,5703.2876604,N,00952.3672530,E,2,8,1.2,-2.217,M,40.593,M,2.8,0123*56\r\n
$GPGGA,090211.90,5703.2876602,N,00952.3672537,E,2,8,1.2,-2.217,M,40.593,M,2.8,0123*53\r\n
$GPGGA,090211.95,5703.2876598,N,00952.3672544,E,2,8,1.2,-2.217,M,40.593,M,2.8,0123*52\r\n
$GPGGA,090212.00,5703.2876598,N,00952.3672549,E,2,8,1.2,-2.217,M,40.593,M,2.8,0123*50\r\n
$GPGGA,090212.05,5703.2876596,N,00952.3672531,E,2,8,1.2,-2.213,M,40.593,M,3.1,0123*58\r\n
$GPGGA,090212.10,5703.2876594,N,00952.3672538,E,2,8,1.2,-2.213,M,40.593,M,3.1,0123*57\r\n
$GPGGA,090212.15,5703.2876593,N,00952.3672547,E,2,8,1.2,-2.213,M,40.593,M,3.1,0123*5D\r\n
$GPGGA,090212.20,5703.2876591,N,00952.3672548,E,2,8,1.2,-2.213,M,40.593,M,3.1,0123*56\r\n
$GPGGA,090212.25,5703.2876588,N,00952.3672539,E,2,8,1.2,-2.212,M,40.593,M,3.3,0123*5E\r\n
$GPGGA,090212.30,5703.2876587,N,00952.3672542,E,2,8,1.2,-2.211,M,40.593,M,3.3,0123*5A\r\n
$GPGGA,090212.35,5703.2876586,N,00952.3672545,E,2,8,1.2,-2.211,M,40.593,M,3.3,0123*59\r\n
$GPGGA,090212.40,5703.2876586,N,00952.3672548,E,2,8,1.2,-2.211,M,40.593,M,3.3,0123*56\r\n
$GPGGA,090212.45,5703.2876599,N,00952.3672536,E,2,8,1.2,-2.217,M,40.593,M,2.1,0123*51\r\n
$GPGGA,090212.50,5703.2876599,N,00952.3672536,E,2,8,1.2,-2.217,M,40.593,M,2.1,0123*55\r\n
$GPGGA,090212.55,5703.2876598,N,00952.3672539,E,2,8,1.2,-2.217,M,40.593,M,2.1,0123*5E\r\n
$GPGGA,090212.60,5703.2876599,N,00952.3672541,E,2,8,1.2,-2.217,M,40.593,M,2.1,0123*56\r\n
$GPGGA,090212.65,5703.2876602,N,00952.3672549,E,2,8,1.2,-2.218,M,40.593,M,2.3,0123*57\r\n
$GPGGA,090212.70,5703.2876603,N,00952.3672551,E,2,8,1.2,-2.218,M,40.593,M,2.3,0123*5B\r\n
$GPGGA,090212.75,5703.2876604,N,00952.3672555,E,2,8,1.2,-2.219,M,40.593,M,2.3,0123*5C\r\n
$GPGGA,090212.80,5703.2876605,N,00952.3672550,E,2,8,1.2,-2.219,M,40.593,M,2.3,0123*52\r\n
$GPGGA,090212.85,5703.2876615,N,00952.3672541,E,2,8,1.2,-2.222,M,40.593,M,2.5,0123*58\r\n
$GPGGA,090212.90,5703.2876618,N,00952.3672545,E,2,8,1.2,-2.222,M,40.593,M,2.5,0123*55\r\n
$GPGGA,090212.95,5703.2876619,N,00952.3672542,E,2,8,1.2,-2.223,M,40.593,M,2.5,0123*57\r\n
$GPGGA,090213.00,5703.2876618,N,00952.3672539,E,2,8,1.2,-2.223,M,40.593,M,2.5,0123*57\r\n
$GPGGA,090213.05,5703.2876601,N,00952.3672519,E,2,8,1.2,-2.224,M,40.593,M,2.8,0123*52\r\n
$GPGGA,090213.10,5703.2876603,N,00952.3672516,E,2,8,1.2,-2.224,M,40.593,M,2.8,0123*5B\r\n
$GPGGA,090213.15,5703.2876603,N,00952.3672512,E,2,8,1.2,-2.225,M,40.593,M,2.8,0123*5B\r\n
$GPGGA,090213.20,5703.2876602,N,00952.3672507,E,2,8,1.2,-2.226,M,40.593,M,2.8,0123*5B\r\n
$GPGGA,090213.25,5703.2876597,N,00952.3672484,E,2,8,1.2,-2.220,M,40.593,M,3.0,0123*54\r\n
$GPGGA,090213.30,5703.2876599,N,00952.3672478,E,2,8,1.2,-2.221,M,40.593,M,3.0,0123*5C\r\n
$GPGGA,090213.35,5703.2876600,N,00952.3672471,E,2,8,1.2,-2.221,M,40.593,M,3.0,0123*53\r\n
$GPGGA,090213.40,5703.2876600,N,00952.3672460,E,2,8,1.2,-2.222,M,40.593,M,3.0,0123*52\r\n
$GPGGA,090213.45,5703.2876594,N,00952.3672433,E,2,8,1.2,-2.221,M,40.593,M,2.2,0123*5F\r\n
$GPGGA,090213.50,5703.2876594,N,00952.3672425,E,2,8,1.2,-2.222,M,40.593,M,2.2,0123*5F\r\n
$GPGGA,090213.55,5703.2876594,N,00952.3672422,E,2,8,1.2,-2.222,M,40.593,M,2.2,0123*5D\r\n
$GPGGA,090213.60,5703.2876598,N,00952.3672417,E,2,8,1.2,-2.222,M,40.593,M,2.2,0123*51\r\n
$GPGGA,090213.65,5703.2876591,N,00952.3672438,E,2,8,1.2,-2.218,M,40.593,M,2.5,0123*5E\r\n
$GPGGA,090213.70,5703.2876591,N,00952.3672431,E,2,8,1.2,-2.218,M,40.593,M,2.5,0123*53\r\n
$GPGGA,090213.75,5703.2876591,N,00952.3672425,E,2,8,1.2,-2.218,M,40.593,M,2.5,0123*53\r\n
$GPGGA,090213.80,5703.2876592,N,00952.3672422,E,2,8,1.2,-2.218,M,40.593,M,2.5,0123*5D\r\n
$GPGGA,090213.85,5703.2876594,N,00952.3672436,E,2,8,1.2,-2.218,M,40.593,M,2.7,0123*59\r\n
$GPGGA,090213.90,5703.2876595,N,00952.3672434,E,2,8,1.2,-2.217,M,40.593,M,2.7,0123*51\r\n
$GPGGA,090213.95,5703.2876596,N,00952.3672431,E,2,8,1.2,-2.217,M,40.593,M,2.7,0123*52\r\n
$GPGGA,090214.00,5703.2876599,N,00952.3672426,E,2,8,1.2,-2.217,M,40.593,M,2.7,0123*50\r\n
$GPGGA,090214.05,5703.2876612,N,00952.3672421,E,2,8,1.2,-2.214,M,40.593,M,2.9,0123*5F\r\n
$GPGGA,090214.10,5703.2876615,N,00952.3672423,E,2,8,1.2,-2.213,M,40.593,M,2.9,0123*59\r\n
$GPGGA,090214.15,5703.2876617,N,00952.3672425,E,2,8,1.2,-2.213,M,40.593,M,2.9,0123*58\r\n
$GPGGA,090214.20,5703.2876620,N,00952.3672423,E,2,8,1.2,-2.213,M,40.593,M,2.9,0123*5C\r\n
$GPGGA,090214.25,5703.2876618,N,00952.3672450,E,2,8,1.2,-2.215,M,40.593,M,3.1,0123*59\r\n
$GPGGA,090214.30,5703.2876621,N,00952.3672448,E,2,8,1.2,-2.215,M,40.593,M,3.1,0123*5E\r\n
$GPGGA,090214.35,5703.2876624,N,00952.3672447,E,2,8,1.2,-2.214,M,40.593,M,3.1,0123*50\r\n
$GPGGA,090214.40,5703.2876626,N,00952.3672449,E,2,8,1.2,-2.214,M,40.593,M,3.1,0123*5E\r\n
$GPGGA,090214.45,5703.2876630,N,00952.3672441,E,2,8,1.2,-2.213,M,40.593,M,3.3,0123*51\r\n
$GPGGA,090214.50,5703.2876634,N,00952.3672440,E,2,8,1.2,-2.212,M,40.593,M,3.3,0123*51\r\n
$GPGGA,090214.55,5703.2876636,N,00952.3672438,E,2,8,1.2,-2.212,M,40.593,M,3.3,0123*59\r\n
$GPGGA,090214.60,5703.2876638,N,00952.3672433,E,2,8,1.2,-2.211,M,40.593,M,3.3,0123*59\r\n
$GPGGA,090214.65,5703.2876626,N,00952.3672426,E,2,8,1.2,-2.214,M,40.593,M,3.5,0123*54\r\n
$GPGGA,090214.70,5703.2876628,N,00952.3672421,E,2,8,1.2,-2.213,M,40.593,M,3.5,0123*5E\r\n
$GPGGA,090214.75,5703.2876627,N,00952.3672415,E,2,8,1.2,-2.212,M,40.593,M,3.5,0123*52\r\n
$GPGGA,090214.80,5703.2876629,N,00952.3672403,E,2,8,1.2,-2.212,M,40.593,M,3.5,0123*51\r\n
$GPGGA,090214.85,5703.2876606,N,00952.3672367,E,2,8,1.2,-2.218,M,40.593,M,3.8,0123*5B\r\n
$GPGGA,090214.90,5703.2876607,N,00952.3672356,E,2,8,1.2,-2.218,M,40.593,M,3.8,0123*5C\r\n
$GPGGA,090214.95,5703.2876607,N,00952.3672342,E,2,8,1.2,-2.217,M,40.593,M,3.8,0123*53\r\n
$GPGGA,090215.00,5703.2876608,N,00952.3672328,E,2,8,1.2,-2.217,M,40.593,M,3.8,0123*5D\r\n
$GPGGA,090215.05,5703.2876579,N,00952.3672260,E,2,8,1.2,-2.221,M,40.593,M,4.0,0123*5A\r\n
$GPGGA,090215.10,5703.2876577,N,00952.3672247,E,2,8,1.2,-2.221,M,40.593,M,4.0,0123*55\r\n
$GPGGA,090215.15,5703.2876576,N,00952.3672235,E,2,8,1.2,-2.221,M,40.593,M,4.0,0123*54\r\n
$GPGGA,090215.20,5703.2876577,N,00952.3672221,E,2,8,1.2,-2.221,M,40.593,M,4.0,0123*56\r\n
$GPGGA,090215.25,5703.2876565,N,00952.3672210,E,2,8,1.2,-2.219,M,40.593,M,4.2,0123*5B\r\n
$GPGGA,090215.30,5703.2876565,N,00952.3672200,E,2,8,1.2,-2.219,M,40.593,M,4.2,0123*5E\r\n
$GPGGA,090215.35,5703.2876564,N,00952.3672186,E,2,8,1.2,-2.219,M,40.593,M,4.2,0123*57\r\n
$GPGGA,090215.40,5703.2876563,N,00952.3672174,E,2,8,1.2,-2.219,M,40.593,M,4.2,0123*5F\r\n
$GPGGA,090215.45,5703.2876589,N,00952.3672191,E,2,8,1.2,-2.217,M,40.593,M,2.3,0123*5C\r\n
$GPGGA,090215.50,5703.2876590,N,00952.3672183,E,2,8,1.2,-2.217,M,40.593,M,2.3,0123*53\r\n
$GPGGA,090215.55,5703.2876589,N,00952.3672176,E,2,8,1.2,-2.217,M,40.593,M,2.3,0123*54\r\n
$GPGGA,090215.60,5703.2876592,N,00952.3672169,E,2,8,1.2,-2.217,M,40.593,M,2.3,0123*56\r\n
$GPGGA,090215.65,5703.2876624,N,00952.3672186,E,2,8,1.2,-2.212,M,40.593,M,2.6,0123*5C\r\n
$GPGGA,090215.70,5703.2876627,N,00952.3672181,E,2,8,1.2,-2.212,M,40.593,M,2.6,0123*5C\r\n
$GPGGA,090215.75,5703.2876628,N,00952.3672175,E,2,8,1.2,-2.212,M,40.593,M,2.6,0123*5D\r\n
$GPGGA,090215.80,5703.2876631,N,00952.3672170,E,2,8,1.2,-2.212,M,40.593,M,2.6,0123*5A\r\n
$GPGGA,090215.85,5703.2876650,N,00952.3672181,E,2,8,1.2,-2.213,M,40.593,M,2.8,0123*59\r\n
$GPGGA,090215.90,5703.2876653,N,00952.3672178,E,2,8,1.2,-2.213,M,40.593,M,2.8,0123*58\r\n
$GPGGA,090215.95,5703.2876658,N,00952.3672175,E,2,8,1.2,-2.213,M,40.593,M,2.8,0123*5B\r\n
$GPGGA,090216.00,5703.2876664,N,00952.3672177,E,2,8,1.2,-2.213,M,40.593,M,2.8,0123*59\r\n
$GPGGA,090216.05,5703.2876666,N,00952.3672179,E,2,8,1.2,-2.212,M,40.593,M,3.1,0123*59\r\n
$GPGGA,090216.10,5703.2876671,N,00952.3672178,E,2,8,1.2,-2.212,M,40.593,M,3.1,0123*5A\r\n
$GPGGA,090216.15,5703.2876676,N,00952.3672180,E,2,8,1.2,-2.211,M,40.593,M,3.1,0123*5C\r\n
$GPGGA,090216.20,5703.2876682,N,00952.3672182,E,2,8,1.2,-2.211,M,40.593,M,3.1,0123*53\r\n
$GPGGA,090216.25,5703.2876677,N,00952.3672205,E,2,8,1.2,-2.212,M,40.593,M,3.3,0123*51\r\n
$GPGGA,090216.30,5703.2876684,N,00952.3672208,E,2,8,1.2,-2.212,M,40.593,M,3.3,0123*54\r\n
$GPGGA,090216.35,5703.2876688,N,00952.3672209,E,2,8,1.2,-2.212,M,40.593,M,3.3,0123*5C\r\n
$GPGGA,090216.40,5703.2876693,N,00952.3672210,E,2,8,1.2,-2.211,M,40.593,M,3.3,0123*5F\r\n
$GPGGA,090216.45,5703.2876670,N,00952.3672212,E,2,8,1.2,-2.212,M,40.593,M,2.1,0123*55\r\n
$GPGGA,090216.50,5703.2876676,N,00952.3672213,E,2,8,1.2,-2.212,M,40.593,M,2.1,0123*56\r\n
$GPGGA,090216.55,5703.2876679,N,00952.3672214,E,2,8,1.2,-2.212,M,40.593,M,2.1,0123*5B\r\n
$GPGGA,090216.60,5703.2876683,N,00952.3672218,E,2,8,1.2,-2.211,M,40.593,M,2.1,0123*57\r\n
$GPGGA,090216.65,5703.2876670,N,00952.3672215,E,2,8,1.2,-2.213,M,40.593,M,2.3,0123*53\r\n
$GPGGA,090216.70,5703.2876673,N,00952.3672216,E,2,8,1.2,-2.213,M,40.593,M,2.3,0123*57\r\n
$GPGGA,090216.75,5703.2876678,N,00952.3672222,E,2,8,1.2,-2.213,M,40.593,M,2.3,0123*5E\r\n
$GPGGA,090216.80,5703.2876678,N,00952.3672224,E,2,8,1.2,-2.212,M,40.593,M,2.3,0123*53\r\n
$GPGGA,090216.85,5703.2876661,N,00952.3672230,E,2,8,1.2,-2.215,M,40.593,M,2.5,0123*5A\r\n
$GPGGA,090216.90,5703.2876661,N,00952.3672236,E,2,8,1.2,-2.215,M,40.593,M,2.5,0123*58\r\n
$GPGGA,090216.95,5703.2876661,N,00952.3672236,E,2,8,1.2,-2.215,M,40.593,M,2.5,0123*5D\r\n
$GPGGA,090217.00,5703.2876662,N,00952.3672239,E,2,8,1.2,-2.215,M,40.593,M,2.5,0123*5C\r\n
$GPGGA,090217.05,5703.2876635,N,00952.3672220,E,2,8,1.2,-2.215,M,40.593,M,2.8,0123*5E\r\n
$GPGGA,090217.10,5703.2876634,N,00952.3672224,E,2,8,1.2,-2.215,M,40.593,M,2.8,0123*5F\r\n
$GPGGA,090217.15,5703.2876631,N,00952.3672231,E,2,8,1.2,-2.215,M,40.593,M,2.8,0123*5B\r\n
$GPGGA,090217.20,5703.2876629,N,00952.3672234,E,2,8,1.2,-2.215,M,40.593,M,2.8,0123*51\r\n
$GPGGA,090217.25,5703.2876620,N,00952.3672228,E,2,8,1.2,-2.211,M,40.593,M,3.0,0123*5D\r\n
$GPGGA,090217.30,5703.2876616,N,00952.3672228,E,2,8,1.2,-2.211,M,40.593,M,3.0,0123*5C\r\n
$GPGGA,090217.35,5703.2876613,N,00952.3672227,E,2,8,1.2,-2.211,M,40.593,M,3.0,0123*53\r\n
$GPGGA,090217.40,5703.2876612,N,00952.3672228,E,2,8,1.2,-2.211,M,40.593,M,3.0,0123*5F\r\n
$GPGGA,090217.45,5703.2876626,N,00952.3672193,E,2,8,1.2,-2.212,M,40.593,M,2.2,0123*5E\r\n
$GPGGA,090217.50,5703.2876625,N,00952.3672198,E,2,8,1.2,-2.212,M,40.593,M,2.2,0123*52\r\n
$GPGGA,090217.55,5703.2876623,N,00952.3672202,E,2,8,1.2,-2.212,M,40.593,M,2.2,0123*51\r\n
$GPGGA,090217.60,5703.2876619,N,00952.3672202,E,2,8,1.2,-2.212,M,40.593,M,2.2,0123*5E\r\n
$GPGGA,090217.65,5703.2876641,N,00952.3672208,E,2,8,1.2,-2.212,M,40.593,M,2.5,0123*5B\r\n
$GPGGA,090217.70,5703.2876638,N,00952.3672209,E,2,8,1.2,-2.212,M,40.593,M,2.5,0123*50\r\n
$GPGGA,090217.75,5703.2876636,N,00952.3672214,E,2,8,1.2,-2.212,M,40.593,M,2.5,0123*57\r\n
$GPGGA,090217.80,5703.2876632,N,00952.3672217,E,2,8,1.2,-2.212,M,40.593,M,2.5,0123*5A\r\n
$GPGGA,090217.85,5703.2876630,N,00952.3672235,E,2,8,1.2,-2.215,M,40.593,M,2.7,0123*58\r\n
$GPGGA,090217.90,5703.2876626,N,00952.3672236,E,2,8,1.2,-2.215,M,40.593,M,2.7,0123*58\r\n
$GPGGA,090217.95,5703.2876625,N,00952.3672240,E,2,8,1.2,-2.215,M,40.593,M,2.7,0123*5F\r\n
$GPGGA,090218.00,5703.2876624,N,00952.3672246,E,2,8,1.2,-2.215,M,40.593,M,2.7,0123*5B\r\n
$GPGGA,090218.05,5703.2876620,N,00952.3672250,E,2,8,1.2,-2.220,M,40.593,M,2.9,0123*55\r\n
$GPGGA,090218.10,5703.2876617,N,00952.3672255,E,2,8,1.2,-2.220,M,40.593,M,2.9,0123*50\r\n
$GPGGA,090218.15,5703.2876620,N,00952.3672260,E,2,8,1.2,-2.221,M,40.593,M,2.9,0123*56\r\n
$GPGGA,090218.20,5703.2876619,N,00952.3672265,E,2,8,1.2,-2.221,M,40.593,M,2.9,0123*5F\r\n
$GPGGA,090218.25,5703.2876647,N,00952.3672277,E,2,8,1.2,-2.225,M,40.593,M,3.1,0123*5F\r\n
$GPGGA,090218.30,5703.2876648,N,00952.3672288,E,2,8,1.2,-2.225,M,40.593,M,3.1,0123*54\r\n
$GPGGA,090218.35,5703.2876646,N,00952.3672297,E,2,8,1.2,-2.226,M,40.593,M,3.1,0123*52\r\n
$GPGGA,090218.40,5703.2876645,N,00952.3672303,E,2,8,1.2,-2.227,M,40.593,M,3.1,0123*5E\r\n
$GPGGA,090218.45,5703.2876647,N,00952.3672326,E,2,8,1.2,-2.230,M,40.593,M,0.9,0123*53\r\n
$GPGGA,090218.50,5703.2876647,N,00952.3672330,E,2,8,1.2,-2.231,M,40.593,M,0.9,0123*51\r\n
$GPGGA,090218.55,5703.2876647,N,00952.3672335,E,2,8,1.2,-2.232,M,40.593,M,0.9,0123*52\r\n
$GPGGA,090218.60,5703.2876645,N,00952.3672344,E,2,8,1.2,-2.233,M,40.593,M,0.9,0123*51\r\n
$GPGGA,090218.65,5703.2876633,N,00952.3672329,E,2,8,1.2,-2.233,M,40.593,M,1.2,0123*54\r\n
$GPGGA,090218.70,5703.2876633,N,00952.3672335,E,2,8,1.2,-2.234,M,40.593,M,1.2,0123*5A\r\n
$GPGGA,090218.75,5703.2876630,N,00952.3672339,E,2,8,1.2,-2.235,M,40.593,M,1.2,0123*51\r\n
$GPGGA,090218.80,5703.2876627,N,00952.3672339,E,2,8,1.2,-2.236,M,40.593,M,1.2,0123*5E\r\n
$GPGGA,090218.85,5703.2876598,N,00952.3672315,E,2,8,1.2,-2.233,M,40.593,M,1.5,0123*50\r\n
$GPGGA,090218.90,5703.2876592,N,00952.3672312,E,2,8,1.2,-2.234,M,40.593,M,1.5,0123*5E\r\n
$GPGGA,090218.95,5703.2876586,N,00952.3672307,E,2,8,1.2,-2.235,M,40.593,M,1.5,0123*5B\r\n
$GPGGA,090219.00,5703.2876580,N,00952.3672303,E,2,8,1.2,-2.236,M,40.593,M,1.5,0123*57\r\n
$GPGGA,090219.05,5703.2876521,N,00952.3672249,E,2,8,1.2,-2.230,M,40.593,M,1.8,0123*5D\r\n
$GPGGA,090219.10,5703.2876516,N,00952.3672252,E,2,8,1.2,-2.231,M,40.593,M,1.8,0123*56\r\n
$GPGGA,090219.15,5703.2876515,N,00952.3672262,E,2,8,1.2,-2.231,M,40.593,M,1.8,0123*53\r\n
$GPGGA,090219.20,5703.2876512,N,00952.3672272,E,2,8,1.2,-2.232,M,40.593,M,1.8,0123*50\r\n
$GPGGA,090219.25,5703.2876566,N,00952.3672313,E,2,8,1.2,-2.227,M,40.593,M,2.1,0123*5E\r\n
$GPGGA,090219.30,5703.2876562,N,00952.3672310,E,2,8,1.2,-2.227,M,40.593,M,2.1,0123*5D\r\n
$GPGGA,090219.35,5703.2876561,N,00952.3672310,E,2,8,1.2,-2.228,M,40.593,M,2.1,0123*54\r\n
$GPGGA,090219.40,5703.2876561,N,00952.3672309,E,2,8,1.2,-2.228,M,40.593,M,2.1,0123*5E\r\n
$GPGGA,090219.45,5703.2876602,N,00952.3672256,E,2,8,1.2,-2.222,M,40.593,M,0.8,0123*57\r\n
$GPGGA,090219.50,5703.2876600,N,00952.3672246,E,2,8,1.2,-2.222,M,40.593,M,0.8,0123*50\r\n
$GPGGA,090219.55,5703.2876600,N,00952.3672240,E,2,8,1.2,-2.222,M,40.593,M,0.8,0123*53\r\n
$GPGGA,090219.60,5703.2876601,N,00952.3672234,E,2,8,1.2,-2.222,M,40.593,M,0.8,0123*57\r\n
$GPGGA,090219.65,5703.2876594,N,00952.3672199,E,2,8,1.2,-2.214,M,40.593,M,1.1,0123*54\r\n
$GPGGA,090219.70,5703.2876599,N,00952.3672198,E,2,8,1.2,-2.213,M,40.593,M,1.1,0123*5B\r\n
$GPGGA,090219.75,5703.2876603,N,00952.3672197,E,2,8,1.2,-2.212,M,40.593,M,1.1,0123*50\r\n
$GPGGA,090219.80,5703.2876612,N,00952.3672200,E,2,8,1.2,-2.211,M,40.593,M,1.1,0123*54\r\n
$GPGGA,090219.85,5703.2876738,N,00952.3672222,E,2,8,1.2,-2.183,M,40.593,M,1.3,0123*52\r\n
$GPGGA,090219.90,5703.2876771,N,00952.3672230,E,2,8,1.2,-2.175,M,40.593,M,1.3,0123*51\r\n
$GPGGA,090219.95,5703.2876784,N,00952.3672251,E,2,8,1.2,-2.170,M,40.593,M,1.3,0123*5C\r\n
$GPGGA,090220.00,5703.2876801,N,00952.3672273,E,2,8,1.2,-2.162,M,40.593,M,1.3,0123*5B\r\n
$GPGGA,090220.05,5703.2876835,N,00952.3672265,E,2,8,1.2,-2.152,M,40.593,M,1.6,0123*58\r\n
$GPGGA,090220.10,5703.2876861,N,00952.3672276,E,2,8,1.2,-2.142,M,40.593,M,1.6,0123*5E\r\n
$GPGGA,090220.15,5703.2876899,N,00952.3672302,E,2,8,1.2,-2.137,M,40.593,M,1.6,0123*5C\r\n
$GPGGA,090220.20,5703.2876929,N,00952.3672337,E,2,8,1.2,-2.134,M,40.593,M,1.6,0123*55\r\n
$GPGGA,090220.25,5703.2876958,N,00952.3672354,E,2,8,1.2,-2.136,M,40.593,M,1.8,0123*5F\r\n
$GPGGA,090220.30,5703.2876973,N,00952.3672359,E,2,8,1.2,-2.134,M,40.593,M,1.8,0123*5D\r\n
$GPGGA,090220.35,5703.2877000,N,00952.3672378,E,2,8,1.2,-2.132,M,40.593,M,1.8,0123*51\r\n
$GPGGA,090220.40,5703.2877017,N,00952.3672393,E,2,8,1.2,-2.131,M,40.593,M,1.8,0123*53\r\n
$GPGGA,090220.45,5703.2877033,N,00952.3672402,E,2,8,1.2,-2.131,M,40.593,M,2.1,0123*55\r\n
$GPGGA,090220.50,5703.2877050,N,00952.3672411,E,2,8,1.2,-2.131,M,40.593,M,2.1,0123*56\r\n
$GPGGA,090220.55,5703.2877067,N,00952.3672419,E,2,8,1.2,-2.131,M,40.593,M,2.1,0123*5F\r\n
$GPGGA,090220.60,5703.2877083,N,00952.3672423,E,2,8,1.2,-2.131,M,40.593,M,2.1,0123*5A\r\n
$GPGGA,090220.65,5703.2877036,N,00952.3672432,E,2,8,1.2,-2.139,M,40.593,M,2.3,0123*5B\r\n
$GPGGA,090220.70,5703.2877045,N,00952.3672453,E,2,8,1.2,-2.138,M,40.593,M,2.3,0123*5D\r\n
$GPGGA,090220.75,5703.2877076,N,00952.3672473,E,2,8,1.2,-2.139,M,40.593,M,2.3,0123*5B\r\n
$GPGGA,090220.80,5703.2877108,N,00952.3672481,E,2,8,1.2,-2.142,M,40.593,M,2.3,0123*58\r\n
$GPGGA,090220.85,5703.2877131,N,00952.3672500,E,2,8,1.2,-2.140,M,40.593,M,2.5,0123*5B\r\n
$GPGGA,090220.90,5703.2877150,N,00952.3672520,E,2,8,1.2,-2.141,M,40.593,M,2.5,0123*5B\r\n
$GPGGA,090220.95,5703.2877167,N,00952.3672534,E,2,8,1.2,-2.143,M,40.593,M,2.5,0123*5D\r\n
$GPGGA,090221.00,5703.2877186,N,00952.3672544,E,2,8,1.2,-2.144,M,40.593,M,2.5,0123*5F\r\n
$GPGGA,090221.05,5703.2877189,N,00952.3672511,E,2,8,1.2,-2.149,M,40.593,M,2.8,0123*55\r\n
$GPGGA,090221.10,5703.2877210,N,00952.3672529,E,2,8,1.2,-2.151,M,40.593,M,2.8,0123*50\r\n
$GPGGA,090221.15,5703.2877233,N,00952.3672542,E,2,8,1.2,-2.153,M,40.593,M,2.8,0123*5B\r\n
$GPGGA,090221.20,5703.2877252,N,00952.3672553,E,2,8,1.2,-2.155,M,40.593,M,2.8,0123*5C\r\n
$GPGGA,090221.25,5703.2877299,N,00952.3672548,E,2,8,1.2,-2.151,M,40.593,M,3.0,0123*59\r\n
$GPGGA,090221.30,5703.2877327,N,00952.3672559,E,2,8,1.2,-2.149,M,40.593,M,3.0,0123*50\r\n
$GPGGA,090221.35,5703.2877358,N,00952.3672573,E,2,8,1.2,-2.148,M,40.593,M,3.0,0123*54\r\n
$GPGGA,090221.40,5703.2877382,N,00952.3672586,E,2,8,1.2,-2.145,M,40.593,M,3.0,0123*56\r\n
$GPGGA,090221.45,5703.2877405,N,00952.3672596,E,2,8,1.2,-2.149,M,40.593,M,2.2,0123*55\r\n
$GPGGA,090221.50,5703.2877430,N,00952.3672603,E,2,8,1.2,-2.149,M,40.593,M,2.2,0123*58\r\n
$GPGGA,090221.55,5703.2877455,N,00952.3672605,E,2,8,1.2,-2.148,M,40.593,M,2.2,0123*59\r\n
$GPGGA,090221.60,5703.2877481,N,00952.3672612,E,2,8,1.2,-2.147,M,40.593,M,2.2,0123*5F\r\n
$GPGGA,090221.65,5703.2877509,N,00952.3672600,E,2,8,1.2,-2.144,M,40.593,M,2.5,0123*5C\r\n
$GPGGA,090221.70,5703.2877535,N,00952.3672606,E,2,8,1.2,-2.143,M,40.593,M,2.5,0123*56\r\n
$GPGGA,090221.75,5703.2877561,N,00952.3672612,E,2,8,1.2,-2.141,M,40.593,M,2.5,0123*55\r\n
$GPGGA,090221.80,5703.2877588,N,00952.3672616,E,2,8,1.2,-2.139,M,40.593,M,2.5,0123*53\r\n
$GPGGA,090221.85,5703.2877603,N,00952.3672643,E,2,8,1.2,-2.139,M,40.593,M,2.7,0123*54\r\n
$GPGGA,090221.90,5703.2877628,N,00952.3672645,E,2,8,1.2,-2.137,M,40.593,M,2.7,0123*51\r\n
$GPGGA,090221.95,5703.2877650,N,00952.3672644,E,2,8,1.2,-2.135,M,40.593,M,2.7,0123*58\r\n
$GPGGA,090222.00,5703.2877672,N,00952.3672639,E,2,8,1.2,-2.132,M,40.593,M,2.7,0123*5A\r\n
$GPGGA,090222.05,5703.2877634,N,00952.3672609,E,2,8,1.2,-2.141,M,40.593,M,2.9,0123*54\r\n
$GPGGA,090222.10,5703.2877653,N,00952.3672615,E,2,8,1.2,-2.140,M,40.593,M,2.9,0123*5D\r\n
$GPGGA,090222.15,5703.2877670,N,00952.3672615,E,2,8,1.2,-2.139,M,40.593,M,2.9,0123*57\r\n
$GPGGA,090222.20,5703.2877686,N,00952.3672612,E,2,8,1.2,-2.137,M,40.593,M,2.9,0123*51\r\n
$GPGGA,090222.25,5703.2877706,N,00952.3672633,E,2,8,1.2,-2.132,M,40.593,M,3.1,0123*52\r\n
$GPGGA,090222.30,5703.2877722,N,00952.3672634,E,2,8,1.2,-2.131,M,40.593,M,3.1,0123*54\r\n
$GPGGA,090222.35,5703.2877737,N,00952.3672632,E,2,8,1.2,-2.129,M,40.593,M,3.1,0123*5A\r\n
$GPGGA,090222.40,5703.2877751,N,00952.3672629,E,2,8,1.2,-2.128,M,40.593,M,3.1,0123*53\r\n
$GPGGA,090222.45,5703.2877772,N,00952.3672612,E,2,8,1.2,-2.133,M,40.593,M,3.3,0123*57\r\n
$GPGGA,090222.50,5703.2877785,N,00952.3672608,E,2,8,1.2,-2.133,M,40.593,M,3.3,0123*50\r\n
$GPGGA,090222.55,5703.2877797,N,00952.3672604,E,2,8,1.2,-2.132,M,40.593,M,3.3,0123*5B\r\n
$GPGGA,090222.60,5703.2877812,N,00952.3672599,E,2,8,1.2,-2.131,M,40.593,M,3.3,0123*5B\r\n
$GPGGA,090222.65,5703.2877830,N,00952.3672594,E,2,8,1.2,-2.127,M,40.593,M,3.5,0123*52\r\n
$GPGGA,090222.70,5703.2877845,N,00952.3672586,E,2,8,1.2,-2.127,M,40.593,M,3.5,0123*57\r\n
$GPGGA,090222.75,5703.2877859,N,00952.3672581,E,2,8,1.2,-2.126,M,40.593,M,3.5,0123*59\r\n
$GPGGA,090222.80,5703.2877870,N,00952.3672577,E,2,8,1.2,-2.125,M,40.593,M,3.5,0123*52\r\n
$GPGGA,090222.85,5703.2877885,N,00952.3672582,E,2,8,1.2,-2.133,M,40.593,M,3.8,0123*5D\r\n
$GPGGA,090222.90,5703.2877898,N,00952.3672581,E,2,8,1.2,-2.133,M,40.593,M,3.8,0123*56\r\n
$GPGGA,090222.95,5703.2877913,N,00952.3672584,E,2,8,1.2,-2.134,M,40.593,M,3.8,0123*53\r\n
$GPGGA,090223.00,5703.2877929,N,00952.3672588,E,2,8,1.2,-2.135,M,40.593,M,3.8,0123*5A\r\n
$GPGGA,090223.05,5703.2877964,N,00952.3672615,E,2,8,1.2,-2.141,M,40.593,M,4.0,0123*5D\r\n
$GPGGA,090223.10,5703.2877985,N,00952.3672627,E,2,8,1.2,-2.143,M,40.593,M,4.0,0123*55\r\n
$GPGGA,090223.15,5703.2878009,N,00952.3672649,E,2,8,1.2,-2.145,M,40.593,M,4.0,0123*5C\r\n
$GPGGA,090223.20,5703.2878032,N,00952.3672674,E,2,8,1.2,-2.147,M,40.593,M,4.0,0123*5E\r\n
$GPGGA,090223.25,5703.2878105,N,00952.3672775,E,2,8,1.2,-2.160,M,40.593,M,4.2,0123*59\r\n
$GPGGA,090223.30,5703.2878139,N,00952.3672847,E,2,8,1.2,-2.163,M,40.593,M,4.2,0123*5F\r\n
$GPGGA,090223.35,5703.2878200,N,00952.3672949,E,2,8,1.2,-2.166,M,40.593,M,4.2,0123*59\r\n
$GPGGA,090223.40,5703.2878263,N,00952.3673052,E,2,8,1.2,-2.170,M,40.593,M,4.2,0123*5B\r\n
$GPGGA,090223.45,5703.2878367,N,00952.3673168,E,2,8,1.2,-2.170,M,40.593,M,2.3,0123*54\r\n
$GPGGA,090223.50,5703.2878469,N,00952.3673291,E,2,8,1.2,-2.173,M,40.593,M,2.3,0123*5F\r\n
$GPGGA,090223.55,5703.2878573,N,00952.3673419,E,2,8,1.2,-2.175,M,40.593,M,2.3,0123*50\r\n
$GPGGA,090223.60,5703.2878678,N,00952.3673570,E,2,8,1.2,-2.171,M,40.593,M,2.3,0123*54\r\n
$GPGGA,090223.65,5703.2878802,N,00952.3673710,E,2,8,1.2,-2.167,M,40.593,M,2.6,0123*54\r\n
$GPGGA,090223.70,5703.2878952,N,00952.3673877,E,2,8,1.2,-2.160,M,40.593,M,2.6,0123*5D\r\n
$GPGGA,090223.75,5703.2879097,N,00952.3674059,E,2,8,1.2,-2.156,M,40.593,M,2.6,0123*5F\r\n
$GPGGA,090223.80,5703.2879240,N,00952.3674235,E,2,8,1.2,-2.156,M,40.593,M,2.6,0123*55\r\n
$GPGGA,090223.85,5703.2879401,N,00952.3674431,E,2,8,1.2,-2.152,M,40.593,M,2.8,0123*5B\r\n
$GPGGA,090223.90,5703.2879559,N,00952.3674651,E,2,8,1.2,-2.152,M,40.593,M,2.8,0123*57\r\n
$GPGGA,090223.95,5703.2879725,N,00952.3674842,E,2,8,1.2,-2.146,M,40.593,M,2.8,0123*52\r\n
$GPGGA,090224.00,5703.2879884,N,00952.3674997,E,2,8,1.2,-2.137,M,40.593,M,2.8,0123*52\r\n
$GPGGA,090224.05,5703.2880015,N,00952.3675143,E,2,8,1.2,-2.133,M,40.593,M,3.1,0123*5D\r\n
$GPGGA,090224.10,5703.2880144,N,00952.3675286,E,2,8,1.2,-2.127,M,40.593,M,3.1,0123*53\r\n
$GPGGA,090224.15,5703.2880281,N,00952.3675397,E,2,8,1.2,-2.121,M,40.593,M,3.1,0123*5B\r\n
$GPGGA,090224.20,5703.2880441,N,00952.3675514,E,2,8,1.2,-2.111,M,40.593,M,3.1,0123*59\r\n
$GPGGA,090224.25,5703.2880567,N,00952.3675642,E,2,8,1.2,-2.111,M,40.593,M,3.3,0123*5B\r\n
$GPGGA,090224.30,5703.2880665,N,00952.3675773,E,2,8,1.2,-2.108,M,40.593,M,3.3,0123*55\r\n
$GPGGA,090224.35,5703.2880764,N,00952.3675908,E,2,8,1.2,-2.109,M,40.593,M,3.3,0123*53\r\n
$GPGGA,090224.40,5703.2880870,N,00952.3676030,E,2,8,1.2,-2.110,M,40.593,M,3.3,0123*52\r\n
$GPGGA,090224.45,5703.2880940,N,00952.3676137,E,2,8,1.2,-2.112,M,40.593,M,2.1,0123*52\r\n
$GPGGA,090224.50,5703.2880995,N,00952.3676227,E,2,8,1.2,-2.113,M,40.593,M,2.1,0123*5D\r\n
$GPGGA,090224.55,5703.2881048,N,00952.3676304,E,2,8,1.2,-2.116,M,40.593,M,2.1,0123*55\r\n
$GPGGA,090224.60,5703.2881114,N,00952.3676370,E,2,8,1.2,-2.117,M,40.593,M,2.1,0123*59\r\n
$GPGGA,090224.65,5703.2881145,N,00952.3676420,E,2,8,1.2,-2.121,M,40.593,M,2.3,0123*5D\r\n
$GPGGA,090224.70,5703.2881139,N,00952.3676456,E,2,8,1.2,-2.124,M,40.593,M,2.3,0123*56\r\n
$GPGGA,090224.75,5703.2881133,N,00952.3676465,E,2,8,1.2,-2.123,M,40.593,M,2.3,0123*5E\r\n
$GPGGA,090224.80,5703.2881124,N,00952.3676470,E,2,8,1.2,-2.122,M,40.593,M,2.3,0123*57\r\n
$GPGGA,090224.85,5703.2881091,N,00952.3676466,E,2,8,1.2,-2.118,M,40.593,M,2.5,0123*55\r\n
$GPGGA,090224.90,5703.2881075,N,00952.3676454,E,2,8,1.2,-2.117,M,40.593,M,2.5,0123*55\r\n
$GPGGA,090224.95,5703.2881049,N,00952.3676435,E,2,8,1.2,-2.116,M,40.593,M,2.5,0123*59\r\n
$GPGGA,090225.00,5703.2881013,N,00952.3676405,E,2,8,1.2,-2.116,M,40.593,M,2.5,0123*58\r\n
$GPGGA,090225.05,5703.2880896,N,00952.3676325,E,2,8,1.2,-2.112,M,40.593,M,2.8,0123*55\r\n
$GPGGA,090225.10,5703.2880839,N,00952.3676261,E,2,8,1.2,-2.111,M,40.593,M,2.8,0123*56\r\n
$GPGGA,090225.15,5703.2880786,N,00952.3676203,E,2,8,1.2,-2.111,M,40.593,M,2.8,0123*5C\r\n
$GPGGA,090225.20,5703.2880717,N,00952.3676147,E,2,8,1.2,-2.113,M,40.593,M,2.8,0123*53\r\n
$GPGGA,090225.25,5703.2880641,N,00952.3676093,E,2,8,1.2,-2.119,M,40.593,M,3.0,0123*5F\r\n
$GPGGA,090225.30,5703.2880575,N,00952.3676016,E,2,8,1.2,-2.120,M,40.593,M,3.0,0123*58\r\n
$GPGGA,090225.35,5703.2880504,N,00952.3675948,E,2,8,1.2,-2.123,M,40.593,M,3.0,0123*59\r\n
$GPGGA,090225.40,5703.2880439,N,00952.3675883,E,2,8,1.2,-2.122,M,40.593,M,3.0,0123*53\r\n
$GPGGA,090225.45,5703.2880363,N,00952.3675843,E,2,8,1.2,-2.127,M,40.593,M,2.1,0123*57\r\n
$GPGGA,090225.50,5703.2880290,N,00952.3675787,E,2,8,1.2,-2.129,M,40.593,M,2.1,0123*57\r\n
$GPGGA,090225.55,5703.2880211,N,00952.3675713,E,2,8,1.2,-2.130,M,40.593,M,2.1,0123*5E\r\n
$GPGGA,090225.60,5703.2880146,N,00952.3675634,E,2,8,1.2,-2.133,M,40.593,M,2.1,0123*5E\r\n
$GPGGA,090225.65,5703.2880082,N,00952.3675543,E,2,9,1.2,-2.128,M,40.593,M,2.3,0123*58\r\n
$GPGGA,090225.70,5703.2880009,N,00952.3675469,E,2,9,1.2,-2.128,M,40.593,M,2.3,0123*56\r\n
$GPGGA,090225.75,5703.2879932,N,00952.3675396,E,2,9,1.2,-2.132,M,40.593,M,2.3,0123*58\r\n
$GPGGA,090225.80,5703.2879874,N,00952.3675315,E,2,9,1.2,-2.134,M,40.593,M,2.3,0123*5C\r\n
$GPGGA,090225.85,5703.2879808,N,00952.3675232,E,2,9,1.2,-2.144,M,40.593,M,2.6,0123*54\r\n
$GPGGA,090225.90,5703.2879733,N,00952.3675143,E,2,9,1.2,-2.145,M,40.593,M,2.6,0123*53\r\n
$GPGGA,090225.95,5703.2879656,N,00952.3675062,E,2,9,1.2,-2.142,M,40.593,M,2.6,0123*51\r\n
$GPGGA,090226.00,5703.2879590,N,00952.3674968,E,2,9,1.2,-2.138,M,40.593,M,2.6,0123*58\r\n
$GPGGA,090226.05,5703.2879538,N,00952.3674861,E,2,9,1.2,-2.129,M,40.593,M,2.8,0123*59\r\n
$GPGGA,090226.10,5703.2879491,N,00952.3674763,E,2,9,1.2,-2.129,M,40.593,M,2.8,0123*52\r\n
$GPGGA,090226.15,5703.2879437,N,00952.3674660,E,2,9,1.2,-2.132,M,40.593,M,2.8,0123*53\r\n
$GPGGA,090226.20,5703.2879386,N,00952.3674569,E,2,9,1.2,-2.130,M,40.593,M,2.8,0123*50\r\n
$GPGGA,090226.25,5703.2879310,N,00952.3674481,E,2,9,1.2,-2.139,M,40.593,M,3.0,0123*5D\r\n
$GPGGA,090226.30,5703.2879242,N,00952.3674401,E,2,9,1.2,-2.136,M,40.593,M,3.0,0123*58\r\n
$GPGGA,090226.35,5703.2879182,N,00952.3674326,E,2,9,1.2,-2.136,M,40.593,M,3.0,0123*50\r\n
$GPGGA,090226.40,5703.2879121,N,00952.3674231,E,2,9,1.2,-2.141,M,40.593,M,3.0,0123*5C\r\n
$GPGGA,090226.45,5703.2879081,N,00952.3674134,E,2,9,1.2,-2.137,M,40.593,M,3.2,0123*57\r\n
$GPGGA,090226.50,5703.2879035,N,00952.3674040,E,2,9,1.2,-2.135,M,40.593,M,3.2,0123*5C\r\n
$GPGGA,090226.55,5703.2878977,N,00952.3673954,E,2,9,1.2,-2.135,M,40.593,M,3.2,0123*5C\r\n
$GPGGA,090226.60,5703.2878928,N,00952.3673850,E,2,9,1.2,-2.134,M,40.593,M,3.2,0123*54\r\n
$GPGGA,090226.65,5703.2878880,N,00952.3673743,E,2,9,1.2,-2.126,M,40.593,M,3.4,0123*5A\r\n
$GPGGA,090226.70,5703.2878831,N,00952.3673638,E,2,9,1.2,-2.127,M,40.593,M,3.4,0123*58\r\n
$GPGGA,090226.75,5703.2878779,N,00952.3673535,E,2,9,1.2,-2.127,M,40.593,M,3.4,0123*50\r\n
$GPGGA,090226.80,5703.2878732,N,00952.3673436,E,2,9,1.2,-2.124,M,40.593,M,3.4,0123*54\r\n
$GPGGA,090226.85,5703.2878680,N,00952.3673337,E,2,9,1.2,-2.125,M,40.593,M,3.6,0123*5C\r\n
$GPGGA,090226.90,5703.2878631,N,00952.3673252,E,2,9,1.2,-2.124,M,40.593,M,3.6,0123*51\r\n
$GPGGA,090226.95,5703.2878591,N,00952.3673169,E,2,9,1.2,-2.125,M,40.593,M,3.6,0123*57\r\n
$GPGGA,090227.00,5703.2878559,N,00952.3673076,E,2,9,1.2,-2.123,M,40.593,M,3.6,0123*57\r\n
$GPGGA,090227.05,5703.2878523,N,00952.3672987,E,2,9,1.2,-2.117,M,40.593,M,3.8,0123*50\r\n
$GPGGA,090227.10,5703.2878458,N,00952.3672870,E,2,9,1.2,-2.114,M,40.593,M,3.8,0123*53\r\n
$GPGGA,090227.15,5703.2878410,N,00952.3672766,E,2,8,1.2,-2.113,M,40.593,M,3.8,0123*54\r\n
$GPGGA,090227.20,5703.2878389,N,00952.3672672,E,2,8,1.2,-2.114,M,40.593,M,3.8,0123*56\r\n
$GPGGA,090227.25,5703.2878364,N,00952.3672581,E,2,8,1.2,-2.113,M,40.593,M,4.0,0123*57\r\n
$GPGGA,090227.30,5703.2878335,N,00952.3672487,E,2,8,1.2,-2.111,M,40.593,M,4.0,0123*52\r\n
$GPGGA,090227.35,5703.2878294,N,00952.3672392,E,2,8,1.2,-2.114,M,40.593,M,4.0,0123*5B\r\n
$GPGGA,090227.40,5703.2878247,N,00952.3672296,E,2,8,1.2,-2.114,M,40.593,M,4.0,0123*52\r\n
$GPGGA,090227.45,5703.2878183,N,00952.3672197,E,2,8,1.2,-2.124,M,40.593,M,2.4,0123*5F\r\n
$GPGGA,090227.50,5703.2878150,N,00952.3672115,E,2,8,1.2,-2.123,M,40.593,M,2.4,0123*58\r\n
$GPGGA,090227.55,5703.2878115,N,00952.3672013,E,2,8,1.2,-2.122,M,40.593,M,2.4,0123*5A\r\n
$GPGGA,090227.60,5703.2878073,N,00952.3671928,E,2,8,1.2,-2.123,M,40.593,M,2.4,0123*5E\r\n
$GPGGA,090227.65,5703.2878041,N,00952.3671857,E,2,8,1.2,-2.116,M,40.593,M,2.7,0123*56\r\n
$GPGGA,090227.70,5703.2877986,N,00952.3671771,E,2,8,1.2,-2.118,M,40.593,M,2.7,0123*5A\r\n
$GPGGA,090227.75,5703.2877961,N,00952.3671683,E,2,8,1.2,-2.116,M,40.593,M,2.7,0123*54\r\n
$GPGGA,090227.80,5703.2877937,N,00952.3671594,E,2,8,1.2,-2.113,M,40.593,M,2.7,0123*5D\r\n
$GPGGA,090227.85,5703.2877894,N,00952.3671507,E,2,8,1.2,-2.122,M,40.593,M,2.9,0123*56\r\n
$GPGGA,090227.90,5703.2877859,N,00952.3671416,E,2,8,1.2,-2.125,M,40.593,M,2.9,0123*55\r\n
$GPGGA,090227.95,5703.2877825,N,00952.3671331,E,2,8,1.2,-2.128,M,40.593,M,2.9,0123*54\r\n
$GPGGA,090228.00,5703.2877781,N,00952.3671241,E,2,8,1.2,-2.129,M,40.593,M,2.9,0123*51\r\n
$GPGGA,090228.05,5703.2877735,N,00952.3671125,E,2,8,1.2,-2.132,M,40.593,M,3.2,0123*5A\r\n
$GPGGA,090228.10,5703.2877691,N,00952.3671008,E,2,8,1.2,-2.133,M,40.593,M,3.2,0123*5E\r\n
$GPGGA,090228.15,5703.2877655,N,00952.3670910,E,2,8,1.2,-2.133,M,40.593,M,3.2,0123*52\r\n
$GPGGA,090228.20,5703.2877620,N,00952.3670821,E,2,8,1.2,-2.134,M,40.593,M,3.2,0123*52\r\n
$GPGGA,090228.25,5703.2877606,N,00952.3670733,E,2,8,1.2,-2.124,M,40.593,M,3.4,0123*58\r\n
$GPGGA,090228.30,5703.2877580,N,00952.3670640,E,2,8,1.2,-2.122,M,40.593,M,3.4,0123*52\r\n
$GPGGA,090228.35,5703.2877547,N,00952.3670549,E,2,8,1.2,-2.120,M,40.593,M,3.4,0123*54\r\n
$GPGGA,090228.40,5703.2877522,N,00952.3670459,E,2,8,1.2,-2.120,M,40.593,M,3.4,0123*55\r\n
$GPGGA,090228.45,5703.2877497,N,00952.3670374,E,2,8,1.2,-2.125,M,40.593,M,2.2,0123*55\r\n
$GPGGA,090228.50,5703.2877467,N,00952.3670273,E,2,8,1.2,-2.129,M,40.593,M,2.2,0123*54\r\n
$GPGGA,090228.55,5703.2877411,N,00952.3670163,E,2,8,1.2,-2.135,M,40.593,M,2.2,0123*5F\r\n
$GPGGA,090228.60,5703.2877379,N,00952.3670045,E,2,8,1.2,-2.138,M,40.593,M,2.2,0123*58\r\n
$GPGGA,090228.65,5703.2877352,N,00952.3669946,E,2,8,1.2,-2.146,M,40.593,M,2.4,0123*59\r\n
$GPGGA,090228.70,5703.2877324,N,00952.3669860,E,2,8,1.2,-2.148,M,40.593,M,2.4,0123*57\r\n
$GPGGA,090228.75,5703.2877279,N,00952.3669785,E,2,8,1.2,-2.152,M,40.593,M,2.4,0123*54\r\n
$GPGGA,090228.80,5703.2877243,N,00952.3669710,E,2,7,1.2,-2.156,M,40.593,M,2.4,0123*50\r\n
$GPGGA,090228.85,5703.2877229,N,00952.3669638,E,2,7,1.2,-2.151,M,40.593,M,2.7,0123*56\r\n
$GPGGA,090228.90,5703.2877204,N,00952.3669562,E,2,7,1.2,-2.148,M,40.593,M,2.7,0123*59\r\n
$GPGGA,090228.95,5703.2877190,N,00952.3669478,E,2,7,1.2,-2.147,M,40.593,M,2.7,0123*57\r\n
$GPGGA,090229.00,5703.2877172,N,00952.3669376,E,2,7,1.2,-2.146,M,40.593,M,2.7,0123*5E\r\n
$GPGGA,090229.05,5703.2877166,N,00952.3669283,E,2,7,1.2,-2.133,M,40.593,M,2.9,0123*59\r\n
$GPGGA,090229.10,5703.2877146,N,00952.3669191,E,2,7,1.2,-2.129,M,40.593,M,2.9,0123*54\r\n
$GPGGA,090229.15,5703.2877117,N,00952.3669100,E,2,7,1.2,-2.128,M,40.593,M,2.9,0123*5C\r\n
$GPGGA,090229.20,5703.2877099,N,00952.3669020,E,2,7,1.2,-2.126,M,40.593,M,2.9,0123*50\r\n
$GPGGA,090229.25,5703.2877074,N,00952.3668937,E,2,9,1.2,-2.131,M,40.593,M,3.1,0123*59\r\n
$GPGGA,090229.30,5703.2877045,N,00952.3668827,E,2,9,1.2,-2.134,M,40.593,M,3.1,0123*5A\r\n
$GPGGA,090229.35,5703.2877027,N,00952.3668727,E,2,9,1.2,-2.136,M,40.593,M,3.1,0123*56\r\n
$GPGGA,090229.40,5703.2877014,N,00952.3668657,E,2,9,1.2,-2.134,M,40.593,M,3.1,0123*50\r\n
$GPGGA,090229.45,5703.2876987,N,00952.3668595,E,2,9,1.2,-2.137,M,40.593,M,2.1,0123*58\r\n
$GPGGA,090229.50,5703.2876957,N,00952.3668526,E,2,9,1.2,-2.137,M,40.593,M,2.1,0123*59\r\n
$GPGGA,090229.55,5703.2876929,N,00952.3668459,E,2,9,1.2,-2.137,M,40.593,M,2.1,0123*5C\r\n
$GPGGA,090229.60,5703.2876911,N,00952.3668373,E,2,9,1.2,-2.139,M,40.593,M,2.1,0123*50\r\n
$GPGGA,090229.65,5703.2876902,N,00952.3668276,E,2,9,1.2,-2.134,M,40.593,M,2.3,0123*5C\r\n
$GPGGA,090229.70,5703.2876884,N,00952.3668173,E,2,9,1.2,-2.132,M,40.593,M,2.3,0123*57\r\n
$GPGGA,090229.75,5703.2876874,N,00952.3668081,E,2,9,1.2,-2.128,M,40.593,M,2.3,0123*5A\r\n
$GPGGA,090229.80,5703.2876884,N,00952.3668032,E,2,9,1.2,-2.119,M,40.593,M,2.3,0123*55\r\n
$GPGGA,090229.85,5703.2876916,N,00952.3667995,E,2,8,1.2,-2.096,M,40.593,M,2.6,0123*53\r\n
$GPGGA,090229.90,5703.2876899,N,00952.3667929,E,2,8,1.2,-2.092,M,40.593,M,2.6,0123*52\r\n
$GPGGA,090229.95,5703.2876886,N,00952.3667850,E,2,8,1.2,-2.088,M,40.593,M,2.6,0123*5D\r\n
$GPGGA,090230.00,5703.2876887,N,00952.3667777,E,2,8,1.2,-2.083,M,40.593,M,2.6,0123*59\r\n
$GPGGA,090230.05,5703.2876839,N,00952.3667639,E,2,9,1.2,-2.101,M,40.593,M,2.8,0123*56\r\n
$GPGGA,090230.10,5703.2876832,N,00952.3667584,E,2,9,1.2,-2.104,M,40.593,M,2.8,0123*59\r\n
$GPGGA,090230.15,5703.2876838,N,00952.3667555,E,2,9,1.2,-2.103,M,40.593,M,2.8,0123*5D\r\n
$GPGGA,090230.20,5703.2876833,N,00952.3667536,E,2,9,1.2,-2.105,M,40.593,M,2.8,0123*53\r\n
$GPGGA,090230.25,5703.2876830,N,00952.3667550,E,2,9,1.2,-2.109,M,40.593,M,3.0,0123*50\r\n
$GPGGA,090230.30,5703.2876832,N,00952.3667564,E,2,9,1.2,-2.110,M,40.593,M,3.0,0123*59\r\n
$GPGGA,090230.35,5703.2876832,N,00952.3667586,E,2,9,1.2,-2.114,M,40.593,M,3.0,0123*54\r\n
$GPGGA,090230.40,5703.2876844,N,00952.3667637,E,2,9,1.2,-2.116,M,40.593,M,3.0,0123*5C\r\n
$GPGGA,090230.45,5703.2876835,N,00952.3667701,E,2,9,1.2,-2.131,M,40.593,M,0.9,0123*54\r\n
$GPGGA,090230.50,5703.2876835,N,00952.3667795,E,2,9,1.2,-2.135,M,40.593,M,0.9,0123*59\r\n
$GPGGA,090230.55,5703.2876848,N,00952.3667911,E,2,9,1.2,-2.138,M,40.593,M,0.9,0123*59\r\n
$GPGGA,090230.60,5703.2876854,N,00952.3668041,E,2,9,1.2,-2.141,M,40.593,M,0.9,0123*5F\r\n
$GPGGA,090230.65,5703.2876860,N,00952.3668209,E,2,9,1.2,-2.142,M,40.593,M,1.3,0123*5B\r\n
$GPGGA,090230.70,5703.2876880,N,00952.3668384,E,2,9,1.2,-2.146,M,40.593,M,1.3,0123*51\r\n
$GPGGA,090230.75,5703.2876914,N,00952.3668576,E,2,9,1.2,-2.147,M,40.593,M,1.3,0123*52\r\n
$GPGGA,090230.80,5703.2876968,N,00952.3668793,E,2,9,1.2,-2.149,M,40.593,M,1.3,0123*54\r\n
$GPGGA,090230.85,5703.2877030,N,00952.3669051,E,2,9,1.2,-2.164,M,40.593,M,1.6,0123*56\r\n
$GPGGA,090230.90,5703.2877091,N,00952.3669406,E,2,9,1.2,-2.168,M,40.593,M,1.6,0123*53\r\n
$GPGGA,090230.95,5703.2877157,N,00952.3669835,E,2,9,1.2,-2.175,M,40.593,M,1.6,0123*5D\r\n
$GPGGA,090231.00,5703.2877253,N,00952.3670311,E,2,9,1.2,-2.191,M,40.593,M,1.6,0123*58\r\n
$GPGGA,090231.05,5703.2877424,N,00952.3670845,E,2,9,1.2,-2.196,M,40.593,M,1.9,0123*59\r\n
$GPGGA,090231.10,5703.2877571,N,00952.3671430,E,2,9,1.2,-2.207,M,40.593,M,1.9,0123*58\r\n
$GPGGA,090231.15,5703.2877686,N,00952.3672063,E,2,8,1.2,-2.223,M,40.593,M,1.9,0123*50\r\n
$GPGGA,090231.20,5703.2877864,N,00952.3672554,E,2,8,1.2,-2.218,M,40.593,M,1.9,0123*5D\r\n
$GPGGA,090231.25,5703.2878064,N,00952.3673008,E,2,8,1.2,-2.206,M,40.593,M,2.2,0123*55\r\n
$GPGGA,090231.30,5703.2878206,N,00952.3673525,E,2,8,1.2,-2.201,M,40.593,M,2.2,0123*5A\r\n
$GPGGA,090231.35,5703.2878334,N,00952.3674026,E,2,8,1.2,-2.200,M,40.593,M,2.2,0123*5F\r\n
$GPGGA,090231.40,5703.2878503,N,00952.3674520,E,2,8,1.2,-2.193,M,40.593,M,2.2,0123*55\r\n
$GPGGA,090231.45,5703.2878702,N,00952.3674994,E,2,8,1.2,-2.182,M,40.593,M,0.9,0123*59\r\n
$GPGGA,090231.50,5703.2878891,N,00952.3675452,E,2,8,1.2,-2.166,M,40.593,M,0.9,0123*54\r\n
$GPGGA,090231.55,5703.2879061,N,00952.3675934,E,2,8,1.2,-2.156,M,40.593,M,0.9,0123*59\r\n
$GPGGA,090231.60,5703.2879232,N,00952.3676369,E,2,8,1.2,-2.147,M,40.593,M,0.9,0123*5A\r\n
$GPGGA,090231.65,5703.2879443,N,00952.3676780,E,2,9,1.2,-2.129,M,40.593,M,1.2,0123*5F\r\n
$GPGGA,090231.70,5703.2879631,N,00952.3677168,E,2,9,1.2,-2.118,M,40.593,M,1.2,0123*5F\r\n
$GPGGA,090231.75,5703.2879815,N,00952.3677557,E,2,9,1.2,-2.115,M,40.593,M,1.2,0123*57\r\n
$GPGGA,090231.80,5703.2879988,N,00952.3677964,E,2,9,1.2,-2.112,M,40.593,M,1.2,0123*53\r\n
$GPGGA,090231.85,5703.2880155,N,00952.3678349,E,2,9,1.2,-2.117,M,40.593,M,1.5,0123*50\r\n
$GPGGA,090231.90,5703.2880302,N,00952.3678736,E,2,9,1.2,-2.115,M,40.593,M,1.5,0123*5A\r\n
$GPGGA,090231.95,5703.2880442,N,00952.3679099,E,2,9,1.2,-2.116,M,40.593,M,1.5,0123*5C\r\n
$GPGGA,090232.00,5703.2880607,N,00952.3679423,E,2,9,1.2,-2.119,M,40.593,M,1.5,0123*5A\r\n
$GPGGA,090232.05,5703.2880738,N,00952.3679774,E,2,9,1.2,-2.127,M,40.593,M,1.7,0123*5C\r\n
$GPGGA,090232.10,5703.2880864,N,00952.3680120,E,2,9,1.2,-2.132,M,40.593,M,1.7,0123*5B\r\n
$GPGGA,090232.15,5703.2880990,N,00952.3680434,E,2,9,1.2,-2.135,M,40.593,M,1.7,0123*53\r\n
$GPGGA,090232.20,5703.2881142,N,00952.3680762,E,2,9,1.2,-2.134,M,40.593,M,1.7,0123*52\r\n
$GPGGA,090232.25,5703.2881281,N,00952.3681069,E,2,9,1.2,-2.133,M,40.593,M,2.0,0123*55\r\n
$GPGGA,090232.30,5703.2881412,N,00952.3681373,E,2,9,1.2,-2.137,M,40.593,M,2.0,0123*51\r\n
$GPGGA,090232.35,5703.2881553,N,00952.3681668,E,2,9,1.2,-2.142,M,40.593,M,2.0,0123*5D\r\n
$GPGGA,090232.40,5703.2881692,N,00952.3681939,E,2,9,1.2,-2.146,M,40.593,M,2.0,0123*5E\r\n
$GPGGA,090232.45,5703.2881830,N,00952.3682230,E,2,9,1.2,-2.156,M,40.593,M,2.2,0123*5F\r\n
$GPGGA,090232.50,5703.2881976,N,00952.3682523,E,2,9,1.2,-2.158,M,40.593,M,2.2,0123*53\r\n
$GPGGA,090232.55,5703.2882124,N,00952.3682808,E,2,9,1.2,-2.160,M,40.593,M,2.2,0123*55\r\n
$GPGGA,090232.60,5703.2882264,N,00952.3683092,E,2,9,1.2,-2.162,M,40.593,M,2.2,0123*5C\r\n
$GPGGA,090232.65,5703.2882413,N,00952.3683365,E,2,9,1.2,-2.150,M,40.593,M,2.4,0123*53\r\n
$GPGGA,090232.70,5703.2882570,N,00952.3683621,E,2,9,1.2,-2.145,M,40.593,M,2.4,0123*52\r\n
$GPGGA,090232.75,5703.2882723,N,00952.3683865,E,2,9,1.2,-2.145,M,40.593,M,2.4,0123*5D\r\n
$GPGGA,090232.80,5703.2882876,N,00952.3684108,E,2,9,1.2,-2.145,M,40.593,M,2.4,0123*5D\r\n
$GPGGA,090232.85,5703.2883016,N,00952.3684358,E,2,9,1.2,-2.136,M,40.593,M,2.7,0123*57\r\n
$GPGGA,090232.90,5703.2883153,N,00952.3684595,E,2,9,1.2,-2.133,M,40.593,M,2.7,0123*51\r\n
$GPGGA,090232.95,5703.2883298,N,00952.3684819,E,2,9,1.2,-2.130,M,40.593,M,2.7,0123*5A\r\n
$GPGGA,090233.00,5703.2883446,N,00952.3685040,E,2,9,1.2,-2.126,M,40.593,M,2.7,0123*50\r\n
$GPGGA,090233.05,5703.2883582,N,00952.3685271,E,2,9,1.2,-2.124,M,40.593,M,2.9,0123*50\r\n
$GPGGA,090233.10,5703.2883710,N,00952.3685494,E,2,9,1.2,-2.127,M,40.593,M,2.9,0123*53\r\n
$GPGGA,090233.15,5703.2883819,N,00952.3685701,E,2,9,1.2,-2.127,M,40.593,M,2.9,0123*5F\r\n
$GPGGA,090233.20,5703.2883948,N,00952.3685899,E,2,9,1.2,-2.126,M,40.593,M,2.9,0123*53\r\n
$GPGGA,090233.25,5703.2884081,N,00952.3686110,E,2,9,1.2,-2.122,M,40.593,M,3.1,0123*5B\r\n
$GPGGA,090233.30,5703.2884195,N,00952.3686320,E,2,9,1.2,-2.123,M,40.593,M,3.1,0123*5B\r\n
$GPGGA,090233.35,5703.2884299,N,00952.3686522,E,2,9,1.2,-2.124,M,40.593,M,3.1,0123*52\r\n
$GPGGA,090233.40,5703.2884389,N,00952.3686710,E,2,9,1.2,-2.122,M,40.593,M,3.1,0123*55\r\n
$GPGGA,090233.45,5703.2884491,N,00952.3686916,E,2,9,1.2,-2.127,M,40.593,M,2.1,0123*52\r\n
$GPGGA,090233.50,5703.2884625,N,00952.3687107,E,2,9,1.2,-2.129,M,40.593,M,2.1,0123*5C\r\n
$GPGGA,090233.55,5703.2884745,N,00952.3687297,E,2,9,1.2,-2.132,M,40.593,M,2.1,0123*5E\r\n
$GPGGA,090233.60,5703.2884843,N,00952.3687494,E,2,9,1.2,-2.134,M,40.593,M,2.1,0123*52\r\n
$GPGGA,090233.65,5703.2884944,N,00952.3687689,E,2,9,1.2,-2.132,M,40.593,M,2.3,0123*5B\r\n
$GPGGA,090233.70,5703.2885048,N,00952.3687894,E,2,9,1.2,-2.129,M,40.593,M,2.3,0123*53\r\n
$GPGGA,090233.75,5703.2885153,N,00952.3688073,E,2,9,1.2,-2.132,M,40.593,M,2.3,0123*59\r\n
$GPGGA,090233.80,5703.2885258,N,00952.3688239,E,2,9,1.2,-2.138,M,40.593,M,2.3,0123*5D\r\n
$GPGGA,090233.85,5703.2885363,N,00952.3688388,E,2,9,1.2,-2.139,M,40.593,M,2.6,0123*5E\r\n
$GPGGA,090233.90,5703.2885476,N,00952.3688550,E,2,9,1.2,-2.137,M,40.593,M,2.6,0123*54\r\n
$GPGGA,090233.95,5703.2885613,N,00952.3688743,E,2,9,1.2,-2.134,M,40.593,M,2.6,0123*53\r\n
$GPGGA,090234.00,5703.2885735,N,00952.3688925,E,2,9,1.2,-2.135,M,40.593,M,2.6,0123*52\r\n
$GPGGA,090234.05,5703.2885841,N,00952.3689074,E,2,9,1.2,-2.141,M,40.593,M,2.8,0123*5A\r\n
$GPGGA,090234.10,5703.2885959,N,00952.3689221,E,2,9,1.2,-2.141,M,40.593,M,2.8,0123*54\r\n
$GPGGA,090234.15,5703.2886064,N,00952.3689391,E,2,9,1.2,-2.138,M,40.593,M,2.8,0123*51\r\n
$GPGGA,090234.20,5703.2886159,N,00952.3689574,E,2,9,1.2,-2.138,M,40.593,M,2.8,0123*55\r\n
$GPGGA,090234.25,5703.2886254,N,00952.3689737,E,2,9,1.2,-2.138,M,40.593,M,3.0,0123*52\r\n
$GPGGA,090234.30,5703.2886357,N,00952.3689885,E,2,9,1.2,-2.140,M,40.593,M,3.0,0123*5D\r\n
$GPGGA,090234.35,5703.2886465,N,00952.3690035,E,2,9,1.2,-2.136,M,40.593,M,3.0,0123*54\r\n
$GPGGA,090234.40,5703.2886555,N,00952.3690196,E,2,9,1.2,-2.131,M,40.593,M,3.0,0123*5B\r\n
$GPGGA,090234.45,5703.2886645,N,00952.3690363,E,2,9,1.2,-2.137,M,40.593,M,3.2,0123*50\r\n
$GPGGA,090234.50,5703.2886730,N,00952.3690518,E,2,9,1.2,-2.139,M,40.593,M,3.2,0123*53\r\n
$GPGGA,090234.55,5703.2886828,N,00952.3690668,E,2,9,1.2,-2.140,M,40.593,M,3.2,0123*5A\r\n
$GPGGA,090234.60,5703.2886911,N,00952.3690814,E,2,9,1.2,-2.140,M,40.593,M,3.2,0123*52\r\n
$GPGGA,090234.65,5703.2886981,N,00952.3690958,E,2,9,1.2,-2.143,M,40.593,M,3.4,0123*52\r\n
$GPGGA,090234.70,5703.2887063,N,00952.3691102,E,2,9,1.2,-2.146,M,40.593,M,3.4,0123*51\r\n
$GPGGA,090234.75,5703.2887168,N,00952.3691255,E,2,9,1.2,-2.144,M,40.593,M,3.4,0123*5D\r\n
$GPGGA,090234.80,5703.2887272,N,00952.3691410,E,2,9,1.2,-2.144,M,40.593,M,3.4,0123*58\r\n
$GPGGA,090234.85,5703.2887370,N,00952.3691537,E,2,9,1.2,-2.138,M,40.593,M,3.6,0123*53\r\n
$GPGGA,090234.90,5703.2887455,N,00952.3691660,E,2,9,1.2,-2.140,M,40.593,M,3.6,0123*59\r\n
$GPGGA,090234.95,5703.2887523,N,00952.3691796,E,2,9,1.2,-2.144,M,40.593,M,3.6,0123*50\r\n
$GPGGA,090235.00,5703.2887604,N,00952.3691939,E,2,9,1.2,-2.144,M,40.593,M,3.6,0123*50\r\n
$GPGGA,090235.05,5703.2887684,N,00952.3692074,E,2,9,1.2,-2.147,M,40.593,M,3.8,0123*53\r\n
$GPGGA,090235.10,5703.2887770,N,00952.3692210,E,2,9,1.2,-2.144,M,40.593,M,3.8,0123*5E\r\n
$GPGGA,090235.15,5703.2887848,N,00952.3692336,E,2,9,1.2,-2.145,M,40.593,M,3.8,0123*5B\r\n
$GPGGA,090235.20,5703.2887936,N,00952.3692465,E,2,9,1.2,-2.149,M,40.593,M,3.8,0123*58\r\n
$GPGGA,090235.25,5703.2888038,N,00952.3692587,E,2,9,1.2,-2.139,M,40.593,M,4.0,0123*50\r\n
$GPGGA,090235.30,5703.2888134,N,00952.3692709,E,2,9,1.2,-2.136,M,40.593,M,4.0,0123*52\r\n
$GPGGA,090235.35,5703.2888211,N,00952.3692836,E,2,9,1.2,-2.135,M,40.593,M,4.0,0123*53\r\n
$GPGGA,090235.40,5703.2888272,N,00952.3692967,E,2,9,1.2,-2.136,M,40.593,M,4.0,0123*52\r\n
$GPGGA,090235.45,5703.2888341,N,00952.3693083,E,2,9,1.2,-2.139,M,40.593,M,2.4,0123*59\r\n
$GPGGA,090235.50,5703.2888429,N,00952.3693206,E,2,9,1.2,-2.138,M,40.593,M,2.4,0123*5A\r\n
$GPGGA,090235.55,5703.2888525,N,00952.3693340,E,2,9,1.2,-2.135,M,40.593,M,2.4,0123*5C\r\n
$GPGGA,090235.60,5703.2888627,N,00952.3693473,E,2,9,1.2,-2.132,M,40.593,M,2.4,0123*5B\r\n
$GPGGA,090235.65,5703.2888705,N,00952.3693604,E,2,9,1.2,-2.136,M,40.593,M,2.7,0123*5A\r\n
$GPGGA,090235.70,5703.2888773,N,00952.3693724,E,2,9,1.2,-2.141,M,40.593,M,2.7,0123*5C\r\n
$GPGGA,090235.75,5703.2888848,N,00952.3693844,E,2,9,1.2,-2.143,M,40.593,M,2.7,0123*55\r\n
$GPGGA,090235.80,5703.2888944,N,00952.3693978,E,2,9,1.2,-2.144,M,40.593,M,2.7,0123*5B\r\n
$GPGGA,090235.85,5703.2889024,N,00952.3694123,E,2,9,1.2,-2.146,M,40.593,M,2.9,0123*5D\r\n
$GPGGA,090235.90,5703.2889107,N,00952.3694249,E,2,9,1.2,-2.149,M,40.593,M,2.9,0123*59\r\n
$GPGGA,090235.95,5703.2889197,N,00952.3694362,E,2,9,1.2,-2.152,M,40.593,M,2.9,0123*57\r\n
$GPGGA,090236.00,5703.2889287,N,00952.3694473,E,2,9,1.2,-2.153,M,40.593,M,2.9,0123*5C\r\n
$GPGGA,090236.05,5703.2889359,N,00952.3694583,E,2,9,1.2,-2.158,M,40.593,M,3.2,0123*54\r\n
$GPGGA,090236.10,5703.2889426,N,00952.3694715,E,2,9,1.2,-2.157,M,40.593,M,3.2,0123*5D\r\n
$GPGGA,090236.15,5703.2889488,N,00952.3694841,E,2,9,1.2,-2.161,M,40.593,M,3.2,0123*57\r\n
$GPGGA,090236.20,5703.2889561,N,00952.3694958,E,2,9,1.2,-2.166,M,40.593,M,3.2,0123*59\r\n
$GPGGA,090236.25,5703.2889643,N,00952.3695067,E,2,9,1.2,-2.163,M,40.593,M,3.4,0123*58\r\n
$GPGGA,090236.30,5703.2889733,N,00952.3695173,E,2,9,1.2,-2.162,M,40.593,M,3.4,0123*5F\r\n
$GPGGA,090236.35,5703.2889815,N,00952.3695271,E,2,9,1.2,-2.158,M,40.593,M,3.4,0123*59\r\n
$GPGGA,090236.40,5703.2889895,N,00952.3695375,E,2,9,1.2,-2.156,M,40.593,M,3.4,0123*58\r\n
$GPGGA,090236.45,5703.2889953,N,00952.3695477,E,2,9,1.2,-2.156,M,40.593,M,2.2,0123*54\r\n
$GPGGA,090236.50,5703.2890031,N,00952.3695574,E,2,9,1.2,-2.157,M,40.593,M,2.2,0123*56\r\n
$GPGGA,090236.55,5703.2890128,N,00952.3695686,E,2,9,1.2,-2.157,M,40.593,M,2.2,0123*54\r\n
$GPGGA,090236.60,5703.2890217,N,00952.3695799,E,2,9,1.2,-2.155,M,40.593,M,2.2,0123*50\r\n
$GPGGA,090236.65,5703.2890279,N,00952.3695926,E,2,9,1.2,-2.159,M,40.593,M,2.4,0123*5D\r\n
$GPGGA,090236.70,5703.2890352,N,00952.3696028,E,2,9,1.2,-2.158,M,40.593,M,2.4,0123*54\r\n
$GPGGA,090236.75,5703.2890418,N,00952.3696121,E,2,9,1.2,-2.158,M,40.593,M,2.4,0123*50\r\n
$GPGGA,090236.80,5703.2890498,N,00952.3696218,E,2,9,1.2,-2.160,M,40.593,M,2.4,0123*50\r\n
$GPGGA,090236.85,5703.2890578,N,00952.3696310,E,2,9,1.2,-2.156,M,40.593,M,2.7,0123*55\r\n
$GPGGA,090236.90,5703.2890664,N,00952.3696416,E,2,9,1.2,-2.155,M,40.593,M,2.7,0123*5D\r\n
$GPGGA,090236.95,5703.2890747,N,00952.3696516,E,2,9,1.2,-2.153,M,40.593,M,2.7,0123*5F\r\n
$GPGGA,090237.00,5703.2890830,N,00952.3696619,E,2,9,1.2,-2.151,M,40.593,M,2.7,0123*53\r\n
$GPGGA,090237.05,5703.2890897,N,00952.3696710,E,2,9,1.2,-2.156,M,40.593,M,2.9,0123*5A\r\n
$GPGGA,090237.10,5703.2890969,N,00952.3696803,E,2,9,1.2,-2.157,M,40.593,M,2.9,0123*52\r\n
$GPGGA,090237.15,5703.2891049,N,00952.3696897,E,2,9,1.2,-2.155,M,40.593,M,2.9,0123*52\r\n
$GPGGA,090237.20,5703.2891129,N,00952.3697006,E,2,9,1.2,-2.153,M,40.593,M,2.9,0123*54\r\n
$GPGGA,090237.25,5703.2891202,N,00952.3697116,E,2,9,1.2,-2.154,M,40.593,M,3.1,0123*55\r\n
$GPGGA,090237.30,5703.2891282,N,00952.3697212,E,2,9,1.2,-2.153,M,40.593,M,3.1,0123*59\r\n
$GPGGA,090237.35,5703.2891361,N,00952.3697312,E,2,9,1.2,-2.153,M,40.593,M,3.1,0123*51\r\n
$GPGGA,090237.40,5703.2891426,N,00952.3697420,E,2,9,1.2,-2.155,M,40.593,M,3.1,0123*57\r\n
$GPGGA,090237.45,5703.2891506,N,00952.3697522,E,2,9,1.2,-2.158,M,40.593,M,2.1,0123*5E\r\n
$GPGGA,090237.50,5703.2891584,N,00952.3697610,E,2,9,1.2,-2.158,M,40.593,M,2.1,0123*52\r\n
$GPGGA,090237.55,5703.2891651,N,00952.3697711,E,2,9,1.2,-2.158,M,40.593,M,2.1,0123*5C\r\n
$GPGGA,090237.60,5703.2891722,N,00952.3697800,E,2,9,1.2,-2.162,M,40.593,M,2.1,0123*59\r\n
$GPGGA,090237.65,5703.2891790,N,00952.3697897,E,2,9,1.2,-2.167,M,40.593,M,2.3,0123*5C\r\n
$GPGGA,090237.70,5703.2891869,N,00952.3698002,E,2,9,1.2,-2.168,M,40.593,M,2.3,0123*55\r\n
$GPGGA,090237.75,5703.2891931,N,00952.3698102,E,2,9,1.2,-2.167,M,40.593,M,2.3,0123*52\r\n
$GPGGA,090237.80,5703.2891999,N,00952.3698208,E,2,9,1.2,-2.168,M,40.593,M,2.3,0123*5C\r\n
$GPGGA,090237.85,5703.2892076,N,00952.3698294,E,2,9,1.2,-2.163,M,40.593,M,2.6,0123*59\r\n
$GPGGA,090237.90,5703.2892150,N,00952.3698381,E,2,8,1.2,-2.164,M,40.593,M,2.6,0123*5B\r\n
$GPGGA,090237.95,5703.2892224,N,00952.3698468,E,2,8,1.2,-2.163,M,40.593,M,2.6,0123*59\r\n
$GPGGA,090238.00,5703.2892302,N,00952.3698553,E,2,8,1.2,-2.162,M,40.593,M,2.6,0123*57\r\n
$GPGGA,090238.05,5703.2892367,N,00952.3698636,E,2,9,1.2,-2.167,M,40.593,M,2.8,0123*5B\r\n
$GPGGA,090238.10,5703.2892443,N,00952.3698725,E,2,9,1.2,-2.167,M,40.593,M,2.8,0123*5D\r\n
$GPGGA,090238.15,5703.2892519,N,00952.3698806,E,2,9,1.2,-2.168,M,40.593,M,2.8,0123*57\r\n
$GPGGA,090238.20,5703.2892593,N,00952.3698894,E,2,9,1.2,-2.168,M,40.593,M,2.8,0123*58\r\n
$GPGGA,090238.25,5703.2892673,N,00952.3698975,E,2,9,1.2,-2.166,M,40.593,M,3.0,0123*59\r\n
$GPGGA,090238.30,5703.2892735,N,00952.3699063,E,2,9,1.2,-2.167,M,40.593,M,3.0,0123*50\r\n
$GPGGA,090238.35,5703.2892807,N,00952.3699146,E,2,9,1.2,-2.165,M,40.593,M,3.0,0123*5F\r\n
$GPGGA,090238.40,5703.2892886,N,00952.3699233,E,2,9,1.2,-2.163,M,40.593,M,3.0,0123*53\r\n
$GPGGA,090238.45,5703.2892967,N,00952.3699318,E,2,9,1.2,-2.165,M,40.593,M,3.2,0123*54\r\n
$GPGGA,090238.50,5703.2893045,N,00952.3699395,E,2,9,1.2,-2.164,M,40.593,M,3.2,0123*5C\r\n
$GPGGA,090238.55,5703.2893120,N,00952.3699482,E,2,9,1.2,-2.167,M,40.593,M,3.2,0123*59\r\n
$GPGGA,090238.60,5703.2893200,N,00952.3699552,E,2,9,1.2,-2.166,M,40.593,M,3.2,0123*53\r\n
$GPGGA,090238.65,5703.2893273,N,00952.3699626,E,2,9,1.2,-2.162,M,40.593,M,3.4,0123*50\r\n
$GPGGA,090238.70,5703.2893352,N,00952.3699709,E,2,9,1.2,-2.162,M,40.593,M,3.4,0123*5A\r\n
$GPGGA,090238.75,5703.2893438,N,00952.3699783,E,2,9,1.2,-2.161,M,40.593,M,3.4,0123*55\r\n
$GPGGA,090238.80,5703.2893504,N,00952.3699866,E,2,9,1.2,-2.163,M,40.593,M,3.4,0123*57\r\n
$GPGGA,090238.85,5703.2893572,N,00952.3699942,E,2,9,1.2,-2.166,M,40.593,M,3.6,0123*53\r\n
$GPGGA,090238.90,5703.2893648,N,00952.3700022,E,2,9,1.2,-2.167,M,40.593,M,3.6,0123*52\r\n
$GPGGA,090238.95,5703.2893730,N,00952.3700098,E,2,9,1.2,-2.167,M,40.593,M,3.6,0123*58\r\n
$GPGGA,090239.00,5703.2893802,N,00952.3700168,E,2,9,1.2,-2.167,M,40.593,M,3.6,0123*55\r\n
$GPGGA,090239.05,5703.2893861,N,00952.3700234,E,2,9,1.2,-2.168,M,40.593,M,3.8,0123*5E\r\n
$GPGGA,090239.10,5703.2893942,N,00952.3700305,E,2,9,1.2,-2.167,M,40.593,M,3.8,0123*56\r\n
$GPGGA,090239.15,5703.2894019,N,00952.3700379,E,2,9,1.2,-2.169,M,40.593,M,3.8,0123*56\r\n
$GPGGA,090239.20,5703.2894096,N,00952.3700447,E,2,9,1.2,-2.170,M,40.593,M,3.8,0123*55\r\n
$GPGGA,090239.25,5703.2894167,N,00952.3700525,E,2,9,1.2,-2.173,M,40.593,M,4.0,0123*56\r\n
$GPGGA,090239.30,5703.2894244,N,00952.3700608,E,2,9,1.2,-2.171,M,40.593,M,4.0,0123*5E\r\n
$GPGGA,090239.35,5703.2894318,N,00952.3700678,E,2,9,1.2,-2.170,M,40.593,M,4.0,0123*55\r\n
$GPGGA,090239.40,5703.2894392,N,00952.3700747,E,2,9,1.2,-2.172,M,40.593,M,4.0,0123*5A\r\n
$GPGGA,090239.45,5703.2894477,N,00952.3700821,E,2,9,1.2,-2.164,M,40.593,M,0.9,0123*56\r\n
$GPGGA,090239.50,5703.2894546,N,00952.3700891,E,2,9,1.2,-2.162,M,40.593,M,0.9,0123*5C\r\n
$GPGGA,090239.55,5703.2894614,N,00952.3700953,E,2,9,1.2,-2.162,M,40.593,M,0.9,0123*52\r\n
$GPGGA,090239.60,5703.2894684,N,00952.3701017,E,2,9,1.2,-2.161,M,40.593,M,0.9,0123*56\r\n
$GPGGA,090239.65,5703.2894748,N,00952.3701108,E,2,9,1.2,-2.170,M,40.593,M,1.2,0123*57\r\n
$GPGGA,090239.70,5703.2894825,N,00952.3701184,E,2,9,1.2,-2.169,M,40.593,M,1.2,0123*5B\r\n
$GPGGA,090239.75,5703.2894902,N,00952.3701256,E,2,9,1.2,-2.170,M,40.593,M,1.2,0123*5E\r\n
$GPGGA,090239.80,5703.2894976,N,00952.3701318,E,2,9,1.2,-2.172,M,40.593,M,1.2,0123*5E\r\n
$GPGGA,090239.85,5703.2895058,N,00952.3701372,E,2,9,1.2,-2.165,M,40.593,M,1.5,0123*52\r\n
$GPGGA,090239.90,5703.2895121,N,00952.3701438,E,2,9,1.2,-2.164,M,40.593,M,1.5,0123*51\r\n
$GPGGA,090239.95,5703.2895194,N,00952.3701507,E,2,9,1.2,-2.161,M,40.593,M,1.5,0123*52\r\n
$GPGGA,090240.00,5703.2895261,N,00952.3701580,E,2,9,1.2,-2.159,M,40.593,M,1.5,0123*5D\r\n
$GPGGA,090240.05,5703.2895323,N,00952.3701645,E,2,9,1.2,-2.163,M,40.593,M,1.7,0123*5E\r\n
$GPGGA,090240.10,5703.2895389,N,00952.3701718,E,2,9,1.2,-2.164,M,40.593,M,1.7,0123*54\r\n
$GPGGA,090240.15,5703.2895460,N,00952.3701788,E,2,9,1.2,-2.165,M,40.593,M,1.7,0123*59\r\n
$GPGGA,090240.20,5703.2895518,N,00952.3701864,E,2,9,1.2,-2.169,M,40.593,M,1.7,0123*50\r\n
$GPGGA,090240.25,5703.2895594,N,00952.3701913,E,2,9,1.2,-2.165,M,40.593,M,2.0,0123*58\r\n
$GPGGA,090240.30,5703.2895667,N,00952.3701967,E,2,9,1.2,-2.165,M,40.593,M,2.0,0123*50\r\n
$GPGGA,090240.35,5703.2895742,N,00952.3702034,E,2,9,1.2,-2.165,M,40.593,M,2.0,0123*5F\r\n
$GPGGA,090240.40,5703.2895817,N,00952.3702099,E,2,9,1.2,-2.162,M,40.593,M,2.0,0123*52\r\n
$GPGGA,090240.45,5703.2895880,N,00952.3702164,E,2,9,1.2,-2.162,M,40.593,M,0.8,0123*50\r\n
$GPGGA,090240.50,5703.2895948,N,00952.3702232,E,2,9,1.2,-2.162,M,40.593,M,0.8,0123*51\r\n
$GPGGA,090240.55,5703.2896014,N,00952.3702293,E,2,9,1.2,-2.165,M,40.593,M,0.8,0123*5B\r\n
$GPGGA,090240.60,5703.2896081,N,00952.3702360,E,2,9,1.2,-2.165,M,40.593,M,0.8,0123*5C\r\n
$GPGGA,090240.65,5703.2896151,N,00952.3702425,E,2,9,1.2,-2.163,M,40.593,M,1.1,0123*5D\r\n
$GPGGA,090240.70,5703.2896217,N,00952.3702485,E,2,9,1.2,-2.163,M,40.593,M,1.1,0123*52\r\n
$GPGGA,090240.75,5703.2896296,N,00952.3702542,E,2,9,1.2,-2.162,M,40.593,M,1.1,0123*55\r\n
$GPGGA,090240.80,5703.2896367,N,00952.3702596,E,2,9,1.2,-2.162,M,40.593,M,1.1,0123*59\r\n
$GPGGA,090240.85,5703.2896441,N,00952.3702652,E,2,9,1.2,-2.162,M,40.593,M,1.4,0123*51\r\n
$GPGGA,090240.90,5703.2896503,N,00952.3702714,E,2,9,1.2,-2.163,M,40.593,M,1.4,0123*50\r\n
$GPGGA,090240.95,5703.2896571,N,00952.3702781,E,2,9,1.2,-2.164,M,40.593,M,1.4,0123*5B\r\n
$GPGGA,090241.00,5703.2896646,N,00952.3702848,E,2,9,1.2,-2.163,M,40.593,M,1.4,0123*5C\r\n
$GPGGA,090241.05,5703.2896716,N,00952.3702893,E,2,9,1.2,-2.165,M,40.593,M,1.6,0123*5F\r\n
$GPGGA,090241.10,5703.2896795,N,00952.3702949,E,2,9,1.2,-2.166,M,40.593,M,1.6,0123*55\r\n
$GPGGA,090241.15,5703.2896870,N,00952.3702996,E,2,9,1.2,-2.167,M,40.593,M,1.6,0123*57\r\n
$GPGGA,090241.20,5703.2896948,N,00952.3703047,E,2,9,1.2,-2.168,M,40.593,M,1.6,0123*50\r\n
$GPGGA,090241.25,5703.2897024,N,00952.3703093,E,2,9,1.2,-2.169,M,40.593,M,1.9,0123*50\r\n
$GPGGA,090241.30,5703.2897082,N,00952.3703153,E,2,9,1.2,-2.172,M,40.593,M,1.9,0123*5F\r\n
$GPGGA,090241.35,5703.2897144,N,00952.3703216,E,2,9,1.2,-2.174,M,40.593,M,1.9,0123*55\r\n
$GPGGA,090241.40,5703.2897211,N,00952.3703284,E,2,9,1.2,-2.173,M,40.593,M,1.9,0123*58\r\n
