$GPGGA,140425.20,5703.3629233,N,00952.2046572,E,2,11,0.9,-1.475,M,40.593,M,3.6,0123*6B\r\n
$GPGGA,140425.25,5703.3629499,N,00952.2047082,E,2,11,0.9,-1.472,M,40.593,M,1.6,0123*66\r\n
$GPGGA,140425.30,5703.3629757,N,00952.2047592,E,2,11,0.9,-1.468,M,40.593,M,1.6,0123*6C\r\n
$GPGGA,140425.35,5703.3630015,N,00952.2048112,E,2,11,0.9,-1.465,M,40.593,M,1.6,0123*6E\r\n
$GPGGA,140425.40,5703.3630293,N,00952.2048604,E,2,11,0.9,-1.460,M,40.593,M,1.6,0123*65\r\n
$GPGGA,140425.45,5703.3630565,N,00952.2049088,E,2,11,0.9,-1.453,M,40.593,M,1.9,0123*62\r\n
$GPGGA,140425.50,5703.3630837,N,00952.2049592,E,2,11,0.9,-1.449,M,40.593,M,1.9,0123*69\r\n
$GPGGA,140425.55,5703.3631106,N,00952.2050073,E,2,11,0.9,-1.445,M,40.593,M,1.9,0123*68\r\n
$GPGGA,140425.60,5703.3631379,N,00952.2050570,E,2,11,0.9,-1.443,M,40.593,M,1.9,0123*64\r\n
$GPGGA,140425.65,5703.3631648,N,00952.2051068,E,2,11,0.9,-1.442,M,40.593,M,2.1,0123*61\r\n
$GPGGA,140425.70,5703.3631915,N,00952.2051571,E,2,11,0.9,-1.441,M,40.593,M,2.1,0123*6C\r\n
$GPGGA,140425.75,5703.3632188,N,00952.2052064,E,2,11,0.9,-1.438,M,40.593,M,2.1,0123*6A\r\n
$GPGGA,140425.80,5703.3632450,N,00952.2052571,E,2,11,0.9,-1.435,M,40.593,M,2.1,0123*6C\r\n
$GPGGA,140425.85,5703.3632720,N,00952.2053080,E,2,11,0.9,-1.430,M,40.593,M,2.3,0123*60\r\n
$GPGGA,140425.90,5703.3632989,N,00952.2053580,E,2,11,0.9,-1.428,M,40.593,M,2.3,0123*65\r\n
$GPGGA,140425.95,5703.3633259,N,00952.2054082,E,2,11,0.9,-1.425,M,40.593,M,2.3,0123*6A\r\n
$GPGGA,140426.00,5703.3633523,N,00952.2054606,E,2,11,0.9,-1.426,M,40.593,M,2.3,0123*66\r\n
$GPGGA,140426.05,5703.3633785,N,00952.2055114,E,2,11,0.9,-1.434,M,40.593,M,2.5,0123*6D\r\n
$GPGGA,140426.10,5703.3634057,N,00952.2055627,E,2,11,0.9,-1.435,M,40.593,M,2.5,0123*60\r\n
$GPGGA,140426.15,5703.3634334,N,00952.2056133,E,2,11,0.9,-1.438,M,40.593,M,2.5,0123*6F\r\n
$GPGGA,140426.20,5703.3634611,N,00952.2056654,E,2,11,0.9,-1.442,M,40.593,M,2.5,0123*60\r\n
$GPGGA,140426.25,5703.3634886,N,00952.2057167,E,2,11,0.9,-1.445,M,40.593,M,2.8,0123*69\r\n
$GPGGA,140426.30,5703.3635168,N,00952.2057660,E,2,11,0.9,-1.451,M,40.593,M,2.8,0123*60\r\n
$GPGGA,140426.35,5703.3635453,N,00952.2058159,E,2,11,0.9,-1.457,M,40.593,M,2.8,0123*6C\r\n
$GPGGA,140426.40,5703.3635738,N,00952.2058656,E,2,11,0.9,-1.462,M,40.593,M,2.8,0123*6E\r\n
$GPGGA,140426.45,5703.3636017,N,00952.2059141,E,2,11,0.9,-1.469,M,40.593,M,3.0,0123*60\r\n
$GPGGA,140426.50,5703.3636308,N,00952.2059627,E,2,11,0.9,-1.472,M,40.593,M,3.0,0123*64\r\n
$GPGGA,140426.55,5703.3636583,N,00952.2060103,E,2,11,0.9,-1.475,M,40.593,M,3.0,0123*68\r\n
$GPGGA,140426.60,5703.3636856,N,00952.2060587,E,2,11,0.9,-1.479,M,40.593,M,3.0,0123*6F\r\n
$GPGGA,140426.65,5703.3637143,N,00952.2061085,E,2,11,0.9,-1.477,M,40.593,M,3.2,0123*6C\r\n
$GPGGA,140426.70,5703.3637416,N,00952.2061582,E,2,11,0.9,-1.475,M,40.593,M,3.2,0123*6D\r\n
$GPGGA,140426.75,5703.3637684,N,00952.2062088,E,2,11,0.9,-1.474,M,40.593,M,3.2,0123*6C\r\n
$GPGGA,140426.80,5703.3637952,N,00952.2062603,E,2,11,0.9,-1.472,M,40.593,M,3.2,0123*61\r\n
$GPGGA,140426.85,5703.3638214,N,00952.2063097,E,2,11,0.9,-1.470,M,40.593,M,3.4,0123*6C\r\n
$GPGGA,140426.90,5703.3638469,N,00952.2063603,E,2,11,0.9,-1.467,M,40.593,M,3.4,0123*69\r\n
$GPGGA,140426.95,5703.3638736,N,00952.2064115,E,2,11,0.9,-1.462,M,40.593,M,3.4,0123*67\r\n
$GPGGA,140427.00,5703.3639001,N,00952.2064631,E,2,11,0.9,-1.455,M,40.593,M,3.4,0123*6D\r\n
$GPGGA,140427.05,5703.3639259,N,00952.2065149,E,2,11,0.9,-1.451,M,40.593,M,3.6,0123*68\r\n
$GPGGA,140427.10,5703.3639524,N,00952.2065667,E,2,11,0.9,-1.447,M,40.593,M,3.6,0123*6D\r\n
$GPGGA,140427.15,5703.3639779,N,00952.2066190,E,2,11,0.9,-1.444,M,40.593,M,3.6,0123*6D\r\n
$GPGGA,140427.20,5703.3640044,N,00952.2066708,E,2,11,0.9,-1.439,M,40.593,M,3.6,0123*61\r\n
$GPGGA,140427.25,5703.3640312,N,00952.2067214,E,2,11,0.9,-1.434,M,40.593,M,2.0,0123*67\r\n
$GPGGA,140427.30,5703.3640592,N,00952.2067707,E,2,11,0.9,-1.432,M,40.593,M,2.0,0123*6C\r\n
$GPGGA,140427.35,5703.3640866,N,00952.2068207,E,2,11,0.9,-1.430,M,40.593,M,2.0,0123*67\r\n
$GPGGA,140427.40,5703.3641137,N,00952.2068705,E,2,11,0.9,-1.428,M,40.593,M,2.0,0123*67\r\n
$GPGGA,140427.45,5703.3641405,N,00952.2069201,E,2,11,0.9,-1.429,M,40.593,M,2.3,0123*64\r\n
$GPGGA,140427.50,5703.3641694,N,00952.2069691,E,2,11,0.9,-1.429,M,40.593,M,2.3,0123*67\r\n
$GPGGA,140427.55,5703.3641973,N,00952.2070179,E,2,11,0.9,-1.432,M,40.593,M,2.3,0123*67\r\n
$GPGGA,140427.60,5703.3642255,N,00952.2070671,E,2,11,0.9,-1.435,M,40.593,M,2.3,0123*65\r\n
$GPGGA,140427.65,5703.3642531,N,00952.2071169,E,2,11,0.9,-1.441,M,40.593,M,2.5,0123*6F\r\n
$GPGGA,140427.70,5703.3642806,N,00952.2071676,E,2,11,0.9,-1.447,M,40.593,M,2.5,0123*6D\r\n
$GPGGA,140427.75,5703.3643084,N,00952.2072182,E,2,11,0.9,-1.450,M,40.593,M,2.5,0123*62\r\n
$GPGGA,140427.80,5703.3643370,N,00952.2072699,E,2,11,0.9,-1.453,M,40.593,M,2.5,0123*6E\r\n
$GPGGA,140427.85,5703.3643656,N,00952.2073212,E,2,11,0.9,-1.459,M,40.593,M,2.7,0123*64\r\n
$GPGGA,140427.90,5703.3643938,N,00952.2073732,E,2,11,0.9,-1.464,M,40.593,M,2.7,0123*6E\r\n
$GPGGA,140427.95,5703.3644218,N,00952.2074238,E,2,11,0.9,-1.471,M,40.593,M,2.7,0123*69\r\n
$GPGGA,140428.00,5703.3644497,N,00952.2074747,E,2,11,0.9,-1.475,M,40.593,M,2.7,0123*62\r\n
$GPGGA,140428.05,5703.3644775,N,00952.2075257,E,2,11,0.9,-1.481,M,40.593,M,3.0,0123*60\r\n
$GPGGA,140428.10,5703.3645043,N,00952.2075786,E,2,11,0.9,-1.484,M,40.593,M,3.0,0123*6B\r\n
$GPGGA,140428.15,5703.3645309,N,00952.2076314,E,2,11,0.9,-1.485,M,40.593,M,3.0,0123*6E\r\n
$GPGGA,140428.20,5703.3645587,N,00952.2076819,E,2,11,0.9,-1.483,M,40.593,M,3.0,0123*68\r\n
$GPGGA,140428.25,5703.3645854,N,00952.2077312,E,2,11,0.9,-1.480,M,40.593,M,2.7,0123*6A\r\n
$GPGGA,140428.30,5703.3646127,N,00952.2077798,E,2,11,0.9,-1.472,M,40.593,M,2.7,0123*6B\r\n
$GPGGA,140428.35,5703.3646395,N,00952.2078288,E,2,11,0.9,-1.464,M,40.593,M,2.7,0123*69\r\n
$GPGGA,140428.40,5703.3646665,N,00952.2078773,E,2,11,0.9,-1.456,M,40.593,M,2.7,0123*61\r\n
$GPGGA,140428.45,5703.3646930,N,00952.2079283,E,2,11,0.9,-1.446,M,40.593,M,2.9,0123*6F\r\n
$GPGGA,140428.50,5703.3647201,N,00952.2079792,E,2,11,0.9,-1.439,M,40.593,M,2.9,0123*6E\r\n
$GPGGA,140428.55,5703.3647473,N,00952.2080283,E,2,11,0.9,-1.432,M,40.593,M,2.9,0123*60\r\n
$GPGGA,140428.60,5703.3647738,N,00952.2080786,E,2,11,0.9,-1.428,M,40.593,M,2.9,0123*61\r\n
$GPGGA,140428.65,5703.3648001,N,00952.2081298,E,2,11,0.9,-1.426,M,40.593,M,3.2,0123*69\r\n
$GPGGA,140428.70,5703.3648263,N,00952.2081821,E,2,11,0.9,-1.424,M,40.593,M,3.2,0123*61\r\n
$GPGGA,140428.75,5703.3648543,N,00952.2082342,E,2,11,0.9,-1.425,M,40.593,M,3.2,0123*6D\r\n
$GPGGA,140428.80,5703.3648821,N,00952.2082865,E,2,11,0.9,-1.427,M,40.593,M,3.2,0123*62\r\n
$GPGGA,140428.85,5703.3649092,N,00952.2083391,E,2,11,0.9,-1.430,M,40.593,M,3.4,0123*67\r\n
$GPGGA,140428.90,5703.3649374,N,00952.2083906,E,2,11,0.9,-1.432,M,40.593,M,3.4,0123*6E\r\n
$GPGGA,140428.95,5703.3649656,N,00952.2084423,E,2,11,0.9,-1.436,M,40.593,M,3.4,0123*67\r\n
$GPGGA,140429.00,5703.3649932,N,00952.2084937,E,2,11,0.9,-1.441,M,40.593,M,3.4,0123*6F\r\n
$GPGGA,140429.05,5703.3650213,N,00952.2085444,E,2,11,0.9,-1.448,M,40.593,M,3.6,0123*69\r\n
$GPGGA,140429.10,5703.3650502,N,00952.2085942,E,2,11,0.9,-1.451,M,40.593,M,3.6,0123*69\r\n
$GPGGA,140429.15,5703.3650783,N,00952.2086438,E,2,11,0.9,-1.455,M,40.593,M,3.6,0123*60\r\n
$GPGGA,140429.20,5703.3651057,N,00952.2086933,E,2,11,0.9,-1.460,M,40.593,M,3.6,0123*69\r\n
$GPGGA,140429.25,5703.3651330,N,00952.2087425,E,2,11,0.9,-1.460,M,40.593,M,1.6,0123*67\r\n
$GPGGA,140429.30,5703.3651607,N,00952.2087925,E,2,11,0.9,-1.461,M,40.593,M,1.6,0123*6E\r\n
$GPGGA,140429.35,5703.3651876,N,00952.2088415,E,2,11,0.9,-1.460,M,40.593,M,1.6,0123*63\r\n
$GPGGA,140429.40,5703.3652145,N,00952.2088911,E,2,11,0.9,-1.458,M,40.593,M,1.6,0123*69\r\n
$GPGGA,140429.45,5703.3652411,N,00952.2089404,E,2,11,0.9,-1.458,M,40.593,M,1.9,0123*6F\r\n
$GPGGA,140429.50,5703.3652676,N,00952.2089889,E,2,11,0.9,-1.458,M,40.593,M,1.9,0123*61\r\n
$GPGGA,140429.55,5703.3652952,N,00952.2090381,E,2,11,0.9,-1.457,M,40.593,M,1.9,0123*69\r\n
$GPGGA,140429.60,5703.3653228,N,00952.2090888,E,2,11,0.9,-1.455,M,40.593,M,1.9,0123*68\r\n
$GPGGA,140429.65,5703.3653497,N,00952.2091386,E,2,11,0.9,-1.453,M,40.593,M,2.1,0123*66\r\n
$GPGGA,140429.70,5703.3653753,N,00952.2091892,E,2,11,0.9,-1.453,M,40.593,M,2.1,0123*67\r\n
$GPGGA,140429.75,5703.3654012,N,00952.2092410,E,2,11,0.9,-1.454,M,40.593,M,2.1,0123*65\r\n
$GPGGA,140429.80,5703.3654287,N,00952.2092926,E,2,11,0.9,-1.453,M,40.593,M,2.1,0123*6E\r\n
$GPGGA,140429.85,5703.3654558,N,00952.2093449,E,2,11,0.9,-1.456,M,40.593,M,2.3,0123*6C\r\n
$GPGGA,140429.90,5703.3654831,N,00952.2093967,E,2,11,0.9,-1.456,M,40.593,M,2.3,0123*6B\r\n
$GPGGA,140429.95,5703.3655101,N,00952.2094479,E,2,11,0.9,-1.455,M,40.593,M,2.3,0123*63\r\n
$GPGGA,140430.00,5703.3655371,N,00952.2094994,E,2,11,0.9,-1.455,M,40.593,M,2.3,0123*6C\r\n
$GPGGA,140430.05,5703.3655646,N,00952.2095504,E,2,11,0.9,-1.455,M,40.593,M,2.5,0123*6A\r\n
$GPGGA,140430.10,5703.3655909,N,00952.2096024,E,2,11,0.9,-1.455,M,40.593,M,2.5,0123*6E\r\n
$GPGGA,140430.15,5703.3656169,N,00952.2096546,E,2,11,0.9,-1.455,M,40.593,M,2.5,0123*67\r\n
$GPGGA,140430.20,5703.3656427,N,00952.2097062,E,2,11,0.9,-1.456,M,40.593,M,2.5,0123*6F\r\n
$GPGGA,140430.25,5703.3656697,N,00952.2097569,E,2,11,0.9,-1.450,M,40.593,M,2.8,0123*66\r\n
$GPGGA,140430.30,5703.3656967,N,00952.2098073,E,2,11,0.9,-1.445,M,40.593,M,2.8,0123*67\r\n
$GPGGA,140430.35,5703.3657233,N,00952.2098563,E,2,11,0.9,-1.442,M,40.593,M,2.8,0123*6A\r\n
$GPGGA,140430.40,5703.3657501,N,00952.2099069,E,2,11,0.9,-1.439,M,40.593,M,2.8,0123*6C\r\n
$GPGGA,140430.45,5703.3657767,N,00952.2099566,E,2,11,0.9,-1.439,M,40.593,M,3.0,0123*68\r\n
$GPGGA,140430.50,5703.3658035,N,00952.2100057,E,2,11,0.9,-1.439,M,40.593,M,3.0,0123*65\r\n
$GPGGA,140430.55,5703.3658319,N,00952.2100552,E,2,11,0.9,-1.437,M,40.593,M,3.0,0123*63\r\n
$GPGGA,140430.60,5703.3658589,N,00952.2101035,E,2,11,0.9,-1.438,M,40.593,M,3.0,0123*60\r\n
$GPGGA,140430.65,5703.3658879,N,00952.2101522,E,2,11,0.9,-1.439,M,40.593,M,3.2,0123*67\r\n
$GPGGA,140430.70,5703.3659158,N,00952.2102021,E,2,11,0.9,-1.443,M,40.593,M,3.2,0123*60\r\n
$GPGGA,140430.75,5703.3659438,N,00952.2102528,E,2,11,0.9,-1.449,M,40.593,M,3.2,0123*60\r\n
$GPGGA,140430.80,5703.3659734,N,00952.2103023,E,2,11,0.9,-1.453,M,40.593,M,3.2,0123*61\r\n
$GPGGA,140430.85,5703.3660027,N,00952.2103529,E,2,11,0.9,-1.458,M,40.593,M,3.4,0123*69\r\n
$GPGGA,140430.90,5703.3660323,N,00952.2104030,E,2,11,0.9,-1.461,M,40.593,M,3.4,0123*6A\r\n
$GPGGA,140430.95,5703.3660613,N,00952.2104526,E,2,11,0.9,-1.463,M,40.593,M,3.4,0123*69\r\n
$GPGGA,140431.00,5703.3660891,N,00952.2105038,E,2,11,0.9,-1.466,M,40.593,M,3.4,0123*6E\r\n
$GPGGA,140431.05,5703.3661172,N,00952.2105554,E,2,11,0.9,-1.472,M,40.593,M,3.6,0123*66\r\n
$GPGGA,140431.10,5703.3661460,N,00952.2106091,E,2,11,0.9,-1.473,M,40.593,M,3.6,0123*6A\r\n
$GPGGA,140431.15,5703.3661742,N,00952.2106610,E,2,11,0.9,-1.468,M,40.593,M,3.6,0123*69\r\n
$GPGGA,140431.20,5703.3662026,N,00952.2107135,E,2,11,0.9,-1.465,M,40.593,M,3.6,0123*65\r\n
$GPGGA,140431.25,5703.3662304,N,00952.2107660,E,2,11,0.9,-1.460,M,40.593,M,2.0,0123*66\r\n
$GPGGA,140431.30,5703.3662582,N,00952.2108186,E,2,11,0.9,-1.455,M,40.593,M,2.0,0123*6C\r\n
$GPGGA,140431.35,5703.3662865,N,00952.2108739,E,2,11,0.9,-1.450,M,40.593,M,2.0,0123*6A\r\n
$GPGGA,140431.40,5703.3663141,N,00952.2109297,E,2,11,0.9,-1.445,M,40.593,M,2.0,0123*62\r\n
$GPGGA,140431.45,5703.3663420,N,00952.2109847,E,2,11,0.9,-1.437,M,40.593,M,2.3,0123*64\r\n
$GPGGA,140431.50,5703.3663702,N,00952.2110409,E,2,11,0.9,-1.434,M,40.593,M,2.3,0123*6E\r\n
$GPGGA,140431.55,5703.3663996,N,00952.2110962,E,2,11,0.9,-1.431,M,40.593,M,2.3,0123*6D\r\n
$GPGGA,140431.60,5703.3664289,N,00952.2111515,E,2,11,0.9,-1.429,M,40.593,M,2.3,0123*6D\r\n
$GPGGA,140431.65,5703.3664592,N,00952.2112060,E,2,11,0.9,-1.426,M,40.593,M,2.5,0123*68\r\n
$GPGGA,140431.70,5703.3664904,N,00952.2112605,E,2,11,0.9,-1.424,M,40.593,M,2.5,0123*68\r\n
$GPGGA,140431.75,5703.3665216,N,00952.2113156,E,2,11,0.9,-1.420,M,40.593,M,2.5,0123*60\r\n
$GPGGA,140431.80,5703.3665528,N,00952.2113708,E,2,11,0.9,-1.421,M,40.593,M,2.5,0123*6C\r\n
$GPGGA,140431.85,5703.3665839,N,00952.2114269,E,2,11,0.9,-1.417,M,40.593,M,2.7,0123*66\r\n
$GPGGA,140431.90,5703.3666148,N,00952.2114842,E,2,11,0.9,-1.417,M,40.593,M,2.7,0123*6D\r\n
$GPGGA,140431.95,5703.3666452,N,00952.2115411,E,2,11,0.9,-1.419,M,40.593,M,2.7,0123*63\r\n
$GPGGA,140432.00,5703.3666764,N,00952.2115981,E,2,11,0.9,-1.421,M,40.593,M,2.7,0123*65\r\n
$GPGGA,140432.05,5703.3667095,N,00952.2116528,E,2,11,0.9,-1.424,M,40.593,M,3.0,0123*67\r\n
$GPGGA,140432.10,5703.3667421,N,00952.2117106,E,2,11,0.9,-1.426,M,40.593,M,3.0,0123*63\r\n
$GPGGA,140432.15,5703.3667755,N,00952.2117692,E,2,11,0.9,-1.432,M,40.593,M,3.0,0123*69\r\n
$GPGGA,140432.20,5703.3668084,N,00952.2118292,E,2,11,0.9,-1.439,M,40.593,M,3.0,0123*6B\r\n
$GPGGA,140432.25,5703.3668413,N,00952.2118872,E,2,11,0.9,-1.452,M,40.593,M,2.7,0123*6B\r\n
$GPGGA,140432.30,5703.3668756,N,00952.2119462,E,2,11,0.9,-1.458,M,40.593,M,2.7,0123*6B\r\n
$GPGGA,140432.35,5703.3669099,N,00952.2120064,E,2,11,0.9,-1.464,M,40.593,M,2.7,0123*6C\r\n
$GPGGA,140432.40,5703.3669445,N,00952.2120678,E,2,11,0.9,-1.466,M,40.593,M,2.7,0123*62\r\n
$GPGGA,140432.45,5703.3669764,N,00952.2121280,E,2,11,0.9,-1.466,M,40.593,M,2.9,0123*6B\r\n
$GPGGA,140432.50,5703.3670089,N,00952.2121897,E,2,11,0.9,-1.463,M,40.593,M,2.9,0123*6A\r\n
$GPGGA,140432.55,5703.3670426,N,00952.2122520,E,2,11,0.9,-1.460,M,40.593,M,2.9,0123*6F\r\n
$GPGGA,140432.60,5703.3670765,N,00952.2123151,E,2,11,0.9,-1.456,M,40.593,M,2.9,0123*6B\r\n
$GPGGA,140432.65,5703.3671084,N,00952.2123793,E,2,11,0.9,-1.456,M,40.593,M,3.2,0123*65\r\n
$GPGGA,140432.70,5703.3671416,N,00952.2124425,E,2,11,0.9,-1.448,M,40.593,M,3.2,0123*68\r\n
$GPGGA,140432.75,5703.3671741,N,00952.2125085,E,2,11,0.9,-1.443,M,40.593,M,3.2,0123*68\r\n
$GPGGA,140432.80,5703.3672082,N,00952.2125738,E,2,11,0.9,-1.435,M,40.593,M,3.2,0123*69\r\n
$GPGGA,140432.85,5703.3672425,N,00952.2126406,E,2,11,0.9,-1.428,M,40.593,M,3.4,0123*62\r\n
$GPGGA,140432.90,5703.3672773,N,00952.2127091,E,2,11,0.9,-1.422,M,40.593,M,3.4,0123*67\r\n
$GPGGA,140432.95,5703.3673123,N,00952.2127770,E,2,11,0.9,-1.417,M,40.593,M,3.4,0123*6E\r\n
$GPGGA,140433.00,5703.3673478,N,00952.2128454,E,2,11,0.9,-1.413,M,40.593,M,3.4,0123*66\r\n
$GPGGA,140433.05,5703.3673855,N,00952.2129131,E,2,11,0.9,-1.410,M,40.593,M,3.6,0123*66\r\n
$GPGGA,140433.10,5703.3674224,N,00952.2129840,E,2,11,0.9,-1.409,M,40.593,M,3.6,0123*6E\r\n
$GPGGA,140433.15,5703.3674591,N,00952.2130556,E,2,11,0.9,-1.410,M,40.593,M,3.6,0123*68\r\n
$GPGGA,140433.20,5703.3674958,N,00952.2131262,E,2,11,0.9,-1.412,M,40.593,M,3.6,0123*64\r\n
$GPGGA,140433.25,5703.3675330,N,00952.2131983,E,2,11,0.9,-1.410,M,40.593,M,1.6,0123*60\r\n
$GPGGA,140433.30,5703.3675693,N,00952.2132722,E,2,11,0.9,-1.410,M,40.593,M,1.6,0123*6E\r\n
$GPGGA,140433.35,5703.3676071,N,00952.2133453,E,2,11,0.9,-1.408,M,40.593,M,1.6,0123*6F\r\n
$GPGGA,140433.40,5703.3676459,N,00952.2134182,E,2,11,0.9,-1.406,M,40.593,M,1.6,0123*63\r\n
$GPGGA,140433.45,5703.3676847,N,00952.2134899,E,2,11,0.9,-1.407,M,40.593,M,1.9,0123*68\r\n
$GPGGA,140433.50,5703.3677226,N,00952.2135644,E,2,11,0.9,-1.408,M,40.593,M,1.9,0123*60\r\n
$GPGGA,140433.55,5703.3677620,N,00952.2136385,E,2,11,0.9,-1.411,M,40.593,M,1.9,0123*64\r\n
$GPGGA,140433.60,5703.3678008,N,00952.2137146,E,2,11,0.9,-1.415,M,40.593,M,1.9,0123*69\r\n
$GPGGA,140433.65,5703.3678397,N,00952.2137914,E,2,11,0.9,-1.422,M,40.593,M,2.1,0123*69\r\n
$GPGGA,140433.70,5703.3678787,N,00952.2138677,E,2,11,0.9,-1.428,M,40.593,M,2.1,0123*67\r\n
$GPGGA,140433.75,5703.3679195,N,00952.2139448,E,2,11,0.9,-1.433,M,40.593,M,2.1,0123*63\r\n
$GPGGA,140433.80,5703.3679611,N,00952.2140233,E,2,11,0.9,-1.441,M,40.593,M,2.1,0123*63\r\n
$GPGGA,140433.85,5703.3680014,N,00952.2141036,E,2,11,0.9,-1.451,M,40.593,M,2.3,0123*66\r\n
$GPGGA,140433.90,5703.3680416,N,00952.2141824,E,2,11,0.9,-1.456,M,40.593,M,2.3,0123*68\r\n
$GPGGA,140433.95,5703.3680814,N,00952.2142627,E,2,11,0.9,-1.460,M,40.593,M,2.3,0123*68\r\n
$GPGGA,140434.00,5703.3681201,N,00952.2143433,E,2,11,0.9,-1.463,M,40.593,M,2.3,0123*69\r\n
$GPGGA,140434.05,5703.3681585,N,00952.2144216,E,2,11,0.9,-1.459,M,40.593,M,2.5,0123*6E\r\n
$GPGGA,140434.10,5703.3681970,N,00952.2145020,E,2,11,0.9,-1.452,M,40.593,M,2.5,0123*61\r\n
$GPGGA,140434.15,5703.3682355,N,00952.2145838,E,2,11,0.9,-1.440,M,40.593,M,2.5,0123*68\r\n
$GPGGA,140434.20,5703.3682737,N,00952.2146662,E,2,11,0.9,-1.431,M,40.593,M,2.5,0123*6A\r\n
$GPGGA,140434.25,5703.3683124,N,00952.2147503,E,2,11,0.9,-1.420,M,40.593,M,2.8,0123*62\r\n
$GPGGA,140434.30,5703.3683512,N,00952.2148360,E,2,11,0.9,-1.413,M,40.593,M,2.8,0123*6B\r\n
$GPGGA,140434.35,5703.3683904,N,00952.2149197,E,2,11,0.9,-1.404,M,40.593,M,2.8,0123*68\r\n
$GPGGA,140434.40,5703.3684290,N,00952.2150031,E,2,11,0.9,-1.397,M,40.593,M,2.8,0123*63\r\n
$GPGGA,140434.45,5703.3684685,N,00952.2150899,E,2,11,0.9,-1.393,M,40.593,M,3.0,0123*61\r\n
$GPGGA,140434.50,5703.3685091,N,00952.2151778,E,2,11,0.9,-1.391,M,40.593,M,3.0,0123*64\r\n
$GPGGA,140434.55,5703.3685494,N,00952.2152664,E,2,11,0.9,-1.393,M,40.593,M,3.0,0123*6D\r\n
$GPGGA,140434.60,5703.3685898,N,00952.2153551,E,2,11,0.9,-1.396,M,40.593,M,3.0,0123*6A\r\n
$GPGGA,140434.65,5703.3686298,N,00952.2154436,E,2,11,0.9,-1.399,M,40.593,M,3.2,0123*6C\r\n
$GPGGA,140434.70,5703.3686710,N,00952.2155299,E,2,11,0.9,-1.399,M,40.593,M,3.2,0123*6F\r\n
$GPGGA,140434.75,5703.3687109,N,00952.2156169,E,2,11,0.9,-1.402,M,40.593,M,3.2,0123*6F\r\n
$GPGGA,140434.80,5703.3687509,N,00952.2157047,E,2,11,0.9,-1.405,M,40.593,M,3.2,0123*6A\r\n
$GPGGA,140434.85,5703.3687920,N,00952.2157936,E,2,11,0.9,-1.406,M,40.593,M,3.4,0123*62\r\n
$GPGGA,140434.90,5703.3688331,N,00952.2158823,E,2,11,0.9,-1.412,M,40.593,M,3.4,0123*6C\r\n
$GPGGA,140434.95,5703.3688746,N,00952.2159712,E,2,11,0.9,-1.417,M,40.593,M,3.4,0123*64\r\n
$GPGGA,140435.00,5703.3689158,N,00952.2160615,E,2,11,0.9,-1.422,M,40.593,M,3.4,0123*6B\r\n
$GPGGA,140435.05,5703.3689571,N,00952.2161512,E,2,11,0.9,-1.431,M,40.593,M,3.6,0123*64\r\n
$GPGGA,140435.10,5703.3689989,N,00952.2162421,E,2,11,0.9,-1.437,M,40.593,M,3.6,0123*6F\r\n
$GPGGA,140435.15,5703.3690407,N,00952.2163352,E,2,11,0.9,-1.442,M,40.593,M,3.6,0123*69\r\n
$GPGGA,140435.20,5703.3690807,N,00952.2164285,E,2,11,0.9,-1.448,M,40.593,M,3.6,0123*65\r\n
$GPGGA,140435.25,5703.3691204,N,00952.2165213,E,2,11,0.9,-1.451,M,40.593,M,2.0,0123*69\r\n
$GPGGA,140435.30,5703.3691605,N,00952.2166151,E,2,11,0.9,-1.455,M,40.593,M,2.0,0123*6A\r\n
$GPGGA,140435.35,5703.3692004,N,00952.2167097,E,2,11,0.9,-1.452,M,40.593,M,2.0,0123*66\r\n
$GPGGA,140435.40,5703.3692397,N,00952.2168049,E,2,11,0.9,-1.452,M,40.593,M,2.0,0123*61\r\n
$GPGGA,140435.45,5703.3692777,N,00952.2168987,E,2,11,0.9,-1.449,M,40.593,M,2.3,0123*6C\r\n
$GPGGA,140435.50,5703.3693144,N,00952.2169935,E,2,11,0.9,-1.447,M,40.593,M,2.3,0123*69\r\n
$GPGGA,140435.55,5703.3693523,N,00952.2170897,E,2,11,0.9,-1.441,M,40.593,M,2.3,0123*6E\r\n
$GPGGA,140435.60,5703.3693892,N,00952.2171845,E,2,11,0.9,-1.435,M,40.593,M,2.3,0123*62\r\n
$GPGGA,140435.65,5703.3694250,N,00952.2172803,E,2,11,0.9,-1.430,M,40.593,M,2.5,0123*66\r\n
$GPGGA,140435.70,5703.3694620,N,00952.2173740,E,2,11,0.9,-1.424,M,40.593,M,2.5,0123*6D\r\n
$GPGGA,140435.75,5703.3694995,N,00952.2174681,E,2,11,0.9,-1.419,M,40.593,M,2.5,0123*6C\r\n
$GPGGA,140435.80,5703.3695363,N,00952.2175642,E,2,11,0.9,-1.417,M,40.593,M,2.5,0123*64\r\n
$GPGGA,140435.85,5703.3695730,N,00952.2176595,E,2,11,0.9,-1.413,M,40.593,M,2.7,0123*6F\r\n
$GPGGA,140435.90,5703.3696101,N,00952.2177552,E,2,11,0.9,-1.413,M,40.593,M,2.7,0123*66\r\n
$GPGGA,140435.95,5703.3696478,N,00952.2178499,E,2,11,0.9,-1.414,M,40.593,M,2.7,0123*66\r\n
$GPGGA,140436.00,5703.3696846,N,00952.2179449,E,2,11,0.9,-1.418,M,40.593,M,2.7,0123*68\r\n
$GPGGA,140436.05,5703.3697219,N,00952.2180400,E,2,11,0.9,-1.420,M,40.593,M,3.0,0123*6A\r\n
$GPGGA,140436.10,5703.3697588,N,00952.2181350,E,2,11,0.9,-1.426,M,40.593,M,3.0,0123*64\r\n
$GPGGA,140436.15,5703.3697968,N,00952.2182285,E,2,11,0.9,-1.431,M,40.593,M,3.0,0123*6F\r\n
$GPGGA,140436.20,5703.3698351,N,00952.2183230,E,2,11,0.9,-1.438,M,40.593,M,3.0,0123*60\r\n
$GPGGA,140436.25,5703.3698713,N,00952.2184177,E,2,11,0.9,-1.452,M,40.593,M,2.7,0123*6A\r\n
$GPGGA,140436.30,5703.3699077,N,00952.2185119,E,2,11,0.9,-1.459,M,40.593,M,2.7,0123*68\r\n
$GPGGA,140436.35,5703.3699433,N,00952.2186049,E,2,11,0.9,-1.465,M,40.593,M,2.7,0123*61\r\n
$GPGGA,140436.40,5703.3699795,N,00952.2186988,E,2,11,0.9,-1.472,M,40.593,M,2.7,0123*6E\r\n
$GPGGA,140436.45,5703.3700149,N,00952.2187917,E,2,11,0.9,-1.476,M,40.593,M,2.9,0123*60\r\n
$GPGGA,140436.50,5703.3700495,N,00952.2188854,E,2,11,0.9,-1.483,M,40.593,M,2.9,0123*63\r\n
$GPGGA,140436.55,5703.3700848,N,00952.2189787,E,2,11,0.9,-1.487,M,40.593,M,2.9,0123*6E\r\n
$GPGGA,140436.60,5703.3701202,N,00952.2190727,E,2,11,0.9,-1.491,M,40.593,M,2.9,0123*68\r\n
$GPGGA,140436.65,5703.3701551,N,00952.2191671,E,2,11,0.9,-1.495,M,40.593,M,3.2,0123*61\r\n
$GPGGA,140436.70,5703.3701897,N,00952.2192605,E,2,11,0.9,-1.499,M,40.593,M,3.2,0123*6E\r\n
$GPGGA,140436.75,5703.3702241,N,00952.2193531,E,2,11,0.9,-1.504,M,40.593,M,3.2,0123*69\r\n
$GPGGA,140436.80,5703.3702580,N,00952.2194467,E,2,11,0.9,-1.504,M,40.593,M,3.2,0123*6C\r\n
$GPGGA,140436.85,5703.3702900,N,00952.2195395,E,2,11,0.9,-1.500,M,40.593,M,3.4,0123*64\r\n
$GPGGA,140436.90,5703.3703208,N,00952.2196326,E,2,11,0.9,-1.496,M,40.593,M,3.4,0123*67\r\n
$GPGGA,140436.95,5703.3703510,N,00952.2197240,E,2,11,0.9,-1.489,M,40.593,M,3.4,0123*62\r\n
$GPGGA,140437.00,5703.3703798,N,00952.2198160,E,2,11,0.9,-1.483,M,40.593,M,3.4,0123*69\r\n
$GPGGA,140437.05,5703.3704097,N,00952.2199093,E,2,11,0.9,-1.477,M,40.593,M,3.6,0123*66\r\n
$GPGGA,140437.10,5703.3704400,N,00952.2200014,E,2,11,0.9,-1.469,M,40.593,M,3.6,0123*6B\r\n
$GPGGA,140437.15,5703.3704689,N,00952.2200947,E,2,11,0.9,-1.462,M,40.593,M,3.6,0123*69\r\n
$GPGGA,140437.20,5703.3704979,N,00952.2201874,E,2,11,0.9,-1.457,M,40.593,M,3.6,0123*69\r\n
$GPGGA,140437.25,5703.3705286,N,00952.2202794,E,2,11,0.9,-1.446,M,40.593,M,1.6,0123*66\r\n
$GPGGA,140437.30,5703.3705596,N,00952.2203727,E,2,11,0.9,-1.443,M,40.593,M,1.6,0123*68\r\n
$GPGGA,140437.35,5703.3705915,N,00952.2204664,E,2,11,0.9,-1.444,M,40.593,M,1.6,0123*6C\r\n
$GPGGA,140437.40,5703.3706248,N,00952.2205583,E,2,11,0.9,-1.450,M,40.593,M,1.6,0123*60\r\n
$GPGGA,140437.45,5703.3706591,N,00952.2206502,E,2,11,0.9,-1.453,M,40.593,M,1.9,0123*60\r\n
$GPGGA,140437.50,5703.3706919,N,00952.2207413,E,2,11,0.9,-1.462,M,40.593,M,1.9,0123*6A\r\n
$GPGGA,140437.55,5703.3707228,N,00952.2208322,E,2,11,0.9,-1.470,M,40.593,M,1.9,0123*6E\r\n
$GPGGA,140437.60,5703.3707546,N,00952.2209209,E,2,11,0.9,-1.475,M,40.593,M,1.9,0123*6B\r\n
$GPGGA,140437.65,5703.3707852,N,00952.2210102,E,2,11,0.9,-1.484,M,40.593,M,2.1,0123*63\r\n
$GPGGA,140437.70,5703.3708166,N,00952.2210983,E,2,11,0.9,-1.486,M,40.593,M,2.1,0123*65\r\n
$GPGGA,140437.75,5703.3708482,N,00952.2211857,E,2,11,0.9,-1.488,M,40.593,M,2.1,0123*68\r\n
$GPGGA,140437.80,5703.3708788,N,00952.2212738,E,2,11,0.9,-1.489,M,40.593,M,2.1,0123*6F\r\n
$GPGGA,140437.85,5703.3709084,N,00952.2213624,E,2,11,0.9,-1.490,M,40.593,M,2.3,0123*67\r\n
$GPGGA,140437.90,5703.3709373,N,00952.2214521,E,2,11,0.9,-1.490,M,40.593,M,2.3,0123*69\r\n
$GPGGA,140437.95,5703.3709666,N,00952.2215408,E,2,11,0.9,-1.486,M,40.593,M,2.3,0123*61\r\n
$GPGGA,140438.00,5703.3709964,N,00952.2216294,E,2,11,0.9,-1.485,M,40.593,M,2.3,0123*6C\r\n
$GPGGA,140438.05,5703.3710249,N,00952.2217187,E,2,11,0.9,-1.487,M,40.593,M,2.5,0123*61\r\n
$GPGGA,140438.10,5703.3710521,N,00952.2218084,E,2,11,0.9,-1.490,M,40.593,M,2.5,0123*67\r\n
$GPGGA,140438.15,5703.3710803,N,00952.2218973,E,2,11,0.9,-1.487,M,40.593,M,2.5,0123*68\r\n
$GPGGA,140438.20,5703.3711087,N,00952.2219848,E,2,11,0.9,-1.478,M,40.593,M,2.5,0123*63\r\n
$GPGGA,140438.25,5703.3711362,N,00952.2220722,E,2,11,0.9,-1.473,M,40.593,M,2.8,0123*61\r\n
$GPGGA,140438.30,5703.3711629,N,00952.2221600,E,2,11,0.9,-1.468,M,40.593,M,2.8,0123*65\r\n
$GPGGA,140438.35,5703.3711904,N,00952.2222478,E,2,11,0.9,-1.464,M,40.593,M,2.8,0123*62\r\n
$GPGGA,140438.40,5703.3712171,N,00952.2223357,E,2,11,0.9,-1.459,M,40.593,M,2.8,0123*6C\r\n
$GPGGA,140438.45,5703.3712426,N,00952.2224231,E,2,11,0.9,-1.460,M,40.593,M,3.0,0123*6B\r\n
$GPGGA,140438.50,5703.3712706,N,00952.2225097,E,2,11,0.9,-1.461,M,40.593,M,3.0,0123*60\r\n
$GPGGA,140438.55,5703.3712985,N,00952.2225965,E,2,11,0.9,-1.460,M,40.593,M,3.0,0123*65\r\n
$GPGGA,140438.60,5703.3713272,N,00952.2226824,E,2,11,0.9,-1.459,M,40.593,M,3.0,0123*6C\r\n
$GPGGA,140438.65,5703.3713564,N,00952.2227678,E,2,11,0.9,-1.461,M,40.593,M,3.2,0123*66\r\n
$GPGGA,140438.70,5703.3713843,N,00952.2228543,E,2,11,0.9,-1.464,M,40.593,M,3.2,0123*6B\r\n
$GPGGA,140438.75,5703.3714121,N,00952.2229379,E,2,11,0.9,-1.465,M,40.593,M,3.2,0123*6B\r\n
$GPGGA,140438.80,5703.3714407,N,00952.2230204,E,2,11,0.9,-1.464,M,40.593,M,3.2,0123*62\r\n
$GPGGA,140438.85,5703.3714693,N,00952.2231045,E,2,11,0.9,-1.464,M,40.593,M,3.4,0123*68\r\n
$GPGGA,140438.90,5703.3714969,N,00952.2231874,E,2,11,0.9,-1.461,M,40.593,M,3.4,0123*69\r\n
$GPGGA,140438.95,5703.3715237,N,00952.2232695,E,2,11,0.9,-1.459,M,40.593,M,3.4,0123*64\r\n
$GPGGA,140439.00,5703.3715515,N,00952.2233530,E,2,11,0.9,-1.457,M,40.593,M,3.4,0123*6D\r\n
$GPGGA,140439.05,5703.3715791,N,00952.2234365,E,2,11,0.9,-1.454,M,40.593,M,3.6,0123*66\r\n
$GPGGA,140439.10,5703.3716063,N,00952.2235195,E,2,11,0.9,-1.450,M,40.593,M,3.6,0123*63\r\n
$GPGGA,140439.15,5703.3716325,N,00952.2236032,E,2,11,0.9,-1.449,M,40.593,M,3.6,0123*60\r\n
$GPGGA,140439.20,5703.3716593,N,00952.2236870,E,2,11,0.9,-1.449,M,40.593,M,3.6,0123*63\r\n
$GPGGA,140439.25,5703.3716863,N,00952.2237710,E,2,11,0.9,-1.453,M,40.593,M,2.0,0123*60\r\n
$GPGGA,140439.30,5703.3717133,N,00952.2238552,E,2,11,0.9,-1.456,M,40.593,M,2.0,0123*67\r\n
$GPGGA,140439.35,5703.3717400,N,00952.2239378,E,2,11,0.9,-1.459,M,40.593,M,2.0,0123*67\r\n
$GPGGA,140439.40,5703.3717667,N,00952.2240205,E,2,11,0.9,-1.460,M,40.593,M,2.0,0123*69\r\n
$GPGGA,140439.45,5703.3717927,N,00952.2241028,E,2,11,0.9,-1.464,M,40.593,M,2.3,0123*6C\r\n
$GPGGA,140439.50,5703.3718186,N,00952.2241836,E,2,11,0.9,-1.466,M,40.593,M,2.3,0123*61\r\n
$GPGGA,140439.55,5703.3718444,N,00952.2242642,E,2,11,0.9,-1.466,M,40.593,M,2.3,0123*61\r\n
$GPGGA,140439.60,5703.3718702,N,00952.2243447,E,2,11,0.9,-1.467,M,40.593,M,2.3,0123*61\r\n
$GPGGA,140439.65,5703.3718964,N,00952.2244253,E,2,11,0.9,-1.465,M,40.593,M,2.5,0123*6A\r\n
$GPGGA,140439.70,5703.3719219,N,00952.2245060,E,2,11,0.9,-1.464,M,40.593,M,2.5,0123*6C\r\n
$GPGGA,140439.75,5703.3719473,N,00952.2245857,E,2,11,0.9,-1.461,M,40.593,M,2.5,0123*6A\r\n
$GPGGA,140439.80,5703.3719717,N,00952.2246648,E,2,11,0.9,-1.460,M,40.593,M,2.5,0123*63\r\n
$GPGGA,140439.85,5703.3719972,N,00952.2247449,E,2,11,0.9,-1.458,M,40.593,M,2.7,0123*60\r\n
$GPGGA,140439.90,5703.3720222,N,00952.2248249,E,2,11,0.9,-1.456,M,40.593,M,2.7,0123*67\r\n
$GPGGA,140439.95,5703.3720471,N,00952.2249046,E,2,11,0.9,-1.454,M,40.593,M,2.7,0123*6C\r\n
$GPGGA,140440.00,5703.3720720,N,00952.2249842,E,2,11,0.9,-1.454,M,40.593,M,2.7,0123*65\r\n
$GPGGA,140440.05,5703.3720962,N,00952.2250637,E,2,11,0.9,-1.453,M,40.593,M,3.0,0123*6D\r\n
$GPGGA,140440.10,5703.3721207,N,00952.2251430,E,2,11,0.9,-1.451,M,40.593,M,3.0,0123*66\r\n
$GPGGA,140440.15,5703.3721454,N,00952.2252226,E,2,11,0.9,-1.449,M,40.593,M,3.0,0123*68\r\n
$GPGGA,140440.20,5703.3721705,N,00952.2253024,E,2,11,0.9,-1.450,M,40.593,M,3.0,0123*60\r\n
$GPGGA,140440.25,5703.3721958,N,00952.2253831,E,2,11,0.9,-1.454,M,40.593,M,2.7,0123*6D\r\n
$GPGGA,140440.30,5703.3722206,N,00952.2254627,E,2,11,0.9,-1.454,M,40.593,M,2.7,0123*64\r\n
$GPGGA,140440.35,5703.3722452,N,00952.2255418,E,2,11,0.9,-1.456,M,40.593,M,2.7,0123*6B\r\n
$GPGGA,140440.40,5703.3722709,N,00952.2256200,E,2,11,0.9,-1.459,M,40.593,M,2.7,0123*67\r\n
$GPGGA,140440.45,5703.3722957,N,00952.2256970,E,2,11,0.9,-1.462,M,40.593,M,2.9,0123*6D\r\n
$GPGGA,140440.50,5703.3723198,N,00952.2257741,E,2,11,0.9,-1.461,M,40.593,M,2.9,0123*6D\r\n
$GPGGA,140440.55,5703.3723439,N,00952.2258512,E,2,11,0.9,-1.459,M,40.593,M,2.9,0123*66\r\n
$GPGGA,140440.60,5703.3723693,N,00952.2259275,E,2,11,0.9,-1.456,M,40.593,M,2.9,0123*6A\r\n
$GPGGA,140440.65,5703.3723933,N,00952.2260043,E,2,11,0.9,-1.452,M,40.593,M,3.2,0123*69\r\n
$GPGGA,140440.70,5703.3724172,N,00952.2260814,E,2,11,0.9,-1.450,M,40.593,M,3.2,0123*6F\r\n
$GPGGA,140440.75,5703.3724407,N,00952.2261575,E,2,11,0.9,-1.447,M,40.593,M,3.2,0123*60\r\n
$GPGGA,140440.80,5703.3724653,N,00952.2262341,E,2,11,0.9,-1.443,M,40.593,M,3.2,0123*6F\r\n
$GPGGA,140440.85,5703.3724892,N,00952.2263115,E,2,11,0.9,-1.445,M,40.593,M,3.4,0123*6B\r\n
$GPGGA,140440.90,5703.3725125,N,00952.2263902,E,2,11,0.9,-1.447,M,40.593,M,3.4,0123*67\r\n
$GPGGA,140440.95,5703.3725366,N,00952.2264679,E,2,11,0.9,-1.447,M,40.593,M,3.4,0123*63\r\n
$GPGGA,140441.00,5703.3725613,N,00952.2265448,E,2,11,0.9,-1.448,M,40.593,M,3.4,0123*67\r\n
$GPGGA,140441.05,5703.3725849,N,00952.2266215,E,2,11,0.9,-1.457,M,40.593,M,3.6,0123*62\r\n
$GPGGA,140441.10,5703.3726089,N,00952.2266996,E,2,11,0.9,-1.460,M,40.593,M,3.6,0123*65\r\n
$GPGGA,140441.15,5703.3726330,N,00952.2267775,E,2,11,0.9,-1.464,M,40.593,M,3.6,0123*67\r\n
$GPGGA,140441.20,5703.3726569,N,00952.2268544,E,2,11,0.9,-1.466,M,40.593,M,3.6,0123*66\r\n
$GPGGA,140441.25,5703.3726816,N,00952.2269305,E,2,11,0.9,-1.463,M,40.593,M,1.6,0123*63\r\n
$GPGGA,140441.30,5703.3727051,N,00952.2270068,E,2,11,0.9,-1.464,M,40.593,M,1.6,0123*6A\r\n
$GPGGA,140441.35,5703.3727289,N,00952.2270839,E,2,11,0.9,-1.465,M,40.593,M,1.6,0123*65\r\n
$GPGGA,140441.40,5703.3727518,N,00952.2271596,E,2,11,0.9,-1.466,M,40.593,M,1.6,0123*62\r\n
$GPGGA,140441.45,5703.3727743,N,00952.2272366,E,2,11,0.9,-1.467,M,40.593,M,1.9,0123*6F\r\n
$GPGGA,140441.50,5703.3727976,N,00952.2273135,E,2,11,0.9,-1.466,M,40.593,M,1.9,0123*67\r\n
$GPGGA,140441.55,5703.3728205,N,00952.2273900,E,2,11,0.9,-1.466,M,40.593,M,1.9,0123*6C\r\n
$GPGGA,140441.60,5703.3728431,N,00952.2274667,E,2,11,0.9,-1.465,M,40.593,M,1.9,0123*61\r\n
$GPGGA,140441.65,5703.3728663,N,00952.2275435,E,2,11,0.9,-1.459,M,40.593,M,2.1,0123*61\r\n
$GPGGA,140441.70,5703.3728891,N,00952.2276200,E,2,11,0.9,-1.456,M,40.593,M,2.1,0123*6A\r\n
$GPGGA,140441.75,5703.3729112,N,00952.2276957,E,2,11,0.9,-1.452,M,40.593,M,2.1,0123*61\r\n
$GPGGA,140441.80,5703.3729327,N,00952.2277708,E,2,11,0.9,-1.448,M,40.593,M,2.1,0123*61\r\n
$GPGGA,140441.85,5703.3729547,N,00952.2278455,E,2,11,0.9,-1.440,M,40.593,M,2.3,0123*6A\r\n
$GPGGA,140441.90,5703.3729767,N,00952.2279208,E,2,11,0.9,-1.434,M,40.593,M,2.3,0123*62\r\n
$GPGGA,140441.95,5703.3729989,N,00952.2279952,E,2,11,0.9,-1.430,M,40.593,M,2.3,0123*69\r\n
$GPGGA,140442.00,5703.3730211,N,00952.2280702,E,2,11,0.9,-1.428,M,40.593,M,2.3,0123*60\r\n
$GPGGA,140442.05,5703.3730439,N,00952.2281452,E,2,11,0.9,-1.422,M,40.593,M,2.5,0123*62\r\n
$GPGGA,140442.10,5703.3730668,N,00952.2282204,E,2,11,0.9,-1.420,M,40.593,M,2.5,0123*64\r\n
$GPGGA,140442.15,5703.3730898,N,00952.2282951,E,2,11,0.9,-1.419,M,40.593,M,2.5,0123*61\r\n
$GPGGA,140442.20,5703.3731131,N,00952.2283688,E,2,11,0.9,-1.418,M,40.593,M,2.5,0123*67\r\n
$GPGGA,140442.25,5703.3731362,N,00952.2284431,E,2,11,0.9,-1.423,M,40.593,M,2.8,0123*64\r\n
$GPGGA,140442.30,5703.3731597,N,00952.2285177,E,2,11,0.9,-1.426,M,40.593,M,2.8,0123*6F\r\n
$GPGGA,140442.35,5703.3731830,N,00952.2285929,E,2,11,0.9,-1.432,M,40.593,M,2.8,0123*6C\r\n
$GPGGA,140442.40,5703.3732059,N,00952.2286676,E,2,11,0.9,-1.438,M,40.593,M,2.8,0123*66\r\n
$GPGGA,140442.45,5703.3732287,N,00952.2287422,E,2,11,0.9,-1.442,M,40.593,M,3.0,0123*64\r\n
$GPGGA,140442.50,5703.3732519,N,00952.2288163,E,2,11,0.9,-1.447,M,40.593,M,3.0,0123*6A\r\n
$GPGGA,140442.55,5703.3732752,N,00952.2288896,E,2,11,0.9,-1.447,M,40.593,M,3.0,0123*61\r\n
$GPGGA,140442.60,5703.3732978,N,00952.2289635,E,2,11,0.9,-1.449,M,40.593,M,3.0,0123*69\r\n
$GPGGA,140442.65,5703.3733202,N,00952.2290377,E,2,11,0.9,-1.455,M,40.593,M,3.2,0123*6F\r\n
$GPGGA,140442.70,5703.3733418,N,00952.2291108,E,2,11,0.9,-1.458,M,40.593,M,3.2,0123*60\r\n
$GPGGA,140442.75,5703.3733635,N,00952.2291835,E,2,11,0.9,-1.458,M,40.593,M,3.2,0123*6F\r\n
$GPGGA,140442.80,5703.3733849,N,00952.2292564,E,2,11,0.9,-1.456,M,40.593,M,3.2,0123*64\r\n
$GPGGA,140442.85,5703.3734063,N,00952.2293296,E,2,11,0.9,-1.454,M,40.593,M,3.4,0123*69\r\n
$GPGGA,140442.90,5703.3734280,N,00952.2294020,E,2,11,0.9,-1.451,M,40.593,M,3.4,0123*6F\r\n
$GPGGA,140442.95,5703.3734496,N,00952.2294744,E,2,11,0.9,-1.450,M,40.593,M,3.4,0123*6F\r\n
$GPGGA,140443.00,5703.3734709,N,00952.2295482,E,2,11,0.9,-1.446,M,40.593,M,3.4,0123*68\r\n
$GPGGA,140443.05,5703.3734927,N,00952.2296209,E,2,11,0.9,-1.442,M,40.593,M,3.6,0123*6F\r\n
$GPGGA,140443.10,5703.3735141,N,00952.2296941,E,2,11,0.9,-1.439,M,40.593,M,3.6,0123*69\r\n
$GPGGA,140443.15,5703.3735369,N,00952.2297666,E,2,11,0.9,-1.438,M,40.593,M,3.6,0123*6E\r\n
$GPGGA,140443.20,5703.3735596,N,00952.2298386,E,2,11,0.9,-1.437,M,40.593,M,3.6,0123*65\r\n
$GPGGA,140443.25,5703.3735817,N,00952.2299108,E,2,11,0.9,-1.439,M,40.593,M,2.0,0123*68\r\n
$GPGGA,140443.30,5703.3736048,N,00952.2299826,E,2,11,0.9,-1.438,M,40.593,M,2.0,0123*69\r\n
$GPGGA,140443.35,5703.3736263,N,00952.2300556,E,2,11,0.9,-1.437,M,40.593,M,2.0,0123*63\r\n
$GPGGA,140443.40,5703.3736473,N,00952.2301277,E,2,11,0.9,-1.438,M,40.593,M,2.0,0123*6C\r\n
$GPGGA,140443.45,5703.3736691,N,00952.2301979,E,2,11,0.9,-1.438,M,40.593,M,2.3,0123*61\r\n
$GPGGA,140443.50,5703.3736918,N,00952.2302682,E,2,11,0.9,-1.435,M,40.593,M,2.3,0123*6E\r\n
$GPGGA,140443.55,5703.3737129,N,00952.2303392,E,2,11,0.9,-1.432,M,40.593,M,2.3,0123*62\r\n
$GPGGA,140443.60,5703.3737339,N,00952.2304101,E,2,11,0.9,-1.430,M,40.593,M,2.3,0123*6A\r\n
$GPGGA,140443.65,5703.3737562,N,00952.2304806,E,2,11,0.9,-1.424,M,40.593,M,2.5,0123*6A\r\n
$GPGGA,140443.70,5703.3737776,N,00952.2305530,E,2,11,0.9,-1.422,M,40.593,M,2.5,0123*66\r\n
$GPGGA,140443.75,5703.3737990,N,00952.2306235,E,2,11,0.9,-1.421,M,40.593,M,2.5,0123*67\r\n
$GPGGA,140443.80,5703.3738197,N,00952.2306959,E,2,11,0.9,-1.419,M,40.593,M,2.5,0123*67\r\n
$GPGGA,140443.85,5703.3738418,N,00952.2307666,E,2,11,0.9,-1.418,M,40.593,M,2.7,0123*61\r\n
$GPGGA,140443.90,5703.3738640,N,00952.2308372,E,2,11,0.9,-1.419,M,40.593,M,2.7,0123*64\r\n
$GPGGA,140443.95,5703.3738850,N,00952.2309086,E,2,11,0.9,-1.424,M,40.593,M,2.7,0123*69\r\n
$GPGGA,140444.00,5703.3739070,N,00952.2309802,E,2,11,0.9,-1.425,M,40.593,M,2.7,0123*6C\r\n
$GPGGA,140444.05,5703.3739288,N,00952.2310503,E,2,11,0.9,-1.427,M,40.593,M,3.0,0123*6C\r\n
$GPGGA,140444.10,5703.3739508,N,00952.2311214,E,2,11,0.9,-1.431,M,40.593,M,3.0,0123*60\r\n
$GPGGA,140444.15,5703.3739731,N,00952.2311904,E,2,11,0.9,-1.436,M,40.593,M,3.0,0123*60\r\n
$GPGGA,140444.20,5703.3739951,N,00952.2312607,E,2,11,0.9,-1.439,M,40.593,M,3.0,0123*6E\r\n
$GPGGA,140444.25,5703.3740172,N,00952.2313319,E,2,11,0.9,-1.445,M,40.593,M,2.7,0123*6A\r\n
$GPGGA,140444.30,5703.3740396,N,00952.2314019,E,2,11,0.9,-1.450,M,40.593,M,2.7,0123*66\r\n
$GPGGA,140444.35,5703.3740634,N,00952.2314714,E,2,11,0.9,-1.455,M,40.593,M,2.7,0123*61\r\n
$GPGGA,140444.40,5703.3740871,N,00952.2315419,E,2,11,0.9,-1.460,M,40.593,M,2.7,0123*65\r\n
$GPGGA,140444.45,5703.3741120,N,00952.2316112,E,2,11,0.9,-1.459,M,40.593,M,2.9,0123*65\r\n
$GPGGA,140444.50,5703.3741356,N,00952.2316812,E,2,11,0.9,-1.463,M,40.593,M,2.9,0123*62\r\n
$GPGGA,140444.55,5703.3741594,N,00952.2317521,E,2,11,0.9,-1.466,M,40.593,M,2.9,0123*66\r\n
$GPGGA,140444.60,5703.3741816,N,00952.2318209,E,2,11,0.9,-1.467,M,40.593,M,2.9,0123*64\r\n
$GPGGA,140444.65,5703.3742030,N,00952.2318904,E,2,11,0.9,-1.467,M,40.593,M,3.2,0123*62\r\n
$GPGGA,140444.70,5703.3742244,N,00952.2319592,E,2,11,0.9,-1.465,M,40.593,M,3.2,0123*67\r\n
$GPGGA,140444.75,5703.3742455,N,00952.2320267,E,2,11,0.9,-1.459,M,40.593,M,3.2,0123*6C\r\n
$GPGGA,140444.80,5703.3742664,N,00952.2320949,E,2,11,0.9,-1.453,M,40.593,M,3.2,0123*6B\r\n
$GPGGA,140444.85,5703.3742878,N,00952.2321640,E,2,11,0.9,-1.446,M,40.593,M,3.4,0123*68\r\n
$GPGGA,140444.90,5703.3743094,N,00952.2322323,E,2,11,0.9,-1.439,M,40.593,M,3.4,0123*6C\r\n
$GPGGA,140444.95,5703.3743305,N,00952.2323010,E,2,11,0.9,-1.433,M,40.593,M,3.4,0123*6A\r\n
$GPGGA,140445.00,5703.3743515,N,00952.2323704,E,2,11,0.9,-1.425,M,40.593,M,3.4,0123*65\r\n
$GPGGA,140445.05,5703.3743733,N,00952.2324377,E,2,11,0.9,-1.417,M,40.593,M,3.6,0123*62\r\n
$GPGGA,140445.10,5703.3743951,N,00952.2325074,E,2,11,0.9,-1.410,M,40.593,M,3.6,0123*6A\r\n
$GPGGA,140445.15,5703.3744173,N,00952.2325765,E,2,11,0.9,-1.407,M,40.593,M,3.6,0123*61\r\n
$GPGGA,140445.20,5703.3744387,N,00952.2326444,E,2,11,0.9,-1.405,M,40.593,M,3.6,0123*6F\r\n
$GPGGA,140445.25,5703.3744602,N,00952.2327132,E,2,11,0.9,-1.410,M,40.593,M,1.6,0123*61\r\n
$GPGGA,140445.30,5703.3744821,N,00952.2327822,E,2,11,0.9,-1.411,M,40.593,M,1.6,0123*63\r\n
$GPGGA,140445.35,5703.3745049,N,00952.2328513,E,2,11,0.9,-1.414,M,40.593,M,1.6,0123*64\r\n
$GPGGA,140445.40,5703.3745282,N,00952.2329195,E,2,11,0.9,-1.421,M,40.593,M,1.6,0123*6E\r\n
$GPGGA,140445.45,5703.3745528,N,00952.2329873,E,2,11,0.9,-1.421,M,40.593,M,1.9,0123*62\r\n
$GPGGA,140445.50,5703.3745760,N,00952.2330561,E,2,11,0.9,-1.428,M,40.593,M,1.9,0123*67\r\n
$GPGGA,140445.55,5703.3745998,N,00952.2331236,E,2,11,0.9,-1.432,M,40.593,M,1.9,0123*64\r\n
$GPGGA,140445.60,5703.3746244,N,00952.2331902,E,2,11,0.9,-1.436,M,40.593,M,1.9,0123*63\r\n
$GPGGA,140445.65,5703.3746487,N,00952.2332557,E,2,11,0.9,-1.446,M,40.593,M,2.1,0123*6C\r\n
$GPGGA,140445.70,5703.3746722,N,00952.2333209,E,2,11,0.9,-1.449,M,40.593,M,2.1,0123*66\r\n
$GPGGA,140445.75,5703.3746945,N,00952.2333860,E,2,11,0.9,-1.452,M,40.593,M,2.1,0123*63\r\n
$GPGGA,140445.80,5703.3747181,N,00952.2334518,E,2,11,0.9,-1.453,M,40.593,M,2.1,0123*6C\r\n
$GPGGA,140445.85,5703.3747436,N,00952.2335158,E,2,11,0.9,-1.449,M,40.593,M,2.3,0123*68\r\n
$GPGGA,140445.90,5703.3747661,N,00952.2335805,E,2,11,0.9,-1.448,M,40.593,M,2.3,0123*6C\r\n
$GPGGA,140445.95,5703.3747890,N,00952.2336455,E,2,11,0.9,-1.445,M,40.593,M,2.3,0123*6E\r\n
$GPGGA,140446.00,5703.3748112,N,00952.2337101,E,2,11,0.9,-1.445,M,40.593,M,2.3,0123*68\r\n
$GPGGA,140446.05,5703.3748335,N,00952.2337750,E,2,11,0.9,-1.445,M,40.593,M,2.5,0123*6E\r\n
$GPGGA,140446.10,5703.3748570,N,00952.2338397,E,2,11,0.9,-1.442,M,40.593,M,2.5,0123*6A\r\n
$GPGGA,140446.15,5703.3748806,N,00952.2339051,E,2,11,0.9,-1.437,M,40.593,M,2.5,0123*69\r\n
$GPGGA,140446.20,5703.3749031,N,00952.2339707,E,2,11,0.9,-1.434,M,40.593,M,2.5,0123*65\r\n
$GPGGA,140446.25,5703.3749251,N,00952.2340377,E,2,11,0.9,-1.435,M,40.593,M,2.8,0123*65\r\n
$GPGGA,140446.30,5703.3749483,N,00952.2341031,E,2,11,0.9,-1.434,M,40.593,M,2.8,0123*69\r\n
$GPGGA,140446.35,5703.3749710,N,00952.2341683,E,2,11,0.9,-1.433,M,40.593,M,2.8,0123*6D\r\n
$GPGGA,140446.40,5703.3749940,N,00952.2342335,E,2,11,0.9,-1.430,M,40.593,M,2.8,0123*6C\r\n
$GPGGA,140446.45,5703.3750160,N,00952.2342987,E,2,11,0.9,-1.430,M,40.593,M,3.0,0123*61\r\n
$GPGGA,140446.50,5703.3750388,N,00952.2343630,E,2,11,0.9,-1.429,M,40.593,M,3.0,0123*6B\r\n
$GPGGA,140446.55,5703.3750607,N,00952.2344286,E,2,11,0.9,-1.428,M,40.593,M,3.0,0123*63\r\n
$GPGGA,140446.60,5703.3750839,N,00952.2344944,E,2,11,0.9,-1.428,M,40.593,M,3.0,0123*63\r\n
$GPGGA,140446.65,5703.3751060,N,00952.2345597,E,2,11,0.9,-1.434,M,40.593,M,3.2,0123*6F\r\n
$GPGGA,140446.70,5703.3751291,N,00952.2346243,E,2,11,0.9,-1.436,M,40.593,M,3.2,0123*68\r\n
$GPGGA,140446.75,5703.3751530,N,00952.2346886,E,2,11,0.9,-1.437,M,40.593,M,3.2,0123*63\r\n
$GPGGA,140446.80,5703.3751763,N,00952.2347531,E,2,11,0.9,-1.438,M,40.593,M,3.2,0123*62\r\n
$GPGGA,140446.85,5703.3752012,N,00952.2348156,E,2,11,0.9,-1.433,M,40.593,M,3.4,0123*62\r\n
$GPGGA,140446.90,5703.3752242,N,00952.2348787,E,2,11,0.9,-1.434,M,40.593,M,3.4,0123*6C\r\n
$GPGGA,140446.95,5703.3752482,N,00952.2349418,E,2,11,0.9,-1.434,M,40.593,M,3.4,0123*67\r\n
$GPGGA,140447.00,5703.3752726,N,00952.2350032,E,2,11,0.9,-1.433,M,40.593,M,3.4,0123*64\r\n
$GPGGA,140447.05,5703.3752959,N,00952.2350642,E,2,11,0.9,-1.435,M,40.593,M,3.6,0123*62\r\n
$GPGGA,140447.10,5703.3753201,N,00952.2351262,E,2,11,0.9,-1.435,M,40.593,M,3.6,0123*66\r\n
$GPGGA,140447.15,5703.3753429,N,00952.2351884,E,2,11,0.9,-1.434,M,40.593,M,3.6,0123*6C\r\n
$GPGGA,140447.20,5703.3753666,N,00952.2352514,E,2,11,0.9,-1.431,M,40.593,M,3.6,0123*61\r\n
$GPGGA,140447.25,5703.3753908,N,00952.2353135,E,2,11,0.9,-1.424,M,40.593,M,2.0,0123*66\r\n
$GPGGA,140447.30,5703.3754150,N,00952.2353748,E,2,11,0.9,-1.421,M,40.593,M,2.0,0123*69\r\n
$GPGGA,140447.35,5703.3754392,N,00952.2354358,E,2,11,0.9,-1.419,M,40.593,M,2.0,0123*69\r\n
$GPGGA,140447.40,5703.3754632,N,00952.2354972,E,2,11,0.9,-1.419,M,40.593,M,2.0,0123*66\r\n
$GPGGA,140447.45,5703.3754849,N,00952.2355605,E,2,11,0.9,-1.424,M,40.593,M,2.3,0123*62\r\n
$GPGGA,140447.50,5703.3755073,N,00952.2356235,E,2,11,0.9,-1.426,M,40.593,M,2.3,0123*60\r\n
$GPGGA,140447.55,5703.3755313,N,00952.2356865,E,2,11,0.9,-1.428,M,40.593,M,2.3,0123*61\r\n
$GPGGA,140447.60,5703.3755559,N,00952.2357482,E,2,11,0.9,-1.432,M,40.593,M,2.3,0123*60\r\n
$GPGGA,140447.65,5703.3755801,N,00952.2358117,E,2,11,0.9,-1.436,M,40.593,M,2.5,0123*61\r\n
$GPGGA,140447.70,5703.3756041,N,00952.2358737,E,2,11,0.9,-1.442,M,40.593,M,2.5,0123*6D\r\n
$GPGGA,140447.75,5703.3756289,N,00952.2359368,E,2,11,0.9,-1.446,M,40.593,M,2.5,0123*65\r\n
$GPGGA,140447.80,5703.3756539,N,00952.2359995,E,2,11,0.9,-1.451,M,40.593,M,2.5,0123*6D\r\n
$GPGGA,140447.85,5703.3756782,N,00952.2360615,E,2,11,0.9,-1.454,M,40.593,M,2.7,0123*60\r\n
$GPGGA,140447.90,5703.3757028,N,00952.2361229,E,2,11,0.9,-1.455,M,40.593,M,2.7,0123*69\r\n
$GPGGA,140447.95,5703.3757269,N,00952.2361842,E,2,11,0.9,-1.453,M,40.593,M,2.7,0123*6A\r\n
$GPGGA,140448.00,5703.3757494,N,00952.2362460,E,2,11,0.9,-1.452,M,40.593,M,2.7,0123*63\r\n
$GPGGA,140448.05,5703.3757728,N,00952.2363077,E,2,11,0.9,-1.448,M,40.593,M,3.0,0123*6C\r\n
$GPGGA,140448.10,5703.3757952,N,00952.2363684,E,2,11,0.9,-1.443,M,40.593,M,3.0,0123*6A\r\n
$GPGGA,140448.15,5703.3758175,N,00952.2364291,E,2,11,0.9,-1.438,M,40.593,M,3.0,0123*66\r\n
$GPGGA,140448.20,5703.3758410,N,00952.2364885,E,2,11,0.9,-1.431,M,40.593,M,3.0,0123*60\r\n
$GPGGA,140448.25,5703.3758630,N,00952.2365476,E,2,11,0.9,-1.425,M,40.593,M,2.7,0123*67\r\n
$GPGGA,140448.30,5703.3758851,N,00952.2366078,E,2,11,0.9,-1.419,M,40.593,M,2.7,0123*6C\r\n
$GPGGA,140448.35,5703.3759068,N,00952.2366701,E,2,11,0.9,-1.414,M,40.593,M,2.7,0123*6E\r\n
$GPGGA,140448.40,5703.3759304,N,00952.2367312,E,2,11,0.9,-1.409,M,40.593,M,2.7,0123*6E\r\n
$GPGGA,140448.45,5703.3759536,N,00952.2367923,E,2,11,0.9,-1.404,M,40.593,M,2.9,0123*67\r\n
$GPGGA,140448.50,5703.3759768,N,00952.2368526,E,2,11,0.9,-1.401,M,40.593,M,2.9,0123*69\r\n
$GPGGA,140448.55,5703.3760010,N,00952.2369136,E,2,11,0.9,-1.400,M,40.593,M,2.9,0123*6B\r\n
$GPGGA,140448.60,5703.3760258,N,00952.2369745,E,2,11,0.9,-1.402,M,40.593,M,2.9,0123*63\r\n
$GPGGA,140448.65,5703.3760508,N,00952.2370340,E,2,11,0.9,-1.408,M,40.593,M,3.2,0123*6D\r\n
$GPGGA,140448.70,5703.3760761,N,00952.2370942,E,2,11,0.9,-1.415,M,40.593,M,3.2,0123*60\r\n
$GPGGA,140448.75,5703.3761011,N,00952.2371556,E,2,11,0.9,-1.421,M,40.593,M,3.2,0123*6B\r\n
$GPGGA,140448.80,5703.3761262,N,00952.2372156,E,2,11,0.9,-1.427,M,40.593,M,3.2,0123*66\r\n
$GPGGA,140448.85,5703.3761511,N,00952.2372748,E,2,11,0.9,-1.432,M,40.593,M,3.4,0123*6B\r\n
$GPGGA,140448.90,5703.3761755,N,00952.2373351,E,2,11,0.9,-1.435,M,40.593,M,3.4,0123*67\r\n
$GPGGA,140448.95,5703.3761992,N,00952.2373941,E,2,11,0.9,-1.438,M,40.593,M,3.4,0123*61\r\n
$GPGGA,140449.00,5703.3762224,N,00952.2374543,E,2,11,0.9,-1.442,M,40.593,M,3.4,0123*6D\r\n
$GPGGA,140449.05,5703.3762454,N,00952.2375125,E,2,11,0.9,-1.447,M,40.593,M,3.6,0123*6B\r\n
$GPGGA,140449.10,5703.3762693,N,00952.2375709,E,2,11,0.9,-1.448,M,40.593,M,3.6,0123*61\r\n
$GPGGA,140449.15,5703.3762913,N,00952.2376306,E,2,11,0.9,-1.448,M,40.593,M,3.6,0123*6B\r\n
$GPGGA,140449.20,5703.3763147,N,00952.2376895,E,2,11,0.9,-1.444,M,40.593,M,3.6,0123*68\r\n
$GPGGA,140449.25,5703.3763369,N,00952.2377483,E,2,11,0.9,-1.441,M,40.593,M,1.6,0123*6E\r\n
$GPGGA,140449.30,5703.3763606,N,00952.2378071,E,2,11,0.9,-1.438,M,40.593,M,1.6,0123*6E\r\n
$GPGGA,140449.35,5703.3763831,N,00952.2378657,E,2,11,0.9,-1.436,M,40.593,M,1.6,0123*6D\r\n
$GPGGA,140449.40,5703.3764055,N,00952.2379255,E,2,11,0.9,-1.434,M,40.593,M,1.6,0123*67\r\n
$GPGGA,140449.45,5703.3764279,N,00952.2379852,E,2,11,0.9,-1.433,M,40.593,M,1.9,0123*6B\r\n
$GPGGA,140449.50,5703.3764512,N,00952.2380461,E,2,11,0.9,-1.430,M,40.593,M,1.9,0123*6C\r\n
$GPGGA,140449.55,5703.3764736,N,00952.2381059,E,2,11,0.9,-1.430,M,40.593,M,1.9,0123*63\r\n
$GPGGA,140449.60,5703.3764963,N,00952.2381667,E,2,11,0.9,-1.428,M,40.593,M,1.9,0123*69\r\n
$GPGGA,140449.65,5703.3765186,N,00952.2382271,E,2,11,0.9,-1.427,M,40.593,M,2.1,0123*6A\r\n
$GPGGA,140449.70,5703.3765408,N,00952.2382884,E,2,11,0.9,-1.427,M,40.593,M,2.1,0123*6D\r\n
$GPGGA,140449.75,5703.3765632,N,00952.2383480,E,2,11,0.9,-1.428,M,40.593,M,2.1,0123*65\r\n
$GPGGA,140449.80,5703.3765856,N,00952.2384087,E,2,11,0.9,-1.428,M,40.593,M,2.1,0123*67\r\n
$GPGGA,140449.85,5703.3766076,N,00952.2384706,E,2,11,0.9,-1.429,M,40.593,M,2.3,0123*66\r\n
$GPGGA,140449.90,5703.3766302,N,00952.2385327,E,2,11,0.9,-1.430,M,40.593,M,2.3,0123*6C\r\n
$GPGGA,140449.95,5703.3766533,N,00952.2385942,E,2,11,0.9,-1.432,M,40.593,M,2.3,0123*66\r\n
$GPGGA,140450.00,5703.3766752,N,00952.2386544,E,2,11,0.9,-1.434,M,40.593,M,2.3,0123*68\r\n
$GPGGA,140450.05,5703.3766975,N,00952.2387158,E,2,11,0.9,-1.435,M,40.593,M,2.5,0123*69\r\n
$GPGGA,140450.10,5703.3767192,N,00952.2387751,E,2,11,0.9,-1.438,M,40.593,M,2.5,0123*6F\r\n
$GPGGA,140450.15,5703.3767417,N,00952.2388344,E,2,11,0.9,-1.437,M,40.593,M,2.5,0123*62\r\n
$GPGGA,140450.20,5703.3767642,N,00952.2388928,E,2,11,0.9,-1.435,M,40.593,M,2.5,0123*64\r\n
$GPGGA,140450.25,5703.3767863,N,00952.2389510,E,2,11,0.9,-1.433,M,40.593,M,2.8,0123*61\r\n
$GPGGA,140450.30,5703.3768087,N,00952.2390093,E,2,11,0.9,-1.431,M,40.593,M,2.8,0123*6C\r\n
$GPGGA,140450.35,5703.3768318,N,00952.2390686,E,2,11,0.9,-1.427,M,40.593,M,2.8,0123*69\r\n
$GPGGA,140450.40,5703.3768543,N,00952.2391275,E,2,11,0.9,-1.426,M,40.593,M,2.8,0123*6B\r\n
$GPGGA,140450.45,5703.3768765,N,00952.2391864,E,2,11,0.9,-1.426,M,40.593,M,3.0,0123*6B\r\n
$GPGGA,140450.50,5703.3769005,N,00952.2392445,E,2,11,0.9,-1.426,M,40.593,M,3.0,0123*63\r\n
$GPGGA,140450.55,5703.3769249,N,00952.2393025,E,2,11,0.9,-1.427,M,40.593,M,3.0,0123*6E\r\n
$GPGGA,140450.60,5703.3769485,N,00952.2393616,E,2,11,0.9,-1.431,M,40.593,M,3.0,0123*6F\r\n
$GPGGA,140450.65,5703.3769719,N,00952.2394213,E,2,11,0.9,-1.434,M,40.593,M,3.2,0123*6D\r\n
$GPGGA,140450.70,5703.3769938,N,00952.2394829,E,2,11,0.9,-1.440,M,40.593,M,3.2,0123*64\r\n
$GPGGA,140450.75,5703.3770167,N,00952.2395447,E,2,11,0.9,-1.445,M,40.593,M,3.2,0123*6B\r\n
$GPGGA,140450.80,5703.3770407,N,00952.2396053,E,2,11,0.9,-1.447,M,40.593,M,3.2,0123*62\r\n
$GPGGA,140450.85,5703.3770641,N,00952.2396653,E,2,11,0.9,-1.449,M,40.593,M,3.4,0123*69\r\n
$GPGGA,140450.90,5703.3770865,N,00952.2397266,E,2,11,0.9,-1.450,M,40.593,M,3.4,0123*6E\r\n
$GPGGA,140450.95,5703.3771070,N,00952.2397893,E,2,11,0.9,-1.453,M,40.593,M,3.4,0123*65\r\n
$GPGGA,140451.00,5703.3771272,N,00952.2398520,E,2,11,0.9,-1.456,M,40.593,M,3.4,0123*67\r\n
$GPGGA,140451.05,5703.3771474,N,00952.2399141,E,2,11,0.9,-1.456,M,40.593,M,3.6,0123*62\r\n
$GPGGA,140451.10,5703.3771686,N,00952.2399740,E,2,11,0.9,-1.453,M,40.593,M,3.6,0123*6B\r\n
$GPGGA,140451.15,5703.3771886,N,00952.2400337,E,2,11,0.9,-1.451,M,40.593,M,3.6,0123*61\r\n
$GPGGA,140451.20,5703.3772091,N,00952.2400928,E,2,11,0.9,-1.447,M,40.593,M,3.6,0123*69\r\n
$GPGGA,140451.25,5703.3772298,N,00952.2401522,E,2,11,0.9,-1.441,M,40.593,M,2.0,0123*61\r\n
$GPGGA,140451.30,5703.3772503,N,00952.2402108,E,2,11,0.9,-1.434,M,40.593,M,2.0,0123*6D\r\n
$GPGGA,140451.35,5703.3772715,N,00952.2402704,E,2,11,0.9,-1.426,M,40.593,M,2.0,0123*64\r\n
$GPGGA,140451.40,5703.3772916,N,00952.2403308,E,2,11,0.9,-1.421,M,40.593,M,2.0,0123*65\r\n
$GPGGA,140451.45,5703.3773143,N,00952.2403889,E,2,11,0.9,-1.411,M,40.593,M,2.3,0123*6B\r\n
$GPGGA,140451.50,5703.3773368,N,00952.2404456,E,2,11,0.9,-1.407,M,40.593,M,2.3,0123*6A\r\n
$GPGGA,140451.55,5703.3773597,N,00952.2405032,E,2,11,0.9,-1.404,M,40.593,M,2.3,0123*6D\r\n
$GPGGA,140451.60,5703.3773826,N,00952.2405623,E,2,11,0.9,-1.402,M,40.593,M,2.3,0123*6C\r\n
$GPGGA,140451.65,5703.3774048,N,00952.2406215,E,2,11,0.9,-1.407,M,40.593,M,2.5,0123*6F\r\n
$GPGGA,140451.70,5703.3774282,N,00952.2406814,E,2,11,0.9,-1.410,M,40.593,M,2.5,0123*62\r\n
$GPGGA,140451.75,5703.3774506,N,00952.2407415,E,2,11,0.9,-1.412,M,40.593,M,2.5,0123*62\r\n
$GPGGA,140451.80,5703.3774721,N,00952.2408031,E,2,11,0.9,-1.418,M,40.593,M,2.5,0123*68\r\n
$GPGGA,140451.85,5703.3774943,N,00952.2408656,E,2,11,0.9,-1.424,M,40.593,M,2.7,0123*6D\r\n
$GPGGA,140451.90,5703.3775166,N,00952.2409283,E,2,11,0.9,-1.429,M,40.593,M,2.7,0123*67\r\n
$GPGGA,140451.95,5703.3775382,N,00952.2409887,E,2,11,0.9,-1.434,M,40.593,M,2.7,0123*68\r\n
$GPGGA,140452.00,5703.3775584,N,00952.2410499,E,2,11,0.9,-1.441,M,40.593,M,2.7,0123*6E\r\n
$GPGGA,140452.05,5703.3775791,N,00952.2411112,E,2,11,0.9,-1.451,M,40.593,M,3.0,0123*6D\r\n
$GPGGA,140452.10,5703.3776009,N,00952.2411722,E,2,11,0.9,-1.455,M,40.593,M,3.0,0123*6D\r\n
$GPGGA,140452.15,5703.3776229,N,00952.2412320,E,2,11,0.9,-1.455,M,40.593,M,3.0,0123*6D\r\n
