$GPGGA,140745.55,5703.4090171,N,00952.3158395,E,2,11,0.9,-1.579,M,40.593,M,1.9,0123*6A\r\n
$GPGGA,140745.60,5703.4090413,N,00952.3158818,E,2,11,0.9,-1.566,M,40.593,M,1.9,0123*6D\r\n
$GPGGA,140745.65,5703.4090650,N,00952.3159245,E,2,11,0.9,-1.553,M,40.593,M,2.1,0123*63\r\n
$GPGGA,140745.70,5703.4090897,N,00952.3159686,E,2,11,0.9,-1.541,M,40.593,M,2.1,0123*6A\r\n
$GPGGA,140745.75,5703.4091155,N,00952.3160137,E,2,11,0.9,-1.532,M,40.593,M,2.1,0123*6A\r\n
$GPGGA,140745.80,5703.4091413,N,00952.3160566,E,2,11,0.9,-1.525,M,40.593,M,2.1,0123*61\r\n
$GPGGA,140745.85,5703.4091681,N,00952.3160987,E,2,11,0.9,-1.520,M,40.593,M,2.3,0123*69\r\n
$GPGGA,140745.90,5703.4091948,N,00952.3161430,E,2,11,0.9,-1.521,M,40.593,M,2.3,0123*66\r\n
$GPGGA,140745.95,5703.4092221,N,00952.3161884,E,2,11,0.9,-1.524,M,40.593,M,2.3,0123*62\r\n
$GPGGA,140746.00,5703.4092505,N,00952.3162352,E,2,11,0.9,-1.533,M,40.593,M,2.3,0123*69\r\n
$GPGGA,140746.05,5703.4092784,N,00952.3162848,E,2,11,0.9,-1.549,M,40.593,M,2.5,0123*6C\r\n
$GPGGA,140746.10,5703.4093066,N,00952.3163327,E,2,11,0.9,-1.562,M,40.593,M,2.5,0123*68\r\n
$GPGGA,140746.15,5703.4093355,N,00952.3163801,E,2,11,0.9,-1.577,M,40.593,M,2.5,0123*65\r\n
$GPGGA,140746.20,5703.4093634,N,00952.3164289,E,2,11,0.9,-1.595,M,40.593,M,2.5,0123*60\r\n
$GPGGA,140746.25,5703.4093900,N,00952.3164788,E,2,11,0.9,-1.616,M,40.593,M,2.8,0123*6C\r\n
$GPGGA,140746.30,5703.4094185,N,00952.3165228,E,2,11,0.9,-1.624,M,40.593,M,2.8,0123*65\r\n
$GPGGA,140746.35,5703.4094444,N,00952.3165678,E,2,11,0.9,-1.631,M,40.593,M,2.8,0123*6D\r\n
$GPGGA,140746.40,5703.4094687,N,00952.3166122,E,2,11,0.9,-1.633,M,40.593,M,2.8,0123*6B\r\n
$GPGGA,140746.45,5703.4094925,N,00952.3166557,E,2,11,0.9,-1.629,M,40.593,M,3.0,0123*6D\r\n
$GPGGA,140746.50,5703.4095154,N,00952.3166996,E,2,11,0.9,-1.623,M,40.593,M,3.0,0123*6D\r\n
$GPGGA,140746.55,5703.4095383,N,00952.3167415,E,2,11,0.9,-1.612,M,40.593,M,3.0,0123*65\r\n
$GPGGA,140746.60,5703.4095623,N,00952.3167821,E,2,11,0.9,-1.599,M,40.593,M,3.0,0123*67\r\n
$GPGGA,140746.65,5703.4095855,N,00952.3168226,E,2,11,0.9,-1.584,M,40.593,M,3.2,0123*61\r\n
$GPGGA,140746.70,5703.4096079,N,00952.3168654,E,2,11,0.9,-1.570,M,40.593,M,3.2,0123*6A\r\n
$GPGGA,140746.75,5703.4096310,N,00952.3169087,E,2,11,0.9,-1.555,M,40.593,M,3.2,0123*6D\r\n
$GPGGA,140746.80,5703.4096546,N,00952.3169509,E,2,11,0.9,-1.540,M,40.593,M,3.2,0123*65\r\n
$GPGGA,140746.85,5703.4096784,N,00952.3169936,E,2,11,0.9,-1.525,M,40.593,M,3.4,0123*69\r\n
$GPGGA,140746.90,5703.4097031,N,00952.3170358,E,2,11,0.9,-1.516,M,40.593,M,3.4,0123*6F\r\n
$GPGGA,140746.95,5703.4097289,N,00952.3170785,E,2,11,0.9,-1.509,M,40.593,M,3.4,0123*61\r\n
$GPGGA,140747.00,5703.4097549,N,00952.3171234,E,2,11,0.9,-1.507,M,40.593,M,3.4,0123*67\r\n
$GPGGA,140747.05,5703.4097810,N,00952.3171711,E,2,11,0.9,-1.514,M,40.593,M,3.6,0123*61\r\n
$GPGGA,140747.10,5703.4098088,N,00952.3172183,E,2,11,0.9,-1.523,M,40.593,M,3.6,0123*69\r\n
$GPGGA,140747.15,5703.4098350,N,00952.3172670,E,2,11,0.9,-1.538,M,40.593,M,3.6,0123*6B\r\n
$GPGGA,140747.20,5703.4098618,N,00952.3173144,E,2,11,0.9,-1.556,M,40.593,M,3.6,0123*6D\r\n
$GPGGA,140747.25,5703.4098890,N,00952.3173637,E,2,11,0.9,-1.581,M,40.593,M,2.0,0123*68\r\n
$GPGGA,140747.30,5703.4099142,N,00952.3174128,E,2,11,0.9,-1.600,M,40.593,M,2.0,0123*6F\r\n
$GPGGA,140747.35,5703.4099407,N,00952.3174594,E,2,11,0.9,-1.612,M,40.593,M,2.0,0123*6E\r\n
$GPGGA,140747.40,5703.4099672,N,00952.3175033,E,2,11,0.9,-1.617,M,40.593,M,2.0,0123*60\r\n
$GPGGA,140747.45,5703.4099927,N,00952.3175453,E,2,11,0.9,-1.622,M,40.593,M,2.3,0123*6D\r\n
$GPGGA,140747.50,5703.4100166,N,00952.3175890,E,2,11,0.9,-1.628,M,40.593,M,2.3,0123*6C\r\n
$GPGGA,140747.55,5703.4100402,N,00952.3176324,E,2,11,0.9,-1.629,M,40.593,M,2.3,0123*68\r\n
$GPGGA,140747.60,5703.4100641,N,00952.3176764,E,2,11,0.9,-1.626,M,40.593,M,2.3,0123*64\r\n
$GPGGA,140747.65,5703.4100871,N,00952.3177184,E,2,11,0.9,-1.618,M,40.593,M,2.5,0123*6E\r\n
$GPGGA,140747.70,5703.4101106,N,00952.3177583,E,2,11,0.9,-1.609,M,40.593,M,2.5,0123*61\r\n
$GPGGA,140747.75,5703.4101345,N,00952.3177989,E,2,11,0.9,-1.596,M,40.593,M,2.5,0123*62\r\n
$GPGGA,140747.80,5703.4101583,N,00952.3178391,E,2,11,0.9,-1.582,M,40.593,M,2.5,0123*6D\r\n
$GPGGA,140747.85,5703.4101820,N,00952.3178798,E,2,11,0.9,-1.565,M,40.593,M,2.7,0123*6A\r\n
$GPGGA,140747.90,5703.4102058,N,00952.3179227,E,2,11,0.9,-1.552,M,40.593,M,2.7,0123*6E\r\n
$GPGGA,140747.95,5703.4102296,N,00952.3179663,E,2,11,0.9,-1.542,M,40.593,M,2.7,0123*6E\r\n
$GPGGA,140748.00,5703.4102536,N,00952.3180087,E,2,11,0.9,-1.529,M,40.593,M,2.7,0123*67\r\n
$GPGGA,140748.05,5703.4102775,N,00952.3180535,E,2,11,0.9,-1.523,M,40.593,M,3.0,0123*67\r\n
$GPGGA,140748.10,5703.4103022,N,00952.3180966,E,2,11,0.9,-1.519,M,40.593,M,3.0,0123*64\r\n
$GPGGA,140748.15,5703.4103273,N,00952.3181426,E,2,11,0.9,-1.521,M,40.593,M,3.0,0123*64\r\n
$GPGGA,140748.20,5703.4103534,N,00952.3181899,E,2,11,0.9,-1.525,M,40.593,M,3.0,0123*6A\r\n
$GPGGA,140748.25,5703.4103795,N,00952.3182374,E,2,11,0.9,-1.534,M,40.593,M,2.7,0123*6B\r\n
$GPGGA,140748.30,5703.4104064,N,00952.3182848,E,2,11,0.9,-1.543,M,40.593,M,2.7,0123*65\r\n
$GPGGA,140748.35,5703.4104328,N,00952.3183321,E,2,11,0.9,-1.556,M,40.593,M,2.7,0123*6A\r\n
$GPGGA,140748.40,5703.4104584,N,00952.3183806,E,2,11,0.9,-1.569,M,40.593,M,2.7,0123*6A\r\n
$GPGGA,140748.45,5703.4104844,N,00952.3184276,E,2,11,0.9,-1.584,M,40.593,M,2.9,0123*69\r\n
$GPGGA,140748.50,5703.4105104,N,00952.3184723,E,2,11,0.9,-1.590,M,40.593,M,2.9,0123*61\r\n
$GPGGA,140748.55,5703.4105358,N,00952.3185149,E,2,11,0.9,-1.596,M,40.593,M,2.9,0123*62\r\n
$GPGGA,140748.60,5703.4105611,N,00952.3185556,E,2,11,0.9,-1.597,M,40.593,M,2.9,0123*67\r\n
$GPGGA,140748.65,5703.4105857,N,00952.3185973,E,2,11,0.9,-1.600,M,40.593,M,3.2,0123*62\r\n
$GPGGA,140748.70,5703.4106094,N,00952.3186394,E,2,11,0.9,-1.602,M,40.593,M,3.2,0123*60\r\n
$GPGGA,140748.75,5703.4106336,N,00952.3186800,E,2,11,0.9,-1.599,M,40.593,M,3.2,0123*69\r\n
$GPGGA,140748.80,5703.4106580,N,00952.3187222,E,2,11,0.9,-1.593,M,40.593,M,3.2,0123*69\r\n
$GPGGA,140748.85,5703.4106833,N,00952.3187640,E,2,11,0.9,-1.581,M,40.593,M,3.4,0123*6C\r\n
$GPGGA,140748.90,5703.4107086,N,00952.3188043,E,2,11,0.9,-1.570,M,40.593,M,3.4,0123*6B\r\n
$GPGGA,140748.95,5703.4107348,N,00952.3188449,E,2,11,0.9,-1.556,M,40.593,M,3.4,0123*65\r\n
$GPGGA,140749.00,5703.4107599,N,00952.3188894,E,2,11,0.9,-1.544,M,40.593,M,3.4,0123*6D\r\n
$GPGGA,140749.05,5703.4107847,N,00952.3189360,E,2,11,0.9,-1.533,M,40.593,M,3.6,0123*65\r\n
$GPGGA,140749.10,5703.4108105,N,00952.3189814,E,2,11,0.9,-1.522,M,40.593,M,3.6,0123*69\r\n
$GPGGA,140749.15,5703.4108379,N,00952.3190266,E,2,11,0.9,-1.512,M,40.593,M,3.6,0123*61\r\n
$GPGGA,140749.20,5703.4108661,N,00952.3190724,E,2,11,0.9,-1.503,M,40.593,M,3.6,0123*68\r\n
$GPGGA,140749.25,5703.4108946,N,00952.3191224,E,2,11,0.9,-1.506,M,40.593,M,1.6,0123*64\r\n
$GPGGA,140749.30,5703.4109246,N,00952.3191753,E,2,11,0.9,-1.505,M,40.593,M,1.6,0123*6C\r\n
$GPGGA,140749.35,5703.4109558,N,00952.3192294,E,2,11,0.9,-1.504,M,40.593,M,1.6,0123*6D\r\n
$GPGGA,140749.40,5703.4109882,N,00952.3192836,E,2,11,0.9,-1.501,M,40.593,M,1.6,0123*62\r\n
$GPGGA,140749.45,5703.4110219,N,00952.3193398,E,2,11,0.9,-1.501,M,40.593,M,1.9,0123*66\r\n
$GPGGA,140749.50,5703.4110560,N,00952.3193967,E,2,11,0.9,-1.497,M,40.593,M,1.9,0123*6F\r\n
$GPGGA,140749.55,5703.4110917,N,00952.3194552,E,2,11,0.9,-1.493,M,40.593,M,1.9,0123*6F\r\n
$GPGGA,140749.60,5703.4111279,N,00952.3195152,E,2,11,0.9,-1.487,M,40.593,M,1.9,0123*6B\r\n
$GPGGA,140749.65,5703.4111661,N,00952.3195771,E,2,11,0.9,-1.484,M,40.593,M,2.1,0123*6C\r\n
$GPGGA,140749.70,5703.4112052,N,00952.3196412,E,2,11,0.9,-1.475,M,40.593,M,2.1,0123*66\r\n
$GPGGA,140749.75,5703.4112464,N,00952.3197086,E,2,11,0.9,-1.468,M,40.593,M,2.1,0123*66\r\n
$GPGGA,140749.80,5703.4112897,N,00952.3197784,E,2,11,0.9,-1.462,M,40.593,M,2.1,0123*63\r\n
$GPGGA,140749.85,5703.4113338,N,00952.3198510,E,2,11,0.9,-1.459,M,40.593,M,2.3,0123*63\r\n
$GPGGA,140749.90,5703.4113797,N,00952.3199256,E,2,11,0.9,-1.453,M,40.593,M,2.3,0123*68\r\n
$GPGGA,140749.95,5703.4114263,N,00952.3200021,E,2,11,0.9,-1.448,M,40.593,M,2.3,0123*6F\r\n
$GPGGA,140750.00,5703.4114741,N,00952.3200803,E,2,11,0.9,-1.445,M,40.593,M,2.3,0123*6B\r\n
$GPGGA,140750.05,5703.4115222,N,00952.3201595,E,2,11,0.9,-1.441,M,40.593,M,2.5,0123*6E\r\n
$GPGGA,140750.10,5703.4115723,N,00952.3202403,E,2,11,0.9,-1.438,M,40.593,M,2.5,0123*6D\r\n
$GPGGA,140750.15,5703.4116233,N,00952.3203239,E,2,11,0.9,-1.435,M,40.593,M,2.5,0123*6C\r\n
$GPGGA,140750.20,5703.4116770,N,00952.3204101,E,2,11,0.9,-1.434,M,40.593,M,2.5,0123*66\r\n
$GPGGA,140750.25,5703.4117320,N,00952.3204971,E,2,11,0.9,-1.425,M,40.593,M,2.8,0123*61\r\n
$GPGGA,140750.30,5703.4117868,N,00952.3205855,E,2,11,0.9,-1.423,M,40.593,M,2.8,0123*62\r\n
$GPGGA,140750.35,5703.4118444,N,00952.3206742,E,2,11,0.9,-1.420,M,40.593,M,2.8,0123*63\r\n
$GPGGA,140750.40,5703.4119017,N,00952.3207631,E,2,11,0.9,-1.417,M,40.593,M,2.8,0123*62\r\n
$GPGGA,140750.45,5703.4119603,N,00952.3208540,E,2,11,0.9,-1.410,M,40.593,M,3.0,0123*60\r\n
$GPGGA,140750.50,5703.4120193,N,00952.3209449,E,2,11,0.9,-1.405,M,40.593,M,3.0,0123*6D\r\n
$GPGGA,140750.55,5703.4120785,N,00952.3210352,E,2,11,0.9,-1.401,M,40.593,M,3.0,0123*68\r\n
$GPGGA,140750.60,5703.4121394,N,00952.3211260,E,2,11,0.9,-1.398,M,40.593,M,3.0,0123*6D\r\n
$GPGGA,140750.65,5703.4122003,N,00952.3212190,E,2,11,0.9,-1.396,M,40.593,M,3.2,0123*65\r\n
$GPGGA,140750.70,5703.4122629,N,00952.3213122,E,2,11,0.9,-1.391,M,40.593,M,3.2,0123*60\r\n
$GPGGA,140750.75,5703.4123268,N,00952.3214052,E,2,11,0.9,-1.385,M,40.593,M,3.2,0123*61\r\n
$GPGGA,140750.80,5703.4123909,N,00952.3214982,E,2,11,0.9,-1.381,M,40.593,M,3.2,0123*67\r\n
$GPGGA,140750.85,5703.4124566,N,00952.3215915,E,2,11,0.9,-1.371,M,40.593,M,3.4,0123*66\r\n
$GPGGA,140750.90,5703.4125219,N,00952.3216882,E,2,11,0.9,-1.364,M,40.593,M,3.4,0123*64\r\n
$GPGGA,140750.95,5703.4125881,N,00952.3217842,E,2,11,0.9,-1.358,M,40.593,M,3.4,0123*68\r\n
$GPGGA,140751.00,5703.4126540,N,00952.3218790,E,2,11,0.9,-1.354,M,40.593,M,3.4,0123*65\r\n
$GPGGA,140751.05,5703.4127205,N,00952.3219737,E,2,11,0.9,-1.350,M,40.593,M,3.6,0123*6D\r\n
$GPGGA,140751.10,5703.4127883,N,00952.3220664,E,2,11,0.9,-1.345,M,40.593,M,3.6,0123*64\r\n
$GPGGA,140751.15,5703.4128575,N,00952.3221583,E,2,11,0.9,-1.339,M,40.593,M,3.6,0123*6A\r\n
$GPGGA,140751.20,5703.4129267,N,00952.3222513,E,2,11,0.9,-1.331,M,40.593,M,3.6,0123*6B\r\n
$GPGGA,140751.25,5703.4129959,N,00952.3223455,E,2,11,0.9,-1.328,M,40.593,M,2.0,0123*65\r\n
$GPGGA,140751.30,5703.4130660,N,00952.3224392,E,2,11,0.9,-1.326,M,40.593,M,2.0,0123*69\r\n
$GPGGA,140751.35,5703.4131378,N,00952.3225348,E,2,11,0.9,-1.324,M,40.593,M,2.0,0123*65\r\n
$GPGGA,140751.40,5703.4132099,N,00952.3226300,E,2,11,0.9,-1.323,M,40.593,M,2.0,0123*60\r\n
$GPGGA,140751.45,5703.4132829,N,00952.3227241,E,2,11,0.9,-1.323,M,40.593,M,2.3,0123*60\r\n
$GPGGA,140751.50,5703.4133558,N,00952.3228183,E,2,11,0.9,-1.323,M,40.593,M,2.3,0123*6C\r\n
$GPGGA,140751.55,5703.4134295,N,00952.3229108,E,2,11,0.9,-1.322,M,40.593,M,2.3,0123*6B\r\n
$GPGGA,140751.60,5703.4135030,N,00952.3230027,E,2,11,0.9,-1.323,M,40.593,M,2.3,0123*64\r\n
$GPGGA,140751.65,5703.4135775,N,00952.3230934,E,2,11,0.9,-1.320,M,40.593,M,2.5,0123*69\r\n
$GPGGA,140751.70,5703.4136514,N,00952.3231837,E,2,11,0.9,-1.318,M,40.593,M,2.5,0123*63\r\n
$GPGGA,140751.75,5703.4137249,N,00952.3232729,E,2,11,0.9,-1.311,M,40.593,M,2.5,0123*62\r\n
$GPGGA,140751.80,5703.4137980,N,00952.3233612,E,2,11,0.9,-1.304,M,40.593,M,2.5,0123*6A\r\n
$GPGGA,140751.85,5703.4138719,N,00952.3234484,E,2,11,0.9,-1.295,M,40.593,M,2.7,0123*6F\r\n
$GPGGA,140751.90,5703.4139481,N,00952.3235348,E,2,11,0.9,-1.290,M,40.593,M,2.7,0123*6B\r\n
$GPGGA,140751.95,5703.4140244,N,00952.3236216,E,2,11,0.9,-1.288,M,40.593,M,2.7,0123*6F\r\n
$GPGGA,140752.00,5703.4141012,N,00952.3237078,E,2,11,0.9,-1.288,M,40.593,M,2.7,0123*6B\r\n
$GPGGA,140752.05,5703.4141783,N,00952.3237962,E,2,11,0.9,-1.291,M,40.593,M,3.0,0123*6D\r\n
$GPGGA,140752.10,5703.4142560,N,00952.3238848,E,2,11,0.9,-1.293,M,40.593,M,3.0,0123*61\r\n
$GPGGA,140752.15,5703.4143341,N,00952.3239730,E,2,11,0.9,-1.294,M,40.593,M,3.0,0123*66\r\n
$GPGGA,140752.20,5703.4144119,N,00952.3240611,E,2,11,0.9,-1.296,M,40.593,M,3.0,0123*66\r\n
$GPGGA,140752.25,5703.4144904,N,00952.3241476,E,2,11,0.9,-1.295,M,40.593,M,2.7,0123*60\r\n
$GPGGA,140752.30,5703.4145696,N,00952.3242338,E,2,11,0.9,-1.293,M,40.593,M,2.7,0123*69\r\n
$GPGGA,140752.35,5703.4146486,N,00952.3243167,E,2,11,0.9,-1.295,M,40.593,M,2.7,0123*63\r\n
$GPGGA,140752.40,5703.4147287,N,00952.3243979,E,2,11,0.9,-1.296,M,40.593,M,2.7,0123*63\r\n
$GPGGA,140752.45,5703.4148067,N,00952.3244802,E,2,11,0.9,-1.301,M,40.593,M,2.9,0123*6E\r\n
$GPGGA,140752.50,5703.4148866,N,00952.3245597,E,2,11,0.9,-1.298,M,40.593,M,2.9,0123*62\r\n
$GPGGA,140752.55,5703.4149659,N,00952.3246369,E,2,11,0.9,-1.293,M,40.593,M,2.9,0123*6B\r\n
$GPGGA,140752.60,5703.4150440,N,00952.3247121,E,2,11,0.9,-1.285,M,40.593,M,2.9,0123*67\r\n
$GPGGA,140752.65,5703.4151217,N,00952.3247872,E,2,11,0.9,-1.278,M,40.593,M,3.2,0123*60\r\n
$GPGGA,140752.70,5703.4152007,N,00952.3248641,E,2,11,0.9,-1.272,M,40.593,M,3.2,0123*6F\r\n
$GPGGA,140752.75,5703.4152806,N,00952.3249390,E,2,11,0.9,-1.266,M,40.593,M,3.2,0123*6E\r\n
$GPGGA,140752.80,5703.4153612,N,00952.3250146,E,2,11,0.9,-1.265,M,40.593,M,3.2,0123*6C\r\n
$GPGGA,140752.85,5703.4154433,N,00952.3250912,E,2,11,0.9,-1.267,M,40.593,M,3.4,0123*62\r\n
$GPGGA,140752.90,5703.4155262,N,00952.3251690,E,2,11,0.9,-1.272,M,40.593,M,3.4,0123*65\r\n
$GPGGA,140752.95,5703.4156102,N,00952.3252460,E,2,11,0.9,-1.279,M,40.593,M,3.4,0123*63\r\n
$GPGGA,140753.00,5703.4156947,N,00952.3253232,E,2,11,0.9,-1.290,M,40.593,M,3.4,0123*60\r\n
$GPGGA,140753.05,5703.4157791,N,00952.3253985,E,2,11,0.9,-1.297,M,40.593,M,3.6,0123*63\r\n
$GPGGA,140753.10,5703.4158621,N,00952.3254716,E,2,11,0.9,-1.304,M,40.593,M,3.6,0123*6A\r\n
$GPGGA,140753.15,5703.4159440,N,00952.3255424,E,2,11,0.9,-1.302,M,40.593,M,3.6,0123*6E\r\n
$GPGGA,140753.20,5703.4160253,N,00952.3256111,E,2,11,0.9,-1.296,M,40.593,M,3.6,0123*6A\r\n
$GPGGA,140753.25,5703.4161067,N,00952.3256782,E,2,11,0.9,-1.292,M,40.593,M,1.6,0123*61\r\n
$GPGGA,140753.30,5703.4161883,N,00952.3257440,E,2,11,0.9,-1.287,M,40.593,M,1.6,0123*6F\r\n
$GPGGA,140753.35,5703.4162716,N,00952.3258102,E,2,11,0.9,-1.279,M,40.593,M,1.6,0123*67\r\n
$GPGGA,140753.40,5703.4163559,N,00952.3258745,E,2,11,0.9,-1.273,M,40.593,M,1.6,0123*62\r\n
$GPGGA,140753.45,5703.4164395,N,00952.3259407,E,2,11,0.9,-1.274,M,40.593,M,1.9,0123*6A\r\n
$GPGGA,140753.50,5703.4165235,N,00952.3260061,E,2,11,0.9,-1.276,M,40.593,M,1.9,0123*68\r\n
$GPGGA,140753.55,5703.4166080,N,00952.3260718,E,2,11,0.9,-1.277,M,40.593,M,1.9,0123*6A\r\n
$GPGGA,140753.60,5703.4166921,N,00952.3261390,E,2,11,0.9,-1.279,M,40.593,M,1.9,0123*65\r\n
$GPGGA,140753.65,5703.4167761,N,00952.3262040,E,2,11,0.9,-1.283,M,40.593,M,2.1,0123*68\r\n
$GPGGA,140753.70,5703.4168609,N,00952.3262671,E,2,11,0.9,-1.285,M,40.593,M,2.1,0123*6E\r\n
$GPGGA,140753.75,5703.4169460,N,00952.3263295,E,2,11,0.9,-1.285,M,40.593,M,2.1,0123*68\r\n
$GPGGA,140753.80,5703.4170318,N,00952.3263910,E,2,11,0.9,-1.288,M,40.593,M,2.1,0123*69\r\n
$GPGGA,140753.85,5703.4171183,N,00952.3264505,E,2,11,0.9,-1.288,M,40.593,M,2.3,0123*60\r\n
$GPGGA,140753.90,5703.4172053,N,00952.3265106,E,2,11,0.9,-1.290,M,40.593,M,2.3,0123*64\r\n
$GPGGA,140753.95,5703.4172904,N,00952.3265683,E,2,11,0.9,-1.290,M,40.593,M,2.3,0123*60\r\n
$GPGGA,140754.00,5703.4173750,N,00952.3266221,E,2,11,0.9,-1.288,M,40.593,M,2.3,0123*63\r\n
$GPGGA,140754.05,5703.4174588,N,00952.3266766,E,2,11,0.9,-1.283,M,40.593,M,2.5,0123*6D\r\n
$GPGGA,140754.10,5703.4175427,N,00952.3267278,E,2,11,0.9,-1.276,M,40.593,M,2.5,0123*6D\r\n
$GPGGA,140754.15,5703.4176285,N,00952.3267787,E,2,11,0.9,-1.270,M,40.593,M,2.5,0123*66\r\n
$GPGGA,140754.20,5703.4177149,N,00952.3268291,E,2,11,0.9,-1.266,M,40.593,M,2.5,0123*68\r\n
$GPGGA,140754.25,5703.4178014,N,00952.3268800,E,2,11,0.9,-1.266,M,40.593,M,2.8,0123*64\r\n
$GPGGA,140754.30,5703.4178876,N,00952.3269298,E,2,11,0.9,-1.269,M,40.593,M,2.8,0123*69\r\n
$GPGGA,140754.35,5703.4179757,N,00952.3269789,E,2,11,0.9,-1.273,M,40.593,M,2.8,0123*6F\r\n
$GPGGA,140754.40,5703.4180646,N,00952.3270285,E,2,11,0.9,-1.275,M,40.593,M,2.8,0123*6D\r\n
$GPGGA,140754.45,5703.4181520,N,00952.3270779,E,2,11,0.9,-1.279,M,40.593,M,3.0,0123*69\r\n
$GPGGA,140754.50,5703.4182386,N,00952.3271253,E,2,11,0.9,-1.280,M,40.593,M,3.0,0123*6E\r\n
$GPGGA,140754.55,5703.4183259,N,00952.3271711,E,2,11,0.9,-1.284,M,40.593,M,3.0,0123*6E\r\n
$GPGGA,140754.60,5703.4184130,N,00952.3272165,E,2,11,0.9,-1.285,M,40.593,M,3.0,0123*64\r\n
$GPGGA,140754.65,5703.4185005,N,00952.3272615,E,2,11,0.9,-1.288,M,40.593,M,3.2,0123*68\r\n
$GPGGA,140754.70,5703.4185873,N,00952.3273023,E,2,11,0.9,-1.288,M,40.593,M,3.2,0123*67\r\n
$GPGGA,140754.75,5703.4186735,N,00952.3273409,E,2,11,0.9,-1.284,M,40.593,M,3.2,0123*6C\r\n
$GPGGA,140754.80,5703.4187608,N,00952.3273794,E,2,11,0.9,-1.281,M,40.593,M,3.2,0123*6A\r\n
$GPGGA,140754.85,5703.4188478,N,00952.3274163,E,2,11,0.9,-1.274,M,40.593,M,3.4,0123*60\r\n
$GPGGA,140754.90,5703.4189343,N,00952.3274524,E,2,11,0.9,-1.267,M,40.593,M,3.4,0123*6F\r\n
$GPGGA,140754.95,5703.4190214,N,00952.3274869,E,2,11,0.9,-1.263,M,40.593,M,3.4,0123*61\r\n
$GPGGA,140755.00,5703.4191097,N,00952.3275211,E,2,11,0.9,-1.259,M,40.593,M,3.4,0123*69\r\n
$GPGGA,140755.05,5703.4191984,N,00952.3275581,E,2,11,0.9,-1.262,M,40.593,M,3.6,0123*63\r\n
$GPGGA,140755.10,5703.4192895,N,00952.3275921,E,2,11,0.9,-1.264,M,40.593,M,3.6,0123*65\r\n
$GPGGA,140755.15,5703.4193793,N,00952.3276255,E,2,11,0.9,-1.269,M,40.593,M,3.6,0123*6E\r\n
$GPGGA,140755.20,5703.4194689,N,00952.3276606,E,2,11,0.9,-1.275,M,40.593,M,3.6,0123*6A\r\n
$GPGGA,140755.25,5703.4195587,N,00952.3276941,E,2,11,0.9,-1.287,M,40.593,M,3.8,0123*6C\r\n
$GPGGA,140755.30,5703.4196489,N,00952.3277223,E,2,11,0.9,-1.288,M,40.593,M,3.8,0123*65\r\n
$GPGGA,140755.35,5703.4197385,N,00952.3277487,E,2,11,0.9,-1.287,M,40.593,M,3.8,0123*6D\r\n
$GPGGA,140755.40,5703.4198258,N,00952.3277724,E,2,11,0.9,-1.281,M,40.593,M,3.8,0123*6D\r\n
$GPGGA,140755.45,5703.4199121,N,00952.3277972,E,2,11,0.9,-1.273,M,40.593,M,2.3,0123*6E\r\n
$GPGGA,140755.50,5703.4199988,N,00952.3278211,E,2,11,0.9,-1.266,M,40.593,M,2.3,0123*64\r\n
$GPGGA,140755.55,5703.4200857,N,00952.3278447,E,2,11,0.9,-1.263,M,40.593,M,2.3,0123*61\r\n
$GPGGA,140755.60,5703.4201742,N,00952.3278680,E,2,11,0.9,-1.261,M,40.593,M,2.3,0123*66\r\n
$GPGGA,140755.65,5703.4202636,N,00952.3278889,E,2,11,0.9,-1.259,M,40.593,M,2.5,0123*68\r\n
$GPGGA,140755.70,5703.4203543,N,00952.3279101,E,2,11,0.9,-1.260,M,40.593,M,2.5,0123*6E\r\n
$GPGGA,140755.75,5703.4204448,N,00952.3279306,E,2,11,0.9,-1.264,M,40.593,M,2.5,0123*67\r\n
$GPGGA,140755.80,5703.4205353,N,00952.3279502,E,2,11,0.9,-1.272,M,40.593,M,2.5,0123*64\r\n
$GPGGA,140755.85,5703.4206247,N,00952.3279678,E,2,11,0.9,-1.281,M,40.593,M,2.7,0123*66\r\n
$GPGGA,140755.90,5703.4207133,N,00952.3279836,E,2,11,0.9,-1.284,M,40.593,M,2.7,0123*62\r\n
$GPGGA,140755.95,5703.4208003,N,00952.3279993,E,2,11,0.9,-1.285,M,40.593,M,2.7,0123*65\r\n
$GPGGA,140756.00,5703.4208861,N,00952.3280144,E,2,11,0.9,-1.287,M,40.593,M,2.7,0123*60\r\n
$GPGGA,140756.05,5703.4209723,N,00952.3280288,E,2,11,0.9,-1.288,M,40.593,M,3.0,0123*67\r\n
$GPGGA,140756.10,5703.4210578,N,00952.3280419,E,2,11,0.9,-1.292,M,40.593,M,3.0,0123*62\r\n
$GPGGA,140756.15,5703.4211435,N,00952.3280548,E,2,11,0.9,-1.295,M,40.593,M,3.0,0123*6C\r\n
$GPGGA,140756.20,5703.4212284,N,00952.3280668,E,2,11,0.9,-1.296,M,40.593,M,3.0,0123*67\r\n
$GPGGA,140756.25,5703.4213124,N,00952.3280748,E,2,11,0.9,-1.292,M,40.593,M,3.2,0123*6F\r\n
$GPGGA,140756.30,5703.4213943,N,00952.3280852,E,2,11,0.9,-1.296,M,40.593,M,3.2,0123*62\r\n
$GPGGA,140756.35,5703.4214758,N,00952.3280962,E,2,11,0.9,-1.301,M,40.593,M,3.2,0123*69\r\n
$GPGGA,140756.40,5703.4215578,N,00952.3281062,E,2,11,0.9,-1.309,M,40.593,M,3.2,0123*6A\r\n
$GPGGA,140756.45,5703.4216401,N,00952.3281141,E,2,11,0.9,-1.317,M,40.593,M,2.9,0123*66\r\n
$GPGGA,140756.50,5703.4217207,N,00952.3281241,E,2,11,0.9,-1.327,M,40.593,M,2.9,0123*63\r\n
$GPGGA,140756.55,5703.4217994,N,00952.3281352,E,2,11,0.9,-1.339,M,40.593,M,2.9,0123*6B\r\n
$GPGGA,140756.60,5703.4218770,N,00952.3281456,E,2,11,0.9,-1.355,M,40.593,M,2.9,0123*6F\r\n
$GPGGA,140756.65,5703.4219551,N,00952.3281541,E,2,11,0.9,-1.363,M,40.593,M,3.2,0123*62\r\n
$GPGGA,140756.70,5703.4220304,N,00952.3281635,E,2,11,0.9,-1.380,M,40.593,M,3.2,0123*67\r\n
$GPGGA,140756.75,5703.4221034,N,00952.3281737,E,2,11,0.9,-1.401,M,40.593,M,3.2,0123*6E\r\n
$GPGGA,140756.80,5703.4221733,N,00952.3281826,E,2,11,0.9,-1.421,M,40.593,M,3.2,0123*69\r\n
$GPGGA,140756.85,5703.4222409,N,00952.3281879,E,2,11,0.9,-1.435,M,40.593,M,3.4,0123*6C\r\n
$GPGGA,140756.90,5703.4223083,N,00952.3281956,E,2,11,0.9,-1.448,M,40.593,M,3.4,0123*69\r\n
$GPGGA,140756.95,5703.4223734,N,00952.3282053,E,2,11,0.9,-1.465,M,40.593,M,3.4,0123*67\r\n
$GPGGA,140757.00,5703.4224383,N,00952.3282137,E,2,11,0.9,-1.480,M,40.593,M,3.4,0123*6D\r\n
$GPGGA,140757.05,5703.4225009,N,00952.3282234,E,2,11,0.9,-1.496,M,40.593,M,3.6,0123*6D\r\n
$GPGGA,140757.10,5703.4225613,N,00952.3282292,E,2,11,0.9,-1.514,M,40.593,M,3.6,0123*63\r\n
$GPGGA,140757.15,5703.4226206,N,00952.3282364,E,2,11,0.9,-1.529,M,40.593,M,3.6,0123*63\r\n
$GPGGA,140757.20,5703.4226796,N,00952.3282426,E,2,11,0.9,-1.546,M,40.593,M,3.6,0123*61\r\n
$GPGGA,140757.25,5703.4227369,N,00952.3282475,E,2,11,0.9,-1.563,M,40.593,M,3.8,0123*6E\r\n
$GPGGA,140757.30,5703.4227941,N,00952.3282496,E,2,11,0.9,-1.577,M,40.593,M,3.8,0123*62\r\n
$GPGGA,140757.35,5703.4228512,N,00952.3282510,E,2,11,0.9,-1.590,M,40.593,M,3.8,0123*64\r\n
$GPGGA,140757.40,5703.4229075,N,00952.3282524,E,2,11,0.9,-1.603,M,40.593,M,3.8,0123*6D\r\n
$GPGGA,140757.45,5703.4229650,N,00952.3282517,E,2,11,0.9,-1.610,M,40.593,M,1.9,0123*68\r\n
$GPGGA,140757.50,5703.4230210,N,00952.3282515,E,2,11,0.9,-1.621,M,40.593,M,1.9,0123*64\r\n
$GPGGA,140757.55,5703.4230766,N,00952.3282502,E,2,11,0.9,-1.633,M,40.593,M,1.9,0123*60\r\n
$GPGGA,140757.60,5703.4231323,N,00952.3282482,E,2,11,0.9,-1.642,M,40.593,M,1.9,0123*6D\r\n
$GPGGA,140757.65,5703.4231869,N,00952.3282431,E,2,11,0.9,-1.646,M,40.593,M,2.1,0123*6A\r\n
$GPGGA,140757.70,5703.4232413,N,00952.3282360,E,2,11,0.9,-1.654,M,40.593,M,2.1,0123*6C\r\n
$GPGGA,140757.75,5703.4232944,N,00952.3282311,E,2,11,0.9,-1.662,M,40.593,M,2.1,0123*65\r\n
$GPGGA,140757.80,5703.4233483,N,00952.3282261,E,2,11,0.9,-1.668,M,40.593,M,2.1,0123*64\r\n
$GPGGA,140757.85,5703.4234017,N,00952.3282204,E,2,11,0.9,-1.675,M,40.593,M,2.3,0123*62\r\n
$GPGGA,140757.90,5703.4234548,N,00952.3282129,E,2,11,0.9,-1.680,M,40.593,M,2.3,0123*6F\r\n
$GPGGA,140757.95,5703.4235078,N,00952.3282035,E,2,11,0.9,-1.683,M,40.593,M,2.3,0123*62\r\n
$GPGGA,140758.00,5703.4235599,N,00952.3281940,E,2,11,0.9,-1.682,M,40.593,M,2.3,0123*62\r\n
$GPGGA,140758.05,5703.4236128,N,00952.3281851,E,2,11,0.9,-1.679,M,40.593,M,2.5,0123*69\r\n
$GPGGA,140758.10,5703.4236650,N,00952.3281768,E,2,11,0.9,-1.678,M,40.593,M,2.5,0123*61\r\n
$GPGGA,140758.15,5703.4237183,N,00952.3281670,E,2,11,0.9,-1.671,M,40.593,M,2.5,0123*6D\r\n
$GPGGA,140758.20,5703.4237712,N,00952.3281557,E,2,11,0.9,-1.664,M,40.593,M,2.5,0123*67\r\n
$GPGGA,140758.25,5703.4238232,N,00952.3281425,E,2,11,0.9,-1.653,M,40.593,M,2.8,0123*67\r\n
$GPGGA,140758.30,5703.4238748,N,00952.3281292,E,2,11,0.9,-1.646,M,40.593,M,2.8,0123*65\r\n
$GPGGA,140758.35,5703.4239276,N,00952.3281170,E,2,11,0.9,-1.637,M,40.593,M,2.8,0123*60\r\n
$GPGGA,140758.40,5703.4239808,N,00952.3281048,E,2,11,0.9,-1.628,M,40.593,M,2.8,0123*65\r\n
$GPGGA,140758.45,5703.4240338,N,00952.3280922,E,2,11,0.9,-1.623,M,40.593,M,0.9,0123*6A\r\n
$GPGGA,140758.50,5703.4240867,N,00952.3280819,E,2,11,0.9,-1.617,M,40.593,M,0.9,0123*61\r\n
$GPGGA,140758.55,5703.4241403,N,00952.3280724,E,2,11,0.9,-1.611,M,40.593,M,0.9,0123*6C\r\n
$GPGGA,140758.60,5703.4241942,N,00952.3280626,E,2,11,0.9,-1.604,M,40.593,M,0.9,0123*65\r\n
$GPGGA,140758.65,5703.4242480,N,00952.3280536,E,2,11,0.9,-1.602,M,40.593,M,1.2,0123*6E\r\n
$GPGGA,140758.70,5703.4243026,N,00952.3280435,E,2,11,0.9,-1.599,M,40.593,M,1.2,0123*60\r\n
$GPGGA,140758.75,5703.4243582,N,00952.3280367,E,2,11,0.9,-1.597,M,40.593,M,1.2,0123*60\r\n
$GPGGA,140758.80,5703.4244126,N,00952.3280295,E,2,11,0.9,-1.596,M,40.593,M,1.2,0123*6A\r\n
$GPGGA,140758.85,5703.4244668,N,00952.3280201,E,2,11,0.9,-1.592,M,40.593,M,1.5,0123*6C\r\n
$GPGGA,140758.90,5703.4245198,N,00952.3280089,E,2,11,0.9,-1.588,M,40.593,M,1.5,0123*68\r\n
$GPGGA,140758.95,5703.4245732,N,00952.3279968,E,2,11,0.9,-1.583,M,40.593,M,1.5,0123*60\r\n
$GPGGA,140759.00,5703.4246269,N,00952.3279854,E,2,11,0.9,-1.577,M,40.593,M,1.5,0123*60\r\n
$GPGGA,140759.05,5703.4246796,N,00952.3279764,E,2,11,0.9,-1.578,M,40.593,M,1.8,0123*6E\r\n
$GPGGA,140759.10,5703.4247327,N,00952.3279673,E,2,11,0.9,-1.576,M,40.593,M,1.8,0123*6C\r\n
$GPGGA,140759.15,5703.4247866,N,00952.3279581,E,2,11,0.9,-1.572,M,40.593,M,1.8,0123*6D\r\n
$GPGGA,140759.20,5703.4248401,N,00952.3279496,E,2,11,0.9,-1.571,M,40.593,M,1.8,0123*6D\r\n
$GPGGA,140759.25,5703.4248941,N,00952.3279426,E,2,11,0.9,-1.566,M,40.593,M,2.0,0123*67\r\n
$GPGGA,140759.30,5703.4249479,N,00952.3279360,E,2,11,0.9,-1.563,M,40.593,M,2.0,0123*64\r\n
$GPGGA,140759.35,5703.4250014,N,00952.3279276,E,2,11,0.9,-1.562,M,40.593,M,2.0,0123*61\r\n
$GPGGA,140759.40,5703.4250536,N,00952.3279178,E,2,11,0.9,-1.559,M,40.593,M,2.0,0123*63\r\n
$GPGGA,140759.45,5703.4251042,N,00952.3279073,E,2,11,0.9,-1.554,M,40.593,M,1.5,0123*60\r\n
$GPGGA,140759.50,5703.4251555,N,00952.3278986,E,2,11,0.9,-1.548,M,40.593,M,1.5,0123*68\r\n
$GPGGA,140759.55,5703.4252060,N,00952.3278912,E,2,11,0.9,-1.542,M,40.593,M,1.5,0123*6A\r\n
$GPGGA,140759.60,5703.4252566,N,00952.3278832,E,2,11,0.9,-1.538,M,40.593,M,1.5,0123*61\r\n
$GPGGA,140759.65,5703.4253064,N,00952.3278759,E,2,11,0.9,-1.533,M,40.593,M,1.9,0123*67\r\n
$GPGGA,140759.70,5703.4253567,N,00952.3278676,E,2,11,0.9,-1.527,M,40.593,M,1.9,0123*6C\r\n
$GPGGA,140759.75,5703.4254061,N,00952.3278607,E,2,11,0.9,-1.525,M,40.593,M,1.9,0123*69\r\n
$GPGGA,140759.80,5703.4254563,N,00952.3278539,E,2,11,0.9,-1.522,M,40.593,M,1.9,0123*6D\r\n
$GPGGA,140759.85,5703.4255067,N,00952.3278488,E,2,11,0.9,-1.522,M,40.593,M,2.2,0123*6B\r\n
$GPGGA,140759.90,5703.4255581,N,00952.3278450,E,2,11,0.9,-1.523,M,40.593,M,2.2,0123*66\r\n
$GPGGA,140759.95,5703.4256095,N,00952.3278420,E,2,11,0.9,-1.525,M,40.593,M,2.2,0123*61\r\n
$GPGGA,140800.00,5703.4256609,N,00952.3278413,E,2,11,0.9,-1.530,M,40.593,M,2.2,0123*69\r\n
$GPGGA,140800.05,5703.4257109,N,00952.3278432,E,2,11,0.9,-1.543,M,40.593,M,2.4,0123*6B\r\n
$GPGGA,140800.10,5703.4257625,N,00952.3278456,E,2,11,0.9,-1.551,M,40.593,M,2.4,0123*67\r\n
$GPGGA,140800.15,5703.4258139,N,00952.3278460,E,2,11,0.9,-1.557,M,40.593,M,2.4,0123*64\r\n
$GPGGA,140800.20,5703.4258643,N,00952.3278465,E,2,11,0.9,-1.561,M,40.593,M,2.4,0123*68\r\n
$GPGGA,140800.25,5703.4259137,N,00952.3278484,E,2,11,0.9,-1.568,M,40.593,M,2.7,0123*6D\r\n
$GPGGA,140800.30,5703.4259624,N,00952.3278498,E,2,11,0.9,-1.571,M,40.593,M,2.7,0123*69\r\n
$GPGGA,140800.35,5703.4260107,N,00952.3278510,E,2,11,0.9,-1.572,M,40.593,M,2.7,0123*62\r\n
$GPGGA,140800.40,5703.4260574,N,00952.3278514,E,2,11,0.9,-1.572,M,40.593,M,2.7,0123*64\r\n
$GPGGA,140800.45,5703.4261049,N,00952.3278524,E,2,11,0.9,-1.565,M,40.593,M,2.9,0123*60\r\n
$GPGGA,140800.50,5703.4261518,N,00952.3278532,E,2,11,0.9,-1.563,M,40.593,M,2.9,0123*64\r\n
$GPGGA,140800.55,5703.4261980,N,00952.3278549,E,2,11,0.9,-1.562,M,40.593,M,2.9,0123*61\r\n
$GPGGA,140800.60,5703.4262453,N,00952.3278582,E,2,11,0.9,-1.560,M,40.593,M,2.9,0123*62\r\n
$GPGGA,140800.65,5703.4262918,N,00952.3278613,E,2,11,0.9,-1.566,M,40.593,M,3.2,0123*62\r\n
$GPGGA,140800.70,5703.4263383,N,00952.3278655,E,2,11,0.9,-1.563,M,40.593,M,3.2,0123*68\r\n
$GPGGA,140800.75,5703.4263859,N,00952.3278691,E,2,11,0.9,-1.558,M,40.593,M,3.2,0123*61\r\n
$GPGGA,140800.80,5703.4264338,N,00952.3278749,E,2,11,0.9,-1.553,M,40.593,M,3.2,0123*6F\r\n
$GPGGA,140800.85,5703.4264822,N,00952.3278820,E,2,11,0.9,-1.551,M,40.593,M,3.4,0123*6E\r\n
$GPGGA,140800.90,5703.4265319,N,00952.3278901,E,2,11,0.9,-1.547,M,40.593,M,3.4,0123*6D\r\n
$GPGGA,140800.95,5703.4265802,N,00952.3278978,E,2,11,0.9,-1.542,M,40.593,M,3.4,0123*62\r\n
$GPGGA,140801.00,5703.4266290,N,00952.3279075,E,2,11,0.9,-1.538,M,40.593,M,3.4,0123*65\r\n
$GPGGA,140801.05,5703.4266777,N,00952.3279179,E,2,11,0.9,-1.533,M,40.593,M,3.6,0123*68\r\n
$GPGGA,140801.10,5703.4267276,N,00952.3279293,E,2,11,0.9,-1.528,M,40.593,M,3.6,0123*64\r\n
$GPGGA,140801.15,5703.4267780,N,00952.3279416,E,2,11,0.9,-1.526,M,40.593,M,3.6,0123*68\r\n
$GPGGA,140801.20,5703.4268287,N,00952.3279537,E,2,11,0.9,-1.524,M,40.593,M,3.6,0123*63\r\n
$GPGGA,140801.25,5703.4268799,N,00952.3279644,E,2,11,0.9,-1.523,M,40.593,M,3.8,0123*62\r\n
$GPGGA,140801.30,5703.4269324,N,00952.3279760,E,2,11,0.9,-1.522,M,40.593,M,3.8,0123*63\r\n
$GPGGA,140801.35,5703.4269842,N,00952.3279902,E,2,11,0.9,-1.522,M,40.593,M,3.8,0123*67\r\n
$GPGGA,140801.40,5703.4270383,N,00952.3280043,E,2,11,0.9,-1.525,M,40.593,M,3.8,0123*66\r\n
$GPGGA,140801.45,5703.4270927,N,00952.3280183,E,2,11,0.9,-1.529,M,40.593,M,1.9,0123*65\r\n
$GPGGA,140801.50,5703.4271469,N,00952.3280312,E,2,11,0.9,-1.531,M,40.593,M,1.9,0123*64\r\n
$GPGGA,140801.55,5703.4272020,N,00952.3280435,E,2,11,0.9,-1.532,M,40.593,M,1.9,0123*6A\r\n
$GPGGA,140801.60,5703.4272574,N,00952.3280565,E,2,11,0.9,-1.533,M,40.593,M,1.9,0123*6D\r\n
$GPGGA,140801.65,5703.4273113,N,00952.3280713,E,2,11,0.9,-1.539,M,40.593,M,2.1,0123*6E\r\n
$GPGGA,140801.70,5703.4273659,N,00952.3280886,E,2,11,0.9,-1.542,M,40.593,M,2.1,0123*6C\r\n
$GPGGA,140801.75,5703.4274217,N,00952.3281049,E,2,11,0.9,-1.542,M,40.593,M,2.1,0123*6A\r\n
$GPGGA,140801.80,5703.4274770,N,00952.3281222,E,2,11,0.9,-1.539,M,40.593,M,2.1,0123*67\r\n
$GPGGA,140801.85,5703.4275316,N,00952.3281396,E,2,11,0.9,-1.541,M,40.593,M,2.3,0123*64\r\n
$GPGGA,140801.90,5703.4275866,N,00952.3281564,E,2,11,0.9,-1.537,M,40.593,M,2.3,0123*66\r\n
$GPGGA,140801.95,5703.4276438,N,00952.3281749,E,2,11,0.9,-1.532,M,40.593,M,2.3,0123*6F\r\n
$GPGGA,140802.00,5703.4277013,N,00952.3281941,E,2,11,0.9,-1.525,M,40.593,M,2.3,0123*6C\r\n
$GPGGA,140802.05,5703.4277585,N,00952.3282153,E,2,11,0.9,-1.521,M,40.593,M,2.5,0123*69\r\n
$GPGGA,140802.10,5703.4278144,N,00952.3282349,E,2,11,0.9,-1.516,M,40.593,M,2.5,0123*66\r\n
$GPGGA,140802.15,5703.4278722,N,00952.3282555,E,2,11,0.9,-1.508,M,40.593,M,2.5,0123*61\r\n
$GPGGA,140802.20,5703.4279306,N,00952.3282769,E,2,11,0.9,-1.502,M,40.593,M,2.5,0123*63\r\n
$GPGGA,140802.25,5703.4279895,N,00952.3282982,E,2,11,0.9,-1.489,M,40.593,M,2.8,0123*63\r\n
$GPGGA,140802.30,5703.4280477,N,00952.3283251,E,2,11,0.9,-1.485,M,40.593,M,2.8,0123*69\r\n
$GPGGA,140802.35,5703.4281071,N,00952.3283561,E,2,11,0.9,-1.480,M,40.593,M,2.8,0123*6E\r\n
$GPGGA,140802.40,5703.4281661,N,00952.3283846,E,2,11,0.9,-1.475,M,40.593,M,2.8,0123*69\r\n
$GPGGA,140802.45,5703.4282243,N,00952.3284141,E,2,11,0.9,-1.479,M,40.593,M,3.0,0123*67\r\n
$GPGGA,140802.50,5703.4282833,N,00952.3284468,E,2,11,0.9,-1.481,M,40.593,M,3.0,0123*67\r\n
$GPGGA,140802.55,5703.4283421,N,00952.3284808,E,2,11,0.9,-1.482,M,40.593,M,3.0,0123*65\r\n
$GPGGA,140802.60,5703.4284014,N,00952.3285154,E,2,11,0.9,-1.483,M,40.593,M,3.0,0123*66\r\n
$GPGGA,140802.65,5703.4284604,N,00952.3285521,E,2,11,0.9,-1.485,M,40.593,M,3.2,0123*66\r\n
$GPGGA,140802.70,5703.4285185,N,00952.3285907,E,2,11,0.9,-1.489,M,40.593,M,3.2,0123*69\r\n
$GPGGA,140802.75,5703.4285765,N,00952.3286301,E,2,11,0.9,-1.491,M,40.593,M,3.2,0123*62\r\n
$GPGGA,140802.80,5703.4286340,N,00952.3286708,E,2,11,0.9,-1.494,M,40.593,M,3.2,0123*60\r\n
$GPGGA,140802.85,5703.4286899,N,00952.3287122,E,2,11,0.9,-1.501,M,40.593,M,3.4,0123*6E\r\n
$GPGGA,140802.90,5703.4287448,N,00952.3287510,E,2,11,0.9,-1.501,M,40.593,M,3.4,0123*6E\r\n
$GPGGA,140802.95,5703.4288017,N,00952.3287908,E,2,11,0.9,-1.498,M,40.593,M,3.4,0123*6E\r\n
$GPGGA,140803.00,5703.4288594,N,00952.3288317,E,2,11,0.9,-1.491,M,40.593,M,3.4,0123*6F\r\n
$GPGGA,140803.05,5703.4289154,N,00952.3288737,E,2,11,0.9,-1.486,M,40.593,M,3.6,0123*61\r\n
$GPGGA,140803.10,5703.4289716,N,00952.3289147,E,2,11,0.9,-1.482,M,40.593,M,3.6,0123*61\r\n
$GPGGA,140803.15,5703.4290277,N,00952.3289579,E,2,11,0.9,-1.477,M,40.593,M,3.6,0123*6D\r\n
$GPGGA,140803.20,5703.4290835,N,00952.3290026,E,2,11,0.9,-1.474,M,40.593,M,3.6,0123*63\r\n
$GPGGA,140803.25,5703.4291396,N,00952.3290491,E,2,11,0.9,-1.466,M,40.593,M,3.8,0123*60\r\n
$GPGGA,140803.30,5703.4291958,N,00952.3290971,E,2,11,0.9,-1.463,M,40.593,M,3.8,0123*6A\r\n
$GPGGA,140803.35,5703.4292528,N,00952.3291463,E,2,11,0.9,-1.464,M,40.593,M,3.8,0123*6F\r\n
$GPGGA,140803.40,5703.4293091,N,00952.3291965,E,2,11,0.9,-1.467,M,40.593,M,3.8,0123*63\r\n
$GPGGA,140803.45,5703.4293643,N,00952.3292491,E,2,11,0.9,-1.472,M,40.593,M,2.3,0123*64\r\n
$GPGGA,140803.50,5703.4294206,N,00952.3293025,E,2,11,0.9,-1.477,M,40.593,M,2.3,0123*6D\r\n
$GPGGA,140803.55,5703.4294765,N,00952.3293590,E,2,11,0.9,-1.484,M,40.593,M,2.3,0123*6F\r\n
$GPGGA,140803.60,5703.4295325,N,00952.3294161,E,2,11,0.9,-1.492,M,40.593,M,2.3,0123*62\r\n
$GPGGA,140803.65,5703.4295869,N,00952.3294755,E,2,11,0.9,-1.501,M,40.593,M,2.5,0123*68\r\n
$GPGGA,140803.70,5703.4296396,N,00952.3295341,E,2,11,0.9,-1.508,M,40.593,M,2.5,0123*6D\r\n
$GPGGA,140803.75,5703.4296919,N,00952.3295922,E,2,11,0.9,-1.512,M,40.593,M,2.5,0123*61\r\n
$GPGGA,140803.80,5703.4297445,N,00952.3296518,E,2,11,0.9,-1.509,M,40.593,M,2.5,0123*62\r\n
$GPGGA,140803.85,5703.4297956,N,00952.3297102,E,2,11,0.9,-1.507,M,40.593,M,2.7,0123*6A\r\n
$GPGGA,140803.90,5703.4298466,N,00952.3297692,E,2,11,0.9,-1.508,M,40.593,M,2.7,0123*6E\r\n
$GPGGA,140803.95,5703.4298971,N,00952.3298298,E,2,11,0.9,-1.507,M,40.593,M,2.7,0123*6E\r\n
$GPGGA,140804.00,5703.4299471,N,00952.3298918,E,2,11,0.9,-1.504,M,40.593,M,2.7,0123*69\r\n
$GPGGA,140804.05,5703.4299978,N,00952.3299564,E,2,11,0.9,-1.496,M,40.593,M,3.0,0123*62\r\n
$GPGGA,140804.10,5703.4300484,N,00952.3300204,E,2,11,0.9,-1.492,M,40.593,M,3.0,0123*6D\r\n
$GPGGA,140804.15,5703.4300998,N,00952.3300867,E,2,11,0.9,-1.486,M,40.593,M,3.0,0123*62\r\n
$GPGGA,140804.20,5703.4301497,N,00952.3301535,E,2,11,0.9,-1.482,M,40.593,M,3.0,0123*68\r\n
$GPGGA,140804.25,5703.4301984,N,00952.3302212,E,2,11,0.9,-1.483,M,40.593,M,3.2,0123*60\r\n
$GPGGA,140804.30,5703.4302467,N,00952.3302905,E,2,11,0.9,-1.482,M,40.593,M,3.2,0123*6B\r\n
$GPGGA,140804.35,5703.4302945,N,00952.3303627,E,2,11,0.9,-1.482,M,40.593,M,3.2,0123*6D\r\n
$GPGGA,140804.40,5703.4303414,N,00952.3304365,E,2,11,0.9,-1.484,M,40.593,M,3.2,0123*65\r\n
$GPGGA,140804.45,5703.4303884,N,00952.3305115,E,2,11,0.9,-1.486,M,40.593,M,2.9,0123*69\r\n
$GPGGA,140804.50,5703.4304343,N,00952.3305850,E,2,11,0.9,-1.490,M,40.593,M,2.9,0123*65\r\n
$GPGGA,140804.55,5703.4304805,N,00952.3306599,E,2,11,0.9,-1.492,M,40.593,M,2.9,0123*60\r\n
$GPGGA,140804.60,5703.4305269,N,00952.3307333,E,2,11,0.9,-1.493,M,40.593,M,2.9,0123*61\r\n
$GPGGA,140804.65,5703.4305731,N,00952.3308089,E,2,11,0.9,-1.491,M,40.593,M,3.2,0123*69\r\n
$GPGGA,140804.70,5703.4306190,N,00952.3308850,E,2,11,0.9,-1.493,M,40.593,M,3.2,0123*6D\r\n
$GPGGA,140804.75,5703.4306649,N,00952.3309611,E,2,11,0.9,-1.496,M,40.593,M,3.2,0123*64\r\n
$GPGGA,140804.80,5703.4307104,N,00952.3310383,E,2,11,0.9,-1.495,M,40.593,M,3.2,0123*64\r\n
$GPGGA,140804.85,5703.4307538,N,00952.3311176,E,2,11,0.9,-1.500,M,40.593,M,3.4,0123*68\r\n
$GPGGA,140804.90,5703.4307974,N,00952.3311985,E,2,11,0.9,-1.502,M,40.593,M,3.4,0123*6E\r\n
$GPGGA,140804.95,5703.4308401,N,00952.3312789,E,2,11,0.9,-1.503,M,40.593,M,3.4,0123*6B\r\n
$GPGGA,140805.00,5703.4308812,N,00952.3313603,E,2,11,0.9,-1.503,M,40.593,M,3.4,0123*6A\r\n
$GPGGA,140805.05,5703.4309220,N,00952.3314435,E,2,11,0.9,-1.503,M,40.593,M,3.6,0123*67\r\n
$GPGGA,140805.10,5703.4309615,N,00952.3315267,E,2,11,0.9,-1.500,M,40.593,M,3.6,0123*62\r\n
$GPGGA,140805.15,5703.4310005,N,00952.3316113,E,2,11,0.9,-1.499,M,40.593,M,3.6,0123*6A\r\n
$GPGGA,140805.20,5703.4310399,N,00952.3316958,E,2,11,0.9,-1.498,M,40.593,M,3.6,0123*6C\r\n
$GPGGA,140805.25,5703.4310796,N,00952.3317819,E,2,11,0.9,-1.490,M,40.593,M,3.8,0123*61\r\n
$GPGGA,140805.30,5703.4311178,N,00952.3318698,E,2,11,0.9,-1.486,M,40.593,M,3.8,0123*6D\r\n
$GPGGA,140805.35,5703.4311554,N,00952.3319593,E,2,11,0.9,-1.487,M,40.593,M,3.8,0123*6A\r\n
$GPGGA,140805.40,5703.4311928,N,00952.3320496,E,2,11,0.9,-1.486,M,40.593,M,3.8,0123*60\r\n
$GPGGA,140805.45,5703.4312308,N,00952.3321409,E,2,11,0.9,-1.490,M,40.593,M,1.9,0123*6D\r\n
$GPGGA,140805.50,5703.4312679,N,00952.3322339,E,2,11,0.9,-1.497,M,40.593,M,1.9,0123*6A\r\n
$GPGGA,140805.55,5703.4313064,N,00952.3323257,E,2,11,0.9,-1.504,M,40.593,M,1.9,0123*67\r\n
$GPGGA,140805.60,5703.4313433,N,00952.3324192,E,2,11,0.9,-1.511,M,40.593,M,1.9,0123*6E\r\n
$GPGGA,140805.65,5703.4313795,N,00952.3325134,E,2,11,0.9,-1.517,M,40.593,M,2.1,0123*64\r\n
$GPGGA,140805.70,5703.4314152,N,00952.3326083,E,2,11,0.9,-1.522,M,40.593,M,2.1,0123*62\r\n
$GPGGA,140805.75,5703.4314517,N,00952.3327023,E,2,11,0.9,-1.526,M,40.593,M,2.1,0123*6D\r\n
$GPGGA,140805.80,5703.4314859,N,00952.3327968,E,2,11,0.9,-1.528,M,40.593,M,2.1,0123*68\r\n
$GPGGA,140805.85,5703.4315173,N,00952.3328923,E,2,11,0.9,-1.531,M,40.593,M,2.3,0123*67\r\n
$GPGGA,140805.90,5703.4315466,N,00952.3329865,E,2,11,0.9,-1.534,M,40.593,M,2.3,0123*65\r\n
$GPGGA,140805.95,5703.4315761,N,00952.3330796,E,2,11,0.9,-1.535,M,40.593,M,2.3,0123*6E\r\n
$GPGGA,140806.00,5703.4316050,N,00952.3331717,E,2,11,0.9,-1.533,M,40.593,M,2.3,0123*69\r\n
$GPGGA,140806.05,5703.4316333,N,00952.3332633,E,2,11,0.9,-1.535,M,40.593,M,2.5,0123*6E\r\n
$GPGGA,140806.10,5703.4316606,N,00952.3333552,E,2,11,0.9,-1.538,M,40.593,M,2.5,0123*61\r\n
$GPGGA,140806.15,5703.4316886,N,00952.3334462,E,2,11,0.9,-1.542,M,40.593,M,2.5,0123*6A\r\n
$GPGGA,140806.20,5703.4317154,N,00952.3335367,E,2,11,0.9,-1.547,M,40.593,M,2.5,0123*6D\r\n
$GPGGA,140806.25,5703.4317420,N,00952.3336260,E,2,11,0.9,-1.548,M,40.593,M,2.8,0123*69\r\n
$GPGGA,140806.30,5703.4317699,N,00952.3337162,E,2,11,0.9,-1.551,M,40.593,M,2.8,0123*65\r\n
$GPGGA,140806.35,5703.4317972,N,00952.3338069,E,2,11,0.9,-1.556,M,40.593,M,2.8,0123*68\r\n
$GPGGA,140806.40,5703.4318225,N,00952.3338959,E,2,11,0.9,-1.566,M,40.593,M,2.8,0123*65\r\n
$GPGGA,140806.45,5703.4318477,N,00952.3339845,E,2,11,0.9,-1.574,M,40.593,M,3.0,0123*66\r\n
$GPGGA,140806.50,5703.4318731,N,00952.3340729,E,2,11,0.9,-1.583,M,40.593,M,3.0,0123*60\r\n
$GPGGA,140806.55,5703.4318976,N,00952.3341611,E,2,11,0.9,-1.588,M,40.593,M,3.0,0123*68\r\n
$GPGGA,140806.60,5703.4319207,N,00952.3342488,E,2,11,0.9,-1.594,M,40.593,M,3.0,0123*6E\r\n
$GPGGA,140806.65,5703.4319428,N,00952.3343352,E,2,11,0.9,-1.604,M,40.593,M,3.1,0123*6A\r\n
$GPGGA,140806.70,5703.4319647,N,00952.3344189,E,2,11,0.9,-1.609,M,40.593,M,3.1,0123*6B\r\n
$GPGGA,140806.75,5703.4319858,N,00952.3345016,E,2,11,0.9,-1.610,M,40.593,M,3.1,0123*60\r\n
$GPGGA,140806.80,5703.4320057,N,00952.3345836,E,2,11,0.9,-1.606,M,40.593,M,3.1,0123*6A\r\n
$GPGGA,140806.85,5703.4320255,N,00952.3346653,E,2,11,0.9,-1.598,M,40.593,M,3.3,0123*67\r\n
$GPGGA,140806.90,5703.4320455,N,00952.3347459,E,2,11,0.9,-1.590,M,40.593,M,3.3,0123*64\r\n
$GPGGA,140806.95,5703.4320641,N,00952.3348248,E,2,11,0.9,-1.582,M,40.593,M,3.3,0123*6C\r\n
$GPGGA,140807.00,5703.4320840,N,00952.3349031,E,2,11,0.9,-1.572,M,40.593,M,3.3,0123*6C\r\n
$GPGGA,140807.05,5703.4321042,N,00952.3349824,E,2,11,0.9,-1.560,M,40.593,M,3.5,0123*6B\r\n
$GPGGA,140807.10,5703.4321249,N,00952.3350611,E,2,11,0.9,-1.549,M,40.593,M,3.5,0123*6D\r\n
$GPGGA,140807.15,5703.4321444,N,00952.3351396,E,2,11,0.9,-1.541,M,40.593,M,3.5,0123*60\r\n
$GPGGA,140807.20,5703.4321644,N,00952.3352193,E,2,11,0.9,-1.537,M,40.593,M,3.5,0123*61\r\n
$GPGGA,140807.25,5703.4321864,N,00952.3352974,E,2,11,0.9,-1.534,M,40.593,M,3.8,0123*67\r\n
$GPGGA,140807.30,5703.4322096,N,00952.3353765,E,2,11,0.9,-1.533,M,40.593,M,3.8,0123*6D\r\n
$GPGGA,140807.35,5703.4322322,N,00952.3354576,E,2,11,0.9,-1.536,M,40.593,M,3.8,0123*66\r\n
$GPGGA,140807.40,5703.4322553,N,00952.3355401,E,2,11,0.9,-1.540,M,40.593,M,3.8,0123*65\r\n
$GPGGA,140807.45,5703.4322779,N,00952.3356220,E,2,11,0.9,-1.546,M,40.593,M,2.3,0123*60\r\n
$GPGGA,140807.50,5703.4323001,N,00952.3357031,E,2,11,0.9,-1.553,M,40.593,M,2.3,0123*6A\r\n
$GPGGA,140807.55,5703.4323216,N,00952.3357817,E,2,11,0.9,-1.558,M,40.593,M,2.3,0123*6C\r\n
$GPGGA,140807.60,5703.4323423,N,00952.3358597,E,2,11,0.9,-1.559,M,40.593,M,2.3,0123*61\r\n
$GPGGA,140807.65,5703.4323623,N,00952.3359362,E,2,11,0.9,-1.562,M,40.593,M,2.6,0123*66\r\n
$GPGGA,140807.70,5703.4323810,N,00952.3360105,E,2,11,0.9,-1.562,M,40.593,M,2.6,0123*65\r\n
$GPGGA,140807.75,5703.4323988,N,00952.3360843,E,2,11,0.9,-1.559,M,40.593,M,2.6,0123*63\r\n
$GPGGA,140807.80,5703.4324169,N,00952.3361587,E,2,11,0.9,-1.556,M,40.593,M,2.6,0123*62\r\n
$GPGGA,140807.85,5703.4324342,N,00952.3362324,E,2,11,0.9,-1.553,M,40.593,M,2.8,0123*6B\r\n
$GPGGA,140807.90,5703.4324508,N,00952.3363054,E,2,11,0.9,-1.549,M,40.593,M,2.8,0123*69\r\n
$GPGGA,140807.95,5703.4324671,N,00952.3363792,E,2,11,0.9,-1.546,M,40.593,M,2.8,0123*63\r\n
$GPGGA,140808.00,5703.4324838,N,00952.3364535,E,2,11,0.9,-1.547,M,40.593,M,2.8,0123*6A\r\n
$GPGGA,140808.05,5703.4325021,N,00952.3365282,E,2,11,0.9,-1.547,M,40.593,M,3.0,0123*6D\r\n
$GPGGA,140808.10,5703.4325209,N,00952.3366020,E,2,11,0.9,-1.545,M,40.593,M,3.0,0123*6A\r\n
$GPGGA,140808.15,5703.4325394,N,00952.3366750,E,2,11,0.9,-1.544,M,40.593,M,3.0,0123*6B\r\n
$GPGGA,140808.20,5703.4325582,N,00952.3367501,E,2,11,0.9,-1.545,M,40.593,M,3.0,0123*6A\r\n
$GPGGA,140808.25,5703.4325779,N,00952.3368255,E,2,11,0.9,-1.547,M,40.593,M,3.3,0123*61\r\n
$GPGGA,140808.30,5703.4325975,N,00952.3369009,E,2,11,0.9,-1.554,M,40.593,M,3.3,0123*6F\r\n
$GPGGA,140808.35,5703.4326172,N,00952.3369772,E,2,11,0.9,-1.560,M,40.593,M,3.3,0123*6A\r\n
$GPGGA,140808.40,5703.4326350,N,00952.3370536,E,2,11,0.9,-1.565,M,40.593,M,3.3,0123*65\r\n
$GPGGA,140808.45,5703.4326511,N,00952.3371280,E,2,11,0.9,-1.572,M,40.593,M,3.0,0123*6D\r\n
$GPGGA,140808.50,5703.4326662,N,00952.3372017,E,2,11,0.9,-1.577,M,40.593,M,3.0,0123*64\r\n
$GPGGA,140808.55,5703.4326810,N,00952.3372723,E,2,11,0.9,-1.580,M,40.593,M,3.0,0123*62\r\n
$GPGGA,140808.60,5703.4326950,N,00952.3373418,E,2,11,0.9,-1.583,M,40.593,M,3.0,0123*68\r\n
$GPGGA,140808.65,5703.4327081,N,00952.3374127,E,2,11,0.9,-1.585,M,40.593,M,3.3,0123*62\r\n
$GPGGA,140808.70,5703.4327215,N,00952.3374829,E,2,11,0.9,-1.583,M,40.593,M,3.3,0123*68\r\n
$GPGGA,140808.75,5703.4327340,N,00952.3375520,E,2,11,0.9,-1.579,M,40.593,M,3.3,0123*6C\r\n
$GPGGA,140808.80,5703.4327464,N,00952.3376207,E,2,11,0.9,-1.574,M,40.593,M,3.3,0123*6B\r\n
$GPGGA,140808.85,5703.4327587,N,00952.3376875,E,2,11,0.9,-1.563,M,40.593,M,3.5,0123*6D\r\n
$GPGGA,140808.90,5703.4327714,N,00952.3377543,E,2,11,0.9,-1.556,M,40.593,M,3.5,0123*6E\r\n
$GPGGA,140808.95,5703.4327853,N,00952.3378212,E,2,11,0.9,-1.548,M,40.593,M,3.5,0123*64\r\n
$GPGGA,140809.00,5703.4327985,N,00952.3378890,E,2,11,0.9,-1.543,M,40.593,M,3.5,0123*68\r\n
$GPGGA,140809.05,5703.4328111,N,00952.3379602,E,2,11,0.9,-1.544,M,40.593,M,3.7,0123*66\r\n
$GPGGA,140809.10,5703.4328249,N,00952.3380291,E,2,11,0.9,-1.541,M,40.593,M,3.7,0123*61\r\n
$GPGGA,140809.15,5703.4328378,N,00952.3380995,E,2,11,0.9,-1.541,M,40.593,M,3.7,0123*68\r\n
$GPGGA,140809.20,5703.4328519,N,00952.3381674,E,2,11,0.9,-1.543,M,40.593,M,3.7,0123*6C\r\n
$GPGGA,140809.25,5703.4328666,N,00952.3382368,E,2,11,0.9,-1.546,M,40.593,M,3.9,0123*62\r\n
$GPGGA,140809.30,5703.4328824,N,00952.3383081,E,2,11,0.9,-1.550,M,40.593,M,3.9,0123*6C\r\n
$GPGGA,140809.35,5703.4328980,N,00952.3383818,E,2,11,0.9,-1.559,M,40.593,M,3.9,0123*67\r\n
$GPGGA,140809.40,5703.4329139,N,00952.3384541,E,2,11,0.9,-1.569,M,40.593,M,3.9,0123*6B\r\n
$GPGGA,140809.45,5703.4329290,N,00952.3385264,E,2,11,0.9,-1.577,M,40.593,M,1.8,0123*63\r\n
$GPGGA,140809.50,5703.4329429,N,00952.3385961,E,2,11,0.9,-1.583,M,40.593,M,1.8,0123*66\r\n
$GPGGA,140809.55,5703.4329552,N,00952.3386641,E,2,11,0.9,-1.585,M,40.593,M,1.8,0123*66\r\n
$GPGGA,140809.60,5703.4329649,N,00952.3387304,E,2,11,0.9,-1.584,M,40.593,M,1.8,0123*6D\r\n
$GPGGA,140809.65,5703.4329737,N,00952.3387942,E,2,11,0.9,-1.580,M,40.593,M,2.0,0123*67\r\n
$GPGGA,140809.70,5703.4329822,N,00952.3388558,E,2,11,0.9,-1.570,M,40.593,M,2.0,0123*6F\r\n
$GPGGA,140809.75,5703.4329915,N,00952.3389160,E,2,11,0.9,-1.556,M,40.593,M,2.0,0123*65\r\n
$GPGGA,140809.80,5703.4330003,N,00952.3389759,E,2,11,0.9,-1.542,M,40.593,M,2.0,0123*60\r\n
$GPGGA,140809.85,5703.4330093,N,00952.3390364,E,2,11,0.9,-1.524,M,40.593,M,2.3,0123*6D\r\n
$GPGGA,140809.90,5703.4330171,N,00952.3390972,E,2,11,0.9,-1.513,M,40.593,M,2.3,0123*6D\r\n
$GPGGA,140809.95,5703.4330252,N,00952.3391583,E,2,11,0.9,-1.505,M,40.593,M,2.3,0123*6E\r\n
$GPGGA,140810.00,5703.4330336,N,00952.3392197,E,2,11,0.9,-1.498,M,40.593,M,2.3,0123*6E\r\n
$GPGGA,140810.05,5703.4330431,N,00952.3392828,E,2,11,0.9,-1.495,M,40.593,M,2.5,0123*6D\r\n
$GPGGA,140810.10,5703.4330539,N,00952.3393460,E,2,11,0.9,-1.492,M,40.593,M,2.5,0123*66\r\n
$GPGGA,140810.15,5703.4330664,N,00952.3394123,E,2,11,0.9,-1.493,M,40.593,M,2.5,0123*6C\r\n
$GPGGA,140810.20,5703.4330800,N,00952.3394800,E,2,11,0.9,-1.500,M,40.593,M,2.5,0123*65\r\n
$GPGGA,140810.25,5703.4330944,N,00952.3395474,E,2,11,0.9,-1.506,M,40.593,M,2.7,0123*6B\r\n
$GPGGA,140810.30,5703.4331084,N,00952.3396164,E,2,11,0.9,-1.518,M,40.593,M,2.7,0123*63\r\n
$GPGGA,140810.35,5703.4331215,N,00952.3396852,E,2,11,0.9,-1.536,M,40.593,M,2.7,0123*6C\r\n
$GPGGA,140810.40,5703.4331332,N,00952.3397548,E,2,11,0.9,-1.555,M,40.593,M,2.7,0123*68\r\n
$GPGGA,140810.45,5703.4331419,N,00952.3398232,E,2,11,0.9,-1.584,M,40.593,M,2.9,0123*64\r\n
$GPGGA,140810.50,5703.4331504,N,00952.3398873,E,2,11,0.9,-1.599,M,40.593,M,2.9,0123*6E\r\n
$GPGGA,140810.55,5703.4331577,N,00952.3399489,E,2,11,0.9,-1.606,M,40.593,M,2.9,0123*62\r\n
$GPGGA,140810.60,5703.4331632,N,00952.3400084,E,2,11,0.9,-1.611,M,40.593,M,2.9,0123*6E\r\n
$GPGGA,140810.65,5703.4331670,N,00952.3400672,E,2,11,0.9,-1.620,M,40.593,M,3.1,0123*69\r\n
$GPGGA,140810.70,5703.4331708,N,00952.3401228,E,2,11,0.9,-1.622,M,40.593,M,3.1,0123*6B\r\n
$GPGGA,140810.75,5703.4331750,N,00952.3401776,E,2,11,0.9,-1.618,M,40.593,M,3.1,0123*64\r\n
$GPGGA,140810.80,5703.4331785,N,00952.3402329,E,2,11,0.9,-1.610,M,40.593,M,3.1,0123*63\r\n
$GPGGA,140810.85,5703.4331813,N,00952.3402883,E,2,11,0.9,-1.600,M,40.593,M,3.3,0123*6E\r\n
$GPGGA,140810.90,5703.4331846,N,00952.3403413,E,2,11,0.9,-1.589,M,40.593,M,3.3,0123*6C\r\n
$GPGGA,140810.95,5703.4331873,N,00952.3403938,E,2,11,0.9,-1.580,M,40.593,M,3.3,0123*62\r\n
$GPGGA,140811.00,5703.4331918,N,00952.3404499,E,2,11,0.9,-1.570,M,40.593,M,3.3,0123*6D\r\n
$GPGGA,140811.05,5703.4331977,N,00952.3405072,E,2,11,0.9,-1.556,M,40.593,M,3.5,0123*63\r\n
$GPGGA,140811.10,5703.4332042,N,00952.3405654,E,2,11,0.9,-1.546,M,40.593,M,3.5,0123*68\r\n
$GPGGA,140811.15,5703.4332110,N,00952.3406263,E,2,11,0.9,-1.542,M,40.593,M,3.5,0123*6C\r\n
$GPGGA,140811.20,5703.4332195,N,00952.3406888,E,2,11,0.9,-1.537,M,40.593,M,3.5,0123*6A\r\n
$GPGGA,140811.25,5703.4332303,N,00952.3407523,E,2,11,0.9,-1.534,M,40.593,M,2.1,0123*69\r\n
$GPGGA,140811.30,5703.4332404,N,00952.3408155,E,2,11,0.9,-1.538,M,40.593,M,2.1,0123*6B\r\n
$GPGGA,140811.35,5703.4332510,N,00952.3408796,E,2,11,0.9,-1.545,M,40.593,M,2.1,0123*69\r\n
$GPGGA,140811.40,5703.4332606,N,00952.3409434,E,2,11,0.9,-1.552,M,40.593,M,2.1,0123*63\r\n
$GPGGA,140811.45,5703.4332700,N,00952.3410067,E,2,11,0.9,-1.559,M,40.593,M,2.3,0123*62\r\n
$GPGGA,140811.50,5703.4332777,N,00952.3410696,E,2,11,0.9,-1.564,M,40.593,M,2.3,0123*60\r\n
$GPGGA,140811.55,5703.4332854,N,00952.3411330,E,2,11,0.9,-1.566,M,40.593,M,2.3,0123*61\r\n
$GPGGA,140811.60,5703.4332923,N,00952.3411930,E,2,11,0.9,-1.566,M,40.593,M,2.3,0123*6C\r\n
$GPGGA,140811.65,5703.4332991,N,00952.3412500,E,2,11,0.9,-1.568,M,40.593,M,2.6,0123*67\r\n
$GPGGA,140811.70,5703.4333062,N,00952.3413063,E,2,11,0.9,-1.566,M,40.593,M,2.6,0123*68\r\n
$GPGGA,140811.75,5703.4333126,N,00952.3413620,E,2,11,0.9,-1.561,M,40.593,M,2.6,0123*6A\r\n
$GPGGA,140811.80,5703.4333177,N,00952.3414169,E,2,11,0.9,-1.556,M,40.593,M,2.6,0123*6D\r\n
$GPGGA,140811.85,5703.4333213,N,00952.3414716,E,2,11,0.9,-1.548,M,40.593,M,2.8,0123*66\r\n
$GPGGA,140811.90,5703.4333250,N,00952.3415258,E,2,11,0.9,-1.540,M,40.593,M,2.8,0123*63\r\n
$GPGGA,140811.95,5703.4333295,N,00952.3415777,E,2,11,0.9,-1.531,M,40.593,M,2.8,0123*61\r\n
$GPGGA,140812.00,5703.4333337,N,00952.3416292,E,2,11,0.9,-1.524,M,40.593,M,2.8,0123*6E\r\n
$GPGGA,140812.05,5703.4333368,N,00952.3416806,E,2,11,0.9,-1.521,M,40.593,M,3.0,0123*6A\r\n
$GPGGA,140812.10,5703.4333389,N,00952.3417329,E,2,11,0.9,-1.518,M,40.593,M,3.0,0123*6C\r\n
$GPGGA,140812.15,5703.4333421,N,00952.3417869,E,2,11,0.9,-1.518,M,40.593,M,3.0,0123*63\r\n
$GPGGA,140812.20,5703.4333467,N,00952.3418420,E,2,11,0.9,-1.518,M,40.593,M,3.0,0123*69\r\n
$GPGGA,140812.25,5703.4333515,N,00952.3418985,E,2,11,0.9,-1.524,M,40.593,M,2.8,0123*6C\r\n
$GPGGA,140812.30,5703.4333573,N,00952.3419561,E,2,11,0.9,-1.527,M,40.593,M,2.8,0123*6C\r\n
$GPGGA,140812.35,5703.4333637,N,00952.3420126,E,2,11,0.9,-1.532,M,40.593,M,2.8,0123*63\r\n
$GPGGA,140812.40,5703.4333695,N,00952.3420696,E,2,11,0.9,-1.541,M,40.593,M,2.8,0123*61\r\n
$GPGGA,140812.45,5703.4333769,N,00952.3421298,E,2,11,0.9,-1.550,M,40.593,M,3.0,0123*64\r\n
$GPGGA,140812.50,5703.4333838,N,00952.3421892,E,2,11,0.9,-1.562,M,40.593,M,3.0,0123*6A\r\n
$GPGGA,140812.55,5703.4333909,N,00952.3422491,E,2,11,0.9,-1.573,M,40.593,M,3.0,0123*60\r\n
$GPGGA,140812.60,5703.4333974,N,00952.3423097,E,2,11,0.9,-1.585,M,40.593,M,3.0,0123*66\r\n
$GPGGA,140812.65,5703.4334024,N,00952.3423710,E,2,11,0.9,-1.606,M,40.593,M,3.3,0123*6B\r\n
$GPGGA,140812.70,5703.4334084,N,00952.3424311,E,2,11,0.9,-1.616,M,40.593,M,3.3,0123*66\r\n
$GPGGA,140812.75,5703.4334141,N,00952.3424884,E,2,11,0.9,-1.623,M,40.593,M,3.3,0123*6A\r\n
$GPGGA,140812.80,5703.4334187,N,00952.3425440,E,2,11,0.9,-1.627,M,40.593,M,3.3,0123*6B\r\n
$GPGGA,140812.85,5703.4334227,N,00952.3425973,E,2,11,0.9,-1.631,M,40.593,M,3.5,0123*6B\r\n
$GPGGA,140812.90,5703.4334265,N,00952.3426529,E,2,11,0.9,-1.630,M,40.593,M,3.5,0123*68\r\n
$GPGGA,140812.95,5703.4334290,N,00952.3427065,E,2,11,0.9,-1.631,M,40.593,M,3.5,0123*6A\r\n
$GPGGA,140813.00,5703.4334322,N,00952.3427597,E,2,11,0.9,-1.624,M,40.593,M,3.5,0123*63\r\n
$GPGGA,140813.05,5703.4334351,N,00952.3428121,E,2,11,0.9,-1.617,M,40.593,M,3.7,0123*66\r\n
$GPGGA,140813.10,5703.4334372,N,00952.3428648,E,2,11,0.9,-1.608,M,40.593,M,3.7,0123*65\r\n
$GPGGA,140813.15,5703.4334398,N,00952.3429167,E,2,11,0.9,-1.594,M,40.593,M,3.7,0123*69\r\n
$GPGGA,140813.20,5703.4334437,N,00952.3429683,E,2,11,0.9,-1.578,M,40.593,M,3.7,0123*62\r\n
$GPGGA,140813.25,5703.4334462,N,00952.3430190,E,2,11,0.9,-1.566,M,40.593,M,1.6,0123*66\r\n
$GPGGA,140813.30,5703.4334498,N,00952.3430704,E,2,11,0.9,-1.551,M,40.593,M,1.6,0123*68\r\n
$GPGGA,140813.35,5703.4334537,N,00952.3431216,E,2,11,0.9,-1.536,M,40.593,M,1.6,0123*6F\r\n
$GPGGA,140813.40,5703.4334571,N,00952.3431742,E,2,11,0.9,-1.524,M,40.593,M,1.6,0123*68\r\n
$GPGGA,140813.45,5703.4334603,N,00952.3432279,E,2,11,0.9,-1.508,M,40.593,M,1.8,0123*65\r\n
$GPGGA,140813.50,5703.4334641,N,00952.3432835,E,2,11,0.9,-1.498,M,40.593,M,1.8,0123*6D\r\n
$GPGGA,140813.55,5703.4334693,N,00952.3433397,E,2,11,0.9,-1.491,M,40.593,M,1.8,0123*6C\r\n
$GPGGA,140813.60,5703.4334751,N,00952.3433956,E,2,11,0.9,-1.489,M,40.593,M,1.8,0123*6B\r\n
$GPGGA,140813.65,5703.4334800,N,00952.3434517,E,2,11,0.9,-1.492,M,40.593,M,2.0,0123*6A\r\n
$GPGGA,140813.70,5703.4334856,N,00952.3435091,E,2,11,0.9,-1.494,M,40.593,M,2.0,0123*61\r\n
$GPGGA,140813.75,5703.4334910,N,00952.3435675,E,2,11,0.9,-1.501,M,40.593,M,2.0,0123*66\r\n
$GPGGA,140813.80,5703.4334976,N,00952.3436259,E,2,11,0.9,-1.510,M,40.593,M,2.0,0123*65\r\n
$GPGGA,140813.85,5703.4335025,N,00952.3436841,E,2,11,0.9,-1.520,M,40.593,M,2.3,0123*6D\r\n
$GPGGA,140813.90,5703.4335077,N,00952.3437423,E,2,11,0.9,-1.532,M,40.593,M,2.3,0123*64\r\n
$GPGGA,140813.95,5703.4335114,N,00952.3437992,E,2,11,0.9,-1.546,M,40.593,M,2.3,0123*61\r\n
$GPGGA,140814.00,5703.4335141,N,00952.3438540,E,2,11,0.9,-1.559,M,40.593,M,2.3,0123*68\r\n
$GPGGA,140814.05,5703.4335157,N,00952.3439101,E,2,11,0.9,-1.582,M,40.593,M,2.5,0123*6A\r\n
$GPGGA,140814.10,5703.4335171,N,00952.3439626,E,2,11,0.9,-1.595,M,40.593,M,2.5,0123*6E\r\n
$GPGGA,140814.15,5703.4335179,N,00952.3440161,E,2,11,0.9,-1.605,M,40.593,M,2.5,0123*63\r\n
$GPGGA,140814.20,5703.4335197,N,00952.3440694,E,2,11,0.9,-1.612,M,40.593,M,2.5,0123*6E\r\n
$GPGGA,140814.25,5703.4335206,N,00952.3441212,E,2,11,0.9,-1.617,M,40.593,M,2.7,0123*6C\r\n
$GPGGA,140814.30,5703.4335211,N,00952.3441707,E,2,11,0.9,-1.619,M,40.593,M,2.7,0123*61\r\n
$GPGGA,140814.35,5703.4335208,N,00952.3442191,E,2,11,0.9,-1.621,M,40.593,M,2.7,0123*6D\r\n
$GPGGA,140814.40,5703.4335218,N,00952.3442682,E,2,11,0.9,-1.621,M,40.593,M,2.7,0123*6B\r\n
$GPGGA,140814.45,5703.4335227,N,00952.3443198,E,2,11,0.9,-1.613,M,40.593,M,2.9,0123*60\r\n
$GPGGA,140814.50,5703.4335240,N,00952.3443695,E,2,11,0.9,-1.608,M,40.593,M,2.9,0123*65\r\n
$GPGGA,140814.55,5703.4335254,N,00952.3444191,E,2,11,0.9,-1.601,M,40.593,M,2.9,0123*68\r\n
$GPGGA,140814.60,5703.4335279,N,00952.3444697,E,2,11,0.9,-1.594,M,40.593,M,2.9,0123*6F\r\n
$GPGGA,140814.65,5703.4335313,N,00952.3445198,E,2,11,0.9,-1.580,M,40.593,M,3.1,0123*62\r\n
$GPGGA,140814.70,5703.4335339,N,00952.3445724,E,2,11,0.9,-1.571,M,40.593,M,3.1,0123*61\r\n
$GPGGA,140814.75,5703.4335371,N,00952.3446259,E,2,11,0.9,-1.565,M,40.593,M,3.1,0123*61\r\n
$GPGGA,140814.80,5703.4335403,N,00952.3446810,E,2,11,0.9,-1.557,M,40.593,M,3.1,0123*6F\r\n
$GPGGA,140814.85,5703.4335443,N,00952.3447344,E,2,11,0.9,-1.550,M,40.593,M,3.3,0123*60\r\n
$GPGGA,140814.90,5703.4335472,N,00952.3447896,E,2,11,0.9,-1.547,M,40.593,M,3.3,0123*64\r\n
$GPGGA,140814.95,5703.4335506,N,00952.3448443,E,2,11,0.9,-1.544,M,40.593,M,3.3,0123*6B\r\n
$GPGGA,140815.00,5703.4335535,N,00952.3448987,E,2,11,0.9,-1.541,M,40.593,M,3.3,0123*66\r\n
$GPGGA,140815.05,5703.4335558,N,00952.3449535,E,2,11,0.9,-1.546,M,40.593,M,3.5,0123*6D\r\n
$GPGGA,140815.10,5703.4335581,N,00952.3450069,E,2,11,0.9,-1.548,M,40.593,M,3.5,0123*67\r\n
$GPGGA,140815.15,5703.4335593,N,00952.3450611,E,2,11,0.9,-1.551,M,40.593,M,3.5,0123*60\r\n
$GPGGA,140815.20,5703.4335600,N,00952.3451151,E,2,11,0.9,-1.555,M,40.593,M,3.5,0123*69\r\n
$GPGGA,140815.25,5703.4335600,N,00952.3451676,E,2,11,0.9,-1.562,M,40.593,M,2.1,0123*6F\r\n
$GPGGA,140815.30,5703.4335598,N,00952.3452186,E,2,11,0.9,-1.569,M,40.593,M,2.1,0123*69\r\n
$GPGGA,140815.35,5703.4335580,N,00952.3452685,E,2,11,0.9,-1.576,M,40.593,M,2.1,0123*6F\r\n
$GPGGA,140815.40,5703.4335571,N,00952.3453187,E,2,11,0.9,-1.580,M,40.593,M,2.1,0123*6E\r\n
$GPGGA,140815.45,5703.4335556,N,00952.3453700,E,2,11,0.9,-1.584,M,40.593,M,2.3,0123*61\r\n
$GPGGA,140815.50,5703.4335549,N,00952.3454196,E,2,11,0.9,-1.585,M,40.593,M,2.3,0123*64\r\n
$GPGGA,140815.55,5703.4335534,N,00952.3454677,E,2,11,0.9,-1.587,M,40.593,M,2.3,0123*61\r\n
$GPGGA,140815.60,5703.4335514,N,00952.3455159,E,2,11,0.9,-1.588,M,40.593,M,2.3,0123*60\r\n
$GPGGA,140815.65,5703.4335503,N,00952.3455637,E,2,11,0.9,-1.588,M,40.593,M,2.6,0123*69\r\n
$GPGGA,140815.70,5703.4335493,N,00952.3456127,E,2,11,0.9,-1.587,M,40.593,M,2.6,0123*6F\r\n
$GPGGA,140815.75,5703.4335494,N,00952.3456633,E,2,11,0.9,-1.585,M,40.593,M,2.6,0123*6D\r\n
$GPGGA,140815.80,5703.4335506,N,00952.3457115,E,2,11,0.9,-1.582,M,40.593,M,2.6,0123*68\r\n
$GPGGA,140815.85,5703.4335506,N,00952.3457608,E,2,11,0.9,-1.579,M,40.593,M,2.8,0123*6C\r\n
$GPGGA,140815.90,5703.4335501,N,00952.3458103,E,2,11,0.9,-1.576,M,40.593,M,2.8,0123*63\r\n
$GPGGA,140815.95,5703.4335514,N,00952.3458606,E,2,11,0.9,-1.571,M,40.593,M,2.8,0123*67\r\n
$GPGGA,140816.00,5703.4335541,N,00952.3459141,E,2,11,0.9,-1.564,M,40.593,M,2.8,0123*69\r\n
$GPGGA,140816.05,5703.4335565,N,00952.3459677,E,2,11,0.9,-1.559,M,40.593,M,3.0,0123*6F\r\n
$GPGGA,140816.10,5703.4335581,N,00952.3460198,E,2,11,0.9,-1.554,M,40.593,M,3.0,0123*60\r\n
$GPGGA,140816.15,5703.4335580,N,00952.3460714,E,2,11,0.9,-1.551,M,40.593,M,3.0,0123*63\r\n
$GPGGA,140816.20,5703.4335580,N,00952.3461218,E,2,11,0.9,-1.550,M,40.593,M,3.0,0123*6C\r\n
$GPGGA,140816.25,5703.4335584,N,00952.3461732,E,2,11,0.9,-1.553,M,40.593,M,2.8,0123*6A\r\n
$GPGGA,140816.30,5703.4335588,N,00952.3462257,E,2,11,0.9,-1.555,M,40.593,M,2.8,0123*61\r\n
$GPGGA,140816.35,5703.4335590,N,00952.3462782,E,2,11,0.9,-1.557,M,40.593,M,2.8,0123*62\r\n
$GPGGA,140816.40,5703.4335575,N,00952.3463284,E,2,11,0.9,-1.562,M,40.593,M,2.8,0123*6F\r\n
$GPGGA,140816.45,5703.4335567,N,00952.3463765,E,2,11,0.9,-1.566,M,40.593,M,3.0,0123*6E\r\n
$GPGGA,140816.50,5703.4335555,N,00952.3464263,E,2,11,0.9,-1.572,M,40.593,M,3.0,0123*6A\r\n
$GPGGA,140816.55,5703.4335545,N,00952.3464746,E,2,11,0.9,-1.578,M,40.593,M,3.0,0123*66\r\n
$GPGGA,140816.60,5703.4335529,N,00952.3465239,E,2,11,0.9,-1.583,M,40.593,M,3.0,0123*62\r\n
$GPGGA,140816.65,5703.4335506,N,00952.3465721,E,2,11,0.9,-1.586,M,40.593,M,3.3,0123*60\r\n
$GPGGA,140816.70,5703.4335483,N,00952.3466203,E,2,11,0.9,-1.589,M,40.593,M,3.3,0123*61\r\n
$GPGGA,140816.75,5703.4335460,N,00952.3466652,E,2,11,0.9,-1.594,M,40.593,M,3.3,0123*65\r\n
$GPGGA,140816.80,5703.4335431,N,00952.3467116,E,2,11,0.9,-1.598,M,40.593,M,3.3,0123*61\r\n
$GPGGA,140816.85,5703.4335400,N,00952.3467573,E,2,11,0.9,-1.601,M,40.593,M,3.5,0123*64\r\n
$GPGGA,140816.90,5703.4335387,N,00952.3468042,E,2,11,0.9,-1.603,M,40.593,M,3.5,0123*62\r\n
$GPGGA,140816.95,5703.4335367,N,00952.3468521,E,2,11,0.9,-1.604,M,40.593,M,3.5,0123*6E\r\n
$GPGGA,140817.00,5703.4335351,N,00952.3468994,E,2,11,0.9,-1.605,M,40.593,M,3.5,0123*65\r\n
