$GPGGA,133702.75,5703.3491311,N,00952.2403328,E,2,12,0.7,-1.695,M,40.593,M,1.4,0123*64\r\n
$GPGGA,133702.80,5703.3491593,N,00952.2403701,E,2,12,0.7,-1.695,M,40.593,M,1.4,0123*6D\r\n
$GPGGA,133702.85,5703.3491882,N,00952.2404067,E,2,12,0.7,-1.697,M,40.593,M,1.7,0123*64\r\n
$GPGGA,133702.90,5703.3492166,N,00952.2404432,E,2,12,0.7,-1.700,M,40.593,M,1.7,0123*6B\r\n
$GPGGA,133702.95,5703.3492447,N,00952.2404804,E,2,12,0.7,-1.706,M,40.593,M,1.7,0123*67\r\n
$GPGGA,133703.00,5703.3492727,N,00952.2405172,E,2,12,0.7,-1.710,M,40.593,M,1.7,0123*61\r\n
$GPGGA,133703.05,5703.3493007,N,00952.2405517,E,2,12,0.7,-1.718,M,40.593,M,2.0,0123*6B\r\n
$GPGGA,133703.10,5703.3493282,N,00952.2405865,E,2,12,0.7,-1.723,M,40.593,M,2.0,0123*60\r\n
$GPGGA,133703.15,5703.3493560,N,00952.2406214,E,2,12,0.7,-1.724,M,40.593,M,2.0,0123*66\r\n
$GPGGA,133703.20,5703.3493831,N,00952.2406581,E,2,12,0.7,-1.725,M,40.593,M,2.0,0123*63\r\n
$GPGGA,133703.25,5703.3494106,N,00952.2406946,E,2,12,0.7,-1.723,M,40.593,M,2.2,0123*6F\r\n
$GPGGA,133703.30,5703.3494371,N,00952.2407320,E,2,12,0.7,-1.723,M,40.593,M,2.2,0123*62\r\n
$GPGGA,133703.35,5703.3494628,N,00952.2407694,E,2,12,0.7,-1.723,M,40.593,M,2.2,0123*64\r\n
$GPGGA,133703.40,5703.3494889,N,00952.2408080,E,2,12,0.7,-1.720,M,40.593,M,2.2,0123*6C\r\n
$GPGGA,133703.45,5703.3495157,N,00952.2408458,E,2,12,0.7,-1.715,M,40.593,M,1.6,0123*62\r\n
$GPGGA,133703.50,5703.3495421,N,00952.2408825,E,2,12,0.7,-1.712,M,40.593,M,1.6,0123*63\r\n
$GPGGA,133703.55,5703.3495687,N,00952.2409203,E,2,12,0.7,-1.709,M,40.593,M,1.6,0123*6D\r\n
$GPGGA,133703.60,5703.3495946,N,00952.2409597,E,2,12,0.7,-1.708,M,40.593,M,1.6,0123*62\r\n
$GPGGA,133703.65,5703.3496210,N,00952.2409991,E,2,12,0.7,-1.703,M,40.593,M,2.0,0123*68\r\n
$GPGGA,133703.70,5703.3496473,N,00952.2410373,E,2,12,0.7,-1.701,M,40.593,M,2.0,0123*63\r\n
$GPGGA,133703.75,5703.3496739,N,00952.2410755,E,2,12,0.7,-1.701,M,40.593,M,2.0,0123*6B\r\n
$GPGGA,133703.80,5703.3497007,N,00952.2411131,E,2,12,0.7,-1.699,M,40.593,M,2.0,0123*6F\r\n
$GPGGA,133703.85,5703.3497268,N,00952.2411505,E,2,12,0.7,-1.703,M,40.593,M,2.3,0123*63\r\n
$GPGGA,133703.90,5703.3497537,N,00952.2411876,E,2,12,0.7,-1.703,M,40.593,M,2.3,0123*63\r\n
$GPGGA,133703.95,5703.3497806,N,00952.2412255,E,2,12,0.7,-1.703,M,40.593,M,2.3,0123*61\r\n
$GPGGA,133704.00,5703.3498073,N,00952.2412626,E,2,12,0.7,-1.702,M,40.593,M,2.3,0123*6E\r\n
$GPGGA,133704.05,5703.3498337,N,00952.2412990,E,2,12,0.7,-1.708,M,40.593,M,2.6,0123*65\r\n
$GPGGA,133704.10,5703.3498606,N,00952.2413354,E,2,12,0.7,-1.710,M,40.593,M,2.6,0123*6C\r\n
$GPGGA,133704.15,5703.3498873,N,00952.2413715,E,2,12,0.7,-1.712,M,40.593,M,2.6,0123*66\r\n
$GPGGA,133704.20,5703.3499145,N,00952.2414058,E,2,12,0.7,-1.710,M,40.593,M,2.6,0123*66\r\n
$GPGGA,133704.25,5703.3499420,N,00952.2414398,E,2,12,0.7,-1.705,M,40.593,M,2.8,0123*60\r\n
$GPGGA,133704.30,5703.3499691,N,00952.2414736,E,2,12,0.7,-1.704,M,40.593,M,2.8,0123*6D\r\n
$GPGGA,133704.35,5703.3499971,N,00952.2415064,E,2,12,0.7,-1.703,M,40.593,M,2.8,0123*6F\r\n
$GPGGA,133704.40,5703.3500253,N,00952.2415373,E,2,12,0.7,-1.699,M,40.593,M,2.8,0123*60\r\n
$GPGGA,133704.45,5703.3500533,N,00952.2415676,E,2,12,0.7,-1.699,M,40.593,M,0.6,0123*68\r\n
$GPGGA,133704.50,5703.3500820,N,00952.2415970,E,2,12,0.7,-1.698,M,40.593,M,0.6,0123*6B\r\n
$GPGGA,133704.55,5703.3501120,N,00952.2416267,E,2,12,0.7,-1.695,M,40.593,M,0.6,0123*65\r\n
$GPGGA,133704.60,5703.3501419,N,00952.2416555,E,2,12,0.7,-1.697,M,40.593,M,0.6,0123*68\r\n
$GPGGA,133704.65,5703.3501721,N,00952.2416850,E,2,12,0.7,-1.698,M,40.593,M,0.8,0123*6C\r\n
$GPGGA,133704.70,5703.3502010,N,00952.2417151,E,2,12,0.7,-1.702,M,40.593,M,0.8,0123*65\r\n
$GPGGA,133704.75,5703.3502304,N,00952.2417449,E,2,12,0.7,-1.706,M,40.593,M,0.8,0123*6E\r\n
$GPGGA,133704.80,5703.3502603,N,00952.2417731,E,2,12,0.7,-1.708,M,40.593,M,0.8,0123*64\r\n
$GPGGA,133704.85,5703.3502909,N,00952.2418000,E,2,12,0.7,-1.706,M,40.593,M,1.1,0123*68\r\n
$GPGGA,133704.90,5703.3503213,N,00952.2418285,E,2,12,0.7,-1.711,M,40.593,M,1.1,0123*64\r\n
$GPGGA,133704.95,5703.3503517,N,00952.2418581,E,2,12,0.7,-1.715,M,40.593,M,1.1,0123*65\r\n
$GPGGA,133705.00,5703.3503811,N,00952.2418889,E,2,12,0.7,-1.719,M,40.593,M,1.1,0123*6A\r\n
$GPGGA,133705.05,5703.3504108,N,00952.2419202,E,2,12,0.7,-1.725,M,40.593,M,1.3,0123*6C\r\n
$GPGGA,133705.10,5703.3504404,N,00952.2419503,E,2,12,0.7,-1.729,M,40.593,M,1.3,0123*6B\r\n
$GPGGA,133705.15,5703.3504698,N,00952.2419800,E,2,12,0.7,-1.731,M,40.593,M,1.3,0123*6E\r\n
$GPGGA,133705.20,5703.3504987,N,00952.2420104,E,2,12,0.7,-1.732,M,40.593,M,1.3,0123*6D\r\n
$GPGGA,133705.25,5703.3505284,N,00952.2420405,E,2,12,0.7,-1.729,M,40.593,M,1.5,0123*69\r\n
$GPGGA,133705.30,5703.3505573,N,00952.2420721,E,2,12,0.7,-1.728,M,40.593,M,1.5,0123*66\r\n
$GPGGA,133705.35,5703.3505868,N,00952.2421027,E,2,12,0.7,-1.726,M,40.593,M,1.5,0123*6A\r\n
$GPGGA,133705.40,5703.3506151,N,00952.2421342,E,2,12,0.7,-1.726,M,40.593,M,1.5,0123*68\r\n
$GPGGA,133705.45,5703.3506436,N,00952.2421655,E,2,12,0.7,-1.729,M,40.593,M,1.7,0123*67\r\n
$GPGGA,133705.50,5703.3506728,N,00952.2421968,E,2,12,0.7,-1.727,M,40.593,M,1.7,0123*60\r\n
$GPGGA,133705.55,5703.3507022,N,00952.2422274,E,2,12,0.7,-1.725,M,40.593,M,1.7,0123*6E\r\n
$GPGGA,133705.60,5703.3507316,N,00952.2422579,E,2,12,0.7,-1.726,M,40.593,M,1.7,0123*65\r\n
$GPGGA,133705.65,5703.3507610,N,00952.2422887,E,2,12,0.7,-1.720,M,40.593,M,2.0,0123*6D\r\n
$GPGGA,133705.70,5703.3507896,N,00952.2423187,E,2,12,0.7,-1.720,M,40.593,M,2.0,0123*61\r\n
$GPGGA,133705.75,5703.3508180,N,00952.2423499,E,2,12,0.7,-1.718,M,40.593,M,2.0,0123*64\r\n
$GPGGA,133705.80,5703.3508462,N,00952.2423805,E,2,12,0.7,-1.716,M,40.593,M,2.0,0123*60\r\n
$GPGGA,133705.85,5703.3508757,N,00952.2424118,E,2,12,0.7,-1.713,M,40.593,M,2.2,0123*65\r\n
$GPGGA,133705.90,5703.3509049,N,00952.2424437,E,2,12,0.7,-1.711,M,40.593,M,2.2,0123*62\r\n
$GPGGA,133705.95,5703.3509341,N,00952.2424750,E,2,12,0.7,-1.708,M,40.593,M,2.2,0123*66\r\n
$GPGGA,133706.00,5703.3509623,N,00952.2425056,E,2,12,0.7,-1.706,M,40.593,M,2.2,0123*66\r\n
$GPGGA,133706.05,5703.3509914,N,00952.2425354,E,2,12,0.7,-1.707,M,40.593,M,2.4,0123*6E\r\n
$GPGGA,133706.10,5703.3510205,N,00952.2425660,E,2,12,0.7,-1.707,M,40.593,M,2.4,0123*6B\r\n
$GPGGA,133706.15,5703.3510493,N,00952.2425976,E,2,12,0.7,-1.707,M,40.593,M,2.4,0123*6F\r\n
$GPGGA,133706.20,5703.3510784,N,00952.2426290,E,2,12,0.7,-1.706,M,40.593,M,2.4,0123*6D\r\n
$GPGGA,133706.25,5703.3511072,N,00952.2426601,E,2,12,0.7,-1.711,M,40.593,M,2.6,0123*6F\r\n
$GPGGA,133706.30,5703.3511366,N,00952.2426922,E,2,12,0.7,-1.711,M,40.593,M,2.6,0123*63\r\n
$GPGGA,133706.35,5703.3511663,N,00952.2427229,E,2,12,0.7,-1.715,M,40.593,M,2.6,0123*63\r\n
$GPGGA,133706.40,5703.3511957,N,00952.2427548,E,2,12,0.7,-1.719,M,40.593,M,2.6,0123*65\r\n
$GPGGA,133706.45,5703.3512249,N,00952.2427871,E,2,12,0.7,-1.728,M,40.593,M,2.8,0123*6C\r\n
$GPGGA,133706.50,5703.3512544,N,00952.2428199,E,2,12,0.7,-1.730,M,40.593,M,2.8,0123*6B\r\n
$GPGGA,133706.55,5703.3512844,N,00952.2428502,E,2,12,0.7,-1.730,M,40.593,M,2.8,0123*65\r\n
$GPGGA,133706.60,5703.3513129,N,00952.2428810,E,2,12,0.7,-1.729,M,40.593,M,2.8,0123*66\r\n
$GPGGA,133706.65,5703.3513412,N,00952.2429117,E,2,12,0.7,-1.735,M,40.593,M,3.0,0123*65\r\n
$GPGGA,133706.70,5703.3513700,N,00952.2429426,E,2,12,0.7,-1.735,M,40.593,M,3.0,0123*66\r\n
$GPGGA,133706.75,5703.3513985,N,00952.2429729,E,2,12,0.7,-1.731,M,40.593,M,3.0,0123*68\r\n
$GPGGA,133706.80,5703.3514263,N,00952.2430044,E,2,12,0.7,-1.727,M,40.593,M,3.0,0123*65\r\n
$GPGGA,133706.85,5703.3514553,N,00952.2430347,E,2,12,0.7,-1.721,M,40.593,M,3.2,0123*60\r\n
$GPGGA,133706.90,5703.3514838,N,00952.2430645,E,2,12,0.7,-1.716,M,40.593,M,3.2,0123*67\r\n
$GPGGA,133706.95,5703.3515122,N,00952.2430925,E,2,12,0.7,-1.710,M,40.593,M,3.2,0123*6E\r\n
$GPGGA,133707.00,5703.3515420,N,00952.2431196,E,2,12,0.7,-1.704,M,40.593,M,3.2,0123*60\r\n
$GPGGA,133707.05,5703.3515720,N,00952.2431443,E,2,12,0.7,-1.699,M,40.593,M,3.5,0123*69\r\n
$GPGGA,133707.10,5703.3516027,N,00952.2431708,E,2,12,0.7,-1.698,M,40.593,M,3.5,0123*63\r\n
$GPGGA,133707.15,5703.3516338,N,00952.2431965,E,2,12,0.7,-1.698,M,40.593,M,3.5,0123*6E\r\n
$GPGGA,133707.20,5703.3516661,N,00952.2432209,E,2,12,0.7,-1.700,M,40.593,M,3.5,0123*63\r\n
$GPGGA,133707.25,5703.3516978,N,00952.2432468,E,2,12,0.7,-1.705,M,40.593,M,2.2,0123*63\r\n
$GPGGA,133707.30,5703.3517303,N,00952.2432726,E,2,12,0.7,-1.707,M,40.593,M,2.2,0123*6B\r\n
$GPGGA,133707.35,5703.3517626,N,00952.2432978,E,2,12,0.7,-1.712,M,40.593,M,2.2,0123*6D\r\n
$GPGGA,133707.40,5703.3517942,N,00952.2433223,E,2,12,0.7,-1.717,M,40.593,M,2.2,0123*63\r\n
$GPGGA,133707.45,5703.3518248,N,00952.2433451,E,2,12,0.7,-1.725,M,40.593,M,2.5,0123*6D\r\n
$GPGGA,133707.50,5703.3518562,N,00952.2433681,E,2,12,0.7,-1.729,M,40.593,M,2.5,0123*65\r\n
$GPGGA,133707.55,5703.3518868,N,00952.2433899,E,2,12,0.7,-1.730,M,40.593,M,2.5,0123*68\r\n
$GPGGA,133707.60,5703.3519174,N,00952.2434124,E,2,12,0.7,-1.728,M,40.593,M,2.5,0123*6A\r\n
$GPGGA,133707.65,5703.3519477,N,00952.2434340,E,2,12,0.7,-1.724,M,40.593,M,2.7,0123*67\r\n
$GPGGA,133707.70,5703.3519787,N,00952.2434546,E,2,12,0.7,-1.724,M,40.593,M,2.7,0123*6F\r\n
$GPGGA,133707.75,5703.3520099,N,00952.2434773,E,2,12,0.7,-1.722,M,40.593,M,2.7,0123*6A\r\n
$GPGGA,133707.80,5703.3520417,N,00952.2434999,E,2,12,0.7,-1.716,M,40.593,M,2.7,0123*6F\r\n
$GPGGA,133707.85,5703.3520728,N,00952.2435207,E,2,12,0.7,-1.716,M,40.593,M,3.0,0123*6E\r\n
$GPGGA,133707.90,5703.3521041,N,00952.2435429,E,2,12,0.7,-1.713,M,40.593,M,3.0,0123*6C\r\n
$GPGGA,133707.95,5703.3521363,N,00952.2435656,E,2,12,0.7,-1.710,M,40.593,M,3.0,0123*63\r\n
$GPGGA,133708.00,5703.3521692,N,00952.2435886,E,2,12,0.7,-1.708,M,40.593,M,3.0,0123*61\r\n
$GPGGA,133708.05,5703.3522010,N,00952.2436121,E,2,12,0.7,-1.707,M,40.593,M,3.2,0123*61\r\n
$GPGGA,133708.10,5703.3522336,N,00952.2436353,E,2,12,0.7,-1.707,M,40.593,M,3.2,0123*65\r\n
$GPGGA,133708.15,5703.3522672,N,00952.2436597,E,2,12,0.7,-1.705,M,40.593,M,3.2,0123*69\r\n
$GPGGA,133708.20,5703.3523000,N,00952.2436850,E,2,12,0.7,-1.708,M,40.593,M,3.2,0123*66\r\n
$GPGGA,133708.25,5703.3523328,N,00952.2437104,E,2,12,0.7,-1.709,M,40.593,M,2.8,0123*69\r\n
$GPGGA,133708.30,5703.3523661,N,00952.2437350,E,2,12,0.7,-1.706,M,40.593,M,2.8,0123*69\r\n
$GPGGA,133708.35,5703.3524008,N,00952.2437603,E,2,12,0.7,-1.701,M,40.593,M,2.8,0123*66\r\n
$GPGGA,133708.40,5703.3524365,N,00952.2437850,E,2,12,0.7,-1.696,M,40.593,M,2.8,0123*6B\r\n
$GPGGA,133708.45,5703.3524724,N,00952.2438100,E,2,12,0.7,-1.691,M,40.593,M,3.1,0123*63\r\n
$GPGGA,133708.50,5703.3525090,N,00952.2438341,E,2,12,0.7,-1.686,M,40.593,M,3.1,0123*6F\r\n
$GPGGA,133708.55,5703.3525465,N,00952.2438589,E,2,12,0.7,-1.682,M,40.593,M,3.1,0123*62\r\n
$GPGGA,133708.60,5703.3525844,N,00952.2438838,E,2,12,0.7,-1.678,M,40.593,M,3.1,0123*69\r\n
$GPGGA,133708.65,5703.3526247,N,00952.2439092,E,2,12,0.7,-1.668,M,40.593,M,3.3,0123*6C\r\n
$GPGGA,133708.70,5703.3526652,N,00952.2439355,E,2,12,0.7,-1.664,M,40.593,M,3.3,0123*6C\r\n
$GPGGA,133708.75,5703.3527065,N,00952.2439616,E,2,12,0.7,-1.664,M,40.593,M,3.3,0123*68\r\n
$GPGGA,133708.80,5703.3527483,N,00952.2439875,E,2,12,0.7,-1.666,M,40.593,M,3.3,0123*67\r\n
$GPGGA,133708.85,5703.3527924,N,00952.2440133,E,2,12,0.7,-1.663,M,40.593,M,3.6,0123*67\r\n
$GPGGA,133708.90,5703.3528373,N,00952.2440379,E,2,12,0.7,-1.664,M,40.593,M,3.6,0123*6F\r\n
$GPGGA,133708.95,5703.3528831,N,00952.2440620,E,2,12,0.7,-1.664,M,40.593,M,3.6,0123*6E\r\n
$GPGGA,133709.00,5703.3529298,N,00952.2440859,E,2,12,0.7,-1.660,M,40.593,M,3.6,0123*6F\r\n
$GPGGA,133709.05,5703.3529754,N,00952.2441108,E,2,12,0.7,-1.670,M,40.593,M,3.8,0123*6C\r\n
$GPGGA,133709.10,5703.3530228,N,00952.2441349,E,2,12,0.7,-1.668,M,40.593,M,3.8,0123*60\r\n
$GPGGA,133709.15,5703.3530698,N,00952.2441588,E,2,12,0.7,-1.667,M,40.593,M,3.8,0123*6E\r\n
$GPGGA,133709.20,5703.3531187,N,00952.2441826,E,2,12,0.7,-1.662,M,40.593,M,3.8,0123*6C\r\n
$GPGGA,133709.25,5703.3531696,N,00952.2442053,E,2,12,0.7,-1.651,M,40.593,M,1.5,0123*68\r\n
$GPGGA,133709.30,5703.3532206,N,00952.2442312,E,2,12,0.7,-1.646,M,40.593,M,1.5,0123*62\r\n
$GPGGA,133709.35,5703.3532719,N,00952.2442565,E,2,12,0.7,-1.641,M,40.593,M,1.5,0123*6D\r\n
$GPGGA,133709.40,5703.3533244,N,00952.2442813,E,2,12,0.7,-1.639,M,40.593,M,1.5,0123*60\r\n
$GPGGA,133709.45,5703.3533757,N,00952.2443078,E,2,12,0.7,-1.645,M,40.593,M,1.7,0123*6F\r\n
$GPGGA,133709.50,5703.3534293,N,00952.2443350,E,2,12,0.7,-1.647,M,40.593,M,1.7,0123*6A\r\n
$GPGGA,133709.55,5703.3534838,N,00952.2443629,E,2,12,0.7,-1.648,M,40.593,M,1.7,0123*60\r\n
$GPGGA,133709.60,5703.3535394,N,00952.2443905,E,2,12,0.7,-1.654,M,40.593,M,1.7,0123*66\r\n
$GPGGA,133709.65,5703.3535971,N,00952.2444185,E,2,12,0.7,-1.657,M,40.593,M,2.0,0123*62\r\n
$GPGGA,133709.70,5703.3536554,N,00952.2444465,E,2,12,0.7,-1.663,M,40.593,M,2.0,0123*62\r\n
$GPGGA,133709.75,5703.3537154,N,00952.2444744,E,2,12,0.7,-1.663,M,40.593,M,2.0,0123*62\r\n
$GPGGA,133709.80,5703.3537740,N,00952.2444982,E,2,12,0.7,-1.663,M,40.593,M,2.0,0123*6F\r\n
$GPGGA,133709.85,5703.3538305,N,00952.2445206,E,2,12,0.7,-1.667,M,40.593,M,2.2,0123*60\r\n
$GPGGA,133709.90,5703.3538879,N,00952.2445416,E,2,12,0.7,-1.661,M,40.593,M,2.2,0123*65\r\n
$GPGGA,133709.95,5703.3539454,N,00952.2445638,E,2,12,0.7,-1.655,M,40.593,M,2.2,0123*6B\r\n
$GPGGA,133710.00,5703.3540032,N,00952.2445850,E,2,12,0.7,-1.649,M,40.593,M,2.2,0123*68\r\n
$GPGGA,133710.05,5703.3540623,N,00952.2446040,E,2,12,0.7,-1.642,M,40.593,M,2.4,0123*6C\r\n
$GPGGA,133710.10,5703.3541225,N,00952.2446237,E,2,12,0.7,-1.637,M,40.593,M,2.4,0123*6B\r\n
$GPGGA,133710.15,5703.3541833,N,00952.2446451,E,2,12,0.7,-1.634,M,40.593,M,2.4,0123*66\r\n
$GPGGA,133710.20,5703.3542459,N,00952.2446650,E,2,12,0.7,-1.634,M,40.593,M,2.4,0123*60\r\n
$GPGGA,133710.25,5703.3543094,N,00952.2446866,E,2,12,0.7,-1.637,M,40.593,M,2.6,0123*6B\r\n
$GPGGA,133710.30,5703.3543732,N,00952.2447094,E,2,12,0.7,-1.639,M,40.593,M,2.6,0123*6E\r\n
$GPGGA,133710.35,5703.3544372,N,00952.2447318,E,2,12,0.7,-1.646,M,40.593,M,2.6,0123*63\r\n
$GPGGA,133710.40,5703.3545018,N,00952.2447551,E,2,12,0.7,-1.654,M,40.593,M,2.6,0123*67\r\n
$GPGGA,133710.45,5703.3545668,N,00952.2447775,E,2,12,0.7,-1.663,M,40.593,M,2.8,0123*6D\r\n
$GPGGA,133710.50,5703.3546326,N,00952.2447991,E,2,12,0.7,-1.668,M,40.593,M,2.8,0123*6A\r\n
$GPGGA,133710.55,5703.3546973,N,00952.2448205,E,2,12,0.7,-1.669,M,40.593,M,2.8,0123*6D\r\n
$GPGGA,133710.60,5703.3547628,N,00952.2448397,E,2,12,0.7,-1.669,M,40.593,M,2.8,0123*61\r\n
$GPGGA,133710.65,5703.3548274,N,00952.2448563,E,2,12,0.7,-1.667,M,40.593,M,3.0,0123*6C\r\n
$GPGGA,133710.70,5703.3548923,N,00952.2448718,E,2,12,0.7,-1.667,M,40.593,M,3.0,0123*6F\r\n
$GPGGA,133710.75,5703.3549569,N,00952.2448878,E,2,12,0.7,-1.665,M,40.593,M,3.0,0123*62\r\n
$GPGGA,133710.80,5703.3550227,N,00952.2449040,E,2,12,0.7,-1.660,M,40.593,M,3.0,0123*6A\r\n
$GPGGA,133710.85,5703.3550885,N,00952.2449192,E,2,12,0.7,-1.654,M,40.593,M,3.2,0123*66\r\n
$GPGGA,133710.90,5703.3551545,N,00952.2449336,E,2,12,0.7,-1.652,M,40.593,M,3.2,0123*68\r\n
$GPGGA,133710.95,5703.3552214,N,00952.2449491,E,2,12,0.7,-1.651,M,40.593,M,3.2,0123*64\r\n
$GPGGA,133711.00,5703.3552877,N,00952.2449652,E,2,12,0.7,-1.650,M,40.593,M,3.2,0123*6A\r\n
$GPGGA,133711.05,5703.3553548,N,00952.2449796,E,2,12,0.7,-1.652,M,40.593,M,3.5,0123*63\r\n
$GPGGA,133711.10,5703.3554230,N,00952.2449950,E,2,12,0.7,-1.656,M,40.593,M,3.5,0123*68\r\n
$GPGGA,133711.15,5703.3554916,N,00952.2450097,E,2,12,0.7,-1.657,M,40.593,M,3.5,0123*69\r\n
$GPGGA,133711.20,5703.3555610,N,00952.2450242,E,2,12,0.7,-1.660,M,40.593,M,3.5,0123*69\r\n
$GPGGA,133711.25,5703.3556299,N,00952.2450390,E,2,12,0.7,-1.658,M,40.593,M,2.2,0123*69\r\n
$GPGGA,133711.30,5703.3556986,N,00952.2450528,E,2,12,0.7,-1.658,M,40.593,M,2.2,0123*6D\r\n
$GPGGA,133711.35,5703.3557683,N,00952.2450650,E,2,12,0.7,-1.660,M,40.593,M,2.2,0123*64\r\n
$GPGGA,133711.40,5703.3558379,N,00952.2450767,E,2,12,0.7,-1.657,M,40.593,M,2.2,0123*68\r\n
$GPGGA,133711.45,5703.3559070,N,00952.2450893,E,2,12,0.7,-1.661,M,40.593,M,2.5,0123*60\r\n
$GPGGA,133711.50,5703.3559757,N,00952.2451026,E,2,12,0.7,-1.664,M,40.593,M,2.5,0123*64\r\n
$GPGGA,133711.55,5703.3560454,N,00952.2451150,E,2,12,0.7,-1.666,M,40.593,M,2.5,0123*69\r\n
$GPGGA,133711.60,5703.3561162,N,00952.2451245,E,2,12,0.7,-1.664,M,40.593,M,2.5,0123*6B\r\n
$GPGGA,133711.65,5703.3561872,N,00952.2451315,E,2,12,0.7,-1.665,M,40.593,M,2.7,0123*61\r\n
$GPGGA,133711.70,5703.3562573,N,00952.2451379,E,2,12,0.7,-1.665,M,40.593,M,2.7,0123*60\r\n
$GPGGA,133711.75,5703.3563272,N,00952.2451432,E,2,12,0.7,-1.664,M,40.593,M,2.7,0123*6B\r\n
$GPGGA,133711.80,5703.3563971,N,00952.2451492,E,2,12,0.7,-1.663,M,40.593,M,2.7,0123*64\r\n
$GPGGA,133711.85,5703.3564664,N,00952.2451552,E,2,12,0.7,-1.660,M,40.593,M,3.0,0123*65\r\n
$GPGGA,133711.90,5703.3565367,N,00952.2451590,E,2,12,0.7,-1.659,M,40.593,M,3.0,0123*62\r\n
$GPGGA,133711.95,5703.3566073,N,00952.2451628,E,2,12,0.7,-1.656,M,40.593,M,3.0,0123*6D\r\n
$GPGGA,133712.00,5703.3566793,N,00952.2451660,E,2,12,0.7,-1.656,M,40.593,M,3.0,0123*67\r\n
$GPGGA,133712.05,5703.3567500,N,00952.2451710,E,2,12,0.7,-1.662,M,40.593,M,3.2,0123*68\r\n
$GPGGA,133712.10,5703.3568214,N,00952.2451750,E,2,12,0.7,-1.668,M,40.593,M,3.2,0123*6F\r\n
$GPGGA,133712.15,5703.3568934,N,00952.2451771,E,2,12,0.7,-1.670,M,40.593,M,3.2,0123*69\r\n
$GPGGA,133712.20,5703.3569662,N,00952.2451792,E,2,12,0.7,-1.671,M,40.593,M,3.2,0123*6E\r\n
$GPGGA,133712.25,5703.3570385,N,00952.2451802,E,2,12,0.7,-1.677,M,40.593,M,2.8,0123*64\r\n
$GPGGA,133712.30,5703.3571106,N,00952.2451812,E,2,12,0.7,-1.677,M,40.593,M,2.8,0123*69\r\n
$GPGGA,133712.35,5703.3571821,N,00952.2451818,E,2,12,0.7,-1.677,M,40.593,M,2.8,0123*6A\r\n
$GPGGA,133712.40,5703.3572534,N,00952.2451793,E,2,12,0.7,-1.675,M,40.593,M,2.8,0123*6C\r\n
$GPGGA,133712.45,5703.3573247,N,00952.2451752,E,2,12,0.7,-1.670,M,40.593,M,3.1,0123*6B\r\n
$GPGGA,133712.50,5703.3573957,N,00952.2451719,E,2,12,0.7,-1.668,M,40.593,M,3.1,0123*63\r\n
$GPGGA,133712.55,5703.3574662,N,00952.2451678,E,2,12,0.7,-1.670,M,40.593,M,3.1,0123*67\r\n
$GPGGA,133712.60,5703.3575369,N,00952.2451642,E,2,12,0.7,-1.668,M,40.593,M,3.1,0123*6E\r\n
$GPGGA,133712.65,5703.3576079,N,00952.2451586,E,2,12,0.7,-1.670,M,40.593,M,3.3,0123*6A\r\n
$GPGGA,133712.70,5703.3576797,N,00952.2451508,E,2,12,0.7,-1.669,M,40.593,M,3.3,0123*67\r\n
$GPGGA,133712.75,5703.3577520,N,00952.2451431,E,2,12,0.7,-1.672,M,40.593,M,3.3,0123*6C\r\n
$GPGGA,133712.80,5703.3578249,N,00952.2451354,E,2,12,0.7,-1.673,M,40.593,M,3.3,0123*64\r\n
$GPGGA,133712.85,5703.3578976,N,00952.2451269,E,2,12,0.7,-1.675,M,40.593,M,3.6,0123*6A\r\n
$GPGGA,133712.90,5703.3579693,N,00952.2451157,E,2,12,0.7,-1.678,M,40.593,M,3.6,0123*68\r\n
$GPGGA,133712.95,5703.3580408,N,00952.2451035,E,2,12,0.7,-1.677,M,40.593,M,3.6,0123*61\r\n
$GPGGA,133713.00,5703.3581110,N,00952.2450908,E,2,12,0.7,-1.674,M,40.593,M,3.6,0123*64\r\n
$GPGGA,133713.05,5703.3581809,N,00952.2450767,E,2,12,0.7,-1.674,M,40.593,M,3.8,0123*69\r\n
$GPGGA,133713.10,5703.3582518,N,00952.2450622,E,2,12,0.7,-1.670,M,40.593,M,3.8,0123*67\r\n
$GPGGA,133713.15,5703.3583221,N,00952.2450461,E,2,12,0.7,-1.670,M,40.593,M,3.8,0123*6B\r\n
$GPGGA,133713.20,5703.3583919,N,00952.2450279,E,2,12,0.7,-1.666,M,40.593,M,3.8,0123*65\r\n
$GPGGA,133713.25,5703.3584629,N,00952.2450107,E,2,12,0.7,-1.661,M,40.593,M,1.5,0123*69\r\n
$GPGGA,133713.30,5703.3585342,N,00952.2449933,E,2,12,0.7,-1.658,M,40.593,M,1.5,0123*69\r\n
$GPGGA,133713.35,5703.3586048,N,00952.2449741,E,2,12,0.7,-1.657,M,40.593,M,1.5,0123*62\r\n
$GPGGA,133713.40,5703.3586750,N,00952.2449543,E,2,12,0.7,-1.654,M,40.593,M,1.5,0123*6D\r\n
$GPGGA,133713.45,5703.3587466,N,00952.2449348,E,2,12,0.7,-1.656,M,40.593,M,1.7,0123*62\r\n
$GPGGA,133713.50,5703.3588183,N,00952.2449151,E,2,12,0.7,-1.658,M,40.593,M,1.7,0123*63\r\n
$GPGGA,133713.55,5703.3588890,N,00952.2448926,E,2,12,0.7,-1.659,M,40.593,M,1.7,0123*65\r\n
$GPGGA,133713.60,5703.3589599,N,00952.2448695,E,2,12,0.7,-1.656,M,40.593,M,1.7,0123*6E\r\n
$GPGGA,133713.65,5703.3590303,N,00952.2448456,E,2,12,0.7,-1.658,M,40.593,M,2.0,0123*61\r\n
$GPGGA,133713.70,5703.3591013,N,00952.2448211,E,2,12,0.7,-1.655,M,40.593,M,2.0,0123*6E\r\n
$GPGGA,133713.75,5703.3591719,N,00952.2447967,E,2,12,0.7,-1.656,M,40.593,M,2.0,0123*60\r\n
$GPGGA,133713.80,5703.3592421,N,00952.2447703,E,2,12,0.7,-1.655,M,40.593,M,2.0,0123*6E\r\n
$GPGGA,133713.85,5703.3593111,N,00952.2447445,E,2,12,0.7,-1.658,M,40.593,M,2.2,0123*62\r\n
$GPGGA,133713.90,5703.3593806,N,00952.2447169,E,2,12,0.7,-1.657,M,40.593,M,2.2,0123*6D\r\n
$GPGGA,133713.95,5703.3594490,N,00952.2446884,E,2,12,0.7,-1.655,M,40.593,M,2.2,0123*65\r\n
$GPGGA,133714.00,5703.3595171,N,00952.2446604,E,2,12,0.7,-1.653,M,40.593,M,2.2,0123*65\r\n
$GPGGA,133714.05,5703.3595868,N,00952.2446298,E,2,12,0.7,-1.651,M,40.593,M,2.4,0123*64\r\n
$GPGGA,133714.10,5703.3596558,N,00952.2445975,E,2,12,0.7,-1.652,M,40.593,M,2.4,0123*65\r\n
$GPGGA,133714.15,5703.3597249,N,00952.2445668,E,2,12,0.7,-1.654,M,40.593,M,2.4,0123*63\r\n
$GPGGA,133714.20,5703.3597945,N,00952.2445333,E,2,12,0.7,-1.654,M,40.593,M,2.4,0123*69\r\n
$GPGGA,133714.25,5703.3598644,N,00952.2445014,E,2,12,0.7,-1.656,M,40.593,M,2.6,0123*6B\r\n
$GPGGA,133714.30,5703.3599341,N,00952.2444673,E,2,12,0.7,-1.657,M,40.593,M,2.6,0123*69\r\n
$GPGGA,133714.35,5703.3600037,N,00952.2444308,E,2,12,0.7,-1.658,M,40.593,M,2.6,0123*6B\r\n
$GPGGA,133714.40,5703.3600713,N,00952.2443951,E,2,12,0.7,-1.666,M,40.593,M,2.6,0123*64\r\n
$GPGGA,133714.45,5703.3601398,N,00952.2443590,E,2,12,0.7,-1.667,M,40.593,M,2.8,0123*69\r\n
$GPGGA,133714.50,5703.3602067,N,00952.2443209,E,2,12,0.7,-1.665,M,40.593,M,2.8,0123*68\r\n
$GPGGA,133714.55,5703.3602739,N,00952.2442830,E,2,12,0.7,-1.665,M,40.593,M,2.8,0123*60\r\n
$GPGGA,133714.60,5703.3603409,N,00952.2442429,E,2,12,0.7,-1.663,M,40.593,M,2.8,0123*65\r\n
$GPGGA,133714.65,5703.3604089,N,00952.2442047,E,2,12,0.7,-1.655,M,40.593,M,3.0,0123*6B\r\n
$GPGGA,133714.70,5703.3604757,N,00952.2441650,E,2,12,0.7,-1.655,M,40.593,M,3.0,0123*68\r\n
$GPGGA,133714.75,5703.3605420,N,00952.2441252,E,2,12,0.7,-1.652,M,40.593,M,3.0,0123*6E\r\n
$GPGGA,133714.80,5703.3606098,N,00952.2440860,E,2,12,0.7,-1.652,M,40.593,M,3.0,0123*6A\r\n
$GPGGA,133714.85,5703.3606781,N,00952.2440445,E,2,12,0.7,-1.646,M,40.593,M,3.2,0123*6C\r\n
$GPGGA,133714.90,5703.3607457,N,00952.2440034,E,2,12,0.7,-1.644,M,40.593,M,3.2,0123*61\r\n
$GPGGA,133714.95,5703.3608136,N,00952.2439617,E,2,12,0.7,-1.643,M,40.593,M,3.2,0123*67\r\n
$GPGGA,133715.00,5703.3608818,N,00952.2439216,E,2,12,0.7,-1.644,M,40.593,M,3.2,0123*6D\r\n
$GPGGA,133715.05,5703.3609487,N,00952.2438808,E,2,12,0.7,-1.646,M,40.593,M,3.5,0123*62\r\n
$GPGGA,133715.10,5703.3610173,N,00952.2438405,E,2,12,0.7,-1.648,M,40.593,M,3.5,0123*6F\r\n
$GPGGA,133715.15,5703.3610851,N,00952.2437996,E,2,12,0.7,-1.650,M,40.593,M,3.5,0123*62\r\n
$GPGGA,133715.20,5703.3611531,N,00952.2437585,E,2,12,0.7,-1.651,M,40.593,M,3.5,0123*61\r\n
$GPGGA,133715.25,5703.3612211,N,00952.2437174,E,2,12,0.7,-1.650,M,40.593,M,2.2,0123*6F\r\n
$GPGGA,133715.30,5703.3612892,N,00952.2436759,E,2,12,0.7,-1.650,M,40.593,M,2.2,0123*62\r\n
$GPGGA,133715.35,5703.3613578,N,00952.2436336,E,2,12,0.7,-1.652,M,40.593,M,2.2,0123*60\r\n
$GPGGA,133715.40,5703.3614257,N,00952.2435911,E,2,12,0.7,-1.651,M,40.593,M,2.2,0123*60\r\n
$GPGGA,133715.45,5703.3614936,N,00952.2435455,E,2,12,0.7,-1.653,M,40.593,M,2.5,0123*61\r\n
$GPGGA,133715.50,5703.3615605,N,00952.2435015,E,2,12,0.7,-1.657,M,40.593,M,2.5,0123*6F\r\n
$GPGGA,133715.55,5703.3616277,N,00952.2434577,E,2,12,0.7,-1.658,M,40.593,M,2.5,0123*67\r\n
$GPGGA,133715.60,5703.3616947,N,00952.2434131,E,2,12,0.7,-1.659,M,40.593,M,2.5,0123*6E\r\n
$GPGGA,133715.65,5703.3617614,N,00952.2433686,E,2,12,0.7,-1.655,M,40.593,M,2.7,0123*61\r\n
$GPGGA,133715.70,5703.3618282,N,00952.2433233,E,2,12,0.7,-1.655,M,40.593,M,2.7,0123*6B\r\n
$GPGGA,133715.75,5703.3618953,N,00952.2432765,E,2,12,0.7,-1.654,M,40.593,M,2.7,0123*6F\r\n
$GPGGA,133715.80,5703.3619629,N,00952.2432303,E,2,12,0.7,-1.652,M,40.593,M,2.7,0123*64\r\n
$GPGGA,133715.85,5703.3620306,N,00952.2431844,E,2,12,0.7,-1.654,M,40.593,M,3.0,0123*68\r\n
$GPGGA,133715.90,5703.3620984,N,00952.2431371,E,2,12,0.7,-1.655,M,40.593,M,3.0,0123*60\r\n
$GPGGA,133715.95,5703.3621660,N,00952.2430895,E,2,12,0.7,-1.657,M,40.593,M,3.0,0123*63\r\n
$GPGGA,133716.00,5703.3622335,N,00952.2430430,E,2,12,0.7,-1.658,M,40.593,M,3.0,0123*66\r\n
$GPGGA,133716.05,5703.3623007,N,00952.2429957,E,2,12,0.7,-1.660,M,40.593,M,3.2,0123*6D\r\n
$GPGGA,133716.10,5703.3623683,N,00952.2429495,E,2,12,0.7,-1.662,M,40.593,M,3.2,0123*62\r\n
$GPGGA,133716.15,5703.3624366,N,00952.2429042,E,2,12,0.7,-1.662,M,40.593,M,3.2,0123*60\r\n
$GPGGA,133716.20,5703.3625038,N,00952.2428573,E,2,12,0.7,-1.664,M,40.593,M,3.2,0123*6F\r\n
$GPGGA,133716.25,5703.3625710,N,00952.2428097,E,2,12,0.7,-1.662,M,40.593,M,2.8,0123*65\r\n
$GPGGA,133716.30,5703.3626382,N,00952.2427625,E,2,12,0.7,-1.660,M,40.593,M,2.8,0123*6F\r\n
$GPGGA,133716.35,5703.3627054,N,00952.2427129,E,2,12,0.7,-1.657,M,40.593,M,2.8,0123*6C\r\n
$GPGGA,133716.40,5703.3627719,N,00952.2426641,E,2,12,0.7,-1.657,M,40.593,M,2.8,0123*68\r\n
$GPGGA,133716.45,5703.3628387,N,00952.2426146,E,2,12,0.7,-1.657,M,40.593,M,3.1,0123*69\r\n
$GPGGA,133716.50,5703.3629052,N,00952.2425637,E,2,12,0.7,-1.659,M,40.593,M,3.1,0123*6B\r\n
$GPGGA,133716.55,5703.3629729,N,00952.2425132,E,2,12,0.7,-1.656,M,40.593,M,3.1,0123*68\r\n
$GPGGA,133716.60,5703.3630400,N,00952.2424617,E,2,12,0.7,-1.654,M,40.593,M,3.1,0123*6D\r\n
$GPGGA,133716.65,5703.3631073,N,00952.2424111,E,2,12,0.7,-1.659,M,40.593,M,3.3,0123*67\r\n
$GPGGA,133716.70,5703.3631743,N,00952.2423605,E,2,12,0.7,-1.667,M,40.593,M,3.3,0123*6F\r\n
$GPGGA,133716.75,5703.3632413,N,00952.2423092,E,2,12,0.7,-1.669,M,40.593,M,3.3,0123*69\r\n
$GPGGA,133716.80,5703.3633084,N,00952.2422581,E,2,12,0.7,-1.669,M,40.593,M,3.3,0123*6E\r\n
$GPGGA,133716.85,5703.3633747,N,00952.2422074,E,2,12,0.7,-1.668,M,40.593,M,3.6,0123*68\r\n
$GPGGA,133716.90,5703.3634409,N,00952.2421564,E,2,12,0.7,-1.668,M,40.593,M,3.6,0123*65\r\n
$GPGGA,133716.95,5703.3635074,N,00952.2421046,E,2,12,0.7,-1.668,M,40.593,M,3.6,0123*6A\r\n
$GPGGA,133717.00,5703.3635732,N,00952.2420517,E,2,12,0.7,-1.668,M,40.593,M,3.6,0123*62\r\n
$GPGGA,133717.05,5703.3636383,N,00952.2419984,E,2,12,0.7,-1.666,M,40.593,M,3.8,0123*66\r\n
$GPGGA,133717.10,5703.3637051,N,00952.2419466,E,2,12,0.7,-1.666,M,40.593,M,3.8,0123*6E\r\n
$GPGGA,133717.15,5703.3637719,N,00952.2418921,E,2,12,0.7,-1.664,M,40.593,M,3.8,0123*6D\r\n
$GPGGA,133717.20,5703.3638385,N,00952.2418394,E,2,12,0.7,-1.664,M,40.593,M,3.8,0123*61\r\n
$GPGGA,133717.25,5703.3639050,N,00952.2417868,E,2,12,0.7,-1.662,M,40.593,M,1.5,0123*60\r\n
$GPGGA,133717.30,5703.3639719,N,00952.2417331,E,2,12,0.7,-1.664,M,40.593,M,1.5,0123*6F\r\n
$GPGGA,133717.35,5703.3640385,N,00952.2416802,E,2,12,0.7,-1.665,M,40.593,M,1.5,0123*6E\r\n
$GPGGA,133717.40,5703.3641067,N,00952.2416266,E,2,12,0.7,-1.663,M,40.593,M,1.5,0123*6C\r\n
$GPGGA,133717.45,5703.3641735,N,00952.2415726,E,2,12,0.7,-1.666,M,40.593,M,1.7,0123*6C\r\n
$GPGGA,133717.50,5703.3642409,N,00952.2415198,E,2,12,0.7,-1.668,M,40.593,M,1.7,0123*6A\r\n
$GPGGA,133717.55,5703.3643071,N,00952.2414674,E,2,12,0.7,-1.668,M,40.593,M,1.7,0123*61\r\n
$GPGGA,133717.60,5703.3643736,N,00952.2414142,E,2,12,0.7,-1.668,M,40.593,M,1.7,0123*61\r\n
$GPGGA,133717.65,5703.3644396,N,00952.2413606,E,2,12,0.7,-1.666,M,40.593,M,2.0,0123*67\r\n
$GPGGA,133717.70,5703.3645053,N,00952.2413071,E,2,12,0.7,-1.660,M,40.593,M,2.0,0123*68\r\n
$GPGGA,133717.75,5703.3645706,N,00952.2412525,E,2,12,0.7,-1.656,M,40.593,M,2.0,0123*6A\r\n
$GPGGA,133717.80,5703.3646358,N,00952.2411965,E,2,12,0.7,-1.654,M,40.593,M,2.0,0123*65\r\n
$GPGGA,133717.85,5703.3647020,N,00952.2411403,E,2,12,0.7,-1.652,M,40.593,M,2.2,0123*64\r\n
$GPGGA,133717.90,5703.3647687,N,00952.2410865,E,2,12,0.7,-1.652,M,40.593,M,2.2,0123*66\r\n
$GPGGA,133717.95,5703.3648349,N,00952.2410334,E,2,12,0.7,-1.653,M,40.593,M,2.2,0123*65\r\n
$GPGGA,133718.00,5703.3649022,N,00952.2409797,E,2,12,0.7,-1.653,M,40.593,M,2.2,0123*6C\r\n
$GPGGA,133718.05,5703.3649696,N,00952.2409253,E,2,12,0.7,-1.654,M,40.593,M,2.4,0123*6C\r\n
$GPGGA,133718.10,5703.3650385,N,00952.2408720,E,2,12,0.7,-1.654,M,40.593,M,2.4,0123*67\r\n
$GPGGA,133718.15,5703.3651069,N,00952.2408186,E,2,12,0.7,-1.657,M,40.593,M,2.4,0123*6B\r\n
$GPGGA,133718.20,5703.3651759,N,00952.2407656,E,2,12,0.7,-1.659,M,40.593,M,2.4,0123*62\r\n
$GPGGA,133718.25,5703.3652440,N,00952.2407118,E,2,12,0.7,-1.667,M,40.593,M,2.6,0123*6D\r\n
$GPGGA,133718.30,5703.3653117,N,00952.2406560,E,2,12,0.7,-1.669,M,40.593,M,2.6,0123*6B\r\n
$GPGGA,133718.35,5703.3653785,N,00952.2406020,E,2,12,0.7,-1.669,M,40.593,M,2.6,0123*62\r\n
$GPGGA,133718.40,5703.3654447,N,00952.2405482,E,2,12,0.7,-1.668,M,40.593,M,2.6,0123*64\r\n
$GPGGA,133718.45,5703.3655100,N,00952.2404933,E,2,12,0.7,-1.669,M,40.593,M,2.8,0123*6F\r\n
$GPGGA,133718.50,5703.3655746,N,00952.2404373,E,2,12,0.7,-1.667,M,40.593,M,2.8,0123*6F\r\n
$GPGGA,133718.55,5703.3656389,N,00952.2403810,E,2,12,0.7,-1.664,M,40.593,M,2.8,0123*64\r\n
$GPGGA,133718.60,5703.3657040,N,00952.2403249,E,2,12,0.7,-1.658,M,40.593,M,2.8,0123*6C\r\n
$GPGGA,133718.65,5703.3657688,N,00952.2402679,E,2,12,0.7,-1.652,M,40.593,M,3.0,0123*6E\r\n
$GPGGA,133718.70,5703.3658341,N,00952.2402114,E,2,12,0.7,-1.647,M,40.593,M,3.0,0123*6D\r\n
$GPGGA,133718.75,5703.3659001,N,00952.2401556,E,2,12,0.7,-1.644,M,40.593,M,3.0,0123*6C\r\n
$GPGGA,133718.80,5703.3659661,N,00952.2401002,E,2,12,0.7,-1.643,M,40.593,M,3.0,0123*65\r\n
$GPGGA,133718.85,5703.3660324,N,00952.2400446,E,2,12,0.7,-1.645,M,40.593,M,3.2,0123*6F\r\n
$GPGGA,133718.90,5703.3660995,N,00952.2399877,E,2,12,0.7,-1.644,M,40.593,M,3.2,0123*63\r\n
$GPGGA,133718.95,5703.3661670,N,00952.2399308,E,2,12,0.7,-1.646,M,40.593,M,3.2,0123*62\r\n
$GPGGA,133719.00,5703.3662340,N,00952.2398761,E,2,12,0.7,-1.649,M,40.593,M,3.2,0123*6F\r\n
$GPGGA,133719.05,5703.3662995,N,00952.2398214,E,2,12,0.7,-1.652,M,40.593,M,3.5,0123*62\r\n
$GPGGA,133719.10,5703.3663657,N,00952.2397684,E,2,12,0.7,-1.654,M,40.593,M,3.5,0123*62\r\n
$GPGGA,133719.15,5703.3664318,N,00952.2397151,E,2,12,0.7,-1.655,M,40.593,M,3.5,0123*60\r\n
$GPGGA,133719.20,5703.3664977,N,00952.2396605,E,2,12,0.7,-1.655,M,40.593,M,3.5,0123*62\r\n
$GPGGA,133719.25,5703.3665640,N,00952.2396061,E,2,12,0.7,-1.659,M,40.593,M,2.2,0123*63\r\n
$GPGGA,133719.30,5703.3666303,N,00952.2395504,E,2,12,0.7,-1.658,M,40.593,M,2.2,0123*62\r\n
$GPGGA,133719.35,5703.3666966,N,00952.2394938,E,2,12,0.7,-1.658,M,40.593,M,2.2,0123*6C\r\n
$GPGGA,133719.40,5703.3667616,N,00952.2394365,E,2,12,0.7,-1.660,M,40.593,M,2.2,0123*6E\r\n
$GPGGA,133719.45,5703.3668269,N,00952.2393800,E,2,12,0.7,-1.666,M,40.593,M,2.5,0123*66\r\n
$GPGGA,133719.50,5703.3668926,N,00952.2393219,E,2,12,0.7,-1.669,M,40.593,M,2.5,0123*6F\r\n
$GPGGA,133719.55,5703.3669590,N,00952.2392638,E,2,12,0.7,-1.672,M,40.593,M,2.5,0123*66\r\n
$GPGGA,133719.60,5703.3670248,N,00952.2392062,E,2,12,0.7,-1.674,M,40.593,M,2.5,0123*65\r\n
$GPGGA,133719.65,5703.3670904,N,00952.2391490,E,2,12,0.7,-1.680,M,40.593,M,2.7,0123*60\r\n
$GPGGA,133719.70,5703.3671566,N,00952.2390908,E,2,12,0.7,-1.682,M,40.593,M,2.7,0123*62\r\n
$GPGGA,133719.75,5703.3672223,N,00952.2390322,E,2,12,0.7,-1.684,M,40.593,M,2.7,0123*66\r\n
$GPGGA,133719.80,5703.3672868,N,00952.2389718,E,2,12,0.7,-1.684,M,40.593,M,2.7,0123*6C\r\n
$GPGGA,133719.85,5703.3673512,N,00952.2389119,E,2,12,0.7,-1.682,M,40.593,M,3.0,0123*6F\r\n
$GPGGA,133719.90,5703.3674148,N,00952.2388514,E,2,12,0.7,-1.679,M,40.593,M,3.0,0123*6B\r\n
$GPGGA,133719.95,5703.3674782,N,00952.2387899,E,2,12,0.7,-1.677,M,40.593,M,3.0,0123*67\r\n
$GPGGA,133720.00,5703.3675423,N,00952.2387298,E,2,12,0.7,-1.673,M,40.593,M,3.0,0123*67\r\n
$GPGGA,133720.05,5703.3676061,N,00952.2386704,E,2,12,0.7,-1.667,M,40.593,M,3.2,0123*65\r\n
$GPGGA,133720.10,5703.3676702,N,00952.2386112,E,2,12,0.7,-1.665,M,40.593,M,3.2,0123*60\r\n
$GPGGA,133720.15,5703.3677349,N,00952.2385517,E,2,12,0.7,-1.660,M,40.593,M,3.2,0123*68\r\n
$GPGGA,133720.20,5703.3677988,N,00952.2384907,E,2,12,0.7,-1.659,M,40.593,M,3.2,0123*6F\r\n
$GPGGA,133720.25,5703.3678629,N,00952.2384304,E,2,12,0.7,-1.657,M,40.593,M,2.8,0123*6D\r\n
$GPGGA,133720.30,5703.3679284,N,00952.2383695,E,2,12,0.7,-1.656,M,40.593,M,2.8,0123*60\r\n
$GPGGA,133720.35,5703.3679928,N,00952.2383096,E,2,12,0.7,-1.659,M,40.593,M,2.8,0123*62\r\n
$GPGGA,133720.40,5703.3680578,N,00952.2382482,E,2,12,0.7,-1.659,M,40.593,M,2.8,0123*6F\r\n
$GPGGA,133720.45,5703.3681218,N,00952.2381857,E,2,12,0.7,-1.663,M,40.593,M,3.1,0123*6C\r\n
$GPGGA,133720.50,5703.3681856,N,00952.2381240,E,2,12,0.7,-1.664,M,40.593,M,3.1,0123*63\r\n
$GPGGA,133720.55,5703.3682476,N,00952.2380605,E,2,12,0.7,-1.666,M,40.593,M,3.1,0123*6D\r\n
$GPGGA,133720.60,5703.3683095,N,00952.2379954,E,2,12,0.7,-1.665,M,40.593,M,3.1,0123*6D\r\n
$GPGGA,133720.65,5703.3683714,N,00952.2379310,E,2,12,0.7,-1.662,M,40.593,M,3.3,0123*69\r\n
$GPGGA,133720.70,5703.3684332,N,00952.2378653,E,2,12,0.7,-1.658,M,40.593,M,3.3,0123*60\r\n
$GPGGA,133720.75,5703.3684932,N,00952.2377987,E,2,12,0.7,-1.658,M,40.593,M,3.3,0123*66\r\n
$GPGGA,133720.80,5703.3685529,N,00952.2377311,E,2,12,0.7,-1.658,M,40.593,M,3.3,0123*6E\r\n
$GPGGA,133720.85,5703.3686139,N,00952.2376630,E,2,12,0.7,-1.659,M,40.593,M,3.6,0123*6E\r\n
$GPGGA,133720.90,5703.3686751,N,00952.2375957,E,2,12,0.7,-1.659,M,40.593,M,3.6,0123*6F\r\n
$GPGGA,133720.95,5703.3687361,N,00952.2375292,E,2,12,0.7,-1.660,M,40.593,M,3.6,0123*64\r\n
$GPGGA,133721.00,5703.3687972,N,00952.2374622,E,2,12,0.7,-1.660,M,40.593,M,3.6,0123*6F\r\n
$GPGGA,133721.05,5703.3688587,N,00952.2373949,E,2,12,0.7,-1.660,M,40.593,M,3.8,0123*68\r\n
$GPGGA,133721.10,5703.3689202,N,00952.2373271,E,2,12,0.7,-1.662,M,40.593,M,3.8,0123*65\r\n
$GPGGA,133721.15,5703.3689816,N,00952.2372605,E,2,12,0.7,-1.663,M,40.593,M,3.8,0123*68\r\n
$GPGGA,133721.20,5703.3690433,N,00952.2371923,E,2,12,0.7,-1.663,M,40.593,M,3.8,0123*65\r\n
$GPGGA,133721.25,5703.3691041,N,00952.2371243,E,2,12,0.7,-1.668,M,40.593,M,1.5,0123*69\r\n
$GPGGA,133721.30,5703.3691643,N,00952.2370554,E,2,12,0.7,-1.671,M,40.593,M,1.5,0123*61\r\n
$GPGGA,133721.35,5703.3692234,N,00952.2369863,E,2,12,0.7,-1.674,M,40.593,M,1.5,0123*67\r\n
$GPGGA,133721.40,5703.3692816,N,00952.2369163,E,2,12,0.7,-1.676,M,40.593,M,1.5,0123*64\r\n
$GPGGA,133721.45,5703.3693409,N,00952.2368465,E,2,12,0.7,-1.672,M,40.593,M,1.7,0123*66\r\n
$GPGGA,133721.50,5703.3693992,N,00952.2367755,E,2,12,0.7,-1.671,M,40.593,M,1.7,0123*61\r\n
$GPGGA,133721.55,5703.3694576,N,00952.2367032,E,2,12,0.7,-1.669,M,40.593,M,1.7,0123*6A\r\n
$GPGGA,133721.60,5703.3695152,N,00952.2366322,E,2,12,0.7,-1.667,M,40.593,M,1.7,0123*62\r\n
$GPGGA,133721.65,5703.3695733,N,00952.2365617,E,2,12,0.7,-1.667,M,40.593,M,2.0,0123*62\r\n
$GPGGA,133721.70,5703.3696316,N,00952.2364889,E,2,12,0.7,-1.669,M,40.593,M,2.0,0123*60\r\n
$GPGGA,133721.75,5703.3696895,N,00952.2364164,E,2,12,0.7,-1.668,M,40.593,M,2.0,0123*6E\r\n
$GPGGA,133721.80,5703.3697473,N,00952.2363431,E,2,12,0.7,-1.667,M,40.593,M,2.0,0123*6C\r\n
$GPGGA,133721.85,5703.3698051,N,00952.2362682,E,2,12,0.7,-1.668,M,40.593,M,2.2,0123*64\r\n
$GPGGA,133721.90,5703.3698626,N,00952.2361940,E,2,12,0.7,-1.667,M,40.593,M,2.2,0123*6B\r\n
$GPGGA,133721.95,5703.3699203,N,00952.2361186,E,2,12,0.7,-1.667,M,40.593,M,2.2,0123*6E\r\n
$GPGGA,133722.00,5703.3699767,N,00952.2360420,E,2,12,0.7,-1.669,M,40.593,M,2.2,0123*60\r\n
$GPGGA,133722.05,5703.3700326,N,00952.2359644,E,2,12,0.7,-1.670,M,40.593,M,2.4,0123*61\r\n
$GPGGA,133722.10,5703.3700896,N,00952.2358871,E,2,12,0.7,-1.669,M,40.593,M,2.4,0123*64\r\n
$GPGGA,133722.15,5703.3701450,N,00952.2358079,E,2,12,0.7,-1.670,M,40.593,M,2.4,0123*6E\r\n
$GPGGA,133722.20,5703.3702007,N,00952.2357290,E,2,12,0.7,-1.670,M,40.593,M,2.4,0123*67\r\n
$GPGGA,133722.25,5703.3702541,N,00952.2356500,E,2,12,0.7,-1.673,M,40.593,M,2.6,0123*6B\r\n
$GPGGA,133722.30,5703.3703069,N,00952.2355690,E,2,12,0.7,-1.671,M,40.593,M,2.6,0123*6A\r\n
$GPGGA,133722.35,5703.3703595,N,00952.2354874,E,2,12,0.7,-1.671,M,40.593,M,2.6,0123*6C\r\n
$GPGGA,133722.40,5703.3704124,N,00952.2354052,E,2,12,0.7,-1.668,M,40.593,M,2.6,0123*63\r\n
$GPGGA,133722.45,5703.3704649,N,00952.2353230,E,2,12,0.7,-1.665,M,40.593,M,2.8,0123*68\r\n
$GPGGA,133722.50,5703.3705172,N,00952.2352409,E,2,12,0.7,-1.663,M,40.593,M,2.8,0123*69\r\n
$GPGGA,133722.55,5703.3705681,N,00952.2351580,E,2,12,0.7,-1.660,M,40.593,M,2.8,0123*67\r\n
$GPGGA,133722.60,5703.3706194,N,00952.2350752,E,2,12,0.7,-1.657,M,40.593,M,2.8,0123*69\r\n
$GPGGA,133722.65,5703.3706709,N,00952.2349920,E,2,12,0.7,-1.658,M,40.593,M,3.0,0123*6B\r\n
$GPGGA,133722.70,5703.3707217,N,00952.2349081,E,2,12,0.7,-1.658,M,40.593,M,3.0,0123*66\r\n
$GPGGA,133722.75,5703.3707716,N,00952.2348240,E,2,12,0.7,-1.661,M,40.593,M,3.0,0123*63\r\n
$GPGGA,133722.80,5703.3708225,N,00952.2347400,E,2,12,0.7,-1.661,M,40.593,M,3.0,0123*6E\r\n
$GPGGA,133722.85,5703.3708728,N,00952.2346554,E,2,12,0.7,-1.665,M,40.593,M,3.2,0123*64\r\n
$GPGGA,133722.90,5703.3709228,N,00952.2345698,E,2,12,0.7,-1.667,M,40.593,M,3.2,0123*66\r\n
$GPGGA,133722.95,5703.3709722,N,00952.2344830,E,2,12,0.7,-1.669,M,40.593,M,3.2,0123*6F\r\n
$GPGGA,133723.00,5703.3710205,N,00952.2343963,E,2,12,0.7,-1.673,M,40.593,M,3.2,0123*61\r\n
$GPGGA,133723.05,5703.3710678,N,00952.2343078,E,2,12,0.7,-1.673,M,40.593,M,3.5,0123*6E\r\n
$GPGGA,133723.10,5703.3711140,N,00952.2342171,E,2,12,0.7,-1.674,M,40.593,M,3.5,0123*69\r\n
$GPGGA,133723.15,5703.3711591,N,00952.2341257,E,2,12,0.7,-1.673,M,40.593,M,3.5,0123*67\r\n
$GPGGA,133723.20,5703.3712027,N,00952.2340350,E,2,12,0.7,-1.674,M,40.593,M,3.5,0123*6A\r\n
$GPGGA,133723.25,5703.3712463,N,00952.2339446,E,2,12,0.7,-1.675,M,40.593,M,2.2,0123*62\r\n
$GPGGA,133723.30,5703.3712894,N,00952.2338536,E,2,12,0.7,-1.672,M,40.593,M,2.2,0123*62\r\n
$GPGGA,133723.35,5703.3713306,N,00952.2337622,E,2,12,0.7,-1.667,M,40.593,M,2.2,0123*6B\r\n
$GPGGA,133723.40,5703.3713725,N,00952.2336703,E,2,12,0.7,-1.661,M,40.593,M,2.2,0123*69\r\n
$GPGGA,133723.45,5703.3714145,N,00952.2335801,E,2,12,0.7,-1.657,M,40.593,M,2.5,0123*67\r\n
$GPGGA,133723.50,5703.3714549,N,00952.2334891,E,2,12,0.7,-1.653,M,40.593,M,2.5,0123*67\r\n
$GPGGA,133723.55,5703.3714956,N,00952.2333977,E,2,12,0.7,-1.651,M,40.593,M,2.5,0123*6C\r\n
$GPGGA,133723.60,5703.3715363,N,00952.2333052,E,2,12,0.7,-1.647,M,40.593,M,2.5,0123*6E\r\n
$GPGGA,133723.65,5703.3715769,N,00952.2332149,E,2,12,0.7,-1.649,M,40.593,M,2.7,0123*63\r\n
$GPGGA,133723.70,5703.3716174,N,00952.2331227,E,2,12,0.7,-1.648,M,40.593,M,2.7,0123*67\r\n
$GPGGA,133723.75,5703.3716575,N,00952.2330314,E,2,12,0.7,-1.647,M,40.593,M,2.7,0123*68\r\n
$GPGGA,133723.80,5703.3716969,N,00952.2329394,E,2,12,0.7,-1.650,M,40.593,M,2.7,0123*65\r\n
$GPGGA,133723.85,5703.3717369,N,00952.2328452,E,2,12,0.7,-1.652,M,40.593,M,3.0,0123*63\r\n
$GPGGA,133723.90,5703.3717774,N,00952.2327528,E,2,12,0.7,-1.656,M,40.593,M,3.0,0123*68\r\n
$GPGGA,133723.95,5703.3718168,N,00952.2326584,E,2,12,0.7,-1.662,M,40.593,M,3.0,0123*69\r\n
$GPGGA,133724.00,5703.3718563,N,00952.2325638,E,2,12,0.7,-1.667,M,40.593,M,3.0,0123*6F\r\n
$GPGGA,133724.05,5703.3718941,N,00952.2324688,E,2,12,0.7,-1.680,M,40.593,M,3.2,0123*67\r\n
$GPGGA,133724.10,5703.3719312,N,00952.2323728,E,2,12,0.7,-1.687,M,40.593,M,3.2,0123*65\r\n
$GPGGA,133724.15,5703.3719678,N,00952.2322767,E,2,12,0.7,-1.692,M,40.593,M,3.2,0123*67\r\n
$GPGGA,133724.20,5703.3720037,N,00952.2321798,E,2,12,0.7,-1.698,M,40.593,M,3.2,0123*6F\r\n
$GPGGA,133724.25,5703.3720398,N,00952.2320850,E,2,12,0.7,-1.704,M,40.593,M,2.8,0123*69\r\n
$GPGGA,133724.30,5703.3720736,N,00952.2319890,E,2,12,0.7,-1.708,M,40.593,M,2.8,0123*67\r\n
$GPGGA,133724.35,5703.3721068,N,00952.2318905,E,2,12,0.7,-1.707,M,40.593,M,2.8,0123*6C\r\n
$GPGGA,133724.40,5703.3721392,N,00952.2317931,E,2,12,0.7,-1.704,M,40.593,M,2.8,0123*63\r\n
$GPGGA,133724.45,5703.3721728,N,00952.2316966,E,2,12,0.7,-1.701,M,40.593,M,3.1,0123*6D\r\n
$GPGGA,133724.50,5703.3722070,N,00952.2315995,E,2,12,0.7,-1.701,M,40.593,M,3.1,0123*6F\r\n
$GPGGA,133724.55,5703.3722402,N,00952.2315009,E,2,12,0.7,-1.699,M,40.593,M,3.1,0123*67\r\n
$GPGGA,133724.60,5703.3722729,N,00952.2314023,E,2,12,0.7,-1.695,M,40.593,M,3.1,0123*6E\r\n
$GPGGA,133724.65,5703.3723056,N,00952.2313041,E,2,12,0.7,-1.692,M,40.593,M,3.3,0123*63\r\n
$GPGGA,133724.70,5703.3723378,N,00952.2312061,E,2,12,0.7,-1.694,M,40.593,M,3.3,0123*6D\r\n
$GPGGA,133724.75,5703.3723695,N,00952.2311053,E,2,12,0.7,-1.694,M,40.593,M,3.3,0123*6C\r\n
$GPGGA,133724.80,5703.3724014,N,00952.2310044,E,2,12,0.7,-1.692,M,40.593,M,3.3,0123*6F\r\n
$GPGGA,133724.85,5703.3724320,N,00952.2309035,E,2,12,0.7,-1.693,M,40.593,M,3.6,0123*64\r\n
$GPGGA,133724.90,5703.3724618,N,00952.2308013,E,2,12,0.7,-1.693,M,40.593,M,3.6,0123*6B\r\n
$GPGGA,133724.95,5703.3724910,N,00952.2306988,E,2,12,0.7,-1.693,M,40.593,M,3.6,0123*6C\r\n
$GPGGA,133725.00,5703.3725207,N,00952.2305949,E,2,12,0.7,-1.692,M,40.593,M,3.6,0123*62\r\n
$GPGGA,133725.05,5703.3725480,N,00952.2304913,E,2,12,0.7,-1.692,M,40.593,M,3.8,0123*6E\r\n
$GPGGA,133725.10,5703.3725744,N,00952.2303886,E,2,12,0.7,-1.693,M,40.593,M,3.8,0123*6A\r\n
$GPGGA,133725.15,5703.3725996,N,00952.2302850,E,2,12,0.7,-1.693,M,40.593,M,3.8,0123*64\r\n
$GPGGA,133725.20,5703.3726239,N,00952.2301800,E,2,12,0.7,-1.691,M,40.593,M,3.8,0123*6B\r\n
$GPGGA,133725.25,5703.3726467,N,00952.2300753,E,2,12,0.7,-1.693,M,40.593,M,1.5,0123*66\r\n
$GPGGA,133725.30,5703.3726689,N,00952.2299707,E,2,12,0.7,-1.691,M,40.593,M,1.5,0123*62\r\n
$GPGGA,133725.35,5703.3726906,N,00952.2298648,E,2,12,0.7,-1.687,M,40.593,M,1.5,0123*63\r\n
$GPGGA,133725.40,5703.3727123,N,00952.2297601,E,2,12,0.7,-1.682,M,40.593,M,1.5,0123*68\r\n
$GPGGA,133725.45,5703.3727331,N,00952.2296548,E,2,12,0.7,-1.680,M,40.593,M,1.7,0123*63\r\n
$GPGGA,133725.50,5703.3727551,N,00952.2295511,E,2,12,0.7,-1.671,M,40.593,M,1.7,0123*66\r\n
$GPGGA,133725.55,5703.3727751,N,00952.2294465,E,2,12,0.7,-1.666,M,40.593,M,1.7,0123*64\r\n
$GPGGA,133725.60,5703.3727954,N,00952.2293413,E,2,12,0.7,-1.664,M,40.593,M,1.7,0123*6D\r\n
$GPGGA,133725.65,5703.3728170,N,00952.2292366,E,2,12,0.7,-1.653,M,40.593,M,2.0,0123*6D\r\n
$GPGGA,133725.70,5703.3728374,N,00952.2291328,E,2,12,0.7,-1.648,M,40.593,M,2.0,0123*6C\r\n
$GPGGA,133725.75,5703.3728579,N,00952.2290277,E,2,12,0.7,-1.644,M,40.593,M,2.0,0123*64\r\n
$GPGGA,133725.80,5703.3728775,N,00952.2289221,E,2,12,0.7,-1.641,M,40.593,M,2.0,0123*6E\r\n
$GPGGA,133725.85,5703.3728980,N,00952.2288176,E,2,12,0.7,-1.641,M,40.593,M,2.2,0123*6D\r\n
$GPGGA,133725.90,5703.3729168,N,00952.2287124,E,2,12,0.7,-1.641,M,40.593,M,2.2,0123*6E\r\n
$GPGGA,133725.95,5703.3729345,N,00952.2286071,E,2,12,0.7,-1.641,M,40.593,M,2.2,0123*66\r\n
$GPGGA,133726.00,5703.3729529,N,00952.2285018,E,2,12,0.7,-1.642,M,40.593,M,2.2,0123*6A\r\n
$GPGGA,133726.05,5703.3729689,N,00952.2283980,E,2,12,0.7,-1.650,M,40.593,M,2.4,0123*6D\r\n
$GPGGA,133726.10,5703.3729857,N,00952.2282928,E,2,12,0.7,-1.651,M,40.593,M,2.4,0123*66\r\n
$GPGGA,133726.15,5703.3730026,N,00952.2281864,E,2,12,0.7,-1.653,M,40.593,M,2.4,0123*6D\r\n
$GPGGA,133726.20,5703.3730186,N,00952.2280818,E,2,12,0.7,-1.657,M,40.593,M,2.4,0123*6E\r\n
$GPGGA,133726.25,5703.3730353,N,00952.2279770,E,2,12,0.7,-1.660,M,40.593,M,2.6,0123*60\r\n
$GPGGA,133726.30,5703.3730505,N,00952.2278716,E,2,12,0.7,-1.666,M,40.593,M,2.6,0123*66\r\n
$GPGGA,133726.35,5703.3730663,N,00952.2277672,E,2,12,0.7,-1.674,M,40.593,M,2.6,0123*6F\r\n
$GPGGA,133726.40,5703.3730821,N,00952.2276629,E,2,12,0.7,-1.680,M,40.593,M,2.6,0123*61\r\n
$GPGGA,133726.45,5703.3730974,N,00952.2275601,E,2,12,0.7,-1.693,M,40.593,M,2.8,0123*60\r\n
$GPGGA,133726.50,5703.3731132,N,00952.2274561,E,2,12,0.7,-1.697,M,40.593,M,2.8,0123*6F\r\n
$GPGGA,133726.55,5703.3731299,N,00952.2273514,E,2,12,0.7,-1.702,M,40.593,M,2.8,0123*60\r\n
$GPGGA,133726.60,5703.3731457,N,00952.2272466,E,2,12,0.7,-1.706,M,40.593,M,2.8,0123*63\r\n
$GPGGA,133726.65,5703.3731605,N,00952.2271424,E,2,12,0.7,-1.714,M,40.593,M,3.0,0123*6C\r\n
$GPGGA,133726.70,5703.3731766,N,00952.2270379,E,2,12,0.7,-1.717,M,40.593,M,3.0,0123*61\r\n
$GPGGA,133726.75,5703.3731917,N,00952.2269330,E,2,12,0.7,-1.720,M,40.593,M,3.0,0123*6D\r\n
$GPGGA,133726.80,5703.3732075,N,00952.2268291,E,2,12,0.7,-1.724,M,40.593,M,3.0,0123*66\r\n
$GPGGA,133726.85,5703.3732235,N,00952.2267220,E,2,12,0.7,-1.724,M,40.593,M,3.2,0123*62\r\n
$GPGGA,133726.90,5703.3732374,N,00952.2266151,E,2,12,0.7,-1.728,M,40.593,M,3.2,0123*6A\r\n
$GPGGA,133726.95,5703.3732509,N,00952.2265080,E,2,12,0.7,-1.731,M,40.593,M,3.2,0123*65\r\n
$GPGGA,133727.00,5703.3732652,N,00952.2264014,E,2,12,0.7,-1.734,M,40.593,M,3.2,0123*6C\r\n
$GPGGA,133727.05,5703.3732789,N,00952.2262946,E,2,12,0.7,-1.731,M,40.593,M,3.5,0123*64\r\n
$GPGGA,133727.10,5703.3732926,N,00952.2261852,E,2,12,0.7,-1.732,M,40.593,M,3.5,0123*6F\r\n
$GPGGA,133727.15,5703.3733056,N,00952.2260757,E,2,12,0.7,-1.735,M,40.593,M,3.5,0123*69\r\n
$GPGGA,133727.20,5703.3733181,N,00952.2259664,E,2,12,0.7,-1.737,M,40.593,M,3.5,0123*6D\r\n
$GPGGA,133727.25,5703.3733305,N,00952.2258576,E,2,12,0.7,-1.737,M,40.593,M,2.2,0123*61\r\n
$GPGGA,133727.30,5703.3733424,N,00952.2257481,E,2,12,0.7,-1.736,M,40.593,M,2.2,0123*66\r\n
$GPGGA,133727.35,5703.3733536,N,00952.2256387,E,2,12,0.7,-1.735,M,40.593,M,2.2,0123*62\r\n
$GPGGA,133727.40,5703.3733651,N,00952.2255277,E,2,12,0.7,-1.735,M,40.593,M,2.2,0123*6F\r\n
$GPGGA,133727.45,5703.3733765,N,00952.2254165,E,2,12,0.7,-1.735,M,40.593,M,2.5,0123*6A\r\n
$GPGGA,133727.50,5703.3733871,N,00952.2253041,E,2,12,0.7,-1.731,M,40.593,M,2.5,0123*60\r\n
$GPGGA,133727.55,5703.3733975,N,00952.2251931,E,2,12,0.7,-1.731,M,40.593,M,2.5,0123*6C\r\n
$GPGGA,133727.60,5703.3734073,N,00952.2250808,E,2,12,0.7,-1.732,M,40.593,M,2.5,0123*6B\r\n
$GPGGA,133727.65,5703.3734170,N,00952.2249680,E,2,12,0.7,-1.730,M,40.593,M,2.7,0123*6A\r\n
$GPGGA,133727.70,5703.3734254,N,00952.2248556,E,2,12,0.7,-1.725,M,40.593,M,2.7,0123*66\r\n
$GPGGA,133727.75,5703.3734346,N,00952.2247439,E,2,12,0.7,-1.723,M,40.593,M,2.7,0123*60\r\n
$GPGGA,133727.80,5703.3734431,N,00952.2246302,E,2,12,0.7,-1.721,M,40.593,M,2.7,0123*61\r\n
$GPGGA,133727.85,5703.3734522,N,00952.2245167,E,2,12,0.7,-1.716,M,40.593,M,3.0,0123*67\r\n
$GPGGA,133727.90,5703.3734606,N,00952.2244025,E,2,12,0.7,-1.713,M,40.593,M,3.0,0123*65\r\n
$GPGGA,133727.95,5703.3734687,N,00952.2242887,E,2,12,0.7,-1.709,M,40.593,M,3.0,0123*64\r\n
$GPGGA,133728.00,5703.3734764,N,00952.2241744,E,2,12,0.7,-1.706,M,40.593,M,3.0,0123*67\r\n
$GPGGA,133728.05,5703.3734833,N,00952.2240609,E,2,12,0.7,-1.705,M,40.593,M,3.2,0123*67\r\n
$GPGGA,133728.10,5703.3734912,N,00952.2239463,E,2,12,0.7,-1.702,M,40.593,M,3.2,0123*66\r\n
$GPGGA,133728.15,5703.3734976,N,00952.2238322,E,2,12,0.7,-1.700,M,40.593,M,3.2,0123*60\r\n
$GPGGA,133728.20,5703.3735043,N,00952.2237164,E,2,12,0.7,-1.699,M,40.593,M,3.2,0123*66\r\n
$GPGGA,133728.25,5703.3735108,N,00952.2236013,E,2,12,0.7,-1.695,M,40.593,M,2.8,0123*6A\r\n
$GPGGA,133728.30,5703.3735175,N,00952.2234862,E,2,12,0.7,-1.694,M,40.593,M,2.8,0123*69\r\n
$GPGGA,133728.35,5703.3735243,N,00952.2233713,E,2,12,0.7,-1.695,M,40.593,M,2.8,0123*65\r\n
$GPGGA,133728.40,5703.3735305,N,00952.2232572,E,2,12,0.7,-1.696,M,40.593,M,2.8,0123*63\r\n
$GPGGA,133728.45,5703.3735352,N,00952.2231437,E,2,12,0.7,-1.695,M,40.593,M,3.1,0123*6C\r\n
$GPGGA,133728.50,5703.3735410,N,00952.2230294,E,2,12,0.7,-1.693,M,40.593,M,3.1,0123*61\r\n
$GPGGA,133728.55,5703.3735452,N,00952.2229141,E,2,12,0.7,-1.693,M,40.593,M,3.1,0123*61\r\n
$GPGGA,133728.60,5703.3735497,N,00952.2228007,E,2,12,0.7,-1.695,M,40.593,M,3.1,0123*6A\r\n
$GPGGA,133728.65,5703.3735554,N,00952.2226871,E,2,12,0.7,-1.691,M,40.593,M,3.3,0123*60\r\n
$GPGGA,133728.70,5703.3735603,N,00952.2225732,E,2,12,0.7,-1.690,M,40.593,M,3.3,0123*6F\r\n
$GPGGA,133728.75,5703.3735633,N,00952.2224609,E,2,12,0.7,-1.691,M,40.593,M,3.3,0123*60\r\n
$GPGGA,133728.80,5703.3735669,N,00952.2223488,E,2,12,0.7,-1.689,M,40.593,M,3.3,0123*60\r\n
$GPGGA,133728.85,5703.3735699,N,00952.2222357,E,2,12,0.7,-1.685,M,40.593,M,3.6,0123*67\r\n
$GPGGA,133728.90,5703.3735722,N,00952.2221223,E,2,12,0.7,-1.684,M,40.593,M,3.6,0123*62\r\n
$GPGGA,133728.95,5703.3735753,N,00952.2220106,E,2,12,0.7,-1.680,M,40.593,M,3.6,0123*60\r\n
$GPGGA,133729.00,5703.3735775,N,00952.2218984,E,2,12,0.7,-1.683,M,40.593,M,3.6,0123*63\r\n
$GPGGA,133729.05,5703.3735797,N,00952.2217868,E,2,12,0.7,-1.682,M,40.593,M,3.8,0123*69\r\n
$GPGGA,133729.10,5703.3735830,N,00952.2216743,E,2,12,0.7,-1.680,M,40.593,M,3.8,0123*6A\r\n
$GPGGA,133729.15,5703.3735846,N,00952.2215626,E,2,12,0.7,-1.680,M,40.593,M,3.8,0123*6F\r\n
$GPGGA,133729.20,5703.3735867,N,00952.2214517,E,2,12,0.7,-1.680,M,40.593,M,3.8,0123*6A\r\n
$GPGGA,133729.25,5703.3735876,N,00952.2213412,E,2,12,0.7,-1.686,M,40.593,M,1.5,0123*65\r\n
$GPGGA,133729.30,5703.3735899,N,00952.2212302,E,2,12,0.7,-1.682,M,40.593,M,1.5,0123*63\r\n
$GPGGA,133729.35,5703.3735928,N,00952.2211200,E,2,12,0.7,-1.681,M,40.593,M,1.5,0123*6E\r\n
$GPGGA,133729.40,5703.3735942,N,00952.2210095,E,2,12,0.7,-1.683,M,40.593,M,1.5,0123*6D\r\n
$GPGGA,133729.45,5703.3735962,N,00952.2208985,E,2,12,0.7,-1.680,M,40.593,M,1.7,0123*6A\r\n
$GPGGA,133729.50,5703.3735972,N,00952.2207883,E,2,12,0.7,-1.678,M,40.593,M,1.7,0123*60\r\n
$GPGGA,133729.55,5703.3735996,N,00952.2206811,E,2,12,0.7,-1.676,M,40.593,M,1.7,0123*6B\r\n
$GPGGA,133729.60,5703.3736014,N,00952.2205714,E,2,12,0.7,-1.677,M,40.593,M,1.7,0123*65\r\n
$GPGGA,133729.65,5703.3736022,N,00952.2204611,E,2,12,0.7,-1.680,M,40.593,M,2.0,0123*6C\r\n
$GPGGA,133729.70,5703.3736036,N,00952.2203521,E,2,12,0.7,-1.682,M,40.593,M,2.0,0123*68\r\n
$GPGGA,133729.75,5703.3736057,N,00952.2202425,E,2,12,0.7,-1.684,M,40.593,M,2.0,0123*68\r\n
$GPGGA,133729.80,5703.3736072,N,00952.2201330,E,2,12,0.7,-1.683,M,40.593,M,2.0,0123*62\r\n
$GPGGA,133729.85,5703.3736089,N,00952.2200241,E,2,12,0.7,-1.681,M,40.593,M,2.2,0123*65\r\n
$GPGGA,133729.90,5703.3736100,N,00952.2199162,E,2,12,0.7,-1.682,M,40.593,M,2.2,0123*63\r\n
$GPGGA,133729.95,5703.3736114,N,00952.2198063,E,2,12,0.7,-1.684,M,40.593,M,2.2,0123*64\r\n
$GPGGA,133730.00,5703.3736121,N,00952.2196962,E,2,12,0.7,-1.688,M,40.593,M,2.2,0123*6C\r\n
$GPGGA,133730.05,5703.3736126,N,00952.2195879,E,2,12,0.7,-1.693,M,40.593,M,2.4,0123*6A\r\n
$GPGGA,133730.10,5703.3736129,N,00952.2194791,E,2,12,0.7,-1.693,M,40.593,M,2.4,0123*69\r\n
$GPGGA,133730.15,5703.3736138,N,00952.2193704,E,2,12,0.7,-1.693,M,40.593,M,2.4,0123*67\r\n
$GPGGA,133730.20,5703.3736151,N,00952.2192613,E,2,12,0.7,-1.694,M,40.593,M,2.4,0123*6F\r\n
$GPGGA,133730.25,5703.3736164,N,00952.2191521,E,2,12,0.7,-1.693,M,40.593,M,2.6,0123*68\r\n
$GPGGA,133730.30,5703.3736169,N,00952.2190438,E,2,12,0.7,-1.695,M,40.593,M,2.6,0123*6F\r\n
$GPGGA,133730.35,5703.3736170,N,00952.2189354,E,2,12,0.7,-1.697,M,40.593,M,2.6,0123*65\r\n
$GPGGA,133730.40,5703.3736171,N,00952.2188273,E,2,12,0.7,-1.701,M,40.593,M,2.6,0123*6D\r\n
$GPGGA,133730.45,5703.3736178,N,00952.2187169,E,2,12,0.7,-1.705,M,40.593,M,2.8,0123*6C\r\n
$GPGGA,133730.50,5703.3736186,N,00952.2186075,E,2,12,0.7,-1.706,M,40.593,M,2.8,0123*67\r\n
$GPGGA,133730.55,5703.3736202,N,00952.2184987,E,2,12,0.7,-1.706,M,40.593,M,2.8,0123*6B\r\n
$GPGGA,133730.60,5703.3736207,N,00952.2183888,E,2,12,0.7,-1.707,M,40.593,M,2.8,0123*60\r\n
$GPGGA,133730.65,5703.3736206,N,00952.2182786,E,2,12,0.7,-1.708,M,40.593,M,3.0,0123*62\r\n
$GPGGA,133730.70,5703.3736206,N,00952.2181682,E,2,12,0.7,-1.708,M,40.593,M,3.0,0123*60\r\n
$GPGGA,133730.75,5703.3736207,N,00952.2180579,E,2,12,0.7,-1.709,M,40.593,M,3.0,0123*63\r\n
$GPGGA,133730.80,5703.3736219,N,00952.2179471,E,2,12,0.7,-1.711,M,40.593,M,3.0,0123*60\r\n
$GPGGA,133730.85,5703.3736210,N,00952.2178362,E,2,12,0.7,-1.711,M,40.593,M,3.2,0123*6A\r\n
$GPGGA,133730.90,5703.3736200,N,00952.2177263,E,2,12,0.7,-1.714,M,40.593,M,3.2,0123*65\r\n
$GPGGA,133730.95,5703.3736195,N,00952.2176149,E,2,12,0.7,-1.716,M,40.593,M,3.2,0123*67\r\n
$GPGGA,133731.00,5703.3736189,N,00952.2175040,E,2,12,0.7,-1.717,M,40.593,M,3.2,0123*6D\r\n
$GPGGA,133731.05,5703.3736161,N,00952.2173929,E,2,12,0.7,-1.715,M,40.593,M,3.5,0123*6B\r\n
$GPGGA,133731.10,5703.3736146,N,00952.2172831,E,2,12,0.7,-1.718,M,40.593,M,3.5,0123*6E\r\n
$GPGGA,133731.15,5703.3736139,N,00952.2171724,E,2,12,0.7,-1.718,M,40.593,M,3.5,0123*6B\r\n
$GPGGA,133731.20,5703.3736124,N,00952.2170621,E,2,12,0.7,-1.716,M,40.593,M,3.5,0123*6A\r\n
$GPGGA,133731.25,5703.3736109,N,00952.2169511,E,2,12,0.7,-1.710,M,40.593,M,2.2,0123*68\r\n
$GPGGA,133731.30,5703.3736088,N,00952.2168403,E,2,12,0.7,-1.709,M,40.593,M,2.2,0123*6F\r\n
$GPGGA,133731.35,5703.3736070,N,00952.2167290,E,2,12,0.7,-1.709,M,40.593,M,2.2,0123*6E\r\n
$GPGGA,133731.40,5703.3736053,N,00952.2166181,E,2,12,0.7,-1.708,M,40.593,M,2.2,0123*6E\r\n
$GPGGA,133731.45,5703.3736020,N,00952.2165068,E,2,12,0.7,-1.707,M,40.593,M,2.5,0123*62\r\n
$GPGGA,133731.50,5703.3735987,N,00952.2163977,E,2,12,0.7,-1.708,M,40.593,M,2.5,0123*6F\r\n
$GPGGA,133731.55,5703.3735949,N,00952.2162877,E,2,12,0.7,-1.705,M,40.593,M,2.5,0123*65\r\n
$GPGGA,133731.60,5703.3735923,N,00952.2161770,E,2,12,0.7,-1.706,M,40.593,M,2.5,0123*67\r\n
$GPGGA,133731.65,5703.3735898,N,00952.2160656,E,2,12,0.7,-1.706,M,40.593,M,2.7,0123*65\r\n
$GPGGA,133731.70,5703.3735876,N,00952.2159538,E,2,12,0.7,-1.706,M,40.593,M,2.7,0123*60\r\n
$GPGGA,133731.75,5703.3735842,N,00952.2158408,E,2,12,0.7,-1.705,M,40.593,M,2.7,0123*62\r\n
$GPGGA,133731.80,5703.3735811,N,00952.2157282,E,2,12,0.7,-1.704,M,40.593,M,2.7,0123*64\r\n
$GPGGA,133731.85,5703.3735770,N,00952.2156169,E,2,12,0.7,-1.703,M,40.593,M,3.0,0123*6F\r\n
$GPGGA,133731.90,5703.3735729,N,00952.2155059,E,2,12,0.7,-1.703,M,40.593,M,3.0,0123*66\r\n
$GPGGA,133731.95,5703.3735692,N,00952.2153962,E,2,12,0.7,-1.705,M,40.593,M,3.0,0123*63\r\n
$GPGGA,133732.00,5703.3735646,N,00952.2152852,E,2,12,0.7,-1.706,M,40.593,M,3.0,0123*65\r\n
$GPGGA,133732.05,5703.3735596,N,00952.2151749,E,2,12,0.7,-1.703,M,40.593,M,3.2,0123*6F\r\n
$GPGGA,133732.10,5703.3735550,N,00952.2150637,E,2,12,0.7,-1.701,M,40.593,M,3.2,0123*6A\r\n
$GPGGA,133732.15,5703.3735496,N,00952.2149526,E,2,12,0.7,-1.703,M,40.593,M,3.2,0123*6D\r\n
$GPGGA,133732.20,5703.3735433,N,00952.2148406,E,2,12,0.7,-1.705,M,40.593,M,3.2,0123*60\r\n
$GPGGA,133732.25,5703.3735383,N,00952.2147296,E,2,12,0.7,-1.704,M,40.593,M,2.8,0123*63\r\n
$GPGGA,133732.30,5703.3735332,N,00952.2146196,E,2,12,0.7,-1.704,M,40.593,M,2.8,0123*6F\r\n
$GPGGA,133732.35,5703.3735273,N,00952.2145095,E,2,12,0.7,-1.704,M,40.593,M,2.8,0123*6F\r\n
$GPGGA,133732.40,5703.3735209,N,00952.2144000,E,2,12,0.7,-1.703,M,40.593,M,2.8,0123*6A\r\n
$GPGGA,133732.45,5703.3735142,N,00952.2142897,E,2,12,0.7,-1.703,M,40.593,M,3.1,0123*6B\r\n
$GPGGA,133732.50,5703.3735074,N,00952.2141804,E,2,12,0.7,-1.703,M,40.593,M,3.1,0123*62\r\n
$GPGGA,133732.55,5703.3735007,N,00952.2140710,E,2,12,0.7,-1.705,M,40.593,M,3.1,0123*6E\r\n
$GPGGA,133732.60,5703.3734939,N,00952.2139625,E,2,12,0.7,-1.704,M,40.593,M,3.1,0123*65\r\n
$GPGGA,133732.65,5703.3734853,N,00952.2138527,E,2,12,0.7,-1.700,M,40.593,M,3.3,0123*6B\r\n
$GPGGA,133732.70,5703.3734766,N,00952.2137433,E,2,12,0.7,-1.700,M,40.593,M,3.3,0123*6D\r\n
$GPGGA,133732.75,5703.3734679,N,00952.2136350,E,2,12,0.7,-1.698,M,40.593,M,3.3,0123*64\r\n
$GPGGA,133732.80,5703.3734581,N,00952.2135262,E,2,12,0.7,-1.696,M,40.593,M,3.3,0123*67\r\n
$GPGGA,133732.85,5703.3734476,N,00952.2134182,E,2,12,0.7,-1.693,M,40.593,M,3.6,0123*67\r\n
$GPGGA,133732.90,5703.3734361,N,00952.2133107,E,2,12,0.7,-1.693,M,40.593,M,3.6,0123*68\r\n
$GPGGA,133732.95,5703.3734248,N,00952.2132043,E,2,12,0.7,-1.694,M,40.593,M,3.6,0123*60\r\n
$GPGGA,133733.00,5703.3734136,N,00952.2130964,E,2,12,0.7,-1.692,M,40.593,M,3.6,0123*6F\r\n
$GPGGA,133733.05,5703.3734003,N,00952.2129899,E,2,12,0.7,-1.693,M,40.593,M,3.8,0123*69\r\n
$GPGGA,133733.10,5703.3733870,N,00952.2128841,E,2,12,0.7,-1.693,M,40.593,M,3.8,0123*62\r\n
$GPGGA,133733.15,5703.3733733,N,00952.2127791,E,2,12,0.7,-1.692,M,40.593,M,3.8,0123*63\r\n
$GPGGA,133733.20,5703.3733598,N,00952.2126738,E,2,12,0.7,-1.693,M,40.593,M,3.8,0123*65\r\n
$GPGGA,133733.25,5703.3733459,N,00952.2125681,E,2,12,0.7,-1.695,M,40.593,M,1.5,0123*65\r\n
$GPGGA,133733.30,5703.3733317,N,00952.2124637,E,2,12,0.7,-1.694,M,40.593,M,1.5,0123*61\r\n
$GPGGA,133733.35,5703.3733167,N,00952.2123598,E,2,12,0.7,-1.691,M,40.593,M,1.5,0123*65\r\n
$GPGGA,133733.40,5703.3733020,N,00952.2122568,E,2,12,0.7,-1.689,M,40.593,M,1.5,0123*62\r\n
$GPGGA,133733.45,5703.3732870,N,00952.2121544,E,2,12,0.7,-1.689,M,40.593,M,1.7,0123*64\r\n
$GPGGA,133733.50,5703.3732709,N,00952.2120521,E,2,12,0.7,-1.689,M,40.593,M,1.7,0123*63\r\n
$GPGGA,133733.55,5703.3732540,N,00952.2119501,E,2,12,0.7,-1.690,M,40.593,M,1.7,0123*69\r\n
$GPGGA,133733.60,5703.3732361,N,00952.2118500,E,2,12,0.7,-1.687,M,40.593,M,1.7,0123*6C\r\n
$GPGGA,133733.65,5703.3732184,N,00952.2117503,E,2,12,0.7,-1.687,M,40.593,M,2.0,0123*68\r\n
$GPGGA,133733.70,5703.3732001,N,00952.2116510,E,2,12,0.7,-1.685,M,40.593,M,2.0,0123*61\r\n
$GPGGA,133733.75,5703.3731818,N,00952.2115501,E,2,12,0.7,-1.684,M,40.593,M,2.0,0123*65\r\n
$GPGGA,133733.80,5703.3731629,N,00952.2114502,E,2,12,0.7,-1.685,M,40.593,M,2.0,0123*60\r\n
$GPGGA,133733.85,5703.3731442,N,00952.2113527,E,2,12,0.7,-1.685,M,40.593,M,2.2,0123*68\r\n
$GPGGA,133733.90,5703.3731247,N,00952.2112546,E,2,12,0.7,-1.685,M,40.593,M,2.2,0123*69\r\n
$GPGGA,133733.95,5703.3731039,N,00952.2111572,E,2,12,0.7,-1.687,M,40.593,M,2.2,0123*61\r\n
$GPGGA,133734.00,5703.3730835,N,00952.2110600,E,2,12,0.7,-1.685,M,40.593,M,2.2,0123*6A\r\n
$GPGGA,133734.05,5703.3730617,N,00952.2109649,E,2,12,0.7,-1.687,M,40.593,M,2.4,0123*60\r\n
$GPGGA,133734.10,5703.3730405,N,00952.2108704,E,2,12,0.7,-1.686,M,40.593,M,2.4,0123*6D\r\n
$GPGGA,133734.15,5703.3730193,N,00952.2107744,E,2,12,0.7,-1.684,M,40.593,M,2.4,0123*6B\r\n
$GPGGA,133734.20,5703.3729974,N,00952.2106801,E,2,12,0.7,-1.683,M,40.593,M,2.4,0123*6C\r\n
$GPGGA,133734.25,5703.3729749,N,00952.2105865,E,2,12,0.7,-1.688,M,40.593,M,2.6,0123*61\r\n
$GPGGA,133734.30,5703.3729517,N,00952.2104940,E,2,12,0.7,-1.690,M,40.593,M,2.6,0123*62\r\n
$GPGGA,133734.35,5703.3729279,N,00952.2104018,E,2,12,0.7,-1.696,M,40.593,M,2.6,0123*6A\r\n
$GPGGA,133734.40,5703.3729037,N,00952.2103100,E,2,12,0.7,-1.696,M,40.593,M,2.6,0123*6F\r\n
$GPGGA,133734.45,5703.3728797,N,00952.2102182,E,2,12,0.7,-1.695,M,40.593,M,2.8,0123*60\r\n
$GPGGA,133734.50,5703.3728549,N,00952.2101261,E,2,12,0.7,-1.694,M,40.593,M,2.8,0123*69\r\n
$GPGGA,133734.55,5703.3728298,N,00952.2100360,E,2,12,0.7,-1.696,M,40.593,M,2.8,0123*64\r\n
$GPGGA,133734.60,5703.3728052,N,00952.2099446,E,2,12,0.7,-1.696,M,40.593,M,2.8,0123*64\r\n
$GPGGA,133734.65,5703.3727799,N,00952.2098533,E,2,12,0.7,-1.699,M,40.593,M,3.0,0123*6A\r\n
$GPGGA,133734.70,5703.3727528,N,00952.2097627,E,2,12,0.7,-1.702,M,40.593,M,3.0,0123*6C\r\n
$GPGGA,133734.75,5703.3727278,N,00952.2096740,E,2,12,0.7,-1.701,M,40.593,M,3.0,0123*69\r\n
$GPGGA,133734.80,5703.3727014,N,00952.2095859,E,2,12,0.7,-1.701,M,40.593,M,3.0,0123*6F\r\n
$GPGGA,133734.85,5703.3726742,N,00952.2094972,E,2,12,0.7,-1.702,M,40.593,M,3.2,0123*67\r\n
$GPGGA,133734.90,5703.3726470,N,00952.2094099,E,2,12,0.7,-1.703,M,40.593,M,3.2,0123*6C\r\n
$GPGGA,133734.95,5703.3726185,N,00952.2093225,E,2,12,0.7,-1.704,M,40.593,M,3.2,0123*63\r\n
$GPGGA,133735.00,5703.3725901,N,00952.2092376,E,2,12,0.7,-1.703,M,40.593,M,3.2,0123*68\r\n
$GPGGA,133735.05,5703.3725605,N,00952.2091531,E,2,12,0.7,-1.705,M,40.593,M,3.5,0123*61\r\n
$GPGGA,133735.10,5703.3725311,N,00952.2090674,E,2,12,0.7,-1.703,M,40.593,M,3.5,0123*60\r\n
$GPGGA,133735.15,5703.3725022,N,00952.2089827,E,2,12,0.7,-1.703,M,40.593,M,3.5,0123*66\r\n
$GPGGA,133735.20,5703.3724736,N,00952.2088965,E,2,12,0.7,-1.702,M,40.593,M,3.5,0123*64\r\n
$GPGGA,133735.25,5703.3724446,N,00952.2088113,E,2,12,0.7,-1.697,M,40.593,M,2.2,0123*67\r\n
$GPGGA,133735.30,5703.3724136,N,00952.2087262,E,2,12,0.7,-1.698,M,40.593,M,2.2,0123*64\r\n
$GPGGA,133735.35,5703.3723838,N,00952.2086432,E,2,12,0.7,-1.697,M,40.593,M,2.2,0123*6C\r\n
$GPGGA,133735.40,5703.3723531,N,00952.2085623,E,2,12,0.7,-1.695,M,40.593,M,2.2,0123*69\r\n
$GPGGA,133735.45,5703.3723216,N,00952.2084812,E,2,12,0.7,-1.694,M,40.593,M,2.5,0123*65\r\n
$GPGGA,133735.50,5703.3722891,N,00952.2084008,E,2,12,0.7,-1.695,M,40.593,M,2.5,0123*67\r\n
$GPGGA,133735.55,5703.3722569,N,00952.2083199,E,2,12,0.7,-1.693,M,40.593,M,2.5,0123*60\r\n
$GPGGA,133735.60,5703.3722244,N,00952.2082391,E,2,12,0.7,-1.690,M,40.593,M,2.5,0123*66\r\n
$GPGGA,133735.65,5703.3721922,N,00952.2081610,E,2,12,0.7,-1.697,M,40.593,M,2.7,0123*61\r\n
