$GPGGA,084959.95,5703.2879036,N,00952.3668007,E,2,8,1.2,-2.521,M,40.593,M,2.7,0123*5A\r\n
$GPGGA,085000.00,5703.2879052,N,00952.3667996,E,2,8,1.2,-2.520,M,40.593,M,2.7,0123*5F\r\n
$GPGGA,085000.05,5703.2879038,N,00952.3667967,E,2,8,1.2,-2.514,M,40.593,M,3.0,0123*59\r\n
$GPGGA,085000.10,5703.2879047,N,00952.3667952,E,2,8,1.2,-2.513,M,40.593,M,3.0,0123*54\r\n
$GPGGA,085000.15,5703.2879055,N,00952.3667935,E,2,8,1.2,-2.512,M,40.593,M,3.0,0123*52\r\n
$GPGGA,085000.20,5703.2879063,N,00952.3667919,E,2,8,1.2,-2.511,M,40.593,M,3.0,0123*5C\r\n
$GPGGA,085000.25,5703.2879006,N,00952.3667889,E,2,8,1.2,-2.503,M,40.593,M,3.2,0123*53\r\n
$GPGGA,085000.30,5703.2879001,N,00952.3667870,E,2,8,1.2,-2.503,M,40.593,M,3.2,0123*56\r\n
$GPGGA,085000.35,5703.2878993,N,00952.3667844,E,2,8,1.2,-2.501,M,40.593,M,3.2,0123*55\r\n
$GPGGA,085000.40,5703.2878990,N,00952.3667827,E,2,8,1.2,-2.499,M,40.593,M,3.2,0123*51\r\n
$GPGGA,085000.45,5703.2878981,N,00952.3667815,E,2,8,1.2,-2.497,M,40.593,M,2.2,0123*5A\r\n
$GPGGA,085000.50,5703.2878981,N,00952.3667807,E,2,8,1.2,-2.495,M,40.593,M,2.2,0123*5F\r\n
$GPGGA,085000.55,5703.2878980,N,00952.3667804,E,2,8,1.2,-2.494,M,40.593,M,2.2,0123*59\r\n
$GPGGA,085000.60,5703.2878978,N,00952.3667803,E,2,8,1.2,-2.492,M,40.593,M,2.2,0123*59\r\n
$GPGGA,085000.65,5703.2879007,N,00952.3667907,E,2,8,1.2,-2.506,M,40.593,M,2.5,0123*52\r\n
$GPGGA,085000.70,5703.2879009,N,00952.3667935,E,2,8,1.2,-2.509,M,40.593,M,2.5,0123*56\r\n
$GPGGA,085000.75,5703.2879022,N,00952.3667965,E,2,8,1.2,-2.514,M,40.593,M,2.5,0123*53\r\n
$GPGGA,085000.80,5703.2879032,N,00952.3668010,E,2,8,1.2,-2.519,M,40.593,M,2.5,0123*51\r\n
$GPGGA,085000.85,5703.2879036,N,00952.3668046,E,2,8,1.2,-2.521,M,40.593,M,2.7,0123*5A\r\n
$GPGGA,085000.90,5703.2879034,N,00952.3668078,E,2,8,1.2,-2.527,M,40.593,M,2.7,0123*57\r\n
$GPGGA,085000.95,5703.2879036,N,00952.3668101,E,2,8,1.2,-2.528,M,40.593,M,2.7,0123*50\r\n
$GPGGA,085001.00,5703.2879033,N,00952.3668135,E,2,8,1.2,-2.531,M,40.593,M,2.7,0123*57\r\n
$GPGGA,085001.05,5703.2879043,N,00952.3668159,E,2,8,1.2,-2.531,M,40.593,M,2.9,0123*51\r\n
$GPGGA,085001.10,5703.2879036,N,00952.3668179,E,2,8,1.2,-2.532,M,40.593,M,2.9,0123*56\r\n
$GPGGA,085001.15,5703.2879026,N,00952.3668183,E,2,8,1.2,-2.533,M,40.593,M,2.9,0123*56\r\n
$GPGGA,085001.20,5703.2879019,N,00952.3668185,E,2,8,1.2,-2.534,M,40.593,M,2.9,0123*5D\r\n
$GPGGA,085001.25,5703.2879011,N,00952.3668183,E,2,8,1.2,-2.535,M,40.593,M,3.1,0123*5E\r\n
$GPGGA,085001.30,5703.2879001,N,00952.3668188,E,2,8,1.2,-2.537,M,40.593,M,3.1,0123*52\r\n
$GPGGA,085001.35,5703.2878988,N,00952.3668186,E,2,8,1.2,-2.539,M,40.593,M,3.1,0123*5E\r\n
$GPGGA,085001.40,5703.2878973,N,00952.3668178,E,2,8,1.2,-2.540,M,40.593,M,3.1,0123*57\r\n
$GPGGA,085001.45,5703.2878946,N,00952.3668053,E,2,8,1.2,-2.510,M,40.593,M,2.2,0123*5B\r\n
$GPGGA,085001.50,5703.2878931,N,00952.3668007,E,2,8,1.2,-2.505,M,40.593,M,2.2,0123*5A\r\n
$GPGGA,085001.55,5703.2878912,N,00952.3667970,E,2,8,1.2,-2.502,M,40.593,M,2.2,0123*5F\r\n
$GPGGA,085001.60,5703.2878898,N,00952.3667935,E,2,8,1.2,-2.499,M,40.593,M,2.2,0123*58\r\n
$GPGGA,085001.65,5703.2878899,N,00952.3667903,E,2,8,1.2,-2.492,M,40.593,M,2.4,0123*54\r\n
$GPGGA,085001.70,5703.2878889,N,00952.3667881,E,2,8,1.2,-2.488,M,40.593,M,2.4,0123*51\r\n
$GPGGA,085001.75,5703.2878893,N,00952.3667867,E,2,8,1.2,-2.486,M,40.593,M,2.4,0123*59\r\n
$GPGGA,085001.80,5703.2878902,N,00952.3667862,E,2,8,1.2,-2.485,M,40.593,M,2.4,0123*5C\r\n
$GPGGA,085001.85,5703.2878911,N,00952.3667856,E,2,8,1.2,-2.484,M,40.593,M,2.6,0123*5F\r\n
$GPGGA,085001.90,5703.2878915,N,00952.3667852,E,2,8,1.2,-2.482,M,40.593,M,2.6,0123*5D\r\n
$GPGGA,085001.95,5703.2878924,N,00952.3667858,E,2,8,1.2,-2.480,M,40.593,M,2.6,0123*52\r\n
$GPGGA,085002.00,5703.2878934,N,00952.3667865,E,2,8,1.2,-2.478,M,40.593,M,2.6,0123*55\r\n
$GPGGA,085002.05,5703.2878959,N,00952.3668007,E,2,8,1.2,-2.498,M,40.593,M,2.9,0123*59\r\n
$GPGGA,085002.10,5703.2878974,N,00952.3668053,E,2,8,1.2,-2.503,M,40.593,M,2.9,0123*50\r\n
$GPGGA,085002.15,5703.2878990,N,00952.3668098,E,2,8,1.2,-2.507,M,40.593,M,2.9,0123*5C\r\n
$GPGGA,085002.20,5703.2879011,N,00952.3668135,E,2,8,1.2,-2.511,M,40.593,M,2.9,0123*5A\r\n
$GPGGA,085002.25,5703.2879026,N,00952.3668182,E,2,8,1.2,-2.519,M,40.593,M,3.1,0123*56\r\n
$GPGGA,085002.30,5703.2879040,N,00952.3668216,E,2,8,1.2,-2.523,M,40.593,M,3.1,0123*55\r\n
$GPGGA,085002.35,5703.2879060,N,00952.3668248,E,2,8,1.2,-2.527,M,40.593,M,3.1,0123*5D\r\n
$GPGGA,085002.40,5703.2879070,N,00952.3668278,E,2,8,1.2,-2.533,M,40.593,M,3.1,0123*58\r\n
$GPGGA,085002.45,5703.2879065,N,00952.3668302,E,2,8,1.2,-2.538,M,40.593,M,0.8,0123*54\r\n
$GPGGA,085002.50,5703.2879086,N,00952.3668314,E,2,8,1.2,-2.537,M,40.593,M,0.8,0123*55\r\n
$GPGGA,085002.55,5703.2879097,N,00952.3668319,E,2,8,1.2,-2.533,M,40.593,M,0.8,0123*59\r\n
$GPGGA,085002.60,5703.2879096,N,00952.3668312,E,2,8,1.2,-2.530,M,40.593,M,0.8,0123*56\r\n
$GPGGA,085002.65,5703.2879086,N,00952.3668317,E,2,8,1.2,-2.528,M,40.593,M,1.2,0123*55\r\n
$GPGGA,085002.70,5703.2879085,N,00952.3668321,E,2,8,1.2,-2.525,M,40.593,M,1.2,0123*5A\r\n
$GPGGA,085002.75,5703.2879087,N,00952.3668317,E,2,8,1.2,-2.520,M,40.593,M,1.2,0123*5D\r\n
$GPGGA,085002.80,5703.2879092,N,00952.3668307,E,2,8,1.2,-2.515,M,40.593,M,1.2,0123*54\r\n
$GPGGA,085002.85,5703.2879091,N,00952.3668302,E,2,8,1.2,-2.507,M,40.593,M,1.5,0123*53\r\n
$GPGGA,085002.90,5703.2879084,N,00952.3668294,E,2,8,1.2,-2.501,M,40.593,M,1.5,0123*5B\r\n
$GPGGA,085002.95,5703.2879081,N,00952.3668279,E,2,8,1.2,-2.495,M,40.593,M,1.5,0123*54\r\n
$GPGGA,085003.00,5703.2879078,N,00952.3668263,E,2,8,1.2,-2.490,M,40.593,M,1.5,0123*51\r\n
$GPGGA,085003.05,5703.2879062,N,00952.3668239,E,2,8,1.2,-2.483,M,40.593,M,1.7,0123*50\r\n
$GPGGA,085003.10,5703.2879052,N,00952.3668225,E,2,8,1.2,-2.481,M,40.593,M,1.7,0123*58\r\n
$GPGGA,085003.15,5703.2879046,N,00952.3668207,E,2,8,1.2,-2.478,M,40.593,M,1.7,0123*5E\r\n
$GPGGA,085003.20,5703.2879050,N,00952.3668198,E,2,8,1.2,-2.479,M,40.593,M,1.7,0123*5B\r\n
$GPGGA,085003.25,5703.2879039,N,00952.3668184,E,2,8,1.2,-2.480,M,40.593,M,2.0,0123*5E\r\n
$GPGGA,085003.30,5703.2879033,N,00952.3668175,E,2,8,1.2,-2.480,M,40.593,M,2.0,0123*5E\r\n
$GPGGA,085003.35,5703.2879027,N,00952.3668168,E,2,8,1.2,-2.479,M,40.593,M,2.0,0123*54\r\n
$GPGGA,085003.40,5703.2879022,N,00952.3668164,E,2,8,1.2,-2.479,M,40.593,M,2.0,0123*5F\r\n
$GPGGA,085003.45,5703.2879046,N,00952.3668251,E,2,8,1.2,-2.495,M,40.593,M,0.9,0123*54\r\n
$GPGGA,085003.50,5703.2879053,N,00952.3668281,E,2,8,1.2,-2.498,M,40.593,M,0.9,0123*54\r\n
$GPGGA,085003.55,5703.2879060,N,00952.3668304,E,2,8,1.2,-2.503,M,40.593,M,0.9,0123*5E\r\n
$GPGGA,085003.60,5703.2879056,N,00952.3668335,E,2,8,1.2,-2.509,M,40.593,M,0.9,0123*55\r\n
$GPGGA,085003.65,5703.2879069,N,00952.3668365,E,2,8,1.2,-2.518,M,40.593,M,1.2,0123*53\r\n
$GPGGA,085003.70,5703.2879079,N,00952.3668386,E,2,8,1.2,-2.521,M,40.593,M,1.2,0123*51\r\n
$GPGGA,085003.75,5703.2879085,N,00952.3668409,E,2,8,1.2,-2.523,M,40.593,M,1.2,0123*55\r\n
$GPGGA,085003.80,5703.2879081,N,00952.3668428,E,2,8,1.2,-2.526,M,40.593,M,1.2,0123*5D\r\n
$GPGGA,085003.85,5703.2879077,N,00952.3668448,E,2,8,1.2,-2.533,M,40.593,M,1.5,0123*54\r\n
$GPGGA,085003.90,5703.2879081,N,00952.3668458,E,2,8,1.2,-2.534,M,40.593,M,1.5,0123*5F\r\n
$GPGGA,085003.95,5703.2879085,N,00952.3668466,E,2,8,1.2,-2.536,M,40.593,M,1.5,0123*51\r\n
$GPGGA,085004.00,5703.2879082,N,00952.3668467,E,2,8,1.2,-2.537,M,40.593,M,1.5,0123*5D\r\n
$GPGGA,085004.05,5703.2879086,N,00952.3668450,E,2,8,1.2,-2.530,M,40.593,M,1.7,0123*5D\r\n
$GPGGA,085004.10,5703.2879087,N,00952.3668453,E,2,8,1.2,-2.530,M,40.593,M,1.7,0123*5B\r\n
$GPGGA,085004.15,5703.2879087,N,00952.3668455,E,2,8,1.2,-2.530,M,40.593,M,1.7,0123*58\r\n
$GPGGA,085004.20,5703.2879086,N,00952.3668459,E,2,8,1.2,-2.529,M,40.593,M,1.7,0123*5B\r\n
$GPGGA,085004.25,5703.2879082,N,00952.3668420,E,2,8,1.2,-2.520,M,40.593,M,2.0,0123*59\r\n
$GPGGA,085004.30,5703.2879081,N,00952.3668412,E,2,8,1.2,-2.518,M,40.593,M,2.0,0123*54\r\n
$GPGGA,085004.35,5703.2879074,N,00952.3668403,E,2,8,1.2,-2.515,M,40.593,M,2.0,0123*56\r\n
$GPGGA,085004.40,5703.2879085,N,00952.3668399,E,2,8,1.2,-2.510,M,40.593,M,2.0,0123*5B\r\n
$GPGGA,085004.45,5703.2879090,N,00952.3668391,E,2,8,1.2,-2.505,M,40.593,M,0.9,0123*5D\r\n
$GPGGA,085004.50,5703.2879082,N,00952.3668383,E,2,8,1.2,-2.502,M,40.593,M,0.9,0123*5E\r\n
$GPGGA,085004.55,5703.2879081,N,00952.3668377,E,2,8,1.2,-2.500,M,40.593,M,0.9,0123*51\r\n
$GPGGA,085004.60,5703.2879079,N,00952.3668371,E,2,8,1.2,-2.500,M,40.593,M,0.9,0123*56\r\n
$GPGGA,085004.65,5703.2879073,N,00952.3668369,E,2,8,1.2,-2.502,M,40.593,M,1.2,0123*58\r\n
$GPGGA,085004.70,5703.2879071,N,00952.3668361,E,2,8,1.2,-2.501,M,40.593,M,1.2,0123*55\r\n
$GPGGA,085004.75,5703.2879070,N,00952.3668356,E,2,8,1.2,-2.500,M,40.593,M,1.2,0123*54\r\n
$GPGGA,085004.80,5703.2879067,N,00952.3668350,E,2,8,1.2,-2.498,M,40.593,M,1.2,0123*5E\r\n
$GPGGA,085004.85,5703.2879048,N,00952.3668359,E,2,8,1.2,-2.508,M,40.593,M,1.5,0123*50\r\n
$GPGGA,085004.90,5703.2879043,N,00952.3668358,E,2,8,1.2,-2.508,M,40.593,M,1.5,0123*5E\r\n
$GPGGA,085004.95,5703.2879041,N,00952.3668360,E,2,8,1.2,-2.508,M,40.593,M,1.5,0123*52\r\n
$GPGGA,085005.00,5703.2879041,N,00952.3668364,E,2,8,1.2,-2.509,M,40.593,M,1.5,0123*5A\r\n
$GPGGA,085005.05,5703.2879049,N,00952.3668416,E,2,8,1.2,-2.518,M,40.593,M,1.7,0123*57\r\n
$GPGGA,085005.10,5703.2879051,N,00952.3668438,E,2,8,1.2,-2.522,M,40.593,M,1.7,0123*5F\r\n
$GPGGA,085005.15,5703.2879057,N,00952.3668449,E,2,8,1.2,-2.525,M,40.593,M,1.7,0123*5D\r\n
$GPGGA,085005.20,5703.2879060,N,00952.3668474,E,2,8,1.2,-2.528,M,40.593,M,1.7,0123*5C\r\n
$GPGGA,085005.25,5703.2879064,N,00952.3668499,E,2,8,1.2,-2.534,M,40.593,M,2.0,0123*57\r\n
$GPGGA,085005.30,5703.2879068,N,00952.3668512,E,2,8,1.2,-2.537,M,40.593,M,2.0,0123*5E\r\n
$GPGGA,085005.35,5703.2879076,N,00952.3668528,E,2,8,1.2,-2.538,M,40.593,M,2.0,0123*52\r\n
$GPGGA,085005.40,5703.2879079,N,00952.3668554,E,2,8,1.2,-2.541,M,40.593,M,2.0,0123*5A\r\n
$GPGGA,085005.45,5703.2879086,N,00952.3668578,E,2,8,1.2,-2.544,M,40.593,M,2.2,0123*56\r\n
$GPGGA,085005.50,5703.2879092,N,00952.3668602,E,2,8,1.2,-2.544,M,40.593,M,2.2,0123*59\r\n
$GPGGA,085005.55,5703.2879092,N,00952.3668638,E,2,8,1.2,-2.545,M,40.593,M,2.2,0123*54\r\n
$GPGGA,085005.60,5703.2879095,N,00952.3668671,E,2,8,1.2,-2.545,M,40.593,M,2.2,0123*58\r\n
$GPGGA,085005.65,5703.2879101,N,00952.3668703,E,2,8,1.2,-2.542,M,40.593,M,2.4,0123*54\r\n
$GPGGA,085005.70,5703.2879107,N,00952.3668738,E,2,8,1.2,-2.542,M,40.593,M,2.4,0123*5E\r\n
$GPGGA,085005.75,5703.2879112,N,00952.3668776,E,2,8,1.2,-2.541,M,40.593,M,2.4,0123*56\r\n
$GPGGA,085005.80,5703.2879115,N,00952.3668812,E,2,8,1.2,-2.541,M,40.593,M,2.4,0123*56\r\n
$GPGGA,085005.85,5703.2879110,N,00952.3668857,E,2,8,1.2,-2.546,M,40.593,M,2.6,0123*52\r\n
$GPGGA,085005.90,5703.2879115,N,00952.3668891,E,2,8,1.2,-2.546,M,40.593,M,2.6,0123*59\r\n
$GPGGA,085005.95,5703.2879118,N,00952.3668927,E,2,8,1.2,-2.546,M,40.593,M,2.6,0123*5D\r\n
$GPGGA,085006.00,5703.2879122,N,00952.3668966,E,2,8,1.2,-2.545,M,40.593,M,2.6,0123*5D\r\n
$GPGGA,085006.05,5703.2879127,N,00952.3668968,E,2,8,1.2,-2.542,M,40.593,M,2.9,0123*5B\r\n
$GPGGA,085006.10,5703.2879130,N,00952.3669000,E,2,8,1.2,-2.542,M,40.593,M,2.9,0123*5F\r\n
$GPGGA,085006.15,5703.2879134,N,00952.3669031,E,2,8,1.2,-2.542,M,40.593,M,2.9,0123*5C\r\n
$GPGGA,085006.20,5703.2879138,N,00952.3669060,E,2,8,1.2,-2.542,M,40.593,M,2.9,0123*52\r\n
$GPGGA,085006.25,5703.2879144,N,00952.3669059,E,2,8,1.2,-2.549,M,40.593,M,3.1,0123*54\r\n
$GPGGA,085006.30,5703.2879147,N,00952.3669087,E,2,8,1.2,-2.550,M,40.593,M,3.1,0123*58\r\n
$GPGGA,085006.35,5703.2879150,N,00952.3669107,E,2,8,1.2,-2.551,M,40.593,M,3.1,0123*53\r\n
$GPGGA,085006.40,5703.2879150,N,00952.3669126,E,2,8,1.2,-2.552,M,40.593,M,3.1,0123*51\r\n
$GPGGA,085006.45,5703.2879124,N,00952.3669129,E,2,8,1.2,-2.555,M,40.593,M,0.8,0123*55\r\n
$GPGGA,085006.50,5703.2879122,N,00952.3669143,E,2,8,1.2,-2.557,M,40.593,M,0.8,0123*59\r\n
$GPGGA,085006.55,5703.2879120,N,00952.3669161,E,2,8,1.2,-2.558,M,40.593,M,0.8,0123*51\r\n
$GPGGA,085006.60,5703.2879119,N,00952.3669172,E,2,8,1.2,-2.560,M,40.593,M,0.8,0123*54\r\n
$GPGGA,085006.65,5703.2879115,N,00952.3669177,E,2,8,1.2,-2.560,M,40.593,M,1.2,0123*53\r\n
$GPGGA,085006.70,5703.2879112,N,00952.3669186,E,2,8,1.2,-2.562,M,40.593,M,1.2,0123*5C\r\n
$GPGGA,085006.75,5703.2879108,N,00952.3669194,E,2,8,1.2,-2.563,M,40.593,M,1.2,0123*50\r\n
$GPGGA,085006.80,5703.2879102,N,00952.3669197,E,2,8,1.2,-2.565,M,40.593,M,1.2,0123*55\r\n
$GPGGA,085006.85,5703.2879104,N,00952.3669192,E,2,8,1.2,-2.556,M,40.593,M,1.5,0123*54\r\n
$GPGGA,085006.90,5703.2879100,N,00952.3669198,E,2,8,1.2,-2.557,M,40.593,M,1.5,0123*5F\r\n
$GPGGA,085006.95,5703.2879096,N,00952.3669207,E,2,8,1.2,-2.558,M,40.593,M,1.5,0123*5E\r\n
$GPGGA,085007.00,5703.2879092,N,00952.3669212,E,2,8,1.2,-2.558,M,40.593,M,1.5,0123*53\r\n
$GPGGA,085007.05,5703.2879113,N,00952.3669239,E,2,8,1.2,-2.548,M,40.593,M,1.7,0123*54\r\n
$GPGGA,085007.10,5703.2879112,N,00952.3669250,E,2,8,1.2,-2.547,M,40.593,M,1.7,0123*51\r\n
$GPGGA,085007.15,5703.2879112,N,00952.3669265,E,2,8,1.2,-2.547,M,40.593,M,1.7,0123*52\r\n
$GPGGA,085007.20,5703.2879112,N,00952.3669284,E,2,8,1.2,-2.546,M,40.593,M,1.7,0123*5A\r\n
$GPGGA,085007.25,5703.2879135,N,00952.3669346,E,2,8,1.2,-2.540,M,40.593,M,2.0,0123*57\r\n
$GPGGA,085007.30,5703.2879140,N,00952.3669370,E,2,8,1.2,-2.539,M,40.593,M,2.0,0123*5A\r\n
$GPGGA,085007.35,5703.2879147,N,00952.3669394,E,2,8,1.2,-2.537,M,40.593,M,2.0,0123*5C\r\n
$GPGGA,085007.40,5703.2879153,N,00952.3669418,E,2,8,1.2,-2.535,M,40.593,M,2.0,0123*5A\r\n
$GPGGA,085007.45,5703.2879194,N,00952.3669458,E,2,8,1.2,-2.541,M,40.593,M,0.9,0123*58\r\n
$GPGGA,085007.50,5703.2879203,N,00952.3669485,E,2,8,1.2,-2.540,M,40.593,M,0.9,0123*50\r\n
$GPGGA,085007.55,5703.2879214,N,00952.3669512,E,2,8,1.2,-2.538,M,40.593,M,0.9,0123*53\r\n
$GPGGA,085007.60,5703.2879227,N,00952.3669542,E,2,8,1.2,-2.537,M,40.593,M,0.9,0123*5F\r\n
$GPGGA,085007.65,5703.2879215,N,00952.3669564,E,2,8,1.2,-2.544,M,40.593,M,1.2,0123*51\r\n
$GPGGA,085007.70,5703.2879224,N,00952.3669585,E,2,8,1.2,-2.544,M,40.593,M,1.2,0123*58\r\n
$GPGGA,085007.75,5703.2879232,N,00952.3669606,E,2,8,1.2,-2.544,M,40.593,M,1.2,0123*52\r\n
$GPGGA,085007.80,5703.2879239,N,00952.3669621,E,2,8,1.2,-2.544,M,40.593,M,1.2,0123*56\r\n
$GPGGA,085007.85,5703.2879210,N,00952.3669579,E,2,8,1.2,-2.546,M,40.593,M,1.5,0123*53\r\n
$GPGGA,085007.90,5703.2879216,N,00952.3669586,E,2,8,1.2,-2.546,M,40.593,M,1.5,0123*51\r\n
$GPGGA,085007.95,5703.2879218,N,00952.3669591,E,2,8,1.2,-2.547,M,40.593,M,1.5,0123*5D\r\n
$GPGGA,085008.00,5703.2879217,N,00952.3669592,E,2,8,1.2,-2.548,M,40.593,M,1.5,0123*5D\r\n
$GPGGA,085008.05,5703.2879180,N,00952.3669549,E,2,8,1.2,-2.544,M,40.593,M,1.7,0123*5D\r\n
$GPGGA,085008.10,5703.2879177,N,00952.3669547,E,2,8,1.2,-2.545,M,40.593,M,1.7,0123*5E\r\n
$GPGGA,085008.15,5703.2879174,N,00952.3669543,E,2,8,1.2,-2.546,M,40.593,M,1.7,0123*5F\r\n
$GPGGA,085008.20,5703.2879172,N,00952.3669542,E,2,8,1.2,-2.547,M,40.593,M,1.7,0123*5F\r\n
$GPGGA,085008.25,5703.2879196,N,00952.3669541,E,2,8,1.2,-2.535,M,40.593,M,2.0,0123*52\r\n
$GPGGA,085008.30,5703.2879192,N,00952.3669537,E,2,8,1.2,-2.535,M,40.593,M,2.0,0123*53\r\n
$GPGGA,085008.35,5703.2879189,N,00952.3669535,E,2,8,1.2,-2.535,M,40.593,M,2.0,0123*5E\r\n
$GPGGA,085008.40,5703.2879185,N,00952.3669530,E,2,8,1.2,-2.535,M,40.593,M,2.0,0123*55\r\n
$GPGGA,085008.45,5703.2879197,N,00952.3669554,E,2,8,1.2,-2.531,M,40.593,M,0.9,0123*5E\r\n
$GPGGA,085008.50,5703.2879197,N,00952.3669554,E,2,8,1.2,-2.531,M,40.593,M,0.9,0123*5A\r\n
$GPGGA,085008.55,5703.2879198,N,00952.3669553,E,2,8,1.2,-2.530,M,40.593,M,0.9,0123*56\r\n
$GPGGA,085008.60,5703.2879199,N,00952.3669551,E,2,8,1.2,-2.529,M,40.593,M,0.9,0123*5B\r\n
$GPGGA,085008.65,5703.2879236,N,00952.3669558,E,2,8,1.2,-2.531,M,40.593,M,1.2,0123*52\r\n
$GPGGA,085008.70,5703.2879238,N,00952.3669559,E,2,8,1.2,-2.530,M,40.593,M,1.2,0123*58\r\n
$GPGGA,085008.75,5703.2879239,N,00952.3669553,E,2,8,1.2,-2.529,M,40.593,M,1.2,0123*5E\r\n
$GPGGA,085008.80,5703.2879242,N,00952.3669551,E,2,8,1.2,-2.529,M,40.593,M,1.2,0123*5A\r\n
$GPGGA,085008.85,5703.2879204,N,00952.3669563,E,2,8,1.2,-2.537,M,40.593,M,1.5,0123*54\r\n
$GPGGA,085008.90,5703.2879205,N,00952.3669561,E,2,8,1.2,-2.537,M,40.593,M,1.5,0123*53\r\n
$GPGGA,085008.95,5703.2879206,N,00952.3669560,E,2,8,1.2,-2.537,M,40.593,M,1.5,0123*54\r\n
$GPGGA,085009.00,5703.2879205,N,00952.3669561,E,2,8,1.2,-2.537,M,40.593,M,1.5,0123*5B\r\n
$GPGGA,085009.05,5703.2879200,N,00952.3669556,E,2,8,1.2,-2.537,M,40.593,M,1.7,0123*5D\r\n
$GPGGA,085009.10,5703.2879200,N,00952.3669555,E,2,8,1.2,-2.538,M,40.593,M,1.7,0123*55\r\n
$GPGGA,085009.15,5703.2879201,N,00952.3669557,E,2,8,1.2,-2.538,M,40.593,M,1.7,0123*53\r\n
$GPGGA,085009.20,5703.2879199,N,00952.3669557,E,2,8,1.2,-2.539,M,40.593,M,1.7,0123*56\r\n
$GPGGA,085009.25,5703.2879201,N,00952.3669564,E,2,8,1.2,-2.541,M,40.593,M,2.0,0123*5A\r\n
$GPGGA,085009.30,5703.2879199,N,00952.3669566,E,2,8,1.2,-2.542,M,40.593,M,2.0,0123*5D\r\n
$GPGGA,085009.35,5703.2879200,N,00952.3669571,E,2,8,1.2,-2.543,M,40.593,M,2.0,0123*5C\r\n
$GPGGA,085009.40,5703.2879201,N,00952.3669576,E,2,8,1.2,-2.544,M,40.593,M,2.0,0123*5F\r\n
$GPGGA,085009.45,5703.2879212,N,00952.3669591,E,2,8,1.2,-2.544,M,40.593,M,2.2,0123*53\r\n
$GPGGA,085009.50,5703.2879213,N,00952.3669595,E,2,8,1.2,-2.545,M,40.593,M,2.2,0123*53\r\n
$GPGGA,085009.55,5703.2879213,N,00952.3669598,E,2,8,1.2,-2.546,M,40.593,M,2.2,0123*58\r\n
$GPGGA,085009.60,5703.2879213,N,00952.3669605,E,2,8,1.2,-2.547,M,40.593,M,2.2,0123*58\r\n
$GPGGA,085009.65,5703.2879204,N,00952.3669608,E,2,8,1.2,-2.540,M,40.593,M,2.4,0123*57\r\n
$GPGGA,085009.70,5703.2879203,N,00952.3669612,E,2,8,1.2,-2.540,M,40.593,M,2.4,0123*5F\r\n
$GPGGA,085009.75,5703.2879203,N,00952.3669616,E,2,8,1.2,-2.541,M,40.593,M,2.4,0123*5F\r\n
$GPGGA,085009.80,5703.2879202,N,00952.3669621,E,2,8,1.2,-2.541,M,40.593,M,2.4,0123*50\r\n
$GPGGA,085009.85,5703.2879208,N,00952.3669611,E,2,8,1.2,-2.538,M,40.593,M,2.6,0123*50\r\n
$GPGGA,085009.90,5703.2879208,N,00952.3669616,E,2,8,1.2,-2.538,M,40.593,M,2.6,0123*53\r\n
$GPGGA,085009.95,5703.2879208,N,00952.3669623,E,2,8,1.2,-2.538,M,40.593,M,2.6,0123*50\r\n
$GPGGA,085010.00,5703.2879207,N,00952.3669629,E,2,8,1.2,-2.537,M,40.593,M,2.6,0123*5E\r\n
$GPGGA,085010.05,5703.2879198,N,00952.3669647,E,2,8,1.2,-2.544,M,40.593,M,2.9,0123*5D\r\n
$GPGGA,085010.10,5703.2879199,N,00952.3669655,E,2,8,1.2,-2.544,M,40.593,M,2.9,0123*5B\r\n
$GPGGA,085010.15,5703.2879199,N,00952.3669659,E,2,8,1.2,-2.544,M,40.593,M,2.9,0123*52\r\n
$GPGGA,085010.20,5703.2879200,N,00952.3669666,E,2,8,1.2,-2.544,M,40.593,M,2.9,0123*5B\r\n
$GPGGA,085010.25,5703.2879224,N,00952.3669655,E,2,8,1.2,-2.541,M,40.593,M,3.1,0123*54\r\n
$GPGGA,085010.30,5703.2879227,N,00952.3669662,E,2,8,1.2,-2.541,M,40.593,M,3.1,0123*57\r\n
$GPGGA,085010.35,5703.2879229,N,00952.3669666,E,2,8,1.2,-2.541,M,40.593,M,3.1,0123*58\r\n
$GPGGA,085010.40,5703.2879233,N,00952.3669672,E,2,8,1.2,-2.540,M,40.593,M,3.1,0123*55\r\n
$GPGGA,085010.45,5703.2879242,N,00952.3669672,E,2,8,1.2,-2.540,M,40.593,M,3.3,0123*54\r\n
$GPGGA,085010.50,5703.2879248,N,00952.3669675,E,2,8,1.2,-2.540,M,40.593,M,3.3,0123*5D\r\n
$GPGGA,085010.55,5703.2879251,N,00952.3669675,E,2,8,1.2,-2.539,M,40.593,M,3.3,0123*5E\r\n
$GPGGA,085010.60,5703.2879258,N,00952.3669677,E,2,8,1.2,-2.539,M,40.593,M,3.3,0123*53\r\n
$GPGGA,085010.65,5703.2879260,N,00952.3669662,E,2,8,1.2,-2.541,M,40.593,M,3.5,0123*50\r\n
$GPGGA,085010.70,5703.2879265,N,00952.3669662,E,2,8,1.2,-2.540,M,40.593,M,3.5,0123*50\r\n
$GPGGA,085010.75,5703.2879266,N,00952.3669660,E,2,8,1.2,-2.540,M,40.593,M,3.5,0123*54\r\n
$GPGGA,085010.80,5703.2879269,N,00952.3669656,E,2,8,1.2,-2.540,M,40.593,M,3.5,0123*54\r\n
$GPGGA,085010.85,5703.2879225,N,00952.3669665,E,2,8,1.2,-2.542,M,40.593,M,3.7,0123*59\r\n
$GPGGA,085010.90,5703.2879222,N,00952.3669664,E,2,8,1.2,-2.542,M,40.593,M,3.7,0123*5B\r\n
$GPGGA,085010.95,5703.2879219,N,00952.3669660,E,2,8,1.2,-2.542,M,40.593,M,3.7,0123*52\r\n
$GPGGA,085011.00,5703.2879213,N,00952.3669658,E,2,8,1.2,-2.542,M,40.593,M,3.7,0123*5E\r\n
$GPGGA,085011.05,5703.2879149,N,00952.3669683,E,2,8,1.2,-2.544,M,40.593,M,3.9,0123*59\r\n
$GPGGA,085011.10,5703.2879140,N,00952.3669683,E,2,8,1.2,-2.544,M,40.593,M,3.9,0123*54\r\n
$GPGGA,085011.15,5703.2879132,N,00952.3669684,E,2,8,1.2,-2.544,M,40.593,M,3.9,0123*53\r\n
$GPGGA,085011.20,5703.2879124,N,00952.3669681,E,2,8,1.2,-2.544,M,40.593,M,3.9,0123*57\r\n
$GPGGA,085011.25,5703.2879134,N,00952.3669676,E,2,8,1.2,-2.541,M,40.593,M,4.1,0123*51\r\n
$GPGGA,085011.30,5703.2879126,N,00952.3669676,E,2,8,1.2,-2.541,M,40.593,M,4.1,0123*56\r\n
$GPGGA,085011.35,5703.2879119,N,00952.3669676,E,2,8,1.2,-2.541,M,40.593,M,4.1,0123*5F\r\n
$GPGGA,085011.40,5703.2879112,N,00952.3669683,E,2,8,1.2,-2.541,M,40.593,M,4.1,0123*5C\r\n
$GPGGA,085011.45,5703.2879165,N,00952.3669688,E,2,8,1.2,-2.540,M,40.593,M,2.3,0123*57\r\n
$GPGGA,085011.50,5703.2879160,N,00952.3669696,E,2,8,1.2,-2.540,M,40.593,M,2.3,0123*59\r\n
$GPGGA,085011.55,5703.2879155,N,00952.3669705,E,2,8,1.2,-2.540,M,40.593,M,2.3,0123*51\r\n
$GPGGA,085011.60,5703.2879152,N,00952.3669716,E,2,8,1.2,-2.540,M,40.593,M,2.3,0123*52\r\n
$GPGGA,085011.65,5703.2879198,N,00952.3669766,E,2,8,1.2,-2.539,M,40.593,M,2.5,0123*5E\r\n
$GPGGA,085011.70,5703.2879199,N,00952.3669779,E,2,8,1.2,-2.539,M,40.593,M,2.5,0123*55\r\n
$GPGGA,085011.75,5703.2879194,N,00952.3669792,E,2,8,1.2,-2.539,M,40.593,M,2.5,0123*58\r\n
$GPGGA,085011.80,5703.2879195,N,00952.3669806,E,2,8,1.2,-2.539,M,40.593,M,2.5,0123*51\r\n
$GPGGA,085011.85,5703.2879216,N,00952.3669832,E,2,8,1.2,-2.545,M,40.593,M,2.7,0123*52\r\n
$GPGGA,085011.90,5703.2879218,N,00952.3669847,E,2,8,1.2,-2.545,M,40.593,M,2.7,0123*5A\r\n
$GPGGA,085011.95,5703.2879219,N,00952.3669861,E,2,8,1.2,-2.546,M,40.593,M,2.7,0123*59\r\n
$GPGGA,085012.00,5703.2879220,N,00952.3669873,E,2,8,1.2,-2.546,M,40.593,M,2.7,0123*5F\r\n
$GPGGA,085012.05,5703.2879229,N,00952.3669863,E,2,8,1.2,-2.542,M,40.593,M,3.0,0123*50\r\n
$GPGGA,085012.10,5703.2879233,N,00952.3669876,E,2,8,1.2,-2.542,M,40.593,M,3.0,0123*5B\r\n
$GPGGA,085012.15,5703.2879237,N,00952.3669889,E,2,8,1.2,-2.542,M,40.593,M,3.0,0123*5A\r\n
$GPGGA,085012.20,5703.2879238,N,00952.3669905,E,2,8,1.2,-2.542,M,40.593,M,3.0,0123*56\r\n
$GPGGA,085012.25,5703.2879258,N,00952.3669910,E,2,8,1.2,-2.539,M,40.593,M,3.2,0123*5F\r\n
$GPGGA,085012.30,5703.2879259,N,00952.3669918,E,2,8,1.2,-2.539,M,40.593,M,3.2,0123*52\r\n
$GPGGA,085012.35,5703.2879263,N,00952.3669926,E,2,8,1.2,-2.539,M,40.593,M,3.2,0123*53\r\n
$GPGGA,085012.40,5703.2879266,N,00952.3669935,E,2,8,1.2,-2.539,M,40.593,M,3.2,0123*56\r\n
$GPGGA,085012.45,5703.2879246,N,00952.3669912,E,2,8,1.2,-2.542,M,40.593,M,2.2,0123*59\r\n
$GPGGA,085012.50,5703.2879249,N,00952.3669920,E,2,8,1.2,-2.542,M,40.593,M,2.2,0123*53\r\n
$GPGGA,085012.55,5703.2879251,N,00952.3669926,E,2,8,1.2,-2.542,M,40.593,M,2.2,0123*59\r\n
$GPGGA,085012.60,5703.2879257,N,00952.3669936,E,2,8,1.2,-2.542,M,40.593,M,2.2,0123*58\r\n
$GPGGA,085012.65,5703.2879252,N,00952.3669922,E,2,8,1.2,-2.543,M,40.593,M,2.5,0123*5B\r\n
$GPGGA,085012.70,5703.2879254,N,00952.3669928,E,2,8,1.2,-2.544,M,40.593,M,2.5,0123*54\r\n
$GPGGA,085012.75,5703.2879254,N,00952.3669927,E,2,8,1.2,-2.544,M,40.593,M,2.5,0123*5E\r\n
$GPGGA,085012.80,5703.2879258,N,00952.3669929,E,2,8,1.2,-2.544,M,40.593,M,2.5,0123*56\r\n
$GPGGA,085012.85,5703.2879247,N,00952.3669895,E,2,8,1.2,-2.540,M,40.593,M,2.7,0123*5D\r\n
$GPGGA,085012.90,5703.2879247,N,00952.3669895,E,2,8,1.2,-2.540,M,40.593,M,2.7,0123*59\r\n
$GPGGA,085012.95,5703.2879247,N,00952.3669895,E,2,8,1.2,-2.540,M,40.593,M,2.7,0123*5C\r\n
$GPGGA,085013.00,5703.2879248,N,00952.3669890,E,2,8,1.2,-2.540,M,40.593,M,2.7,0123*5B\r\n
$GPGGA,085013.05,5703.2879242,N,00952.3669863,E,2,8,1.2,-2.535,M,40.593,M,2.9,0123*54\r\n
$GPGGA,085013.10,5703.2879243,N,00952.3669863,E,2,8,1.2,-2.535,M,40.593,M,2.9,0123*51\r\n
$GPGGA,085013.15,5703.2879247,N,00952.3669860,E,2,8,1.2,-2.535,M,40.593,M,2.9,0123*53\r\n
$GPGGA,085013.20,5703.2879247,N,00952.3669858,E,2,8,1.2,-2.534,M,40.593,M,2.9,0123*5F\r\n
$GPGGA,085013.25,5703.2879265,N,00952.3669863,E,2,8,1.2,-2.539,M,40.593,M,3.1,0123*56\r\n
$GPGGA,085013.30,5703.2879267,N,00952.3669861,E,2,8,1.2,-2.539,M,40.593,M,3.1,0123*52\r\n
$GPGGA,085013.35,5703.2879270,N,00952.3669859,E,2,8,1.2,-2.538,M,40.593,M,3.1,0123*5B\r\n
$GPGGA,085013.40,5703.2879271,N,00952.3669857,E,2,8,1.2,-2.538,M,40.593,M,3.1,0123*56\r\n
$GPGGA,085013.45,5703.2879271,N,00952.3669862,E,2,8,1.2,-2.534,M,40.593,M,2.2,0123*5B\r\n
$GPGGA,085013.50,5703.2879274,N,00952.3669863,E,2,8,1.2,-2.533,M,40.593,M,2.2,0123*5C\r\n
$GPGGA,085013.55,5703.2879278,N,00952.3669864,E,2,8,1.2,-2.533,M,40.593,M,2.2,0123*52\r\n
$GPGGA,085013.60,5703.2879276,N,00952.3669860,E,2,8,1.2,-2.532,M,40.593,M,2.2,0123*5F\r\n
$GPGGA,085013.65,5703.2879262,N,00952.3669879,E,2,8,1.2,-2.529,M,40.593,M,2.4,0123*5B\r\n
$GPGGA,085013.70,5703.2879265,N,00952.3669880,E,2,8,1.2,-2.529,M,40.593,M,2.4,0123*5E\r\n
$GPGGA,085013.75,5703.2879267,N,00952.3669879,E,2,8,1.2,-2.528,M,40.593,M,2.4,0123*5E\r\n
$GPGGA,085013.80,5703.2879266,N,00952.3669874,E,2,8,1.2,-2.528,M,40.593,M,2.4,0123*58\r\n
$GPGGA,085013.85,5703.2879261,N,00952.3669886,E,2,8,1.2,-2.536,M,40.593,M,2.6,0123*5A\r\n
$GPGGA,085013.90,5703.2879262,N,00952.3669884,E,2,8,1.2,-2.536,M,40.593,M,2.6,0123*5F\r\n
$GPGGA,085013.95,5703.2879264,N,00952.3669884,E,2,8,1.2,-2.536,M,40.593,M,2.6,0123*5C\r\n
$GPGGA,085014.00,5703.2879266,N,00952.3669884,E,2,8,1.2,-2.535,M,40.593,M,2.6,0123*56\r\n
$GPGGA,085014.05,5703.2879281,N,00952.3669876,E,2,8,1.2,-2.535,M,40.593,M,2.9,0123*58\r\n
$GPGGA,085014.10,5703.2879279,N,00952.3669874,E,2,8,1.2,-2.535,M,40.593,M,2.9,0123*59\r\n
$GPGGA,085014.15,5703.2879280,N,00952.3669869,E,2,8,1.2,-2.535,M,40.593,M,2.9,0123*56\r\n
$GPGGA,085014.20,5703.2879280,N,00952.3669867,E,2,8,1.2,-2.535,M,40.593,M,2.9,0123*5E\r\n
$GPGGA,085014.25,5703.2879243,N,00952.3669864,E,2,8,1.2,-2.544,M,40.593,M,3.1,0123*58\r\n
$GPGGA,085014.30,5703.2879241,N,00952.3669860,E,2,8,1.2,-2.545,M,40.593,M,3.1,0123*5B\r\n
$GPGGA,085014.35,5703.2879242,N,00952.3669856,E,2,8,1.2,-2.545,M,40.593,M,3.1,0123*58\r\n
$GPGGA,085014.40,5703.2879239,N,00952.3669848,E,2,8,1.2,-2.546,M,40.593,M,3.1,0123*5A\r\n
$GPGGA,085014.45,5703.2879253,N,00952.3669824,E,2,8,1.2,-2.542,M,40.593,M,0.8,0123*57\r\n
$GPGGA,085014.50,5703.2879252,N,00952.3669818,E,2,8,1.2,-2.543,M,40.593,M,0.8,0123*5C\r\n
$GPGGA,085014.55,5703.2879252,N,00952.3669813,E,2,8,1.2,-2.544,M,40.593,M,0.8,0123*55\r\n
$GPGGA,085014.60,5703.2879251,N,00952.3669812,E,2,8,1.2,-2.545,M,40.593,M,0.8,0123*50\r\n
$GPGGA,085014.65,5703.2879269,N,00952.3669822,E,2,8,1.2,-2.540,M,40.593,M,1.2,0123*53\r\n
$GPGGA,085014.70,5703.2879270,N,00952.3669821,E,2,8,1.2,-2.541,M,40.593,M,1.2,0123*5D\r\n
$GPGGA,085014.75,5703.2879268,N,00952.3669818,E,2,8,1.2,-2.542,M,40.593,M,1.2,0123*58\r\n
$GPGGA,085014.80,5703.2879269,N,00952.3669816,E,2,8,1.2,-2.542,M,40.593,M,1.2,0123*5D\r\n
$GPGGA,085014.85,5703.2879273,N,00952.3669825,E,2,8,1.2,-2.542,M,40.593,M,1.5,0123*54\r\n
$GPGGA,085014.90,5703.2879273,N,00952.3669826,E,2,8,1.2,-2.542,M,40.593,M,1.5,0123*53\r\n
$GPGGA,085014.95,5703.2879273,N,00952.3669829,E,2,8,1.2,-2.543,M,40.593,M,1.5,0123*58\r\n
$GPGGA,085015.00,5703.2879271,N,00952.3669827,E,2,8,1.2,-2.543,M,40.593,M,1.5,0123*59\r\n
$GPGGA,085015.05,5703.2879263,N,00952.3669832,E,2,8,1.2,-2.535,M,40.593,M,1.7,0123*58\r\n
$GPGGA,085015.10,5703.2879263,N,00952.3669831,E,2,8,1.2,-2.535,M,40.593,M,1.7,0123*5F\r\n
$GPGGA,085015.15,5703.2879262,N,00952.3669831,E,2,8,1.2,-2.535,M,40.593,M,1.7,0123*5B\r\n
$GPGGA,085015.20,5703.2879260,N,00952.3669833,E,2,8,1.2,-2.535,M,40.593,M,1.7,0123*5D\r\n
$GPGGA,085015.25,5703.2879267,N,00952.3669843,E,2,8,1.2,-2.540,M,40.593,M,2.0,0123*5E\r\n
$GPGGA,085015.30,5703.2879267,N,00952.3669848,E,2,8,1.2,-2.540,M,40.593,M,2.0,0123*51\r\n
$GPGGA,085015.35,5703.2879268,N,00952.3669852,E,2,8,1.2,-2.540,M,40.593,M,2.0,0123*50\r\n
$GPGGA,085015.40,5703.2879268,N,00952.3669850,E,2,8,1.2,-2.540,M,40.593,M,2.0,0123*50\r\n
$GPGGA,085015.45,5703.2879277,N,00952.3669848,E,2,8,1.2,-2.538,M,40.593,M,0.9,0123*56\r\n
$GPGGA,085015.50,5703.2879279,N,00952.3669850,E,2,8,1.2,-2.538,M,40.593,M,0.9,0123*55\r\n
$GPGGA,085015.55,5703.2879279,N,00952.3669845,E,2,8,1.2,-2.538,M,40.593,M,0.9,0123*54\r\n
$GPGGA,085015.60,5703.2879278,N,00952.3669845,E,2,8,1.2,-2.538,M,40.593,M,0.9,0123*53\r\n
$GPGGA,085015.65,5703.2879283,N,00952.3669821,E,2,8,1.2,-2.538,M,40.593,M,1.2,0123*5A\r\n
$GPGGA,085015.70,5703.2879281,N,00952.3669816,E,2,8,1.2,-2.538,M,40.593,M,1.2,0123*58\r\n
$GPGGA,085015.75,5703.2879282,N,00952.3669812,E,2,8,1.2,-2.538,M,40.593,M,1.2,0123*5A\r\n
$GPGGA,085015.80,5703.2879281,N,00952.3669808,E,2,8,1.2,-2.538,M,40.593,M,1.2,0123*58\r\n
$GPGGA,085015.85,5703.2879275,N,00952.3669795,E,2,8,1.2,-2.538,M,40.593,M,1.5,0123*5A\r\n
$GPGGA,085015.90,5703.2879275,N,00952.3669792,E,2,8,1.2,-2.537,M,40.593,M,1.5,0123*56\r\n
$GPGGA,085015.95,5703.2879276,N,00952.3669790,E,2,8,1.2,-2.537,M,40.593,M,1.5,0123*52\r\n
$GPGGA,085016.00,5703.2879276,N,00952.3669789,E,2,8,1.2,-2.537,M,40.593,M,1.5,0123*55\r\n
$GPGGA,085016.05,5703.2879281,N,00952.3669789,E,2,8,1.2,-2.539,M,40.593,M,1.7,0123*54\r\n
$GPGGA,085016.10,5703.2879280,N,00952.3669790,E,2,8,1.2,-2.539,M,40.593,M,1.7,0123*59\r\n
$GPGGA,085016.15,5703.2879281,N,00952.3669795,E,2,8,1.2,-2.539,M,40.593,M,1.7,0123*58\r\n
$GPGGA,085016.20,5703.2879283,N,00952.3669798,E,2,8,1.2,-2.539,M,40.593,M,1.7,0123*51\r\n
$GPGGA,085016.25,5703.2879292,N,00952.3669838,E,2,8,1.2,-2.536,M,40.593,M,2.0,0123*5A\r\n
$GPGGA,085016.30,5703.2879294,N,00952.3669843,E,2,8,1.2,-2.536,M,40.593,M,2.0,0123*54\r\n
$GPGGA,085016.35,5703.2879295,N,00952.3669847,E,2,8,1.2,-2.536,M,40.593,M,2.0,0123*54\r\n
$GPGGA,085016.40,5703.2879296,N,00952.3669853,E,2,8,1.2,-2.536,M,40.593,M,2.0,0123*50\r\n
$GPGGA,085016.45,5703.2879301,N,00952.3669877,E,2,8,1.2,-2.541,M,40.593,M,0.9,0123*57\r\n
$GPGGA,085016.50,5703.2879304,N,00952.3669885,E,2,8,1.2,-2.541,M,40.593,M,0.9,0123*5B\r\n
$GPGGA,085016.55,5703.2879306,N,00952.3669891,E,2,8,1.2,-2.541,M,40.593,M,0.9,0123*59\r\n
$GPGGA,085016.60,5703.2879306,N,00952.3669898,E,2,8,1.2,-2.541,M,40.593,M,0.9,0123*56\r\n
$GPGGA,085016.65,5703.2879303,N,00952.3669897,E,2,8,1.2,-2.539,M,40.593,M,1.2,0123*5C\r\n
$GPGGA,085016.70,5703.2879307,N,00952.3669904,E,2,8,1.2,-2.539,M,40.593,M,1.2,0123*57\r\n
$GPGGA,085016.75,5703.2879307,N,00952.3669907,E,2,8,1.2,-2.539,M,40.593,M,1.2,0123*51\r\n
$GPGGA,085016.80,5703.2879311,N,00952.3669912,E,2,8,1.2,-2.539,M,40.593,M,1.2,0123*58\r\n
$GPGGA,085016.85,5703.2879327,N,00952.3669897,E,2,8,1.2,-2.543,M,40.593,M,1.5,0123*5E\r\n
$GPGGA,085016.90,5703.2879331,N,00952.3669902,E,2,8,1.2,-2.543,M,40.593,M,1.5,0123*50\r\n
$GPGGA,085016.95,5703.2879334,N,00952.3669910,E,2,8,1.2,-2.543,M,40.593,M,1.5,0123*53\r\n
$GPGGA,085017.00,5703.2879336,N,00952.3669915,E,2,8,1.2,-2.543,M,40.593,M,1.5,0123*59\r\n
$GPGGA,085017.05,5703.2879331,N,00952.3669915,E,2,8,1.2,-2.539,M,40.593,M,1.7,0123*54\r\n
$GPGGA,085017.10,5703.2879333,N,00952.3669919,E,2,8,1.2,-2.539,M,40.593,M,1.7,0123*5E\r\n
$GPGGA,085017.15,5703.2879334,N,00952.3669925,E,2,8,1.2,-2.539,M,40.593,M,1.7,0123*53\r\n
$GPGGA,085017.20,5703.2879335,N,00952.3669929,E,2,8,1.2,-2.539,M,40.593,M,1.7,0123*58\r\n
$GPGGA,085017.25,5703.2879322,N,00952.3669919,E,2,8,1.2,-2.538,M,40.593,M,2.0,0123*5D\r\n
$GPGGA,085017.30,5703.2879323,N,00952.3669925,E,2,8,1.2,-2.538,M,40.593,M,2.0,0123*57\r\n
$GPGGA,085017.35,5703.2879325,N,00952.3669934,E,2,8,1.2,-2.538,M,40.593,M,2.0,0123*54\r\n
$GPGGA,085017.40,5703.2879327,N,00952.3669944,E,2,8,1.2,-2.538,M,40.593,M,2.0,0123*53\r\n
$GPGGA,085017.45,5703.2879317,N,00952.3669974,E,2,8,1.2,-2.542,M,40.593,M,2.3,0123*58\r\n
$GPGGA,085017.50,5703.2879317,N,00952.3669986,E,2,8,1.2,-2.542,M,40.593,M,2.3,0123*51\r\n
$GPGGA,085017.55,5703.2879319,N,00952.3669995,E,2,8,1.2,-2.543,M,40.593,M,2.3,0123*59\r\n
$GPGGA,085017.60,5703.2879319,N,00952.3670003,E,2,8,1.2,-2.543,M,40.593,M,2.3,0123*51\r\n
$GPGGA,085017.65,5703.2879324,N,00952.3670012,E,2,8,1.2,-2.543,M,40.593,M,2.6,0123*5F\r\n
$GPGGA,085017.70,5703.2879324,N,00952.3670022,E,2,8,1.2,-2.543,M,40.593,M,2.6,0123*58\r\n
$GPGGA,085017.75,5703.2879323,N,00952.3670028,E,2,8,1.2,-2.543,M,40.593,M,2.6,0123*50\r\n
$GPGGA,085017.80,5703.2879325,N,00952.3670036,E,2,8,1.2,-2.544,M,40.593,M,2.6,0123*54\r\n
$GPGGA,085017.85,5703.2879324,N,00952.3670027,E,2,8,1.2,-2.540,M,40.593,M,2.8,0123*5A\r\n
$GPGGA,085017.90,5703.2879325,N,00952.3670032,E,2,8,1.2,-2.540,M,40.593,M,2.8,0123*5B\r\n
$GPGGA,085017.95,5703.2879326,N,00952.3670036,E,2,8,1.2,-2.540,M,40.593,M,2.8,0123*59\r\n
$GPGGA,085018.00,5703.2879326,N,00952.3670043,E,2,8,1.2,-2.540,M,40.593,M,2.8,0123*58\r\n
$GPGGA,085018.05,5703.2879331,N,00952.3670013,E,2,8,1.2,-2.539,M,40.593,M,3.0,0123*59\r\n
$GPGGA,085018.10,5703.2879329,N,00952.3670012,E,2,8,1.2,-2.539,M,40.593,M,3.0,0123*55\r\n
$GPGGA,085018.15,5703.2879331,N,00952.3670015,E,2,8,1.2,-2.539,M,40.593,M,3.0,0123*5E\r\n
$GPGGA,085018.20,5703.2879329,N,00952.3670015,E,2,8,1.2,-2.539,M,40.593,M,3.0,0123*51\r\n
$GPGGA,085018.25,5703.2879342,N,00952.3670000,E,2,8,1.2,-2.537,M,40.593,M,3.2,0123*51\r\n
$GPGGA,085018.30,5703.2879342,N,00952.3669999,E,2,8,1.2,-2.536,M,40.593,M,3.2,0123*55\r\n
$GPGGA,085018.35,5703.2879343,N,00952.3669994,E,2,8,1.2,-2.536,M,40.593,M,3.2,0123*5C\r\n
$GPGGA,085018.40,5703.2879343,N,00952.3669992,E,2,8,1.2,-2.536,M,40.593,M,3.2,0123*58\r\n
$GPGGA,085018.45,5703.2879358,N,00952.3669964,E,2,8,1.2,-2.531,M,40.593,M,0.8,0123*50\r\n
$GPGGA,085018.50,5703.2879357,N,00952.3669953,E,2,8,1.2,-2.530,M,40.593,M,0.8,0123*5E\r\n
$GPGGA,085018.55,5703.2879357,N,00952.3669945,E,2,8,1.2,-2.530,M,40.593,M,0.8,0123*5C\r\n
$GPGGA,085018.60,5703.2879355,N,00952.3669931,E,2,8,1.2,-2.529,M,40.593,M,0.8,0123*53\r\n
$GPGGA,085018.65,5703.2879327,N,00952.3669874,E,2,8,1.2,-2.526,M,40.593,M,1.1,0123*54\r\n
$GPGGA,085018.70,5703.2879326,N,00952.3669860,E,2,8,1.2,-2.525,M,40.593,M,1.1,0123*57\r\n
$GPGGA,085018.75,5703.2879324,N,00952.3669844,E,2,8,1.2,-2.524,M,40.593,M,1.1,0123*57\r\n
$GPGGA,085018.80,5703.2879321,N,00952.3669826,E,2,8,1.2,-2.523,M,40.593,M,1.1,0123*5B\r\n
$GPGGA,085018.85,5703.2879299,N,00952.3669799,E,2,8,1.2,-2.526,M,40.593,M,1.4,0123*57\r\n
$GPGGA,085018.90,5703.2879297,N,00952.3669783,E,2,8,1.2,-2.525,M,40.593,M,1.4,0123*55\r\n
$GPGGA,085018.95,5703.2879295,N,00952.3669766,E,2,8,1.2,-2.524,M,40.593,M,1.4,0123*58\r\n
$GPGGA,085019.00,5703.2879292,N,00952.3669751,E,2,8,1.2,-2.523,M,40.593,M,1.4,0123*51\r\n
$GPGGA,085019.05,5703.2879298,N,00952.3669757,E,2,8,1.2,-2.528,M,40.593,M,1.7,0123*50\r\n
$GPGGA,085019.10,5703.2879295,N,00952.3669742,E,2,8,1.2,-2.527,M,40.593,M,1.7,0123*52\r\n
$GPGGA,085019.15,5703.2879293,N,00952.3669726,E,2,8,1.2,-2.526,M,40.593,M,1.7,0123*52\r\n
$GPGGA,085019.20,5703.2879293,N,00952.3669715,E,2,8,1.2,-2.526,M,40.593,M,1.7,0123*54\r\n
$GPGGA,085019.25,5703.2879310,N,00952.3669723,E,2,8,1.2,-2.530,M,40.593,M,1.9,0123*57\r\n
$GPGGA,085019.30,5703.2879310,N,00952.3669710,E,2,8,1.2,-2.529,M,40.593,M,1.9,0123*5B\r\n
$GPGGA,085019.35,5703.2879309,N,00952.3669695,E,2,8,1.2,-2.529,M,40.593,M,1.9,0123*5A\r\n
$GPGGA,085019.40,5703.2879308,N,00952.3669683,E,2,8,1.2,-2.529,M,40.593,M,1.9,0123*5E\r\n
$GPGGA,085019.45,5703.2879315,N,00952.3669703,E,2,8,1.2,-2.530,M,40.593,M,0.8,0123*56\r\n
$GPGGA,085019.50,5703.2879313,N,00952.3669690,E,2,8,1.2,-2.530,M,40.593,M,0.8,0123*5F\r\n
$GPGGA,085019.55,5703.2879313,N,00952.3669678,E,2,8,1.2,-2.530,M,40.593,M,0.8,0123*5C\r\n
$GPGGA,085019.60,5703.2879312,N,00952.3669660,E,2,8,1.2,-2.530,M,40.593,M,0.8,0123*52\r\n
$GPGGA,085019.65,5703.2879306,N,00952.3669636,E,2,8,1.2,-2.528,M,40.593,M,1.1,0123*50\r\n
$GPGGA,085019.70,5703.2879305,N,00952.3669619,E,2,8,1.2,-2.528,M,40.593,M,1.1,0123*5A\r\n
$GPGGA,085019.75,5703.2879303,N,00952.3669600,E,2,8,1.2,-2.528,M,40.593,M,1.1,0123*51\r\n
$GPGGA,085019.80,5703.2879302,N,00952.3669583,E,2,8,1.2,-2.528,M,40.593,M,1.1,0123*52\r\n
$GPGGA,085019.85,5703.2879295,N,00952.3669565,E,2,8,1.2,-2.524,M,40.593,M,1.4,0123*59\r\n
$GPGGA,085019.90,5703.2879294,N,00952.3669550,E,2,8,1.2,-2.524,M,40.593,M,1.4,0123*5A\r\n
$GPGGA,085019.95,5703.2879296,N,00952.3669534,E,2,8,1.2,-2.524,M,40.593,M,1.4,0123*5F\r\n
$GPGGA,085020.00,5703.2879295,N,00952.3669522,E,2,8,1.2,-2.524,M,40.593,M,1.4,0123*5D\r\n
$GPGGA,085020.05,5703.2879314,N,00952.3669520,E,2,8,1.2,-2.524,M,40.593,M,1.6,0123*50\r\n
$GPGGA,085020.10,5703.2879315,N,00952.3669503,E,2,8,1.2,-2.524,M,40.593,M,1.6,0123*54\r\n
$GPGGA,085020.15,5703.2879314,N,00952.3669487,E,2,8,1.2,-2.524,M,40.593,M,1.6,0123*5D\r\n
$GPGGA,085020.20,5703.2879313,N,00952.3669470,E,2,8,1.2,-2.524,M,40.593,M,1.6,0123*54\r\n
$GPGGA,085020.25,5703.2879303,N,00952.3669445,E,2,8,1.2,-2.525,M,40.593,M,1.9,0123*58\r\n
$GPGGA,085020.30,5703.2879303,N,00952.3669429,E,2,8,1.2,-2.525,M,40.593,M,1.9,0123*56\r\n
$GPGGA,085020.35,5703.2879303,N,00952.3669415,E,2,8,1.2,-2.524,M,40.593,M,1.9,0123*5D\r\n
$GPGGA,085020.40,5703.2879303,N,00952.3669402,E,2,8,1.2,-2.524,M,40.593,M,1.9,0123*59\r\n
$GPGGA,085020.45,5703.2879296,N,00952.3669411,E,2,8,1.2,-2.526,M,40.593,M,1.0,0123*58\r\n
$GPGGA,085020.50,5703.2879296,N,00952.3669401,E,2,8,1.2,-2.526,M,40.593,M,1.0,0123*5D\r\n
$GPGGA,085020.55,5703.2879296,N,00952.3669396,E,2,8,1.2,-2.527,M,40.593,M,1.0,0123*50\r\n
$GPGGA,085020.60,5703.2879298,N,00952.3669392,E,2,8,1.2,-2.527,M,40.593,M,1.0,0123*5C\r\n
$GPGGA,085020.65,5703.2879297,N,00952.3669451,E,2,8,1.2,-2.531,M,40.593,M,1.3,0123*5A\r\n
$GPGGA,085020.70,5703.2879299,N,00952.3669458,E,2,8,1.2,-2.532,M,40.593,M,1.3,0123*5A\r\n
$GPGGA,085020.75,5703.2879303,N,00952.3669470,E,2,8,1.2,-2.532,M,40.593,M,1.3,0123*57\r\n
$GPGGA,085020.80,5703.2879306,N,00952.3669479,E,2,8,1.2,-2.533,M,40.593,M,1.3,0123*50\r\n
$GPGGA,085020.85,5703.2879327,N,00952.3669555,E,2,8,1.2,-2.542,M,40.593,M,1.6,0123*5A\r\n
$GPGGA,085020.90,5703.2879333,N,00952.3669585,E,2,8,1.2,-2.543,M,40.593,M,1.6,0123*57\r\n
$GPGGA,085020.95,5703.2879346,N,00952.3669610,E,2,8,1.2,-2.544,M,40.593,M,1.6,0123*58\r\n
$GPGGA,085021.00,5703.2879344,N,00952.3669638,E,2,8,1.2,-2.544,M,40.593,M,1.6,0123*5D\r\n
$GPGGA,085021.05,5703.2879353,N,00952.3669662,E,2,8,1.2,-2.541,M,40.593,M,1.9,0123*5B\r\n
$GPGGA,085021.10,5703.2879356,N,00952.3669684,E,2,8,1.2,-2.542,M,40.593,M,1.9,0123*51\r\n
$GPGGA,085021.15,5703.2879360,N,00952.3669711,E,2,8,1.2,-2.543,M,40.593,M,1.9,0123*5D\r\n
$GPGGA,085021.20,5703.2879362,N,00952.3669734,E,2,8,1.2,-2.544,M,40.593,M,1.9,0123*59\r\n
$GPGGA,085021.25,5703.2879351,N,00952.3669769,E,2,8,1.2,-2.545,M,40.593,M,2.1,0123*5E\r\n
$GPGGA,085021.30,5703.2879352,N,00952.3669795,E,2,8,1.2,-2.546,M,40.593,M,2.1,0123*59\r\n
$GPGGA,085021.35,5703.2879353,N,00952.3669819,E,2,8,1.2,-2.547,M,40.593,M,2.1,0123*57\r\n
$GPGGA,085021.40,5703.2879356,N,00952.3669847,E,2,8,1.2,-2.548,M,40.593,M,2.1,0123*54\r\n
$GPGGA,085021.45,5703.2879361,N,00952.3669841,E,2,8,1.2,-2.541,M,40.593,M,2.3,0123*58\r\n
$GPGGA,085021.50,5703.2879360,N,00952.3669863,E,2,8,1.2,-2.541,M,40.593,M,2.3,0123*5D\r\n
$GPGGA,085021.55,5703.2879361,N,00952.3669880,E,2,8,1.2,-2.542,M,40.593,M,2.3,0123*57\r\n
$GPGGA,085021.60,5703.2879360,N,00952.3669895,E,2,8,1.2,-2.542,M,40.593,M,2.3,0123*54\r\n
$GPGGA,085021.65,5703.2879349,N,00952.3669862,E,2,8,1.2,-2.534,M,40.593,M,2.6,0123*56\r\n
$GPGGA,085021.70,5703.2879347,N,00952.3669874,E,2,8,1.2,-2.533,M,40.593,M,2.6,0123*5C\r\n
$GPGGA,085021.75,5703.2879344,N,00952.3669882,E,2,8,1.2,-2.531,M,40.593,M,2.6,0123*51\r\n
$GPGGA,085021.80,5703.2879343,N,00952.3669891,E,2,8,1.2,-2.530,M,40.593,M,2.6,0123*5F\r\n
$GPGGA,085021.85,5703.2879333,N,00952.3669891,E,2,8,1.2,-2.541,M,40.593,M,2.8,0123*55\r\n
$GPGGA,085021.90,5703.2879330,N,00952.3669894,E,2,8,1.2,-2.540,M,40.593,M,2.8,0123*56\r\n
$GPGGA,085021.95,5703.2879327,N,00952.3669897,E,2,8,1.2,-2.540,M,40.593,M,2.8,0123*56\r\n
$GPGGA,085022.00,5703.2879325,N,00952.3669902,E,2,8,1.2,-2.539,M,40.593,M,2.8,0123*58\r\n
$GPGGA,085022.05,5703.2879339,N,00952.3669905,E,2,8,1.2,-2.539,M,40.593,M,3.0,0123*5E\r\n
$GPGGA,085022.10,5703.2879336,N,00952.3669907,E,2,8,1.2,-2.539,M,40.593,M,3.0,0123*57\r\n
$GPGGA,085022.15,5703.2879335,N,00952.3669914,E,2,8,1.2,-2.539,M,40.593,M,3.0,0123*53\r\n
$GPGGA,085022.20,5703.2879335,N,00952.3669925,E,2,8,1.2,-2.539,M,40.593,M,3.0,0123*57\r\n
$GPGGA,085022.25,5703.2879349,N,00952.3669963,E,2,8,1.2,-2.539,M,40.593,M,3.2,0123*59\r\n
$GPGGA,085022.30,5703.2879352,N,00952.3669977,E,2,8,1.2,-2.539,M,40.593,M,3.2,0123*52\r\n
$GPGGA,085022.35,5703.2879356,N,00952.3669995,E,2,8,1.2,-2.540,M,40.593,M,3.2,0123*51\r\n
$GPGGA,085022.40,5703.2879361,N,00952.3670016,E,2,8,1.2,-2.540,M,40.593,M,3.2,0123*5D\r\n
$GPGGA,085022.45,5703.2879418,N,00952.3670096,E,2,8,1.2,-2.538,M,40.593,M,3.4,0123*50\r\n
$GPGGA,085022.50,5703.2879427,N,00952.3670123,E,2,8,1.2,-2.538,M,40.593,M,3.4,0123*57\r\n
$GPGGA,085022.55,5703.2879438,N,00952.3670150,E,2,8,1.2,-2.539,M,40.593,M,3.4,0123*59\r\n
$GPGGA,085022.60,5703.2879450,N,00952.3670181,E,2,8,1.2,-2.539,M,40.593,M,3.4,0123*5D\r\n
$GPGGA,085022.65,5703.2879464,N,00952.3670223,E,2,8,1.2,-2.537,M,40.593,M,3.6,0123*58\r\n
$GPGGA,085022.70,5703.2879478,N,00952.3670255,E,2,8,1.2,-2.537,M,40.593,M,3.6,0123*50\r\n
$GPGGA,085022.75,5703.2879492,N,00952.3670288,E,2,8,1.2,-2.537,M,40.593,M,3.6,0123*51\r\n
$GPGGA,085022.80,5703.2879505,N,00952.3670322,E,2,8,1.2,-2.537,M,40.593,M,3.6,0123*55\r\n
$GPGGA,085022.85,5703.2879499,N,00952.3670329,E,2,8,1.2,-2.535,M,40.593,M,3.9,0123*52\r\n
$GPGGA,085022.90,5703.2879512,N,00952.3670361,E,2,8,1.2,-2.534,M,40.593,M,3.9,0123*59\r\n
$GPGGA,085022.95,5703.2879523,N,00952.3670387,E,2,8,1.2,-2.534,M,40.593,M,3.9,0123*56\r\n
$GPGGA,085023.00,5703.2879535,N,00952.3670414,E,2,8,1.2,-2.533,M,40.593,M,3.9,0123*56\r\n
$GPGGA,085023.05,5703.2879515,N,00952.3670407,E,2,8,1.2,-2.528,M,40.593,M,4.1,0123*56\r\n
$GPGGA,085023.10,5703.2879525,N,00952.3670432,E,2,8,1.2,-2.527,M,40.593,M,4.1,0123*58\r\n
$GPGGA,085023.15,5703.2879534,N,00952.3670455,E,2,8,1.2,-2.527,M,40.593,M,4.1,0123*5C\r\n
$GPGGA,085023.20,5703.2879540,N,00952.3670477,E,2,8,1.2,-2.526,M,40.593,M,4.1,0123*58\r\n
$GPGGA,085023.25,5703.2879520,N,00952.3670496,E,2,8,1.2,-2.530,M,40.593,M,0.5,0123*53\r\n
$GPGGA,085023.30,5703.2879525,N,00952.3670512,E,2,8,1.2,-2.530,M,40.593,M,0.5,0123*5F\r\n
$GPGGA,085023.35,5703.2879527,N,00952.3670523,E,2,8,1.2,-2.529,M,40.593,M,0.5,0123*52\r\n
$GPGGA,085023.40,5703.2879527,N,00952.3670532,E,2,8,1.2,-2.529,M,40.593,M,0.5,0123*50\r\n
$GPGGA,085023.45,5703.2879511,N,00952.3670494,E,2,8,1.2,-2.533,M,40.593,M,0.8,0123*5B\r\n
$GPGGA,085023.50,5703.2879507,N,00952.3670488,E,2,8,1.2,-2.534,M,40.593,M,0.8,0123*52\r\n
$GPGGA,085023.55,5703.2879501,N,00952.3670480,E,2,8,1.2,-2.534,M,40.593,M,0.8,0123*59\r\n
$GPGGA,085023.60,5703.2879495,N,00952.3670467,E,2,8,1.2,-2.534,M,40.593,M,0.8,0123*5A\r\n
$GPGGA,085023.65,5703.2879461,N,00952.3670391,E,2,8,1.2,-2.529,M,40.593,M,1.1,0123*5E\r\n
$GPGGA,085023.70,5703.2879451,N,00952.3670368,E,2,8,1.2,-2.529,M,40.593,M,1.1,0123*5F\r\n
$GPGGA,085023.75,5703.2879439,N,00952.3670342,E,2,8,1.2,-2.529,M,40.593,M,1.1,0123*5C\r\n
$GPGGA,085023.80,5703.2879426,N,00952.3670315,E,2,8,1.2,-2.529,M,40.593,M,1.1,0123*5A\r\n
$GPGGA,085023.85,5703.2879409,N,00952.3670283,E,2,8,1.2,-2.535,M,40.593,M,1.4,0123*54\r\n
$GPGGA,085023.90,5703.2879395,N,00952.3670252,E,2,8,1.2,-2.535,M,40.593,M,1.4,0123*5E\r\n
$GPGGA,085023.95,5703.2879381,N,00952.3670220,E,2,8,1.2,-2.536,M,40.593,M,1.4,0123*58\r\n
$GPGGA,085024.00,5703.2879367,N,00952.3670187,E,2,8,1.2,-2.536,M,40.593,M,1.4,0123*55\r\n
$GPGGA,085024.05,5703.2879387,N,00952.3670176,E,2,8,1.2,-2.532,M,40.593,M,1.6,0123*56\r\n
$GPGGA,085024.10,5703.2879374,N,00952.3670146,E,2,8,1.2,-2.533,M,40.593,M,1.6,0123*5C\r\n
$GPGGA,085024.15,5703.2879359,N,00952.3670115,E,2,8,1.2,-2.534,M,40.593,M,1.6,0123*57\r\n
$GPGGA,085024.20,5703.2879346,N,00952.3670084,E,2,8,1.2,-2.535,M,40.593,M,1.6,0123*57\r\n
$GPGGA,085024.25,5703.2879354,N,00952.3670091,E,2,8,1.2,-2.531,M,40.593,M,1.9,0123*5E\r\n
$GPGGA,085024.30,5703.2879343,N,00952.3670059,E,2,8,1.2,-2.532,M,40.593,M,1.9,0123*5B\r\n
$GPGGA,085024.35,5703.2879331,N,00952.3670033,E,2,8,1.2,-2.532,M,40.593,M,1.9,0123*57\r\n
$GPGGA,085024.40,5703.2879318,N,00952.3670001,E,2,8,1.2,-2.533,M,40.593,M,1.9,0123*5E\r\n
$GPGGA,085024.45,5703.2879328,N,00952.3669969,E,2,8,1.2,-2.526,M,40.593,M,2.1,0123*58\r\n
$GPGGA,085024.50,5703.2879317,N,00952.3669935,E,2,8,1.2,-2.525,M,40.593,M,2.1,0123*5A\r\n
$GPGGA,085024.55,5703.2879308,N,00952.3669899,E,2,8,1.2,-2.525,M,40.593,M,2.1,0123*56\r\n
$GPGGA,085024.60,5703.2879297,N,00952.3669861,E,2,8,1.2,-2.525,M,40.593,M,2.1,0123*50\r\n
$GPGGA,085024.65,5703.2879287,N,00952.3669792,E,2,8,1.2,-2.530,M,40.593,M,2.3,0123*51\r\n
$GPGGA,085024.70,5703.2879274,N,00952.3669742,E,2,8,1.2,-2.530,M,40.593,M,2.3,0123*54\r\n
$GPGGA,085024.75,5703.2879264,N,00952.3669689,E,2,8,1.2,-2.530,M,40.593,M,2.3,0123*56\r\n
$GPGGA,085024.80,5703.2879253,N,00952.3669629,E,2,8,1.2,-2.529,M,40.593,M,2.3,0123*5A\r\n
$GPGGA,085024.85,5703.2879218,N,00952.3669498,E,2,8,1.2,-2.534,M,40.593,M,2.6,0123*51\r\n
$GPGGA,085024.90,5703.2879196,N,00952.3669414,E,2,8,1.2,-2.537,M,40.593,M,2.6,0123*57\r\n
$GPGGA,085024.95,5703.2879174,N,00952.3669307,E,2,8,1.2,-2.540,M,40.593,M,2.6,0123*5B\r\n
$GPGGA,085025.00,5703.2879146,N,00952.3669208,E,2,8,1.2,-2.540,M,40.593,M,2.6,0123*59\r\n
$GPGGA,085025.05,5703.2879132,N,00952.3669101,E,2,8,1.2,-2.535,M,40.593,M,2.8,0123*59\r\n
$GPGGA,085025.10,5703.2879113,N,00952.3668993,E,2,8,1.2,-2.534,M,40.593,M,2.8,0123*5D\r\n
$GPGGA,085025.15,5703.2879100,N,00952.3668889,E,2,8,1.2,-2.532,M,40.593,M,2.8,0123*56\r\n
$GPGGA,085025.20,5703.2879089,N,00952.3668797,E,2,8,1.2,-2.533,M,40.593,M,2.8,0123*51\r\n
$GPGGA,085025.25,5703.2879095,N,00952.3668699,E,2,8,1.2,-2.519,M,40.593,M,2.1,0123*57\r\n
$GPGGA,085025.30,5703.2879094,N,00952.3668616,E,2,8,1.2,-2.518,M,40.593,M,2.1,0123*54\r\n
$GPGGA,085025.35,5703.2879081,N,00952.3668529,E,2,8,1.2,-2.514,M,40.593,M,2.1,0123*56\r\n
$GPGGA,085025.40,5703.2879067,N,00952.3668436,E,2,8,1.2,-2.513,M,40.593,M,2.1,0123*54\r\n
$GPGGA,085025.45,5703.2879043,N,00952.3668347,E,2,8,1.2,-2.513,M,40.593,M,2.3,0123*54\r\n
$GPGGA,085025.50,5703.2879037,N,00952.3668258,E,2,8,1.2,-2.511,M,40.593,M,2.3,0123*5E\r\n
$GPGGA,085025.55,5703.2879018,N,00952.3668164,E,2,8,1.2,-2.511,M,40.593,M,2.3,0123*5A\r\n
$GPGGA,085025.60,5703.2879000,N,00952.3668067,E,2,8,1.2,-2.510,M,40.593,M,2.3,0123*56\r\n
$GPGGA,085025.65,5703.2878982,N,00952.3667974,E,2,8,1.2,-2.511,M,40.593,M,2.6,0123*51\r\n
$GPGGA,085025.70,5703.2878973,N,00952.3667878,E,2,8,1.2,-2.512,M,40.593,M,2.6,0123*55\r\n
$GPGGA,085025.75,5703.2878959,N,00952.3667778,E,2,8,1.2,-2.512,M,40.593,M,2.6,0123*57\r\n
$GPGGA,085025.80,5703.2878948,N,00952.3667677,E,2,8,1.2,-2.513,M,40.593,M,2.6,0123*52\r\n
$GPGGA,085025.85,5703.2878935,N,00952.3667580,E,2,8,1.2,-2.520,M,40.593,M,2.8,0123*58\r\n
$GPGGA,085025.90,5703.2878918,N,00952.3667493,E,2,8,1.2,-2.520,M,40.593,M,2.8,0123*50\r\n
$GPGGA,085025.95,5703.2878905,N,00952.3667402,E,2,8,1.2,-2.520,M,40.593,M,2.8,0123*51\r\n
$GPGGA,085026.00,5703.2878890,N,00952.3667314,E,2,8,1.2,-2.520,M,40.593,M,2.8,0123*53\r\n
$GPGGA,085026.05,5703.2878862,N,00952.3667239,E,2,8,1.2,-2.523,M,40.593,M,3.0,0123*5F\r\n
$GPGGA,085026.10,5703.2878846,N,00952.3667158,E,2,8,1.2,-2.523,M,40.593,M,3.0,0123*59\r\n
$GPGGA,085026.15,5703.2878833,N,00952.3667082,E,2,8,1.2,-2.523,M,40.593,M,3.0,0123*58\r\n
$GPGGA,085026.20,5703.2878815,N,00952.3667008,E,2,8,1.2,-2.521,M,40.593,M,3.0,0123*5A\r\n
$GPGGA,085026.25,5703.2878791,N,00952.3666939,E,2,8,1.2,-2.519,M,40.593,M,3.2,0123*5F\r\n
$GPGGA,085026.30,5703.2878778,N,00952.3666862,E,2,8,1.2,-2.519,M,40.593,M,3.2,0123*53\r\n
$GPGGA,085026.35,5703.2878752,N,00952.3666793,E,2,8,1.2,-2.516,M,40.593,M,3.2,0123*50\r\n
$GPGGA,085026.40,5703.2878739,N,00952.3666732,E,2,8,1.2,-2.516,M,40.593,M,3.2,0123*54\r\n
$GPGGA,085026.45,5703.2878724,N,00952.3666654,E,2,8,1.2,-2.512,M,40.593,M,3.4,0123*5E\r\n
$GPGGA,085026.50,5703.2878709,N,00952.3666594,E,2,8,1.2,-2.512,M,40.593,M,3.4,0123*5A\r\n
$GPGGA,085026.55,5703.2878694,N,00952.3666532,E,2,8,1.2,-2.512,M,40.593,M,3.4,0123*56\r\n
$GPGGA,085026.60,5703.2878673,N,00952.3666471,E,2,8,1.2,-2.512,M,40.593,M,3.4,0123*5F\r\n
$GPGGA,085026.65,5703.2878668,N,00952.3666415,E,2,8,1.2,-2.518,M,40.593,M,3.6,0123*5A\r\n
$GPGGA,085026.70,5703.2878642,N,00952.3666368,E,2,8,1.2,-2.519,M,40.593,M,3.6,0123*5A\r\n
$GPGGA,085026.75,5703.2878613,N,00952.3666331,E,2,8,1.2,-2.519,M,40.593,M,3.6,0123*57\r\n
$GPGGA,085026.80,5703.2878583,N,00952.3666286,E,2,8,1.2,-2.520,M,40.593,M,3.6,0123*50\r\n
$GPGGA,085026.85,5703.2878552,N,00952.3666233,E,2,8,1.2,-2.517,M,40.593,M,3.9,0123*5C\r\n
$GPGGA,085026.90,5703.2878529,N,00952.3666188,E,2,8,1.2,-2.518,M,40.593,M,3.9,0123*58\r\n
$GPGGA,085026.95,5703.2878502,N,00952.3666156,E,2,8,1.2,-2.519,M,40.593,M,3.9,0123*56\r\n
$GPGGA,085027.00,5703.2878479,N,00952.3666136,E,2,8,1.2,-2.518,M,40.593,M,3.9,0123*51\r\n
$GPGGA,085027.05,5703.2878470,N,00952.3666118,E,2,8,1.2,-2.512,M,40.593,M,4.1,0123*54\r\n
$GPGGA,085027.10,5703.2878450,N,00952.3666101,E,2,8,1.2,-2.511,M,40.593,M,4.1,0123*59\r\n
$GPGGA,085027.15,5703.2878438,N,00952.3666088,E,2,8,1.2,-2.509,M,40.593,M,4.1,0123*5B\r\n
$GPGGA,085027.20,5703.2878426,N,00952.3666083,E,2,8,1.2,-2.508,M,40.593,M,4.1,0123*58\r\n
$GPGGA,085027.25,5703.2878407,N,00952.3666087,E,2,8,1.2,-2.518,M,40.593,M,4.3,0123*59\r\n
$GPGGA,085027.30,5703.2878392,N,00952.3666085,E,2,8,1.2,-2.518,M,40.593,M,4.3,0123*54\r\n
$GPGGA,085027.35,5703.2878378,N,00952.3666086,E,2,8,1.2,-2.519,M,40.593,M,4.3,0123*57\r\n
$GPGGA,085027.40,5703.2878363,N,00952.3666089,E,2,8,1.2,-2.520,M,40.593,M,4.3,0123*5A\r\n
$GPGGA,085027.45,5703.2878377,N,00952.3666074,E,2,8,1.2,-2.513,M,40.593,M,2.2,0123*5F\r\n
$GPGGA,085027.50,5703.2878367,N,00952.3666079,E,2,8,1.2,-2.513,M,40.593,M,2.2,0123*57\r\n
$GPGGA,085027.55,5703.2878358,N,00952.3666088,E,2,8,1.2,-2.513,M,40.593,M,2.2,0123*50\r\n
$GPGGA,085027.60,5703.2878352,N,00952.3666101,E,2,8,1.2,-2.513,M,40.593,M,2.2,0123*5C\r\n
$GPGGA,085027.65,5703.2878367,N,00952.3666100,E,2,8,1.2,-2.516,M,40.593,M,2.4,0123*5D\r\n
$GPGGA,085027.70,5703.2878364,N,00952.3666116,E,2,8,1.2,-2.516,M,40.593,M,2.4,0123*5D\r\n
$GPGGA,085027.75,5703.2878361,N,00952.3666128,E,2,8,1.2,-2.516,M,40.593,M,2.4,0123*50\r\n
$GPGGA,085027.80,5703.2878360,N,00952.3666143,E,2,8,1.2,-2.516,M,40.593,M,2.4,0123*56\r\n
$GPGGA,085027.85,5703.2878357,N,00952.3666135,E,2,8,1.2,-2.518,M,40.593,M,2.7,0123*5B\r\n
$GPGGA,085027.90,5703.2878359,N,00952.3666153,E,2,8,1.2,-2.518,M,40.593,M,2.7,0123*51\r\n
$GPGGA,085027.95,5703.2878361,N,00952.3666170,E,2,8,1.2,-2.518,M,40.593,M,2.7,0123*5E\r\n
$GPGGA,085028.00,5703.2878365,N,00952.3666186,E,2,8,1.2,-2.519,M,40.593,M,2.7,0123*51\r\n
$GPGGA,085028.05,5703.2878383,N,00952.3666193,E,2,8,1.2,-2.521,M,40.593,M,2.9,0123*5D\r\n
$GPGGA,085028.10,5703.2878390,N,00952.3666213,E,2,8,1.2,-2.522,M,40.593,M,2.9,0123*53\r\n
$GPGGA,085028.15,5703.2878398,N,00952.3666230,E,2,8,1.2,-2.522,M,40.593,M,2.9,0123*5F\r\n
$GPGGA,085028.20,5703.2878404,N,00952.3666249,E,2,8,1.2,-2.523,M,40.593,M,2.9,0123*54\r\n
$GPGGA,085028.25,5703.2878400,N,00952.3666257,E,2,8,1.2,-2.522,M,40.593,M,3.1,0123*52\r\n
$GPGGA,085028.30,5703.2878410,N,00952.3666278,E,2,8,1.2,-2.523,M,40.593,M,3.1,0123*5B\r\n
$GPGGA,085028.35,5703.2878421,N,00952.3666298,E,2,8,1.2,-2.524,M,40.593,M,3.1,0123*55\r\n
$GPGGA,085028.40,5703.2878431,N,00952.3666317,E,2,8,1.2,-2.525,M,40.593,M,3.1,0123*51\r\n
$GPGGA,085028.45,5703.2878450,N,00952.3666343,E,2,8,1.2,-2.529,M,40.593,M,2.1,0123*5F\r\n
$GPGGA,085028.50,5703.2878463,N,00952.3666359,E,2,8,1.2,-2.530,M,40.593,M,2.1,0123*58\r\n
$GPGGA,085028.55,5703.2878476,N,00952.3666374,E,2,8,1.2,-2.532,M,40.593,M,2.1,0123*54\r\n
$GPGGA,085028.60,5703.2878489,N,00952.3666389,E,2,8,1.2,-2.533,M,40.593,M,2.1,0123*51\r\n
$GPGGA,085028.65,5703.2878493,N,00952.3666379,E,2,8,1.2,-2.531,M,40.593,M,2.3,0123*50\r\n
$GPGGA,085028.70,5703.2878509,N,00952.3666399,E,2,8,1.2,-2.533,M,40.593,M,2.3,0123*5A\r\n
$GPGGA,085028.75,5703.2878524,N,00952.3666418,E,2,8,1.2,-2.534,M,40.593,M,2.3,0123*59\r\n
$GPGGA,085028.80,5703.2878537,N,00952.3666437,E,2,8,1.2,-2.535,M,40.593,M,2.3,0123*5D\r\n
$GPGGA,085028.85,5703.2878527,N,00952.3666488,E,2,8,1.2,-2.535,M,40.593,M,2.6,0123*58\r\n
$GPGGA,085028.90,5703.2878540,N,00952.3666515,E,2,8,1.2,-2.537,M,40.593,M,2.6,0123*5A\r\n
$GPGGA,085028.95,5703.2878552,N,00952.3666537,E,2,8,1.2,-2.538,M,40.593,M,2.6,0123*53\r\n
$GPGGA,085029.00,5703.2878563,N,00952.3666564,E,2,8,1.2,-2.539,M,40.593,M,2.6,0123*5B\r\n
$GPGGA,085029.05,5703.2878544,N,00952.3666618,E,2,8,1.2,-2.541,M,40.593,M,2.8,0123*52\r\n
$GPGGA,085029.10,5703.2878553,N,00952.3666644,E,2,8,1.2,-2.543,M,40.593,M,2.8,0123*5B\r\n
$GPGGA,085029.15,5703.2878559,N,00952.3666667,E,2,8,1.2,-2.544,M,40.593,M,2.8,0123*52\r\n
$GPGGA,085029.20,5703.2878564,N,00952.3666694,E,2,8,1.2,-2.545,M,40.593,M,2.8,0123*57\r\n
$GPGGA,085029.25,5703.2878547,N,00952.3666688,E,2,8,1.2,-2.541,M,40.593,M,3.0,0123*53\r\n
$GPGGA,085029.30,5703.2878549,N,00952.3666713,E,2,8,1.2,-2.542,M,40.593,M,3.0,0123*59\r\n
$GPGGA,085029.35,5703.2878551,N,00952.3666736,E,2,8,1.2,-2.543,M,40.593,M,3.0,0123*53\r\n
$GPGGA,085029.40,5703.2878551,N,00952.3666756,E,2,8,1.2,-2.544,M,40.593,M,3.0,0123*50\r\n
$GPGGA,085029.45,5703.2878524,N,00952.3666774,E,2,8,1.2,-2.552,M,40.593,M,2.3,0123*52\r\n
$GPGGA,085029.50,5703.2878519,N,00952.3666793,E,2,8,1.2,-2.553,M,40.593,M,2.3,0123*50\r\n
$GPGGA,085029.55,5703.2878513,N,00952.3666807,E,2,8,1.2,-2.555,M,40.593,M,2.3,0123*5B\r\n
$GPGGA,085029.60,5703.2878504,N,00952.3666818,E,2,8,1.2,-2.556,M,40.593,M,2.3,0123*56\r\n
$GPGGA,085029.65,5703.2878479,N,00952.3666789,E,2,8,1.2,-2.552,M,40.593,M,2.6,0123*5E\r\n
$GPGGA,085029.70,5703.2878468,N,00952.3666794,E,2,8,1.2,-2.553,M,40.593,M,2.6,0123*57\r\n
$GPGGA,085029.75,5703.2878455,N,00952.3666796,E,2,8,1.2,-2.554,M,40.593,M,2.6,0123*59\r\n
$GPGGA,085029.80,5703.2878443,N,00952.3666798,E,2,8,1.2,-2.555,M,40.593,M,2.6,0123*5B\r\n
$GPGGA,085029.85,5703.2878445,N,00952.3666766,E,2,8,1.2,-2.555,M,40.593,M,2.8,0123*57\r\n
$GPGGA,085029.90,5703.2878430,N,00952.3666764,E,2,8,1.2,-2.556,M,40.593,M,2.8,0123*50\r\n
$GPGGA,085029.95,5703.2878415,N,00952.3666765,E,2,8,1.2,-2.557,M,40.593,M,2.8,0123*52\r\n
$GPGGA,085030.00,5703.2878402,N,00952.3666762,E,2,8,1.2,-2.557,M,40.593,M,2.8,0123*57\r\n
$GPGGA,085030.05,5703.2878406,N,00952.3666778,E,2,8,1.2,-2.552,M,40.593,M,3.0,0123*51\r\n
$GPGGA,085030.10,5703.2878395,N,00952.3666780,E,2,8,1.2,-2.552,M,40.593,M,3.0,0123*5F\r\n
$GPGGA,085030.15,5703.2878382,N,00952.3666784,E,2,8,1.2,-2.552,M,40.593,M,3.0,0123*58\r\n
$GPGGA,085030.20,5703.2878371,N,00952.3666791,E,2,8,1.2,-2.552,M,40.593,M,3.0,0123*56\r\n
$GPGGA,085030.25,5703.2878402,N,00952.3666833,E,2,8,1.2,-2.552,M,40.593,M,3.2,0123*55\r\n
$GPGGA,085030.30,5703.2878392,N,00952.3666843,E,2,8,1.2,-2.551,M,40.593,M,3.2,0123*5B\r\n
$GPGGA,085030.35,5703.2878384,N,00952.3666856,E,2,8,1.2,-2.551,M,40.593,M,3.2,0123*5D\r\n
$GPGGA,085030.40,5703.2878377,N,00952.3666869,E,2,8,1.2,-2.550,M,40.593,M,3.2,0123*5E\r\n
$GPGGA,085030.45,5703.2878375,N,00952.3666926,E,2,8,1.2,-2.551,M,40.593,M,3.4,0123*54\r\n
$GPGGA,085030.50,5703.2878370,N,00952.3666947,E,2,8,1.2,-2.550,M,40.593,M,3.4,0123*53\r\n
$GPGGA,085030.55,5703.2878365,N,00952.3666970,E,2,8,1.2,-2.549,M,40.593,M,3.4,0123*5E\r\n
$GPGGA,085030.60,5703.2878363,N,00952.3666992,E,2,8,1.2,-2.548,M,40.593,M,3.4,0123*53\r\n
$GPGGA,085030.65,5703.2878388,N,00952.3667019,E,2,8,1.2,-2.548,M,40.593,M,3.6,0123*5A\r\n
$GPGGA,085030.70,5703.2878387,N,00952.3667046,E,2,8,1.2,-2.547,M,40.593,M,3.6,0123*54\r\n
$GPGGA,085030.75,5703.2878386,N,00952.3667072,E,2,8,1.2,-2.546,M,40.593,M,3.6,0123*56\r\n
$GPGGA,085030.80,5703.2878386,N,00952.3667098,E,2,8,1.2,-2.545,M,40.593,M,3.6,0123*5B\r\n
$GPGGA,085030.85,5703.2878372,N,00952.3667113,E,2,8,1.2,-2.544,M,40.593,M,3.9,0123*59\r\n
$GPGGA,085030.90,5703.2878374,N,00952.3667140,E,2,8,1.2,-2.542,M,40.593,M,3.9,0123*5B\r\n
$GPGGA,085030.95,5703.2878375,N,00952.3667165,E,2,8,1.2,-2.541,M,40.593,M,3.9,0123*5B\r\n
$GPGGA,085031.00,5703.2878376,N,00952.3667196,E,2,8,1.2,-2.540,M,40.593,M,3.9,0123*58\r\n
$GPGGA,085031.05,5703.2878380,N,00952.3667214,E,2,8,1.2,-2.548,M,40.593,M,4.1,0123*5A\r\n
$GPGGA,085031.10,5703.2878383,N,00952.3667243,E,2,8,1.2,-2.547,M,40.593,M,4.1,0123*50\r\n
$GPGGA,085031.15,5703.2878386,N,00952.3667274,E,2,8,1.2,-2.547,M,40.593,M,4.1,0123*54\r\n
$GPGGA,085031.20,5703.2878390,N,00952.3667307,E,2,8,1.2,-2.547,M,40.593,M,4.1,0123*50\r\n
$GPGGA,085031.25,5703.2878384,N,00952.3667348,E,2,8,1.2,-2.549,M,40.593,M,4.3,0123*57\r\n
$GPGGA,085031.30,5703.2878388,N,00952.3667382,E,2,8,1.2,-2.549,M,40.593,M,4.3,0123*59\r\n
$GPGGA,085031.35,5703.2878392,N,00952.3667421,E,2,8,1.2,-2.549,M,40.593,M,4.3,0123*59\r\n
$GPGGA,085031.40,5703.2878397,N,00952.3667461,E,2,8,1.2,-2.550,M,40.593,M,4.3,0123*52\r\n
$GPGGA,085031.45,5703.2878405,N,00952.3667523,E,2,8,1.2,-2.546,M,40.593,M,2.2,0123*5C\r\n
$GPGGA,085031.50,5703.2878411,N,00952.3667565,E,2,8,1.2,-2.546,M,40.593,M,2.2,0123*5F\r\n
$GPGGA,085031.55,5703.2878416,N,00952.3667607,E,2,8,1.2,-2.547,M,40.593,M,2.2,0123*5B\r\n
$GPGGA,085031.60,5703.2878421,N,00952.3667648,E,2,8,1.2,-2.547,M,40.593,M,2.2,0123*52\r\n
$GPGGA,085031.65,5703.2878428,N,00952.3667685,E,2,8,1.2,-2.548,M,40.593,M,2.4,0123*56\r\n
$GPGGA,085031.70,5703.2878434,N,00952.3667728,E,2,8,1.2,-2.548,M,40.593,M,2.4,0123*59\r\n
$GPGGA,085031.75,5703.2878438,N,00952.3667775,E,2,8,1.2,-2.549,M,40.593,M,2.4,0123*59\r\n
$GPGGA,085031.80,5703.2878447,N,00952.3667823,E,2,8,1.2,-2.549,M,40.593,M,2.4,0123*57\r\n
$GPGGA,085031.85,5703.2878461,N,00952.3667859,E,2,8,1.2,-2.547,M,40.593,M,2.7,0123*56\r\n
$GPGGA,085031.90,5703.2878483,N,00952.3667905,E,2,8,1.2,-2.550,M,40.593,M,2.7,0123*50\r\n
$GPGGA,085031.95,5703.2878494,N,00952.3667956,E,2,8,1.2,-2.553,M,40.593,M,2.7,0123*56\r\n
$GPGGA,085032.00,5703.2878503,N,00952.3668003,E,2,8,1.2,-2.554,M,40.593,M,2.7,0123*57\r\n
$GPGGA,085032.05,5703.2878520,N,00952.3668045,E,2,8,1.2,-2.549,M,40.593,M,2.9,0123*53\r\n
$GPGGA,085032.10,5703.2878535,N,00952.3668089,E,2,8,1.2,-2.549,M,40.593,M,2.9,0123*53\r\n
$GPGGA,085032.15,5703.2878546,N,00952.3668133,E,2,8,1.2,-2.550,M,40.593,M,2.9,0123*5A\r\n
$GPGGA,085032.20,5703.2878560,N,00952.3668173,E,2,8,1.2,-2.553,M,40.593,M,2.9,0123*5F\r\n
$GPGGA,085032.25,5703.2878564,N,00952.3668223,E,2,8,1.2,-2.558,M,40.593,M,3.1,0123*5A\r\n
$GPGGA,085032.30,5703.2878565,N,00952.3668273,E,2,8,1.2,-2.560,M,40.593,M,3.1,0123*51\r\n
$GPGGA,085032.35,5703.2878566,N,00952.3668316,E,2,8,1.2,-2.561,M,40.593,M,3.1,0123*54\r\n
$GPGGA,085032.40,5703.2878574,N,00952.3668353,E,2,8,1.2,-2.560,M,40.593,M,3.1,0123*55\r\n
$GPGGA,085032.45,5703.2878578,N,00952.3668402,E,2,8,1.2,-2.557,M,40.593,M,2.1,0123*5A\r\n
$GPGGA,085032.50,5703.2878583,N,00952.3668451,E,2,8,1.2,-2.558,M,40.593,M,2.1,0123*53\r\n
$GPGGA,085032.55,5703.2878590,N,00952.3668504,E,2,8,1.2,-2.559,M,40.593,M,2.1,0123*54\r\n
$GPGGA,085032.60,5703.2878593,N,00952.3668554,E,2,8,1.2,-2.559,M,40.593,M,2.1,0123*54\r\n
$GPGGA,085032.65,5703.2878598,N,00952.3668638,E,2,8,1.2,-2.561,M,40.593,M,2.3,0123*5A\r\n
$GPGGA,085032.70,5703.2878601,N,00952.3668701,E,2,8,1.2,-2.562,M,40.593,M,2.3,0123*55\r\n
$GPGGA,085032.75,5703.2878600,N,00952.3668761,E,2,8,1.2,-2.562,M,40.593,M,2.3,0123*57\r\n
$GPGGA,085032.80,5703.2878612,N,00952.3668829,E,2,8,1.2,-2.562,M,40.593,M,2.3,0123*5D\r\n
$GPGGA,085032.85,5703.2878623,N,00952.3668900,E,2,8,1.2,-2.556,M,40.593,M,2.6,0123*52\r\n
$GPGGA,085032.90,5703.2878631,N,00952.3668973,E,2,8,1.2,-2.556,M,40.593,M,2.6,0123*51\r\n
$GPGGA,085032.95,5703.2878639,N,00952.3669038,E,2,8,1.2,-2.555,M,40.593,M,2.6,0123*58\r\n
$GPGGA,085033.00,5703.2878644,N,00952.3669099,E,2,8,1.2,-2.553,M,40.593,M,2.6,0123*52\r\n
$GPGGA,085033.05,5703.2878650,N,00952.3669168,E,2,8,1.2,-2.554,M,40.593,M,2.8,0123*54\r\n
$GPGGA,085033.10,5703.2878644,N,00952.3669237,E,2,8,1.2,-2.554,M,40.593,M,2.8,0123*5C\r\n
$GPGGA,085033.15,5703.2878642,N,00952.3669308,E,2,8,1.2,-2.553,M,40.593,M,2.8,0123*55\r\n
$GPGGA,085033.20,5703.2878654,N,00952.3669367,E,2,8,1.2,-2.552,M,40.593,M,2.8,0123*5C\r\n
