$GPVTG,270.50,T,-369.40,M,005.612,N,010.393,K,D*0B
$GPGGA,130231.00,5703.7118525,N,00952.8575542,E,2,7,1.1,-0.040,M,40.592,M,2.7,0123*5C
$GPVTG,270.06,T,-369.84,M,005.571,N,010.318,K,D*05
$GPGGA,130231.05,5703.7118561,N,00952.8574016,E,2,7,1.1,-0.047,M,40.592,M,2.9,0123*55
$GPVTG,270.77,T,-369.13,M,005.538,N,010.257,K,D*0A
$GPGGA,130231.10,5703.7118610,N,00952.8572651,E,2,7,1.1,-0.050,M,40.592,M,2.9,0123*51
$GPVTG,271.66,T,-368.24,M,005.456,N,010.105,K,D*03
$GPGGA,130231.15,5703.7118620,N,00952.8571237,E,2,7,1.1,-0.056,M,40.592,M,2.9,0123*56
$GPVTG,271.64,T,-368.26,M,005.461,N,010.114,K,D*07
$GPGGA,130231.20,5703.7118648,N,00952.8569852,E,2,7,1.1,-0.057,M,40.592,M,2.9,0123*5F
$GPVTG,271.96,T,-367.94,M,005.431,N,010.058,K,D*00
$GPGGA,130231.25,5703.7118611,N,00952.8568414,E,2,7,1.1,-0.034,M,40.592,M,3.2,0123*56
$GPVTG,271.55,T,-368.35,M,005.444,N,010.081,K,D*0D
$GPGGA,130231.30,5703.7118597,N,00952.8567002,E,2,7,1.1,-0.037,M,40.592,M,3.2,0123*50
$GPVTG,270.99,T,-368.91,M,005.461,N,010.113,K,D*0F
$GPGGA,130231.35,5703.7118620,N,00952.8565670,E,2,7,1.1,-0.036,M,40.592,M,3.2,0123*5A
$GPVTG,271.27,T,-368.63,M,005.371,N,009.947,K,D*01
$GPGGA,130231.40,5703.7118641,N,00952.8564294,E,2,7,1.1,-0.034,M,40.592,M,3.2,0123*52
$GPVTG,271.42,T,-368.48,M,005.361,N,009.929,K,D*02
$GPGGA,130231.45,5703.7118687,N,00952.8562942,E,2,7,1.1,-0.051,M,40.592,M,2.5,0123*5E
$GPVTG,271.78,T,-368.12,M,005.348,N,009.904,K,D*00
$GPGGA,130231.50,5703.7118688,N,00952.8561580,E,2,7,1.1,-0.055,M,40.592,M,2.5,0123*50
$GPVTG,271.44,T,-368.46,M,005.330,N,009.872,K,D*01
$GPGGA,130231.55,5703.7118697,N,00952.8560283,E,2,7,1.1,-0.056,M,40.592,M,2.5,0123*5D
$GPVTG,271.34,T,-368.56,M,005.232,N,009.690,K,D*06
$GPGGA,130231.60,5703.7118740,N,00952.8558949,E,2,7,1.1,-0.058,M,40.592,M,2.5,0123*58
$GPVTG,271.91,T,-367.99,M,005.208,N,009.646,K,D*07
$GPGGA,130231.65,5703.7118736,N,00952.8557625,E,2,7,1.1,-0.057,M,40.592,M,2.7,0123*5B
$GPVTG,271.52,T,-368.38,M,005.174,N,009.583,K,D*0E
$GPGGA,130231.70,5703.7118773,N,00952.8556300,E,2,7,1.1,-0.058,M,40.592,M,2.7,0123*52
$GPVTG,271.94,T,-367.96,M,005.161,N,009.559,K,D*0C
$GPGGA,130231.75,5703.7118790,N,00952.8554975,E,2,7,1.1,-0.062,M,40.592,M,2.7,0123*59
$GPVTG,271.87,T,-368.03,M,005.153,N,009.543,K,D*07
$GPGGA,130231.80,5703.7118828,N,00952.8553690,E,2,7,1.1,-0.065,M,40.592,M,2.7,0123*5B
$GPVTG,272.26,T,-367.64,M,005.098,N,009.442,K,D*07
$GPGGA,130231.85,5703.7118896,N,00952.8552399,E,2,7,1.1,-0.078,M,40.592,M,3.0,0123*5C
$GPVTG,273.08,T,-366.82,M,005.081,N,009.409,K,D*04
$GPGGA,130231.90,5703.7118897,N,00952.8551085,E,2,7,1.1,-0.083,M,40.592,M,3.0,0123*50
$GPVTG,272.48,T,-367.42,M,005.086,N,009.419,K,D*0A
$GPGGA,130231.95,5703.7118953,N,00952.8549772,E,2,7,1.1,-0.086,M,40.592,M,3.0,0123*5F
$GPVTG,273.09,T,-366.81,M,005.098,N,009.442,K,D*01
$GPGGA,130232.00,5703.7118982,N,00952.8548457,E,2,7,1.1,-0.091,M,40.592,M,3.0,0123*5F
$GPVTG,273.04,T,-366.86,M,005.111,N,009.465,K,D*0E
$GPGGA,130232.05,5703.7118982,N,00952.8547032,E,2,7,1.1,-0.076,M,40.592,M,3.2,0123*59
$GPVTG,272.87,T,-367.03,M,005.070,N,009.389,K,D*0B
$GPGGA,130232.10,5703.7119003,N,00952.8545768,E,2,7,1.1,-0.079,M,40.592,M,3.2,0123*59
$GPVTG,272.69,T,-367.21,M,005.021,N,009.299,K,D*0F
$GPGGA,130232.15,5703.7119025,N,00952.8544508,E,2,7,1.1,-0.082,M,40.592,M,3.2,0123*59
$GPVTG,272.54,T,-367.36,M,004.981,N,009.225,K,D*02
$GPGGA,130232.20,5703.7119051,N,00952.8543217,E,2,7,1.1,-0.086,M,40.592,M,3.2,0123*56
$GPVTG,272.46,T,-367.44,M,004.993,N,009.247,K,D*03
$GPGGA,130232.25,5703.7119090,N,00952.8541963,E,2,7,1.1,-0.102,M,40.592,M,3.4,0123*5F
$GPVTG,272.47,T,-367.43,M,004.973,N,009.210,K,D*09
$GPGGA,130232.30,5703.7119153,N,00952.8540711,E,2,7,1.1,-0.107,M,40.592,M,3.4,0123*5A
$GPVTG,273.22,T,-366.68,M,004.944,N,009.156,K,D*06
$GPGGA,130232.35,5703.7119250,N,00952.8539443,E,2,7,1.1,-0.110,M,40.592,M,3.4,0123*53
$GPVTG,274.55,T,-365.35,M,004.951,N,009.169,K,D*02
$GPGGA,130232.40,5703.7119266,N,00952.8538220,E,2,7,1.1,-0.119,M,40.592,M,3.4,0123*5F
$GPVTG,274.01,T,-365.89,M,004.889,N,009.054,K,D*0F
$GPGGA,130232.45,5703.7119267,N,00952.8536926,E,2,7,1.1,-0.100,M,40.592,M,2.1,0123*54
$GPVTG,273.57,T,-366.33,M,004.911,N,009.096,K,D*07
$GPGGA,130232.50,5703.7119322,N,00952.8535675,E,2,7,1.1,-0.102,M,40.592,M,2.1,0123*58
$GPVTG,273.94,T,-365.96,M,004.905,N,009.084,K,D*02
$GPGGA,130232.55,5703.7119355,N,00952.8534432,E,2,7,1.1,-0.103,M,40.592,M,2.1,0123*5C
$GPVTG,273.75,T,-366.15,M,004.890,N,009.056,K,D*07
$GPGGA,130232.60,5703.7119394,N,00952.8533187,E,2,7,1.1,-0.108,M,40.592,M,2.1,0123*50
$GPVTG,273.70,T,-366.20,M,004.882,N,009.042,K,D*02
$GPGGA,130232.65,5703.7119436,N,00952.8531976,E,2,6,1.1,-0.116,M,40.592,M,2.3,0123*52
$GPVTG,273.55,T,-366.35,M,004.841,N,008.965,K,D*03
$GPGGA,130232.70,5703.7119520,N,00952.8530718,E,2,6,1.1,-0.119,M,40.592,M,2.3,0123*58
$GPVTG,274.49,T,-365.41,M,004.871,N,009.022,K,D*01
$GPGGA,130232.75,5703.7119568,N,00952.8529477,E,2,6,1.1,-0.122,M,40.592,M,2.3,0123*5B
$GPVTG,274.50,T,-365.40,M,004.870,N,009.020,K,D*0B
$GPGGA,130232.80,5703.7119579,N,00952.8528252,E,2,6,1.1,-0.126,M,40.592,M,2.3,0123*55
$GPVTG,273.73,T,-366.17,M,004.844,N,008.971,K,D*07
$GPGGA,130232.85,5703.7119639,N,00952.8527018,E,2,7,1.1,-0.134,M,40.592,M,2.5,0123*50
$GPVTG,273.89,T,-366.01,M,004.855,N,008.991,K,D*0B
$GPGGA,130232.90,5703.7119651,N,00952.8525773,E,2,6,1.1,-0.135,M,40.592,M,2.5,0123*52
$GPVTG,273.19,T,-366.71,M,004.863,N,009.006,K,D*06
$GPGGA,130232.95,5703.7119705,N,00952.8524518,E,2,6,1.1,-0.139,M,40.592,M,2.5,0123*55
$GPVTG,273.47,T,-366.43,M,004.888,N,009.052,K,D*08
$GPGGA,130233.00,5703.7119785,N,00952.8523242,E,2,6,1.1,-0.145,M,40.592,M,2.5,0123*54
$GPVTG,274.25,T,-365.65,M,004.940,N,009.150,K,D*0A
$GPGGA,130233.05,5703.7119819,N,00952.8521887,E,2,6,1.1,-0.138,M,40.592,M,2.7,0123*52
$GPVTG,274.26,T,-365.64,M,004.899,N,009.072,K,D*0C
$GPGGA,130233.10,5703.7119887,N,00952.8520666,E,2,6,1.1,-0.147,M,40.592,M,2.7,0123*59
$GPVTG,274.74,T,-365.16,M,004.873,N,009.024,K,D*09
$GPGGA,130233.15,5703.7119959,N,00952.8519454,E,2,6,1.1,-0.153,M,40.592,M,2.7,0123*52
$GPVTG,275.23,T,-364.67,M,004.839,N,008.962,K,D*09
$GPGGA,130233.20,5703.7119973,N,00952.8518203,E,2,6,1.1,-0.159,M,40.592,M,2.7,0123*53
$GPVTG,274.33,T,-365.57,M,004.859,N,008.999,K,D*09
$GPGGA,130233.25,5703.7119966,N,00952.8516943,E,2,6,1.1,-0.137,M,40.592,M,2.9,0123*55
$GPVTG,273.70,T,-366.20,M,004.857,N,008.996,K,D*0B
$GPGGA,130233.30,5703.7120016,N,00952.8515682,E,2,6,1.1,-0.141,M,40.592,M,2.9,0123*55
$GPVTG,273.78,T,-366.12,M,004.893,N,009.062,K,D*09
$GPGGA,130233.35,5703.7120092,N,00952.8514416,E,2,6,1.1,-0.141,M,40.592,M,2.9,0123*52
$GPVTG,274.37,T,-365.53,M,004.932,N,009.134,K,D*0B
$GPGGA,130233.40,5703.7120144,N,00952.8513186,E,2,6,1.1,-0.141,M,40.592,M,2.9,0123*51
$GPVTG,274.43,T,-365.47,M,004.911,N,009.096,K,D*05
$GPGGA,130233.45,5703.7120162,N,00952.8511941,E,2,6,1.1,-0.138,M,40.592,M,3.2,0123*55
$GPVTG,273.66,T,-366.24,M,004.912,N,009.097,K,D*01
$GPGGA,130233.50,5703.7120188,N,00952.8510731,E,2,6,1.1,-0.137,M,40.592,M,3.2,0123*52
$GPVTG,273.27,T,-366.63,M,004.864,N,009.008,K,D*01
$GPGGA,130233.55,5703.7120241,N,00952.8509457,E,2,6,1.1,-0.142,M,40.592,M,3.2,0123*58
$GPVTG,273.45,T,-366.45,M,004.913,N,009.099,K,D*08
$GPGGA,130233.60,5703.7120273,N,00952.8508177,E,2,6,1.1,-0.146,M,40.592,M,3.2,0123*5D
$GPVTG,273.17,T,-366.73,M,004.960,N,009.185,K,D*02
$GPGGA,130233.65,5703.7120363,N,00952.8506965,E,2,6,1.1,-0.158,M,40.592,M,3.4,0123*54
$GPVTG,274.06,T,-365.84,M,004.924,N,009.119,K,D*0B
$GPGGA,130233.70,5703.7120440,N,00952.8505670,E,2,6,1.1,-0.158,M,40.592,M,3.4,0123*5E
$GPVTG,274.63,T,-365.27,M,004.993,N,009.247,K,D*05
$GPGGA,130233.75,5703.7120468,N,00952.8504378,E,2,6,1.1,-0.158,M,40.592,M,3.4,0123*5D
$GPVTG,274.11,T,-365.79,M,005.036,N,009.327,K,D*0B
$GPGGA,130233.80,5703.7120521,N,00952.8503097,E,2,6,1.1,-0.162,M,40.592,M,3.4,0123*57
$GPVTG,274.18,T,-365.72,M,005.057,N,009.366,K,D*0B
$GPGGA,130233.85,5703.7120555,N,00952.8501823,E,2,6,1.1,-0.157,M,40.592,M,3.6,0123*50
$GPVTG,273.95,T,-365.95,M,005.051,N,009.355,K,D*06
$GPGGA,130233.90,5703.7120649,N,00952.8500595,E,2,6,1.1,-0.158,M,40.592,M,3.6,0123*54
$GPVTG,274.97,T,-364.93,M,004.998,N,009.255,K,D*08
$GPGGA,130233.95,5703.7120693,N,00952.8499302,E,2,6,1.1,-0.157,M,40.592,M,3.6,0123*50
$GPVTG,274.71,T,-365.19,M,005.034,N,009.323,K,D*0D
$GPGGA,130234.00,5703.7120726,N,00952.8497994,E,2,6,1.1,-0.157,M,40.592,M,3.6,0123*5F
$GPVTG,274.25,T,-365.65,M,005.081,N,009.409,K,D*06
$GPGGA,130234.05,5703.7120767,N,00952.8496565,E,2,6,1.1,-0.131,M,40.592,M,3.8,0123*52
$GPVTG,274.60,T,-365.30,M,005.079,N,009.406,K,D*0F
$GPGGA,130234.10,5703.7120811,N,00952.8495301,E,2,6,1.1,-0.129,M,40.592,M,3.8,0123*56
$GPVTG,274.40,T,-365.50,M,005.054,N,009.360,K,D*03
$GPGGA,130234.15,5703.7120825,N,00952.8494037,E,2,6,1.1,-0.133,M,40.592,M,3.8,0123*58
$GPVTG,273.62,T,-366.28,M,005.030,N,009.315,K,D*08
$GPGGA,130234.20,5703.7120896,N,00952.8492755,E,2,6,1.1,-0.127,M,40.592,M,3.8,0123*56
$GPVTG,274.11,T,-365.79,M,005.041,N,009.336,K,D*0B
$GPGGA,130234.25,5703.7120954,N,00952.8491440,E,2,6,1.1,-0.130,M,40.592,M,4.0,0123*51
$GPVTG,274.12,T,-365.78,M,005.100,N,009.445,K,D*0E
$GPGGA,130234.30,5703.7120977,N,00952.8490141,E,2,6,1.1,-0.132,M,40.592,M,4.0,0123*53
$GPVTG,273.54,T,-366.36,M,005.113,N,009.470,K,D*06
$GPGGA,130234.35,5703.7121025,N,00952.8488870,E,2,6,1.1,-0.131,M,40.592,M,4.0,0123*58
$GPVTG,273.59,T,-366.31,M,005.088,N,009.422,K,D*08
$GPGGA,130234.40,5703.7121085,N,00952.8487575,E,2,6,1.1,-0.127,M,40.592,M,4.0,0123*50
$GPVTG,273.86,T,-366.04,M,005.099,N,009.444,K,D*0C
$GPGGA,130234.45,5703.7121125,N,00952.8486260,E,2,6,1.1,-0.132,M,40.592,M,1.1,0123*5C
$GPVTG,273.54,T,-366.36,M,005.143,N,009.526,K,D*01
$GPGGA,130234.50,5703.7121166,N,00952.8484951,E,2,6,1.1,-0.131,M,40.592,M,1.1,0123*57
$GPVTG,273.43,T,-366.47,M,005.157,N,009.551,K,D*04
$GPGGA,130234.55,5703.7121234,N,00952.8483689,E,2,6,1.1,-0.130,M,40.592,M,1.1,0123*5A
$GPVTG,273.93,T,-365.97,M,005.109,N,009.461,K,D*0E
$GPGGA,130234.60,5703.7121260,N,00952.8482392,E,2,6,1.1,-0.126,M,40.592,M,1.1,0123*54
$GPVTG,273.47,T,-366.43,M,005.108,N,009.460,K,D*0D
$GPGGA,130234.65,5703.7121279,N,00952.8481093,E,2,6,1.1,-0.115,M,40.592,M,1.4,0123*5D
$GPVTG,273.10,T,-366.80,M,005.097,N,009.439,K,D*0B
$GPGGA,130234.70,5703.7121370,N,00952.8479784,E,2,6,1.1,-0.113,M,40.592,M,1.4,0123*51
$GPVTG,274.10,T,-365.80,M,005.124,N,009.489,K,D*0D
$GPGGA,130234.75,5703.7121439,N,00952.8478526,E,2,6,1.1,-0.111,M,40.592,M,1.4,0123*57
$GPVTG,274.55,T,-365.35,M,005.073,N,009.394,K,D*0A
$GPGGA,130234.80,5703.7121437,N,00952.8477199,E,2,6,1.1,-0.111,M,40.592,M,1.4,0123*5C
$GPVTG,273.41,T,-366.49,M,005.115,N,009.473,K,D*0F
$GPGGA,130234.85,5703.7121489,N,00952.8475858,E,2,6,1.1,-0.114,M,40.592,M,1.7,0123*5C
$GPVTG,273.51,T,-366.39,M,005.184,N,009.601,K,D*06
$GPGGA,130234.90,5703.7121585,N,00952.8474558,E,2,6,1.1,-0.109,M,40.592,M,1.7,0123*55
$GPVTG,274.55,T,-365.35,M,005.181,N,009.595,K,D*01
$GPGGA,130234.95,5703.7121626,N,00952.8473222,E,2,6,1.1,-0.109,M,40.592,M,1.7,0123*57
$GPVTG,274.29,T,-365.61,M,005.217,N,009.663,K,D*0D
$GPGGA,130235.00,5703.7121639,N,00952.8471913,E,2,6,1.1,-0.111,M,40.592,M,1.7,0123*56
$GPVTG,273.52,T,-366.38,M,005.205,N,009.640,K,D*0B
$GPGGA,130235.05,5703.7121685,N,00952.8470484,E,2,6,1.1,-0.117,M,40.592,M,2.0,0123*54
$GPVTG,273.76,T,-366.14,M,005.168,N,009.570,K,D*0B
$GPGGA,130235.10,5703.7121718,N,00952.8469156,E,2,6,1.1,-0.120,M,40.592,M,2.0,0123*53
$GPVTG,273.44,T,-366.46,M,005.191,N,009.614,K,D*0A
$GPGGA,130235.15,5703.7121782,N,00952.8467843,E,2,6,1.1,-0.118,M,40.592,M,2.0,0123*5D
$GPVTG,273.83,T,-366.07,M,005.192,N,009.616,K,D*05
$GPGGA,130235.20,5703.7121848,N,00952.8466539,E,2,6,1.1,-0.120,M,40.592,M,2.0,0123*58
$GPVTG,274.21,T,-365.69,M,005.180,N,009.594,K,D*0B
$GPGGA,130235.25,5703.7121871,N,00952.8465169,E,2,6,1.1,-0.099,M,40.592,M,2.3,0123*55
$GPVTG,274.07,T,-365.83,M,005.225,N,009.676,K,D*08
$GPGGA,130235.30,5703.7121901,N,00952.8463829,E,2,6,1.1,-0.097,M,40.592,M,2.3,0123*52
$GPVTG,273.64,T,-366.26,M,005.250,N,009.724,K,D*02
$GPGGA,130235.35,5703.7121944,N,00952.8462526,E,2,6,1.1,-0.099,M,40.592,M,2.3,0123*5B
$GPVTG,273.58,T,-366.32,M,005.219,N,009.665,K,D*01
$GPGGA,130235.40,5703.7122044,N,00952.8461221,E,2,6,1.1,-0.100,M,40.592,M,2.3,0123*51
$GPVTG,274.66,T,-365.24,M,005.203,N,009.637,K,D*03
$GPGGA,130235.45,5703.7122123,N,00952.8459913,E,2,7,1.1,-0.099,M,40.592,M,0.8,0123*5C
$GPVTG,275.21,T,-364.69,M,005.195,N,009.621,K,D*02
$GPGGA,130235.50,5703.7122144,N,00952.8458583,E,2,7,1.1,-0.096,M,40.592,M,0.8,0123*52
$GPVTG,274.45,T,-365.45,M,005.207,N,009.643,K,D*02
$GPGGA,130235.55,5703.7122140,N,00952.8457276,E,2,7,1.1,-0.094,M,40.592,M,0.8,0123*53
$GPVTG,273.30,T,-366.60,M,005.182,N,009.597,K,D*07
$GPGGA,130235.60,5703.7122206,N,00952.8455951,E,2,7,1.1,-0.091,M,40.592,M,0.8,0123*5D
$GPVTG,273.70,T,-366.20,M,005.195,N,009.622,K,D*0C
$GPGGA,130235.65,5703.7122224,N,00952.8454615,E,2,7,1.1,-0.070,M,40.592,M,1.1,0123*51
$GPVTG,273.46,T,-366.44,M,005.194,N,009.620,K,D*08
$GPGGA,130235.70,5703.7122254,N,00952.8453231,E,2,7,1.1,-0.066,M,40.592,M,1.1,0123*50
$GPVTG,273.07,T,-366.83,M,005.281,N,009.780,K,D*0A
$GPGGA,130235.75,5703.7122315,N,00952.8451924,E,2,7,1.1,-0.063,M,40.592,M,1.1,0123*59
$GPVTG,273.45,T,-366.45,M,005.249,N,009.722,K,D*0A
$GPGGA,130235.80,5703.7122383,N,00952.8450645,E,2,7,1.1,-0.063,M,40.592,M,1.1,0123*55
$GPVTG,273.94,T,-365.96,M,005.185,N,009.603,K,D*0A
$GPGGA,130235.85,5703.7122420,N,00952.8449406,E,2,7,1.1,-0.089,M,40.592,M,1.3,0123*55
$GPVTG,273.33,T,-366.57,M,005.101,N,009.448,K,D*08
$GPGGA,130235.90,5703.7122511,N,00952.8448186,E,2,7,1.1,-0.099,M,40.592,M,1.3,0123*5F
$GPVTG,274.40,T,-365.50,M,004.989,N,009.239,K,D*06
$GPGGA,130235.95,5703.7122542,N,00952.8446975,E,2,7,1.1,-0.107,M,40.592,M,1.3,0123*50
$GPVTG,274.08,T,-365.82,M,004.883,N,009.043,K,D*01
$GPGGA,130236.00,5703.7122543,N,00952.8445765,E,2,7,1.1,-0.118,M,40.592,M,1.3,0123*5C
$GPVTG,273.12,T,-366.78,M,004.800,N,008.890,K,D*07
$GPGGA,130236.05,5703.7122535,N,00952.8444394,E,2,7,1.1,-0.109,M,40.592,M,1.6,0123*56
$GPVTG,272.98,T,-366.92,M,004.674,N,008.656,K,D*09
$GPGGA,130236.10,5703.7122583,N,00952.8443262,E,2,7,1.1,-0.123,M,40.592,M,1.6,0123*58
$GPVTG,273.28,T,-366.62,M,004.546,N,008.420,K,D*0D
$GPGGA,130236.15,5703.7122651,N,00952.8442189,E,2,7,1.1,-0.139,M,40.592,M,1.6,0123*5D
$GPVTG,274.09,T,-365.81,M,004.377,N,008.106,K,D*02
$GPGGA,130236.20,5703.7122705,N,00952.8441126,E,2,7,1.1,-0.153,M,40.592,M,1.6,0123*51
$GPVTG,274.47,T,-365.43,M,004.236,N,007.845,K,D*03
$GPGGA,130236.25,5703.7122779,N,00952.8440152,E,2,7,1.1,-0.228,M,40.592,M,1.8,0123*5C
$GPVTG,274.39,T,-365.51,M,004.082,N,007.560,K,D*0E
$GPGGA,130236.30,5703.7122788,N,00952.8439245,E,2,7,1.1,-0.254,M,40.592,M,1.8,0123*56
$GPVTG,273.74,T,-366.16,M,003.812,N,007.060,K,D*03
$GPGGA,130236.35,5703.7122838,N,00952.8438375,E,2,7,1.1,-0.280,M,40.592,M,1.8,0123*5D
$GPVTG,274.34,T,-365.56,M,003.569,N,006.610,K,D*06
$GPGGA,130236.40,5703.7122854,N,00952.8437406,E,2,7,1.1,-0.305,M,40.592,M,1.8,0123*55
$GPVTG,273.69,T,-366.21,M,003.524,N,006.526,K,D*05
$GPGGA,130236.45,5703.7122840,N,00952.8436450,E,2,7,1.1,-0.294,M,40.592,M,2.1,0123*54
$GPVTG,273.58,T,-366.32,M,003.444,N,006.377,K,D*00
$GPGGA,130236.50,5703.7122909,N,00952.8435585,E,2,6,1.1,-0.308,M,40.592,M,2.1,0123*53
$GPVTG,274.94,T,-364.96,M,003.332,N,006.171,K,D*09
$GPGGA,130236.55,5703.7122936,N,00952.8434753,E,2,6,1.1,-0.323,M,40.592,M,2.1,0123*5B
$GPVTG,274.69,T,-365.21,M,003.210,N,005.945,K,D*0B
$GPGGA,130236.60,5703.7122934,N,00952.8433964,E,2,6,1.1,-0.341,M,40.592,M,2.1,0123*56
$GPVTG,273.45,T,-366.45,M,003.069,N,005.684,K,D*0D
$GPGGA,130236.65,5703.7122987,N,00952.8433220,E,2,6,1.1,-0.381,M,40.592,M,2.3,0123*5E
$GPVTG,273.16,T,-366.74,M,002.964,N,005.490,K,D*0B
$GPGGA,130236.70,5703.7123003,N,00952.8432411,E,2,6,1.1,-0.401,M,40.592,M,2.3,0123*54
$GPVTG,272.69,T,-367.21,M,002.939,N,005.443,K,D*05
$GPGGA,130236.75,5703.7123047,N,00952.8431602,E,2,6,1.1,-0.418,M,40.592,M,2.3,0123*5A
$GPVTG,273.38,T,-366.52,M,002.940,N,005.445,K,D*0D
$GPGGA,130236.80,5703.7123056,N,00952.8430844,E,2,6,1.1,-0.437,M,40.592,M,2.3,0123*50
$GPVTG,272.73,T,-367.17,M,002.883,N,005.339,K,D*01
$GPGGA,130236.85,5703.7123012,N,00952.8430057,E,2,6,1.1,-0.418,M,40.592,M,2.5,0123*54
$GPVTG,271.49,T,-368.41,M,002.823,N,005.229,K,D*0D
$GPGGA,130236.90,5703.7123022,N,00952.8429310,E,2,6,1.1,-0.427,M,40.592,M,2.5,0123*57
$GPVTG,271.17,T,-368.73,M,002.800,N,005.185,K,D*03
$GPGGA,130236.95,5703.7123025,N,00952.8428522,E,2,6,1.1,-0.438,M,40.592,M,2.5,0123*5D
$GPVTG,270.65,T,-369.25,M,002.848,N,005.275,K,D*05
$GPGGA,130237.00,5703.7123004,N,00952.8427800,E,2,6,1.1,-0.449,M,40.592,M,2.5,0123*57
$GPVTG,269.32,T,-370.58,M,002.805,N,005.196,K,D*0A
$GPGGA,130237.05,5703.7123082,N,00952.8426894,E,2,6,1.1,-0.462,M,40.592,M,2.7,0123*5B
$GPVTG,271.76,T,-368.14,M,002.809,N,005.202,K,D*00
$GPGGA,130237.10,5703.7123109,N,00952.8426135,E,2,6,1.1,-0.475,M,40.592,M,2.7,0123*59
$GPVTG,272.18,T,-367.72,M,002.840,N,005.260,K,D*0D
$GPGGA,130237.15,5703.7123093,N,00952.8425407,E,2,6,1.1,-0.488,M,40.592,M,2.7,0123*5B
$GPVTG,270.98,T,-368.92,M,002.826,N,005.233,K,D*00
$GPGGA,130237.20,5703.7123079,N,00952.8424680,E,2,6,1.1,-0.501,M,40.592,M,2.7,0123*55
$GPVTG,269.98,T,-369.92,M,002.816,N,005.215,K,D*0E
$GPGGA,130237.25,5703.7123101,N,00952.8423938,E,2,6,1.1,-0.490,M,40.592,M,2.9,0123*52
$GPVTG,270.49,T,-369.41,M,002.814,N,005.211,K,D*02
$GPGGA,130237.30,5703.7123097,N,00952.8423202,E,2,6,1.1,-0.496,M,40.592,M,2.9,0123*5C
$GPVTG,270.03,T,-369.87,M,002.826,N,005.234,K,D*00
$GPGGA,130237.35,5703.7123108,N,00952.8422451,E,2,6,1.1,-0.498,M,40.592,M,2.9,0123*51
$GPVTG,270.22,T,-369.68,M,002.861,N,005.299,K,D*06
$GPGGA,130237.40,5703.7123119,N,00952.8421676,E,2,6,1.1,-0.507,M,40.592,M,2.9,0123*50
$GPVTG,270.43,T,-369.47,M,002.923,N,005.413,K,D*0F
$GPGGA,130237.45,5703.7123152,N,00952.8421026,E,2,6,1.1,-0.524,M,40.592,M,3.2,0123*52
$GPVTG,271.05,T,-368.85,M,002.876,N,005.325,K,D*00
$GPGGA,130237.50,5703.7123172,N,00952.8420284,E,2,6,1.1,-0.532,M,40.592,M,3.2,0123*58
$GPVTG,271.49,T,-368.41,M,002.887,N,005.346,K,D*0B
$GPGGA,130237.55,5703.7123173,N,00952.8419575,E,2,6,1.1,-0.533,M,40.592,M,3.2,0123*5E
$GPVTG,271.20,T,-368.70,M,002.857,N,005.291,K,D*00
$GPGGA,130237.60,5703.7123165,N,00952.8418852,E,2,6,1.1,-0.536,M,40.592,M,3.2,0123*53
$GPVTG,270.59,T,-369.31,M,002.848,N,005.274,K,D*0E
$GPGGA,130237.65,5703.7123177,N,00952.8418156,E,2,6,1.1,-0.531,M,40.592,M,3.4,0123*59
$GPVTG,270.60,T,-369.30,M,002.820,N,005.223,K,D*09
$GPGGA,130237.70,5703.7123190,N,00952.8417415,E,2,6,1.1,-0.532,M,40.592,M,3.4,0123*5A
$GPVTG,270.86,T,-369.04,M,002.841,N,005.262,K,D*04
$GPGGA,130237.75,5703.7123208,N,00952.8416700,E,2,6,1.1,-0.529,M,40.592,M,3.4,0123*51
$GPVTG,271.28,T,-368.62,M,002.829,N,005.239,K,D*00
$GPGGA,130237.80,5703.7123199,N,00952.8415952,E,2,6,1.1,-0.526,M,40.592,M,3.4,0123*55
$GPVTG,270.64,T,-369.26,M,002.858,N,005.293,K,D*0E
$GPGGA,130237.85,5703.7123207,N,00952.8415251,E,2,6,1.1,-0.520,M,40.592,M,3.6,0123*58
$GPVTG,270.45,T,-369.45,M,002.829,N,005.240,K,D*00
$GPGGA,130237.90,5703.7123210,N,00952.8414481,E,2,6,1.1,-0.522,M,40.592,M,3.6,0123*52
$GPVTG,270.36,T,-369.54,M,002.890,N,005.352,K,D*04
$GPGGA,130237.95,5703.7123223,N,00952.8413720,E,2,6,1.1,-0.521,M,40.592,M,3.6,0123*5B
$GPVTG,270.68,T,-369.22,M,002.926,N,005.418,K,D*0B
$GPGGA,130238.00,5703.7123215,N,00952.8412963,E,2,6,1.1,-0.521,M,40.592,M,3.6,0123*55
$GPVTG,270.19,T,-369.71,M,002.950,N,005.463,K,D*06
$GPGGA,130238.05,5703.7123195,N,00952.8412017,E,2,6,1.1,-0.511,M,40.592,M,3.8,0123*5C
$GPVTG,268.77,T,-371.13,M,002.963,N,005.488,K,D*0F
$GPGGA,130238.10,5703.7123185,N,00952.8411219,E,2,6,1.1,-0.514,M,40.592,M,3.8,0123*53
$GPVTG,268.55,T,-371.35,M,003.030,N,005.612,K,D*04
$GPGGA,130238.15,5703.7123226,N,00952.8410485,E,2,6,1.1,-0.515,M,40.592,M,3.8,0123*5F
$GPVTG,270.15,T,-369.75,M,003.004,N,005.563,K,D*06
$GPGGA,130238.20,5703.7123232,N,00952.8409743,E,2,6,1.1,-0.517,M,40.592,M,3.8,0123*5F
$GPVTG,270.29,T,-369.61,M,002.989,N,005.535,K,D*02
$GPGGA,130238.25,5703.7123234,N,00952.8408970,E,2,6,1.1,-0.513,M,40.592,M,4.0,0123*58
$GPVTG,270.10,T,-369.80,M,002.993,N,005.542,K,D*0C
$GPGGA,130238.30,5703.7123213,N,00952.8408229,E,2,6,1.1,-0.515,M,40.592,M,4.0,0123*58
$GPVTG,269.32,T,-370.58,M,002.975,N,005.509,K,D*0E
$GPGGA,130238.35,5703.7123197,N,00952.8407458,E,2,6,1.1,-0.517,M,40.592,M,4.0,0123*5F
$GPVTG,268.84,T,-371.06,M,002.996,N,005.549,K,D*01
$GPGGA,130238.40,5703.7123219,N,00952.8406675,E,2,6,1.1,-0.519,M,40.592,M,4.0,0123*5A
$GPVTG,269.80,T,-370.10,M,003.027,N,005.606,K,D*08
$GPGGA,130238.45,5703.7123224,N,00952.8405960,E,2,6,1.1,-0.529,M,40.592,M,2.2,0123*5E
$GPVTG,270.15,T,-369.75,M,002.973,N,005.505,K,D*0E
$GPGGA,130238.50,5703.7123220,N,00952.8405227,E,2,6,1.1,-0.532,M,40.592,M,2.2,0123*5C
$GPVTG,270.02,T,-369.88,M,002.943,N,005.450,K,D*08
$GPGGA,130238.55,5703.7123208,N,00952.8404544,E,2,6,1.1,-0.532,M,40.592,M,2.2,0123*50
$GPVTG,269.57,T,-370.33,M,002.859,N,005.295,K,D*0D
$GPGGA,130238.60,5703.7123216,N,00952.8403764,E,2,6,1.1,-0.539,M,40.592,M,2.2,0123*55
$GPVTG,269.93,T,-369.97,M,002.907,N,005.384,K,D*08
$GPGGA,130238.65,5703.7123227,N,00952.8403020,E,2,6,1.1,-0.540,M,40.592,M,2.5,0123*5C
$GPVTG,270.27,T,-369.63,M,002.894,N,005.360,K,D*05
$GPGGA,130238.70,5703.7123225,N,00952.8402294,E,2,6,1.1,-0.544,M,40.592,M,2.5,0123*52
$GPVTG,270.16,T,-369.74,M,002.874,N,005.323,K,D*08
$GPGGA,130238.75,5703.7123214,N,00952.8401543,E,2,6,1.1,-0.549,M,40.592,M,2.5,0123*56
$GPVTG,269.74,T,-370.16,M,002.891,N,005.354,K,D*03
$GPGGA,130238.80,5703.7123233,N,00952.8400835,E,2,6,1.1,-0.554,M,40.592,M,2.5,0123*58
$GPVTG,270.48,T,-369.42,M,002.853,N,005.283,K,D*08
$GPGGA,130238.85,5703.7123238,N,00952.8400099,E,2,6,1.1,-0.559,M,40.592,M,2.7,0123*57
$GPVTG,270.63,T,-369.27,M,002.849,N,005.276,K,D*03
$GPGGA,130238.90,5703.7123227,N,00952.8399425,E,2,6,1.1,-0.565,M,40.592,M,2.7,0123*56
$GPVTG,270.13,T,-369.77,M,002.776,N,005.141,K,D*05
$GPGGA,130238.95,5703.7123239,N,00952.8398755,E,2,6,1.1,-0.571,M,40.592,M,2.7,0123*5C
$GPVTG,270.57,T,-369.33,M,002.715,N,005.028,K,D*0E
$GPGGA,130239.00,5703.7123230,N,00952.8398048,E,2,6,1.1,-0.577,M,40.592,M,2.7,0123*55
$GPVTG,270.15,T,-369.75,M,002.713,N,005.025,K,D*01
$GPGGA,130239.05,5703.7123228,N,00952.8397166,E,2,6,1.1,-0.556,M,40.592,M,2.9,0123*56
$GPVTG,269.25,T,-370.65,M,002.670,N,004.945,K,D*09
$GPGGA,130239.10,5703.7123250,N,00952.8396479,E,2,6,1.1,-0.558,M,40.592,M,2.9,0123*59
$GPVTG,270.24,T,-369.66,M,002.658,N,004.923,K,D*01
$GPGGA,130239.15,5703.7123255,N,00952.8395788,E,2,6,1.1,-0.562,M,40.592,M,2.9,0123*5E
$GPVTG,270.41,T,-369.49,M,002.656,N,004.920,K,D*02
$GPGGA,130239.20,5703.7123296,N,00952.8395079,E,2,6,1.1,-0.566,M,40.592,M,2.9,0123*5A
$GPVTG,271.96,T,-367.94,M,002.682,N,004.967,K,D*0D
$GPGGA,130239.25,5703.7123313,N,00952.8394418,E,2,6,1.1,-0.566,M,40.592,M,3.2,0123*5B
$GPVTG,271.86,T,-368.04,M,002.631,N,004.872,K,D*07
$GPGGA,130239.30,5703.7123307,N,00952.8393756,E,2,6,1.1,-0.568,M,40.592,M,3.2,0123*5A
$GPVTG,271.31,T,-368.59,M,002.606,N,004.826,K,D*06
$GPGGA,130239.35,5703.7123339,N,00952.8393083,E,2,6,1.1,-0.572,M,40.592,M,3.2,0123*56
$GPVTG,272.38,T,-367.52,M,002.604,N,004.822,K,D*0E
$GPGGA,130239.40,5703.7123346,N,00952.8392412,E,2,6,1.1,-0.579,M,40.592,M,3.2,0123*5A
$GPVTG,272.24,T,-367.66,M,002.599,N,004.814,K,D*06
$GPGGA,130239.45,5703.7123356,N,00952.8391760,E,2,6,1.1,-0.578,M,40.592,M,2.5,0123*5C
$GPVTG,272.53,T,-367.37,M,002.561,N,004.743,K,D*08
$GPGGA,130239.50,5703.7123381,N,00952.8391133,E,2,6,1.1,-0.578,M,40.592,M,2.5,0123*52
$GPVTG,273.15,T,-366.75,M,002.516,N,004.659,K,D*06
$GPGGA,130239.55,5703.7123400,N,00952.8390519,E,2,6,1.1,-0.579,M,40.592,M,2.5,0123*55
$GPVTG,273.39,T,-366.51,M,002.466,N,004.567,K,D*06
$GPGGA,130239.60,5703.7123430,N,00952.8389846,E,2,6,1.1,-0.588,M,40.592,M,2.5,0123*51
$GPVTG,274.00,T,-365.90,M,002.501,N,004.632,K,D*06
$GPGGA,130239.65,5703.7123448,N,00952.8389156,E,2,6,1.1,-0.593,M,40.592,M,2.7,0123*5B
$GPVTG,273.51,T,-366.39,M,002.553,N,004.728,K,D*08
$GPGGA,130239.70,5703.7123467,N,00952.8388518,E,2,6,1.1,-0.595,M,40.592,M,2.7,0123*5B
$GPVTG,273.57,T,-366.33,M,002.535,N,004.695,K,D*03
$GPGGA,130239.75,5703.7123473,N,00952.8387912,E,2,6,1.1,-0.595,M,40.592,M,2.7,0123*52
$GPVTG,273.16,T,-366.74,M,002.480,N,004.593,K,D*0F
$GPGGA,130239.80,5703.7123499,N,00952.8387333,E,2,6,1.1,-0.598,M,40.592,M,2.7,0123*58
$GPVTG,273.62,T,-366.28,M,002.406,N,004.456,K,D*03
$GPGGA,130239.85,5703.7123527,N,00952.8386704,E,2,6,1.1,-0.600,M,40.592,M,3.0,0123*5C
$GPVTG,274.52,T,-365.38,M,002.399,N,004.444,K,D*07
$GPGGA,130239.90,5703.7123519,N,00952.8386118,E,2,6,1.1,-0.603,M,40.592,M,3.0,0123*5D
$GPVTG,273.27,T,-366.63,M,002.348,N,004.348,K,D*08
$GPGGA,130239.95,5703.7123534,N,00952.8385498,E,2,6,1.1,-0.607,M,40.592,M,3.0,0123*5D
$GPVTG,273.13,T,-366.77,M,002.354,N,004.359,K,D*07
$GPGGA,130240.00,5703.7123537,N,00952.8384905,E,2,6,1.1,-0.609,M,40.592,M,3.0,0123*5A
$GPVTG,272.47,T,-367.43,M,002.328,N,004.312,K,D*05
$GPGGA,130240.05,5703.7123576,N,00952.8384062,E,2,6,1.1,-0.571,M,40.592,M,3.2,0123*5C
$GPVTG,272.13,T,-367.77,M,002.354,N,004.359,K,D*07
$GPGGA,130240.10,5703.7123628,N,00952.8383484,E,2,6,1.1,-0.570,M,40.592,M,3.2,0123*5A
$GPVTG,273.86,T,-366.04,M,002.319,N,004.295,K,D*07
$GPGGA,130240.15,5703.7123655,N,00952.8382887,E,2,6,1.1,-0.574,M,40.592,M,3.2,0123*5F
$GPVTG,274.21,T,-365.69,M,002.315,N,004.288,K,D*05
$GPGGA,130240.20,5703.7123670,N,00952.8382317,E,2,6,1.1,-0.574,M,40.592,M,3.2,0123*5C
$GPVTG,274.01,T,-365.89,M,002.280,N,004.222,K,D*04
$GPGGA,130240.25,5703.7123697,N,00952.8381769,E,2,6,1.1,-0.576,M,40.592,M,3.4,0123*5A
$GPVTG,273.94,T,-365.96,M,002.238,N,004.145,K,D*00
$GPGGA,130240.30,5703.7123705,N,00952.8381235,E,2,6,1.1,-0.576,M,40.592,M,3.4,0123*58
$GPVTG,273.50,T,-366.40,M,002.173,N,004.025,K,D*0B
$GPGGA,130240.35,5703.7123722,N,00952.8380689,E,2,6,1.1,-0.578,M,40.592,M,3.4,0123*54
$GPVTG,273.47,T,-366.43,M,002.142,N,003.967,K,D*04
$GPGGA,130240.40,5703.7123739,N,00952.8380126,E,2,6,1.1,-0.579,M,40.592,M,3.4,0123*5F
$GPVTG,273.37,T,-366.53,M,002.140,N,003.963,K,D*04
$GPGGA,130240.45,5703.7123747,N,00952.8379576,E,2,6,1.1,-0.579,M,40.592,M,2.1,0123*50
$GPVTG,273.27,T,-366.63,M,002.127,N,003.939,K,D*08
$GPGGA,130240.50,5703.7123737,N,00952.8379058,E,2,6,1.1,-0.582,M,40.592,M,2.1,0123*5E
$GPVTG,271.93,T,-367.97,M,002.077,N,003.846,K,D*02
$GPGGA,130240.55,5703.7123747,N,00952.8378525,E,2,6,1.1,-0.584,M,40.592,M,2.1,0123*54
$GPVTG,271.79,T,-368.11,M,002.061,N,003.816,K,D*05
$GPGGA,130240.60,5703.7123757,N,00952.8378002,E,2,6,1.1,-0.584,M,40.592,M,2.1,0123*53
$GPVTG,271.67,T,-368.23,M,002.037,N,003.773,K,D*04
$GPGGA,130240.65,5703.7123777,N,00952.8377419,E,2,6,1.1,-0.579,M,40.592,M,2.3,0123*55
$GPVTG,272.22,T,-367.68,M,002.070,N,003.834,K,D*09
$GPGGA,130240.70,5703.7123745,N,00952.8376921,E,2,6,1.1,-0.581,M,40.592,M,2.3,0123*50
$GPVTG,269.95,T,-369.95,M,002.020,N,003.741,K,D*0B
$GPGGA,130240.75,5703.7123742,N,00952.8376417,E,2,6,1.1,-0.585,M,40.592,M,2.3,0123*5E
$GPVTG,269.45,T,-370.45,M,001.990,N,003.685,K,D*0B
$GPGGA,130240.80,5703.7123734,N,00952.8375928,E,2,6,1.1,-0.588,M,40.592,M,2.3,0123*5A
$GPVTG,268.77,T,-371.13,M,001.950,N,003.612,K,D*0B
$GPGGA,130240.85,5703.7123711,N,00952.8375425,E,2,6,1.1,-0.594,M,40.592,M,2.5,0123*53
$GPVTG,268.02,T,-371.88,M,001.945,N,003.603,K,D*0F
$GPGGA,130240.90,5703.7123697,N,00952.8374918,E,2,6,1.1,-0.599,M,40.592,M,2.5,0123*57
$GPVTG,267.36,T,-372.54,M,001.943,N,003.599,K,D*03
$GPGGA,130240.95,5703.7123687,N,00952.8374425,E,2,6,1.1,-0.602,M,40.592,M,2.5,0123*51
$GPVTG,266.98,T,-372.92,M,001.927,N,003.568,K,D*00
$GPGGA,130241.00,5703.7123712,N,00952.8373987,E,2,6,1.1,-0.603,M,40.592,M,2.5,0123*52
$GPVTG,268.65,T,-371.25,M,001.848,N,003.422,K,D*04
$GPGGA,130241.05,5703.7123739,N,00952.8373281,E,2,6,1.1,-0.569,M,40.592,M,2.7,0123*5E
$GPVTG,268.08,T,-371.82,M,001.851,N,003.428,K,D*00
$GPGGA,130241.10,5703.7123689,N,00952.8372775,E,2,6,1.1,-0.577,M,40.592,M,2.7,0123*50
$GPVTG,265.58,T,-374.32,M,001.881,N,003.484,K,D*0D
$GPGGA,130241.15,5703.7123676,N,00952.8372295,E,2,6,1.1,-0.583,M,40.592,M,2.7,0123*55
$GPVTG,265.43,T,-374.47,M,001.871,N,003.465,K,D*05
$GPGGA,130241.20,5703.7123651,N,00952.8371856,E,2,6,1.1,-0.589,M,40.592,M,2.7,0123*5A
$GPVTG,264.62,T,-375.28,M,001.819,N,003.369,K,D*0A
$GPGGA,130241.25,5703.7123621,N,00952.8371328,E,2,6,1.1,-0.593,M,40.592,M,2.9,0123*5F
$GPVTG,264.86,T,-375.04,M,001.858,N,003.440,K,D*07
$GPGGA,130241.30,5703.7123600,N,00952.8370853,E,2,6,1.1,-0.602,M,40.592,M,2.9,0123*55
$GPVTG,264.58,T,-375.32,M,001.854,N,003.434,K,D*0E
$GPGGA,130241.35,5703.7123584,N,00952.8370384,E,2,6,1.1,-0.607,M,40.592,M,2.9,0123*5B
$GPVTG,264.67,T,-375.23,M,001.845,N,003.417,K,D*03
$GPGGA,130241.40,5703.7123571,N,00952.8369962,E,2,6,1.1,-0.614,M,40.592,M,2.9,0123*5B
$GPVTG,264.81,T,-375.09,M,001.781,N,003.298,K,D*05
$GPGGA,130241.45,5703.7123569,N,00952.8369467,E,2,6,1.1,-0.626,M,40.592,M,3.2,0123*54
$GPVTG,265.11,T,-374.79,M,001.825,N,003.380,K,D*02
$GPGGA,130241.50,5703.7123568,N,00952.8369014,E,2,6,1.1,-0.636,M,40.592,M,3.2,0123*50
$GPVTG,266.05,T,-373.85,M,001.804,N,003.340,K,D*0F
$GPGGA,130241.55,5703.7123543,N,00952.8368492,E,2,6,1.1,-0.647,M,40.592,M,3.2,0123*51
$GPVTG,265.70,T,-374.20,M,001.869,N,003.462,K,D*0A
$GPGGA,130241.60,5703.7123551,N,00952.8368014,E,2,6,1.1,-0.654,M,40.592,M,3.2,0123*5C
$GPVTG,267.07,T,-372.83,M,001.871,N,003.465,K,D*09
$GPGGA,130241.65,5703.7123543,N,00952.8367461,E,2,6,1.1,-0.658,M,40.592,M,3.4,0123*59
$GPVTG,267.06,T,-372.84,M,001.927,N,003.568,K,D*01
$GPGGA,130241.70,5703.7123515,N,00952.8367010,E,2,6,1.1,-0.662,M,40.592,M,3.4,0123*55
$GPVTG,266.31,T,-373.59,M,001.894,N,003.508,K,D*0A
$GPGGA,130241.75,5703.7123502,N,00952.8366537,E,2,6,1.1,-0.667,M,40.592,M,3.4,0123*52
$GPVTG,266.42,T,-373.48,M,001.888,N,003.496,K,D*05
$GPGGA,130241.80,5703.7123505,N,00952.8366069,E,2,6,1.1,-0.669,M,40.592,M,3.4,0123*5F
$GPVTG,267.32,T,-372.58,M,001.878,N,003.478,K,D*0C
$GPGGA,130241.85,5703.7123513,N,00952.8365648,E,2,6,1.1,-0.680,M,40.592,M,3.6,0123*5E
$GPVTG,268.35,T,-371.55,M,001.852,N,003.429,K,D*06
$GPGGA,130241.90,5703.7123542,N,00952.8365117,E,2,6,1.1,-0.688,M,40.592,M,3.6,0123*5B
$GPVTG,270.11,T,-369.79,M,001.903,N,003.524,K,D*07
$GPGGA,130241.95,5703.7123529,N,00952.8364661,E,2,6,1.1,-0.689,M,40.592,M,3.6,0123*55
$GPVTG,269.77,T,-370.13,M,001.883,N,003.487,K,D*0A
$GPGGA,130242.00,5703.7123501,N,00952.8364152,E,2,6,1.1,-0.688,M,40.592,M,3.6,0123*56
$GPVTG,268.91,T,-370.99,M,001.907,N,003.532,K,D*03
$GPGGA,130242.05,5703.7123534,N,00952.8363506,E,2,6,1.1,-0.650,M,40.592,M,3.8,0123*5C
$GPVTG,269.22,T,-370.68,M,001.854,N,003.433,K,D*03
$GPGGA,130242.10,5703.7123502,N,00952.8363097,E,2,6,1.1,-0.649,M,40.592,M,3.8,0123*58
$GPVTG,268.25,T,-371.65,M,001.805,N,003.343,K,D*0D
$GPGGA,130242.15,5703.7123537,N,00952.8362630,E,2,6,1.1,-0.650,M,40.592,M,3.8,0123*59
$GPVTG,269.94,T,-369.96,M,001.805,N,003.343,K,D*03
$GPGGA,130242.20,5703.7123531,N,00952.8362129,E,2,6,1.1,-0.651,M,40.592,M,3.8,0123*57
$GPVTG,269.92,T,-369.98,M,001.828,N,003.386,K,D*0D
$GPGGA,130242.25,5703.7123545,N,00952.8361676,E,2,6,1.1,-0.653,M,40.592,M,4.0,0123*52
$GPVTG,270.35,T,-369.55,M,001.834,N,003.397,K,D*04
$GPGGA,130242.30,5703.7123534,N,00952.8361231,E,2,6,1.1,-0.652,M,40.592,M,4.0,0123*56
$GPVTG,270.08,T,-369.82,M,001.817,N,003.364,K,D*0D
$GPGGA,130242.35,5703.7123525,N,00952.8360755,E,2,6,1.1,-0.648,M,40.592,M,4.0,0123*5E
$GPVTG,269.93,T,-369.97,M,001.823,N,003.376,K,D*07
$GPGGA,130242.40,5703.7123505,N,00952.8360309,E,2,6,1.1,-0.646,M,40.592,M,4.0,0123*5D
$GPVTG,269.42,T,-370.48,M,001.809,N,003.351,K,D*0C
$GPGGA,130242.45,5703.7123523,N,00952.8359849,E,2,6,1.1,-0.644,M,40.592,M,2.2,0123*5F
$GPVTG,270.48,T,-369.42,M,001.811,N,003.355,K,D*01
$GPGGA,130242.50,5703.7123537,N,00952.8359376,E,2,6,1.1,-0.641,M,40.592,M,2.2,0123*5C
$GPVTG,271.00,T,-368.90,M,001.4580,E,2,6,1.2,-0.636,M,40.592,M,1.1,0123*5F
$GPVTG,266.74,T,-373.16,M,001.383,N,002.561,K,D*03
$GPGGA,130245.70,5703.7122864,N,00952.8334242,E,2,6,1.2,-0.635,M,40.592,M,1.1,0123*5E
$GPVTG,266.05,T,-373.85,M,001.372,N,002.541,K,D*03
$GPGGA,130245.75,5703.7122842,N,00952.8333902,E,2,6,1.2,-0.637,M,40.592,M,1.1,0123*55
$GPVTG,265.69,T,-374.21,M,001.364,N,002.526,K,D*05
$GPGGA,130245.80,5703.7122808,N,00952.8333601,E,2,6,1.2,-0.641,M,40.592,M,1.1,0123*5C
$GPVTG,264.85,T,-375.05,M,001.335,N,002.473,K,D*04
$GPGGA,130245.85,5703.7122756,N,00952.8333315,E,2,6,1.2,-0.646,M,40.592,M,1.4,0123*5F
$GPVTG,263.51,T,-376.39,M,001.299,N,002.406,K,D*03
$GPGGA,130245.90,5703.7122741,N,00952.8333014,E,2,6,1.2,-0.655,M,40.592,M,1.4,0123*5D
$GPVTG,263.46,T,-376.44,M,001.274,N,002.360,K,D*0B
$GPGGA,130245.95,5703.7122715,N,00952.8332709,E,2,6,1.2,-0.660,M,40.592,M,1.4,0123*55
$GPVTG,263.03,T,-376.87,M,001.256,N,002.326,K,D*07
$GPGGA,130246.00,5703.7122668,N,00952.8332395,E,2,6,1.2,-0.668,M,40.592,M,1.4,0123*58
$GPVTG,261.78,T,-378.12,M,001.247,N,002.309,K,D*06
$GPGGA,130246.05,5703.7122681,N,00952.8331779,E,2,6,1.2,-0.605,M,40.592,M,1.7,0123*57
$GPVTG,262.65,T,-377.25,M,001.222,N,002.262,K,D*0D
$GPGGA,130246.10,5703.7122653,N,00952.8331503,E,2,6,1.2,-0.610,M,40.592,M,1.7,0123*57
$GPVTG,262.06,T,-377.84,M,001.193,N,002.209,K,D*07
$GPGGA,130246.15,5703.7122669,N,00952.8331203,E,2,6,1.2,-0.617,M,40.592,M,1.7,0123*5B
$GPVTG,263.44,T,-376.46,M,001.176,N,002.178,K,D*01
$GPGGA,130246.20,5703.7122639,N,00952.8330907,E,2,6,1.2,-0.624,M,40.592,M,1.7,0123*56
$GPVTG,262.83,T,-377.07,M,001.165,N,002.157,K,D*00
$GPGGA,130246.25,5703.7122605,N,00952.8330698,E,2,6,1.2,-0.641,M,40.592,M,2.0,0123*52
$GPVTG,261.02,T,-378.88,M,001.118,N,002.070,K,D*0C
$GPGGA,130246.30,5703.7122568,N,00952.8330431,E,2,6,1.2,-0.648,M,40.592,M,2.0,0123*56
$GPVTG,260.08,T,-379.82,M,001.097,N,002.032,K,D*0C
$GPGGA,130246.35,5703.7122554,N,00952.8330185,E,2,6,1.2,-0.653,M,40.592,M,2.0,0123*5C
$GPVTG,260.14,T,-379.76,M,001.065,N,001.972,K,D*09
$GPGGA,130246.40,5703.7122535,N,00952.8329900,E,2,6,1.2,-0.659,M,40.592,M,2.0,0123*5E
$GPVTG,260.16,T,-379.74,M,001.057,N,001.958,K,D*00
$GPGGA,130246.45,5703.7122537,N,00952.8329647,E,2,6,1.2,-0.665,M,40.592,M,1.1,0123*58
$GPVTG,261.73,T,-378.17,M,001.028,N,001.903,K,D*00
$GPGGA,130246.50,5703.7122543,N,00952.8329410,E,2,6,1.2,-0.672,M,40.592,M,1.1,0123*59
$GPVTG,262.73,T,-377.17,M,000.996,N,001.845,K,D*02
$GPGGA,130246.55,5703.7122520,N,00952.8329147,E,2,6,1.2,-0.679,M,40.592,M,1.1,0123*55
$GPVTG,262.41,T,-377.49,M,000.986,N,001.826,K,D*0C
$GPGGA,130246.60,5703.7122509,N,00952.8328848,E,2,6,1.2,-0.687,M,40.592,M,1.1,0123*5E
$GPVTG,262.84,T,-377.06,M,000.996,N,001.845,K,D*0A
$GPGGA,130246.65,5703.7122519,N,00952.8328501,E,2,6,1.2,-0.693,M,40.592,M,1.4,0123*5A
$GPVTG,263.21,T,-376.69,M,001.032,N,001.912,K,D*09
$GPGGA,130246.70,5703.7122518,N,00952.8328207,E,2,6,1.2,-0.700,M,40.592,M,1.4,0123*55
$GPVTG,264.04,T,-375.86,M,001.039,N,001.924,K,D*05
$GPGGA,130246.75,5703.7122506,N,00952.8327937,E,2,6,1.2,-0.708,M,40.592,M,1.4,0123*50
$GPVTG,264.20,T,-375.70,M,001.033,N,001.914,K,D*03
$GPGGA,130246.80,5703.7122544,N,00952.8327696,E,2,6,1.2,-0.711,M,40.592,M,1.4,0123*50
$GPVTG,266.70,T,-373.20,M,001.009,N,001.869,K,D*05
$GPGGA,130246.85,5703.7122573,N,00952.8327466,E,2,6,1.2,-0.723,M,40.592,M,1.7,0123*5E
$GPVTG,268.25,T,-371.65,M,000.993,N,001.838,K,D*07
$GPGGA,130246.90,5703.7122559,N,00952.8327211,E,2,6,1.2,-0.726,M,40.592,M,1.7,0123*51
$GPVTG,268.04,T,-371.86,M,000.984,N,001.823,K,D*05
$GPGGA,130246.95,5703.7122551,N,00952.8326921,E,2,6,1.2,-0.732,M,40.592,M,1.7,0123*50
$GPVTG,268.18,T,-371.72,M,000.997,N,001.846,K,D*02
$GPGGA,130247.00,5703.7122522,N,00952.8326593,E,2,6,1.2,-0.740,M,40.592,M,1.7,0123*59
$GPVTG,267.31,T,-372.59,M,001.030,N,001.908,K,D*02
$GPGGA,130247.05,5703.7122502,N,00952.8326051,E,2,6,1.2,-0.694,M,40.592,M,2.0,0123*59
$GPVTG,266.11,T,-373.79,M,001.037,N,001.920,K,D*0F
$GPGGA,130247.10,5703.7122525,N,00952.8325760,E,2,6,1.2,-0.697,M,40.592,M,2.0,0123*5D
$GPVTG,267.76,T,-372.14,M,001.047,N,001.939,K,D*0A
$GPGGA,130247.15,5703.7122583,N,00952.8325442,E,2,6,1.2,-0.698,M,40.592,M,2.0,0123*58
$GPVTG,270.95,T,-368.95,M,001.073,N,001.987,K,D*01
$GPGGA,130247.20,5703.7122573,N,00952.8325148,E,2,6,1.2,-0.696,M,40.592,M,2.0,0123*50
$GPVTG,270.72,T,-369.18,M,001.083,N,002.005,K,D*03
$GPGGA,130247.25,5703.7122562,N,00952.8324867,E,2,6,1.2,-0.697,M,40.592,M,2.3,0123*52
$GPVTG,269.54,T,-370.36,M,001.088,N,002.016,K,D*02
$GPGGA,130247.30,5703.7122553,N,00952.8324533,E,2,6,1.2,-0.691,M,40.592,M,2.3,0123*5E
$GPVTG,269.43,T,-370.47,M,001.122,N,002.078,K,D*0B
$GPGGA,130247.35,5703.7122509,N,00952.8324272,E,2,6,1.2,-0.685,M,40.592,M,2.3,0123*53
$GPVTG,267.75,T,-372.15,M,001.111,N,002.058,K,D*07
$GPGGA,130247.40,5703.7122490,N,00952.8323918,E,2,6,1.2,-0.683,M,40.592,M,2.3,0123*56
$GPVTG,267.36,T,-372.54,M,001.153,N,002.135,K,D*09
$GPGGA,130247.45,5703.7122447,N,00952.8323611,E,2,6,1.2,-0.692,M,40.592,M,0.8,0123*56
$GPVTG,267.15,T,-372.75,M,001.187,N,002.198,K,D*05
$GPGGA,130247.50,5703.7122421,N,00952.8323329,E,2,6,1.2,-0.688,M,40.592,M,0.8,0123*57
$GPVTG,266.44,T,-373.46,M,001.182,N,002.189,K,D*04
$GPGGA,130247.55,5703.7122413,N,00952.8323016,E,2,6,1.2,-0.682,M,40.592,M,0.8,0123*56
$GPVTG,266.57,T,-373.33,M,001.194,N,002.212,K,D*02
$GPGGA,130247.60,5703.7122397,N,00952.8322679,E,2,6,1.2,-0.673,M,40.592,M,0.8,0123*5B
$GPVTG,266.40,T,-373.50,M,001.219,N,002.257,K,D*06
$GPGGA,130247.65,5703.7122365,N,00952.8322420,E,2,6,1.2,-0.678,M,40.592,M,1.1,0123*5E
$GPVTG,265.40,T,-374.50,M,001.216,N,002.251,K,D*0B
$GPGGA,130247.70,5703.7122286,N,00952.8322096,E,2,6,1.2,-0.674,M,40.592,M,1.1,0123*53
$GPVTG,262.77,T,-377.13,M,001.237,N,002.291,K,D*03
$GPGGA,130247.75,5703.7122279,N,00952.8321803,E,2,6,1.2,-0.670,M,40.592,M,1.1,0123*55
$GPVTG,263.10,T,-376.80,M,001.232,N,002.281,K,D*0C
$GPGGA,130247.80,5703.7122283,N,00952.8321500,E,2,6,1.2,-0.670,M,40.592,M,1.1,0123*54
$GPVTG,263.91,T,-375.99,M,001.231,N,002.280,K,D*0C
$GPGGA,130247.85,5703.7122267,N,00952.8321143,E,2,6,1.2,-0.654,M,40.592,M,1.3,0123*5C
$GPVTG,264.21,T,-375.69,M,001.241,N,002.299,K,D*00
$GPGGA,130247.90,5703.7122239,N,00952.8320823,E,2,6,1.2,-0.652,M,40.592,M,1.3,0123*5B
$GPVTG,263.75,T,-376.15,M,001.252,N,002.319,K,D*05
$GPGGA,130247.95,5703.7122202,N,00952.8320521,E,2,6,1.2,-0.647,M,40.592,M,1.3,0123*5D
$GPVTG,262.91,T,-376.99,M,001.252,N,002.318,K,D*0B
$GPGGA,130248.00,5703.7122190,N,00952.8320222,E,2,6,1.2,-0.643,M,40.592,M,1.3,0123*56
$GPVTG,263.09,T,-376.81,M,001.247,N,002.310,K,D*0E
$GPGGA,130248.05,5703.7122185,N,00952.8319714,E,2,6,1.2,-0.599,M,40.592,M,1.6,0123*5C
$GPVTG,263.36,T,-376.54,M,001.235,N,002.287,K,D*00
$GPGGA,130248.10,5703.7122150,N,00952.8319426,E,2,6,1.2,-0.599,M,40.592,M,1.6,0123*52
$GPVTG,262.60,T,-377.30,M,001.226,N,002.270,K,D*0B
$GPGGA,130248.15,5703.7122128,N,00952.8319111,E,2,6,1.2,-0.603,M,40.592,M,1.6,0123*59
$GPVTG,262.48,T,-377.42,M,001.232,N,002.281,K,D*0F
$GPGGA,130248.20,5703.7122129,N,00952.8318839,E,2,6,1.2,-0.604,M,40.592,M,1.6,0123*5B
$GPVTG,263.14,T,-376.76,M,001.212,N,002.244,K,D*0A
$GPGGA,130248.25,5703.7122096,N,00952.8318539,E,2,6,1.2,-0.603,M,40.592,M,1.8,0123*5F
$GPVTG,262.34,T,-377.56,M,001.204,N,002.229,K,D*06
$GPGGA,130248.30,5703.7122039,N,00952.8318229,E,2,6,1.2,-0.606,M,40.592,M,1.8,0123*5D
$GPVTG,260.81,T,-379.09,M,001.213,N,002.247,K,D*00
$GPGGA,130248.35,5703.7122050,N,00952.8317938,E,2,6,1.2,-0.609,M,40.592,M,1.8,0123*5C
$GPVTG,262.08,T,-377.82,M,001.202,N,002.226,K,D*09
$GPGGA,130248.40,5703.7122017,N,00952.8317675,E,2,6,1.2,-0.616,M,40.592,M,1.8,0123*55
$GPVTG,261.37,T,-378.53,M,001.182,N,002.189,K,D*08
$GPGGA,130248.45,5703.7121999,N,00952.8317443,E,2,6,1.2,-0.621,M,40.592,M,2.1,0123*55
$GPVTG,261.74,T,-378.16,M,001.131,N,002.095,K,D*0A
$GPGGA,130248.50,5703.7122004,N,00952.8317179,E,2,6,1.2,-0.627,M,40.592,M,2.1,0123*55
$GPVTG,262.74,T,-377.16,M,001.111,N,002.058,K,D*05
$GPGGA,130248.55,5703.7121994,N,00952.8316902,E,2,6,1.2,-0.634,M,40.592,M,2.1,0123*54
$GPVTG,263.07,T,-376.83,M,001.103,N,002.042,K,D*05
$GPGGA,130248.60,5703.7121975,N,00952.8316636,E,2,6,1.2,-0.639,M,40.592,M,2.1,0123*58
$GPVTG,262.95,T,-376.95,M,001.091,N,002.020,K,D*06
$GPGGA,130248.65,5703.7121978,N,00952.8316444,E,2,6,1.2,-0.647,M,40.592,M,2.3,0123*5C
$GPVTG,262.85,T,-377.05,M,001.037,N,001.920,K,D*09
$GPGGA,130248.70,5703.7121923,N,00952.8316234,E,2,6,1.2,-0.656,M,40.592,M,2.3,0123*57
$GPVTG,260.77,T,-379.13,M,001.002,N,001.855,K,D*0A
$GPGGA,130248.75,5703.7121932,N,00952.8316002,E,2,6,1.2,-0.666,M,40.592,M,2.3,0123*56
$GPVTG,262.00,T,-377.90,M,000.976,N,001.807,K,D*01
$GPGGA,130248.80,5703.7121902,N,00952.8315814,E,2,6,1.2,-0.676,M,40.592,M,2.3,0123*52
$GPVTG,261.01,T,-378.89,M,000.933,N,001.728,K,D*07
$GPGGA,130248.85,5703.7121904,N,00952.8315499,E,2,6,1.2,-0.666,M,40.592,M,2.5,0123*5F
$GPVTG,262.51,T,-377.39,M,000.939,N,001.740,K,D*01
$GPGGA,130248.90,5703.7121929,N,00952.8315249,E,2,6,1.2,-0.673,M,40.592,M,2.5,0123*5B
$GPVTG,264.71,T,-375.19,M,000.931,N,001.723,K,D*08
$GPGGA,130248.95,5703.7121956,N,00952.8314961,E,2,6,1.2,-0.678,M,40.592,M,2.5,0123*5D
$GPVTG,266.97,T,-372.93,M,000.946,N,001.753,K,D*00
$GPGGA,130249.00,5703.7121969,N,00952.8314728,E,2,6,1.2,-0.683,M,40.592,M,2.5,0123*5B
$GPVTG,268.27,T,-371.63,M,000.931,N,001.725,K,D*08
$GPGGA,130249.05,5703.7121997,N,00952.8314341,E,2,6,1.2,-0.673,M,40.592,M,2.7,0123*59
$GPVTG,268.16,T,-371.74,M,000.918,N,001.701,K,D*01
$GPGGA,130249.10,5703.7121995,N,00952.8314123,E,2,6,1.2,-0.683,M,40.592,M,2.7,0123*56
$GPVTG,268.56,T,-371.34,M,000.899,N,001.665,K,D*0A
$GPGGA,130249.15,5703.7121987,N,00952.8313916,E,2,6,1.2,-0.695,M,40.592,M,2.7,0123*5E
$GPVTG,268.58,T,-371.32,M,000.876,N,001.622,K,D*00
$GPGGA,130249.20,5703.7121981,N,00952.8313735,E,2,6,1.2,-0.705,M,40.592,M,2.7,0123*59
$GPVTG,268.69,T,-371.21,M,000.841,N,001.557,K,D*05
$GPGGA,130249.25,5703.7121955,N,00952.8313497,E,2,6,1.2,-0.707,M,40.592,M,2.9,0123*52
$GPVTG,268.34,T,-371.56,M,000.835,N,001.546,K,D*0E
$GPGGA,130249.30,5703.7121961,N,00952.8313313,E,2,6,1.2,-0.714,M,40.592,M,2.9,0123*58
$GPVTG,269.11,T,-370.79,M,000.805,N,001.491,K,D*0C
$GPGGA,130249.35,5703.7121954,N,00952.8313075,E,2,6,1.2,-0.720,M,40.592,M,2.9,0123*5F
$GPVTG,269.16,T,-370.74,M,000.810,N,001.501,K,D*0A
$GPGGA,130249.40,5703.7121961,N,00952.8312865,E,2,6,1.2,-0.725,M,40.592,M,2.9,0123*56
$GPVTG,269.95,T,-369.95,M,000.800,N,001.482,K,D*0D
$GPGGA,130249.45,5703.7121986,N,00952.8312649,E,2,6,1.2,-0.722,M,40.592,M,3.2,0123*57
$GPVTG,271.25,T,-368.65,M,000.794,N,001.470,K,D*0E
$GPGGA,130249.50,5703.7121981,N,00952.8312356,E,2,6,1.2,-0.726,M,40.592,M,3.2,0123*5B
$GPVTG,271.13,T,-368.77,M,000.836,N,001.548,K,D*05
$GPGGA,130249.55,5703.7121971,N,00952.8312138,E,2,6,1.2,-0.730,M,40.592,M,3.2,0123*5C
$GPVTG,270.78,T,-369.12,M,000.831,N,001.539,K,D*0A
$GPGGA,130249.60,5703.7121991,N,00952.8311874,E,2,6,1.2,-0.733,M,40.592,M,3.2,0123*55
$GPVTG,272.13,T,-367.77,M,000.854,N,001.581,K,D*08
$GPGGA,130249.65,5703.7121965,N,00952.8311695,E,2,6,1.2,-0.751,M,40.592,M,3.4,0123*58
$GPVTG,270.40,T,-369.50,M,000.846,N,001.566,K,D*0D
$GPGGA,130249.70,5703.7121963,N,00952.8311467,E,2,6,1.2,-0.752,M,40.592,M,3.4,0123*56
$GPVTG,270.47,T,-369.43,M,000.848,N,001.570,K,D*01
$GPGGA,130249.75,5703.7121941,N,00952.8311253,E,2,6,1.2,-0.754,M,40.592,M,3.4,0123*54
$GPVTG,269.37,T,-370.53,M,000.842,N,001.559,K,D*06
$GPGGA,130249.80,5703.7121905,N,00952.8310974,E,2,6,1.2,-0.752,M,40.592,M,3.4,0123*57
