$GPVTG,078.73,T,-561.17,M,006.146,N,011.382,K,D*08
$GPGGA,130001.40,5703.7145380,N,00952.8585106,E,2,7,1.1,-0.224,M,40.592,M,2.9,0123*5D
$GPVTG,078.81,T,-561.09,M,006.257,N,011.587,K,D*0A
$GPGGA,130001.45,5703.7145542,N,00952.8586734,E,2,7,1.1,-0.253,M,40.592,M,3.2,0123*5E
$GPVTG,079.23,T,-560.67,M,006.332,N,011.727,K,D*00
$GPGGA,130001.50,5703.7145650,N,00952.8588383,E,2,7,1.1,-0.270,M,40.592,M,3.2,0123*5D
$GPVTG,080.27,T,-559.63,M,006.424,N,011.897,K,D*08
$GPGGA,130001.55,5703.7145812,N,00952.8589992,E,2,7,1.1,-0.278,M,40.592,M,3.2,0123*53
$GPVTG,080.22,T,-559.68,M,006.457,N,011.958,K,D*00
$GPGGA,130001.60,5703.7145981,N,00952.8591571,E,2,7,1.1,-0.285,M,40.592,M,3.2,0123*54
$GPVTG,079.97,T,-559.93,M,006.439,N,011.926,K,D*0D
$GPGGA,130001.65,5703.7146143,N,00952.8593083,E,2,7,1.1,-0.280,M,40.592,M,3.4,0123*5D
$GPVTG,079.27,T,-560.63,M,006.361,N,011.780,K,D*0B
$GPGGA,130001.70,5703.7146305,N,00952.8594579,E,2,7,1.1,-0.279,M,40.592,M,3.4,0123*58
$GPVTG,079.07,T,-560.83,M,006.242,N,011.561,K,D*0A
$GPGGA,130001.75,5703.7146423,N,00952.8596102,E,2,7,1.1,-0.274,M,40.592,M,3.4,0123*59
$GPVTG,079.68,T,-560.22,M,006.169,N,011.424,K,D*02
$GPGGA,130001.80,5703.7146568,N,00952.8597604,E,2,7,1.1,-0.271,M,40.592,M,3.4,0123*58
$GPVTG,079.73,T,-560.17,M,006.092,N,011.282,K,D*01
$GPGGA,130001.85,5703.7146824,N,00952.8599128,E,2,7,1.1,-0.268,M,40.592,M,3.6,0123*55
$GPVTG,078.31,T,-561.59,M,006.077,N,011.255,K,D*0C
$GPGGA,130001.90,5703.7147013,N,00952.8600703,E,2,7,1.1,-0.267,M,40.592,M,3.6,0123*5F
$GPVTG,078.03,T,-561.87,M,006.140,N,011.372,K,D*0F
$GPGGA,130001.95,5703.7147179,N,00952.8602251,E,2,7,1.1,-0.273,M,40.592,M,3.6,0123*52
$GPVTG,078.10,T,-561.80,M,006.151,N,011.392,K,D*04
$GPGGA,130002.00,5703.7147363,N,00952.8603847,E,2,7,1.1,-0.285,M,40.592,M,3.6,0123*51
$GPVTG,078.02,T,-561.88,M,006.230,N,011.539,K,D*0C
$GPGGA,130002.05,5703.7147526,N,00952.8605623,E,2,7,1.1,-0.310,M,40.592,M,3.8,0123*5A
$GPVTG,078.08,T,-561.82,M,006.336,N,011.734,K,D*04
$GPGGA,130002.10,5703.7147722,N,00952.8607214,E,2,7,1.1,-0.312,M,40.592,M,3.8,0123*58
$GPVTG,077.81,T,-562.09,M,006.377,N,011.811,K,D*07
$GPGGA,130002.15,5703.7147827,N,00952.8608746,E,2,7,1.1,-0.311,M,40.592,M,3.8,0123*59
$GPVTG,078.86,T,-561.04,M,006.299,N,011.666,K,D*0E
$GPGGA,130002.20,5703.7147943,N,00952.8610199,E,2,7,1.1,-0.300,M,40.592,M,3.8,0123*51
$GPVTG,079.44,T,-560.46,M,006.132,N,011.357,K,D*03
$GPGGA,130002.25,5703.7148085,N,00952.8611594,E,2,7,1.1,-0.276,M,40.592,M,4.0,0123*5F
$GPVTG,079.45,T,-560.45,M,005.927,N,010.977,K,D*07
$GPGGA,130002.30,5703.7148193,N,00952.8613064,E,2,7,1.1,-0.259,M,40.592,M,4.0,0123*58
$GPVTG,080.21,T,-559.69,M,005.855,N,010.844,K,D*02
$GPGGA,130002.35,5703.7148364,N,00952.8614544,E,2,7,1.1,-0.245,M,40.592,M,4.0,0123*5A
$GPVTG,079.81,T,-560.09,M,005.836,N,010.808,K,D*0F
$GPGGA,130002.40,5703.7148576,N,00952.8616012,E,2,7,1.1,-0.239,M,40.592,M,4.0,0123*52
$GPVTG,078.71,T,-561.19,M,005.827,N,010.792,K,D*0D
$GPGGA,130002.45,5703.7148789,N,00952.8617558,E,2,7,1.1,-0.254,M,40.592,M,2.2,0123*50
$GPVTG,078.62,T,-561.28,M,005.879,N,010.889,K,D*03
$GPGGA,130002.50,5703.7148930,N,00952.8619086,E,2,7,1.1,-0.259,M,40.592,M,2.2,0123*5D
$GPVTG,079.06,T,-560.84,M,005.932,N,010.987,K,D*06
$GPGGA,130002.55,5703.7149081,N,00952.8620666,E,2,7,1.1,-0.271,M,40.592,M,2.2,0123*52
$GPVTG,079.39,T,-560.51,M,006.050,N,011.204,K,D*0D
$GPGGA,130002.60,5703.7149287,N,00952.8622323,E,2,7,1.1,-0.287,M,40.592,M,2.2,0123*5F
$GPVTG,078.95,T,-560.95,M,006.264,N,011.601,K,D*06
$GPGGA,130002.65,5703.7149399,N,00952.8623938,E,2,7,1.1,-0.292,M,40.592,M,2.5,0123*56
$GPVTG,079.25,T,-560.65,M,006.413,N,011.877,K,D*0A
$GPGGA,130002.70,5703.7149566,N,00952.8625550,E,2,7,1.1,-0.315,M,40.592,M,2.5,0123*5E
$GPVTG,079.29,T,-560.61,M,006.477,N,011.995,K,D*0D
$GPGGA,130002.75,5703.7149738,N,00952.8627189,E,2,7,1.1,-0.335,M,40.592,M,2.5,0123*52
$GPVTG,079.31,T,-560.59,M,006.556,N,012.142,K,D*0C
$GPGGA,130002.80,5703.7149921,N,00952.8628747,E,2,7,1.1,-0.348,M,40.592,M,2.5,0123*5F
$GPVTG,078.94,T,-560.96,M,006.508,N,012.052,K,D*0A
$GPGGA,130002.85,5703.7149975,N,00952.8630190,E,2,7,1.1,-0.332,M,40.592,M,2.7,0123*51
$GPVTG,079.70,T,-560.20,M,006.326,N,011.716,K,D*02
$GPGGA,130002.90,5703.7150161,N,00952.8631683,E,2,7,1.1,-0.322,M,40.592,M,2.7,0123*55
$GPVTG,079.09,T,-560.81,M,006.220,N,011.520,K,D*07
$GPGGA,130002.95,5703.7150297,N,00952.8633176,E,2,7,1.1,-0.310,M,40.592,M,2.7,0123*54
$GPVTG,079.37,T,-560.53,M,006.121,N,011.337,K,D*07
$GPGGA,130003.00,5703.7150453,N,00952.8634663,E,2,7,1.1,-0.294,M,40.592,M,2.7,0123*5E
$GPVTG,079.28,T,-560.62,M,006.041,N,011.188,K,D*0A
$GPGGA,130003.05,5703.7150584,N,00952.8636225,E,2,7,1.1,-0.326,M,40.592,M,2.9,0123*52
$GPVTG,079.71,T,-560.19,M,005.853,N,010.840,K,D*0E
$GPGGA,130003.10,5703.7150751,N,00952.8637651,E,2,7,1.1,-0.308,M,40.592,M,2.9,0123*56
$GPVTG,079.28,T,-560.62,M,005.758,N,010.663,K,D*05
$GPGGA,130003.15,5703.7150918,N,00952.8639034,E,2,7,1.1,-0.291,M,40.592,M,2.9,0123*5A
$GPVTG,078.77,T,-561.13,M,005.634,N,010.434,K,D*02
$GPGGA,130003.20,5703.7151062,N,00952.8640475,E,2,7,1.1,-0.274,M,40.592,M,2.9,0123*5D
$GPVTG,078.94,T,-560.96,M,005.615,N,010.398,K,D*01
$GPGGA,130003.25,5703.7151287,N,00952.8642022,E,2,7,1.1,-0.297,M,40.592,M,3.2,0123*52
$GPVTG,078.80,T,-561.10,M,005.706,N,010.568,K,D*01
$GPGGA,130003.30,5703.7151432,N,00952.8643597,E,2,7,1.1,-0.305,M,40.592,M,3.2,0123*5E
$GPVTG,079.29,T,-560.61,M,005.870,N,010.871,K,D*0F
$GPGGA,130003.35,5703.7151594,N,00952.8645158,E,2,7,1.1,-0.318,M,40.592,M,3.2,0123*5B
$GPVTG,079.36,T,-560.54,M,005.993,N,011.099,K,D*04
$GPGGA,130003.40,5703.7151782,N,00952.8646762,E,2,7,1.1,-0.336,M,40.592,M,3.2,0123*5C
$GPVTG,079.08,T,-560.82,M,006.157,N,011.402,K,D*07
$GPGGA,130003.45,5703.7151902,N,00952.8648262,E,2,7,1.1,-0.291,M,40.592,M,2.5,0123*5E
$GPVTG,078.42,T,-561.48,M,006.249,N,011.573,K,D*04
$GPGGA,130003.50,5703.7152020,N,00952.8649848,E,2,7,1.1,-0.301,M,40.592,M,2.5,0123*5B
$GPVTG,079.33,T,-560.57,M,006.309,N,011.684,K,D*02
$GPGGA,130003.55,5703.7152143,N,00952.8651366,E,2,7,1.1,-0.310,M,40.592,M,2.5,0123*54
$GPVTG,079.86,T,-560.04,M,006.261,N,011.594,K,D*07
$GPGGA,130003.60,5703.7152283,N,00952.8652993,E,2,7,1.1,-0.316,M,40.592,M,2.5,0123*58
$GPVTG,080.28,T,-559.62,M,006.365,N,011.788,K,D*05
$GPGGA,130003.65,5703.7152437,N,00952.8654565,E,2,7,1.1,-0.340,M,40.592,M,2.7,0123*56
$GPVTG,080.32,T,-559.58,M,006.356,N,011.771,K,D*01
$GPGGA,130003.70,5703.7152565,N,00952.8656087,E,2,7,1.1,-0.343,M,40.592,M,2.7,0123*5C
$GPVTG,080.61,T,-559.29,M,006.285,N,011.640,K,D*0D
$GPGGA,130003.75,5703.7152694,N,00952.8657576,E,2,7,1.1,-0.343,M,40.592,M,2.7,0123*5E
$GPVTG,080.76,T,-559.14,M,006.179,N,011.444,K,D*03
$GPGGA,130003.80,5703.7152813,N,00952.8659022,E,2,7,1.1,-0.334,M,40.592,M,2.7,0123*5F
$GPVTG,080.98,T,-558.92,M,006.033,N,011.173,K,D*02
$GPGGA,130003.85,5703.7153011,N,00952.8660499,E,2,7,1.1,-0.335,M,40.592,M,3.0,0123*58
$GPVTG,080.31,T,-559.59,M,005.941,N,011.003,K,D*0E
$GPGGA,130003.90,5703.7153214,N,00952.8661983,E,2,7,1.1,-0.328,M,40.592,M,3.0,0123*50
$GPVTG,079.22,T,-560.68,M,005.922,N,010.968,K,D*02
$GPGGA,130003.95,5703.7153407,N,00952.8663483,E,2,7,1.1,-0.326,M,40.592,M,3.0,0123*50
$GPVTG,078.50,T,-561.40,M,005.933,N,010.987,K,D*0C
$GPGGA,130004.00,5703.7153526,N,00952.8664994,E,2,7,1.1,-0.321,M,40.592,M,3.0,0123*52
$GPVTG,079.20,T,-560.70,M,005.937,N,010.995,K,D*0F
$GPGGA,130004.05,5703.7153560,N,00952.8666568,E,2,7,1.1,-0.327,M,40.592,M,3.2,0123*5C
$GPVTG,079.97,T,-559.93,M,005.934,N,010.990,K,D*02
$GPGGA,130004.10,5703.7153763,N,00952.8668092,E,2,7,1.1,-0.327,M,40.592,M,3.2,0123*57
$GPVTG,079.09,T,-560.81,M,005.988,N,011.090,K,D*03
$GPGGA,130004.15,5703.7153976,N,00952.8669634,E,2,7,1.1,-0.328,M,40.592,M,3.2,0123*5C
$GPVTG,078.20,T,-561.70,M,006.064,N,011.231,K,D*07
$GPGGA,130004.20,5703.7154138,N,00952.8671151,E,2,7,1.1,-0.330,M,40.592,M,3.2,0123*5B
$GPVTG,078.24,T,-561.66,M,006.076,N,011.252,K,D*02
$GPGGA,130004.25,5703.7154228,N,00952.8672712,E,2,7,1.1,-0.325,M,40.592,M,3.4,0123*5C
$GPVTG,079.29,T,-560.61,M,006.143,N,011.377,K,D*09
$GPGGA,130004.30,5703.7154380,N,00952.8674324,E,2,7,1.1,-0.333,M,40.592,M,3.4,0123*5B
$GPVTG,079.59,T,-560.31,M,006.260,N,011.593,K,D*05
$GPGGA,130004.35,5703.7154571,N,00952.8675921,E,2,7,1.1,-0.345,M,40.592,M,3.4,0123*59
$GPVTG,079.16,T,-560.74,M,006.342,N,011.745,K,D*07
$GPGGA,130004.40,5703.7154767,N,00952.8677526,E,2,7,1.1,-0.360,M,40.592,M,3.4,0123*50
$GPVTG,078.72,T,-561.18,M,006.415,N,011.881,K,D*0D
$GPGGA,130004.45,5703.7154898,N,00952.8679111,E,2,7,1.1,-0.382,M,40.592,M,2.1,0123*5C
$GPVTG,079.16,T,-560.74,M,006.421,N,011.891,K,D*03
$GPGGA,130004.50,5703.7154971,N,00952.8680642,E,2,7,1.1,-0.381,M,40.592,M,2.1,0123*5A
$GPVTG,080.49,T,-559.41,M,006.330,N,011.722,K,D*03
$GPGGA,130004.55,5703.7155068,N,00952.8682094,E,2,7,1.1,-0.366,M,40.592,M,2.1,0123*59
$GPVTG,081.13,T,-558.77,M,006.151,N,011.392,K,D*03
$GPGGA,130004.60,5703.7155175,N,00952.8683498,E,2,7,1.1,-0.347,M,40.592,M,2.1,0123*58
$GPVTG,081.45,T,-558.45,M,005.944,N,011.009,K,D*0F
$GPGGA,130004.65,5703.7155380,N,00952.8684901,E,2,7,1.1,-0.338,M,40.592,M,2.3,0123*55
$GPVTG,080.63,T,-559.27,M,005.761,N,010.669,K,D*07
$GPGGA,130004.70,5703.7155540,N,00952.8686313,E,2,7,1.1,-0.320,M,40.592,M,2.3,0123*59
$GPVTG,080.10,T,-559.80,M,005.667,N,010.495,K,D*08
$GPGGA,130004.75,5703.7155647,N,00952.8687743,E,2,7,1.1,-0.310,M,40.592,M,2.3,0123*5B
$GPVTG,080.61,T,-559.29,M,005.610,N,010.391,K,D*0E
$GPGGA,130004.80,5703.7155808,N,00952.8689221,E,2,7,1.1,-0.303,M,40.592,M,2.3,0123*59
$GPVTG,080.23,T,-559.67,M,005.653,N,010.469,K,D*05
$GPGGA,130004.85,5703.7155986,N,00952.8690710,E,2,7,1.1,-0.280,M,40.592,M,2.5,0123*58
$GPVTG,079.71,T,-560.19,M,005.727,N,010.607,K,D*0F
$GPGGA,130004.90,5703.7156172,N,00952.8692248,E,2,7,1.1,-0.278,M,40.592,M,2.5,0123*51
$GPVTG,079.17,T,-560.73,M,005.854,N,010.841,K,D*04
$GPGGA,130004.95,5703.7156310,N,00952.8693820,E,2,7,1.1,-0.285,M,40.592,M,2.5,0123*55
$GPVTG,079.58,T,-560.32,M,005.988,N,011.090,K,D*0F
$GPGGA,130005.00,5703.7156463,N,00952.8695456,E,2,7,1.1,-0.295,M,40.592,M,2.5,0123*51
$GPVTG,079.84,T,-560.06,M,006.186,N,011.456,K,D*02
$GPGGA,130005.05,5703.7156482,N,00952.8697082,E,2,7,1.1,-0.337,M,40.592,M,2.7,0123*5F
$GPVTG,080.04,T,-559.86,M,006.274,N,011.619,K,D*09
$GPGGA,130005.10,5703.7156663,N,00952.8698734,E,2,7,1.1,-0.362,M,40.592,M,2.7,0123*53
$GPVTG,079.77,T,-560.13,M,006.436,N,011.920,K,D*08
$GPGGA,130005.15,5703.7156857,N,00952.8700418,E,2,7,1.1,-0.390,M,40.592,M,2.7,0123*5F
$GPVTG,079.39,T,-560.51,M,006.604,N,012.230,K,D*0E
$GPGGA,130005.20,5703.7156971,N,00952.8702118,E,2,7,1.1,-0.420,M,40.592,M,2.7,0123*57
$GPVTG,080.28,T,-559.62,M,006.725,N,012.456,K,D*06
$GPGGA,130005.25,5703.7157107,N,00952.8703736,E,2,7,1.1,-0.448,M,40.592,M,2.9,0123*51
$GPVTG,079.93,T,-559.97,M,006.744,N,012.490,K,D*07
$GPGGA,130005.30,5703.7157290,N,00952.8705204,E,2,7,1.1,-0.437,M,40.592,M,2.9,0123*52
$GPVTG,079.19,T,-560.71,M,006.524,N,012.082,K,D*04
$GPGGA,130005.35,5703.7157359,N,00952.8706450,E,2,7,1.1,-0.402,M,40.592,M,2.9,0123*51
$GPVTG,079.88,T,-560.02,M,006.009,N,011.129,K,D*01
$GPGGA,130005.40,5703.7157355,N,00952.8707702,E,2,7,1.1,-0.374,M,40.592,M,2.9,0123*5C
$GPVTG,081.95,T,-557.95,M,005.583,N,010.339,K,D*06
$GPGGA,130005.45,5703.7157602,N,00952.8709232,E,2,7,1.1,-0.363,M,40.592,M,0.8,0123*53
$GPVTG,081.13,T,-558.77,M,005.598,N,010.367,K,D*0A
$GPGGA,130005.50,5703.7157758,N,00952.8710690,E,2,7,1.1,-0.347,M,40.592,M,0.8,0123*5B
$GPVTG,080.71,T,-559.19,M,005.593,N,010.358,K,D*01
$GPGGA,130005.55,5703.7157840,N,00952.8712128,E,2,7,1.1,-0.336,M,40.592,M,0.8,0123*58
$GPVTG,081.58,T,-558.32,M,005.557,N,010.291,K,D*0F
$GPGGA,130005.60,5703.7157932,N,00952.8713591,E,2,7,1.1,-0.327,M,40.592,M,0.8,0123*5D
$GPVTG,082.23,T,-557.67,M,005.574,N,010.323,K,D*06
$GPGGA,130005.65,5703.7158129,N,00952.8715101,E,2,7,1.1,-0.302,M,40.592,M,1.1,0123*51
$GPVTG,081.04,T,-558.86,M,005.696,N,010.549,K,D*05
$GPGGA,130005.70,5703.7158279,N,00952.8716649,E,2,7,1.1,-0.304,M,40.592,M,1.1,0123*5D
$GPVTG,080.88,T,-559.02,M,005.830,N,010.797,K,D*0E
$GPGGA,130005.75,5703.7158381,N,00952.8718247,E,2,7,1.1,-0.309,M,40.592,M,1.1,0123*57
$GPVTG,081.61,T,-558.29,M,005.996,N,011.104,K,D*00
$GPGGA,130005.80,5703.7158496,N,00952.8719863,E,2,7,1.1,-0.322,M,40.592,M,1.1,0123*58
$GPVTG,082.01,T,-557.89,M,006.156,N,011.400,K,D*06
$GPGGA,130005.85,5703.7158638,N,00952.8721464,E,2,7,1.1,-0.337,M,40.592,M,1.4,0123*5A
$GPVTG,081.42,T,-558.48,M,006.294,N,011.656,K,D*0C
$GPGGA,130005.90,5703.7158843,N,00952.8723053,E,2,7,1.1,-0.353,M,40.592,M,1.4,0123*5C
$GPVTG,080.30,T,-559.60,M,006.375,N,011.807,K,D*07
$GPGGA,130005.95,5703.7159022,N,00952.8724626,E,2,7,1.1,-0.365,M,40.592,M,1.4,0123*51
$GPVTG,079.73,T,-560.17,M,006.405,N,011.862,K,D*0F
$GPGGA,130006.00,5703.7159140,N,00952.8726144,E,2,7,1.1,-0.375,M,40.592,M,1.4,0123*5B
$GPVTG,080.08,T,-559.82,M,006.330,N,011.723,K,D*08
$GPGGA,130006.05,5703.7159134,N,00952.8727784,E,2,7,1.1,-0.408,M,40.592,M,1.7,0123*58
$GPVTG,080.84,T,-559.06,M,006.365,N,011.788,K,D*01
$GPGGA,130006.10,5703.7159299,N,00952.8729357,E,2,7,1.1,-0.414,M,40.592,M,1.7,0123*51
$GPVTG,080.41,T,-559.49,M,006.370,N,011.797,K,D*09
$GPGGA,130006.15,5703.7159440,N,00952.8730927,E,2,7,1.1,-0.420,M,40.592,M,1.7,0123*54
$GPVTG,080.42,T,-559.48,M,006.358,N,011.774,K,D*0C
$GPGGA,130006.20,5703.7159582,N,00952.8732462,E,2,7,1.1,-0.423,M,40.592,M,1.7,0123*50
$GPVTG,080.35,T,-559.55,M,006.297,N,011.663,K,D*05
$GPGGA,130006.25,5703.7159704,N,00952.8734054,E,2,7,1.1,-0.444,M,40.592,M,2.0,0123*5B
$GPVTG,081.03,T,-558.87,M,006.279,N,011.630,K,D*09
$GPGGA,130006.30,5703.7159853,N,00952.8735618,E,2,7,1.1,-0.440,M,40.592,M,2.0,0123*59
$GPVTG,080.84,T,-559.06,M,006.269,N,011.611,K,D*0D
$GPGGA,130006.35,5703.7159892,N,00952.8737033,E,2,7,1.1,-0.425,M,40.592,M,2.0,0123*5F
$GPVTG,082.18,T,-557.72,M,006.034,N,011.175,K,D*08
$GPGGA,130006.40,5703.7159973,N,00952.8738394,E,2,7,1.1,-0.401,M,40.592,M,2.0,0123*54
$GPVTG,082.61,T,-557.29,M,005.784,N,010.712,K,D*01
$GPGGA,130006.45,5703.7160170,N,00952.8739818,E,2,7,1.1,-0.388,M,40.592,M,1.1,0123*5A
$GPVTG,081.77,T,-558.13,M,005.655,N,010.473,K,D*0A
$GPGGA,130006.50,5703.7160256,N,00952.8741204,E,2,7,1.1,-0.375,M,40.592,M,1.1,0123*53
$GPVTG,082.23,T,-557.67,M,005.530,N,010.242,K,D*00
$GPGGA,130006.55,5703.7160402,N,00952.8742717,E,2,7,1.1,-0.365,M,40.592,M,1.1,0123*54
$GPVTG,081.81,T,-558.09,M,005.625,N,010.418,K,D*02
$GPGGA,130006.60,5703.7160535,N,00952.8744186,E,2,7,1.1,-0.367,M,40.592,M,1.1,0123*5D
$GPVTG,081.58,T,-558.32,M,005.651,N,010.466,K,D*04
$GPGGA,130006.65,5703.7160657,N,00952.8745638,E,2,7,1.1,-0.367,M,40.592,M,1.4,0123*59
$GPVTG,081.55,T,-558.35,M,005.664,N,010.490,K,D*01
$GPGGA,130006.70,5703.7160747,N,00952.8747068,E,2,7,1.1,-0.382,M,40.592,M,1.4,0123*57
$GPVTG,082.02,T,-557.88,M,005.635,N,010.436,K,D*01
$GPGGA,130006.75,5703.7160862,N,00952.8748493,E,2,7,1.1,-0.406,M,40.592,M,1.4,0123*5E
$GPVTG,081.99,T,-557.91,M,005.616,N,010.400,K,D*0C
$GPGGA,130006.80,5703.7161043,N,00952.8749911,E,2,7,1.1,-0.429,M,40.592,M,1.4,0123*55
$GPVTG,080.77,T,-559.13,M,005.614,N,010.397,K,D*02
$GPGGA,130006.85,5703.7161106,N,00952.8751344,E,2,7,1.1,-0.459,M,40.592,M,1.7,0123*57
$GPVTG,081.01,T,-558.89,M,005.656,N,010.476,K,D*0E
$GPGGA,130006.90,5703.7161207,N,00952.8752688,E,2,7,1.1,-0.485,M,40.592,M,1.7,0123*56
$GPVTG,081.19,T,-558.71,M,005.534,N,010.249,K,D*0D
$GPGGA,130006.95,5703.7161337,N,00952.8753964,E,2,7,1.1,-0.505,M,40.592,M,1.7,0123*54
$GPVTG,080.68,T,-559.22,M,005.356,N,009.920,K,D*03
$GPGGA,130007.00,5703.7161475,N,00952.8755209,E,2,7,1.1,-0.527,M,40.592,M,1.7,0123*5E
$GPVTG,079.99,T,-559.91,M,005.182,N,009.597,K,D*08
$GPGGA,130007.05,5703.7161436,N,00952.8756467,E,2,7,1.1,-0.593,M,40.592,M,2.0,0123*5A
$GPVTG,081.13,T,-558.77,M,004.974,N,009.211,K,D*0D
$GPGGA,130007.10,5703.7161510,N,00952.8757632,E,2,7,1.1,-0.611,M,40.592,M,2.0,0123*51
$GPVTG,081.58,T,-558.32,M,004.769,N,008.832,K,D*0B
$GPGGA,130007.15,5703.7161641,N,00952.8758831,E,2,7,1.1,-0.624,M,40.592,M,2.0,0123*57
$GPVTG,080.86,T,-559.04,M,004.680,N,008.667,K,D*05
$GPGGA,130007.20,5703.7161729,N,00952.8759951,E,2,7,1.1,-0.632,M,40.592,M,2.0,0123*5F
$GPVTG,081.00,T,-558.90,M,004.509,N,008.351,K,D*04
$GPGGA,130007.25,5703.7161846,N,00952.8761047,E,2,7,1.1,-0.662,M,40.592,M,2.3,0123*5F
$GPVTG,081.03,T,-558.87,M,004.318,N,007.997,K,D*08
$GPGGA,130007.30,5703.7161932,N,00952.8762070,E,2,7,1.1,-0.663,M,40.592,M,2.3,0123*5F
$GPVTG,081.01,T,-558.89,M,004.122,N,007.635,K,D*08
$GPGGA,130007.35,5703.7162005,N,00952.8763108,E,2,7,1.1,-0.666,M,40.592,M,2.3,0123*5E
$GPVTG,081.38,T,-558.52,M,004.001,N,007.410,K,D*01
$GPGGA,130007.40,5703.7162140,N,00952.8764144,E,2,7,1.1,-0.670,M,40.592,M,2.3,0123*54
$GPVTG,080.17,T,-559.73,M,003.939,N,007.295,K,D*01
$GPGGA,130007.45,5703.7162234,N,00952.8765126,E,2,7,1.1,-0.642,M,40.592,M,0.8,0123*5C
$GPVTG,080.05,T,-559.85,M,003.845,N,007.121,K,D*0D
$GPGGA,130007.50,5703.7162339,N,00952.8766155,E,2,7,1.1,-0.641,M,40.592,M,0.8,0123*50
$GPVTG,079.77,T,-560.13,M,003.840,N,007.111,K,D*0D
$GPGGA,130007.55,5703.7162425,N,00952.8767151,E,2,7,1.1,-0.645,M,40.592,M,0.8,0123*5E
$GPVTG,080.00,T,-559.90,M,003.799,N,007.036,K,D*05
$GPGGA,130007.60,5703.7162479,N,00952.8768184,E,2,7,1.1,-0.652,M,40.592,M,0.8,0123*50
$GPVTG,081.24,T,-558.66,M,003.824,N,007.082,K,D*0C
$GPGGA,130007.65,5703.7162609,N,00952.8769221,E,2,7,1.1,-0.666,M,40.592,M,1.1,0123*52
$GPVTG,080.57,T,-559.33,M,003.832,N,007.098,K,D*04
$GPGGA,130007.70,5703.7162794,N,00952.8770265,E,2,7,1.1,-0.680,M,40.592,M,1.1,0123*53
$GPVTG,078.93,T,-560.97,M,003.901,N,007.225,K,D*0A
$GPGGA,130007.75,5703.7162923,N,00952.8771387,E,2,7,1.1,-0.699,M,40.592,M,1.1,0123*50
$GPVTG,078.74,T,-561.16,M,004.053,N,007.506,K,D*04
$GPGGA,130007.80,5703.7163021,N,00952.8772446,E,2,7,1.1,-0.720,M,40.592,M,1.1,0123*5A
$GPVTG,078.97,T,-560.93,M,004.105,N,007.603,K,D*01
$GPGGA,130007.85,5703.7163022,N,00952.8773475,E,2,7,1.1,-0.717,M,40.592,M,1.3,0123*5B
$GPVTG,079.19,T,-560.71,M,004.094,N,007.583,K,D*08
$GPGGA,130007.90,5703.7163114,N,00952.8774495,E,2,7,1.1,-0.738,M,40.592,M,1.3,0123*5F
$GPVTG,079.42,T,-560.48,M,004.089,N,007.573,K,D*0F
$GPGGA,130007.95,5703.7163249,N,00952.8775537,E,2,7,1.1,-0.752,M,40.592,M,1.3,0123*55
$GPVTG,078.80,T,-561.10,M,004.123,N,007.636,K,D*0F
$GPGGA,130008.00,5703.7163334,N,00952.8776557,E,2,7,1.1,-0.764,M,40.592,M,1.3,0123*5D
$GPVTG,079.20,T,-560.70,M,004.109,N,007.610,K,D*0F
$GPGGA,130008.05,5703.7163285,N,00952.8777531,E,2,7,1.1,-0.798,M,40.592,M,1.6,0123*54
$GPVTG,079.08,T,-560.82,M,004.068,N,007.534,K,D*0B
$GPGGA,130008.10,5703.7163362,N,00952.8778510,E,2,7,1.1,-0.802,M,40.592,M,1.6,0123*58
$GPVTG,079.57,T,-560.33,M,004.010,N,007.427,K,D*07
$GPGGA,130008.15,5703.7163478,N,00952.8779516,E,2,7,1.1,-0.804,M,40.592,M,1.6,0123*50
$GPVTG,079.23,T,-560.67,M,004.008,N,007.424,K,D*0F
$GPGGA,130008.20,5703.7163538,N,00952.8780491,E,2,7,1.1,-0.799,M,40.592,M,1.6,0123*50
$GPVTG,080.09,T,-559.81,M,003.955,N,007.324,K,D*02
$GPGGA,130008.25,5703.7163670,N,00952.8781426,E,2,7,1.1,-0.794,M,40.592,M,1.8,0123*54
$GPVTG,080.56,T,-559.34,M,003.875,N,007.176,K,D*00
$GPGGA,130008.30,5703.7163737,N,00952.8782382,E,2,7,1.1,-0.784,M,40.592,M,1.8,0123*59
$GPVTG,081.18,T,-558.72,M,003.825,N,007.085,K,D*00
$GPGGA,130008.35,5703.7163799,N,00952.8783430,E,2,7,1.1,-0.772,M,40.592,M,1.8,0123*5E
$GPVTG,082.07,T,-557.83,M,003.905,N,007.231,K,D*02
$GPGGA,130008.40,5703.7163918,N,00952.8784359,E,2,7,1.1,-0.759,M,40.592,M,1.8,0123*5D
$GPVTG,081.05,T,-558.85,M,003.836,N,007.105,K,D*0F
$GPGGA,130008.45,5703.7164117,N,00952.8785314,E,2,7,1.1,-0.753,M,40.592,M,2.1,0123*50
$GPVTG,079.87,T,-560.03,M,003.843,N,007.117,K,D*06
$GPGGA,130008.50,5703.7164226,N,00952.8786287,E,2,7,1.1,-0.743,M,40.592,M,2.1,0123*5C
$GPVTG,079.48,T,-560.42,M,003.847,N,007.124,K,D*04
$GPGGA,130008.55,5703.7164321,N,00952.8787249,E,2,7,1.1,-0.737,M,40.592,M,2.1,0123*5F
$GPVTG,079.45,T,-560.45,M,003.833,N,007.098,K,D*0B
$GPGGA,130008.60,5703.7164455,N,00952.8788197,E,2,7,1.1,-0.727,M,40.592,M,2.1,0123*53
$GPVTG,078.47,T,-561.43,M,003.819,N,007.073,K,D*02
$GPGGA,130008.65,5703.7164536,N,00952.8789164,E,2,7,1.1,-0.691,M,40.592,M,2.3,0123*51
$GPVTG,078.25,T,-561.65,M,003.817,N,007.070,K,D*0F
$GPGGA,130008.70,5703.7164629,N,00952.8790206,E,2,7,1.1,-0.684,M,40.592,M,2.3,0123*53
$GPVTG,078.82,T,-561.08,M,003.916,N,007.252,K,D*0B
$GPGGA,130008.75,5703.7164753,N,00952.8791199,E,2,7,1.1,-0.677,M,40.592,M,2.3,0123*52
$GPVTG,078.32,T,-561.58,M,003.947,N,007.310,K,D*06
$GPGGA,130008.80,5703.7164832,N,00952.8792163,E,2,7,1.1,-0.670,M,40.592,M,2.3,0123*51
$GPVTG,078.91,T,-560.99,M,003.920,N,007.260,K,D*04
$GPGGA,130008.85,5703.7164896,N,00952.8793178,E,2,7,1.1,-0.659,M,40.592,M,2.5,0123*5C
$GPVTG,079.10,T,-560.80,M,003.956,N,007.327,K,D*07
$GPGGA,130008.90,5703.7165012,N,00952.8794098,E,2,7,1.1,-0.652,M,40.592,M,2.5,0123*5E
$GPVTG,078.38,T,-561.52,M,003.885,N,007.195,K,D*06
$GPGGA,130008.95,5703.7165092,N,00952.8795099,E,2,7,1.1,-0.652,M,40.592,M,2.5,0123*53
$GPVTG,079.35,T,-560.55,M,003.910,N,007.241,K,D*0B
$GPGGA,130009.00,5703.7165178,N,00952.8796143,E,2,7,1.1,-0.650,M,40.592,M,2.5,0123*5C
$GPVTG,080.04,T,-559.86,M,003.988,N,007.386,K,D*00
$GPGGA,130009.05,5703.7165099,N,00952.8797085,E,2,7,1.1,-0.681,M,40.592,M,2.7,0123*53
$GPVTG,079.93,T,-559.97,M,003.969,N,007.350,K,D*0C
$GPGGA,130009.10,5703.7165226,N,00952.8798071,E,2,7,1.1,-0.686,M,40.592,M,2.7,0123*52
$GPVTG,079.08,T,-560.82,M,003.977,N,007.365,K,D*09
$GPGGA,130009.15,5703.7165336,N,00952.8799062,E,2,7,1.1,-0.695,M,40.592,M,2.7,0123*56
$GPVTG,078.89,T,-561.01,M,003.982,N,007.375,K,D*00
$GPGGA,130009.20,5703.7165459,N,00952.8800058,E,2,7,1.1,-0.707,M,40.592,M,2.7,0123*52
$GPVTG,078.35,T,-561.55,M,003.998,N,007.404,K,D*0C
$GPGGA,130009.25,5703.7165603,N,00952.8801032,E,2,7,1.1,-0.708,M,40.592,M,2.9,0123*56
$GPVTG,077.30,T,-562.60,M,003.958,N,007.330,K,D*0F
$GPGGA,130009.30,5703.7165711,N,00952.8801954,E,2,7,1.1,-0.717,M,40.592,M,2.9,0123*57
$GPVTG,077.03,T,-562.87,M,003.882,N,007.190,K,D*08
$GPGGA,130009.35,5703.7165820,N,00952.8802914,E,2,7,1.1,-0.721,M,40.592,M,2.9,0123*5D
$GPVTG,076.99,T,-562.91,M,003.868,N,007.164,K,D*02
$GPGGA,130009.40,5703.7165882,N,00952.8803867,E,2,7,1.1,-0.724,M,40.592,M,2.9,0123*56
$GPVTG,077.93,T,-561.97,M,003.834,N,007.101,K,D*06
$GPGGA,130009.45,5703.7165968,N,00952.8804778,E,2,7,1.1,-0.734,M,40.592,M,0.8,0123*52
$GPVTG,078.40,T,-561.50,M,003.765,N,006.973,K,D*0B
$GPGGA,130009.50,5703.7166095,N,00952.8805691,E,2,7,1.1,-0.725,M,40.592,M,0.8,0123*59
$GPVTG,077.74,T,-562.16,M,003.721,N,006.891,K,D*0F
$GPGGA,130009.55,5703.7166202,N,00952.8806547,E,2,7,1.1,-0.714,M,40.592,M,0.8,0123*59
$GPVTG,077.41,T,-562.49,M,003.611,N,006.687,K,D*08
$GPGGA,130009.60,5703.7166285,N,00952.8807413,E,2,7,1.1,-0.703,M,40.592,M,0.8,0123*57
$GPVTG,077.81,T,-562.09,M,003.531,N,006.539,K,D*07
$GPGGA,130009.65,5703.7166384,N,00952.8808324,E,2,7,1.1,-0.685,M,40.592,M,1.1,0123*59
$GPVTG,078.23,T,-561.67,M,003.553,N,006.579,K,D*0B
$GPGGA,130009.70,5703.7166417,N,00952.8809224,E,2,6,1.1,-0.674,M,40.592,M,1.1,0123*5F
$GPVTG,080.12,T,-559.78,M,003.521,N,006.521,K,D*03
$GPGGA,130009.75,5703.7166466,N,00952.8810070,E,2,6,1.1,-0.666,M,40.592,M,1.1,0123*54
$GPVTG,081.13,T,-558.77,M,003.438,N,006.366,K,D*01
$GPGGA,130009.80,5703.7166564,N,00952.8810932,E,2,6,1.1,-0.657,M,40.592,M,1.1,0123*50
$GPVTG,080.79,T,-559.11,M,003.407,N,006.310,K,D*00
$GPGGA,130009.85,5703.7166715,N,00952.8811763,E,2,7,1.1,-0.670,M,40.592,M,1.4,0123*5B
$GPVTG,079.39,T,-560.51,M,003.365,N,006.232,K,D*0E
$GPGGA,130009.90,5703.7166819,N,00952.8812604,E,2,7,1.1,-0.666,M,40.592,M,1.4,0123*58
$GPVTG,078.90,T,-561.00,M,003.336,N,006.177,K,D*0D
$GPGGA,130009.95,5703.7166950,N,00952.8813441,E,2,7,1.1,-0.666,M,40.592,M,1.4,0123*53
$GPVTG,077.75,T,-562.15,M,003.322,N,006.153,K,D*0D
$GPGGA,130010.00,5703.7167034,N,00952.8814311,E,2,7,1.1,-0.669,M,40.592,M,1.4,0123*57
$GPVTG,078.18,T,-561.72,M,003.342,N,006.190,K,D*02
$GPGGA,130010.05,5703.7166879,N,00952.8815100,E,2,7,1.1,-0.656,M,40.592,M,1.7,0123*5E
$GPVTG,078.48,T,-561.42,M,003.338,N,006.181,K,D*09
$GPGGA,130010.10,5703.7167002,N,00952.8816002,E,2,7,1.1,-0.660,M,40.592,M,1.7,0123*5A
$GPVTG,077.91,T,-561.99,M,003.418,N,006.330,K,D*09
$GPGGA,130010.15,5703.7167086,N,00952.8816837,E,2,7,1.1,-0.668,M,40.592,M,1.7,0123*55
$GPVTG,078.18,T,-561.72,M,003.388,N,006.274,K,D*0D
$GPGGA,130010.20,5703.7167172,N,00952.8817653,E,2,7,1.1,-0.674,M,40.592,M,1.7,0123*59
$GPVTG,078.30,T,-561.60,M,003.342,N,006.188,K,D*02
$GPGGA,130010.25,5703.7167231,N,00952.8818428,E,2,7,1.1,-0.681,M,40.592,M,2.0,0123*57
$GPVTG,077.89,T,-562.01,M,003.249,N,006.017,K,D*06
$GPGGA,130010.30,5703.7167322,N,00952.8819236,E,2,7,1.1,-0.682,M,40.592,M,2.0,0123*5B
$GPVTG,077.90,T,-562.00,M,003.224,N,005.970,K,D*0F
$GPGGA,130010.35,5703.7167421,N,00952.8820073,E,2,7,1.1,-0.682,M,40.592,M,2.0,0123*53
$GPVTG,077.86,T,-562.04,M,003.247,N,006.013,K,D*06
$GPGGA,130010.40,5703.7167530,N,00952.8820823,E,2,7,1.1,-0.686,M,40.592,M,2.0,0123*59
$GPVTG,077.11,T,-562.79,M,003.163,N,005.858,K,D*03
$GPGGA,130010.45,5703.7167608,N,00952.8821553,E,2,7,1.1,-0.682,M,40.592,M,1.1,0123*59
$GPVTG,077.03,T,-562.87,M,003.076,N,005.696,K,D*08
$GPGGA,130010.50,5703.7167684,N,00952.8822346,E,2,7,1.1,-0.683,M,40.592,M,1.1,0123*59
$GPVTG,077.67,T,-562.23,M,003.074,N,005.693,K,D*03
$GPGGA,130010.55,5703.7167769,N,00952.8823128,E,2,7,1.1,-0.686,M,40.592,M,1.1,0123*50
$GPVTG,077.89,T,-562.01,M,003.067,N,005.679,K,D*05
$GPGGA,130010.60,5703.7167854,N,00952.8823892,E,2,7,1.1,-0.691,M,40.592,M,1.1,0123*59
$GPVTG,078.01,T,-561.89,M,003.042,N,005.634,K,D*07
$GPGGA,130010.65,5703.7167924,N,00952.8824659,E,2,7,1.1,-0.707,M,40.592,M,1.4,0123*5F
$GPVTG,078.39,T,-561.51,M,003.029,N,005.609,K,D*0A
$GPGGA,130010.70,5703.7168050,N,00952.8825390,E,2,7,1.1,-0.710,M,40.592,M,1.4,0123*59
$GPVTG,076.93,T,-562.97,M,002.994,N,005.544,K,D*09
$GPGGA,130010.75,5703.7168137,N,00952.8826139,E,2,7,1.1,-0.715,M,40.592,M,1.4,0123*5B
$GPVTG,077.05,T,-562.85,M,002.977,N,005.514,K,D*0C
$GPGGA,130010.80,5703.7168209,N,00952.8826848,E,2,7,1.1,-0.718,M,40.592,M,1.4,0123*5D
$GPVTG,077.47,T,-562.43,M,002.911,N,005.391,K,D*0B
$GPGGA,130010.85,5703.7168271,N,00952.8827590,E,2,7,1.1,-0.717,M,40.592,M,1.7,0123*52
$GPVTG,079.12,T,-560.78,M,002.898,N,005.367,K,D*06
$GPGGA,130010.90,5703.7168357,N,00952.8828349,E,2,7,1.1,-0.719,M,40.592,M,1.7,0123*50
$GPVTG,078.94,T,-560.96,M,002.924,N,005.416,K,D*0E
$GPGGA,130010.95,5703.7168437,N,00952.8829044,E,2,7,1.1,-0.723,M,40.592,M,1.7,0123*52
$GPVTG,078.75,T,-561.15,M,002.864,N,005.304,K,D*0A
$GPGGA,130011.00,5703.7168521,N,00952.8829747,E,2,7,1.1,-0.716,M,40.592,M,1.7,0123*5B
$GPVTG,078.50,T,-561.40,M,002.831,N,005.243,K,D*0F
$GPGGA,130011.05,5703.7168376,N,00952.8830311,E,2,7,1.1,-0.718,M,40.592,M,2.0,0123*5F
$GPVTG,078.17,T,-561.73,M,002.790,N,005.167,K,D*0D
$GPGGA,130011.10,5703.7168427,N,00952.8831020,E,2,7,1.1,-0.721,M,40.592,M,2.0,0123*52
$GPVTG,079.46,T,-560.44,M,002.772,N,005.133,K,D*00
$GPGGA,130011.15,5703.7168464,N,00952.8831764,E,2,7,1.1,-0.721,M,40.592,M,2.0,0123*57
$GPVTG,081.30,T,-558.60,M,002.802,N,005.189,K,D*02
$GPGGA,130011.20,5703.7168527,N,00952.8832493,E,2,7,1.1,-0.722,M,40.592,M,2.0,0123*5C
$GPVTG,081.57,T,-558.33,M,002.820,N,005.223,K,D*06
$GPGGA,130011.25,5703.7168616,N,00952.8833192,E,2,7,1.1,-0.734,M,40.592,M,2.3,0123*59
$GPVTG,079.97,T,-559.93,M,002.827,N,005.235,K,D*06
$GPGGA,130011.30,5703.7168681,N,00952.8833882,E,2,7,1.1,-0.741,M,40.592,M,2.3,0123*59
$GPVTG,080.15,T,-559.75,M,002.795,N,005.177,K,D*01
$GPGGA,130011.35,5703.7168774,N,00952.8834548,E,2,7,1.1,-0.748,M,40.592,M,2.3,0123*52
$GPVTG,078.92,T,-560.98,M,002.751,N,005.095,K,D*05
$GPGGA,130011.40,5703.7168854,N,00952.8835290,E,2,7,1.1,-0.749,M,40.592,M,2.3,0123*5F
$GPVTG,078.84,T,-561.06,M,002.809,N,005.202,K,D*0A
$GPGGA,130011.45,5703.7168948,N,00952.8835982,E,2,7,1.1,-0.730,M,40.592,M,0.8,0123*59
$GPVTG,078.83,T,-561.07,M,002.753,N,005.099,K,D*0C
$GPGGA,130011.50,5703.7169031,N,00952.8836682,E,2,7,1.1,-0.731,M,40.592,M,0.8,0123*56
$GPVTG,078.46,T,-561.44,M,002.762,N,005.115,K,D*05
$GPGGA,130011.55,5703.7169100,N,00952.8837431,E,2,7,1.1,-0.734,M,40.592,M,0.8,0123*5E
$GPVTG,078.99,T,-560.91,M,002.827,N,005.236,K,D*02
$GPGGA,130011.60,5703.7169180,N,00952.8838173,E,2,7,1.1,-0.739,M,40.592,M,0.8,0123*51
$GPVTG,078.93,T,-560.97,M,002.876,N,005.327,K,D*0B
$GPGGA,130011.65,5703.7169245,N,00952.8838838,E,2,7,1.1,-0.768,M,40.592,M,1.1,0123*54
$GPVTG,078.40,T,-561.50,M,002.856,N,005.288,K,D*09
$GPGGA,130011.70,5703.7169304,N,00952.8839521,E,2,7,1.1,-0.772,M,40.592,M,1.1,0123*5B
$GPVTG,079.03,T,-560.87,M,002.815,N,005.214,K,D*06
$GPGGA,130011.75,5703.7169382,N,00952.8840207,E,2,7,1.1,-0.776,M,40.592,M,1.1,0123*59
$GPVTG,078.79,T,-561.11,M,002.793,N,005.173,K,D*07
$GPGGA,130011.80,5703.7169446,N,00952.8840852,E,2,7,1.1,-0.781,M,40.592,M,1.1,0123*5E
$GPVTG,078.98,T,-560.92,M,002.719,N,005.035,K,D*03
$GPGGA,130011.85,5703.7169514,N,00952.8841614,E,2,7,1.1,-0.758,M,40.592,M,1.3,0123*56
$GPVTG,080.17,T,-559.73,M,002.766,N,005.123,K,D*08
$GPGGA,130011.90,5703.7169608,N,00952.8842299,E,2,7,1.1,-0.756,M,40.592,M,1.3,0123*50
$GPVTG,079.10,T,-560.80,M,002.762,N,005.115,K,D*0E
$GPGGA,130011.95,5703.7169673,N,00952.8842977,E,2,7,1.1,-0.753,M,40.592,M,1.3,0123*57
$GPVTG,079.34,T,-560.56,M,002.738,N,005.071,K,D*0F
$GPGGA,130012.00,5703.7169748,N,00952.8843647,E,2,7,1.1,-0.747,M,40.592,M,1.3,0123*59
$GPVTG,079.10,T,-560.80,M,002.715,N,005.028,K,D*01
$GPGGA,130012.05,5703.7169554,N,00952.8844230,E,2,7,1.1,-0.768,M,40.592,M,1.6,0123*58
$GPVTG,080.54,T,-559.36,M,002.762,N,005.115,K,D*0F
$GPGGA,130012.10,5703.7169632,N,00952.8844904,E,2,7,1.1,-0.763,M,40.592,M,1.6,0123*58
$GPVTG,079.99,T,-559.91,M,002.741,N,005.077,K,D*01
$GPGGA,130012.15,5703.7169733,N,00952.8845591,E,2,7,1.1,-0.759,M,40.592,M,1.6,0123*55
$GPVTG,078.58,T,-561.32,M,002.751,N,005.096,K,D*01
$GPGGA,130012.20,5703.7169803,N,00952.8846258,E,2,7,1.1,-0.753,M,40.592,M,1.6,0123*54
$GPVTG,078.61,T,-561.29,M,002.723,N,005.044,K,D*0B
$GPGGA,130012.25,5703.7169899,N,00952.8846955,E,2,7,1.1,-0.738,M,40.592,M,1.8,0123*57
$GPVTG,078.12,T,-561.78,M,002.738,N,005.071,K,D*07
$GPGGA,130012.30,5703.7169978,N,00952.8847651,E,2,7,1.1,-0.736,M,40.592,M,1.8,0123*59
$GPVTG,078.01,T,-561.89,M,002.754,N,005.100,K,D*06
$GPGGA,130012.35,5703.7170049,N,00952.8848313,E,2,7,1.1,-0.739,M,40.592,M,1.8,0123*5C
$GPVTG,078.09,T,-561.81,M,002.721,N,005.039,K,D*0F
$GPGGA,130012.40,5703.7170146,N,00952.8848968,E,2,7,1.1,-0.739,M,40.592,M,1.8,0123*56
$GPVTG,077.03,T,-562.87,M,002.697,N,004.995,K,D*0D
$GPGGA,130012.45,5703.7170252,N,00952.8849634,E,2,7,1.1,-0.743,M,40.592,M,2.1,0123*55
$GPVTG,075.89,T,-564.01,M,002.710,N,005.018,K,D*06
$GPGGA,130012.50,5703.7170324,N,00952.8850370,E,2,7,1.1,-0.748,M,40.592,M,2.1,0123*57
$GPVTG,076.78,T,-563.12,M,002.780,N,005.149,K,D*02
$GPGGA,130012.55,5703.7170363,N,00952.8851099,E,2,7,1.1,-0.753,M,40.592,M,2.1,0123*5E
$GPVTG,078.93,T,-560.97,M,002.816,N,005.214,K,D*0C
$GPGGA,130012.60,5703.7170456,N,00952.8851778,E,2,7,1.1,-0.756,M,40.592,M,2.1,0123*54
$GPVTG,078.16,T,-561.74,M,002.804,N,005.193,K,D*02
$GPGGA,130012.65,5703.7170493,N,00952.8852439,E,2,7,1.1,-0.766,M,40.592,M,2.3,0123*5C
$GPVTG,079.21,T,-560.69,M,002.749,N,005.091,K,D*0F
$GPGGA,130012.70,5703.7170527,N,00952.8853108,E,2,7,1.1,-0.766,M,40.592,M,2.3,0123*50
$GPVTG,080.86,T,-559.04,M,002.711,N,005.020,K,D*02
$GPGGA,130012.75,5703.7170623,N,00952.8853712,E,2,7,1.1,-0.763,M,40.592,M,2.3,0123*5A
$GPVTG,079.21,T,-560.69,M,002.621,N,004.855,K,D*01
$GPGGA,130012.80,5703.7170656,N,00952.8854370,E,2,7,1.1,-0.752,M,40.592,M,2.3,0123*57
$GPVTG,080.88,T,-559.02,M,002.595,N,004.806,K,D*09
$GPGGA,130012.85,5703.7170782,N,00952.8855066,E,2,7,1.1,-0.729,M,40.592,M,2.5,0123*55
$GPVTG,080.62,T,-559.28,M,002.620,N,004.853,K,D*08
$GPGGA,130012.90,5703.7170828,N,00952.8855656,E,2,7,1.1,-0.722,M,40.592,M,2.5,0123*50
$GPVTG,080.93,T,-558.97,M,002.524,N,004.674,K,D*0F
$GPGGA,130012.95,5703.7170870,N,00952.8856259,E,2,7,1.1,-0.714,M,40.592,M,2.5,0123*55
$GPVTG,081.46,T,-558.44,M,002.459,N,004.555,K,D*03
$GPGGA,130013.00,5703.7170953,N,00952.8856846,E,2,7,1.1,-0.702,M,40.592,M,2.5,0123*5B
$GPVTG,080.45,T,-559.45,M,002.401,N,004.446,K,D*0F
$GPGGA,130013.05,5703.7170844,N,00952.8857364,E,2,7,1.1,-0.717,M,40.592,M,2.7,0123*55
$GPVTG,080.26,T,-559.64,M,002.413,N,004.470,K,D*0F
$GPGGA,130013.10,5703.7170918,N,00952.8857948,E,2,7,1.1,-0.712,M,40.592,M,2.7,0123*58
$GPVTG,079.55,T,-560.35,M,002.367,N,004.384,K,D*0B
$GPGGA,130013.15,5703.7170975,N,00952.8858551,E,2,7,1.1,-0.712,M,40.592,M,2.7,0123*5D
$GPVTG,079.69,T,-560.21,M,002.353,N,004.357,K,D*08
$GPGGA,130013.20,5703.7171031,N,00952.8859189,E,2,7,1.1,-0.712,M,40.592,M,2.7,0123*53
$GPVTG,080.05,T,-559.85,M,002.387,N,004.421,K,D*0F
$GPGGA,130013.25,5703.7171087,N,00952.8859777,E,2,7,1.1,-0.710,M,40.592,M,2.9,0123*50
$GPVTG,078.87,T,-561.03,M,002.350,N,004.352,K,D*0E
$GPGGA,130013.30,5703.7171174,N,00952.8860416,E,2,7,1.1,-0.719,M,40.592,M,2.9,0123*5E
$GPVTG,078.16,T,-561.74,M,002.404,N,004.452,K,D*07
$GPGGA,130013.35,5703.7171260,N,00952.8861040,E,2,7,1.1,-0.732,M,40.592,M,2.9,0123*52
$GPVTG,077.52,T,-562.38,M,002.432,N,004.504,K,D*04
$GPGGA,130013.40,5703.7171341,N,00952.8861692,E,2,7,1.1,-0.746,M,40.592,M,2.9,0123*58
$GPVTG,077.32,T,-562.58,M,002.490,N,004.611,K,D*0B
$GPGGA,130013.45,5703.7171329,N,00952.8862373,E,2,7,1.1,-0.748,M,40.592,M,3.2,0123*5E
$GPVTG,078.96,T,-560.94,M,002.532,N,004.690,K,D*08
$GPGGA,130013.50,5703.7171402,N,00952.8863020,E,2,7,1.1,-0.760,M,40.592,M,3.2,0123*5A
$GPVTG,078.84,T,-561.06,M,002.562,N,004.745,K,D*0D
$GPGGA,130013.55,5703.7171526,N,00952.8863582,E,2,7,1.1,-0.768,M,40.592,M,3.2,0123*5D
$GPVTG,076.33,T,-563.57,M,002.497,N,004.625,K,D*05
$GPGGA,130013.60,5703.7171568,N,00952.8864147,E,2,7,1.1,-0.776,M,40.592,M,3.2,0123*54
$GPVTG,077.17,T,-562.73,M,002.419,N,004.481,K,D*0F
$GPGGA,130013.65,5703.7171606,N,00952.8864705,E,2,7,1.1,-0.793,M,40.592,M,3.4,0123*57
$GPVTG,078.22,T,-561.68,M,002.358,N,004.367,K,D*02
$GPGGA,130013.70,5703.7171649,N,00952.8865335,E,2,7,1.1,-0.798,M,40.592,M,3.4,0123*55
$GPVTG,079.37,T,-560.53,M,002.388,N,004.423,K,D*04
$GPGGA,130013.75,5703.7171693,N,00952.8865914,E,2,7,1.1,-0.801,M,40.592,M,3.4,0123*51
$GPVTG,080.06,T,-559.84,M,002.352,N,004.356,K,D*02
$GPGGA,130013.80,5703.7171752,N,00952.8866497,E,2,7,1.1,-0.803,M,40.592,M,3.4,0123*50
$GPVTG,080.09,T,-559.81,M,002.332,N,004.319,K,D*05
$GPGGA,130013.85,5703.7171810,N,00952.8867052,E,2,7,1.1,-0.805,M,40.592,M,3.6,0123*54
$GPVTG,079.47,T,-560.43,M,002.295,N,004.250,K,D*0D
$GPGGA,130013.90,5703.7171840,N,00952.8867595,E,2,7,1.1,-0.805,M,40.592,M,3.6,0123*5B
$GPVTG,080.54,T,-559.36,M,002.233,N,004.136,K,D*0E
$GPGGA,130013.95,5703.7171872,N,00952.8868075,E,2,7,1.1,-0.801,M,40.592,M,3.6,0123*5F
$GPVTG,081.12,T,-558.78,M,002.107,N,003.903,K,D*0B
$GPGGA,130014.00,5703.7171927,N,00952.8868642,E,2,7,1.1,-0.798,M,40.592,M,3.6,0123*58
$GPVTG,081.10,T,-558.80,M,002.122,N,003.929,K,D*01
$GPGGA,130014.05,5703.7171797,N,00952.8869108,E,2,7,1.1,-0.814,M,40.592,M,3.8,0123*55
$GPVTG,080.84,T,-559.06,M,002.143,N,003.969,K,D*01
$GPGGA,130014.10,5703.7171832,N,00952.8869664,E,2,7,1.1,-0.810,M,40.592,M,3.8,0123*58
$GPVTG,081.64,T,-558.26,M,002.142,N,003.967,K,D*02
$GPGGA,130014.15,5703.7171878,N,00952.8870233,E,2,7,1.1,-0.802,M,40.592,M,3.8,0123*5E
$GPVTG,081.91,T,-557.99,M,002.163,N,004.006,K,D*09
$GPGGA,130014.20,5703.7171889,N,00952.8870762,E,2,7,1.1,-0.797,M,40.592,M,3.8,0123*54
$GPVTG,083.46,T,-556.44,M,002.125,N,003.935,K,D*0C
$GPGGA,130014.25,5703.7171931,N,00952.8871316,E,2,7,1.1,-0.787,M,40.592,M,4.0,0123*5B
$GPVTG,082.12,T,-557.78,M,002.142,N,003.966,K,D*05
$GPGGA,130014.30,5703.7171979,N,00952.8871907,E,2,7,1.1,-0.782,M,40.592,M,4.0,0123*5C
$GPVTG,082.05,T,-557.85,M,002.201,N,004.076,K,D*0A
$GPGGA,130014.35,5703.7172067,N,00952.8872431,E,2,7,1.1,-0.781,M,40.592,M,4.0,0123*54
$GPVTG,079.19,T,-560.71,M,002.179,N,004.035,K,D*07
$GPGGA,130014.40,5703.7172111,N,00952.8872970,E,2,7,1.1,-0.775,M,40.592,M,4.0,0123*55
$GPVTG,079.72,T,-560.18,M,002.163,N,004.006,K,D*0E
$GPGGA,130014.45,5703.7172197,N,00952.8873554,E,2,7,1.1,-0.761,M,40.592,M,2.2,0123*54
$GPVTG,079.03,T,-560.87,M,002.203,N,004.079,K,D*03
$GPGGA,130014.50,5703.7172265,N,00952.8874109,E,2,7,1.1,-0.761,M,40.592,M,2.2,0123*55
$GPVTG,078.38,T,-561.52,M,002.212,N,004.097,K,D*03
$GPGGA,130014.55,5703.7172319,N,00952.8874671,E,2,7,1.1,-0.764,M,40.592,M,2.2,0123*57
$GPVTG,078.65,T,-561.25,M,002.224,N,004.119,K,D*09
$GPGGA,130014.60,5703.7172392,N,00952.8875219,E,2,7,1.1,-0.767,M,40.592,M,2.2,0123*5A
$GPVTG,077.80,T,-562.10,M,002.224,N,004.120,K,D*02
$GPGGA,130014.65,5703.7172409,N,00952.8875725,E,2,7,1.1,-0.779,M,40.592,M,2.5,0123*58
$GPVTG,077.95,T,-561.95,M,002.184,N,004.044,K,D*02
$GPGGA,130014.70,5703.7172497,N,00952.8876296,E,2,7,1.1,-0.782,M,40.592,M,2.5,0123*51
$GPVTG,077.21,T,-562.69,M,002.215,N,004.102,K,D*05
$GPGGA,130014.75,5703.7172597,N,00952.8876832,E,2,7,1.1,-0.785,M,40.592,M,2.5,0123*56
$GPVTG,075.98,T,-563.92,M,002.213,N,004.098,K,D*04
$GPGGA,130014.80,5703.7172680,N,00952.8877384,E,2,7,1.1,-0.789,M,40.592,M,2.5,0123*52
$GPVTG,075.44,T,-564.46,M,002.222,N,004.114,K,D*0C
$GPGGA,130014.85,5703.7172766,N,00952.8877924,E,2,7,1.1,-0.788,M,40.592,M,2.7,0123*5D
$GPVTG,074.57,T,-565.33,M,002.220,N,004.111,K,D*0B
$GPGGA,130014.90,5703.7172791,N,00952.8878433,E,2,7,1.1,-0.791,M,40.592,M,2.7,0123*5D
$GPVTG,075.56,T,-564.34,M,002.177,N,004.031,K,D*0F
$GPGGA,130014.95,5703.7172866,N,00952.8878966,E,2,7,1.1,-0.794,M,40.592,M,2.7,0123*57
$GPVTG,075.26,T,-564.64,M,002.173,N,004.024,K,D*0D
$GPGGA,130015.00,5703.7172951,N,00952.8879578,E,2,7,1.1,-0.796,M,40.592,M,2.7,0123*5F
$GPVTG,075.15,T,-564.75,M,002.232,N,004.133,K,D*0C
$GPGGA,130015.05,5703.7172813,N,00952.8880071,E,2,7,1.1,-0.829,M,40.592,M,2.9,0123*52
$GPVTG,075.41,T,-564.49,M,002.229,N,004.127,K,D*0D
$GPGGA,130015.10,5703.7172895,N,00952.8880614,E,2,7,1.1,-0.831,M,40.592,M,2.9,0123*54
$GPVTG,075.01,T,-564.89,M,002.228,N,004.126,K,D*05
$GPGGA,130015.15,5703.7172953,N,00952.8881199,E,2,7,1.1,-0.833,M,40.592,M,2.9,0123*5B
$GPVTG,075.51,T,-564.39,M,002.250,N,004.168,K,D*0E
$GPGGA,130015.20,5703.7172976,N,00952.8881751,E,2,7,1.1,-0.839,M,40.592,M,2.9,0123*52
$GPVTG,076.70,T,-563.20,M,002.239,N,004.147,K,D*03
$GPGGA,130015.25,5703.7172961,N,00952.8882291,E,2,7,1.1,-0.839,M,40.592,M,3.2,0123*51
$GPVTG,078.34,T,-561.56,M,002.215,N,004.103,K,D*00
$GPGGA,130015.30,5703.7173008,N,00952.8882848,E,2,7,1.1,-0.838,M,40.592,M,3.2,0123*5D
$GPVTG,078.76,T,-561.14,M,002.216,N,004.105,K,D*05
$GPGGA,130015.35,5703.7173074,N,00952.8883377,E,2,7,1.1,-0.835,M,40.592,M,3.2,0123*58
$GPVTG,078.54,T,-561.36,M,002.203,N,004.080,K,D*0D
$GPGGA,130015.40,5703.7173100,N,00952.8883862,E,2,7,1.1,-0.831,M,40.592,M,3.2,0123*53
$GPVTG,079.23,T,-560.67,M,002.156,N,003.994,K,D*01
$GPGGA,130015.45,5703.7173097,N,00952.8884384,E,2,7,1.1,-0.832,M,40.592,M,0.8,0123*57
$GPVTG,080.91,T,-558.99,M,002.144,N,003.970,K,D*0D
$GPGGA,130015.50,5703.7173160,N,00952.8884912,E,2,7,1.1,-0.825,M,40.592,M,0.8,0123*59
$GPVTG,080.60,T,-559.30,M,002.136,N,003.956,K,D*00
$GPGGA,130015.55,5703.7173202,N,00952.8885407,E,2,7,1.1,-0.816,M,40.592,M,0.8,0123*53
$GPVTG,080.74,T,-559.16,M,002.107,N,003.902,K,D*02
$GPGGA,130015.60,5703.7173256,N,00952.8885895,E,2,7,1.1,-0.805,M,40.592,M,0.8,0123*51
$GPVTG,080.58,T,-559.32,M,002.078,N,003.848,K,D*0C
$GPGGA,130015.65,5703.7173381,N,00952.8886378,E,2,7,1.1,-0.804,M,40.592,M,1.1,0123*5D
$GPVTG,079.17,T,-560.73,M,002.067,N,003.829,K,D*07
$GPGGA,130015.70,5703.7173435,N,00952.8886893,E,2,7,1.1,-0.797,M,40.592,M,1.1,0123*5A
$GPVTG,079.18,T,-560.72,M,002.059,N,003.813,K,D*0D
$GPGGA,130015.75,5703.7173488,N,00952.8887388,E,2,7,1.1,-0.791,M,40.592,M,1.1,0123*5F
$GPVTG,079.14,T,-560.76,M,002.040,N,003.778,K,D*0F
$GPGGA,130015.80,5703.7173542,N,00952.8887865,E,2,7,1.1,-0.782,M,40.592,M,1.1,0123*58
$GPVTG,079.04,T,-560.86,M,002.012,N,003.727,K,D*0C
$GPGGA,130015.85,5703.7173639,N,00952.8888351,E,2,7,1.1,-0.770,M,40.592,M,1.3,0123*5E
$GPVTG,078.51,T,-561.39,M,002.001,N,003.705,K,D*0A
$GPGGA,130015.90,5703.7173721,N,00952.8888794,E,2,7,1.1,-0.762,M,40.592,M,1.3,0123*5C
$GPVTG,077.61,T,-562.29,M,001.962,N,003.634,K,D*08
$GPGGA,130015.95,5703.7173816,N,00952.8889244,E,2,7,1.1,-0.756,M,40.592,M,1.3,0123*5C
$GPVTG,076.51,T,-563.39,M,001.935,N,003.584,K,D*00
$GPGGA,130016.00,5703.7173852,N,00952.8889718,E,2,7,1.1,-0.757,M,40.592,M,1.3,0123*5E
$GPVTG,076.96,T,-562.94,M,001.915,N,003.546,K,D*01
$GPGGA,130016.05,5703.7173765,N,00952.8890208,E,2,7,1.1,-0.789,M,40.592,M,1.6,0123*5A
$GPVTG,076.26,T,-563.64,M,001.934,N,003.582,K,D*0F
$GPGGA,130016.10,5703.7173802,N,00952.8890722,E,2,7,1.1,-0.794,M,40.592,M,1.6,0123*51
$GPVTG,076.88,T,-563.02,M,001.940,N,003.593,K,D*08
$GPGGA,130016.15,5703.7173903,N,00952.8891149,E,2,7,1.1,-0.798,M,40.592,M,1.6,0123*52
$GPVTG,075.68,T,-564.22,M,001.906,N,003.530,K,D*0B
$GPGGA,130016.20,5703.7173976,N,00952.8891624,E,2,7,1.1,-0.805,M,40.592,M,1.6,0123*51
$GPVTG,075.36,T,-564.54,M,001.899,N,003.517,K,D*03
$GPGGA,130016.25,5703.7173985,N,00952.8892125,E,2,7,1.1,-0.801,M,40.592,M,1.8,0123*57
$GPVTG,075.52,T,-564.38,M,001.896,N,003.512,K,D*01
$GPGGA,130016.30,5703.7174034,N,00952.8892618,E,2,7,1.1,-0.808,M,40.592,M,1.8,0123*57
$GPVTG,075.87,T,-564.03,M,001.898,N,003.515,K,D*08
$GPGGA,130016.35,5703.7174070,N,00952.8893136,E,2,7,1.1,-0.819,M,40.592,M,1.8,0123*58
$GPVTG,076.56,T,-563.34,M,001.912,N,003.541,K,D*06
$GPGGA,130016.40,5703.7174090,N,00952.8893657,E,2,7,1.1,-0.833,M,40.592,M,1.8,0123*5C
$GPVTG,077.56,T,-562.34,M,001.925,N,003.566,K,D*07
$GPGGA,130016.45,5703.7174156,N,00952.8894157,E,2,7,1.1,-0.852,M,40.592,M,2.1,0123*5F
$GPVTG,076.00,T,-563.90,M,001.936,N,003.586,K,D*06
$GPGGA,130016.50,5703.7174236,N,00952.8894617,E,2,7,1.1,-0.868,M,40.592,M,2.1,0123*54
$GPVTG,075.50,T,-564.40,M,001.924,N,003.563,K,D*02
$GPGGA,130016.55,5703.7174244,N,00952.8895105,E,2,7,1.1,-0.883,M,40.592,M,2.1,0123*54
$GPVTG,076.71,T,-563.19,M,001.916,N,003.549,K,D*00
$GPGGA,130016.60,5703.7174260,N,00952.8895618,E,2,7,1.1,-0.899,M,40.592,M,2.1,0123*54
$GPVTG,077.78,T,-562.12,M,001.926,N,003.567,K,D*0D
$GPGGA,130016.65,5703.7174257,N,00952.8896157,E,2,7,1.1,-0.907,M,40.592,M,2.3,0123*5E
$GPVTG,079.04,T,-560.86,M,001.947,N,003.605,K,D*07
$GPGGA,130016.70,5703.7174335,N,00952.8896651,E,2,7,1.1,-0.917,M,40.592,M,2.3,0123*5F
$GPVTG,078.55,T,-561.35,M,001.953,N,003.617,K,D*0D
$GPGGA,130016.75,5703.7174421,N,00952.8897075,E,2,7,1.1,-0.927,M,40.592,M,2.3,0123*5A
$GPVTG,077.67,T,-562.23,M,001.920,N,003.555,K,D*06
$GPGGA,130016.80,5703.7174441,N,00952.8897544,E,2,7,1.1,-0.936,M,40.592,M,2.3,0123*51
$GPVTG,078.44,T,-561.46,M,001.905,N,003.528,K,D*05
$GPGGA,130016.85,5703.7174504,N,00952.8898004,E,2,7,1.1,-0.939,M,40.592,M,2.5,0123*53
$GPVTG,078.29,T,-561.61,M,001.895,N,003.510,K,D*08
$GPGGA,130016.90,5703.7174555,N,00952.8898539,E,2,7,1.1,-0.930,M,40.592,M,2.5,0123*51
$GPVTG,078.59,T,-561.31,M,001.926,N,003.567,K,D*03
$GPGGA,130016.95,5703.7174567,N,00952.8899011,E,2,7,1.1,-0.919,M,40.592,M,2.5,0123*50
$GPVTG,079.54,T,-560.36,M,001.913,N,003.542,K,D*08
$GPGGA,130017.00,5703.7174570,N,00952.8899344,E,2,7,1.1,-0.903,M,40.592,M,2.5,0123*53
$GPVTG,080.17,T,-559.73,M,001.819,N,003.369,K,D*06
$GPGGA,130017.05,5703.7174585,N,00952.8899767,E,2,7,1.1,-0.937,M,40.592,M,2.7,0123*5C
$GPVTG,079.06,T,-560.84,M,001.816,N,003.363,K,D*07
$GPGGA,130017.10,5703.7174646,N,00952.8900202,E,2,7,1.1,-0.920,M,40.592,M,2.7,0123*55
$GPVTG,078.73,T,-561.17,M,001.798,N,003.330,K,D*00
$GPGGA,130017.15,5703.7174740,N,00952.8900566,E,2,7,1.1,-0.900,M,40.592,M,2.7,0123*50
$GPVTG,077.33,T,-562.57,M,001.747,N,003.236,K,D*09
$GPGGA,130017.20,5703.7174791,N,00952.8901004,E,2,7,1.1,-0.881,M,40.592,M,2.7,0123*52
$GPVTG,077.36,T,-562.54,M,001.737,N,003.217,K,D*0B
$GPGGA,130017.25,5703.7174864,N,00952.8901374,E,2,7,1.1,-0.830,M,40.592,M,2.9,0123*52
$GPVTG,076.71,T,-563.19,M,001.700,N,003.148,K,D*0C
$GPGGA,130017.30,5703.7174960,N,00952.8901723,E,2,7,1.1,-0.805,M,40.592,M,2.9,0123*53
$GPVTG,075.30,T,-564.60,M,001.653,N,003.062,K,D*0D
$GPGGA,130017.35,5703.7174999,N,00952.8902079,E,2,7,1.1,-0.787,M,40.592,M,2.9,0123*5E
$GPVTG,075.29,T,-564.61,M,001.602,N,002.968,K,D*02
$GPGGA,130017.40,5703.7175059,N,00952.8902501,E,2,7,1.1,-0.767,M,40.592,M,2.9,0123*5C
$GPVTG,075.17,T,-564.73,M,001.602,N,002.967,K,D*03
$GPGGA,130017.45,5703.7175179,N,00952.8902902,E,2,7,1.1,-0.772,M,40.592,M,0.8,0123*52
$GPVTG,075.06,T,-564.84,M,001.607,N,002.976,K,D*0E
$GPGGA,130017.50,5703.7175262,N,00952.8903340,E,2,7,1.1,-0.769,M,40.592,M,0.8,0123*58
$GPVTG,074.30,T,-565.60,M,001.641,N,003.040,K,D*0E
$GPGGA,130017.55,5703.7175351,N,00952.8903777,E,2,7,1.1,-0.774,M,40.592,M,0.8,0123*50
$GPVTG,073.36,T,-566.54,M,001.681,N,003.112,K,D*01
$GPGGA,130017.60,5703.7175421,N,00952.8904260,E,2,7,1.1,-0.783,M,40.592,M,0.8,0123*5A
$GPVTG,073.75,T,-566.15,M,001.762,N,003.263,K,D*0A
$GPGGA,130017.65,5703.7175343,N,00952.8904779,E,2,7,1.1,-0.776,M,40.592,M,1.1,0123*53
$GPVTG,076.59,T,-563.31,M,001.799,N,003.333,K,D*02
$GPGGA,130017.70,5703.7175438,N,00952.8905247,E,2,7,1.1,-0.793,M,40.592,M,1.1,0123*5E
$GPVTG,075.41,T,-564.49,M,001.856,N,003.436,K,D*0E
$GPGGA,130017.75,5703.7175518,N,00952.8905696,E,2,7,1.1,-0.815,M,40.592,M,1.1,0123*51
$GPVTG,074.70,T,-565.20,M,001.873,N,003.468,K,D*0F
$GPGGA,130017.80,5703.7175571,N,00952.8906152,E,2,7,1.1,-0.839,M,40.592,M,1.1,0123*56
$GPVTG,075.30,T,-564.60,M,001.882,N,003.485,K,D*02
$GPGGA,130017.85,5703.7175526,N,00952.8906710,E,2,7,1.1,-0.860,M,40.592,M,1.4,0123*58
$GPVTG,076.78,T,-563.12,M,001.990,N,003.686,K,D*0C
$GPGGA,130017.90,5703.7175513,N,00952.8907275,E,2,7,1.1,-0.883,M,40.592,M,1.4,0123*50
$GPVTG,080.39,T,-559.51,M,002.086,N,003.863,K,D*06
$GPGGA,130017.95,5703.7175569,N,00952.8907671,E,2,7,1.1,-0.896,M,40.592,M,1.4,0123*5C
$GPVTG,079.84,T,-560.06,M,001.972,N,003.653,K,D*02
$GPGGA,130018.00,5703.7175640,N,00952.8907935,E,2,7,1.1,-0.906,M,40.592,M,1.4,0123*50
$GPVTG,077.47,T,-562.43,M,001.715,N,003.176,K,D*0F
$GPGGA,130018.05,5703.7175498,N,00952.8908418,E,2,7,1.1,-0.954,M,40.592,M,1.7,0123*5B
$GPVTG,081.73,T,-558.17,M,001.719,N,003.184,K,D*08
$GPGGA,130018.10,5703.7175487,N,00952.8908864,E,2,7,1.1,-0.960,M,40.592,M,1.7,0123*51
$GPVTG,085.07,T,-554.83,M,001.712,N,003.171,K,D*0F
$GPGGA,130018.15,5703.7175524,N,00952.8909308,E,2,7,1.1,-0.960,M,40.592,M,1.7,0123*5C
$GPVTG,085.02,T,-554.88,M,001.716,N,003.178,K,D*0C
$GPGGA,130018.20,5703.7175568,N,00952.8909720,E,2,7,1.1,-0.955,M,40.592,M,1.7,0123*5A
$GPVTG,084.32,T,-555.58,M,001.681,N,003.113,K,D*00
$GPGGA,130018.25,5703.7175693,N,00952.8910103,E,2,7,1.1,-0.973,M,40.592,M,2.0,0123*57
$GPVTG,083.06,T,-556.84,M,001.636,N,003.029,K,D*06
$GPGGA,130018.30,5703.7175728,N,00952.8910472,E,2,7,1.1,-0.967,M,40.592,M,2.0,0123*54
$GPVTG,082.73,T,-557.17,M,001.564,N,002.897,K,D*06
$GPGGA,130018.35,5703.7175744,N,00952.8910808,E,2,7,1.1,-0.959,M,40.592,M,2.0,0123*57
$GPVTG,083.46,T,-556.44,M,001.462,N,002.708,K,D*08
$GPGGA,130018.40,5703.7175759,N,00952.8911129,E,2,7,1.1,-0.947,M,40.592,M,2.0,0123*5D
$GPVTG,084.13,T,-555.77,M,001.365,N,002.528,K,D*0C
$GPGGA,130018.45,5703.7175910,N,00952.8911441,E,2,7,1.1,-0.942,M,40.592,M,1.1,0123*57
$GPVTG,079.64,T,-560.26,M,001.337,N,002.475,K,D*02
$GPGGA,130018.50,5703.7175988,N,00952.8911869,E,2,7,1.1,-0.932,M,40.592,M,1.1,0123*53
$GPVTG,077.30,T,-562.60,M,001.429,N,002.646,K,D*07
$GPGGA,130018.55,5703.7176061,N,00952.8912181,E,2,7,1.1,-0.920,M,40.592,M,1.1,0123*54
$GPVTG,074.33,T,-565.57,M,001.367,N,002.532,K,D*09
$GPGGA,130018.60,5703.7176130,N,00952.8912472,E,2,7,1.1,-0.907,M,40.592,M,1.1,0123*5B
$GPVTG,071.64,T,-568.26,M,001.297,N,002.403,K,D*08
$GPGGA,130018.65,5703.7176215,N,00952.8912851,E,2,7,1.1,-0.879,M,40.592,M,1.4,0123*5A
$GPVTG,071.64,T,-568.26,M,001.336,N,002.475,K,D*03
$GPGGA,130018.70,5703.7176291,N,00952.8913188,E,2,7,1.1,-0.868,M,40.592,M,1.4,0123*5E
$GPVTG,069.80,T,-570.10,M,001.343,N,002.488,K,D*0C
$GPGGA,130018.75,5703.7176363,N,00952.8913620,E,2,7,1.1,-0.856,M,40.592,M,1.4,0123*5F
$GPVTG,070.37,T,-569.53,M,001.464,N,002.711,K,D*06
$GPGGA,130018.80,5703.7176433,N,00952.8913985,E,2,7,1.1,-0.852,M,40.592,M,1.4,0123*53
$GPVTG,069.82,T,-570.08,M,001.485,N,002.751,K,D*0D
$GPGGA,130018.85,5703.7176486,N,00952.8914373,E,2,7,1.1,-0.849,M,40.592,M,1.7,0123*55
$GPVTG,070.17,T,-569.73,M,001.506,N,002.789,K,D*02
$GPGGA,130018.90,5703.7176534,N,00952.8914739,E,2,7,1.1,-0.853,M,40.592,M,1.7,0123*58
$GPVTG,071.17,T,-568.73,M,001.507,N,002.791,K,D*0A
$GPGGA,130018.95,5703.7176637,N,00952.8915097,E,2,7,1.1,-0.856,M,40.592,M,1.7,0123*5A
$GPVTG,068.67,T,-571.23,M,001.529,N,002.831,K,D*01
$GPGGA,130019.00,5703.7176733,N,00952.8915479,E,2,7,1.1,-0.859,M,40.592,M,1.7,0123*59
$GPVTG,067.45,T,-572.45,M,001.572,N,002.912,K,D*03
$GPGGA,130019.05,5703.7176627,N,00952.8915866,E,2,7,1.1,-0.875,M,40.592,M,2.0,0123*50
$GPVTG,067.21,T,-572.69,M,001.563,N,002.894,K,D*00
$GPGGA,130019.10,5703.7176687,N,00952.8916290,E,2,7,1.1,-0.884,M,40.592,M,2.0,0123*50
$GPVTG,069.00,T,-570.90,M,001.627,N,003.014,K,D*0B
$GPGGA,130019.15,5703.7176769,N,00952.8916702,E,2,7,1.1,-0.893,M,40.592,M,2.0,0123*5C
$GPVTG,069.08,T,-570.82,M,001.675,N,003.103,K,D*00
$GPGGA,130019.20,5703.7176846,N,00952.8917032,E,2,7,1.1,-0.903,M,40.592,M,2.0,0123*55
$GPVTG,068.09,T,-571.81,M,001.612,N,002.985,K,D*04
$GPGGA,130019.25,5703.7176777,N,00952.8917449,E,2,7,1.1,-0.907,M,40.592,M,2.3,0123*52
$GPVTG,074.02,T,-565.88,M,001.600,N,002.963,K,D*05
$GPGGA,130019.30,5703.7176795,N,00952.8917885,E,2,7,1.1,-0.916,M,40.592,M,2.3,0123*56
$GPVTG,077.30,T,-562.60,M,001.646,N,003.048,K,D*05
$GPGGA,130019.35,5703.7176857,N,00952.8918289,E,2,7,1.1,-0.924,M,40.592,M,2.3,0123*5A
$GPVTG,077.22,T,-562.68,M,001.658,N,003.071,K,D*0B
$GPGGA,130019.40,5703.7176924,N,00952.8918640,E,2,7,1.1,-0.935,M,40.592,M,2.3,0123*5C
$GPVTG,076.25,T,-563.65,M,001.603,N,002.969,K,D*0E
$GPGGA,130019.45,5703.7176861,N,00952.8918982,E,2,7,1.1,-0.955,M,40.592,M,0.8,0123*57
$GPVTG,081.20,T,-558.70,M,001.514,N,002.803,K,D*07
$GPGGA,130019.50,5703.7176900,N,00952.8919385,E,2,7,1.1,-0.965,M,40.592,M,0.8,0123*5A
$GPVTG,081.80,T,-558.10,M,001.536,N,002.845,K,D*09
$GPGGA,130019.55,5703.7176956,N,00952.8919789,E,2,7,1.1,-0.972,M,40.592,M,0.8,0123*52
$GPVTG,081.20,T,-558.70,M,001.560,N,002.890,K,D*0E
$GPGGA,130019.60,5703.7176968,N,00952.8920178,E,2,7,1.1,-0.982,M,40.592,M,0.8,0123*54
$GPVTG,083.05,T,-556.85,M,001.553,N,002.877,K,D*06
$GPGGA,130019.65,5703.7176953,N,00952.8920571,E,2,7,1.1,-0.992,M,40.592,M,1.1,0123*5D
$GPVTG,085.57,T,-554.33,M,001.555,N,002.880,K,D*06
$GPGGA,130019.70,5703.7176998,N,00952.8920963,E,2,7,1.1,-0.996,M,40.592,M,1.1,0123*55
$GPVTG,084.74,T,-555.16,M,001.557,N,002.884,K,D*06
$GPGGA,130019.75,5703.7177018,N,00952.8921285,E,2,7,1.1,-0.995,M,40.592,M,1.1,0123*51
$GPVTG,085.22,T,-554.68,M,001.468,N,002.719,K,D*0A
$GPGGA,130019.80,5703.7177052,N,00952.8921666,E,2,7,1.1,-0.995,M,40.592,M,1.1,0123*5C
$GPVTG,084.91,T,-554.99,M,001.470,N,002.723,K,D*0D
$GPGGA,130019.85,5703.7177138,N,00952.8922045,E,2,7,1.1,-0.995,M,40.592,M,1.3,0123*52
$GPVTG,084.58,T,-555.32,M,001.486,N,002.752,K,D*07
$GPGGA,130019.90,5703.7177140,N,00952.8922386,E,2,7,1.1,-0.983,M,40.592,M,1.3,0123*52
$GPVTG,086.06,T,-553.84,M,001.434,N,002.656,K,D*09
$GPGGA,130019.95,5703.7177161,N,00952.8922738,E,2,7,1.1,-0.968,M,40.592,M,1.3,0123*50
$GPVTG,086.19,T,-553.71,M,001.409,N,002.609,K,D*09
$GPGGA,130020.00,5703.7177181,N,00952.8923044,E,2,7,1.1,-0.951,M,40.592,M,1.3,0123*5F
$GPVTG,086.12,T,-553.78,M,001.333,N,002.469,K,D*01
$GPGGA,130020.05,5703.7177213,N,00952.8923345,E,2,7,1.1,-0.967,M,40.592,M,1.6,0123*50
$GPVTG,080.51,T,-559.39,M,001.303,N,002.413,K,D*01
$GPGGA,130020.10,5703.7177274,N,00952.8923635,E,2,7,1.1,-0.950,M,40.592,M,1.6,0123*53
$GPVTG,077.39,T,-562.51,M,001.245,N,002.306,K,D*01
$GPGGA,130020.15,5703.7177291,N,00952.8923923,E,2,7,1.1,-0.933,M,40.592,M,1.6,0123*50
$GPVTG,078.21,T,-561.69,M,001.185,N,002.195,K,D*08
$GPGGA,130020.20,5703.7177334,N,00952.8924189,E,2,7,1.1,-0.913,M,40.592,M,1.6,0123*55
$GPVTG,076.56,T,-563.34,M,001.123,N,002.080,K,D*05
$GPGGA,130020.25,5703.7177494,N,00952.8924449,E,2,7,1.1,-0.890,M,40.592,M,1.8,0123*50
$GPVTG,069.67,T,-570.23,M,001.129,N,002.090,K,D*06
$GPGGA,130020.30,5703.7177554,N,00952.8924726,E,2,7,1.1,-0.878,M,40.592,M,1.8,0123*55
$GPVTG,067.86,T,-572.04,M,001.115,N,002.066,K,D*06
$GPGGA,130020.35,5703.7177617,N,00952.8924963,E,2,7,1.1,-0.872,M,40.592,M,1.8,0123*51
$GPVTG,065.21,T,-574.69,M,001.067,N,001.976,K,D*0B
$GPGGA,130020.40,5703.7177694,N,00952.8925271,E,2,7,1.1,-0.862,M,40.592,M,1.8,0123*50
$GPVTG,064.00,T,-575.90,M,001.124,N,002.082,K,D*09
$GPGGA,130020.45,5703.7177814,N,00952.8925598,E,2,7,1.1,-0.845,M,40.592,M,2.1,0123*5C
$GPVTG,060.90,T,-579.00,M,001.212,N,002.245,K,D*0E
$GPGGA,130020.50,5703.7177906,N,00952.8925904,E,2,7,1.1,-0.843,M,40.592,M,2.1,0123*55
$GPVTG,059.78,T,-580.12,M,001.264,N,002.340,K,D*02
$GPGGA,130020.55,5703.7178006,N,00952.8926260,E,2,7,1.1,-0.850,M,40.592,M,2.1,0123*5E
$GPVTG,059.90,T,-580.00,M,001.368,N,002.533,K,D*08
$GPGGA,130020.60,5703.7178049,N,00952.8926576,E,2,7,1.1,-0.867,M,40.592,M,2.1,0123*57
$GPVTG,062.27,T,-577.63,M,001.366,N,002.529,K,D*04
$GPGGA,130020.65,5703.7178028,N,00952.8926922,E,2,7,1.1,-0.865,M,40.592,M,2.3,0123*58
$GPVTG,062.03,T,-577.87,M,001.385,N,002.565,K,D*0D
$GPGGA,130020.70,5703.7178080,N,00952.8927259,E,2,7,1.1,-0.889,M,40.592,M,2.3,0123*5A
$GPVTG,064.40,T,-575.50,M,001.404,N,002.600,K,D*0A
$GPGGA,130020.75,5703.7178170,N,00952.8927658,E,2,7,1.1,-0.910,M,40.592,M,2.3,0123*55
$GPVTG,065.33,T,-574.57,M,001.515,N,002.805,K,D*03
$GPGGA,130020.80,5703.7178200,N,00952.8928081,E,2,7,1.1,-0.940,M,40.592,M,2.3,0123*53
$GPVTG,069.66,T,-570.24,M,001.595,N,002.954,K,D*02
$GPGGA,130020.85,5703.7178036,N,00952.8928525,E,2,7,1.1,-0.950,M,40.592,M,2.5,0123*5D
$GPVTG,074.48,T,-565.42,M,001.631,N,003.021,K,D*01
$GPGGA,130020.90,5703.7178091,N,00952.8928811,E,2,7,1.1,-0.971,M,40.592,M,2.5,0123*5D
$GPVTG,074.08,T,-565.82,M,001.534,N,002.842,K,D*03
$GPGGA,130020.95,5703.7178135,N,00952.8929187,E,2,7,1.1,-0.987,M,40.592,M,2.5,0123*59
$GPVTG,075.36,T,-564.54,M,001.549,N,002.868,K,D*07
$GPGGA,130021.00,5703.7178121,N,00952.8929574,E,2,7,1.1,-1.001,M,40.592,M,2.5,0123*5F
$GPVTG,079.65,T,-560.25,M,001.554,N,002.877,K,D*0D
$GPGGA,130021.05,5703.7177932,N,00952.8929927,E,2,7,1.1,-1.042,M,40.592,M,2.7,0123*50
$GPVTG,086.07,T,-553.83,M,001.513,N,002.803,K,D*05
$GPGGA,130021.10,5703.7177930,N,00952.8930219,E,2,7,1.1,-1.047,M,40.592,M,2.7,0123*5D
$GPVTG,088.46,T,-551.44,M,001.408,N,002.608,K,D*09
$GPGGA,130021.15,5703.7177946,N,00952.8930530,E,2,7,1.1,-1.043,M,40.592,M,2.7,0123*51
$GPVTG,089.22,T,-550.68,M,001.348,N,002.496,K,D*03
$GPGGA,130021.20,5703.7178010,N,00952.8930795,E,2,7,1.1,-1.036,M,40.592,M,2.7,0123*5D
$GPVTG,086.12,T,-553.78,M,001.244,N,002.304,K,D*0C
$GPGGA,130021.25,5703.7178129,N,00952.8930982,E,2,7,1.1,-1.051,M,40.592,M,2.9,0123*54
$GPVTG,087.06,T,-552.84,M,001.114,N,002.063,K,D*0E
$GPGGA,130021.30,5703.7178153,N,00952.8931304,E,2,7,1.1,-1.040,M,40.592,M,2.9,0123*58
$GPVTG,086.95,T,-552.95,M,001.127,N,002.087,K,D*0F
$GPGGA,130021.35,5703.7178178,N,00952.8931602,E,2,7,1.1,-1.027,M,40.592,M,2.9,0123*56
$GPVTG,086.62,T,-553.28,M,001.114,N,002.062,K,D*0B
$GPGGA,130021.40,5703.7178193,N,00952.8931833,E,2,7,1.1,-1.008,M,40.592,M,2.9,0123*50
$GPVTG,086.88,T,-553.02,M,001.024,N,001.896,K,D*05
$GPGGA,130021.45,5703.7178321,N,00952.8932022,E,2,7,1.1,-1.003,M,40.592,M,3.2,0123*54
$GPVTG,084.77,T,-555.13,M,000.940,N,001.740,K,D*0F
$GPGGA,130021.50,5703.7178367,N,00952.8932285,E,2,7,1.1,-0.986,M,40.592,M,3.2,0123*58
$GPVTG,081.63,T,-558.27,M,000.937,N,001.736,K,D*04
$GPGGA,130021.55,5703.7178419,N,00952.8932535,E,2,7,1.1,-0.968,M,40.592,M,3.2,0123*5F
$GPVTG,078.39,T,-561.51,M,000.930,N,001.722,K,D*04
$GPGGA,130021.60,5703.7178470,N,00952.8932756,E,2,7,1.1,-0.951,M,40.592,M,3.2,0123*5B
$GPVTG,075.05,T,-564.85,M,000.897,N,001.661,K,D*00
$GPGGA,130021.65,5703.7178536,N,00952.8932990,E,2,7,1.1,-0.923,M,40.592,M,3.4,0123*5A
$GPVTG,071.99,T,-567.91,M,000.914,N,001.693,K,D*00
$GPGGA,130021.70,5703.7178586,N,00952.8933245,E,2,7,1.1,-0.906,M,40.592,M,3.4,0123*50
$GPVTG,070.22,T,-569.68,M,000.941,N,001.742,K,D*04
$GPGGA,130021.75,5703.7178665,N,00952.8933481,E,2,7,1.1,-0.894,M,40.592,M,3.4,0123*5F
$GPVTG,064.95,T,-574.95,M,000.969,N,001.794,K,D*02
$GPGGA,130021.80,5703.7178756,N,00952.8933719,E,2,7,1.1,-0.890,M,40.592,M,3.4,0123*52
$GPVTG,060.21,T,-579.69,M,001.011,N,001.872,K,D*07
$GPGGA,130021.85,5703.7178879,N,00952.8934005,E,2,7,1.1,-0.885,M,40.592,M,3.6,0123*5E
$GPVTG,058.06,T,-581.84,M,001.098,N,002.033,K,D*02
$GPGGA,130021.90,5703.7178962,N,00952.8934298,E,2,7,1.1,-0.885,M,40.592,M,3.6,0123*57
$GPVTG,058.15,T,-581.75,M,001.174,N,002.175,K,D*0E
$GPGGA,130021.95,5703.7179052,N,00952.8934648,E,2,7,1.1,-0.890,M,40.592,M,3.6,0123*54
$GPVTG,059.53,T,-580.37,M,001.304,N,002.415,K,D*0C
$GPGGA,130022.00,5703.7179120,N,00952.8934969,E,2,7,1.1,-0.904,M,40.592,M,3.6,0123*5F
$GPVTG,061.02,T,-578.88,M,001.359,N,002.518,K,D*04
$GPGGA,130022.05,5703.7178920,N,00952.8935295,E,2,7,1.1,-0.913,M,40.592,M,3.8,0123*52
$GPVTG,063.84,T,-576.06,M,001.338,N,002.478,K,D*00
$GPGGA,130022.10,5703.7178949,N,00952.8935606,E,2,7,1.1,-0.922,M,40.592,M,3.8,0123*55
$GPVTG,066.94,T,-572.96,M,001.338,N,002.478,K,D*09
$GPGGA,130022.15,5703.7179006,N,00952.8935962,E,2,7,1.1,-0.931,M,40.592,M,3.8,0123*5C
$GPVTG,068.80,T,-571.10,M,001.404,N,002.600,K,D*0A
$GPGGA,130022.20,5703.7179033,N,00952.8936283,E,2,7,1.1,-0.937,M,40.592,M,3.8,0123*5D
$GPVTG,071.49,T,-568.41,M,001.396,N,002.586,K,D*0A
$GPGGA,130022.25,5703.7178948,N,00952.8936578,E,2,7,1.1,-0.948,M,40.592,M,2.0,0123*5E
$GPVTG,075.50,T,-564.40,M,001.340,N,002.481,K,D*06
$GPGGA,130022.30,5703.7178992,N,00952.8936866,E,2,7,1.1,-0.958,M,40.592,M,2.0,0123*5E
$GPVTG,075.93,T,-563.97,M,001.302,N,002.412,K,D*08
$GPGGA,130022.35,5703.7179010,N,00952.8937113,E,2,7,1.1,-0.966,M,40.592,M,2.0,0123*5E
$GPVTG,077.55,T,-562.35,M,001.210,N,002.241,K,D*0B
$GPGGA,130022.40,5703.7179039,N,00952.8937440,E,2,7,1.1,-0.975,M,40.592,M,2.0,0123*56
$GPVTG,079.26,T,-560.64,M,001.236,N,002.289,K,D*07
$GPGGA,130022.45,5703.7179011,N,00952.8937705,E,2,7,1.1,-0.987,M,40.592,M,2.2,0123*54
$GPVTG,084.29,T,-555.61,M,001.185,N,002.194,K,D*0D
$GPGGA,130022.50,5703.7179030,N,00952.8937934,E,2,7,1.1,-0.988,M,40.592,M,2.2,0123*50
$GPVTG,085.08,T,-554.82,M,001.094,N,002.026,K,D*0A
$GPGGA,130022.55,5703.7179074,N,00952.8938205,E,2,7,1.1,-0.992,M,40.592,M,2.2,0123*58
$GPVTG,083.72,T,-556.18,M,001.074,N,001.990,K,D*09
$GPGGA,130022.60,5703.7179067,N,00952.8938504,E,2,7,1.1,-0.998,M,40.592,M,2.2,0123*50
$GPVTG,086.99,T,-552.91,M,001.090,N,002.019,K,D*0D
$GPGGA,130022.65,5703.7179128,N,00952.8938759,E,2,7,1.1,-1.012,M,40.592,M,2.5,0123*58
$GPVTG,085.42,T,-554.48,M,001.070,N,001.982,K,D*0C
$GPGGA,130022.70,5703.7179189,N,00952.8939010,E,2,7,1.1,-1.010,M,40.592,M,2.5,0123*5E
$GPVTG,081.75,T,-558.15,M,001.041,N,001.928,K,D*0A
$GPGGA,130022.75,5703.7179210,N,00952.8939212,E,2,7,1.1,-1.009,M,40.592,M,2.5,0123*50
$GPVTG,081.65,T,-558.25,M,000.952,N,001.763,K,D*03
$GPGGA,130022.80,5703.7179250,N,00952.8939486,E,2,7,1.1,-1.008,M,40.592,M,2.5,0123*54
$GPVTG,080.42,T,-559.48,M,000.974,N,001.804,K,D*07
$GPGGA,130022.85,5703.7179355,N,00952.8939725,E,2,7,1.1,-0.995,M,40.592,M,2.7,0123*51
$GPVTG,075.66,T,-564.24,M,000.974,N,001.804,K,D*0F
$GPGGA,130022.90,5703.7179397,N,00952.8939942,E,2,7,1.1,-0.988,M,40.592,M,2.7,0123*58
$GPVTG,074.07,T,-565.83,M,000.934,N,001.730,K,D*09
