$GPGGA,070842.70,5703.4679495,N,00952.1576645,E,2,11,0.8,-1.524,M,40.593,M,2.4,0123*6C\r\n
$GPGGA,070842.75,5703.4679239,N,00952.1576197,E,2,11,0.8,-1.524,M,40.593,M,2.4,0123*61\r\n
$GPGGA,070842.80,5703.4678993,N,00952.1575741,E,2,11,0.8,-1.524,M,40.593,M,2.4,0123*6F\r\n
$GPGGA,070842.85,5703.4678760,N,00952.1575289,E,2,11,0.8,-1.521,M,40.593,M,2.7,0123*6F\r\n
$GPGGA,070842.90,5703.4678520,N,00952.1574851,E,2,11,0.8,-1.519,M,40.593,M,2.7,0123*68\r\n
$GPGGA,070842.95,5703.4678270,N,00952.1574412,E,2,11,0.8,-1.519,M,40.593,M,2.7,0123*64\r\n
$GPGGA,070843.00,5703.4678021,N,00952.1573982,E,2,11,0.8,-1.519,M,40.593,M,2.7,0123*6C\r\n
$GPGGA,070843.05,5703.4677786,N,00952.1573549,E,2,11,0.8,-1.522,M,40.593,M,2.9,0123*61\r\n
$GPGGA,070843.10,5703.4677542,N,00952.1573106,E,2,11,0.8,-1.525,M,40.593,M,2.9,0123*67\r\n
$GPGGA,070843.15,5703.4677298,N,00952.1572666,E,2,11,0.8,-1.528,M,40.593,M,2.9,0123*6F\r\n
$GPGGA,070843.20,5703.4677051,N,00952.1572231,E,2,11,0.8,-1.530,M,40.593,M,2.9,0123*61\r\n
$GPGGA,070843.25,5703.4676801,N,00952.1571795,E,2,11,0.8,-1.535,M,40.593,M,3.1,0123*6C\r\n
$GPGGA,070843.30,5703.4676559,N,00952.1571353,E,2,11,0.8,-1.540,M,40.593,M,3.1,0123*64\r\n
$GPGGA,070843.35,5703.4676315,N,00952.1570892,E,2,11,0.8,-1.546,M,40.593,M,3.1,0123*6E\r\n
$GPGGA,070843.40,5703.4676081,N,00952.1570414,E,2,11,0.8,-1.550,M,40.593,M,3.1,0123*67\r\n
$GPGGA,070843.45,5703.4675850,N,00952.1569945,E,2,11,0.8,-1.549,M,40.593,M,3.3,0123*6E\r\n
$GPGGA,070843.50,5703.4675622,N,00952.1569480,E,2,11,0.8,-1.547,M,40.593,M,3.3,0123*6B\r\n
$GPGGA,070843.55,5703.4675391,N,00952.1569002,E,2,11,0.8,-1.546,M,40.593,M,3.3,0123*6C\r\n
$GPGGA,070843.60,5703.4675164,N,00952.1568532,E,2,11,0.8,-1.547,M,40.593,M,3.3,0123*64\r\n
$GPGGA,070843.65,5703.4674941,N,00952.1568056,E,2,11,0.8,-1.544,M,40.593,M,3.5,0123*6D\r\n
$GPGGA,070843.70,5703.4674711,N,00952.1567581,E,2,11,0.8,-1.544,M,40.593,M,3.5,0123*62\r\n
$GPGGA,070843.75,5703.4674482,N,00952.1567125,E,2,11,0.8,-1.544,M,40.593,M,3.5,0123*64\r\n
$GPGGA,070843.80,5703.4674256,N,00952.1566667,E,2,11,0.8,-1.543,M,40.593,M,3.5,0123*66\r\n
$GPGGA,070843.85,5703.4674010,N,00952.1566195,E,2,11,0.8,-1.544,M,40.593,M,3.7,0123*6C\r\n
$GPGGA,070843.90,5703.4673778,N,00952.1565730,E,2,11,0.8,-1.544,M,40.593,M,3.7,0123*6C\r\n
$GPGGA,070843.95,5703.4673538,N,00952.1565283,E,2,11,0.8,-1.545,M,40.593,M,3.7,0123*63\r\n
$GPGGA,070844.00,5703.4673298,N,00952.1564836,E,2,11,0.8,-1.544,M,40.593,M,3.7,0123*61\r\n
$GPGGA,070844.05,5703.4673072,N,00952.1564379,E,2,11,0.8,-1.538,M,40.593,M,3.9,0123*67\r\n
$GPGGA,070844.10,5703.4672834,N,00952.1563924,E,2,11,0.8,-1.539,M,40.593,M,3.9,0123*6C\r\n
$GPGGA,070844.15,5703.4672615,N,00952.1563475,E,2,11,0.8,-1.538,M,40.593,M,3.9,0123*6C\r\n
$GPGGA,070844.20,5703.4672382,N,00952.1563005,E,2,11,0.8,-1.537,M,40.593,M,3.9,0123*6D\r\n
$GPGGA,070844.25,5703.4672151,N,00952.1562523,E,2,11,0.8,-1.533,M,40.593,M,4.1,0123*6F\r\n
$GPGGA,070844.30,5703.4671920,N,00952.1562048,E,2,11,0.8,-1.532,M,40.593,M,4.1,0123*6F\r\n
$GPGGA,070844.35,5703.4671692,N,00952.1561586,E,2,11,0.8,-1.533,M,40.593,M,4.1,0123*69\r\n
$GPGGA,070844.40,5703.4671460,N,00952.1561110,E,2,11,0.8,-1.532,M,40.593,M,4.1,0123*6E\r\n
$GPGGA,070844.45,5703.4671237,N,00952.1560628,E,2,11,0.8,-1.530,M,40.593,M,2.4,0123*63\r\n
$GPGGA,070844.50,5703.4671015,N,00952.1560142,E,2,11,0.8,-1.531,M,40.593,M,2.4,0123*6F\r\n
$GPGGA,070844.55,5703.4670787,N,00952.1559644,E,2,11,0.8,-1.533,M,40.593,M,2.4,0123*6E\r\n
$GPGGA,070844.60,5703.4670554,N,00952.1559158,E,2,11,0.8,-1.534,M,40.593,M,2.4,0123*69\r\n
$GPGGA,070844.65,5703.4670329,N,00952.1558681,E,2,11,0.8,-1.537,M,40.593,M,2.6,0123*63\r\n
$GPGGA,070844.70,5703.4670097,N,00952.1558206,E,2,11,0.8,-1.540,M,40.593,M,2.6,0123*6A\r\n
$GPGGA,070844.75,5703.4669861,N,00952.1557733,E,2,11,0.8,-1.542,M,40.593,M,2.6,0123*68\r\n
$GPGGA,070844.80,5703.4669633,N,00952.1557262,E,2,11,0.8,-1.542,M,40.593,M,2.6,0123*6A\r\n
$GPGGA,070844.85,5703.4669412,N,00952.1556775,E,2,11,0.8,-1.542,M,40.593,M,2.9,0123*63\r\n
$GPGGA,070844.90,5703.4669185,N,00952.1556288,E,2,11,0.8,-1.541,M,40.593,M,2.9,0123*68\r\n
$GPGGA,070844.95,5703.4668970,N,00952.1555793,E,2,11,0.8,-1.540,M,40.593,M,2.9,0123*63\r\n
$GPGGA,070845.00,5703.4668748,N,00952.1555297,E,2,11,0.8,-1.537,M,40.593,M,2.9,0123*6A\r\n
$GPGGA,070845.05,5703.4668543,N,00952.1554792,E,2,11,0.8,-1.530,M,40.593,M,3.1,0123*69\r\n
$GPGGA,070845.10,5703.4668332,N,00952.1554292,E,2,11,0.8,-1.528,M,40.593,M,3.1,0123*61\r\n
$GPGGA,070845.15,5703.4668118,N,00952.1553789,E,2,11,0.8,-1.528,M,40.593,M,3.1,0123*66\r\n
$GPGGA,070845.20,5703.4667913,N,00952.1553297,E,2,11,0.8,-1.526,M,40.593,M,3.1,0123*68\r\n
$GPGGA,070845.25,5703.4667711,N,00952.1552793,E,2,11,0.8,-1.520,M,40.593,M,3.3,0123*65\r\n
$GPGGA,070845.30,5703.4667500,N,00952.1552299,E,2,11,0.8,-1.517,M,40.593,M,3.3,0123*68\r\n
$GPGGA,070845.35,5703.4667279,N,00952.1551793,E,2,11,0.8,-1.515,M,40.593,M,3.3,0123*6A\r\n
$GPGGA,070845.40,5703.4667056,N,00952.1551298,E,2,11,0.8,-1.516,M,40.593,M,3.3,0123*6A\r\n
$GPGGA,070845.45,5703.4666828,N,00952.1550810,E,2,11,0.8,-1.522,M,40.593,M,2.1,0123*60\r\n
$GPGGA,070845.50,5703.4666597,N,00952.1550322,E,2,11,0.8,-1.527,M,40.593,M,2.1,0123*62\r\n
$GPGGA,070845.55,5703.4666367,N,00952.1549846,E,2,11,0.8,-1.530,M,40.593,M,2.1,0123*69\r\n
$GPGGA,070845.60,5703.4666145,N,00952.1549356,E,2,11,0.8,-1.531,M,40.593,M,2.1,0123*66\r\n
$GPGGA,070845.65,5703.4665929,N,00952.1548878,E,2,11,0.8,-1.531,M,40.593,M,2.3,0123*66\r\n
$GPGGA,070845.70,5703.4665715,N,00952.1548385,E,2,11,0.8,-1.529,M,40.593,M,2.3,0123*63\r\n
$GPGGA,070845.75,5703.4665509,N,00952.1547894,E,2,11,0.8,-1.529,M,40.593,M,2.3,0123*6D\r\n
$GPGGA,070845.80,5703.4665298,N,00952.1547407,E,2,11,0.8,-1.530,M,40.593,M,2.3,0123*66\r\n
$GPGGA,070845.85,5703.4665073,N,00952.1546917,E,2,11,0.8,-1.531,M,40.593,M,2.6,0123*6D\r\n
$GPGGA,070845.90,5703.4664858,N,00952.1546433,E,2,11,0.8,-1.534,M,40.593,M,2.6,0123*67\r\n
$GPGGA,070845.95,5703.4664633,N,00952.1545925,E,2,11,0.8,-1.538,M,40.593,M,2.6,0123*64\r\n
$GPGGA,070846.00,5703.4664417,N,00952.1545424,E,2,11,0.8,-1.539,M,40.593,M,2.6,0123*62\r\n
$GPGGA,070846.05,5703.4664207,N,00952.1544918,E,2,11,0.8,-1.542,M,40.593,M,2.8,0123*61\r\n
$GPGGA,070846.10,5703.4663993,N,00952.1544421,E,2,11,0.8,-1.545,M,40.593,M,2.8,0123*64\r\n
$GPGGA,070846.15,5703.4663757,N,00952.1543924,E,2,11,0.8,-1.551,M,40.593,M,2.8,0123*6D\r\n
$GPGGA,070846.20,5703.4663526,N,00952.1543444,E,2,11,0.8,-1.554,M,40.593,M,2.8,0123*61\r\n
$GPGGA,070846.25,5703.4663306,N,00952.1542960,E,2,11,0.8,-1.553,M,40.593,M,3.0,0123*64\r\n
$GPGGA,070846.30,5703.4663079,N,00952.1542492,E,2,11,0.8,-1.555,M,40.593,M,3.0,0123*6D\r\n
$GPGGA,070846.35,5703.4662853,N,00952.1542014,E,2,11,0.8,-1.557,M,40.593,M,3.0,0123*61\r\n
$GPGGA,070846.40,5703.4662640,N,00952.1541533,E,2,11,0.8,-1.556,M,40.593,M,3.0,0123*6D\r\n
$GPGGA,070846.45,5703.4662416,N,00952.1541030,E,2,11,0.8,-1.552,M,40.593,M,2.2,0123*68\r\n
$GPGGA,070846.50,5703.4662199,N,00952.1540521,E,2,11,0.8,-1.550,M,40.593,M,2.2,0123*68\r\n
$GPGGA,070846.55,5703.4661997,N,00952.1540001,E,2,11,0.8,-1.547,M,40.593,M,2.2,0123*69\r\n
$GPGGA,070846.60,5703.4661808,N,00952.1539474,E,2,11,0.8,-1.542,M,40.593,M,2.2,0123*65\r\n
$GPGGA,070846.65,5703.4661618,N,00952.1538965,E,2,11,0.8,-1.531,M,40.593,M,2.4,0123*61\r\n
$GPGGA,070846.70,5703.4661421,N,00952.1538455,E,2,11,0.8,-1.523,M,40.593,M,2.4,0123*60\r\n
$GPGGA,070846.75,5703.4661223,N,00952.1537922,E,2,11,0.8,-1.518,M,40.593,M,2.4,0123*6B\r\n
$GPGGA,070846.80,5703.4661015,N,00952.1537391,E,2,11,0.8,-1.513,M,40.593,M,2.4,0123*6F\r\n
$GPGGA,070846.85,5703.4660813,N,00952.1536863,E,2,11,0.8,-1.511,M,40.593,M,2.7,0123*63\r\n
$GPGGA,070846.90,5703.4660601,N,00952.1536340,E,2,11,0.8,-1.512,M,40.593,M,2.7,0123*63\r\n
$GPGGA,070846.95,5703.4660383,N,00952.1535810,E,2,11,0.8,-1.512,M,40.593,M,2.7,0123*64\r\n
$GPGGA,070847.00,5703.4660171,N,00952.1535286,E,2,11,0.8,-1.514,M,40.593,M,2.7,0123*65\r\n
$GPGGA,070847.05,5703.4659952,N,00952.1534761,E,2,11,0.8,-1.517,M,40.593,M,2.9,0123*63\r\n
$GPGGA,070847.10,5703.4659726,N,00952.1534256,E,2,11,0.8,-1.521,M,40.593,M,2.9,0123*6E\r\n
$GPGGA,070847.15,5703.4659505,N,00952.1533753,E,2,11,0.8,-1.525,M,40.593,M,2.9,0123*6B\r\n
$GPGGA,070847.20,5703.4659294,N,00952.1533252,E,2,11,0.8,-1.530,M,40.593,M,2.9,0123*62\r\n
$GPGGA,070847.25,5703.4659082,N,00952.1532749,E,2,11,0.8,-1.535,M,40.593,M,3.1,0123*60\r\n
$GPGGA,070847.30,5703.4658871,N,00952.1532248,E,2,11,0.8,-1.537,M,40.593,M,3.1,0123*67\r\n
$GPGGA,070847.35,5703.4658660,N,00952.1531735,E,2,11,0.8,-1.540,M,40.593,M,3.1,0123*60\r\n
$GPGGA,070847.40,5703.4658448,N,00952.1531225,E,2,11,0.8,-1.545,M,40.593,M,3.1,0123*6B\r\n
$GPGGA,070847.45,5703.4658234,N,00952.1530704,E,2,11,0.8,-1.544,M,40.593,M,0.9,0123*6E\r\n
$GPGGA,070847.50,5703.4658022,N,00952.1530190,E,2,11,0.8,-1.544,M,40.593,M,0.9,0123*64\r\n
$GPGGA,070847.55,5703.4657817,N,00952.1529670,E,2,11,0.8,-1.544,M,40.593,M,0.9,0123*61\r\n
$GPGGA,070847.60,5703.4657613,N,00952.1529156,E,2,11,0.8,-1.545,M,40.593,M,0.9,0123*6F\r\n
$GPGGA,070847.65,5703.4657406,N,00952.1528645,E,2,11,0.8,-1.543,M,40.593,M,1.2,0123*64\r\n
$GPGGA,070847.70,5703.4657196,N,00952.1528132,E,2,11,0.8,-1.541,M,40.593,M,1.2,0123*69\r\n
$GPGGA,070847.75,5703.4656982,N,00952.1527629,E,2,11,0.8,-1.538,M,40.593,M,1.2,0123*6C\r\n
$GPGGA,070847.80,5703.4656772,N,00952.1527121,E,2,11,0.8,-1.536,M,40.593,M,1.2,0123*66\r\n
$GPGGA,070847.85,5703.4656578,N,00952.1526619,E,2,11,0.8,-1.528,M,40.593,M,1.5,0123*6E\r\n
$GPGGA,070847.90,5703.4656381,N,00952.1526098,E,2,11,0.8,-1.525,M,40.593,M,1.5,0123*68\r\n
$GPGGA,070847.95,5703.4656177,N,00952.1525564,E,2,11,0.8,-1.524,M,40.593,M,1.5,0123*62\r\n
$GPGGA,070848.00,5703.4655980,N,00952.1525024,E,2,11,0.8,-1.522,M,40.593,M,1.5,0123*65\r\n
$GPGGA,070848.05,5703.4655794,N,00952.1524476,E,2,11,0.8,-1.520,M,40.593,M,1.8,0123*66\r\n
$GPGGA,070848.10,5703.4655608,N,00952.1523943,E,2,11,0.8,-1.516,M,40.593,M,1.8,0123*6F\r\n
$GPGGA,070848.15,5703.4655419,N,00952.1523417,E,2,11,0.8,-1.514,M,40.593,M,1.8,0123*66\r\n
$GPGGA,070848.20,5703.4655228,N,00952.1522902,E,2,11,0.8,-1.512,M,40.593,M,1.8,0123*6A\r\n
$GPGGA,070848.25,5703.4655034,N,00952.1522374,E,2,11,0.8,-1.506,M,40.593,M,2.1,0123*64\r\n
$GPGGA,070848.30,5703.4654828,N,00952.1521849,E,2,11,0.8,-1.504,M,40.593,M,2.1,0123*60\r\n
$GPGGA,070848.35,5703.4654633,N,00952.1521323,E,2,11,0.8,-1.506,M,40.593,M,2.1,0123*64\r\n
$GPGGA,070848.40,5703.4654432,N,00952.1520803,E,2,11,0.8,-1.506,M,40.593,M,2.1,0123*6D\r\n
$GPGGA,070848.45,5703.4654227,N,00952.1520282,E,2,11,0.8,-1.508,M,40.593,M,0.8,0123*6C\r\n
$GPGGA,070848.50,5703.4654027,N,00952.1519766,E,2,11,0.8,-1.511,M,40.593,M,0.8,0123*67\r\n
$GPGGA,070848.55,5703.4653826,N,00952.1519247,E,2,11,0.8,-1.516,M,40.593,M,0.8,0123*6D\r\n
$GPGGA,070848.60,5703.4653622,N,00952.1518716,E,2,11,0.8,-1.523,M,40.593,M,0.8,0123*67\r\n
$GPGGA,070848.65,5703.4653412,N,00952.1518175,E,2,11,0.8,-1.530,M,40.593,M,1.1,0123*6A\r\n
$GPGGA,070848.70,5703.4653211,N,00952.1517648,E,2,11,0.8,-1.530,M,40.593,M,1.1,0123*6D\r\n
$GPGGA,070848.75,5703.4653003,N,00952.1517128,E,2,11,0.8,-1.532,M,40.593,M,1.1,0123*6A\r\n
$GPGGA,070848.80,5703.4652792,N,00952.1516598,E,2,11,0.8,-1.536,M,40.593,M,1.1,0123*64\r\n
$GPGGA,070848.85,5703.4652583,N,00952.1516053,E,2,11,0.8,-1.535,M,40.593,M,1.4,0123*67\r\n
$GPGGA,070848.90,5703.4652370,N,00952.1515520,E,2,11,0.8,-1.534,M,40.593,M,1.4,0123*6A\r\n
$GPGGA,070848.95,5703.4652161,N,00952.1514988,E,2,11,0.8,-1.533,M,40.593,M,1.4,0123*65\r\n
$GPGGA,070849.00,5703.4651949,N,00952.1514453,E,2,11,0.8,-1.532,M,40.593,M,1.4,0123*63\r\n
$GPGGA,070849.05,5703.4651733,N,00952.1513906,E,2,11,0.8,-1.533,M,40.593,M,1.6,0123*6C\r\n
$GPGGA,070849.10,5703.4651509,N,00952.1513355,E,2,11,0.8,-1.528,M,40.593,M,1.6,0123*65\r\n
$GPGGA,070849.15,5703.4651271,N,00952.1512799,E,2,11,0.8,-1.527,M,40.593,M,1.6,0123*62\r\n
$GPGGA,070849.20,5703.4651041,N,00952.1512230,E,2,11,0.8,-1.520,M,40.593,M,1.6,0123*64\r\n
$GPGGA,070849.25,5703.4650810,N,00952.1511658,E,2,11,0.8,-1.515,M,40.593,M,1.9,0123*6C\r\n
$GPGGA,070849.30,5703.4650592,N,00952.1511078,E,2,11,0.8,-1.506,M,40.593,M,1.9,0123*69\r\n
$GPGGA,070849.35,5703.4650352,N,00952.1510483,E,2,11,0.8,-1.498,M,40.593,M,1.9,0123*61\r\n
$GPGGA,070849.40,5703.4650123,N,00952.1509876,E,2,11,0.8,-1.490,M,40.593,M,1.9,0123*61\r\n
$GPGGA,070849.45,5703.4649890,N,00952.1509274,E,2,11,0.8,-1.481,M,40.593,M,2.1,0123*6E\r\n
$GPGGA,070849.50,5703.4649649,N,00952.1508652,E,2,11,0.8,-1.472,M,40.593,M,2.1,0123*6D\r\n
$GPGGA,070849.55,5703.4649382,N,00952.1508019,E,2,11,0.8,-1.465,M,40.593,M,2.1,0123*65\r\n
$GPGGA,070849.60,5703.4649104,N,00952.1507386,E,2,11,0.8,-1.461,M,40.593,M,2.1,0123*61\r\n
$GPGGA,070849.65,5703.4648823,N,00952.1506743,E,2,11,0.8,-1.464,M,40.593,M,2.3,0123*62\r\n
$GPGGA,070849.70,5703.4648545,N,00952.1506082,E,2,11,0.8,-1.464,M,40.593,M,2.3,0123*61\r\n
$GPGGA,070849.75,5703.4648261,N,00952.1505422,E,2,11,0.8,-1.466,M,40.593,M,2.3,0123*6A\r\n
$GPGGA,070849.80,5703.4647966,N,00952.1504731,E,2,11,0.8,-1.469,M,40.593,M,2.3,0123*6C\r\n
$GPGGA,070849.85,5703.4647661,N,00952.1504046,E,2,11,0.8,-1.470,M,40.593,M,2.6,0123*6B\r\n
$GPGGA,070849.90,5703.4647348,N,00952.1503364,E,2,11,0.8,-1.473,M,40.593,M,2.6,0123*66\r\n
$GPGGA,070849.95,5703.4647026,N,00952.1502697,E,2,11,0.8,-1.477,M,40.593,M,2.6,0123*64\r\n
$GPGGA,070850.00,5703.4646692,N,00952.1502052,E,2,11,0.8,-1.477,M,40.593,M,2.6,0123*67\r\n
$GPGGA,070850.05,5703.4646350,N,00952.1501381,E,2,11,0.8,-1.476,M,40.593,M,2.8,0123*68\r\n
$GPGGA,070850.10,5703.4646014,N,00952.1500699,E,2,11,0.8,-1.477,M,40.593,M,2.8,0123*63\r\n
$GPGGA,070850.15,5703.4645669,N,00952.1500010,E,2,11,0.8,-1.481,M,40.593,M,2.8,0123*67\r\n
$GPGGA,070850.20,5703.4645322,N,00952.1499303,E,2,11,0.8,-1.484,M,40.593,M,2.8,0123*6E\r\n
$GPGGA,070850.25,5703.4644967,N,00952.1498594,E,2,11,0.8,-1.487,M,40.593,M,3.0,0123*62\r\n
$GPGGA,070850.30,5703.4644631,N,00952.1497888,E,2,11,0.8,-1.486,M,40.593,M,3.0,0123*64\r\n
$GPGGA,070850.35,5703.4644281,N,00952.1497166,E,2,11,0.8,-1.482,M,40.593,M,3.0,0123*63\r\n
$GPGGA,070850.40,5703.4643925,N,00952.1496439,E,2,11,0.8,-1.477,M,40.593,M,3.0,0123*67\r\n
$GPGGA,070850.45,5703.4643558,N,00952.1495711,E,2,11,0.8,-1.475,M,40.593,M,2.2,0123*6F\r\n
$GPGGA,070850.50,5703.4643193,N,00952.1494982,E,2,11,0.8,-1.472,M,40.593,M,2.2,0123*6A\r\n
$GPGGA,070850.55,5703.4642822,N,00952.1494259,E,2,11,0.8,-1.471,M,40.593,M,2.2,0123*63\r\n
$GPGGA,070850.60,5703.4642425,N,00952.1493527,E,2,11,0.8,-1.469,M,40.593,M,2.2,0123*6E\r\n
$GPGGA,070850.65,5703.4642040,N,00952.1492801,E,2,11,0.8,-1.467,M,40.593,M,2.4,0123*6C\r\n
$GPGGA,070850.70,5703.4641662,N,00952.1492062,E,2,11,0.8,-1.462,M,40.593,M,2.4,0123*65\r\n
$GPGGA,070850.75,5703.4641276,N,00952.1491331,E,2,11,0.8,-1.459,M,40.593,M,2.4,0123*6F\r\n
$GPGGA,070850.80,5703.4640871,N,00952.1490598,E,2,11,0.8,-1.459,M,40.593,M,2.4,0123*6D\r\n
$GPGGA,070850.85,5703.4640468,N,00952.1489846,E,2,11,0.8,-1.459,M,40.593,M,2.7,0123*69\r\n
$GPGGA,070850.90,5703.4640057,N,00952.1489099,E,2,11,0.8,-1.459,M,40.593,M,2.7,0123*6F\r\n
$GPGGA,070850.95,5703.4639652,N,00952.1488369,E,2,11,0.8,-1.455,M,40.593,M,2.7,0123*66\r\n
$GPGGA,070851.00,5703.4639236,N,00952.1487633,E,2,11,0.8,-1.455,M,40.593,M,2.7,0123*68\r\n
$GPGGA,070851.05,5703.4638802,N,00952.1486897,E,2,11,0.8,-1.449,M,40.593,M,2.9,0123*63\r\n
$GPGGA,070851.10,5703.4638358,N,00952.1486178,E,2,11,0.8,-1.452,M,40.593,M,2.9,0123*61\r\n
$GPGGA,070851.15,5703.4637930,N,00952.1485468,E,2,11,0.8,-1.454,M,40.593,M,2.9,0123*6E\r\n
$GPGGA,070851.20,5703.4637487,N,00952.1484772,E,2,11,0.8,-1.453,M,40.593,M,2.9,0123*67\r\n
$GPGGA,070851.25,5703.4637030,N,00952.1484063,E,2,11,0.8,-1.461,M,40.593,M,3.1,0123*65\r\n
$GPGGA,070851.30,5703.4636560,N,00952.1483354,E,2,11,0.8,-1.467,M,40.593,M,3.1,0123*66\r\n
$GPGGA,070851.35,5703.4636097,N,00952.1482667,E,2,11,0.8,-1.471,M,40.593,M,3.1,0123*6D\r\n
$GPGGA,070851.40,5703.4635636,N,00952.1481993,E,2,11,0.8,-1.475,M,40.593,M,3.1,0123*62\r\n
$GPGGA,070851.45,5703.4635161,N,00952.1481306,E,2,11,0.8,-1.477,M,40.593,M,3.3,0123*64\r\n
$GPGGA,070851.50,5703.4634680,N,00952.1480638,E,2,11,0.8,-1.481,M,40.593,M,3.3,0123*69\r\n
$GPGGA,070851.55,5703.4634210,N,00952.1479970,E,2,11,0.8,-1.483,M,40.593,M,3.3,0123*66\r\n
$GPGGA,070851.60,5703.4633752,N,00952.1479290,E,2,11,0.8,-1.483,M,40.593,M,3.3,0123*61\r\n
$GPGGA,070851.65,5703.4633291,N,00952.1478595,E,2,11,0.8,-1.477,M,40.593,M,3.5,0123*60\r\n
$GPGGA,070851.70,5703.4632812,N,00952.1477909,E,2,11,0.8,-1.478,M,40.593,M,3.5,0123*6D\r\n
$GPGGA,070851.75,5703.4632320,N,00952.1477239,E,2,11,0.8,-1.478,M,40.593,M,3.5,0123*6A\r\n
$GPGGA,070851.80,5703.4631829,N,00952.1476565,E,2,11,0.8,-1.479,M,40.593,M,3.5,0123*6F\r\n
$GPGGA,070851.85,5703.4631340,N,00952.1475885,E,2,11,0.8,-1.474,M,40.593,M,3.7,0123*61\r\n
$GPGGA,070851.90,5703.4630848,N,00952.1475220,E,2,11,0.8,-1.475,M,40.593,M,3.7,0123*63\r\n
$GPGGA,070851.95,5703.4630356,N,00952.1474560,E,2,11,0.8,-1.478,M,40.593,M,3.7,0123*6D\r\n
$GPGGA,070852.00,5703.4629849,N,00952.1473929,E,2,11,0.8,-1.477,M,40.593,M,3.7,0123*66\r\n
$GPGGA,070852.05,5703.4629332,N,00952.1473296,E,2,11,0.8,-1.472,M,40.593,M,3.9,0123*60\r\n
$GPGGA,070852.10,5703.4628823,N,00952.1472689,E,2,11,0.8,-1.470,M,40.593,M,3.9,0123*67\r\n
$GPGGA,070852.15,5703.4628312,N,00952.1472075,E,2,11,0.8,-1.470,M,40.593,M,3.9,0123*6E\r\n
$GPGGA,070852.20,5703.4627803,N,00952.1471441,E,2,11,0.8,-1.474,M,40.593,M,3.9,0123*68\r\n
$GPGGA,070852.25,5703.4627280,N,00952.1470815,E,2,11,0.8,-1.474,M,40.593,M,4.1,0123*6F\r\n
$GPGGA,070852.30,5703.4626750,N,00952.1470214,E,2,11,0.8,-1.476,M,40.593,M,4.1,0123*6B\r\n
$GPGGA,070852.35,5703.4626219,N,00952.1469614,E,2,11,0.8,-1.475,M,40.593,M,4.1,0123*69\r\n
$GPGGA,070852.40,5703.4625686,N,00952.1469005,E,2,11,0.8,-1.476,M,40.593,M,4.1,0123*6F\r\n
$GPGGA,070852.45,5703.4625161,N,00952.1468418,E,2,11,0.8,-1.477,M,40.593,M,2.4,0123*6F\r\n
$GPGGA,070852.50,5703.4624618,N,00952.1467842,E,2,11,0.8,-1.481,M,40.593,M,2.4,0123*66\r\n
$GPGGA,070852.55,5703.4624065,N,00952.1467272,E,2,11,0.8,-1.481,M,40.593,M,2.4,0123*66\r\n
$GPGGA,070852.60,5703.4623528,N,00952.1466713,E,2,11,0.8,-1.480,M,40.593,M,2.4,0123*69\r\n
$GPGGA,070852.65,5703.4622995,N,00952.1466178,E,2,11,0.8,-1.482,M,40.593,M,2.6,0123*6C\r\n
$GPGGA,070852.70,5703.4622447,N,00952.1465636,E,2,11,0.8,-1.481,M,40.593,M,2.6,0123*67\r\n
$GPGGA,070852.75,5703.4621883,N,00952.1465096,E,2,11,0.8,-1.477,M,40.593,M,2.6,0123*60\r\n
$GPGGA,070852.80,5703.4621338,N,00952.1464577,E,2,11,0.8,-1.472,M,40.593,M,2.6,0123*6F\r\n
$GPGGA,070852.85,5703.4620793,N,00952.1464067,E,2,11,0.8,-1.461,M,40.593,M,2.9,0123*67\r\n
$GPGGA,070852.90,5703.4620235,N,00952.1463572,E,2,11,0.8,-1.459,M,40.593,M,2.9,0123*67\r\n
$GPGGA,070852.95,5703.4619661,N,00952.1463081,E,2,11,0.8,-1.458,M,40.593,M,2.9,0123*65\r\n
$GPGGA,070853.00,5703.4619095,N,00952.1462599,E,2,11,0.8,-1.459,M,40.593,M,2.9,0123*69\r\n
$GPGGA,070853.05,5703.4618517,N,00952.1462126,E,2,11,0.8,-1.458,M,40.593,M,3.1,0123*6A\r\n
$GPGGA,070853.10,5703.4617942,N,00952.1461661,E,2,11,0.8,-1.462,M,40.593,M,3.1,0123*63\r\n
$GPGGA,070853.15,5703.4617366,N,00952.1461212,E,2,11,0.8,-1.463,M,40.593,M,3.1,0123*6B\r\n
$GPGGA,070853.20,5703.4616786,N,00952.1460783,E,2,11,0.8,-1.465,M,40.593,M,3.1,0123*6C\r\n
$GPGGA,070853.25,5703.4616211,N,00952.1460352,E,2,11,0.8,-1.472,M,40.593,M,1.9,0123*66\r\n
$GPGGA,070853.30,5703.4615622,N,00952.1459900,E,2,11,0.8,-1.475,M,40.593,M,1.9,0123*65\r\n
$GPGGA,070853.35,5703.4615024,N,00952.1459472,E,2,11,0.8,-1.479,M,40.593,M,1.9,0123*64\r\n
$GPGGA,070853.40,5703.4614442,N,00952.1459066,E,2,11,0.8,-1.486,M,40.593,M,1.9,0123*62\r\n
$GPGGA,070853.45,5703.4613861,N,00952.1458649,E,2,11,0.8,-1.482,M,40.593,M,2.1,0123*68\r\n
$GPGGA,070853.50,5703.4613261,N,00952.1458228,E,2,11,0.8,-1.480,M,40.593,M,2.1,0123*67\r\n
$GPGGA,070853.55,5703.4612670,N,00952.1457807,E,2,11,0.8,-1.479,M,40.593,M,2.1,0123*69\r\n
$GPGGA,070853.60,5703.4612078,N,00952.1457385,E,2,11,0.8,-1.478,M,40.593,M,2.1,0123*61\r\n
$GPGGA,070853.65,5703.4611494,N,00952.1456999,E,2,11,0.8,-1.475,M,40.593,M,2.3,0123*68\r\n
$GPGGA,070853.70,5703.4610903,N,00952.1456607,E,2,11,0.8,-1.473,M,40.593,M,2.3,0123*60\r\n
$GPGGA,070853.75,5703.4610307,N,00952.1456228,E,2,11,0.8,-1.475,M,40.593,M,2.3,0123*64\r\n
$GPGGA,070853.80,5703.4609708,N,00952.1455863,E,2,11,0.8,-1.475,M,40.593,M,2.3,0123*6B\r\n
$GPGGA,070853.85,5703.4609113,N,00952.1455518,E,2,11,0.8,-1.469,M,40.593,M,2.6,0123*6B\r\n
$GPGGA,070853.90,5703.4608510,N,00952.1455177,E,2,11,0.8,-1.467,M,40.593,M,2.6,0123*6A\r\n
$GPGGA,070853.95,5703.4607904,N,00952.1454854,E,2,11,0.8,-1.465,M,40.593,M,2.6,0123*62\r\n
$GPGGA,070854.00,5703.4607306,N,00952.1454545,E,2,11,0.8,-1.465,M,40.593,M,2.6,0123*6C\r\n
$GPGGA,070854.05,5703.4606697,N,00952.1454246,E,2,11,0.8,-1.464,M,40.593,M,2.8,0123*6E\r\n
$GPGGA,070854.10,5703.4606083,N,00952.1453949,E,2,11,0.8,-1.463,M,40.593,M,2.8,0123*6D\r\n
$GPGGA,070854.15,5703.4605481,N,00952.1453660,E,2,11,0.8,-1.466,M,40.593,M,2.8,0123*6C\r\n
$GPGGA,070854.20,5703.4604875,N,00952.1453386,E,2,11,0.8,-1.465,M,40.593,M,2.8,0123*62\r\n
$GPGGA,070854.25,5703.4604262,N,00952.1453111,E,2,11,0.8,-1.463,M,40.593,M,2.0,0123*69\r\n
$GPGGA,070854.30,5703.4603638,N,00952.1452847,E,2,11,0.8,-1.465,M,40.593,M,2.0,0123*6C\r\n
$GPGGA,070854.35,5703.4603024,N,00952.1452589,E,2,11,0.8,-1.466,M,40.593,M,2.0,0123*6E\r\n
$GPGGA,070854.40,5703.4602404,N,00952.1452346,E,2,11,0.8,-1.467,M,40.593,M,2.0,0123*6F\r\n
$GPGGA,070854.45,5703.4601783,N,00952.1452099,E,2,11,0.8,-1.467,M,40.593,M,2.2,0123*66\r\n
$GPGGA,070854.50,5703.4601181,N,00952.1451870,E,2,11,0.8,-1.467,M,40.593,M,2.2,0123*6A\r\n
$GPGGA,070854.55,5703.4600574,N,00952.1451672,E,2,11,0.8,-1.468,M,40.593,M,2.2,0123*63\r\n
$GPGGA,070854.60,5703.4599950,N,00952.1451483,E,2,11,0.8,-1.469,M,40.593,M,2.2,0123*61\r\n
$GPGGA,070854.65,5703.4599318,N,00952.1451282,E,2,11,0.8,-1.468,M,40.593,M,2.4,0123*62\r\n
$GPGGA,070854.70,5703.4598699,N,00952.1451080,E,2,11,0.8,-1.474,M,40.593,M,2.4,0123*66\r\n
$GPGGA,070854.75,5703.4598078,N,00952.1450890,E,2,11,0.8,-1.477,M,40.593,M,2.4,0123*61\r\n
$GPGGA,070854.80,5703.4597459,N,00952.1450714,E,2,11,0.8,-1.478,M,40.593,M,2.4,0123*6F\r\n
$GPGGA,070854.85,5703.4596829,N,00952.1450541,E,2,11,0.8,-1.478,M,40.593,M,2.7,0123*61\r\n
$GPGGA,070854.90,5703.4596202,N,00952.1450376,E,2,11,0.8,-1.479,M,40.593,M,2.7,0123*65\r\n
$GPGGA,070854.95,5703.4595581,N,00952.1450230,E,2,11,0.8,-1.483,M,40.593,M,2.7,0123*69\r\n
$GPGGA,070855.00,5703.4594951,N,00952.1450086,E,2,11,0.8,-1.486,M,40.593,M,2.7,0123*6E\r\n
$GPGGA,070855.05,5703.4594336,N,00952.1449933,E,2,11,0.8,-1.481,M,40.593,M,2.9,0123*66\r\n
$GPGGA,070855.10,5703.4593714,N,00952.1449796,E,2,11,0.8,-1.483,M,40.593,M,2.9,0123*62\r\n
$GPGGA,070855.15,5703.4593089,N,00952.1449697,E,2,11,0.8,-1.481,M,40.593,M,2.9,0123*66\r\n
$GPGGA,070855.20,5703.4592460,N,00952.1449592,E,2,11,0.8,-1.480,M,40.593,M,2.9,0123*65\r\n
$GPGGA,070855.25,5703.4591829,N,00952.1449475,E,2,11,0.8,-1.481,M,40.593,M,3.1,0123*62\r\n
$GPGGA,070855.30,5703.4591200,N,00952.1449367,E,2,11,0.8,-1.481,M,40.593,M,3.1,0123*63\r\n
$GPGGA,070855.35,5703.4590583,N,00952.1449271,E,2,11,0.8,-1.478,M,40.593,M,3.1,0123*6B\r\n
$GPGGA,070855.40,5703.4589956,N,00952.1449183,E,2,11,0.8,-1.476,M,40.593,M,3.1,0123*65\r\n
$GPGGA,070855.45,5703.4589323,N,00952.1449092,E,2,11,0.8,-1.472,M,40.593,M,3.3,0123*6F\r\n
$GPGGA,070855.50,5703.4588686,N,00952.1449014,E,2,11,0.8,-1.473,M,40.593,M,3.3,0123*6F\r\n
$GPGGA,070855.55,5703.4588054,N,00952.1448956,E,2,11,0.8,-1.476,M,40.593,M,3.3,0123*68\r\n
$GPGGA,070855.60,5703.4587418,N,00952.1448921,E,2,11,0.8,-1.481,M,40.593,M,3.3,0123*65\r\n
$GPGGA,070855.65,5703.4586790,N,00952.1448898,E,2,11,0.8,-1.484,M,40.593,M,3.5,0123*62\r\n
$GPGGA,070855.70,5703.4586157,N,00952.1448880,E,2,11,0.8,-1.486,M,40.593,M,3.5,0123*60\r\n
$GPGGA,070855.75,5703.4585510,N,00952.1448853,E,2,11,0.8,-1.492,M,40.593,M,3.5,0123*6A\r\n
$GPGGA,070855.80,5703.4584860,N,00952.1448837,E,2,11,0.8,-1.497,M,40.593,M,3.5,0123*6C\r\n
$GPGGA,070855.85,5703.4584215,N,00952.1448843,E,2,11,0.8,-1.506,M,40.593,M,3.7,0123*69\r\n
$GPGGA,070855.90,5703.4583580,N,00952.1448844,E,2,11,0.8,-1.501,M,40.593,M,3.7,0123*61\r\n
$GPGGA,070855.95,5703.4582957,N,00952.1448863,E,2,11,0.8,-1.494,M,40.593,M,3.7,0123*6B\r\n
$GPGGA,070856.00,5703.4582319,N,00952.1448895,E,2,11,0.8,-1.492,M,40.593,M,3.7,0123*6B\r\n
$GPGGA,070856.05,5703.4581683,N,00952.1448917,E,2,11,0.8,-1.486,M,40.593,M,3.9,0123*6B\r\n
$GPGGA,070856.10,5703.4581037,N,00952.1448923,E,2,11,0.8,-1.489,M,40.593,M,3.9,0123*6E\r\n
$GPGGA,070856.15,5703.4580391,N,00952.1448942,E,2,11,0.8,-1.487,M,40.593,M,3.9,0123*6C\r\n
$GPGGA,070856.20,5703.4579749,N,00952.1448981,E,2,11,0.8,-1.483,M,40.593,M,3.9,0123*66\r\n
$GPGGA,070856.25,5703.4579114,N,00952.1449022,E,2,11,0.8,-1.481,M,40.593,M,2.1,0123*67\r\n
$GPGGA,070856.30,5703.4578463,N,00952.1449062,E,2,11,0.8,-1.477,M,40.593,M,2.1,0123*6A\r\n
$GPGGA,070856.35,5703.4577815,N,00952.1449103,E,2,11,0.8,-1.476,M,40.593,M,2.1,0123*6A\r\n
$GPGGA,070856.40,5703.4577169,N,00952.1449145,E,2,11,0.8,-1.477,M,40.593,M,2.1,0123*69\r\n
$GPGGA,070856.45,5703.4576515,N,00952.1449200,E,2,11,0.8,-1.478,M,40.593,M,2.4,0123*6A\r\n
$GPGGA,070856.50,5703.4575859,N,00952.1449257,E,2,11,0.8,-1.481,M,40.593,M,2.4,0123*6C\r\n
$GPGGA,070856.55,5703.4575200,N,00952.1449315,E,2,11,0.8,-1.483,M,40.593,M,2.4,0123*6A\r\n
$GPGGA,070856.60,5703.4574539,N,00952.1449384,E,2,11,0.8,-1.485,M,40.593,M,2.4,0123*6E\r\n
$GPGGA,070856.65,5703.4573882,N,00952.1449477,E,2,11,0.8,-1.485,M,40.593,M,2.6,0123*68\r\n
$GPGGA,070856.70,5703.4573231,N,00952.1449569,E,2,11,0.8,-1.487,M,40.593,M,2.6,0123*62\r\n
$GPGGA,070856.75,5703.4572578,N,00952.1449661,E,2,11,0.8,-1.489,M,40.593,M,2.6,0123*69\r\n
$GPGGA,070856.80,5703.4571926,N,00952.1449758,E,2,11,0.8,-1.486,M,40.593,M,2.6,0123*63\r\n
$GPGGA,070856.85,5703.4571269,N,00952.1449862,E,2,11,0.8,-1.483,M,40.593,M,2.9,0123*6A\r\n
$GPGGA,070856.90,5703.4570616,N,00952.1449977,E,2,11,0.8,-1.480,M,40.593,M,2.9,0123*65\r\n
$GPGGA,070856.95,5703.4569961,N,00952.1450092,E,2,11,0.8,-1.481,M,40.593,M,2.9,0123*6C\r\n
$GPGGA,070857.00,5703.4569303,N,00952.1450207,E,2,11,0.8,-1.480,M,40.593,M,2.9,0123*60\r\n
$GPGGA,070857.05,5703.4568640,N,00952.1450299,E,2,11,0.8,-1.470,M,40.593,M,3.1,0123*67\r\n
$GPGGA,070857.10,5703.4567982,N,00952.1450426,E,2,11,0.8,-1.469,M,40.593,M,3.1,0123*67\r\n
$GPGGA,070857.15,5703.4567313,N,00952.1450574,E,2,11,0.8,-1.471,M,40.593,M,3.1,0123*6F\r\n
$GPGGA,070857.20,5703.4566658,N,00952.1450711,E,2,11,0.8,-1.474,M,40.593,M,3.1,0123*66\r\n
$GPGGA,070857.25,5703.4566001,N,00952.1450831,E,2,11,0.8,-1.472,M,40.593,M,1.9,0123*68\r\n
$GPGGA,070857.30,5703.4565346,N,00952.1450979,E,2,11,0.8,-1.467,M,40.593,M,1.9,0123*66\r\n
$GPGGA,070857.35,5703.4564677,N,00952.1451142,E,2,11,0.8,-1.469,M,40.593,M,1.9,0123*6A\r\n
$GPGGA,070857.40,5703.4564008,N,00952.1451311,E,2,11,0.8,-1.470,M,40.593,M,1.9,0123*6A\r\n
$GPGGA,070857.45,5703.4563341,N,00952.1451477,E,2,11,0.8,-1.471,M,40.593,M,2.1,0123*6B\r\n
$GPGGA,070857.50,5703.4562689,N,00952.1451663,E,2,11,0.8,-1.472,M,40.593,M,2.1,0123*6B\r\n
$GPGGA,070857.55,5703.4562036,N,00952.1451860,E,2,11,0.8,-1.469,M,40.593,M,2.1,0123*6B\r\n
$GPGGA,070857.60,5703.4561377,N,00952.1452058,E,2,11,0.8,-1.471,M,40.593,M,2.1,0123*61\r\n
$GPGGA,070857.65,5703.4560710,N,00952.1452232,E,2,11,0.8,-1.478,M,40.593,M,2.3,0123*65\r\n
$GPGGA,070857.70,5703.4560044,N,00952.1452404,E,2,11,0.8,-1.478,M,40.593,M,2.3,0123*64\r\n
$GPGGA,070857.75,5703.4559373,N,00952.1452584,E,2,11,0.8,-1.480,M,40.593,M,2.3,0123*62\r\n
$GPGGA,070857.80,5703.4558710,N,00952.1452750,E,2,11,0.8,-1.484,M,40.593,M,2.3,0123*67\r\n
$GPGGA,070857.85,5703.4558044,N,00952.1452919,E,2,11,0.8,-1.483,M,40.593,M,2.6,0123*65\r\n
$GPGGA,070857.90,5703.4557363,N,00952.1453090,E,2,11,0.8,-1.482,M,40.593,M,2.6,0123*60\r\n
$GPGGA,070857.95,5703.4556692,N,00952.1453274,E,2,11,0.8,-1.481,M,40.593,M,2.6,0123*64\r\n
$GPGGA,070858.00,5703.4556018,N,00952.1453449,E,2,11,0.8,-1.485,M,40.593,M,2.6,0123*6F\r\n
$GPGGA,070858.05,5703.4555347,N,00952.1453618,E,2,11,0.8,-1.485,M,40.593,M,2.8,0123*68\r\n
$GPGGA,070858.10,5703.4554682,N,00952.1453786,E,2,11,0.8,-1.481,M,40.593,M,2.8,0123*63\r\n
$GPGGA,070858.15,5703.4554017,N,00952.1453950,E,2,11,0.8,-1.477,M,40.593,M,2.8,0123*60\r\n
$GPGGA,070858.20,5703.4553350,N,00952.1454123,E,2,11,0.8,-1.476,M,40.593,M,2.8,0123*6B\r\n
$GPGGA,070858.25,5703.4552683,N,00952.1454301,E,2,11,0.8,-1.470,M,40.593,M,2.0,0123*68\r\n
$GPGGA,070858.30,5703.4552017,N,00952.1454487,E,2,11,0.8,-1.466,M,40.593,M,2.0,0123*69\r\n
$GPGGA,070858.35,5703.4551341,N,00952.1454692,E,2,11,0.8,-1.464,M,40.593,M,2.0,0123*6B\r\n
$GPGGA,070858.40,5703.4550660,N,00952.1454898,E,2,11,0.8,-1.464,M,40.593,M,2.0,0123*6A\r\n
$GPGGA,070858.45,5703.4549990,N,00952.1455129,E,2,11,0.8,-1.473,M,40.593,M,2.2,0123*61\r\n
$GPGGA,070858.50,5703.4549330,N,00952.1455350,E,2,11,0.8,-1.471,M,40.593,M,2.2,0123*6B\r\n
$GPGGA,070858.55,5703.4548666,N,00952.1455541,E,2,11,0.8,-1.469,M,40.593,M,2.2,0123*66\r\n
$GPGGA,070858.60,5703.4547989,N,00952.1455740,E,2,11,0.8,-1.468,M,40.593,M,2.2,0123*63\r\n
$GPGGA,070858.65,5703.4547308,N,00952.1455936,E,2,11,0.8,-1.468,M,40.593,M,2.4,0123*6C\r\n
$GPGGA,070858.70,5703.4546613,N,00952.1456138,E,2,11,0.8,-1.471,M,40.593,M,2.4,0123*6B\r\n
$GPGGA,070858.75,5703.4545925,N,00952.1456328,E,2,11,0.8,-1.470,M,40.593,M,2.4,0123*65\r\n
$GPGGA,070858.80,5703.4545242,N,00952.1456516,E,2,11,0.8,-1.469,M,40.593,M,2.4,0123*66\r\n
$GPGGA,070858.85,5703.4544559,N,00952.1456702,E,2,11,0.8,-1.475,M,40.593,M,2.7,0123*66\r\n
$GPGGA,070858.90,5703.4543889,N,00952.1456884,E,2,11,0.8,-1.473,M,40.593,M,2.7,0123*62\r\n
$GPGGA,070858.95,5703.4543215,N,00952.1457066,E,2,11,0.8,-1.469,M,40.593,M,2.7,0123*66\r\n
$GPGGA,070859.00,5703.4542534,N,00952.1457239,E,2,11,0.8,-1.466,M,40.593,M,2.7,0123*69\r\n
$GPGGA,070859.05,5703.4541861,N,00952.1457388,E,2,11,0.8,-1.465,M,40.593,M,2.9,0123*64\r\n
$GPGGA,070859.10,5703.4541193,N,00952.1457552,E,2,11,0.8,-1.459,M,40.593,M,2.9,0123*6A\r\n
$GPGGA,070859.15,5703.4540524,N,00952.1457741,E,2,11,0.8,-1.456,M,40.593,M,2.9,0123*69\r\n
$GPGGA,070859.20,5703.4539842,N,00952.1457913,E,2,11,0.8,-1.461,M,40.593,M,2.9,0123*61\r\n
$GPGGA,070859.25,5703.4539155,N,00952.1458091,E,2,11,0.8,-1.455,M,40.593,M,3.1,0123*69\r\n
$GPGGA,070859.30,5703.4538468,N,00952.1458277,E,2,11,0.8,-1.455,M,40.593,M,3.1,0123*6D\r\n
$GPGGA,070859.35,5703.4537783,N,00952.1458454,E,2,11,0.8,-1.453,M,40.593,M,3.1,0123*60\r\n
$GPGGA,070859.40,5703.4537100,N,00952.1458620,E,2,11,0.8,-1.451,M,40.593,M,3.1,0123*6C\r\n
$GPGGA,070859.45,5703.4536415,N,00952.1458788,E,2,11,0.8,-1.455,M,40.593,M,3.3,0123*6C\r\n
$GPGGA,070859.50,5703.4535715,N,00952.1458962,E,2,11,0.8,-1.460,M,40.593,M,3.3,0123*64\r\n
$GPGGA,070859.55,5703.4535015,N,00952.1459137,E,2,11,0.8,-1.467,M,40.593,M,3.3,0123*68\r\n
$GPGGA,070859.60,5703.4534321,N,00952.1459304,E,2,11,0.8,-1.467,M,40.593,M,3.3,0123*69\r\n
$GPGGA,070859.65,5703.4533645,N,00952.1459445,E,2,11,0.8,-1.469,M,40.593,M,3.5,0123*66\r\n
$GPGGA,070859.70,5703.4532972,N,00952.1459613,E,2,11,0.8,-1.468,M,40.593,M,3.5,0123*68\r\n
$GPGGA,070859.75,5703.4532280,N,00952.1459785,E,2,11,0.8,-1.467,M,40.593,M,3.5,0123*6A\r\n
$GPGGA,070859.80,5703.4531579,N,00952.1459947,E,2,11,0.8,-1.467,M,40.593,M,3.5,0123*62\r\n
$GPGGA,070859.85,5703.4530884,N,00952.1460095,E,2,11,0.8,-1.472,M,40.593,M,3.7,0123*63\r\n
$GPGGA,070859.90,5703.4530199,N,00952.1460233,E,2,11,0.8,-1.474,M,40.593,M,3.7,0123*6A\r\n
$GPGGA,070859.95,5703.4529504,N,00952.1460376,E,2,11,0.8,-1.474,M,40.593,M,3.7,0123*67\r\n
$GPGGA,070900.00,5703.4528809,N,00952.1460521,E,2,11,0.8,-1.476,M,40.593,M,3.7,0123*61\r\n
$GPGGA,070900.05,5703.4528123,N,00952.1460654,E,2,11,0.8,-1.470,M,40.593,M,3.9,0123*6C\r\n
$GPGGA,070900.10,5703.4527447,N,00952.1460803,E,2,11,0.8,-1.463,M,40.593,M,3.9,0123*6E\r\n
$GPGGA,070900.15,5703.4526773,N,00952.1460956,E,2,11,0.8,-1.456,M,40.593,M,3.9,0123*69\r\n
$GPGGA,070900.20,5703.4526087,N,00952.1461094,E,2,11,0.8,-1.454,M,40.593,M,3.9,0123*67\r\n
$GPGGA,070900.25,5703.4525393,N,00952.1461216,E,2,11,0.8,-1.453,M,40.593,M,2.1,0123*61\r\n
$GPGGA,070900.30,5703.4524695,N,00952.1461339,E,2,11,0.8,-1.454,M,40.593,M,2.1,0123*6C\r\n
$GPGGA,070900.35,5703.4523987,N,00952.1461455,E,2,11,0.8,-1.452,M,40.593,M,2.1,0123*69\r\n
$GPGGA,070900.40,5703.4523288,N,00952.1461561,E,2,11,0.8,-1.455,M,40.593,M,2.1,0123*6E\r\n
$GPGGA,070900.45,5703.4522596,N,00952.1461693,E,2,11,0.8,-1.457,M,40.593,M,2.4,0123*6B\r\n
$GPGGA,070900.50,5703.4521901,N,00952.1461814,E,2,11,0.8,-1.457,M,40.593,M,2.4,0123*6F\r\n
$GPGGA,070900.55,5703.4521193,N,00952.1461931,E,2,11,0.8,-1.462,M,40.593,M,2.4,0123*69\r\n
$GPGGA,070900.60,5703.4520483,N,00952.1462034,E,2,11,0.8,-1.466,M,40.593,M,2.4,0123*61\r\n
$GPGGA,070900.65,5703.4519782,N,00952.1462142,E,2,11,0.8,-1.467,M,40.593,M,2.6,0123*6F\r\n
$GPGGA,070900.70,5703.4519099,N,00952.1462230,E,2,11,0.8,-1.463,M,40.593,M,2.6,0123*64\r\n
$GPGGA,070900.75,5703.4518402,N,00952.1462328,E,2,11,0.8,-1.460,M,40.593,M,2.6,0123*6D\r\n
$GPGGA,070900.80,5703.4517696,N,00952.1462443,E,2,11,0.8,-1.462,M,40.593,M,2.6,0123*6F\r\n
$GPGGA,070900.85,5703.4516991,N,00952.1462542,E,2,11,0.8,-1.467,M,40.593,M,2.9,0123*69\r\n
$GPGGA,070900.90,5703.4516298,N,00952.1462646,E,2,11,0.8,-1.467,M,40.593,M,2.9,0123*68\r\n
$GPGGA,070900.95,5703.4515605,N,00952.1462762,E,2,11,0.8,-1.466,M,40.593,M,2.9,0123*68\r\n
$GPGGA,070901.00,5703.4514912,N,00952.1462892,E,2,11,0.8,-1.464,M,40.593,M,2.9,0123*6F\r\n
$GPGGA,070901.05,5703.4514221,N,00952.1462975,E,2,11,0.8,-1.459,M,40.593,M,3.1,0123*6E\r\n
$GPGGA,070901.10,5703.4513520,N,00952.1463072,E,2,11,0.8,-1.461,M,40.593,M,3.1,0123*6F\r\n
$GPGGA,070901.15,5703.4512813,N,00952.1463178,E,2,11,0.8,-1.470,M,40.593,M,3.1,0123*6D\r\n
$GPGGA,070901.20,5703.4512103,N,00952.1463287,E,2,11,0.8,-1.471,M,40.593,M,3.1,0123*61\r\n
$GPGGA,070901.25,5703.4511388,N,00952.1463395,E,2,11,0.8,-1.469,M,40.593,M,1.9,0123*67\r\n
$GPGGA,070901.30,5703.4510681,N,00952.1463500,E,2,11,0.8,-1.473,M,40.593,M,1.9,0123*6F\r\n
$GPGGA,070901.35,5703.4509975,N,00952.1463594,E,2,11,0.8,-1.475,M,40.593,M,1.9,0123*6D\r\n
$GPGGA,070901.40,5703.4509258,N,00952.1463672,E,2,11,0.8,-1.477,M,40.593,M,1.9,0123*62\r\n
$GPGGA,070901.45,5703.4508547,N,00952.1463763,E,2,11,0.8,-1.481,M,40.593,M,2.1,0123*6C\r\n
$GPGGA,070901.50,5703.4507844,N,00952.1463857,E,2,11,0.8,-1.481,M,40.593,M,2.1,0123*61\r\n
$GPGGA,070901.55,5703.4507130,N,00952.1463936,E,2,11,0.8,-1.481,M,40.593,M,2.1,0123*68\r\n
$GPGGA,070901.60,5703.4506425,N,00952.1464044,E,2,11,0.8,-1.482,M,40.593,M,2.1,0123*66\r\n
$GPGGA,070901.65,5703.4505713,N,00952.1464161,E,2,11,0.8,-1.483,M,40.593,M,2.3,0123*63\r\n
$GPGGA,070901.70,5703.4505004,N,00952.1464271,E,2,11,0.8,-1.480,M,40.593,M,2.3,0123*67\r\n
$GPGGA,070901.75,5703.4504301,N,00952.1464374,E,2,11,0.8,-1.476,M,40.593,M,2.3,0123*68\r\n
$GPGGA,070901.80,5703.4503605,N,00952.1464472,E,2,11,0.8,-1.474,M,40.593,M,2.3,0123*67\r\n
$GPGGA,070901.85,5703.4502896,N,00952.1464577,E,2,11,0.8,-1.470,M,40.593,M,2.6,0123*62\r\n
$GPGGA,070901.90,5703.4502189,N,00952.1464703,E,2,11,0.8,-1.468,M,40.593,M,2.6,0123*69\r\n
$GPGGA,070901.95,5703.4501469,N,00952.1464811,E,2,11,0.8,-1.466,M,40.593,M,2.6,0123*66\r\n
$GPGGA,070902.00,5703.4500738,N,00952.1464895,E,2,11,0.8,-1.465,M,40.593,M,2.6,0123*60\r\n
$GPGGA,070902.05,5703.4500020,N,00952.1464984,E,2,11,0.8,-1.463,M,40.593,M,2.8,0123*62\r\n
$GPGGA,070902.10,5703.4499302,N,00952.1465068,E,2,11,0.8,-1.463,M,40.593,M,2.8,0123*6E\r\n
$GPGGA,070902.15,5703.4498587,N,00952.1465138,E,2,11,0.8,-1.461,M,40.593,M,2.8,0123*67\r\n
$GPGGA,070902.20,5703.4497866,N,00952.1465209,E,2,11,0.8,-1.461,M,40.593,M,2.8,0123*6D\r\n
$GPGGA,070902.25,5703.4497150,N,00952.1465304,E,2,11,0.8,-1.467,M,40.593,M,2.0,0123*66\r\n
$GPGGA,070902.30,5703.4496429,N,00952.1465418,E,2,11,0.8,-1.469,M,40.593,M,2.0,0123*6C\r\n
$GPGGA,070902.35,5703.4495706,N,00952.1465524,E,2,11,0.8,-1.471,M,40.593,M,2.0,0123*63\r\n
$GPGGA,070902.40,5703.4494981,N,00952.1465615,E,2,11,0.8,-1.474,M,40.593,M,2.0,0123*65\r\n
$GPGGA,070902.45,5703.4494267,N,00952.1465697,E,2,11,0.8,-1.472,M,40.593,M,2.2,0123*6D\r\n
$GPGGA,070902.50,5703.4493548,N,00952.1465779,E,2,11,0.8,-1.471,M,40.593,M,2.2,0123*66\r\n
$GPGGA,070902.55,5703.4492832,N,00952.1465875,E,2,11,0.8,-1.468,M,40.593,M,2.2,0123*69\r\n
$GPGGA,070902.60,5703.4492106,N,00952.1465978,E,2,11,0.8,-1.464,M,40.593,M,2.2,0123*61\r\n
$GPGGA,070902.65,5703.4491389,N,00952.1466089,E,2,11,0.8,-1.465,M,40.593,M,2.4,0123*61\r\n
$GPGGA,070902.70,5703.4490660,N,00952.1466191,E,2,11,0.8,-1.469,M,40.593,M,2.4,0123*62\r\n
$GPGGA,070902.75,5703.4489928,N,00952.1466277,E,2,11,0.8,-1.470,M,40.593,M,2.4,0123*6F\r\n
$GPGGA,070902.80,5703.4489219,N,00952.1466355,E,2,11,0.8,-1.466,M,40.593,M,2.4,0123*6A\r\n
$GPGGA,070902.85,5703.4488508,N,00952.1466449,E,2,11,0.8,-1.468,M,40.593,M,2.7,0123*6E\r\n
$GPGGA,070902.90,5703.4487788,N,00952.1466558,E,2,11,0.8,-1.468,M,40.593,M,2.7,0123*6E\r\n
$GPGGA,070902.95,5703.4487067,N,00952.1466660,E,2,11,0.8,-1.470,M,40.593,M,2.7,0123*6C\r\n
$GPGGA,070903.00,5703.4486339,N,00952.1466762,E,2,11,0.8,-1.470,M,40.593,M,2.7,0123*6B\r\n
$GPGGA,070903.05,5703.4485620,N,00952.1466862,E,2,11,0.8,-1.466,M,40.593,M,2.9,0123*66\r\n
$GPGGA,070903.10,5703.4484907,N,00952.1466980,E,2,11,0.8,-1.467,M,40.593,M,2.9,0123*65\r\n
$GPGGA,070903.15,5703.4484194,N,00952.1467114,E,2,11,0.8,-1.466,M,40.593,M,2.9,0123*67\r\n
$GPGGA,070903.20,5703.4483485,N,00952.1467232,E,2,11,0.8,-1.465,M,40.593,M,2.9,0123*67\r\n
$GPGGA,070903.25,5703.4482760,N,00952.1467358,E,2,11,0.8,-1.470,M,40.593,M,3.1,0123*6B\r\n
$GPGGA,070903.30,5703.4482036,N,00952.1467471,E,2,11,0.8,-1.474,M,40.593,M,3.1,0123*63\r\n
$GPGGA,070903.35,5703.4481318,N,00952.1467574,E,2,11,0.8,-1.475,M,40.593,M,3.1,0123*6F\r\n
$GPGGA,070903.40,5703.4480606,N,00952.1467687,E,2,11,0.8,-1.476,M,40.593,M,3.1,0123*6A\r\n
$GPGGA,070903.45,5703.4479906,N,00952.1467805,E,2,11,0.8,-1.470,M,40.593,M,3.3,0123*66\r\n
$GPGGA,070903.50,5703.4479202,N,00952.1467927,E,2,11,0.8,-1.468,M,40.593,M,3.3,0123*65\r\n
$GPGGA,070903.55,5703.4478489,N,00952.1468056,E,2,11,0.8,-1.468,M,40.593,M,3.3,0123*64\r\n
$GPGGA,070903.60,5703.4477778,N,00952.1468170,E,2,11,0.8,-1.468,M,40.593,M,3.3,0123*65\r\n
$GPGGA,070903.65,5703.4477063,N,00952.1468283,E,2,11,0.8,-1.470,M,40.593,M,3.5,0123*6D\r\n
$GPGGA,070903.70,5703.4476354,N,00952.1468389,E,2,11,0.8,-1.467,M,40.593,M,3.5,0123*62\r\n
$GPGGA,070903.75,5703.4475647,N,00952.1468512,E,2,11,0.8,-1.465,M,40.593,M,3.5,0123*65\r\n
$GPGGA,070903.80,5703.4474947,N,00952.1468622,E,2,11,0.8,-1.463,M,40.593,M,3.5,0123*67\r\n
$GPGGA,070903.85,5703.4474245,N,00952.1468746,E,2,11,0.8,-1.465,M,40.593,M,3.7,0123*6C\r\n
$GPGGA,070903.90,5703.4473534,N,00952.1468873,E,2,11,0.8,-1.465,M,40.593,M,3.7,0123*67\r\n
$GPGGA,070903.95,5703.4472820,N,00952.1469016,E,2,11,0.8,-1.463,M,40.593,M,3.7,0123*67\r\n
$GPGGA,070904.00,5703.4472113,N,00952.1469155,E,2,11,0.8,-1.464,M,40.593,M,3.7,0123*64\r\n
$GPGGA,070904.05,5703.4471414,N,00952.1469272,E,2,11,0.8,-1.467,M,40.593,M,3.9,0123*6B\r\n
$GPGGA,070904.10,5703.4470703,N,00952.1469410,E,2,11,0.8,-1.468,M,40.593,M,3.9,0123*66\r\n
$GPGGA,070904.15,5703.4469999,N,00952.1469553,E,2,11,0.8,-1.469,M,40.593,M,3.9,0123*61\r\n
$GPGGA,070904.20,5703.4469295,N,00952.1469691,E,2,11,0.8,-1.470,M,40.593,M,3.9,0123*65\r\n
$GPGGA,070904.25,5703.4468587,N,00952.1469840,E,2,11,0.8,-1.468,M,40.593,M,2.1,0123*67\r\n
$GPGGA,070904.30,5703.4467888,N,00952.1469991,E,2,11,0.8,-1.466,M,40.593,M,2.1,0123*6D\r\n
$GPGGA,070904.35,5703.4467203,N,00952.1470133,E,2,11,0.8,-1.465,M,40.593,M,2.1,0123*6A\r\n
$GPGGA,070904.40,5703.4466510,N,00952.1470290,E,2,11,0.8,-1.465,M,40.593,M,2.1,0123*66\r\n
$GPGGA,070904.45,5703.4465804,N,00952.1470449,E,2,11,0.8,-1.469,M,40.593,M,2.4,0123*63\r\n
$GPGGA,070904.50,5703.4465097,N,00952.1470595,E,2,11,0.8,-1.470,M,40.593,M,2.4,0123*6D\r\n
$GPGGA,070904.55,5703.4464392,N,00952.1470738,E,2,11,0.8,-1.469,M,40.593,M,2.4,0123*62\r\n
$GPGGA,070904.60,5703.4463696,N,00952.1470888,E,2,11,0.8,-1.469,M,40.593,M,2.4,0123*66\r\n
$GPGGA,070904.65,5703.4463001,N,00952.1471047,E,2,11,0.8,-1.473,M,40.593,M,2.6,0123*68\r\n
$GPGGA,070904.70,5703.4462302,N,00952.1471236,E,2,11,0.8,-1.472,M,40.593,M,2.6,0123*68\r\n
$GPGGA,070904.75,5703.4461599,N,00952.1471426,E,2,11,0.8,-1.470,M,40.593,M,2.6,0123*6F\r\n
$GPGGA,070904.80,5703.4460914,N,00952.1471628,E,2,11,0.8,-1.470,M,40.593,M,2.6,0123*61\r\n
$GPGGA,070904.85,5703.4460218,N,00952.1471817,E,2,11,0.8,-1.471,M,40.593,M,2.9,0123*6F\r\n
$GPGGA,070904.90,5703.4459518,N,00952.1472018,E,2,11,0.8,-1.471,M,40.593,M,2.9,0123*62\r\n
$GPGGA,070904.95,5703.4458820,N,00952.1472241,E,2,11,0.8,-1.473,M,40.593,M,2.9,0123*6C\r\n
$GPGGA,070905.00,5703.4458125,N,00952.1472475,E,2,11,0.8,-1.471,M,40.593,M,2.9,0123*6E\r\n
$GPGGA,070905.05,5703.4457439,N,00952.1472696,E,2,11,0.8,-1.477,M,40.593,M,3.1,0123*6C\r\n
$GPGGA,070905.10,5703.4456745,N,00952.1472899,E,2,11,0.8,-1.479,M,40.593,M,3.1,0123*6E\r\n
$GPGGA,070905.15,5703.4456049,N,00952.1473112,E,2,11,0.8,-1.480,M,40.593,M,3.1,0123*6D\r\n
$GPGGA,070905.20,5703.4455368,N,00952.1473337,E,2,11,0.8,-1.480,M,40.593,M,3.1,0123*6D\r\n
$GPGGA,070905.25,5703.4454677,N,00952.1473564,E,2,11,0.8,-1.476,M,40.593,M,1.9,0123*61\r\n
$GPGGA,070905.30,5703.4453980,N,00952.1473785,E,2,11,0.8,-1.481,M,40.593,M,1.9,0123*60\r\n
$GPGGA,070905.35,5703.4453283,N,00952.1474022,E,2,11,0.8,-1.485,M,40.593,M,1.9,0123*64\r\n
$GPGGA,070905.40,5703.4452582,N,00952.1474233,E,2,11,0.8,-1.485,M,40.593,M,1.9,0123*63\r\n
$GPGGA,070905.45,5703.4451878,N,00952.1474450,E,2,11,0.8,-1.481,M,40.593,M,2.1,0123*61\r\n
$GPGGA,070905.50,5703.4451203,N,00952.1474684,E,2,11,0.8,-1.478,M,40.593,M,2.1,0123*6E\r\n
$GPGGA,070905.55,5703.4450517,N,00952.1474907,E,2,11,0.8,-1.477,M,40.593,M,2.1,0123*63\r\n
$GPGGA,070905.60,5703.4449814,N,00952.1475128,E,2,11,0.8,-1.477,M,40.593,M,2.1,0123*67\r\n
$GPGGA,070905.65,5703.4449119,N,00952.1475369,E,2,11,0.8,-1.476,M,40.593,M,2.3,0123*62\r\n
$GPGGA,070905.70,5703.4448414,N,00952.1475632,E,2,11,0.8,-1.480,M,40.593,M,2.3,0123*6D\r\n
$GPGGA,070905.75,5703.4447716,N,00952.1475895,E,2,11,0.8,-1.483,M,40.593,M,2.3,0123*66\r\n
$GPGGA,070905.80,5703.4447024,N,00952.1476178,E,2,11,0.8,-1.486,M,40.593,M,2.3,0123*66\r\n
$GPGGA,070905.85,5703.4446341,N,00952.1476447,E,2,11,0.8,-1.482,M,40.593,M,2.6,0123*6A\r\n
$GPGGA,070905.90,5703.4445664,N,00952.1476733,E,2,11,0.8,-1.479,M,40.593,M,2.6,0123*6B\r\n
$GPGGA,070905.95,5703.4444974,N,00952.1477024,E,2,11,0.8,-1.477,M,40.593,M,2.6,0123*6F\r\n
$GPGGA,070906.00,5703.4444289,N,00952.1477306,E,2,11,0.8,-1.477,M,40.593,M,2.6,0123*6A\r\n
$GPGGA,070906.05,5703.4443612,N,00952.1477580,E,2,11,0.8,-1.471,M,40.593,M,2.8,0123*6E\r\n
$GPGGA,070906.10,5703.4442924,N,00952.1477854,E,2,11,0.8,-1.471,M,40.593,M,2.8,0123*65\r\n
$GPGGA,070906.15,5703.4442232,N,00952.1478127,E,2,11,0.8,-1.471,M,40.593,M,2.8,0123*6E\r\n
$GPGGA,070906.20,5703.4441542,N,00952.1478378,E,2,11,0.8,-1.471,M,40.593,M,2.8,0123*63\r\n
$GPGGA,070906.25,5703.4440852,N,00952.1478626,E,2,11,0.8,-1.468,M,40.593,M,2.0,0123*65\r\n
$GPGGA,070906.30,5703.4440163,N,00952.1478888,E,2,11,0.8,-1.469,M,40.593,M,2.0,0123*61\r\n
$GPGGA,070906.35,5703.4439472,N,00952.1479158,E,2,11,0.8,-1.471,M,40.593,M,2.0,0123*63\r\n
$GPGGA,070906.40,5703.4438776,N,00952.1479448,E,2,11,0.8,-1.472,M,40.593,M,2.0,0123*60\r\n
$GPGGA,070906.45,5703.4438090,N,00952.1479741,E,2,11,0.8,-1.473,M,40.593,M,2.2,0123*63\r\n
$GPGGA,070906.50,5703.4437413,N,00952.1480036,E,2,11,0.8,-1.475,M,40.593,M,2.2,0123*60\r\n
$GPGGA,070906.55,5703.4436731,N,00952.1480342,E,2,11,0.8,-1.474,M,40.593,M,2.2,0123*66\r\n
$GPGGA,070906.60,5703.4436051,N,00952.1480657,E,2,11,0.8,-1.472,M,40.593,M,2.2,0123*66\r\n
$GPGGA,070906.65,5703.4435376,N,00952.1480971,E,2,11,0.8,-1.470,M,40.593,M,2.4,0123*69\r\n
$GPGGA,070906.70,5703.4434709,N,00952.1481292,E,2,11,0.8,-1.472,M,40.593,M,2.4,0123*65\r\n
$GPGGA,070906.75,5703.4434026,N,00952.1481607,E,2,11,0.8,-1.474,M,40.593,M,2.4,0123*64\r\n
$GPGGA,070906.80,5703.4433353,N,00952.1481934,E,2,11,0.8,-1.474,M,40.593,M,2.4,0123*67\r\n
$GPGGA,070906.85,5703.4432675,N,00952.1482253,E,2,11,0.8,-1.476,M,40.593,M,2.7,0123*6A\r\n
$GPGGA,070906.90,5703.4431999,N,00952.1482580,E,2,11,0.8,-1.475,M,40.593,M,2.7,0123*6A\r\n
$GPGGA,070906.95,5703.4431324,N,00952.1482886,E,2,11,0.8,-1.477,M,40.593,M,2.7,0123*6A\r\n
$GPGGA,070907.00,5703.4430648,N,00952.1483187,E,2,11,0.8,-1.481,M,40.593,M,2.7,0123*69\r\n
$GPGGA,070907.05,5703.4429970,N,00952.1483474,E,2,11,0.8,-1.476,M,40.593,M,2.9,0123*6F\r\n
$GPGGA,070907.10,5703.4429269,N,00952.1483778,E,2,11,0.8,-1.477,M,40.593,M,2.9,0123*66\r\n
$GPGGA,070907.15,5703.4428586,N,00952.1484104,E,2,11,0.8,-1.480,M,40.593,M,2.9,0123*66\r\n
$GPGGA,070907.20,5703.4427916,N,00952.1484434,E,2,11,0.8,-1.479,M,40.593,M,2.9,0123*6A\r\n
$GPGGA,070907.25,5703.4427250,N,00952.1484760,E,2,11,0.8,-1.479,M,40.593,M,3.1,0123*6D\r\n
$GPGGA,070907.30,5703.4426579,N,00952.1485074,E,2,11,0.8,-1.477,M,40.593,M,3.1,0123*69\r\n
$GPGGA,070907.35,5703.4425894,N,00952.1485394,E,2,11,0.8,-1.476,M,40.593,M,3.1,0123*6D\r\n
$GPGGA,070907.40,5703.4425217,N,00952.1485730,E,2,11,0.8,-1.475,M,40.593,M,3.1,0123*67\r\n
$GPGGA,070907.45,5703.4424543,N,00952.1486084,E,2,11,0.8,-1.476,M,40.593,M,3.3,0123*6F\r\n
$GPGGA,070907.50,5703.4423867,N,00952.1486438,E,2,11,0.8,-1.477,M,40.593,M,3.3,0123*65\r\n
$GPGGA,070907.55,5703.4423196,N,00952.1486790,E,2,11,0.8,-1.478,M,40.593,M,3.3,0123*69\r\n
$GPGGA,070907.60,5703.4422536,N,00952.1487129,E,2,11,0.8,-1.477,M,40.593,M,3.3,0123*6A\r\n
$GPGGA,070907.65,5703.4421874,N,00952.1487482,E,2,11,0.8,-1.476,M,40.593,M,3.5,0123*64\r\n
$GPGGA,070907.70,5703.4421207,N,00952.1487833,E,2,11,0.8,-1.473,M,40.593,M,3.5,0123*6D\r\n
$GPGGA,070907.75,5703.4420535,N,00952.1488189,E,2,11,0.8,-1.475,M,40.593,M,3.5,0123*6E\r\n
$GPGGA,070907.80,5703.4419869,N,00952.1488549,E,2,11,0.8,-1.475,M,40.593,M,3.5,0123*62\r\n
$GPGGA,070907.85,5703.4419201,N,00952.1488884,E,2,11,0.8,-1.471,M,40.593,M,3.7,0123*69\r\n
$GPGGA,070907.90,5703.4418527,N,00952.1489235,E,2,11,0.8,-1.471,M,40.593,M,3.7,0123*6E\r\n
$GPGGA,070907.95,5703.4417849,N,00952.1489593,E,2,11,0.8,-1.472,M,40.593,M,3.7,0123*69\r\n
$GPGGA,070908.00,5703.4417180,N,00952.1489941,E,2,11,0.8,-1.472,M,40.593,M,3.7,0123*65\r\n
$GPGGA,070908.05,5703.4416505,N,00952.1490286,E,2,11,0.8,-1.474,M,40.593,M,3.9,0123*68\r\n
$GPGGA,070908.10,5703.4415819,N,00952.1490625,E,2,11,0.8,-1.478,M,40.593,M,3.9,0123*6E\r\n
$GPGGA,070908.15,5703.4415143,N,00952.1490971,E,2,11,0.8,-1.480,M,40.593,M,3.9,0123*64\r\n
$GPGGA,070908.20,5703.4414473,N,00952.1491323,E,2,11,0.8,-1.483,M,40.593,M,3.9,0123*6A\r\n
$GPGGA,070908.25,5703.4413810,N,00952.1491686,E,2,11,0.8,-1.480,M,40.593,M,2.1,0123*61\r\n
$GPGGA,070908.30,5703.4413145,N,00952.1492055,E,2,11,0.8,-1.482,M,40.593,M,2.1,0123*65\r\n
$GPGGA,070908.35,5703.4412475,N,00952.1492427,E,2,11,0.8,-1.482,M,40.593,M,2.1,0123*66\r\n
$GPGGA,070908.40,5703.4411805,N,00952.1492784,E,2,11,0.8,-1.479,M,40.593,M,2.1,0123*62\r\n
$GPGGA,070908.45,5703.4411137,N,00952.1493143,E,2,11,0.8,-1.477,M,40.593,M,2.4,0123*68\r\n
$GPGGA,070908.50,5703.4410477,N,00952.1493488,E,2,11,0.8,-1.478,M,40.593,M,2.4,0123*61\r\n
$GPGGA,070908.55,5703.4409802,N,00952.1493851,E,2,11,0.8,-1.477,M,40.593,M,2.4,0123*65\r\n
$GPGGA,070908.60,5703.4409134,N,00952.1494235,E,2,11,0.8,-1.474,M,40.593,M,2.4,0123*63\r\n
$GPGGA,070908.65,5703.4408465,N,00952.1494623,E,2,11,0.8,-1.477,M,40.593,M,2.6,0123*64\r\n
$GPGGA,070908.70,5703.4407791,N,00952.1495016,E,2,11,0.8,-1.478,M,40.593,M,2.6,0123*69\r\n
$GPGGA,070908.75,5703.4407129,N,00952.1495382,E,2,11,0.8,-1.480,M,40.593,M,2.6,0123*60\r\n
$GPGGA,070908.80,5703.4406475,N,00952.1495749,E,2,11,0.8,-1.476,M,40.593,M,2.6,0123*6D\r\n
$GPGGA,070908.85,5703.4405809,N,00952.1496133,E,2,11,0.8,-1.475,M,40.593,M,2.9,0123*68\r\n
$GPGGA,070908.90,5703.4405141,N,00952.1496509,E,2,11,0.8,-1.477,M,40.593,M,2.9,0123*66\r\n
$GPGGA,070908.95,5703.4404477,N,00952.1496898,E,2,11,0.8,-1.480,M,40.593,M,2.9,0123*6F\r\n
$GPGGA,070909.00,5703.4403813,N,00952.1497286,E,2,11,0.8,-1.482,M,40.593,M,2.9,0123*6D\r\n
$GPGGA,070909.05,5703.4403156,N,00952.1497670,E,2,11,0.8,-1.478,M,40.593,M,3.1,0123*61\r\n
$GPGGA,070909.10,5703.4402502,N,00952.1498061,E,2,11,0.8,-1.475,M,40.593,M,3.1,0123*65\r\n
$GPGGA,070909.15,5703.4401845,N,00952.1498443,E,2,11,0.8,-1.472,M,40.593,M,3.1,0123*6E\r\n
$GPGGA,070909.20,5703.4401182,N,00952.1498839,E,2,11,0.8,-1.473,M,40.593,M,3.1,0123*6A\r\n
$GPGGA,070909.25,5703.4400518,N,00952.1499224,E,2,11,0.8,-1.473,M,40.593,M,1.9,0123*64\r\n
$GPGGA,070909.30,5703.4399850,N,00952.1499602,E,2,11,0.8,-1.475,M,40.593,M,1.9,0123*60\r\n
$GPGGA,070909.35,5703.4399178,N,00952.1499980,E,2,11,0.8,-1.476,M,40.593,M,1.9,0123*60\r\n
$GPGGA,070909.40,5703.4398511,N,00952.1500337,E,2,11,0.8,-1.476,M,40.593,M,1.9,0123*6F\r\n
$GPGGA,070909.45,5703.4397848,N,00952.1500710,E,2,11,0.8,-1.478,M,40.593,M,2.1,0123*60\r\n
$GPGGA,070909.50,5703.4397192,N,00952.1501092,E,2,11,0.8,-1.478,M,40.593,M,2.1,0123*66\r\n
$GPGGA,070909.55,5703.4396533,N,00952.1501487,E,2,11,0.8,-1.481,M,40.593,M,2.1,0123*6B\r\n
$GPGGA,070909.60,5703.4395860,N,00952.1501869,E,2,11,0.8,-1.483,M,40.593,M,2.1,0123*6B\r\n
$GPGGA,070909.65,5703.4395186,N,00952.1502253,E,2,11,0.8,-1.485,M,40.593,M,2.3,0123*6B\r\n
$GPGGA,070909.70,5703.4394525,N,00952.1502626,E,2,11,0.8,-1.486,M,40.593,M,2.3,0123*66\r\n
$GPGGA,070909.75,5703.4393868,N,00952.1503026,E,2,11,0.8,-1.488,M,40.593,M,2.3,0123*69\r\n
$GPGGA,070909.80,5703.4393209,N,00952.1503438,E,2,11,0.8,-1.488,M,40.593,M,2.3,0123*65\r\n
$GPGGA,070909.85,5703.4392543,N,00952.1503839,E,2,11,0.8,-1.488,M,40.593,M,2.6,0123*60\r\n
$GPGGA,070909.90,5703.4391873,N,00952.1504224,E,2,11,0.8,-1.492,M,40.593,M,2.6,0123*63\r\n
$GPGGA,070909.95,5703.4391206,N,00952.1504613,E,2,11,0.8,-1.491,M,40.593,M,2.6,0123*6D\r\n
$GPGGA,070910.00,5703.4390560,N,00952.1505011,E,2,11,0.8,-1.489,M,40.593,M,2.6,0123*63\r\n
$GPGGA,070910.05,5703.4389913,N,00952.1505385,E,2,11,0.8,-1.487,M,40.593,M,2.8,0123*68\r\n
$GPGGA,070910.10,5703.4389251,N,00952.1505756,E,2,11,0.8,-1.482,M,40.593,M,2.8,0123*6E\r\n
$GPGGA,070910.15,5703.4388572,N,00952.1506115,E,2,11,0.8,-1.481,M,40.593,M,2.8,0123*6D\r\n
$GPGGA,070910.20,5703.4387897,N,00952.1506477,E,2,11,0.8,-1.480,M,40.593,M,2.8,0123*62\r\n
$GPGGA,070910.25,5703.4387228,N,00952.1506851,E,2,11,0.8,-1.483,M,40.593,M,2.0,0123*6A\r\n
$GPGGA,070910.30,5703.4386566,N,00952.1507241,E,2,11,0.8,-1.483,M,40.593,M,2.0,0123*68\r\n
$GPGGA,070910.35,5703.4385896,N,00952.1507612,E,2,11,0.8,-1.483,M,40.593,M,2.0,0123*6E\r\n
$GPGGA,070910.40,5703.4385232,N,00952.1508004,E,2,11,0.8,-1.481,M,40.593,M,2.0,0123*64\r\n
$GPGGA,070910.45,5703.4384571,N,00952.1508395,E,2,11,0.8,-1.479,M,40.593,M,2.2,0123*6E\r\n
$GPGGA,070910.50,5703.4383901,N,00952.1508786,E,2,11,0.8,-1.480,M,40.593,M,2.2,0123*66\r\n
$GPGGA,070910.55,5703.4383225,N,00952.1509180,E,2,11,0.8,-1.478,M,40.593,M,2.2,0123*68\r\n
$GPGGA,070910.60,5703.4382561,N,00952.1509592,E,2,11,0.8,-1.479,M,40.593,M,2.2,0123*6E\r\n
$GPGGA,070910.65,5703.4381890,N,00952.1509973,E,2,11,0.8,-1.483,M,40.593,M,2.4,0123*6B\r\n
$GPGGA,070910.70,5703.4381229,N,00952.1510359,E,2,11,0.8,-1.484,M,40.593,M,2.4,0123*6A\r\n
$GPGGA,070910.75,5703.4380568,N,00952.1510754,E,2,11,0.8,-1.485,M,40.593,M,2.4,0123*64\r\n
$GPGGA,070910.80,5703.4379893,N,00952.1511160,E,2,11,0.8,-1.487,M,40.593,M,2.4,0123*63\r\n
$GPGGA,070910.85,5703.4379224,N,00952.1511563,E,2,11,0.8,-1.492,M,40.593,M,2.7,0123*60\r\n
$GPGGA,070910.90,5703.4378564,N,00952.1511965,E,2,11,0.8,-1.492,M,40.593,M,2.7,0123*6C\r\n
$GPGGA,070910.95,5703.4377906,N,00952.1512367,E,2,11,0.8,-1.493,M,40.593,M,2.7,0123*64\r\n
$GPGGA,070911.00,5703.4377247,N,00952.1512763,E,2,11,0.8,-1.493,M,40.593,M,2.7,0123*67\r\n
$GPGGA,070911.05,5703.4376581,N,00952.1513155,E,2,11,0.8,-1.493,M,40.593,M,2.9,0123*62\r\n
$GPGGA,070911.10,5703.4375921,N,00952.1513566,E,2,11,0.8,-1.489,M,40.593,M,2.9,0123*6C\r\n
$GPGGA,070911.15,5703.4375260,N,00952.1513976,E,2,11,0.8,-1.485,M,40.593,M,2.9,0123*66\r\n
$GPGGA,070911.20,5703.4374605,N,00952.1514378,E,2,11,0.8,-1.486,M,40.593,M,2.9,0123*66\r\n
$GPGGA,070911.25,5703.4373934,N,00952.1514780,E,2,11,0.8,-1.488,M,40.593,M,3.1,0123*6D\r\n
$GPGGA,070911.30,5703.4373263,N,00952.1515183,E,2,11,0.8,-1.489,M,40.593,M,3.1,0123*65\r\n
$GPGGA,070911.35,5703.4372595,N,00952.1515579,E,2,11,0.8,-1.487,M,40.593,M,3.1,0123*60\r\n
$GPGGA,070911.40,5703.4371935,N,00952.1515964,E,2,11,0.8,-1.489,M,40.593,M,3.1,0123*69\r\n
$GPGGA,070911.45,5703.4371277,N,00952.1516353,E,2,11,0.8,-1.484,M,40.593,M,3.3,0123*63\r\n
$GPGGA,070911.50,5703.4370617,N,00952.1516746,E,2,11,0.8,-1.484,M,40.593,M,3.3,0123*64\r\n
$GPGGA,070911.55,5703.4369947,N,00952.1517130,E,2,11,0.8,-1.482,M,40.593,M,3.3,0123*63\r\n
$GPGGA,070911.60,5703.4369278,N,00952.1517514,E,2,11,0.8,-1.482,M,40.593,M,3.3,0123*60\r\n
$GPGGA,070911.65,5703.4368613,N,00952.1517917,E,2,11,0.8,-1.481,M,40.593,M,3.5,0123*67\r\n
$GPGGA,070911.70,5703.4367951,N,00952.1518321,E,2,11,0.8,-1.482,M,40.593,M,3.5,0123*66\r\n
$GPGGA,070911.75,5703.4367304,N,00952.1518711,E,2,11,0.8,-1.481,M,40.593,M,3.5,0123*6D\r\n
$GPGGA,070911.80,5703.4366641,N,00952.1519115,E,2,11,0.8,-1.485,M,40.593,M,3.5,0123*65\r\n
$GPGGA,070911.85,5703.4365972,N,00952.1519519,E,2,11,0.8,-1.491,M,40.593,M,3.7,0123*63\r\n
$GPGGA,070911.90,5703.4365309,N,00952.1519923,E,2,11,0.8,-1.491,M,40.593,M,3.7,0123*64\r\n
$GPGGA,070911.95,5703.4364659,N,00952.1520328,E,2,11,0.8,-1.491,M,40.593,M,3.7,0123*6B\r\n
$GPGGA,070912.00,5703.4364007,N,00952.1520714,E,2,11,0.8,-1.491,M,40.593,M,3.7,0123*62\r\n
$GPGGA,070912.05,5703.4363358,N,00952.1521101,E,2,11,0.8,-1.488,M,40.593,M,3.9,0123*6C\r\n
$GPGGA,070912.10,5703.4362697,N,00952.1521493,E,2,11,0.8,-1.490,M,40.593,M,3.9,0123*68\r\n
$GPGGA,070912.15,5703.4362022,N,00952.1521897,E,2,11,0.8,-1.493,M,40.593,M,3.9,0123*6E\r\n
$GPGGA,070912.20,5703.4361355,N,00952.1522312,E,2,11,0.8,-1.495,M,40.593,M,3.9,0123*6B\r\n
$GPGGA,070912.25,5703.4360708,N,00952.1522722,E,2,11,0.8,-1.497,M,40.593,M,2.1,0123*6F\r\n
$GPGGA,070912.30,5703.4360056,N,00952.1523123,E,2,11,0.8,-1.496,M,40.593,M,2.1,0123*60\r\n
$GPGGA,070912.35,5703.4359393,N,00952.1523514,E,2,11,0.8,-1.495,M,40.593,M,2.1,0123*66\r\n
$GPGGA,070912.40,5703.4358738,N,00952.1523899,E,2,11,0.8,-1.493,M,40.593,M,2.1,0123*6E\r\n
$GPGGA,070912.45,5703.4358091,N,00952.1524295,E,2,11,0.8,-1.491,M,40.593,M,2.4,0123*69\r\n
$GPGGA,070912.50,5703.4357445,N,00952.1524704,E,2,11,0.8,-1.485,M,40.593,M,2.4,0123*67\r\n
$GPGGA,070912.55,5703.4356792,N,00952.1525087,E,2,11,0.8,-1.482,M,40.593,M,2.4,0123*60\r\n
$GPGGA,070912.60,5703.4356126,N,00952.1525452,E,2,11,0.8,-1.484,M,40.593,M,2.4,0123*65\r\n
$GPGGA,070912.65,5703.4355467,N,00952.1525851,E,2,11,0.8,-1.481,M,40.593,M,2.6,0123*6B\r\n
$GPGGA,070912.70,5703.4354810,N,00952.1526272,E,2,11,0.8,-1.481,M,40.593,M,2.6,0123*6A\r\n
$GPGGA,070912.75,5703.4354156,N,00952.1526691,E,2,11,0.8,-1.482,M,40.593,M,2.6,0123*6E\r\n
$GPGGA,070912.80,5703.4353502,N,00952.1527090,E,2,11,0.8,-1.482,M,40.593,M,2.6,0123*60\r\n
$GPGGA,070912.85,5703.4352842,N,00952.1527494,E,2,11,0.8,-1.490,M,40.593,M,2.9,0123*61\r\n
$GPGGA,070912.90,5703.4352193,N,00952.1527907,E,2,11,0.8,-1.491,M,40.593,M,2.9,0123*66\r\n
$GPGGA,070912.95,5703.4351537,N,00952.1528326,E,2,11,0.8,-1.493,M,40.593,M,2.9,0123*6E\r\n
$GPGGA,070913.00,5703.4350891,N,00952.1528746,E,2,11,0.8,-1.497,M,40.593,M,2.9,0123*65\r\n
$GPGGA,070913.05,5703.4350252,N,00952.1529168,E,2,11,0.8,-1.495,M,40.593,M,3.1,0123*65\r\n
$GPGGA,070913.10,5703.4349602,N,00952.1529593,E,2,11,0.8,-1.496,M,40.593,M,3.1,0123*6B\r\n
$GPGGA,070913.15,5703.4348956,N,00952.1530019,E,2,11,0.8,-1.498,M,40.593,M,3.1,0123*60\r\n
$GPGGA,070913.20,5703.4348308,N,00952.1530432,E,2,11,0.8,-1.494,M,40.593,M,3.1,0123*66\r\n
$GPGGA,070913.25,5703.4347660,N,00952.1530858,E,2,11,0.8,-1.493,M,40.593,M,1.9,0123*6A\r\n
$GPGGA,070913.30,5703.4347012,N,00952.1531278,E,2,11,0.8,-1.492,M,40.593,M,1.9,0123*65\r\n
$GPGGA,070913.35,5703.4346362,N,00952.1531680,E,2,11,0.8,-1.495,M,40.593,M,1.9,0123*61\r\n
$GPGGA,070913.40,5703.4345710,N,00952.1532108,E,2,11,0.8,-1.494,M,40.593,M,1.9,0123*64\r\n
$GPGGA,070913.45,5703.4345051,N,00952.1532517,E,2,11,0.8,-1.499,M,40.593,M,2.1,0123*6F\r\n
$GPGGA,070913.50,5703.4344393,N,00952.1532917,E,2,11,0.8,-1.496,M,40.593,M,2.1,0123*64\r\n
$GPGGA,070913.55,5703.4343744,N,00952.1533310,E,2,11,0.8,-1.496,M,40.593,M,2.1,0123*64\r\n
$GPGGA,070913.60,5703.4343096,N,00952.1533716,E,2,11,0.8,-1.495,M,40.593,M,2.1,0123*6B\r\n
$GPGGA,070913.65,5703.4342452,N,00952.1534126,E,2,11,0.8,-1.494,M,40.593,M,2.3,0123*62\r\n
$GPGGA,070913.70,5703.4341797,N,00952.1534539,E,2,11,0.8,-1.493,M,40.593,M,2.3,0123*62\r\n
$GPGGA,070913.75,5703.4341160,N,00952.1534964,E,2,11,0.8,-1.493,M,40.593,M,2.3,0123*6D\r\n
$GPGGA,070913.80,5703.4340514,N,00952.1535382,E,2,11,0.8,-1.490,M,40.593,M,2.3,0123*61\r\n
$GPGGA,070913.85,5703.4339863,N,00952.1535795,E,2,11,0.8,-1.492,M,40.593,M,2.6,0123*62\r\n
$GPGGA,070913.90,5703.4339222,N,00952.1536220,E,2,11,0.8,-1.493,M,40.593,M,2.6,0123*60\r\n
$GPGGA,070913.95,5703.4338589,N,00952.1536637,E,2,11,0.8,-1.492,M,40.593,M,2.6,0123*61\r\n
$GPGGA,070914.00,5703.4337951,N,00952.1537061,E,2,11,0.8,-1.487,M,40.593,M,2.6,0123*6C\r\n
$GPGGA,070914.05,5703.4337303,N,00952.1537460,E,2,11,0.8,-1.483,M,40.593,M,2.8,0123*6B\r\n
$GPGGA,070914.10,5703.4336654,N,00952.1537891,E,2,11,0.8,-1.483,M,40.593,M,2.8,0123*6B\r\n
$GPGGA,070914.15,5703.4336015,N,00952.1538345,E,2,11,0.8,-1.486,M,40.593,M,2.8,0123*65\r\n
$GPGGA,070914.20,5703.4335376,N,00952.1538791,E,2,11,0.8,-1.485,M,40.593,M,2.8,0123*68\r\n
$GPGGA,070914.25,5703.4334738,N,00952.1539230,E,2,11,0.8,-1.486,M,40.593,M,2.0,0123*66\r\n
$GPGGA,070914.30,5703.4334099,N,00952.1539682,E,2,11,0.8,-1.487,M,40.593,M,2.0,0123*62\r\n
$GPGGA,070914.35,5703.4333463,N,00952.1540155,E,2,11,0.8,-1.488,M,40.593,M,2.0,0123*6D\r\n
$GPGGA,070914.40,5703.4332818,N,00952.1540634,E,2,11,0.8,-1.489,M,40.593,M,2.0,0123*6F\r\n
$GPGGA,070914.45,5703.4332173,N,00952.1541078,E,2,11,0.8,-1.500,M,40.593,M,2.2,0123*63\r\n
$GPGGA,070914.50,5703.4331540,N,00952.1541517,E,2,11,0.8,-1.502,M,40.593,M,2.2,0123*6E\r\n
$GPGGA,070914.55,5703.4330905,N,00952.1541981,E,2,11,0.8,-1.505,M,40.593,M,2.2,0123*63\r\n
$GPGGA,070914.60,5703.4330283,N,00952.1542469,E,2,11,0.8,-1.504,M,40.593,M,2.2,0123*69\r\n
$GPGGA,070914.65,5703.4329654,N,00952.1542954,E,2,11,0.8,-1.503,M,40.593,M,2.4,0123*68\r\n
$GPGGA,070914.70,5703.4329020,N,00952.1543410,E,2,11,0.8,-1.503,M,40.593,M,2.4,0123*65\r\n
$GPGGA,070914.75,5703.4328384,N,00952.1543830,E,2,11,0.8,-1.502,M,40.593,M,2.4,0123*63\r\n
$GPGGA,070914.80,5703.4327746,N,00952.1544271,E,2,11,0.8,-1.499,M,40.593,M,2.4,0123*67\r\n
$GPGGA,070914.85,5703.4327111,N,00952.1544711,E,2,11,0.8,-1.501,M,40.593,M,2.7,0123*66\r\n
$GPGGA,070914.90,5703.4326488,N,00952.1545146,E,2,11,0.8,-1.499,M,40.593,M,2.7,0123*63\r\n
$GPGGA,070914.95,5703.4325860,N,00952.1545580,E,2,11,0.8,-1.495,M,40.593,M,2.7,0123*6D\r\n
$GPGGA,070915.00,5703.4325225,N,00952.1546022,E,2,11,0.8,-1.495,M,40.593,M,2.7,0123*65\r\n
$GPGGA,070915.05,5703.4324584,N,00952.1546441,E,2,11,0.8,-1.490,M,40.593,M,2.9,0123*67\r\n
$GPGGA,070915.10,5703.4323946,N,00952.1546886,E,2,11,0.8,-1.488,M,40.593,M,2.9,0123*68\r\n
$GPGGA,070915.15,5703.4323314,N,00952.1547335,E,2,11,0.8,-1.487,M,40.593,M,2.9,0123*6D\r\n
$GPGGA,070915.20,5703.4322695,N,00952.1547790,E,2,11,0.8,-1.489,M,40.593,M,2.9,0123*63\r\n
$GPGGA,070915.25,5703.4322069,N,00952.1548258,E,2,11,0.8,-1.488,M,40.593,M,3.1,0123*65\r\n
$GPGGA,070915.30,5703.4321447,N,00952.1548741,E,2,11,0.8,-1.488,M,40.593,M,3.1,0123*67\r\n
$GPGGA,070915.35,5703.4320823,N,00952.1549207,E,2,11,0.8,-1.490,M,40.593,M,3.1,0123*62\r\n
$GPGGA,070915.40,5703.4320202,N,00952.1549685,E,2,11,0.8,-1.487,M,40.593,M,3.1,0123*61\r\n
$GPGGA,070915.45,5703.4319581,N,00952.1550162,E,2,11,0.8,-1.486,M,40.593,M,3.3,0123*67\r\n
$GPGGA,070915.50,5703.4318963,N,00952.1550637,E,2,11,0.8,-1.487,M,40.593,M,3.3,0123*64\r\n
$GPGGA,070915.55,5703.4318332,N,00952.1551117,E,2,11,0.8,-1.493,M,40.593,M,3.3,0123*6E\r\n
$GPGGA,070915.60,5703.4317696,N,00952.1551596,E,2,11,0.8,-1.498,M,40.593,M,3.3,0123*6A\r\n
