$GPGGA,103425.50,5703.3583080,N,00952.1446726,E,2,11,0.8,-1.638,M,40.592,M,2.0,0123*6A\r\n
$GPGGA,103425.55,5703.3582877,N,00952.1446261,E,2,11,0.8,-1.640,M,40.592,M,2.0,0123*67\r\n
$GPGGA,103425.60,5703.3582669,N,00952.1445781,E,2,11,0.8,-1.644,M,40.592,M,2.0,0123*6C\r\n
$GPGGA,103425.65,5703.3582475,N,00952.1445289,E,2,11,0.8,-1.648,M,40.592,M,1.1,0123*65\r\n
$GPGGA,103425.70,5703.3582277,N,00952.1444814,E,2,11,0.8,-1.650,M,40.592,M,1.1,0123*63\r\n
$GPGGA,103425.75,5703.3582069,N,00952.1444347,E,2,11,0.8,-1.652,M,40.592,M,1.1,0123*64\r\n
$GPGGA,103425.80,5703.3581868,N,00952.1443867,E,2,11,0.8,-1.652,M,40.592,M,1.1,0123*6A\r\n
$GPGGA,103425.85,5703.3581677,N,00952.1443386,E,2,11,0.8,-1.649,M,40.592,M,1.4,0123*64\r\n
$GPGGA,103425.90,5703.3581477,N,00952.1442916,E,2,11,0.8,-1.649,M,40.592,M,1.4,0123*60\r\n
$GPGGA,103425.95,5703.3581274,N,00952.1442441,E,2,11,0.8,-1.650,M,40.592,M,1.4,0123*67\r\n
$GPGGA,103426.00,5703.3581069,N,00952.1441977,E,2,11,0.8,-1.648,M,40.592,M,1.4,0123*64\r\n
$GPGGA,103426.05,5703.3580871,N,00952.1441497,E,2,11,0.8,-1.640,M,40.592,M,1.6,0123*68\r\n
$GPGGA,103426.10,5703.3580679,N,00952.1441017,E,2,11,0.8,-1.637,M,40.592,M,1.6,0123*66\r\n
$GPGGA,103426.15,5703.3580486,N,00952.1440535,E,2,11,0.8,-1.633,M,40.592,M,1.6,0123*61\r\n
$GPGGA,103426.20,5703.3580300,N,00952.1440066,E,2,11,0.8,-1.628,M,40.592,M,1.6,0123*67\r\n
$GPGGA,103426.25,5703.3580108,N,00952.1439595,E,2,11,0.8,-1.621,M,40.592,M,1.9,0123*69\r\n
$GPGGA,103426.30,5703.3579909,N,00952.1439115,E,2,11,0.8,-1.614,M,40.592,M,1.9,0123*68\r\n
$GPGGA,103426.35,5703.3579715,N,00952.1438641,E,2,11,0.8,-1.610,M,40.592,M,1.9,0123*6D\r\n
$GPGGA,103426.40,5703.3579518,N,00952.1438162,E,2,11,0.8,-1.606,M,40.592,M,1.9,0123*61\r\n
$GPGGA,103426.45,5703.3579320,N,00952.1437684,E,2,11,0.8,-1.604,M,40.592,M,2.1,0123*60\r\n
$GPGGA,103426.50,5703.3579130,N,00952.1437209,E,2,11,0.8,-1.602,M,40.592,M,2.1,0123*60\r\n
$GPGGA,103426.55,5703.3578939,N,00952.1436737,E,2,11,0.8,-1.600,M,40.592,M,2.1,0123*6E\r\n
$GPGGA,103426.60,5703.3578748,N,00952.1436249,E,2,11,0.8,-1.599,M,40.592,M,2.1,0123*6F\r\n
$GPGGA,103426.65,5703.3578564,N,00952.1435768,E,2,11,0.8,-1.595,M,40.592,M,2.3,0123*6D\r\n
$GPGGA,103426.70,5703.3578377,N,00952.1435291,E,2,11,0.8,-1.596,M,40.592,M,2.3,0123*6D\r\n
$GPGGA,103426.75,5703.3578189,N,00952.1434801,E,2,11,0.8,-1.595,M,40.592,M,2.3,0123*6A\r\n
$GPGGA,103426.80,5703.3577990,N,00952.1434307,E,2,11,0.8,-1.599,M,40.592,M,2.3,0123*6E\r\n
$GPGGA,103426.85,5703.3577788,N,00952.1433819,E,2,11,0.8,-1.606,M,40.592,M,2.5,0123*6C\r\n
$GPGGA,103426.90,5703.3577595,N,00952.1433331,E,2,11,0.8,-1.610,M,40.592,M,2.5,0123*60\r\n
$GPGGA,103426.95,5703.3577410,N,00952.1432841,E,2,11,0.8,-1.616,M,40.592,M,2.5,0123*62\r\n
$GPGGA,103427.00,5703.3577212,N,00952.1432339,E,2,11,0.8,-1.621,M,40.592,M,2.5,0123*6B\r\n
$GPGGA,103427.05,5703.3577033,N,00952.1431826,E,2,11,0.8,-1.623,M,40.592,M,2.7,0123*69\r\n
$GPGGA,103427.10,5703.3576847,N,00952.1431327,E,2,11,0.8,-1.626,M,40.592,M,2.7,0123*68\r\n
$GPGGA,103427.15,5703.3576652,N,00952.1430838,E,2,11,0.8,-1.630,M,40.592,M,2.7,0123*64\r\n
$GPGGA,103427.20,5703.3576463,N,00952.1430339,E,2,11,0.8,-1.635,M,40.592,M,2.7,0123*6D\r\n
$GPGGA,103427.25,5703.3576278,N,00952.1429848,E,2,11,0.8,-1.641,M,40.592,M,2.9,0123*6C\r\n
$GPGGA,103427.30,5703.3576093,N,00952.1429348,E,2,11,0.8,-1.645,M,40.592,M,2.9,0123*60\r\n
$GPGGA,103427.35,5703.3575899,N,00952.1428835,E,2,11,0.8,-1.647,M,40.592,M,2.9,0123*66\r\n
$GPGGA,103427.40,5703.3575726,N,00952.1428347,E,2,11,0.8,-1.646,M,40.592,M,2.9,0123*60\r\n
$GPGGA,103427.45,5703.3575545,N,00952.1427863,E,2,11,0.8,-1.644,M,40.592,M,3.1,0123*6B\r\n
$GPGGA,103427.50,5703.3575360,N,00952.1427382,E,2,11,0.8,-1.643,M,40.592,M,3.1,0123*6D\r\n
$GPGGA,103427.55,5703.3575177,N,00952.1426886,E,2,11,0.8,-1.641,M,40.592,M,3.1,0123*60\r\n
$GPGGA,103427.60,5703.3574999,N,00952.1426389,E,2,11,0.8,-1.639,M,40.592,M,3.1,0123*64\r\n
$GPGGA,103427.65,5703.3574820,N,00952.1425904,E,2,11,0.8,-1.637,M,40.592,M,1.7,0123*64\r\n
$GPGGA,103427.70,5703.3574644,N,00952.1425418,E,2,11,0.8,-1.633,M,40.592,M,1.7,0123*68\r\n
$GPGGA,103427.75,5703.3574460,N,00952.1424931,E,2,11,0.8,-1.630,M,40.592,M,1.7,0123*6D\r\n
$GPGGA,103427.80,5703.3574278,N,00952.1424440,E,2,11,0.8,-1.629,M,40.592,M,1.7,0123*6B\r\n
$GPGGA,103427.85,5703.3574100,N,00952.1423951,E,2,11,0.8,-1.622,M,40.592,M,2.0,0123*67\r\n
$GPGGA,103427.90,5703.3573924,N,00952.1423446,E,2,11,0.8,-1.618,M,40.592,M,2.0,0123*68\r\n
$GPGGA,103427.95,5703.3573752,N,00952.1422942,E,2,11,0.8,-1.612,M,40.592,M,2.0,0123*60\r\n
$GPGGA,103428.00,5703.3573573,N,00952.1422442,E,2,11,0.8,-1.611,M,40.592,M,2.0,0123*6C\r\n
$GPGGA,103428.05,5703.3573394,N,00952.1421927,E,2,11,0.8,-1.611,M,40.592,M,2.4,0123*6F\r\n
$GPGGA,103428.10,5703.3573215,N,00952.1421421,E,2,11,0.8,-1.610,M,40.592,M,2.4,0123*69\r\n
$GPGGA,103428.15,5703.3573034,N,00952.1420906,E,2,11,0.8,-1.612,M,40.592,M,2.4,0123*66\r\n
$GPGGA,103428.20,5703.3572855,N,00952.1420402,E,2,11,0.8,-1.615,M,40.592,M,2.4,0123*60\r\n
$GPGGA,103428.25,5703.3572680,N,00952.1419874,E,2,11,0.8,-1.618,M,40.592,M,2.6,0123*6B\r\n
$GPGGA,103428.30,5703.3572506,N,00952.1419350,E,2,11,0.8,-1.617,M,40.592,M,2.6,0123*60\r\n
$GPGGA,103428.35,5703.3572327,N,00952.1418846,E,2,11,0.8,-1.620,M,40.592,M,2.6,0123*69\r\n
$GPGGA,103428.40,5703.3572151,N,00952.1418317,E,2,11,0.8,-1.622,M,40.592,M,2.6,0123*65\r\n
$GPGGA,103428.45,5703.3571983,N,00952.1417788,E,2,11,0.8,-1.619,M,40.592,M,2.9,0123*6E\r\n
$GPGGA,103428.50,5703.3571818,N,00952.1417261,E,2,11,0.8,-1.620,M,40.592,M,2.9,0123*61\r\n
$GPGGA,103428.55,5703.3571652,N,00952.1416741,E,2,11,0.8,-1.623,M,40.592,M,2.9,0123*61\r\n
$GPGGA,103428.60,5703.3571474,N,00952.1416219,E,2,11,0.8,-1.626,M,40.592,M,2.9,0123*6C\r\n
$GPGGA,103428.65,5703.3571309,N,00952.1415701,E,2,11,0.8,-1.627,M,40.592,M,1.0,0123*60\r\n
$GPGGA,103428.70,5703.3571140,N,00952.1415177,E,2,11,0.8,-1.630,M,40.592,M,1.0,0123*6A\r\n
$GPGGA,103428.75,5703.3570969,N,00952.1414650,E,2,11,0.8,-1.630,M,40.592,M,1.0,0123*6E\r\n
$GPGGA,103428.80,5703.3570793,N,00952.1414132,E,2,11,0.8,-1.630,M,40.592,M,1.0,0123*6C\r\n
$GPGGA,103428.85,5703.3570633,N,00952.1413621,E,2,11,0.8,-1.627,M,40.592,M,1.2,0123*64\r\n
$GPGGA,103428.90,5703.3570460,N,00952.1413099,E,2,11,0.8,-1.629,M,40.592,M,1.2,0123*6F\r\n
$GPGGA,103428.95,5703.3570286,N,00952.1412578,E,2,11,0.8,-1.629,M,40.592,M,1.2,0123*6F\r\n
$GPGGA,103429.00,5703.3570114,N,00952.1412059,E,2,11,0.8,-1.627,M,40.592,M,1.2,0123*62\r\n
$GPGGA,103429.05,5703.3569952,N,00952.1411537,E,2,11,0.8,-1.627,M,40.592,M,1.5,0123*6C\r\n
$GPGGA,103429.10,5703.3569773,N,00952.1411041,E,2,11,0.8,-1.628,M,40.592,M,1.5,0123*6E\r\n
$GPGGA,103429.15,5703.3569598,N,00952.1410537,E,2,11,0.8,-1.626,M,40.592,M,1.5,0123*67\r\n
$GPGGA,103429.20,5703.3569423,N,00952.1410025,E,2,11,0.8,-1.627,M,40.592,M,1.5,0123*67\r\n
$GPGGA,103429.25,5703.3569258,N,00952.1409511,E,2,11,0.8,-1.626,M,40.592,M,1.7,0123*61\r\n
$GPGGA,103429.30,5703.3569076,N,00952.1408992,E,2,11,0.8,-1.624,M,40.592,M,1.7,0123*6F\r\n
$GPGGA,103429.35,5703.3568902,N,00952.1408484,E,2,11,0.8,-1.621,M,40.592,M,1.7,0123*6E\r\n
$GPGGA,103429.40,5703.3568732,N,00952.1407961,E,2,11,0.8,-1.621,M,40.592,M,1.7,0123*68\r\n
$GPGGA,103429.45,5703.3568561,N,00952.1407437,E,2,11,0.8,-1.620,M,40.592,M,2.0,0123*62\r\n
$GPGGA,103429.50,5703.3568391,N,00952.1406909,E,2,11,0.8,-1.619,M,40.592,M,2.0,0123*64\r\n
$GPGGA,103429.55,5703.3568223,N,00952.1406375,E,2,11,0.8,-1.620,M,40.592,M,2.0,0123*62\r\n
$GPGGA,103429.60,5703.3568055,N,00952.1405839,E,2,11,0.8,-1.617,M,40.592,M,2.0,0123*63\r\n
$GPGGA,103429.65,5703.3567899,N,00952.1405294,E,2,11,0.8,-1.613,M,40.592,M,1.1,0123*6A\r\n
$GPGGA,103429.70,5703.3567736,N,00952.1404765,E,2,11,0.8,-1.613,M,40.592,M,1.1,0123*6E\r\n
$GPGGA,103429.75,5703.3567575,N,00952.1404229,E,2,11,0.8,-1.614,M,40.592,M,1.1,0123*64\r\n
$GPGGA,103429.80,5703.3567413,N,00952.1403689,E,2,11,0.8,-1.615,M,40.592,M,1.1,0123*67\r\n
$GPGGA,103429.85,5703.3567246,N,00952.1403166,E,2,11,0.8,-1.615,M,40.592,M,1.4,0123*67\r\n
$GPGGA,103429.90,5703.3567090,N,00952.1402641,E,2,11,0.8,-1.613,M,40.592,M,1.4,0123*6F\r\n
$GPGGA,103429.95,5703.3566932,N,00952.1402117,E,2,11,0.8,-1.614,M,40.592,M,1.4,0123*69\r\n
$GPGGA,103430.00,5703.3566773,N,00952.1401598,E,2,11,0.8,-1.613,M,40.592,M,1.4,0123*61\r\n
$GPGGA,103430.05,5703.3566621,N,00952.1401059,E,2,11,0.8,-1.616,M,40.592,M,1.6,0123*6D\r\n
$GPGGA,103430.10,5703.3566456,N,00952.1400532,E,2,11,0.8,-1.616,M,40.592,M,1.6,0123*62\r\n
$GPGGA,103430.15,5703.3566292,N,00952.1400000,E,2,11,0.8,-1.618,M,40.592,M,1.6,0123*63\r\n
$GPGGA,103430.20,5703.3566132,N,00952.1399477,E,2,11,0.8,-1.621,M,40.592,M,1.6,0123*65\r\n
$GPGGA,103430.25,5703.3565970,N,00952.1398949,E,2,11,0.8,-1.621,M,40.592,M,1.9,0123*63\r\n
$GPGGA,103430.30,5703.3565819,N,00952.1398426,E,2,11,0.8,-1.622,M,40.592,M,1.9,0123*6E\r\n
$GPGGA,103430.35,5703.3565664,N,00952.1397899,E,2,11,0.8,-1.625,M,40.592,M,1.9,0123*6F\r\n
$GPGGA,103430.40,5703.3565497,N,00952.1397349,E,2,11,0.8,-1.626,M,40.592,M,1.9,0123*66\r\n
$GPGGA,103430.45,5703.3565337,N,00952.1396819,E,2,11,0.8,-1.624,M,40.592,M,2.1,0123*68\r\n
$GPGGA,103430.50,5703.3565174,N,00952.1396282,E,2,11,0.8,-1.627,M,40.592,M,2.1,0123*62\r\n
$GPGGA,103430.55,5703.3565013,N,00952.1395748,E,2,11,0.8,-1.628,M,40.592,M,2.1,0123*68\r\n
$GPGGA,103430.60,5703.3564854,N,00952.1395206,E,2,11,0.8,-1.627,M,40.592,M,2.1,0123*64\r\n
$GPGGA,103430.65,5703.3564693,N,00952.1394667,E,2,11,0.8,-1.632,M,40.592,M,2.3,0123*60\r\n
$GPGGA,103430.70,5703.3564535,N,00952.1394121,E,2,11,0.8,-1.631,M,40.592,M,2.3,0123*6D\r\n
$GPGGA,103430.75,5703.3564374,N,00952.1393571,E,2,11,0.8,-1.632,M,40.592,M,2.3,0123*6E\r\n
$GPGGA,103430.80,5703.3564213,N,00952.1393014,E,2,11,0.8,-1.632,M,40.592,M,2.3,0123*62\r\n
$GPGGA,103430.85,5703.3564048,N,00952.1392455,E,2,11,0.8,-1.626,M,40.592,M,2.5,0123*68\r\n
$GPGGA,103430.90,5703.3563879,N,00952.1391896,E,2,11,0.8,-1.624,M,40.592,M,2.5,0123*63\r\n
$GPGGA,103430.95,5703.3563721,N,00952.1391332,E,2,11,0.8,-1.621,M,40.592,M,2.5,0123*64\r\n
$GPGGA,103431.00,5703.3563551,N,00952.1390768,E,2,11,0.8,-1.617,M,40.592,M,2.5,0123*63\r\n
$GPGGA,103431.05,5703.3563381,N,00952.1390188,E,2,11,0.8,-1.610,M,40.592,M,2.7,0123*60\r\n
$GPGGA,103431.10,5703.3563196,N,00952.1389607,E,2,11,0.8,-1.606,M,40.592,M,2.7,0123*6F\r\n
$GPGGA,103431.15,5703.3563016,N,00952.1389031,E,2,11,0.8,-1.599,M,40.592,M,2.7,0123*65\r\n
$GPGGA,103431.20,5703.3562827,N,00952.1388443,E,2,11,0.8,-1.593,M,40.592,M,2.7,0123*62\r\n
$GPGGA,103431.25,5703.3562631,N,00952.1387846,E,2,11,0.8,-1.596,M,40.592,M,2.9,0123*63\r\n
$GPGGA,103431.30,5703.3562437,N,00952.1387247,E,2,11,0.8,-1.592,M,40.592,M,2.9,0123*6C\r\n
$GPGGA,103431.35,5703.3562234,N,00952.1386640,E,2,11,0.8,-1.591,M,40.592,M,2.9,0123*6D\r\n
$GPGGA,103431.40,5703.3562022,N,00952.1386035,E,2,11,0.8,-1.586,M,40.592,M,2.9,0123*68\r\n
$GPGGA,103431.45,5703.3561807,N,00952.1385407,E,2,11,0.8,-1.579,M,40.592,M,3.1,0123*6E\r\n
$GPGGA,103431.50,5703.3561586,N,00952.1384771,E,2,11,0.8,-1.575,M,40.592,M,3.1,0123*61\r\n
$GPGGA,103431.55,5703.3561355,N,00952.1384129,E,2,11,0.8,-1.571,M,40.592,M,3.1,0123*63\r\n
$GPGGA,103431.60,5703.3561121,N,00952.1383476,E,2,11,0.8,-1.568,M,40.592,M,3.1,0123*64\r\n
$GPGGA,103431.65,5703.3560879,N,00952.1382824,E,2,11,0.8,-1.565,M,40.592,M,1.7,0123*67\r\n
$GPGGA,103431.70,5703.3560627,N,00952.1382158,E,2,11,0.8,-1.565,M,40.592,M,1.7,0123*64\r\n
$GPGGA,103431.75,5703.3560370,N,00952.1381486,E,2,11,0.8,-1.563,M,40.592,M,1.7,0123*65\r\n
$GPGGA,103431.80,5703.3560110,N,00952.1380801,E,2,11,0.8,-1.564,M,40.592,M,1.7,0123*6E\r\n
$GPGGA,103431.85,5703.3559844,N,00952.1380107,E,2,11,0.8,-1.568,M,40.592,M,2.0,0123*6E\r\n
$GPGGA,103431.90,5703.3559565,N,00952.1379417,E,2,11,0.8,-1.567,M,40.592,M,2.0,0123*69\r\n
$GPGGA,103431.95,5703.3559288,N,00952.1378715,E,2,11,0.8,-1.568,M,40.592,M,2.0,0123*67\r\n
$GPGGA,103432.00,5703.3559003,N,00952.1377974,E,2,11,0.8,-1.570,M,40.592,M,2.0,0123*66\r\n
$GPGGA,103432.05,5703.3558728,N,00952.1377232,E,2,11,0.8,-1.567,M,40.592,M,2.4,0123*67\r\n
$GPGGA,103432.10,5703.3558435,N,00952.1376517,E,2,11,0.8,-1.571,M,40.592,M,2.4,0123*6A\r\n
$GPGGA,103432.15,5703.3558134,N,00952.1375796,E,2,11,0.8,-1.572,M,40.592,M,2.4,0123*60\r\n
$GPGGA,103432.20,5703.3557830,N,00952.1375068,E,2,11,0.8,-1.572,M,40.592,M,2.4,0123*62\r\n
$GPGGA,103432.25,5703.3557517,N,00952.1374317,E,2,11,0.8,-1.573,M,40.592,M,2.6,0123*66\r\n
$GPGGA,103432.30,5703.3557198,N,00952.1373551,E,2,11,0.8,-1.575,M,40.592,M,2.6,0123*64\r\n
$GPGGA,103432.35,5703.3556885,N,00952.1372790,E,2,11,0.8,-1.576,M,40.592,M,2.6,0123*68\r\n
$GPGGA,103432.40,5703.3556559,N,00952.1372030,E,2,11,0.8,-1.580,M,40.592,M,2.6,0123*62\r\n
$GPGGA,103432.45,5703.3556227,N,00952.1371266,E,2,11,0.8,-1.581,M,40.592,M,2.9,0123*65\r\n
$GPGGA,103432.50,5703.3555898,N,00952.1370502,E,2,11,0.8,-1.581,M,40.592,M,2.9,0123*68\r\n
$GPGGA,103432.55,5703.3555559,N,00952.1369738,E,2,11,0.8,-1.580,M,40.592,M,2.9,0123*6F\r\n
$GPGGA,103432.60,5703.3555211,N,00952.1368975,E,2,11,0.8,-1.579,M,40.592,M,2.9,0123*62\r\n
$GPGGA,103432.65,5703.3554858,N,00952.1368206,E,2,11,0.8,-1.578,M,40.592,M,1.0,0123*65\r\n
$GPGGA,103432.70,5703.3554510,N,00952.1367436,E,2,11,0.8,-1.581,M,40.592,M,1.0,0123*6C\r\n
$GPGGA,103432.75,5703.3554156,N,00952.1366660,E,2,11,0.8,-1.582,M,40.592,M,1.0,0123*6C\r\n
$GPGGA,103432.80,5703.3553801,N,00952.1365889,E,2,11,0.8,-1.580,M,40.592,M,1.0,0123*62\r\n
$GPGGA,103432.85,5703.3553432,N,00952.1365112,E,2,11,0.8,-1.578,M,40.592,M,1.2,0123*65\r\n
$GPGGA,103432.90,5703.3553060,N,00952.1364339,E,2,11,0.8,-1.575,M,40.592,M,1.2,0123*65\r\n
$GPGGA,103432.95,5703.3552689,N,00952.1363546,E,2,11,0.8,-1.575,M,40.592,M,1.2,0123*69\r\n
$GPGGA,103433.00,5703.3552324,N,00952.1362761,E,2,11,0.8,-1.572,M,40.592,M,1.2,0123*67\r\n
$GPGGA,103433.05,5703.3551959,N,00952.1361961,E,2,11,0.8,-1.565,M,40.592,M,1.5,0123*6D\r\n
$GPGGA,103433.10,5703.3551580,N,00952.1361175,E,2,11,0.8,-1.565,M,40.592,M,1.5,0123*6C\r\n
$GPGGA,103433.15,5703.3551200,N,00952.1360384,E,2,11,0.8,-1.563,M,40.592,M,1.5,0123*6D\r\n
$GPGGA,103433.20,5703.3550804,N,00952.1359579,E,2,11,0.8,-1.563,M,40.592,M,1.5,0123*6A\r\n
$GPGGA,103433.25,5703.3550401,N,00952.1358780,E,2,11,0.8,-1.562,M,40.592,M,1.7,0123*60\r\n
$GPGGA,103433.30,5703.3549995,N,00952.1357987,E,2,11,0.8,-1.563,M,40.592,M,1.7,0123*6B\r\n
$GPGGA,103433.35,5703.3549587,N,00952.1357213,E,2,11,0.8,-1.566,M,40.592,M,1.7,0123*62\r\n
$GPGGA,103433.40,5703.3549169,N,00952.1356433,E,2,11,0.8,-1.567,M,40.592,M,1.7,0123*60\r\n
$GPGGA,103433.45,5703.3548753,N,00952.1355641,E,2,11,0.8,-1.572,M,40.592,M,2.0,0123*6F\r\n
$GPGGA,103433.50,5703.3548331,N,00952.1354859,E,2,11,0.8,-1.575,M,40.592,M,2.0,0123*6A\r\n
$GPGGA,103433.55,5703.3547907,N,00952.1354072,E,2,11,0.8,-1.578,M,40.592,M,2.0,0123*63\r\n
$GPGGA,103433.60,5703.3547472,N,00952.1353293,E,2,11,0.8,-1.582,M,40.592,M,2.0,0123*65\r\n
$GPGGA,103433.65,5703.3547041,N,00952.1352506,E,2,11,0.8,-1.581,M,40.592,M,1.1,0123*6F\r\n
$GPGGA,103433.70,5703.3546601,N,00952.1351729,E,2,11,0.8,-1.584,M,40.592,M,1.1,0123*61\r\n
$GPGGA,103433.75,5703.3546155,N,00952.1350962,E,2,11,0.8,-1.584,M,40.592,M,1.1,0123*62\r\n
$GPGGA,103433.80,5703.3545708,N,00952.1350198,E,2,11,0.8,-1.585,M,40.592,M,1.1,0123*69\r\n
$GPGGA,103433.85,5703.3545253,N,00952.1349446,E,2,11,0.8,-1.584,M,40.592,M,1.4,0123*6D\r\n
$GPGGA,103433.90,5703.3544790,N,00952.1348693,E,2,11,0.8,-1.587,M,40.592,M,1.4,0123*6A\r\n
$GPGGA,103433.95,5703.3544319,N,00952.1347933,E,2,11,0.8,-1.591,M,40.592,M,1.4,0123*67\r\n
$GPGGA,103434.00,5703.3543841,N,00952.1347198,E,2,11,0.8,-1.594,M,40.592,M,1.4,0123*61\r\n
$GPGGA,103434.05,5703.3543381,N,00952.1346455,E,2,11,0.8,-1.597,M,40.592,M,1.6,0123*67\r\n
$GPGGA,103434.10,5703.3542910,N,00952.1345720,E,2,11,0.8,-1.595,M,40.592,M,1.6,0123*60\r\n
$GPGGA,103434.15,5703.3542439,N,00952.1344976,E,2,11,0.8,-1.594,M,40.592,M,1.6,0123*6E\r\n
$GPGGA,103434.20,5703.3541967,N,00952.1344247,E,2,11,0.8,-1.590,M,40.592,M,1.6,0123*60\r\n
$GPGGA,103434.25,5703.3541493,N,00952.1343528,E,2,11,0.8,-1.588,M,40.592,M,1.9,0123*6C\r\n
$GPGGA,103434.30,5703.3541008,N,00952.1342832,E,2,11,0.8,-1.586,M,40.592,M,1.9,0123*67\r\n
$GPGGA,103434.35,5703.3540518,N,00952.1342147,E,2,11,0.8,-1.585,M,40.592,M,1.9,0123*6F\r\n
$GPGGA,103434.40,5703.3540022,N,00952.1341470,E,2,11,0.8,-1.583,M,40.592,M,1.9,0123*65\r\n
$GPGGA,103434.45,5703.3539528,N,00952.1340797,E,2,11,0.8,-1.576,M,40.592,M,2.1,0123*6B\r\n
$GPGGA,103434.50,5703.3539029,N,00952.1340135,E,2,11,0.8,-1.572,M,40.592,M,2.1,0123*61\r\n
$GPGGA,103434.55,5703.3538530,N,00952.1339465,E,2,11,0.8,-1.571,M,40.592,M,2.1,0123*65\r\n
$GPGGA,103434.60,5703.3538037,N,00952.1338789,E,2,11,0.8,-1.569,M,40.592,M,2.1,0123*68\r\n
$GPGGA,103434.65,5703.3537531,N,00952.1338116,E,2,11,0.8,-1.564,M,40.592,M,2.3,0123*6E\r\n
$GPGGA,103434.70,5703.3537017,N,00952.1337479,E,2,11,0.8,-1.564,M,40.592,M,2.3,0123*68\r\n
$GPGGA,103434.75,5703.3536495,N,00952.1336863,E,2,11,0.8,-1.564,M,40.592,M,2.3,0123*64\r\n
$GPGGA,103434.80,5703.3535971,N,00952.1336239,E,2,11,0.8,-1.567,M,40.592,M,2.3,0123*6C\r\n
$GPGGA,103434.85,5703.3535448,N,00952.1335611,E,2,11,0.8,-1.570,M,40.592,M,2.5,0123*63\r\n
$GPGGA,103434.90,5703.3534922,N,00952.1334974,E,2,11,0.8,-1.573,M,40.592,M,2.5,0123*69\r\n
$GPGGA,103434.95,5703.3534401,N,00952.1334359,E,2,11,0.8,-1.574,M,40.592,M,2.5,0123*62\r\n
$GPGGA,103435.00,5703.3533872,N,00952.1333756,E,2,11,0.8,-1.577,M,40.592,M,2.5,0123*6F\r\n
$GPGGA,103435.05,5703.3533349,N,00952.1333165,E,2,11,0.8,-1.584,M,40.592,M,2.7,0123*61\r\n
$GPGGA,103435.10,5703.3532810,N,00952.1332601,E,2,11,0.8,-1.588,M,40.592,M,2.7,0123*6B\r\n
$GPGGA,103435.15,5703.3532278,N,00952.1332043,E,2,11,0.8,-1.592,M,40.592,M,2.7,0123*61\r\n
$GPGGA,103435.20,5703.3531748,N,00952.1331482,E,2,11,0.8,-1.593,M,40.592,M,2.7,0123*69\r\n
$GPGGA,103435.25,5703.3531217,N,00952.1330947,E,2,11,0.8,-1.596,M,40.592,M,2.9,0123*6D\r\n
$GPGGA,103435.30,5703.3530685,N,00952.1330453,E,2,11,0.8,-1.594,M,40.592,M,2.9,0123*6D\r\n
$GPGGA,103435.35,5703.3530147,N,00952.1329963,E,2,11,0.8,-1.595,M,40.592,M,2.9,0123*66\r\n
$GPGGA,103435.40,5703.3529608,N,00952.1329467,E,2,11,0.8,-1.596,M,40.592,M,2.9,0123*6A\r\n
$GPGGA,103435.45,5703.3529067,N,00952.1328981,E,2,11,0.8,-1.591,M,40.592,M,3.1,0123*6A\r\n
$GPGGA,103435.50,5703.3528533,N,00952.1328507,E,2,11,0.8,-1.586,M,40.592,M,3.1,0123*6F\r\n
$GPGGA,103435.55,5703.3527990,N,00952.1328042,E,2,11,0.8,-1.582,M,40.592,M,3.1,0123*60\r\n
$GPGGA,103435.60,5703.3527441,N,00952.1327575,E,2,11,0.8,-1.579,M,40.592,M,3.1,0123*6D\r\n
$GPGGA,103435.65,5703.3526904,N,00952.1327144,E,2,11,0.8,-1.569,M,40.592,M,1.7,0123*66\r\n
$GPGGA,103435.70,5703.3526362,N,00952.1326692,E,2,11,0.8,-1.564,M,40.592,M,1.7,0123*68\r\n
$GPGGA,103435.75,5703.3525815,N,00952.1326257,E,2,11,0.8,-1.561,M,40.592,M,1.7,0123*6D\r\n
$GPGGA,103435.80,5703.3525277,N,00952.1325854,E,2,11,0.8,-1.559,M,40.592,M,1.7,0123*68\r\n
$GPGGA,103435.85,5703.3524724,N,00952.1325462,E,2,11,0.8,-1.559,M,40.592,M,2.0,0123*62\r\n
$GPGGA,103435.90,5703.3524162,N,00952.1325060,E,2,11,0.8,-1.560,M,40.592,M,2.0,0123*6E\r\n
$GPGGA,103435.95,5703.3523597,N,00952.1324663,E,2,11,0.8,-1.563,M,40.592,M,2.0,0123*65\r\n
$GPGGA,103436.00,5703.3523048,N,00952.1324284,E,2,11,0.8,-1.563,M,40.592,M,2.0,0123*60\r\n
$GPGGA,103436.05,5703.3522508,N,00952.1323908,E,2,11,0.8,-1.570,M,40.592,M,2.4,0123*6B\r\n
$GPGGA,103436.10,5703.3521960,N,00952.1323561,E,2,11,0.8,-1.572,M,40.592,M,2.4,0123*6F\r\n
$GPGGA,103436.15,5703.3521400,N,00952.1323213,E,2,11,0.8,-1.575,M,40.592,M,2.4,0123*64\r\n
$GPGGA,103436.20,5703.3520841,N,00952.1322874,E,2,11,0.8,-1.577,M,40.592,M,2.4,0123*62\r\n
$GPGGA,103436.25,5703.3520289,N,00952.1322549,E,2,11,0.8,-1.582,M,40.592,M,2.6,0123*62\r\n
$GPGGA,103436.30,5703.3519747,N,00952.1322245,E,2,11,0.8,-1.586,M,40.592,M,2.6,0123*64\r\n
$GPGGA,103436.35,5703.3519193,N,00952.1321957,E,2,11,0.8,-1.592,M,40.592,M,2.6,0123*60\r\n
$GPGGA,103436.40,5703.3518638,N,00952.1321676,E,2,11,0.8,-1.596,M,40.592,M,2.6,0123*6D\r\n
$GPGGA,103436.45,5703.3518090,N,00952.1321393,E,2,11,0.8,-1.599,M,40.592,M,2.9,0123*62\r\n
$GPGGA,103436.50,5703.3517545,N,00952.1321135,E,2,11,0.8,-1.600,M,40.592,M,2.9,0123*69\r\n
$GPGGA,103436.55,5703.3516990,N,00952.1320904,E,2,11,0.8,-1.604,M,40.592,M,2.9,0123*66\r\n
$GPGGA,103436.60,5703.3516433,N,00952.1320684,E,2,11,0.8,-1.606,M,40.592,M,2.9,0123*61\r\n
$GPGGA,103436.65,5703.3515898,N,00952.1320475,E,2,11,0.8,-1.602,M,40.592,M,1.0,0123*68\r\n
$GPGGA,103436.70,5703.3515360,N,00952.1320291,E,2,11,0.8,-1.597,M,40.592,M,1.0,0123*63\r\n
$GPGGA,103436.75,5703.3514813,N,00952.1320129,E,2,11,0.8,-1.596,M,40.592,M,1.0,0123*69\r\n
$GPGGA,103436.80,5703.3514266,N,00952.1319947,E,2,11,0.8,-1.596,M,40.592,M,1.0,0123*61\r\n
$GPGGA,103436.85,5703.3513728,N,00952.1319785,E,2,11,0.8,-1.594,M,40.592,M,1.2,0123*6C\r\n
$GPGGA,103436.90,5703.3513192,N,00952.1319655,E,2,11,0.8,-1.591,M,40.592,M,1.2,0123*66\r\n
$GPGGA,103436.95,5703.3512661,N,00952.1319541,E,2,11,0.8,-1.585,M,40.592,M,1.2,0123*6A\r\n
$GPGGA,103437.00,5703.3512107,N,00952.1319430,E,2,11,0.8,-1.585,M,40.592,M,1.2,0123*67\r\n
$GPGGA,103437.05,5703.3511580,N,00952.1319322,E,2,11,0.8,-1.577,M,40.592,M,1.5,0123*64\r\n
$GPGGA,103437.10,5703.3511027,N,00952.1319240,E,2,11,0.8,-1.576,M,40.592,M,1.5,0123*6C\r\n
$GPGGA,103437.15,5703.3510489,N,00952.1319160,E,2,11,0.8,-1.572,M,40.592,M,1.5,0123*6D\r\n
$GPGGA,103437.20,5703.3509951,N,00952.1319095,E,2,11,0.8,-1.570,M,40.592,M,1.5,0123*62\r\n
$GPGGA,103437.25,5703.3509413,N,00952.1319036,E,2,11,0.8,-1.565,M,40.592,M,1.7,0123*63\r\n
$GPGGA,103437.30,5703.3508878,N,00952.1318984,E,2,11,0.8,-1.565,M,40.592,M,1.7,0123*66\r\n
$GPGGA,103437.35,5703.3508337,N,00952.1318955,E,2,11,0.8,-1.568,M,40.592,M,1.7,0123*62\r\n
$GPGGA,103437.40,5703.3507790,N,00952.1318914,E,2,11,0.8,-1.569,M,40.592,M,1.7,0123*62\r\n
$GPGGA,103437.45,5703.3507245,N,00952.1318887,E,2,11,0.8,-1.572,M,40.592,M,2.0,0123*6F\r\n
$GPGGA,103437.50,5703.3506716,N,00952.1318889,E,2,11,0.8,-1.573,M,40.592,M,2.0,0123*66\r\n
$GPGGA,103437.55,5703.3506175,N,00952.1318923,E,2,11,0.8,-1.576,M,40.592,M,2.0,0123*64\r\n
$GPGGA,103437.60,5703.3505640,N,00952.1318957,E,2,11,0.8,-1.578,M,40.592,M,2.0,0123*6D\r\n
$GPGGA,103437.65,5703.3505115,N,00952.1319002,E,2,11,0.8,-1.573,M,40.592,M,1.1,0123*6E\r\n
$GPGGA,103437.70,5703.3504582,N,00952.1319057,E,2,11,0.8,-1.575,M,40.592,M,1.1,0123*67\r\n
$GPGGA,103437.75,5703.3504045,N,00952.1319130,E,2,11,0.8,-1.578,M,40.592,M,1.1,0123*61\r\n
$GPGGA,103437.80,5703.3503514,N,00952.1319210,E,2,11,0.8,-1.581,M,40.592,M,1.1,0123*6A\r\n
$GPGGA,103437.85,5703.3502982,N,00952.1319320,E,2,11,0.8,-1.583,M,40.592,M,1.4,0123*68\r\n
$GPGGA,103437.90,5703.3502462,N,00952.1319439,E,2,11,0.8,-1.585,M,40.592,M,1.4,0123*66\r\n
$GPGGA,103437.95,5703.3501950,N,00952.1319582,E,2,11,0.8,-1.584,M,40.592,M,1.4,0123*6C\r\n
$GPGGA,103438.00,5703.3501433,N,00952.1319743,E,2,11,0.8,-1.586,M,40.592,M,1.4,0123*6A\r\n
$GPGGA,103438.05,5703.3500936,N,00952.1319915,E,2,11,0.8,-1.579,M,40.592,M,1.6,0123*69\r\n
$GPGGA,103438.10,5703.3500430,N,00952.1320099,E,2,11,0.8,-1.578,M,40.592,M,1.6,0123*60\r\n
$GPGGA,103438.15,5703.3499914,N,00952.1320283,E,2,11,0.8,-1.581,M,40.592,M,1.6,0123*60\r\n
$GPGGA,103438.20,5703.3499415,N,00952.1320481,E,2,11,0.8,-1.577,M,40.592,M,1.6,0123*67\r\n
$GPGGA,103438.25,5703.3498928,N,00952.1320693,E,2,11,0.8,-1.574,M,40.592,M,1.9,0123*6D\r\n
$GPGGA,103438.30,5703.3498427,N,00952.1320892,E,2,11,0.8,-1.575,M,40.592,M,1.9,0123*65\r\n
$GPGGA,103438.35,5703.3497933,N,00952.1321127,E,2,11,0.8,-1.574,M,40.592,M,1.9,0123*60\r\n
$GPGGA,103438.40,5703.3497436,N,00952.1321370,E,2,11,0.8,-1.570,M,40.592,M,1.9,0123*6E\r\n
$GPGGA,103438.45,5703.3496946,N,00952.1321625,E,2,11,0.8,-1.563,M,40.592,M,2.1,0123*6C\r\n
$GPGGA,103438.50,5703.3496441,N,00952.1321894,E,2,11,0.8,-1.560,M,40.592,M,2.1,0123*65\r\n
$GPGGA,103438.55,5703.3495945,N,00952.1322185,E,2,11,0.8,-1.558,M,40.592,M,2.1,0123*6B\r\n
$GPGGA,103438.60,5703.3495455,N,00952.1322463,E,2,11,0.8,-1.559,M,40.592,M,2.1,0123*6D\r\n
$GPGGA,103438.65,5703.3494969,N,00952.1322738,E,2,11,0.8,-1.554,M,40.592,M,2.3,0123*69\r\n
$GPGGA,103438.70,5703.3494488,N,00952.1323022,E,2,11,0.8,-1.551,M,40.592,M,2.3,0123*67\r\n
$GPGGA,103438.75,5703.3494011,N,00952.1323341,E,2,11,0.8,-1.548,M,40.592,M,2.3,0123*68\r\n
$GPGGA,103438.80,5703.3493533,N,00952.1323652,E,2,11,0.8,-1.546,M,40.592,M,2.3,0123*69\r\n
$GPGGA,103438.85,5703.3493055,N,00952.1323989,E,2,11,0.8,-1.550,M,40.592,M,2.5,0123*61\r\n
$GPGGA,103438.90,5703.3492595,N,00952.1324346,E,2,11,0.8,-1.553,M,40.592,M,2.5,0123*60\r\n
$GPGGA,103438.95,5703.3492137,N,00952.1324715,E,2,11,0.8,-1.552,M,40.592,M,2.5,0123*6A\r\n
$GPGGA,103439.00,5703.3491667,N,00952.1325085,E,2,11,0.8,-1.552,M,40.592,M,2.5,0123*69\r\n
$GPGGA,103439.05,5703.3491215,N,00952.1325449,E,2,11,0.8,-1.552,M,40.592,M,2.7,0123*6B\r\n
$GPGGA,103439.10,5703.3490769,N,00952.1325834,E,2,11,0.8,-1.553,M,40.592,M,2.7,0123*67\r\n
$GPGGA,103439.15,5703.3490327,N,00952.1326253,E,2,11,0.8,-1.554,M,40.592,M,2.7,0123*63\r\n
$GPGGA,103439.20,5703.3489877,N,00952.1326682,E,2,11,0.8,-1.554,M,40.592,M,2.7,0123*6B\r\n
$GPGGA,103439.25,5703.3489438,N,00952.1327125,E,2,11,0.8,-1.564,M,40.592,M,2.9,0123*6F\r\n
$GPGGA,103439.30,5703.3489010,N,00952.1327589,E,2,11,0.8,-1.565,M,40.592,M,2.9,0123*66\r\n
$GPGGA,103439.35,5703.3488591,N,00952.1328042,E,2,11,0.8,-1.562,M,40.592,M,2.9,0123*64\r\n
$GPGGA,103439.40,5703.3488169,N,00952.1328514,E,2,11,0.8,-1.563,M,40.592,M,2.9,0123*62\r\n
$GPGGA,103439.45,5703.3487768,N,00952.1328993,E,2,11,0.8,-1.557,M,40.592,M,3.1,0123*62\r\n
$GPGGA,103439.50,5703.3487357,N,00952.1329470,E,2,11,0.8,-1.554,M,40.592,M,3.1,0123*6C\r\n
$GPGGA,103439.55,5703.3486960,N,00952.1329961,E,2,11,0.8,-1.550,M,40.592,M,3.1,0123*6F\r\n
$GPGGA,103439.60,5703.3486558,N,00952.1330460,E,2,11,0.8,-1.545,M,40.592,M,3.1,0123*6E\r\n
$GPGGA,103439.65,5703.3486141,N,00952.1330972,E,2,11,0.8,-1.552,M,40.592,M,1.7,0123*6B\r\n
$GPGGA,103439.70,5703.3485745,N,00952.1331504,E,2,11,0.8,-1.553,M,40.592,M,1.7,0123*63\r\n
$GPGGA,103439.75,5703.3485353,N,00952.1332028,E,2,11,0.8,-1.552,M,40.592,M,1.7,0123*6C\r\n
$GPGGA,103439.80,5703.3484971,N,00952.1332580,E,2,11,0.8,-1.549,M,40.592,M,1.7,0123*60\r\n
$GPGGA,103439.85,5703.3484587,N,00952.1333160,E,2,11,0.8,-1.554,M,40.592,M,2.0,0123*63\r\n
$GPGGA,103439.90,5703.3484204,N,00952.1333763,E,2,11,0.8,-1.556,M,40.592,M,2.0,0123*6C\r\n
$GPGGA,103439.95,5703.3483828,N,00952.1334368,E,2,11,0.8,-1.557,M,40.592,M,2.0,0123*63\r\n
$GPGGA,103440.00,5703.3483474,N,00952.1334975,E,2,11,0.8,-1.557,M,40.592,M,2.0,0123*62\r\n
$GPGGA,103440.05,5703.3483130,N,00952.1335604,E,2,11,0.8,-1.550,M,40.592,M,2.4,0123*69\r\n
$GPGGA,103440.10,5703.3482779,N,00952.1336247,E,2,11,0.8,-1.550,M,40.592,M,2.4,0123*67\r\n
$GPGGA,103440.15,5703.3482448,N,00952.1336901,E,2,11,0.8,-1.551,M,40.592,M,2.4,0123*6B\r\n
$GPGGA,103440.20,5703.3482114,N,00952.1337559,E,2,11,0.8,-1.554,M,40.592,M,2.4,0123*64\r\n
$GPGGA,103440.25,5703.3481786,N,00952.1338224,E,2,11,0.8,-1.563,M,40.592,M,2.6,0123*6B\r\n
$GPGGA,103440.30,5703.3481477,N,00952.1338904,E,2,11,0.8,-1.563,M,40.592,M,2.6,0123*6B\r\n
$GPGGA,103440.35,5703.3481170,N,00952.1339586,E,2,11,0.8,-1.567,M,40.592,M,2.6,0123*6F\r\n
$GPGGA,103440.40,5703.3480866,N,00952.1340307,E,2,11,0.8,-1.572,M,40.592,M,2.6,0123*67\r\n
$GPGGA,103440.45,5703.3480569,N,00952.1341039,E,2,11,0.8,-1.570,M,40.592,M,2.9,0123*62\r\n
$GPGGA,103440.50,5703.3480278,N,00952.1341773,E,2,11,0.8,-1.569,M,40.592,M,2.9,0123*60\r\n
$GPGGA,103440.55,5703.3479985,N,00952.1342516,E,2,11,0.8,-1.567,M,40.592,M,2.9,0123*66\r\n
$GPGGA,103440.60,5703.3479712,N,00952.1343257,E,2,11,0.8,-1.567,M,40.592,M,2.9,0123*63\r\n
$GPGGA,103440.65,5703.3479454,N,00952.1344022,E,2,11,0.8,-1.563,M,40.592,M,1.0,0123*6E\r\n
$GPGGA,103440.70,5703.3479203,N,00952.1344800,E,2,11,0.8,-1.564,M,40.592,M,1.0,0123*61\r\n
$GPGGA,103440.75,5703.3478936,N,00952.1345580,E,2,11,0.8,-1.562,M,40.592,M,1.0,0123*6A\r\n
$GPGGA,103440.80,5703.3478684,N,00952.1346355,E,2,11,0.8,-1.557,M,40.592,M,1.0,0123*6D\r\n
$GPGGA,103440.85,5703.3478428,N,00952.1347123,E,2,11,0.8,-1.549,M,40.592,M,1.2,0123*63\r\n
$GPGGA,103440.90,5703.3478180,N,00952.1347883,E,2,11,0.8,-1.545,M,40.592,M,1.2,0123*6F\r\n
$GPGGA,103440.95,5703.3477937,N,00952.1348666,E,2,11,0.8,-1.538,M,40.592,M,1.2,0123*61\r\n
$GPGGA,103441.00,5703.3477701,N,00952.1349446,E,2,11,0.8,-1.534,M,40.592,M,1.2,0123*6A\r\n
$GPGGA,103441.05,5703.3477482,N,00952.1350233,E,2,11,0.8,-1.540,M,40.592,M,1.5,0123*6F\r\n
$GPGGA,103441.10,5703.3477268,N,00952.1351040,E,2,11,0.8,-1.535,M,40.592,M,1.5,0123*6C\r\n
$GPGGA,103441.15,5703.3477045,N,00952.1351850,E,2,11,0.8,-1.533,M,40.592,M,1.5,0123*6B\r\n
$GPGGA,103441.20,5703.3476844,N,00952.1352658,E,2,11,0.8,-1.529,M,40.592,M,1.5,0123*6B\r\n
$GPGGA,103441.25,5703.3476655,N,00952.1353485,E,2,11,0.8,-1.522,M,40.592,M,1.7,0123*6A\r\n
$GPGGA,103441.30,5703.3476467,N,00952.1354321,E,2,11,0.8,-1.522,M,40.592,M,1.7,0123*63\r\n
$GPGGA,103441.35,5703.3476300,N,00952.1355170,E,2,11,0.8,-1.522,M,40.592,M,1.7,0123*67\r\n
$GPGGA,103441.40,5703.3476148,N,00952.1356017,E,2,11,0.8,-1.524,M,40.592,M,1.7,0123*6E\r\n
$GPGGA,103441.45,5703.3475995,N,00952.1356892,E,2,11,0.8,-1.529,M,40.592,M,2.0,0123*6C\r\n
$GPGGA,103441.50,5703.3475853,N,00952.1357764,E,2,11,0.8,-1.536,M,40.592,M,2.0,0123*6A\r\n
$GPGGA,103441.55,5703.3475725,N,00952.1358623,E,2,11,0.8,-1.541,M,40.592,M,2.0,0123*6C\r\n
$GPGGA,103441.60,5703.3475600,N,00952.1359516,E,2,11,0.8,-1.548,M,40.592,M,2.0,0123*61\r\n
$GPGGA,103441.65,5703.3475483,N,00952.1360402,E,2,11,0.8,-1.562,M,40.592,M,1.1,0123*69\r\n
$GPGGA,103441.70,5703.3475379,N,00952.1361290,E,2,11,0.8,-1.567,M,40.592,M,1.1,0123*66\r\n
$GPGGA,103441.75,5703.3475275,N,00952.1362177,E,2,11,0.8,-1.569,M,40.592,M,1.1,0123*69\r\n
$GPGGA,103441.80,5703.3475157,N,00952.1363050,E,2,11,0.8,-1.573,M,40.592,M,1.1,0123*6E\r\n
$GPGGA,103441.85,5703.3475061,N,00952.1363937,E,2,11,0.8,-1.570,M,40.592,M,1.4,0123*61\r\n
$GPGGA,103441.90,5703.3474972,N,00952.1364821,E,2,11,0.8,-1.568,M,40.592,M,1.4,0123*67\r\n
$GPGGA,103441.95,5703.3474876,N,00952.1365701,E,2,11,0.8,-1.567,M,40.592,M,1.4,0123*64\r\n
$GPGGA,103442.00,5703.3474786,N,00952.1366583,E,2,11,0.8,-1.565,M,40.592,M,1.4,0123*62\r\n
$GPGGA,103442.05,5703.3474719,N,00952.1367473,E,2,11,0.8,-1.557,M,40.592,M,1.6,0123*6D\r\n
$GPGGA,103442.10,5703.3474642,N,00952.1368347,E,2,11,0.8,-1.552,M,40.592,M,1.6,0123*6C\r\n
$GPGGA,103442.15,5703.3474555,N,00952.1369247,E,2,11,0.8,-1.548,M,40.592,M,1.6,0123*67\r\n
$GPGGA,103442.20,5703.3474478,N,00952.1370159,E,2,11,0.8,-1.546,M,40.592,M,1.6,0123*65\r\n
$GPGGA,103442.25,5703.3474418,N,00952.1371083,E,2,11,0.8,-1.543,M,40.592,M,1.9,0123*6B\r\n
$GPGGA,103442.30,5703.3474367,N,00952.1372006,E,2,11,0.8,-1.540,M,40.592,M,1.9,0123*6D\r\n
$GPGGA,103442.35,5703.3474325,N,00952.1372926,E,2,11,0.8,-1.536,M,40.592,M,1.9,0123*64\r\n
$GPGGA,103442.40,5703.3474296,N,00952.1373841,E,2,11,0.8,-1.538,M,40.592,M,1.9,0123*60\r\n
$GPGGA,103442.45,5703.3474280,N,00952.1374776,E,2,11,0.8,-1.537,M,40.592,M,2.1,0123*6A\r\n
$GPGGA,103442.50,5703.3474279,N,00952.1375724,E,2,11,0.8,-1.542,M,40.592,M,2.1,0123*6C\r\n
$GPGGA,103442.55,5703.3474284,N,00952.1376667,E,2,11,0.8,-1.544,M,40.592,M,2.1,0123*68\r\n
$GPGGA,103442.60,5703.3474309,N,00952.1377617,E,2,11,0.8,-1.546,M,40.592,M,2.1,0123*6E\r\n
$GPGGA,103442.65,5703.3474334,N,00952.1378560,E,2,11,0.8,-1.554,M,40.592,M,2.3,0123*68\r\n
$GPGGA,103442.70,5703.3474369,N,00952.1379500,E,2,11,0.8,-1.559,M,40.592,M,2.3,0123*6E\r\n
$GPGGA,103442.75,5703.3474406,N,00952.1380439,E,2,11,0.8,-1.566,M,40.592,M,2.3,0123*64\r\n
$GPGGA,103442.80,5703.3474425,N,00952.1381370,E,2,11,0.8,-1.569,M,40.592,M,2.3,0123*6B\r\n
$GPGGA,103442.85,5703.3474462,N,00952.1382286,E,2,11,0.8,-1.565,M,40.592,M,2.5,0123*6C\r\n
$GPGGA,103442.90,5703.3474507,N,00952.1383196,E,2,11,0.8,-1.560,M,40.592,M,2.5,0123*6C\r\n
$GPGGA,103442.95,5703.3474548,N,00952.1384119,E,2,11,0.8,-1.557,M,40.592,M,2.5,0123*66\r\n
$GPGGA,103443.00,5703.3474598,N,00952.1385057,E,2,11,0.8,-1.555,M,40.592,M,2.5,0123*6E\r\n
$GPGGA,103443.05,5703.3474661,N,00952.1385994,E,2,11,0.8,-1.552,M,40.592,M,2.7,0123*6D\r\n
$GPGGA,103443.10,5703.3474730,N,00952.1386927,E,2,11,0.8,-1.550,M,40.592,M,2.7,0123*65\r\n
$GPGGA,103443.15,5703.3474809,N,00952.1387879,E,2,11,0.8,-1.546,M,40.592,M,2.7,0123*69\r\n
$GPGGA,103443.20,5703.3474883,N,00952.1388843,E,2,11,0.8,-1.546,M,40.592,M,2.7,0123*6B\r\n
$GPGGA,103443.25,5703.3474980,N,00952.1389812,E,2,11,0.8,-1.546,M,40.592,M,2.9,0123*67\r\n
$GPGGA,103443.30,5703.3475079,N,00952.1390750,E,2,11,0.8,-1.547,M,40.592,M,2.9,0123*6D\r\n
$GPGGA,103443.35,5703.3475204,N,00952.1391693,E,2,11,0.8,-1.545,M,40.592,M,2.9,0123*6D\r\n
$GPGGA,103443.40,5703.3475318,N,00952.1392662,E,2,11,0.8,-1.549,M,40.592,M,2.9,0123*62\r\n
$GPGGA,103443.45,5703.3475432,N,00952.1393628,E,2,11,0.8,-1.554,M,40.592,M,3.1,0123*62\r\n
$GPGGA,103443.50,5703.3475543,N,00952.1394564,E,2,11,0.8,-1.554,M,40.592,M,3.1,0123*6D\r\n
$GPGGA,103443.55,5703.3475673,N,00952.1395510,E,2,11,0.8,-1.551,M,40.592,M,3.1,0123*6F\r\n
$GPGGA,103443.60,5703.3475805,N,00952.1396445,E,2,11,0.8,-1.550,M,40.592,M,3.1,0123*65\r\n
$GPGGA,103443.65,5703.3475929,N,00952.1397382,E,2,11,0.8,-1.553,M,40.592,M,1.7,0123*65\r\n
$GPGGA,103443.70,5703.3476084,N,00952.1398319,E,2,11,0.8,-1.553,M,40.592,M,1.7,0123*61\r\n
$GPGGA,103443.75,5703.3476250,N,00952.1399262,E,2,11,0.8,-1.552,M,40.592,M,1.7,0123*62\r\n
$GPGGA,103443.80,5703.3476424,N,00952.1400189,E,2,11,0.8,-1.548,M,40.592,M,1.7,0123*67\r\n
$GPGGA,103443.85,5703.3476594,N,00952.1401131,E,2,11,0.8,-1.547,M,40.592,M,2.0,0123*61\r\n
$GPGGA,103443.90,5703.3476780,N,00952.1402061,E,2,11,0.8,-1.549,M,40.592,M,2.0,0123*6B\r\n
$GPGGA,103443.95,5703.3476978,N,00952.1402995,E,2,11,0.8,-1.552,M,40.592,M,2.0,0123*6F\r\n
$GPGGA,103444.00,5703.3477188,N,00952.1403925,E,2,11,0.8,-1.552,M,40.592,M,2.0,0123*68\r\n
$GPGGA,103444.05,5703.3477382,N,00952.1404861,E,2,11,0.8,-1.562,M,40.592,M,2.4,0123*64\r\n
$GPGGA,103444.10,5703.3477590,N,00952.1405784,E,2,11,0.8,-1.558,M,40.592,M,2.4,0123*69\r\n
$GPGGA,103444.15,5703.3477794,N,00952.1406692,E,2,11,0.8,-1.557,M,40.592,M,2.4,0123*60\r\n
$GPGGA,103444.20,5703.3477991,N,00952.1407577,E,2,11,0.8,-1.559,M,40.592,M,2.4,0123*6A\r\n
$GPGGA,103444.25,5703.3478206,N,00952.1408483,E,2,11,0.8,-1.556,M,40.592,M,2.6,0123*6D\r\n
$GPGGA,103444.30,5703.3478419,N,00952.1409382,E,2,11,0.8,-1.553,M,40.592,M,2.6,0123*63\r\n
$GPGGA,103444.35,5703.3478641,N,00952.1410306,E,2,11,0.8,-1.548,M,40.592,M,2.6,0123*67\r\n
$GPGGA,103444.40,5703.3478865,N,00952.1411226,E,2,11,0.8,-1.547,M,40.592,M,2.6,0123*60\r\n
$GPGGA,103444.45,5703.3479094,N,00952.1412150,E,2,11,0.8,-1.542,M,40.592,M,2.9,0123*69\r\n
$GPGGA,103444.50,5703.3479315,N,00952.1413093,E,2,11,0.8,-1.546,M,40.592,M,2.9,0123*6C\r\n
$GPGGA,103444.55,5703.3479562,N,00952.1414023,E,2,11,0.8,-1.546,M,40.592,M,2.9,0123*63\r\n
$GPGGA,103444.60,5703.3479833,N,00952.1414943,E,2,11,0.8,-1.543,M,40.592,M,2.9,0123*66\r\n
$GPGGA,103444.65,5703.3480107,N,00952.1415842,E,2,11,0.8,-1.547,M,40.592,M,1.0,0123*64\r\n
$GPGGA,103444.70,5703.3480382,N,00952.1416734,E,2,11,0.8,-1.547,M,40.592,M,1.0,0123*62\r\n
$GPGGA,103444.75,5703.3480646,N,00952.1417631,E,2,11,0.8,-1.551,M,40.592,M,1.0,0123*68\r\n
$GPGGA,103444.80,5703.3480914,N,00952.1418542,E,2,11,0.8,-1.556,M,40.592,M,1.0,0123*65\r\n
$GPGGA,103444.85,5703.3481197,N,00952.1419456,E,2,11,0.8,-1.558,M,40.592,M,1.2,0123*6B\r\n
$GPGGA,103444.90,5703.3481490,N,00952.1420342,E,2,11,0.8,-1.555,M,40.592,M,1.2,0123*68\r\n
$GPGGA,103444.95,5703.3481779,N,00952.1421222,E,2,11,0.8,-1.553,M,40.592,M,1.2,0123*69\r\n
$GPGGA,103445.00,5703.3482056,N,00952.1422109,E,2,11,0.8,-1.552,M,40.592,M,1.2,0123*65\r\n
$GPGGA,103445.05,5703.3482358,N,00952.1423010,E,2,11,0.8,-1.552,M,40.592,M,1.5,0123*62\r\n
$GPGGA,103445.10,5703.3482664,N,00952.1423910,E,2,11,0.8,-1.549,M,40.592,M,1.5,0123*6F\r\n
$GPGGA,103445.15,5703.3482971,N,00952.1424805,E,2,11,0.8,-1.546,M,40.592,M,1.5,0123*6C\r\n
$GPGGA,103445.20,5703.3483285,N,00952.1425682,E,2,11,0.8,-1.545,M,40.592,M,1.5,0123*68\r\n
$GPGGA,103445.25,5703.3483597,N,00952.1426578,E,2,11,0.8,-1.546,M,40.592,M,1.7,0123*6D\r\n
$GPGGA,103445.30,5703.3483916,N,00952.1427460,E,2,11,0.8,-1.541,M,40.592,M,1.7,0123*62\r\n
$GPGGA,103445.35,5703.3484232,N,00952.1428347,E,2,11,0.8,-1.537,M,40.592,M,1.7,0123*61\r\n
$GPGGA,103445.40,5703.3484551,N,00952.1429242,E,2,11,0.8,-1.537,M,40.592,M,1.7,0123*64\r\n
$GPGGA,103445.45,5703.3484883,N,00952.1430119,E,2,11,0.8,-1.539,M,40.592,M,2.0,0123*6C\r\n
$GPGGA,103445.50,5703.3485218,N,00952.1431014,E,2,11,0.8,-1.541,M,40.592,M,2.0,0123*63\r\n
$GPGGA,103445.55,5703.3485565,N,00952.1431903,E,2,11,0.8,-1.537,M,40.592,M,2.0,0123*65\r\n
$GPGGA,103445.60,5703.3485909,N,00952.1432804,E,2,11,0.8,-1.537,M,40.592,M,2.0,0123*60\r\n
$GPGGA,103445.65,5703.3486249,N,00952.1433690,E,2,11,0.8,-1.536,M,40.592,M,1.1,0123*68\r\n
$GPGGA,103445.70,5703.3486581,N,00952.1434582,E,2,11,0.8,-1.537,M,40.592,M,1.1,0123*69\r\n
$GPGGA,103445.75,5703.3486929,N,00952.1435484,E,2,11,0.8,-1.539,M,40.592,M,1.1,0123*6A\r\n
$GPGGA,103445.80,5703.3487274,N,00952.1436381,E,2,11,0.8,-1.541,M,40.592,M,1.1,0123*6C\r\n
$GPGGA,103445.85,5703.3487616,N,00952.1437269,E,2,11,0.8,-1.543,M,40.592,M,1.4,0123*68\r\n
$GPGGA,103445.90,5703.3487960,N,00952.1438154,E,2,11,0.8,-1.546,M,40.592,M,1.4,0123*65\r\n
$GPGGA,103445.95,5703.3488324,N,00952.1439046,E,2,11,0.8,-1.547,M,40.592,M,1.4,0123*67\r\n
$GPGGA,103446.00,5703.3488685,N,00952.1439906,E,2,11,0.8,-1.547,M,40.592,M,1.4,0123*6B\r\n
$GPGGA,103446.05,5703.3489040,N,00952.1440792,E,2,11,0.8,-1.545,M,40.592,M,1.6,0123*6D\r\n
$GPGGA,103446.10,5703.3489398,N,00952.1441674,E,2,11,0.8,-1.542,M,40.592,M,1.6,0123*60\r\n
$GPGGA,103446.15,5703.3489762,N,00952.1442549,E,2,11,0.8,-1.539,M,40.592,M,1.6,0123*66\r\n
$GPGGA,103446.20,5703.3490124,N,00952.1443428,E,2,11,0.8,-1.538,M,40.592,M,1.6,0123*6A\r\n
$GPGGA,103446.25,5703.3490490,N,00952.1444306,E,2,11,0.8,-1.536,M,40.592,M,1.9,0123*68\r\n
$GPGGA,103446.30,5703.3490842,N,00952.1445201,E,2,11,0.8,-1.536,M,40.592,M,1.9,0123*68\r\n
$GPGGA,103446.35,5703.3491196,N,00952.1446091,E,2,11,0.8,-1.535,M,40.592,M,1.9,0123*67\r\n
$GPGGA,103446.40,5703.3491562,N,00952.1446966,E,2,11,0.8,-1.534,M,40.592,M,1.9,0123*6A\r\n
$GPGGA,103446.45,5703.3491936,N,00952.1447822,E,2,11,0.8,-1.535,M,40.592,M,2.1,0123*68\r\n
$GPGGA,103446.50,5703.3492309,N,00952.1448705,E,2,11,0.8,-1.535,M,40.592,M,2.1,0123*6C\r\n
$GPGGA,103446.55,5703.3492677,N,00952.1449598,E,2,11,0.8,-1.536,M,40.592,M,2.1,0123*61\r\n
$GPGGA,103446.60,5703.3493049,N,00952.1450490,E,2,11,0.8,-1.535,M,40.592,M,2.1,0123*6F\r\n
$GPGGA,103446.65,5703.3493421,N,00952.1451364,E,2,11,0.8,-1.535,M,40.592,M,2.3,0123*6F\r\n
$GPGGA,103446.70,5703.3493802,N,00952.1452245,E,2,11,0.8,-1.535,M,40.592,M,2.3,0123*67\r\n
$GPGGA,103446.75,5703.3494195,N,00952.1453127,E,2,11,0.8,-1.533,M,40.592,M,2.3,0123*62\r\n
$GPGGA,103446.80,5703.3494577,N,00952.1454023,E,2,11,0.8,-1.539,M,40.592,M,2.3,0123*68\r\n
$GPGGA,103446.85,5703.3494954,N,00952.1454912,E,2,11,0.8,-1.543,M,40.592,M,2.5,0123*60\r\n
$GPGGA,103446.90,5703.3495334,N,00952.1455790,E,2,11,0.8,-1.542,M,40.592,M,2.5,0123*6D\r\n
$GPGGA,103446.95,5703.3495716,N,00952.1456670,E,2,11,0.8,-1.540,M,40.592,M,2.5,0123*62\r\n
$GPGGA,103447.00,5703.3496081,N,00952.1457540,E,2,11,0.8,-1.538,M,40.592,M,2.5,0123*6B\r\n
$GPGGA,103447.05,5703.3496462,N,00952.1458417,E,2,11,0.8,-1.530,M,40.592,M,2.7,0123*61\r\n
$GPGGA,103447.10,5703.3496836,N,00952.1459311,E,2,11,0.8,-1.531,M,40.592,M,2.7,0123*69\r\n
$GPGGA,103447.15,5703.3497219,N,00952.1460206,E,2,11,0.8,-1.526,M,40.592,M,2.7,0123*61\r\n
$GPGGA,103447.20,5703.3497600,N,00952.1461103,E,2,11,0.8,-1.527,M,40.592,M,2.7,0123*6D\r\n
$GPGGA,103447.25,5703.3497969,N,00952.1462040,E,2,11,0.8,-1.540,M,40.592,M,2.9,0123*62\r\n
$GPGGA,103447.30,5703.3498361,N,00952.1462952,E,2,11,0.8,-1.543,M,40.592,M,2.9,0123*62\r\n
$GPGGA,103447.35,5703.3498736,N,00952.1463839,E,2,11,0.8,-1.545,M,40.592,M,2.9,0123*6A\r\n
$GPGGA,103447.40,5703.3499099,N,00952.1464745,E,2,11,0.8,-1.545,M,40.592,M,2.9,0123*68\r\n
$GPGGA,103447.45,5703.3499471,N,00952.1465652,E,2,11,0.8,-1.542,M,40.592,M,3.1,0123*67\r\n
$GPGGA,103447.50,5703.3499838,N,00952.1466558,E,2,11,0.8,-1.541,M,40.592,M,3.1,0123*6B\r\n
$GPGGA,103447.55,5703.3500201,N,00952.1467420,E,2,11,0.8,-1.536,M,40.592,M,3.1,0123*60\r\n
$GPGGA,103447.60,5703.3500572,N,00952.1468305,E,2,11,0.8,-1.534,M,40.592,M,3.1,0123*68\r\n
$GPGGA,103447.65,5703.3500938,N,00952.1469187,E,2,11,0.8,-1.537,M,40.592,M,1.7,0123*61\r\n
$GPGGA,103447.70,5703.3501304,N,00952.1470073,E,2,11,0.8,-1.538,M,40.592,M,1.7,0123*6C\r\n
$GPGGA,103447.75,5703.3501684,N,00952.1470971,E,2,11,0.8,-1.536,M,40.592,M,1.7,0123*61\r\n
$GPGGA,103447.80,5703.3502054,N,00952.1471896,E,2,11,0.8,-1.538,M,40.592,M,1.7,0123*64\r\n
$GPGGA,103447.85,5703.3502424,N,00952.1472829,E,2,11,0.8,-1.534,M,40.592,M,2.0,0123*6D\r\n
$GPGGA,103447.90,5703.3502789,N,00952.1473759,E,2,11,0.8,-1.533,M,40.592,M,2.0,0123*63\r\n
$GPGGA,103447.95,5703.3503144,N,00952.1474679,E,2,11,0.8,-1.534,M,40.592,M,2.0,0123*63\r\n
$GPGGA,103448.00,5703.3503504,N,00952.1475594,E,2,11,0.8,-1.532,M,40.592,M,2.0,0123*67\r\n
$GPGGA,103448.05,5703.3503864,N,00952.1476485,E,2,11,0.8,-1.537,M,40.592,M,2.4,0123*6A\r\n
$GPGGA,103448.10,5703.3504211,N,00952.1477384,E,2,11,0.8,-1.538,M,40.592,M,2.4,0123*69\r\n
$GPGGA,103448.15,5703.3504557,N,00952.1478309,E,2,11,0.8,-1.534,M,40.592,M,2.4,0123*6F\r\n
$GPGGA,103448.20,5703.3504904,N,00952.1479237,E,2,11,0.8,-1.530,M,40.592,M,2.4,0123*6A\r\n
$GPGGA,103448.25,5703.3505256,N,00952.1480160,E,2,11,0.8,-1.533,M,40.592,M,2.6,0123*64\r\n
$GPGGA,103448.30,5703.3505605,N,00952.1481085,E,2,11,0.8,-1.535,M,40.592,M,2.6,0123*6F\r\n
$GPGGA,103448.35,5703.3505950,N,00952.1482015,E,2,11,0.8,-1.537,M,40.592,M,2.6,0123*6D\r\n
$GPGGA,103448.40,5703.3506283,N,00952.1482957,E,2,11,0.8,-1.539,M,40.592,M,2.6,0123*68\r\n
$GPGGA,103448.45,5703.3506618,N,00952.1483909,E,2,11,0.8,-1.537,M,40.592,M,2.9,0123*60\r\n
$GPGGA,103448.50,5703.3506964,N,00952.1484855,E,2,11,0.8,-1.538,M,40.592,M,2.9,0123*60\r\n
$GPGGA,103448.55,5703.3507293,N,00952.1485797,E,2,11,0.8,-1.541,M,40.592,M,2.9,0123*69\r\n
$GPGGA,103448.60,5703.3507622,N,00952.1486740,E,2,11,0.8,-1.539,M,40.592,M,2.9,0123*67\r\n
$GPGGA,103448.65,5703.3507952,N,00952.1487679,E,2,11,0.8,-1.539,M,40.592,M,1.0,0123*6A\r\n
$GPGGA,103448.70,5703.3508266,N,00952.1488616,E,2,11,0.8,-1.538,M,40.592,M,1.0,0123*6A\r\n
$GPGGA,103448.75,5703.3508573,N,00952.1489565,E,2,11,0.8,-1.536,M,40.592,M,1.0,0123*64\r\n
$GPGGA,103448.80,5703.3508884,N,00952.1490517,E,2,11,0.8,-1.536,M,40.592,M,1.0,0123*66\r\n
$GPGGA,103448.85,5703.3509188,N,00952.1491482,E,2,11,0.8,-1.539,M,40.592,M,1.2,0123*66\r\n
$GPGGA,103448.90,5703.3509492,N,00952.1492453,E,2,11,0.8,-1.536,M,40.592,M,1.2,0123*6C\r\n
$GPGGA,103448.95,5703.3509800,N,00952.1493429,E,2,11,0.8,-1.535,M,40.592,M,1.2,0123*61\r\n
$GPGGA,103449.00,5703.3510100,N,00952.1494406,E,2,11,0.8,-1.536,M,40.592,M,1.2,0123*64\r\n
$GPGGA,103449.05,5703.3510387,N,00952.1495381,E,2,11,0.8,-1.536,M,40.592,M,1.5,0123*62\r\n
$GPGGA,103449.10,5703.3510667,N,00952.1496364,E,2,11,0.8,-1.535,M,40.592,M,1.5,0123*66\r\n
$GPGGA,103449.15,5703.3510940,N,00952.1497343,E,2,11,0.8,-1.528,M,40.592,M,1.5,0123*61\r\n
$GPGGA,103449.20,5703.3511230,N,00952.1498318,E,2,11,0.8,-1.526,M,40.592,M,1.5,0123*65\r\n
$GPGGA,103449.25,5703.3511517,N,00952.1499297,E,2,11,0.8,-1.530,M,40.592,M,1.7,0123*60\r\n
$GPGGA,103449.30,5703.3511805,N,00952.1500310,E,2,11,0.8,-1.536,M,40.592,M,1.7,0123*63\r\n
$GPGGA,103449.35,5703.3512081,N,00952.1501316,E,2,11,0.8,-1.538,M,40.592,M,1.7,0123*68\r\n
$GPGGA,103449.40,5703.3512351,N,00952.1502316,E,2,11,0.8,-1.538,M,40.592,M,1.7,0123*67\r\n
$GPGGA,103449.45,5703.3512590,N,00952.1503337,E,2,11,0.8,-1.539,M,40.592,M,2.0,0123*6E\r\n
$GPGGA,103449.50,5703.3512824,N,00952.1504368,E,2,11,0.8,-1.539,M,40.592,M,2.0,0123*65\r\n
$GPGGA,103449.55,5703.3513056,N,00952.1505371,E,2,11,0.8,-1.538,M,40.592,M,2.0,0123*64\r\n
$GPGGA,103449.60,5703.3513308,N,00952.1506371,E,2,11,0.8,-1.536,M,40.592,M,2.0,0123*67\r\n
$GPGGA,103449.65,5703.3513547,N,00952.1507369,E,2,11,0.8,-1.535,M,40.592,M,1.1,0123*66\r\n
$GPGGA,103449.70,5703.3513780,N,00952.1508376,E,2,11,0.8,-1.533,M,40.592,M,1.1,0123*6C\r\n
$GPGGA,103449.75,5703.3514016,N,00952.1509403,E,2,11,0.8,-1.537,M,40.592,M,1.1,0123*66\r\n
$GPGGA,103449.80,5703.3514250,N,00952.1510442,E,2,11,0.8,-1.541,M,40.592,M,1.1,0123*60\r\n
$GPGGA,103449.85,5703.3514492,N,00952.1511489,E,2,11,0.8,-1.538,M,40.592,M,1.4,0123*60\r\n
$GPGGA,103449.90,5703.3514709,N,00952.1512551,E,2,11,0.8,-1.543,M,40.592,M,1.4,0123*6E\r\n
$GPGGA,103449.95,5703.3514921,N,00952.1513602,E,2,11,0.8,-1.544,M,40.592,M,1.4,0123*6C\r\n
$GPGGA,103450.00,5703.3515122,N,00952.1514634,E,2,11,0.8,-1.543,M,40.592,M,1.4,0123*67\r\n
$GPGGA,103450.05,5703.3515328,N,00952.1515658,E,2,11,0.8,-1.543,M,40.592,M,1.6,0123*63\r\n
$GPGGA,103450.10,5703.3515509,N,00952.1516709,E,2,11,0.8,-1.540,M,40.592,M,1.6,0123*67\r\n
$GPGGA,103450.15,5703.3515691,N,00952.1517754,E,2,11,0.8,-1.537,M,40.592,M,1.6,0123*69\r\n
$GPGGA,103450.20,5703.3515882,N,00952.1518806,E,2,11,0.8,-1.532,M,40.592,M,1.6,0123*61\r\n
$GPGGA,103450.25,5703.3516079,N,00952.1519873,E,2,11,0.8,-1.530,M,40.592,M,1.9,0123*65\r\n
$GPGGA,103450.30,5703.3516258,N,00952.1520967,E,2,11,0.8,-1.536,M,40.592,M,1.9,0123*68\r\n
$GPGGA,103450.35,5703.3516429,N,00952.1522064,E,2,11,0.8,-1.540,M,40.592,M,1.9,0123*64\r\n
$GPGGA,103450.40,5703.3516592,N,00952.1523153,E,2,11,0.8,-1.539,M,40.592,M,1.9,0123*6D\r\n
$GPGGA,103450.45,5703.3516731,N,00952.1524236,E,2,11,0.8,-1.540,M,40.592,M,2.1,0123*61\r\n
$GPGGA,103450.50,5703.3516897,N,00952.1525322,E,2,11,0.8,-1.540,M,40.592,M,2.1,0123*63\r\n
$GPGGA,103450.55,5703.3517063,N,00952.1526384,E,2,11,0.8,-1.537,M,40.592,M,2.1,0123*6B\r\n
$GPGGA,103450.60,5703.3517210,N,00952.1527469,E,2,11,0.8,-1.537,M,40.592,M,2.1,0123*6E\r\n
$GPGGA,103450.65,5703.3517362,N,00952.1528555,E,2,11,0.8,-1.533,M,40.592,M,2.3,0123*68\r\n
$GPGGA,103450.70,5703.3517521,N,00952.1529626,E,2,11,0.8,-1.532,M,40.592,M,2.3,0123*6A\r\n
$GPGGA,103450.75,5703.3517675,N,00952.1530719,E,2,11,0.8,-1.534,M,40.592,M,2.3,0123*6E\r\n
$GPGGA,103450.80,5703.3517820,N,00952.1531833,E,2,11,0.8,-1.536,M,40.592,M,2.3,0123*6E\r\n
$GPGGA,103450.85,5703.3517944,N,00952.1532960,E,2,11,0.8,-1.541,M,40.592,M,2.5,0123*6A\r\n
$GPGGA,103450.90,5703.3518081,N,00952.1534069,E,2,11,0.8,-1.545,M,40.592,M,2.5,0123*63\r\n
$GPGGA,103450.95,5703.3518207,N,00952.1535178,E,2,11,0.8,-1.550,M,40.592,M,2.5,0123*6E\r\n
$GPGGA,103451.00,5703.3518329,N,00952.1536297,E,2,11,0.8,-1.551,M,40.592,M,2.5,0123*6E\r\n
$GPGGA,103451.05,5703.3518457,N,00952.1537403,E,2,11,0.8,-1.547,M,40.592,M,2.7,0123*6A\r\n
$GPGGA,103451.10,5703.3518602,N,00952.1538480,E,2,11,0.8,-1.543,M,40.592,M,2.7,0123*6C\r\n
$GPGGA,103451.15,5703.3518713,N,00952.1539572,E,2,11,0.8,-1.540,M,40.592,M,2.7,0123*66\r\n
$GPGGA,103451.20,5703.3518826,N,00952.1540670,E,2,11,0.8,-1.539,M,40.592,M,2.7,0123*68\r\n
$GPGGA,103451.25,5703.3518937,N,00952.1541780,E,2,11,0.8,-1.539,M,40.592,M,2.9,0123*6D\r\n
$GPGGA,103451.30,5703.3519034,N,00952.1542877,E,2,11,0.8,-1.536,M,40.592,M,2.9,0123*69\r\n
$GPGGA,103451.35,5703.3519138,N,00952.1543975,E,2,11,0.8,-1.530,M,40.592,M,2.9,0123*65\r\n
$GPGGA,103451.40,5703.3519236,N,00952.1545106,E,2,11,0.8,-1.531,M,40.592,M,2.9,0123*61\r\n
$GPGGA,103451.45,5703.3519327,N,00952.1546241,E,2,11,0.8,-1.532,M,40.592,M,3.1,0123*6C\r\n
$GPGGA,103451.50,5703.3519437,N,00952.1547382,E,2,11,0.8,-1.535,M,40.592,M,3.1,0123*66\r\n
$GPGGA,103451.55,5703.3519542,N,00952.1548511,E,2,11,0.8,-1.539,M,40.592,M,3.1,0123*6F\r\n
$GPGGA,103451.60,5703.3519633,N,00952.1549631,E,2,11,0.8,-1.543,M,40.592,M,3.1,0123*61\r\n
$GPGGA,103451.65,5703.3519706,N,00952.1550767,E,2,11,0.8,-1.550,M,40.592,M,1.7,0123*6F\r\n
$GPGGA,103451.70,5703.3519798,N,00952.1551891,E,2,11,0.8,-1.551,M,40.592,M,1.7,0123*6A\r\n
$GPGGA,103451.75,5703.3519885,N,00952.1553005,E,2,11,0.8,-1.552,M,40.592,M,1.7,0123*68\r\n
$GPGGA,103451.80,5703.3519969,N,00952.1554122,E,2,11,0.8,-1.551,M,40.592,M,1.7,0123*61\r\n
$GPGGA,103451.85,5703.3520055,N,00952.1555218,E,2,11,0.8,-1.546,M,40.592,M,2.0,0123*61\r\n
$GPGGA,103451.90,5703.3520120,N,00952.1556335,E,2,11,0.8,-1.544,M,40.592,M,2.0,0123*69\r\n
$GPGGA,103451.95,5703.3520183,N,00952.1557444,E,2,11,0.8,-1.541,M,40.592,M,2.0,0123*60\r\n
$GPGGA,103452.00,5703.3520254,N,00952.1558526,E,2,11,0.8,-1.537,M,40.592,M,2.0,0123*6D\r\n
$GPGGA,103452.05,5703.3520319,N,00952.1559644,E,2,11,0.8,-1.535,M,40.592,M,2.4,0123*60\r\n
$GPGGA,103452.10,5703.3520389,N,00952.1560767,E,2,11,0.8,-1.533,M,40.592,M,2.4,0123*61\r\n
$GPGGA,103452.15,5703.3520457,N,00952.1561892,E,2,11,0.8,-1.537,M,40.592,M,2.4,0123*60\r\n
$GPGGA,103452.20,5703.3520535,N,00952.1563035,E,2,11,0.8,-1.540,M,40.592,M,2.4,0123*64\r\n
$GPGGA,103452.25,5703.3520612,N,00952.1564184,E,2,11,0.8,-1.538,M,40.592,M,2.6,0123*66\r\n
$GPGGA,103452.30,5703.3520691,N,00952.1565324,E,2,11,0.8,-1.540,M,40.592,M,2.6,0123*6F\r\n
$GPGGA,103452.35,5703.3520772,N,00952.1566472,E,2,11,0.8,-1.543,M,40.592,M,2.6,0123*62\r\n
$GPGGA,103452.40,5703.3520855,N,00952.1567591,E,2,11,0.8,-1.547,M,40.592,M,2.6,0123*63\r\n
$GPGGA,103452.45,5703.3520916,N,00952.1568726,E,2,11,0.8,-1.553,M,40.592,M,2.9,0123*6B\r\n
$GPGGA,103452.50,5703.3520982,N,00952.1569851,E,2,11,0.8,-1.553,M,40.592,M,2.9,0123*6C\r\n
$GPGGA,103452.55,5703.3521065,N,00952.1570986,E,2,11,0.8,-1.553,M,40.592,M,2.9,0123*6B\r\n
$GPGGA,103452.60,5703.3521132,N,00952.1572111,E,2,11,0.8,-1.552,M,40.592,M,2.9,0123*6B\r\n
$GPGGA,103452.65,5703.3521196,N,00952.1573239,E,2,11,0.8,-1.549,M,40.592,M,1.0,0123*68\r\n
$GPGGA,103452.70,5703.3521260,N,00952.1574358,E,2,11,0.8,-1.544,M,40.592,M,1.0,0123*6A\r\n
$GPGGA,103452.75,5703.3521310,N,00952.1575488,E,2,11,0.8,-1.541,M,40.592,M,1.0,0123*67\r\n
$GPGGA,103452.80,5703.3521368,N,00952.1576617,E,2,11,0.8,-1.535,M,40.592,M,1.0,0123*66\r\n
$GPGGA,103452.85,5703.3521419,N,00952.1577752,E,2,11,0.8,-1.532,M,40.592,M,1.2,0123*66\r\n
$GPGGA,103452.90,5703.3521464,N,00952.1578878,E,2,11,0.8,-1.531,M,40.592,M,1.2,0123*63\r\n
$GPGGA,103452.95,5703.3521517,N,00952.1580016,E,2,11,0.8,-1.530,M,40.592,M,1.2,0123*65\r\n
$GPGGA,103453.00,5703.3521585,N,00952.1581178,E,2,11,0.8,-1.533,M,40.592,M,1.2,0123*68\r\n
$GPGGA,103453.05,5703.3521652,N,00952.1582348,E,2,11,0.8,-1.539,M,40.592,M,1.5,0123*6B\r\n
$GPGGA,103453.10,5703.3521733,N,00952.1583526,E,2,11,0.8,-1.544,M,40.592,M,1.5,0123*6C\r\n
$GPGGA,103453.15,5703.3521809,N,00952.1584700,E,2,11,0.8,-1.550,M,40.592,M,1.5,0123*6B\r\n
$GPGGA,103453.20,5703.3521871,N,00952.1585846,E,2,11,0.8,-1.554,M,40.592,M,1.5,0123*6A\r\n
$GPGGA,103453.25,5703.3521927,N,00952.1587000,E,2,11,0.8,-1.556,M,40.592,M,1.7,0123*65\r\n
$GPGGA,103453.30,5703.3521992,N,00952.1588143,E,2,11,0.8,-1.557,M,40.592,M,1.7,0123*67\r\n
$GPGGA,103453.35,5703.3522046,N,00952.1589284,E,2,11,0.8,-1.556,M,40.592,M,1.7,0123*69\r\n
$GPGGA,103453.40,5703.3522118,N,00952.1590416,E,2,11,0.8,-1.556,M,40.592,M,1.7,0123*64\r\n
$GPGGA,103453.45,5703.3522189,N,00952.1591556,E,2,11,0.8,-1.555,M,40.592,M,2.0,0123*6A\r\n
$GPGGA,103453.50,5703.3522267,N,00952.1592703,E,2,11,0.8,-1.552,M,40.592,M,2.0,0123*6B\r\n
$GPGGA,103453.55,5703.3522330,N,00952.1593838,E,2,11,0.8,-1.549,M,40.592,M,2.0,0123*61\r\n
$GPGGA,103453.60,5703.3522391,N,00952.1594972,E,2,11,0.8,-1.547,M,40.592,M,2.0,0123*6A\r\n
$GPGGA,103453.65,5703.3522464,N,00952.1596126,E,2,11,0.8,-1.543,M,40.592,M,1.1,0123*6F\r\n
$GPGGA,103453.70,5703.3522538,N,00952.1597276,E,2,11,0.8,-1.542,M,40.592,M,1.1,0123*65\r\n
$GPGGA,103453.75,5703.3522621,N,00952.1598446,E,2,11,0.8,-1.542,M,40.592,M,1.1,0123*61\r\n
$GPGGA,103453.80,5703.3522701,N,00952.1599614,E,2,11,0.8,-1.543,M,40.592,M,1.1,0123*6D\r\n
$GPGGA,103453.85,5703.3522773,N,00952.1600758,E,2,11,0.8,-1.544,M,40.592,M,1.4,0123*65\r\n
$GPGGA,103453.90,5703.3522855,N,00952.1601908,E,2,11,0.8,-1.546,M,40.592,M,1.4,0123*62\r\n
$GPGGA,103453.95,5703.3522945,N,00952.1603086,E,2,11,0.8,-1.548,M,40.592,M,1.4,0123*64\r\n
$GPGGA,103454.00,5703.3523017,N,00952.1604274,E,2,11,0.8,-1.550,M,40.592,M,1.4,0123*61\r\n
$GPGGA,103454.05,5703.3523090,N,00952.1605436,E,2,11,0.8,-1.554,M,40.592,M,1.6,0123*6C\r\n
$GPGGA,103454.10,5703.3523160,N,00952.1606594,E,2,11,0.8,-1.552,M,40.592,M,1.6,0123*6A\r\n
$GPGGA,103454.15,5703.3523228,N,00952.1607757,E,2,11,0.8,-1.552,M,40.592,M,1.6,0123*6C\r\n
$GPGGA,103454.20,5703.3523299,N,00952.1608918,E,2,11,0.8,-1.551,M,40.592,M,1.6,0123*69\r\n
$GPGGA,103454.25,5703.3523380,N,00952.1610068,E,2,11,0.8,-1.547,M,40.592,M,1.9,0123*6A\r\n
$GPGGA,103454.30,5703.3523456,N,00952.1611215,E,2,11,0.8,-1.543,M,40.592,M,1.9,0123*6F\r\n
$GPGGA,103454.35,5703.3523543,N,00952.1612376,E,2,11,0.8,-1.544,M,40.592,M,1.9,0123*6F\r\n
$GPGGA,103454.40,5703.3523631,N,00952.1613548,E,2,11,0.8,-1.544,M,40.592,M,1.9,0123*61\r\n
$GPGGA,103454.45,5703.3523722,N,00952.1614697,E,2,11,0.8,-1.547,M,40.592,M,2.1,0123*69\r\n
$GPGGA,103454.50,5703.3523808,N,00952.1615872,E,2,11,0.8,-1.548,M,40.592,M,2.1,0123*61\r\n
$GPGGA,103454.55,5703.3523897,N,00952.1617035,E,2,11,0.8,-1.549,M,40.592,M,2.1,0123*6A\r\n
$GPGGA,103454.60,5703.3524001,N,00952.1618198,E,2,11,0.8,-1.550,M,40.592,M,2.1,0123*6D\r\n
$GPGGA,103454.65,5703.3524099,N,00952.1619363,E,2,11,0.8,-1.548,M,40.592,M,2.3,0123*65\r\n
$GPGGA,103454.70,5703.3524198,N,00952.1620507,E,2,11,0.8,-1.544,M,40.592,M,2.3,0123*63\r\n
$GPGGA,103454.75,5703.3524308,N,00952.1621645,E,2,11,0.8,-1.541,M,40.592,M,2.3,0123*6C\r\n
$GPGGA,103454.80,5703.3524406,N,00952.1622800,E,2,11,0.8,-1.537,M,40.592,M,2.3,0123*62\r\n
$GPGGA,103454.85,5703.3524498,N,00952.1623967,E,2,11,0.8,-1.538,M,40.592,M,2.5,0123*68\r\n
$GPGGA,103454.90,5703.3524593,N,00952.1625135,E,2,11,0.8,-1.538,M,40.592,M,2.5,0123*6F\r\n
$GPGGA,103454.95,5703.3524684,N,00952.1626307,E,2,11,0.8,-1.539,M,40.592,M,2.5,0123*6E\r\n
$GPGGA,103455.00,5703.3524775,N,00952.1627476,E,2,11,0.8,-1.541,M,40.592,M,2.5,0123*63\r\n
$GPGGA,103455.05,5703.3524878,N,00952.1628650,E,2,11,0.8,-1.545,M,40.592,M,2.7,0123*6B\r\n
$GPGGA,103455.10,5703.3524981,N,00952.1629828,E,2,11,0.8,-1.545,M,40.592,M,2.7,0123*68\r\n
$GPGGA,103455.15,5703.3525082,N,00952.1630981,E,2,11,0.8,-1.543,M,40.592,M,2.7,0123*6A\r\n
$GPGGA,103455.20,5703.3525190,N,00952.1632109,E,2,11,0.8,-1.542,M,40.592,M,2.7,0123*65\r\n
$GPGGA,103455.25,5703.3525305,N,00952.1633254,E,2,11,0.8,-1.542,M,40.592,M,2.9,0123*6A\r\n
$GPGGA,103455.30,5703.3525420,N,00952.1634404,E,2,11,0.8,-1.541,M,40.592,M,2.9,0123*69\r\n
$GPGGA,103455.35,5703.3525547,N,00952.1635544,E,2,11,0.8,-1.541,M,40.592,M,2.9,0123*68\r\n
$GPGGA,103455.40,5703.3525659,N,00952.1636705,E,2,11,0.8,-1.540,M,40.592,M,2.9,0123*63\r\n
$GPGGA,103455.45,5703.3525776,N,00952.1637851,E,2,11,0.8,-1.537,M,40.592,M,3.1,0123*6C\r\n
$GPGGA,103455.50,5703.3525893,N,00952.1638984,E,2,11,0.8,-1.535,M,40.592,M,3.1,0123*68\r\n
$GPGGA,103455.55,5703.3526015,N,00952.1640143,E,2,11,0.8,-1.534,M,40.592,M,3.1,0123*65\r\n
$GPGGA,103455.60,5703.3526146,N,00952.1641286,E,2,11,0.8,-1.530,M,40.592,M,3.1,0123*6B\r\n
$GPGGA,103455.65,5703.3526270,N,00952.1642417,E,2,11,0.8,-1.532,M,40.592,M,1.7,0123*63\r\n
$GPGGA,103455.70,5703.3526394,N,00952.1643578,E,2,11,0.8,-1.534,M,40.592,M,1.7,0123*63\r\n
$GPGGA,103455.75,5703.3526521,N,00952.1644761,E,2,11,0.8,-1.537,M,40.592,M,1.7,0123*60\r\n
$GPGGA,103455.80,5703.3526652,N,00952.1645908,E,2,11,0.8,-1.541,M,40.592,M,1.7,0123*6C\r\n
$GPGGA,103455.85,5703.3526778,N,00952.1647058,E,2,11,0.8,-1.541,M,40.592,M,2.0,0123*6A\r\n
$GPGGA,103455.90,5703.3526919,N,00952.1648201,E,2,11,0.8,-1.538,M,40.592,M,2.0,0123*68\r\n
$GPGGA,103455.95,5703.3527072,N,00952.1649340,E,2,11,0.8,-1.536,M,40.592,M,2.0,0123*63\r\n
$GPGGA,103456.00,5703.3527216,N,00952.1650468,E,2,11,0.8,-1.535,M,40.592,M,2.0,0123*6A\r\n
$GPGGA,103456.05,5703.3527352,N,00952.1651623,E,2,11,0.8,-1.534,M,40.592,M,2.4,0123*67\r\n
$GPGGA,103456.10,5703.3527488,N,00952.1652755,E,2,11,0.8,-1.533,M,40.592,M,2.4,0123*67\r\n
$GPGGA,103456.15,5703.3527627,N,00952.1653904,E,2,11,0.8,-1.534,M,40.592,M,2.4,0123*69\r\n
$GPGGA,103456.20,5703.3527768,N,00952.1655040,E,2,11,0.8,-1.534,M,40.592,M,2.4,0123*6A\r\n
$GPGGA,103456.25,5703.3527903,N,00952.1656171,E,2,11,0.8,-1.534,M,40.592,M,2.6,0123*6E\r\n
$GPGGA,103456.30,5703.3528056,N,00952.1657305,E,2,11,0.8,-1.533,M,40.592,M,2.6,0123*6B\r\n
$GPGGA,103456.35,5703.3528222,N,00952.1658421,E,2,11,0.8,-1.533,M,40.592,M,2.6,0123*61\r\n
$GPGGA,103456.40,5703.3528383,N,00952.1659548,E,2,11,0.8,-1.532,M,40.592,M,2.6,0123*67\r\n
$GPGGA,103456.45,5703.3528541,N,00952.1660663,E,2,11,0.8,-1.537,M,40.592,M,2.9,0123*60\r\n
$GPGGA,103456.50,5703.3528703,N,00952.1661794,E,2,11,0.8,-1.537,M,40.592,M,2.9,0123*68\r\n
$GPGGA,103456.55,5703.3528860,N,00952.1662930,E,2,11,0.8,-1.535,M,40.592,M,2.9,0123*66\r\n
$GPGGA,103456.60,5703.3529029,N,00952.1664046,E,2,11,0.8,-1.535,M,40.592,M,2.9,0123*6A\r\n
$GPGGA,103456.65,5703.3529195,N,00952.1665156,E,2,11,0.8,-1.538,M,40.592,M,1.0,0123*6F\r\n
$GPGGA,103456.70,5703.3529367,N,00952.1666268,E,2,11,0.8,-1.539,M,40.592,M,1.0,0123*68\r\n
$GPGGA,103456.75,5703.3529547,N,00952.1667380,E,2,11,0.8,-1.537,M,40.592,M,1.0,0123*61\r\n
$GPGGA,103456.80,5703.3529714,N,00952.1668485,E,2,11,0.8,-1.535,M,40.592,M,1.0,0123*60\r\n
$GPGGA,103456.85,5703.3529892,N,00952.1669581,E,2,11,0.8,-1.531,M,40.592,M,1.2,0123*66\r\n
$GPGGA,103456.90,5703.3530073,N,00952.1670671,E,2,11,0.8,-1.531,M,40.592,M,1.2,0123*69\r\n
$GPGGA,103456.95,5703.3530246,N,00952.1671768,E,2,11,0.8,-1.535,M,40.592,M,1.2,0123*64\r\n
$GPGGA,103457.00,5703.3530430,N,00952.1672889,E,2,11,0.8,-1.537,M,40.592,M,1.2,0123*6F\r\n
$GPGGA,103457.05,5703.3530618,N,00952.1674016,E,2,11,0.8,-1.544,M,40.592,M,1.5,0123*69\r\n
$GPGGA,103457.10,5703.3530805,N,00952.1675125,E,2,11,0.8,-1.547,M,40.592,M,1.5,0123*6C\r\n
$GPGGA,103457.15,5703.3530985,N,00952.1676227,E,2,11,0.8,-1.548,M,40.592,M,1.5,0123*6D\r\n
$GPGGA,103457.20,5703.3531167,N,00952.1677323,E,2,11,0.8,-1.547,M,40.592,M,1.5,0123*65\r\n
$GPGGA,103457.25,5703.3531349,N,00952.1678389,E,2,11,0.8,-1.541,M,40.592,M,1.7,0123*65\r\n
$GPGGA,103457.30,5703.3531528,N,00952.1679464,E,2,11,0.8,-1.542,M,40.592,M,1.7,0123*66\r\n
$GPGGA,103457.35,5703.3531724,N,00952.1680546,E,2,11,0.8,-1.543,M,40.592,M,1.7,0123*6B\r\n
$GPGGA,103457.40,5703.3531925,N,00952.1681629,E,2,11,0.8,-1.541,M,40.592,M,1.7,0123*6F\r\n
$GPGGA,103457.45,5703.3532120,N,00952.1682720,E,2,11,0.8,-1.543,M,40.592,M,2.0,0123*69\r\n
$GPGGA,103457.50,5703.3532320,N,00952.1683812,E,2,11,0.8,-1.545,M,40.592,M,2.0,0123*66\r\n
$GPGGA,103457.55,5703.3532526,N,00952.1684902,E,2,11,0.8,-1.549,M,40.592,M,2.0,0123*68\r\n
$GPGGA,103457.60,5703.3532726,N,00952.1685986,E,2,11,0.8,-1.554,M,40.592,M,2.0,0123*6D\r\n
$GPGGA,103457.65,5703.3532936,N,00952.1687070,E,2,11,0.8,-1.552,M,40.592,M,1.1,0123*61\r\n
$GPGGA,103457.70,5703.3533143,N,00952.1688137,E,2,11,0.8,-1.551,M,40.592,M,1.1,0123*60\r\n
$GPGGA,103457.75,5703.3533353,N,00952.1689197,E,2,11,0.8,-1.551,M,40.592,M,1.1,0123*6D\r\n
$GPGGA,103457.80,5703.3533555,N,00952.1690255,E,2,11,0.8,-1.551,M,40.592,M,1.1,0123*62\r\n
$GPGGA,103457.85,5703.3533754,N,00952.1691326,E,2,11,0.8,-1.548,M,40.592,M,1.4,0123*6D\r\n
$GPGGA,103457.90,5703.3533968,N,00952.1692391,E,2,11,0.8,-1.545,M,40.592,M,1.4,0123*6A\r\n
$GPGGA,103457.95,5703.3534197,N,00952.1693451,E,2,11,0.8,-1.543,M,40.592,M,1.4,0123*6C\r\n
$GPGGA,103458.00,5703.3534430,N,00952.1694486,E,2,11,0.8,-1.543,M,40.592,M,1.4,0123*6A\r\n
$GPGGA,103458.05,5703.3534665,N,00952.1695541,E,2,11,0.8,-1.543,M,40.592,M,1.6,0123*64\r\n
$GPGGA,103458.10,5703.3534888,N,00952.1696621,E,2,11,0.8,-1.546,M,40.592,M,1.6,0123*6E\r\n
$GPGGA,103458.15,5703.3535111,N,00952.1697700,E,2,11,0.8,-1.548,M,40.592,M,1.6,0123*6E\r\n
$GPGGA,103458.20,5703.3535347,N,00952.1698774,E,2,11,0.8,-1.548,M,40.592,M,1.6,0123*65\r\n
$GPGGA,103458.25,5703.3535573,N,00952.1699826,E,2,11,0.8,-1.549,M,40.592,M,1.9,0123*66\r\n
$GPGGA,103458.30,5703.3535788,N,00952.1700895,E,2,11,0.8,-1.551,M,40.592,M,1.9,0123*64\r\n
$GPGGA,103458.35,5703.3536021,N,00952.1701948,E,2,11,0.8,-1.547,M,40.592,M,1.9,0123*61\r\n
$GPGGA,103458.40,5703.3536251,N,00952.1702986,E,2,11,0.8,-1.543,M,40.592,M,1.9,0123*63\r\n
