$GPGGA,140855.60,5703.4284788,N,00952.3511553,E,2,11,0.9,-1.605,M,40.593,M,2.3,0123*61\r\n
$GPGGA,140855.65,5703.4284753,N,00952.3511334,E,2,11,0.9,-1.607,M,40.593,M,2.6,0123*62\r\n
$GPGGA,140855.70,5703.4284721,N,00952.3511110,E,2,11,0.9,-1.609,M,40.593,M,2.6,0123*69\r\n
$GPGGA,140855.75,5703.4284684,N,00952.3510880,E,2,11,0.9,-1.609,M,40.593,M,2.6,0123*63\r\n
$GPGGA,140855.80,5703.4284654,N,00952.3510638,E,2,11,0.9,-1.609,M,40.593,M,2.6,0123*69\r\n
$GPGGA,140855.85,5703.4284631,N,00952.3510398,E,2,11,0.9,-1.609,M,40.593,M,2.8,0123*6E\r\n
$GPGGA,140855.90,5703.4284610,N,00952.3510177,E,2,11,0.9,-1.610,M,40.593,M,2.8,0123*62\r\n
$GPGGA,140855.95,5703.4284584,N,00952.3509957,E,2,11,0.9,-1.610,M,40.593,M,2.8,0123*6B\r\n
$GPGGA,140856.00,5703.4284555,N,00952.3509725,E,2,11,0.9,-1.609,M,40.593,M,2.8,0123*6B\r\n
$GPGGA,140856.05,5703.4284541,N,00952.3509486,E,2,11,0.9,-1.604,M,40.593,M,3.0,0123*65\r\n
$GPGGA,140856.10,5703.4284513,N,00952.3509248,E,2,11,0.9,-1.604,M,40.593,M,3.0,0123*62\r\n
$GPGGA,140856.15,5703.4284491,N,00952.3509010,E,2,11,0.9,-1.603,M,40.593,M,3.0,0123*64\r\n
$GPGGA,140856.20,5703.4284472,N,00952.3508764,E,2,11,0.9,-1.599,M,40.593,M,3.0,0123*6A\r\n
$GPGGA,140856.25,5703.4284458,N,00952.3508514,E,2,11,0.9,-1.596,M,40.593,M,3.3,0123*6E\r\n
$GPGGA,140856.30,5703.4284432,N,00952.3508272,E,2,11,0.9,-1.594,M,40.593,M,3.3,0123*63\r\n
$GPGGA,140856.35,5703.4284404,N,00952.3508034,E,2,11,0.9,-1.594,M,40.593,M,3.3,0123*63\r\n
$GPGGA,140856.40,5703.4284384,N,00952.3507796,E,2,11,0.9,-1.594,M,40.593,M,3.3,0123*6E\r\n
$GPGGA,140856.45,5703.4284360,N,00952.3507555,E,2,11,0.9,-1.595,M,40.593,M,3.0,0123*6E\r\n
$GPGGA,140856.50,5703.4284336,N,00952.3507301,E,2,11,0.9,-1.595,M,40.593,M,3.0,0123*6E\r\n
$GPGGA,140856.55,5703.4284313,N,00952.3507052,E,2,11,0.9,-1.594,M,40.593,M,3.0,0123*68\r\n
$GPGGA,140856.60,5703.4284296,N,00952.3506804,E,2,11,0.9,-1.593,M,40.593,M,3.0,0123*6F\r\n
$GPGGA,140856.65,5703.4284271,N,00952.3506560,E,2,11,0.9,-1.596,M,40.593,M,3.3,0123*6A\r\n
$GPGGA,140856.70,5703.4284242,N,00952.3506320,E,2,11,0.9,-1.595,M,40.593,M,3.3,0123*6F\r\n
$GPGGA,140856.75,5703.4284216,N,00952.3506080,E,2,11,0.9,-1.596,M,40.593,M,3.3,0123*61\r\n
$GPGGA,140856.80,5703.4284188,N,00952.3505837,E,2,11,0.9,-1.598,M,40.593,M,3.3,0123*66\r\n
$GPGGA,140856.85,5703.4284168,N,00952.3505588,E,2,11,0.9,-1.592,M,40.593,M,3.5,0123*68\r\n
$GPGGA,140856.90,5703.4284137,N,00952.3505350,E,2,11,0.9,-1.592,M,40.593,M,3.5,0123*65\r\n
$GPGGA,140856.95,5703.4284104,N,00952.3505127,E,2,11,0.9,-1.591,M,40.593,M,3.5,0123*61\r\n
$GPGGA,140857.00,5703.4284072,N,00952.3504900,E,2,11,0.9,-1.590,M,40.593,M,3.5,0123*61\r\n
$GPGGA,140857.05,5703.4284048,N,00952.3504679,E,2,11,0.9,-1.591,M,40.593,M,3.7,0123*6F\r\n
$GPGGA,140857.10,5703.4284016,N,00952.3504452,E,2,11,0.9,-1.591,M,40.593,M,3.7,0123*6B\r\n
$GPGGA,140857.15,5703.4283989,N,00952.3504220,E,2,11,0.9,-1.591,M,40.593,M,3.7,0123*65\r\n
$GPGGA,140857.20,5703.4283962,N,00952.3503986,E,2,11,0.9,-1.590,M,40.593,M,3.7,0123*67\r\n
$GPGGA,140857.25,5703.4283931,N,00952.3503761,E,2,11,0.9,-1.587,M,40.593,M,3.9,0123*6B\r\n
$GPGGA,140857.30,5703.4283901,N,00952.3503535,E,2,11,0.9,-1.586,M,40.593,M,3.9,0123*6E\r\n
$GPGGA,140857.35,5703.4283876,N,00952.3503304,E,2,11,0.9,-1.586,M,40.593,M,3.9,0123*6E\r\n
$GPGGA,140857.40,5703.4283850,N,00952.3503091,E,2,11,0.9,-1.587,M,40.593,M,3.9,0123*66\r\n
$GPGGA,140857.45,5703.4283818,N,00952.3502883,E,2,11,0.9,-1.588,M,40.593,M,1.8,0123*69\r\n
$GPGGA,140857.50,5703.4283790,N,00952.3502660,E,2,11,0.9,-1.587,M,40.593,M,1.8,0123*6E\r\n
$GPGGA,140857.55,5703.4283758,N,00952.3502436,E,2,11,0.9,-1.588,M,40.593,M,1.8,0123*61\r\n
$GPGGA,140857.60,5703.4283737,N,00952.3502203,E,2,11,0.9,-1.589,M,40.593,M,1.8,0123*6F\r\n
$GPGGA,140857.65,5703.4283714,N,00952.3501978,E,2,11,0.9,-1.591,M,40.593,M,2.0,0123*6D\r\n
$GPGGA,140857.70,5703.4283694,N,00952.3501765,E,2,11,0.9,-1.592,M,40.593,M,2.0,0123*61\r\n
$GPGGA,140857.75,5703.4283667,N,00952.3501549,E,2,11,0.9,-1.595,M,40.593,M,2.0,0123*63\r\n
$GPGGA,140857.80,5703.4283642,N,00952.3501321,E,2,11,0.9,-1.597,M,40.593,M,2.0,0123*64\r\n
$GPGGA,140857.85,5703.4283617,N,00952.3501088,E,2,11,0.9,-1.602,M,40.593,M,2.3,0123*6D\r\n
$GPGGA,140857.90,5703.4283594,N,00952.3500858,E,2,11,0.9,-1.606,M,40.593,M,2.3,0123*61\r\n
$GPGGA,140857.95,5703.4283577,N,00952.3500626,E,2,11,0.9,-1.609,M,40.593,M,2.3,0123*61\r\n
$GPGGA,140858.00,5703.4283556,N,00952.3500405,E,2,11,0.9,-1.612,M,40.593,M,2.3,0123*68\r\n
$GPGGA,140858.05,5703.4283549,N,00952.3500173,E,2,11,0.9,-1.614,M,40.593,M,2.5,0123*67\r\n
$GPGGA,140858.10,5703.4283532,N,00952.3499952,E,2,11,0.9,-1.616,M,40.593,M,2.5,0123*67\r\n
$GPGGA,140858.15,5703.4283517,N,00952.3499720,E,2,11,0.9,-1.618,M,40.593,M,2.5,0123*60\r\n
$GPGGA,140858.20,5703.4283498,N,00952.3499484,E,2,11,0.9,-1.621,M,40.593,M,2.5,0123*67\r\n
$GPGGA,140858.25,5703.4283474,N,00952.3499237,E,2,11,0.9,-1.619,M,40.593,M,2.7,0123*67\r\n
$GPGGA,140858.30,5703.4283458,N,00952.3498998,E,2,11,0.9,-1.620,M,40.593,M,2.7,0123*68\r\n
$GPGGA,140858.35,5703.4283447,N,00952.3498759,E,2,11,0.9,-1.620,M,40.593,M,2.7,0123*60\r\n
$GPGGA,140858.40,5703.4283429,N,00952.3498512,E,2,11,0.9,-1.621,M,40.593,M,2.7,0123*66\r\n
$GPGGA,140858.45,5703.4283417,N,00952.3498273,E,2,11,0.9,-1.618,M,40.593,M,2.9,0123*6A\r\n
$GPGGA,140858.50,5703.4283400,N,00952.3498023,E,2,11,0.9,-1.617,M,40.593,M,2.9,0123*60\r\n
$GPGGA,140858.55,5703.4283377,N,00952.3497766,E,2,11,0.9,-1.615,M,40.593,M,2.9,0123*69\r\n
$GPGGA,140858.60,5703.4283357,N,00952.3497520,E,2,11,0.9,-1.613,M,40.593,M,2.9,0123*6B\r\n
$GPGGA,140858.65,5703.4283342,N,00952.3497274,E,2,11,0.9,-1.615,M,40.593,M,3.1,0123*63\r\n
$GPGGA,140858.70,5703.4283325,N,00952.3497038,E,2,11,0.9,-1.614,M,40.593,M,3.1,0123*6D\r\n
$GPGGA,140858.75,5703.4283299,N,00952.3496784,E,2,11,0.9,-1.612,M,40.593,M,3.1,0123*69\r\n
$GPGGA,140858.80,5703.4283274,N,00952.3496533,E,2,11,0.9,-1.611,M,40.593,M,3.1,0123*6D\r\n
$GPGGA,140858.85,5703.4283252,N,00952.3496273,E,2,11,0.9,-1.602,M,40.593,M,3.3,0123*6F\r\n
$GPGGA,140858.90,5703.4283226,N,00952.3496021,E,2,11,0.9,-1.600,M,40.593,M,3.3,0123*6F\r\n
$GPGGA,140858.95,5703.4283199,N,00952.3495772,E,2,11,0.9,-1.596,M,40.593,M,3.3,0123*63\r\n
$GPGGA,140859.00,5703.4283172,N,00952.3495519,E,2,11,0.9,-1.592,M,40.593,M,3.3,0123*60\r\n
$GPGGA,140859.05,5703.4283154,N,00952.3495259,E,2,11,0.9,-1.587,M,40.593,M,3.5,0123*60\r\n
$GPGGA,140859.10,5703.4283119,N,00952.3495010,E,2,11,0.9,-1.584,M,40.593,M,3.5,0123*61\r\n
$GPGGA,140859.15,5703.4283084,N,00952.3494754,E,2,11,0.9,-1.582,M,40.593,M,3.5,0123*61\r\n
$GPGGA,140859.20,5703.4283052,N,00952.3494516,E,2,11,0.9,-1.580,M,40.593,M,3.5,0123*6A\r\n
$GPGGA,140859.25,5703.4283010,N,00952.3494271,E,2,11,0.9,-1.579,M,40.593,M,3.8,0123*64\r\n
$GPGGA,140859.30,5703.4282981,N,00952.3494024,E,2,11,0.9,-1.577,M,40.593,M,3.8,0123*6C\r\n
$GPGGA,140859.35,5703.4282951,N,00952.3493781,E,2,11,0.9,-1.575,M,40.593,M,3.8,0123*69\r\n
$GPGGA,140859.40,5703.4282913,N,00952.3493528,E,2,11,0.9,-1.573,M,40.593,M,3.8,0123*6A\r\n
$GPGGA,140859.45,5703.4282882,N,00952.3493272,E,2,11,0.9,-1.571,M,40.593,M,2.3,0123*66\r\n
$GPGGA,140859.50,5703.4282855,N,00952.3493034,E,2,11,0.9,-1.570,M,40.593,M,2.3,0123*69\r\n
$GPGGA,140859.55,5703.4282823,N,00952.3492789,E,2,11,0.9,-1.570,M,40.593,M,2.3,0123*6D\r\n
$GPGGA,140859.60,5703.4282781,N,00952.3492542,E,2,11,0.9,-1.568,M,40.593,M,2.3,0123*60\r\n
$GPGGA,140859.65,5703.4282736,N,00952.3492309,E,2,11,0.9,-1.570,M,40.593,M,2.6,0123*6C\r\n
$GPGGA,140859.70,5703.4282701,N,00952.3492076,E,2,11,0.9,-1.571,M,40.593,M,2.6,0123*66\r\n
$GPGGA,140859.75,5703.4282682,N,00952.3491840,E,2,11,0.9,-1.571,M,40.593,M,2.6,0123*67\r\n
$GPGGA,140859.80,5703.4282652,N,00952.3491596,E,2,11,0.9,-1.571,M,40.593,M,2.6,0123*66\r\n
$GPGGA,140859.85,5703.4282619,N,00952.3491351,E,2,11,0.9,-1.570,M,40.593,M,2.8,0123*6E\r\n
$GPGGA,140859.90,5703.4282592,N,00952.3491115,E,2,11,0.9,-1.569,M,40.593,M,2.8,0123*60\r\n
$GPGGA,140859.95,5703.4282573,N,00952.3490873,E,2,11,0.9,-1.568,M,40.593,M,2.8,0123*63\r\n
$GPGGA,140900.00,5703.4282549,N,00952.3490639,E,2,11,0.9,-1.569,M,40.593,M,2.8,0123*6A\r\n
$GPGGA,140900.05,5703.4282547,N,00952.3490377,E,2,11,0.9,-1.567,M,40.593,M,3.0,0123*69\r\n
$GPGGA,140900.10,5703.4282517,N,00952.3490141,E,2,11,0.9,-1.566,M,40.593,M,3.0,0123*6E\r\n
$GPGGA,140900.15,5703.4282487,N,00952.3489907,E,2,11,0.9,-1.567,M,40.593,M,3.0,0123*60\r\n
$GPGGA,140900.20,5703.4282463,N,00952.3489670,E,2,11,0.9,-1.567,M,40.593,M,3.0,0123*63\r\n
$GPGGA,140900.25,5703.4282443,N,00952.3489425,E,2,11,0.9,-1.567,M,40.593,M,3.3,0123*65\r\n
$GPGGA,140900.30,5703.4282418,N,00952.3489173,E,2,11,0.9,-1.566,M,40.593,M,3.3,0123*68\r\n
$GPGGA,140900.35,5703.4282386,N,00952.3488924,E,2,11,0.9,-1.567,M,40.593,M,3.3,0123*67\r\n
$GPGGA,140900.40,5703.4282362,N,00952.3488660,E,2,11,0.9,-1.567,M,40.593,M,3.3,0123*60\r\n
$GPGGA,140900.45,5703.4282333,N,00952.3488402,E,2,11,0.9,-1.567,M,40.593,M,3.0,0123*64\r\n
$GPGGA,140900.50,5703.4282302,N,00952.3488145,E,2,11,0.9,-1.565,M,40.593,M,3.0,0123*66\r\n
$GPGGA,140900.55,5703.4282275,N,00952.3487872,E,2,11,0.9,-1.565,M,40.593,M,3.0,0123*60\r\n
$GPGGA,140900.60,5703.4282234,N,00952.3487601,E,2,11,0.9,-1.563,M,40.593,M,3.0,0123*6F\r\n
$GPGGA,140900.65,5703.4282193,N,00952.3487312,E,2,11,0.9,-1.564,M,40.593,M,3.3,0123*67\r\n
$GPGGA,140900.70,5703.4282146,N,00952.3487015,E,2,11,0.9,-1.562,M,40.593,M,3.3,0123*69\r\n
$GPGGA,140900.75,5703.4282093,N,00952.3486708,E,2,11,0.9,-1.563,M,40.593,M,3.3,0123*6E\r\n
$GPGGA,140900.80,5703.4282044,N,00952.3486396,E,2,11,0.9,-1.563,M,40.593,M,3.3,0123*6D\r\n
$GPGGA,140900.85,5703.4281989,N,00952.3486043,E,2,11,0.9,-1.557,M,40.593,M,3.5,0123*69\r\n
$GPGGA,140900.90,5703.4281934,N,00952.3485695,E,2,11,0.9,-1.556,M,40.593,M,3.5,0123*64\r\n
$GPGGA,140900.95,5703.4281889,N,00952.3485339,E,2,11,0.9,-1.554,M,40.593,M,3.5,0123*67\r\n
$GPGGA,140901.00,5703.4281834,N,00952.3484975,E,2,11,0.9,-1.552,M,40.593,M,3.5,0123*69\r\n
$GPGGA,140901.05,5703.4281793,N,00952.3484552,E,2,11,0.9,-1.551,M,40.593,M,3.7,0123*66\r\n
$GPGGA,140901.10,5703.4281718,N,00952.3484144,E,2,11,0.9,-1.550,M,40.593,M,3.7,0123*63\r\n
$GPGGA,140901.15,5703.4281643,N,00952.3483711,E,2,11,0.9,-1.547,M,40.593,M,3.7,0123*6E\r\n
$GPGGA,140901.20,5703.4281562,N,00952.3483274,E,2,11,0.9,-1.544,M,40.593,M,3.7,0123*6D\r\n
$GPGGA,140901.25,5703.4281475,N,00952.3482818,E,2,11,0.9,-1.543,M,40.593,M,3.9,0123*67\r\n
$GPGGA,140901.30,5703.4281390,N,00952.3482361,E,2,11,0.9,-1.543,M,40.593,M,3.9,0123*6A\r\n
$GPGGA,140901.35,5703.4281303,N,00952.3481878,E,2,11,0.9,-1.542,M,40.593,M,3.9,0123*64\r\n
$GPGGA,140901.40,5703.4281202,N,00952.3481378,E,2,11,0.9,-1.543,M,40.593,M,3.9,0123*6C\r\n
$GPGGA,140901.45,5703.4281103,N,00952.3480862,E,2,11,0.9,-1.542,M,40.593,M,1.8,0123*68\r\n
$GPGGA,140901.50,5703.4281005,N,00952.3480331,E,2,11,0.9,-1.541,M,40.593,M,1.8,0123*65\r\n
$GPGGA,140901.55,5703.4280896,N,00952.3479790,E,2,11,0.9,-1.542,M,40.593,M,1.8,0123*69\r\n
$GPGGA,140901.60,5703.4280778,N,00952.3479242,E,2,11,0.9,-1.541,M,40.593,M,1.8,0123*69\r\n
$GPGGA,140901.65,5703.4280649,N,00952.3478677,E,2,11,0.9,-1.541,M,40.593,M,2.0,0123*67\r\n
$GPGGA,140901.70,5703.4280532,N,00952.3478098,E,2,11,0.9,-1.541,M,40.593,M,2.0,0123*6B\r\n
$GPGGA,140901.75,5703.4280409,N,00952.3477500,E,2,11,0.9,-1.541,M,40.593,M,2.0,0123*6C\r\n
$GPGGA,140901.80,5703.4280280,N,00952.3476909,E,2,11,0.9,-1.540,M,40.593,M,2.0,0123*64\r\n
$GPGGA,140901.85,5703.4280146,N,00952.3476296,E,2,11,0.9,-1.537,M,40.593,M,2.3,0123*66\r\n
$GPGGA,140901.90,5703.4280002,N,00952.3475671,E,2,11,0.9,-1.536,M,40.593,M,2.3,0123*6C\r\n
$GPGGA,140901.95,5703.4279866,N,00952.3475024,E,2,11,0.9,-1.531,M,40.593,M,2.3,0123*64\r\n
$GPGGA,140902.00,5703.4279720,N,00952.3474373,E,2,11,0.9,-1.529,M,40.593,M,2.3,0123*6F\r\n
$GPGGA,140902.05,5703.4279605,N,00952.3473682,E,2,11,0.9,-1.523,M,40.593,M,2.5,0123*6C\r\n
$GPGGA,140902.10,5703.4279456,N,00952.3473014,E,2,11,0.9,-1.522,M,40.593,M,2.5,0123*64\r\n
$GPGGA,140902.15,5703.4279302,N,00952.3472326,E,2,11,0.9,-1.520,M,40.593,M,2.5,0123*66\r\n
$GPGGA,140902.20,5703.4279145,N,00952.3471637,E,2,11,0.9,-1.518,M,40.593,M,2.5,0123*6C\r\n
$GPGGA,140902.25,5703.4278992,N,00952.3470926,E,2,11,0.9,-1.511,M,40.593,M,2.7,0123*6F\r\n
$GPGGA,140902.30,5703.4278836,N,00952.3470213,E,2,11,0.9,-1.507,M,40.593,M,2.7,0123*6E\r\n
$GPGGA,140902.35,5703.4278673,N,00952.3469481,E,2,11,0.9,-1.505,M,40.593,M,2.7,0123*63\r\n
$GPGGA,140902.40,5703.4278514,N,00952.3468756,E,2,11,0.9,-1.504,M,40.593,M,2.7,0123*6A\r\n
$GPGGA,140902.45,5703.4278353,N,00952.3468021,E,2,11,0.9,-1.506,M,40.593,M,0.9,0123*63\r\n
$GPGGA,140902.50,5703.4278186,N,00952.3467273,E,2,11,0.9,-1.503,M,40.593,M,0.9,0123*62\r\n
$GPGGA,140902.55,5703.4278018,N,00952.3466527,E,2,11,0.9,-1.503,M,40.593,M,0.9,0123*66\r\n
$GPGGA,140902.60,5703.4277850,N,00952.3465763,E,2,11,0.9,-1.502,M,40.593,M,0.9,0123*6B\r\n
$GPGGA,140902.65,5703.4277680,N,00952.3464988,E,2,11,0.9,-1.501,M,40.593,M,1.2,0123*6E\r\n
$GPGGA,140902.70,5703.4277517,N,00952.3464220,E,2,11,0.9,-1.500,M,40.593,M,1.2,0123*6F\r\n
$GPGGA,140902.75,5703.4277349,N,00952.3463432,E,2,11,0.9,-1.500,M,40.593,M,1.2,0123*65\r\n
$GPGGA,140902.80,5703.4277174,N,00952.3462653,E,2,11,0.9,-1.498,M,40.593,M,1.2,0123*67\r\n
$GPGGA,140902.85,5703.4277006,N,00952.3461861,E,2,11,0.9,-1.501,M,40.593,M,1.5,0123*6C\r\n
$GPGGA,140902.90,5703.4276838,N,00952.3461061,E,2,11,0.9,-1.500,M,40.593,M,1.5,0123*65\r\n
$GPGGA,140902.95,5703.4276663,N,00952.3460257,E,2,11,0.9,-1.498,M,40.593,M,1.5,0123*66\r\n
$GPGGA,140903.00,5703.4276487,N,00952.3459448,E,2,11,0.9,-1.498,M,40.593,M,1.5,0123*61\r\n
$GPGGA,140903.05,5703.4276329,N,00952.3458630,E,2,11,0.9,-1.500,M,40.593,M,1.8,0123*66\r\n
$GPGGA,140903.10,5703.4276154,N,00952.3457815,E,2,11,0.9,-1.500,M,40.593,M,1.8,0123*6C\r\n
$GPGGA,140903.15,5703.4275991,N,00952.3456984,E,2,11,0.9,-1.498,M,40.593,M,1.8,0123*63\r\n
$GPGGA,140903.20,5703.4275816,N,00952.3456155,E,2,11,0.9,-1.498,M,40.593,M,1.8,0123*6F\r\n
$GPGGA,140903.25,5703.4275638,N,00952.3455327,E,2,11,0.9,-1.498,M,40.593,M,2.1,0123*66\r\n
$GPGGA,140903.30,5703.4275471,N,00952.3454486,E,2,11,0.9,-1.497,M,40.593,M,2.1,0123*6F\r\n
$GPGGA,140903.35,5703.4275296,N,00952.3453645,E,2,11,0.9,-1.497,M,40.593,M,2.1,0123*6F\r\n
$GPGGA,140903.40,5703.4275120,N,00952.3452804,E,2,11,0.9,-1.498,M,40.593,M,2.1,0123*66\r\n
$GPGGA,140903.45,5703.4274943,N,00952.3451954,E,2,11,0.9,-1.498,M,40.593,M,1.6,0123*6C\r\n
$GPGGA,140903.50,5703.4274780,N,00952.3451090,E,2,11,0.9,-1.496,M,40.593,M,1.6,0123*66\r\n
$GPGGA,140903.55,5703.4274611,N,00952.3450232,E,2,11,0.9,-1.495,M,40.593,M,1.6,0123*62\r\n
$GPGGA,140903.60,5703.4274441,N,00952.3449372,E,2,11,0.9,-1.496,M,40.593,M,1.6,0123*6D\r\n
$GPGGA,140903.65,5703.4274264,N,00952.3448511,E,2,11,0.9,-1.499,M,40.593,M,2.0,0123*61\r\n
$GPGGA,140903.70,5703.4274086,N,00952.3447640,E,2,11,0.9,-1.500,M,40.593,M,2.0,0123*62\r\n
$GPGGA,140903.75,5703.4273910,N,00952.3446775,E,2,11,0.9,-1.499,M,40.593,M,2.0,0123*61\r\n
$GPGGA,140903.80,5703.4273741,N,00952.3445890,E,2,11,0.9,-1.500,M,40.593,M,2.0,0123*67\r\n
$GPGGA,140903.85,5703.4273576,N,00952.3445012,E,2,11,0.9,-1.500,M,40.593,M,2.3,0123*65\r\n
$GPGGA,140903.90,5703.4273413,N,00952.3444146,E,2,11,0.9,-1.499,M,40.593,M,2.3,0123*63\r\n
$GPGGA,140903.95,5703.4273238,N,00952.3443272,E,2,11,0.9,-1.499,M,40.593,M,2.3,0123*6A\r\n
$GPGGA,140904.00,5703.4273066,N,00952.3442395,E,2,11,0.9,-1.499,M,40.593,M,2.3,0123*61\r\n
$GPGGA,140904.05,5703.4272913,N,00952.3441515,E,2,11,0.9,-1.494,M,40.593,M,2.5,0123*68\r\n
$GPGGA,140904.10,5703.4272744,N,00952.3440626,E,2,11,0.9,-1.494,M,40.593,M,2.5,0123*62\r\n
$GPGGA,140904.15,5703.4272579,N,00952.3439754,E,2,11,0.9,-1.495,M,40.593,M,2.5,0123*60\r\n
$GPGGA,140904.20,5703.4272399,N,00952.3438876,E,2,11,0.9,-1.495,M,40.593,M,2.5,0123*60\r\n
$GPGGA,140904.25,5703.4272221,N,00952.3438002,E,2,11,0.9,-1.499,M,40.593,M,2.8,0123*6D\r\n
$GPGGA,140904.30,5703.4272054,N,00952.3437114,E,2,11,0.9,-1.499,M,40.593,M,2.8,0123*60\r\n
$GPGGA,140904.35,5703.4271893,N,00952.3436224,E,2,11,0.9,-1.499,M,40.593,M,2.8,0123*64\r\n
$GPGGA,140904.40,5703.4271726,N,00952.3435333,E,2,11,0.9,-1.499,M,40.593,M,2.8,0123*63\r\n
$GPGGA,140904.45,5703.4271563,N,00952.3434434,E,2,11,0.9,-1.500,M,40.593,M,0.6,0123*69\r\n
$GPGGA,140904.50,5703.4271398,N,00952.3433542,E,2,11,0.9,-1.501,M,40.593,M,0.6,0123*69\r\n
$GPGGA,140904.55,5703.4271235,N,00952.3432644,E,2,11,0.9,-1.501,M,40.593,M,0.6,0123*6E\r\n
$GPGGA,140904.60,5703.4271072,N,00952.3431760,E,2,11,0.9,-1.501,M,40.593,M,0.6,0123*6D\r\n
$GPGGA,140904.65,5703.4270902,N,00952.3430865,E,2,11,0.9,-1.504,M,40.593,M,0.9,0123*66\r\n
$GPGGA,140904.70,5703.4270731,N,00952.3429972,E,2,11,0.9,-1.506,M,40.593,M,0.9,0123*61\r\n
$GPGGA,140904.75,5703.4270554,N,00952.3429069,E,2,11,0.9,-1.507,M,40.593,M,0.9,0123*67\r\n
$GPGGA,140904.80,5703.4270385,N,00952.3428171,E,2,11,0.9,-1.505,M,40.593,M,0.9,0123*6C\r\n
$GPGGA,140904.85,5703.4270215,N,00952.3427272,E,2,11,0.9,-1.505,M,40.593,M,1.1,0123*67\r\n
$GPGGA,140904.90,5703.4270041,N,00952.3426385,E,2,11,0.9,-1.505,M,40.593,M,1.1,0123*68\r\n
$GPGGA,140904.95,5703.4269868,N,00952.3425489,E,2,11,0.9,-1.506,M,40.593,M,1.1,0123*6D\r\n
$GPGGA,140905.00,5703.4269694,N,00952.3424597,E,2,11,0.9,-1.507,M,40.593,M,1.1,0123*63\r\n
$GPGGA,140905.05,5703.4269518,N,00952.3423705,E,2,11,0.9,-1.509,M,40.593,M,1.4,0123*64\r\n
$GPGGA,140905.10,5703.4269349,N,00952.3422810,E,2,11,0.9,-1.507,M,40.593,M,1.4,0123*66\r\n
$GPGGA,140905.15,5703.4269170,N,00952.3421905,E,2,11,0.9,-1.506,M,40.593,M,1.4,0123*6C\r\n
$GPGGA,140905.20,5703.4268992,N,00952.3421001,E,2,11,0.9,-1.506,M,40.593,M,1.4,0123*62\r\n
$GPGGA,140905.25,5703.4268811,N,00952.3420110,E,2,11,0.9,-1.507,M,40.593,M,1.6,0123*6E\r\n
$GPGGA,140905.30,5703.4268630,N,00952.3419198,E,2,11,0.9,-1.508,M,40.593,M,1.6,0123*62\r\n
$GPGGA,140905.35,5703.4268451,N,00952.3418293,E,2,11,0.9,-1.510,M,40.593,M,1.6,0123*62\r\n
$GPGGA,140905.40,5703.4268274,N,00952.3417378,E,2,11,0.9,-1.512,M,40.593,M,1.6,0123*68\r\n
$GPGGA,140905.45,5703.4268086,N,00952.3416470,E,2,11,0.9,-1.510,M,40.593,M,1.8,0123*60\r\n
$GPGGA,140905.50,5703.4267900,N,00952.3415573,E,2,11,0.9,-1.507,M,40.593,M,1.8,0123*6B\r\n
$GPGGA,140905.55,5703.4267712,N,00952.3414686,E,2,11,0.9,-1.508,M,40.593,M,1.8,0123*64\r\n
$GPGGA,140905.60,5703.4267529,N,00952.3413758,E,2,11,0.9,-1.509,M,40.593,M,1.8,0123*6C\r\n
$GPGGA,140905.65,5703.4267337,N,00952.3412855,E,2,11,0.9,-1.511,M,40.593,M,2.0,0123*61\r\n
$GPGGA,140905.70,5703.4267135,N,00952.3411937,E,2,11,0.9,-1.511,M,40.593,M,2.0,0123*63\r\n
$GPGGA,140905.75,5703.4266942,N,00952.3411006,E,2,11,0.9,-1.510,M,40.593,M,2.0,0123*65\r\n
$GPGGA,140905.80,5703.4266751,N,00952.3410091,E,2,11,0.9,-1.509,M,40.593,M,2.0,0123*64\r\n
$GPGGA,140905.85,5703.4266560,N,00952.3409191,E,2,11,0.9,-1.512,M,40.593,M,2.3,0123*61\r\n
$GPGGA,140905.90,5703.4266365,N,00952.3408256,E,2,11,0.9,-1.511,M,40.593,M,2.3,0123*6C\r\n
$GPGGA,140905.95,5703.4266156,N,00952.3407320,E,2,11,0.9,-1.508,M,40.593,M,2.3,0123*6C\r\n
$GPGGA,140906.00,5703.4265951,N,00952.3406390,E,2,11,0.9,-1.508,M,40.593,M,2.3,0123*65\r\n
$GPGGA,140906.05,5703.4265747,N,00952.3405463,E,2,11,0.9,-1.512,M,40.593,M,2.5,0123*6C\r\n
$GPGGA,140906.10,5703.4265523,N,00952.3404533,E,2,11,0.9,-1.511,M,40.593,M,2.5,0123*6E\r\n
$GPGGA,140906.15,5703.4265304,N,00952.3403606,E,2,11,0.9,-1.509,M,40.593,M,2.5,0123*63\r\n
$GPGGA,140906.20,5703.4265081,N,00952.3402656,E,2,11,0.9,-1.507,M,40.593,M,2.5,0123*61\r\n
$GPGGA,140906.25,5703.4264857,N,00952.3401716,E,2,11,0.9,-1.509,M,40.593,M,2.7,0123*6C\r\n
$GPGGA,140906.30,5703.4264639,N,00952.3400772,E,2,11,0.9,-1.508,M,40.593,M,2.7,0123*6C\r\n
$GPGGA,140906.35,5703.4264417,N,00952.3399820,E,2,11,0.9,-1.507,M,40.593,M,2.7,0123*67\r\n
$GPGGA,140906.40,5703.4264187,N,00952.3398899,E,2,11,0.9,-1.506,M,40.593,M,2.7,0123*6B\r\n
$GPGGA,140906.45,5703.4263940,N,00952.3397954,E,2,11,0.9,-1.504,M,40.593,M,2.9,0123*69\r\n
$GPGGA,140906.50,5703.4263694,N,00952.3397003,E,2,11,0.9,-1.504,M,40.593,M,2.9,0123*60\r\n
$GPGGA,140906.55,5703.4263458,N,00952.3396048,E,2,11,0.9,-1.499,M,40.593,M,2.9,0123*6C\r\n
$GPGGA,140906.60,5703.4263219,N,00952.3395094,E,2,11,0.9,-1.496,M,40.593,M,2.9,0123*64\r\n
$GPGGA,140906.65,5703.4262972,N,00952.3394142,E,2,11,0.9,-1.494,M,40.593,M,3.1,0123*66\r\n
$GPGGA,140906.70,5703.4262720,N,00952.3393190,E,2,11,0.9,-1.493,M,40.593,M,3.1,0123*64\r\n
$GPGGA,140906.75,5703.4262468,N,00952.3392242,E,2,11,0.9,-1.491,M,40.593,M,3.1,0123*61\r\n
$GPGGA,140906.80,5703.4262209,N,00952.3391289,E,2,11,0.9,-1.486,M,40.593,M,3.1,0123*68\r\n
$GPGGA,140906.85,5703.4261955,N,00952.3390341,E,2,11,0.9,-1.483,M,40.593,M,3.3,0123*6F\r\n
$GPGGA,140906.90,5703.4261696,N,00952.3389380,E,2,11,0.9,-1.480,M,40.593,M,3.3,0123*6D\r\n
$GPGGA,140906.95,5703.4261426,N,00952.3388417,E,2,11,0.9,-1.476,M,40.593,M,3.3,0123*60\r\n
$GPGGA,140907.00,5703.4261155,N,00952.3387450,E,2,11,0.9,-1.474,M,40.593,M,3.3,0123*62\r\n
$GPGGA,140907.05,5703.4260899,N,00952.3386494,E,2,11,0.9,-1.474,M,40.593,M,3.5,0123*60\r\n
$GPGGA,140907.10,5703.4260647,N,00952.3385524,E,2,11,0.9,-1.471,M,40.593,M,3.5,0123*65\r\n
$GPGGA,140907.15,5703.4260373,N,00952.3384562,E,2,11,0.9,-1.466,M,40.593,M,3.5,0123*67\r\n
$GPGGA,140907.20,5703.4260095,N,00952.3383601,E,2,11,0.9,-1.463,M,40.593,M,3.5,0123*6E\r\n
$GPGGA,140907.25,5703.4259803,N,00952.3382647,E,2,11,0.9,-1.464,M,40.593,M,3.8,0123*6F\r\n
$GPGGA,140907.30,5703.4259511,N,00952.3381699,E,2,11,0.9,-1.465,M,40.593,M,3.8,0123*64\r\n
$GPGGA,140907.35,5703.4259231,N,00952.3380735,E,2,11,0.9,-1.465,M,40.593,M,3.8,0123*62\r\n
$GPGGA,140907.40,5703.4258944,N,00952.3379772,E,2,11,0.9,-1.465,M,40.593,M,3.8,0123*6D\r\n
$GPGGA,140907.45,5703.4258660,N,00952.3378805,E,2,11,0.9,-1.462,M,40.593,M,2.3,0123*62\r\n
$GPGGA,140907.50,5703.4258382,N,00952.3377855,E,2,11,0.9,-1.460,M,40.593,M,2.3,0123*67\r\n
$GPGGA,140907.55,5703.4258094,N,00952.3376885,E,2,11,0.9,-1.458,M,40.593,M,2.3,0123*61\r\n
$GPGGA,140907.60,5703.4257803,N,00952.3375919,E,2,11,0.9,-1.456,M,40.593,M,2.3,0123*67\r\n
$GPGGA,140907.65,5703.4257516,N,00952.3374975,E,2,11,0.9,-1.456,M,40.593,M,2.6,0123*65\r\n
$GPGGA,140907.70,5703.4257225,N,00952.3374039,E,2,11,0.9,-1.453,M,40.593,M,2.6,0123*62\r\n
$GPGGA,140907.75,5703.4256934,N,00952.3373097,E,2,11,0.9,-1.454,M,40.593,M,2.6,0123*69\r\n
$GPGGA,140907.80,5703.4256638,N,00952.3372121,E,2,11,0.9,-1.452,M,40.593,M,2.6,0123*6B\r\n
$GPGGA,140907.85,5703.4256338,N,00952.3371180,E,2,11,0.9,-1.455,M,40.593,M,2.8,0123*6A\r\n
$GPGGA,140907.90,5703.4256042,N,00952.3370242,E,2,11,0.9,-1.453,M,40.593,M,2.8,0123*6A\r\n
$GPGGA,140907.95,5703.4255741,N,00952.3369297,E,2,11,0.9,-1.453,M,40.593,M,2.8,0123*68\r\n
$GPGGA,140908.00,5703.4255439,N,00952.3368349,E,2,11,0.9,-1.455,M,40.593,M,2.8,0123*62\r\n
$GPGGA,140908.05,5703.4255147,N,00952.3367407,E,2,11,0.9,-1.457,M,40.593,M,3.0,0123*62\r\n
$GPGGA,140908.10,5703.4254854,N,00952.3366464,E,2,11,0.9,-1.457,M,40.593,M,3.0,0123*68\r\n
$GPGGA,140908.15,5703.4254558,N,00952.3365536,E,2,11,0.9,-1.457,M,40.593,M,3.0,0123*69\r\n
$GPGGA,140908.20,5703.4254252,N,00952.3364614,E,2,11,0.9,-1.458,M,40.593,M,3.0,0123*6F\r\n
$GPGGA,140908.25,5703.4253947,N,00952.3363694,E,2,11,0.9,-1.455,M,40.593,M,3.3,0123*63\r\n
$GPGGA,140908.30,5703.4253642,N,00952.3362774,E,2,11,0.9,-1.454,M,40.593,M,3.3,0123*62\r\n
$GPGGA,140908.35,5703.4253338,N,00952.3361841,E,2,11,0.9,-1.453,M,40.593,M,3.3,0123*62\r\n
$GPGGA,140908.40,5703.4253035,N,00952.3360911,E,2,11,0.9,-1.449,M,40.593,M,3.3,0123*60\r\n
$GPGGA,140908.45,5703.4252728,N,00952.3359998,E,2,11,0.9,-1.452,M,40.593,M,3.0,0123*6D\r\n
$GPGGA,140908.50,5703.4252430,N,00952.3359067,E,2,11,0.9,-1.452,M,40.593,M,3.0,0123*6A\r\n
$GPGGA,140908.55,5703.4252131,N,00952.3358149,E,2,11,0.9,-1.451,M,40.593,M,3.0,0123*64\r\n
$GPGGA,140908.60,5703.4251833,N,00952.3357236,E,2,11,0.9,-1.450,M,40.593,M,3.0,0123*6F\r\n
$GPGGA,140908.65,5703.4251531,N,00952.3356315,E,2,11,0.9,-1.452,M,40.593,M,3.3,0123*65\r\n
$GPGGA,140908.70,5703.4251232,N,00952.3355393,E,2,11,0.9,-1.449,M,40.593,M,3.3,0123*62\r\n
$GPGGA,140908.75,5703.4250924,N,00952.3354473,E,2,11,0.9,-1.450,M,40.593,M,3.3,0123*6A\r\n
$GPGGA,140908.80,5703.4250628,N,00952.3353550,E,2,11,0.9,-1.450,M,40.593,M,3.3,0123*64\r\n
$GPGGA,140908.85,5703.4250325,N,00952.3352620,E,2,11,0.9,-1.448,M,40.593,M,3.5,0123*63\r\n
$GPGGA,140908.90,5703.4250025,N,00952.3351698,E,2,11,0.9,-1.447,M,40.593,M,3.5,0123*6B\r\n
$GPGGA,140908.95,5703.4249720,N,00952.3350782,E,2,11,0.9,-1.448,M,40.593,M,3.5,0123*60\r\n
$GPGGA,140909.00,5703.4249414,N,00952.3349862,E,2,11,0.9,-1.448,M,40.593,M,3.5,0123*60\r\n
$GPGGA,140909.05,5703.4249109,N,00952.3348952,E,2,11,0.9,-1.451,M,40.593,M,3.7,0123*65\r\n
$GPGGA,140909.10,5703.4248806,N,00952.3348046,E,2,11,0.9,-1.453,M,40.593,M,3.7,0123*68\r\n
$GPGGA,140909.15,5703.4248499,N,00952.3347123,E,2,11,0.9,-1.452,M,40.593,M,3.7,0123*6B\r\n
$GPGGA,140909.20,5703.4248198,N,00952.3346194,E,2,11,0.9,-1.453,M,40.593,M,3.7,0123*65\r\n
$GPGGA,140909.25,5703.4247890,N,00952.3345271,E,2,11,0.9,-1.449,M,40.593,M,3.9,0123*60\r\n
$GPGGA,140909.30,5703.4247585,N,00952.3344358,E,2,11,0.9,-1.449,M,40.593,M,3.9,0123*66\r\n
$GPGGA,140909.35,5703.4247282,N,00952.3343439,E,2,11,0.9,-1.448,M,40.593,M,3.9,0123*65\r\n
$GPGGA,140909.40,5703.4246976,N,00952.3342530,E,2,11,0.9,-1.449,M,40.593,M,3.9,0123*6E\r\n
$GPGGA,140909.45,5703.4246665,N,00952.3341605,E,2,11,0.9,-1.450,M,40.593,M,1.8,0123*6B\r\n
$GPGGA,140909.50,5703.4246364,N,00952.3340679,E,2,11,0.9,-1.450,M,40.593,M,1.8,0123*61\r\n
$GPGGA,140909.55,5703.4246060,N,00952.3339754,E,2,11,0.9,-1.450,M,40.593,M,1.8,0123*63\r\n
$GPGGA,140909.60,5703.4245760,N,00952.3338845,E,2,11,0.9,-1.449,M,40.593,M,1.8,0123*67\r\n
$GPGGA,140909.65,5703.4245452,N,00952.3337938,E,2,11,0.9,-1.446,M,40.593,M,2.0,0123*60\r\n
$GPGGA,140909.70,5703.4245139,N,00952.3337028,E,2,11,0.9,-1.448,M,40.593,M,2.0,0123*6A\r\n
$GPGGA,140909.75,5703.4244834,N,00952.3336106,E,2,11,0.9,-1.447,M,40.593,M,2.0,0123*69\r\n
$GPGGA,140909.80,5703.4244533,N,00952.3335187,E,2,11,0.9,-1.446,M,40.593,M,2.0,0123*62\r\n
$GPGGA,140909.85,5703.4244229,N,00952.3334258,E,2,11,0.9,-1.443,M,40.593,M,2.3,0123*6D\r\n
$GPGGA,140909.90,5703.4243918,N,00952.3333350,E,2,11,0.9,-1.443,M,40.593,M,2.3,0123*69\r\n
$GPGGA,140909.95,5703.4243603,N,00952.3332439,E,2,11,0.9,-1.444,M,40.593,M,2.3,0123*67\r\n
$GPGGA,140910.00,5703.4243287,N,00952.3331538,E,2,11,0.9,-1.443,M,40.593,M,2.3,0123*6F\r\n
$GPGGA,140910.05,5703.4242980,N,00952.3330627,E,2,11,0.9,-1.444,M,40.593,M,2.5,0123*6A\r\n
$GPGGA,140910.10,5703.4242669,N,00952.3329711,E,2,11,0.9,-1.444,M,40.593,M,2.5,0123*6A\r\n
$GPGGA,140910.15,5703.4242369,N,00952.3328789,E,2,11,0.9,-1.444,M,40.593,M,2.5,0123*6A\r\n
$GPGGA,140910.20,5703.4242049,N,00952.3327875,E,2,11,0.9,-1.447,M,40.593,M,2.5,0123*6D\r\n
$GPGGA,140910.25,5703.4241729,N,00952.3326961,E,2,11,0.9,-1.446,M,40.593,M,2.7,0123*6C\r\n
$GPGGA,140910.30,5703.4241400,N,00952.3326053,E,2,11,0.9,-1.449,M,40.593,M,2.7,0123*67\r\n
$GPGGA,140910.35,5703.4241091,N,00952.3325131,E,2,11,0.9,-1.450,M,40.593,M,2.7,0123*60\r\n
$GPGGA,140910.40,5703.4240781,N,00952.3324209,E,2,11,0.9,-1.451,M,40.593,M,2.7,0123*6D\r\n
$GPGGA,140910.45,5703.4240462,N,00952.3323290,E,2,11,0.9,-1.450,M,40.593,M,2.9,0123*6E\r\n
$GPGGA,140910.50,5703.4240151,N,00952.3322385,E,2,11,0.9,-1.451,M,40.593,M,2.9,0123*6A\r\n
$GPGGA,140910.55,5703.4239831,N,00952.3321454,E,2,11,0.9,-1.454,M,40.593,M,2.9,0123*63\r\n
$GPGGA,140910.60,5703.4239511,N,00952.3320550,E,2,11,0.9,-1.456,M,40.593,M,2.9,0123*6C\r\n
$GPGGA,140910.65,5703.4239193,N,00952.3319645,E,2,11,0.9,-1.451,M,40.593,M,3.1,0123*64\r\n
$GPGGA,140910.70,5703.4238880,N,00952.3318746,E,2,11,0.9,-1.451,M,40.593,M,3.1,0123*69\r\n
$GPGGA,140910.75,5703.4238558,N,00952.3317832,E,2,11,0.9,-1.448,M,40.593,M,3.1,0123*6F\r\n
$GPGGA,140910.80,5703.4238237,N,00952.3316912,E,2,11,0.9,-1.448,M,40.593,M,3.1,0123*69\r\n
$GPGGA,140910.85,5703.4237919,N,00952.3316009,E,2,11,0.9,-1.446,M,40.593,M,3.3,0123*6B\r\n
$GPGGA,140910.90,5703.4237588,N,00952.3315110,E,2,11,0.9,-1.448,M,40.593,M,3.3,0123*6F\r\n
$GPGGA,140910.95,5703.4237265,N,00952.3314204,E,2,11,0.9,-1.449,M,40.593,M,3.3,0123*68\r\n
$GPGGA,140911.00,5703.4236947,N,00952.3313302,E,2,11,0.9,-1.447,M,40.593,M,3.3,0123*61\r\n
$GPGGA,140911.05,5703.4236630,N,00952.3312394,E,2,11,0.9,-1.445,M,40.593,M,3.5,0123*61\r\n
$GPGGA,140911.10,5703.4236305,N,00952.3311490,E,2,11,0.9,-1.443,M,40.593,M,3.5,0123*60\r\n
$GPGGA,140911.15,5703.4235979,N,00952.3310573,E,2,11,0.9,-1.442,M,40.593,M,3.5,0123*6B\r\n
$GPGGA,140911.20,5703.4235654,N,00952.3309672,E,2,11,0.9,-1.441,M,40.593,M,3.5,0123*64\r\n
$GPGGA,140911.25,5703.4235333,N,00952.3308765,E,2,11,0.9,-1.441,M,40.593,M,2.1,0123*66\r\n
$GPGGA,140911.30,5703.4235002,N,00952.3307862,E,2,11,0.9,-1.442,M,40.593,M,2.1,0123*67\r\n
$GPGGA,140911.35,5703.4234676,N,00952.3306963,E,2,11,0.9,-1.443,M,40.593,M,2.1,0123*66\r\n
$GPGGA,140911.40,5703.4234349,N,00952.3306054,E,2,11,0.9,-1.444,M,40.593,M,2.1,0123*67\r\n
$GPGGA,140911.45,5703.4234021,N,00952.3305145,E,2,11,0.9,-1.443,M,40.593,M,2.3,0123*68\r\n
$GPGGA,140911.50,5703.4233687,N,00952.3304252,E,2,11,0.9,-1.447,M,40.593,M,2.3,0123*61\r\n
$GPGGA,140911.55,5703.4233354,N,00952.3303357,E,2,11,0.9,-1.446,M,40.593,M,2.3,0123*6D\r\n
$GPGGA,140911.60,5703.4233018,N,00952.3302454,E,2,11,0.9,-1.447,M,40.593,M,2.3,0123*64\r\n
$GPGGA,140911.65,5703.4232679,N,00952.3301543,E,2,11,0.9,-1.447,M,40.593,M,2.6,0123*60\r\n
$GPGGA,140911.70,5703.4232340,N,00952.3300646,E,2,11,0.9,-1.448,M,40.593,M,2.6,0123*63\r\n
$GPGGA,140911.75,5703.4232008,N,00952.3299751,E,2,11,0.9,-1.448,M,40.593,M,2.6,0123*6F\r\n
$GPGGA,140911.80,5703.4231670,N,00952.3298863,E,2,11,0.9,-1.449,M,40.593,M,2.6,0123*61\r\n
$GPGGA,140911.85,5703.4231332,N,00952.3297985,E,2,11,0.9,-1.451,M,40.593,M,2.8,0123*66\r\n
$GPGGA,140911.90,5703.4230986,N,00952.3297082,E,2,11,0.9,-1.451,M,40.593,M,2.8,0123*68\r\n
$GPGGA,140911.95,5703.4230637,N,00952.3296214,E,2,11,0.9,-1.453,M,40.593,M,2.8,0123*66\r\n
$GPGGA,140912.00,5703.4230288,N,00952.3295347,E,2,11,0.9,-1.452,M,40.593,M,2.8,0123*6C\r\n
$GPGGA,140912.05,5703.4229947,N,00952.3294447,E,2,11,0.9,-1.448,M,40.593,M,3.0,0123*6D\r\n
$GPGGA,140912.10,5703.4229592,N,00952.3293563,E,2,11,0.9,-1.449,M,40.593,M,3.0,0123*6C\r\n
$GPGGA,140912.15,5703.4229240,N,00952.3292672,E,2,11,0.9,-1.448,M,40.593,M,3.0,0123*62\r\n
$GPGGA,140912.20,5703.4228888,N,00952.3291785,E,2,11,0.9,-1.450,M,40.593,M,3.0,0123*68\r\n
$GPGGA,140912.25,5703.4228533,N,00952.3290914,E,2,11,0.9,-1.458,M,40.593,M,2.8,0123*66\r\n
$GPGGA,140912.30,5703.4228178,N,00952.3290036,E,2,11,0.9,-1.458,M,40.593,M,2.8,0123*60\r\n
$GPGGA,140912.35,5703.4227814,N,00952.3289150,E,2,11,0.9,-1.457,M,40.593,M,2.8,0123*6F\r\n
$GPGGA,140912.40,5703.4227453,N,00952.3288269,E,2,11,0.9,-1.460,M,40.593,M,2.8,0123*6E\r\n
$GPGGA,140912.45,5703.4227101,N,00952.3287398,E,2,11,0.9,-1.456,M,40.593,M,3.0,0123*65\r\n
$GPGGA,140912.50,5703.4226748,N,00952.3286518,E,2,11,0.9,-1.455,M,40.593,M,3.0,0123*67\r\n
$GPGGA,140912.55,5703.4226382,N,00952.3285637,E,2,11,0.9,-1.454,M,40.593,M,3.0,0123*6C\r\n
$GPGGA,140912.60,5703.4226013,N,00952.3284761,E,2,11,0.9,-1.455,M,40.593,M,3.0,0123*63\r\n
$GPGGA,140912.65,5703.4225652,N,00952.3283885,E,2,11,0.9,-1.458,M,40.593,M,3.3,0123*6A\r\n
$GPGGA,140912.70,5703.4225299,N,00952.3283012,E,2,11,0.9,-1.455,M,40.593,M,3.3,0123*66\r\n
$GPGGA,140912.75,5703.4224934,N,00952.3282127,E,2,11,0.9,-1.453,M,40.593,M,3.3,0123*6E\r\n
$GPGGA,140912.80,5703.4224547,N,00952.3281250,E,2,11,0.9,-1.453,M,40.593,M,3.3,0123*6C\r\n
$GPGGA,140912.85,5703.4224170,N,00952.3280373,E,2,11,0.9,-1.452,M,40.593,M,3.5,0123*6F\r\n
$GPGGA,140912.90,5703.4223809,N,00952.3279501,E,2,11,0.9,-1.451,M,40.593,M,3.5,0123*6D\r\n
$GPGGA,140912.95,5703.4223427,N,00952.3278634,E,2,11,0.9,-1.453,M,40.593,M,3.5,0123*6E\r\n
$GPGGA,140913.00,5703.4223047,N,00952.3277769,E,2,11,0.9,-1.453,M,40.593,M,3.5,0123*67\r\n
$GPGGA,140913.05,5703.4222671,N,00952.3276888,E,2,11,0.9,-1.452,M,40.593,M,3.7,0123*62\r\n
$GPGGA,140913.10,5703.4222291,N,00952.3276030,E,2,11,0.9,-1.451,M,40.593,M,3.7,0123*64\r\n
$GPGGA,140913.15,5703.4221912,N,00952.3275171,E,2,11,0.9,-1.448,M,40.593,M,3.7,0123*6D\r\n
$GPGGA,140913.20,5703.4221528,N,00952.3274308,E,2,11,0.9,-1.445,M,40.593,M,3.7,0123*6E\r\n
$GPGGA,140913.25,5703.4221147,N,00952.3273422,E,2,11,0.9,-1.443,M,40.593,M,1.6,0123*6B\r\n
$GPGGA,140913.30,5703.4220766,N,00952.3272557,E,2,11,0.9,-1.440,M,40.593,M,1.6,0123*6A\r\n
$GPGGA,140913.35,5703.4220374,N,00952.3271705,E,2,11,0.9,-1.438,M,40.593,M,1.6,0123*61\r\n
$GPGGA,140913.40,5703.4219992,N,00952.3270849,E,2,11,0.9,-1.439,M,40.593,M,1.6,0123*6C\r\n
$GPGGA,140913.45,5703.4219609,N,00952.3269983,E,2,11,0.9,-1.441,M,40.593,M,1.8,0123*6A\r\n
$GPGGA,140913.50,5703.4219230,N,00952.3269108,E,2,11,0.9,-1.437,M,40.593,M,1.8,0123*6A\r\n
$GPGGA,140913.55,5703.4218853,N,00952.3268234,E,2,11,0.9,-1.435,M,40.593,M,1.8,0123*6E\r\n
$GPGGA,140913.60,5703.4218464,N,00952.3267365,E,2,11,0.9,-1.435,M,40.593,M,1.8,0123*6A\r\n
$GPGGA,140913.65,5703.4218077,N,00952.3266490,E,2,11,0.9,-1.434,M,40.593,M,2.0,0123*6F\r\n
$GPGGA,140913.70,5703.4217687,N,00952.3265619,E,2,11,0.9,-1.433,M,40.593,M,2.0,0123*6A\r\n
$GPGGA,140913.75,5703.4217302,N,00952.3264749,E,2,11,0.9,-1.431,M,40.593,M,2.0,0123*60\r\n
$GPGGA,140913.80,5703.4216913,N,00952.3263887,E,2,11,0.9,-1.428,M,40.593,M,2.0,0123*63\r\n
$GPGGA,140913.85,5703.4216524,N,00952.3263003,E,2,11,0.9,-1.427,M,40.593,M,2.3,0123*66\r\n
$GPGGA,140913.90,5703.4216134,N,00952.3262108,E,2,11,0.9,-1.426,M,40.593,M,2.3,0123*6D\r\n
$GPGGA,140913.95,5703.4215748,N,00952.3261230,E,2,11,0.9,-1.427,M,40.593,M,2.3,0123*6C\r\n
$GPGGA,140914.00,5703.4215371,N,00952.3260356,E,2,11,0.9,-1.425,M,40.593,M,2.3,0123*6B\r\n
$GPGGA,140914.05,5703.4214992,N,00952.3259479,E,2,11,0.9,-1.428,M,40.593,M,2.5,0123*63\r\n
$GPGGA,140914.10,5703.4214597,N,00952.3258603,E,2,11,0.9,-1.428,M,40.593,M,2.5,0123*60\r\n
$GPGGA,140914.15,5703.4214209,N,00952.3257720,E,2,11,0.9,-1.429,M,40.593,M,2.5,0123*6B\r\n
$GPGGA,140914.20,5703.4213816,N,00952.3256859,E,2,11,0.9,-1.429,M,40.593,M,2.5,0123*6E\r\n
$GPGGA,140914.25,5703.4213425,N,00952.3255984,E,2,11,0.9,-1.426,M,40.593,M,2.7,0123*68\r\n
$GPGGA,140914.30,5703.4213031,N,00952.3255109,E,2,11,0.9,-1.425,M,40.593,M,2.7,0123*63\r\n
$GPGGA,140914.35,5703.4212634,N,00952.3254246,E,2,11,0.9,-1.425,M,40.593,M,2.7,0123*6D\r\n
$GPGGA,140914.40,5703.4212230,N,00952.3253385,E,2,11,0.9,-1.426,M,40.593,M,2.7,0123*65\r\n
$GPGGA,140914.45,5703.4211817,N,00952.3252510,E,2,11,0.9,-1.430,M,40.593,M,2.9,0123*6E\r\n
$GPGGA,140914.50,5703.4211423,N,00952.3251637,E,2,11,0.9,-1.428,M,40.593,M,2.9,0123*6D\r\n
$GPGGA,140914.55,5703.4211027,N,00952.3250771,E,2,11,0.9,-1.427,M,40.593,M,2.9,0123*65\r\n
$GPGGA,140914.60,5703.4210632,N,00952.3249910,E,2,11,0.9,-1.426,M,40.593,M,2.9,0123*60\r\n
$GPGGA,140914.65,5703.4210233,N,00952.3249040,E,2,11,0.9,-1.428,M,40.593,M,3.1,0123*6B\r\n
$GPGGA,140914.70,5703.4209838,N,00952.3248147,E,2,11,0.9,-1.428,M,40.593,M,3.1,0123*61\r\n
$GPGGA,140914.75,5703.4209438,N,00952.3247278,E,2,11,0.9,-1.428,M,40.593,M,3.1,0123*68\r\n
$GPGGA,140914.80,5703.4209035,N,00952.3246413,E,2,11,0.9,-1.428,M,40.593,M,3.1,0123*61\r\n
$GPGGA,140914.85,5703.4208643,N,00952.3245525,E,2,11,0.9,-1.428,M,40.593,M,3.3,0123*67\r\n
$GPGGA,140914.90,5703.4208249,N,00952.3244624,E,2,11,0.9,-1.428,M,40.593,M,3.3,0123*6E\r\n
$GPGGA,140914.95,5703.4207865,N,00952.3243745,E,2,11,0.9,-1.427,M,40.593,M,3.3,0123*6E\r\n
$GPGGA,140915.00,5703.4207474,N,00952.3242862,E,2,11,0.9,-1.427,M,40.593,M,3.3,0123*64\r\n
$GPGGA,140915.05,5703.4207092,N,00952.3241970,E,2,11,0.9,-1.426,M,40.593,M,3.5,0123*6B\r\n
$GPGGA,140915.10,5703.4206705,N,00952.3241085,E,2,11,0.9,-1.425,M,40.593,M,3.5,0123*67\r\n
$GPGGA,140915.15,5703.4206314,N,00952.3240206,E,2,11,0.9,-1.423,M,40.593,M,3.5,0123*68\r\n
$GPGGA,140915.20,5703.4205925,N,00952.3239319,E,2,11,0.9,-1.421,M,40.593,M,3.5,0123*66\r\n
$GPGGA,140915.25,5703.4205539,N,00952.3238426,E,2,11,0.9,-1.418,M,40.593,M,2.1,0123*67\r\n
$GPGGA,140915.30,5703.4205155,N,00952.3237534,E,2,11,0.9,-1.418,M,40.593,M,2.1,0123*60\r\n
$GPGGA,140915.35,5703.4204760,N,00952.3236651,E,2,11,0.9,-1.417,M,40.593,M,2.1,0123*6A\r\n
$GPGGA,140915.40,5703.4204361,N,00952.3235760,E,2,11,0.9,-1.416,M,40.593,M,2.1,0123*6C\r\n
$GPGGA,140915.45,5703.4203959,N,00952.3234876,E,2,11,0.9,-1.422,M,40.593,M,2.3,0123*63\r\n
$GPGGA,140915.50,5703.4203575,N,00952.3233990,E,2,11,0.9,-1.423,M,40.593,M,2.3,0123*6A\r\n
$GPGGA,140915.55,5703.4203190,N,00952.3233101,E,2,11,0.9,-1.425,M,40.593,M,2.3,0123*66\r\n
$GPGGA,140915.60,5703.4202795,N,00952.3232215,E,2,11,0.9,-1.424,M,40.593,M,2.3,0123*64\r\n
$GPGGA,140915.65,5703.4202408,N,00952.3231305,E,2,11,0.9,-1.421,M,40.593,M,2.6,0123*65\r\n
$GPGGA,140915.70,5703.4202016,N,00952.3230412,E,2,11,0.9,-1.423,M,40.593,M,2.6,0123*68\r\n
$GPGGA,140915.75,5703.4201631,N,00952.3229515,E,2,11,0.9,-1.425,M,40.593,M,2.6,0123*65\r\n
$GPGGA,140915.80,5703.4201247,N,00952.3228611,E,2,11,0.9,-1.426,M,40.593,M,2.6,0123*6F\r\n
$GPGGA,140915.85,5703.4200865,N,00952.3227738,E,2,11,0.9,-1.426,M,40.593,M,2.8,0123*6A\r\n
$GPGGA,140915.90,5703.4200487,N,00952.3226862,E,2,11,0.9,-1.424,M,40.593,M,2.8,0123*6D\r\n
$GPGGA,140915.95,5703.4200097,N,00952.3225963,E,2,11,0.9,-1.423,M,40.593,M,2.8,0123*69\r\n
$GPGGA,140916.00,5703.4199711,N,00952.3225070,E,2,11,0.9,-1.425,M,40.593,M,2.8,0123*61\r\n
$GPGGA,140916.05,5703.4199345,N,00952.3224178,E,2,11,0.9,-1.425,M,40.593,M,3.0,0123*60\r\n
$GPGGA,140916.10,5703.4198964,N,00952.3223291,E,2,11,0.9,-1.424,M,40.593,M,3.0,0123*6E\r\n
$GPGGA,140916.15,5703.4198587,N,00952.3222410,E,2,11,0.9,-1.422,M,40.593,M,3.0,0123*62\r\n
$GPGGA,140916.20,5703.4198199,N,00952.3221515,E,2,11,0.9,-1.420,M,40.593,M,3.0,0123*6A\r\n
$GPGGA,140916.25,5703.4197819,N,00952.3220620,E,2,11,0.9,-1.415,M,40.593,M,2.8,0123*6A\r\n
$GPGGA,140916.30,5703.4197442,N,00952.3219734,E,2,11,0.9,-1.413,M,40.593,M,2.8,0123*64\r\n
$GPGGA,140916.35,5703.4197062,N,00952.3218852,E,2,11,0.9,-1.413,M,40.593,M,2.8,0123*69\r\n
$GPGGA,140916.40,5703.4196670,N,00952.3217968,E,2,11,0.9,-1.412,M,40.593,M,2.8,0123*69\r\n
$GPGGA,140916.45,5703.4196266,N,00952.3217097,E,2,11,0.9,-1.415,M,40.593,M,3.0,0123*68\r\n
$GPGGA,140916.50,5703.4195887,N,00952.3216213,E,2,11,0.9,-1.414,M,40.593,M,3.0,0123*64\r\n
$GPGGA,140916.55,5703.4195513,N,00952.3215335,E,2,11,0.9,-1.413,M,40.593,M,3.0,0123*60\r\n
$GPGGA,140916.60,5703.4195133,N,00952.3214463,E,2,11,0.9,-1.413,M,40.593,M,3.0,0123*65\r\n
$GPGGA,140916.65,5703.4194745,N,00952.3213573,E,2,11,0.9,-1.410,M,40.593,M,3.3,0123*61\r\n
$GPGGA,140916.70,5703.4194344,N,00952.3212710,E,2,11,0.9,-1.412,M,40.593,M,3.3,0123*64\r\n
$GPGGA,140916.75,5703.4193954,N,00952.3211855,E,2,11,0.9,-1.413,M,40.593,M,3.3,0123*61\r\n
$GPGGA,140916.80,5703.4193554,N,00952.3210988,E,2,11,0.9,-1.415,M,40.593,M,3.3,0123*61\r\n
$GPGGA,140916.85,5703.4193166,N,00952.3210106,E,2,11,0.9,-1.414,M,40.593,M,3.5,0123*68\r\n
$GPGGA,140916.90,5703.4192785,N,00952.3209226,E,2,11,0.9,-1.414,M,40.593,M,3.5,0123*6F\r\n
$GPGGA,140916.95,5703.4192392,N,00952.3208351,E,2,11,0.9,-1.415,M,40.593,M,3.5,0123*69\r\n
$GPGGA,140917.00,5703.4191987,N,00952.3207492,E,2,11,0.9,-1.417,M,40.593,M,3.5,0123*6C\r\n
$GPGGA,140917.05,5703.4191604,N,00952.3206631,E,2,11,0.9,-1.416,M,40.593,M,3.7,0123*64\r\n
$GPGGA,140917.10,5703.4191220,N,00952.3205763,E,2,11,0.9,-1.415,M,40.593,M,3.7,0123*64\r\n
$GPGGA,140917.15,5703.4190831,N,00952.3204913,E,2,11,0.9,-1.415,M,40.593,M,3.7,0123*62\r\n
$GPGGA,140917.20,5703.4190445,N,00952.3204048,E,2,11,0.9,-1.414,M,40.593,M,3.7,0123*6D\r\n
$GPGGA,140917.25,5703.4190046,N,00952.3203169,E,2,11,0.9,-1.413,M,40.593,M,3.9,0123*63\r\n
$GPGGA,140917.30,5703.4189650,N,00952.3202308,E,2,11,0.9,-1.414,M,40.593,M,3.9,0123*6D\r\n
$GPGGA,140917.35,5703.4189248,N,00952.3201440,E,2,11,0.9,-1.414,M,40.593,M,3.9,0123*6D\r\n
$GPGGA,140917.40,5703.4188849,N,00952.3200578,E,2,11,0.9,-1.415,M,40.593,M,3.9,0123*6F\r\n
$GPGGA,140917.45,5703.4188455,N,00952.3199719,E,2,11,0.9,-1.414,M,40.593,M,4.2,0123*60\r\n
$GPGGA,140917.50,5703.4188052,N,00952.3198863,E,2,11,0.9,-1.412,M,40.593,M,4.2,0123*62\r\n
$GPGGA,140917.55,5703.4187648,N,00952.3198015,E,2,11,0.9,-1.412,M,40.593,M,4.2,0123*6C\r\n
$GPGGA,140917.60,5703.4187246,N,00952.3197164,E,2,11,0.9,-1.412,M,40.593,M,4.2,0123*68\r\n
$GPGGA,140917.65,5703.4186831,N,00952.3196311,E,2,11,0.9,-1.410,M,40.593,M,4.4,0123*63\r\n
$GPGGA,140917.70,5703.4186418,N,00952.3195459,E,2,11,0.9,-1.409,M,40.593,M,4.4,0123*60\r\n
$GPGGA,140917.75,5703.4186011,N,00952.3194600,E,2,11,0.9,-1.411,M,40.593,M,4.4,0123*6E\r\n
$GPGGA,140917.80,5703.4185600,N,00952.3193751,E,2,11,0.9,-1.411,M,40.593,M,4.4,0123*63\r\n
$GPGGA,140917.85,5703.4185186,N,00952.3192907,E,2,11,0.9,-1.415,M,40.593,M,4.6,0123*65\r\n
$GPGGA,140917.90,5703.4184779,N,00952.3192069,E,2,11,0.9,-1.412,M,40.593,M,4.6,0123*60\r\n
$GPGGA,140917.95,5703.4184381,N,00952.3191232,E,2,11,0.9,-1.411,M,40.593,M,4.6,0123*6A\r\n
$GPGGA,140918.00,5703.4183982,N,00952.3190380,E,2,11,0.9,-1.409,M,40.593,M,4.6,0123*67\r\n
$GPGGA,140918.05,5703.4183585,N,00952.3189525,E,2,11,0.9,-1.408,M,40.593,M,4.8,0123*67\r\n
$GPGGA,140918.10,5703.4183180,N,00952.3188687,E,2,11,0.9,-1.405,M,40.593,M,4.8,0123*65\r\n
$GPGGA,140918.15,5703.4182767,N,00952.3187847,E,2,11,0.9,-1.404,M,40.593,M,4.8,0123*62\r\n
$GPGGA,140918.20,5703.4182366,N,00952.3187006,E,2,11,0.9,-1.401,M,40.593,M,4.8,0123*69\r\n
$GPGGA,140918.25,5703.4181958,N,00952.3186167,E,2,11,0.9,-1.405,M,40.593,M,1.7,0123*61\r\n
$GPGGA,140918.30,5703.4181548,N,00952.3185332,E,2,11,0.9,-1.404,M,40.593,M,1.7,0123*68\r\n
$GPGGA,140918.35,5703.4181132,N,00952.3184494,E,2,11,0.9,-1.404,M,40.593,M,1.7,0123*6E\r\n
$GPGGA,140918.40,5703.4180722,N,00952.3183658,E,2,11,0.9,-1.402,M,40.593,M,1.7,0123*69\r\n
$GPGGA,140918.45,5703.4180305,N,00952.3182826,E,2,11,0.9,-1.405,M,40.593,M,1.9,0123*62\r\n
$GPGGA,140918.50,5703.4179881,N,00952.3181997,E,2,11,0.9,-1.404,M,40.593,M,1.9,0123*6E\r\n
$GPGGA,140918.55,5703.4179475,N,00952.3181158,E,2,11,0.9,-1.403,M,40.593,M,1.9,0123*60\r\n
$GPGGA,140918.60,5703.4179069,N,00952.3180312,E,2,11,0.9,-1.403,M,40.593,M,1.9,0123*62\r\n
$GPGGA,140918.65,5703.4178655,N,00952.3179480,E,2,11,0.9,-1.406,M,40.593,M,2.2,0123*68\r\n
$GPGGA,140918.70,5703.4178245,N,00952.3178651,E,2,11,0.9,-1.408,M,40.593,M,2.2,0123*68\r\n
$GPGGA,140918.75,5703.4177840,N,00952.3177828,E,2,11,0.9,-1.407,M,40.593,M,2.2,0123*6D\r\n
$GPGGA,140918.80,5703.4177430,N,00952.3177010,E,2,11,0.9,-1.407,M,40.593,M,2.2,0123*6F\r\n
$GPGGA,140918.85,5703.4177012,N,00952.3176177,E,2,11,0.9,-1.408,M,40.593,M,2.4,0123*66\r\n
$GPGGA,140918.90,5703.4176596,N,00952.3175337,E,2,11,0.9,-1.408,M,40.593,M,2.4,0123*6F\r\n
$GPGGA,140918.95,5703.4176187,N,00952.3174509,E,2,11,0.9,-1.407,M,40.593,M,2.4,0123*6B\r\n
$GPGGA,140919.00,5703.4175771,N,00952.3173695,E,2,11,0.9,-1.408,M,40.593,M,2.4,0123*64\r\n
$GPGGA,140919.05,5703.4175363,N,00952.3172877,E,2,11,0.9,-1.412,M,40.593,M,2.6,0123*6C\r\n
$GPGGA,140919.10,5703.4174953,N,00952.3172045,E,2,11,0.9,-1.413,M,40.593,M,2.6,0123*68\r\n
$GPGGA,140919.15,5703.4174544,N,00952.3171197,E,2,11,0.9,-1.412,M,40.593,M,2.6,0123*6B\r\n
$GPGGA,140919.20,5703.4174134,N,00952.3170361,E,2,11,0.9,-1.412,M,40.593,M,2.6,0123*64\r\n
$GPGGA,140919.25,5703.4173727,N,00952.3169536,E,2,11,0.9,-1.412,M,40.593,M,1.8,0123*63\r\n
$GPGGA,140919.30,5703.4173313,N,00952.3168704,E,2,11,0.9,-1.412,M,40.593,M,1.8,0123*66\r\n
$GPGGA,140919.35,5703.4172891,N,00952.3167867,E,2,11,0.9,-1.413,M,40.593,M,1.8,0123*67\r\n
$GPGGA,140919.40,5703.4172475,N,00952.3167030,E,2,11,0.9,-1.415,M,40.593,M,1.8,0123*6F\r\n
$GPGGA,140919.45,5703.4172055,N,00952.3166206,E,2,11,0.9,-1.417,M,40.593,M,2.0,0123*63\r\n
$GPGGA,140919.50,5703.4171645,N,00952.3165376,E,2,11,0.9,-1.415,M,40.593,M,2.0,0123*64\r\n
$GPGGA,140919.55,5703.4171222,N,00952.3164551,E,2,11,0.9,-1.415,M,40.593,M,2.0,0123*66\r\n
$GPGGA,140919.60,5703.4170810,N,00952.3163738,E,2,11,0.9,-1.413,M,40.593,M,2.0,0123*66\r\n
$GPGGA,140919.65,5703.4170388,N,00952.3162920,E,2,11,0.9,-1.413,M,40.593,M,2.2,0123*6D\r\n
$GPGGA,140919.70,5703.4169968,N,00952.3162098,E,2,11,0.9,-1.415,M,40.593,M,2.2,0123*69\r\n
$GPGGA,140919.75,5703.4169551,N,00952.3161261,E,2,11,0.9,-1.415,M,40.593,M,2.2,0123*6D\r\n
$GPGGA,140919.80,5703.4169128,N,00952.3160436,E,2,11,0.9,-1.417,M,40.593,M,2.2,0123*6A\r\n
$GPGGA,140919.85,5703.4168709,N,00952.3159602,E,2,11,0.9,-1.419,M,40.593,M,2.4,0123*6C\r\n
$GPGGA,140919.90,5703.4168285,N,00952.3158784,E,2,11,0.9,-1.417,M,40.593,M,2.4,0123*69\r\n
$GPGGA,140919.95,5703.4167872,N,00952.3157957,E,2,11,0.9,-1.417,M,40.593,M,2.4,0123*6E\r\n
$GPGGA,140920.00,5703.4167451,N,00952.3157141,E,2,11,0.9,-1.418,M,40.593,M,2.4,0123*65\r\n
$GPGGA,140920.05,5703.4167036,N,00952.3156313,E,2,11,0.9,-1.419,M,40.593,M,2.6,0123*62\r\n
$GPGGA,140920.10,5703.4166612,N,00952.3155478,E,2,11,0.9,-1.420,M,40.593,M,2.6,0123*64\r\n
$GPGGA,140920.15,5703.4166192,N,00952.3154638,E,2,11,0.9,-1.420,M,40.593,M,2.6,0123*69\r\n
$GPGGA,140920.20,5703.4165769,N,00952.3153805,E,2,11,0.9,-1.420,M,40.593,M,2.6,0123*69\r\n
$GPGGA,140920.25,5703.4165349,N,00952.3152978,E,2,11,0.9,-1.420,M,40.593,M,2.5,0123*63\r\n
$GPGGA,140920.30,5703.4164930,N,00952.3152148,E,2,11,0.9,-1.419,M,40.593,M,2.5,0123*63\r\n
$GPGGA,140920.35,5703.4164509,N,00952.3151318,E,2,11,0.9,-1.417,M,40.593,M,2.5,0123*6A\r\n
$GPGGA,140920.40,5703.4164082,N,00952.3150493,E,2,11,0.9,-1.417,M,40.593,M,2.5,0123*6B\r\n
$GPGGA,140920.45,5703.4163648,N,00952.3149668,E,2,11,0.9,-1.417,M,40.593,M,2.7,0123*65\r\n
$GPGGA,140920.50,5703.4163219,N,00952.3148845,E,2,11,0.9,-1.418,M,40.593,M,2.7,0123*6E\r\n
$GPGGA,140920.55,5703.4162787,N,00952.3148029,E,2,11,0.9,-1.417,M,40.593,M,2.7,0123*65\r\n
$GPGGA,140920.60,5703.4162368,N,00952.3147207,E,2,11,0.9,-1.414,M,40.593,M,2.7,0123*64\r\n
$GPGGA,140920.65,5703.4161935,N,00952.3146400,E,2,11,0.9,-1.415,M,40.593,M,2.9,0123*6F\r\n
$GPGGA,140920.70,5703.4161494,N,00952.3145601,E,2,11,0.9,-1.415,M,40.593,M,2.9,0123*6D\r\n
$GPGGA,140920.75,5703.4161060,N,00952.3144791,E,2,11,0.9,-1.416,M,40.593,M,2.9,0123*6D\r\n
$GPGGA,140920.80,5703.4160630,N,00952.3143981,E,2,11,0.9,-1.416,M,40.593,M,2.9,0123*6D\r\n
$GPGGA,140920.85,5703.4160195,N,00952.3143179,E,2,11,0.9,-1.413,M,40.593,M,3.1,0123*63\r\n
$GPGGA,140920.90,5703.4159761,N,00952.3142374,E,2,11,0.9,-1.412,M,40.593,M,3.1,0123*6F\r\n
$GPGGA,140920.95,5703.4159326,N,00952.3141571,E,2,11,0.9,-1.413,M,40.593,M,3.1,0123*6C\r\n
$GPGGA,140921.00,5703.4158894,N,00952.3140760,E,2,11,0.9,-1.414,M,40.593,M,3.1,0123*66\r\n
$GPGGA,140921.05,5703.4158464,N,00952.3139950,E,2,11,0.9,-1.414,M,40.593,M,3.3,0123*61\r\n
$GPGGA,140921.10,5703.4158029,N,00952.3139142,E,2,11,0.9,-1.413,M,40.593,M,3.3,0123*64\r\n
$GPGGA,140921.15,5703.4157589,N,00952.3138334,E,2,11,0.9,-1.413,M,40.593,M,3.3,0123*63\r\n
$GPGGA,140921.20,5703.4157155,N,00952.3137515,E,2,11,0.9,-1.412,M,40.593,M,3.3,0123*6B\r\n
$GPGGA,140921.25,5703.4156722,N,00952.3136707,E,2,11,0.9,-1.413,M,40.593,M,3.6,0123*6D\r\n
$GPGGA,140921.30,5703.4156275,N,00952.3135911,E,2,11,0.9,-1.414,M,40.593,M,3.6,0123*63\r\n
$GPGGA,140921.35,5703.4155828,N,00952.3135101,E,2,11,0.9,-1.415,M,40.593,M,3.6,0123*6F\r\n
$GPGGA,140921.40,5703.4155391,N,00952.3134298,E,2,11,0.9,-1.413,M,40.593,M,3.6,0123*60\r\n
$GPGGA,140921.45,5703.4154948,N,00952.3133505,E,2,11,0.9,-1.416,M,40.593,M,3.8,0123*65\r\n
$GPGGA,140921.50,5703.4154500,N,00952.3132694,E,2,11,0.9,-1.416,M,40.593,M,3.8,0123*6B\r\n
$GPGGA,140921.55,5703.4154058,N,00952.3131901,E,2,11,0.9,-1.415,M,40.593,M,3.8,0123*65\r\n
$GPGGA,140921.60,5703.4153616,N,00952.3131111,E,2,11,0.9,-1.415,M,40.593,M,3.8,0123*61\r\n
$GPGGA,140921.65,5703.4153171,N,00952.3130317,E,2,11,0.9,-1.414,M,40.593,M,4.0,0123*69\r\n
$GPGGA,140921.70,5703.4152726,N,00952.3129524,E,2,11,0.9,-1.413,M,40.593,M,4.0,0123*61\r\n
$GPGGA,140921.75,5703.4152287,N,00952.3128720,E,2,11,0.9,-1.411,M,40.593,M,4.0,0123*6F\r\n
$GPGGA,140921.80,5703.4151848,N,00952.3127922,E,2,11,0.9,-1.409,M,40.593,M,4.0,0123*65\r\n
$GPGGA,140921.85,5703.4151407,N,00952.3127144,E,2,11,0.9,-1.410,M,40.593,M,4.2,0123*65\r\n
$GPGGA,140921.90,5703.4150954,N,00952.3126358,E,2,11,0.9,-1.410,M,40.593,M,4.2,0123*65\r\n
$GPGGA,140921.95,5703.4150509,N,00952.3125577,E,2,11,0.9,-1.407,M,40.593,M,4.2,0123*6A\r\n
$GPGGA,140922.00,5703.4150049,N,00952.3124799,E,2,11,0.9,-1.407,M,40.593,M,4.2,0123*67\r\n
$GPGGA,140922.05,5703.4149595,N,00952.3124027,E,2,11,0.9,-1.407,M,40.593,M,4.4,0123*6A\r\n
$GPGGA,140922.10,5703.4149147,N,00952.3123238,E,2,11,0.9,-1.406,M,40.593,M,4.4,0123*6F\r\n
$GPGGA,140922.15,5703.4148685,N,00952.3122453,E,2,11,0.9,-1.404,M,40.593,M,4.4,0123*6A\r\n
$GPGGA,140922.20,5703.4148220,N,00952.3121696,E,2,11,0.9,-1.407,M,40.593,M,4.4,0123*6C\r\n
$GPGGA,140922.25,5703.4147762,N,00952.3120921,E,2,11,0.9,-1.410,M,40.593,M,1.7,0123*67\r\n
$GPGGA,140922.30,5703.4147304,N,00952.3120128,E,2,11,0.9,-1.411,M,40.593,M,1.7,0123*67\r\n
$GPGGA,140922.35,5703.4146835,N,00952.3119359,E,2,11,0.9,-1.413,M,40.593,M,1.7,0123*66\r\n
$GPGGA,140922.40,5703.4146376,N,00952.3118584,E,2,11,0.9,-1.412,M,40.593,M,1.7,0123*6E\r\n
$GPGGA,140922.45,5703.4145914,N,00952.3117804,E,2,11,0.9,-1.411,M,40.593,M,1.9,0123*61\r\n
$GPGGA,140922.50,5703.4145463,N,00952.3117028,E,2,11,0.9,-1.412,M,40.593,M,1.9,0123*6D\r\n
$GPGGA,140922.55,5703.4145013,N,00952.3116235,E,2,11,0.9,-1.414,M,40.593,M,1.9,0123*62\r\n
$GPGGA,140922.60,5703.4144545,N,00952.3115453,E,2,11,0.9,-1.413,M,40.593,M,1.9,0123*61\r\n
$GPGGA,140922.65,5703.4144077,N,00952.3114676,E,2,11,0.9,-1.412,M,40.593,M,2.2,0123*6D\r\n
$GPGGA,140922.70,5703.4143616,N,00952.3113913,E,2,11,0.9,-1.413,M,40.593,M,2.2,0123*65\r\n
$GPGGA,140922.75,5703.4143153,N,00952.3113133,E,2,11,0.9,-1.413,M,40.593,M,2.2,0123*6C\r\n
$GPGGA,140922.80,5703.4142700,N,00952.3112350,E,2,11,0.9,-1.411,M,40.593,M,2.2,0123*63\r\n
$GPGGA,140922.85,5703.4142244,N,00952.3111569,E,2,11,0.9,-1.405,M,40.593,M,2.4,0123*6F\r\n
$GPGGA,140922.90,5703.4141794,N,00952.3110773,E,2,11,0.9,-1.403,M,40.593,M,2.4,0123*6E\r\n
$GPGGA,140922.95,5703.4141340,N,00952.3109992,E,2,11,0.9,-1.402,M,40.593,M,2.4,0123*6E\r\n
$GPGGA,140923.00,5703.4140881,N,00952.3109223,E,2,11,0.9,-1.400,M,40.593,M,2.4,0123*67\r\n
$GPGGA,140923.05,5703.4140422,N,00952.3108459,E,2,11,0.9,-1.400,M,40.593,M,2.6,0123*6F\r\n
$GPGGA,140923.10,5703.4139965,N,00952.3107671,E,2,11,0.9,-1.399,M,40.593,M,2.6,0123*6B\r\n
$GPGGA,140923.15,5703.4139504,N,00952.3106884,E,2,11,0.9,-1.400,M,40.593,M,2.6,0123*67\r\n
$GPGGA,140923.20,5703.4139049,N,00952.3106102,E,2,11,0.9,-1.399,M,40.593,M,2.6,0123*6D\r\n
$GPGGA,140923.25,5703.4138596,N,00952.3105333,E,2,11,0.9,-1.394,M,40.593,M,1.8,0123*6D\r\n
$GPGGA,140923.30,5703.4138129,N,00952.3104575,E,2,11,0.9,-1.394,M,40.593,M,1.8,0123*6C\r\n
$GPGGA,140923.35,5703.4137662,N,00952.3103807,E,2,11,0.9,-1.394,M,40.593,M,1.8,0123*61\r\n
$GPGGA,140923.40,5703.4137200,N,00952.3103018,E,2,11,0.9,-1.392,M,40.593,M,1.8,0123*63\r\n
$GPGGA,140923.45,5703.4136744,N,00952.3102237,E,2,11,0.9,-1.393,M,40.593,M,2.0,0123*66\r\n
$GPGGA,140923.50,5703.4136296,N,00952.3101468,E,2,11,0.9,-1.391,M,40.593,M,2.0,0123*65\r\n
$GPGGA,140923.55,5703.4135841,N,00952.3100700,E,2,11,0.9,-1.388,M,40.593,M,2.0,0123*67\r\n
$GPGGA,140923.60,5703.4135378,N,00952.3099912,E,2,11,0.9,-1.390,M,40.593,M,2.0,0123*65\r\n
$GPGGA,140923.65,5703.4134923,N,00952.3099133,E,2,11,0.9,-1.391,M,40.593,M,2.2,0123*6D\r\n
$GPGGA,140923.70,5703.4134462,N,00952.3098355,E,2,11,0.9,-1.391,M,40.593,M,2.2,0123*62\r\n
$GPGGA,140923.75,5703.4134003,N,00952.3097571,E,2,11,0.9,-1.391,M,40.593,M,2.2,0123*6B\r\n
$GPGGA,140923.80,5703.4133537,N,00952.3096796,E,2,11,0.9,-1.392,M,40.593,M,2.2,0123*6D\r\n
$GPGGA,140923.85,5703.4133080,N,00952.3096013,E,2,11,0.9,-1.389,M,40.593,M,2.4,0123*67\r\n
$GPGGA,140923.90,5703.4132630,N,00952.3095217,E,2,11,0.9,-1.389,M,40.593,M,2.4,0123*6A\r\n
$GPGGA,140923.95,5703.4132181,N,00952.3094418,E,2,11,0.9,-1.388,M,40.593,M,2.4,0123*6B\r\n
$GPGGA,140924.00,5703.4131729,N,00952.3093627,E,2,11,0.9,-1.388,M,40.593,M,2.4,0123*6E\r\n
$GPGGA,140924.05,5703.4131284,N,00952.3092836,E,2,11,0.9,-1.386,M,40.593,M,2.6,0123*6A\r\n
$GPGGA,140924.10,5703.4130832,N,00952.3092041,E,2,11,0.9,-1.386,M,40.593,M,2.6,0123*60\r\n
$GPGGA,140924.15,5703.4130377,N,00952.3091233,E,2,11,0.9,-1.384,M,40.593,M,2.6,0123*69\r\n
$GPGGA,140924.20,5703.4129916,N,00952.3090446,E,2,11,0.9,-1.385,M,40.593,M,2.6,0123*6E\r\n
$GPGGA,140924.25,5703.4129454,N,00952.3089666,E,2,11,0.9,-1.385,M,40.593,M,2.5,0123*6B\r\n
$GPGGA,140924.30,5703.4129001,N,00952.3088871,E,2,11,0.9,-1.387,M,40.593,M,2.5,0123*60\r\n
$GPGGA,140924.35,5703.4128539,N,00952.3088076,E,2,11,0.9,-1.385,M,40.593,M,2.5,0123*67\r\n
$GPGGA,140924.40,5703.4128080,N,00952.3087268,E,2,11,0.9,-1.386,M,40.593,M,2.5,0123*63\r\n
$GPGGA,140924.45,5703.4127621,N,00952.3086482,E,2,11,0.9,-1.385,M,40.593,M,2.7,0123*66\r\n
$GPGGA,140924.50,5703.4127167,N,00952.3085685,E,2,11,0.9,-1.385,M,40.593,M,2.7,0123*61\r\n
$GPGGA,140924.55,5703.4126714,N,00952.3084888,E,2,11,0.9,-1.385,M,40.593,M,2.7,0123*65\r\n
$GPGGA,140924.60,5703.4126250,N,00952.3084108,E,2,11,0.9,-1.384,M,40.593,M,2.7,0123*66\r\n
$GPGGA,140924.65,5703.4125789,N,00952.3083307,E,2,11,0.9,-1.384,M,40.593,M,2.9,0123*65\r\n
$GPGGA,140924.70,5703.4125329,N,00952.3082514,E,2,11,0.9,-1.384,M,40.593,M,2.9,0123*6A\r\n
$GPGGA,140924.75,5703.4124879,N,00952.3081717,E,2,11,0.9,-1.383,M,40.593,M,2.9,0123*65\r\n
$GPGGA,140924.80,5703.4124433,N,00952.3080918,E,2,11,0.9,-1.382,M,40.593,M,2.9,0123*6C\r\n
$GPGGA,140924.85,5703.4123983,N,00952.3080116,E,2,11,0.9,-1.378,M,40.593,M,3.1,0123*62\r\n
$GPGGA,140924.90,5703.4123535,N,00952.3079313,E,2,11,0.9,-1.376,M,40.593,M,3.1,0123*68\r\n
$GPGGA,140924.95,5703.4123075,N,00952.3078510,E,2,11,0.9,-1.374,M,40.593,M,3.1,0123*6A\r\n
$GPGGA,140925.00,5703.4122619,N,00952.3077709,E,2,11,0.9,-1.373,M,40.593,M,3.1,0123*68\r\n
$GPGGA,140925.05,5703.4122165,N,00952.3076911,E,2,11,0.9,-1.377,M,40.593,M,3.3,0123*61\r\n
$GPGGA,140925.10,5703.4121712,N,00952.3076127,E,2,11,0.9,-1.376,M,40.593,M,3.3,0123*6C\r\n
$GPGGA,140925.15,5703.4121246,N,00952.3075339,E,2,11,0.9,-1.378,M,40.593,M,3.3,0123*6D\r\n
$GPGGA,140925.20,5703.4120782,N,00952.3074562,E,2,11,0.9,-1.378,M,40.593,M,3.3,0123*6E\r\n
$GPGGA,140925.25,5703.4120331,N,00952.3073769,E,2,11,0.9,-1.375,M,40.593,M,3.6,0123*61\r\n
$GPGGA,140925.30,5703.4119880,N,00952.3072987,E,2,11,0.9,-1.375,M,40.593,M,3.6,0123*61\r\n
$GPGGA,140925.35,5703.4119425,N,00952.3072185,E,2,11,0.9,-1.377,M,40.593,M,3.6,0123*6F\r\n
$GPGGA,140925.40,5703.4118970,N,00952.3071399,E,2,11,0.9,-1.377,M,40.593,M,3.6,0123*6D\r\n
$GPGGA,140925.45,5703.4118513,N,00952.3070614,E,2,11,0.9,-1.377,M,40.593,M,3.8,0123*6E\r\n
$GPGGA,140925.50,5703.4118060,N,00952.3069843,E,2,11,0.9,-1.376,M,40.593,M,3.8,0123*6E\r\n
$GPGGA,140925.55,5703.4117603,N,00952.3069059,E,2,11,0.9,-1.378,M,40.593,M,3.8,0123*6A\r\n
$GPGGA,140925.60,5703.4117152,N,00952.3068268,E,2,11,0.9,-1.379,M,40.593,M,3.8,0123*6F\r\n
$GPGGA,140925.65,5703.4116704,N,00952.3067491,E,2,11,0.9,-1.378,M,40.593,M,4.0,0123*6F\r\n
$GPGGA,140925.70,5703.4116247,N,00952.3066710,E,2,11,0.9,-1.378,M,40.593,M,4.0,0123*62\r\n
$GPGGA,140925.75,5703.4115787,N,00952.3065926,E,2,11,0.9,-1.380,M,40.593,M,4.0,0123*62\r\n
$GPGGA,140925.80,5703.4115338,N,00952.3065151,E,2,11,0.9,-1.380,M,40.593,M,4.0,0123*60\r\n
$GPGGA,140925.85,5703.4114891,N,00952.3064370,E,2,11,0.9,-1.377,M,40.593,M,4.2,0123*66\r\n
$GPGGA,140925.90,5703.4114439,N,00952.3063595,E,2,11,0.9,-1.377,M,40.593,M,4.2,0123*66\r\n
$GPGGA,140925.95,5703.4113987,N,00952.3062832,E,2,11,0.9,-1.377,M,40.593,M,4.2,0123*6D\r\n
$GPGGA,140926.00,5703.4113543,N,00952.3062043,E,2,11,0.9,-1.375,M,40.593,M,4.2,0123*6A\r\n
$GPGGA,140926.05,5703.4113087,N,00952.3061263,E,2,11,0.9,-1.381,M,40.593,M,4.4,0123*6C\r\n
$GPGGA,140926.10,5703.4112625,N,00952.3060509,E,2,11,0.9,-1.382,M,40.593,M,4.4,0123*6E\r\n
$GPGGA,140926.15,5703.4112161,N,00952.3059753,E,2,11,0.9,-1.385,M,40.593,M,4.4,0123*6C\r\n
$GPGGA,140926.20,5703.4111693,N,00952.3058977,E,2,11,0.9,-1.387,M,40.593,M,4.4,0123*68\r\n
$GPGGA,140926.25,5703.4111233,N,00952.3058201,E,2,11,0.9,-1.389,M,40.593,M,1.7,0123*61\r\n
$GPGGA,140926.30,5703.4110778,N,00952.3057426,E,2,11,0.9,-1.388,M,40.593,M,1.7,0123*63\r\n
$GPGGA,140926.35,5703.4110323,N,00952.3056671,E,2,11,0.9,-1.389,M,40.593,M,1.7,0123*6C\r\n
$GPGGA,140926.40,5703.4109857,N,00952.3055909,E,2,11,0.9,-1.392,M,40.593,M,1.7,0123*67\r\n
$GPGGA,140926.45,5703.4109395,N,00952.3055150,E,2,11,0.9,-1.392,M,40.593,M,1.9,0123*6D\r\n
$GPGGA,140926.50,5703.4108942,N,00952.3054371,E,2,11,0.9,-1.392,M,40.593,M,1.9,0123*68\r\n
$GPGGA,140926.55,5703.4108489,N,00952.3053595,E,2,11,0.9,-1.392,M,40.593,M,1.9,0123*6C\r\n
$GPGGA,140926.60,5703.4108024,N,00952.3052843,E,2,11,0.9,-1.390,M,40.593,M,1.9,0123*6C\r\n
$GPGGA,140926.65,5703.4107562,N,00952.3052096,E,2,11,0.9,-1.390,M,40.593,M,2.2,0123*69\r\n
$GPGGA,140926.70,5703.4107091,N,00952.3051339,E,2,11,0.9,-1.391,M,40.593,M,2.2,0123*60\r\n
$GPGGA,140926.75,5703.4106629,N,00952.3050591,E,2,11,0.9,-1.391,M,40.593,M,2.2,0123*64\r\n
$GPGGA,140926.80,5703.4106178,N,00952.3049830,E,2,11,0.9,-1.390,M,40.593,M,2.2,0123*62\r\n
$GPGGA,140926.85,5703.4105709,N,00952.3049067,E,2,11,0.9,-1.389,M,40.593,M,2.4,0123*60\r\n
$GPGGA,140926.90,5703.4105243,N,00952.3048305,E,2,11,0.9,-1.388,M,40.593,M,2.4,0123*68\r\n
$GPGGA,140926.95,5703.4104787,N,00952.3047542,E,2,11,0.9,-1.387,M,40.593,M,2.4,0123*64\r\n
$GPGGA,140927.00,5703.4104331,N,00952.3046794,E,2,11,0.9,-1.387,M,40.593,M,2.4,0123*68\r\n
$GPGGA,140927.05,5703.4103868,N,00952.3046042,E,2,11,0.9,-1.389,M,40.593,M,2.6,0123*6D\r\n
$GPGGA,140927.10,5703.4103394,N,00952.3045297,E,2,11,0.9,-1.391,M,40.593,M,2.6,0123*61\r\n
$GPGGA,140927.15,5703.4102929,N,00952.3044549,E,2,11,0.9,-1.392,M,40.593,M,2.6,0123*6F\r\n
$GPGGA,140927.20,5703.4102457,N,00952.3043796,E,2,11,0.9,-1.395,M,40.593,M,2.6,0123*6D\r\n
$GPGGA,140927.25,5703.4101982,N,00952.3043058,E,2,11,0.9,-1.394,M,40.593,M,1.8,0123*67\r\n
$GPGGA,140927.30,5703.4101502,N,00952.3042321,E,2,11,0.9,-1.394,M,40.593,M,1.8,0123*6B\r\n
$GPGGA,140927.35,5703.4101032,N,00952.3041563,E,2,11,0.9,-1.394,M,40.593,M,1.8,0123*6B\r\n
$GPGGA,140927.40,5703.4100572,N,00952.3040805,E,2,11,0.9,-1.394,M,40.593,M,1.8,0123*65\r\n
$GPGGA,140927.45,5703.4100094,N,00952.3040077,E,2,11,0.9,-1.393,M,40.593,M,2.0,0123*6C\r\n
$GPGGA,140927.50,5703.4099621,N,00952.3039346,E,2,11,0.9,-1.393,M,40.593,M,2.0,0123*6E\r\n
$GPGGA,140927.55,5703.4099147,N,00952.3038602,E,2,11,0.9,-1.394,M,40.593,M,2.0,0123*6F\r\n
$GPGGA,140927.60,5703.4098672,N,00952.3037865,E,2,11,0.9,-1.395,M,40.593,M,2.0,0123*68\r\n
$GPGGA,140927.65,5703.4098197,N,00952.3037135,E,2,11,0.9,-1.395,M,40.593,M,2.2,0123*6F\r\n
$GPGGA,140927.70,5703.4097738,N,00952.3036400,E,2,11,0.9,-1.392,M,40.593,M,2.2,0123*62\r\n
$GPGGA,140927.75,5703.4097275,N,00952.3035651,E,2,11,0.9,-1.393,M,40.593,M,2.2,0123*6F\r\n
$GPGGA,140927.80,5703.4096809,N,00952.3034896,E,2,11,0.9,-1.393,M,40.593,M,2.2,0123*61\r\n
$GPGGA,140927.85,5703.4096349,N,00952.3034156,E,2,11,0.9,-1.390,M,40.593,M,2.4,0123*6B\r\n
$GPGGA,140927.90,5703.4095884,N,00952.3033416,E,2,11,0.9,-1.389,M,40.593,M,2.4,0123*68\r\n
$GPGGA,140927.95,5703.4095422,N,00952.3032674,E,2,11,0.9,-1.389,M,40.593,M,2.4,0123*6A\r\n
$GPGGA,140928.00,5703.4094961,N,00952.3031924,E,2,11,0.9,-1.388,M,40.593,M,2.4,0123*6A\r\n
$GPGGA,140928.05,5703.4094509,N,00952.3031175,E,2,11,0.9,-1.386,M,40.593,M,2.6,0123*6D\r\n
$GPGGA,140928.10,5703.4094045,N,00952.3030435,E,2,11,0.9,-1.387,M,40.593,M,2.6,0123*65\r\n
$GPGGA,140928.15,5703.4093575,N,00952.3029707,E,2,11,0.9,-1.389,M,40.593,M,2.6,0123*65\r\n
$GPGGA,140928.20,5703.4093104,N,00952.3028985,E,2,11,0.9,-1.388,M,40.593,M,2.6,0123*65\r\n
$GPGGA,140928.25,5703.4092624,N,00952.3028226,E,2,11,0.9,-1.388,M,40.593,M,2.5,0123*65\r\n
$GPGGA,140928.30,5703.4092150,N,00952.3027478,E,2,11,0.9,-1.390,M,40.593,M,2.5,0123*6E\r\n
$GPGGA,140928.35,5703.4091682,N,00952.3026744,E,2,11,0.9,-1.390,M,40.593,M,2.5,0123*6D\r\n
$GPGGA,140928.40,5703.4091222,N,00952.3026004,E,2,11,0.9,-1.391,M,40.593,M,2.5,0123*63\r\n
$GPGGA,140928.45,5703.4090763,N,00952.3025266,E,2,11,0.9,-1.392,M,40.593,M,2.7,0123*63\r\n
$GPGGA,140928.50,5703.4090289,N,00952.3024510,E,2,11,0.9,-1.394,M,40.593,M,2.7,0123*67\r\n
