$GPGGA,105526.40,5703.4242464,N,00952.4041846,E,2,11,0.9,-1.989,M,40.593,M,3.9,0123*6E\r\n
$GPGGA,105526.45,5703.4242478,N,00952.4041440,E,2,11,0.9,-1.987,M,40.593,M,2.3,0123*69\r\n
$GPGGA,105526.50,5703.4242494,N,00952.4041026,E,2,11,0.9,-1.989,M,40.593,M,2.3,0123*65\r\n
$GPGGA,105526.55,5703.4242517,N,00952.4040616,E,2,11,0.9,-1.990,M,40.593,M,2.3,0123*66\r\n
$GPGGA,105526.60,5703.4242536,N,00952.4040196,E,2,11,0.9,-1.990,M,40.593,M,2.3,0123*6C\r\n
$GPGGA,105526.65,5703.4242550,N,00952.4039785,E,2,11,0.9,-1.993,M,40.593,M,2.5,0123*66\r\n
$GPGGA,105526.70,5703.4242568,N,00952.4039378,E,2,11,0.9,-1.992,M,40.593,M,2.5,0123*6E\r\n
$GPGGA,105526.75,5703.4242587,N,00952.4038977,E,2,11,0.9,-1.989,M,40.593,M,2.5,0123*64\r\n
$GPGGA,105526.80,5703.4242609,N,00952.4038565,E,2,11,0.9,-1.988,M,40.593,M,2.5,0123*65\r\n
$GPGGA,105526.85,5703.4242620,N,00952.4038154,E,2,11,0.9,-1.986,M,40.593,M,2.8,0123*6E\r\n
$GPGGA,105526.90,5703.4242632,N,00952.4037739,E,2,11,0.9,-1.985,M,40.593,M,2.8,0123*68\r\n
$GPGGA,105526.95,5703.4242652,N,00952.4037332,E,2,11,0.9,-1.986,M,40.593,M,2.8,0123*67\r\n
$GPGGA,105527.00,5703.4242677,N,00952.4036935,E,2,11,0.9,-1.986,M,40.593,M,2.8,0123*61\r\n
$GPGGA,105527.05,5703.4242696,N,00952.4036523,E,2,11,0.9,-1.984,M,40.593,M,3.0,0123*6B\r\n
$GPGGA,105527.10,5703.4242714,N,00952.4036126,E,2,11,0.9,-1.982,M,40.593,M,3.0,0123*63\r\n
$GPGGA,105527.15,5703.4242735,N,00952.4035720,E,2,11,0.9,-1.981,M,40.593,M,3.0,0123*65\r\n
$GPGGA,105527.20,5703.4242751,N,00952.4035309,E,2,11,0.9,-1.980,M,40.593,M,3.0,0123*6F\r\n
$GPGGA,105527.25,5703.4242762,N,00952.4034909,E,2,11,0.9,-1.982,M,40.593,M,3.2,0123*61\r\n
$GPGGA,105527.30,5703.4242788,N,00952.4034511,E,2,11,0.9,-1.982,M,40.593,M,3.2,0123*64\r\n
$GPGGA,105527.35,5703.4242802,N,00952.4034098,E,2,11,0.9,-1.983,M,40.593,M,3.2,0123*69\r\n
$GPGGA,105527.40,5703.4242822,N,00952.4033690,E,2,11,0.9,-1.983,M,40.593,M,3.2,0123*60\r\n
$GPGGA,105527.45,5703.4242826,N,00952.4033283,E,2,11,0.9,-1.985,M,40.593,M,2.6,0123*64\r\n
$GPGGA,105527.50,5703.4242837,N,00952.4032881,E,2,11,0.9,-1.985,M,40.593,M,2.6,0123*69\r\n
$GPGGA,105527.55,5703.4242852,N,00952.4032485,E,2,11,0.9,-1.986,M,40.593,M,2.6,0123*64\r\n
$GPGGA,105527.60,5703.4242870,N,00952.4032089,E,2,11,0.9,-1.985,M,40.593,M,2.6,0123*69\r\n
$GPGGA,105527.65,5703.4242887,N,00952.4031694,E,2,11,0.9,-1.986,M,40.593,M,2.8,0123*60\r\n
$GPGGA,105527.70,5703.4242899,N,00952.4031281,E,2,11,0.9,-1.985,M,40.593,M,2.8,0123*68\r\n
$GPGGA,105527.75,5703.4242908,N,00952.4030869,E,2,11,0.9,-1.987,M,40.593,M,2.8,0123*6B\r\n
$GPGGA,105527.80,5703.4242917,N,00952.4030463,E,2,11,0.9,-1.991,M,40.593,M,2.8,0123*6E\r\n
$GPGGA,105527.85,5703.4242938,N,00952.4030067,E,2,11,0.9,-1.993,M,40.593,M,3.1,0123*6C\r\n
$GPGGA,105527.90,5703.4242949,N,00952.4029668,E,2,11,0.9,-1.993,M,40.593,M,3.1,0123*6F\r\n
$GPGGA,105527.95,5703.4242964,N,00952.4029270,E,2,11,0.9,-1.994,M,40.593,M,3.1,0123*6F\r\n
$GPGGA,105528.00,5703.4242980,N,00952.4028878,E,2,11,0.9,-1.993,M,40.593,M,3.1,0123*62\r\n
$GPGGA,105528.05,5703.4242992,N,00952.4028477,E,2,11,0.9,-1.992,M,40.593,M,3.3,0123*64\r\n
$GPGGA,105528.10,5703.4243017,N,00952.4028077,E,2,11,0.9,-1.992,M,40.593,M,3.3,0123*61\r\n
$GPGGA,105528.15,5703.4243033,N,00952.4027671,E,2,11,0.9,-1.993,M,40.593,M,3.3,0123*6C\r\n
$GPGGA,105528.20,5703.4243047,N,00952.4027266,E,2,11,0.9,-1.997,M,40.593,M,3.3,0123*6F\r\n
$GPGGA,105528.25,5703.4243052,N,00952.4026873,E,2,11,0.9,-1.996,M,40.593,M,3.5,0123*66\r\n
$GPGGA,105528.30,5703.4243066,N,00952.4026478,E,2,11,0.9,-1.998,M,40.593,M,3.5,0123*6C\r\n
$GPGGA,105528.35,5703.4243078,N,00952.4026078,E,2,11,0.9,-1.998,M,40.593,M,3.5,0123*62\r\n
$GPGGA,105528.40,5703.4243100,N,00952.4025682,E,2,11,0.9,-1.996,M,40.593,M,3.5,0123*60\r\n
$GPGGA,105528.45,5703.4243122,N,00952.4025276,E,2,11,0.9,-1.992,M,40.593,M,2.0,0123*6A\r\n
$GPGGA,105528.50,5703.4243147,N,00952.4024869,E,2,11,0.9,-1.990,M,40.593,M,2.0,0123*6A\r\n
$GPGGA,105528.55,5703.4243164,N,00952.4024481,E,2,11,0.9,-1.989,M,40.593,M,2.0,0123*6C\r\n
$GPGGA,105528.60,5703.4243172,N,00952.4024071,E,2,11,0.9,-1.991,M,40.593,M,2.0,0123*6F\r\n
$GPGGA,105528.65,5703.4243173,N,00952.4023671,E,2,11,0.9,-1.996,M,40.593,M,2.2,0123*6F\r\n
$GPGGA,105528.70,5703.4243194,N,00952.4023271,E,2,11,0.9,-1.996,M,40.593,M,2.2,0123*66\r\n
$GPGGA,105528.75,5703.4243214,N,00952.4022868,E,2,11,0.9,-1.996,M,40.593,M,2.2,0123*6B\r\n
$GPGGA,105528.80,5703.4243226,N,00952.4022472,E,2,11,0.9,-1.995,M,40.593,M,2.2,0123*64\r\n
$GPGGA,105528.85,5703.4243245,N,00952.4022081,E,2,11,0.9,-1.990,M,40.593,M,2.4,0123*6F\r\n
$GPGGA,105528.90,5703.4243261,N,00952.4021675,E,2,11,0.9,-1.988,M,40.593,M,2.4,0123*6A\r\n
$GPGGA,105528.95,5703.4243277,N,00952.4021271,E,2,11,0.9,-1.986,M,40.593,M,2.4,0123*66\r\n
$GPGGA,105529.00,5703.4243290,N,00952.4020871,E,2,11,0.9,-1.986,M,40.593,M,2.4,0123*69\r\n
$GPGGA,105529.05,5703.4243299,N,00952.4020469,E,2,11,0.9,-1.988,M,40.593,M,2.6,0123*6C\r\n
$GPGGA,105529.10,5703.4243322,N,00952.4020056,E,2,11,0.9,-1.987,M,40.593,M,2.6,0123*6E\r\n
$GPGGA,105529.15,5703.4243337,N,00952.4019658,E,2,11,0.9,-1.987,M,40.593,M,2.6,0123*6D\r\n
$GPGGA,105529.20,5703.4243349,N,00952.4019269,E,2,11,0.9,-1.987,M,40.593,M,2.6,0123*64\r\n
$GPGGA,105529.25,5703.4243363,N,00952.4018879,E,2,11,0.9,-1.985,M,40.593,M,2.9,0123*6E\r\n
$GPGGA,105529.30,5703.4243374,N,00952.4018478,E,2,11,0.9,-1.984,M,40.593,M,2.9,0123*60\r\n
$GPGGA,105529.35,5703.4243391,N,00952.4018081,E,2,11,0.9,-1.982,M,40.593,M,2.9,0123*6A\r\n
$GPGGA,105529.40,5703.4243403,N,00952.4017688,E,2,11,0.9,-1.981,M,40.593,M,2.9,0123*67\r\n
$GPGGA,105529.45,5703.4243416,N,00952.4017292,E,2,11,0.9,-1.982,M,40.593,M,3.1,0123*63\r\n
$GPGGA,105529.50,5703.4243426,N,00952.4016904,E,2,11,0.9,-1.982,M,40.593,M,3.1,0123*61\r\n
$GPGGA,105529.55,5703.4243438,N,00952.4016516,E,2,11,0.9,-1.981,M,40.593,M,3.1,0123*67\r\n
$GPGGA,105529.60,5703.4243451,N,00952.4016131,E,2,11,0.9,-1.981,M,40.593,M,3.1,0123*6F\r\n
$GPGGA,105529.65,5703.4243468,N,00952.4015738,E,2,11,0.9,-1.983,M,40.593,M,3.3,0123*6C\r\n
$GPGGA,105529.70,5703.4243473,N,00952.4015353,E,2,11,0.9,-1.984,M,40.593,M,3.3,0123*6C\r\n
$GPGGA,105529.75,5703.4243485,N,00952.4014958,E,2,11,0.9,-1.986,M,40.593,M,3.3,0123*62\r\n
$GPGGA,105529.80,5703.4243493,N,00952.4014562,E,2,11,0.9,-1.988,M,40.593,M,3.3,0123*64\r\n
$GPGGA,105529.85,5703.4243513,N,00952.4014167,E,2,11,0.9,-1.984,M,40.593,M,3.5,0123*63\r\n
$GPGGA,105529.90,5703.4243530,N,00952.4013771,E,2,11,0.9,-1.986,M,40.593,M,3.5,0123*62\r\n
$GPGGA,105529.95,5703.4243536,N,00952.4013401,E,2,11,0.9,-1.984,M,40.593,M,3.5,0123*67\r\n
$GPGGA,105530.00,5703.4243550,N,00952.4013031,E,2,11,0.9,-1.984,M,40.593,M,3.5,0123*64\r\n
$GPGGA,105530.05,5703.4243560,N,00952.4012645,E,2,11,0.9,-1.988,M,40.593,M,3.7,0123*68\r\n
$GPGGA,105530.10,5703.4243572,N,00952.4012251,E,2,11,0.9,-1.991,M,40.593,M,3.7,0123*66\r\n
$GPGGA,105530.15,5703.4243582,N,00952.4011856,E,2,11,0.9,-1.991,M,40.593,M,3.7,0123*62\r\n
$GPGGA,105530.20,5703.4243596,N,00952.4011472,E,2,11,0.9,-1.993,M,40.593,M,3.7,0123*69\r\n
$GPGGA,105530.25,5703.4243618,N,00952.4011073,E,2,11,0.9,-1.991,M,40.593,M,3.9,0123*60\r\n
$GPGGA,105530.30,5703.4243637,N,00952.4010676,E,2,11,0.9,-1.991,M,40.593,M,3.9,0123*6B\r\n
$GPGGA,105530.35,5703.4243649,N,00952.4010284,E,2,11,0.9,-1.992,M,40.593,M,3.9,0123*6D\r\n
$GPGGA,105530.40,5703.4243666,N,00952.4009901,E,2,11,0.9,-1.991,M,40.593,M,3.9,0123*6F\r\n
$GPGGA,105530.45,5703.4243677,N,00952.4009522,E,2,11,0.9,-1.994,M,40.593,M,2.3,0123*69\r\n
$GPGGA,105530.50,5703.4243692,N,00952.4009143,E,2,11,0.9,-1.993,M,40.593,M,2.3,0123*62\r\n
$GPGGA,105530.55,5703.4243709,N,00952.4008756,E,2,11,0.9,-1.992,M,40.593,M,2.3,0123*66\r\n
$GPGGA,105530.60,5703.4243730,N,00952.4008369,E,2,11,0.9,-1.993,M,40.593,M,2.3,0123*63\r\n
$GPGGA,105530.65,5703.4243733,N,00952.4007971,E,2,11,0.9,-1.994,M,40.593,M,2.5,0123*68\r\n
$GPGGA,105530.70,5703.4243747,N,00952.4007585,E,2,11,0.9,-1.997,M,40.593,M,2.5,0123*6B\r\n
$GPGGA,105530.75,5703.4243756,N,00952.4007199,E,2,11,0.9,-1.997,M,40.593,M,2.5,0123*67\r\n
$GPGGA,105530.80,5703.4243769,N,00952.4006822,E,2,11,0.9,-1.997,M,40.593,M,2.5,0123*69\r\n
$GPGGA,105530.85,5703.4243783,N,00952.4006433,E,2,11,0.9,-1.995,M,40.593,M,2.8,0123*6B\r\n
$GPGGA,105530.90,5703.4243794,N,00952.4006044,E,2,11,0.9,-1.993,M,40.593,M,2.8,0123*6B\r\n
$GPGGA,105530.95,5703.4243814,N,00952.4005656,E,2,11,0.9,-1.994,M,40.593,M,2.8,0123*68\r\n
$GPGGA,105531.00,5703.4243836,N,00952.4005268,E,2,11,0.9,-1.994,M,40.593,M,2.8,0123*6C\r\n
$GPGGA,105531.05,5703.4243852,N,00952.4004880,E,2,11,0.9,-1.993,M,40.593,M,3.0,0123*68\r\n
$GPGGA,105531.10,5703.4243861,N,00952.4004491,E,2,11,0.9,-1.991,M,40.593,M,3.0,0123*62\r\n
$GPGGA,105531.15,5703.4243874,N,00952.4004106,E,2,11,0.9,-1.991,M,40.593,M,3.0,0123*68\r\n
$GPGGA,105531.20,5703.4243884,N,00952.4003715,E,2,11,0.9,-1.990,M,40.593,M,3.0,0123*63\r\n
$GPGGA,105531.25,5703.4243900,N,00952.4003326,E,2,11,0.9,-1.987,M,40.593,M,3.2,0123*6B\r\n
$GPGGA,105531.30,5703.4243923,N,00952.4002935,E,2,11,0.9,-1.984,M,40.593,M,3.2,0123*64\r\n
$GPGGA,105531.35,5703.4243938,N,00952.4002545,E,2,11,0.9,-1.982,M,40.593,M,3.2,0123*66\r\n
$GPGGA,105531.40,5703.4243951,N,00952.4002152,E,2,11,0.9,-1.981,M,40.593,M,3.2,0123*6A\r\n
$GPGGA,105531.45,5703.4243962,N,00952.4001772,E,2,11,0.9,-1.982,M,40.593,M,2.6,0123*6E\r\n
$GPGGA,105531.50,5703.4243969,N,00952.4001390,E,2,11,0.9,-1.983,M,40.593,M,2.6,0123*68\r\n
$GPGGA,105531.55,5703.4243982,N,00952.4000994,E,2,11,0.9,-1.984,M,40.593,M,2.6,0123*60\r\n
$GPGGA,105531.60,5703.4243999,N,00952.4000608,E,2,11,0.9,-1.982,M,40.593,M,2.6,0123*60\r\n
$GPGGA,105531.65,5703.4244005,N,00952.4000230,E,2,11,0.9,-1.982,M,40.593,M,2.8,0123*6F\r\n
$GPGGA,105531.70,5703.4244009,N,00952.3999842,E,2,11,0.9,-1.986,M,40.593,M,2.8,0123*62\r\n
$GPGGA,105531.75,5703.4244025,N,00952.3999452,E,2,11,0.9,-1.985,M,40.593,M,2.8,0123*67\r\n
$GPGGA,105531.80,5703.4244046,N,00952.3999067,E,2,11,0.9,-1.982,M,40.593,M,2.8,0123*6D\r\n
$GPGGA,105531.85,5703.4244059,N,00952.3998690,E,2,11,0.9,-1.980,M,40.593,M,3.1,0123*63\r\n
$GPGGA,105531.90,5703.4244076,N,00952.3998311,E,2,11,0.9,-1.979,M,40.593,M,3.1,0123*60\r\n
$GPGGA,105531.95,5703.4244087,N,00952.3997940,E,2,11,0.9,-1.979,M,40.593,M,3.1,0123*6A\r\n
$GPGGA,105532.00,5703.4244105,N,00952.3997551,E,2,11,0.9,-1.978,M,40.593,M,3.1,0123*63\r\n
$GPGGA,105532.05,5703.4244122,N,00952.3997177,E,2,11,0.9,-1.973,M,40.593,M,3.3,0123*6A\r\n
$GPGGA,105532.10,5703.4244144,N,00952.3996789,E,2,11,0.9,-1.973,M,40.593,M,3.3,0123*68\r\n
$GPGGA,105532.15,5703.4244157,N,00952.3996412,E,2,11,0.9,-1.974,M,40.593,M,3.3,0123*69\r\n
$GPGGA,105532.20,5703.4244167,N,00952.3996031,E,2,11,0.9,-1.973,M,40.593,M,3.3,0123*6E\r\n
$GPGGA,105532.25,5703.4244177,N,00952.3995623,E,2,11,0.9,-1.982,M,40.593,M,3.5,0123*64\r\n
$GPGGA,105532.30,5703.4244186,N,00952.3995243,E,2,11,0.9,-1.984,M,40.593,M,3.5,0123*6A\r\n
$GPGGA,105532.35,5703.4244198,N,00952.3994862,E,2,11,0.9,-1.985,M,40.593,M,3.5,0123*69\r\n
$GPGGA,105532.40,5703.4244208,N,00952.3994490,E,2,11,0.9,-1.987,M,40.593,M,3.5,0123*62\r\n
$GPGGA,105532.45,5703.4244223,N,00952.3994112,E,2,11,0.9,-1.986,M,40.593,M,2.0,0123*64\r\n
$GPGGA,105532.50,5703.4244236,N,00952.3993728,E,2,11,0.9,-1.985,M,40.593,M,2.0,0123*6F\r\n
$GPGGA,105532.55,5703.4244250,N,00952.3993343,E,2,11,0.9,-1.983,M,40.593,M,2.0,0123*65\r\n
$GPGGA,105532.60,5703.4244270,N,00952.3992938,E,2,11,0.9,-1.982,M,40.593,M,2.0,0123*67\r\n
$GPGGA,105532.65,5703.4244290,N,00952.3992528,E,2,11,0.9,-1.981,M,40.593,M,2.2,0123*60\r\n
$GPGGA,105532.70,5703.4244305,N,00952.3992123,E,2,11,0.9,-1.980,M,40.593,M,2.2,0123*67\r\n
$GPGGA,105532.75,5703.4244323,N,00952.3991708,E,2,11,0.9,-1.979,M,40.593,M,2.2,0123*6C\r\n
$GPGGA,105532.80,5703.4244332,N,00952.3991300,E,2,11,0.9,-1.979,M,40.593,M,2.2,0123*6A\r\n
$GPGGA,105532.85,5703.4244341,N,00952.3990866,E,2,11,0.9,-1.979,M,40.593,M,2.4,0123*67\r\n
$GPGGA,105532.90,5703.4244345,N,00952.3990438,E,2,11,0.9,-1.980,M,40.593,M,2.4,0123*66\r\n
$GPGGA,105532.95,5703.4244355,N,00952.3990000,E,2,11,0.9,-1.979,M,40.593,M,2.4,0123*6B\r\n
$GPGGA,105533.00,5703.4244367,N,00952.3989569,E,2,11,0.9,-1.977,M,40.593,M,2.4,0123*6B\r\n
$GPGGA,105533.05,5703.4244383,N,00952.3989116,E,2,11,0.9,-1.976,M,40.593,M,2.6,0123*6B\r\n
$GPGGA,105533.10,5703.4244391,N,00952.3988659,E,2,11,0.9,-1.975,M,40.593,M,2.6,0123*62\r\n
$GPGGA,105533.15,5703.4244389,N,00952.3988192,E,2,11,0.9,-1.974,M,40.593,M,2.6,0123*6F\r\n
$GPGGA,105533.20,5703.4244399,N,00952.3987717,E,2,11,0.9,-1.971,M,40.593,M,2.6,0123*69\r\n
$GPGGA,105533.25,5703.4244410,N,00952.3987236,E,2,11,0.9,-1.965,M,40.593,M,2.9,0123*66\r\n
$GPGGA,105533.30,5703.4244411,N,00952.3986740,E,2,11,0.9,-1.965,M,40.593,M,2.9,0123*66\r\n
$GPGGA,105533.35,5703.4244415,N,00952.3986225,E,2,11,0.9,-1.963,M,40.593,M,2.9,0123*67\r\n
$GPGGA,105533.40,5703.4244423,N,00952.3985698,E,2,11,0.9,-1.958,M,40.593,M,2.9,0123*69\r\n
$GPGGA,105533.45,5703.4244423,N,00952.3985159,E,2,11,0.9,-1.959,M,40.593,M,0.9,0123*65\r\n
$GPGGA,105533.50,5703.4244419,N,00952.3984615,E,2,11,0.9,-1.961,M,40.593,M,0.9,0123*6D\r\n
$GPGGA,105533.55,5703.4244415,N,00952.3984056,E,2,11,0.9,-1.961,M,40.593,M,0.9,0123*65\r\n
$GPGGA,105533.60,5703.4244413,N,00952.3983496,E,2,11,0.9,-1.959,M,40.593,M,0.9,0123*61\r\n
$GPGGA,105533.65,5703.4244401,N,00952.3982933,E,2,11,0.9,-1.955,M,40.593,M,1.2,0123*62\r\n
$GPGGA,105533.70,5703.4244402,N,00952.3982349,E,2,11,0.9,-1.951,M,40.593,M,1.2,0123*66\r\n
$GPGGA,105533.75,5703.4244401,N,00952.3981761,E,2,11,0.9,-1.948,M,40.593,M,1.2,0123*65\r\n
$GPGGA,105533.80,5703.4244385,N,00952.3981155,E,2,11,0.9,-1.948,M,40.593,M,1.2,0123*65\r\n
$GPGGA,105533.85,5703.4244371,N,00952.3980547,E,2,11,0.9,-1.949,M,40.593,M,1.5,0123*6B\r\n
$GPGGA,105533.90,5703.4244364,N,00952.3979926,E,2,11,0.9,-1.947,M,40.593,M,1.5,0123*68\r\n
$GPGGA,105533.95,5703.4244360,N,00952.3979270,E,2,11,0.9,-1.945,M,40.593,M,1.5,0123*63\r\n
$GPGGA,105534.00,5703.4244340,N,00952.3978638,E,2,11,0.9,-1.945,M,40.593,M,1.5,0123*63\r\n
$GPGGA,105534.05,5703.4244313,N,00952.3977991,E,2,11,0.9,-1.949,M,40.593,M,1.8,0123*62\r\n
$GPGGA,105534.10,5703.4244294,N,00952.3977333,E,2,11,0.9,-1.947,M,40.593,M,1.8,0123*64\r\n
$GPGGA,105534.15,5703.4244281,N,00952.3976661,E,2,11,0.9,-1.946,M,40.593,M,1.8,0123*67\r\n
$GPGGA,105534.20,5703.4244263,N,00952.3975972,E,2,11,0.9,-1.947,M,40.593,M,1.8,0123*62\r\n
$GPGGA,105534.25,5703.4244242,N,00952.3975279,E,2,11,0.9,-1.950,M,40.593,M,2.0,0123*69\r\n
$GPGGA,105534.30,5703.4244218,N,00952.3974591,E,2,11,0.9,-1.951,M,40.593,M,2.0,0123*63\r\n
$GPGGA,105534.35,5703.4244193,N,00952.3973905,E,2,11,0.9,-1.951,M,40.593,M,2.0,0123*60\r\n
$GPGGA,105534.40,5703.4244164,N,00952.3973201,E,2,11,0.9,-1.950,M,40.593,M,2.0,0123*64\r\n
$GPGGA,105534.45,5703.4244152,N,00952.3972489,E,2,11,0.9,-1.948,M,40.593,M,1.2,0123*6B\r\n
$GPGGA,105534.50,5703.4244132,N,00952.3971760,E,2,11,0.9,-1.949,M,40.593,M,1.2,0123*6F\r\n
$GPGGA,105534.55,5703.4244110,N,00952.3971040,E,2,11,0.9,-1.948,M,40.593,M,1.2,0123*6E\r\n
$GPGGA,105534.60,5703.4244088,N,00952.3970308,E,2,11,0.9,-1.945,M,40.593,M,1.2,0123*6B\r\n
$GPGGA,105534.65,5703.4244053,N,00952.3969576,E,2,11,0.9,-1.947,M,40.593,M,1.5,0123*6A\r\n
$GPGGA,105534.70,5703.4244020,N,00952.3968838,E,2,11,0.9,-1.949,M,40.593,M,1.5,0123*62\r\n
$GPGGA,105534.75,5703.4243996,N,00952.3968088,E,2,11,0.9,-1.950,M,40.593,M,1.5,0123*6F\r\n
$GPGGA,105534.80,5703.4243968,N,00952.3967339,E,2,11,0.9,-1.952,M,40.593,M,1.5,0123*60\r\n
$GPGGA,105534.85,5703.4243932,N,00952.3966571,E,2,11,0.9,-1.952,M,40.593,M,1.8,0123*6C\r\n
$GPGGA,105534.90,5703.4243897,N,00952.3965817,E,2,11,0.9,-1.952,M,40.593,M,1.8,0123*68\r\n
$GPGGA,105534.95,5703.4243861,N,00952.3965063,E,2,11,0.9,-1.955,M,40.593,M,1.8,0123*68\r\n
$GPGGA,105535.00,5703.4243824,N,00952.3964298,E,2,11,0.9,-1.957,M,40.593,M,1.8,0123*61\r\n
$GPGGA,105535.05,5703.4243794,N,00952.3963523,E,2,11,0.9,-1.954,M,40.593,M,2.1,0123*69\r\n
$GPGGA,105535.10,5703.4243764,N,00952.3962727,E,2,11,0.9,-1.956,M,40.593,M,2.1,0123*67\r\n
$GPGGA,105535.15,5703.4243735,N,00952.3961934,E,2,11,0.9,-1.957,M,40.593,M,2.1,0123*68\r\n
$GPGGA,105535.20,5703.4243691,N,00952.3961148,E,2,11,0.9,-1.957,M,40.593,M,2.1,0123*62\r\n
$GPGGA,105535.25,5703.4243651,N,00952.3960352,E,2,11,0.9,-1.958,M,40.593,M,2.4,0123*69\r\n
$GPGGA,105535.30,5703.4243616,N,00952.3959554,E,2,11,0.9,-1.958,M,40.593,M,2.4,0123*64\r\n
$GPGGA,105535.35,5703.4243587,N,00952.3958745,E,2,11,0.9,-1.958,M,40.593,M,2.4,0123*69\r\n
$GPGGA,105535.40,5703.4243549,N,00952.3957934,E,2,11,0.9,-1.958,M,40.593,M,2.4,0123*6E\r\n
$GPGGA,105535.45,5703.4243512,N,00952.3957124,E,2,11,0.9,-1.960,M,40.593,M,0.7,0123*66\r\n
$GPGGA,105535.50,5703.4243469,N,00952.3956297,E,2,11,0.9,-1.960,M,40.593,M,0.7,0123*65\r\n
$GPGGA,105535.55,5703.4243425,N,00952.3955469,E,2,11,0.9,-1.961,M,40.593,M,0.7,0123*6D\r\n
$GPGGA,105535.60,5703.4243388,N,00952.3954642,E,2,11,0.9,-1.961,M,40.593,M,0.7,0123*61\r\n
$GPGGA,105535.65,5703.4243348,N,00952.3953808,E,2,11,0.9,-1.961,M,40.593,M,1.0,0123*69\r\n
$GPGGA,105535.70,5703.4243309,N,00952.3952967,E,2,11,0.9,-1.963,M,40.593,M,1.0,0123*63\r\n
$GPGGA,105535.75,5703.4243261,N,00952.3952129,E,2,11,0.9,-1.963,M,40.593,M,1.0,0123*6B\r\n
$GPGGA,105535.80,5703.4243217,N,00952.3951287,E,2,11,0.9,-1.962,M,40.593,M,1.0,0123*65\r\n
$GPGGA,105535.85,5703.4243169,N,00952.3950433,E,2,11,0.9,-1.965,M,40.593,M,1.3,0123*66\r\n
$GPGGA,105535.90,5703.4243126,N,00952.3949573,E,2,11,0.9,-1.965,M,40.593,M,1.3,0123*64\r\n
$GPGGA,105535.95,5703.4243092,N,00952.3948696,E,2,11,0.9,-1.965,M,40.593,M,1.3,0123*66\r\n
$GPGGA,105536.00,5703.4243058,N,00952.3947822,E,2,11,0.9,-1.966,M,40.593,M,1.3,0123*62\r\n
$GPGGA,105536.05,5703.4243004,N,00952.3946957,E,2,11,0.9,-1.965,M,40.593,M,1.5,0123*69\r\n
$GPGGA,105536.10,5703.4242953,N,00952.3946082,E,2,11,0.9,-1.966,M,40.593,M,1.5,0123*65\r\n
$GPGGA,105536.15,5703.4242904,N,00952.3945211,E,2,11,0.9,-1.966,M,40.593,M,1.5,0123*69\r\n
$GPGGA,105536.20,5703.4242858,N,00952.3944329,E,2,11,0.9,-1.966,M,40.593,M,1.5,0123*6C\r\n
$GPGGA,105536.25,5703.4242812,N,00952.3943446,E,2,11,0.9,-1.963,M,40.593,M,1.7,0123*69\r\n
$GPGGA,105536.30,5703.4242751,N,00952.3942540,E,2,11,0.9,-1.963,M,40.593,M,1.7,0123*63\r\n
$GPGGA,105536.35,5703.4242693,N,00952.3941620,E,2,11,0.9,-1.965,M,40.593,M,1.7,0123*69\r\n
$GPGGA,105536.40,5703.4242631,N,00952.3940737,E,2,11,0.9,-1.965,M,40.593,M,1.7,0123*65\r\n
$GPGGA,105536.45,5703.4242576,N,00952.3939846,E,2,11,0.9,-1.965,M,40.593,M,2.0,0123*63\r\n
$GPGGA,105536.50,5703.4242519,N,00952.3938948,E,2,11,0.9,-1.962,M,40.593,M,2.0,0123*67\r\n
$GPGGA,105536.55,5703.4242458,N,00952.3938040,E,2,11,0.9,-1.961,M,40.593,M,2.0,0123*64\r\n
$GPGGA,105536.60,5703.4242398,N,00952.3937152,E,2,11,0.9,-1.960,M,40.593,M,2.0,0123*65\r\n
$GPGGA,105536.65,5703.4242350,N,00952.3936239,E,2,11,0.9,-1.956,M,40.593,M,2.2,0123*6C\r\n
$GPGGA,105536.70,5703.4242298,N,00952.3935322,E,2,11,0.9,-1.956,M,40.593,M,2.2,0123*65\r\n
$GPGGA,105536.75,5703.4242235,N,00952.3934396,E,2,11,0.9,-1.957,M,40.593,M,2.2,0123*68\r\n
$GPGGA,105536.80,5703.4242176,N,00952.3933479,E,2,11,0.9,-1.958,M,40.593,M,2.2,0123*68\r\n
$GPGGA,105536.85,5703.4242125,N,00952.3932547,E,2,11,0.9,-1.957,M,40.593,M,2.4,0123*6F\r\n
$GPGGA,105536.90,5703.4242066,N,00952.3931620,E,2,11,0.9,-1.957,M,40.593,M,2.4,0123*6C\r\n
$GPGGA,105536.95,5703.4242000,N,00952.3930698,E,2,11,0.9,-1.956,M,40.593,M,2.4,0123*6A\r\n
$GPGGA,105537.00,5703.4241925,N,00952.3929775,E,2,11,0.9,-1.956,M,40.593,M,2.4,0123*60\r\n
$GPGGA,105537.05,5703.4241864,N,00952.3928854,E,2,11,0.9,-1.957,M,40.593,M,2.6,0123*6F\r\n
$GPGGA,105537.10,5703.4241799,N,00952.3927940,E,2,11,0.9,-1.956,M,40.593,M,2.6,0123*6C\r\n
$GPGGA,105537.15,5703.4241731,N,00952.3927004,E,2,11,0.9,-1.955,M,40.593,M,2.6,0123*61\r\n
$GPGGA,105537.20,5703.4241664,N,00952.3926066,E,2,11,0.9,-1.954,M,40.593,M,2.6,0123*62\r\n
$GPGGA,105537.25,5703.4241588,N,00952.3925137,E,2,11,0.9,-1.954,M,40.593,M,2.9,0123*6F\r\n
$GPGGA,105537.30,5703.4241521,N,00952.3924192,E,2,11,0.9,-1.953,M,40.593,M,2.9,0123*61\r\n
$GPGGA,105537.35,5703.4241449,N,00952.3923245,E,2,11,0.9,-1.954,M,40.593,M,2.9,0123*62\r\n
$GPGGA,105537.40,5703.4241375,N,00952.3922316,E,2,11,0.9,-1.955,M,40.593,M,2.9,0123*6F\r\n
$GPGGA,105537.45,5703.4241298,N,00952.3921380,E,2,11,0.9,-1.956,M,40.593,M,3.1,0123*6E\r\n
$GPGGA,105537.50,5703.4241227,N,00952.3920443,E,2,11,0.9,-1.955,M,40.593,M,3.1,0123*64\r\n
$GPGGA,105537.55,5703.4241150,N,00952.3919500,E,2,11,0.9,-1.957,M,40.593,M,3.1,0123*6C\r\n
$GPGGA,105537.60,5703.4241082,N,00952.3918582,E,2,11,0.9,-1.958,M,40.593,M,3.1,0123*60\r\n
$GPGGA,105537.65,5703.4241006,N,00952.3917650,E,2,11,0.9,-1.954,M,40.593,M,3.3,0123*64\r\n
$GPGGA,105537.70,5703.4240941,N,00952.3916699,E,2,11,0.9,-1.952,M,40.593,M,3.3,0123*69\r\n
$GPGGA,105537.75,5703.4240872,N,00952.3915765,E,2,11,0.9,-1.951,M,40.593,M,3.3,0123*6F\r\n
$GPGGA,105537.80,5703.4240803,N,00952.3914830,E,2,11,0.9,-1.946,M,40.593,M,3.3,0123*6B\r\n
$GPGGA,105537.85,5703.4240718,N,00952.3913904,E,2,11,0.9,-1.948,M,40.593,M,3.5,0123*62\r\n
$GPGGA,105537.90,5703.4240632,N,00952.3912982,E,2,11,0.9,-1.946,M,40.593,M,3.5,0123*6E\r\n
$GPGGA,105537.95,5703.4240542,N,00952.3912068,E,2,11,0.9,-1.947,M,40.593,M,3.5,0123*63\r\n
$GPGGA,105538.00,5703.4240454,N,00952.3911152,E,2,11,0.9,-1.948,M,40.593,M,3.5,0123*62\r\n
$GPGGA,105538.05,5703.4240370,N,00952.3910230,E,2,11,0.9,-1.944,M,40.593,M,3.7,0123*6E\r\n
$GPGGA,105538.10,5703.4240289,N,00952.3909292,E,2,11,0.9,-1.943,M,40.593,M,3.7,0123*6A\r\n
$GPGGA,105538.15,5703.4240200,N,00952.3908343,E,2,11,0.9,-1.941,M,40.593,M,3.7,0123*60\r\n
$GPGGA,105538.20,5703.4240101,N,00952.3907401,E,2,11,0.9,-1.943,M,40.593,M,3.7,0123*68\r\n
$GPGGA,105538.25,5703.4240001,N,00952.3906469,E,2,11,0.9,-1.948,M,40.593,M,3.9,0123*66\r\n
$GPGGA,105538.30,5703.4239901,N,00952.3905563,E,2,11,0.9,-1.954,M,40.593,M,3.9,0123*60\r\n
$GPGGA,105538.35,5703.4239815,N,00952.3904639,E,2,11,0.9,-1.957,M,40.593,M,3.9,0123*6F\r\n
$GPGGA,105538.40,5703.4239723,N,00952.3903700,E,2,11,0.9,-1.956,M,40.593,M,3.9,0123*6A\r\n
$GPGGA,105538.45,5703.4239637,N,00952.3902776,E,2,11,0.9,-1.952,M,40.593,M,2.3,0123*64\r\n
$GPGGA,105538.50,5703.4239540,N,00952.3901839,E,2,11,0.9,-1.953,M,40.593,M,2.3,0123*65\r\n
$GPGGA,105538.55,5703.4239451,N,00952.3900892,E,2,11,0.9,-1.954,M,40.593,M,2.3,0123*66\r\n
$GPGGA,105538.60,5703.4239363,N,00952.3899952,E,2,11,0.9,-1.956,M,40.593,M,2.3,0123*68\r\n
$GPGGA,105538.65,5703.4239264,N,00952.3899007,E,2,11,0.9,-1.957,M,40.593,M,2.5,0123*65\r\n
$GPGGA,105538.70,5703.4239160,N,00952.3898061,E,2,11,0.9,-1.958,M,40.593,M,2.5,0123*68\r\n
$GPGGA,105538.75,5703.4239053,N,00952.3897129,E,2,11,0.9,-1.956,M,40.593,M,2.5,0123*60\r\n
$GPGGA,105538.80,5703.4238944,N,00952.3896199,E,2,11,0.9,-1.956,M,40.593,M,2.5,0123*6E\r\n
$GPGGA,105538.85,5703.4238843,N,00952.3895252,E,2,11,0.9,-1.962,M,40.593,M,2.8,0123*60\r\n
$GPGGA,105538.90,5703.4238746,N,00952.3894307,E,2,11,0.9,-1.965,M,40.593,M,2.8,0123*69\r\n
$GPGGA,105538.95,5703.4238635,N,00952.3893360,E,2,11,0.9,-1.966,M,40.593,M,2.8,0123*6C\r\n
$GPGGA,105539.00,5703.4238533,N,00952.3892412,E,2,11,0.9,-1.965,M,40.593,M,2.8,0123*64\r\n
$GPGGA,105539.05,5703.4238440,N,00952.3891484,E,2,11,0.9,-1.963,M,40.593,M,3.0,0123*67\r\n
$GPGGA,105539.10,5703.4238331,N,00952.3890549,E,2,11,0.9,-1.965,M,40.593,M,3.0,0123*65\r\n
$GPGGA,105539.15,5703.4238219,N,00952.3889604,E,2,11,0.9,-1.967,M,40.593,M,3.0,0123*6B\r\n
$GPGGA,105539.20,5703.4238113,N,00952.3888656,E,2,11,0.9,-1.970,M,40.593,M,3.0,0123*64\r\n
$GPGGA,105539.25,5703.4238009,N,00952.3887704,E,2,11,0.9,-1.963,M,40.593,M,3.2,0123*62\r\n
$GPGGA,105539.30,5703.4237896,N,00952.3886761,E,2,11,0.9,-1.960,M,40.593,M,3.2,0123*66\r\n
$GPGGA,105539.35,5703.4237787,N,00952.3885824,E,2,11,0.9,-1.961,M,40.593,M,3.2,0123*60\r\n
$GPGGA,105539.40,5703.4237685,N,00952.3884870,E,2,11,0.9,-1.962,M,40.593,M,3.2,0123*62\r\n
$GPGGA,105539.45,5703.4237581,N,00952.3883910,E,2,11,0.9,-1.963,M,40.593,M,2.6,0123*64\r\n
$GPGGA,105539.50,5703.4237466,N,00952.3882961,E,2,11,0.9,-1.964,M,40.593,M,2.6,0123*68\r\n
$GPGGA,105539.55,5703.4237347,N,00952.3882012,E,2,11,0.9,-1.966,M,40.593,M,2.6,0123*66\r\n
$GPGGA,105539.60,5703.4237223,N,00952.3881068,E,2,11,0.9,-1.968,M,40.593,M,2.6,0123*63\r\n
$GPGGA,105539.65,5703.4237109,N,00952.3880121,E,2,11,0.9,-1.969,M,40.593,M,2.8,0123*6F\r\n
$GPGGA,105539.70,5703.4236984,N,00952.3879171,E,2,11,0.9,-1.969,M,40.593,M,2.8,0123*64\r\n
$GPGGA,105539.75,5703.4236864,N,00952.3878216,E,2,11,0.9,-1.970,M,40.593,M,2.8,0123*65\r\n
$GPGGA,105539.80,5703.4236743,N,00952.3877270,E,2,11,0.9,-1.971,M,40.593,M,2.8,0123*6B\r\n
$GPGGA,105539.85,5703.4236631,N,00952.3876320,E,2,11,0.9,-1.968,M,40.593,M,3.1,0123*6F\r\n
$GPGGA,105539.90,5703.4236507,N,00952.3875375,E,2,11,0.9,-1.968,M,40.593,M,3.1,0123*6E\r\n
$GPGGA,105539.95,5703.4236386,N,00952.3874425,E,2,11,0.9,-1.968,M,40.593,M,3.1,0123*67\r\n
$GPGGA,105540.00,5703.4236272,N,00952.3873472,E,2,11,0.9,-1.966,M,40.593,M,3.1,0123*64\r\n
$GPGGA,105540.05,5703.4236148,N,00952.3872510,E,2,11,0.9,-1.970,M,40.593,M,3.3,0123*6A\r\n
$GPGGA,105540.10,5703.4236025,N,00952.3871565,E,2,11,0.9,-1.972,M,40.593,M,3.3,0123*67\r\n
$GPGGA,105540.15,5703.4235904,N,00952.3870608,E,2,11,0.9,-1.971,M,40.593,M,3.3,0123*61\r\n
$GPGGA,105540.20,5703.4235788,N,00952.3869647,E,2,11,0.9,-1.972,M,40.593,M,3.3,0123*6D\r\n
$GPGGA,105540.25,5703.4235663,N,00952.3868700,E,2,11,0.9,-1.970,M,40.593,M,3.5,0123*6B\r\n
$GPGGA,105540.30,5703.4235529,N,00952.3867746,E,2,11,0.9,-1.971,M,40.593,M,3.5,0123*6E\r\n
$GPGGA,105540.35,5703.4235387,N,00952.3866803,E,2,11,0.9,-1.973,M,40.593,M,3.5,0123*64\r\n
$GPGGA,105540.40,5703.4235255,N,00952.3865855,E,2,11,0.9,-1.975,M,40.593,M,3.5,0123*6E\r\n
$GPGGA,105540.45,5703.4235124,N,00952.3864906,E,2,11,0.9,-1.972,M,40.593,M,2.0,0123*6B\r\n
$GPGGA,105540.50,5703.4234995,N,00952.3863947,E,2,11,0.9,-1.972,M,40.593,M,2.0,0123*6E\r\n
$GPGGA,105540.55,5703.4234870,N,00952.3862984,E,2,11,0.9,-1.972,M,40.593,M,2.0,0123*6F\r\n
$GPGGA,105540.60,5703.4234740,N,00952.3862041,E,2,11,0.9,-1.973,M,40.593,M,2.0,0123*64\r\n
$GPGGA,105540.65,5703.4234607,N,00952.3861087,E,2,11,0.9,-1.968,M,40.593,M,2.2,0123*62\r\n
$GPGGA,105540.70,5703.4234468,N,00952.3860125,E,2,11,0.9,-1.969,M,40.593,M,2.2,0123*64\r\n
$GPGGA,105540.75,5703.4234328,N,00952.3859186,E,2,11,0.9,-1.969,M,40.593,M,2.2,0123*61\r\n
$GPGGA,105540.80,5703.4234194,N,00952.3858229,E,2,11,0.9,-1.968,M,40.593,M,2.2,0123*68\r\n
$GPGGA,105540.85,5703.4234054,N,00952.3857261,E,2,11,0.9,-1.973,M,40.593,M,2.4,0123*6F\r\n
$GPGGA,105540.90,5703.4233913,N,00952.3856297,E,2,11,0.9,-1.973,M,40.593,M,2.4,0123*6E\r\n
$GPGGA,105540.95,5703.4233775,N,00952.3855337,E,2,11,0.9,-1.974,M,40.593,M,2.4,0123*6A\r\n
$GPGGA,105541.00,5703.4233636,N,00952.3854382,E,2,11,0.9,-1.974,M,40.593,M,2.4,0123*6E\r\n
$GPGGA,105541.05,5703.4233494,N,00952.3853414,E,2,11,0.9,-1.970,M,40.593,M,2.6,0123*68\r\n
$GPGGA,105541.10,5703.4233344,N,00952.3852463,E,2,11,0.9,-1.971,M,40.593,M,2.6,0123*66\r\n
$GPGGA,105541.15,5703.4233202,N,00952.3851511,E,2,11,0.9,-1.971,M,40.593,M,2.6,0123*67\r\n
$GPGGA,105541.20,5703.4233070,N,00952.3850566,E,2,11,0.9,-1.971,M,40.593,M,2.6,0123*67\r\n
$GPGGA,105541.25,5703.4232926,N,00952.3849608,E,2,11,0.9,-1.971,M,40.593,M,2.9,0123*65\r\n
$GPGGA,105541.30,5703.4232774,N,00952.3848640,E,2,11,0.9,-1.972,M,40.593,M,2.9,0123*66\r\n
$GPGGA,105541.35,5703.4232631,N,00952.3847674,E,2,11,0.9,-1.972,M,40.593,M,2.9,0123*6B\r\n
$GPGGA,105541.40,5703.4232487,N,00952.3846723,E,2,11,0.9,-1.970,M,40.593,M,2.9,0123*66\r\n
$GPGGA,105541.45,5703.4232348,N,00952.3845770,E,2,11,0.9,-1.970,M,40.593,M,3.1,0123*6B\r\n
$GPGGA,105541.50,5703.4232204,N,00952.3844823,E,2,11,0.9,-1.970,M,40.593,M,3.1,0123*6E\r\n
$GPGGA,105541.55,5703.4232047,N,00952.3843873,E,2,11,0.9,-1.970,M,40.593,M,3.1,0123*6C\r\n
$GPGGA,105541.60,5703.4231896,N,00952.3842917,E,2,11,0.9,-1.970,M,40.593,M,3.1,0123*6F\r\n
$GPGGA,105541.65,5703.4231751,N,00952.3841956,E,2,11,0.9,-1.971,M,40.593,M,3.3,0123*6B\r\n
$GPGGA,105541.70,5703.4231614,N,00952.3841015,E,2,11,0.9,-1.969,M,40.593,M,3.3,0123*68\r\n
$GPGGA,105541.75,5703.4231468,N,00952.3840050,E,2,11,0.9,-1.969,M,40.593,M,3.3,0123*64\r\n
$GPGGA,105541.80,5703.4231325,N,00952.3839093,E,2,11,0.9,-1.968,M,40.593,M,3.3,0123*60\r\n
$GPGGA,105541.85,5703.4231176,N,00952.3838142,E,2,11,0.9,-1.967,M,40.593,M,3.5,0123*64\r\n
$GPGGA,105541.90,5703.4231020,N,00952.3837184,E,2,11,0.9,-1.969,M,40.593,M,3.5,0123*69\r\n
$GPGGA,105541.95,5703.4230862,N,00952.3836229,E,2,11,0.9,-1.969,M,40.593,M,3.5,0123*66\r\n
$GPGGA,105542.00,5703.4230703,N,00952.3835253,E,2,11,0.9,-1.967,M,40.593,M,3.5,0123*61\r\n
$GPGGA,105542.05,5703.4230554,N,00952.3834285,E,2,11,0.9,-1.968,M,40.593,M,3.7,0123*63\r\n
$GPGGA,105542.10,5703.4230400,N,00952.3833333,E,2,11,0.9,-1.969,M,40.593,M,3.7,0123*6D\r\n
$GPGGA,105542.15,5703.4230237,N,00952.3832368,E,2,11,0.9,-1.970,M,40.593,M,3.7,0123*6D\r\n
$GPGGA,105542.20,5703.4230075,N,00952.3831400,E,2,11,0.9,-1.972,M,40.593,M,3.7,0123*67\r\n
$GPGGA,105542.25,5703.4229909,N,00952.3830449,E,2,11,0.9,-1.974,M,40.593,M,3.9,0123*6C\r\n
$GPGGA,105542.30,5703.4229755,N,00952.3829486,E,2,11,0.9,-1.974,M,40.593,M,3.9,0123*64\r\n
$GPGGA,105542.35,5703.4229605,N,00952.3828529,E,2,11,0.9,-1.976,M,40.593,M,3.9,0123*62\r\n
$GPGGA,105542.40,5703.4229451,N,00952.3827566,E,2,11,0.9,-1.978,M,40.593,M,3.9,0123*69\r\n
$GPGGA,105542.45,5703.4229295,N,00952.3826611,E,2,11,0.9,-1.974,M,40.593,M,2.3,0123*67\r\n
$GPGGA,105542.50,5703.4229142,N,00952.3825639,E,2,11,0.9,-1.974,M,40.593,M,2.3,0123*63\r\n
$GPGGA,105542.55,5703.4228992,N,00952.3824659,E,2,11,0.9,-1.975,M,40.593,M,2.3,0123*64\r\n
$GPGGA,105542.60,5703.4228827,N,00952.3823706,E,2,11,0.9,-1.976,M,40.593,M,2.3,0123*62\r\n
$GPGGA,105542.65,5703.4228674,N,00952.3822753,E,2,11,0.9,-1.972,M,40.593,M,2.5,0123*6C\r\n
$GPGGA,105542.70,5703.4228509,N,00952.3821785,E,2,11,0.9,-1.971,M,40.593,M,2.5,0123*6A\r\n
$GPGGA,105542.75,5703.4228349,N,00952.3820820,E,2,11,0.9,-1.971,M,40.593,M,2.5,0123*6C\r\n
$GPGGA,105542.80,5703.4228191,N,00952.3819858,E,2,11,0.9,-1.970,M,40.593,M,2.5,0123*65\r\n
$GPGGA,105542.85,5703.4228039,N,00952.3818907,E,2,11,0.9,-1.972,M,40.593,M,2.8,0123*66\r\n
$GPGGA,105542.90,5703.4227880,N,00952.3817943,E,2,11,0.9,-1.970,M,40.593,M,2.8,0123*6A\r\n
$GPGGA,105542.95,5703.4227711,N,00952.3816981,E,2,11,0.9,-1.970,M,40.593,M,2.8,0123*67\r\n
$GPGGA,105543.00,5703.4227545,N,00952.3816028,E,2,11,0.9,-1.968,M,40.593,M,2.8,0123*6A\r\n
$GPGGA,105543.05,5703.4227390,N,00952.3815069,E,2,11,0.9,-1.963,M,40.593,M,3.0,0123*65\r\n
$GPGGA,105543.10,5703.4227232,N,00952.3814095,E,2,11,0.9,-1.963,M,40.593,M,3.0,0123*6A\r\n
$GPGGA,105543.15,5703.4227067,N,00952.3813124,E,2,11,0.9,-1.962,M,40.593,M,3.0,0123*60\r\n
$GPGGA,105543.20,5703.4226898,N,00952.3812161,E,2,11,0.9,-1.960,M,40.593,M,3.0,0123*6D\r\n
$GPGGA,105543.25,5703.4226727,N,00952.3811196,E,2,11,0.9,-1.963,M,40.593,M,3.2,0123*69\r\n
$GPGGA,105543.30,5703.4226557,N,00952.3810234,E,2,11,0.9,-1.962,M,40.593,M,3.2,0123*63\r\n
$GPGGA,105543.35,5703.4226371,N,00952.3809281,E,2,11,0.9,-1.964,M,40.593,M,3.2,0123*64\r\n
$GPGGA,105543.40,5703.4226210,N,00952.3808310,E,2,11,0.9,-1.965,M,40.593,M,3.2,0123*69\r\n
$GPGGA,105543.45,5703.4226043,N,00952.3807338,E,2,11,0.9,-1.966,M,40.593,M,0.7,0123*68\r\n
$GPGGA,105543.50,5703.4225871,N,00952.3806384,E,2,11,0.9,-1.966,M,40.593,M,0.7,0123*60\r\n
$GPGGA,105543.55,5703.4225686,N,00952.3805422,E,2,11,0.9,-1.967,M,40.593,M,0.7,0123*6A\r\n
$GPGGA,105543.60,5703.4225516,N,00952.3804468,E,2,11,0.9,-1.970,M,40.593,M,0.7,0123*6F\r\n
$GPGGA,105543.65,5703.4225348,N,00952.3803496,E,2,11,0.9,-1.970,M,40.593,M,1.0,0123*67\r\n
$GPGGA,105543.70,5703.4225177,N,00952.3802531,E,2,11,0.9,-1.969,M,40.593,M,1.0,0123*68\r\n
$GPGGA,105543.75,5703.4225014,N,00952.3801554,E,2,11,0.9,-1.968,M,40.593,M,1.0,0123*68\r\n
$GPGGA,105543.80,5703.4224835,N,00952.3800585,E,2,11,0.9,-1.969,M,40.593,M,1.0,0123*64\r\n
$GPGGA,105543.85,5703.4224669,N,00952.3799628,E,2,11,0.9,-1.968,M,40.593,M,1.3,0123*6F\r\n
$GPGGA,105543.90,5703.4224491,N,00952.3798679,E,2,11,0.9,-1.971,M,40.593,M,1.3,0123*63\r\n
$GPGGA,105543.95,5703.4224318,N,00952.3797722,E,2,11,0.9,-1.970,M,40.593,M,1.3,0123*61\r\n
$GPGGA,105544.00,5703.4224155,N,00952.3796757,E,2,11,0.9,-1.966,M,40.593,M,1.3,0123*65\r\n
$GPGGA,105544.05,5703.4223985,N,00952.3795794,E,2,11,0.9,-1.969,M,40.593,M,1.5,0123*67\r\n
$GPGGA,105544.10,5703.4223814,N,00952.3794819,E,2,11,0.9,-1.968,M,40.593,M,1.5,0123*60\r\n
$GPGGA,105544.15,5703.4223648,N,00952.3793851,E,2,11,0.9,-1.969,M,40.593,M,1.5,0123*68\r\n
$GPGGA,105544.20,5703.4223481,N,00952.3792908,E,2,11,0.9,-1.970,M,40.593,M,1.5,0123*6D\r\n
$GPGGA,105544.25,5703.4223300,N,00952.3791946,E,2,11,0.9,-1.969,M,40.593,M,1.7,0123*65\r\n
$GPGGA,105544.30,5703.4223109,N,00952.3790997,E,2,11,0.9,-1.967,M,40.593,M,1.7,0123*69\r\n
$GPGGA,105544.35,5703.4222925,N,00952.3790039,E,2,11,0.9,-1.967,M,40.593,M,1.7,0123*66\r\n
$GPGGA,105544.40,5703.4222754,N,00952.3789084,E,2,11,0.9,-1.966,M,40.593,M,1.7,0123*63\r\n
$GPGGA,105544.45,5703.4222580,N,00952.3788126,E,2,11,0.9,-1.968,M,40.593,M,2.0,0123*6F\r\n
$GPGGA,105544.50,5703.4222407,N,00952.3787157,E,2,11,0.9,-1.967,M,40.593,M,2.0,0123*63\r\n
$GPGGA,105544.55,5703.4222235,N,00952.3786190,E,2,11,0.9,-1.969,M,40.593,M,2.0,0123*65\r\n
$GPGGA,105544.60,5703.4222052,N,00952.3785225,E,2,11,0.9,-1.970,M,40.593,M,2.0,0123*66\r\n
$GPGGA,105544.65,5703.4221857,N,00952.3784274,E,2,11,0.9,-1.972,M,40.593,M,2.2,0123*68\r\n
$GPGGA,105544.70,5703.4221671,N,00952.3783321,E,2,11,0.9,-1.971,M,40.593,M,2.2,0123*63\r\n
$GPGGA,105544.75,5703.4221497,N,00952.3782362,E,2,11,0.9,-1.970,M,40.593,M,2.2,0123*6B\r\n
$GPGGA,105544.80,5703.4221318,N,00952.3781397,E,2,11,0.9,-1.972,M,40.593,M,2.2,0123*6A\r\n
$GPGGA,105544.85,5703.4221144,N,00952.3780421,E,2,11,0.9,-1.973,M,40.593,M,2.4,0123*68\r\n
$GPGGA,105544.90,5703.4220974,N,00952.3779451,E,2,11,0.9,-1.973,M,40.593,M,2.4,0123*67\r\n
$GPGGA,105544.95,5703.4220799,N,00952.3778504,E,2,11,0.9,-1.974,M,40.593,M,2.4,0123*68\r\n
$GPGGA,105545.00,5703.4220617,N,00952.3777551,E,2,11,0.9,-1.978,M,40.593,M,2.4,0123*61\r\n
$GPGGA,105545.05,5703.4220440,N,00952.3776589,E,2,11,0.9,-1.976,M,40.593,M,2.6,0123*6C\r\n
$GPGGA,105545.10,5703.4220266,N,00952.3775627,E,2,11,0.9,-1.975,M,40.593,M,2.6,0123*6D\r\n
$GPGGA,105545.15,5703.4220085,N,00952.3774669,E,2,11,0.9,-1.970,M,40.593,M,2.6,0123*69\r\n
$GPGGA,105545.20,5703.4219913,N,00952.3773701,E,2,11,0.9,-1.970,M,40.593,M,2.6,0123*6B\r\n
$GPGGA,105545.25,5703.4219734,N,00952.3772728,E,2,11,0.9,-1.972,M,40.593,M,2.9,0123*62\r\n
$GPGGA,105545.30,5703.4219546,N,00952.3771755,E,2,11,0.9,-1.973,M,40.593,M,2.9,0123*69\r\n
$GPGGA,105545.35,5703.4219370,N,00952.3770786,E,2,11,0.9,-1.971,M,40.593,M,2.9,0123*62\r\n
$GPGGA,105545.40,5703.4219180,N,00952.3769819,E,2,11,0.9,-1.971,M,40.593,M,2.9,0123*6C\r\n
$GPGGA,105545.45,5703.4218979,N,00952.3768851,E,2,11,0.9,-1.976,M,40.593,M,0.9,0123*6E\r\n
$GPGGA,105545.50,5703.4218787,N,00952.3767881,E,2,11,0.9,-1.977,M,40.593,M,0.9,0123*66\r\n
$GPGGA,105545.55,5703.4218609,N,00952.3766909,E,2,11,0.9,-1.976,M,40.593,M,0.9,0123*65\r\n
$GPGGA,105545.60,5703.4218433,N,00952.3765948,E,2,11,0.9,-1.977,M,40.593,M,0.9,0123*6F\r\n
$GPGGA,105545.65,5703.4218248,N,00952.3764982,E,2,11,0.9,-1.974,M,40.593,M,1.2,0123*6E\r\n
$GPGGA,105545.70,5703.4218058,N,00952.3764014,E,2,11,0.9,-1.974,M,40.593,M,1.2,0123*6F\r\n
$GPGGA,105545.75,5703.4217866,N,00952.3763060,E,2,11,0.9,-1.972,M,40.593,M,1.2,0123*62\r\n
$GPGGA,105545.80,5703.4217665,N,00952.3762096,E,2,11,0.9,-1.970,M,40.593,M,1.2,0123*6F\r\n
$GPGGA,105545.85,5703.4217472,N,00952.3761131,E,2,11,0.9,-1.971,M,40.593,M,1.5,0123*67\r\n
$GPGGA,105545.90,5703.4217289,N,00952.3760169,E,2,11,0.9,-1.971,M,40.593,M,1.5,0123*6D\r\n
$GPGGA,105545.95,5703.4217110,N,00952.3759192,E,2,11,0.9,-1.971,M,40.593,M,1.5,0123*65\r\n
$GPGGA,105546.00,5703.4216925,N,00952.3758212,E,2,11,0.9,-1.970,M,40.593,M,1.5,0123*6E\r\n
$GPGGA,105546.05,5703.4216734,N,00952.3757248,E,2,11,0.9,-1.968,M,40.593,M,1.8,0123*61\r\n
$GPGGA,105546.10,5703.4216545,N,00952.3756270,E,2,11,0.9,-1.966,M,40.593,M,1.8,0123*65\r\n
$GPGGA,105546.15,5703.4216349,N,00952.3755309,E,2,11,0.9,-1.970,M,40.593,M,1.8,0123*61\r\n
$GPGGA,105546.20,5703.4216161,N,00952.3754334,E,2,11,0.9,-1.973,M,40.593,M,1.8,0123*63\r\n
$GPGGA,105546.25,5703.4215970,N,00952.3753354,E,2,11,0.9,-1.973,M,40.593,M,2.0,0123*67\r\n
$GPGGA,105546.30,5703.4215781,N,00952.3752383,E,2,11,0.9,-1.972,M,40.593,M,2.0,0123*69\r\n
$GPGGA,105546.35,5703.4215597,N,00952.3751405,E,2,11,0.9,-1.971,M,40.593,M,2.0,0123*60\r\n
$GPGGA,105546.40,5703.4215396,N,00952.3750440,E,2,11,0.9,-1.971,M,40.593,M,2.0,0123*65\r\n
$GPGGA,105546.45,5703.4215197,N,00952.3749481,E,2,11,0.9,-1.970,M,40.593,M,1.2,0123*66\r\n
$GPGGA,105546.50,5703.4215005,N,00952.3748505,E,2,11,0.9,-1.971,M,40.593,M,1.2,0123*65\r\n
$GPGGA,105546.55,5703.4214804,N,00952.3747516,E,2,11,0.9,-1.972,M,40.593,M,1.2,0123*66\r\n
$GPGGA,105546.60,5703.4214598,N,00952.3746541,E,2,11,0.9,-1.970,M,40.593,M,1.2,0123*69\r\n
$GPGGA,105546.65,5703.4214402,N,00952.3745585,E,2,11,0.9,-1.969,M,40.593,M,1.5,0123*6A\r\n
$GPGGA,105546.70,5703.4214208,N,00952.3744644,E,2,11,0.9,-1.970,M,40.593,M,1.5,0123*65\r\n
$GPGGA,105546.75,5703.4214019,N,00952.3743670,E,2,11,0.9,-1.968,M,40.593,M,1.5,0123*6B\r\n
$GPGGA,105546.80,5703.4213818,N,00952.3742703,E,2,11,0.9,-1.966,M,40.593,M,1.5,0123*65\r\n
$GPGGA,105546.85,5703.4213618,N,00952.3741748,E,2,11,0.9,-1.966,M,40.593,M,1.8,0123*6F\r\n
$GPGGA,105546.90,5703.4213411,N,00952.3740786,E,2,11,0.9,-1.965,M,40.593,M,1.8,0123*60\r\n
$GPGGA,105546.95,5703.4213211,N,00952.3739824,E,2,11,0.9,-1.967,M,40.593,M,1.8,0123*68\r\n
$GPGGA,105547.00,5703.4213008,N,00952.3738864,E,2,11,0.9,-1.969,M,40.593,M,1.8,0123*64\r\n
$GPGGA,105547.05,5703.4212813,N,00952.3737897,E,2,11,0.9,-1.967,M,40.593,M,2.1,0123*65\r\n
$GPGGA,105547.10,5703.4212611,N,00952.3736942,E,2,11,0.9,-1.964,M,40.593,M,2.1,0123*66\r\n
$GPGGA,105547.15,5703.4212397,N,00952.3735983,E,2,11,0.9,-1.964,M,40.593,M,2.1,0123*66\r\n
$GPGGA,105547.20,5703.4212199,N,00952.3735031,E,2,11,0.9,-1.965,M,40.593,M,2.1,0123*6D\r\n
$GPGGA,105547.25,5703.4211988,N,00952.3734073,E,2,11,0.9,-1.964,M,40.593,M,2.4,0123*60\r\n
$GPGGA,105547.30,5703.4211779,N,00952.3733124,E,2,11,0.9,-1.963,M,40.593,M,2.4,0123*67\r\n
$GPGGA,105547.35,5703.4211571,N,00952.3732169,E,2,11,0.9,-1.963,M,40.593,M,2.4,0123*60\r\n
$GPGGA,105547.40,5703.4211367,N,00952.3731208,E,2,11,0.9,-1.963,M,40.593,M,2.4,0123*64\r\n
$GPGGA,105547.45,5703.4211154,N,00952.3730256,E,2,11,0.9,-1.961,M,40.593,M,0.7,0123*6A\r\n
$GPGGA,105547.50,5703.4210943,N,00952.3729307,E,2,11,0.9,-1.962,M,40.593,M,0.7,0123*6F\r\n
$GPGGA,105547.55,5703.4210737,N,00952.3728372,E,2,11,0.9,-1.962,M,40.593,M,0.7,0123*64\r\n
$GPGGA,105547.60,5703.4210517,N,00952.3727438,E,2,11,0.9,-1.963,M,40.593,M,0.7,0123*65\r\n
$GPGGA,105547.65,5703.4210303,N,00952.3726492,E,2,11,0.9,-1.969,M,40.593,M,1.0,0123*6E\r\n
$GPGGA,105547.70,5703.4210097,N,00952.3725533,E,2,11,0.9,-1.970,M,40.593,M,1.0,0123*65\r\n
$GPGGA,105547.75,5703.4209878,N,00952.3724600,E,2,11,0.9,-1.971,M,40.593,M,1.0,0123*62\r\n
$GPGGA,105547.80,5703.4209665,N,00952.3723666,E,2,11,0.9,-1.974,M,40.593,M,1.0,0123*68\r\n
$GPGGA,105547.85,5703.4209461,N,00952.3722702,E,2,11,0.9,-1.971,M,40.593,M,1.3,0123*6F\r\n
$GPGGA,105547.90,5703.4209263,N,00952.3721750,E,2,11,0.9,-1.973,M,40.593,M,1.3,0123*69\r\n
$GPGGA,105547.95,5703.4209051,N,00952.3720808,E,2,11,0.9,-1.972,M,40.593,M,1.3,0123*6D\r\n
$GPGGA,105548.00,5703.4208827,N,00952.3719880,E,2,11,0.9,-1.973,M,40.593,M,1.3,0123*6D\r\n
$GPGGA,105548.05,5703.4208611,N,00952.3718931,E,2,11,0.9,-1.971,M,40.593,M,1.5,0123*6D\r\n
$GPGGA,105548.10,5703.4208399,N,00952.3717983,E,2,11,0.9,-1.969,M,40.593,M,1.5,0123*63\r\n
$GPGGA,105548.15,5703.4208183,N,00952.3717050,E,2,11,0.9,-1.969,M,40.593,M,1.5,0123*68\r\n
$GPGGA,105548.20,5703.4207967,N,00952.3716113,E,2,11,0.9,-1.970,M,40.593,M,1.5,0123*6C\r\n
$GPGGA,105548.25,5703.4207751,N,00952.3715175,E,2,11,0.9,-1.971,M,40.593,M,1.7,0123*62\r\n
$GPGGA,105548.30,5703.4207528,N,00952.3714247,E,2,11,0.9,-1.970,M,40.593,M,1.7,0123*68\r\n
$GPGGA,105548.35,5703.4207306,N,00952.3713306,E,2,11,0.9,-1.966,M,40.593,M,1.7,0123*63\r\n
$GPGGA,105548.40,5703.4207084,N,00952.3712376,E,2,11,0.9,-1.964,M,40.593,M,1.7,0123*6C\r\n
$GPGGA,105548.45,5703.4206861,N,00952.3711442,E,2,11,0.9,-1.967,M,40.593,M,2.0,0123*6F\r\n
$GPGGA,105548.50,5703.4206636,N,00952.3710506,E,2,11,0.9,-1.967,M,40.593,M,2.0,0123*67\r\n
$GPGGA,105548.55,5703.4206410,N,00952.3709583,E,2,11,0.9,-1.968,M,40.593,M,2.0,0123*6E\r\n
$GPGGA,105548.60,5703.4206184,N,00952.3708647,E,2,11,0.9,-1.968,M,40.593,M,2.0,0123*6A\r\n
$GPGGA,105548.65,5703.4205964,N,00952.3707709,E,2,11,0.9,-1.970,M,40.593,M,2.2,0123*65\r\n
$GPGGA,105548.70,5703.4205743,N,00952.3706792,E,2,11,0.9,-1.970,M,40.593,M,2.2,0123*69\r\n
$GPGGA,105548.75,5703.4205522,N,00952.3705875,E,2,11,0.9,-1.969,M,40.593,M,2.2,0123*64\r\n
$GPGGA,105548.80,5703.4205300,N,00952.3704953,E,2,11,0.9,-1.968,M,40.593,M,2.2,0123*6D\r\n
$GPGGA,105548.85,5703.4205067,N,00952.3704034,E,2,11,0.9,-1.971,M,40.593,M,2.4,0123*6C\r\n
$GPGGA,105548.90,5703.4204844,N,00952.3703102,E,2,11,0.9,-1.971,M,40.593,M,2.4,0123*63\r\n
$GPGGA,105548.95,5703.4204627,N,00952.3702169,E,2,11,0.9,-1.972,M,40.593,M,2.4,0123*62\r\n
$GPGGA,105549.00,5703.4204407,N,00952.3701238,E,2,11,0.9,-1.972,M,40.593,M,2.4,0123*6B\r\n
$GPGGA,105549.05,5703.4204204,N,00952.3700304,E,2,11,0.9,-1.966,M,40.593,M,2.6,0123*63\r\n
$GPGGA,105549.10,5703.4203980,N,00952.3699372,E,2,11,0.9,-1.966,M,40.593,M,2.6,0123*67\r\n
$GPGGA,105549.15,5703.4203754,N,00952.3698450,E,2,11,0.9,-1.967,M,40.593,M,2.6,0123*62\r\n
$GPGGA,105549.20,5703.4203529,N,00952.3697523,E,2,11,0.9,-1.968,M,40.593,M,2.6,0123*69\r\n
$GPGGA,105549.25,5703.4203302,N,00952.3696611,E,2,11,0.9,-1.972,M,40.593,M,2.9,0123*64\r\n
$GPGGA,105549.30,5703.4203077,N,00952.3695697,E,2,11,0.9,-1.971,M,40.593,M,2.9,0123*6F\r\n
$GPGGA,105549.35,5703.4202855,N,00952.3694768,E,2,11,0.9,-1.971,M,40.593,M,2.9,0123*63\r\n
$GPGGA,105549.40,5703.4202629,N,00952.3693841,E,2,11,0.9,-1.969,M,40.593,M,2.9,0123*6E\r\n
$GPGGA,105549.45,5703.4202400,N,00952.3692902,E,2,11,0.9,-1.967,M,40.593,M,3.1,0123*62\r\n
$GPGGA,105549.50,5703.4202159,N,00952.3691985,E,2,11,0.9,-1.969,M,40.593,M,3.1,0123*6D\r\n
$GPGGA,105549.55,5703.4201927,N,00952.3691073,E,2,11,0.9,-1.970,M,40.593,M,3.1,0123*62\r\n
$GPGGA,105549.60,5703.4201686,N,00952.3690169,E,2,11,0.9,-1.973,M,40.593,M,3.1,0123*68\r\n
$GPGGA,105549.65,5703.4201454,N,00952.3689248,E,2,11,0.9,-1.978,M,40.593,M,3.3,0123*61\r\n
$GPGGA,105549.70,5703.4201235,N,00952.3688323,E,2,11,0.9,-1.977,M,40.593,M,3.3,0123*66\r\n
$GPGGA,105549.75,5703.4201013,N,00952.3687408,E,2,11,0.9,-1.975,M,40.593,M,3.3,0123*66\r\n
$GPGGA,105549.80,5703.4200781,N,00952.3686492,E,2,11,0.9,-1.976,M,40.593,M,3.3,0123*60\r\n
$GPGGA,105549.85,5703.4200553,N,00952.3685582,E,2,11,0.9,-1.976,M,40.593,M,3.5,0123*6D\r\n
$GPGGA,105549.90,5703.4200323,N,00952.3684659,E,2,11,0.9,-1.977,M,40.593,M,3.5,0123*6D\r\n
$GPGGA,105549.95,5703.4200093,N,00952.3683747,E,2,11,0.9,-1.976,M,40.593,M,3.5,0123*68\r\n
$GPGGA,105550.00,5703.4199862,N,00952.3682827,E,2,11,0.9,-1.976,M,40.593,M,3.5,0123*61\r\n
$GPGGA,105550.05,5703.4199641,N,00952.3681919,E,2,11,0.9,-1.970,M,40.593,M,3.7,0123*60\r\n
$GPGGA,105550.10,5703.4199418,N,00952.3681013,E,2,11,0.9,-1.970,M,40.593,M,3.7,0123*69\r\n
$GPGGA,105550.15,5703.4199187,N,00952.3680096,E,2,11,0.9,-1.971,M,40.593,M,3.7,0123*62\r\n
$GPGGA,105550.20,5703.4198945,N,00952.3679176,E,2,11,0.9,-1.972,M,40.593,M,3.7,0123*69\r\n
$GPGGA,105550.25,5703.4198705,N,00952.3678271,E,2,11,0.9,-1.971,M,40.593,M,3.9,0123*6E\r\n
$GPGGA,105550.30,5703.4198467,N,00952.3677354,E,2,11,0.9,-1.971,M,40.593,M,3.9,0123*64\r\n
$GPGGA,105550.35,5703.4198233,N,00952.3676453,E,2,11,0.9,-1.972,M,40.593,M,3.9,0123*64\r\n
$GPGGA,105550.40,5703.4197988,N,00952.3675557,E,2,11,0.9,-1.972,M,40.593,M,3.9,0123*64\r\n
$GPGGA,105550.45,5703.4197761,N,00952.3674651,E,2,11,0.9,-1.968,M,40.593,M,2.3,0123*6C\r\n
$GPGGA,105550.50,5703.4197522,N,00952.3673745,E,2,11,0.9,-1.967,M,40.593,M,2.3,0123*61\r\n
$GPGGA,105550.55,5703.4197275,N,00952.3672835,E,2,11,0.9,-1.968,M,40.593,M,2.3,0123*67\r\n
$GPGGA,105550.60,5703.4197035,N,00952.3671938,E,2,11,0.9,-1.970,M,40.593,M,2.3,0123*61\r\n
$GPGGA,105550.65,5703.4196799,N,00952.3671044,E,2,11,0.9,-1.973,M,40.593,M,2.5,0123*63\r\n
$GPGGA,105550.70,5703.4196568,N,00952.3670140,E,2,11,0.9,-1.973,M,40.593,M,2.5,0123*6F\r\n
$GPGGA,105550.75,5703.4196326,N,00952.3669229,E,2,11,0.9,-1.973,M,40.593,M,2.5,0123*62\r\n
$GPGGA,105550.80,5703.4196085,N,00952.3668327,E,2,11,0.9,-1.975,M,40.593,M,2.5,0123*6A\r\n
$GPGGA,105550.85,5703.4195837,N,00952.3667429,E,2,11,0.9,-1.976,M,40.593,M,2.8,0123*65\r\n
$GPGGA,105550.90,5703.4195605,N,00952.3666518,E,2,11,0.9,-1.975,M,40.593,M,2.8,0123*6F\r\n
$GPGGA,105550.95,5703.4195370,N,00952.3665620,E,2,11,0.9,-1.975,M,40.593,M,2.8,0123*66\r\n
$GPGGA,105551.00,5703.4195124,N,00952.3664703,E,2,11,0.9,-1.976,M,40.593,M,2.8,0123*6A\r\n
$GPGGA,105551.05,5703.4194886,N,00952.3663802,E,2,11,0.9,-1.977,M,40.593,M,3.0,0123*6E\r\n
$GPGGA,105551.10,5703.4194640,N,00952.3662914,E,2,11,0.9,-1.976,M,40.593,M,3.0,0123*68\r\n
$GPGGA,105551.15,5703.4194395,N,00952.3662024,E,2,11,0.9,-1.977,M,40.593,M,3.0,0123*6B\r\n
$GPGGA,105551.20,5703.4194134,N,00952.3661128,E,2,11,0.9,-1.978,M,40.593,M,3.0,0123*65\r\n
$GPGGA,105551.25,5703.4193876,N,00952.3660223,E,2,11,0.9,-1.980,M,40.593,M,3.2,0123*64\r\n
$GPGGA,105551.30,5703.4193624,N,00952.3659320,E,2,11,0.9,-1.983,M,40.593,M,3.2,0123*62\r\n
$GPGGA,105551.35,5703.4193388,N,00952.3658425,E,2,11,0.9,-1.981,M,40.593,M,3.2,0123*65\r\n
$GPGGA,105551.40,5703.4193137,N,00952.3657532,E,2,11,0.9,-1.985,M,40.593,M,3.2,0123*6D\r\n
$GPGGA,105551.45,5703.4192891,N,00952.3656645,E,2,11,0.9,-1.977,M,40.593,M,2.6,0123*66\r\n
$GPGGA,105551.50,5703.4192643,N,00952.3655744,E,2,11,0.9,-1.976,M,40.593,M,2.6,0123*61\r\n
$GPGGA,105551.55,5703.4192381,N,00952.3654842,E,2,11,0.9,-1.977,M,40.593,M,2.6,0123*66\r\n
$GPGGA,105551.60,5703.4192119,N,00952.3653958,E,2,11,0.9,-1.975,M,40.593,M,2.6,0123*6C\r\n
$GPGGA,105551.65,5703.4191854,N,00952.3653067,E,2,11,0.9,-1.981,M,40.593,M,2.8,0123*6A\r\n
$GPGGA,105551.70,5703.4191600,N,00952.3652174,E,2,11,0.9,-1.981,M,40.593,M,2.8,0123*63\r\n
$GPGGA,105551.75,5703.4191354,N,00952.3651263,E,2,11,0.9,-1.980,M,40.593,M,2.8,0123*65\r\n
$GPGGA,105551.80,5703.4191110,N,00952.3650357,E,2,11,0.9,-1.980,M,40.593,M,2.8,0123*6A\r\n
$GPGGA,105551.85,5703.4190855,N,00952.3649457,E,2,11,0.9,-1.979,M,40.593,M,3.1,0123*67\r\n
$GPGGA,105551.90,5703.4190587,N,00952.3648568,E,2,11,0.9,-1.981,M,40.593,M,3.1,0123*6A\r\n
$GPGGA,105551.95,5703.4190339,N,00952.3647660,E,2,11,0.9,-1.982,M,40.593,M,3.1,0123*6B\r\n
$GPGGA,105552.00,5703.4190080,N,00952.3646756,E,2,11,0.9,-1.983,M,40.593,M,3.1,0123*61\r\n
$GPGGA,105552.05,5703.4189826,N,00952.3645876,E,2,11,0.9,-1.979,M,40.593,M,3.3,0123*61\r\n
$GPGGA,105552.10,5703.4189556,N,00952.3644974,E,2,11,0.9,-1.978,M,40.593,M,3.3,0123*6C\r\n
$GPGGA,105552.15,5703.4189289,N,00952.3644081,E,2,11,0.9,-1.979,M,40.593,M,3.3,0123*6E\r\n
$GPGGA,105552.20,5703.4189038,N,00952.3643188,E,2,11,0.9,-1.980,M,40.593,M,3.3,0123*69\r\n
$GPGGA,105552.25,5703.4188791,N,00952.3642289,E,2,11,0.9,-1.975,M,40.593,M,3.5,0123*66\r\n
$GPGGA,105552.30,5703.4188533,N,00952.3641374,E,2,11,0.9,-1.974,M,40.593,M,3.5,0123*69\r\n
$GPGGA,105552.35,5703.4188271,N,00952.3640465,E,2,11,0.9,-1.976,M,40.593,M,3.5,0123*69\r\n
$GPGGA,105552.40,5703.4188001,N,00952.3639577,E,2,11,0.9,-1.976,M,40.593,M,3.5,0123*62\r\n
$GPGGA,105552.45,5703.4187740,N,00952.3638686,E,2,11,0.9,-1.974,M,40.593,M,2.0,0123*60\r\n
$GPGGA,105552.50,5703.4187479,N,00952.3637785,E,2,11,0.9,-1.972,M,40.593,M,2.0,0123*66\r\n
$GPGGA,105552.55,5703.4187208,N,00952.3636885,E,2,11,0.9,-1.973,M,40.593,M,2.0,0123*6C\r\n
$GPGGA,105552.60,5703.4186946,N,00952.3635989,E,2,11,0.9,-1.976,M,40.593,M,2.0,0123*61\r\n
$GPGGA,105552.65,5703.4186689,N,00952.3635089,E,2,11,0.9,-1.975,M,40.593,M,2.2,0123*60\r\n
$GPGGA,105552.70,5703.4186428,N,00952.3634193,E,2,11,0.9,-1.972,M,40.593,M,2.2,0123*61\r\n
$GPGGA,105552.75,5703.4186161,N,00952.3633317,E,2,11,0.9,-1.969,M,40.593,M,2.2,0123*6F\r\n
$GPGGA,105552.80,5703.4185891,N,00952.3632434,E,2,11,0.9,-1.968,M,40.593,M,2.2,0123*66\r\n
$GPGGA,105552.85,5703.4185623,N,00952.3631543,E,2,11,0.9,-1.967,M,40.593,M,2.4,0123*6F\r\n
$GPGGA,105552.90,5703.4185354,N,00952.3630634,E,2,11,0.9,-1.968,M,40.593,M,2.4,0123*63\r\n
$GPGGA,105552.95,5703.4185082,N,00952.3629758,E,2,11,0.9,-1.968,M,40.593,M,2.4,0123*6D\r\n
$GPGGA,105553.00,5703.4184808,N,00952.3628873,E,2,11,0.9,-1.969,M,40.593,M,2.4,0123*6D\r\n
$GPGGA,105553.05,5703.4184539,N,00952.3628005,E,2,11,0.9,-1.966,M,40.593,M,2.6,0123*63\r\n
$GPGGA,105553.10,5703.4184258,N,00952.3627133,E,2,11,0.9,-1.967,M,40.593,M,2.6,0123*6D\r\n
$GPGGA,105553.15,5703.4183987,N,00952.3626246,E,2,11,0.9,-1.966,M,40.593,M,2.6,0123*67\r\n
$GPGGA,105553.20,5703.4183724,N,00952.3625370,E,2,11,0.9,-1.963,M,40.593,M,2.6,0123*64\r\n
$GPGGA,105553.25,5703.4183448,N,00952.3624490,E,2,11,0.9,-1.963,M,40.593,M,2.9,0123*6F\r\n
$GPGGA,105553.30,5703.4183175,N,00952.3623611,E,2,11,0.9,-1.963,M,40.593,M,2.9,0123*6C\r\n
$GPGGA,105553.35,5703.4182903,N,00952.3622727,E,2,11,0.9,-1.963,M,40.593,M,2.9,0123*64\r\n
$GPGGA,105553.40,5703.4182625,N,00952.3621868,E,2,11,0.9,-1.965,M,40.593,M,2.9,0123*6C\r\n
$GPGGA,105553.45,5703.4182341,N,00952.3621010,E,2,11,0.9,-1.965,M,40.593,M,3.1,0123*60\r\n
$GPGGA,105553.50,5703.4182067,N,00952.3620138,E,2,11,0.9,-1.964,M,40.593,M,3.1,0123*68\r\n
$GPGGA,105553.55,5703.4181789,N,00952.3619260,E,2,11,0.9,-1.964,M,40.593,M,3.1,0123*6D\r\n
$GPGGA,105553.60,5703.4181510,N,00952.3618389,E,2,11,0.9,-1.966,M,40.593,M,3.1,0123*6C\r\n
$GPGGA,105553.65,5703.4181234,N,00952.3617523,E,2,11,0.9,-1.965,M,40.593,M,3.3,0123*60\r\n
$GPGGA,105553.70,5703.4180954,N,00952.3616648,E,2,11,0.9,-1.965,M,40.593,M,3.3,0123*67\r\n
$GPGGA,105553.75,5703.4180675,N,00952.3615789,E,2,11,0.9,-1.966,M,40.593,M,3.3,0123*62\r\n
$GPGGA,105553.80,5703.4180398,N,00952.3614923,E,2,11,0.9,-1.967,M,40.593,M,3.3,0123*60\r\n
$GPGGA,105553.85,5703.4180120,N,00952.3614064,E,2,11,0.9,-1.971,M,40.593,M,3.5,0123*6F\r\n
$GPGGA,105553.90,5703.4179828,N,00952.3613213,E,2,11,0.9,-1.971,M,40.593,M,3.5,0123*69\r\n
$GPGGA,105553.95,5703.4179547,N,00952.3612368,E,2,11,0.9,-1.969,M,40.593,M,3.5,0123*6D\r\n
$GPGGA,105554.00,5703.4179263,N,00952.3611514,E,2,11,0.9,-1.970,M,40.593,M,3.5,0123*61\r\n
$GPGGA,105554.05,5703.4178996,N,00952.3610669,E,2,11,0.9,-1.968,M,40.593,M,3.7,0123*67\r\n
$GPGGA,105554.10,5703.4178716,N,00952.3609829,E,2,11,0.9,-1.968,M,40.593,M,3.7,0123*67\r\n
$GPGGA,105554.15,5703.4178434,N,00952.3608989,E,2,11,0.9,-1.969,M,40.593,M,3.7,0123*6A\r\n
$GPGGA,105554.20,5703.4178149,N,00952.3608154,E,2,11,0.9,-1.969,M,40.593,M,3.7,0123*6B\r\n
$GPGGA,105554.25,5703.4177865,N,00952.3607302,E,2,11,0.9,-1.965,M,40.593,M,3.9,0123*6A\r\n
$GPGGA,105554.30,5703.4177581,N,00952.3606457,E,2,11,0.9,-1.965,M,40.593,M,3.9,0123*6F\r\n
$GPGGA,105554.35,5703.4177303,N,00952.3605609,E,2,11,0.9,-1.965,M,40.593,M,3.9,0123*6C\r\n
$GPGGA,105554.40,5703.4177019,N,00952.3604765,E,2,11,0.9,-1.966,M,40.593,M,3.9,0123*6F\r\n
$GPGGA,105554.45,5703.4176731,N,00952.3603936,E,2,11,0.9,-1.971,M,40.593,M,1.2,0123*66\r\n
$GPGGA,105554.50,5703.4176454,N,00952.3603101,E,2,11,0.9,-1.971,M,40.593,M,1.2,0123*6E\r\n
$GPGGA,105554.55,5703.4176158,N,00952.3602258,E,2,11,0.9,-1.971,M,40.593,M,1.2,0123*6C\r\n
$GPGGA,105554.60,5703.4175860,N,00952.3601431,E,2,11,0.9,-1.973,M,40.593,M,1.2,0123*63\r\n
$GPGGA,105554.65,5703.4175578,N,00952.3600595,E,2,11,0.9,-1.971,M,40.593,M,1.5,0123*69\r\n
$GPGGA,105554.70,5703.4175290,N,00952.3599750,E,2,11,0.9,-1.973,M,40.593,M,1.5,0123*66\r\n
$GPGGA,105554.75,5703.4175002,N,00952.3598913,E,2,11,0.9,-1.971,M,40.593,M,1.5,0123*60\r\n
$GPGGA,105554.80,5703.4174712,N,00952.3598078,E,2,11,0.9,-1.972,M,40.593,M,1.5,0123*6A\r\n
$GPGGA,105554.85,5703.4174415,N,00952.3597252,E,2,11,0.9,-1.972,M,40.593,M,1.8,0123*63\r\n
$GPGGA,105554.90,5703.4174109,N,00952.3596439,E,2,11,0.9,-1.972,M,40.593,M,1.8,0123*65\r\n
$GPGGA,105554.95,5703.4173818,N,00952.3595604,E,2,11,0.9,-1.972,M,40.593,M,1.8,0123*61\r\n
$GPGGA,105555.00,5703.4173530,N,00952.3594767,E,2,11,0.9,-1.974,M,40.593,M,1.8,0123*68\r\n
$GPGGA,105555.05,5703.4173247,N,00952.3593916,E,2,11,0.9,-1.977,M,40.593,M,2.1,0123*6C\r\n
$GPGGA,105555.10,5703.4172965,N,00952.3593081,E,2,11,0.9,-1.977,M,40.593,M,2.1,0123*65\r\n
$GPGGA,105555.15,5703.4172667,N,00952.3592265,E,2,11,0.9,-1.976,M,40.593,M,2.1,0123*65\r\n
$GPGGA,105555.20,5703.4172365,N,00952.3591450,E,2,11,0.9,-1.977,M,40.593,M,2.1,0123*66\r\n
$GPGGA,105555.25,5703.4172070,N,00952.3590622,E,2,11,0.9,-1.974,M,40.593,M,2.4,0123*64\r\n
$GPGGA,105555.30,5703.4171781,N,00952.3589795,E,2,11,0.9,-1.974,M,40.593,M,2.4,0123*6F\r\n
$GPGGA,105555.35,5703.4171497,N,00952.3588969,E,2,11,0.9,-1.976,M,40.593,M,2.4,0123*60\r\n
$GPGGA,105555.40,5703.4171202,N,00952.3588152,E,2,11,0.9,-1.974,M,40.593,M,2.4,0123*6A\r\n
$GPGGA,105555.45,5703.4170901,N,00952.3587330,E,2,11,0.9,-1.977,M,40.593,M,0.7,0123*6D\r\n
$GPGGA,105555.50,5703.4170596,N,00952.3586500,E,2,11,0.9,-1.977,M,40.593,M,0.7,0123*6F\r\n
$GPGGA,105555.55,5703.4170293,N,00952.3585684,E,2,11,0.9,-1.976,M,40.593,M,0.7,0123*65\r\n
$GPGGA,105555.60,5703.4169996,N,00952.3584857,E,2,11,0.9,-1.974,M,40.593,M,0.7,0123*66\r\n
$GPGGA,105555.65,5703.4169698,N,00952.3584024,E,2,11,0.9,-1.976,M,40.593,M,1.0,0123*6A\r\n
$GPGGA,105555.70,5703.4169391,N,00952.3583195,E,2,11,0.9,-1.979,M,40.593,M,1.0,0123*61\r\n
$GPGGA,105555.75,5703.4169089,N,00952.3582355,E,2,11,0.9,-1.981,M,40.593,M,1.0,0123*66\r\n
$GPGGA,105555.80,5703.4168780,N,00952.3581537,E,2,11,0.9,-1.982,M,40.593,M,1.0,0123*61\r\n
$GPGGA,105555.85,5703.4168473,N,00952.3580731,E,2,11,0.9,-1.978,M,40.593,M,1.3,0123*68\r\n
$GPGGA,105555.90,5703.4168172,N,00952.3579910,E,2,11,0.9,-1.978,M,40.593,M,1.3,0123*63\r\n
$GPGGA,105555.95,5703.4167869,N,00952.3579085,E,2,11,0.9,-1.977,M,40.593,M,1.3,0123*60\r\n
$GPGGA,105556.00,5703.4167580,N,00952.3578273,E,2,11,0.9,-1.974,M,40.593,M,1.3,0123*6C\r\n
$GPGGA,105556.05,5703.4167278,N,00952.3577463,E,2,11,0.9,-1.976,M,40.593,M,1.5,0123*65\r\n
$GPGGA,105556.10,5703.4166990,N,00952.3576645,E,2,11,0.9,-1.980,M,40.593,M,1.5,0123*63\r\n
$GPGGA,105556.15,5703.4166698,N,00952.3575842,E,2,11,0.9,-1.985,M,40.593,M,1.5,0123*6E\r\n
$GPGGA,105556.20,5703.4166412,N,00952.3575061,E,2,11,0.9,-1.989,M,40.593,M,1.5,0123*6D\r\n
$GPGGA,105556.25,5703.4166117,N,00952.3574304,E,2,11,0.9,-1.994,M,40.593,M,1.7,0123*67\r\n
$GPGGA,105556.30,5703.4165827,N,00952.3573553,E,2,11,0.9,-1.996,M,40.593,M,1.7,0123*6B\r\n
$GPGGA,105556.35,5703.4165547,N,00952.3572811,E,2,11,0.9,-2.000,M,40.593,M,1.7,0123*6A\r\n
$GPGGA,105556.40,5703.4165277,N,00952.3572058,E,2,11,0.9,-2.003,M,40.593,M,1.7,0123*6A\r\n
$GPGGA,105556.45,5703.4165011,N,00952.3571308,E,2,11,0.9,-2.012,M,40.593,M,2.0,0123*6C\r\n
$GPGGA,105556.50,5703.4164743,N,00952.3570582,E,2,11,0.9,-2.019,M,40.593,M,2.0,0123*67\r\n
$GPGGA,105556.55,5703.4164468,N,00952.3569881,E,2,11,0.9,-2.023,M,40.593,M,2.0,0123*67\r\n
$GPGGA,105556.60,5703.4164192,N,00952.3569196,E,2,11,0.9,-2.025,M,40.593,M,2.0,0123*68\r\n
$GPGGA,105556.65,5703.4163928,N,00952.3568487,E,2,11,0.9,-2.028,M,40.593,M,2.2,0123*68\r\n
$GPGGA,105556.70,5703.4163674,N,00952.3567794,E,2,11,0.9,-2.033,M,40.593,M,2.2,0123*6E\r\n
$GPGGA,105556.75,5703.4163425,N,00952.3567105,E,2,11,0.9,-2.038,M,40.593,M,2.2,0123*68\r\n
$GPGGA,105556.80,5703.4163183,N,00952.3566409,E,2,11,0.9,-2.043,M,40.593,M,2.2,0123*6F\r\n
$GPGGA,105556.85,5703.4162947,N,00952.3565720,E,2,11,0.9,-2.044,M,40.593,M,2.4,0123*61\r\n
$GPGGA,105556.90,5703.4162706,N,00952.3565048,E,2,11,0.9,-2.045,M,40.593,M,2.4,0123*66\r\n
$GPGGA,105556.95,5703.4162469,N,00952.3564380,E,2,11,0.9,-2.048,M,40.593,M,2.4,0123*62\r\n
$GPGGA,105557.00,5703.4162228,N,00952.3563712,E,2,11,0.9,-2.050,M,40.593,M,2.4,0123*6D\r\n
$GPGGA,105557.05,5703.4161995,N,00952.3563049,E,2,11,0.9,-2.049,M,40.593,M,2.6,0123*65\r\n
$GPGGA,105557.10,5703.4161761,N,00952.3562391,E,2,11,0.9,-2.051,M,40.593,M,2.6,0123*6A\r\n
$GPGGA,105557.15,5703.4161514,N,00952.3561743,E,2,11,0.9,-2.053,M,40.593,M,2.6,0123*65\r\n
$GPGGA,105557.20,5703.4161282,N,00952.3561095,E,2,11,0.9,-2.056,M,40.593,M,2.6,0123*62\r\n
$GPGGA,105557.25,5703.4161052,N,00952.3560457,E,2,11,0.9,-2.054,M,40.593,M,2.9,0123*6E\r\n
$GPGGA,105557.30,5703.4160826,N,00952.3559810,E,2,11,0.9,-2.054,M,40.593,M,2.9,0123*65\r\n
$GPGGA,105557.35,5703.4160594,N,00952.3559156,E,2,11,0.9,-2.055,M,40.593,M,2.9,0123*6E\r\n
$GPGGA,105557.40,5703.4160367,N,00952.3558509,E,2,11,0.9,-2.057,M,40.593,M,2.9,0123*6B\r\n
$GPGGA,105557.45,5703.4160152,N,00952.3557871,E,2,11,0.9,-2.052,M,40.593,M,0.9,0123*60\r\n
$GPGGA,105557.50,5703.4159935,N,00952.3557236,E,2,11,0.9,-2.054,M,40.593,M,0.9,0123*68\r\n
$GPGGA,105557.55,5703.4159711,N,00952.3556592,E,2,11,0.9,-2.051,M,40.593,M,0.9,0123*68\r\n
$GPGGA,105557.60,5703.4159493,N,00952.3555967,E,2,11,0.9,-2.047,M,40.593,M,0.9,0123*65\r\n
$GPGGA,105557.65,5703.4159270,N,00952.3555343,E,2,11,0.9,-2.049,M,40.593,M,1.2,0123*63\r\n
$GPGGA,105557.70,5703.4159050,N,00952.3554708,E,2,11,0.9,-2.051,M,40.593,M,1.2,0123*64\r\n
$GPGGA,105557.75,5703.4158822,N,00952.3554079,E,2,11,0.9,-2.051,M,40.593,M,1.2,0123*6C\r\n
$GPGGA,105557.80,5703.4158604,N,00952.3553451,E,2,11,0.9,-2.052,M,40.593,M,1.2,0123*66\r\n
$GPGGA,105557.85,5703.4158392,N,00952.3552816,E,2,11,0.9,-2.051,M,40.593,M,1.5,0123*63\r\n
$GPGGA,105557.90,5703.4158188,N,00952.3552194,E,2,11,0.9,-2.049,M,40.593,M,1.5,0123*64\r\n
$GPGGA,105557.95,5703.4157977,N,00952.3551570,E,2,11,0.9,-2.050,M,40.593,M,1.5,0123*63\r\n
$GPGGA,105558.00,5703.4157770,N,00952.3550948,E,2,11,0.9,-2.049,M,40.593,M,1.5,0123*67\r\n
$GPGGA,105558.05,5703.4157563,N,00952.3550313,E,2,11,0.9,-2.046,M,40.593,M,1.8,0123*64\r\n
$GPGGA,105558.10,5703.4157352,N,00952.3549686,E,2,11,0.9,-2.048,M,40.593,M,1.8,0123*6B\r\n
$GPGGA,105558.15,5703.4157150,N,00952.3549071,E,2,11,0.9,-2.046,M,40.593,M,1.8,0123*6E\r\n
$GPGGA,105558.20,5703.4156944,N,00952.3548474,E,2,11,0.9,-2.046,M,40.593,M,1.8,0123*64\r\n
$GPGGA,105558.25,5703.4156742,N,00952.3547875,E,2,11,0.9,-2.042,M,40.593,M,2.0,0123*64\r\n
$GPGGA,105558.30,5703.4156543,N,00952.3547258,E,2,11,0.9,-2.039,M,40.593,M,2.0,0123*6A\r\n
$GPGGA,105558.35,5703.4156348,N,00952.3546634,E,2,11,0.9,-2.036,M,40.593,M,2.0,0123*62\r\n
$GPGGA,105558.40,5703.4156153,N,00952.3546011,E,2,11,0.9,-2.035,M,40.593,M,2.0,0123*6A\r\n
$GPGGA,105558.45,5703.4155958,N,00952.3545409,E,2,11,0.9,-2.036,M,40.593,M,1.2,0123*63\r\n
$GPGGA,105558.50,5703.4155761,N,00952.3544802,E,2,11,0.9,-2.035,M,40.593,M,1.2,0123*66\r\n
$GPGGA,105558.55,5703.4155574,N,00952.3544199,E,2,11,0.9,-2.034,M,40.593,M,1.2,0123*6F\r\n
$GPGGA,105558.60,5703.4155376,N,00952.3543597,E,2,11,0.9,-2.034,M,40.593,M,1.2,0123*60\r\n
$GPGGA,105558.65,5703.4155179,N,00952.3543012,E,2,11,0.9,-2.031,M,40.593,M,1.5,0123*62\r\n
$GPGGA,105558.70,5703.4154986,N,00952.3542426,E,2,11,0.9,-2.029,M,40.593,M,1.5,0123*64\r\n
$GPGGA,105558.75,5703.4154805,N,00952.3541829,E,2,11,0.9,-2.028,M,40.593,M,1.5,0123*6A\r\n
$GPGGA,105558.80,5703.4154626,N,00952.3541248,E,2,11,0.9,-2.027,M,40.593,M,1.5,0123*6D\r\n
$GPGGA,105558.85,5703.4154447,N,00952.3540667,E,2,11,0.9,-2.028,M,40.593,M,1.8,0123*67\r\n
$GPGGA,105558.90,5703.4154256,N,00952.3540084,E,2,11,0.9,-2.027,M,40.593,M,1.8,0123*61\r\n
$GPGGA,105558.95,5703.4154065,N,00952.3539511,E,2,11,0.9,-2.024,M,40.593,M,1.8,0123*62\r\n
$GPGGA,105559.00,5703.4153896,N,00952.3538950,E,2,11,0.9,-2.021,M,40.593,M,1.8,0123*61\r\n
$GPGGA,105559.05,5703.4153733,N,00952.3538402,E,2,11,0.9,-2.015,M,40.593,M,2.1,0123*63\r\n
$GPGGA,105559.10,5703.4153540,N,00952.3537844,E,2,11,0.9,-2.014,M,40.593,M,2.1,0123*61\r\n
$GPGGA,105559.15,5703.4153355,N,00952.3537289,E,2,11,0.9,-2.015,M,40.593,M,2.1,0123*6C\r\n
$GPGGA,105559.20,5703.4153173,N,00952.3536747,E,2,11,0.9,-2.014,M,40.593,M,2.1,0123*6B\r\n
$GPGGA,105559.25,5703.4153003,N,00952.3536200,E,2,11,0.9,-2.014,M,40.593,M,2.4,0123*6B\r\n
$GPGGA,105559.30,5703.4152825,N,00952.3535649,E,2,11,0.9,-2.014,M,40.593,M,2.4,0123*68\r\n
