$GPGGA,081341.45,5703.4338696,N,00952.1165908,E,2,8,1.2,-2.023,M,40.593,M,2.2,0123*59\r\n
$GPGGA,081341.50,5703.4338743,N,00952.1166101,E,2,8,1.2,-2.025,M,40.593,M,2.2,0123*50\r\n
$GPGGA,081341.55,5703.4338793,N,00952.1166296,E,2,8,1.2,-2.026,M,40.593,M,2.2,0123*56\r\n
$GPGGA,081341.60,5703.4338838,N,00952.1166478,E,2,8,1.2,-2.027,M,40.593,M,2.2,0123*59\r\n
$GPGGA,081341.65,5703.4338885,N,00952.1166662,E,2,8,1.2,-2.035,M,40.593,M,2.4,0123*56\r\n
$GPGGA,081341.70,5703.4338926,N,00952.1166842,E,2,8,1.2,-2.039,M,40.593,M,2.4,0123*5A\r\n
$GPGGA,081341.75,5703.4338971,N,00952.1167024,E,2,8,1.2,-2.037,M,40.593,M,2.4,0123*5A\r\n
$GPGGA,081341.80,5703.4339016,N,00952.1167206,E,2,8,1.2,-2.038,M,40.593,M,2.4,0123*54\r\n
$GPGGA,081341.85,5703.4339071,N,00952.1167381,E,2,8,1.2,-2.037,M,40.593,M,2.7,0123*52\r\n
$GPGGA,081341.90,5703.4339119,N,00952.1167568,E,2,8,1.2,-2.037,M,40.593,M,2.7,0123*58\r\n
$GPGGA,081341.95,5703.4339162,N,00952.1167755,E,2,8,1.2,-2.037,M,40.593,M,2.7,0123*5D\r\n
$GPGGA,081342.00,5703.4339205,N,00952.1167925,E,2,8,1.2,-2.036,M,40.593,M,2.7,0123*58\r\n
$GPGGA,081342.05,5703.4339240,N,00952.1168091,E,2,8,1.2,-2.033,M,40.593,M,2.9,0123*5E\r\n
$GPGGA,081342.10,5703.4339294,N,00952.1168285,E,2,8,1.2,-2.031,M,40.593,M,2.9,0123*56\r\n
$GPGGA,081342.15,5703.4339345,N,00952.1168471,E,2,8,1.2,-2.031,M,40.593,M,2.9,0123*53\r\n
$GPGGA,081342.20,5703.4339394,N,00952.1168642,E,2,8,1.2,-2.031,M,40.593,M,2.9,0123*5B\r\n
$GPGGA,081342.25,5703.4339444,N,00952.1168822,E,2,8,1.2,-2.028,M,40.593,M,3.1,0123*5D\r\n
$GPGGA,081342.30,5703.4339492,N,00952.1169003,E,2,8,1.2,-2.027,M,40.593,M,3.1,0123*57\r\n
$GPGGA,081342.35,5703.4339536,N,00952.1169179,E,2,8,1.2,-2.028,M,40.593,M,3.1,0123*5E\r\n
$GPGGA,081342.40,5703.4339582,N,00952.1169362,E,2,8,1.2,-2.028,M,40.593,M,3.1,0123*5B\r\n
$GPGGA,081342.45,5703.4339631,N,00952.1169534,E,2,8,1.2,-2.025,M,40.593,M,3.3,0123*5F\r\n
$GPGGA,081342.50,5703.4339689,N,00952.1169722,E,2,8,1.2,-2.025,M,40.593,M,3.3,0123*5D\r\n
$GPGGA,081342.55,5703.4339746,N,00952.1169921,E,2,8,1.2,-2.027,M,40.593,M,3.3,0123*55\r\n
$GPGGA,081342.60,5703.4339790,N,00952.1170119,E,2,8,1.2,-2.027,M,40.593,M,3.3,0123*53\r\n
$GPGGA,081342.65,5703.4339835,N,00952.1170326,E,2,8,1.2,-2.026,M,40.593,M,3.5,0123*5F\r\n
$GPGGA,081342.70,5703.4339883,N,00952.1170501,E,2,8,1.2,-2.030,M,40.593,M,3.5,0123*52\r\n
$GPGGA,081342.75,5703.4339943,N,00952.1170688,E,2,8,1.2,-2.032,M,40.593,M,3.5,0123*5A\r\n
$GPGGA,081342.80,5703.4340003,N,00952.1170875,E,2,8,1.2,-2.034,M,40.593,M,3.5,0123*59\r\n
$GPGGA,081342.85,5703.4340058,N,00952.1171048,E,2,8,1.2,-2.034,M,40.593,M,3.7,0123*57\r\n
$GPGGA,081342.90,5703.4340108,N,00952.1171224,E,2,8,1.2,-2.032,M,40.593,M,3.7,0123*59\r\n
$GPGGA,081342.95,5703.4340161,N,00952.1171405,E,2,8,1.2,-2.032,M,40.593,M,3.7,0123*56\r\n
$GPGGA,081343.00,5703.4340216,N,00952.1171593,E,2,8,1.2,-2.032,M,40.593,M,3.7,0123*56\r\n
$GPGGA,081343.05,5703.4340258,N,00952.1171777,E,2,8,1.2,-2.032,M,40.593,M,3.9,0123*5F\r\n
$GPGGA,081343.10,5703.4340295,N,00952.1171968,E,2,8,1.2,-2.033,M,40.593,M,3.9,0123*5B\r\n
$GPGGA,081343.15,5703.4340342,N,00952.1172150,E,2,8,1.2,-2.033,M,40.593,M,3.9,0123*55\r\n
$GPGGA,081343.20,5703.4340389,N,00952.1172346,E,2,8,1.2,-2.030,M,40.593,M,3.9,0123*52\r\n
$GPGGA,081343.25,5703.4340425,N,00952.1172529,E,2,8,1.2,-2.026,M,40.593,M,4.1,0123*51\r\n
$GPGGA,081343.30,5703.4340459,N,00952.1172721,E,2,8,1.2,-2.025,M,40.593,M,4.1,0123*57\r\n
$GPGGA,081343.35,5703.4340507,N,00952.1172905,E,2,8,1.2,-2.023,M,40.593,M,4.1,0123*56\r\n
$GPGGA,081343.40,5703.4340547,N,00952.1173078,E,2,8,1.2,-2.021,M,40.593,M,4.1,0123*50\r\n
$GPGGA,081343.45,5703.4340590,N,00952.1173257,E,2,8,1.2,-2.020,M,40.593,M,2.4,0123*52\r\n
$GPGGA,081343.50,5703.4340639,N,00952.1173436,E,2,8,1.2,-2.020,M,40.593,M,2.4,0123*57\r\n
$GPGGA,081343.55,5703.4340690,N,00952.1173610,E,2,8,1.2,-2.024,M,40.593,M,2.4,0123*53\r\n
$GPGGA,081343.60,5703.4340754,N,00952.1173798,E,2,8,1.2,-2.022,M,40.593,M,2.4,0123*5B\r\n
$GPGGA,081343.65,5703.4340825,N,00952.1173974,E,2,8,1.2,-2.012,M,40.593,M,2.6,0123*5A\r\n
$GPGGA,081343.70,5703.4340874,N,00952.1174156,E,2,8,1.2,-2.014,M,40.593,M,2.6,0123*53\r\n
$GPGGA,081343.75,5703.4340914,N,00952.1174359,E,2,8,1.2,-2.015,M,40.593,M,2.6,0123*5D\r\n
$GPGGA,081343.80,5703.4340960,N,00952.1174557,E,2,8,1.2,-2.019,M,40.593,M,2.6,0123*50\r\n
$GPGGA,081343.85,5703.4341007,N,00952.1174738,E,2,8,1.2,-2.023,M,40.593,M,2.9,0123*51\r\n
$GPGGA,081343.90,5703.4341067,N,00952.1174928,E,2,8,1.2,-2.022,M,40.593,M,2.9,0123*5D\r\n
$GPGGA,081343.95,5703.4341123,N,00952.1175104,E,2,8,1.2,-2.023,M,40.593,M,2.9,0123*5F\r\n
$GPGGA,081344.00,5703.4341173,N,00952.1175285,E,2,8,1.2,-2.027,M,40.593,M,2.9,0123*5F\r\n
$GPGGA,081344.05,5703.4341212,N,00952.1175455,E,2,8,1.2,-2.032,M,40.593,M,3.1,0123*58\r\n
$GPGGA,081344.10,5703.4341260,N,00952.1175628,E,2,8,1.2,-2.034,M,40.593,M,3.1,0123*57\r\n
$GPGGA,081344.15,5703.4341299,N,00952.1175824,E,2,8,1.2,-2.038,M,40.593,M,3.1,0123*5A\r\n
$GPGGA,081344.20,5703.4341339,N,00952.1176024,E,2,8,1.2,-2.042,M,40.593,M,3.1,0123*51\r\n
$GPGGA,081344.25,5703.4341376,N,00952.1176222,E,2,8,1.2,-2.040,M,40.593,M,3.3,0123*5B\r\n
$GPGGA,081344.30,5703.4341429,N,00952.1176419,E,2,8,1.2,-2.041,M,40.593,M,3.3,0123*5D\r\n
$GPGGA,081344.35,5703.4341490,N,00952.1176588,E,2,8,1.2,-2.040,M,40.593,M,3.3,0123*52\r\n
$GPGGA,081344.40,5703.4341534,N,00952.1176751,E,2,8,1.2,-2.041,M,40.593,M,3.3,0123*58\r\n
$GPGGA,081344.45,5703.4341582,N,00952.1176920,E,2,8,1.2,-2.038,M,40.593,M,2.1,0123*55\r\n
$GPGGA,081344.50,5703.4341631,N,00952.1177083,E,2,8,1.2,-2.036,M,40.593,M,2.1,0123*55\r\n
$GPGGA,081344.55,5703.4341682,N,00952.1177252,E,2,8,1.2,-2.034,M,40.593,M,2.1,0123*54\r\n
$GPGGA,081344.60,5703.4341735,N,00952.1177434,E,2,8,1.2,-2.034,M,40.593,M,2.1,0123*59\r\n
$GPGGA,081344.65,5703.4341798,N,00952.1177604,E,2,8,1.2,-2.032,M,40.593,M,2.3,0123*5E\r\n
$GPGGA,081344.70,5703.4341859,N,00952.1177789,E,2,8,1.2,-2.032,M,40.593,M,2.3,0123*5C\r\n
$GPGGA,081344.75,5703.4341928,N,00952.1177967,E,2,8,1.2,-2.028,M,40.593,M,2.3,0123*5B\r\n
$GPGGA,081344.80,5703.4341983,N,00952.1178146,E,2,8,1.2,-2.029,M,40.593,M,2.3,0123*55\r\n
$GPGGA,081344.85,5703.4342034,N,00952.1178322,E,2,8,1.2,-2.032,M,40.593,M,2.6,0123*59\r\n
$GPGGA,081344.90,5703.4342099,N,00952.1178503,E,2,8,1.2,-2.028,M,40.593,M,2.6,0123*54\r\n
$GPGGA,081344.95,5703.4342159,N,00952.1178681,E,2,8,1.2,-2.027,M,40.593,M,2.6,0123*5A\r\n
$GPGGA,081345.00,5703.4342200,N,00952.1178873,E,2,8,1.2,-2.025,M,40.593,M,2.6,0123*59\r\n
$GPGGA,081345.05,5703.4342230,N,00952.1179054,E,2,8,1.2,-2.030,M,40.593,M,2.8,0123*59\r\n
$GPGGA,081345.10,5703.4342266,N,00952.1179242,E,2,8,1.2,-2.034,M,40.593,M,2.8,0123*5F\r\n
$GPGGA,081345.15,5703.4342313,N,00952.1179429,E,2,8,1.2,-2.038,M,40.593,M,2.8,0123*5E\r\n
$GPGGA,081345.20,5703.4342349,N,00952.1179631,E,2,8,1.2,-2.037,M,40.593,M,2.8,0123*53\r\n
$GPGGA,081345.25,5703.4342391,N,00952.1179826,E,2,8,1.2,-2.039,M,40.593,M,3.0,0123*5C\r\n
$GPGGA,081345.30,5703.4342433,N,00952.1180025,E,2,8,1.2,-2.038,M,40.593,M,3.0,0123*5B\r\n
$GPGGA,081345.35,5703.4342486,N,00952.1180213,E,2,8,1.2,-2.038,M,40.593,M,3.0,0123*57\r\n
$GPGGA,081345.40,5703.4342529,N,00952.1180397,E,2,8,1.2,-2.040,M,40.593,M,3.0,0123*53\r\n
$GPGGA,081345.45,5703.4342589,N,00952.1180558,E,2,8,1.2,-2.037,M,40.593,M,2.2,0123*5A\r\n
$GPGGA,081345.50,5703.4342666,N,00952.1180704,E,2,8,1.2,-2.035,M,40.593,M,2.2,0123*55\r\n
$GPGGA,081345.55,5703.4342748,N,00952.1180850,E,2,8,1.2,-2.029,M,40.593,M,2.2,0123*5E\r\n
$GPGGA,081345.60,5703.4342824,N,00952.1181002,E,2,8,1.2,-2.021,M,40.593,M,2.2,0123*5B\r\n
$GPGGA,081345.65,5703.4342907,N,00952.1181147,E,2,8,1.2,-2.008,M,40.593,M,2.4,0123*53\r\n
$GPGGA,081345.70,5703.4342969,N,00952.1181324,E,2,8,1.2,-2.007,M,40.593,M,2.4,0123*57\r\n
$GPGGA,081345.75,5703.4343037,N,00952.1181502,E,2,8,1.2,-2.004,M,40.593,M,2.4,0123*50\r\n
$GPGGA,081345.80,5703.4343101,N,00952.1181673,E,2,8,1.2,-2.005,M,40.593,M,2.4,0123*5A\r\n
$GPGGA,081345.85,5703.4343160,N,00952.1181870,E,2,8,1.2,-2.017,M,40.593,M,2.7,0123*55\r\n
$GPGGA,081345.90,5703.4343205,N,00952.1182068,E,2,8,1.2,-2.023,M,40.593,M,2.7,0123*54\r\n
$GPGGA,081345.95,5703.4343239,N,00952.1182251,E,2,8,1.2,-2.030,M,40.593,M,2.7,0123*54\r\n
$GPGGA,081346.00,5703.4343285,N,00952.1182439,E,2,8,1.2,-2.032,M,40.593,M,2.7,0123*56\r\n
$GPGGA,081346.05,5703.4343343,N,00952.1182597,E,2,8,1.2,-2.028,M,40.593,M,2.9,0123*58\r\n
$GPGGA,081346.10,5703.4343415,N,00952.1182770,E,2,8,1.2,-2.026,M,40.593,M,2.9,0123*5D\r\n
$GPGGA,081346.15,5703.4343480,N,00952.1182927,E,2,8,1.2,-2.028,M,40.593,M,2.9,0123*56\r\n
$GPGGA,081346.20,5703.4343563,N,00952.1183098,E,2,8,1.2,-2.026,M,40.593,M,2.9,0123*5E\r\n
$GPGGA,081346.25,5703.4343620,N,00952.1183256,E,2,8,1.2,-2.028,M,40.593,M,3.1,0123*58\r\n
$GPGGA,081346.30,5703.4343689,N,00952.1183419,E,2,8,1.2,-2.030,M,40.593,M,3.1,0123*5B\r\n
$GPGGA,081346.35,5703.4343756,N,00952.1183611,E,2,8,1.2,-2.032,M,40.593,M,3.1,0123*55\r\n
$GPGGA,081346.40,5703.4343820,N,00952.1183787,E,2,8,1.2,-2.034,M,40.593,M,3.1,0123*51\r\n
$GPGGA,081346.45,5703.4343888,N,00952.1183937,E,2,8,1.2,-2.035,M,40.593,M,3.3,0123*50\r\n
$GPGGA,081346.50,5703.4343985,N,00952.1184080,E,2,8,1.2,-2.030,M,40.593,M,3.3,0123*5F\r\n
$GPGGA,081346.55,5703.4344063,N,00952.1184215,E,2,8,1.2,-2.030,M,40.593,M,3.3,0123*52\r\n
$GPGGA,081346.60,5703.4344147,N,00952.1184384,E,2,8,1.2,-2.028,M,40.593,M,3.3,0123*53\r\n
$GPGGA,081346.65,5703.4344222,N,00952.1184534,E,2,8,1.2,-2.025,M,40.593,M,3.5,0123*50\r\n
$GPGGA,081346.70,5703.4344282,N,00952.1184688,E,2,8,1.2,-2.025,M,40.593,M,3.5,0123*5A\r\n
$GPGGA,081346.75,5703.4344347,N,00952.1184843,E,2,8,1.2,-2.025,M,40.593,M,3.5,0123*5E\r\n
$GPGGA,081346.80,5703.4344406,N,00952.1185008,E,2,8,1.2,-2.024,M,40.593,M,3.5,0123*51\r\n
$GPGGA,081346.85,5703.4344458,N,00952.1185182,E,2,8,1.2,-2.025,M,40.593,M,3.7,0123*5F\r\n
$GPGGA,081346.90,5703.4344520,N,00952.1185341,E,2,8,1.2,-2.026,M,40.593,M,3.7,0123*5B\r\n
$GPGGA,081346.95,5703.4344578,N,00952.1185516,E,2,8,1.2,-2.026,M,40.593,M,3.7,0123*57\r\n
$GPGGA,081347.00,5703.4344641,N,00952.1185675,E,2,8,1.2,-2.029,M,40.593,M,3.7,0123*5A\r\n
$GPGGA,081347.05,5703.4344707,N,00952.1185831,E,2,8,1.2,-2.022,M,40.593,M,3.9,0123*57\r\n
$GPGGA,081347.10,5703.4344788,N,00952.1185986,E,2,8,1.2,-2.022,M,40.593,M,3.9,0123*59\r\n
$GPGGA,081347.15,5703.4344857,N,00952.1186130,E,2,8,1.2,-2.025,M,40.593,M,3.9,0123*50\r\n
$GPGGA,081347.20,5703.4344954,N,00952.1186274,E,2,8,1.2,-2.026,M,40.593,M,3.9,0123*54\r\n
$GPGGA,081347.25,5703.4345047,N,00952.1186427,E,2,8,1.2,-2.033,M,40.593,M,4.1,0123*50\r\n
$GPGGA,081347.30,5703.4345150,N,00952.1186598,E,2,8,1.2,-2.032,M,40.593,M,4.1,0123*57\r\n
$GPGGA,081347.35,5703.4345234,N,00952.1186768,E,2,8,1.2,-2.034,M,40.593,M,4.1,0123*58\r\n
$GPGGA,081347.40,5703.4345325,N,00952.1186947,E,2,8,1.2,-2.032,M,40.593,M,4.1,0123*5E\r\n
$GPGGA,081347.45,5703.4345425,N,00952.1187126,E,2,8,1.2,-2.026,M,40.593,M,2.4,0123*54\r\n
$GPGGA,081347.50,5703.4345520,N,00952.1187305,E,2,8,1.2,-2.026,M,40.593,M,2.4,0123*57\r\n
$GPGGA,081347.55,5703.4345616,N,00952.1187490,E,2,8,1.2,-2.026,M,40.593,M,2.4,0123*5F\r\n
$GPGGA,081347.60,5703.4345726,N,00952.1187698,E,2,8,1.2,-2.019,M,40.593,M,2.4,0123*5D\r\n
$GPGGA,081347.65,5703.4345815,N,00952.1187905,E,2,8,1.2,-2.013,M,40.593,M,2.6,0123*54\r\n
$GPGGA,081347.70,5703.4345901,N,00952.1188131,E,2,8,1.2,-2.011,M,40.593,M,2.6,0123*56\r\n
$GPGGA,081347.75,5703.4346000,N,00952.1188364,E,2,8,1.2,-2.007,M,40.593,M,2.6,0123*5D\r\n
$GPGGA,081347.80,5703.4346105,N,00952.1188609,E,2,8,1.2,-2.001,M,40.593,M,2.6,0123*5B\r\n
$GPGGA,081347.85,5703.4346199,N,00952.1188867,E,2,8,1.2,-1.993,M,40.593,M,2.9,0123*53\r\n
$GPGGA,081347.90,5703.4346309,N,00952.1189135,E,2,8,1.2,-1.987,M,40.593,M,2.9,0123*56\r\n
$GPGGA,081347.95,5703.4346430,N,00952.1189421,E,2,8,1.2,-1.980,M,40.593,M,2.9,0123*59\r\n
$GPGGA,081348.00,5703.4346549,N,00952.1189732,E,2,8,1.2,-1.973,M,40.593,M,2.9,0123*58\r\n
$GPGGA,081348.05,5703.4346675,N,00952.1190066,E,2,8,1.2,-1.974,M,40.593,M,3.1,0123*51\r\n
$GPGGA,081348.10,5703.4346807,N,00952.1190414,E,2,8,1.2,-1.971,M,40.593,M,3.1,0123*5A\r\n
$GPGGA,081348.15,5703.4346945,N,00952.1190777,E,2,8,1.2,-1.968,M,40.593,M,3.1,0123*56\r\n
$GPGGA,081348.20,5703.4347082,N,00952.1191133,E,2,8,1.2,-1.967,M,40.593,M,3.1,0123*5B\r\n
$GPGGA,081348.25,5703.4347254,N,00952.1191512,E,2,8,1.2,-1.961,M,40.593,M,3.3,0123*54\r\n
$GPGGA,081348.30,5703.4347446,N,00952.1191923,E,2,8,1.2,-1.952,M,40.593,M,3.3,0123*5B\r\n
$GPGGA,081348.35,5703.4347624,N,00952.1192376,E,2,8,1.2,-1.946,M,40.593,M,3.3,0123*54\r\n
$GPGGA,081348.40,5703.4347791,N,00952.1192846,E,2,8,1.2,-1.946,M,40.593,M,3.3,0123*51\r\n
$GPGGA,081348.45,5703.4347977,N,00952.1193317,E,2,8,1.2,-1.942,M,40.593,M,2.1,0123*5B\r\n
$GPGGA,081348.50,5703.4348164,N,00952.1193811,E,2,8,1.2,-1.939,M,40.593,M,2.1,0123*5B\r\n
$GPGGA,081348.55,5703.4348369,N,00952.1194304,E,2,8,1.2,-1.934,M,40.593,M,2.1,0123*54\r\n
$GPGGA,081348.60,5703.4348570,N,00952.1194822,E,2,8,1.2,-1.929,M,40.593,M,2.1,0123*5F\r\n
$GPGGA,081348.65,5703.4348768,N,00952.1195361,E,2,8,1.2,-1.926,M,40.593,M,2.3,0123*51\r\n
$GPGGA,081348.70,5703.4348978,N,00952.1195919,E,2,8,1.2,-1.922,M,40.593,M,2.3,0123*5B\r\n
$GPGGA,081348.75,5703.4349193,N,00952.1196477,E,2,8,1.2,-1.919,M,40.593,M,2.3,0123*5C\r\n
$GPGGA,081348.80,5703.4349404,N,00952.1197055,E,2,8,1.2,-1.918,M,40.593,M,2.3,0123*59\r\n
$GPGGA,081348.85,5703.4349613,N,00952.1197660,E,2,8,1.2,-1.921,M,40.593,M,2.6,0123*57\r\n
$GPGGA,081348.90,5703.4349819,N,00952.1198287,E,2,8,1.2,-1.921,M,40.593,M,2.6,0123*55\r\n
$GPGGA,081348.95,5703.4350035,N,00952.1198941,E,2,8,1.2,-1.920,M,40.593,M,2.6,0123*5E\r\n
$GPGGA,081349.00,5703.4350266,N,00952.1199614,E,2,8,1.2,-1.920,M,40.593,M,2.6,0123*59\r\n
$GPGGA,081349.05,5703.4350488,N,00952.1200287,E,2,8,1.2,-1.921,M,40.593,M,2.8,0123*58\r\n
$GPGGA,081349.10,5703.4350719,N,00952.1200973,E,2,8,1.2,-1.925,M,40.593,M,2.8,0123*53\r\n
$GPGGA,081349.15,5703.4350960,N,00952.1201661,E,2,8,1.2,-1.924,M,40.593,M,2.8,0123*5A\r\n
$GPGGA,081349.20,5703.4351204,N,00952.1202334,E,2,8,1.2,-1.921,M,40.593,M,2.8,0123*57\r\n
$GPGGA,081349.25,5703.4351431,N,00952.1203022,E,2,8,1.2,-1.925,M,40.593,M,3.0,0123*5A\r\n
$GPGGA,081349.30,5703.4351674,N,00952.1203713,E,2,8,1.2,-1.927,M,40.593,M,3.0,0123*5A\r\n
$GPGGA,081349.35,5703.4351928,N,00952.1204408,E,2,8,1.2,-1.925,M,40.593,M,3.0,0123*55\r\n
$GPGGA,081349.40,5703.4352202,N,00952.1205132,E,2,8,1.2,-1.922,M,40.593,M,3.0,0123*5D\r\n
$GPGGA,081349.45,5703.4352469,N,00952.1205867,E,2,8,1.2,-1.917,M,40.593,M,2.2,0123*5F\r\n
$GPGGA,081349.50,5703.4352727,N,00952.1206590,E,2,8,1.2,-1.917,M,40.593,M,2.2,0123*54\r\n
$GPGGA,081349.55,5703.4352989,N,00952.1207292,E,2,8,1.2,-1.917,M,40.593,M,2.2,0123*5F\r\n
$GPGGA,081349.60,5703.4353261,N,00952.1207998,E,2,8,1.2,-1.920,M,40.593,M,2.2,0123*50\r\n
$GPGGA,081349.65,5703.4353536,N,00952.1208730,E,2,8,1.2,-1.921,M,40.593,M,2.4,0123*54\r\n
$GPGGA,081349.70,5703.4353824,N,00952.1209476,E,2,8,1.2,-1.918,M,40.593,M,2.4,0123*54\r\n
$GPGGA,081349.75,5703.4354092,N,00952.1210233,E,2,8,1.2,-1.917,M,40.593,M,2.4,0123*53\r\n
$GPGGA,081349.80,5703.4354351,N,00952.1210991,E,2,8,1.2,-1.918,M,40.593,M,2.4,0123*59\r\n
$GPGGA,081349.85,5703.4354623,N,00952.1211744,E,2,8,1.2,-1.916,M,40.593,M,2.7,0123*56\r\n
$GPGGA,081349.90,5703.4354908,N,00952.1212517,E,2,8,1.2,-1.917,M,40.593,M,2.7,0123*52\r\n
$GPGGA,081349.95,5703.4355194,N,00952.1213295,E,2,8,1.2,-1.914,M,40.593,M,2.7,0123*54\r\n
$GPGGA,081350.00,5703.4355478,N,00952.1214074,E,2,8,1.2,-1.914,M,40.593,M,2.7,0123*5D\r\n
$GPGGA,081350.05,5703.4355749,N,00952.1214850,E,2,8,1.2,-1.920,M,40.593,M,2.9,0123*5E\r\n
$GPGGA,081350.10,5703.4356024,N,00952.1215628,E,2,8,1.2,-1.920,M,40.593,M,2.9,0123*55\r\n
$GPGGA,081350.15,5703.4356314,N,00952.1216407,E,2,8,1.2,-1.924,M,40.593,M,2.9,0123*58\r\n
$GPGGA,081350.20,5703.4356605,N,00952.1217182,E,2,8,1.2,-1.928,M,40.593,M,2.9,0123*5E\r\n
$GPGGA,081350.25,5703.4356899,N,00952.1217941,E,2,8,1.2,-1.928,M,40.593,M,3.1,0123*5E\r\n
$GPGGA,081350.30,5703.4357197,N,00952.1218707,E,2,8,1.2,-1.928,M,40.593,M,3.1,0123*5F\r\n
$GPGGA,081350.35,5703.4357507,N,00952.1219491,E,2,8,1.2,-1.925,M,40.593,M,3.1,0123*57\r\n
$GPGGA,081350.40,5703.4357822,N,00952.1220270,E,2,8,1.2,-1.925,M,40.593,M,3.1,0123*5C\r\n
$GPGGA,081350.45,5703.4358147,N,00952.1221040,E,2,8,1.2,-1.920,M,40.593,M,0.9,0123*52\r\n
$GPGGA,081350.50,5703.4358465,N,00952.1221814,E,2,8,1.2,-1.920,M,40.593,M,0.9,0123*5A\r\n
$GPGGA,081350.55,5703.4358780,N,00952.1222595,E,2,8,1.2,-1.920,M,40.593,M,0.9,0123*50\r\n
$GPGGA,081350.60,5703.4359098,N,00952.1223390,E,2,8,1.2,-1.922,M,40.593,M,0.9,0123*59\r\n
$GPGGA,081350.65,5703.4359416,N,00952.1224186,E,2,8,1.2,-1.920,M,40.593,M,1.2,0123*54\r\n
$GPGGA,081350.70,5703.4359738,N,00952.1224972,E,2,8,1.2,-1.922,M,40.593,M,1.2,0123*5E\r\n
$GPGGA,081350.75,5703.4360061,N,00952.1225751,E,2,8,1.2,-1.922,M,40.593,M,1.2,0123*54\r\n
$GPGGA,081350.80,5703.4360392,N,00952.1226523,E,2,8,1.2,-1.924,M,40.593,M,1.2,0123*53\r\n
$GPGGA,081350.85,5703.4360721,N,00952.1227307,E,2,8,1.2,-1.922,M,40.593,M,1.5,0123*5A\r\n
$GPGGA,081350.90,5703.4361055,N,00952.1228099,E,2,8,1.2,-1.922,M,40.593,M,1.5,0123*50\r\n
$GPGGA,081350.95,5703.4361385,N,00952.1228876,E,2,8,1.2,-1.919,M,40.593,M,1.5,0123*5A\r\n
$GPGGA,081351.00,5703.4361716,N,00952.1229654,E,2,8,1.2,-1.919,M,40.593,M,1.5,0123*56\r\n
$GPGGA,081351.05,5703.4362070,N,00952.1230431,E,2,8,1.2,-1.914,M,40.593,M,1.8,0123*5E\r\n
$GPGGA,081351.10,5703.4362423,N,00952.1231209,E,2,8,1.2,-1.915,M,40.593,M,1.8,0123*55\r\n
$GPGGA,081351.15,5703.4362779,N,00952.1231964,E,2,8,1.2,-1.913,M,40.593,M,1.8,0123*5A\r\n
$GPGGA,081351.20,5703.4363140,N,00952.1232735,E,2,8,1.2,-1.912,M,40.593,M,1.8,0123*59\r\n
$GPGGA,081351.25,5703.4363492,N,00952.1233487,E,2,8,1.2,-1.910,M,40.593,M,2.1,0123*55\r\n
$GPGGA,081351.30,5703.4363874,N,00952.1234230,E,2,8,1.2,-1.909,M,40.593,M,2.1,0123*50\r\n
$GPGGA,081351.35,5703.4364248,N,00952.1234960,E,2,8,1.2,-1.912,M,40.593,M,2.1,0123*53\r\n
$GPGGA,081351.40,5703.4364628,N,00952.1235713,E,2,8,1.2,-1.911,M,40.593,M,2.1,0123*5B\r\n
$GPGGA,081351.45,5703.4365002,N,00952.1236470,E,2,8,1.2,-1.910,M,40.593,M,0.8,0123*5E\r\n
$GPGGA,081351.50,5703.4365384,N,00952.1237225,E,2,8,1.2,-1.909,M,40.593,M,0.8,0123*58\r\n
$GPGGA,081351.55,5703.4365759,N,00952.1237966,E,2,8,1.2,-1.911,M,40.593,M,0.8,0123*5C\r\n
$GPGGA,081351.60,5703.4366135,N,00952.1238699,E,2,8,1.2,-1.914,M,40.593,M,0.8,0123*50\r\n
$GPGGA,081351.65,5703.4366523,N,00952.1239418,E,2,8,1.2,-1.915,M,40.593,M,1.1,0123*55\r\n
$GPGGA,081351.70,5703.4366926,N,00952.1240151,E,2,8,1.2,-1.913,M,40.593,M,1.1,0123*58\r\n
$GPGGA,081351.75,5703.4367334,N,00952.1240880,E,2,8,1.2,-1.913,M,40.593,M,1.1,0123*50\r\n
$GPGGA,081351.80,5703.4367735,N,00952.1241613,E,2,8,1.2,-1.915,M,40.593,M,1.1,0123*5C\r\n
$GPGGA,081351.85,5703.4368142,N,00952.1242310,E,2,8,1.2,-1.912,M,40.593,M,1.4,0123*57\r\n
$GPGGA,081351.90,5703.4368569,N,00952.1243020,E,2,8,1.2,-1.915,M,40.593,M,1.4,0123*58\r\n
$GPGGA,081351.95,5703.4368993,N,00952.1243699,E,2,8,1.2,-1.912,M,40.593,M,1.4,0123*57\r\n
$GPGGA,081352.00,5703.4369414,N,00952.1244349,E,2,8,1.2,-1.907,M,40.593,M,1.4,0123*50\r\n
$GPGGA,081352.05,5703.4369827,N,00952.1244990,E,2,8,1.2,-1.907,M,40.593,M,1.6,0123*55\r\n
$GPGGA,081352.10,5703.4370248,N,00952.1245638,E,2,8,1.2,-1.906,M,40.593,M,1.6,0123*57\r\n
$GPGGA,081352.15,5703.4370685,N,00952.1246307,E,2,8,1.2,-1.903,M,40.593,M,1.6,0123*58\r\n
$GPGGA,081352.20,5703.4371113,N,00952.1246979,E,2,8,1.2,-1.905,M,40.593,M,1.6,0123*52\r\n
$GPGGA,081352.25,5703.4371554,N,00952.1247649,E,2,8,1.2,-1.901,M,40.593,M,1.9,0123*56\r\n
$GPGGA,081352.30,5703.4372006,N,00952.1248295,E,2,8,1.2,-1.900,M,40.593,M,1.9,0123*58\r\n
$GPGGA,081352.35,5703.4372474,N,00952.1248929,E,2,8,1.2,-1.900,M,40.593,M,1.9,0123*50\r\n
$GPGGA,081352.40,5703.4372935,N,00952.1249544,E,2,8,1.2,-1.904,M,40.593,M,1.9,0123*58\r\n
$GPGGA,081352.45,5703.4373396,N,00952.1250152,E,2,8,1.2,-1.903,M,40.593,M,0.9,0123*52\r\n
$GPGGA,081352.50,5703.4373855,N,00952.1250752,E,2,8,1.2,-1.900,M,40.593,M,0.9,0123*57\r\n
$GPGGA,081352.55,5703.4374318,N,00952.1251319,E,2,8,1.2,-1.898,M,40.593,M,0.9,0123*5D\r\n
$GPGGA,081352.60,5703.4374785,N,00952.1251876,E,2,8,1.2,-1.894,M,40.593,M,0.9,0123*55\r\n
$GPGGA,081352.65,5703.4375267,N,00952.1252442,E,2,8,1.2,-1.890,M,40.593,M,1.2,0123*5E\r\n
$GPGGA,081352.70,5703.4375756,N,00952.1252995,E,2,8,1.2,-1.889,M,40.593,M,1.2,0123*52\r\n
$GPGGA,081352.75,5703.4376241,N,00952.1253555,E,2,8,1.2,-1.887,M,40.593,M,1.2,0123*58\r\n
$GPGGA,081352.80,5703.4376723,N,00952.1254101,E,2,8,1.2,-1.886,M,40.593,M,1.2,0123*50\r\n
$GPGGA,081352.85,5703.4377223,N,00952.1254623,E,2,8,1.2,-1.886,M,40.593,M,1.5,0123*51\r\n
$GPGGA,081352.90,5703.4377715,N,00952.1255146,E,2,8,1.2,-1.886,M,40.593,M,1.5,0123*50\r\n
$GPGGA,081352.95,5703.4378219,N,00952.1255669,E,2,8,1.2,-1.890,M,40.593,M,1.5,0123*5E\r\n
$GPGGA,081353.00,5703.4378728,N,00952.1256160,E,2,8,1.2,-1.890,M,40.593,M,1.5,0123*59\r\n
$GPGGA,081353.05,5703.4379240,N,00952.1256615,E,2,8,1.2,-1.889,M,40.593,M,1.7,0123*59\r\n
$GPGGA,081353.10,5703.4379750,N,00952.1257071,E,2,8,1.2,-1.887,M,40.593,M,1.7,0123*52\r\n
$GPGGA,081353.15,5703.4380275,N,00952.1257511,E,2,8,1.2,-1.888,M,40.593,M,1.7,0123*5F\r\n
$GPGGA,081353.20,5703.4380805,N,00952.1257926,E,2,8,1.2,-1.887,M,40.593,M,1.7,0123*53\r\n
$GPGGA,081353.25,5703.4381321,N,00952.1258320,E,2,8,1.2,-1.894,M,40.593,M,2.0,0123*5F\r\n
$GPGGA,081353.30,5703.4381848,N,00952.1258708,E,2,8,1.2,-1.894,M,40.593,M,2.0,0123*51\r\n
$GPGGA,081353.35,5703.4382379,N,00952.1259082,E,2,8,1.2,-1.894,M,40.593,M,2.0,0123*5A\r\n
$GPGGA,081353.40,5703.4382916,N,00952.1259452,E,2,8,1.2,-1.898,M,40.593,M,2.0,0123*5E\r\n
$GPGGA,081353.45,5703.4383458,N,00952.1259806,E,2,8,1.2,-1.896,M,40.593,M,2.2,0123*5C\r\n
$GPGGA,081353.50,5703.4384003,N,00952.1260133,E,2,8,1.2,-1.893,M,40.593,M,2.2,0123*55\r\n
$GPGGA,081353.55,5703.4384544,N,00952.1260451,E,2,8,1.2,-1.892,M,40.593,M,2.2,0123*56\r\n
$GPGGA,081353.60,5703.4385092,N,00952.1260742,E,2,8,1.2,-1.892,M,40.593,M,2.2,0123*5E\r\n
$GPGGA,081353.65,5703.4385649,N,00952.1261018,E,2,8,1.2,-1.888,M,40.593,M,2.4,0123*5F\r\n
$GPGGA,081353.70,5703.4386200,N,00952.1261283,E,2,8,1.2,-1.888,M,40.593,M,2.4,0123*51\r\n
$GPGGA,081353.75,5703.4386748,N,00952.1261538,E,2,8,1.2,-1.885,M,40.593,M,2.4,0123*57\r\n
$GPGGA,081353.80,5703.4387293,N,00952.1261813,E,2,8,1.2,-1.888,M,40.593,M,2.4,0123*56\r\n
$GPGGA,081353.85,5703.4387849,N,00952.1262044,E,2,8,1.2,-1.889,M,40.593,M,2.7,0123*55\r\n
$GPGGA,081353.90,5703.4388424,N,00952.1262232,E,2,8,1.2,-1.892,M,40.593,M,2.7,0123*50\r\n
$GPGGA,081353.95,5703.4388986,N,00952.1262415,E,2,8,1.2,-1.894,M,40.593,M,2.7,0123*55\r\n
$GPGGA,081354.00,5703.4389557,N,00952.1262572,E,2,8,1.2,-1.892,M,40.593,M,2.7,0123*59\r\n
$GPGGA,081354.05,5703.4390129,N,00952.1262690,E,2,8,1.2,-1.890,M,40.593,M,2.9,0123*5A\r\n
$GPGGA,081354.10,5703.4390704,N,00952.1262770,E,2,8,1.2,-1.886,M,40.593,M,2.9,0123*5F\r\n
$GPGGA,081354.15,5703.4391277,N,00952.1262843,E,2,8,1.2,-1.884,M,40.593,M,2.9,0123*57\r\n
$GPGGA,081354.20,5703.4391842,N,00952.1262918,E,2,8,1.2,-1.883,M,40.593,M,2.9,0123*55\r\n
$GPGGA,081354.25,5703.4392417,N,00952.1262963,E,2,8,1.2,-1.875,M,40.593,M,3.1,0123*53\r\n
$GPGGA,081354.30,5703.4392989,N,00952.1262993,E,2,8,1.2,-1.875,M,40.593,M,3.1,0123*52\r\n
$GPGGA,081354.35,5703.4393581,N,00952.1263020,E,2,8,1.2,-1.875,M,40.593,M,3.1,0123*52\r\n
$GPGGA,081354.40,5703.4394172,N,00952.1263039,E,2,8,1.2,-1.876,M,40.593,M,3.1,0123*54\r\n
$GPGGA,081354.45,5703.4394757,N,00952.1263042,E,2,8,1.2,-1.881,M,40.593,M,3.3,0123*56\r\n
$GPGGA,081354.50,5703.4395345,N,00952.1263017,E,2,8,1.2,-1.886,M,40.593,M,3.3,0123*53\r\n
$GPGGA,081354.55,5703.4395924,N,00952.1262983,E,2,8,1.2,-1.888,M,40.593,M,3.3,0123*50\r\n
$GPGGA,081354.60,5703.4396503,N,00952.1262917,E,2,8,1.2,-1.889,M,40.593,M,3.3,0123*50\r\n
$GPGGA,081354.65,5703.4397082,N,00952.1262804,E,2,8,1.2,-1.893,M,40.593,M,3.5,0123*56\r\n
$GPGGA,081354.70,5703.4397659,N,00952.1262663,E,2,8,1.2,-1.891,M,40.593,M,3.5,0123*5F\r\n
$GPGGA,081354.75,5703.4398226,N,00952.1262491,E,2,8,1.2,-1.892,M,40.593,M,3.5,0123*55\r\n
$GPGGA,081354.80,5703.4398788,N,00952.1262309,E,2,8,1.2,-1.890,M,40.593,M,3.5,0123*5A\r\n
$GPGGA,081354.85,5703.4399373,N,00952.1262070,E,2,8,1.2,-1.881,M,40.593,M,3.7,0123*51\r\n
$GPGGA,081354.90,5703.4399943,N,00952.1261824,E,2,8,1.2,-1.879,M,40.593,M,3.7,0123*51\r\n
$GPGGA,081354.95,5703.4400522,N,00952.1261568,E,2,8,1.2,-1.876,M,40.593,M,3.7,0123*52\r\n
$GPGGA,081355.00,5703.4401092,N,00952.1261298,E,2,8,1.2,-1.877,M,40.593,M,3.7,0123*59\r\n
$GPGGA,081355.05,5703.4401651,N,00952.1261028,E,2,8,1.2,-1.877,M,40.593,M,3.9,0123*52\r\n
$GPGGA,081355.10,5703.4402205,N,00952.1260739,E,2,8,1.2,-1.876,M,40.593,M,3.9,0123*57\r\n
$GPGGA,081355.15,5703.4402775,N,00952.1260425,E,2,8,1.2,-1.877,M,40.593,M,3.9,0123*5F\r\n
$GPGGA,081355.20,5703.4403353,N,00952.1260114,E,2,8,1.2,-1.881,M,40.593,M,3.9,0123*56\r\n
$GPGGA,081355.25,5703.4403933,N,00952.1259763,E,2,8,1.2,-1.882,M,40.593,M,4.1,0123*5F\r\n
$GPGGA,081355.30,5703.4404495,N,00952.1259404,E,2,8,1.2,-1.883,M,40.593,M,4.1,0123*5E\r\n
$GPGGA,081355.35,5703.4405050,N,00952.1259010,E,2,8,1.2,-1.884,M,40.593,M,4.1,0123*51\r\n
$GPGGA,081355.40,5703.4405610,N,00952.1258590,E,2,8,1.2,-1.886,M,40.593,M,4.1,0123*5F\r\n
$GPGGA,081355.45,5703.4406161,N,00952.1258152,E,2,8,1.2,-1.889,M,40.593,M,2.4,0123*5E\r\n
$GPGGA,081355.50,5703.4406712,N,00952.1257671,E,2,8,1.2,-1.891,M,40.593,M,2.4,0123*58\r\n
$GPGGA,081355.55,5703.4407243,N,00952.1257152,E,2,8,1.2,-1.891,M,40.593,M,2.4,0123*5B\r\n
$GPGGA,081355.60,5703.4407768,N,00952.1256632,E,2,8,1.2,-1.891,M,40.593,M,2.4,0123*51\r\n
$GPGGA,081355.65,5703.4408282,N,00952.1256115,E,2,8,1.2,-1.891,M,40.593,M,2.6,0123*5A\r\n
$GPGGA,081355.70,5703.4408818,N,00952.1255543,E,2,8,1.2,-1.893,M,40.593,M,2.6,0123*51\r\n
$GPGGA,081355.75,5703.4409337,N,00952.1254955,E,2,8,1.2,-1.892,M,40.593,M,2.6,0123*58\r\n
$GPGGA,081355.80,5703.4409848,N,00952.1254357,E,2,8,1.2,-1.893,M,40.593,M,2.6,0123*58\r\n
$GPGGA,081355.85,5703.4410371,N,00952.1253738,E,2,8,1.2,-1.895,M,40.593,M,2.9,0123*57\r\n
$GPGGA,081355.90,5703.4410884,N,00952.1253105,E,2,8,1.2,-1.896,M,40.593,M,2.9,0123*59\r\n
$GPGGA,081355.95,5703.4411385,N,00952.1252450,E,2,8,1.2,-1.899,M,40.593,M,2.9,0123*5C\r\n
$GPGGA,081356.00,5703.4411883,N,00952.1251765,E,2,8,1.2,-1.902,M,40.593,M,2.9,0123*5B\r\n
$GPGGA,081356.05,5703.4412374,N,00952.1251039,E,2,8,1.2,-1.899,M,40.593,M,3.1,0123*5A\r\n
$GPGGA,081356.10,5703.4412855,N,00952.1250285,E,2,8,1.2,-1.899,M,40.593,M,3.1,0123*52\r\n
$GPGGA,081356.15,5703.4413337,N,00952.1249513,E,2,8,1.2,-1.899,M,40.593,M,3.1,0123*59\r\n
$GPGGA,081356.20,5703.4413805,N,00952.1248726,E,2,8,1.2,-1.899,M,40.593,M,3.1,0123*50\r\n
$GPGGA,081356.25,5703.4414260,N,00952.1247937,E,2,8,1.2,-1.896,M,40.593,M,1.9,0123*5F\r\n
$GPGGA,081356.30,5703.4414709,N,00952.1247145,E,2,8,1.2,-1.895,M,40.593,M,1.9,0123*5F\r\n
$GPGGA,081356.35,5703.4415145,N,00952.1246328,E,2,8,1.2,-1.895,M,40.593,M,1.9,0123*5D\r\n
$GPGGA,081356.40,5703.4415574,N,00952.1245489,E,2,8,1.2,-1.895,M,40.593,M,1.9,0123*56\r\n
$GPGGA,081356.45,5703.4416014,N,00952.1244630,E,2,8,1.2,-1.900,M,40.593,M,2.1,0123*54\r\n
$GPGGA,081356.50,5703.4416442,N,00952.1243757,E,2,8,1.2,-1.896,M,40.593,M,2.1,0123*5E\r\n
$GPGGA,081356.55,5703.4416860,N,00952.1242900,E,2,8,1.2,-1.897,M,40.593,M,2.1,0123*5B\r\n
$GPGGA,081356.60,5703.4417277,N,00952.1242005,E,2,8,1.2,-1.898,M,40.593,M,2.1,0123*53\r\n
$GPGGA,081356.65,5703.4417691,N,00952.1241087,E,2,8,1.2,-1.888,M,40.593,M,2.3,0123*50\r\n
$GPGGA,081356.70,5703.4418086,N,00952.1240155,E,2,8,1.2,-1.887,M,40.593,M,2.3,0123*5B\r\n
$GPGGA,081356.75,5703.4418474,N,00952.1239203,E,2,8,1.2,-1.885,M,40.593,M,2.3,0123*5B\r\n
$GPGGA,081356.80,5703.4418851,N,00952.1238240,E,2,8,1.2,-1.883,M,40.593,M,2.3,0123*5A\r\n
$GPGGA,081356.85,5703.4419224,N,00952.1237273,E,2,8,1.2,-1.883,M,40.593,M,2.6,0123*5C\r\n
$GPGGA,081356.90,5703.4419583,N,00952.1236268,E,2,8,1.2,-1.885,M,40.593,M,2.6,0123*5F\r\n
$GPGGA,081356.95,5703.4419939,N,00952.1235234,E,2,8,1.2,-1.883,M,40.593,M,2.6,0123*5B\r\n
$GPGGA,081357.00,5703.4420288,N,00952.1234183,E,2,8,1.2,-1.885,M,40.593,M,2.6,0123*55\r\n
$GPGGA,081357.05,5703.4420637,N,00952.1233117,E,2,8,1.2,-1.885,M,40.593,M,2.8,0123*54\r\n
$GPGGA,081357.10,5703.4420961,N,00952.1232044,E,2,8,1.2,-1.890,M,40.593,M,2.8,0123*5E\r\n
$GPGGA,081357.15,5703.4421280,N,00952.1230956,E,2,8,1.2,-1.893,M,40.593,M,2.8,0123*55\r\n
$GPGGA,081357.20,5703.4421587,N,00952.1229866,E,2,8,1.2,-1.897,M,40.593,M,2.8,0123*5D\r\n
$GPGGA,081357.25,5703.4421869,N,00952.1228744,E,2,8,1.2,-1.898,M,40.593,M,2.0,0123*5C\r\n
$GPGGA,081357.30,5703.4422145,N,00952.1227617,E,2,8,1.2,-1.901,M,40.593,M,2.0,0123*55\r\n
$GPGGA,081357.35,5703.4422420,N,00952.1226474,E,2,8,1.2,-1.904,M,40.593,M,2.0,0123*55\r\n
$GPGGA,081357.40,5703.4422706,N,00952.1225319,E,2,8,1.2,-1.910,M,40.593,M,2.0,0123*5A\r\n
$GPGGA,081357.45,5703.4422972,N,00952.1224169,E,2,8,1.2,-1.909,M,40.593,M,2.2,0123*5C\r\n
$GPGGA,081357.50,5703.4423216,N,00952.1222997,E,2,8,1.2,-1.908,M,40.593,M,2.2,0123*5E\r\n
$GPGGA,081357.55,5703.4423446,N,00952.1221810,E,2,8,1.2,-1.909,M,40.593,M,2.2,0123*54\r\n
$GPGGA,081357.60,5703.4423682,N,00952.1220618,E,2,8,1.2,-1.910,M,40.593,M,2.2,0123*57\r\n
$GPGGA,081357.65,5703.4423914,N,00952.1219413,E,2,8,1.2,-1.910,M,40.593,M,2.4,0123*57\r\n
$GPGGA,081357.70,5703.4424152,N,00952.1218216,E,2,8,1.2,-1.908,M,40.593,M,2.4,0123*55\r\n
$GPGGA,081357.75,5703.4424370,N,00952.1217016,E,2,8,1.2,-1.907,M,40.593,M,2.4,0123*50\r\n
$GPGGA,081357.80,5703.4424579,N,00952.1215799,E,2,8,1.2,-1.907,M,40.593,M,2.4,0123*57\r\n
$GPGGA,081357.85,5703.4424773,N,00952.1214561,E,2,8,1.2,-1.895,M,40.593,M,2.7,0123*57\r\n
$GPGGA,081357.90,5703.4424971,N,00952.1213319,E,2,8,1.2,-1.894,M,40.593,M,2.7,0123*50\r\n
$GPGGA,081357.95,5703.4425159,N,00952.1212053,E,2,8,1.2,-1.893,M,40.593,M,2.7,0123*5D\r\n
$GPGGA,081358.00,5703.4425308,N,00952.1210766,E,2,8,1.2,-1.894,M,40.593,M,2.7,0123*5C\r\n
$GPGGA,081358.05,5703.4425438,N,00952.1209479,E,2,8,1.2,-1.898,M,40.593,M,2.9,0123*5A\r\n
$GPGGA,081358.10,5703.4425594,N,00952.1208180,E,2,8,1.2,-1.901,M,40.593,M,2.9,0123*5A\r\n
$GPGGA,081358.15,5703.4425716,N,00952.1206872,E,2,8,1.2,-1.904,M,40.593,M,2.9,0123*58\r\n
$GPGGA,081358.20,5703.4425820,N,00952.1205547,E,2,8,1.2,-1.909,M,40.593,M,2.9,0123*51\r\n
$GPGGA,081358.25,5703.4425916,N,00952.1204203,E,2,8,1.2,-1.907,M,40.593,M,3.1,0123*51\r\n
$GPGGA,081358.30,5703.4426016,N,00952.1202854,E,2,8,1.2,-1.911,M,40.593,M,3.1,0123*56\r\n
$GPGGA,081358.35,5703.4426112,N,00952.1201515,E,2,8,1.2,-1.916,M,40.593,M,3.1,0123*5A\r\n
$GPGGA,081358.40,5703.4426188,N,00952.1200155,E,2,8,1.2,-1.920,M,40.593,M,3.1,0123*5F\r\n
$GPGGA,081358.45,5703.4426254,N,00952.1198787,E,2,8,1.2,-1.918,M,40.593,M,3.3,0123*5A\r\n
$GPGGA,081358.50,5703.4426312,N,00952.1197432,E,2,8,1.2,-1.919,M,40.593,M,3.3,0123*5E\r\n
$GPGGA,081358.55,5703.4426346,N,00952.1196070,E,2,8,1.2,-1.921,M,40.593,M,3.3,0123*52\r\n
$GPGGA,081358.60,5703.4426390,N,00952.1194705,E,2,8,1.2,-1.920,M,40.593,M,3.3,0123*59\r\n
$GPGGA,081358.65,5703.4426442,N,00952.1193334,E,2,8,1.2,-1.913,M,40.593,M,3.5,0123*53\r\n
$GPGGA,081358.70,5703.4426471,N,00952.1191950,E,2,8,1.2,-1.912,M,40.593,M,3.5,0123*5C\r\n
$GPGGA,081358.75,5703.4426494,N,00952.1190563,E,2,8,1.2,-1.908,M,40.593,M,3.5,0123*54\r\n
$GPGGA,081358.80,5703.4426509,N,00952.1189187,E,2,8,1.2,-1.905,M,40.593,M,3.5,0123*50\r\n
$GPGGA,081358.85,5703.4426514,N,00952.1187787,E,2,8,1.2,-1.901,M,40.593,M,3.7,0123*57\r\n
$GPGGA,081358.90,5703.4426508,N,00952.1186389,E,2,8,1.2,-1.898,M,40.593,M,3.7,0123*54\r\n
$GPGGA,081358.95,5703.4426515,N,00952.1184967,E,2,8,1.2,-1.896,M,40.593,M,3.7,0123*5B\r\n
$GPGGA,081359.00,5703.4426503,N,00952.1183543,E,2,8,1.2,-1.896,M,40.593,M,3.7,0123*5C\r\n
$GPGGA,081359.05,5703.4426461,N,00952.1182117,E,2,8,1.2,-1.887,M,40.593,M,3.9,0123*56\r\n
$GPGGA,081359.10,5703.4426430,N,00952.1180687,E,2,8,1.2,-1.886,M,40.593,M,3.9,0123*5B\r\n
$GPGGA,081359.15,5703.4426389,N,00952.1179258,E,2,8,1.2,-1.885,M,40.593,M,3.9,0123*58\r\n
$GPGGA,081359.20,5703.4426332,N,00952.1177816,E,2,8,1.2,-1.884,M,40.593,M,3.9,0123*51\r\n
$GPGGA,081359.25,5703.4426258,N,00952.1176370,E,2,8,1.2,-1.891,M,40.593,M,2.1,0123*5E\r\n
$GPGGA,081359.30,5703.4426187,N,00952.1174913,E,2,8,1.2,-1.892,M,40.593,M,2.1,0123*55\r\n
$GPGGA,081359.35,5703.4426121,N,00952.1173478,E,2,8,1.2,-1.890,M,40.593,M,2.1,0123*59\r\n
$GPGGA,081359.40,5703.4426046,N,00952.1172052,E,2,8,1.2,-1.890,M,40.593,M,2.1,0123*56\r\n
$GPGGA,081359.45,5703.4425951,N,00952.1170609,E,2,8,1.2,-1.890,M,40.593,M,2.4,0123*50\r\n
$GPGGA,081359.50,5703.4425858,N,00952.1169158,E,2,8,1.2,-1.891,M,40.593,M,2.4,0123*56\r\n
$GPGGA,081359.55,5703.4425756,N,00952.1167716,E,2,8,1.2,-1.891,M,40.593,M,2.4,0123*50\r\n
$GPGGA,081359.60,5703.4425637,N,00952.1166259,E,2,8,1.2,-1.887,M,40.593,M,2.4,0123*58\r\n
$GPGGA,081359.65,5703.4425525,N,00952.1164798,E,2,8,1.2,-1.881,M,40.593,M,2.6,0123*53\r\n
$GPGGA,081359.70,5703.4425409,N,00952.1163349,E,2,8,1.2,-1.879,M,40.593,M,2.6,0123*50\r\n
$GPGGA,081359.75,5703.4425277,N,00952.1161887,E,2,8,1.2,-1.876,M,40.593,M,2.6,0123*5E\r\n
$GPGGA,081359.80,5703.4425109,N,00952.1160428,E,2,8,1.2,-1.876,M,40.593,M,2.6,0123*56\r\n
$GPGGA,081359.85,5703.4424942,N,00952.1158976,E,2,8,1.2,-1.882,M,40.593,M,2.9,0123*5C\r\n
$GPGGA,081359.90,5703.4424785,N,00952.1157514,E,2,8,1.2,-1.881,M,40.593,M,2.9,0123*59\r\n
$GPGGA,081359.95,5703.4424626,N,00952.1156041,E,2,8,1.2,-1.880,M,40.593,M,2.9,0123*51\r\n
$GPGGA,081400.00,5703.4424461,N,00952.1154573,E,2,8,1.2,-1.880,M,40.593,M,2.9,0123*51\r\n
$GPGGA,081400.05,5703.4424274,N,00952.1153093,E,2,8,1.2,-1.882,M,40.593,M,3.1,0123*51\r\n
$GPGGA,081400.10,5703.4424086,N,00952.1151608,E,2,8,1.2,-1.882,M,40.593,M,3.1,0123*5C\r\n
$GPGGA,081400.15,5703.4423897,N,00952.1150149,E,2,8,1.2,-1.884,M,40.593,M,3.1,0123*53\r\n
$GPGGA,081400.20,5703.4423719,N,00952.1148687,E,2,8,1.2,-1.882,M,40.593,M,3.1,0123*56\r\n
$GPGGA,081400.25,5703.4423533,N,00952.1147233,E,2,8,1.2,-1.880,M,40.593,M,1.9,0123*55\r\n
$GPGGA,081400.30,5703.4423325,N,00952.1145760,E,2,8,1.2,-1.877,M,40.593,M,1.9,0123*59\r\n
$GPGGA,081400.35,5703.4423108,N,00952.1144299,E,2,8,1.2,-1.874,M,40.593,M,1.9,0123*50\r\n
$GPGGA,081400.40,5703.4422883,N,00952.1142834,E,2,8,1.2,-1.873,M,40.593,M,1.9,0123*55\r\n
$GPGGA,081400.45,5703.4422651,N,00952.1141378,E,2,8,1.2,-1.882,M,40.593,M,2.1,0123*54\r\n
$GPGGA,081400.50,5703.4422409,N,00952.1139908,E,2,8,1.2,-1.882,M,40.593,M,2.1,0123*5D\r\n
$GPGGA,081400.55,5703.4422171,N,00952.1138447,E,2,8,1.2,-1.883,M,40.593,M,2.1,0123*54\r\n
$GPGGA,081400.60,5703.4421928,N,00952.1136992,E,2,8,1.2,-1.885,M,40.593,M,2.1,0123*58\r\n
$GPGGA,081400.65,5703.4421682,N,00952.1135524,E,2,8,1.2,-1.881,M,40.593,M,2.3,0123*56\r\n
$GPGGA,081400.70,5703.4421426,N,00952.1134064,E,2,8,1.2,-1.881,M,40.593,M,2.3,0123*5E\r\n
$GPGGA,081400.75,5703.4421160,N,00952.1132595,E,2,8,1.2,-1.881,M,40.593,M,2.3,0123*51\r\n
$GPGGA,081400.80,5703.4420913,N,00952.1131128,E,2,8,1.2,-1.880,M,40.593,M,2.3,0123*56\r\n
$GPGGA,081400.85,5703.4420651,N,00952.1129657,E,2,8,1.2,-1.880,M,40.593,M,2.6,0123*59\r\n
$GPGGA,081400.90,5703.4420358,N,00952.1128204,E,2,8,1.2,-1.880,M,40.593,M,2.6,0123*52\r\n
$GPGGA,081400.95,5703.4420077,N,00952.1126769,E,2,8,1.2,-1.883,M,40.593,M,2.6,0123*5A\r\n
$GPGGA,081401.00,5703.4419802,N,00952.1125331,E,2,8,1.2,-1.882,M,40.593,M,2.6,0123*5C\r\n
$GPGGA,081401.05,5703.4419518,N,00952.1123854,E,2,8,1.2,-1.878,M,40.593,M,2.8,0123*5A\r\n
$GPGGA,081401.10,5703.4419248,N,00952.1122402,E,2,8,1.2,-1.877,M,40.593,M,2.8,0123*5D\r\n
$GPGGA,081401.15,5703.4418951,N,00952.1120945,E,2,8,1.2,-1.878,M,40.593,M,2.8,0123*59\r\n
$GPGGA,081401.20,5703.4418651,N,00952.1119498,E,2,8,1.2,-1.880,M,40.593,M,2.8,0123*50\r\n
$GPGGA,081401.25,5703.4418355,N,00952.1118064,E,2,8,1.2,-1.878,M,40.593,M,2.0,0123*5D\r\n
$GPGGA,081401.30,5703.4418046,N,00952.1116637,E,2,8,1.2,-1.876,M,40.593,M,2.0,0123*58\r\n
$GPGGA,081401.35,5703.4417752,N,00952.1115218,E,2,8,1.2,-1.875,M,40.593,M,2.0,0123*59\r\n
$GPGGA,081401.40,5703.4417425,N,00952.1113792,E,2,8,1.2,-1.877,M,40.593,M,2.0,0123*5B\r\n
$GPGGA,081401.45,5703.4417089,N,00952.1112334,E,2,8,1.2,-1.877,M,40.593,M,2.2,0123*57\r\n
$GPGGA,081401.50,5703.4416757,N,00952.1110879,E,2,8,1.2,-1.880,M,40.593,M,2.2,0123*5E\r\n
$GPGGA,081401.55,5703.4416425,N,00952.1109432,E,2,8,1.2,-1.886,M,40.593,M,2.2,0123*50\r\n
$GPGGA,081401.60,5703.4416083,N,00952.1108003,E,2,8,1.2,-1.889,M,40.593,M,2.2,0123*56\r\n
$GPGGA,081401.65,5703.4415747,N,00952.1106581,E,2,8,1.2,-1.885,M,40.593,M,2.4,0123*54\r\n
$GPGGA,081401.70,5703.4415401,N,00952.1105158,E,2,8,1.2,-1.886,M,40.593,M,2.4,0123*51\r\n
$GPGGA,081401.75,5703.4415073,N,00952.1103725,E,2,8,1.2,-1.888,M,40.593,M,2.4,0123*51\r\n
$GPGGA,081401.80,5703.4414726,N,00952.1102285,E,2,8,1.2,-1.888,M,40.593,M,2.4,0123*53\r\n
$GPGGA,081401.85,5703.4414365,N,00952.1100857,E,2,8,1.2,-1.888,M,40.593,M,2.7,0123*51\r\n
$GPGGA,081401.90,5703.4414013,N,00952.1099436,E,2,8,1.2,-1.895,M,40.593,M,2.7,0123*51\r\n
$GPGGA,081401.95,5703.4413662,N,00952.1098019,E,2,8,1.2,-1.895,M,40.593,M,2.7,0123*5B\r\n
$GPGGA,081402.00,5703.4413313,N,00952.1096604,E,2,8,1.2,-1.892,M,40.593,M,2.7,0123*54\r\n
$GPGGA,081402.05,5703.4412952,N,00952.1095182,E,2,8,1.2,-1.889,M,40.593,M,2.9,0123*51\r\n
$GPGGA,081402.10,5703.4412608,N,00952.1093777,E,2,8,1.2,-1.888,M,40.593,M,2.9,0123*5E\r\n
$GPGGA,081402.15,5703.4412245,N,00952.1092374,E,2,8,1.2,-1.893,M,40.593,M,2.9,0123*5A\r\n
$GPGGA,081402.20,5703.4411868,N,00952.1090975,E,2,8,1.2,-1.891,M,40.593,M,2.9,0123*51\r\n
$GPGGA,081402.25,5703.4411512,N,00952.1089564,E,2,8,1.2,-1.887,M,40.593,M,3.1,0123*5E\r\n
$GPGGA,081402.30,5703.4411142,N,00952.1088155,E,2,8,1.2,-1.887,M,40.593,M,3.1,0123*5C\r\n
$GPGGA,081402.35,5703.4410780,N,00952.1086761,E,2,8,1.2,-1.891,M,40.593,M,3.1,0123*58\r\n
$GPGGA,081402.40,5703.4410419,N,00952.1085353,E,2,8,1.2,-1.893,M,40.593,M,3.1,0123*5D\r\n
$GPGGA,081402.45,5703.4410056,N,00952.1083936,E,2,8,1.2,-1.893,M,40.593,M,3.3,0123*5A\r\n
$GPGGA,081402.50,5703.4409706,N,00952.1082530,E,2,8,1.2,-1.894,M,40.593,M,3.3,0123*58\r\n
$GPGGA,081402.55,5703.4409343,N,00952.1081131,E,2,8,1.2,-1.895,M,40.593,M,3.3,0123*5F\r\n
$GPGGA,081402.60,5703.4408979,N,00952.1079724,E,2,8,1.2,-1.898,M,40.593,M,3.3,0123*53\r\n
$GPGGA,081402.65,5703.4408620,N,00952.1078337,E,2,8,1.2,-1.895,M,40.593,M,3.5,0123*59\r\n
$GPGGA,081402.70,5703.4408234,N,00952.1076952,E,2,8,1.2,-1.898,M,40.593,M,3.5,0123*56\r\n
$GPGGA,081402.75,5703.4407859,N,00952.1075569,E,2,8,1.2,-1.903,M,40.593,M,3.5,0123*59\r\n
$GPGGA,081402.80,5703.4407454,N,00952.1074186,E,2,8,1.2,-1.908,M,40.593,M,3.5,0123*5D\r\n
$GPGGA,081402.85,5703.4407078,N,00952.1072813,E,2,8,1.2,-1.912,M,40.593,M,3.7,0123*58\r\n
$GPGGA,081402.90,5703.4406710,N,00952.1071421,E,2,8,1.2,-1.915,M,40.593,M,3.7,0123*5D\r\n
$GPGGA,081402.95,5703.4406323,N,00952.1070028,E,2,8,1.2,-1.915,M,40.593,M,3.7,0123*50\r\n
$GPGGA,081403.00,5703.4405939,N,00952.1068636,E,2,8,1.2,-1.917,M,40.593,M,3.7,0123*5D\r\n
$GPGGA,081403.05,5703.4405549,N,00952.1067231,E,2,8,1.2,-1.917,M,40.593,M,3.9,0123*51\r\n
$GPGGA,081403.10,5703.4405175,N,00952.1065824,E,2,8,1.2,-1.919,M,40.593,M,3.9,0123*5C\r\n
$GPGGA,081403.15,5703.4404791,N,00952.1064431,E,2,8,1.2,-1.924,M,40.593,M,3.9,0123*53\r\n
$GPGGA,081403.20,5703.4404393,N,00952.1063047,E,2,8,1.2,-1.928,M,40.593,M,3.9,0123*5D\r\n
$GPGGA,081403.25,5703.4403994,N,00952.1061634,E,2,8,1.2,-1.929,M,40.593,M,2.1,0123*5A\r\n
$GPGGA,081403.30,5703.4403610,N,00952.1060234,E,2,8,1.2,-1.932,M,40.593,M,2.1,0123*52\r\n
$GPGGA,081403.35,5703.4403237,N,00952.1058828,E,2,8,1.2,-1.934,M,40.593,M,2.1,0123*5C\r\n
$GPGGA,081403.40,5703.4402860,N,00952.1057426,E,2,8,1.2,-1.932,M,40.593,M,2.1,0123*5C\r\n
$GPGGA,081403.45,5703.4402479,N,00952.1056042,E,2,8,1.2,-1.934,M,40.593,M,2.4,0123*59\r\n
$GPGGA,081403.50,5703.4402091,N,00952.1054651,E,2,8,1.2,-1.933,M,40.593,M,2.4,0123*5E\r\n
$GPGGA,081403.55,5703.4401709,N,00952.1053254,E,2,8,1.2,-1.931,M,40.593,M,2.4,0123*5A\r\n
$GPGGA,081403.60,5703.4401321,N,00952.1051854,E,2,8,1.2,-1.935,M,40.593,M,2.4,0123*5E\r\n
$GPGGA,081403.65,5703.4400942,N,00952.1050436,E,2,8,1.2,-1.932,M,40.593,M,2.6,0123*59\r\n
$GPGGA,081403.70,5703.4400562,N,00952.1049007,E,2,8,1.2,-1.929,M,40.593,M,2.6,0123*57\r\n
$GPGGA,081403.75,5703.4400172,N,00952.1047592,E,2,8,1.2,-1.927,M,40.593,M,2.6,0123*5E\r\n
$GPGGA,081403.80,5703.4399796,N,00952.1046177,E,2,8,1.2,-1.925,M,40.593,M,2.6,0123*53\r\n
$GPGGA,081403.85,5703.4399426,N,00952.1044741,E,2,8,1.2,-1.917,M,40.593,M,2.9,0123*51\r\n
$GPGGA,081403.90,5703.4399042,N,00952.1043316,E,2,8,1.2,-1.916,M,40.593,M,2.9,0123*53\r\n
$GPGGA,081403.95,5703.4398658,N,00952.1041881,E,2,8,1.2,-1.913,M,40.593,M,2.9,0123*58\r\n
$GPGGA,081404.00,5703.4398286,N,00952.1040456,E,2,8,1.2,-1.911,M,40.593,M,2.9,0123*51\r\n
$GPGGA,081404.05,5703.4397881,N,00952.1039031,E,2,8,1.2,-1.919,M,40.593,M,3.1,0123*5C\r\n
$GPGGA,081404.10,5703.4397497,N,00952.1037617,E,2,8,1.2,-1.917,M,40.593,M,3.1,0123*51\r\n
$GPGGA,081404.15,5703.4397115,N,00952.1036190,E,2,8,1.2,-1.918,M,40.593,M,3.1,0123*5D\r\n
$GPGGA,081404.20,5703.4396733,N,00952.1034770,E,2,8,1.2,-1.918,M,40.593,M,3.1,0123*52\r\n
$GPGGA,081404.25,5703.4396354,N,00952.1033352,E,2,8,1.2,-1.918,M,40.593,M,1.9,0123*5B\r\n
$GPGGA,081404.30,5703.4395986,N,00952.1031929,E,2,8,1.2,-1.914,M,40.593,M,1.9,0123*51\r\n
$GPGGA,081404.35,5703.4395621,N,00952.1030496,E,2,8,1.2,-1.913,M,40.593,M,1.9,0123*59\r\n
$GPGGA,081404.40,5703.4395250,N,00952.1029072,E,2,8,1.2,-1.913,M,40.593,M,1.9,0123*5F\r\n
$GPGGA,081404.45,5703.4394882,N,00952.1027647,E,2,8,1.2,-1.908,M,40.593,M,2.1,0123*51\r\n
$GPGGA,081404.50,5703.4394492,N,00952.1026224,E,2,8,1.2,-1.908,M,40.593,M,2.1,0123*58\r\n
$GPGGA,081404.55,5703.4394124,N,00952.1024789,E,2,8,1.2,-1.906,M,40.593,M,2.1,0123*5B\r\n
$GPGGA,081404.60,5703.4393777,N,00952.1023345,E,2,8,1.2,-1.905,M,40.593,M,2.1,0123*5A\r\n
$GPGGA,081404.65,5703.4393422,N,00952.1021913,E,2,8,1.2,-1.915,M,40.593,M,2.3,0123*54\r\n
$GPGGA,081404.70,5703.4393072,N,00952.1020480,E,2,8,1.2,-1.915,M,40.593,M,2.3,0123*57\r\n
$GPGGA,081404.75,5703.4392701,N,00952.1019049,E,2,8,1.2,-1.917,M,40.593,M,2.3,0123*59\r\n
$GPGGA,081404.80,5703.4392345,N,00952.1017618,E,2,8,1.2,-1.916,M,40.593,M,2.3,0123*5A\r\n
$GPGGA,081404.85,5703.4392001,N,00952.1016190,E,2,8,1.2,-1.915,M,40.593,M,2.6,0123*5C\r\n
$GPGGA,081404.90,5703.4391665,N,00952.1014754,E,2,8,1.2,-1.917,M,40.593,M,2.6,0123*51\r\n
$GPGGA,081404.95,5703.4391333,N,00952.1013321,E,2,8,1.2,-1.915,M,40.593,M,2.6,0123*51\r\n
$GPGGA,081405.00,5703.4390993,N,00952.1011881,E,2,8,1.2,-1.917,M,40.593,M,2.6,0123*5C\r\n
$GPGGA,081405.05,5703.4390660,N,00952.1010435,E,2,8,1.2,-1.919,M,40.593,M,2.8,0123*58\r\n
$GPGGA,081405.10,5703.4390320,N,00952.1009003,E,2,8,1.2,-1.921,M,40.593,M,2.8,0123*5F\r\n
$GPGGA,081405.15,5703.4389986,N,00952.1007558,E,2,8,1.2,-1.921,M,40.593,M,2.8,0123*51\r\n
$GPGGA,081405.20,5703.4389669,N,00952.1006119,E,2,8,1.2,-1.923,M,40.593,M,2.8,0123*5B\r\n
$GPGGA,081405.25,5703.4389337,N,00952.1004684,E,2,8,1.2,-1.931,M,40.593,M,2.0,0123*5A\r\n
$GPGGA,081405.30,5703.4389018,N,00952.1003233,E,2,8,1.2,-1.933,M,40.593,M,2.0,0123*5D\r\n
$GPGGA,081405.35,5703.4388711,N,00952.1001776,E,2,8,1.2,-1.935,M,40.593,M,2.0,0123*57\r\n
$GPGGA,081405.40,5703.4388408,N,00952.1000309,E,2,8,1.2,-1.939,M,40.593,M,2.0,0123*5F\r\n
$GPGGA,081405.45,5703.4388104,N,00952.0998847,E,2,8,1.2,-1.937,M,40.593,M,2.2,0123*57\r\n
$GPGGA,081405.50,5703.4387799,N,00952.0997385,E,2,8,1.2,-1.940,M,40.593,M,2.2,0123*54\r\n
$GPGGA,081405.55,5703.4387507,N,00952.0995916,E,2,8,1.2,-1.939,M,40.593,M,2.2,0123*58\r\n
$GPGGA,081405.60,5703.4387215,N,00952.0994458,E,2,8,1.2,-1.938,M,40.593,M,2.2,0123*5D\r\n
$GPGGA,081405.65,5703.4386928,N,00952.0993016,E,2,8,1.2,-1.941,M,40.593,M,2.4,0123*5D\r\n
$GPGGA,081405.70,5703.4386640,N,00952.0991563,E,2,8,1.2,-1.941,M,40.593,M,2.4,0123*5D\r\n
$GPGGA,081405.75,5703.4386362,N,00952.0990110,E,2,8,1.2,-1.940,M,40.593,M,2.4,0123*5D\r\n
$GPGGA,081405.80,5703.4386085,N,00952.0988655,E,2,8,1.2,-1.939,M,40.593,M,2.4,0123*5C\r\n
$GPGGA,081405.85,5703.4385818,N,00952.0987178,E,2,8,1.2,-1.939,M,40.593,M,2.7,0123*52\r\n
$GPGGA,081405.90,5703.4385556,N,00952.0985709,E,2,8,1.2,-1.938,M,40.593,M,2.7,0123*52\r\n
$GPGGA,081405.95,5703.4385312,N,00952.0984230,E,2,8,1.2,-1.939,M,40.593,M,2.7,0123*5E\r\n
$GPGGA,081406.00,5703.4385079,N,00952.0982762,E,2,8,1.2,-1.936,M,40.593,M,2.7,0123*54\r\n
$GPGGA,081406.05,5703.4384832,N,00952.0981286,E,2,8,1.2,-1.933,M,40.593,M,2.9,0123*50\r\n
$GPGGA,081406.10,5703.4384593,N,00952.0979812,E,2,8,1.2,-1.934,M,40.593,M,2.9,0123*55\r\n
$GPGGA,081406.15,5703.4384368,N,00952.0978345,E,2,8,1.2,-1.934,M,40.593,M,2.9,0123*5A\r\n
$GPGGA,081406.20,5703.4384138,N,00952.0976892,E,2,8,1.2,-1.933,M,40.593,M,2.9,0123*53\r\n
$GPGGA,081406.25,5703.4383926,N,00952.0975430,E,2,8,1.2,-1.932,M,40.593,M,3.1,0123*59\r\n
$GPGGA,081406.30,5703.4383699,N,00952.0973956,E,2,8,1.2,-1.931,M,40.593,M,3.1,0123*5E\r\n
$GPGGA,081406.35,5703.4383486,N,00952.0972486,E,2,8,1.2,-1.933,M,40.593,M,3.1,0123*54\r\n
$GPGGA,081406.40,5703.4383273,N,00952.0971015,E,2,8,1.2,-1.934,M,40.593,M,3.1,0123*50\r\n
$GPGGA,081406.45,5703.4383069,N,00952.0969550,E,2,8,1.2,-1.941,M,40.593,M,3.3,0123*51\r\n
$GPGGA,081406.50,5703.4382887,N,00952.0968083,E,2,8,1.2,-1.940,M,40.593,M,3.3,0123*57\r\n
$GPGGA,081406.55,5703.4382721,N,00952.0966631,E,2,8,1.2,-1.939,M,40.593,M,3.3,0123*5E\r\n
$GPGGA,081406.60,5703.4382558,N,00952.0965157,E,2,8,1.2,-1.940,M,40.593,M,3.3,0123*5E\r\n
$GPGGA,081406.65,5703.4382396,N,00952.0963686,E,2,8,1.2,-1.937,M,40.593,M,3.5,0123*54\r\n
$GPGGA,081406.70,5703.4382228,N,00952.0962210,E,2,8,1.2,-1.938,M,40.593,M,3.5,0123*51\r\n
$GPGGA,081406.75,5703.4382080,N,00952.0960736,E,2,8,1.2,-1.940,M,40.593,M,3.5,0123*58\r\n
$GPGGA,081406.80,5703.4381938,N,00952.0959266,E,2,8,1.2,-1.939,M,40.593,M,3.5,0123*5F\r\n
$GPGGA,081406.85,5703.4381807,N,00952.0957800,E,2,8,1.2,-1.943,M,40.593,M,3.7,0123*5C\r\n
$GPGGA,081406.90,5703.4381673,N,00952.0956343,E,2,8,1.2,-1.945,M,40.593,M,3.7,0123*5E\r\n
$GPGGA,081406.95,5703.4381563,N,00952.0954877,E,2,8,1.2,-1.946,M,40.593,M,3.7,0123*54\r\n
$GPGGA,081407.00,5703.4381442,N,00952.0953416,E,2,8,1.2,-1.947,M,40.593,M,3.7,0123*56\r\n
$GPGGA,081407.05,5703.4381331,N,00952.0951950,E,2,8,1.2,-1.946,M,40.593,M,3.9,0123*52\r\n
$GPGGA,081407.10,5703.4381236,N,00952.0950478,E,2,8,1.2,-1.946,M,40.593,M,3.9,0123*56\r\n
$GPGGA,081407.15,5703.4381138,N,00952.0949003,E,2,8,1.2,-1.946,M,40.593,M,3.9,0123*5E\r\n
$GPGGA,081407.20,5703.4381061,N,00952.0947539,E,2,8,1.2,-1.948,M,40.593,M,3.9,0123*59\r\n
$GPGGA,081407.25,5703.4380988,N,00952.0946077,E,2,8,1.2,-1.952,M,40.593,M,2.1,0123*5F\r\n
$GPGGA,081407.30,5703.4380922,N,00952.0944627,E,2,8,1.2,-1.950,M,40.593,M,2.1,0123*58\r\n
$GPGGA,081407.35,5703.4380859,N,00952.0943163,E,2,8,1.2,-1.949,M,40.593,M,2.1,0123*58\r\n
$GPGGA,081407.40,5703.4380804,N,00952.0941689,E,2,8,1.2,-1.946,M,40.593,M,2.1,0123*5C\r\n
$GPGGA,081407.45,5703.4380754,N,00952.0940230,E,2,8,1.2,-1.947,M,40.593,M,2.4,0123*50\r\n
$GPGGA,081407.50,5703.4380718,N,00952.0938782,E,2,8,1.2,-1.948,M,40.593,M,2.4,0123*50\r\n
$GPGGA,081407.55,5703.4380702,N,00952.0937313,E,2,8,1.2,-1.949,M,40.593,M,2.4,0123*5C\r\n
$GPGGA,081407.60,5703.4380673,N,00952.0935850,E,2,8,1.2,-1.951,M,40.593,M,2.4,0123*5A\r\n
$GPGGA,081407.65,5703.4380648,N,00952.0934399,E,2,8,1.2,-1.955,M,40.593,M,2.6,0123*5E\r\n
$GPGGA,081407.70,5703.4380655,N,00952.0932953,E,2,8,1.2,-1.956,M,40.593,M,2.6,0123*5F\r\n
$GPGGA,081407.75,5703.4380677,N,00952.0931498,E,2,8,1.2,-1.957,M,40.593,M,2.6,0123*52\r\n
$GPGGA,081407.80,5703.4380719,N,00952.0930062,E,2,8,1.2,-1.956,M,40.593,M,2.6,0123*50\r\n
$GPGGA,081407.85,5703.4380758,N,00952.0928618,E,2,8,1.2,-1.954,M,40.593,M,2.9,0123*5F\r\n
$GPGGA,081407.90,5703.4380783,N,00952.0927191,E,2,8,1.2,-1.954,M,40.593,M,2.9,0123*54\r\n
$GPGGA,081407.95,5703.4380824,N,00952.0925771,E,2,8,1.2,-1.955,M,40.593,M,2.9,0123*58\r\n
$GPGGA,081408.00,5703.4380877,N,00952.0924358,E,2,8,1.2,-1.952,M,40.593,M,2.9,0123*54\r\n
$GPGGA,081408.05,5703.4380940,N,00952.0922951,E,2,8,1.2,-1.954,M,40.593,M,3.1,0123*5E\r\n
$GPGGA,081408.10,5703.4381006,N,00952.0921540,E,2,8,1.2,-1.953,M,40.593,M,3.1,0123*58\r\n
$GPGGA,081408.15,5703.4381078,N,00952.0920140,E,2,8,1.2,-1.954,M,40.593,M,3.1,0123*56\r\n
$GPGGA,081408.20,5703.4381153,N,00952.0918745,E,2,8,1.2,-1.955,M,40.593,M,3.1,0123*51\r\n
$GPGGA,081408.25,5703.4381231,N,00952.0917341,E,2,8,1.2,-1.951,M,40.593,M,1.9,0123*52\r\n
$GPGGA,081408.30,5703.4381341,N,00952.0915952,E,2,8,1.2,-1.950,M,40.593,M,1.9,0123*5B\r\n
$GPGGA,081408.35,5703.4381455,N,00952.0914590,E,2,8,1.2,-1.949,M,40.593,M,1.9,0123*57\r\n
$GPGGA,081408.40,5703.4381580,N,00952.0913220,E,2,8,1.2,-1.949,M,40.593,M,1.9,0123*57\r\n
$GPGGA,081408.45,5703.4381703,N,00952.0911861,E,2,8,1.2,-1.950,M,40.593,M,2.1,0123*55\r\n
$GPGGA,081408.50,5703.4381829,N,00952.0910514,E,2,8,1.2,-1.948,M,40.593,M,2.1,0123*51\r\n
$GPGGA,081408.55,5703.4381961,N,00952.0909181,E,2,8,1.2,-1.948,M,40.593,M,2.1,0123*59\r\n
$GPGGA,081408.60,5703.4382110,N,00952.0907859,E,2,8,1.2,-1.947,M,40.593,M,2.1,0123*5F\r\n
$GPGGA,081408.65,5703.4382274,N,00952.0906537,E,2,8,1.2,-1.946,M,40.593,M,2.3,0123*5C\r\n
$GPGGA,081408.70,5703.4382445,N,00952.0905237,E,2,8,1.2,-1.946,M,40.593,M,2.3,0123*58\r\n
$GPGGA,081408.75,5703.4382626,N,00952.0903941,E,2,8,1.2,-1.944,M,40.593,M,2.3,0123*54\r\n
$GPGGA,081408.80,5703.4382812,N,00952.0902665,E,2,8,1.2,-1.942,M,40.593,M,2.3,0123*59\r\n
$GPGGA,081408.85,5703.4383005,N,00952.0901394,E,2,8,1.2,-1.941,M,40.593,M,2.6,0123*5D\r\n
$GPGGA,081408.90,5703.4383196,N,00952.0900132,E,2,8,1.2,-1.941,M,40.593,M,2.6,0123*5D\r\n
$GPGGA,081408.95,5703.4383391,N,00952.0898875,E,2,8,1.2,-1.940,M,40.593,M,2.6,0123*56\r\n
$GPGGA,081409.00,5703.4383616,N,00952.0897639,E,2,8,1.2,-1.940,M,40.593,M,2.6,0123*58\r\n
$GPGGA,081409.05,5703.4383830,N,00952.0896443,E,2,8,1.2,-1.941,M,40.593,M,2.8,0123*56\r\n
$GPGGA,081409.10,5703.4384045,N,00952.0895240,E,2,8,1.2,-1.942,M,40.593,M,2.8,0123*5A\r\n
$GPGGA,081409.15,5703.4384273,N,00952.0894053,E,2,8,1.2,-1.942,M,40.593,M,2.8,0123*59\r\n
$GPGGA,081409.20,5703.4384518,N,00952.0892867,E,2,8,1.2,-1.942,M,40.593,M,2.8,0123*5C\r\n
$GPGGA,081409.25,5703.4384780,N,00952.0891690,E,2,8,1.2,-1.942,M,40.593,M,2.0,0123*57\r\n
$GPGGA,081409.30,5703.4385041,N,00952.0890537,E,2,8,1.2,-1.943,M,40.593,M,2.0,0123*56\r\n
$GPGGA,081409.35,5703.4385300,N,00952.0889407,E,2,8,1.2,-1.944,M,40.593,M,2.0,0123*58\r\n
$GPGGA,081409.40,5703.4385565,N,00952.0888278,E,2,8,1.2,-1.943,M,40.593,M,2.0,0123*57\r\n
$GPGGA,081409.45,5703.4385856,N,00952.0887164,E,2,8,1.2,-1.949,M,40.593,M,2.2,0123*56\r\n
$GPGGA,081409.50,5703.4386146,N,00952.0886054,E,2,8,1.2,-1.951,M,40.593,M,2.2,0123*53\r\n
$GPGGA,081409.55,5703.4386448,N,00952.0884962,E,2,8,1.2,-1.955,M,40.593,M,2.2,0123*57\r\n
$GPGGA,081409.60,5703.4386753,N,00952.0883888,E,2,8,1.2,-1.961,M,40.593,M,2.2,0123*5D\r\n
$GPGGA,081409.65,5703.4387072,N,00952.0882839,E,2,8,1.2,-1.963,M,40.593,M,2.4,0123*52\r\n
$GPGGA,081409.70,5703.4387388,N,00952.0881809,E,2,8,1.2,-1.965,M,40.593,M,2.4,0123*56\r\n
$GPGGA,081409.75,5703.4387745,N,00952.0880791,E,2,8,1.2,-1.967,M,40.593,M,2.4,0123*5B\r\n
$GPGGA,081409.80,5703.4388078,N,00952.0879763,E,2,8,1.2,-1.967,M,40.593,M,2.4,0123*5C\r\n
$GPGGA,081409.85,5703.4388407,N,00952.0878773,E,2,8,1.2,-1.973,M,40.593,M,2.7,0123*53\r\n
$GPGGA,081409.90,5703.4388756,N,00952.0877802,E,2,8,1.2,-1.976,M,40.593,M,2.7,0123*53\r\n
$GPGGA,081409.95,5703.4389111,N,00952.0876859,E,2,8,1.2,-1.979,M,40.593,M,2.7,0123*52\r\n
$GPGGA,081410.00,5703.4389488,N,00952.0875949,E,2,8,1.2,-1.979,M,40.593,M,2.7,0123*50\r\n
$GPGGA,081410.05,5703.4389866,N,00952.0875044,E,2,8,1.2,-1.965,M,40.593,M,2.9,0123*5E\r\n
$GPGGA,081410.10,5703.4390257,N,00952.0874163,E,2,8,1.2,-1.964,M,40.593,M,2.9,0123*5E\r\n
$GPGGA,081410.15,5703.4390643,N,00952.0873291,E,2,8,1.2,-1.964,M,40.593,M,2.9,0123*53\r\n
$GPGGA,081410.20,5703.4391043,N,00952.0872446,E,2,8,1.2,-1.963,M,40.593,M,2.9,0123*58\r\n
$GPGGA,081410.25,5703.4391438,N,00952.0871625,E,2,8,1.2,-1.969,M,40.593,M,3.1,0123*52\r\n
$GPGGA,081410.30,5703.4391851,N,00952.0870830,E,2,8,1.2,-1.969,M,40.593,M,3.1,0123*5E\r\n
$GPGGA,081410.35,5703.4392265,N,00952.0870037,E,2,8,1.2,-1.969,M,40.593,M,3.1,0123*5A\r\n
$GPGGA,081410.40,5703.4392679,N,00952.0869274,E,2,8,1.2,-1.970,M,40.593,M,3.1,0123*54\r\n
$GPGGA,081410.45,5703.4393102,N,00952.0868512,E,2,8,1.2,-1.968,M,40.593,M,3.3,0123*56\r\n
$GPGGA,081410.50,5703.4393539,N,00952.0867779,E,2,8,1.2,-1.971,M,40.593,M,3.3,0123*56\r\n
$GPGGA,081410.55,5703.4393971,N,00952.0867062,E,2,8,1.2,-1.973,M,40.593,M,3.3,0123*5C\r\n
$GPGGA,081410.60,5703.4394403,N,00952.0866377,E,2,8,1.2,-1.972,M,40.593,M,3.3,0123*52\r\n
$GPGGA,081410.65,5703.4394841,N,00952.0865731,E,2,8,1.2,-1.975,M,40.593,M,3.5,0123*59\r\n
$GPGGA,081410.70,5703.4395273,N,00952.0865111,E,2,8,1.2,-1.974,M,40.593,M,3.5,0123*52\r\n
$GPGGA,081410.75,5703.4395695,N,00952.0864524,E,2,8,1.2,-1.975,M,40.593,M,3.5,0123*59\r\n
$GPGGA,081410.80,5703.4396128,N,00952.0863934,E,2,8,1.2,-1.974,M,40.593,M,3.5,0123*5A\r\n
$GPGGA,081410.85,5703.4396571,N,00952.0863350,E,2,8,1.2,-1.972,M,40.593,M,3.7,0123*5B\r\n
$GPGGA,081410.90,5703.4397017,N,00952.0862804,E,2,8,1.2,-1.970,M,40.593,M,3.7,0123*52\r\n
$GPGGA,081410.95,5703.4397453,N,00952.0862266,E,2,8,1.2,-1.965,M,40.593,M,3.7,0123*59\r\n
$GPGGA,081411.00,5703.4397882,N,00952.0861728,E,2,8,1.2,-1.962,M,40.593,M,3.7,0123*5F\r\n
$GPGGA,081411.05,5703.4398310,N,00952.0861207,E,2,8,1.2,-1.956,M,40.593,M,3.9,0123*54\r\n
$GPGGA,081411.10,5703.4398752,N,00952.0860701,E,2,8,1.2,-1.956,M,40.593,M,3.9,0123*50\r\n
$GPGGA,081411.15,5703.4399184,N,00952.0860216,E,2,8,1.2,-1.956,M,40.593,M,3.9,0123*5A\r\n
$GPGGA,081411.20,5703.4399637,N,00952.0859745,E,2,8,1.2,-1.955,M,40.593,M,3.9,0123*59\r\n
$GPGGA,081411.25,5703.4400088,N,00952.0859296,E,2,8,1.2,-1.961,M,40.593,M,2.1,0123*5C\r\n
$GPGGA,081411.30,5703.4400541,N,00952.0858876,E,2,8,1.2,-1.962,M,40.593,M,2.1,0123*5E\r\n
$GPGGA,081411.35,5703.4400983,N,00952.0858490,E,2,8,1.2,-1.965,M,40.593,M,2.1,0123*5A\r\n
$GPGGA,081411.40,5703.4401443,N,00952.0858099,E,2,8,1.2,-1.971,M,40.593,M,2.1,0123*50\r\n
$GPGGA,081411.45,5703.4401918,N,00952.0857742,E,2,8,1.2,-1.972,M,40.593,M,2.4,0123*5E\r\n
$GPGGA,081411.50,5703.4402393,N,00952.0857406,E,2,8,1.2,-1.973,M,40.593,M,2.4,0123*52\r\n
$GPGGA,081411.55,5703.4402871,N,00952.0857080,E,2,8,1.2,-1.974,M,40.593,M,2.4,0123*5D\r\n
$GPGGA,081411.60,5703.4403337,N,00952.0856777,E,2,8,1.2,-1.980,M,40.593,M,2.4,0123*56\r\n
$GPGGA,081411.65,5703.4403806,N,00952.0856497,E,2,8,1.2,-1.982,M,40.593,M,2.6,0123*57\r\n
$GPGGA,081411.70,5703.4404282,N,00952.0856225,E,2,8,1.2,-1.984,M,40.593,M,2.6,0123*5B\r\n
$GPGGA,081411.75,5703.4404742,N,00952.0855991,E,2,8,1.2,-1.987,M,40.593,M,2.6,0123*53\r\n
$GPGGA,081411.80,5703.4405210,N,00952.0855772,E,2,8,1.2,-1.989,M,40.593,M,2.6,0123*57\r\n
$GPGGA,081411.85,5703.4405678,N,00952.0855553,E,2,8,1.2,-1.988,M,40.593,M,2.9,0123*57\r\n
$GPGGA,081411.90,5703.4406157,N,00952.0855341,E,2,8,1.2,-1.989,M,40.593,M,2.9,0123*5E\r\n
$GPGGA,081411.95,5703.4406635,N,00952.0855137,E,2,8,1.2,-1.986,M,40.593,M,2.9,0123*54\r\n
$GPGGA,081412.00,5703.4407103,N,00952.0854957,E,2,8,1.2,-1.983,M,40.593,M,2.9,0123*52\r\n
$GPGGA,081412.05,5703.4407564,N,00952.0854807,E,2,8,1.2,-1.979,M,40.593,M,3.1,0123*5A\r\n
$GPGGA,081412.10,5703.4408042,N,00952.0854658,E,2,8,1.2,-1.975,M,40.593,M,3.1,0123*58\r\n
$GPGGA,081412.15,5703.4408512,N,00952.0854525,E,2,8,1.2,-1.972,M,40.593,M,3.1,0123*53\r\n
$GPGGA,081412.20,5703.4408978,N,00952.0854400,E,2,8,1.2,-1.970,M,40.593,M,3.1,0123*51\r\n
$GPGGA,081412.25,5703.4409443,N,00952.0854293,E,2,8,1.2,-1.969,M,40.593,M,1.9,0123*5E\r\n
$GPGGA,081412.30,5703.4409913,N,00952.0854218,E,2,8,1.2,-1.969,M,40.593,M,1.9,0123*51\r\n
$GPGGA,081412.35,5703.4410384,N,00952.0854168,E,2,8,1.2,-1.967,M,40.593,M,1.9,0123*52\r\n
$GPGGA,081412.40,5703.4410868,N,00952.0854154,E,2,8,1.2,-1.967,M,40.593,M,1.9,0123*56\r\n
$GPGGA,081412.45,5703.4411358,N,00952.0854137,E,2,8,1.2,-1.966,M,40.593,M,2.1,0123*55\r\n
$GPGGA,081412.50,5703.4411843,N,00952.0854124,E,2,8,1.2,-1.966,M,40.593,M,2.1,0123*52\r\n
$GPGGA,081412.55,5703.4412313,N,00952.0854141,E,2,8,1.2,-1.969,M,40.593,M,2.1,0123*56\r\n
$GPGGA,081412.60,5703.4412780,N,00952.0854200,E,2,8,1.2,-1.975,M,40.593,M,2.1,0123*55\r\n
$GPGGA,081412.65,5703.4413253,N,00952.0854267,E,2,8,1.2,-1.980,M,40.593,M,2.3,0123*53\r\n
$GPGGA,081412.70,5703.4413732,N,00952.0854352,E,2,8,1.2,-1.984,M,40.593,M,2.3,0123*56\r\n
$GPGGA,081412.75,5703.4414205,N,00952.0854445,E,2,8,1.2,-1.985,M,40.593,M,2.3,0123*55\r\n
$GPGGA,081412.80,5703.4414664,N,00952.0854559,E,2,8,1.2,-1.986,M,40.593,M,2.3,0123*53\r\n
$GPGGA,081412.85,5703.4415131,N,00952.0854662,E,2,8,1.2,-1.984,M,40.593,M,2.6,0123*5C\r\n
$GPGGA,081412.90,5703.4415607,N,00952.0854780,E,2,8,1.2,-1.982,M,40.593,M,2.6,0123*51\r\n
$GPGGA,081412.95,5703.4416069,N,00952.0854928,E,2,8,1.2,-1.980,M,40.593,M,2.6,0123*57\r\n
$GPGGA,081413.00,5703.4416526,N,00952.0855099,E,2,8,1.2,-1.976,M,40.593,M,2.6,0123*5F\r\n
$GPGGA,081413.05,5703.4416981,N,00952.0855283,E,2,8,1.2,-1.971,M,40.593,M,2.8,0123*5B\r\n
$GPGGA,081413.10,5703.4417438,N,00952.0855457,E,2,8,1.2,-1.969,M,40.593,M,2.8,0123*57\r\n
$GPGGA,081413.15,5703.4417885,N,00952.0855652,E,2,8,1.2,-1.966,M,40.593,M,2.8,0123*50\r\n
$GPGGA,081413.20,5703.4418343,N,00952.0855873,E,2,8,1.2,-1.962,M,40.593,M,2.8,0123*51\r\n
$GPGGA,081413.25,5703.4418802,N,00952.0856109,E,2,8,1.2,-1.956,M,40.593,M,2.0,0123*52\r\n
$GPGGA,081413.30,5703.4419263,N,00952.0856350,E,2,8,1.2,-1.953,M,40.593,M,2.0,0123*51\r\n
$GPGGA,081413.35,5703.4419719,N,00952.0856605,E,2,8,1.2,-1.953,M,40.593,M,2.0,0123*59\r\n
$GPGGA,081413.40,5703.4420172,N,00952.0856878,E,2,8,1.2,-1.955,M,40.593,M,2.0,0123*58\r\n
$GPGGA,081413.45,5703.4420626,N,00952.0857168,E,2,8,1.2,-1.951,M,40.593,M,2.2,0123*54\r\n
$GPGGA,081413.50,5703.4421065,N,00952.0857490,E,2,8,1.2,-1.952,M,40.593,M,2.2,0123*51\r\n
$GPGGA,081413.55,5703.4421508,N,00952.0857834,E,2,8,1.2,-1.954,M,40.593,M,2.2,0123*5E\r\n
$GPGGA,081413.60,5703.4421955,N,00952.0858200,E,2,8,1.2,-1.956,M,40.593,M,2.2,0123*5C\r\n
$GPGGA,081413.65,5703.4422392,N,00952.0858574,E,2,8,1.2,-1.965,M,40.593,M,2.4,0123*59\r\n
$GPGGA,081413.70,5703.4422831,N,00952.0858953,E,2,8,1.2,-1.967,M,40.593,M,2.4,0123*54\r\n
$GPGGA,081413.75,5703.4423246,N,00952.0859359,E,2,8,1.2,-1.969,M,40.593,M,2.4,0123*55\r\n
$GPGGA,081413.80,5703.4423646,N,00952.0859785,E,2,8,1.2,-1.972,M,40.593,M,2.4,0123*54\r\n
$GPGGA,081413.85,5703.4424047,N,00952.0860211,E,2,8,1.2,-1.969,M,40.593,M,2.7,0123*5A\r\n
$GPGGA,081413.90,5703.4424440,N,00952.0860654,E,2,8,1.2,-1.968,M,40.593,M,2.7,0123*59\r\n
$GPGGA,081413.95,5703.4424834,N,00952.0861109,E,2,8,1.2,-1.964,M,40.593,M,2.7,0123*51\r\n
$GPGGA,081414.00,5703.4425227,N,00952.0861577,E,2,8,1.2,-1.965,M,40.593,M,2.7,0123*5F\r\n
$GPGGA,081414.05,5703.4425593,N,00952.0862051,E,2,8,1.2,-1.964,M,40.593,M,2.9,0123*5F\r\n
$GPGGA,081414.10,5703.4425966,N,00952.0862545,E,2,8,1.2,-1.961,M,40.593,M,2.9,0123*58\r\n
$GPGGA,081414.15,5703.4426350,N,00952.0863054,E,2,8,1.2,-1.958,M,40.593,M,2.9,0123*5F\r\n
$GPGGA,081414.20,5703.4426713,N,00952.0863569,E,2,8,1.2,-1.957,M,40.593,M,2.9,0123*5E\r\n
$GPGGA,081414.25,5703.4427078,N,00952.0864099,E,2,8,1.2,-1.953,M,40.593,M,3.1,0123*50\r\n
$GPGGA,081414.30,5703.4427445,N,00952.0864655,E,2,8,1.2,-1.953,M,40.593,M,3.1,0123*58\r\n
$GPGGA,081414.35,5703.4427802,N,00952.0865219,E,2,8,1.2,-1.954,M,40.593,M,3.1,0123*58\r\n
$GPGGA,081414.40,5703.4428158,N,00952.0865791,E,2,8,1.2,-1.954,M,40.593,M,3.1,0123*56\r\n
$GPGGA,081414.45,5703.4428512,N,00952.0866359,E,2,8,1.2,-1.956,M,40.593,M,3.3,0123*5A\r\n
$GPGGA,081414.50,5703.4428848,N,00952.0866945,E,2,8,1.2,-1.961,M,40.593,M,3.3,0123*5F\r\n
$GPGGA,081414.55,5703.4429177,N,00952.0867550,E,2,8,1.2,-1.963,M,40.593,M,3.3,0123*55\r\n
$GPGGA,081414.60,5703.4429501,N,00952.0868161,E,2,8,1.2,-1.963,M,40.593,M,3.3,0123*5F\r\n
$GPGGA,081414.65,5703.4429813,N,00952.0868796,E,2,8,1.2,-1.969,M,40.593,M,3.5,0123*56\r\n
$GPGGA,081414.70,5703.4430126,N,00952.0869451,E,2,8,1.2,-1.969,M,40.593,M,3.5,0123*5C\r\n
