$GPGGA,100132.05,5703.3651339,N,00952.0405567,E,2,11,0.9,-1.506,M,40.592,M,2.4,0123*6D\r\n
$GPGGA,100132.10,5703.3651420,N,00952.0404940,E,2,11,0.9,-1.504,M,40.592,M,2.4,0123*6C\r\n
$GPGGA,100132.15,5703.3651506,N,00952.0404303,E,2,11,0.9,-1.500,M,40.592,M,2.4,0123*65\r\n
$GPGGA,100132.20,5703.3651591,N,00952.0403656,E,2,11,0.9,-1.498,M,40.592,M,2.4,0123*6F\r\n
$GPGGA,100132.25,5703.3651673,N,00952.0403015,E,2,11,0.9,-1.498,M,40.592,M,2.6,0123*66\r\n
$GPGGA,100132.30,5703.3651766,N,00952.0402391,E,2,11,0.9,-1.498,M,40.592,M,2.6,0123*69\r\n
$GPGGA,100132.35,5703.3651858,N,00952.0401767,E,2,11,0.9,-1.499,M,40.592,M,2.6,0123*61\r\n
$GPGGA,100132.40,5703.3651957,N,00952.0401148,E,2,11,0.9,-1.499,M,40.592,M,2.6,0123*66\r\n
$GPGGA,100132.45,5703.3652056,N,00952.0400524,E,2,11,0.9,-1.496,M,40.592,M,2.9,0123*67\r\n
$GPGGA,100132.50,5703.3652143,N,00952.0399901,E,2,11,0.9,-1.496,M,40.592,M,2.9,0123*6A\r\n
$GPGGA,100132.55,5703.3652241,N,00952.0399290,E,2,11,0.9,-1.496,M,40.592,M,2.9,0123*6D\r\n
$GPGGA,100132.60,5703.3652341,N,00952.0398680,E,2,11,0.9,-1.495,M,40.592,M,2.9,0123*6D\r\n
$GPGGA,100132.65,5703.3652437,N,00952.0398068,E,2,11,0.9,-1.502,M,40.592,M,1.0,0123*6B\r\n
$GPGGA,100132.70,5703.3652531,N,00952.0397460,E,2,11,0.9,-1.508,M,40.592,M,1.0,0123*61\r\n
$GPGGA,100132.75,5703.3652638,N,00952.0396854,E,2,11,0.9,-1.511,M,40.592,M,1.0,0123*6C\r\n
$GPGGA,100132.80,5703.3652746,N,00952.0396241,E,2,11,0.9,-1.513,M,40.592,M,1.0,0123*62\r\n
$GPGGA,100132.85,5703.3652853,N,00952.0395623,E,2,11,0.9,-1.512,M,40.592,M,1.2,0123*6C\r\n
$GPGGA,100132.90,5703.3652945,N,00952.0394989,E,2,11,0.9,-1.515,M,40.592,M,1.2,0123*67\r\n
$GPGGA,100132.95,5703.3653038,N,00952.0394352,E,2,11,0.9,-1.517,M,40.592,M,1.2,0123*6E\r\n
$GPGGA,100133.00,5703.3653120,N,00952.0393700,E,2,11,0.9,-1.521,M,40.592,M,1.2,0123*6A\r\n
$GPGGA,100133.05,5703.3653189,N,00952.0393043,E,2,11,0.9,-1.527,M,40.592,M,1.5,0123*6D\r\n
$GPGGA,100133.10,5703.3653264,N,00952.0392385,E,2,11,0.9,-1.527,M,40.592,M,1.5,0123*61\r\n
$GPGGA,100133.15,5703.3653349,N,00952.0391716,E,2,11,0.9,-1.524,M,40.592,M,1.5,0123*64\r\n
$GPGGA,100133.20,5703.3653412,N,00952.0391053,E,2,11,0.9,-1.522,M,40.592,M,1.5,0123*6B\r\n
$GPGGA,100133.25,5703.3653480,N,00952.0390391,E,2,11,0.9,-1.516,M,40.592,M,1.7,0123*6C\r\n
$GPGGA,100133.30,5703.3653545,N,00952.0389713,E,2,11,0.9,-1.514,M,40.592,M,1.7,0123*64\r\n
$GPGGA,100133.35,5703.3653608,N,00952.0389040,E,2,11,0.9,-1.509,M,40.592,M,1.7,0123*66\r\n
$GPGGA,100133.40,5703.3653668,N,00952.0388368,E,2,11,0.9,-1.503,M,40.592,M,1.7,0123*60\r\n
$GPGGA,100133.45,5703.3653735,N,00952.0387711,E,2,11,0.9,-1.496,M,40.592,M,2.0,0123*60\r\n
$GPGGA,100133.50,5703.3653799,N,00952.0387069,E,2,11,0.9,-1.492,M,40.592,M,2.0,0123*6E\r\n
$GPGGA,100133.55,5703.3653868,N,00952.0386440,E,2,11,0.9,-1.486,M,40.592,M,2.0,0123*61\r\n
$GPGGA,100133.60,5703.3653951,N,00952.0385820,E,2,11,0.9,-1.481,M,40.592,M,2.0,0123*62\r\n
$GPGGA,100133.65,5703.3654030,N,00952.0385199,E,2,11,0.9,-1.480,M,40.592,M,1.0,0123*67\r\n
$GPGGA,100133.70,5703.3654128,N,00952.0384582,E,2,11,0.9,-1.478,M,40.592,M,1.0,0123*63\r\n
$GPGGA,100133.75,5703.3654222,N,00952.0383966,E,2,11,0.9,-1.477,M,40.592,M,1.0,0123*61\r\n
$GPGGA,100133.80,5703.3654309,N,00952.0383359,E,2,11,0.9,-1.479,M,40.592,M,1.0,0123*6B\r\n
$GPGGA,100133.85,5703.3654412,N,00952.0382754,E,2,11,0.9,-1.480,M,40.592,M,1.3,0123*6E\r\n
$GPGGA,100133.90,5703.3654514,N,00952.0382145,E,2,11,0.9,-1.485,M,40.592,M,1.3,0123*6E\r\n
$GPGGA,100133.95,5703.3654620,N,00952.0381539,E,2,11,0.9,-1.491,M,40.592,M,1.3,0123*66\r\n
$GPGGA,100134.00,5703.3654729,N,00952.0380929,E,2,11,0.9,-1.499,M,40.592,M,1.3,0123*61\r\n
$GPGGA,100134.05,5703.3654826,N,00952.0380310,E,2,11,0.9,-1.510,M,40.592,M,1.5,0123*62\r\n
$GPGGA,100134.10,5703.3654934,N,00952.0379691,E,2,11,0.9,-1.516,M,40.592,M,1.5,0123*68\r\n
$GPGGA,100134.15,5703.3655033,N,00952.0379054,E,2,11,0.9,-1.523,M,40.592,M,1.5,0123*6B\r\n
$GPGGA,100134.20,5703.3655114,N,00952.0378411,E,2,11,0.9,-1.531,M,40.592,M,1.5,0123*6E\r\n
$GPGGA,100134.25,5703.3655185,N,00952.0377757,E,2,11,0.9,-1.535,M,40.592,M,1.8,0123*64\r\n
$GPGGA,100134.30,5703.3655254,N,00952.0377089,E,2,11,0.9,-1.536,M,40.592,M,1.8,0123*68\r\n
$GPGGA,100134.35,5703.3655326,N,00952.0376420,E,2,11,0.9,-1.537,M,40.592,M,1.8,0123*6E\r\n
$GPGGA,100134.40,5703.3655386,N,00952.0375746,E,2,11,0.9,-1.537,M,40.592,M,1.8,0123*66\r\n
$GPGGA,100134.45,5703.3655456,N,00952.0375084,E,2,11,0.9,-1.535,M,40.592,M,2.0,0123*69\r\n
$GPGGA,100134.50,5703.3655521,N,00952.0374419,E,2,11,0.9,-1.534,M,40.592,M,2.0,0123*6C\r\n
$GPGGA,100134.55,5703.3655584,N,00952.0373755,E,2,11,0.9,-1.530,M,40.592,M,2.0,0123*6E\r\n
$GPGGA,100134.60,5703.3655644,N,00952.0373089,E,2,11,0.9,-1.526,M,40.592,M,2.0,0123*66\r\n
$GPGGA,100134.65,5703.3655702,N,00952.0372436,E,2,11,0.9,-1.521,M,40.592,M,2.2,0123*64\r\n
$GPGGA,100134.70,5703.3655766,N,00952.0371773,E,2,11,0.9,-1.517,M,40.592,M,2.2,0123*66\r\n
$GPGGA,100134.75,5703.3655838,N,00952.0371132,E,2,11,0.9,-1.510,M,40.592,M,2.2,0123*63\r\n
$GPGGA,100134.80,5703.3655923,N,00952.0370496,E,2,11,0.9,-1.505,M,40.592,M,2.2,0123*6C\r\n
$GPGGA,100134.85,5703.3656011,N,00952.0369880,E,2,11,0.9,-1.499,M,40.592,M,2.4,0123*63\r\n
$GPGGA,100134.90,5703.3656101,N,00952.0369262,E,2,11,0.9,-1.497,M,40.592,M,2.4,0123*6F\r\n
$GPGGA,100134.95,5703.3656191,N,00952.0368640,E,2,11,0.9,-1.494,M,40.592,M,2.4,0123*65\r\n
$GPGGA,100135.00,5703.3656280,N,00952.0368023,E,2,11,0.9,-1.489,M,40.592,M,2.4,0123*64\r\n
$GPGGA,100135.05,5703.3656367,N,00952.0367416,E,2,11,0.9,-1.484,M,40.592,M,2.6,0123*6B\r\n
$GPGGA,100135.10,5703.3656467,N,00952.0366808,E,2,11,0.9,-1.484,M,40.592,M,2.6,0123*6A\r\n
$GPGGA,100135.15,5703.3656562,N,00952.0366207,E,2,11,0.9,-1.484,M,40.592,M,2.6,0123*6E\r\n
$GPGGA,100135.20,5703.3656661,N,00952.0365592,E,2,11,0.9,-1.486,M,40.592,M,2.6,0123*62\r\n
$GPGGA,100135.25,5703.3656753,N,00952.0364976,E,2,11,0.9,-1.492,M,40.592,M,2.9,0123*6A\r\n
$GPGGA,100135.30,5703.3656849,N,00952.0364342,E,2,11,0.9,-1.497,M,40.592,M,2.9,0123*62\r\n
$GPGGA,100135.35,5703.3656945,N,00952.0363711,E,2,11,0.9,-1.500,M,40.592,M,2.9,0123*60\r\n
$GPGGA,100135.40,5703.3657035,N,00952.0363073,E,2,11,0.9,-1.503,M,40.592,M,2.9,0123*6D\r\n
$GPGGA,100135.45,5703.3657120,N,00952.0362431,E,2,11,0.9,-1.507,M,40.592,M,3.1,0123*63\r\n
$GPGGA,100135.50,5703.3657211,N,00952.0361792,E,2,11,0.9,-1.509,M,40.592,M,3.1,0123*61\r\n
$GPGGA,100135.55,5703.3657290,N,00952.0361141,E,2,11,0.9,-1.514,M,40.592,M,3.1,0123*69\r\n
$GPGGA,100135.60,5703.3657365,N,00952.0360492,E,2,11,0.9,-1.520,M,40.592,M,3.1,0123*69\r\n
$GPGGA,100135.65,5703.3657443,N,00952.0359832,E,2,11,0.9,-1.527,M,40.592,M,1.8,0123*6F\r\n
$GPGGA,100135.70,5703.3657524,N,00952.0359174,E,2,11,0.9,-1.531,M,40.592,M,1.8,0123*67\r\n
$GPGGA,100135.75,5703.3657601,N,00952.0358528,E,2,11,0.9,-1.532,M,40.592,M,1.8,0123*69\r\n
$GPGGA,100135.80,5703.3657666,N,00952.0357874,E,2,11,0.9,-1.534,M,40.592,M,1.8,0123*6F\r\n
$GPGGA,100135.85,5703.3657735,N,00952.0357208,E,2,11,0.9,-1.530,M,40.592,M,2.1,0123*62\r\n
$GPGGA,100135.90,5703.3657801,N,00952.0356547,E,2,11,0.9,-1.528,M,40.592,M,2.1,0123*6A\r\n
$GPGGA,100135.95,5703.3657867,N,00952.0355898,E,2,11,0.9,-1.525,M,40.592,M,2.1,0123*6E\r\n
$GPGGA,100136.00,5703.3657939,N,00952.0355245,E,2,11,0.9,-1.521,M,40.592,M,2.1,0123*65\r\n
$GPGGA,100136.05,5703.3658013,N,00952.0354611,E,2,11,0.9,-1.513,M,40.592,M,2.4,0123*6E\r\n
$GPGGA,100136.10,5703.3658078,N,00952.0353974,E,2,11,0.9,-1.510,M,40.592,M,2.4,0123*6F\r\n
$GPGGA,100136.15,5703.3658153,N,00952.0353338,E,2,11,0.9,-1.506,M,40.592,M,2.4,0123*67\r\n
$GPGGA,100136.20,5703.3658237,N,00952.0352709,E,2,11,0.9,-1.499,M,40.592,M,2.4,0123*60\r\n
$GPGGA,100136.25,5703.3658320,N,00952.0352071,E,2,11,0.9,-1.494,M,40.592,M,2.7,0123*64\r\n
$GPGGA,100136.30,5703.3658402,N,00952.0351430,E,2,11,0.9,-1.490,M,40.592,M,2.7,0123*61\r\n
$GPGGA,100136.35,5703.3658486,N,00952.0350789,E,2,11,0.9,-1.486,M,40.592,M,2.7,0123*6F\r\n
$GPGGA,100136.40,5703.3658574,N,00952.0350160,E,2,11,0.9,-1.485,M,40.592,M,2.7,0123*63\r\n
$GPGGA,100136.45,5703.3658658,N,00952.0349539,E,2,11,0.9,-1.486,M,40.592,M,2.9,0123*66\r\n
$GPGGA,100136.50,5703.3658745,N,00952.0348912,E,2,11,0.9,-1.486,M,40.592,M,2.9,0123*6B\r\n
$GPGGA,100136.55,5703.3658841,N,00952.0348300,E,2,11,0.9,-1.487,M,40.592,M,2.9,0123*6D\r\n
$GPGGA,100136.60,5703.3658932,N,00952.0347676,E,2,11,0.9,-1.488,M,40.592,M,2.9,0123*6A\r\n
$GPGGA,100136.65,5703.3659021,N,00952.0347042,E,2,11,0.9,-1.493,M,40.592,M,1.0,0123*64\r\n
$GPGGA,100136.70,5703.3659119,N,00952.0346420,E,2,11,0.9,-1.495,M,40.592,M,1.0,0123*6D\r\n
$GPGGA,100136.75,5703.3659213,N,00952.0345799,E,2,11,0.9,-1.497,M,40.592,M,1.0,0123*61\r\n
$GPGGA,100136.80,5703.3659296,N,00952.0345171,E,2,11,0.9,-1.500,M,40.592,M,1.0,0123*69\r\n
$GPGGA,100136.85,5703.3659378,N,00952.0344544,E,2,11,0.9,-1.502,M,40.592,M,1.3,0123*6F\r\n
$GPGGA,100136.90,5703.3659457,N,00952.0343900,E,2,11,0.9,-1.502,M,40.592,M,1.3,0123*6A\r\n
$GPGGA,100136.95,5703.3659535,N,00952.0343266,E,2,11,0.9,-1.505,M,40.592,M,1.3,0123*66\r\n
$GPGGA,100137.00,5703.3659610,N,00952.0342637,E,2,11,0.9,-1.508,M,40.592,M,1.3,0123*63\r\n
$GPGGA,100137.05,5703.3659690,N,00952.0341998,E,2,11,0.9,-1.509,M,40.592,M,1.6,0123*63\r\n
$GPGGA,100137.10,5703.3659767,N,00952.0341346,E,2,11,0.9,-1.513,M,40.592,M,1.6,0123*6C\r\n
$GPGGA,100137.15,5703.3659852,N,00952.0340704,E,2,11,0.9,-1.517,M,40.592,M,1.6,0123*67\r\n
$GPGGA,100137.20,5703.3659941,N,00952.0340063,E,2,11,0.9,-1.522,M,40.592,M,1.6,0123*62\r\n
$GPGGA,100137.25,5703.3660020,N,00952.0339419,E,2,11,0.9,-1.535,M,40.592,M,1.8,0123*6C\r\n
$GPGGA,100137.30,5703.3660111,N,00952.0338780,E,2,11,0.9,-1.540,M,40.592,M,1.8,0123*6B\r\n
$GPGGA,100137.35,5703.3660201,N,00952.0338132,E,2,11,0.9,-1.544,M,40.592,M,1.8,0123*67\r\n
$GPGGA,100137.40,5703.3660281,N,00952.0337482,E,2,11,0.9,-1.543,M,40.592,M,1.8,0123*6B\r\n
$GPGGA,100137.45,5703.3660365,N,00952.0336839,E,2,11,0.9,-1.535,M,40.592,M,2.1,0123*63\r\n
$GPGGA,100137.50,5703.3660437,N,00952.0336183,E,2,11,0.9,-1.531,M,40.592,M,2.1,0123*6B\r\n
$GPGGA,100137.55,5703.3660505,N,00952.0335550,E,2,11,0.9,-1.526,M,40.592,M,2.1,0123*61\r\n
$GPGGA,100137.60,5703.3660580,N,00952.0334932,E,2,11,0.9,-1.520,M,40.592,M,2.1,0123*65\r\n
$GPGGA,100137.65,5703.3660651,N,00952.0334300,E,2,11,0.9,-1.517,M,40.592,M,1.0,0123*62\r\n
$GPGGA,100137.70,5703.3660729,N,00952.0333666,E,2,11,0.9,-1.511,M,40.592,M,1.0,0123*6C\r\n
$GPGGA,100137.75,5703.3660800,N,00952.0333033,E,2,11,0.9,-1.506,M,40.592,M,1.0,0123*6D\r\n
$GPGGA,100137.80,5703.3660870,N,00952.0332403,E,2,11,0.9,-1.498,M,40.592,M,1.0,0123*60\r\n
$GPGGA,100137.85,5703.3660945,N,00952.0331780,E,2,11,0.9,-1.485,M,40.592,M,1.3,0123*66\r\n
$GPGGA,100137.90,5703.3661020,N,00952.0331151,E,2,11,0.9,-1.479,M,40.592,M,1.3,0123*60\r\n
$GPGGA,100137.95,5703.3661099,N,00952.0330525,E,2,11,0.9,-1.475,M,40.592,M,1.3,0123*6D\r\n
$GPGGA,100138.00,5703.3661185,N,00952.0329894,E,2,11,0.9,-1.475,M,40.592,M,1.3,0123*6D\r\n
$GPGGA,100138.05,5703.3661280,N,00952.0329277,E,2,11,0.9,-1.475,M,40.592,M,1.5,0123*6F\r\n
$GPGGA,100138.10,5703.3661369,N,00952.0328640,E,2,11,0.9,-1.477,M,40.592,M,1.5,0123*6E\r\n
$GPGGA,100138.15,5703.3661461,N,00952.0328020,E,2,11,0.9,-1.480,M,40.592,M,1.5,0123*6C\r\n
$GPGGA,100138.20,5703.3661551,N,00952.0327388,E,2,11,0.9,-1.483,M,40.592,M,1.5,0123*65\r\n
$GPGGA,100138.25,5703.3661641,N,00952.0326748,E,2,11,0.9,-1.488,M,40.592,M,1.8,0123*6D\r\n
$GPGGA,100138.30,5703.3661720,N,00952.0326098,E,2,11,0.9,-1.492,M,40.592,M,1.8,0123*6E\r\n
$GPGGA,100138.35,5703.3661799,N,00952.0325457,E,2,11,0.9,-1.495,M,40.592,M,1.8,0123*6A\r\n
$GPGGA,100138.40,5703.3661879,N,00952.0324813,E,2,11,0.9,-1.499,M,40.592,M,1.8,0123*68\r\n
$GPGGA,100138.45,5703.3661951,N,00952.0324157,E,2,11,0.9,-1.504,M,40.592,M,2.0,0123*61\r\n
$GPGGA,100138.50,5703.3662028,N,00952.0323508,E,2,11,0.9,-1.508,M,40.592,M,2.0,0123*64\r\n
$GPGGA,100138.55,5703.3662100,N,00952.0322856,E,2,11,0.9,-1.510,M,40.592,M,2.0,0123*64\r\n
$GPGGA,100138.60,5703.3662183,N,00952.0322211,E,2,11,0.9,-1.512,M,40.592,M,2.0,0123*62\r\n
$GPGGA,100138.65,5703.3662266,N,00952.0321564,E,2,11,0.9,-1.519,M,40.592,M,2.2,0123*60\r\n
$GPGGA,100138.70,5703.3662357,N,00952.0320935,E,2,11,0.9,-1.522,M,40.592,M,2.2,0123*66\r\n
$GPGGA,100138.75,5703.3662436,N,00952.0320300,E,2,11,0.9,-1.523,M,40.592,M,2.2,0123*6E\r\n
$GPGGA,100138.80,5703.3662514,N,00952.0319669,E,2,11,0.9,-1.525,M,40.592,M,2.2,0123*63\r\n
$GPGGA,100138.85,5703.3662592,N,00952.0319051,E,2,11,0.9,-1.525,M,40.592,M,2.4,0123*63\r\n
$GPGGA,100138.90,5703.3662679,N,00952.0318444,E,2,11,0.9,-1.525,M,40.592,M,2.4,0123*60\r\n
$GPGGA,100138.95,5703.3662763,N,00952.0317840,E,2,11,0.9,-1.525,M,40.592,M,2.4,0123*68\r\n
$GPGGA,100139.00,5703.3662848,N,00952.0317235,E,2,11,0.9,-1.524,M,40.592,M,2.4,0123*6A\r\n
$GPGGA,100139.05,5703.3662931,N,00952.0316625,E,2,11,0.9,-1.522,M,40.592,M,2.6,0123*60\r\n
$GPGGA,100139.10,5703.3663017,N,00952.0315996,E,2,11,0.9,-1.520,M,40.592,M,2.6,0123*6E\r\n
$GPGGA,100139.15,5703.3663102,N,00952.0315371,E,2,11,0.9,-1.517,M,40.592,M,2.6,0123*69\r\n
$GPGGA,100139.20,5703.3663188,N,00952.0314737,E,2,11,0.9,-1.513,M,40.592,M,2.6,0123*6E\r\n
$GPGGA,100139.25,5703.3663271,N,00952.0314106,E,2,11,0.9,-1.507,M,40.592,M,2.9,0123*60\r\n
$GPGGA,100139.30,5703.3663337,N,00952.0313446,E,2,11,0.9,-1.505,M,40.592,M,2.9,0123*63\r\n
$GPGGA,100139.35,5703.3663397,N,00952.0312781,E,2,11,0.9,-1.500,M,40.592,M,2.9,0123*60\r\n
$GPGGA,100139.40,5703.3663455,N,00952.0312114,E,2,11,0.9,-1.496,M,40.592,M,2.9,0123*6F\r\n
$GPGGA,100139.45,5703.3663516,N,00952.0311440,E,2,11,0.9,-1.488,M,40.592,M,3.1,0123*6D\r\n
$GPGGA,100139.50,5703.3663569,N,00952.0310761,E,2,11,0.9,-1.483,M,40.592,M,3.1,0123*6B\r\n
$GPGGA,100139.55,5703.3663625,N,00952.0310098,E,2,11,0.9,-1.479,M,40.592,M,3.1,0123*61\r\n
$GPGGA,100139.60,5703.3663682,N,00952.0309432,E,2,11,0.9,-1.475,M,40.592,M,3.1,0123*6A\r\n
$GPGGA,100139.65,5703.3663746,N,00952.0308778,E,2,11,0.9,-1.466,M,40.592,M,1.8,0123*63\r\n
$GPGGA,100139.70,5703.3663821,N,00952.0308143,E,2,11,0.9,-1.460,M,40.592,M,1.8,0123*61\r\n
$GPGGA,100139.75,5703.3663899,N,00952.0307523,E,2,11,0.9,-1.457,M,40.592,M,1.8,0123*6E\r\n
$GPGGA,100139.80,5703.3663980,N,00952.0306895,E,2,11,0.9,-1.456,M,40.592,M,1.8,0123*6D\r\n
$GPGGA,100139.85,5703.3664059,N,00952.0306286,E,2,11,0.9,-1.460,M,40.592,M,2.1,0123*65\r\n
$GPGGA,100139.90,5703.3664148,N,00952.0305687,E,2,11,0.9,-1.462,M,40.592,M,2.1,0123*64\r\n
$GPGGA,100139.95,5703.3664248,N,00952.0305088,E,2,11,0.9,-1.465,M,40.592,M,2.1,0123*6C\r\n
$GPGGA,100140.00,5703.3664344,N,00952.0304497,E,2,11,0.9,-1.471,M,40.592,M,2.1,0123*6D\r\n
$GPGGA,100140.05,5703.3664439,N,00952.0303911,E,2,11,0.9,-1.480,M,40.592,M,2.4,0123*6A\r\n
$GPGGA,100140.10,5703.3664536,N,00952.0303311,E,2,11,0.9,-1.489,M,40.592,M,2.4,0123*63\r\n
$GPGGA,100140.15,5703.3664635,N,00952.0302706,E,2,11,0.9,-1.496,M,40.592,M,2.4,0123*6B\r\n
$GPGGA,100140.20,5703.3664720,N,00952.0302079,E,2,11,0.9,-1.504,M,40.592,M,2.4,0123*6D\r\n
$GPGGA,100140.25,5703.3664794,N,00952.0301435,E,2,11,0.9,-1.509,M,40.592,M,2.7,0123*66\r\n
$GPGGA,100140.30,5703.3664872,N,00952.0300786,E,2,11,0.9,-1.514,M,40.592,M,2.7,0123*63\r\n
$GPGGA,100140.35,5703.3664947,N,00952.0300125,E,2,11,0.9,-1.517,M,40.592,M,2.7,0123*6D\r\n
$GPGGA,100140.40,5703.3665011,N,00952.0299462,E,2,11,0.9,-1.520,M,40.592,M,2.7,0123*67\r\n
$GPGGA,100140.45,5703.3665073,N,00952.0298759,E,2,11,0.9,-1.523,M,40.592,M,2.9,0123*61\r\n
$GPGGA,100140.50,5703.3665132,N,00952.0298058,E,2,11,0.9,-1.523,M,40.592,M,2.9,0123*67\r\n
$GPGGA,100140.55,5703.3665185,N,00952.0297341,E,2,11,0.9,-1.520,M,40.592,M,2.9,0123*69\r\n
$GPGGA,100140.60,5703.3665235,N,00952.0296622,E,2,11,0.9,-1.517,M,40.592,M,2.9,0123*62\r\n
$GPGGA,100140.65,5703.3665296,N,00952.0295895,E,2,11,0.9,-1.506,M,40.592,M,1.0,0123*65\r\n
$GPGGA,100140.70,5703.3665346,N,00952.0295162,E,2,11,0.9,-1.502,M,40.592,M,1.0,0123*68\r\n
$GPGGA,100140.75,5703.3665397,N,00952.0294424,E,2,11,0.9,-1.496,M,40.592,M,1.0,0123*6B\r\n
$GPGGA,100140.80,5703.3665454,N,00952.0293690,E,2,11,0.9,-1.492,M,40.592,M,1.0,0123*67\r\n
$GPGGA,100140.85,5703.3665524,N,00952.0292960,E,2,11,0.9,-1.487,M,40.592,M,1.3,0123*62\r\n
$GPGGA,100140.90,5703.3665600,N,00952.0292240,E,2,11,0.9,-1.480,M,40.592,M,1.3,0123*6D\r\n
$GPGGA,100140.95,5703.3665686,N,00952.0291523,E,2,11,0.9,-1.474,M,40.592,M,1.3,0123*6C\r\n
$GPGGA,100141.00,5703.3665784,N,00952.0290807,E,2,11,0.9,-1.468,M,40.592,M,1.3,0123*65\r\n
$GPGGA,100141.05,5703.3665898,N,00952.0290114,E,2,11,0.9,-1.460,M,40.592,M,1.6,0123*64\r\n
$GPGGA,100141.10,5703.3666007,N,00952.0289423,E,2,11,0.9,-1.455,M,40.592,M,1.6,0123*62\r\n
$GPGGA,100141.15,5703.3666123,N,00952.0288724,E,2,11,0.9,-1.451,M,40.592,M,1.6,0123*61\r\n
$GPGGA,100141.20,5703.3666247,N,00952.0288011,E,2,11,0.9,-1.445,M,40.592,M,1.6,0123*62\r\n
$GPGGA,100141.25,5703.3666365,N,00952.0287293,E,2,11,0.9,-1.443,M,40.592,M,1.8,0123*69\r\n
$GPGGA,100141.30,5703.3666481,N,00952.0286566,E,2,11,0.9,-1.441,M,40.592,M,1.8,0123*6E\r\n
$GPGGA,100141.35,5703.3666593,N,00952.0285811,E,2,11,0.9,-1.439,M,40.592,M,1.8,0123*68\r\n
$GPGGA,100141.40,5703.3666707,N,00952.0285034,E,2,11,0.9,-1.435,M,40.592,M,1.8,0123*66\r\n
$GPGGA,100141.45,5703.3666829,N,00952.0284247,E,2,11,0.9,-1.433,M,40.592,M,2.1,0123*6B\r\n
$GPGGA,100141.50,5703.3666955,N,00952.0283433,E,2,11,0.9,-1.432,M,40.592,M,2.1,0123*66\r\n
$GPGGA,100141.55,5703.3667076,N,00952.0282602,E,2,11,0.9,-1.434,M,40.592,M,2.1,0123*6D\r\n
$GPGGA,100141.60,5703.3667173,N,00952.0281752,E,2,11,0.9,-1.437,M,40.592,M,2.1,0123*6B\r\n
$GPGGA,100141.65,5703.3667266,N,00952.0280879,E,2,11,0.9,-1.444,M,40.592,M,1.0,0123*68\r\n
$GPGGA,100141.70,5703.3667368,N,00952.0279991,E,2,11,0.9,-1.445,M,40.592,M,1.0,0123*63\r\n
$GPGGA,100141.75,5703.3667461,N,00952.0279085,E,2,11,0.9,-1.449,M,40.592,M,1.0,0123*68\r\n
$GPGGA,100141.80,5703.3667563,N,00952.0278175,E,2,11,0.9,-1.450,M,40.592,M,1.0,0123*66\r\n
$GPGGA,100141.85,5703.3667659,N,00952.0277270,E,2,11,0.9,-1.449,M,40.592,M,1.3,0123*6B\r\n
$GPGGA,100141.90,5703.3667761,N,00952.0276361,E,2,11,0.9,-1.449,M,40.592,M,1.3,0123*65\r\n
$GPGGA,100141.95,5703.3667876,N,00952.0275456,E,2,11,0.9,-1.449,M,40.592,M,1.3,0123*69\r\n
$GPGGA,100142.00,5703.3667992,N,00952.0274551,E,2,11,0.9,-1.450,M,40.592,M,1.3,0123*62\r\n
$GPGGA,100142.05,5703.3668115,N,00952.0273655,E,2,11,0.9,-1.451,M,40.592,M,1.5,0123*68\r\n
$GPGGA,100142.10,5703.3668239,N,00952.0272742,E,2,11,0.9,-1.452,M,40.592,M,1.5,0123*64\r\n
$GPGGA,100142.15,5703.3668364,N,00952.0271806,E,2,11,0.9,-1.457,M,40.592,M,1.5,0123*61\r\n
$GPGGA,100142.20,5703.3668496,N,00952.0270870,E,2,11,0.9,-1.460,M,40.592,M,1.5,0123*69\r\n
$GPGGA,100142.25,5703.3668643,N,00952.0269933,E,2,11,0.9,-1.464,M,40.592,M,1.8,0123*61\r\n
$GPGGA,100142.30,5703.3668784,N,00952.0268981,E,2,11,0.9,-1.464,M,40.592,M,1.8,0123*67\r\n
$GPGGA,100142.35,5703.3668922,N,00952.0268024,E,2,11,0.9,-1.465,M,40.592,M,1.8,0123*67\r\n
$GPGGA,100142.40,5703.3669059,N,00952.0267044,E,2,11,0.9,-1.469,M,40.592,M,1.8,0123*64\r\n
$GPGGA,100142.45,5703.3669203,N,00952.0266071,E,2,11,0.9,-1.463,M,40.592,M,2.0,0123*6A\r\n
$GPGGA,100142.50,5703.3669349,N,00952.0265099,E,2,11,0.9,-1.463,M,40.592,M,2.0,0123*64\r\n
$GPGGA,100142.55,5703.3669483,N,00952.0264106,E,2,11,0.9,-1.464,M,40.592,M,2.0,0123*61\r\n
$GPGGA,100142.60,5703.3669614,N,00952.0263114,E,2,11,0.9,-1.461,M,40.592,M,2.0,0123*6A\r\n
$GPGGA,100142.65,5703.3669746,N,00952.0262094,E,2,11,0.9,-1.455,M,40.592,M,2.2,0123*64\r\n
$GPGGA,100142.70,5703.3669874,N,00952.0261068,E,2,11,0.9,-1.449,M,40.592,M,2.2,0123*63\r\n
$GPGGA,100142.75,5703.3669990,N,00952.0260019,E,2,11,0.9,-1.446,M,40.592,M,2.2,0123*65\r\n
$GPGGA,100142.80,5703.3670107,N,00952.0258970,E,2,11,0.9,-1.441,M,40.592,M,2.2,0123*6B\r\n
$GPGGA,100142.85,5703.3670223,N,00952.0257912,E,2,11,0.9,-1.431,M,40.592,M,2.4,0123*61\r\n
$GPGGA,100142.90,5703.3670323,N,00952.0256852,E,2,11,0.9,-1.426,M,40.592,M,2.4,0123*66\r\n
$GPGGA,100142.95,5703.3670412,N,00952.0255780,E,2,11,0.9,-1.424,M,40.592,M,2.4,0123*67\r\n
$GPGGA,100143.00,5703.3670499,N,00952.0254693,E,2,11,0.9,-1.421,M,40.592,M,2.4,0123*6E\r\n
$GPGGA,100143.05,5703.3670582,N,00952.0253608,E,2,11,0.9,-1.414,M,40.592,M,2.6,0123*61\r\n
$GPGGA,100143.10,5703.3670655,N,00952.0252510,E,2,11,0.9,-1.407,M,40.592,M,2.6,0123*65\r\n
$GPGGA,100143.15,5703.3670714,N,00952.0251405,E,2,11,0.9,-1.404,M,40.592,M,2.6,0123*61\r\n
$GPGGA,100143.20,5703.3670776,N,00952.0250308,E,2,11,0.9,-1.403,M,40.592,M,2.6,0123*6F\r\n
$GPGGA,100143.25,5703.3670836,N,00952.0249188,E,2,11,0.9,-1.400,M,40.592,M,2.9,0123*6F\r\n
$GPGGA,100143.30,5703.3670884,N,00952.0248079,E,2,11,0.9,-1.397,M,40.592,M,2.9,0123*65\r\n
$GPGGA,100143.35,5703.3670925,N,00952.0246941,E,2,11,0.9,-1.394,M,40.592,M,2.9,0123*65\r\n
$GPGGA,100143.40,5703.3670970,N,00952.0245830,E,2,11,0.9,-1.390,M,40.592,M,2.9,0123*67\r\n
$GPGGA,100143.45,5703.3671001,N,00952.0244718,E,2,11,0.9,-1.391,M,40.592,M,3.1,0123*60\r\n
$GPGGA,100143.50,5703.3671034,N,00952.0243599,E,2,11,0.9,-1.395,M,40.592,M,3.1,0123*6A\r\n
$GPGGA,100143.55,5703.3671066,N,00952.0242477,E,2,11,0.9,-1.397,M,40.592,M,3.1,0123*6A\r\n
$GPGGA,100143.60,5703.3671110,N,00952.0241349,E,2,11,0.9,-1.401,M,40.592,M,3.1,0123*6D\r\n
$GPGGA,100143.65,5703.3671149,N,00952.0240234,E,2,11,0.9,-1.410,M,40.592,M,1.8,0123*65\r\n
$GPGGA,100143.70,5703.3671182,N,00952.0239119,E,2,11,0.9,-1.417,M,40.592,M,1.8,0123*63\r\n
$GPGGA,100143.75,5703.3671219,N,00952.0237992,E,2,11,0.9,-1.426,M,40.592,M,1.8,0123*60\r\n
$GPGGA,100143.80,5703.3671265,N,00952.0236840,E,2,11,0.9,-1.435,M,40.592,M,1.8,0123*6C\r\n
$GPGGA,100143.85,5703.3671304,N,00952.0235683,E,2,11,0.9,-1.444,M,40.592,M,2.1,0123*61\r\n
$GPGGA,100143.90,5703.3671335,N,00952.0234539,E,2,11,0.9,-1.453,M,40.592,M,2.1,0123*62\r\n
$GPGGA,100143.95,5703.3671375,N,00952.0233400,E,2,11,0.9,-1.461,M,40.592,M,2.1,0123*6E\r\n
$GPGGA,100144.00,5703.3671408,N,00952.0232257,E,2,11,0.9,-1.468,M,40.592,M,2.1,0123*64\r\n
$GPGGA,100144.05,5703.3671448,N,00952.0231106,E,2,11,0.9,-1.469,M,40.592,M,2.4,0123*65\r\n
$GPGGA,100144.10,5703.3671462,N,00952.0229945,E,2,11,0.9,-1.474,M,40.592,M,2.4,0123*63\r\n
$GPGGA,100144.15,5703.3671467,N,00952.0228786,E,2,11,0.9,-1.480,M,40.592,M,2.4,0123*68\r\n
$GPGGA,100144.20,5703.3671465,N,00952.0227625,E,2,11,0.9,-1.486,M,40.592,M,2.4,0123*6D\r\n
$GPGGA,100144.25,5703.3671460,N,00952.0226449,E,2,11,0.9,-1.492,M,40.592,M,2.7,0123*62\r\n
$GPGGA,100144.30,5703.3671451,N,00952.0225281,E,2,11,0.9,-1.494,M,40.592,M,2.7,0123*63\r\n
$GPGGA,100144.35,5703.3671425,N,00952.0224098,E,2,11,0.9,-1.497,M,40.592,M,2.7,0123*6D\r\n
$GPGGA,100144.40,5703.3671385,N,00952.0222908,E,2,11,0.9,-1.499,M,40.592,M,2.7,0123*6A\r\n
$GPGGA,100144.45,5703.3671347,N,00952.0221726,E,2,11,0.9,-1.488,M,40.592,M,2.9,0123*6E\r\n
$GPGGA,100144.50,5703.3671294,N,00952.0220544,E,2,11,0.9,-1.485,M,40.592,M,2.9,0123*6F\r\n
$GPGGA,100144.55,5703.3671245,N,00952.0219354,E,2,11,0.9,-1.481,M,40.592,M,2.9,0123*6F\r\n
$GPGGA,100144.60,5703.3671184,N,00952.0218148,E,2,11,0.9,-1.474,M,40.592,M,2.9,0123*63\r\n
$GPGGA,100144.65,5703.3671096,N,00952.0216942,E,2,11,0.9,-1.471,M,40.592,M,1.0,0123*67\r\n
$GPGGA,100144.70,5703.3670994,N,00952.0215739,E,2,11,0.9,-1.467,M,40.592,M,1.0,0123*6F\r\n
$GPGGA,100144.75,5703.3670886,N,00952.0214533,E,2,11,0.9,-1.463,M,40.592,M,1.0,0123*65\r\n
$GPGGA,100144.80,5703.3670761,N,00952.0213337,E,2,11,0.9,-1.458,M,40.592,M,1.0,0123*64\r\n
$GPGGA,100144.85,5703.3670634,N,00952.0212127,E,2,11,0.9,-1.451,M,40.592,M,1.3,0123*68\r\n
$GPGGA,100144.90,5703.3670500,N,00952.0210919,E,2,11,0.9,-1.448,M,40.592,M,1.3,0123*67\r\n
$GPGGA,100144.95,5703.3670364,N,00952.0209724,E,2,11,0.9,-1.442,M,40.592,M,1.3,0123*64\r\n
$GPGGA,100145.00,5703.3670211,N,00952.0208526,E,2,11,0.9,-1.437,M,40.592,M,1.3,0123*69\r\n
$GPGGA,100145.05,5703.3670060,N,00952.0207358,E,2,11,0.9,-1.425,M,40.592,M,1.6,0123*6E\r\n
$GPGGA,100145.10,5703.3669881,N,00952.0206182,E,2,11,0.9,-1.418,M,40.592,M,1.6,0123*6F\r\n
$GPGGA,100145.15,5703.3669700,N,00952.0204997,E,2,11,0.9,-1.413,M,40.592,M,1.6,0123*69\r\n
$GPGGA,100145.20,5703.3669510,N,00952.0203825,E,2,11,0.9,-1.411,M,40.592,M,1.6,0123*61\r\n
$GPGGA,100145.25,5703.3669322,N,00952.0202661,E,2,11,0.9,-1.404,M,40.592,M,1.8,0123*66\r\n
$GPGGA,100145.30,5703.3669122,N,00952.0201516,E,2,11,0.9,-1.401,M,40.592,M,1.8,0123*65\r\n
$GPGGA,100145.35,5703.3668914,N,00952.0200363,E,2,11,0.9,-1.397,M,40.592,M,1.8,0123*61\r\n
$GPGGA,100145.40,5703.3668700,N,00952.0199238,E,2,11,0.9,-1.392,M,40.592,M,1.8,0123*61\r\n
$GPGGA,100145.45,5703.3668467,N,00952.0198115,E,2,11,0.9,-1.391,M,40.592,M,2.1,0123*62\r\n
$GPGGA,100145.50,5703.3668235,N,00952.0196996,E,2,11,0.9,-1.393,M,40.592,M,2.1,0123*68\r\n
$GPGGA,100145.55,5703.3668003,N,00952.0195890,E,2,11,0.9,-1.392,M,40.592,M,2.1,0123*6F\r\n
$GPGGA,100145.60,5703.3667768,N,00952.0194781,E,2,11,0.9,-1.392,M,40.592,M,2.1,0123*62\r\n
$GPGGA,100145.65,5703.3667528,N,00952.0193668,E,2,11,0.9,-1.393,M,40.592,M,1.0,0123*63\r\n
$GPGGA,100145.70,5703.3667279,N,00952.0192574,E,2,11,0.9,-1.397,M,40.592,M,1.0,0123*6F\r\n
$GPGGA,100145.75,5703.3667029,N,00952.0191499,E,2,11,0.9,-1.398,M,40.592,M,1.0,0123*63\r\n
$GPGGA,100145.80,5703.3666766,N,00952.0190431,E,2,11,0.9,-1.399,M,40.592,M,1.0,0123*66\r\n
$GPGGA,100145.85,5703.3666499,N,00952.0189362,E,2,11,0.9,-1.406,M,40.592,M,1.3,0123*6B\r\n
$GPGGA,100145.90,5703.3666231,N,00952.0188302,E,2,11,0.9,-1.408,M,40.592,M,1.3,0123*62\r\n
$GPGGA,100145.95,5703.3665955,N,00952.0187267,E,2,11,0.9,-1.411,M,40.592,M,1.3,0123*68\r\n
$GPGGA,100146.00,5703.3665674,N,00952.0186225,E,2,11,0.9,-1.413,M,40.592,M,1.3,0123*6E\r\n
$GPGGA,100146.05,5703.3665405,N,00952.0185192,E,2,11,0.9,-1.411,M,40.592,M,1.5,0123*67\r\n
$GPGGA,100146.10,5703.3665120,N,00952.0184165,E,2,11,0.9,-1.413,M,40.592,M,1.5,0123*6A\r\n
$GPGGA,100146.15,5703.3664829,N,00952.0183149,E,2,11,0.9,-1.418,M,40.592,M,1.5,0123*6C\r\n
$GPGGA,100146.20,5703.3664534,N,00952.0182141,E,2,11,0.9,-1.420,M,40.592,M,1.5,0123*69\r\n
$GPGGA,100146.25,5703.3664227,N,00952.0181142,E,2,11,0.9,-1.425,M,40.592,M,1.8,0123*61\r\n
$GPGGA,100146.30,5703.3663918,N,00952.0180151,E,2,11,0.9,-1.426,M,40.592,M,1.8,0123*65\r\n
$GPGGA,100146.35,5703.3663585,N,00952.0179165,E,2,11,0.9,-1.431,M,40.592,M,1.8,0123*6F\r\n
$GPGGA,100146.40,5703.3663252,N,00952.0178189,E,2,11,0.9,-1.435,M,40.592,M,1.8,0123*67\r\n
$GPGGA,100146.45,5703.3662916,N,00952.0177231,E,2,11,0.9,-1.434,M,40.592,M,2.0,0123*6D\r\n
$GPGGA,100146.50,5703.3662576,N,00952.0176293,E,2,11,0.9,-1.436,M,40.592,M,2.0,0123*68\r\n
$GPGGA,100146.55,5703.3662225,N,00952.0175348,E,2,11,0.9,-1.439,M,40.592,M,2.0,0123*67\r\n
$GPGGA,100146.60,5703.3661866,N,00952.0174435,E,2,11,0.9,-1.442,M,40.592,M,2.0,0123*6F\r\n
$GPGGA,100146.65,5703.3661497,N,00952.0173531,E,2,11,0.9,-1.442,M,40.592,M,2.2,0123*68\r\n
$GPGGA,100146.70,5703.3661118,N,00952.0172630,E,2,11,0.9,-1.445,M,40.592,M,2.2,0123*6A\r\n
$GPGGA,100146.75,5703.3660737,N,00952.0171740,E,2,11,0.9,-1.446,M,40.592,M,2.2,0123*63\r\n
$GPGGA,100146.80,5703.3660353,N,00952.0170861,E,2,11,0.9,-1.446,M,40.592,M,2.2,0123*62\r\n
$GPGGA,100146.85,5703.3659965,N,00952.0170006,E,2,11,0.9,-1.447,M,40.592,M,2.4,0123*6C\r\n
$GPGGA,100146.90,5703.3659571,N,00952.0169147,E,2,11,0.9,-1.444,M,40.592,M,2.4,0123*6E\r\n
$GPGGA,100146.95,5703.3659169,N,00952.0168294,E,2,11,0.9,-1.444,M,40.592,M,2.4,0123*6A\r\n
$GPGGA,100147.00,5703.3658769,N,00952.0167440,E,2,11,0.9,-1.444,M,40.592,M,2.4,0123*60\r\n
$GPGGA,100147.05,5703.3658371,N,00952.0166611,E,2,11,0.9,-1.442,M,40.592,M,2.6,0123*6B\r\n
$GPGGA,100147.10,5703.3657961,N,00952.0165788,E,2,11,0.9,-1.440,M,40.592,M,2.6,0123*6B\r\n
$GPGGA,100147.15,5703.3657539,N,00952.0164978,E,2,11,0.9,-1.438,M,40.592,M,2.6,0123*60\r\n
$GPGGA,100147.20,5703.3657126,N,00952.0164173,E,2,11,0.9,-1.434,M,40.592,M,2.6,0123*63\r\n
$GPGGA,100147.25,5703.3656716,N,00952.0163362,E,2,11,0.9,-1.430,M,40.592,M,2.9,0123*6C\r\n
$GPGGA,100147.30,5703.3656297,N,00952.0162552,E,2,11,0.9,-1.427,M,40.592,M,2.9,0123*66\r\n
$GPGGA,100147.35,5703.3655866,N,00952.0161763,E,2,11,0.9,-1.426,M,40.592,M,2.9,0123*66\r\n
$GPGGA,100147.40,5703.3655444,N,00952.0160989,E,2,11,0.9,-1.423,M,40.592,M,2.9,0123*66\r\n
$GPGGA,100147.45,5703.3655022,N,00952.0160219,E,2,11,0.9,-1.419,M,40.592,M,3.1,0123*65\r\n
$GPGGA,100147.50,5703.3654586,N,00952.0159450,E,2,11,0.9,-1.417,M,40.592,M,3.1,0123*64\r\n
$GPGGA,100147.55,5703.3654145,N,00952.0158691,E,2,11,0.9,-1.416,M,40.592,M,3.1,0123*65\r\n
$GPGGA,100147.60,5703.3653711,N,00952.0157951,E,2,11,0.9,-1.415,M,40.592,M,3.1,0123*6C\r\n
$GPGGA,100147.65,5703.3653273,N,00952.0157210,E,2,11,0.9,-1.411,M,40.592,M,1.8,0123*69\r\n
$GPGGA,100147.70,5703.3652824,N,00952.0156471,E,2,11,0.9,-1.409,M,40.592,M,1.8,0123*6D\r\n
$GPGGA,100147.75,5703.3652378,N,00952.0155739,E,2,11,0.9,-1.408,M,40.592,M,1.8,0123*67\r\n
$GPGGA,100147.80,5703.3651924,N,00952.0155025,E,2,11,0.9,-1.409,M,40.592,M,1.8,0123*66\r\n
$GPGGA,100147.85,5703.3651469,N,00952.0154306,E,2,11,0.9,-1.411,M,40.592,M,2.1,0123*67\r\n
$GPGGA,100147.90,5703.3651004,N,00952.0153600,E,2,11,0.9,-1.410,M,40.592,M,2.1,0123*69\r\n
$GPGGA,100147.95,5703.3650542,N,00952.0152911,E,2,11,0.9,-1.411,M,40.592,M,2.1,0123*65\r\n
$GPGGA,100148.00,5703.3650074,N,00952.0152224,E,2,11,0.9,-1.412,M,40.592,M,2.1,0123*68\r\n
$GPGGA,100148.05,5703.3649611,N,00952.0151545,E,2,11,0.9,-1.408,M,40.592,M,2.4,0123*6D\r\n
$GPGGA,100148.10,5703.3649137,N,00952.0150887,E,2,11,0.9,-1.409,M,40.592,M,2.4,0123*69\r\n
$GPGGA,100148.15,5703.3648656,N,00952.0150257,E,2,11,0.9,-1.409,M,40.592,M,2.4,0123*6A\r\n
$GPGGA,100148.20,5703.3648171,N,00952.0149639,E,2,11,0.9,-1.410,M,40.592,M,2.4,0123*62\r\n
$GPGGA,100148.25,5703.3647679,N,00952.0149022,E,2,11,0.9,-1.411,M,40.592,M,2.7,0123*69\r\n
$GPGGA,100148.30,5703.3647185,N,00952.0148408,E,2,11,0.9,-1.413,M,40.592,M,2.7,0123*66\r\n
$GPGGA,100148.35,5703.3646682,N,00952.0147813,E,2,11,0.9,-1.415,M,40.592,M,2.7,0123*6D\r\n
$GPGGA,100148.40,5703.3646184,N,00952.0147242,E,2,11,0.9,-1.418,M,40.592,M,2.7,0123*6D\r\n
$GPGGA,100148.45,5703.3645679,N,00952.0146672,E,2,11,0.9,-1.421,M,40.592,M,2.9,0123*6C\r\n
$GPGGA,100148.50,5703.3645168,N,00952.0146110,E,2,11,0.9,-1.423,M,40.592,M,2.9,0123*6E\r\n
$GPGGA,100148.55,5703.3644662,N,00952.0145543,E,2,11,0.9,-1.426,M,40.592,M,2.9,0123*63\r\n
$GPGGA,100148.60,5703.3644148,N,00952.0144996,E,2,11,0.9,-1.429,M,40.592,M,2.9,0123*60\r\n
$GPGGA,100148.65,5703.3643632,N,00952.0144468,E,2,11,0.9,-1.431,M,40.592,M,1.0,0123*67\r\n
$GPGGA,100148.70,5703.3643118,N,00952.0143950,E,2,11,0.9,-1.431,M,40.592,M,1.0,0123*6D\r\n
$GPGGA,100148.75,5703.3642586,N,00952.0143443,E,2,11,0.9,-1.433,M,40.592,M,1.0,0123*67\r\n
$GPGGA,100148.80,5703.3642060,N,00952.0142941,E,2,11,0.9,-1.434,M,40.592,M,1.0,0123*69\r\n
$GPGGA,100148.85,5703.3641546,N,00952.0142459,E,2,11,0.9,-1.423,M,40.592,M,1.3,0123*6F\r\n
$GPGGA,100148.90,5703.3641022,N,00952.0141969,E,2,11,0.9,-1.421,M,40.592,M,1.3,0123*63\r\n
$GPGGA,100148.95,5703.3640490,N,00952.0141487,E,2,11,0.9,-1.422,M,40.592,M,1.3,0123*64\r\n
$GPGGA,100149.00,5703.3639957,N,00952.0141004,E,2,11,0.9,-1.426,M,40.592,M,1.3,0123*6A\r\n
$GPGGA,100149.05,5703.3639425,N,00952.0140534,E,2,11,0.9,-1.428,M,40.592,M,1.6,0123*6B\r\n
$GPGGA,100149.10,5703.3638889,N,00952.0140081,E,2,11,0.9,-1.426,M,40.592,M,1.6,0123*61\r\n
$GPGGA,100149.15,5703.3638353,N,00952.0139632,E,2,11,0.9,-1.420,M,40.592,M,1.6,0123*6E\r\n
$GPGGA,100149.20,5703.3637813,N,00952.0139180,E,2,11,0.9,-1.421,M,40.592,M,1.6,0123*67\r\n
$GPGGA,100149.25,5703.3637275,N,00952.0138729,E,2,11,0.9,-1.418,M,40.592,M,1.8,0123*68\r\n
$GPGGA,100149.30,5703.3636724,N,00952.0138291,E,2,11,0.9,-1.414,M,40.592,M,1.8,0123*66\r\n
$GPGGA,100149.35,5703.3636166,N,00952.0137856,E,2,11,0.9,-1.412,M,40.592,M,1.8,0123*6B\r\n
$GPGGA,100149.40,5703.3635613,N,00952.0137426,E,2,11,0.9,-1.409,M,40.592,M,1.8,0123*6E\r\n
$GPGGA,100149.45,5703.3635055,N,00952.0137006,E,2,11,0.9,-1.411,M,40.592,M,2.1,0123*6A\r\n
$GPGGA,100149.50,5703.3634495,N,00952.0136590,E,2,11,0.9,-1.410,M,40.592,M,2.1,0123*6D\r\n
$GPGGA,100149.55,5703.3633931,N,00952.0136200,E,2,11,0.9,-1.408,M,40.592,M,2.1,0123*6B\r\n
$GPGGA,100149.60,5703.3633376,N,00952.0135831,E,2,11,0.9,-1.406,M,40.592,M,2.1,0123*61\r\n
$GPGGA,100149.65,5703.3632812,N,00952.0135474,E,2,11,0.9,-1.405,M,40.592,M,1.0,0123*60\r\n
$GPGGA,100149.70,5703.3632242,N,00952.0135115,E,2,11,0.9,-1.407,M,40.592,M,1.0,0123*6B\r\n
$GPGGA,100149.75,5703.3631676,N,00952.0134766,E,2,11,0.9,-1.407,M,40.592,M,1.0,0123*6D\r\n
$GPGGA,100149.80,5703.3631108,N,00952.0134427,E,2,11,0.9,-1.404,M,40.592,M,1.0,0123*6C\r\n
$GPGGA,100149.85,5703.3630520,N,00952.0134086,E,2,11,0.9,-1.407,M,40.592,M,1.3,0123*69\r\n
$GPGGA,100149.90,5703.3629947,N,00952.0133758,E,2,11,0.9,-1.408,M,40.592,M,1.3,0123*64\r\n
$GPGGA,100149.95,5703.3629375,N,00952.0133438,E,2,11,0.9,-1.407,M,40.592,M,1.3,0123*60\r\n
$GPGGA,100150.00,5703.3628791,N,00952.0133137,E,2,11,0.9,-1.407,M,40.592,M,1.3,0123*61\r\n
$GPGGA,100150.05,5703.3628217,N,00952.0132842,E,2,11,0.9,-1.403,M,40.592,M,1.5,0123*67\r\n
$GPGGA,100150.10,5703.3627633,N,00952.0132540,E,2,11,0.9,-1.401,M,40.592,M,1.5,0123*63\r\n
$GPGGA,100150.15,5703.3627044,N,00952.0132244,E,2,11,0.9,-1.400,M,40.592,M,1.5,0123*62\r\n
$GPGGA,100150.20,5703.3626452,N,00952.0131958,E,2,11,0.9,-1.402,M,40.592,M,1.5,0123*61\r\n
$GPGGA,100150.25,5703.3625861,N,00952.0131691,E,2,11,0.9,-1.405,M,40.592,M,1.8,0123*6B\r\n
$GPGGA,100150.30,5703.3625273,N,00952.0131431,E,2,11,0.9,-1.405,M,40.592,M,1.8,0123*6E\r\n
$GPGGA,100150.35,5703.3624683,N,00952.0131188,E,2,11,0.9,-1.404,M,40.592,M,1.8,0123*67\r\n
$GPGGA,100150.40,5703.3624094,N,00952.0130930,E,2,11,0.9,-1.402,M,40.592,M,1.8,0123*69\r\n
$GPGGA,100150.45,5703.3623493,N,00952.0130680,E,2,11,0.9,-1.402,M,40.592,M,2.0,0123*67\r\n
$GPGGA,100150.50,5703.3622888,N,00952.0130439,E,2,11,0.9,-1.403,M,40.592,M,2.0,0123*65\r\n
$GPGGA,100150.55,5703.3622283,N,00952.0130206,E,2,11,0.9,-1.405,M,40.592,M,2.0,0123*6D\r\n
$GPGGA,100150.60,5703.3621682,N,00952.0129964,E,2,11,0.9,-1.405,M,40.592,M,2.0,0123*6A\r\n
$GPGGA,100150.65,5703.3621083,N,00952.0129722,E,2,11,0.9,-1.406,M,40.592,M,2.2,0123*65\r\n
$GPGGA,100150.70,5703.3620483,N,00952.0129503,E,2,11,0.9,-1.404,M,40.592,M,2.2,0123*67\r\n
$GPGGA,100150.75,5703.3619880,N,00952.0129280,E,2,11,0.9,-1.399,M,40.592,M,2.2,0123*68\r\n
$GPGGA,100150.80,5703.3619276,N,00952.0129076,E,2,11,0.9,-1.399,M,40.592,M,2.2,0123*6A\r\n
$GPGGA,100150.85,5703.3618672,N,00952.0128891,E,2,11,0.9,-1.395,M,40.592,M,2.4,0123*64\r\n
$GPGGA,100150.90,5703.3618071,N,00952.0128713,E,2,11,0.9,-1.397,M,40.592,M,2.4,0123*62\r\n
$GPGGA,100150.95,5703.3617459,N,00952.0128544,E,2,11,0.9,-1.398,M,40.592,M,2.4,0123*69\r\n
$GPGGA,100151.00,5703.3616843,N,00952.0128357,E,2,11,0.9,-1.395,M,40.592,M,2.4,0123*6B\r\n
$GPGGA,100151.05,5703.3616245,N,00952.0128177,E,2,11,0.9,-1.392,M,40.592,M,2.6,0123*67\r\n
$GPGGA,100151.10,5703.3615644,N,00952.0128021,E,2,11,0.9,-1.389,M,40.592,M,2.6,0123*6D\r\n
$GPGGA,100151.15,5703.3615035,N,00952.0127887,E,2,11,0.9,-1.389,M,40.592,M,2.6,0123*63\r\n
$GPGGA,100151.20,5703.3614422,N,00952.0127747,E,2,11,0.9,-1.388,M,40.592,M,2.6,0123*64\r\n
$GPGGA,100151.25,5703.3613808,N,00952.0127612,E,2,11,0.9,-1.388,M,40.592,M,2.9,0123*6C\r\n
$GPGGA,100151.30,5703.3613195,N,00952.0127489,E,2,11,0.9,-1.391,M,40.592,M,2.9,0123*6D\r\n
$GPGGA,100151.35,5703.3612589,N,00952.0127390,E,2,11,0.9,-1.395,M,40.592,M,2.9,0123*6B\r\n
$GPGGA,100151.40,5703.3611979,N,00952.0127303,E,2,11,0.9,-1.397,M,40.592,M,2.9,0123*61\r\n
$GPGGA,100151.45,5703.3611371,N,00952.0127231,E,2,11,0.9,-1.397,M,40.592,M,3.1,0123*6F\r\n
$GPGGA,100151.50,5703.3610760,N,00952.0127169,E,2,11,0.9,-1.399,M,40.592,M,3.1,0123*6E\r\n
$GPGGA,100151.55,5703.3610155,N,00952.0127114,E,2,11,0.9,-1.401,M,40.592,M,3.1,0123*67\r\n
$GPGGA,100151.60,5703.3609546,N,00952.0127072,E,2,11,0.9,-1.403,M,40.592,M,3.1,0123*6C\r\n
$GPGGA,100151.65,5703.3608939,N,00952.0127045,E,2,11,0.9,-1.408,M,40.592,M,1.8,0123*68\r\n
$GPGGA,100151.70,5703.3608327,N,00952.0127017,E,2,11,0.9,-1.410,M,40.592,M,1.8,0123*67\r\n
$GPGGA,100151.75,5703.3607719,N,00952.0127018,E,2,11,0.9,-1.413,M,40.592,M,1.8,0123*68\r\n
$GPGGA,100151.80,5703.3607121,N,00952.0127026,E,2,11,0.9,-1.415,M,40.592,M,1.8,0123*64\r\n
$GPGGA,100151.85,5703.3606513,N,00952.0127037,E,2,11,0.9,-1.419,M,40.592,M,2.1,0123*63\r\n
$GPGGA,100151.90,5703.3605897,N,00952.0127055,E,2,11,0.9,-1.421,M,40.592,M,2.1,0123*6A\r\n
$GPGGA,100151.95,5703.3605275,N,00952.0127079,E,2,11,0.9,-1.426,M,40.592,M,2.1,0123*60\r\n
$GPGGA,100152.00,5703.3604657,N,00952.0127140,E,2,11,0.9,-1.431,M,40.592,M,2.1,0123*67\r\n
$GPGGA,100152.05,5703.3604043,N,00952.0127196,E,2,11,0.9,-1.437,M,40.592,M,2.4,0123*69\r\n
$GPGGA,100152.10,5703.3603432,N,00952.0127274,E,2,11,0.9,-1.442,M,40.592,M,2.4,0123*65\r\n
$GPGGA,100152.15,5703.3602816,N,00952.0127350,E,2,11,0.9,-1.443,M,40.592,M,2.4,0123*6D\r\n
$GPGGA,100152.20,5703.3602200,N,00952.0127423,E,2,11,0.9,-1.444,M,40.592,M,2.4,0123*62\r\n
$GPGGA,100152.25,5703.3601585,N,00952.0127522,E,2,11,0.9,-1.439,M,40.592,M,2.7,0123*67\r\n
$GPGGA,100152.30,5703.3600977,N,00952.0127609,E,2,11,0.9,-1.435,M,40.592,M,2.7,0123*65\r\n
$GPGGA,100152.35,5703.3600375,N,00952.0127723,E,2,11,0.9,-1.431,M,40.592,M,2.7,0123*65\r\n
$GPGGA,100152.40,5703.3599766,N,00952.0127837,E,2,11,0.9,-1.426,M,40.592,M,2.7,0123*6E\r\n
$GPGGA,100152.45,5703.3599153,N,00952.0127958,E,2,11,0.9,-1.423,M,40.592,M,2.9,0123*68\r\n
$GPGGA,100152.50,5703.3598540,N,00952.0128084,E,2,11,0.9,-1.423,M,40.592,M,2.9,0123*6C\r\n
$GPGGA,100152.55,5703.3597926,N,00952.0128221,E,2,11,0.9,-1.420,M,40.592,M,2.9,0123*64\r\n
$GPGGA,100152.60,5703.3597314,N,00952.0128360,E,2,11,0.9,-1.417,M,40.592,M,2.9,0123*69\r\n
$GPGGA,100152.65,5703.3596693,N,00952.0128516,E,2,11,0.9,-1.417,M,40.592,M,1.0,0123*6A\r\n
$GPGGA,100152.70,5703.3596071,N,00952.0128674,E,2,11,0.9,-1.416,M,40.592,M,1.0,0123*62\r\n
$GPGGA,100152.75,5703.3595453,N,00952.0128831,E,2,11,0.9,-1.417,M,40.592,M,1.0,0123*6E\r\n
$GPGGA,100152.80,5703.3594840,N,00952.0128985,E,2,11,0.9,-1.417,M,40.592,M,1.0,0123*65\r\n
$GPGGA,100152.85,5703.3594216,N,00952.0129155,E,2,11,0.9,-1.417,M,40.592,M,1.3,0123*6E\r\n
$GPGGA,100152.90,5703.3593591,N,00952.0129329,E,2,11,0.9,-1.416,M,40.592,M,1.3,0123*6D\r\n
$GPGGA,100152.95,5703.3592966,N,00952.0129502,E,2,11,0.9,-1.416,M,40.592,M,1.3,0123*62\r\n
$GPGGA,100153.00,5703.3592347,N,00952.0129680,E,2,11,0.9,-1.412,M,40.592,M,1.3,0123*6B\r\n
$GPGGA,100153.05,5703.3591717,N,00952.0129844,E,2,11,0.9,-1.413,M,40.592,M,1.6,0123*6E\r\n
$GPGGA,100153.10,5703.3591086,N,00952.0129997,E,2,11,0.9,-1.411,M,40.592,M,1.6,0123*68\r\n
$GPGGA,100153.15,5703.3590463,N,00952.0130150,E,2,11,0.9,-1.408,M,40.592,M,1.6,0123*60\r\n
$GPGGA,100153.20,5703.3589828,N,00952.0130302,E,2,11,0.9,-1.405,M,40.592,M,1.6,0123*65\r\n
$GPGGA,100153.25,5703.3589205,N,00952.0130469,E,2,11,0.9,-1.397,M,40.592,M,1.8,0123*6D\r\n
$GPGGA,100153.30,5703.3588567,N,00952.0130624,E,2,11,0.9,-1.392,M,40.592,M,1.8,0123*65\r\n
$GPGGA,100153.35,5703.3587932,N,00952.0130785,E,2,11,0.9,-1.389,M,40.592,M,1.8,0123*63\r\n
$GPGGA,100153.40,5703.3587305,N,00952.0130949,E,2,11,0.9,-1.386,M,40.592,M,1.8,0123*6E\r\n
$GPGGA,100153.45,5703.3586676,N,00952.0131121,E,2,11,0.9,-1.380,M,40.592,M,2.1,0123*60\r\n
$GPGGA,100153.50,5703.3586043,N,00952.0131319,E,2,11,0.9,-1.378,M,40.592,M,2.1,0123*6A\r\n
$GPGGA,100153.55,5703.3585419,N,00952.0131528,E,2,11,0.9,-1.377,M,40.592,M,2.1,0123*6C\r\n
$GPGGA,100153.60,5703.3584801,N,00952.0131728,E,2,11,0.9,-1.375,M,40.592,M,2.1,0123*6E\r\n
$GPGGA,100153.65,5703.3584176,N,00952.0131927,E,2,11,0.9,-1.377,M,40.592,M,1.0,0123*63\r\n
$GPGGA,100153.70,5703.3583561,N,00952.0132147,E,2,11,0.9,-1.375,M,40.592,M,1.0,0123*6D\r\n
$GPGGA,100153.75,5703.3582944,N,00952.0132369,E,2,11,0.9,-1.375,M,40.592,M,1.0,0123*6C\r\n
$GPGGA,100153.80,5703.3582327,N,00952.0132589,E,2,11,0.9,-1.376,M,40.592,M,1.0,0123*62\r\n
$GPGGA,100153.85,5703.3581714,N,00952.0132814,E,2,11,0.9,-1.380,M,40.592,M,1.3,0123*63\r\n
$GPGGA,100153.90,5703.3581107,N,00952.0133052,E,2,11,0.9,-1.378,M,40.592,M,1.3,0123*6F\r\n
$GPGGA,100153.95,5703.3580504,N,00952.0133291,E,2,11,0.9,-1.379,M,40.592,M,1.3,0123*60\r\n
$GPGGA,100154.00,5703.3579891,N,00952.0133524,E,2,11,0.9,-1.382,M,40.592,M,1.3,0123*61\r\n
$GPGGA,100154.05,5703.3579288,N,00952.0133767,E,2,11,0.9,-1.388,M,40.592,M,1.5,0123*6F\r\n
$GPGGA,100154.10,5703.3578677,N,00952.0134023,E,2,11,0.9,-1.390,M,40.592,M,1.5,0123*67\r\n
$GPGGA,100154.15,5703.3578068,N,00952.0134280,E,2,11,0.9,-1.389,M,40.592,M,1.5,0123*69\r\n
$GPGGA,100154.20,5703.3577464,N,00952.0134524,E,2,11,0.9,-1.391,M,40.592,M,1.5,0123*68\r\n
$GPGGA,100154.25,5703.3576856,N,00952.0134774,E,2,11,0.9,-1.398,M,40.592,M,1.8,0123*62\r\n
$GPGGA,100154.30,5703.3576249,N,00952.0135027,E,2,11,0.9,-1.401,M,40.592,M,1.8,0123*65\r\n
$GPGGA,100154.35,5703.3575636,N,00952.0135275,E,2,11,0.9,-1.404,M,40.592,M,1.8,0123*6F\r\n
$GPGGA,100154.40,5703.3575026,N,00952.0135536,E,2,11,0.9,-1.406,M,40.592,M,1.8,0123*68\r\n
$GPGGA,100154.45,5703.3574414,N,00952.0135795,E,2,11,0.9,-1.407,M,40.592,M,2.0,0123*68\r\n
$GPGGA,100154.50,5703.3573801,N,00952.0136040,E,2,11,0.9,-1.407,M,40.592,M,2.0,0123*6F\r\n
$GPGGA,100154.55,5703.3573192,N,00952.0136301,E,2,11,0.9,-1.408,M,40.592,M,2.0,0123*60\r\n
$GPGGA,100154.60,5703.3572579,N,00952.0136568,E,2,11,0.9,-1.412,M,40.592,M,2.0,0123*64\r\n
$GPGGA,100154.65,5703.3571964,N,00952.0136834,E,2,11,0.9,-1.417,M,40.592,M,2.2,0123*61\r\n
$GPGGA,100154.70,5703.3571344,N,00952.0137087,E,2,11,0.9,-1.419,M,40.592,M,2.2,0123*62\r\n
$GPGGA,100154.75,5703.3570735,N,00952.0137366,E,2,11,0.9,-1.419,M,40.592,M,2.2,0123*68\r\n
$GPGGA,100154.80,5703.3570130,N,00952.0137645,E,2,11,0.9,-1.419,M,40.592,M,2.2,0123*65\r\n
$GPGGA,100154.85,5703.3569520,N,00952.0137934,E,2,11,0.9,-1.419,M,40.592,M,2.4,0123*62\r\n
$GPGGA,100154.90,5703.3568912,N,00952.0138226,E,2,11,0.9,-1.421,M,40.592,M,2.4,0123*66\r\n
$GPGGA,100154.95,5703.3568310,N,00952.0138529,E,2,11,0.9,-1.421,M,40.592,M,2.4,0123*63\r\n
$GPGGA,100155.00,5703.3567711,N,00952.0138841,E,2,11,0.9,-1.421,M,40.592,M,2.4,0123*67\r\n
$GPGGA,100155.05,5703.3567103,N,00952.0139137,E,2,11,0.9,-1.425,M,40.592,M,2.6,0123*68\r\n
$GPGGA,100155.10,5703.3566492,N,00952.0139433,E,2,11,0.9,-1.425,M,40.592,M,2.6,0123*61\r\n
$GPGGA,100155.15,5703.3565876,N,00952.0139732,E,2,11,0.9,-1.425,M,40.592,M,2.6,0123*63\r\n
$GPGGA,100155.20,5703.3565259,N,00952.0140031,E,2,11,0.9,-1.426,M,40.592,M,2.6,0123*6B\r\n
$GPGGA,100155.25,5703.3564644,N,00952.0140326,E,2,11,0.9,-1.421,M,40.592,M,2.9,0123*6A\r\n
$GPGGA,100155.30,5703.3564020,N,00952.0140613,E,2,11,0.9,-1.419,M,40.592,M,2.9,0123*62\r\n
$GPGGA,100155.35,5703.3563392,N,00952.0140907,E,2,11,0.9,-1.421,M,40.592,M,2.9,0123*6B\r\n
$GPGGA,100155.40,5703.3562764,N,00952.0141198,E,2,11,0.9,-1.418,M,40.592,M,2.9,0123*60\r\n
$GPGGA,100155.45,5703.3562135,N,00952.0141489,E,2,11,0.9,-1.417,M,40.592,M,3.1,0123*64\r\n
$GPGGA,100155.50,5703.3561508,N,00952.0141759,E,2,11,0.9,-1.417,M,40.592,M,3.1,0123*67\r\n
$GPGGA,100155.55,5703.3560870,N,00952.0142029,E,2,11,0.9,-1.416,M,40.592,M,3.1,0123*63\r\n
$GPGGA,100155.60,5703.3560231,N,00952.0142290,E,2,11,0.9,-1.412,M,40.592,M,3.1,0123*6E\r\n
$GPGGA,100155.65,5703.3559600,N,00952.0142558,E,2,11,0.9,-1.402,M,40.592,M,1.8,0123*6E\r\n
$GPGGA,100155.70,5703.3558960,N,00952.0142837,E,2,11,0.9,-1.397,M,40.592,M,1.8,0123*6D\r\n
$GPGGA,100155.75,5703.3558321,N,00952.0143090,E,2,11,0.9,-1.396,M,40.592,M,1.8,0123*62\r\n
$GPGGA,100155.80,5703.3557679,N,00952.0143339,E,2,11,0.9,-1.394,M,40.592,M,1.8,0123*6D\r\n
$GPGGA,100155.85,5703.3557037,N,00952.0143604,E,2,11,0.9,-1.393,M,40.592,M,2.1,0123*62\r\n
$GPGGA,100155.90,5703.3556396,N,00952.0143885,E,2,11,0.9,-1.389,M,40.592,M,2.1,0123*63\r\n
$GPGGA,100155.95,5703.3555755,N,00952.0144160,E,2,11,0.9,-1.388,M,40.592,M,2.1,0123*6A\r\n
$GPGGA,100156.00,5703.3555107,N,00952.0144432,E,2,11,0.9,-1.389,M,40.592,M,2.1,0123*67\r\n
$GPGGA,100156.05,5703.3554471,N,00952.0144714,E,2,11,0.9,-1.393,M,40.592,M,2.4,0123*6E\r\n
$GPGGA,100156.10,5703.3553829,N,00952.0144985,E,2,11,0.9,-1.393,M,40.592,M,2.4,0123*6A\r\n
$GPGGA,100156.15,5703.3553179,N,00952.0145251,E,2,11,0.9,-1.397,M,40.592,M,2.4,0123*64\r\n
$GPGGA,100156.20,5703.3552529,N,00952.0145518,E,2,11,0.9,-1.399,M,40.592,M,2.4,0123*66\r\n
$GPGGA,100156.25,5703.3551880,N,00952.0145776,E,2,11,0.9,-1.400,M,40.592,M,2.7,0123*60\r\n
$GPGGA,100156.30,5703.3551225,N,00952.0146041,E,2,11,0.9,-1.402,M,40.592,M,2.7,0123*63\r\n
$GPGGA,100156.35,5703.3550572,N,00952.0146317,E,2,11,0.9,-1.405,M,40.592,M,2.7,0123*65\r\n
$GPGGA,100156.40,5703.3549923,N,00952.0146580,E,2,11,0.9,-1.407,M,40.592,M,2.7,0123*6D\r\n
$GPGGA,100156.45,5703.3549271,N,00952.0146827,E,2,11,0.9,-1.407,M,40.592,M,2.9,0123*6A\r\n
$GPGGA,100156.50,5703.3548614,N,00952.0147074,E,2,11,0.9,-1.410,M,40.592,M,2.9,0123*61\r\n
$GPGGA,100156.55,5703.3547954,N,00952.0147341,E,2,11,0.9,-1.412,M,40.592,M,2.9,0123*67\r\n
$GPGGA,100156.60,5703.3547297,N,00952.0147600,E,2,11,0.9,-1.414,M,40.592,M,2.9,0123*63\r\n
$GPGGA,100156.65,5703.3546632,N,00952.0147858,E,2,11,0.9,-1.416,M,40.592,M,1.0,0123*67\r\n
$GPGGA,100156.70,5703.3545976,N,00952.0148116,E,2,11,0.9,-1.416,M,40.592,M,1.0,0123*63\r\n
$GPGGA,100156.75,5703.3545323,N,00952.0148370,E,2,11,0.9,-1.416,M,40.592,M,1.0,0123*6E\r\n
$GPGGA,100156.80,5703.3544668,N,00952.0148630,E,2,11,0.9,-1.416,M,40.592,M,1.0,0123*6E\r\n
$GPGGA,100156.85,5703.3544011,N,00952.0148882,E,2,11,0.9,-1.415,M,40.592,M,1.3,0123*64\r\n
$GPGGA,100156.90,5703.3543363,N,00952.0149152,E,2,11,0.9,-1.412,M,40.592,M,1.3,0123*63\r\n
$GPGGA,100156.95,5703.3542713,N,00952.0149425,E,2,11,0.9,-1.410,M,40.592,M,1.3,0123*63\r\n
$GPGGA,100157.00,5703.3542049,N,00952.0149710,E,2,11,0.9,-1.410,M,40.592,M,1.3,0123*63\r\n
$GPGGA,100157.05,5703.3541392,N,00952.0149985,E,2,11,0.9,-1.414,M,40.592,M,1.6,0123*63\r\n
$GPGGA,100157.10,5703.3540733,N,00952.0150274,E,2,11,0.9,-1.413,M,40.592,M,1.6,0123*63\r\n
$GPGGA,100157.15,5703.3540074,N,00952.0150552,E,2,11,0.9,-1.413,M,40.592,M,1.6,0123*61\r\n
$GPGGA,100157.20,5703.3539420,N,00952.0150847,E,2,11,0.9,-1.413,M,40.592,M,1.6,0123*65\r\n
$GPGGA,100157.25,5703.3538756,N,00952.0151155,E,2,11,0.9,-1.418,M,40.592,M,1.8,0123*6D\r\n
$GPGGA,100157.30,5703.3538099,N,00952.0151456,E,2,11,0.9,-1.420,M,40.592,M,1.8,0123*60\r\n
$GPGGA,100157.35,5703.3537436,N,00952.0151756,E,2,11,0.9,-1.419,M,40.592,M,1.8,0123*62\r\n
$GPGGA,100157.40,5703.3536758,N,00952.0152034,E,2,11,0.9,-1.419,M,40.592,M,1.8,0123*6A\r\n
$GPGGA,100157.45,5703.3536079,N,00952.0152295,E,2,11,0.9,-1.423,M,40.592,M,2.1,0123*61\r\n
$GPGGA,100157.50,5703.3535410,N,00952.0152566,E,2,11,0.9,-1.423,M,40.592,M,2.1,0123*66\r\n
$GPGGA,100157.55,5703.3534744,N,00952.0152857,E,2,11,0.9,-1.421,M,40.592,M,2.1,0123*6D\r\n
$GPGGA,100157.60,5703.3534071,N,00952.0153135,E,2,11,0.9,-1.419,M,40.592,M,2.1,0123*6D\r\n
$GPGGA,100157.65,5703.3533395,N,00952.0153403,E,2,11,0.9,-1.418,M,40.592,M,1.0,0123*65\r\n
$GPGGA,100157.70,5703.3532719,N,00952.0153682,E,2,11,0.9,-1.416,M,40.592,M,1.0,0123*65\r\n
$GPGGA,100157.75,5703.3532045,N,00952.0153958,E,2,11,0.9,-1.412,M,40.592,M,1.0,0123*62\r\n
$GPGGA,100157.80,5703.3531375,N,00952.0154239,E,2,11,0.9,-1.411,M,40.592,M,1.0,0123*63\r\n
$GPGGA,100157.85,5703.3530702,N,00952.0154513,E,2,11,0.9,-1.407,M,40.592,M,1.3,0123*68\r\n
$GPGGA,100157.90,5703.3530030,N,00952.0154780,E,2,11,0.9,-1.401,M,40.592,M,1.3,0123*64\r\n
$GPGGA,100157.95,5703.3529356,N,00952.0155045,E,2,11,0.9,-1.394,M,40.592,M,1.3,0123*6E\r\n
$GPGGA,100158.00,5703.3528678,N,00952.0155297,E,2,11,0.9,-1.390,M,40.592,M,1.3,0123*6C\r\n
$GPGGA,100158.05,5703.3528009,N,00952.0155541,E,2,11,0.9,-1.389,M,40.592,M,1.5,0123*6B\r\n
$GPGGA,100158.10,5703.3527335,N,00952.0155798,E,2,11,0.9,-1.386,M,40.592,M,1.5,0123*65\r\n
$GPGGA,100158.15,5703.3526656,N,00952.0156055,E,2,11,0.9,-1.383,M,40.592,M,1.5,0123*61\r\n
$GPGGA,100158.20,5703.3525977,N,00952.0156286,E,2,11,0.9,-1.378,M,40.592,M,1.5,0123*60\r\n
$GPGGA,100158.25,5703.3525305,N,00952.0156536,E,2,11,0.9,-1.376,M,40.592,M,1.8,0123*65\r\n
$GPGGA,100158.30,5703.3524641,N,00952.0156786,E,2,11,0.9,-1.371,M,40.592,M,1.8,0123*6B\r\n
$GPGGA,100158.35,5703.3523974,N,00952.0157033,E,2,11,0.9,-1.370,M,40.592,M,1.8,0123*69\r\n
$GPGGA,100158.40,5703.3523304,N,00952.0157276,E,2,11,0.9,-1.370,M,40.592,M,1.8,0123*65\r\n
$GPGGA,100158.45,5703.3522637,N,00952.0157527,E,2,11,0.9,-1.370,M,40.592,M,2.0,0123*6C\r\n
$GPGGA,100158.50,5703.3521978,N,00952.0157781,E,2,11,0.9,-1.367,M,40.592,M,2.0,0123*67\r\n
$GPGGA,100158.55,5703.3521321,N,00952.0158026,E,2,11,0.9,-1.367,M,40.592,M,2.0,0123*61\r\n
$GPGGA,100158.60,5703.3520656,N,00952.0158284,E,2,11,0.9,-1.370,M,40.592,M,2.0,0123*6F\r\n
$GPGGA,100158.65,5703.3520008,N,00952.0158542,E,2,11,0.9,-1.364,M,40.592,M,2.2,0123*6D\r\n
$GPGGA,100158.70,5703.3519360,N,00952.0158813,E,2,11,0.9,-1.363,M,40.592,M,2.2,0123*60\r\n
$GPGGA,100158.75,5703.3518714,N,00952.0159071,E,2,11,0.9,-1.363,M,40.592,M,2.2,0123*6E\r\n
$GPGGA,100158.80,5703.3518058,N,00952.0159331,E,2,11,0.9,-1.365,M,40.592,M,2.2,0123*6A\r\n
$GPGGA,100158.85,5703.3517404,N,00952.0159588,E,2,11,0.9,-1.373,M,40.592,M,2.4,0123*68\r\n
$GPGGA,100158.90,5703.3516759,N,00952.0159856,E,2,11,0.9,-1.377,M,40.592,M,2.4,0123*6C\r\n
$GPGGA,100158.95,5703.3516120,N,00952.0160127,E,2,11,0.9,-1.380,M,40.592,M,2.4,0123*6C\r\n
$GPGGA,100159.00,5703.3515487,N,00952.0160406,E,2,11,0.9,-1.381,M,40.592,M,2.4,0123*6D\r\n
$GPGGA,100159.05,5703.3514852,N,00952.0160688,E,2,11,0.9,-1.393,M,40.592,M,2.6,0123*68\r\n
$GPGGA,100159.10,5703.3514214,N,00952.0160981,E,2,11,0.9,-1.402,M,40.592,M,2.6,0123*6D\r\n
$GPGGA,100159.15,5703.3513577,N,00952.0161287,E,2,11,0.9,-1.410,M,40.592,M,2.6,0123*62\r\n
$GPGGA,100159.20,5703.3512941,N,00952.0161586,E,2,11,0.9,-1.414,M,40.592,M,2.6,0123*6E\r\n
$GPGGA,100159.25,5703.3512316,N,00952.0161900,E,2,11,0.9,-1.417,M,40.592,M,2.9,0123*6D\r\n
$GPGGA,100159.30,5703.3511696,N,00952.0162215,E,2,11,0.9,-1.423,M,40.592,M,2.9,0123*6C\r\n
$GPGGA,100159.35,5703.3511067,N,00952.0162552,E,2,11,0.9,-1.426,M,40.592,M,2.9,0123*60\r\n
$GPGGA,100159.40,5703.3510440,N,00952.0162877,E,2,11,0.9,-1.430,M,40.592,M,2.9,0123*6F\r\n
$GPGGA,100159.45,5703.3509821,N,00952.0163195,E,2,11,0.9,-1.432,M,40.592,M,3.1,0123*66\r\n
$GPGGA,100159.50,5703.3509208,N,00952.0163526,E,2,11,0.9,-1.432,M,40.592,M,3.1,0123*6F\r\n
$GPGGA,100159.55,5703.3508598,N,00952.0163869,E,2,11,0.9,-1.431,M,40.592,M,3.1,0123*60\r\n
$GPGGA,100159.60,5703.3507981,N,00952.0164226,E,2,11,0.9,-1.434,M,40.592,M,3.1,0123*6E\r\n
$GPGGA,100159.65,5703.3507364,N,00952.0164578,E,2,11,0.9,-1.438,M,40.592,M,3.3,0123*68\r\n
$GPGGA,100159.70,5703.3506752,N,00952.0164932,E,2,11,0.9,-1.438,M,40.592,M,3.3,0123*6E\r\n
$GPGGA,100159.75,5703.3506145,N,00952.0165298,E,2,11,0.9,-1.434,M,40.592,M,3.3,0123*6D\r\n
$GPGGA,100159.80,5703.3505538,N,00952.0165671,E,2,11,0.9,-1.429,M,40.592,M,3.3,0123*65\r\n
$GPGGA,100159.85,5703.3504935,N,00952.0166053,E,2,11,0.9,-1.422,M,40.592,M,2.1,0123*6D\r\n
$GPGGA,100159.90,5703.3504333,N,00952.0166443,E,2,11,0.9,-1.420,M,40.592,M,2.1,0123*62\r\n
$GPGGA,100159.95,5703.3503735,N,00952.0166824,E,2,11,0.9,-1.417,M,40.592,M,2.1,0123*6B\r\n
$GPGGA,100200.00,5703.3503132,N,00952.0167212,E,2,11,0.9,-1.414,M,40.592,M,2.1,0123*64\r\n
$GPGGA,100200.05,5703.3502534,N,00952.0167600,E,2,11,0.9,-1.417,M,40.592,M,2.4,0123*63\r\n
$GPGGA,100200.10,5703.3501931,N,00952.0168008,E,2,11,0.9,-1.416,M,40.592,M,2.4,0123*6D\r\n
$GPGGA,100200.15,5703.3501331,N,00952.0168403,E,2,11,0.9,-1.417,M,40.592,M,2.4,0123*6C\r\n
$GPGGA,100200.20,5703.3500733,N,00952.0168820,E,2,11,0.9,-1.417,M,40.592,M,2.4,0123*60\r\n
$GPGGA,100200.25,5703.3500135,N,00952.0169246,E,2,11,0.9,-1.418,M,40.592,M,2.7,0123*62\r\n
$GPGGA,100200.30,5703.3499550,N,00952.0169669,E,2,11,0.9,-1.416,M,40.592,M,2.7,0123*67\r\n
$GPGGA,100200.35,5703.3498973,N,00952.0170109,E,2,11,0.9,-1.413,M,40.592,M,2.7,0123*62\r\n
$GPGGA,100200.40,5703.3498381,N,00952.0170552,E,2,11,0.9,-1.416,M,40.592,M,2.7,0123*68\r\n
$GPGGA,100200.45,5703.3497811,N,00952.0171008,E,2,11,0.9,-1.415,M,40.592,M,2.9,0123*66\r\n
$GPGGA,100200.50,5703.3497233,N,00952.0171466,E,2,11,0.9,-1.416,M,40.592,M,2.9,0123*67\r\n
$GPGGA,100200.55,5703.3496661,N,00952.0171926,E,2,11,0.9,-1.417,M,40.592,M,2.9,0123*68\r\n
$GPGGA,100200.60,5703.3496098,N,00952.0172401,E,2,11,0.9,-1.414,M,40.592,M,2.9,0123*66\r\n
$GPGGA,100200.65,5703.3495529,N,00952.0172882,E,2,11,0.9,-1.416,M,40.592,M,3.2,0123*60\r\n
$GPGGA,100200.70,5703.3494962,N,00952.0173374,E,2,11,0.9,-1.417,M,40.592,M,3.2,0123*64\r\n
$GPGGA,100200.75,5703.3494399,N,00952.0173871,E,2,11,0.9,-1.419,M,40.592,M,3.2,0123*6F\r\n
$GPGGA,100200.80,5703.3493841,N,00952.0174375,E,2,11,0.9,-1.421,M,40.592,M,3.2,0123*6F\r\n
$GPGGA,100200.85,5703.3493278,N,00952.0174880,E,2,11,0.9,-1.429,M,40.592,M,1.3,0123*60\r\n
$GPGGA,100200.90,5703.3492720,N,00952.0175396,E,2,11,0.9,-1.430,M,40.592,M,1.3,0123*68\r\n
$GPGGA,100200.95,5703.3492169,N,00952.0175910,E,2,11,0.9,-1.430,M,40.592,M,1.3,0123*62\r\n
$GPGGA,100201.00,5703.3491617,N,00952.0176429,E,2,11,0.9,-1.431,M,40.592,M,1.3,0123*67\r\n
$GPGGA,100201.05,5703.3491079,N,00952.0176959,E,2,11,0.9,-1.429,M,40.592,M,1.6,0123*6A\r\n
$GPGGA,100201.10,5703.3490518,N,00952.0177486,E,2,11,0.9,-1.426,M,40.592,M,1.6,0123*6C\r\n
$GPGGA,100201.15,5703.3489973,N,00952.0177992,E,2,11,0.9,-1.423,M,40.592,M,1.6,0123*6D\r\n
$GPGGA,100201.20,5703.3489431,N,00952.0178502,E,2,11,0.9,-1.419,M,40.592,M,1.6,0123*63\r\n
$GPGGA,100201.25,5703.3488900,N,00952.0179030,E,2,11,0.9,-1.416,M,40.592,M,1.8,0123*6C\r\n
$GPGGA,100201.30,5703.3488367,N,00952.0179556,E,2,11,0.9,-1.411,M,40.592,M,1.8,0123*61\r\n
$GPGGA,100201.35,5703.3487835,N,00952.0180085,E,2,11,0.9,-1.409,M,40.592,M,1.8,0123*63\r\n
$GPGGA,100201.40,5703.3487314,N,00952.0180628,E,2,11,0.9,-1.405,M,40.592,M,1.8,0123*64\r\n
$GPGGA,100201.45,5703.3486805,N,00952.0181170,E,2,11,0.9,-1.401,M,40.592,M,2.1,0123*6E\r\n
$GPGGA,100201.50,5703.3486302,N,00952.0181739,E,2,11,0.9,-1.396,M,40.592,M,2.1,0123*64\r\n
$GPGGA,100201.55,5703.3485792,N,00952.0182300,E,2,11,0.9,-1.396,M,40.592,M,2.1,0123*62\r\n
$GPGGA,100201.60,5703.3485281,N,00952.0182877,E,2,11,0.9,-1.394,M,40.592,M,2.1,0123*6A\r\n
$GPGGA,100201.65,5703.3484782,N,00952.0183459,E,2,11,0.9,-1.393,M,40.592,M,2.3,0123*6C\r\n
$GPGGA,100201.70,5703.3484288,N,00952.0184041,E,2,11,0.9,-1.391,M,40.592,M,2.3,0123*6F\r\n
$GPGGA,100201.75,5703.3483803,N,00952.0184629,E,2,11,0.9,-1.390,M,40.592,M,2.3,0123*6D\r\n
$GPGGA,100201.80,5703.3483313,N,00952.0185213,E,2,11,0.9,-1.392,M,40.592,M,2.3,0123*63\r\n
$GPGGA,100201.85,5703.3482834,N,00952.0185818,E,2,11,0.9,-1.390,M,40.592,M,1.3,0123*69\r\n
$GPGGA,100201.90,5703.3482351,N,00952.0186414,E,2,11,0.9,-1.389,M,40.592,M,1.3,0123*6E\r\n
$GPGGA,100201.95,5703.3481872,N,00952.0187013,E,2,11,0.9,-1.387,M,40.592,M,1.3,0123*6E\r\n
$GPGGA,100202.00,5703.3481394,N,00952.0187613,E,2,11,0.9,-1.389,M,40.592,M,1.3,0123*6A\r\n
$GPGGA,100202.05,5703.3480929,N,00952.0188204,E,2,11,0.9,-1.396,M,40.592,M,1.5,0123*67\r\n
$GPGGA,100202.10,5703.3480457,N,00952.0188807,E,2,11,0.9,-1.398,M,40.592,M,1.5,0123*60\r\n
$GPGGA,100202.15,5703.3479995,N,00952.0189442,E,2,11,0.9,-1.397,M,40.592,M,1.5,0123*63\r\n
$GPGGA,100202.20,5703.3479543,N,00952.0190077,E,2,11,0.9,-1.401,M,40.592,M,1.5,0123*60\r\n
$GPGGA,100202.25,5703.3479103,N,00952.0190724,E,2,11,0.9,-1.406,M,40.592,M,1.8,0123*6E\r\n
$GPGGA,100202.30,5703.3478669,N,00952.0191376,E,2,11,0.9,-1.410,M,40.592,M,1.8,0123*65\r\n
$GPGGA,100202.35,5703.3478235,N,00952.0192037,E,2,11,0.9,-1.411,M,40.592,M,1.8,0123*69\r\n
$GPGGA,100202.40,5703.3477801,N,00952.0192692,E,2,11,0.9,-1.413,M,40.592,M,1.8,0123*62\r\n
$GPGGA,100202.45,5703.3477364,N,00952.0193331,E,2,11,0.9,-1.422,M,40.592,M,2.0,0123*6B\r\n
$GPGGA,100202.50,5703.3476928,N,00952.0193983,E,2,11,0.9,-1.426,M,40.592,M,2.0,0123*6B\r\n
$GPGGA,100202.55,5703.3476494,N,00952.0194629,E,2,11,0.9,-1.433,M,40.592,M,2.0,0123*68\r\n
$GPGGA,100202.60,5703.3476063,N,00952.0195293,E,2,11,0.9,-1.430,M,40.592,M,2.0,0123*65\r\n
$GPGGA,100202.65,5703.3475638,N,00952.0195958,E,2,11,0.9,-1.430,M,40.592,M,2.2,0123*65\r\n
$GPGGA,100202.70,5703.3475217,N,00952.0196624,E,2,11,0.9,-1.429,M,40.592,M,2.2,0123*67\r\n
$GPGGA,100202.75,5703.3474807,N,00952.0197294,E,2,11,0.9,-1.424,M,40.592,M,2.2,0123*6B\r\n
$GPGGA,100202.80,5703.3474411,N,00952.0197969,E,2,11,0.9,-1.421,M,40.592,M,2.2,0123*66\r\n
$GPGGA,100202.85,5703.3474021,N,00952.0198666,E,2,11,0.9,-1.416,M,40.592,M,2.4,0123*69\r\n
$GPGGA,100202.90,5703.3473623,N,00952.0199368,E,2,11,0.9,-1.418,M,40.592,M,2.4,0123*6A\r\n
$GPGGA,100202.95,5703.3473227,N,00952.0200082,E,2,11,0.9,-1.416,M,40.592,M,2.4,0123*65\r\n
$GPGGA,100203.00,5703.3472839,N,00952.0200790,E,2,11,0.9,-1.414,M,40.592,M,2.4,0123*6A\r\n
$GPGGA,100203.05,5703.3472476,N,00952.0201502,E,2,11,0.9,-1.418,M,40.592,M,2.6,0123*6E\r\n
$GPGGA,100203.10,5703.3472120,N,00952.0202242,E,2,11,0.9,-1.419,M,40.592,M,2.6,0123*6D\r\n
$GPGGA,100203.15,5703.3471735,N,00952.0202977,E,2,11,0.9,-1.419,M,40.592,M,2.6,0123*64\r\n
$GPGGA,100203.20,5703.3471354,N,00952.0203729,E,2,11,0.9,-1.418,M,40.592,M,2.6,0123*64\r\n
$GPGGA,100203.25,5703.3470984,N,00952.0204474,E,2,11,0.9,-1.418,M,40.592,M,2.9,0123*64\r\n
$GPGGA,100203.30,5703.3470620,N,00952.0205194,E,2,11,0.9,-1.413,M,40.592,M,2.9,0123*60\r\n
$GPGGA,100203.35,5703.3470268,N,00952.0205915,E,2,11,0.9,-1.412,M,40.592,M,2.9,0123*6D\r\n
$GPGGA,100203.40,5703.3469909,N,00952.0206669,E,2,11,0.9,-1.412,M,40.592,M,2.9,0123*6C\r\n
$GPGGA,100203.45,5703.3469550,N,00952.0207411,E,2,11,0.9,-1.410,M,40.592,M,3.1,0123*6E\r\n
$GPGGA,100203.50,5703.3469183,N,00952.0208168,E,2,11,0.9,-1.407,M,40.592,M,3.1,0123*62\r\n
$GPGGA,100203.55,5703.3468829,N,00952.0208934,E,2,11,0.9,-1.405,M,40.592,M,3.1,0123*6C\r\n
$GPGGA,100203.60,5703.3468479,N,00952.0209692,E,2,11,0.9,-1.404,M,40.592,M,3.1,0123*60\r\n
$GPGGA,100203.65,5703.3468110,N,00952.0210466,E,2,11,0.9,-1.403,M,40.592,M,3.3,0123*6B\r\n
$GPGGA,100203.70,5703.3467740,N,00952.0211226,E,2,11,0.9,-1.405,M,40.592,M,3.3,0123*66\r\n
$GPGGA,100203.75,5703.3467390,N,00952.0211998,E,2,11,0.9,-1.405,M,40.592,M,3.3,0123*64\r\n
$GPGGA,100203.80,5703.3467058,N,00952.0212782,E,2,11,0.9,-1.402,M,40.592,M,3.3,0123*68\r\n
$GPGGA,100203.85,5703.3466725,N,00952.0213561,E,2,11,0.9,-1.403,M,40.592,M,2.1,0123*6D\r\n
$GPGGA,100203.90,5703.3466386,N,00952.0214327,E,2,11,0.9,-1.404,M,40.592,M,2.1,0123*60\r\n
$GPGGA,100203.95,5703.3466049,N,00952.0215111,E,2,11,0.9,-1.404,M,40.592,M,2.1,0123*63\r\n
$GPGGA,100204.00,5703.3465726,N,00952.0215898,E,2,11,0.9,-1.403,M,40.592,M,2.1,0123*6A\r\n
$GPGGA,100204.05,5703.3465417,N,00952.0216680,E,2,11,0.9,-1.409,M,40.592,M,2.4,0123*65\r\n
$GPGGA,100204.10,5703.3465111,N,00952.0217486,E,2,11,0.9,-1.411,M,40.592,M,2.4,0123*6E\r\n
$GPGGA,100204.15,5703.3464812,N,00952.0218291,E,2,11,0.9,-1.409,M,40.592,M,2.4,0123*66\r\n
$GPGGA,100204.20,5703.3464505,N,00952.0219095,E,2,11,0.9,-1.413,M,40.592,M,2.4,0123*67\r\n
$GPGGA,100204.25,5703.3464210,N,00952.0219912,E,2,11,0.9,-1.418,M,40.592,M,2.7,0123*6F\r\n
$GPGGA,100204.30,5703.3463929,N,00952.0220739,E,2,11,0.9,-1.420,M,40.592,M,2.7,0123*6B\r\n
$GPGGA,100204.35,5703.3463636,N,00952.0221558,E,2,11,0.9,-1.421,M,40.592,M,2.7,0123*6A\r\n
$GPGGA,100204.40,5703.3463357,N,00952.0222388,E,2,11,0.9,-1.424,M,40.592,M,2.7,0123*67\r\n
$GPGGA,100204.45,5703.3463072,N,00952.0223234,E,2,11,0.9,-1.427,M,40.592,M,2.9,0123*6C\r\n
$GPGGA,100204.50,5703.3462795,N,00952.0224078,E,2,11,0.9,-1.429,M,40.592,M,2.9,0123*64\r\n
$GPGGA,100204.55,5703.3462509,N,00952.0224906,E,2,11,0.9,-1.431,M,40.592,M,2.9,0123*6F\r\n
$GPGGA,100204.60,5703.3462214,N,00952.0225731,E,2,11,0.9,-1.428,M,40.592,M,2.9,0123*61\r\n
$GPGGA,100204.65,5703.3461924,N,00952.0226559,E,2,11,0.9,-1.430,M,40.592,M,3.2,0123*63\r\n
$GPGGA,100204.70,5703.3461633,N,00952.0227378,E,2,11,0.9,-1.425,M,40.592,M,3.2,0123*6E\r\n
$GPGGA,100204.75,5703.3461339,N,00952.0228205,E,2,11,0.9,-1.424,M,40.592,M,3.2,0123*61\r\n
$GPGGA,100204.80,5703.3461029,N,00952.0229041,E,2,11,0.9,-1.422,M,40.592,M,3.2,0123*6C\r\n
$GPGGA,100204.85,5703.3460730,N,00952.0229867,E,2,11,0.9,-1.416,M,40.592,M,1.3,0123*6F\r\n
$GPGGA,100204.90,5703.3460420,N,00952.0230693,E,2,11,0.9,-1.415,M,40.592,M,1.3,0123*67\r\n
$GPGGA,100204.95,5703.3460115,N,00952.0231527,E,2,11,0.9,-1.411,M,40.592,M,1.3,0123*68\r\n
