$GPGGA,071852.80,5703.3943168,N,00952.1768726,E,2,11,0.8,-2.151,M,40.592,M,1.1,0123*6E\r\n
$GPGGA,071852.85,5703.3943334,N,00952.1768353,E,2,11,0.8,-2.147,M,40.592,M,1.4,0123*64\r\n
$GPGGA,071852.90,5703.3943495,N,00952.1767981,E,2,11,0.8,-2.147,M,40.592,M,1.4,0123*66\r\n
$GPGGA,071852.95,5703.3943656,N,00952.1767587,E,2,11,0.8,-2.142,M,40.592,M,1.4,0123*61\r\n
$GPGGA,071853.00,5703.3943807,N,00952.1767186,E,2,11,0.8,-2.138,M,40.592,M,1.4,0123*6E\r\n
$GPGGA,071853.05,5703.3943969,N,00952.1766784,E,2,11,0.8,-2.129,M,40.592,M,1.7,0123*64\r\n
$GPGGA,071853.10,5703.3944130,N,00952.1766391,E,2,11,0.8,-2.125,M,40.592,M,1.7,0123*6F\r\n
$GPGGA,071853.15,5703.3944292,N,00952.1765991,E,2,11,0.8,-2.120,M,40.592,M,1.7,0123*6D\r\n
$GPGGA,071853.20,5703.3944452,N,00952.1765591,E,2,11,0.8,-2.114,M,40.592,M,1.7,0123*6A\r\n
$GPGGA,071853.25,5703.3944614,N,00952.1765198,E,2,11,0.8,-2.106,M,40.592,M,1.9,0123*6F\r\n
$GPGGA,071853.30,5703.3944774,N,00952.1764806,E,2,11,0.8,-2.102,M,40.592,M,1.9,0123*67\r\n
$GPGGA,071853.35,5703.3944926,N,00952.1764407,E,2,11,0.8,-2.101,M,40.592,M,1.9,0123*65\r\n
$GPGGA,071853.40,5703.3945097,N,00952.1764001,E,2,11,0.8,-2.102,M,40.592,M,1.9,0123*64\r\n
$GPGGA,071853.45,5703.3945266,N,00952.1763608,E,2,11,0.8,-2.108,M,40.592,M,2.2,0123*67\r\n
$GPGGA,071853.50,5703.3945433,N,00952.1763225,E,2,11,0.8,-2.112,M,40.592,M,2.2,0123*65\r\n
$GPGGA,071853.55,5703.3945598,N,00952.1762864,E,2,11,0.8,-2.115,M,40.592,M,2.2,0123*69\r\n
$GPGGA,071853.60,5703.3945770,N,00952.1762516,E,2,11,0.8,-2.118,M,40.592,M,2.2,0123*6E\r\n
$GPGGA,071853.65,5703.3945940,N,00952.1762144,E,2,11,0.8,-2.120,M,40.592,M,1.1,0123*6E\r\n
$GPGGA,071853.70,5703.3946100,N,00952.1761769,E,2,11,0.8,-2.122,M,40.592,M,1.1,0123*6D\r\n
$GPGGA,071853.75,5703.3946262,N,00952.1761399,E,2,11,0.8,-2.122,M,40.592,M,1.1,0123*64\r\n
$GPGGA,071853.80,5703.3946416,N,00952.1761039,E,2,11,0.8,-2.123,M,40.592,M,1.1,0123*63\r\n
$GPGGA,071853.85,5703.3946553,N,00952.1760675,E,2,11,0.8,-2.123,M,40.592,M,1.3,0123*6B\r\n
$GPGGA,071853.90,5703.3946697,N,00952.1760315,E,2,11,0.8,-2.120,M,40.592,M,1.3,0123*64\r\n
$GPGGA,071853.95,5703.3946838,N,00952.1759934,E,2,11,0.8,-2.115,M,40.592,M,1.3,0123*6F\r\n
$GPGGA,071854.00,5703.3946985,N,00952.1759545,E,2,11,0.8,-2.112,M,40.592,M,1.3,0123*6E\r\n
$GPGGA,071854.05,5703.3947131,N,00952.1759153,E,2,11,0.8,-2.107,M,40.592,M,1.6,0123*6F\r\n
$GPGGA,071854.10,5703.3947280,N,00952.1758763,E,2,11,0.8,-2.105,M,40.592,M,1.6,0123*64\r\n
$GPGGA,071854.15,5703.3947427,N,00952.1758379,E,2,11,0.8,-2.099,M,40.592,M,1.6,0123*61\r\n
$GPGGA,071854.20,5703.3947571,N,00952.1757983,E,2,11,0.8,-2.097,M,40.592,M,1.6,0123*6B\r\n
$GPGGA,071854.25,5703.3947719,N,00952.1757586,E,2,11,0.8,-2.098,M,40.592,M,1.8,0123*6A\r\n
$GPGGA,071854.30,5703.3947870,N,00952.1757193,E,2,11,0.8,-2.103,M,40.592,M,1.8,0123*6D\r\n
$GPGGA,071854.35,5703.3948017,N,00952.1756811,E,2,11,0.8,-2.109,M,40.592,M,1.8,0123*66\r\n
$GPGGA,071854.40,5703.3948178,N,00952.1756429,E,2,11,0.8,-2.118,M,40.592,M,1.8,0123*6B\r\n
$GPGGA,071854.45,5703.3948346,N,00952.1756050,E,2,11,0.8,-2.126,M,40.592,M,2.0,0123*6D\r\n
$GPGGA,071854.50,5703.3948503,N,00952.1755667,E,2,11,0.8,-2.134,M,40.592,M,2.0,0123*6C\r\n
$GPGGA,071854.55,5703.3948649,N,00952.1755283,E,2,11,0.8,-2.142,M,40.592,M,2.0,0123*6B\r\n
$GPGGA,071854.60,5703.3948802,N,00952.1754908,E,2,11,0.8,-2.151,M,40.592,M,2.0,0123*67\r\n
$GPGGA,071854.65,5703.3948956,N,00952.1754538,E,2,11,0.8,-2.158,M,40.592,M,2.3,0123*67\r\n
$GPGGA,071854.70,5703.3949115,N,00952.1754169,E,2,11,0.8,-2.165,M,40.592,M,2.3,0123*63\r\n
$GPGGA,071854.75,5703.3949272,N,00952.1753796,E,2,11,0.8,-2.170,M,40.592,M,2.3,0123*61\r\n
$GPGGA,071854.80,5703.3949434,N,00952.1753422,E,2,11,0.8,-2.176,M,40.592,M,2.3,0123*65\r\n
$GPGGA,071854.85,5703.3949586,N,00952.1753039,E,2,11,0.8,-2.182,M,40.592,M,2.5,0123*6B\r\n
$GPGGA,071854.90,5703.3949740,N,00952.1752631,E,2,11,0.8,-2.180,M,40.592,M,2.5,0123*6A\r\n
$GPGGA,071854.95,5703.3949892,N,00952.1752211,E,2,11,0.8,-2.174,M,40.592,M,2.5,0123*62\r\n
$GPGGA,071855.00,5703.3950032,N,00952.1751792,E,2,11,0.8,-2.170,M,40.592,M,2.5,0123*6C\r\n
$GPGGA,071855.05,5703.3950176,N,00952.1751381,E,2,11,0.8,-2.159,M,40.592,M,2.7,0123*67\r\n
$GPGGA,071855.10,5703.3950321,N,00952.1750959,E,2,11,0.8,-2.152,M,40.592,M,2.7,0123*66\r\n
$GPGGA,071855.15,5703.3950467,N,00952.1750532,E,2,11,0.8,-2.143,M,40.592,M,2.7,0123*67\r\n
$GPGGA,071855.20,5703.3950619,N,00952.1750106,E,2,11,0.8,-2.132,M,40.592,M,2.7,0123*6F\r\n
$GPGGA,071855.25,5703.3950766,N,00952.1749673,E,2,11,0.8,-2.117,M,40.592,M,2.9,0123*67\r\n
$GPGGA,071855.30,5703.3950916,N,00952.1749253,E,2,11,0.8,-2.110,M,40.592,M,2.9,0123*6B\r\n
$GPGGA,071855.35,5703.3951072,N,00952.1748852,E,2,11,0.8,-2.108,M,40.592,M,2.9,0123*67\r\n
$GPGGA,071855.40,5703.3951233,N,00952.1748451,E,2,11,0.8,-2.106,M,40.592,M,2.9,0123*63\r\n
$GPGGA,071855.45,5703.3951405,N,00952.1748072,E,2,11,0.8,-2.101,M,40.592,M,3.1,0123*6E\r\n
$GPGGA,071855.50,5703.3951572,N,00952.1747681,E,2,11,0.8,-2.103,M,40.592,M,3.1,0123*6C\r\n
$GPGGA,071855.55,5703.3951746,N,00952.1747299,E,2,11,0.8,-2.108,M,40.592,M,3.1,0123*6A\r\n
$GPGGA,071855.60,5703.3951927,N,00952.1746922,E,2,11,0.8,-2.115,M,40.592,M,3.1,0123*63\r\n
$GPGGA,071855.65,5703.3952103,N,00952.1746539,E,2,11,0.8,-2.123,M,40.592,M,1.4,0123*6F\r\n
$GPGGA,071855.70,5703.3952265,N,00952.1746136,E,2,11,0.8,-2.128,M,40.592,M,1.4,0123*68\r\n
$GPGGA,071855.75,5703.3952418,N,00952.1745732,E,2,11,0.8,-2.128,M,40.592,M,1.4,0123*60\r\n
$GPGGA,071855.80,5703.3952571,N,00952.1745315,E,2,11,0.8,-2.123,M,40.592,M,1.4,0123*6E\r\n
$GPGGA,071855.85,5703.3952718,N,00952.1744925,E,2,11,0.8,-2.116,M,40.592,M,1.8,0123*64\r\n
$GPGGA,071855.90,5703.3952869,N,00952.1744521,E,2,11,0.8,-2.112,M,40.592,M,1.8,0123*65\r\n
$GPGGA,071855.95,5703.3953016,N,00952.1744118,E,2,11,0.8,-2.107,M,40.592,M,1.8,0123*6B\r\n
$GPGGA,071856.00,5703.3953162,N,00952.1743716,E,2,11,0.8,-2.100,M,40.592,M,1.8,0123*6E\r\n
$GPGGA,071856.05,5703.3953306,N,00952.1743303,E,2,11,0.8,-2.092,M,40.592,M,2.1,0123*6B\r\n
$GPGGA,071856.10,5703.3953449,N,00952.1742897,E,2,11,0.8,-2.087,M,40.592,M,2.1,0123*60\r\n
$GPGGA,071856.15,5703.3953589,N,00952.1742487,E,2,11,0.8,-2.080,M,40.592,M,2.1,0123*62\r\n
$GPGGA,071856.20,5703.3953727,N,00952.1742099,E,2,11,0.8,-2.078,M,40.592,M,2.1,0123*6E\r\n
$GPGGA,071856.25,5703.3953867,N,00952.1741704,E,2,11,0.8,-2.075,M,40.592,M,2.3,0123*6F\r\n
$GPGGA,071856.30,5703.3954020,N,00952.1741310,E,2,11,0.8,-2.074,M,40.592,M,2.3,0123*67\r\n
$GPGGA,071856.35,5703.3954172,N,00952.1740921,E,2,11,0.8,-2.079,M,40.592,M,2.3,0123*60\r\n
$GPGGA,071856.40,5703.3954317,N,00952.1740531,E,2,11,0.8,-2.082,M,40.592,M,2.3,0123*6A\r\n
$GPGGA,071856.45,5703.3954473,N,00952.1740137,E,2,11,0.8,-2.089,M,40.592,M,2.6,0123*66\r\n
$GPGGA,071856.50,5703.3954632,N,00952.1739749,E,2,11,0.8,-2.099,M,40.592,M,2.6,0123*65\r\n
$GPGGA,071856.55,5703.3954785,N,00952.1739352,E,2,11,0.8,-2.108,M,40.592,M,2.6,0123*6A\r\n
$GPGGA,071856.60,5703.3954927,N,00952.1738969,E,2,11,0.8,-2.113,M,40.592,M,2.6,0123*63\r\n
$GPGGA,071856.65,5703.3955069,N,00952.1738596,E,2,11,0.8,-2.119,M,40.592,M,1.1,0123*66\r\n
$GPGGA,071856.70,5703.3955214,N,00952.1738218,E,2,11,0.8,-2.124,M,40.592,M,1.1,0123*65\r\n
$GPGGA,071856.75,5703.3955361,N,00952.1737834,E,2,11,0.8,-2.129,M,40.592,M,1.1,0123*65\r\n
$GPGGA,071856.80,5703.3955505,N,00952.1737437,E,2,11,0.8,-2.136,M,40.592,M,1.1,0123*6A\r\n
$GPGGA,071856.85,5703.3955652,N,00952.1737041,E,2,11,0.8,-2.144,M,40.592,M,1.4,0123*6B\r\n
$GPGGA,071856.90,5703.3955799,N,00952.1736639,E,2,11,0.8,-2.148,M,40.592,M,1.4,0123*6D\r\n
$GPGGA,071856.95,5703.3955940,N,00952.1736226,E,2,11,0.8,-2.149,M,40.592,M,1.4,0123*69\r\n
$GPGGA,071857.00,5703.3956079,N,00952.1735804,E,2,11,0.8,-2.151,M,40.592,M,1.4,0123*64\r\n
$GPGGA,071857.05,5703.3956219,N,00952.1735374,E,2,11,0.8,-2.146,M,40.592,M,1.7,0123*6C\r\n
$GPGGA,071857.10,5703.3956358,N,00952.1734949,E,2,11,0.8,-2.144,M,40.592,M,1.7,0123*6B\r\n
$GPGGA,071857.15,5703.3956496,N,00952.1734507,E,2,11,0.8,-2.142,M,40.592,M,1.7,0123*6B\r\n
$GPGGA,071857.20,5703.3956640,N,00952.1734059,E,2,11,0.8,-2.138,M,40.592,M,1.7,0123*67\r\n
$GPGGA,071857.25,5703.3956785,N,00952.1733607,E,2,11,0.8,-2.134,M,40.592,M,1.9,0123*62\r\n
$GPGGA,071857.30,5703.3956926,N,00952.1733164,E,2,11,0.8,-2.129,M,40.592,M,1.9,0123*6F\r\n
$GPGGA,071857.35,5703.3957068,N,00952.1732712,E,2,11,0.8,-2.123,M,40.592,M,1.9,0123*64\r\n
$GPGGA,071857.40,5703.3957199,N,00952.1732265,E,2,11,0.8,-2.120,M,40.592,M,1.9,0123*6F\r\n
$GPGGA,071857.45,5703.3957337,N,00952.1731829,E,2,11,0.8,-2.113,M,40.592,M,2.2,0123*65\r\n
$GPGGA,071857.50,5703.3957494,N,00952.1731418,E,2,11,0.8,-2.110,M,40.592,M,2.2,0123*62\r\n
$GPGGA,071857.55,5703.3957649,N,00952.1731010,E,2,11,0.8,-2.110,M,40.592,M,2.2,0123*69\r\n
$GPGGA,071857.60,5703.3957805,N,00952.1730600,E,2,11,0.8,-2.112,M,40.592,M,2.2,0123*6D\r\n
$GPGGA,071857.65,5703.3957966,N,00952.1730209,E,2,11,0.8,-2.118,M,40.592,M,1.1,0123*6B\r\n
$GPGGA,071857.70,5703.3958126,N,00952.1729811,E,2,11,0.8,-2.122,M,40.592,M,1.1,0123*6E\r\n
$GPGGA,071857.75,5703.3958285,N,00952.1729414,E,2,11,0.8,-2.125,M,40.592,M,1.1,0123*6F\r\n
$GPGGA,071857.80,5703.3958451,N,00952.1729009,E,2,11,0.8,-2.128,M,40.592,M,1.1,0123*6F\r\n
$GPGGA,071857.85,5703.3958610,N,00952.1728608,E,2,11,0.8,-2.134,M,40.592,M,1.3,0123*64\r\n
$GPGGA,071857.90,5703.3958759,N,00952.1728183,E,2,11,0.8,-2.135,M,40.592,M,1.3,0123*69\r\n
$GPGGA,071857.95,5703.3958906,N,00952.1727759,E,2,11,0.8,-2.130,M,40.592,M,1.3,0123*63\r\n
$GPGGA,071858.00,5703.3959054,N,00952.1727328,E,2,11,0.8,-2.124,M,40.592,M,1.3,0123*68\r\n
$GPGGA,071858.05,5703.3959195,N,00952.1726903,E,2,11,0.8,-2.118,M,40.592,M,1.6,0123*69\r\n
$GPGGA,071858.10,5703.3959345,N,00952.1726476,E,2,11,0.8,-2.112,M,40.592,M,1.6,0123*67\r\n
$GPGGA,071858.15,5703.3959487,N,00952.1726049,E,2,11,0.8,-2.108,M,40.592,M,1.6,0123*68\r\n
$GPGGA,071858.20,5703.3959632,N,00952.1725619,E,2,11,0.8,-2.103,M,40.592,M,1.6,0123*69\r\n
$GPGGA,071858.25,5703.3959767,N,00952.1725196,E,2,11,0.8,-2.096,M,40.592,M,1.8,0123*6E\r\n
$GPGGA,071858.30,5703.3959917,N,00952.1724777,E,2,11,0.8,-2.090,M,40.592,M,1.8,0123*6D\r\n
$GPGGA,071858.35,5703.3960062,N,00952.1724359,E,2,11,0.8,-2.085,M,40.592,M,1.8,0123*65\r\n
$GPGGA,071858.40,5703.3960203,N,00952.1723934,E,2,11,0.8,-2.078,M,40.592,M,1.8,0123*66\r\n
$GPGGA,071858.45,5703.3960349,N,00952.1723517,E,2,11,0.8,-2.072,M,40.592,M,2.0,0123*60\r\n
$GPGGA,071858.50,5703.3960492,N,00952.1723096,E,2,11,0.8,-2.072,M,40.592,M,2.0,0123*69\r\n
$GPGGA,071858.55,5703.3960645,N,00952.1722695,E,2,11,0.8,-2.072,M,40.592,M,2.0,0123*60\r\n
$GPGGA,071858.60,5703.3960798,N,00952.1722305,E,2,11,0.8,-2.075,M,40.592,M,2.0,0123*6C\r\n
$GPGGA,071858.65,5703.3960963,N,00952.1721927,E,2,11,0.8,-2.078,M,40.592,M,2.3,0123*64\r\n
$GPGGA,071858.70,5703.3961126,N,00952.1721540,E,2,11,0.8,-2.083,M,40.592,M,2.3,0123*61\r\n
$GPGGA,071858.75,5703.3961272,N,00952.1721145,E,2,11,0.8,-2.092,M,40.592,M,2.3,0123*67\r\n
$GPGGA,071858.80,5703.3961415,N,00952.1720726,E,2,11,0.8,-2.095,M,40.592,M,2.3,0123*6F\r\n
$GPGGA,071858.85,5703.3961568,N,00952.1720314,E,2,11,0.8,-2.100,M,40.592,M,2.5,0123*6F\r\n
$GPGGA,071858.90,5703.3961719,N,00952.1719901,E,2,11,0.8,-2.102,M,40.592,M,2.5,0123*69\r\n
$GPGGA,071858.95,5703.3961872,N,00952.1719477,E,2,11,0.8,-2.104,M,40.592,M,2.5,0123*64\r\n
$GPGGA,071859.00,5703.3962018,N,00952.1719031,E,2,11,0.8,-2.108,M,40.592,M,2.5,0123*64\r\n
$GPGGA,071859.05,5703.3962173,N,00952.1718584,E,2,11,0.8,-2.104,M,40.592,M,2.7,0123*69\r\n
$GPGGA,071859.10,5703.3962327,N,00952.1718129,E,2,11,0.8,-2.102,M,40.592,M,2.7,0123*6B\r\n
$GPGGA,071859.15,5703.3962493,N,00952.1717678,E,2,11,0.8,-2.102,M,40.592,M,2.7,0123*6A\r\n
$GPGGA,071859.20,5703.3962663,N,00952.1717224,E,2,11,0.8,-2.102,M,40.592,M,2.7,0123*6C\r\n
$GPGGA,071859.25,5703.3962836,N,00952.1716771,E,2,11,0.8,-2.098,M,40.592,M,2.9,0123*6F\r\n
$GPGGA,071859.30,5703.3963016,N,00952.1716300,E,2,11,0.8,-2.097,M,40.592,M,2.9,0123*6D\r\n
$GPGGA,071859.35,5703.3963195,N,00952.1715828,E,2,11,0.8,-2.095,M,40.592,M,2.9,0123*62\r\n
$GPGGA,071859.40,5703.3963385,N,00952.1715341,E,2,11,0.8,-2.096,M,40.592,M,2.9,0123*64\r\n
$GPGGA,071859.45,5703.3963587,N,00952.1714869,E,2,11,0.8,-2.098,M,40.592,M,3.1,0123*62\r\n
$GPGGA,071859.50,5703.3963797,N,00952.1714394,E,2,11,0.8,-2.095,M,40.592,M,3.1,0123*61\r\n
$GPGGA,071859.55,5703.3964021,N,00952.1713922,E,2,11,0.8,-2.092,M,40.592,M,3.1,0123*6E\r\n
$GPGGA,071859.60,5703.3964248,N,00952.1713444,E,2,11,0.8,-2.090,M,40.592,M,3.1,0123*6A\r\n
$GPGGA,071859.65,5703.3964489,N,00952.1712965,E,2,11,0.8,-2.085,M,40.592,M,1.4,0123*68\r\n
$GPGGA,071859.70,5703.3964735,N,00952.1712481,E,2,11,0.8,-2.084,M,40.592,M,1.4,0123*6E\r\n
$GPGGA,071859.75,5703.3964985,N,00952.1711980,E,2,11,0.8,-2.084,M,40.592,M,1.4,0123*61\r\n
$GPGGA,071859.80,5703.3965246,N,00952.1711467,E,2,11,0.8,-2.084,M,40.592,M,1.4,0123*6A\r\n
$GPGGA,071859.85,5703.3965511,N,00952.1710959,E,2,11,0.8,-2.082,M,40.592,M,1.8,0123*61\r\n
$GPGGA,071859.90,5703.3965778,N,00952.1710456,E,2,11,0.8,-2.078,M,40.592,M,1.8,0123*6F\r\n
$GPGGA,071859.95,5703.3966053,N,00952.1709939,E,2,11,0.8,-2.074,M,40.592,M,1.8,0123*67\r\n
$GPGGA,071900.00,5703.3966339,N,00952.1709409,E,2,11,0.8,-2.069,M,40.592,M,1.8,0123*6B\r\n
$GPGGA,071900.05,5703.3966631,N,00952.1708867,E,2,11,0.8,-2.063,M,40.592,M,2.1,0123*66\r\n
$GPGGA,071900.10,5703.3966930,N,00952.1708321,E,2,11,0.8,-2.058,M,40.592,M,2.1,0123*6D\r\n
$GPGGA,071900.15,5703.3967238,N,00952.1707768,E,2,11,0.8,-2.054,M,40.592,M,2.1,0123*60\r\n
$GPGGA,071900.20,5703.3967562,N,00952.1707230,E,2,11,0.8,-2.052,M,40.592,M,2.1,0123*60\r\n
$GPGGA,071900.25,5703.3967893,N,00952.1706694,E,2,11,0.8,-2.057,M,40.592,M,2.3,0123*6A\r\n
$GPGGA,071900.30,5703.3968224,N,00952.1706147,E,2,11,0.8,-2.059,M,40.592,M,2.3,0123*60\r\n
$GPGGA,071900.35,5703.3968565,N,00952.1705607,E,2,11,0.8,-2.063,M,40.592,M,2.3,0123*6E\r\n
$GPGGA,071900.40,5703.3968919,N,00952.1705091,E,2,11,0.8,-2.066,M,40.592,M,2.3,0123*67\r\n
$GPGGA,071900.45,5703.3969280,N,00952.1704576,E,2,11,0.8,-2.066,M,40.592,M,2.6,0123*60\r\n
$GPGGA,071900.50,5703.3969647,N,00952.1704046,E,2,11,0.8,-2.067,M,40.592,M,2.6,0123*6C\r\n
$GPGGA,071900.55,5703.3970008,N,00952.1703462,E,2,11,0.8,-2.067,M,40.592,M,2.6,0123*69\r\n
$GPGGA,071900.60,5703.3970357,N,00952.1702873,E,2,11,0.8,-2.065,M,40.592,M,2.6,0123*69\r\n
$GPGGA,071900.65,5703.3970717,N,00952.1702265,E,2,11,0.8,-2.060,M,40.592,M,1.1,0123*60\r\n
$GPGGA,071900.70,5703.3971078,N,00952.1701663,E,2,11,0.8,-2.054,M,40.592,M,1.1,0123*6D\r\n
$GPGGA,071900.75,5703.3971449,N,00952.1701062,E,2,11,0.8,-2.049,M,40.592,M,1.1,0123*65\r\n
$GPGGA,071900.80,5703.3971829,N,00952.1700458,E,2,11,0.8,-2.045,M,40.592,M,1.1,0123*65\r\n
$GPGGA,071900.85,5703.3972214,N,00952.1699844,E,2,11,0.8,-2.039,M,40.592,M,1.4,0123*69\r\n
$GPGGA,071900.90,5703.3972611,N,00952.1699238,E,2,11,0.8,-2.037,M,40.592,M,1.4,0123*63\r\n
$GPGGA,071900.95,5703.3973010,N,00952.1698631,E,2,11,0.8,-2.037,M,40.592,M,1.4,0123*6C\r\n
$GPGGA,071901.00,5703.3973409,N,00952.1698025,E,2,11,0.8,-2.038,M,40.592,M,1.4,0123*61\r\n
$GPGGA,071901.05,5703.3973834,N,00952.1697418,E,2,11,0.8,-2.038,M,40.592,M,1.7,0123*60\r\n
$GPGGA,071901.10,5703.3974256,N,00952.1696814,E,2,11,0.8,-2.041,M,40.592,M,1.7,0123*62\r\n
$GPGGA,071901.15,5703.3974666,N,00952.1696185,E,2,11,0.8,-2.046,M,40.592,M,1.7,0123*66\r\n
$GPGGA,071901.20,5703.3975060,N,00952.1695557,E,2,11,0.8,-2.045,M,40.592,M,1.7,0123*6A\r\n
$GPGGA,071901.25,5703.3975467,N,00952.1694926,E,2,11,0.8,-2.038,M,40.592,M,1.9,0123*63\r\n
$GPGGA,071901.30,5703.3975879,N,00952.1694295,E,2,11,0.8,-2.034,M,40.592,M,1.9,0123*6B\r\n
$GPGGA,071901.35,5703.3976298,N,00952.1693655,E,2,11,0.8,-2.030,M,40.592,M,1.9,0123*63\r\n
$GPGGA,071901.40,5703.3976728,N,00952.1693017,E,2,11,0.8,-2.030,M,40.592,M,1.9,0123*6F\r\n
$GPGGA,071901.45,5703.3977165,N,00952.1692381,E,2,11,0.8,-2.033,M,40.592,M,2.2,0123*62\r\n
$GPGGA,071901.50,5703.3977591,N,00952.1691710,E,2,11,0.8,-2.033,M,40.592,M,2.2,0123*66\r\n
$GPGGA,071901.55,5703.3978017,N,00952.1691044,E,2,11,0.8,-2.034,M,40.592,M,2.2,0123*66\r\n
$GPGGA,071901.60,5703.3978452,N,00952.1690386,E,2,11,0.8,-2.035,M,40.592,M,2.2,0123*68\r\n
$GPGGA,071901.65,5703.3978884,N,00952.1689708,E,2,11,0.8,-2.037,M,40.592,M,1.1,0123*62\r\n
$GPGGA,071901.70,5703.3979313,N,00952.1689037,E,2,11,0.8,-2.036,M,40.592,M,1.1,0123*68\r\n
$GPGGA,071901.75,5703.3979735,N,00952.1688362,E,2,11,0.8,-2.035,M,40.592,M,1.1,0123*6C\r\n
$GPGGA,071901.80,5703.3980165,N,00952.1687647,E,2,11,0.8,-2.032,M,40.592,M,1.1,0123*69\r\n
$GPGGA,071901.85,5703.3980600,N,00952.1686921,E,2,11,0.8,-2.031,M,40.592,M,1.3,0123*67\r\n
$GPGGA,071901.90,5703.3981030,N,00952.1686204,E,2,11,0.8,-2.027,M,40.592,M,1.3,0123*6C\r\n
$GPGGA,071901.95,5703.3981449,N,00952.1685474,E,2,11,0.8,-2.024,M,40.592,M,1.3,0123*62\r\n
$GPGGA,071902.00,5703.3981866,N,00952.1684739,E,2,11,0.8,-2.021,M,40.592,M,1.3,0123*62\r\n
$GPGGA,071902.05,5703.3982297,N,00952.1684002,E,2,11,0.8,-2.015,M,40.592,M,1.6,0123*6D\r\n
$GPGGA,071902.10,5703.3982733,N,00952.1683264,E,2,11,0.8,-2.014,M,40.592,M,1.6,0123*66\r\n
$GPGGA,071902.15,5703.3983170,N,00952.1682527,E,2,11,0.8,-2.010,M,40.592,M,1.6,0123*66\r\n
$GPGGA,071902.20,5703.3983605,N,00952.1681780,E,2,11,0.8,-2.009,M,40.592,M,1.6,0123*61\r\n
$GPGGA,071902.25,5703.3984050,N,00952.1681038,E,2,11,0.8,-2.008,M,40.592,M,1.8,0123*6E\r\n
$GPGGA,071902.30,5703.3984500,N,00952.1680281,E,2,11,0.8,-2.009,M,40.592,M,1.8,0123*6A\r\n
$GPGGA,071902.35,5703.3984960,N,00952.1679529,E,2,11,0.8,-2.014,M,40.592,M,1.8,0123*6A\r\n
$GPGGA,071902.40,5703.3985412,N,00952.1678769,E,2,11,0.8,-2.015,M,40.592,M,1.8,0123*67\r\n
$GPGGA,071902.45,5703.3985864,N,00952.1677995,E,2,11,0.8,-2.024,M,40.592,M,2.0,0123*64\r\n
$GPGGA,071902.50,5703.3986315,N,00952.1677213,E,2,11,0.8,-2.030,M,40.592,M,2.0,0123*6E\r\n
$GPGGA,071902.55,5703.3986762,N,00952.1676428,E,2,11,0.8,-2.035,M,40.592,M,2.0,0123*65\r\n
$GPGGA,071902.60,5703.3987197,N,00952.1675605,E,2,11,0.8,-2.041,M,40.592,M,2.0,0123*63\r\n
$GPGGA,071902.65,5703.3987627,N,00952.1674786,E,2,11,0.8,-2.039,M,40.592,M,2.3,0123*6D\r\n
$GPGGA,071902.70,5703.3988034,N,00952.1673948,E,2,11,0.8,-2.034,M,40.592,M,2.3,0123*64\r\n
$GPGGA,071902.75,5703.3988435,N,00952.1673099,E,2,11,0.8,-2.026,M,40.592,M,2.3,0123*62\r\n
$GPGGA,071902.80,5703.3988837,N,00952.1672214,E,2,11,0.8,-2.019,M,40.592,M,2.3,0123*6C\r\n
$GPGGA,071902.85,5703.3989249,N,00952.1671324,E,2,11,0.8,-2.012,M,40.592,M,2.5,0123*67\r\n
$GPGGA,071902.90,5703.3989663,N,00952.1670410,E,2,11,0.8,-2.008,M,40.592,M,2.5,0123*65\r\n
$GPGGA,071902.95,5703.3990074,N,00952.1669504,E,2,11,0.8,-2.004,M,40.592,M,2.5,0123*68\r\n
$GPGGA,071903.00,5703.3990485,N,00952.1668594,E,2,11,0.8,-2.004,M,40.592,M,2.5,0123*67\r\n
$GPGGA,071903.05,5703.3990902,N,00952.1667684,E,2,11,0.8,-2.002,M,40.592,M,2.7,0123*69\r\n
$GPGGA,071903.10,5703.3991342,N,00952.1666788,E,2,11,0.8,-2.006,M,40.592,M,2.7,0123*6A\r\n
$GPGGA,071903.15,5703.3991774,N,00952.1665887,E,2,11,0.8,-2.011,M,40.592,M,2.7,0123*6B\r\n
$GPGGA,071903.20,5703.3992212,N,00952.1664984,E,2,11,0.8,-2.016,M,40.592,M,2.7,0123*6F\r\n
$GPGGA,071903.25,5703.3992646,N,00952.1664080,E,2,11,0.8,-2.024,M,40.592,M,2.9,0123*6D\r\n
$GPGGA,071903.30,5703.3993066,N,00952.1663155,E,2,11,0.8,-2.033,M,40.592,M,2.9,0123*64\r\n
$GPGGA,071903.35,5703.3993476,N,00952.1662198,E,2,11,0.8,-2.036,M,40.592,M,2.9,0123*61\r\n
$GPGGA,071903.40,5703.3993846,N,00952.1661199,E,2,11,0.8,-2.037,M,40.592,M,2.9,0123*6F\r\n
$GPGGA,071903.45,5703.3994206,N,00952.1660149,E,2,11,0.8,-2.039,M,40.592,M,3.1,0123*68\r\n
$GPGGA,071903.50,5703.3994568,N,00952.1659091,E,2,11,0.8,-2.036,M,40.592,M,3.1,0123*62\r\n
$GPGGA,071903.55,5703.3994928,N,00952.1658034,E,2,11,0.8,-2.036,M,40.592,M,3.1,0123*61\r\n
$GPGGA,071903.60,5703.3995282,N,00952.1656970,E,2,11,0.8,-2.038,M,40.592,M,3.1,0123*64\r\n
$GPGGA,071903.65,5703.3995619,N,00952.1655916,E,2,11,0.8,-2.039,M,40.592,M,1.4,0123*62\r\n
$GPGGA,071903.70,5703.3995952,N,00952.1654849,E,2,11,0.8,-2.034,M,40.592,M,1.4,0123*61\r\n
$GPGGA,071903.75,5703.3996293,N,00952.1653771,E,2,11,0.8,-2.029,M,40.592,M,1.4,0123*6E\r\n
$GPGGA,071903.80,5703.3996623,N,00952.1652699,E,2,11,0.8,-2.025,M,40.592,M,1.4,0123*61\r\n
$GPGGA,071903.85,5703.3996963,N,00952.1651610,E,2,11,0.8,-2.016,M,40.592,M,1.8,0123*61\r\n
$GPGGA,071903.90,5703.3997291,N,00952.1650528,E,2,11,0.8,-2.011,M,40.592,M,1.8,0123*6C\r\n
$GPGGA,071903.95,5703.3997604,N,00952.1649443,E,2,11,0.8,-2.009,M,40.592,M,1.8,0123*6C\r\n
$GPGGA,071904.00,5703.3997922,N,00952.1648350,E,2,11,0.8,-2.005,M,40.592,M,1.8,0123*64\r\n
$GPGGA,071904.05,5703.3998238,N,00952.1647242,E,2,11,0.8,-1.998,M,40.592,M,2.1,0123*67\r\n
$GPGGA,071904.10,5703.3998555,N,00952.1646117,E,2,11,0.8,-1.998,M,40.592,M,2.1,0123*6D\r\n
$GPGGA,071904.15,5703.3998876,N,00952.1645002,E,2,11,0.8,-2.002,M,40.592,M,2.1,0123*6B\r\n
$GPGGA,071904.20,5703.3999203,N,00952.1643865,E,2,11,0.8,-2.005,M,40.592,M,2.1,0123*6C\r\n
$GPGGA,071904.25,5703.3999508,N,00952.1642721,E,2,11,0.8,-2.010,M,40.592,M,2.3,0123*6D\r\n
$GPGGA,071904.30,5703.3999812,N,00952.1641567,E,2,11,0.8,-2.015,M,40.592,M,2.3,0123*69\r\n
$GPGGA,071904.35,5703.4000112,N,00952.1640388,E,2,11,0.8,-2.024,M,40.592,M,2.3,0123*6F\r\n
$GPGGA,071904.40,5703.4000405,N,00952.1639195,E,2,11,0.8,-2.031,M,40.592,M,2.3,0123*6A\r\n
$GPGGA,071904.45,5703.4000670,N,00952.1637983,E,2,11,0.8,-2.040,M,40.592,M,2.6,0123*6D\r\n
$GPGGA,071904.50,5703.4000915,N,00952.1636759,E,2,11,0.8,-2.045,M,40.592,M,2.6,0123*68\r\n
$GPGGA,071904.55,5703.4001158,N,00952.1635521,E,2,11,0.8,-2.046,M,40.592,M,2.6,0123*60\r\n
$GPGGA,071904.60,5703.4001394,N,00952.1634279,E,2,11,0.8,-2.047,M,40.592,M,2.6,0123*6E\r\n
$GPGGA,071904.65,5703.4001624,N,00952.1633018,E,2,11,0.8,-2.046,M,40.592,M,1.1,0123*62\r\n
$GPGGA,071904.70,5703.4001832,N,00952.1631747,E,2,11,0.8,-2.045,M,40.592,M,1.1,0123*63\r\n
$GPGGA,071904.75,5703.4002045,N,00952.1630480,E,2,11,0.8,-2.043,M,40.592,M,1.1,0123*62\r\n
$GPGGA,071904.80,5703.4002252,N,00952.1629209,E,2,11,0.8,-2.039,M,40.592,M,1.1,0123*6E\r\n
$GPGGA,071904.85,5703.4002464,N,00952.1627938,E,2,11,0.8,-2.040,M,40.592,M,1.4,0123*64\r\n
$GPGGA,071904.90,5703.4002656,N,00952.1626661,E,2,11,0.8,-2.036,M,40.592,M,1.4,0123*60\r\n
$GPGGA,071904.95,5703.4002839,N,00952.1625340,E,2,11,0.8,-2.032,M,40.592,M,1.4,0123*63\r\n
$GPGGA,071905.00,5703.4003027,N,00952.1624025,E,2,11,0.8,-2.032,M,40.592,M,1.4,0123*69\r\n
$GPGGA,071905.05,5703.4003204,N,00952.1622697,E,2,11,0.8,-2.024,M,40.592,M,1.7,0123*62\r\n
$GPGGA,071905.10,5703.4003375,N,00952.1621370,E,2,11,0.8,-2.025,M,40.592,M,1.7,0123*6F\r\n
$GPGGA,071905.15,5703.4003537,N,00952.1620030,E,2,11,0.8,-2.022,M,40.592,M,1.7,0123*6B\r\n
$GPGGA,071905.20,5703.4003674,N,00952.1618680,E,2,11,0.8,-2.022,M,40.592,M,1.7,0123*6F\r\n
$GPGGA,071905.25,5703.4003818,N,00952.1617329,E,2,11,0.8,-2.020,M,40.592,M,1.9,0123*6B\r\n
$GPGGA,071905.30,5703.4003932,N,00952.1615974,E,2,11,0.8,-2.017,M,40.592,M,1.9,0123*62\r\n
$GPGGA,071905.35,5703.4004035,N,00952.1614611,E,2,11,0.8,-2.015,M,40.592,M,1.9,0123*61\r\n
$GPGGA,071905.40,5703.4004136,N,00952.1613242,E,2,11,0.8,-2.012,M,40.592,M,1.9,0123*63\r\n
$GPGGA,071905.45,5703.4004222,N,00952.1611879,E,2,11,0.8,-2.007,M,40.592,M,2.2,0123*6C\r\n
$GPGGA,071905.50,5703.4004302,N,00952.1610505,E,2,11,0.8,-2.004,M,40.592,M,2.2,0123*6F\r\n
$GPGGA,071905.55,5703.4004361,N,00952.1609133,E,2,11,0.8,-2.000,M,40.592,M,2.2,0123*62\r\n
$GPGGA,071905.60,5703.4004417,N,00952.1607758,E,2,11,0.8,-1.996,M,40.592,M,2.2,0123*62\r\n
$GPGGA,071905.65,5703.4004469,N,00952.1606385,E,2,11,0.8,-1.992,M,40.592,M,1.1,0123*6F\r\n
$GPGGA,071905.70,5703.4004526,N,00952.1605018,E,2,11,0.8,-1.990,M,40.592,M,1.1,0123*67\r\n
$GPGGA,071905.75,5703.4004573,N,00952.1603655,E,2,11,0.8,-1.985,M,40.592,M,1.1,0123*6F\r\n
$GPGGA,071905.80,5703.4004611,N,00952.1602282,E,2,11,0.8,-1.982,M,40.592,M,1.1,0123*6A\r\n
$GPGGA,071905.85,5703.4004624,N,00952.1600910,E,2,11,0.8,-1.983,M,40.592,M,1.3,0123*68\r\n
$GPGGA,071905.90,5703.4004623,N,00952.1599535,E,2,11,0.8,-1.983,M,40.592,M,1.3,0123*63\r\n
$GPGGA,071905.95,5703.4004629,N,00952.1598151,E,2,11,0.8,-1.982,M,40.592,M,1.3,0123*6A\r\n
$GPGGA,071906.00,5703.4004626,N,00952.1596764,E,2,11,0.8,-1.983,M,40.592,M,1.3,0123*65\r\n
$GPGGA,071906.05,5703.4004611,N,00952.1595379,E,2,11,0.8,-1.986,M,40.592,M,1.6,0123*6F\r\n
$GPGGA,071906.10,5703.4004583,N,00952.1593985,E,2,11,0.8,-1.989,M,40.592,M,1.6,0123*63\r\n
$GPGGA,071906.15,5703.4004556,N,00952.1592600,E,2,11,0.8,-1.990,M,40.592,M,1.6,0123*65\r\n
$GPGGA,071906.20,5703.4004534,N,00952.1591210,E,2,11,0.8,-1.993,M,40.592,M,1.6,0123*62\r\n
$GPGGA,071906.25,5703.4004503,N,00952.1589822,E,2,11,0.8,-1.995,M,40.592,M,1.8,0123*69\r\n
$GPGGA,071906.30,5703.4004458,N,00952.1588440,E,2,11,0.8,-2.000,M,40.592,M,1.8,0123*6D\r\n
$GPGGA,071906.35,5703.4004396,N,00952.1587065,E,2,11,0.8,-2.005,M,40.592,M,1.8,0123*64\r\n
$GPGGA,071906.40,5703.4004337,N,00952.1585682,E,2,11,0.8,-2.007,M,40.592,M,1.8,0123*62\r\n
$GPGGA,071906.45,5703.4004280,N,00952.1584295,E,2,11,0.8,-2.010,M,40.592,M,2.0,0123*64\r\n
$GPGGA,071906.50,5703.4004201,N,00952.1582902,E,2,11,0.8,-2.015,M,40.592,M,2.0,0123*6F\r\n
$GPGGA,071906.55,5703.4004110,N,00952.1581510,E,2,11,0.8,-2.022,M,40.592,M,2.0,0123*61\r\n
$GPGGA,071906.60,5703.4004014,N,00952.1580115,E,2,11,0.8,-2.025,M,40.592,M,2.0,0123*65\r\n
$GPGGA,071906.65,5703.4003909,N,00952.1578719,E,2,11,0.8,-2.022,M,40.592,M,2.3,0123*6B\r\n
$GPGGA,071906.70,5703.4003796,N,00952.1577325,E,2,11,0.8,-2.026,M,40.592,M,2.3,0123*67\r\n
$GPGGA,071906.75,5703.4003662,N,00952.1575929,E,2,11,0.8,-2.027,M,40.592,M,2.3,0123*6D\r\n
$GPGGA,071906.80,5703.4003530,N,00952.1574535,E,2,11,0.8,-2.028,M,40.592,M,2.3,0123*6C\r\n
$GPGGA,071906.85,5703.4003389,N,00952.1573151,E,2,11,0.8,-2.025,M,40.592,M,2.5,0123*67\r\n
$GPGGA,071906.90,5703.4003228,N,00952.1571762,E,2,11,0.8,-2.024,M,40.592,M,2.5,0123*6C\r\n
$GPGGA,071906.95,5703.4003049,N,00952.1570377,E,2,11,0.8,-2.024,M,40.592,M,2.5,0123*6D\r\n
$GPGGA,071907.00,5703.4002857,N,00952.1568986,E,2,11,0.8,-2.024,M,40.592,M,2.5,0123*6B\r\n
$GPGGA,071907.05,5703.4002659,N,00952.1567611,E,2,11,0.8,-2.032,M,40.592,M,2.7,0123*65\r\n
$GPGGA,071907.10,5703.4002459,N,00952.1566221,E,2,11,0.8,-2.034,M,40.592,M,2.7,0123*63\r\n
$GPGGA,071907.15,5703.4002251,N,00952.1564839,E,2,11,0.8,-2.035,M,40.592,M,2.7,0123*68\r\n
$GPGGA,071907.20,5703.4002027,N,00952.1563465,E,2,11,0.8,-2.035,M,40.592,M,2.7,0123*6F\r\n
$GPGGA,071907.25,5703.4001781,N,00952.1562087,E,2,11,0.8,-2.029,M,40.592,M,2.9,0123*68\r\n
$GPGGA,071907.30,5703.4001518,N,00952.1560719,E,2,11,0.8,-2.031,M,40.592,M,2.9,0123*65\r\n
$GPGGA,071907.35,5703.4001245,N,00952.1559364,E,2,11,0.8,-2.032,M,40.592,M,2.9,0123*68\r\n
$GPGGA,071907.40,5703.4000972,N,00952.1558007,E,2,11,0.8,-2.034,M,40.592,M,2.9,0123*65\r\n
$GPGGA,071907.45,5703.4000694,N,00952.1556660,E,2,11,0.8,-2.035,M,40.592,M,3.1,0123*66\r\n
$GPGGA,071907.50,5703.4000413,N,00952.1555313,E,2,11,0.8,-2.034,M,40.592,M,3.1,0123*6C\r\n
$GPGGA,071907.55,5703.4000117,N,00952.1553970,E,2,11,0.8,-2.031,M,40.592,M,3.1,0123*64\r\n
$GPGGA,071907.60,5703.3999815,N,00952.1552630,E,2,11,0.8,-2.025,M,40.592,M,3.1,0123*68\r\n
$GPGGA,071907.65,5703.3999513,N,00952.1551307,E,2,11,0.8,-2.017,M,40.592,M,1.4,0123*62\r\n
$GPGGA,071907.70,5703.3999206,N,00952.1549988,E,2,11,0.8,-2.010,M,40.592,M,1.4,0123*66\r\n
$GPGGA,071907.75,5703.3998888,N,00952.1548687,E,2,11,0.8,-2.003,M,40.592,M,1.4,0123*6D\r\n
$GPGGA,071907.80,5703.3998560,N,00952.1547397,E,2,11,0.8,-1.995,M,40.592,M,1.4,0123*62\r\n
$GPGGA,071907.85,5703.3998227,N,00952.1546119,E,2,11,0.8,-1.985,M,40.592,M,1.8,0123*6B\r\n
$GPGGA,071907.90,5703.3997897,N,00952.1544852,E,2,11,0.8,-1.977,M,40.592,M,1.8,0123*68\r\n
$GPGGA,071907.95,5703.3997557,N,00952.1543575,E,2,11,0.8,-1.969,M,40.592,M,1.8,0123*6C\r\n
$GPGGA,071908.00,5703.3997192,N,00952.1542289,E,2,11,0.8,-1.963,M,40.592,M,1.8,0123*6D\r\n
$GPGGA,071908.05,5703.3996827,N,00952.1541018,E,2,11,0.8,-1.957,M,40.592,M,2.1,0123*6A\r\n
$GPGGA,071908.10,5703.3996448,N,00952.1539762,E,2,11,0.8,-1.954,M,40.592,M,2.1,0123*6D\r\n
$GPGGA,071908.15,5703.3996062,N,00952.1538510,E,2,11,0.8,-1.954,M,40.592,M,2.1,0123*62\r\n
$GPGGA,071908.20,5703.3995662,N,00952.1537261,E,2,11,0.8,-1.956,M,40.592,M,2.1,0123*6D\r\n
$GPGGA,071908.25,5703.3995256,N,00952.1536021,E,2,11,0.8,-1.963,M,40.592,M,2.3,0123*68\r\n
$GPGGA,071908.30,5703.3994845,N,00952.1534795,E,2,11,0.8,-1.969,M,40.592,M,2.3,0123*65\r\n
$GPGGA,071908.35,5703.3994414,N,00952.1533590,E,2,11,0.8,-1.977,M,40.592,M,2.3,0123*67\r\n
$GPGGA,071908.40,5703.3993972,N,00952.1532389,E,2,11,0.8,-1.985,M,40.592,M,2.3,0123*6D\r\n
$GPGGA,071908.45,5703.3993525,N,00952.1531188,E,2,11,0.8,-1.991,M,40.592,M,2.6,0123*66\r\n
$GPGGA,071908.50,5703.3993073,N,00952.1530004,E,2,11,0.8,-1.999,M,40.592,M,2.6,0123*68\r\n
$GPGGA,071908.55,5703.3992609,N,00952.1528836,E,2,11,0.8,-2.006,M,40.592,M,2.6,0123*6B\r\n
$GPGGA,071908.60,5703.3992124,N,00952.1527697,E,2,11,0.8,-2.012,M,40.592,M,2.6,0123*6A\r\n
$GPGGA,071908.65,5703.3991648,N,00952.1526577,E,2,11,0.8,-2.021,M,40.592,M,1.1,0123*69\r\n
$GPGGA,071908.70,5703.3991174,N,00952.1525470,E,2,11,0.8,-2.025,M,40.592,M,1.1,0123*64\r\n
$GPGGA,071908.75,5703.3990703,N,00952.1524346,E,2,11,0.8,-2.025,M,40.592,M,1.1,0123*65\r\n
$GPGGA,071908.80,5703.3990223,N,00952.1523229,E,2,11,0.8,-2.023,M,40.592,M,1.1,0123*61\r\n
$GPGGA,071908.85,5703.3989746,N,00952.1522134,E,2,11,0.8,-2.016,M,40.592,M,1.4,0123*67\r\n
$GPGGA,071908.90,5703.3989264,N,00952.1521050,E,2,11,0.8,-2.008,M,40.592,M,1.4,0123*69\r\n
$GPGGA,071908.95,5703.3988773,N,00952.1519985,E,2,11,0.8,-2.003,M,40.592,M,1.4,0123*6F\r\n
$GPGGA,071909.00,5703.3988267,N,00952.1518919,E,2,11,0.8,-1.997,M,40.592,M,1.4,0123*61\r\n
$GPGGA,071909.05,5703.3987759,N,00952.1517862,E,2,11,0.8,-1.988,M,40.592,M,1.7,0123*6C\r\n
$GPGGA,071909.10,5703.3987236,N,00952.1516824,E,2,11,0.8,-1.985,M,40.592,M,1.7,0123*6A\r\n
$GPGGA,071909.15,5703.3986708,N,00952.1515793,E,2,11,0.8,-1.981,M,40.592,M,1.7,0123*62\r\n
$GPGGA,071909.20,5703.3986174,N,00952.1514759,E,2,11,0.8,-1.978,M,40.592,M,1.7,0123*68\r\n
$GPGGA,071909.25,5703.3985622,N,00952.1513747,E,2,11,0.8,-1.976,M,40.592,M,1.9,0123*62\r\n
$GPGGA,071909.30,5703.3985048,N,00952.1512743,E,2,11,0.8,-1.978,M,40.592,M,1.9,0123*67\r\n
$GPGGA,071909.35,5703.3984491,N,00952.1511747,E,2,11,0.8,-1.979,M,40.592,M,1.9,0123*65\r\n
$GPGGA,071909.40,5703.3983932,N,00952.1510764,E,2,11,0.8,-1.980,M,40.592,M,1.9,0123*62\r\n
$GPGGA,071909.45,5703.3983347,N,00952.1509816,E,2,11,0.8,-1.987,M,40.592,M,2.2,0123*62\r\n
$GPGGA,071909.50,5703.3982753,N,00952.1508891,E,2,11,0.8,-1.991,M,40.592,M,2.2,0123*6F\r\n
$GPGGA,071909.55,5703.3982156,N,00952.1507968,E,2,11,0.8,-1.991,M,40.592,M,2.2,0123*61\r\n
$GPGGA,071909.60,5703.3981561,N,00952.1507071,E,2,11,0.8,-1.993,M,40.592,M,2.2,0123*67\r\n
$GPGGA,071909.65,5703.3980969,N,00952.1506180,E,2,11,0.8,-1.992,M,40.592,M,1.1,0123*68\r\n
$GPGGA,071909.70,5703.3980373,N,00952.1505298,E,2,11,0.8,-1.991,M,40.592,M,1.1,0123*67\r\n
$GPGGA,071909.75,5703.3979772,N,00952.1504446,E,2,11,0.8,-1.987,M,40.592,M,1.1,0123*62\r\n
$GPGGA,071909.80,5703.3979172,N,00952.1503583,E,2,11,0.8,-1.981,M,40.592,M,1.1,0123*67\r\n
$GPGGA,071909.85,5703.3978564,N,00952.1502732,E,2,11,0.8,-1.979,M,40.592,M,1.3,0123*6C\r\n
$GPGGA,071909.90,5703.3977950,N,00952.1501908,E,2,11,0.8,-1.977,M,40.592,M,1.3,0123*66\r\n
$GPGGA,071909.95,5703.3977328,N,00952.1501105,E,2,11,0.8,-1.976,M,40.592,M,1.3,0123*62\r\n
$GPGGA,071910.00,5703.3976702,N,00952.1500298,E,2,11,0.8,-1.976,M,40.592,M,1.3,0123*6D\r\n
$GPGGA,071910.05,5703.3976067,N,00952.1499491,E,2,11,0.8,-1.973,M,40.592,M,1.6,0123*62\r\n
$GPGGA,071910.10,5703.3975443,N,00952.1498689,E,2,11,0.8,-1.972,M,40.592,M,1.6,0123*6C\r\n
$GPGGA,071910.15,5703.3974809,N,00952.1497899,E,2,11,0.8,-1.971,M,40.592,M,1.6,0123*69\r\n
$GPGGA,071910.20,5703.3974163,N,00952.1497129,E,2,11,0.8,-1.973,M,40.592,M,1.6,0123*6A\r\n
$GPGGA,071910.25,5703.3973498,N,00952.1496399,E,2,11,0.8,-1.975,M,40.592,M,1.8,0123*69\r\n
$GPGGA,071910.30,5703.3972834,N,00952.1495678,E,2,11,0.8,-1.978,M,40.592,M,1.8,0123*62\r\n
$GPGGA,071910.35,5703.3972173,N,00952.1494970,E,2,11,0.8,-1.980,M,40.592,M,1.8,0123*6C\r\n
$GPGGA,071910.40,5703.3971516,N,00952.1494286,E,2,11,0.8,-1.982,M,40.592,M,1.8,0123*6A\r\n
$GPGGA,071910.45,5703.3970851,N,00952.1493626,E,2,11,0.8,-1.981,M,40.592,M,2.0,0123*61\r\n
$GPGGA,071910.50,5703.3970191,N,00952.1492990,E,2,11,0.8,-1.979,M,40.592,M,2.0,0123*64\r\n
$GPGGA,071910.55,5703.3969527,N,00952.1492352,E,2,11,0.8,-1.979,M,40.592,M,2.0,0123*64\r\n
$GPGGA,071910.60,5703.3968872,N,00952.1491734,E,2,11,0.8,-1.980,M,40.592,M,2.0,0123*6F\r\n
$GPGGA,071910.65,5703.3968202,N,00952.1491131,E,2,11,0.8,-1.984,M,40.592,M,2.3,0123*63\r\n
$GPGGA,071910.70,5703.3967524,N,00952.1490558,E,2,11,0.8,-1.983,M,40.592,M,2.3,0123*66\r\n
$GPGGA,071910.75,5703.3966838,N,00952.1489991,E,2,11,0.8,-1.984,M,40.592,M,2.3,0123*64\r\n
$GPGGA,071910.80,5703.3966160,N,00952.1489461,E,2,11,0.8,-1.984,M,40.592,M,2.3,0123*68\r\n
$GPGGA,071910.85,5703.3965465,N,00952.1488934,E,2,11,0.8,-1.979,M,40.592,M,2.5,0123*66\r\n
$GPGGA,071910.90,5703.3964777,N,00952.1488439,E,2,11,0.8,-1.982,M,40.592,M,2.5,0123*67\r\n
$GPGGA,071910.95,5703.3964094,N,00952.1487964,E,2,11,0.8,-1.979,M,40.592,M,2.5,0123*66\r\n
$GPGGA,071911.00,5703.3963396,N,00952.1487484,E,2,11,0.8,-1.977,M,40.592,M,2.5,0123*60\r\n
$GPGGA,071911.05,5703.3962702,N,00952.1487007,E,2,11,0.8,-1.976,M,40.592,M,2.7,0123*61\r\n
$GPGGA,071911.10,5703.3962011,N,00952.1486544,E,2,11,0.8,-1.973,M,40.592,M,2.7,0123*66\r\n
$GPGGA,071911.15,5703.3961317,N,00952.1486106,E,2,11,0.8,-1.972,M,40.592,M,2.7,0123*66\r\n
$GPGGA,071911.20,5703.3960624,N,00952.1485694,E,2,11,0.8,-1.971,M,40.592,M,2.7,0123*68\r\n
$GPGGA,071911.25,5703.3959937,N,00952.1485298,E,2,11,0.8,-1.968,M,40.592,M,2.9,0123*64\r\n
$GPGGA,071911.30,5703.3959249,N,00952.1484927,E,2,11,0.8,-1.968,M,40.592,M,2.9,0123*6C\r\n
$GPGGA,071911.35,5703.3958547,N,00952.1484568,E,2,11,0.8,-1.968,M,40.592,M,2.9,0123*66\r\n
$GPGGA,071911.40,5703.3957834,N,00952.1484214,E,2,11,0.8,-1.969,M,40.592,M,2.9,0123*6F\r\n
$GPGGA,071911.45,5703.3957121,N,00952.1483877,E,2,11,0.8,-1.977,M,40.592,M,3.1,0123*69\r\n
$GPGGA,071911.50,5703.3956415,N,00952.1483547,E,2,11,0.8,-1.978,M,40.592,M,3.1,0123*6F\r\n
$GPGGA,071911.55,5703.3955717,N,00952.1483262,E,2,11,0.8,-1.979,M,40.592,M,3.1,0123*69\r\n
$GPGGA,071911.60,5703.3955016,N,00952.1482990,E,2,11,0.8,-1.976,M,40.592,M,3.1,0123*61\r\n
$GPGGA,071911.65,5703.3954309,N,00952.1482749,E,2,11,0.8,-1.979,M,40.592,M,1.4,0123*6A\r\n
$GPGGA,071911.70,5703.3953606,N,00952.1482504,E,2,11,0.8,-1.975,M,40.592,M,1.4,0123*64\r\n
$GPGGA,071911.75,5703.3952910,N,00952.1482279,E,2,11,0.8,-1.974,M,40.592,M,1.4,0123*64\r\n
$GPGGA,071911.80,5703.3952207,N,00952.1482068,E,2,11,0.8,-1.975,M,40.592,M,1.4,0123*60\r\n
$GPGGA,071911.85,5703.3951491,N,00952.1481884,E,2,11,0.8,-1.975,M,40.592,M,1.8,0123*6A\r\n
$GPGGA,071911.90,5703.3950777,N,00952.1481727,E,2,11,0.8,-1.975,M,40.592,M,1.8,0123*62\r\n
$GPGGA,071911.95,5703.3950062,N,00952.1481587,E,2,11,0.8,-1.978,M,40.592,M,1.8,0123*61\r\n
$GPGGA,071912.00,5703.3949349,N,00952.1481465,E,2,11,0.8,-1.979,M,40.592,M,1.8,0123*60\r\n
$GPGGA,071912.05,5703.3948639,N,00952.1481365,E,2,11,0.8,-1.985,M,40.592,M,2.1,0123*68\r\n
$GPGGA,071912.10,5703.3947933,N,00952.1481271,E,2,11,0.8,-1.990,M,40.592,M,2.1,0123*66\r\n
$GPGGA,071912.15,5703.3947216,N,00952.1481179,E,2,11,0.8,-1.993,M,40.592,M,2.1,0123*67\r\n
$GPGGA,071912.20,5703.3946503,N,00952.1481086,E,2,11,0.8,-1.993,M,40.592,M,2.1,0123*62\r\n
$GPGGA,071912.25,5703.3945785,N,00952.1481018,E,2,11,0.8,-1.995,M,40.592,M,2.3,0123*6B\r\n
$GPGGA,071912.30,5703.3945061,N,00952.1480951,E,2,11,0.8,-1.999,M,40.592,M,2.3,0123*6B\r\n
$GPGGA,071912.35,5703.3944345,N,00952.1480937,E,2,11,0.8,-2.001,M,40.592,M,2.3,0123*61\r\n
$GPGGA,071912.40,5703.3943629,N,00952.1480935,E,2,11,0.8,-2.006,M,40.592,M,2.3,0123*6E\r\n
$GPGGA,071912.45,5703.3942925,N,00952.1480946,E,2,11,0.8,-2.010,M,40.592,M,2.6,0123*6F\r\n
$GPGGA,071912.50,5703.3942232,N,00952.1480978,E,2,11,0.8,-2.010,M,40.592,M,2.6,0123*6B\r\n
$GPGGA,071912.55,5703.3941533,N,00952.1481016,E,2,11,0.8,-2.006,M,40.592,M,2.6,0123*6C\r\n
$GPGGA,071912.60,5703.3940848,N,00952.1481092,E,2,11,0.8,-2.001,M,40.592,M,2.6,0123*61\r\n
$GPGGA,071912.65,5703.3940166,N,00952.1481185,E,2,11,0.8,-1.992,M,40.592,M,1.1,0123*62\r\n
$GPGGA,071912.70,5703.3939485,N,00952.1481264,E,2,11,0.8,-1.985,M,40.592,M,1.1,0123*6A\r\n
$GPGGA,071912.75,5703.3938796,N,00952.1481370,E,2,11,0.8,-1.980,M,40.592,M,1.1,0123*6E\r\n
$GPGGA,071912.80,5703.3938101,N,00952.1481482,E,2,11,0.8,-1.976,M,40.592,M,1.1,0123*6F\r\n
$GPGGA,071912.85,5703.3937416,N,00952.1481621,E,2,11,0.8,-1.971,M,40.592,M,1.4,0123*6F\r\n
$GPGGA,071912.90,5703.3936724,N,00952.1481768,E,2,11,0.8,-1.970,M,40.592,M,1.4,0123*65\r\n
$GPGGA,071912.95,5703.3936033,N,00952.1481938,E,2,11,0.8,-1.969,M,40.592,M,1.4,0123*62\r\n
$GPGGA,071913.00,5703.3935356,N,00952.1482124,E,2,11,0.8,-1.968,M,40.592,M,1.4,0123*6B\r\n
$GPGGA,071913.05,5703.3934668,N,00952.1482298,E,2,11,0.8,-1.965,M,40.592,M,1.7,0123*6D\r\n
$GPGGA,071913.10,5703.3933978,N,00952.1482467,E,2,11,0.8,-1.963,M,40.592,M,1.7,0123*60\r\n
$GPGGA,071913.15,5703.3933299,N,00952.1482658,E,2,11,0.8,-1.961,M,40.592,M,1.7,0123*6D\r\n
$GPGGA,071913.20,5703.3932615,N,00952.1482881,E,2,11,0.8,-1.961,M,40.592,M,1.7,0123*60\r\n
$GPGGA,071913.25,5703.3931949,N,00952.1483112,E,2,11,0.8,-1.958,M,40.592,M,1.9,0123*66\r\n
$GPGGA,071913.30,5703.3931280,N,00952.1483368,E,2,11,0.8,-1.955,M,40.592,M,1.9,0123*6E\r\n
$GPGGA,071913.35,5703.3930613,N,00952.1483629,E,2,11,0.8,-1.956,M,40.592,M,1.9,0123*67\r\n
$GPGGA,071913.40,5703.3929947,N,00952.1483910,E,2,11,0.8,-1.956,M,40.592,M,1.9,0123*66\r\n
$GPGGA,071913.45,5703.3929296,N,00952.1484202,E,2,11,0.8,-1.955,M,40.592,M,2.2,0123*60\r\n
$GPGGA,071913.50,5703.3928654,N,00952.1484518,E,2,11,0.8,-1.957,M,40.592,M,2.2,0123*61\r\n
$GPGGA,071913.55,5703.3928007,N,00952.1484832,E,2,11,0.8,-1.954,M,40.592,M,2.2,0123*62\r\n
$GPGGA,071913.60,5703.3927374,N,00952.1485150,E,2,11,0.8,-1.953,M,40.592,M,2.2,0123*67\r\n
$GPGGA,071913.65,5703.3926749,N,00952.1485505,E,2,11,0.8,-1.952,M,40.592,M,1.1,0123*6C\r\n
$GPGGA,071913.70,5703.3926136,N,00952.1485869,E,2,11,0.8,-1.948,M,40.592,M,1.1,0123*6A\r\n
$GPGGA,071913.75,5703.3925515,N,00952.1486227,E,2,11,0.8,-1.942,M,40.592,M,1.1,0123*60\r\n
$GPGGA,071913.80,5703.3924894,N,00952.1486587,E,2,11,0.8,-1.940,M,40.592,M,1.1,0123*60\r\n
$GPGGA,071913.85,5703.3924287,N,00952.1486983,E,2,11,0.8,-1.943,M,40.592,M,1.3,0123*64\r\n
$GPGGA,071913.90,5703.3923681,N,00952.1487392,E,2,11,0.8,-1.943,M,40.592,M,1.3,0123*6E\r\n
$GPGGA,071913.95,5703.3923071,N,00952.1487805,E,2,11,0.8,-1.945,M,40.592,M,1.3,0123*61\r\n
$GPGGA,071914.00,5703.3922474,N,00952.1488256,E,2,11,0.8,-1.949,M,40.592,M,1.3,0123*65\r\n
$GPGGA,071914.05,5703.3921877,N,00952.1488717,E,2,11,0.8,-1.951,M,40.592,M,1.6,0123*60\r\n
$GPGGA,071914.10,5703.3921302,N,00952.1489206,E,2,11,0.8,-1.955,M,40.592,M,1.6,0123*6D\r\n
$GPGGA,071914.15,5703.3920738,N,00952.1489714,E,2,11,0.8,-1.958,M,40.592,M,1.6,0123*6F\r\n
$GPGGA,071914.20,5703.3920176,N,00952.1490212,E,2,11,0.8,-1.958,M,40.592,M,1.6,0123*6E\r\n
$GPGGA,071914.25,5703.3919620,N,00952.1490724,E,2,11,0.8,-1.962,M,40.592,M,1.8,0123*62\r\n
$GPGGA,071914.30,5703.3919093,N,00952.1491271,E,2,11,0.8,-1.963,M,40.592,M,1.8,0123*6D\r\n
$GPGGA,071914.35,5703.3918566,N,00952.1491836,E,2,11,0.8,-1.964,M,40.592,M,1.8,0123*68\r\n
$GPGGA,071914.40,5703.3918051,N,00952.1492421,E,2,11,0.8,-1.967,M,40.592,M,1.8,0123*61\r\n
$GPGGA,071914.45,5703.3917542,N,00952.1493006,E,2,11,0.8,-1.967,M,40.592,M,2.0,0123*67\r\n
$GPGGA,071914.50,5703.3917026,N,00952.1493583,E,2,11,0.8,-1.968,M,40.592,M,2.0,0123*63\r\n
$GPGGA,071914.55,5703.3916513,N,00952.1494181,E,2,11,0.8,-1.968,M,40.592,M,2.0,0123*65\r\n
$GPGGA,071914.60,5703.3916009,N,00952.1494802,E,2,11,0.8,-1.970,M,40.592,M,2.0,0123*66\r\n
$GPGGA,071914.65,5703.3915522,N,00952.1495427,E,2,11,0.8,-1.973,M,40.592,M,2.3,0123*66\r\n
$GPGGA,071914.70,5703.3915044,N,00952.1496073,E,2,11,0.8,-1.972,M,40.592,M,2.3,0123*60\r\n
$GPGGA,071914.75,5703.3914576,N,00952.1496710,E,2,11,0.8,-1.971,M,40.592,M,2.3,0123*61\r\n
$GPGGA,071914.80,5703.3914127,N,00952.1497355,E,2,11,0.8,-1.967,M,40.592,M,2.3,0123*68\r\n
$GPGGA,071914.85,5703.3913693,N,00952.1498015,E,2,11,0.8,-1.962,M,40.592,M,2.5,0123*69\r\n
$GPGGA,071914.90,5703.3913277,N,00952.1498709,E,2,11,0.8,-1.955,M,40.592,M,2.5,0123*6D\r\n
$GPGGA,071914.95,5703.3912865,N,00952.1499420,E,2,11,0.8,-1.955,M,40.592,M,2.5,0123*69\r\n
$GPGGA,071915.00,5703.3912463,N,00952.1500119,E,2,11,0.8,-1.955,M,40.592,M,2.5,0123*60\r\n
$GPGGA,071915.05,5703.3912050,N,00952.1500819,E,2,11,0.8,-1.947,M,40.592,M,2.7,0123*69\r\n
$GPGGA,071915.10,5703.3911630,N,00952.1501524,E,2,11,0.8,-1.945,M,40.592,M,2.7,0123*6E\r\n
$GPGGA,071915.15,5703.3911220,N,00952.1502233,E,2,11,0.8,-1.943,M,40.592,M,2.7,0123*6A\r\n
$GPGGA,071915.20,5703.3910808,N,00952.1502949,E,2,11,0.8,-1.939,M,40.592,M,2.7,0123*66\r\n
$GPGGA,071915.25,5703.3910388,N,00952.1503668,E,2,11,0.8,-1.935,M,40.592,M,2.9,0123*6F\r\n
$GPGGA,071915.30,5703.3909961,N,00952.1504400,E,2,11,0.8,-1.937,M,40.592,M,2.9,0123*67\r\n
$GPGGA,071915.35,5703.3909557,N,00952.1505157,E,2,11,0.8,-1.944,M,40.592,M,2.9,0123*69\r\n
$GPGGA,071915.40,5703.3909183,N,00952.1505937,E,2,11,0.8,-1.948,M,40.592,M,2.9,0123*64\r\n
$GPGGA,071915.45,5703.3908807,N,00952.1506709,E,2,11,0.8,-1.955,M,40.592,M,3.1,0123*60\r\n
$GPGGA,071915.50,5703.3908445,N,00952.1507477,E,2,11,0.8,-1.959,M,40.592,M,3.1,0123*69\r\n
$GPGGA,071915.55,5703.3908124,N,00952.1508283,E,2,11,0.8,-1.965,M,40.592,M,3.1,0123*63\r\n
$GPGGA,071915.60,5703.3907806,N,00952.1509104,E,2,11,0.8,-1.970,M,40.592,M,3.1,0123*6A\r\n
$GPGGA,071915.65,5703.3907470,N,00952.1509916,E,2,11,0.8,-1.975,M,40.592,M,1.4,0123*6B\r\n
$GPGGA,071915.70,5703.3907168,N,00952.1510751,E,2,11,0.8,-1.975,M,40.592,M,1.4,0123*66\r\n
$GPGGA,071915.75,5703.3906864,N,00952.1511607,E,2,11,0.8,-1.979,M,40.592,M,1.4,0123*68\r\n
$GPGGA,071915.80,5703.3906574,N,00952.1512438,E,2,11,0.8,-1.981,M,40.592,M,1.4,0123*64\r\n
$GPGGA,071915.85,5703.3906310,N,00952.1513271,E,2,11,0.8,-1.977,M,40.592,M,1.8,0123*6A\r\n
$GPGGA,071915.90,5703.3906044,N,00952.1514110,E,2,11,0.8,-1.977,M,40.592,M,1.8,0123*6F\r\n
$GPGGA,071915.95,5703.3905760,N,00952.1514958,E,2,11,0.8,-1.974,M,40.592,M,1.8,0123*6F\r\n
$GPGGA,071916.00,5703.3905495,N,00952.1515817,E,2,11,0.8,-1.969,M,40.592,M,1.8,0123*6E\r\n
$GPGGA,071916.05,5703.3905247,N,00952.1516668,E,2,11,0.8,-1.959,M,40.592,M,2.1,0123*6E\r\n
$GPGGA,071916.10,5703.3904989,N,00952.1517510,E,2,11,0.8,-1.952,M,40.592,M,2.1,0123*64\r\n
$GPGGA,071916.15,5703.3904730,N,00952.1518358,E,2,11,0.8,-1.944,M,40.592,M,2.1,0123*6F\r\n
$GPGGA,071916.20,5703.3904485,N,00952.1519215,E,2,11,0.8,-1.936,M,40.592,M,2.1,0123*68\r\n
$GPGGA,071916.25,5703.3904273,N,00952.1520105,E,2,11,0.8,-1.920,M,40.592,M,2.3,0123*6F\r\n
$GPGGA,071916.30,5703.3904056,N,00952.1520988,E,2,11,0.8,-1.912,M,40.592,M,2.3,0123*62\r\n
$GPGGA,071916.35,5703.3903844,N,00952.1521866,E,2,11,0.8,-1.904,M,40.592,M,2.3,0123*6C\r\n
$GPGGA,071916.40,5703.3903655,N,00952.1522743,E,2,11,0.8,-1.900,M,40.592,M,2.3,0123*6F\r\n
$GPGGA,071916.45,5703.3903475,N,00952.1523642,E,2,11,0.8,-1.899,M,40.592,M,2.6,0123*6F\r\n
$GPGGA,071916.50,5703.3903320,N,00952.1524565,E,2,11,0.8,-1.901,M,40.592,M,2.6,0123*6D\r\n
$GPGGA,071916.55,5703.3903193,N,00952.1525484,E,2,11,0.8,-1.900,M,40.592,M,2.6,0123*6C\r\n
$GPGGA,071916.60,5703.3903079,N,00952.1526398,E,2,11,0.8,-1.901,M,40.592,M,2.6,0123*67\r\n
$GPGGA,071916.65,5703.3902993,N,00952.1527314,E,2,11,0.8,-1.900,M,40.592,M,1.1,0123*6E\r\n
$GPGGA,071916.70,5703.3902924,N,00952.1528224,E,2,11,0.8,-1.901,M,40.592,M,1.1,0123*6A\r\n
$GPGGA,071916.75,5703.3902862,N,00952.1529133,E,2,11,0.8,-1.903,M,40.592,M,1.1,0123*6A\r\n
$GPGGA,071916.80,5703.3902806,N,00952.1530040,E,2,11,0.8,-1.907,M,40.592,M,1.1,0123*6B\r\n
$GPGGA,071916.85,5703.3902768,N,00952.1530917,E,2,11,0.8,-1.913,M,40.592,M,1.4,0123*62\r\n
$GPGGA,071916.90,5703.3902731,N,00952.1531780,E,2,11,0.8,-1.912,M,40.592,M,1.4,0123*6A\r\n
$GPGGA,071916.95,5703.3902697,N,00952.1532625,E,2,11,0.8,-1.907,M,40.592,M,1.4,0123*6B\r\n
$GPGGA,071917.00,5703.3902670,N,00952.1533464,E,2,11,0.8,-1.903,M,40.592,M,1.4,0123*6D\r\n
$GPGGA,071917.05,5703.3902666,N,00952.1534311,E,2,11,0.8,-1.893,M,40.592,M,1.7,0123*66\r\n
$GPGGA,071917.10,5703.3902669,N,00952.1535154,E,2,11,0.8,-1.892,M,40.592,M,1.7,0123*6E\r\n
$GPGGA,071917.15,5703.3902690,N,00952.1535996,E,2,11,0.8,-1.891,M,40.592,M,1.7,0123*68\r\n
$GPGGA,071917.20,5703.3902708,N,00952.1536834,E,2,11,0.8,-1.890,M,40.592,M,1.7,0123*65\r\n
$GPGGA,071917.25,5703.3902735,N,00952.1537669,E,2,11,0.8,-1.887,M,40.592,M,1.9,0123*61\r\n
$GPGGA,071917.30,5703.3902767,N,00952.1538505,E,2,11,0.8,-1.889,M,40.592,M,1.9,0123*6A\r\n
$GPGGA,071917.35,5703.3902805,N,00952.1539319,E,2,11,0.8,-1.888,M,40.592,M,1.9,0123*6F\r\n
$GPGGA,071917.40,5703.3902854,N,00952.1540107,E,2,11,0.8,-1.884,M,40.592,M,1.9,0123*66\r\n
$GPGGA,071917.45,5703.3902910,N,00952.1540891,E,2,11,0.8,-1.884,M,40.592,M,2.2,0123*6C\r\n
$GPGGA,071917.50,5703.3902991,N,00952.1541659,E,2,11,0.8,-1.880,M,40.592,M,2.2,0123*6E\r\n
$GPGGA,071917.55,5703.3903101,N,00952.1542416,E,2,11,0.8,-1.876,M,40.592,M,2.2,0123*68\r\n
$GPGGA,071917.60,5703.3903203,N,00952.1543189,E,2,11,0.8,-1.876,M,40.592,M,2.2,0123*6D\r\n
$GPGGA,071917.65,5703.3903299,N,00952.1543964,E,2,11,0.8,-1.880,M,40.592,M,1.1,0123*69\r\n
$GPGGA,071917.70,5703.3903412,N,00952.1544732,E,2,11,0.8,-1.888,M,40.592,M,1.1,0123*6A\r\n
$GPGGA,071917.75,5703.3903552,N,00952.1545463,E,2,11,0.8,-1.890,M,40.592,M,1.1,0123*65\r\n
$GPGGA,071917.80,5703.3903705,N,00952.1546179,E,2,11,0.8,-1.891,M,40.592,M,1.1,0123*63\r\n
$GPGGA,071917.85,5703.3903871,N,00952.1546876,E,2,11,0.8,-1.892,M,40.592,M,1.3,0123*6D\r\n
$GPGGA,071917.90,5703.3904048,N,00952.1547579,E,2,11,0.8,-1.897,M,40.592,M,1.3,0123*6A\r\n
$GPGGA,071917.95,5703.3904232,N,00952.1548269,E,2,11,0.8,-1.896,M,40.592,M,1.3,0123*68\r\n
$GPGGA,071918.00,5703.3904432,N,00952.1548966,E,2,11,0.8,-1.901,M,40.592,M,1.3,0123*66\r\n
$GPGGA,071918.05,5703.3904631,N,00952.1549631,E,2,11,0.8,-1.909,M,40.592,M,1.6,0123*63\r\n
$GPGGA,071918.10,5703.3904834,N,00952.1550278,E,2,11,0.8,-1.916,M,40.592,M,1.6,0123*63\r\n
$GPGGA,071918.15,5703.3905052,N,00952.1550930,E,2,11,0.8,-1.919,M,40.592,M,1.6,0123*67\r\n
$GPGGA,071918.20,5703.3905270,N,00952.1551553,E,2,11,0.8,-1.922,M,40.592,M,1.6,0123*63\r\n
$GPGGA,071918.25,5703.3905515,N,00952.1552160,E,2,11,0.8,-1.925,M,40.592,M,1.8,0123*6C\r\n
$GPGGA,071918.30,5703.3905783,N,00952.1552738,E,2,11,0.8,-1.926,M,40.592,M,1.8,0123*6D\r\n
$GPGGA,071918.35,5703.3906060,N,00952.1553323,E,2,11,0.8,-1.928,M,40.592,M,1.8,0123*60\r\n
$GPGGA,071918.40,5703.3906330,N,00952.1553900,E,2,11,0.8,-1.931,M,40.592,M,1.8,0123*67\r\n
$GPGGA,071918.45,5703.3906606,N,00952.1554457,E,2,11,0.8,-1.937,M,40.592,M,2.0,0123*67\r\n
$GPGGA,071918.50,5703.3906894,N,00952.1555004,E,2,11,0.8,-1.940,M,40.592,M,2.0,0123*65\r\n
$GPGGA,071918.55,5703.3907183,N,00952.1555518,E,2,11,0.8,-1.943,M,40.592,M,2.0,0123*65\r\n
$GPGGA,071918.60,5703.3907503,N,00952.1555986,E,2,11,0.8,-1.942,M,40.592,M,2.0,0123*65\r\n
$GPGGA,071918.65,5703.3907837,N,00952.1556461,E,2,11,0.8,-1.936,M,40.592,M,2.3,0123*6D\r\n
$GPGGA,071918.70,5703.3908167,N,00952.1556937,E,2,11,0.8,-1.932,M,40.592,M,2.3,0123*60\r\n
$GPGGA,071918.75,5703.3908501,N,00952.1557410,E,2,11,0.8,-1.932,M,40.592,M,2.3,0123*68\r\n
$GPGGA,071918.80,5703.3908845,N,00952.1557865,E,2,11,0.8,-1.935,M,40.592,M,2.3,0123*66\r\n
$GPGGA,071918.85,5703.3909195,N,00952.1558318,E,2,11,0.8,-1.934,M,40.592,M,2.5,0123*6F\r\n
$GPGGA,071918.90,5703.3909555,N,00952.1558751,E,2,11,0.8,-1.936,M,40.592,M,2.5,0123*68\r\n
$GPGGA,071918.95,5703.3909932,N,00952.1559155,E,2,11,0.8,-1.938,M,40.592,M,2.5,0123*6D\r\n
$GPGGA,071919.00,5703.3910311,N,00952.1559537,E,2,11,0.8,-1.937,M,40.592,M,2.5,0123*6C\r\n
$GPGGA,071919.05,5703.3910716,N,00952.1559885,E,2,11,0.8,-1.932,M,40.592,M,2.7,0123*69\r\n
$GPGGA,071919.10,5703.3911132,N,00952.1560195,E,2,11,0.8,-1.931,M,40.592,M,2.7,0123*6D\r\n
$GPGGA,071919.15,5703.3911553,N,00952.1560477,E,2,11,0.8,-1.928,M,40.592,M,2.7,0123*6A\r\n
$GPGGA,071919.20,5703.3911969,N,00952.1560732,E,2,11,0.8,-1.927,M,40.592,M,2.7,0123*64\r\n
$GPGGA,071919.25,5703.3912392,N,00952.1560980,E,2,11,0.8,-1.923,M,40.592,M,2.9,0123*61\r\n
$GPGGA,071919.30,5703.3912821,N,00952.1561197,E,2,11,0.8,-1.917,M,40.592,M,2.9,0123*6E\r\n
$GPGGA,071919.35,5703.3913252,N,00952.1561392,E,2,11,0.8,-1.913,M,40.592,M,2.9,0123*67\r\n
$GPGGA,071919.40,5703.3913684,N,00952.1561581,E,2,11,0.8,-1.908,M,40.592,M,2.9,0123*64\r\n
$GPGGA,071919.45,5703.3914120,N,00952.1561742,E,2,11,0.8,-1.906,M,40.592,M,3.1,0123*65\r\n
$GPGGA,071919.50,5703.3914564,N,00952.1561905,E,2,11,0.8,-1.904,M,40.592,M,3.1,0123*6A\r\n
$GPGGA,071919.55,5703.3915017,N,00952.1562047,E,2,11,0.8,-1.898,M,40.592,M,3.1,0123*67\r\n
$GPGGA,071919.60,5703.3915487,N,00952.1562176,E,2,11,0.8,-1.897,M,40.592,M,3.1,0123*60\r\n
$GPGGA,071919.65,5703.3915966,N,00952.1562292,E,2,11,0.8,-1.896,M,40.592,M,1.4,0123*68\r\n
$GPGGA,071919.70,5703.3916453,N,00952.1562407,E,2,11,0.8,-1.902,M,40.592,M,1.4,0123*62\r\n
$GPGGA,071919.75,5703.3916934,N,00952.1562499,E,2,11,0.8,-1.906,M,40.592,M,1.4,0123*68\r\n
$GPGGA,071919.80,5703.3917411,N,00952.1562530,E,2,11,0.8,-1.905,M,40.592,M,1.4,0123*68\r\n
$GPGGA,071919.85,5703.3917866,N,00952.1562490,E,2,11,0.8,-1.902,M,40.592,M,1.8,0123*61\r\n
$GPGGA,071919.90,5703.3918323,N,00952.1562424,E,2,11,0.8,-1.896,M,40.592,M,1.8,0123*63\r\n
$GPGGA,071919.95,5703.3918801,N,00952.1562373,E,2,11,0.8,-1.888,M,40.592,M,1.8,0123*67\r\n
$GPGGA,071920.00,5703.3919296,N,00952.1562323,E,2,11,0.8,-1.886,M,40.592,M,1.8,0123*6F\r\n
$GPGGA,071920.05,5703.3919795,N,00952.1562251,E,2,11,0.8,-1.887,M,40.592,M,2.1,0123*63\r\n
$GPGGA,071920.10,5703.3920296,N,00952.1562138,E,2,11,0.8,-1.890,M,40.592,M,2.1,0123*61\r\n
$GPGGA,071920.15,5703.3920803,N,00952.1562020,E,2,11,0.8,-1.895,M,40.592,M,2.1,0123*6F\r\n
$GPGGA,071920.20,5703.3921311,N,00952.1561872,E,2,11,0.8,-1.899,M,40.592,M,2.1,0123*60\r\n
$GPGGA,071920.25,5703.3921821,N,00952.1561705,E,2,11,0.8,-1.899,M,40.592,M,2.3,0123*60\r\n
$GPGGA,071920.30,5703.3922330,N,00952.1561514,E,2,11,0.8,-1.902,M,40.592,M,2.3,0123*6D\r\n
$GPGGA,071920.35,5703.3922837,N,00952.1561319,E,2,11,0.8,-1.901,M,40.592,M,2.3,0123*6C\r\n
$GPGGA,071920.40,5703.3923340,N,00952.1561134,E,2,11,0.8,-1.900,M,40.592,M,2.3,0123*68\r\n
$GPGGA,071920.45,5703.3923845,N,00952.1560900,E,2,11,0.8,-1.900,M,40.592,M,2.6,0123*68\r\n
$GPGGA,071920.50,5703.3924349,N,00952.1560603,E,2,11,0.8,-1.899,M,40.592,M,2.6,0123*61\r\n
$GPGGA,071920.55,5703.3924852,N,00952.1560253,E,2,11,0.8,-1.898,M,40.592,M,2.6,0123*65\r\n
$GPGGA,071920.60,5703.3925356,N,00952.1559889,E,2,11,0.8,-1.899,M,40.592,M,2.6,0123*6B\r\n
$GPGGA,071920.65,5703.3925868,N,00952.1559499,E,2,11,0.8,-1.904,M,40.592,M,1.1,0123*64\r\n
$GPGGA,071920.70,5703.3926378,N,00952.1559109,E,2,11,0.8,-1.906,M,40.592,M,1.1,0123*67\r\n
$GPGGA,071920.75,5703.3926882,N,00952.1558698,E,2,11,0.8,-1.907,M,40.592,M,1.1,0123*63\r\n
$GPGGA,071920.80,5703.3927377,N,00952.1558249,E,2,11,0.8,-1.909,M,40.592,M,1.1,0123*6F\r\n
$GPGGA,071920.85,5703.3927883,N,00952.1557783,E,2,11,0.8,-1.911,M,40.592,M,1.4,0123*6A\r\n
$GPGGA,071920.90,5703.3928395,N,00952.1557288,E,2,11,0.8,-1.916,M,40.592,M,1.4,0123*64\r\n
$GPGGA,071920.95,5703.3928897,N,00952.1556784,E,2,11,0.8,-1.920,M,40.592,M,1.4,0123*65\r\n
$GPGGA,071921.00,5703.3929392,N,00952.1556288,E,2,11,0.8,-1.921,M,40.592,M,1.4,0123*6F\r\n
$GPGGA,071921.05,5703.3929882,N,00952.1555752,E,2,11,0.8,-1.916,M,40.592,M,1.7,0123*66\r\n
$GPGGA,071921.10,5703.3930375,N,00952.1555173,E,2,11,0.8,-1.915,M,40.592,M,1.7,0123*6F\r\n
$GPGGA,071921.15,5703.3930872,N,00952.1554564,E,2,11,0.8,-1.916,M,40.592,M,1.7,0123*66\r\n
$GPGGA,071921.20,5703.3931346,N,00952.1553924,E,2,11,0.8,-1.917,M,40.592,M,1.7,0123*63\r\n
$GPGGA,071921.25,5703.3931811,N,00952.1553259,E,2,11,0.8,-1.917,M,40.592,M,1.9,0123*60\r\n
$GPGGA,071921.30,5703.3932269,N,00952.1552550,E,2,11,0.8,-1.915,M,40.592,M,1.9,0123*6F\r\n
$GPGGA,071921.35,5703.3932712,N,00952.1551823,E,2,11,0.8,-1.912,M,40.592,M,1.9,0123*6E\r\n
$GPGGA,071921.40,5703.3933150,N,00952.1551092,E,2,11,0.8,-1.908,M,40.592,M,1.9,0123*64\r\n
$GPGGA,071921.45,5703.3933590,N,00952.1550364,E,2,11,0.8,-1.902,M,40.592,M,2.2,0123*60\r\n
$GPGGA,071921.50,5703.3934046,N,00952.1549600,E,2,11,0.8,-1.901,M,40.592,M,2.2,0123*61\r\n
$GPGGA,071921.55,5703.3934500,N,00952.1548821,E,2,11,0.8,-1.902,M,40.592,M,2.2,0123*6C\r\n
$GPGGA,071921.60,5703.3934956,N,00952.1548046,E,2,11,0.8,-1.904,M,40.592,M,2.2,0123*6A\r\n
$GPGGA,071921.65,5703.3935420,N,00952.1547262,E,2,11,0.8,-1.905,M,40.592,M,1.1,0123*68\r\n
$GPGGA,071921.70,5703.3935870,N,00952.1546460,E,2,11,0.8,-1.909,M,40.592,M,1.1,0123*6C\r\n
$GPGGA,071921.75,5703.3936314,N,00952.1545609,E,2,11,0.8,-1.913,M,40.592,M,1.1,0123*66\r\n
$GPGGA,071921.80,5703.3936741,N,00952.1544717,E,2,11,0.8,-1.913,M,40.592,M,1.1,0123*67\r\n
$GPGGA,071921.85,5703.3937150,N,00952.1543791,E,2,11,0.8,-1.916,M,40.592,M,1.3,0123*6B\r\n
$GPGGA,071921.90,5703.3937550,N,00952.1542859,E,2,11,0.8,-1.916,M,40.592,M,1.3,0123*61\r\n
$GPGGA,071921.95,5703.3937925,N,00952.1541896,E,2,11,0.8,-1.916,M,40.592,M,1.3,0123*6A\r\n
$GPGGA,071922.00,5703.3938290,N,00952.1540915,E,2,11,0.8,-1.912,M,40.592,M,1.3,0123*60\r\n
$GPGGA,071922.05,5703.3938657,N,00952.1539936,E,2,11,0.8,-1.909,M,40.592,M,1.6,0123*6A\r\n
$GPGGA,071922.10,5703.3939028,N,00952.1538964,E,2,11,0.8,-1.902,M,40.592,M,1.6,0123*6C\r\n
$GPGGA,071922.15,5703.3939380,N,00952.1537977,E,2,11,0.8,-1.894,M,40.592,M,1.6,0123*6B\r\n
$GPGGA,071922.20,5703.3939733,N,00952.1536986,E,2,11,0.8,-1.887,M,40.592,M,1.6,0123*6C\r\n
$GPGGA,071922.25,5703.3940089,N,00952.1535972,E,2,11,0.8,-1.877,M,40.592,M,1.8,0123*68\r\n
$GPGGA,071922.30,5703.3940441,N,00952.1534945,E,2,11,0.8,-1.873,M,40.592,M,1.8,0123*6D\r\n
$GPGGA,071922.35,5703.3940794,N,00952.1533919,E,2,11,0.8,-1.869,M,40.592,M,1.8,0123*66\r\n
$GPGGA,071922.40,5703.3941138,N,00952.1532882,E,2,11,0.8,-1.863,M,40.592,M,1.8,0123*6D\r\n
$GPGGA,071922.45,5703.3941468,N,00952.1531828,E,2,11,0.8,-1.863,M,40.592,M,2.0,0123*60\r\n
$GPGGA,071922.50,5703.3941786,N,00952.1530764,E,2,11,0.8,-1.861,M,40.592,M,2.0,0123*63\r\n
$GPGGA,071922.55,5703.3942099,N,00952.1529660,E,2,11,0.8,-1.862,M,40.592,M,2.0,0123*62\r\n
$GPGGA,071922.60,5703.3942419,N,00952.1528556,E,2,11,0.8,-1.864,M,40.592,M,2.0,0123*69\r\n
$GPGGA,071922.65,5703.3942726,N,00952.1527430,E,2,11,0.8,-1.867,M,40.592,M,2.3,0123*6D\r\n
$GPGGA,071922.70,5703.3943023,N,00952.1526278,E,2,11,0.8,-1.870,M,40.592,M,2.3,0123*67\r\n
$GPGGA,071922.75,5703.3943319,N,00952.1525123,E,2,11,0.8,-1.873,M,40.592,M,2.3,0123*65\r\n
$GPGGA,071922.80,5703.3943608,N,00952.1523952,E,2,11,0.8,-1.878,M,40.592,M,2.3,0123*69\r\n
$GPGGA,071922.85,5703.3943883,N,00952.1522773,E,2,11,0.8,-1.886,M,40.592,M,2.5,0123*6A\r\n
$GPGGA,071922.90,5703.3944138,N,00952.1521572,E,2,11,0.8,-1.891,M,40.592,M,2.5,0123*66\r\n
$GPGGA,071922.95,5703.3944389,N,00952.1520357,E,2,11,0.8,-1.896,M,40.592,M,2.5,0123*6C\r\n
$GPGGA,071923.00,5703.3944634,N,00952.1519122,E,2,11,0.8,-1.902,M,40.592,M,2.5,0123*64\r\n
$GPGGA,071923.05,5703.3944853,N,00952.1517862,E,2,11,0.8,-1.910,M,40.592,M,2.7,0123*6C\r\n
$GPGGA,071923.10,5703.3945054,N,00952.1516594,E,2,11,0.8,-1.917,M,40.592,M,2.7,0123*64\r\n
$GPGGA,071923.15,5703.3945241,N,00952.1515318,E,2,11,0.8,-1.922,M,40.592,M,2.7,0123*60\r\n
$GPGGA,071923.20,5703.3945418,N,00952.1514017,E,2,11,0.8,-1.924,M,40.592,M,2.7,0123*67\r\n
$GPGGA,071923.25,5703.3945576,N,00952.1512718,E,2,11,0.8,-1.929,M,40.592,M,2.9,0123*66\r\n
$GPGGA,071923.30,5703.3945730,N,00952.1511416,E,2,11,0.8,-1.929,M,40.592,M,2.9,0123*6C\r\n
$GPGGA,071923.35,5703.3945876,N,00952.1510100,E,2,11,0.8,-1.930,M,40.592,M,2.9,0123*6F\r\n
$GPGGA,071923.40,5703.3945985,N,00952.1508742,E,2,11,0.8,-1.931,M,40.592,M,2.9,0123*68\r\n
$GPGGA,071923.45,5703.3946087,N,00952.1507380,E,2,11,0.8,-1.924,M,40.592,M,3.1,0123*6D\r\n
$GPGGA,071923.50,5703.3946181,N,00952.1506020,E,2,11,0.8,-1.922,M,40.592,M,3.1,0123*60\r\n
$GPGGA,071923.55,5703.3946259,N,00952.1504658,E,2,11,0.8,-1.921,M,40.592,M,3.1,0123*6B\r\n
$GPGGA,071923.60,5703.3946335,N,00952.1503301,E,2,11,0.8,-1.919,M,40.592,M,3.1,0123*63\r\n
$GPGGA,071923.65,5703.3946380,N,00952.1501936,E,2,11,0.8,-1.914,M,40.592,M,1.4,0123*6E\r\n
$GPGGA,071923.70,5703.3946399,N,00952.1500557,E,2,11,0.8,-1.912,M,40.592,M,1.4,0123*6E\r\n
$GPGGA,071923.75,5703.3946415,N,00952.1499174,E,2,11,0.8,-1.903,M,40.592,M,1.4,0123*6C\r\n
$GPGGA,071923.80,5703.3946420,N,00952.1497794,E,2,11,0.8,-1.895,M,40.592,M,1.4,0123*68\r\n
$GPGGA,071923.85,5703.3946408,N,00952.1496414,E,2,11,0.8,-1.897,M,40.592,M,1.8,0123*63\r\n
$GPGGA,071923.90,5703.3946366,N,00952.1495040,E,2,11,0.8,-1.891,M,40.592,M,1.8,0123*68\r\n
$GPGGA,071923.95,5703.3946324,N,00952.1493670,E,2,11,0.8,-1.885,M,40.592,M,1.8,0123*6D\r\n
$GPGGA,071924.00,5703.3946286,N,00952.1492308,E,2,11,0.8,-1.879,M,40.592,M,1.8,0123*67\r\n
$GPGGA,071924.05,5703.3946250,N,00952.1490939,E,2,11,0.8,-1.870,M,40.592,M,2.1,0123*60\r\n
$GPGGA,071924.10,5703.3946193,N,00952.1489573,E,2,11,0.8,-1.863,M,40.592,M,2.1,0123*60\r\n
$GPGGA,071924.15,5703.3946116,N,00952.1488212,E,2,11,0.8,-1.859,M,40.592,M,2.1,0123*60\r\n
$GPGGA,071924.20,5703.3946031,N,00952.1486846,E,2,11,0.8,-1.856,M,40.592,M,2.1,0123*68\r\n
$GPGGA,071924.25,5703.3945922,N,00952.1485467,E,2,11,0.8,-1.854,M,40.592,M,2.3,0123*69\r\n
$GPGGA,071924.30,5703.3945805,N,00952.1484097,E,2,11,0.8,-1.852,M,40.592,M,2.3,0123*65\r\n
$GPGGA,071924.35,5703.3945690,N,00952.1482733,E,2,11,0.8,-1.851,M,40.592,M,2.3,0123*6E\r\n
$GPGGA,071924.40,5703.3945556,N,00952.1481354,E,2,11,0.8,-1.852,M,40.592,M,2.3,0123*60\r\n
$GPGGA,071924.45,5703.3945394,N,00952.1479981,E,2,11,0.8,-1.859,M,40.592,M,2.6,0123*66\r\n
$GPGGA,071924.50,5703.3945235,N,00952.1478605,E,2,11,0.8,-1.865,M,40.592,M,2.6,0123*65\r\n
$GPGGA,071924.55,5703.3945070,N,00952.1477217,E,2,11,0.8,-1.871,M,40.592,M,2.6,0123*6E\r\n
$GPGGA,071924.60,5703.3944890,N,00952.1475838,E,2,11,0.8,-1.879,M,40.592,M,2.6,0123*62\r\n
$GPGGA,071924.65,5703.3944695,N,00952.1474477,E,2,11,0.8,-1.889,M,40.592,M,1.1,0123*61\r\n
$GPGGA,071924.70,5703.3944485,N,00952.1473118,E,2,11,0.8,-1.896,M,40.592,M,1.1,0123*63\r\n
$GPGGA,071924.75,5703.3944276,N,00952.1471760,E,2,11,0.8,-1.902,M,40.592,M,1.1,0123*6B\r\n
$GPGGA,071924.80,5703.3944062,N,00952.1470396,E,2,11,0.8,-1.908,M,40.592,M,1.1,0123*60\r\n
$GPGGA,071924.85,5703.3943849,N,00952.1469048,E,2,11,0.8,-1.916,M,40.592,M,1.4,0123*61\r\n
$GPGGA,071924.90,5703.3943621,N,00952.1467696,E,2,11,0.8,-1.921,M,40.592,M,1.4,0123*6A\r\n
$GPGGA,071924.95,5703.3943379,N,00952.1466350,E,2,11,0.8,-1.925,M,40.592,M,1.4,0123*6D\r\n
$GPGGA,071925.00,5703.3943117,N,00952.1465034,E,2,11,0.8,-1.928,M,40.592,M,1.4,0123*65\r\n
$GPGGA,071925.05,5703.3942860,N,00952.1463731,E,2,11,0.8,-1.924,M,40.592,M,1.7,0123*63\r\n
$GPGGA,071925.10,5703.3942592,N,00952.1462432,E,2,11,0.8,-1.920,M,40.592,M,1.7,0123*62\r\n
$GPGGA,071925.15,5703.3942314,N,00952.1461124,E,2,11,0.8,-1.918,M,40.592,M,1.7,0123*65\r\n
$GPGGA,071925.20,5703.3942011,N,00952.1459822,E,2,11,0.8,-1.917,M,40.592,M,1.7,0123*6E\r\n
$GPGGA,071925.25,5703.3941699,N,00952.1458526,E,2,11,0.8,-1.909,M,40.592,M,1.9,0123*67\r\n
$GPGGA,071925.30,5703.3941377,N,00952.1457227,E,2,11,0.8,-1.906,M,40.592,M,1.9,0123*60\r\n
$GPGGA,071925.35,5703.3941046,N,00952.1455929,E,2,11,0.8,-1.908,M,40.592,M,1.9,0123*6D\r\n
$GPGGA,071925.40,5703.3940702,N,00952.1454633,E,2,11,0.8,-1.909,M,40.592,M,1.9,0123*6D\r\n
$GPGGA,071925.45,5703.3940350,N,00952.1453327,E,2,11,0.8,-1.909,M,40.592,M,2.2,0123*64\r\n
$GPGGA,071925.50,5703.3939981,N,00952.1452023,E,2,11,0.8,-1.913,M,40.592,M,2.2,0123*65\r\n
$GPGGA,071925.55,5703.3939590,N,00952.1450750,E,2,11,0.8,-1.917,M,40.592,M,2.2,0123*69\r\n
$GPGGA,071925.60,5703.3939192,N,00952.1449474,E,2,11,0.8,-1.923,M,40.592,M,2.2,0123*63\r\n
$GPGGA,071925.65,5703.3938784,N,00952.1448207,E,2,11,0.8,-1.928,M,40.592,M,1.1,0123*6E\r\n
$GPGGA,071925.70,5703.3938365,N,00952.1446960,E,2,11,0.8,-1.932,M,40.592,M,1.1,0123*6E\r\n
