$GPGGA,103640.80,5703.4011405,N,00952.1952618,E,2,10,0.9,-1.852,M,40.592,M,1.0,0123*63\r\n
$GPGGA,103640.85,5703.4011147,N,00952.1952126,E,2,10,0.9,-1.846,M,40.592,M,1.2,0123*68\r\n
$GPGGA,103640.90,5703.4010873,N,00952.1951611,E,2,10,0.9,-1.841,M,40.592,M,1.2,0123*64\r\n
$GPGGA,103640.95,5703.4010594,N,00952.1951096,E,2,10,0.9,-1.840,M,40.592,M,1.2,0123*6D\r\n
$GPGGA,103641.00,5703.4010326,N,00952.1950592,E,2,10,0.9,-1.834,M,40.592,M,1.2,0123*6C\r\n
$GPGGA,103641.05,5703.4010075,N,00952.1950098,E,2,10,0.9,-1.824,M,40.592,M,1.5,0123*65\r\n
$GPGGA,103641.10,5703.4009808,N,00952.1949593,E,2,10,0.9,-1.820,M,40.592,M,1.5,0123*69\r\n
$GPGGA,103641.15,5703.4009538,N,00952.1949075,E,2,10,0.9,-1.816,M,40.592,M,1.5,0123*6A\r\n
$GPGGA,103641.20,5703.4009271,N,00952.1948560,E,2,10,0.9,-1.811,M,40.592,M,1.5,0123*61\r\n
$GPGGA,103641.25,5703.4009000,N,00952.1948058,E,2,10,0.9,-1.803,M,40.592,M,1.7,0123*6F\r\n
$GPGGA,103641.30,5703.4008735,N,00952.1947549,E,2,10,0.9,-1.799,M,40.592,M,1.7,0123*6D\r\n
$GPGGA,103641.35,5703.4008464,N,00952.1947040,E,2,10,0.9,-1.797,M,40.592,M,1.7,0123*6D\r\n
$GPGGA,103641.40,5703.4008205,N,00952.1946524,E,2,10,0.9,-1.795,M,40.592,M,1.7,0123*6A\r\n
$GPGGA,103641.45,5703.4007936,N,00952.1945999,E,2,10,0.9,-1.791,M,40.592,M,2.0,0123*62\r\n
$GPGGA,103641.50,5703.4007672,N,00952.1945480,E,2,10,0.9,-1.791,M,40.592,M,2.0,0123*6C\r\n
$GPGGA,103641.55,5703.4007403,N,00952.1944959,E,2,10,0.9,-1.793,M,40.592,M,2.0,0123*67\r\n
$GPGGA,103641.60,5703.4007135,N,00952.1944447,E,2,10,0.9,-1.795,M,40.592,M,2.0,0123*65\r\n
$GPGGA,103641.65,5703.4006871,N,00952.1943923,E,2,10,0.9,-1.800,M,40.592,M,1.1,0123*61\r\n
$GPGGA,103641.70,5703.4006606,N,00952.1943403,E,2,10,0.9,-1.804,M,40.592,M,1.1,0123*60\r\n
$GPGGA,103641.75,5703.4006343,N,00952.1942880,E,2,10,0.9,-1.808,M,40.592,M,1.1,0123*6B\r\n
$GPGGA,103641.80,5703.4006065,N,00952.1942362,E,2,10,0.9,-1.815,M,40.592,M,1.1,0123*6D\r\n
$GPGGA,103641.85,5703.4005795,N,00952.1941848,E,2,10,0.9,-1.821,M,40.592,M,1.4,0123*61\r\n
$GPGGA,103641.90,5703.4005530,N,00952.1941320,E,2,10,0.9,-1.823,M,40.592,M,1.4,0123*6F\r\n
$GPGGA,103641.95,5703.4005268,N,00952.1940812,E,2,10,0.9,-1.825,M,40.592,M,1.4,0123*6D\r\n
$GPGGA,103642.00,5703.4005007,N,00952.1940312,E,2,10,0.9,-1.830,M,40.592,M,1.4,0123*66\r\n
$GPGGA,103642.05,5703.4004749,N,00952.1939801,E,2,10,0.9,-1.830,M,40.592,M,1.6,0123*6A\r\n
$GPGGA,103642.10,5703.4004478,N,00952.1939280,E,2,10,0.9,-1.832,M,40.592,M,1.6,0123*6E\r\n
$GPGGA,103642.15,5703.4004219,N,00952.1938762,E,2,10,0.9,-1.832,M,40.592,M,1.6,0123*62\r\n
$GPGGA,103642.20,5703.4003960,N,00952.1938249,E,2,10,0.9,-1.831,M,40.592,M,1.6,0123*69\r\n
$GPGGA,103642.25,5703.4003696,N,00952.1937755,E,2,10,0.9,-1.832,M,40.592,M,1.9,0123*61\r\n
$GPGGA,103642.30,5703.4003437,N,00952.1937252,E,2,10,0.9,-1.832,M,40.592,M,1.9,0123*6E\r\n
$GPGGA,103642.35,5703.4003168,N,00952.1936733,E,2,10,0.9,-1.830,M,40.592,M,1.9,0123*65\r\n
$GPGGA,103642.40,5703.4002902,N,00952.1936230,E,2,10,0.9,-1.828,M,40.592,M,1.9,0123*6D\r\n
$GPGGA,103642.45,5703.4002631,N,00952.1935721,E,2,10,0.9,-1.828,M,40.592,M,2.1,0123*6A\r\n
$GPGGA,103642.50,5703.4002369,N,00952.1935213,E,2,10,0.9,-1.828,M,40.592,M,2.1,0123*62\r\n
$GPGGA,103642.55,5703.4002106,N,00952.1934698,E,2,10,0.9,-1.826,M,40.592,M,2.1,0123*64\r\n
$GPGGA,103642.60,5703.4001845,N,00952.1934177,E,2,10,0.9,-1.820,M,40.592,M,2.1,0123*6F\r\n
$GPGGA,103642.65,5703.4001588,N,00952.1933670,E,2,10,0.9,-1.815,M,40.592,M,2.3,0123*65\r\n
$GPGGA,103642.70,5703.4001321,N,00952.1933160,E,2,10,0.9,-1.812,M,40.592,M,2.3,0123*65\r\n
$GPGGA,103642.75,5703.4001055,N,00952.1932653,E,2,10,0.9,-1.810,M,40.592,M,2.3,0123*64\r\n
$GPGGA,103642.80,5703.4000802,N,00952.1932125,E,2,10,0.9,-1.806,M,40.592,M,2.3,0123*64\r\n
$GPGGA,103642.85,5703.4000533,N,00952.1931607,E,2,10,0.9,-1.805,M,40.592,M,2.5,0123*6F\r\n
$GPGGA,103642.90,5703.4000271,N,00952.1931087,E,2,10,0.9,-1.803,M,40.592,M,2.5,0123*62\r\n
$GPGGA,103642.95,5703.4000013,N,00952.1930584,E,2,10,0.9,-1.800,M,40.592,M,2.5,0123*65\r\n
$GPGGA,103643.00,5703.3999757,N,00952.1930072,E,2,10,0.9,-1.797,M,40.592,M,2.5,0123*6C\r\n
$GPGGA,103643.05,5703.3999496,N,00952.1929566,E,2,10,0.9,-1.795,M,40.592,M,2.7,0123*6F\r\n
$GPGGA,103643.10,5703.3999231,N,00952.1929042,E,2,10,0.9,-1.794,M,40.592,M,2.7,0123*62\r\n
$GPGGA,103643.15,5703.3998970,N,00952.1928525,E,2,10,0.9,-1.796,M,40.592,M,2.7,0123*6F\r\n
$GPGGA,103643.20,5703.3998713,N,00952.1928007,E,2,10,0.9,-1.796,M,40.592,M,2.7,0123*67\r\n
$GPGGA,103643.25,5703.3998444,N,00952.1927483,E,2,10,0.9,-1.803,M,40.592,M,2.9,0123*69\r\n
$GPGGA,103643.30,5703.3998177,N,00952.1926959,E,2,10,0.9,-1.807,M,40.592,M,2.9,0123*67\r\n
$GPGGA,103643.35,5703.3997926,N,00952.1926442,E,2,10,0.9,-1.810,M,40.592,M,2.9,0123*60\r\n
$GPGGA,103643.40,5703.3997666,N,00952.1925911,E,2,10,0.9,-1.814,M,40.592,M,2.9,0123*65\r\n
$GPGGA,103643.45,5703.3997409,N,00952.1925399,E,2,10,0.9,-1.813,M,40.592,M,3.1,0123*6F\r\n
$GPGGA,103643.50,5703.3997155,N,00952.1924882,E,2,10,0.9,-1.812,M,40.592,M,3.1,0123*66\r\n
$GPGGA,103643.55,5703.3996891,N,00952.1924364,E,2,10,0.9,-1.813,M,40.592,M,3.1,0123*61\r\n
$GPGGA,103643.60,5703.3996641,N,00952.1923855,E,2,10,0.9,-1.816,M,40.592,M,3.1,0123*6F\r\n
$GPGGA,103643.65,5703.3996383,N,00952.1923338,E,2,10,0.9,-1.812,M,40.592,M,1.7,0123*61\r\n
$GPGGA,103643.70,5703.3996120,N,00952.1922830,E,2,10,0.9,-1.813,M,40.592,M,1.7,0123*6D\r\n
$GPGGA,103643.75,5703.3995866,N,00952.1922319,E,2,10,0.9,-1.813,M,40.592,M,1.7,0123*60\r\n
$GPGGA,103643.80,5703.3995603,N,00952.1921805,E,2,10,0.9,-1.814,M,40.592,M,1.7,0123*65\r\n
$GPGGA,103643.85,5703.3995343,N,00952.1921298,E,2,10,0.9,-1.822,M,40.592,M,2.0,0123*6E\r\n
$GPGGA,103643.90,5703.3995083,N,00952.1920777,E,2,10,0.9,-1.826,M,40.592,M,2.0,0123*64\r\n
$GPGGA,103643.95,5703.3994826,N,00952.1920255,E,2,10,0.9,-1.829,M,40.592,M,2.0,0123*6D\r\n
$GPGGA,103644.00,5703.3994560,N,00952.1919744,E,2,10,0.9,-1.830,M,40.592,M,2.0,0123*6E\r\n
$GPGGA,103644.05,5703.3994310,N,00952.1919214,E,2,10,0.9,-1.827,M,40.592,M,2.4,0123*68\r\n
$GPGGA,103644.10,5703.3994057,N,00952.1918689,E,2,10,0.9,-1.828,M,40.592,M,2.4,0123*62\r\n
$GPGGA,103644.15,5703.3993806,N,00952.1918169,E,2,10,0.9,-1.829,M,40.592,M,2.4,0123*64\r\n
$GPGGA,103644.20,5703.3993549,N,00952.1917654,E,2,10,0.9,-1.827,M,40.592,M,2.4,0123*6C\r\n
$GPGGA,103644.25,5703.3993288,N,00952.1917120,E,2,10,0.9,-1.824,M,40.592,M,2.6,0123*66\r\n
$GPGGA,103644.30,5703.3993037,N,00952.1916606,E,2,10,0.9,-1.821,M,40.592,M,2.6,0123*63\r\n
$GPGGA,103644.35,5703.3992769,N,00952.1916109,E,2,10,0.9,-1.818,M,40.592,M,2.6,0123*69\r\n
$GPGGA,103644.40,5703.3992505,N,00952.1915606,E,2,10,0.9,-1.814,M,40.592,M,2.6,0123*64\r\n
$GPGGA,103644.45,5703.3992232,N,00952.1915112,E,2,10,0.9,-1.813,M,40.592,M,2.9,0123*68\r\n
$GPGGA,103644.50,5703.3991969,N,00952.1914612,E,2,10,0.9,-1.811,M,40.592,M,2.9,0123*6E\r\n
$GPGGA,103644.55,5703.3991716,N,00952.1914100,E,2,10,0.9,-1.809,M,40.592,M,2.9,0123*60\r\n
$GPGGA,103644.60,5703.3991448,N,00952.1913602,E,2,10,0.9,-1.808,M,40.592,M,2.9,0123*6D\r\n
$GPGGA,103644.65,5703.3991182,N,00952.1913094,E,2,10,0.9,-1.803,M,40.592,M,1.0,0123*63\r\n
$GPGGA,103644.70,5703.3990922,N,00952.1912586,E,2,10,0.9,-1.800,M,40.592,M,1.0,0123*60\r\n
$GPGGA,103644.75,5703.3990662,N,00952.1912067,E,2,10,0.9,-1.800,M,40.592,M,1.0,0123*64\r\n
$GPGGA,103644.80,5703.3990398,N,00952.1911566,E,2,10,0.9,-1.801,M,40.592,M,1.0,0123*68\r\n
$GPGGA,103644.85,5703.3990128,N,00952.1911060,E,2,10,0.9,-1.805,M,40.592,M,1.2,0123*61\r\n
$GPGGA,103644.90,5703.3989857,N,00952.1910538,E,2,10,0.9,-1.809,M,40.592,M,1.2,0123*69\r\n
$GPGGA,103644.95,5703.3989590,N,00952.1910025,E,2,10,0.9,-1.810,M,40.592,M,1.2,0123*6B\r\n
$GPGGA,103645.00,5703.3989321,N,00952.1909493,E,2,10,0.9,-1.809,M,40.592,M,1.2,0123*63\r\n
$GPGGA,103645.05,5703.3989057,N,00952.1908980,E,2,10,0.9,-1.809,M,40.592,M,1.5,0123*6D\r\n
$GPGGA,103645.10,5703.3988790,N,00952.1908467,E,2,10,0.9,-1.813,M,40.592,M,1.5,0123*6B\r\n
$GPGGA,103645.15,5703.3988521,N,00952.1907950,E,2,10,0.9,-1.813,M,40.592,M,1.5,0123*60\r\n
$GPGGA,103645.20,5703.3988258,N,00952.1907444,E,2,10,0.9,-1.814,M,40.592,M,1.5,0123*60\r\n
$GPGGA,103645.25,5703.3987998,N,00952.1906929,E,2,10,0.9,-1.812,M,40.592,M,1.7,0123*6E\r\n
$GPGGA,103645.30,5703.3987733,N,00952.1906416,E,2,10,0.9,-1.811,M,40.592,M,1.7,0123*67\r\n
$GPGGA,103645.35,5703.3987475,N,00952.1905899,E,2,10,0.9,-1.808,M,40.592,M,1.7,0123*63\r\n
$GPGGA,103645.40,5703.3987210,N,00952.1905377,E,2,10,0.9,-1.807,M,40.592,M,1.7,0123*60\r\n
$GPGGA,103645.45,5703.3986945,N,00952.1904873,E,2,10,0.9,-1.807,M,40.592,M,2.0,0123*65\r\n
$GPGGA,103645.50,5703.3986684,N,00952.1904351,E,2,10,0.9,-1.806,M,40.592,M,2.0,0123*69\r\n
$GPGGA,103645.55,5703.3986425,N,00952.1903837,E,2,10,0.9,-1.803,M,40.592,M,2.0,0123*6C\r\n
$GPGGA,103645.60,5703.3986166,N,00952.1903320,E,2,10,0.9,-1.803,M,40.592,M,2.0,0123*65\r\n
$GPGGA,103645.65,5703.3985906,N,00952.1902815,E,2,10,0.9,-1.799,M,40.592,M,1.1,0123*6F\r\n
$GPGGA,103645.70,5703.3985636,N,00952.1902313,E,2,10,0.9,-1.801,M,40.592,M,1.1,0123*64\r\n
$GPGGA,103645.75,5703.3985364,N,00952.1901810,E,2,10,0.9,-1.804,M,40.592,M,1.1,0123*6D\r\n
$GPGGA,103645.80,5703.3985110,N,00952.1901311,E,2,10,0.9,-1.805,M,40.592,M,1.1,0123*6D\r\n
$GPGGA,103645.85,5703.3984848,N,00952.1900806,E,2,10,0.9,-1.808,M,40.592,M,1.4,0123*69\r\n
$GPGGA,103645.90,5703.3984575,N,00952.1900314,E,2,10,0.9,-1.810,M,40.592,M,1.4,0123*6F\r\n
$GPGGA,103645.95,5703.3984300,N,00952.1899798,E,2,10,0.9,-1.813,M,40.592,M,1.4,0123*6C\r\n
$GPGGA,103646.00,5703.3984029,N,00952.1899314,E,2,10,0.9,-1.815,M,40.592,M,1.4,0123*6D\r\n
$GPGGA,103646.05,5703.3983771,N,00952.1898852,E,2,10,0.9,-1.812,M,40.592,M,1.6,0123*68\r\n
$GPGGA,103646.10,5703.3983497,N,00952.1898352,E,2,10,0.9,-1.813,M,40.592,M,1.6,0123*6D\r\n
$GPGGA,103646.15,5703.3983229,N,00952.1897864,E,2,10,0.9,-1.815,M,40.592,M,1.6,0123*6C\r\n
$GPGGA,103646.20,5703.3982966,N,00952.1897366,E,2,10,0.9,-1.815,M,40.592,M,1.6,0123*62\r\n
$GPGGA,103646.25,5703.3982704,N,00952.1896873,E,2,10,0.9,-1.815,M,40.592,M,1.9,0123*6C\r\n
$GPGGA,103646.30,5703.3982437,N,00952.1896382,E,2,10,0.9,-1.815,M,40.592,M,1.9,0123*6E\r\n
$GPGGA,103646.35,5703.3982166,N,00952.1895887,E,2,10,0.9,-1.812,M,40.592,M,1.9,0123*60\r\n
$GPGGA,103646.40,5703.3981903,N,00952.1895395,E,2,10,0.9,-1.810,M,40.592,M,1.9,0123*60\r\n
$GPGGA,103646.45,5703.3981636,N,00952.1894893,E,2,10,0.9,-1.810,M,40.592,M,2.1,0123*6B\r\n
$GPGGA,103646.50,5703.3981380,N,00952.1894399,E,2,10,0.9,-1.811,M,40.592,M,2.1,0123*67\r\n
$GPGGA,103646.55,5703.3981107,N,00952.1893894,E,2,10,0.9,-1.813,M,40.592,M,2.1,0123*6C\r\n
$GPGGA,103646.60,5703.3980827,N,00952.1893401,E,2,10,0.9,-1.818,M,40.592,M,2.1,0123*6B\r\n
$GPGGA,103646.65,5703.3980551,N,00952.1892894,E,2,10,0.9,-1.816,M,40.592,M,2.3,0123*6F\r\n
$GPGGA,103646.70,5703.3980286,N,00952.1892384,E,2,10,0.9,-1.816,M,40.592,M,2.3,0123*6C\r\n
$GPGGA,103646.75,5703.3980026,N,00952.1891895,E,2,10,0.9,-1.816,M,40.592,M,2.3,0123*69\r\n
$GPGGA,103646.80,5703.3979760,N,00952.1891397,E,2,10,0.9,-1.818,M,40.592,M,2.3,0123*67\r\n
$GPGGA,103646.85,5703.3979486,N,00952.1890911,E,2,10,0.9,-1.819,M,40.592,M,2.5,0123*6B\r\n
$GPGGA,103646.90,5703.3979208,N,00952.1890411,E,2,10,0.9,-1.818,M,40.592,M,2.5,0123*63\r\n
$GPGGA,103646.95,5703.3978931,N,00952.1889907,E,2,10,0.9,-1.815,M,40.592,M,2.5,0123*69\r\n
$GPGGA,103647.00,5703.3978658,N,00952.1889409,E,2,10,0.9,-1.811,M,40.592,M,2.5,0123*63\r\n
$GPGGA,103647.05,5703.3978380,N,00952.1888923,E,2,10,0.9,-1.806,M,40.592,M,2.7,0123*66\r\n
$GPGGA,103647.10,5703.3978088,N,00952.1888439,E,2,10,0.9,-1.804,M,40.592,M,2.7,0123*6D\r\n
$GPGGA,103647.15,5703.3977799,N,00952.1887960,E,2,10,0.9,-1.801,M,40.592,M,2.7,0123*6B\r\n
$GPGGA,103647.20,5703.3977511,N,00952.1887457,E,2,10,0.9,-1.796,M,40.592,M,2.7,0123*67\r\n
$GPGGA,103647.25,5703.3977217,N,00952.1886944,E,2,10,0.9,-1.790,M,40.592,M,2.9,0123*65\r\n
$GPGGA,103647.30,5703.3976916,N,00952.1886423,E,2,10,0.9,-1.785,M,40.592,M,2.9,0123*62\r\n
$GPGGA,103647.35,5703.3976598,N,00952.1885892,E,2,10,0.9,-1.783,M,40.592,M,2.9,0123*6E\r\n
$GPGGA,103647.40,5703.3976283,N,00952.1885373,E,2,10,0.9,-1.778,M,40.592,M,2.9,0123*61\r\n
$GPGGA,103647.45,5703.3975965,N,00952.1884846,E,2,10,0.9,-1.773,M,40.592,M,3.1,0123*6A\r\n
$GPGGA,103647.50,5703.3975634,N,00952.1884323,E,2,10,0.9,-1.770,M,40.592,M,3.1,0123*6E\r\n
$GPGGA,103647.55,5703.3975288,N,00952.1883785,E,2,10,0.9,-1.768,M,40.592,M,3.1,0123*6E\r\n
$GPGGA,103647.60,5703.3974945,N,00952.1883240,E,2,10,0.9,-1.764,M,40.592,M,3.1,0123*63\r\n
$GPGGA,103647.65,5703.3974595,N,00952.1882689,E,2,10,0.9,-1.761,M,40.592,M,1.7,0123*66\r\n
$GPGGA,103647.70,5703.3974233,N,00952.1882138,E,2,10,0.9,-1.760,M,40.592,M,1.7,0123*65\r\n
$GPGGA,103647.75,5703.3973870,N,00952.1881577,E,2,10,0.9,-1.759,M,40.592,M,1.7,0123*6C\r\n
$GPGGA,103647.80,5703.3973502,N,00952.1881019,E,2,10,0.9,-1.756,M,40.592,M,1.7,0123*6C\r\n
$GPGGA,103647.85,5703.3973130,N,00952.1880451,E,2,10,0.9,-1.755,M,40.592,M,2.0,0123*62\r\n
$GPGGA,103647.90,5703.3972736,N,00952.1879885,E,2,10,0.9,-1.752,M,40.592,M,2.0,0123*63\r\n
$GPGGA,103647.95,5703.3972348,N,00952.1879316,E,2,10,0.9,-1.749,M,40.592,M,2.0,0123*60\r\n
$GPGGA,103648.00,5703.3971957,N,00952.1878748,E,2,10,0.9,-1.747,M,40.592,M,2.0,0123*64\r\n
$GPGGA,103648.05,5703.3971549,N,00952.1878167,E,2,10,0.9,-1.746,M,40.592,M,2.4,0123*6C\r\n
$GPGGA,103648.10,5703.3971135,N,00952.1877594,E,2,10,0.9,-1.743,M,40.592,M,2.4,0123*65\r\n
$GPGGA,103648.15,5703.3970719,N,00952.1877012,E,2,10,0.9,-1.742,M,40.592,M,2.4,0123*63\r\n
$GPGGA,103648.20,5703.3970300,N,00952.1876423,E,2,10,0.9,-1.738,M,40.592,M,2.4,0123*63\r\n
$GPGGA,103648.25,5703.3969868,N,00952.1875836,E,2,10,0.9,-1.731,M,40.592,M,2.6,0123*6B\r\n
$GPGGA,103648.30,5703.3969439,N,00952.1875252,E,2,10,0.9,-1.731,M,40.592,M,2.6,0123*6F\r\n
$GPGGA,103648.35,5703.3969000,N,00952.1874676,E,2,10,0.9,-1.731,M,40.592,M,2.6,0123*67\r\n
$GPGGA,103648.40,5703.3968556,N,00952.1874090,E,2,10,0.9,-1.728,M,40.592,M,2.6,0123*64\r\n
$GPGGA,103648.45,5703.3968112,N,00952.1873521,E,2,10,0.9,-1.728,M,40.592,M,2.9,0123*62\r\n
$GPGGA,103648.50,5703.3967654,N,00952.1872961,E,2,10,0.9,-1.727,M,40.592,M,2.9,0123*6A\r\n
$GPGGA,103648.55,5703.3967196,N,00952.1872378,E,2,10,0.9,-1.727,M,40.592,M,2.9,0123*64\r\n
$GPGGA,103648.60,5703.3966727,N,00952.1871788,E,2,10,0.9,-1.726,M,40.592,M,2.9,0123*66\r\n
$GPGGA,103648.65,5703.3966256,N,00952.1871194,E,2,10,0.9,-1.720,M,40.592,M,1.0,0123*67\r\n
$GPGGA,103648.70,5703.3965770,N,00952.1870610,E,2,10,0.9,-1.721,M,40.592,M,1.0,0123*6A\r\n
$GPGGA,103648.75,5703.3965284,N,00952.1870039,E,2,10,0.9,-1.721,M,40.592,M,1.0,0123*6C\r\n
$GPGGA,103648.80,5703.3964787,N,00952.1869444,E,2,10,0.9,-1.724,M,40.592,M,1.0,0123*62\r\n
$GPGGA,103648.85,5703.3964295,N,00952.1868848,E,2,10,0.9,-1.725,M,40.592,M,1.2,0123*63\r\n
$GPGGA,103648.90,5703.3963797,N,00952.1868252,E,2,10,0.9,-1.730,M,40.592,M,1.2,0123*62\r\n
$GPGGA,103648.95,5703.3963288,N,00952.1867672,E,2,10,0.9,-1.735,M,40.592,M,1.2,0123*60\r\n
$GPGGA,103649.00,5703.3962784,N,00952.1867087,E,2,10,0.9,-1.737,M,40.592,M,1.2,0123*6B\r\n
$GPGGA,103649.05,5703.3962268,N,00952.1866508,E,2,10,0.9,-1.746,M,40.592,M,1.5,0123*6B\r\n
$GPGGA,103649.10,5703.3961749,N,00952.1865943,E,2,10,0.9,-1.748,M,40.592,M,1.5,0123*64\r\n
$GPGGA,103649.15,5703.3961227,N,00952.1865383,E,2,10,0.9,-1.752,M,40.592,M,1.5,0123*61\r\n
$GPGGA,103649.20,5703.3960707,N,00952.1864826,E,2,10,0.9,-1.752,M,40.592,M,1.5,0123*64\r\n
$GPGGA,103649.25,5703.3960181,N,00952.1864274,E,2,10,0.9,-1.748,M,40.592,M,1.7,0123*6D\r\n
$GPGGA,103649.30,5703.3959651,N,00952.1863730,E,2,10,0.9,-1.745,M,40.592,M,1.7,0123*66\r\n
$GPGGA,103649.35,5703.3959125,N,00952.1863176,E,2,10,0.9,-1.749,M,40.592,M,1.7,0123*6F\r\n
$GPGGA,103649.40,5703.3958582,N,00952.1862642,E,2,10,0.9,-1.747,M,40.592,M,1.7,0123*6A\r\n
$GPGGA,103649.45,5703.3958033,N,00952.1862130,E,2,10,0.9,-1.738,M,40.592,M,2.0,0123*6E\r\n
$GPGGA,103649.50,5703.3957482,N,00952.1861627,E,2,10,0.9,-1.736,M,40.592,M,2.0,0123*67\r\n
$GPGGA,103649.55,5703.3956933,N,00952.1861117,E,2,10,0.9,-1.733,M,40.592,M,2.0,0123*65\r\n
$GPGGA,103649.60,5703.3956389,N,00952.1860598,E,2,10,0.9,-1.730,M,40.592,M,2.0,0123*69\r\n
$GPGGA,103649.65,5703.3955835,N,00952.1860089,E,2,10,0.9,-1.730,M,40.592,M,1.1,0123*64\r\n
$GPGGA,103649.70,5703.3955271,N,00952.1859596,E,2,10,0.9,-1.730,M,40.592,M,1.1,0123*6B\r\n
$GPGGA,103649.75,5703.3954717,N,00952.1859104,E,2,10,0.9,-1.730,M,40.592,M,1.1,0123*65\r\n
$GPGGA,103649.80,5703.3954156,N,00952.1858622,E,2,10,0.9,-1.727,M,40.592,M,1.1,0123*68\r\n
$GPGGA,103649.85,5703.3953579,N,00952.1858126,E,2,10,0.9,-1.725,M,40.592,M,1.4,0123*67\r\n
$GPGGA,103649.90,5703.3953001,N,00952.1857660,E,2,10,0.9,-1.730,M,40.592,M,1.4,0123*67\r\n
$GPGGA,103649.95,5703.3952429,N,00952.1857195,E,2,10,0.9,-1.734,M,40.592,M,1.4,0123*64\r\n
$GPGGA,103650.00,5703.3951842,N,00952.1856741,E,2,10,0.9,-1.738,M,40.592,M,1.4,0123*60\r\n
$GPGGA,103650.05,5703.3951241,N,00952.1856289,E,2,10,0.9,-1.745,M,40.592,M,1.6,0123*65\r\n
$GPGGA,103650.10,5703.3950655,N,00952.1855833,E,2,10,0.9,-1.747,M,40.592,M,1.6,0123*6B\r\n
$GPGGA,103650.15,5703.3950075,N,00952.1855397,E,2,10,0.9,-1.753,M,40.592,M,1.6,0123*6A\r\n
$GPGGA,103650.20,5703.3949487,N,00952.1854984,E,2,10,0.9,-1.755,M,40.592,M,1.6,0123*62\r\n
$GPGGA,103650.25,5703.3948900,N,00952.1854571,E,2,10,0.9,-1.757,M,40.592,M,1.9,0123*6F\r\n
$GPGGA,103650.30,5703.3948308,N,00952.1854168,E,2,10,0.9,-1.761,M,40.592,M,1.9,0123*60\r\n
$GPGGA,103650.35,5703.3947715,N,00952.1853756,E,2,10,0.9,-1.762,M,40.592,M,1.9,0123*6D\r\n
$GPGGA,103650.40,5703.3947126,N,00952.1853364,E,2,10,0.9,-1.762,M,40.592,M,1.9,0123*6C\r\n
$GPGGA,103650.45,5703.3946530,N,00952.1852994,E,2,10,0.9,-1.761,M,40.592,M,2.1,0123*67\r\n
$GPGGA,103650.50,5703.3945941,N,00952.1852620,E,2,10,0.9,-1.760,M,40.592,M,2.1,0123*6B\r\n
$GPGGA,103650.55,5703.3945338,N,00952.1852266,E,2,10,0.9,-1.762,M,40.592,M,2.1,0123*6E\r\n
$GPGGA,103650.60,5703.3944736,N,00952.1851930,E,2,10,0.9,-1.764,M,40.592,M,2.1,0123*6E\r\n
$GPGGA,103650.65,5703.3944131,N,00952.1851588,E,2,10,0.9,-1.767,M,40.592,M,2.3,0123*64\r\n
$GPGGA,103650.70,5703.3943538,N,00952.1851244,E,2,10,0.9,-1.764,M,40.592,M,2.3,0123*6E\r\n
$GPGGA,103650.75,5703.3942936,N,00952.1850914,E,2,10,0.9,-1.764,M,40.592,M,2.3,0123*67\r\n
$GPGGA,103650.80,5703.3942318,N,00952.1850591,E,2,10,0.9,-1.765,M,40.592,M,2.3,0123*6B\r\n
$GPGGA,103650.85,5703.3941712,N,00952.1850297,E,2,10,0.9,-1.757,M,40.592,M,2.5,0123*65\r\n
$GPGGA,103650.90,5703.3941100,N,00952.1850018,E,2,10,0.9,-1.758,M,40.592,M,2.5,0123*6E\r\n
$GPGGA,103650.95,5703.3940493,N,00952.1849730,E,2,10,0.9,-1.754,M,40.592,M,2.5,0123*6C\r\n
$GPGGA,103651.00,5703.3939879,N,00952.1849447,E,2,10,0.9,-1.750,M,40.592,M,2.5,0123*60\r\n
$GPGGA,103651.05,5703.3939262,N,00952.1849172,E,2,10,0.9,-1.748,M,40.592,M,2.7,0123*6D\r\n
$GPGGA,103651.10,5703.3938639,N,00952.1848909,E,2,10,0.9,-1.747,M,40.592,M,2.7,0123*68\r\n
$GPGGA,103651.15,5703.3938016,N,00952.1848642,E,2,10,0.9,-1.747,M,40.592,M,2.7,0123*66\r\n
$GPGGA,103651.20,5703.3937397,N,00952.1848375,E,2,10,0.9,-1.745,M,40.592,M,2.7,0123*66\r\n
$GPGGA,103651.25,5703.3936779,N,00952.1848123,E,2,10,0.9,-1.742,M,40.592,M,2.9,0123*6E\r\n
$GPGGA,103651.30,5703.3936150,N,00952.1847882,E,2,10,0.9,-1.746,M,40.592,M,2.9,0123*6E\r\n
$GPGGA,103651.35,5703.3935527,N,00952.1847639,E,2,10,0.9,-1.747,M,40.592,M,2.9,0123*63\r\n
$GPGGA,103651.40,5703.3934894,N,00952.1847413,E,2,10,0.9,-1.748,M,40.592,M,2.9,0123*60\r\n
$GPGGA,103651.45,5703.3934270,N,00952.1847205,E,2,10,0.9,-1.751,M,40.592,M,3.1,0123*65\r\n
$GPGGA,103651.50,5703.3933632,N,00952.1847001,E,2,10,0.9,-1.754,M,40.592,M,3.1,0123*67\r\n
$GPGGA,103651.55,5703.3932997,N,00952.1846809,E,2,10,0.9,-1.756,M,40.592,M,3.1,0123*60\r\n
$GPGGA,103651.60,5703.3932358,N,00952.1846640,E,2,10,0.9,-1.758,M,40.592,M,3.1,0123*62\r\n
$GPGGA,103651.65,5703.3931721,N,00952.1846464,E,2,10,0.9,-1.759,M,40.592,M,1.7,0123*6F\r\n
$GPGGA,103651.70,5703.3931091,N,00952.1846313,E,2,10,0.9,-1.760,M,40.592,M,1.7,0123*6A\r\n
$GPGGA,103651.75,5703.3930460,N,00952.1846164,E,2,10,0.9,-1.763,M,40.592,M,1.7,0123*65\r\n
$GPGGA,103651.80,5703.3929823,N,00952.1846026,E,2,10,0.9,-1.763,M,40.592,M,1.7,0123*6B\r\n
$GPGGA,103651.85,5703.3929189,N,00952.1845894,E,2,10,0.9,-1.762,M,40.592,M,2.0,0123*60\r\n
$GPGGA,103651.90,5703.3928557,N,00952.1845765,E,2,10,0.9,-1.761,M,40.592,M,2.0,0123*60\r\n
$GPGGA,103651.95,5703.3927927,N,00952.1845661,E,2,10,0.9,-1.759,M,40.592,M,2.0,0123*6F\r\n
$GPGGA,103652.00,5703.3927293,N,00952.1845558,E,2,10,0.9,-1.758,M,40.592,M,2.0,0123*6C\r\n
$GPGGA,103652.05,5703.3926657,N,00952.1845448,E,2,10,0.9,-1.760,M,40.592,M,2.4,0123*6B\r\n
$GPGGA,103652.10,5703.3926019,N,00952.1845359,E,2,10,0.9,-1.759,M,40.592,M,2.4,0123*6E\r\n
$GPGGA,103652.15,5703.3925389,N,00952.1845285,E,2,10,0.9,-1.757,M,40.592,M,2.4,0123*6C\r\n
$GPGGA,103652.20,5703.3924762,N,00952.1845217,E,2,10,0.9,-1.756,M,40.592,M,2.4,0123*60\r\n
$GPGGA,103652.25,5703.3924122,N,00952.1845171,E,2,10,0.9,-1.752,M,40.592,M,2.6,0123*62\r\n
$GPGGA,103652.30,5703.3923492,N,00952.1845121,E,2,10,0.9,-1.749,M,40.592,M,2.6,0123*60\r\n
$GPGGA,103652.35,5703.3922862,N,00952.1845081,E,2,10,0.9,-1.743,M,40.592,M,2.6,0123*66\r\n
$GPGGA,103652.40,5703.3922231,N,00952.1845053,E,2,10,0.9,-1.737,M,40.592,M,2.6,0123*64\r\n
$GPGGA,103652.45,5703.3921601,N,00952.1845030,E,2,10,0.9,-1.733,M,40.592,M,2.9,0123*6B\r\n
$GPGGA,103652.50,5703.3920956,N,00952.1845030,E,2,10,0.9,-1.732,M,40.592,M,2.9,0123*62\r\n
$GPGGA,103652.55,5703.3920318,N,00952.1845028,E,2,10,0.9,-1.730,M,40.592,M,2.9,0123*6C\r\n
$GPGGA,103652.60,5703.3919697,N,00952.1845020,E,2,10,0.9,-1.725,M,40.592,M,2.9,0123*6E\r\n
$GPGGA,103652.65,5703.3919062,N,00952.1845020,E,2,10,0.9,-1.729,M,40.592,M,1.0,0123*61\r\n
$GPGGA,103652.70,5703.3918417,N,00952.1845045,E,2,10,0.9,-1.731,M,40.592,M,1.0,0123*68\r\n
$GPGGA,103652.75,5703.3917773,N,00952.1845094,E,2,10,0.9,-1.731,M,40.592,M,1.0,0123*6F\r\n
$GPGGA,103652.80,5703.3917127,N,00952.1845145,E,2,10,0.9,-1.734,M,40.592,M,1.0,0123*6A\r\n
$GPGGA,103652.85,5703.3916511,N,00952.1845219,E,2,10,0.9,-1.734,M,40.592,M,1.2,0123*67\r\n
$GPGGA,103652.90,5703.3915876,N,00952.1845298,E,2,10,0.9,-1.738,M,40.592,M,1.2,0123*69\r\n
$GPGGA,103652.95,5703.3915239,N,00952.1845370,E,2,10,0.9,-1.742,M,40.592,M,1.2,0123*67\r\n
$GPGGA,103653.00,5703.3914609,N,00952.1845452,E,2,10,0.9,-1.746,M,40.592,M,1.2,0123*6F\r\n
$GPGGA,103653.05,5703.3913975,N,00952.1845562,E,2,10,0.9,-1.748,M,40.592,M,1.5,0123*62\r\n
$GPGGA,103653.10,5703.3913348,N,00952.1845662,E,2,10,0.9,-1.747,M,40.592,M,1.5,0123*6E\r\n
$GPGGA,103653.15,5703.3912709,N,00952.1845758,E,2,10,0.9,-1.751,M,40.592,M,1.5,0123*64\r\n
$GPGGA,103653.20,5703.3912080,N,00952.1845863,E,2,10,0.9,-1.753,M,40.592,M,1.5,0123*61\r\n
$GPGGA,103653.25,5703.3911451,N,00952.1846001,E,2,10,0.9,-1.750,M,40.592,M,1.7,0123*61\r\n
$GPGGA,103653.30,5703.3910822,N,00952.1846137,E,2,10,0.9,-1.749,M,40.592,M,1.7,0123*60\r\n
$GPGGA,103653.35,5703.3910201,N,00952.1846301,E,2,10,0.9,-1.750,M,40.592,M,1.7,0123*61\r\n
$GPGGA,103653.40,5703.3909586,N,00952.1846466,E,2,10,0.9,-1.749,M,40.592,M,1.7,0123*6D\r\n
$GPGGA,103653.45,5703.3908972,N,00952.1846630,E,2,10,0.9,-1.747,M,40.592,M,2.0,0123*65\r\n
$GPGGA,103653.50,5703.3908355,N,00952.1846818,E,2,10,0.9,-1.743,M,40.592,M,2.0,0123*6E\r\n
$GPGGA,103653.55,5703.3907747,N,00952.1847025,E,2,10,0.9,-1.741,M,40.592,M,2.0,0123*66\r\n
$GPGGA,103653.60,5703.3907129,N,00952.1847222,E,2,10,0.9,-1.739,M,40.592,M,2.0,0123*64\r\n
$GPGGA,103653.65,5703.3906512,N,00952.1847442,E,2,10,0.9,-1.741,M,40.592,M,1.1,0123*61\r\n
$GPGGA,103653.70,5703.3905903,N,00952.1847666,E,2,10,0.9,-1.740,M,40.592,M,1.1,0123*6F\r\n
$GPGGA,103653.75,5703.3905284,N,00952.1847899,E,2,10,0.9,-1.740,M,40.592,M,1.1,0123*60\r\n
$GPGGA,103653.80,5703.3904657,N,00952.1848144,E,2,10,0.9,-1.741,M,40.592,M,1.1,0123*66\r\n
$GPGGA,103653.85,5703.3904030,N,00952.1848379,E,2,10,0.9,-1.745,M,40.592,M,1.4,0123*69\r\n
$GPGGA,103653.90,5703.3903408,N,00952.1848625,E,2,10,0.9,-1.748,M,40.592,M,1.4,0123*64\r\n
$GPGGA,103653.95,5703.3902796,N,00952.1848871,E,2,10,0.9,-1.749,M,40.592,M,1.4,0123*6A\r\n
$GPGGA,103654.00,5703.3902182,N,00952.1849162,E,2,10,0.9,-1.750,M,40.592,M,1.4,0123*60\r\n
$GPGGA,103654.05,5703.3901554,N,00952.1849438,E,2,10,0.9,-1.754,M,40.592,M,1.6,0123*65\r\n
$GPGGA,103654.10,5703.3900945,N,00952.1849733,E,2,10,0.9,-1.755,M,40.592,M,1.6,0123*65\r\n
$GPGGA,103654.15,5703.3900325,N,00952.1850039,E,2,10,0.9,-1.757,M,40.592,M,1.6,0123*6B\r\n
$GPGGA,103654.20,5703.3899703,N,00952.1850332,E,2,10,0.9,-1.758,M,40.592,M,1.6,0123*6B\r\n
$GPGGA,103654.25,5703.3899087,N,00952.1850659,E,2,10,0.9,-1.758,M,40.592,M,1.9,0123*62\r\n
$GPGGA,103654.30,5703.3898476,N,00952.1850996,E,2,10,0.9,-1.759,M,40.592,M,1.9,0123*60\r\n
$GPGGA,103654.35,5703.3897867,N,00952.1851337,E,2,10,0.9,-1.758,M,40.592,M,1.9,0123*67\r\n
$GPGGA,103654.40,5703.3897262,N,00952.1851686,E,2,10,0.9,-1.756,M,40.592,M,1.9,0123*6B\r\n
$GPGGA,103654.45,5703.3896645,N,00952.1852035,E,2,10,0.9,-1.756,M,40.592,M,2.1,0123*68\r\n
$GPGGA,103654.50,5703.3896038,N,00952.1852407,E,2,10,0.9,-1.758,M,40.592,M,2.1,0123*6B\r\n
$GPGGA,103654.55,5703.3895433,N,00952.1852785,E,2,10,0.9,-1.758,M,40.592,M,2.1,0123*6B\r\n
$GPGGA,103654.60,5703.3894821,N,00952.1853146,E,2,10,0.9,-1.758,M,40.592,M,2.1,0123*6B\r\n
$GPGGA,103654.65,5703.3894220,N,00952.1853518,E,2,10,0.9,-1.759,M,40.592,M,2.3,0123*69\r\n
$GPGGA,103654.70,5703.3893595,N,00952.1853898,E,2,10,0.9,-1.759,M,40.592,M,2.3,0123*66\r\n
$GPGGA,103654.75,5703.3892990,N,00952.1854280,E,2,10,0.9,-1.758,M,40.592,M,2.3,0123*6E\r\n
$GPGGA,103654.80,5703.3892380,N,00952.1854673,E,2,10,0.9,-1.756,M,40.592,M,2.3,0123*69\r\n
$GPGGA,103654.85,5703.3891788,N,00952.1855077,E,2,10,0.9,-1.749,M,40.592,M,2.5,0123*68\r\n
$GPGGA,103654.90,5703.3891189,N,00952.1855487,E,2,10,0.9,-1.744,M,40.592,M,2.5,0123*6D\r\n
$GPGGA,103654.95,5703.3890586,N,00952.1855915,E,2,10,0.9,-1.741,M,40.592,M,2.5,0123*61\r\n
$GPGGA,103655.00,5703.3889983,N,00952.1856333,E,2,10,0.9,-1.736,M,40.592,M,2.5,0123*60\r\n
$GPGGA,103655.05,5703.3889377,N,00952.1856708,E,2,10,0.9,-1.734,M,40.592,M,2.7,0123*68\r\n
$GPGGA,103655.10,5703.3888763,N,00952.1857131,E,2,10,0.9,-1.732,M,40.592,M,2.7,0123*67\r\n
$GPGGA,103655.15,5703.3888166,N,00952.1857542,E,2,10,0.9,-1.729,M,40.592,M,2.7,0123*6B\r\n
$GPGGA,103655.20,5703.3887559,N,00952.1857964,E,2,10,0.9,-1.726,M,40.592,M,2.7,0123*6D\r\n
$GPGGA,103655.25,5703.3886949,N,00952.1858390,E,2,10,0.9,-1.725,M,40.592,M,2.9,0123*67\r\n
$GPGGA,103655.30,5703.3886344,N,00952.1858826,E,2,10,0.9,-1.726,M,40.592,M,2.9,0123*61\r\n
$GPGGA,103655.35,5703.3885745,N,00952.1859283,E,2,10,0.9,-1.725,M,40.592,M,2.9,0123*65\r\n
$GPGGA,103655.40,5703.3885158,N,00952.1859726,E,2,10,0.9,-1.722,M,40.592,M,2.9,0123*60\r\n
$GPGGA,103655.45,5703.3884556,N,00952.1860193,E,2,10,0.9,-1.722,M,40.592,M,3.1,0123*65\r\n
$GPGGA,103655.50,5703.3883956,N,00952.1860652,E,2,10,0.9,-1.723,M,40.592,M,3.1,0123*61\r\n
$GPGGA,103655.55,5703.3883365,N,00952.1861120,E,2,10,0.9,-1.722,M,40.592,M,3.1,0123*6C\r\n
$GPGGA,103655.60,5703.3882772,N,00952.1861590,E,2,10,0.9,-1.723,M,40.592,M,3.1,0123*67\r\n
$GPGGA,103655.65,5703.3882181,N,00952.1862057,E,2,10,0.9,-1.729,M,40.592,M,1.7,0123*6B\r\n
$GPGGA,103655.70,5703.3881588,N,00952.1862548,E,2,10,0.9,-1.731,M,40.592,M,1.7,0123*63\r\n
$GPGGA,103655.75,5703.3881007,N,00952.1863053,E,2,10,0.9,-1.733,M,40.592,M,1.7,0123*68\r\n
$GPGGA,103655.80,5703.3880424,N,00952.1863539,E,2,10,0.9,-1.733,M,40.592,M,1.7,0123*6F\r\n
$GPGGA,103655.85,5703.3879833,N,00952.1864018,E,2,10,0.9,-1.734,M,40.592,M,2.0,0123*64\r\n
$GPGGA,103655.90,5703.3879239,N,00952.1864499,E,2,10,0.9,-1.735,M,40.592,M,2.0,0123*6C\r\n
$GPGGA,103655.95,5703.3878656,N,00952.1864997,E,2,10,0.9,-1.734,M,40.592,M,2.0,0123*67\r\n
$GPGGA,103656.00,5703.3878073,N,00952.1865512,E,2,10,0.9,-1.734,M,40.592,M,2.0,0123*69\r\n
$GPGGA,103656.05,5703.3877497,N,00952.1866008,E,2,10,0.9,-1.733,M,40.592,M,2.4,0123*63\r\n
$GPGGA,103656.10,5703.3876909,N,00952.1866527,E,2,10,0.9,-1.734,M,40.592,M,2.4,0123*63\r\n
$GPGGA,103656.15,5703.3876329,N,00952.1867058,E,2,10,0.9,-1.736,M,40.592,M,2.4,0123*60\r\n
$GPGGA,103656.20,5703.3875764,N,00952.1867573,E,2,10,0.9,-1.735,M,40.592,M,2.4,0123*67\r\n
$GPGGA,103656.25,5703.3875184,N,00952.1868086,E,2,10,0.9,-1.731,M,40.592,M,2.6,0123*6C\r\n
$GPGGA,103656.30,5703.3874614,N,00952.1868617,E,2,10,0.9,-1.733,M,40.592,M,2.6,0123*6B\r\n
$GPGGA,103656.35,5703.3874033,N,00952.1869147,E,2,10,0.9,-1.734,M,40.592,M,2.6,0123*69\r\n
$GPGGA,103656.40,5703.3873458,N,00952.1869691,E,2,10,0.9,-1.737,M,40.592,M,2.6,0123*6A\r\n
$GPGGA,103656.45,5703.3872895,N,00952.1870237,E,2,10,0.9,-1.733,M,40.592,M,2.9,0123*68\r\n
$GPGGA,103656.50,5703.3872336,N,00952.1870792,E,2,10,0.9,-1.733,M,40.592,M,2.9,0123*64\r\n
$GPGGA,103656.55,5703.3871750,N,00952.1871327,E,2,10,0.9,-1.734,M,40.592,M,2.9,0123*6A\r\n
$GPGGA,103656.60,5703.3871162,N,00952.1871866,E,2,10,0.9,-1.737,M,40.592,M,2.9,0123*66\r\n
$GPGGA,103656.65,5703.3870609,N,00952.1872431,E,2,10,0.9,-1.730,M,40.592,M,1.0,0123*68\r\n
$GPGGA,103656.70,5703.3870052,N,00952.1873013,E,2,10,0.9,-1.732,M,40.592,M,1.0,0123*63\r\n
$GPGGA,103656.75,5703.3869469,N,00952.1873587,E,2,10,0.9,-1.733,M,40.592,M,1.0,0123*6B\r\n
$GPGGA,103656.80,5703.3868908,N,00952.1874171,E,2,10,0.9,-1.734,M,40.592,M,1.0,0123*67\r\n
$GPGGA,103656.85,5703.3868362,N,00952.1874757,E,2,10,0.9,-1.731,M,40.592,M,1.2,0123*61\r\n
$GPGGA,103656.90,5703.3867799,N,00952.1875334,E,2,10,0.9,-1.731,M,40.592,M,1.2,0123*6A\r\n
$GPGGA,103656.95,5703.3867230,N,00952.1875909,E,2,10,0.9,-1.735,M,40.592,M,1.2,0123*69\r\n
$GPGGA,103657.00,5703.3866657,N,00952.1876510,E,2,10,0.9,-1.735,M,40.592,M,1.2,0123*67\r\n
$GPGGA,103657.05,5703.3866107,N,00952.1877118,E,2,10,0.9,-1.732,M,40.592,M,1.5,0123*6D\r\n
$GPGGA,103657.10,5703.3865548,N,00952.1877716,E,2,10,0.9,-1.735,M,40.592,M,1.5,0123*6A\r\n
$GPGGA,103657.15,5703.3864986,N,00952.1878331,E,2,10,0.9,-1.738,M,40.592,M,1.5,0123*63\r\n
$GPGGA,103657.20,5703.3864429,N,00952.1878964,E,2,10,0.9,-1.740,M,40.592,M,1.5,0123*68\r\n
$GPGGA,103657.25,5703.3863885,N,00952.1879599,E,2,10,0.9,-1.743,M,40.592,M,1.7,0123*6E\r\n
$GPGGA,103657.30,5703.3863326,N,00952.1880207,E,2,10,0.9,-1.746,M,40.592,M,1.7,0123*6B\r\n
$GPGGA,103657.35,5703.3862754,N,00952.1880812,E,2,10,0.9,-1.747,M,40.592,M,1.7,0123*61\r\n
$GPGGA,103657.40,5703.3862195,N,00952.1881429,E,2,10,0.9,-1.751,M,40.592,M,1.7,0123*6A\r\n
$GPGGA,103657.45,5703.3861655,N,00952.1882071,E,2,10,0.9,-1.746,M,40.592,M,2.0,0123*6F\r\n
$GPGGA,103657.50,5703.3861091,N,00952.1882709,E,2,10,0.9,-1.749,M,40.592,M,2.0,0123*62\r\n
$GPGGA,103657.55,5703.3860533,N,00952.1883338,E,2,10,0.9,-1.748,M,40.592,M,2.0,0123*6D\r\n
$GPGGA,103657.60,5703.3859975,N,00952.1883965,E,2,10,0.9,-1.748,M,40.592,M,2.0,0123*6D\r\n
$GPGGA,103657.65,5703.3859414,N,00952.1884602,E,2,10,0.9,-1.748,M,40.592,M,1.1,0123*69\r\n
$GPGGA,103657.70,5703.3858854,N,00952.1885261,E,2,10,0.9,-1.747,M,40.592,M,1.1,0123*6B\r\n
$GPGGA,103657.75,5703.3858306,N,00952.1885903,E,2,10,0.9,-1.742,M,40.592,M,1.1,0123*68\r\n
$GPGGA,103657.80,5703.3857745,N,00952.1886553,E,2,10,0.9,-1.743,M,40.592,M,1.1,0123*65\r\n
$GPGGA,103657.85,5703.3857192,N,00952.1887211,E,2,10,0.9,-1.741,M,40.592,M,1.4,0123*6B\r\n
$GPGGA,103657.90,5703.3856635,N,00952.1887880,E,2,10,0.9,-1.741,M,40.592,M,1.4,0123*66\r\n
$GPGGA,103657.95,5703.3856088,N,00952.1888555,E,2,10,0.9,-1.740,M,40.592,M,1.4,0123*68\r\n
$GPGGA,103658.00,5703.3855539,N,00952.1889227,E,2,10,0.9,-1.740,M,40.592,M,1.4,0123*64\r\n
$GPGGA,103658.05,5703.3854984,N,00952.1889890,E,2,10,0.9,-1.733,M,40.592,M,1.6,0123*6A\r\n
$GPGGA,103658.10,5703.3854444,N,00952.1890561,E,2,10,0.9,-1.728,M,40.592,M,1.6,0123*6E\r\n
$GPGGA,103658.15,5703.3853893,N,00952.1891241,E,2,10,0.9,-1.725,M,40.592,M,1.6,0123*63\r\n
$GPGGA,103658.20,5703.3853347,N,00952.1891922,E,2,10,0.9,-1.724,M,40.592,M,1.6,0123*68\r\n
$GPGGA,103658.25,5703.3852799,N,00952.1892612,E,2,10,0.9,-1.722,M,40.592,M,1.9,0123*6D\r\n
$GPGGA,103658.30,5703.3852252,N,00952.1893285,E,2,10,0.9,-1.719,M,40.592,M,1.9,0123*68\r\n
$GPGGA,103658.35,5703.3851703,N,00952.1893982,E,2,10,0.9,-1.716,M,40.592,M,1.9,0123*6C\r\n
$GPGGA,103658.40,5703.3851162,N,00952.1894680,E,2,10,0.9,-1.714,M,40.592,M,1.9,0123*67\r\n
$GPGGA,103658.45,5703.3850616,N,00952.1895360,E,2,10,0.9,-1.711,M,40.592,M,2.1,0123*63\r\n
$GPGGA,103658.50,5703.3850065,N,00952.1896048,E,2,10,0.9,-1.711,M,40.592,M,2.1,0123*6F\r\n
$GPGGA,103658.55,5703.3849512,N,00952.1896741,E,2,10,0.9,-1.710,M,40.592,M,2.1,0123*68\r\n
$GPGGA,103658.60,5703.3848972,N,00952.1897442,E,2,10,0.9,-1.709,M,40.592,M,2.1,0123*6C\r\n
$GPGGA,103658.65,5703.3848420,N,00952.1898126,E,2,10,0.9,-1.715,M,40.592,M,2.3,0123*64\r\n
$GPGGA,103658.70,5703.3847876,N,00952.1898830,E,2,10,0.9,-1.712,M,40.592,M,2.3,0123*69\r\n
$GPGGA,103658.75,5703.3847326,N,00952.1899509,E,2,10,0.9,-1.715,M,40.592,M,2.3,0123*63\r\n
$GPGGA,103658.80,5703.3846780,N,00952.1900208,E,2,10,0.9,-1.716,M,40.592,M,2.3,0123*64\r\n
$GPGGA,103658.85,5703.3846249,N,00952.1900916,E,2,10,0.9,-1.714,M,40.592,M,2.5,0123*61\r\n
$GPGGA,103658.90,5703.3845717,N,00952.1901629,E,2,10,0.9,-1.713,M,40.592,M,2.5,0123*6D\r\n
$GPGGA,103658.95,5703.3845197,N,00952.1902346,E,2,10,0.9,-1.712,M,40.592,M,2.5,0123*68\r\n
$GPGGA,103659.00,5703.3844668,N,00952.1903057,E,2,10,0.9,-1.712,M,40.592,M,2.5,0123*61\r\n
$GPGGA,103659.05,5703.3844126,N,00952.1903751,E,2,10,0.9,-1.715,M,40.592,M,2.7,0123*6D\r\n
$GPGGA,103659.10,5703.3843580,N,00952.1904459,E,2,10,0.9,-1.721,M,40.592,M,2.7,0123*6D\r\n
$GPGGA,103659.15,5703.3843055,N,00952.1905178,E,2,10,0.9,-1.722,M,40.592,M,2.7,0123*61\r\n
$GPGGA,103659.20,5703.3842529,N,00952.1905877,E,2,10,0.9,-1.722,M,40.592,M,2.7,0123*6E\r\n
$GPGGA,103659.25,5703.3842002,N,00952.1906569,E,2,10,0.9,-1.723,M,40.592,M,2.9,0123*69\r\n
$GPGGA,103659.30,5703.3841475,N,00952.1907275,E,2,10,0.9,-1.723,M,40.592,M,2.9,0123*61\r\n
$GPGGA,103659.35,5703.3840952,N,00952.1907994,E,2,10,0.9,-1.725,M,40.592,M,2.9,0123*6F\r\n
$GPGGA,103659.40,5703.3840410,N,00952.1908694,E,2,10,0.9,-1.725,M,40.592,M,2.9,0123*66\r\n
$GPGGA,103659.45,5703.3839874,N,00952.1909392,E,2,10,0.9,-1.725,M,40.592,M,3.1,0123*68\r\n
$GPGGA,103659.50,5703.3839345,N,00952.1910105,E,2,10,0.9,-1.724,M,40.592,M,3.1,0123*60\r\n
$GPGGA,103659.55,5703.3838826,N,00952.1910824,E,2,10,0.9,-1.726,M,40.592,M,3.1,0123*62\r\n
$GPGGA,103659.60,5703.3838299,N,00952.1911557,E,2,10,0.9,-1.732,M,40.592,M,3.1,0123*67\r\n
$GPGGA,103659.65,5703.3837778,N,00952.1912284,E,2,10,0.9,-1.727,M,40.592,M,1.7,0123*6D\r\n
$GPGGA,103659.70,5703.3837255,N,00952.1912989,E,2,10,0.9,-1.728,M,40.592,M,1.7,0123*6A\r\n
$GPGGA,103659.75,5703.3836726,N,00952.1913695,E,2,10,0.9,-1.727,M,40.592,M,1.7,0123*63\r\n
$GPGGA,103659.80,5703.3836207,N,00952.1914407,E,2,10,0.9,-1.726,M,40.592,M,1.7,0123*60\r\n
$GPGGA,103659.85,5703.3835676,N,00952.1915131,E,2,10,0.9,-1.726,M,40.592,M,2.0,0123*61\r\n
$GPGGA,103659.90,5703.3835169,N,00952.1915851,E,2,10,0.9,-1.724,M,40.592,M,2.0,0123*61\r\n
$GPGGA,103659.95,5703.3834655,N,00952.1916563,E,2,10,0.9,-1.722,M,40.592,M,2.0,0123*64\r\n
$GPGGA,103700.00,5703.3834130,N,00952.1917263,E,2,10,0.9,-1.721,M,40.592,M,2.0,0123*64\r\n
$GPGGA,103700.05,5703.3833604,N,00952.1917986,E,2,10,0.9,-1.718,M,40.592,M,2.4,0123*68\r\n
$GPGGA,103700.10,5703.3833089,N,00952.1918704,E,2,10,0.9,-1.719,M,40.592,M,2.4,0123*65\r\n
$GPGGA,103700.15,5703.3832562,N,00952.1919424,E,2,10,0.9,-1.720,M,40.592,M,2.4,0123*6B\r\n
$GPGGA,103700.20,5703.3832040,N,00952.1920134,E,2,10,0.9,-1.718,M,40.592,M,2.4,0123*6D\r\n
$GPGGA,103700.25,5703.3831527,N,00952.1920851,E,2,10,0.9,-1.723,M,40.592,M,2.6,0123*6F\r\n
$GPGGA,103700.30,5703.3831013,N,00952.1921588,E,2,10,0.9,-1.723,M,40.592,M,2.6,0123*61\r\n
$GPGGA,103700.35,5703.3830493,N,00952.1922325,E,2,10,0.9,-1.726,M,40.592,M,2.6,0123*6E\r\n
$GPGGA,103700.40,5703.3829978,N,00952.1923069,E,2,10,0.9,-1.728,M,40.592,M,2.6,0123*68\r\n
$GPGGA,103700.45,5703.3829461,N,00952.1923815,E,2,10,0.9,-1.725,M,40.592,M,2.9,0123*69\r\n
$GPGGA,103700.50,5703.3828943,N,00952.1924561,E,2,10,0.9,-1.727,M,40.592,M,2.9,0123*6A\r\n
$GPGGA,103700.55,5703.3828433,N,00952.1925301,E,2,10,0.9,-1.727,M,40.592,M,2.9,0123*64\r\n
$GPGGA,103700.60,5703.3827914,N,00952.1926055,E,2,10,0.9,-1.730,M,40.592,M,2.9,0123*62\r\n
$GPGGA,103700.65,5703.3827407,N,00952.1926784,E,2,10,0.9,-1.733,M,40.592,M,1.0,0123*6A\r\n
$GPGGA,103700.70,5703.3826891,N,00952.1927535,E,2,10,0.9,-1.734,M,40.592,M,1.0,0123*62\r\n
$GPGGA,103700.75,5703.3826375,N,00952.1928275,E,2,10,0.9,-1.734,M,40.592,M,1.0,0123*6A\r\n
$GPGGA,103700.80,5703.3825857,N,00952.1929036,E,2,10,0.9,-1.734,M,40.592,M,1.0,0123*6C\r\n
$GPGGA,103700.85,5703.3825350,N,00952.1929786,E,2,10,0.9,-1.734,M,40.592,M,1.2,0123*6B\r\n
$GPGGA,103700.90,5703.3824847,N,00952.1930533,E,2,10,0.9,-1.735,M,40.592,M,1.2,0123*66\r\n
$GPGGA,103700.95,5703.3824332,N,00952.1931276,E,2,10,0.9,-1.732,M,40.592,M,1.2,0123*6A\r\n
$GPGGA,103701.00,5703.3823818,N,00952.1932021,E,2,10,0.9,-1.732,M,40.592,M,1.2,0123*60\r\n
$GPGGA,103701.05,5703.3823317,N,00952.1932749,E,2,10,0.9,-1.732,M,40.592,M,1.5,0123*6F\r\n
$GPGGA,103701.10,5703.3822794,N,00952.1933492,E,2,10,0.9,-1.733,M,40.592,M,1.5,0123*60\r\n
$GPGGA,103701.15,5703.3822274,N,00952.1934234,E,2,10,0.9,-1.733,M,40.592,M,1.5,0123*63\r\n
$GPGGA,103701.20,5703.3821753,N,00952.1934993,E,2,10,0.9,-1.734,M,40.592,M,1.5,0123*67\r\n
$GPGGA,103701.25,5703.3821235,N,00952.1935749,E,2,10,0.9,-1.732,M,40.592,M,1.7,0123*6B\r\n
$GPGGA,103701.30,5703.3820709,N,00952.1936484,E,2,10,0.9,-1.731,M,40.592,M,1.7,0123*66\r\n
$GPGGA,103701.35,5703.3820195,N,00952.1937234,E,2,10,0.9,-1.733,M,40.592,M,1.7,0123*6E\r\n
$GPGGA,103701.40,5703.3819676,N,00952.1937977,E,2,10,0.9,-1.733,M,40.592,M,1.7,0123*60\r\n
$GPGGA,103701.45,5703.3819161,N,00952.1938735,E,2,10,0.9,-1.733,M,40.592,M,2.0,0123*67\r\n
$GPGGA,103701.50,5703.3818644,N,00952.1939497,E,2,10,0.9,-1.733,M,40.592,M,2.0,0123*68\r\n
$GPGGA,103701.55,5703.3818126,N,00952.1940259,E,2,10,0.9,-1.731,M,40.592,M,2.0,0123*66\r\n
$GPGGA,103701.60,5703.3817598,N,00952.1941007,E,2,10,0.9,-1.729,M,40.592,M,2.0,0123*6F\r\n
$GPGGA,103701.65,5703.3817076,N,00952.1941767,E,2,10,0.9,-1.726,M,40.592,M,1.1,0123*63\r\n
$GPGGA,103701.70,5703.3816552,N,00952.1942513,E,2,10,0.9,-1.727,M,40.592,M,1.1,0123*66\r\n
$GPGGA,103701.75,5703.3816035,N,00952.1943268,E,2,10,0.9,-1.723,M,40.592,M,1.1,0123*69\r\n
$GPGGA,103701.80,5703.3815519,N,00952.1944041,E,2,10,0.9,-1.719,M,40.592,M,1.1,0123*6C\r\n
$GPGGA,103701.85,5703.3814987,N,00952.1944797,E,2,10,0.9,-1.717,M,40.592,M,1.4,0123*64\r\n
$GPGGA,103701.90,5703.3814447,N,00952.1945539,E,2,10,0.9,-1.715,M,40.592,M,1.4,0123*64\r\n
$GPGGA,103701.95,5703.3813907,N,00952.1946283,E,2,10,0.9,-1.712,M,40.592,M,1.4,0123*6D\r\n
$GPGGA,103702.00,5703.3813380,N,00952.1947034,E,2,10,0.9,-1.709,M,40.592,M,1.4,0123*62\r\n
$GPGGA,103702.05,5703.3812866,N,00952.1947769,E,2,10,0.9,-1.709,M,40.592,M,1.6,0123*68\r\n
$GPGGA,103702.10,5703.3812341,N,00952.1948528,E,2,10,0.9,-1.705,M,40.592,M,1.6,0123*66\r\n
$GPGGA,103702.15,5703.3811816,N,00952.1949278,E,2,10,0.9,-1.704,M,40.592,M,1.6,0123*6B\r\n
$GPGGA,103702.20,5703.3811295,N,00952.1950008,E,2,10,0.9,-1.705,M,40.592,M,1.6,0123*60\r\n
$GPGGA,103702.25,5703.3810771,N,00952.1950742,E,2,10,0.9,-1.701,M,40.592,M,1.9,0123*69\r\n
$GPGGA,103702.30,5703.3810239,N,00952.1951494,E,2,10,0.9,-1.698,M,40.592,M,1.9,0123*6C\r\n
$GPGGA,103702.35,5703.3809710,N,00952.1952239,E,2,10,0.9,-1.697,M,40.592,M,1.9,0123*62\r\n
$GPGGA,103702.40,5703.3809189,N,00952.1952976,E,2,10,0.9,-1.694,M,40.592,M,1.9,0123*65\r\n
$GPGGA,103702.45,5703.3808658,N,00952.1953726,E,2,10,0.9,-1.697,M,40.592,M,2.1,0123*68\r\n
$GPGGA,103702.50,5703.3808139,N,00952.1954480,E,2,10,0.9,-1.694,M,40.592,M,2.1,0123*67\r\n
$GPGGA,103702.55,5703.3807627,N,00952.1955221,E,2,10,0.9,-1.692,M,40.592,M,2.1,0123*6F\r\n
$GPGGA,103702.60,5703.3807108,N,00952.1955970,E,2,10,0.9,-1.696,M,40.592,M,2.1,0123*68\r\n
$GPGGA,103702.65,5703.3806606,N,00952.1956737,E,2,10,0.9,-1.696,M,40.592,M,2.3,0123*69\r\n
$GPGGA,103702.70,5703.3806086,N,00952.1957494,E,2,10,0.9,-1.699,M,40.592,M,2.3,0123*67\r\n
$GPGGA,103702.75,5703.3805565,N,00952.1958267,E,2,10,0.9,-1.698,M,40.592,M,2.3,0123*6D\r\n
$GPGGA,103702.80,5703.3805054,N,00952.1959046,E,2,10,0.9,-1.699,M,40.592,M,2.3,0123*61\r\n
$GPGGA,103702.85,5703.3804546,N,00952.1959832,E,2,10,0.9,-1.700,M,40.592,M,2.5,0123*6F\r\n
$GPGGA,103702.90,5703.3804026,N,00952.1960613,E,2,10,0.9,-1.703,M,40.592,M,2.5,0123*6C\r\n
$GPGGA,103702.95,5703.3803515,N,00952.1961386,E,2,10,0.9,-1.705,M,40.592,M,2.5,0123*65\r\n
$GPGGA,103703.00,5703.3802997,N,00952.1962161,E,2,10,0.9,-1.709,M,40.592,M,2.5,0123*6B\r\n
$GPGGA,103703.05,5703.3802487,N,00952.1962936,E,2,10,0.9,-1.717,M,40.592,M,2.7,0123*65\r\n
$GPGGA,103703.10,5703.3801965,N,00952.1963728,E,2,10,0.9,-1.719,M,40.592,M,2.7,0123*6D\r\n
$GPGGA,103703.15,5703.3801455,N,00952.1964491,E,2,10,0.9,-1.723,M,40.592,M,2.7,0123*69\r\n
$GPGGA,103703.20,5703.3800939,N,00952.1965265,E,2,10,0.9,-1.727,M,40.592,M,2.7,0123*61\r\n
$GPGGA,103703.25,5703.3800421,N,00952.1966034,E,2,10,0.9,-1.731,M,40.592,M,2.9,0123*6C\r\n
$GPGGA,103703.30,5703.3799898,N,00952.1966775,E,2,10,0.9,-1.734,M,40.592,M,2.9,0123*6E\r\n
$GPGGA,103703.35,5703.3799379,N,00952.1967537,E,2,10,0.9,-1.737,M,40.592,M,2.9,0123*69\r\n
$GPGGA,103703.40,5703.3798853,N,00952.1968305,E,2,10,0.9,-1.740,M,40.592,M,2.9,0123*61\r\n
$GPGGA,103703.45,5703.3798347,N,00952.1969066,E,2,10,0.9,-1.737,M,40.592,M,3.1,0123*64\r\n
$GPGGA,103703.50,5703.3797841,N,00952.1969835,E,2,10,0.9,-1.738,M,40.592,M,3.1,0123*63\r\n
$GPGGA,103703.55,5703.3797321,N,00952.1970604,E,2,10,0.9,-1.739,M,40.592,M,3.1,0123*6E\r\n
$GPGGA,103703.60,5703.3796802,N,00952.1971372,E,2,10,0.9,-1.739,M,40.592,M,3.1,0123*66\r\n
$GPGGA,103703.65,5703.3796291,N,00952.1972144,E,2,10,0.9,-1.738,M,40.592,M,1.7,0123*62\r\n
$GPGGA,103703.70,5703.3795783,N,00952.1972892,E,2,10,0.9,-1.740,M,40.592,M,1.7,0123*6E\r\n
$GPGGA,103703.75,5703.3795272,N,00952.1973655,E,2,10,0.9,-1.741,M,40.592,M,1.7,0123*65\r\n
$GPGGA,103703.80,5703.3794765,N,00952.1974427,E,2,10,0.9,-1.742,M,40.592,M,1.7,0123*6E\r\n
$GPGGA,103703.85,5703.3794253,N,00952.1975201,E,2,10,0.9,-1.739,M,40.592,M,2.0,0123*60\r\n
$GPGGA,103703.90,5703.3793745,N,00952.1975972,E,2,10,0.9,-1.738,M,40.592,M,2.0,0123*6F\r\n
$GPGGA,103703.95,5703.3793219,N,00952.1976729,E,2,10,0.9,-1.740,M,40.592,M,2.0,0123*6A\r\n
$GPGGA,103704.00,5703.3792690,N,00952.1977474,E,2,10,0.9,-1.740,M,40.592,M,2.0,0123*6F\r\n
$GPGGA,103704.05,5703.3792188,N,00952.1978230,E,2,10,0.9,-1.734,M,40.592,M,2.4,0123*6A\r\n
$GPGGA,103704.10,5703.3791679,N,00952.1978991,E,2,10,0.9,-1.731,M,40.592,M,2.4,0123*61\r\n
$GPGGA,103704.15,5703.3791159,N,00952.1979738,E,2,10,0.9,-1.729,M,40.592,M,2.4,0123*64\r\n
$GPGGA,103704.20,5703.3790634,N,00952.1980481,E,2,10,0.9,-1.729,M,40.592,M,2.4,0123*68\r\n
$GPGGA,103704.25,5703.3790104,N,00952.1981203,E,2,10,0.9,-1.723,M,40.592,M,2.6,0123*6C\r\n
$GPGGA,103704.30,5703.3789584,N,00952.1981932,E,2,10,0.9,-1.721,M,40.592,M,2.6,0123*67\r\n
$GPGGA,103704.35,5703.3789063,N,00952.1982680,E,2,10,0.9,-1.718,M,40.592,M,2.6,0123*61\r\n
$GPGGA,103704.40,5703.3788530,N,00952.1983436,E,2,10,0.9,-1.717,M,40.592,M,2.6,0123*60\r\n
$GPGGA,103704.45,5703.3787993,N,00952.1984161,E,2,10,0.9,-1.721,M,40.592,M,2.9,0123*65\r\n
$GPGGA,103704.50,5703.3787471,N,00952.1984884,E,2,10,0.9,-1.717,M,40.592,M,2.9,0123*67\r\n
$GPGGA,103704.55,5703.3786959,N,00952.1985616,E,2,10,0.9,-1.715,M,40.592,M,2.9,0123*62\r\n
$GPGGA,103704.60,5703.3786428,N,00952.1986359,E,2,10,0.9,-1.715,M,40.592,M,2.9,0123*62\r\n
$GPGGA,103704.65,5703.3785900,N,00952.1987117,E,2,10,0.9,-1.709,M,40.592,M,3.2,0123*6D\r\n
$GPGGA,103704.70,5703.3785380,N,00952.1987870,E,2,10,0.9,-1.709,M,40.592,M,3.2,0123*63\r\n
$GPGGA,103704.75,5703.3784859,N,00952.1988614,E,2,10,0.9,-1.710,M,40.592,M,3.2,0123*63\r\n
$GPGGA,103704.80,5703.3784340,N,00952.1989363,E,2,10,0.9,-1.712,M,40.592,M,3.2,0123*6C\r\n
$GPGGA,103704.85,5703.3783827,N,00952.1990102,E,2,10,0.9,-1.715,M,40.592,M,1.2,0123*6C\r\n
$GPGGA,103704.90,5703.3783307,N,00952.1990848,E,2,10,0.9,-1.713,M,40.592,M,1.2,0123*60\r\n
$GPGGA,103704.95,5703.3782778,N,00952.1991603,E,2,10,0.9,-1.717,M,40.592,M,1.2,0123*6C\r\n
$GPGGA,103705.00,5703.3782247,N,00952.1992354,E,2,10,0.9,-1.722,M,40.592,M,1.2,0123*6A\r\n
$GPGGA,103705.05,5703.3781728,N,00952.1993088,E,2,10,0.9,-1.718,M,40.592,M,1.5,0123*6D\r\n
$GPGGA,103705.10,5703.3781209,N,00952.1993826,E,2,10,0.9,-1.717,M,40.592,M,1.5,0123*6C\r\n
$GPGGA,103705.15,5703.3780687,N,00952.1994579,E,2,10,0.9,-1.718,M,40.592,M,1.5,0123*65\r\n
$GPGGA,103705.20,5703.3780172,N,00952.1995340,E,2,10,0.9,-1.721,M,40.592,M,1.5,0123*69\r\n
$GPGGA,103705.25,5703.3779652,N,00952.1996079,E,2,10,0.9,-1.723,M,40.592,M,1.7,0123*65\r\n
$GPGGA,103705.30,5703.3779121,N,00952.1996821,E,2,10,0.9,-1.725,M,40.592,M,1.7,0123*61\r\n
$GPGGA,103705.35,5703.3778607,N,00952.1997576,E,2,10,0.9,-1.724,M,40.592,M,1.7,0123*69\r\n
$GPGGA,103705.40,5703.3778084,N,00952.1998332,E,2,10,0.9,-1.722,M,40.592,M,1.7,0123*69\r\n
$GPGGA,103705.45,5703.3777565,N,00952.1999081,E,2,10,0.9,-1.728,M,40.592,M,2.0,0123*6D\r\n
$GPGGA,103705.50,5703.3777034,N,00952.1999809,E,2,10,0.9,-1.733,M,40.592,M,2.0,0123*6A\r\n
$GPGGA,103705.55,5703.3776499,N,00952.2000545,E,2,10,0.9,-1.736,M,40.592,M,2.0,0123*67\r\n
$GPGGA,103705.60,5703.3775972,N,00952.2001293,E,2,10,0.9,-1.737,M,40.592,M,2.0,0123*66\r\n
$GPGGA,103705.65,5703.3775465,N,00952.2002062,E,2,10,0.9,-1.736,M,40.592,M,2.2,0123*64\r\n
$GPGGA,103705.70,5703.3774953,N,00952.2002801,E,2,10,0.9,-1.738,M,40.592,M,2.2,0123*6A\r\n
$GPGGA,103705.75,5703.3774428,N,00952.2003524,E,2,10,0.9,-1.740,M,40.592,M,2.2,0123*6A\r\n
$GPGGA,103705.80,5703.3773899,N,00952.2004261,E,2,10,0.9,-1.739,M,40.592,M,2.2,0123*6E\r\n
$GPGGA,103705.85,5703.3773381,N,00952.2005035,E,2,10,0.9,-1.735,M,40.592,M,1.4,0123*62\r\n
$GPGGA,103705.90,5703.3772875,N,00952.2005809,E,2,10,0.9,-1.735,M,40.592,M,1.4,0123*60\r\n
$GPGGA,103705.95,5703.3772356,N,00952.2006562,E,2,10,0.9,-1.732,M,40.592,M,1.4,0123*6B\r\n
$GPGGA,103706.00,5703.3771840,N,00952.2007298,E,2,10,0.9,-1.731,M,40.592,M,1.4,0123*6B\r\n
$GPGGA,103706.05,5703.3771328,N,00952.2008046,E,2,10,0.9,-1.732,M,40.592,M,1.6,0123*64\r\n
$GPGGA,103706.10,5703.3770815,N,00952.2008786,E,2,10,0.9,-1.733,M,40.592,M,1.6,0123*6E\r\n
$GPGGA,103706.15,5703.3770302,N,00952.2009544,E,2,10,0.9,-1.731,M,40.592,M,1.6,0123*69\r\n
$GPGGA,103706.20,5703.3769784,N,00952.2010311,E,2,10,0.9,-1.734,M,40.592,M,1.6,0123*66\r\n
$GPGGA,103706.25,5703.3769268,N,00952.2011085,E,2,10,0.9,-1.731,M,40.592,M,1.9,0123*61\r\n
$GPGGA,103706.30,5703.3768757,N,00952.2011844,E,2,10,0.9,-1.729,M,40.592,M,1.9,0123*61\r\n
$GPGGA,103706.35,5703.3768227,N,00952.2012593,E,2,10,0.9,-1.729,M,40.592,M,1.9,0123*62\r\n
$GPGGA,103706.40,5703.3767695,N,00952.2013328,E,2,10,0.9,-1.731,M,40.592,M,1.9,0123*6C\r\n
$GPGGA,103706.45,5703.3767161,N,00952.2014078,E,2,10,0.9,-1.738,M,40.592,M,2.1,0123*66\r\n
$GPGGA,103706.50,5703.3766656,N,00952.2014834,E,2,10,0.9,-1.736,M,40.592,M,2.1,0123*6E\r\n
$GPGGA,103706.55,5703.3766140,N,00952.2015601,E,2,10,0.9,-1.736,M,40.592,M,2.1,0123*62\r\n
$GPGGA,103706.60,5703.3765631,N,00952.2016373,E,2,10,0.9,-1.736,M,40.592,M,2.1,0123*65\r\n
$GPGGA,103706.65,5703.3765109,N,00952.2017129,E,2,10,0.9,-1.737,M,40.592,M,2.3,0123*63\r\n
$GPGGA,103706.70,5703.3764586,N,00952.2017892,E,2,10,0.9,-1.738,M,40.592,M,2.3,0123*63\r\n
$GPGGA,103706.75,5703.3764060,N,00952.2018659,E,2,10,0.9,-1.736,M,40.592,M,2.3,0123*63\r\n
$GPGGA,103706.80,5703.3763545,N,00952.2019436,E,2,10,0.9,-1.736,M,40.592,M,2.3,0123*66\r\n
$GPGGA,103706.85,5703.3763025,N,00952.2020227,E,2,10,0.9,-1.742,M,40.592,M,2.5,0123*69\r\n
$GPGGA,103706.90,5703.3762518,N,00952.2020991,E,2,10,0.9,-1.744,M,40.592,M,2.5,0123*67\r\n
$GPGGA,103706.95,5703.3761989,N,00952.2021762,E,2,10,0.9,-1.745,M,40.592,M,2.5,0123*67\r\n
$GPGGA,103707.00,5703.3761477,N,00952.2022527,E,2,10,0.9,-1.743,M,40.592,M,2.5,0123*60\r\n
$GPGGA,103707.05,5703.3760960,N,00952.2023289,E,2,10,0.9,-1.738,M,40.592,M,2.7,0123*63\r\n
$GPGGA,103707.10,5703.3760444,N,00952.2024063,E,2,10,0.9,-1.735,M,40.592,M,2.7,0123*60\r\n
$GPGGA,103707.15,5703.3759924,N,00952.2024832,E,2,10,0.9,-1.735,M,40.592,M,2.7,0123*68\r\n
$GPGGA,103707.20,5703.3759394,N,00952.2025587,E,2,10,0.9,-1.737,M,40.592,M,2.7,0123*6F\r\n
$GPGGA,103707.25,5703.3758854,N,00952.2026347,E,2,10,0.9,-1.740,M,40.592,M,2.9,0123*6B\r\n
$GPGGA,103707.30,5703.3758339,N,00952.2027120,E,2,10,0.9,-1.738,M,40.592,M,2.9,0123*62\r\n
$GPGGA,103707.35,5703.3757815,N,00952.2027880,E,2,10,0.9,-1.733,M,40.592,M,2.9,0123*65\r\n
$GPGGA,103707.40,5703.3757285,N,00952.2028631,E,2,10,0.9,-1.731,M,40.592,M,2.9,0123*6D\r\n
$GPGGA,103707.45,5703.3756768,N,00952.2029378,E,2,10,0.9,-1.721,M,40.592,M,3.1,0123*6E\r\n
$GPGGA,103707.50,5703.3756242,N,00952.2030136,E,2,10,0.9,-1.718,M,40.592,M,3.1,0123*6D\r\n
$GPGGA,103707.55,5703.3755716,N,00952.2030872,E,2,10,0.9,-1.716,M,40.592,M,3.1,0123*68\r\n
$GPGGA,103707.60,5703.3755174,N,00952.2031603,E,2,10,0.9,-1.714,M,40.592,M,3.1,0123*67\r\n
$GPGGA,103707.65,5703.3754638,N,00952.2032337,E,2,10,0.9,-1.719,M,40.592,M,3.4,0123*65\r\n
$GPGGA,103707.70,5703.3754115,N,00952.2033086,E,2,10,0.9,-1.716,M,40.592,M,3.4,0123*6E\r\n
$GPGGA,103707.75,5703.3753592,N,00952.2033837,E,2,10,0.9,-1.712,M,40.592,M,3.4,0123*61\r\n
$GPGGA,103707.80,5703.3753067,N,00952.2034576,E,2,10,0.9,-1.713,M,40.592,M,3.4,0123*6A\r\n
$GPGGA,103707.85,5703.3752544,N,00952.2035289,E,2,10,0.9,-1.708,M,40.592,M,2.0,0123*63\r\n
$GPGGA,103707.90,5703.3752022,N,00952.2036019,E,2,10,0.9,-1.706,M,40.592,M,2.0,0123*64\r\n
$GPGGA,103707.95,5703.3751501,N,00952.2036775,E,2,10,0.9,-1.703,M,40.592,M,2.0,0123*6E\r\n
$GPGGA,103708.00,5703.3750988,N,00952.2037531,E,2,10,0.9,-1.703,M,40.592,M,2.0,0123*62\r\n
$GPGGA,103708.05,5703.3750458,N,00952.2038277,E,2,10,0.9,-1.703,M,40.592,M,2.4,0123*69\r\n
$GPGGA,103708.10,5703.3749931,N,00952.2039002,E,2,10,0.9,-1.706,M,40.592,M,2.4,0123*63\r\n
$GPGGA,103708.15,5703.3749420,N,00952.2039737,E,2,10,0.9,-1.708,M,40.592,M,2.4,0123*64\r\n
$GPGGA,103708.20,5703.3748919,N,00952.2040491,E,2,10,0.9,-1.708,M,40.592,M,2.4,0123*65\r\n
$GPGGA,103708.25,5703.3748411,N,00952.2041237,E,2,10,0.9,-1.713,M,40.592,M,2.6,0123*66\r\n
$GPGGA,103708.30,5703.3747883,N,00952.2041972,E,2,10,0.9,-1.713,M,40.592,M,2.6,0123*60\r\n
$GPGGA,103708.35,5703.3747364,N,00952.2042711,E,2,10,0.9,-1.713,M,40.592,M,2.6,0123*6F\r\n
$GPGGA,103708.40,5703.3746858,N,00952.2043462,E,2,10,0.9,-1.713,M,40.592,M,2.6,0123*6E\r\n
$GPGGA,103708.45,5703.3746344,N,00952.2044216,E,2,10,0.9,-1.714,M,40.592,M,2.9,0123*67\r\n
$GPGGA,103708.50,5703.3745842,N,00952.2044975,E,2,10,0.9,-1.716,M,40.592,M,2.9,0123*61\r\n
$GPGGA,103708.55,5703.3745344,N,00952.2045735,E,2,10,0.9,-1.718,M,40.592,M,2.9,0123*6C\r\n
$GPGGA,103708.60,5703.3744841,N,00952.2046486,E,2,10,0.9,-1.720,M,40.592,M,2.9,0123*66\r\n
$GPGGA,103708.65,5703.3744326,N,00952.2047255,E,2,10,0.9,-1.727,M,40.592,M,3.2,0123*6D\r\n
$GPGGA,103708.70,5703.3743823,N,00952.2048029,E,2,10,0.9,-1.728,M,40.592,M,3.2,0123*69\r\n
$GPGGA,103708.75,5703.3743313,N,00952.2048793,E,2,10,0.9,-1.730,M,40.592,M,3.2,0123*6B\r\n
$GPGGA,103708.80,5703.3742801,N,00952.2049540,E,2,10,0.9,-1.729,M,40.592,M,3.2,0123*6D\r\n
$GPGGA,103708.85,5703.3742280,N,00952.2050273,E,2,10,0.9,-1.731,M,40.592,M,1.2,0123*6F\r\n
$GPGGA,103708.90,5703.3741760,N,00952.2051022,E,2,10,0.9,-1.733,M,40.592,M,1.2,0123*66\r\n
$GPGGA,103708.95,5703.3741255,N,00952.2051767,E,2,10,0.9,-1.733,M,40.592,M,1.2,0123*66\r\n
$GPGGA,103709.00,5703.3740747,N,00952.2052520,E,2,10,0.9,-1.733,M,40.592,M,1.2,0123*6E\r\n
$GPGGA,103709.05,5703.3740233,N,00952.2053274,E,2,10,0.9,-1.741,M,40.592,M,1.5,0123*68\r\n
$GPGGA,103709.10,5703.3739734,N,00952.2054020,E,2,10,0.9,-1.738,M,40.592,M,1.5,0123*6A\r\n
$GPGGA,103709.15,5703.3739227,N,00952.2054763,E,2,10,0.9,-1.737,M,40.592,M,1.5,0123*67\r\n
$GPGGA,103709.20,5703.3738712,N,00952.2055497,E,2,10,0.9,-1.734,M,40.592,M,1.5,0123*69\r\n
$GPGGA,103709.25,5703.3738203,N,00952.2056238,E,2,10,0.9,-1.731,M,40.592,M,1.7,0123*6E\r\n
$GPGGA,103709.30,5703.3737686,N,00952.2056987,E,2,10,0.9,-1.731,M,40.592,M,1.7,0123*63\r\n
$GPGGA,103709.35,5703.3737170,N,00952.2057721,E,2,10,0.9,-1.729,M,40.592,M,1.7,0123*62\r\n
$GPGGA,103709.40,5703.3736648,N,00952.2058450,E,2,10,0.9,-1.729,M,40.592,M,1.7,0123*67\r\n
$GPGGA,103709.45,5703.3736133,N,00952.2059193,E,2,10,0.9,-1.726,M,40.592,M,2.0,0123*69\r\n
$GPGGA,103709.50,5703.3735626,N,00952.2059949,E,2,10,0.9,-1.722,M,40.592,M,2.0,0123*66\r\n
$GPGGA,103709.55,5703.3735117,N,00952.2060705,E,2,10,0.9,-1.722,M,40.592,M,2.0,0123*6A\r\n
$GPGGA,103709.60,5703.3734598,N,00952.2061463,E,2,10,0.9,-1.723,M,40.592,M,2.0,0123*6D\r\n
$GPGGA,103709.65,5703.3734094,N,00952.2062228,E,2,10,0.9,-1.722,M,40.592,M,2.2,0123*68\r\n
$GPGGA,103709.70,5703.3733582,N,00952.2062996,E,2,10,0.9,-1.722,M,40.592,M,2.2,0123*67\r\n
$GPGGA,103709.75,5703.3733071,N,00952.2063762,E,2,10,0.9,-1.723,M,40.592,M,2.2,0123*6E\r\n
$GPGGA,103709.80,5703.3732577,N,00952.2064532,E,2,10,0.9,-1.722,M,40.592,M,2.2,0123*67\r\n
$GPGGA,103709.85,5703.3732075,N,00952.2065297,E,2,10,0.9,-1.728,M,40.592,M,1.4,0123*63\r\n
$GPGGA,103709.90,5703.3731566,N,00952.2066069,E,2,10,0.9,-1.728,M,40.592,M,1.4,0123*63\r\n
$GPGGA,103709.95,5703.3731057,N,00952.2066834,E,2,10,0.9,-1.728,M,40.592,M,1.4,0123*61\r\n
$GPGGA,103710.00,5703.3730558,N,00952.2067629,E,2,10,0.9,-1.731,M,40.592,M,1.4,0123*65\r\n
$GPGGA,103710.05,5703.3730069,N,00952.2068425,E,2,10,0.9,-1.728,M,40.592,M,1.6,0123*6C\r\n
$GPGGA,103710.10,5703.3729563,N,00952.2069224,E,2,10,0.9,-1.729,M,40.592,M,1.6,0123*68\r\n
$GPGGA,103710.15,5703.3729058,N,00952.2070016,E,2,10,0.9,-1.731,M,40.592,M,1.6,0123*62\r\n
$GPGGA,103710.20,5703.3728569,N,00952.2070818,E,2,10,0.9,-1.730,M,40.592,M,1.6,0123*65\r\n
$GPGGA,103710.25,5703.3728064,N,00952.2071628,E,2,10,0.9,-1.734,M,40.592,M,1.9,0123*6F\r\n
$GPGGA,103710.30,5703.3727575,N,00952.2072455,E,2,10,0.9,-1.735,M,40.592,M,1.9,0123*6B\r\n
$GPGGA,103710.35,5703.3727089,N,00952.2073280,E,2,10,0.9,-1.734,M,40.592,M,1.9,0123*66\r\n
$GPGGA,103710.40,5703.3726593,N,00952.2074084,E,2,10,0.9,-1.732,M,40.592,M,1.9,0123*6C\r\n
$GPGGA,103710.45,5703.3726090,N,00952.2074892,E,2,10,0.9,-1.737,M,40.592,M,2.1,0123*6E\r\n
$GPGGA,103710.50,5703.3725598,N,00952.2075697,E,2,10,0.9,-1.736,M,40.592,M,2.1,0123*6F\r\n
$GPGGA,103710.55,5703.3725108,N,00952.2076502,E,2,10,0.9,-1.734,M,40.592,M,2.1,0123*69\r\n
$GPGGA,103710.60,5703.3724619,N,00952.2077327,E,2,10,0.9,-1.734,M,40.592,M,2.1,0123*69\r\n
$GPGGA,103710.65,5703.3724136,N,00952.2078145,E,2,10,0.9,-1.728,M,40.592,M,2.3,0123*60\r\n
$GPGGA,103710.70,5703.3723639,N,00952.2078969,E,2,10,0.9,-1.726,M,40.592,M,2.3,0123*63\r\n
$GPGGA,103710.75,5703.3723156,N,00952.2079787,E,2,10,0.9,-1.727,M,40.592,M,2.3,0123*66\r\n
$GPGGA,103710.80,5703.3722672,N,00952.2080604,E,2,10,0.9,-1.724,M,40.592,M,2.3,0123*63\r\n
$GPGGA,103710.85,5703.3722197,N,00952.2081430,E,2,10,0.9,-1.718,M,40.592,M,2.5,0123*67\r\n
$GPGGA,103710.90,5703.3721717,N,00952.2082258,E,2,10,0.9,-1.717,M,40.592,M,2.5,0123*6A\r\n
$GPGGA,103710.95,5703.3721235,N,00952.2083084,E,2,10,0.9,-1.714,M,40.592,M,2.5,0123*6B\r\n
$GPGGA,103711.00,5703.3720764,N,00952.2083898,E,2,10,0.9,-1.710,M,40.592,M,2.5,0123*67\r\n
$GPGGA,103711.05,5703.3720303,N,00952.2084724,E,2,10,0.9,-1.707,M,40.592,M,2.7,0123*6C\r\n
$GPGGA,103711.10,5703.3719833,N,00952.2085544,E,2,10,0.9,-1.705,M,40.592,M,2.7,0123*6D\r\n
$GPGGA,103711.15,5703.3719350,N,00952.2086362,E,2,10,0.9,-1.707,M,40.592,M,2.7,0123*65\r\n
$GPGGA,103711.20,5703.3718872,N,00952.2087188,E,2,10,0.9,-1.707,M,40.592,M,2.7,0123*6E\r\n
$GPGGA,103711.25,5703.3718404,N,00952.2088022,E,2,10,0.9,-1.700,M,40.592,M,2.9,0123*61\r\n
$GPGGA,103711.30,5703.3717935,N,00952.2088861,E,2,10,0.9,-1.698,M,40.592,M,2.9,0123*6A\r\n
$GPGGA,103711.35,5703.3717470,N,00952.2089698,E,2,10,0.9,-1.701,M,40.592,M,2.9,0123*6B\r\n
$GPGGA,103711.40,5703.3717012,N,00952.2090520,E,2,10,0.9,-1.701,M,40.592,M,2.9,0123*61\r\n
$GPGGA,103711.45,5703.3716545,N,00952.2091361,E,2,10,0.9,-1.701,M,40.592,M,3.1,0123*69\r\n
$GPGGA,103711.50,5703.3716081,N,00952.2092216,E,2,10,0.9,-1.703,M,40.592,M,3.1,0123*60\r\n
$GPGGA,103711.55,5703.3715622,N,00952.2093065,E,2,10,0.9,-1.704,M,40.592,M,3.1,0123*69\r\n
$GPGGA,103711.60,5703.3715172,N,00952.2093897,E,2,10,0.9,-1.707,M,40.592,M,3.1,0123*6B\r\n
$GPGGA,103711.65,5703.3714716,N,00952.2094746,E,2,10,0.9,-1.712,M,40.592,M,3.4,0123*6E\r\n
$GPGGA,103711.70,5703.3714269,N,00952.2095592,E,2,10,0.9,-1.713,M,40.592,M,3.4,0123*6C\r\n
$GPGGA,103711.75,5703.3713818,N,00952.2096436,E,2,10,0.9,-1.715,M,40.592,M,3.4,0123*68\r\n
$GPGGA,103711.80,5703.3713382,N,00952.2097293,E,2,10,0.9,-1.715,M,40.592,M,3.4,0123*62\r\n
$GPGGA,103711.85,5703.3712948,N,00952.2098146,E,2,10,0.9,-1.713,M,40.592,M,2.0,0123*6D\r\n
$GPGGA,103711.90,5703.3712526,N,00952.2099020,E,2,10,0.9,-1.711,M,40.592,M,2.0,0123*6F\r\n
$GPGGA,103711.95,5703.3712106,N,00952.2099870,E,2,10,0.9,-1.710,M,40.592,M,2.0,0123*60\r\n
$GPGGA,103712.00,5703.3711677,N,00952.2100716,E,2,10,0.9,-1.711,M,40.592,M,2.0,0123*62\r\n
$GPGGA,103712.05,5703.3711258,N,00952.2101565,E,2,10,0.9,-1.713,M,40.592,M,2.4,0123*6F\r\n
$GPGGA,103712.10,5703.3710848,N,00952.2102434,E,2,10,0.9,-1.716,M,40.592,M,2.4,0123*62\r\n
$GPGGA,103712.15,5703.3710450,N,00952.2103324,E,2,10,0.9,-1.717,M,40.592,M,2.4,0123*64\r\n
$GPGGA,103712.20,5703.3710055,N,00952.2104217,E,2,10,0.9,-1.718,M,40.592,M,2.4,0123*6A\r\n
$GPGGA,103712.25,5703.3709672,N,00952.2105124,E,2,10,0.9,-1.722,M,40.592,M,2.6,0123*6D\r\n
$GPGGA,103712.30,5703.3709290,N,00952.2106038,E,2,10,0.9,-1.722,M,40.592,M,2.6,0123*6E\r\n
$GPGGA,103712.35,5703.3708911,N,00952.2106947,E,2,10,0.9,-1.726,M,40.592,M,2.6,0123*6D\r\n
$GPGGA,103712.40,5703.3708539,N,00952.2107866,E,2,10,0.9,-1.727,M,40.592,M,2.6,0123*6B\r\n
$GPGGA,103712.45,5703.3708183,N,00952.2108782,E,2,10,0.9,-1.729,M,40.592,M,2.9,0123*60\r\n
$GPGGA,103712.50,5703.3707828,N,00952.2109709,E,2,10,0.9,-1.730,M,40.592,M,2.9,0123*69\r\n
$GPGGA,103712.55,5703.3707459,N,00952.2110647,E,2,10,0.9,-1.733,M,40.592,M,2.9,0123*66\r\n
$GPGGA,103712.60,5703.3707099,N,00952.2111578,E,2,10,0.9,-1.736,M,40.592,M,2.9,0123*63\r\n
$GPGGA,103712.65,5703.3706750,N,00952.2112508,E,2,10,0.9,-1.736,M,40.592,M,3.2,0123*6B\r\n
$GPGGA,103712.70,5703.3706395,N,00952.2113442,E,2,10,0.9,-1.736,M,40.592,M,3.2,0123*6C\r\n
$GPGGA,103712.75,5703.3706034,N,00952.2114392,E,2,10,0.9,-1.735,M,40.592,M,3.2,0123*6F\r\n
$GPGGA,103712.80,5703.3705690,N,00952.2115337,E,2,10,0.9,-1.734,M,40.592,M,3.2,0123*61\r\n
$GPGGA,103712.85,5703.3705336,N,00952.2116267,E,2,10,0.9,-1.732,M,40.592,M,1.2,0123*6E\r\n
$GPGGA,103712.90,5703.3704993,N,00952.2117204,E,2,10,0.9,-1.730,M,40.592,M,1.2,0123*68\r\n
$GPGGA,103712.95,5703.3704668,N,00952.2118141,E,2,10,0.9,-1.728,M,40.592,M,1.2,0123*62\r\n
$GPGGA,103713.00,5703.3704353,N,00952.2119088,E,2,10,0.9,-1.725,M,40.592,M,1.2,0123*6A\r\n
$GPGGA,103713.05,5703.3704047,N,00952.2120025,E,2,10,0.9,-1.724,M,40.592,M,1.5,0123*62\r\n
$GPGGA,103713.10,5703.3703735,N,00952.2120973,E,2,10,0.9,-1.719,M,40.592,M,1.5,0123*67\r\n
$GPGGA,103713.15,5703.3703415,N,00952.2121919,E,2,10,0.9,-1.718,M,40.592,M,1.5,0123*6F\r\n
$GPGGA,103713.20,5703.3703108,N,00952.2122880,E,2,10,0.9,-1.719,M,40.592,M,1.5,0123*63\r\n
$GPGGA,103713.25,5703.3702816,N,00952.2123835,E,2,10,0.9,-1.714,M,40.592,M,1.7,0123*61\r\n
$GPGGA,103713.30,5703.3702525,N,00952.2124801,E,2,10,0.9,-1.713,M,40.592,M,1.7,0123*6F\r\n
$GPGGA,103713.35,5703.3702250,N,00952.2125770,E,2,10,0.9,-1.713,M,40.592,M,1.7,0123*67\r\n
$GPGGA,103713.40,5703.3701974,N,00952.2126768,E,2,10,0.9,-1.715,M,40.592,M,1.7,0123*67\r\n
$GPGGA,103713.45,5703.3701714,N,00952.2127770,E,2,10,0.9,-1.711,M,40.592,M,2.0,0123*62\r\n
$GPGGA,103713.50,5703.3701465,N,00952.2128757,E,2,10,0.9,-1.711,M,40.592,M,2.0,0123*69\r\n
$GPGGA,103713.55,5703.3701223,N,00952.2129747,E,2,10,0.9,-1.711,M,40.592,M,2.0,0123*68\r\n
$GPGGA,103713.60,5703.3700990,N,00952.2130747,E,2,10,0.9,-1.712,M,40.592,M,2.0,0123*67\r\n
$GPGGA,103713.65,5703.3700752,N,00952.2131766,E,2,10,0.9,-1.720,M,40.592,M,2.2,0123*63\r\n
$GPGGA,103713.70,5703.3700542,N,00952.2132760,E,2,10,0.9,-1.721,M,40.592,M,2.2,0123*60\r\n
