$GPGGA,091002.05,5703.2992772,N,00952.3602524,E,2,10,1.0,-2.012,M,40.593,M,2.8,0123*6A\r\n
$GPGGA,091002.10,5703.2993141,N,00952.3601680,E,2,10,1.0,-2.016,M,40.593,M,2.8,0123*63\r\n
$GPGGA,091002.15,5703.2993511,N,00952.3600830,E,2,10,1.0,-2.017,M,40.593,M,2.8,0123*62\r\n
$GPGGA,091002.20,5703.2993909,N,00952.3599975,E,2,10,1.0,-2.017,M,40.593,M,2.8,0123*62\r\n
$GPGGA,091002.25,5703.2994270,N,00952.3599117,E,2,10,1.0,-2.025,M,40.593,M,3.0,0123*61\r\n
$GPGGA,091002.30,5703.2994635,N,00952.3598257,E,2,10,1.0,-2.020,M,40.593,M,3.0,0123*63\r\n
$GPGGA,091002.35,5703.2995042,N,00952.3597409,E,2,10,1.0,-2.021,M,40.593,M,3.0,0123*62\r\n
$GPGGA,091002.40,5703.2995427,N,00952.3596559,E,2,10,1.0,-2.024,M,40.593,M,3.0,0123*67\r\n
$GPGGA,091002.45,5703.2995823,N,00952.3595685,E,2,10,1.0,-2.018,M,40.593,M,3.2,0123*66\r\n
$GPGGA,091002.50,5703.2996232,N,00952.3594823,E,2,10,1.0,-2.016,M,40.593,M,3.2,0123*66\r\n
$GPGGA,091002.55,5703.2996646,N,00952.3593955,E,2,10,1.0,-2.012,M,40.593,M,3.2,0123*67\r\n
$GPGGA,091002.60,5703.2997026,N,00952.3593104,E,2,10,1.0,-2.012,M,40.593,M,3.2,0123*6C\r\n
$GPGGA,091002.65,5703.2997394,N,00952.3592274,E,2,10,1.0,-2.016,M,40.593,M,3.4,0123*64\r\n
$GPGGA,091002.70,5703.2997782,N,00952.3591413,E,2,10,1.0,-2.016,M,40.593,M,3.4,0123*67\r\n
$GPGGA,091002.75,5703.2998182,N,00952.3590533,E,2,10,1.0,-2.013,M,40.593,M,3.4,0123*6C\r\n
$GPGGA,091002.80,5703.2998579,N,00952.3589656,E,2,10,1.0,-2.013,M,40.593,M,3.4,0123*6E\r\n
$GPGGA,091002.85,5703.2998976,N,00952.3588774,E,2,10,1.0,-2.014,M,40.593,M,3.6,0123*6D\r\n
$GPGGA,091002.90,5703.2999342,N,00952.3587898,E,2,10,1.0,-2.018,M,40.593,M,3.6,0123*6B\r\n
$GPGGA,091002.95,5703.2999722,N,00952.3587035,E,2,10,1.0,-2.020,M,40.593,M,3.6,0123*68\r\n
$GPGGA,091003.00,5703.3000090,N,00952.3586181,E,2,10,1.0,-2.017,M,40.593,M,3.6,0123*68\r\n
$GPGGA,091003.05,5703.3000474,N,00952.3585309,E,2,10,1.0,-2.016,M,40.593,M,3.8,0123*6D\r\n
$GPGGA,091003.10,5703.3000856,N,00952.3584422,E,2,10,1.0,-2.016,M,40.593,M,3.8,0123*6A\r\n
$GPGGA,091003.15,5703.3001240,N,00952.3583542,E,2,10,1.0,-2.019,M,40.593,M,3.8,0123*6C\r\n
$GPGGA,091003.20,5703.3001610,N,00952.3582678,E,2,10,1.0,-2.017,M,40.593,M,3.8,0123*6E\r\n
$GPGGA,091003.25,5703.3002001,N,00952.3581820,E,2,10,1.0,-2.018,M,40.593,M,2.2,0123*6A\r\n
$GPGGA,091003.30,5703.3002414,N,00952.3580944,E,2,10,1.0,-2.019,M,40.593,M,2.2,0123*6D\r\n
$GPGGA,091003.35,5703.3002796,N,00952.3580072,E,2,10,1.0,-2.020,M,40.593,M,2.2,0123*67\r\n
$GPGGA,091003.40,5703.3003160,N,00952.3579202,E,2,10,1.0,-2.019,M,40.593,M,2.2,0123*62\r\n
$GPGGA,091003.45,5703.3003546,N,00952.3578359,E,2,10,1.0,-2.018,M,40.593,M,2.4,0123*6E\r\n
$GPGGA,091003.50,5703.3003952,N,00952.3577505,E,2,10,1.0,-2.016,M,40.593,M,2.4,0123*6D\r\n
$GPGGA,091003.55,5703.3004316,N,00952.3576624,E,2,10,1.0,-2.018,M,40.593,M,2.4,0123*6A\r\n
$GPGGA,091003.60,5703.3004714,N,00952.3575745,E,2,10,1.0,-2.020,M,40.593,M,2.4,0123*64\r\n
$GPGGA,091003.65,5703.3005099,N,00952.3574879,E,2,10,1.0,-2.019,M,40.593,M,2.7,0123*6A\r\n
$GPGGA,091003.70,5703.3005486,N,00952.3574020,E,2,10,1.0,-2.018,M,40.593,M,2.7,0123*61\r\n
$GPGGA,091003.75,5703.3005909,N,00952.3573135,E,2,10,1.0,-2.016,M,40.593,M,2.7,0123*62\r\n
$GPGGA,091003.80,5703.3006269,N,00952.3572274,E,2,10,1.0,-2.016,M,40.593,M,2.7,0123*61\r\n
$GPGGA,091003.85,5703.3006650,N,00952.3571405,E,2,10,1.0,-2.011,M,40.593,M,2.9,0123*60\r\n
$GPGGA,091003.90,5703.3007051,N,00952.3570535,E,2,10,1.0,-2.008,M,40.593,M,2.9,0123*69\r\n
$GPGGA,091003.95,5703.3007455,N,00952.3569649,E,2,10,1.0,-2.008,M,40.593,M,2.9,0123*6C\r\n
$GPGGA,091004.00,5703.3007842,N,00952.3568753,E,2,10,1.0,-2.010,M,40.593,M,2.9,0123*6F\r\n
$GPGGA,091004.05,5703.3008208,N,00952.3567876,E,2,10,1.0,-2.010,M,40.593,M,3.2,0123*6C\r\n
$GPGGA,091004.10,5703.3008592,N,00952.3567012,E,2,10,1.0,-2.010,M,40.593,M,3.2,0123*66\r\n
$GPGGA,091004.15,5703.3009001,N,00952.3566161,E,2,10,1.0,-2.008,M,40.593,M,3.2,0123*60\r\n
$GPGGA,091004.20,5703.3009399,N,00952.3565291,E,2,10,1.0,-2.008,M,40.593,M,3.2,0123*6B\r\n
$GPGGA,091004.25,5703.3009786,N,00952.3564402,E,2,10,1.0,-2.008,M,40.593,M,2.0,0123*6A\r\n
$GPGGA,091004.30,5703.3010189,N,00952.3563518,E,2,10,1.0,-2.006,M,40.593,M,2.0,0123*6C\r\n
$GPGGA,091004.35,5703.3010557,N,00952.3562627,E,2,10,1.0,-2.006,M,40.593,M,2.0,0123*60\r\n
$GPGGA,091004.40,5703.3010932,N,00952.3561741,E,2,10,1.0,-2.010,M,40.593,M,2.0,0123*68\r\n
$GPGGA,091004.45,5703.3011328,N,00952.3560858,E,2,10,1.0,-2.018,M,40.593,M,2.2,0123*61\r\n
$GPGGA,091004.50,5703.3011740,N,00952.3559984,E,2,10,1.0,-2.019,M,40.593,M,2.2,0123*64\r\n
$GPGGA,091004.55,5703.3012130,N,00952.3559124,E,2,10,1.0,-2.019,M,40.593,M,2.2,0123*61\r\n
$GPGGA,091004.60,5703.3012514,N,00952.3558272,E,2,10,1.0,-2.015,M,40.593,M,2.2,0123*68\r\n
$GPGGA,091004.65,5703.3012919,N,00952.3557392,E,2,10,1.0,-2.011,M,40.593,M,2.4,0123*6E\r\n
$GPGGA,091004.70,5703.3013325,N,00952.3556520,E,2,10,1.0,-2.012,M,40.593,M,2.4,0123*63\r\n
$GPGGA,091004.75,5703.3013718,N,00952.3555624,E,2,10,1.0,-2.016,M,40.593,M,2.4,0123*6C\r\n
$GPGGA,091004.80,5703.3014111,N,00952.3554736,E,2,10,1.0,-2.018,M,40.593,M,2.4,0123*63\r\n
$GPGGA,091004.85,5703.3014488,N,00952.3553854,E,2,10,1.0,-2.016,M,40.593,M,2.7,0123*62\r\n
$GPGGA,091004.90,5703.3014875,N,00952.3552963,E,2,10,1.0,-2.014,M,40.593,M,2.7,0123*6E\r\n
$GPGGA,091004.95,5703.3015275,N,00952.3552095,E,2,10,1.0,-2.016,M,40.593,M,2.7,0123*62\r\n
$GPGGA,091005.00,5703.3015691,N,00952.3551219,E,2,10,1.0,-2.017,M,40.593,M,2.7,0123*65\r\n
$GPGGA,091005.05,5703.3016082,N,00952.3550327,E,2,10,1.0,-2.011,M,40.593,M,2.9,0123*62\r\n
$GPGGA,091005.10,5703.3016478,N,00952.3549444,E,2,10,1.0,-2.009,M,40.593,M,2.9,0123*64\r\n
$GPGGA,091005.15,5703.3016887,N,00952.3548564,E,2,10,1.0,-2.006,M,40.593,M,2.9,0123*60\r\n
$GPGGA,091005.20,5703.3017273,N,00952.3547684,E,2,10,1.0,-2.008,M,40.593,M,2.9,0123*6A\r\n
$GPGGA,091005.25,5703.3017651,N,00952.3546787,E,2,10,1.0,-2.010,M,40.593,M,1.9,0123*62\r\n
$GPGGA,091005.30,5703.3018043,N,00952.3545926,E,2,10,1.0,-2.011,M,40.593,M,1.9,0123*6B\r\n
$GPGGA,091005.35,5703.3018460,N,00952.3545061,E,2,10,1.0,-2.008,M,40.593,M,1.9,0123*69\r\n
$GPGGA,091005.40,5703.3018860,N,00952.3544182,E,2,10,1.0,-2.003,M,40.593,M,1.9,0123*61\r\n
$GPGGA,091005.45,5703.3019232,N,00952.3543330,E,2,10,1.0,-2.006,M,40.593,M,2.1,0123*6A\r\n
$GPGGA,091005.50,5703.3019618,N,00952.3542437,E,2,10,1.0,-2.009,M,40.593,M,2.1,0123*6C\r\n
$GPGGA,091005.55,5703.3020032,N,00952.3541538,E,2,10,1.0,-2.008,M,40.593,M,2.1,0123*61\r\n
$GPGGA,091005.60,5703.3020432,N,00952.3540651,E,2,10,1.0,-2.007,M,40.593,M,2.1,0123*61\r\n
$GPGGA,091005.65,5703.3020849,N,00952.3539775,E,2,10,1.0,-2.003,M,40.593,M,2.3,0123*6B\r\n
$GPGGA,091005.70,5703.3021250,N,00952.3538873,E,2,10,1.0,-2.004,M,40.593,M,2.3,0123*63\r\n
$GPGGA,091005.75,5703.3021668,N,00952.3538011,E,2,10,1.0,-2.003,M,40.593,M,2.3,0123*62\r\n
$GPGGA,091005.80,5703.3022072,N,00952.3537142,E,2,10,1.0,-2.001,M,40.593,M,2.3,0123*6C\r\n
$GPGGA,091005.85,5703.3022445,N,00952.3536248,E,2,10,1.0,-2.002,M,40.593,M,2.6,0123*67\r\n
$GPGGA,091005.90,5703.3022851,N,00952.3535370,E,2,10,1.0,-2.001,M,40.593,M,2.6,0123*60\r\n
$GPGGA,091005.95,5703.3023229,N,00952.3534478,E,2,10,1.0,-2.007,M,40.593,M,2.6,0123*69\r\n
$GPGGA,091006.00,5703.3023649,N,00952.3533582,E,2,10,1.0,-2.011,M,40.593,M,2.6,0123*60\r\n
$GPGGA,091006.05,5703.3024072,N,00952.3532700,E,2,10,1.0,-2.008,M,40.593,M,2.8,0123*63\r\n
$GPGGA,091006.10,5703.3024474,N,00952.3531836,E,2,10,1.0,-2.004,M,40.593,M,2.8,0123*60\r\n
$GPGGA,091006.15,5703.3024872,N,00952.3530986,E,2,10,1.0,-2.001,M,40.593,M,2.8,0123*61\r\n
$GPGGA,091006.20,5703.3025285,N,00952.3530090,E,2,10,1.0,-2.001,M,40.593,M,2.8,0123*6A\r\n
$GPGGA,091006.25,5703.3025709,N,00952.3529184,E,2,10,1.0,-1.995,M,40.593,M,3.0,0123*6C\r\n
$GPGGA,091006.30,5703.3026087,N,00952.3528319,E,2,10,1.0,-1.991,M,40.593,M,3.0,0123*69\r\n
$GPGGA,091006.35,5703.3026470,N,00952.3527456,E,2,10,1.0,-1.988,M,40.593,M,3.0,0123*6B\r\n
$GPGGA,091006.40,5703.3026877,N,00952.3526586,E,2,10,1.0,-1.985,M,40.593,M,3.0,0123*62\r\n
$GPGGA,091006.45,5703.3027301,N,00952.3525699,E,2,10,1.0,-1.992,M,40.593,M,3.2,0123*66\r\n
$GPGGA,091006.50,5703.3027709,N,00952.3524818,E,2,10,1.0,-1.994,M,40.593,M,3.2,0123*6E\r\n
$GPGGA,091006.55,5703.3028072,N,00952.3523953,E,2,10,1.0,-1.996,M,40.593,M,3.2,0123*64\r\n
$GPGGA,091006.60,5703.3028477,N,00952.3523067,E,2,10,1.0,-1.994,M,40.593,M,3.2,0123*6F\r\n
$GPGGA,091006.65,5703.3028879,N,00952.3522205,E,2,10,1.0,-1.999,M,40.593,M,3.4,0123*64\r\n
$GPGGA,091006.70,5703.3029280,N,00952.3521349,E,2,10,1.0,-1.999,M,40.593,M,3.4,0123*67\r\n
$GPGGA,091006.75,5703.3029707,N,00952.3520464,E,2,10,1.0,-2.003,M,40.593,M,3.4,0123*68\r\n
$GPGGA,091006.80,5703.3030136,N,00952.3519566,E,2,10,1.0,-2.006,M,40.593,M,3.4,0123*62\r\n
$GPGGA,091006.85,5703.3030510,N,00952.3518689,E,2,10,1.0,-2.002,M,40.593,M,3.6,0123*62\r\n
$GPGGA,091006.90,5703.3030884,N,00952.3517830,E,2,10,1.0,-2.001,M,40.593,M,3.6,0123*66\r\n
$GPGGA,091006.95,5703.3031268,N,00952.3516938,E,2,10,1.0,-2.004,M,40.593,M,3.6,0123*67\r\n
$GPGGA,091007.00,5703.3031682,N,00952.3516064,E,2,10,1.0,-2.004,M,40.593,M,3.6,0123*6A\r\n
$GPGGA,091007.05,5703.3032100,N,00952.3515193,E,2,10,1.0,-2.001,M,40.593,M,3.8,0123*60\r\n
$GPGGA,091007.10,5703.3032531,N,00952.3514331,E,2,10,1.0,-2.000,M,40.593,M,3.8,0123*68\r\n
$GPGGA,091007.15,5703.3032946,N,00952.3513462,E,2,10,1.0,-1.999,M,40.593,M,3.8,0123*6D\r\n
$GPGGA,091007.20,5703.3033307,N,00952.3512590,E,2,10,1.0,-1.997,M,40.593,M,3.8,0123*66\r\n
$GPGGA,091007.25,5703.3033709,N,00952.3511703,E,2,10,1.0,-1.996,M,40.593,M,4.0,0123*6C\r\n
$GPGGA,091007.30,5703.3034120,N,00952.3510848,E,2,10,1.0,-1.997,M,40.593,M,4.0,0123*62\r\n
$GPGGA,091007.35,5703.3034515,N,00952.3509992,E,2,10,1.0,-1.995,M,40.593,M,4.0,0123*69\r\n
$GPGGA,091007.40,5703.3034907,N,00952.3509150,E,2,10,1.0,-1.994,M,40.593,M,4.0,0123*63\r\n
$GPGGA,091007.45,5703.3035347,N,00952.3508287,E,2,10,1.0,-1.994,M,40.593,M,0.9,0123*6C\r\n
$GPGGA,091007.50,5703.3035768,N,00952.3507404,E,2,10,1.0,-1.996,M,40.593,M,0.9,0123*61\r\n
$GPGGA,091007.55,5703.3036176,N,00952.3506512,E,2,10,1.0,-1.996,M,40.593,M,0.9,0123*69\r\n
$GPGGA,091007.60,5703.3036601,N,00952.3505663,E,2,10,1.0,-1.991,M,40.593,M,0.9,0123*69\r\n
$GPGGA,091007.65,5703.3036979,N,00952.3504818,E,2,10,1.0,-1.989,M,40.593,M,1.2,0123*6C\r\n
$GPGGA,091007.70,5703.3037391,N,00952.3503952,E,2,10,1.0,-1.988,M,40.593,M,1.2,0123*6C\r\n
$GPGGA,091007.75,5703.3037800,N,00952.3503092,E,2,10,1.0,-1.987,M,40.593,M,1.2,0123*60\r\n
$GPGGA,091007.80,5703.3038201,N,00952.3502208,E,2,10,1.0,-1.991,M,40.593,M,1.2,0123*69\r\n
$GPGGA,091007.85,5703.3038606,N,00952.3501350,E,2,10,1.0,-1.997,M,40.593,M,1.5,0123*61\r\n
$GPGGA,091007.90,5703.3039031,N,00952.3500496,E,2,10,1.0,-1.994,M,40.593,M,1.5,0123*69\r\n
$GPGGA,091007.95,5703.3039438,N,00952.3499628,E,2,10,1.0,-1.997,M,40.593,M,1.5,0123*64\r\n
$GPGGA,091008.00,5703.3039833,N,00952.3498776,E,2,10,1.0,-2.000,M,40.593,M,1.5,0123*6F\r\n
$GPGGA,091008.05,5703.3040235,N,00952.3497911,E,2,10,1.0,-1.995,M,40.593,M,1.7,0123*6C\r\n
$GPGGA,091008.10,5703.3040650,N,00952.3497034,E,2,10,1.0,-1.996,M,40.593,M,1.7,0123*62\r\n
$GPGGA,091008.15,5703.3041043,N,00952.3496165,E,2,10,1.0,-1.999,M,40.593,M,1.7,0123*69\r\n
$GPGGA,091008.20,5703.3041428,N,00952.3495278,E,2,10,1.0,-2.003,M,40.593,M,1.7,0123*63\r\n
$GPGGA,091008.25,5703.3041849,N,00952.3494425,E,2,10,1.0,-2.006,M,40.593,M,2.0,0123*63\r\n
$GPGGA,091008.30,5703.3042277,N,00952.3493578,E,2,10,1.0,-2.001,M,40.593,M,2.0,0123*6A\r\n
$GPGGA,091008.35,5703.3042678,N,00952.3492681,E,2,10,1.0,-2.001,M,40.593,M,2.0,0123*60\r\n
$GPGGA,091008.40,5703.3043080,N,00952.3491858,E,2,10,1.0,-2.005,M,40.593,M,2.0,0123*6F\r\n
$GPGGA,091008.45,5703.3043497,N,00952.3490979,E,2,10,1.0,-2.001,M,40.593,M,0.8,0123*65\r\n
$GPGGA,091008.50,5703.3043891,N,00952.3490110,E,2,10,1.0,-2.001,M,40.593,M,0.8,0123*6C\r\n
$GPGGA,091008.55,5703.3044297,N,00952.3489250,E,2,10,1.0,-1.996,M,40.593,M,0.8,0123*69\r\n
$GPGGA,091008.60,5703.3044737,N,00952.3488352,E,2,10,1.0,-1.996,M,40.593,M,0.8,0123*62\r\n
$GPGGA,091008.65,5703.3045159,N,00952.3487472,E,2,10,1.0,-1.997,M,40.593,M,1.1,0123*6B\r\n
$GPGGA,091008.70,5703.3045573,N,00952.3486626,E,2,10,1.0,-1.996,M,40.593,M,1.1,0123*60\r\n
$GPGGA,091008.75,5703.3045970,N,00952.3485773,E,2,10,1.0,-1.993,M,40.593,M,1.1,0123*6D\r\n
$GPGGA,091008.80,5703.3046401,N,00952.3484893,E,2,10,1.0,-1.992,M,40.593,M,1.1,0123*6E\r\n
$GPGGA,091008.85,5703.3046841,N,00952.3484025,E,2,10,1.0,-1.987,M,40.593,M,1.4,0123*67\r\n
$GPGGA,091008.90,5703.3047257,N,00952.3483150,E,2,10,1.0,-1.984,M,40.593,M,1.4,0123*68\r\n
$GPGGA,091008.95,5703.3047658,N,00952.3482264,E,2,10,1.0,-1.991,M,40.593,M,1.4,0123*67\r\n
$GPGGA,091009.00,5703.3048072,N,00952.3481399,E,2,10,1.0,-1.997,M,40.593,M,1.4,0123*6D\r\n
$GPGGA,091009.05,5703.3048476,N,00952.3480548,E,2,10,1.0,-2.002,M,40.593,M,1.6,0123*67\r\n
$GPGGA,091009.10,5703.3048900,N,00952.3479671,E,2,10,1.0,-2.001,M,40.593,M,1.6,0123*63\r\n
$GPGGA,091009.15,5703.3049295,N,00952.3478804,E,2,10,1.0,-2.001,M,40.593,M,1.6,0123*6D\r\n
$GPGGA,091009.20,5703.3049694,N,00952.3477971,E,2,10,1.0,-2.003,M,40.593,M,1.6,0123*60\r\n
$GPGGA,091009.25,5703.3050136,N,00952.3477093,E,2,10,1.0,-1.990,M,40.593,M,1.9,0123*68\r\n
$GPGGA,091009.30,5703.3050555,N,00952.3476228,E,2,10,1.0,-1.985,M,40.593,M,1.9,0123*6A\r\n
$GPGGA,091009.35,5703.3050981,N,00952.3475374,E,2,10,1.0,-1.988,M,40.593,M,1.9,0123*6C\r\n
$GPGGA,091009.40,5703.3051387,N,00952.3474494,E,2,10,1.0,-1.990,M,40.593,M,1.9,0123*62\r\n
$GPGGA,091009.45,5703.3051813,N,00952.3473609,E,2,10,1.0,-1.992,M,40.593,M,2.1,0123*69\r\n
$GPGGA,091009.50,5703.3052216,N,00952.3472732,E,2,10,1.0,-1.992,M,40.593,M,2.1,0123*69\r\n
$GPGGA,091009.55,5703.3052639,N,00952.3471876,E,2,10,1.0,-1.992,M,40.593,M,2.1,0123*69\r\n
$GPGGA,091009.60,5703.3053063,N,00952.3471019,E,2,10,1.0,-1.991,M,40.593,M,2.1,0123*65\r\n
$GPGGA,091009.65,5703.3053506,N,00952.3470153,E,2,10,1.0,-1.990,M,40.593,M,2.3,0123*6B\r\n
$GPGGA,091009.70,5703.3053911,N,00952.3469266,E,2,10,1.0,-1.991,M,40.593,M,2.3,0123*69\r\n
$GPGGA,091009.75,5703.3054334,N,00952.3468396,E,2,10,1.0,-1.991,M,40.593,M,2.3,0123*69\r\n
$GPGGA,091009.80,5703.3054753,N,00952.3467529,E,2,10,1.0,-1.995,M,40.593,M,2.3,0123*6F\r\n
$GPGGA,091009.85,5703.3055156,N,00952.3466679,E,2,10,1.0,-1.998,M,40.593,M,2.6,0123*67\r\n
$GPGGA,091009.90,5703.3055573,N,00952.3465843,E,2,10,1.0,-1.994,M,40.593,M,2.6,0123*68\r\n
$GPGGA,091009.95,5703.3055992,N,00952.3464967,E,2,10,1.0,-1.992,M,40.593,M,2.6,0123*6E\r\n
$GPGGA,091010.00,5703.3056380,N,00952.3464085,E,2,10,1.0,-1.996,M,40.593,M,2.6,0123*61\r\n
$GPGGA,091010.05,5703.3056811,N,00952.3463205,E,2,10,1.0,-1.992,M,40.593,M,2.8,0123*60\r\n
$GPGGA,091010.10,5703.3057246,N,00952.3462355,E,2,10,1.0,-1.991,M,40.593,M,2.8,0123*6B\r\n
$GPGGA,091010.15,5703.3057648,N,00952.3461496,E,2,10,1.0,-1.995,M,40.593,M,2.8,0123*6B\r\n
$GPGGA,091010.20,5703.3058061,N,00952.3460619,E,2,10,1.0,-1.991,M,40.593,M,2.8,0123*6F\r\n
$GPGGA,091010.25,5703.3058504,N,00952.3459750,E,2,10,1.0,-1.988,M,40.593,M,3.0,0123*6B\r\n
$GPGGA,091010.30,5703.3058922,N,00952.3458912,E,2,10,1.0,-1.992,M,40.593,M,3.0,0123*65\r\n
$GPGGA,091010.35,5703.3059347,N,00952.3458056,E,2,10,1.0,-1.991,M,40.593,M,3.0,0123*62\r\n
$GPGGA,091010.40,5703.3059749,N,00952.3457217,E,2,10,1.0,-1.993,M,40.593,M,3.0,0123*60\r\n
$GPGGA,091010.45,5703.3060163,N,00952.3456392,E,2,10,1.0,-1.997,M,40.593,M,3.2,0123*6A\r\n
$GPGGA,091010.50,5703.3060562,N,00952.3455587,E,2,10,1.0,-1.998,M,40.593,M,3.2,0123*65\r\n
$GPGGA,091010.55,5703.3060961,N,00952.3454798,E,2,10,1.0,-2.002,M,40.593,M,3.2,0123*6B\r\n
$GPGGA,091010.60,5703.3061360,N,00952.3453987,E,2,10,1.0,-2.011,M,40.593,M,3.2,0123*62\r\n
$GPGGA,091010.65,5703.3061716,N,00952.3453197,E,2,10,1.0,-2.024,M,40.593,M,3.4,0123*6B\r\n
$GPGGA,091010.70,5703.3062084,N,00952.3452422,E,2,10,1.0,-2.030,M,40.593,M,3.4,0123*6F\r\n
$GPGGA,091010.75,5703.3062455,N,00952.3451666,E,2,10,1.0,-2.036,M,40.593,M,3.4,0123*65\r\n
$GPGGA,091010.80,5703.3062869,N,00952.3450919,E,2,10,1.0,-2.037,M,40.593,M,3.4,0123*6B\r\n
$GPGGA,091010.85,5703.3063242,N,00952.3450174,E,2,10,1.0,-2.039,M,40.593,M,3.6,0123*63\r\n
$GPGGA,091010.90,5703.3063613,N,00952.3449411,E,2,10,1.0,-2.045,M,40.593,M,3.6,0123*62\r\n
$GPGGA,091010.95,5703.3063987,N,00952.3448671,E,2,10,1.0,-2.049,M,40.593,M,3.6,0123*6C\r\n
$GPGGA,091011.00,5703.3064340,N,00952.3447929,E,2,10,1.0,-2.055,M,40.593,M,3.6,0123*67\r\n
$GPGGA,091011.05,5703.3064691,N,00952.3447196,E,2,10,1.0,-2.059,M,40.593,M,3.8,0123*65\r\n
$GPGGA,091011.10,5703.3065056,N,00952.3446465,E,2,10,1.0,-2.061,M,40.593,M,3.8,0123*6E\r\n
$GPGGA,091011.15,5703.3065431,N,00952.3445763,E,2,10,1.0,-2.061,M,40.593,M,3.8,0123*68\r\n
$GPGGA,091011.20,5703.3065794,N,00952.3445031,E,2,10,1.0,-2.060,M,40.593,M,3.8,0123*63\r\n
$GPGGA,091011.25,5703.3066121,N,00952.3444320,E,2,10,1.0,-2.062,M,40.593,M,4.0,0123*62\r\n
$GPGGA,091011.30,5703.3066495,N,00952.3443606,E,2,10,1.0,-2.061,M,40.593,M,4.0,0123*69\r\n
$GPGGA,091011.35,5703.3066858,N,00952.3442935,E,2,10,1.0,-2.065,M,40.593,M,4.0,0123*6B\r\n
$GPGGA,091011.40,5703.3067191,N,00952.3442226,E,2,10,1.0,-2.066,M,40.593,M,4.0,0123*6E\r\n
$GPGGA,091011.45,5703.3067524,N,00952.3441514,E,2,10,1.0,-2.066,M,40.593,M,2.4,0123*66\r\n
$GPGGA,091011.50,5703.3067866,N,00952.3440833,E,2,10,1.0,-2.069,M,40.593,M,2.4,0123*6F\r\n
$GPGGA,091011.55,5703.3068212,N,00952.3440143,E,2,10,1.0,-2.072,M,40.593,M,2.4,0123*68\r\n
$GPGGA,091011.60,5703.3068556,N,00952.3439423,E,2,10,1.0,-2.069,M,40.593,M,2.4,0123*6E\r\n
$GPGGA,091011.65,5703.3068893,N,00952.3438704,E,2,10,1.0,-2.072,M,40.593,M,2.7,0123*61\r\n
$GPGGA,091011.70,5703.3069244,N,00952.3438035,E,2,10,1.0,-2.071,M,40.593,M,2.7,0123*62\r\n
$GPGGA,091011.75,5703.3069580,N,00952.3437368,E,2,10,1.0,-2.066,M,40.593,M,2.7,0123*6A\r\n
$GPGGA,091011.80,5703.3069887,N,00952.3436701,E,2,10,1.0,-2.066,M,40.593,M,2.7,0123*60\r\n
$GPGGA,091011.85,5703.3070201,N,00952.3435995,E,2,10,1.0,-2.059,M,40.593,M,2.9,0123*6B\r\n
$GPGGA,091011.90,5703.3070541,N,00952.3435295,E,2,10,1.0,-2.062,M,40.593,M,2.9,0123*6F\r\n
$GPGGA,091011.95,5703.3070881,N,00952.3434628,E,2,10,1.0,-2.057,M,40.593,M,2.9,0123*6E\r\n
$GPGGA,091012.00,5703.3071227,N,00952.3433948,E,2,10,1.0,-2.052,M,40.593,M,2.9,0123*6D\r\n
$GPGGA,091012.05,5703.3071552,N,00952.3433264,E,2,10,1.0,-2.057,M,40.593,M,3.2,0123*67\r\n
$GPGGA,091012.10,5703.3071862,N,00952.3432595,E,2,10,1.0,-2.057,M,40.593,M,3.2,0123*65\r\n
$GPGGA,091012.15,5703.3072189,N,00952.3431923,E,2,10,1.0,-2.057,M,40.593,M,3.2,0123*6D\r\n
$GPGGA,091012.20,5703.3072515,N,00952.3431252,E,2,10,1.0,-2.060,M,40.593,M,3.2,0123*63\r\n
$GPGGA,091012.25,5703.3072849,N,00952.3430588,E,2,10,1.0,-2.057,M,40.593,M,3.4,0123*61\r\n
$GPGGA,091012.30,5703.3073172,N,00952.3429935,E,2,10,1.0,-2.057,M,40.593,M,3.4,0123*67\r\n
$GPGGA,091012.35,5703.3073483,N,00952.3429251,E,2,10,1.0,-2.053,M,40.593,M,3.4,0123*64\r\n
$GPGGA,091012.40,5703.3073789,N,00952.3428575,E,2,10,1.0,-2.055,M,40.593,M,3.4,0123*69\r\n
$GPGGA,091012.45,5703.3074132,N,00952.3427931,E,2,10,1.0,-2.047,M,40.593,M,2.2,0123*6A\r\n
$GPGGA,091012.50,5703.3074459,N,00952.3427293,E,2,10,1.0,-2.044,M,40.593,M,2.2,0123*66\r\n
$GPGGA,091012.55,5703.3074767,N,00952.3426637,E,2,10,1.0,-2.042,M,40.593,M,2.2,0123*60\r\n
$GPGGA,091012.60,5703.3075066,N,00952.3425971,E,2,10,1.0,-2.040,M,40.593,M,2.2,0123*6D\r\n
$GPGGA,091012.65,5703.3075376,N,00952.3425312,E,2,10,1.0,-2.043,M,40.593,M,2.4,0123*60\r\n
$GPGGA,091012.70,5703.3075675,N,00952.3424659,E,2,10,1.0,-2.046,M,40.593,M,2.4,0123*6C\r\n
$GPGGA,091012.75,5703.3075975,N,00952.3423989,E,2,10,1.0,-2.042,M,40.593,M,2.4,0123*67\r\n
$GPGGA,091012.80,5703.3076297,N,00952.3423326,E,2,10,1.0,-2.038,M,40.593,M,2.4,0123*6B\r\n
$GPGGA,091012.85,5703.3076589,N,00952.3422691,E,2,10,1.0,-2.049,M,40.593,M,2.7,0123*6B\r\n
$GPGGA,091012.90,5703.3076904,N,00952.3422035,E,2,10,1.0,-2.047,M,40.593,M,2.7,0123*60\r\n
$GPGGA,091012.95,5703.3077204,N,00952.3421409,E,2,10,1.0,-2.046,M,40.593,M,2.7,0123*66\r\n
$GPGGA,091013.00,5703.3077537,N,00952.3420800,E,2,10,1.0,-2.045,M,40.593,M,2.7,0123*6B\r\n
$GPGGA,091013.05,5703.3077875,N,00952.3420139,E,2,10,1.0,-2.031,M,40.593,M,2.9,0123*6B\r\n
$GPGGA,091013.10,5703.3078189,N,00952.3419498,E,2,10,1.0,-2.026,M,40.593,M,2.9,0123*68\r\n
$GPGGA,091013.15,5703.3078477,N,00952.3418886,E,2,10,1.0,-2.023,M,40.593,M,2.9,0123*6E\r\n
$GPGGA,091013.20,5703.3078746,N,00952.3418260,E,2,10,1.0,-2.024,M,40.593,M,2.9,0123*6C\r\n
$GPGGA,091013.25,5703.3079038,N,00952.3417618,E,2,10,1.0,-2.030,M,40.593,M,3.1,0123*6E\r\n
$GPGGA,091013.30,5703.3079348,N,00952.3417003,E,2,10,1.0,-2.033,M,40.593,M,3.1,0123*61\r\n
$GPGGA,091013.35,5703.3079644,N,00952.3416395,E,2,10,1.0,-2.030,M,40.593,M,3.1,0123*63\r\n
$GPGGA,091013.40,5703.3079936,N,00952.3415792,E,2,10,1.0,-2.025,M,40.593,M,3.1,0123*6F\r\n
$GPGGA,091013.45,5703.3080222,N,00952.3415196,E,2,10,1.0,-2.024,M,40.593,M,2.1,0123*60\r\n
$GPGGA,091013.50,5703.3080526,N,00952.3414594,E,2,10,1.0,-2.025,M,40.593,M,2.1,0123*61\r\n
$GPGGA,091013.55,5703.3080837,N,00952.3413961,E,2,10,1.0,-2.026,M,40.593,M,2.1,0123*6B\r\n
$GPGGA,091013.60,5703.3081139,N,00952.3413341,E,2,10,1.0,-2.023,M,40.593,M,2.1,0123*66\r\n
$GPGGA,091013.65,5703.3081404,N,00952.3412754,E,2,10,1.0,-2.027,M,40.593,M,2.3,0123*6F\r\n
$GPGGA,091013.70,5703.3081680,N,00952.3412158,E,2,10,1.0,-2.029,M,40.593,M,2.3,0123*61\r\n
$GPGGA,091013.75,5703.3081956,N,00952.3411568,E,2,10,1.0,-2.027,M,40.593,M,2.3,0123*6A\r\n
$GPGGA,091013.80,5703.3082258,N,00952.3410992,E,2,10,1.0,-2.027,M,40.593,M,2.3,0123*6E\r\n
$GPGGA,091013.85,5703.3082544,N,00952.3410379,E,2,10,1.0,-2.028,M,40.593,M,2.6,0123*64\r\n
$GPGGA,091013.90,5703.3082840,N,00952.3409799,E,2,10,1.0,-2.028,M,40.593,M,2.6,0123*6B\r\n
$GPGGA,091013.95,5703.3083118,N,00952.3409226,E,2,10,1.0,-2.034,M,40.593,M,2.6,0123*67\r\n
$GPGGA,091014.00,5703.3083411,N,00952.3408666,E,2,10,1.0,-2.032,M,40.593,M,2.6,0123*67\r\n
$GPGGA,091014.05,5703.3083701,N,00952.3408108,E,2,10,1.0,-2.029,M,40.593,M,2.8,0123*6B\r\n
$GPGGA,091014.10,5703.3083999,N,00952.3407540,E,2,10,1.0,-2.025,M,40.593,M,2.8,0123*6B\r\n
$GPGGA,091014.15,5703.3084290,N,00952.3406981,E,2,10,1.0,-2.023,M,40.593,M,2.8,0123*6D\r\n
$GPGGA,091014.20,5703.3084576,N,00952.3406396,E,2,10,1.0,-2.027,M,40.593,M,2.8,0123*6C\r\n
$GPGGA,091014.25,5703.3084835,N,00952.3405835,E,2,10,1.0,-2.021,M,40.593,M,3.0,0123*6D\r\n
$GPGGA,091014.30,5703.3085086,N,00952.3405289,E,2,10,1.0,-2.022,M,40.593,M,3.0,0123*66\r\n
$GPGGA,091014.35,5703.3085368,N,00952.3404757,E,2,10,1.0,-2.024,M,40.593,M,3.0,0123*61\r\n
$GPGGA,091014.40,5703.3085652,N,00952.3404212,E,2,10,1.0,-2.023,M,40.593,M,3.0,0123*6C\r\n
$GPGGA,091014.45,5703.3085930,N,00952.3403653,E,2,10,1.0,-2.028,M,40.593,M,3.2,0123*6D\r\n
$GPGGA,091014.50,5703.3086231,N,00952.3403119,E,2,10,1.0,-2.028,M,40.593,M,3.2,0123*69\r\n
$GPGGA,091014.55,5703.3086499,N,00952.3402588,E,2,10,1.0,-2.030,M,40.593,M,3.2,0123*6C\r\n
$GPGGA,091014.60,5703.3086779,N,00952.3402056,E,2,10,1.0,-2.026,M,40.593,M,3.2,0123*66\r\n
$GPGGA,091014.65,5703.3087042,N,00952.3401529,E,2,10,1.0,-2.026,M,40.593,M,3.4,0123*65\r\n
$GPGGA,091014.70,5703.3087289,N,00952.3401002,E,2,10,1.0,-2.027,M,40.593,M,3.4,0123*69\r\n
$GPGGA,091014.75,5703.3087561,N,00952.3400475,E,2,10,1.0,-2.026,M,40.593,M,3.4,0123*69\r\n
$GPGGA,091014.80,5703.3087862,N,00952.3399944,E,2,10,1.0,-2.025,M,40.593,M,3.4,0123*66\r\n
$GPGGA,091014.85,5703.3088129,N,00952.3399416,E,2,10,1.0,-2.021,M,40.593,M,3.6,0123*66\r\n
$GPGGA,091014.90,5703.3088388,N,00952.3398885,E,2,10,1.0,-2.019,M,40.593,M,3.6,0123*67\r\n
$GPGGA,091014.95,5703.3088660,N,00952.3398369,E,2,10,1.0,-2.022,M,40.593,M,3.6,0123*60\r\n
$GPGGA,091015.00,5703.3088941,N,00952.3397847,E,2,10,1.0,-2.021,M,40.593,M,3.6,0123*6A\r\n
$GPGGA,091015.05,5703.3089212,N,00952.3397350,E,2,10,1.0,-2.025,M,40.593,M,3.8,0123*64\r\n
$GPGGA,091015.10,5703.3089509,N,00952.3396862,E,2,10,1.0,-2.021,M,40.593,M,3.8,0123*62\r\n
$GPGGA,091015.15,5703.3089789,N,00952.3396363,E,2,10,1.0,-2.024,M,40.593,M,3.8,0123*62\r\n
$GPGGA,091015.20,5703.3090047,N,00952.3395820,E,2,10,1.0,-2.033,M,40.593,M,3.8,0123*60\r\n
$GPGGA,091015.25,5703.3090313,N,00952.3395318,E,2,10,1.0,-2.033,M,40.593,M,4.0,0123*68\r\n
$GPGGA,091015.30,5703.3090578,N,00952.3394830,E,2,10,1.0,-2.034,M,40.593,M,4.0,0123*60\r\n
$GPGGA,091015.35,5703.3090836,N,00952.3394335,E,2,10,1.0,-2.032,M,40.593,M,4.0,0123*6A\r\n
$GPGGA,091015.40,5703.3091099,N,00952.3393851,E,2,10,1.0,-2.030,M,40.593,M,4.0,0123*68\r\n
$GPGGA,091015.45,5703.3091370,N,00952.3393358,E,2,10,1.0,-2.023,M,40.593,M,2.4,0123*6B\r\n
$GPGGA,091015.50,5703.3091649,N,00952.3392866,E,2,10,1.0,-2.024,M,40.593,M,2.4,0123*60\r\n
$GPGGA,091015.55,5703.3091945,N,00952.3392393,E,2,10,1.0,-2.020,M,40.593,M,2.4,0123*63\r\n
$GPGGA,091015.60,5703.3092219,N,00952.3391917,E,2,10,1.0,-2.021,M,40.593,M,2.4,0123*60\r\n
$GPGGA,091015.65,5703.3092474,N,00952.3391431,E,2,10,1.0,-2.027,M,40.593,M,2.7,0123*64\r\n
$GPGGA,091015.70,5703.3092738,N,00952.3390956,E,2,10,1.0,-2.028,M,40.593,M,2.7,0123*69\r\n
$GPGGA,091015.75,5703.3093010,N,00952.3390488,E,2,10,1.0,-2.027,M,40.593,M,2.7,0123*61\r\n
$GPGGA,091015.80,5703.3093275,N,00952.3389991,E,2,10,1.0,-2.025,M,40.593,M,2.7,0123*65\r\n
$GPGGA,091015.85,5703.3093531,N,00952.3389515,E,2,10,1.0,-2.028,M,40.593,M,2.9,0123*64\r\n
$GPGGA,091015.90,5703.3093794,N,00952.3389039,E,2,10,1.0,-2.032,M,40.593,M,2.9,0123*6D\r\n
$GPGGA,091015.95,5703.3094083,N,00952.3388580,E,2,10,1.0,-2.033,M,40.593,M,2.9,0123*69\r\n
$GPGGA,091016.00,5703.3094354,N,00952.3388133,E,2,10,1.0,-2.030,M,40.593,M,2.9,0123*60\r\n
$GPGGA,091016.05,5703.3094609,N,00952.3387655,E,2,10,1.0,-2.025,M,40.593,M,3.2,0123*6E\r\n
$GPGGA,091016.10,5703.3094868,N,00952.3387186,E,2,10,1.0,-2.027,M,40.593,M,3.2,0123*68\r\n
$GPGGA,091016.15,5703.3095137,N,00952.3386741,E,2,10,1.0,-2.030,M,40.593,M,3.2,0123*65\r\n
$GPGGA,091016.20,5703.3095432,N,00952.3386244,E,2,10,1.0,-2.025,M,40.593,M,3.2,0123*67\r\n
$GPGGA,091016.25,5703.3095725,N,00952.3385781,E,2,10,1.0,-2.021,M,40.593,M,3.4,0123*6A\r\n
$GPGGA,091016.30,5703.3095994,N,00952.3385354,E,2,10,1.0,-2.023,M,40.593,M,3.4,0123*64\r\n
$GPGGA,091016.35,5703.3096264,N,00952.3384907,E,2,10,1.0,-2.022,M,40.593,M,3.4,0123*6A\r\n
$GPGGA,091016.40,5703.3096528,N,00952.3384436,E,2,10,1.0,-2.023,M,40.593,M,3.4,0123*69\r\n
$GPGGA,091016.45,5703.3096788,N,00952.3383979,E,2,10,1.0,-2.028,M,40.593,M,2.2,0123*69\r\n
$GPGGA,091016.50,5703.3097055,N,00952.3383562,E,2,10,1.0,-2.026,M,40.593,M,2.2,0123*63\r\n
$GPGGA,091016.55,5703.3097331,N,00952.3383099,E,2,10,1.0,-2.025,M,40.593,M,2.2,0123*65\r\n
$GPGGA,091016.60,5703.3097597,N,00952.3382637,E,2,10,1.0,-2.023,M,40.593,M,2.2,0123*6C\r\n
$GPGGA,091016.65,5703.3097874,N,00952.3382208,E,2,10,1.0,-2.025,M,40.593,M,2.4,0123*61\r\n
$GPGGA,091016.70,5703.3098148,N,00952.3381761,E,2,10,1.0,-2.026,M,40.593,M,2.4,0123*66\r\n
$GPGGA,091016.75,5703.3098403,N,00952.3381313,E,2,10,1.0,-2.025,M,40.593,M,2.4,0123*6B\r\n
$GPGGA,091016.80,5703.3098670,N,00952.3380857,E,2,10,1.0,-2.023,M,40.593,M,2.4,0123*6B\r\n
$GPGGA,091016.85,5703.3098947,N,00952.3380431,E,2,10,1.0,-2.027,M,40.593,M,2.7,0123*6E\r\n
$GPGGA,091016.90,5703.3099212,N,00952.3379990,E,2,9,1.0,-2.032,M,40.593,M,2.7,0123*5C\r\n
$GPGGA,091016.95,5703.3099472,N,00952.3379567,E,2,9,1.0,-2.030,M,40.593,M,2.7,0123*5F\r\n
$GPGGA,091017.00,5703.3099757,N,00952.3379160,E,2,9,1.0,-2.029,M,40.593,M,2.7,0123*5D\r\n
$GPGGA,091017.05,5703.3100040,N,00952.3378738,E,2,9,1.0,-2.017,M,40.593,M,2.9,0123*51\r\n
$GPGGA,091017.10,5703.3100321,N,00952.3378304,E,2,9,1.0,-2.017,M,40.593,M,2.9,0123*5A\r\n
$GPGGA,091017.15,5703.3100582,N,00952.3377874,E,2,9,1.0,-2.015,M,40.593,M,2.9,0123*51\r\n
$GPGGA,091017.20,5703.3100848,N,00952.3377449,E,2,9,1.0,-2.012,M,40.593,M,2.9,0123*59\r\n
$GPGGA,091017.25,5703.3101110,N,00952.3377013,E,2,9,1.0,-2.020,M,40.593,M,3.1,0123*5A\r\n
$GPGGA,091017.30,5703.3101398,N,00952.3376589,E,2,9,1.0,-2.018,M,40.593,M,3.1,0123*50\r\n
$GPGGA,091017.35,5703.3101680,N,00952.3376151,E,2,9,1.0,-2.020,M,40.593,M,3.1,0123*53\r\n
$GPGGA,091017.40,5703.3101930,N,00952.3375752,E,2,9,1.0,-2.023,M,40.593,M,3.1,0123*50\r\n
$GPGGA,091017.45,5703.3102213,N,00952.3375335,E,2,10,1.0,-2.017,M,40.593,M,2.1,0123*67\r\n
$GPGGA,091017.50,5703.3102497,N,00952.3374929,E,2,10,1.0,-2.014,M,40.593,M,2.1,0123*6C\r\n
$GPGGA,091017.55,5703.3102745,N,00952.3374539,E,2,10,1.0,-2.010,M,40.593,M,2.1,0123*6C\r\n
$GPGGA,091017.60,5703.3102980,N,00952.3374124,E,2,10,1.0,-2.012,M,40.593,M,2.1,0123*67\r\n
$GPGGA,091017.65,5703.3103238,N,00952.3373699,E,2,10,1.0,-2.016,M,40.593,M,2.3,0123*6B\r\n
$GPGGA,091017.70,5703.3103503,N,00952.3373296,E,2,10,1.0,-2.018,M,40.593,M,2.3,0123*65\r\n
$GPGGA,091017.75,5703.3103770,N,00952.3372868,E,2,10,1.0,-2.018,M,40.593,M,2.3,0123*6C\r\n
$GPGGA,091017.80,5703.3104049,N,00952.3372462,E,2,10,1.0,-2.013,M,40.593,M,2.3,0123*61\r\n
$GPGGA,091017.85,5703.3104329,N,00952.3372064,E,2,10,1.0,-2.014,M,40.593,M,2.6,0123*61\r\n
$GPGGA,091017.90,5703.3104580,N,00952.3371672,E,2,10,1.0,-2.015,M,40.593,M,2.6,0123*63\r\n
$GPGGA,091017.95,5703.3104841,N,00952.3371251,E,2,10,1.0,-2.016,M,40.593,M,2.6,0123*60\r\n
$GPGGA,091018.00,5703.3105098,N,00952.3370848,E,2,10,1.0,-2.016,M,40.593,M,2.6,0123*6D\r\n
$GPGGA,091018.05,5703.3105356,N,00952.3370465,E,2,10,1.0,-2.012,M,40.593,M,2.8,0123*60\r\n
$GPGGA,091018.10,5703.3105640,N,00952.3370049,E,2,10,1.0,-2.011,M,40.593,M,2.8,0123*6F\r\n
$GPGGA,091018.15,5703.3105919,N,00952.3369638,E,2,10,1.0,-2.010,M,40.593,M,2.8,0123*60\r\n
$GPGGA,091018.20,5703.3106175,N,00952.3369252,E,2,10,1.0,-2.012,M,40.593,M,2.8,0123*6D\r\n
$GPGGA,091018.25,5703.3106428,N,00952.3368877,E,2,10,1.0,-2.013,M,40.593,M,3.0,0123*61\r\n
$GPGGA,091018.30,5703.3106670,N,00952.3368491,E,2,10,1.0,-2.013,M,40.593,M,3.0,0123*6E\r\n
$GPGGA,091018.35,5703.3106913,N,00952.3368099,E,2,10,1.0,-2.012,M,40.593,M,3.0,0123*6C\r\n
$GPGGA,091018.40,5703.3107175,N,00952.3367664,E,2,10,1.0,-2.014,M,40.593,M,3.0,0123*6A\r\n
$GPGGA,091018.45,5703.3107425,N,00952.3367273,E,2,10,1.0,-2.017,M,40.593,M,0.9,0123*64\r\n
$GPGGA,091018.50,5703.3107700,N,00952.3366927,E,2,10,1.0,-2.016,M,40.593,M,0.9,0123*6E\r\n
$GPGGA,091018.55,5703.3107996,N,00952.3366558,E,2,10,1.0,-2.012,M,40.593,M,0.9,0123*6A\r\n
$GPGGA,091018.60,5703.3108249,N,00952.3366160,E,2,10,1.0,-2.012,M,40.593,M,0.9,0123*65\r\n
$GPGGA,091018.65,5703.3108472,N,00952.3365780,E,2,10,1.0,-2.017,M,40.593,M,1.3,0123*6B\r\n
$GPGGA,091018.70,5703.3108732,N,00952.3365384,E,2,10,1.0,-2.015,M,40.593,M,1.3,0123*6A\r\n
$GPGGA,091018.75,5703.3108991,N,00952.3364997,E,2,10,1.0,-2.015,M,40.593,M,1.3,0123*61\r\n
$GPGGA,091018.80,5703.3109247,N,00952.3364621,E,2,10,1.0,-2.020,M,40.593,M,1.3,0123*6E\r\n
$GPGGA,091018.85,5703.3109507,N,00952.3364231,E,2,10,1.0,-2.020,M,40.593,M,1.6,0123*68\r\n
$GPGGA,091018.90,5703.3109766,N,00952.3363825,E,2,10,1.0,-2.021,M,40.593,M,1.6,0123*60\r\n
$GPGGA,091018.95,5703.3110020,N,00952.3363433,E,2,10,1.0,-2.023,M,40.593,M,1.6,0123*61\r\n
$GPGGA,091019.00,5703.3110266,N,00952.3363056,E,2,10,1.0,-2.023,M,40.593,M,1.6,0123*6B\r\n
$GPGGA,091019.05,5703.3110497,N,00952.3362674,E,2,10,1.0,-2.023,M,40.593,M,1.9,0123*6E\r\n
$GPGGA,091019.10,5703.3110755,N,00952.3362304,E,2,10,1.0,-2.023,M,40.593,M,1.9,0123*65\r\n
$GPGGA,091019.15,5703.3110998,N,00952.3361914,E,2,10,1.0,-2.027,M,40.593,M,1.9,0123*63\r\n
$GPGGA,091019.20,5703.3111246,N,00952.3361547,E,2,10,1.0,-2.030,M,40.593,M,1.9,0123*60\r\n
$GPGGA,091019.25,5703.3111533,N,00952.3361175,E,2,10,1.0,-2.029,M,40.593,M,2.2,0123*65\r\n
$GPGGA,091019.30,5703.3111794,N,00952.3360800,E,2,10,1.0,-2.030,M,40.593,M,2.2,0123*6C\r\n
$GPGGA,091019.35,5703.3112041,N,00952.3360407,E,2,10,1.0,-2.026,M,40.593,M,2.2,0123*69\r\n
$GPGGA,091019.40,5703.3112281,N,00952.3360033,E,2,10,1.0,-2.029,M,40.593,M,2.2,0123*69\r\n
$GPGGA,091019.45,5703.3112520,N,00952.3359666,E,2,10,1.0,-2.032,M,40.593,M,0.9,0123*6F\r\n
$GPGGA,091019.50,5703.3112766,N,00952.3359290,E,2,10,1.0,-2.032,M,40.593,M,0.9,0123*66\r\n
$GPGGA,091019.55,5703.3113041,N,00952.3358914,E,2,10,1.0,-2.034,M,40.593,M,0.9,0123*60\r\n
$GPGGA,091019.60,5703.3113303,N,00952.3358542,E,2,10,1.0,-2.034,M,40.593,M,0.9,0123*6C\r\n
$GPGGA,091019.65,5703.3113560,N,00952.3358161,E,2,9,1.0,-2.029,M,40.593,M,1.2,0123*51\r\n
$GPGGA,091019.70,5703.3113831,N,00952.3357791,E,2,9,1.0,-2.023,M,40.593,M,1.2,0123*50\r\n
$GPGGA,091019.75,5703.3114100,N,00952.3357412,E,2,9,1.0,-2.019,M,40.593,M,1.2,0123*58\r\n
$GPGGA,091019.80,5703.3114360,N,00952.3357025,E,2,9,1.0,-2.025,M,40.593,M,1.2,0123*59\r\n
$GPGGA,091019.85,5703.3114633,N,00952.3356635,E,2,9,1.0,-2.019,M,40.593,M,1.5,0123*51\r\n
$GPGGA,091019.90,5703.3114870,N,00952.3356266,E,2,9,1.0,-2.017,M,40.593,M,1.5,0123*50\r\n
$GPGGA,091019.95,5703.3115109,N,00952.3355889,E,2,9,1.0,-2.015,M,40.593,M,1.5,0123*59\r\n
$GPGGA,091020.00,5703.3115362,N,00952.3355494,E,2,9,1.0,-2.017,M,40.593,M,1.5,0123*52\r\n
$GPGGA,091020.05,5703.3115618,N,00952.3355117,E,2,10,1.0,-2.017,M,40.593,M,1.7,0123*6B\r\n
$GPGGA,091020.10,5703.3115868,N,00952.3354747,E,2,10,1.0,-2.016,M,40.593,M,1.7,0123*65\r\n
$GPGGA,091020.15,5703.3116128,N,00952.3354381,E,2,10,1.0,-2.017,M,40.593,M,1.7,0123*61\r\n
$GPGGA,091020.20,5703.3116378,N,00952.3354025,E,2,10,1.0,-2.015,M,40.593,M,1.7,0123*6F\r\n
$GPGGA,091020.25,5703.3116619,N,00952.3353663,E,2,10,1.0,-2.019,M,40.593,M,2.0,0123*63\r\n
$GPGGA,091020.30,5703.3116877,N,00952.3353302,E,2,10,1.0,-2.019,M,40.593,M,2.0,0123*63\r\n
$GPGGA,091020.35,5703.3117141,N,00952.3352935,E,2,10,1.0,-2.015,M,40.593,M,2.0,0123*68\r\n
$GPGGA,091020.40,5703.3117392,N,00952.3352565,E,2,10,1.0,-2.016,M,40.593,M,2.0,0123*6C\r\n
$GPGGA,091020.45,5703.3117645,N,00952.3352198,E,2,10,1.0,-2.018,M,40.593,M,0.8,0123*64\r\n
$GPGGA,091020.50,5703.3117887,N,00952.3351853,E,2,10,1.0,-2.018,M,40.593,M,0.8,0123*6D\r\n
$GPGGA,091020.55,5703.3118139,N,00952.3351498,E,2,10,1.0,-2.015,M,40.593,M,0.8,0123*6D\r\n
$GPGGA,091020.60,5703.3118404,N,00952.3351131,E,2,10,1.0,-2.013,M,40.593,M,0.8,0123*60\r\n
$GPGGA,091020.65,5703.3118659,N,00952.3350776,E,2,10,1.0,-2.010,M,40.593,M,1.1,0123*60\r\n
$GPGGA,091020.70,5703.3118893,N,00952.3350411,E,2,10,1.0,-2.010,M,40.593,M,1.1,0123*6E\r\n
$GPGGA,091020.75,5703.3119138,N,00952.3350036,E,2,10,1.0,-2.010,M,40.593,M,1.1,0123*63\r\n
$GPGGA,091020.80,5703.3119389,N,00952.3349675,E,2,10,1.0,-2.009,M,40.593,M,1.1,0123*60\r\n
$GPGGA,091020.85,5703.3119620,N,00952.3349310,E,2,10,1.0,-2.013,M,40.593,M,1.4,0123*6B\r\n
$GPGGA,091020.90,5703.3119867,N,00952.3348932,E,2,10,1.0,-2.013,M,40.593,M,1.4,0123*69\r\n
$GPGGA,091020.95,5703.3120168,N,00952.3348517,E,2,10,1.0,-2.000,M,40.593,M,1.4,0123*69\r\n
$GPGGA,091021.00,5703.3120422,N,00952.3348159,E,2,10,1.0,-2.001,M,40.593,M,1.4,0123*60\r\n
$GPGGA,091021.05,5703.3120644,N,00952.3347868,E,2,10,1.0,-2.011,M,40.593,M,1.6,0123*60\r\n
$GPGGA,091021.10,5703.3120895,N,00952.3347521,E,2,10,1.0,-2.008,M,40.593,M,1.6,0123*6E\r\n
$GPGGA,091021.15,5703.3121148,N,00952.3347160,E,2,10,1.0,-2.004,M,40.593,M,1.6,0123*6E\r\n
$GPGGA,091021.20,5703.3121391,N,00952.3346803,E,2,10,1.0,-2.007,M,40.593,M,1.6,0123*60\r\n
$GPGGA,091021.25,5703.3121649,N,00952.3346446,E,2,10,1.0,-2.010,M,40.593,M,1.9,0123*61\r\n
$GPGGA,091021.30,5703.3121898,N,00952.3346084,E,2,10,1.0,-2.010,M,40.593,M,1.9,0123*6D\r\n
$GPGGA,091021.35,5703.3122147,N,00952.3345730,E,2,10,1.0,-2.007,M,40.593,M,1.9,0123*6D\r\n
$GPGGA,091021.40,5703.3122382,N,00952.3345395,E,2,10,1.0,-2.010,M,40.593,M,1.9,0123*69\r\n
$GPGGA,091021.45,5703.3122618,N,00952.3345048,E,2,10,1.0,-2.011,M,40.593,M,2.1,0123*63\r\n
$GPGGA,091021.50,5703.3122873,N,00952.3344699,E,2,10,1.0,-2.012,M,40.593,M,2.1,0123*6C\r\n
$GPGGA,091021.55,5703.3123131,N,00952.3344342,E,2,10,1.0,-2.010,M,40.593,M,2.1,0123*66\r\n
$GPGGA,091021.60,5703.3123372,N,00952.3344000,E,2,10,1.0,-2.010,M,40.593,M,2.1,0123*60\r\n
$GPGGA,091021.65,5703.3123612,N,00952.3343671,E,2,10,1.0,-2.013,M,40.593,M,2.3,0123*60\r\n
$GPGGA,091021.70,5703.3123862,N,00952.3343338,E,2,10,1.0,-2.013,M,40.593,M,2.3,0123*65\r\n
$GPGGA,091021.75,5703.3124120,N,00952.3342984,E,2,10,1.0,-2.012,M,40.593,M,2.3,0123*65\r\n
$GPGGA,091021.80,5703.3124368,N,00952.3342641,E,2,10,1.0,-2.014,M,40.593,M,2.3,0123*61\r\n
$GPGGA,091021.85,5703.3124613,N,00952.3342291,E,2,10,1.0,-2.015,M,40.593,M,2.6,0123*60\r\n
$GPGGA,091021.90,5703.3124863,N,00952.3341962,E,2,10,1.0,-2.014,M,40.593,M,2.6,0123*68\r\n
$GPGGA,091021.95,5703.3125105,N,00952.3341602,E,2,10,1.0,-2.016,M,40.593,M,2.6,0123*6E\r\n
$GPGGA,091022.00,5703.3125348,N,00952.3341247,E,2,10,1.0,-2.019,M,40.593,M,2.6,0123*60\r\n
$GPGGA,091022.05,5703.3125603,N,00952.3340911,E,2,10,1.0,-2.015,M,40.593,M,2.8,0123*64\r\n
$GPGGA,091022.10,5703.3125849,N,00952.3340587,E,2,10,1.0,-2.014,M,40.593,M,2.8,0123*62\r\n
$GPGGA,091022.15,5703.3126090,N,00952.3340268,E,2,10,1.0,-2.016,M,40.593,M,2.8,0123*6C\r\n
$GPGGA,091022.20,5703.3126357,N,00952.3339915,E,2,10,1.0,-2.016,M,40.593,M,2.8,0123*6D\r\n
$GPGGA,091022.25,5703.3126610,N,00952.3339555,E,2,10,1.0,-2.013,M,40.593,M,3.0,0123*6A\r\n
$GPGGA,091022.30,5703.3126846,N,00952.3339216,E,2,10,1.0,-2.014,M,40.593,M,3.0,0123*64\r\n
$GPGGA,091022.35,5703.3127082,N,00952.3338889,E,2,10,1.0,-2.015,M,40.593,M,3.0,0123*6C\r\n
$GPGGA,091022.40,5703.3127327,N,00952.3338559,E,2,10,1.0,-2.012,M,40.593,M,3.0,0123*65\r\n
$GPGGA,091022.45,5703.3127577,N,00952.3338218,E,2,10,1.0,-2.015,M,40.593,M,3.2,0123*64\r\n
$GPGGA,091022.50,5703.3127833,N,00952.3337870,E,2,10,1.0,-2.015,M,40.593,M,3.2,0123*66\r\n
$GPGGA,091022.55,5703.3128103,N,00952.3337542,E,2,10,1.0,-2.014,M,40.593,M,3.2,0123*6B\r\n
$GPGGA,091022.60,5703.3128353,N,00952.3337232,E,2,10,1.0,-2.013,M,40.593,M,3.2,0123*6D\r\n
$GPGGA,091022.65,5703.3128593,N,00952.3336900,E,2,10,1.0,-2.012,M,40.593,M,3.4,0123*6E\r\n
$GPGGA,091022.70,5703.3128823,N,00952.3336593,E,2,10,1.0,-2.015,M,40.593,M,3.4,0123*6D\r\n
$GPGGA,091022.75,5703.3129081,N,00952.3336282,E,2,10,1.0,-2.015,M,40.593,M,3.4,0123*6E\r\n
$GPGGA,091022.80,5703.3129337,N,00952.3335948,E,2,10,1.0,-2.015,M,40.593,M,3.4,0123*64\r\n
$GPGGA,091022.85,5703.3129600,N,00952.3335605,E,2,10,1.0,-2.013,M,40.593,M,3.6,0123*62\r\n
$GPGGA,091022.90,5703.3129860,N,00952.3335278,E,2,10,1.0,-2.013,M,40.593,M,3.6,0123*60\r\n
$GPGGA,091022.95,5703.3130111,N,00952.3334948,E,2,10,1.0,-2.012,M,40.593,M,3.6,0123*6A\r\n
$GPGGA,091023.00,5703.3130352,N,00952.3334607,E,2,10,1.0,-2.011,M,40.593,M,3.6,0123*65\r\n
$GPGGA,091023.05,5703.3130601,N,00952.3334279,E,2,10,1.0,-2.012,M,40.593,M,3.8,0123*63\r\n
$GPGGA,091023.10,5703.3130846,N,00952.3333952,E,2,10,1.0,-2.013,M,40.593,M,3.8,0123*6E\r\n
$GPGGA,091023.15,5703.3131101,N,00952.3333621,E,2,10,1.0,-2.010,M,40.593,M,3.8,0123*68\r\n
$GPGGA,091023.20,5703.3131342,N,00952.3333301,E,2,10,1.0,-2.005,M,40.593,M,3.8,0123*68\r\n
$GPGGA,091023.25,5703.3131575,N,00952.3332991,E,2,10,1.0,-2.010,M,40.593,M,4.0,0123*66\r\n
$GPGGA,091023.30,5703.3131842,N,00952.3332665,E,2,10,1.0,-2.010,M,40.593,M,4.0,0123*6F\r\n
$GPGGA,091023.35,5703.3132115,N,00952.3332337,E,2,10,1.0,-2.008,M,40.593,M,4.0,0123*69\r\n
$GPGGA,091023.40,5703.3132384,N,00952.3332007,E,2,10,1.0,-2.005,M,40.593,M,4.0,0123*6C\r\n
$GPGGA,091023.45,5703.3132647,N,00952.3331681,E,2,10,1.0,-2.000,M,40.593,M,2.4,0123*6F\r\n
$GPGGA,091023.50,5703.3132876,N,00952.3331367,E,2,10,1.0,-1.999,M,40.593,M,2.4,0123*60\r\n
$GPGGA,091023.55,5703.3133117,N,00952.3331055,E,2,10,1.0,-1.999,M,40.593,M,2.4,0123*68\r\n
$GPGGA,091023.60,5703.3133385,N,00952.3330733,E,2,10,1.0,-1.998,M,40.593,M,2.4,0123*60\r\n
$GPGGA,091023.65,5703.3133628,N,00952.3330446,E,2,10,1.0,-2.005,M,40.593,M,2.7,0123*6B\r\n
$GPGGA,091023.70,5703.3133876,N,00952.3330133,E,2,10,1.0,-2.005,M,40.593,M,2.7,0123*6D\r\n
$GPGGA,091023.75,5703.3134115,N,00952.3329824,E,2,10,1.0,-2.005,M,40.593,M,2.7,0123*64\r\n
$GPGGA,091023.80,5703.3134367,N,00952.3329497,E,2,10,1.0,-2.003,M,40.593,M,2.7,0123*6B\r\n
$GPGGA,091023.85,5703.3134635,N,00952.3329165,E,2,10,1.0,-2.001,M,40.593,M,2.9,0123*68\r\n
$GPGGA,091023.90,5703.3134884,N,00952.3328811,E,2,10,1.0,-2.004,M,40.593,M,2.9,0123*66\r\n
$GPGGA,091023.95,5703.3135124,N,00952.3328498,E,2,10,1.0,-2.003,M,40.593,M,2.9,0123*6B\r\n
$GPGGA,091024.00,5703.3135376,N,00952.3328225,E,2,10,1.0,-1.999,M,40.593,M,2.9,0123*6C\r\n
$GPGGA,091024.05,5703.3135633,N,00952.3327929,E,2,10,1.0,-1.999,M,40.593,M,3.2,0123*6F\r\n
$GPGGA,091024.10,5703.3135893,N,00952.3327628,E,2,10,1.0,-1.999,M,40.593,M,3.2,0123*61\r\n
$GPGGA,091024.15,5703.3136167,N,00952.3327309,E,2,10,1.0,-1.998,M,40.593,M,3.2,0123*62\r\n
$GPGGA,091024.20,5703.3136433,N,00952.3327015,E,2,10,1.0,-1.995,M,40.593,M,3.2,0123*63\r\n
$GPGGA,091024.25,5703.3136659,N,00952.3326723,E,2,10,1.0,-1.999,M,40.593,M,3.4,0123*61\r\n
$GPGGA,091024.30,5703.3136861,N,00952.3326402,E,2,10,1.0,-2.009,M,40.593,M,3.4,0123*63\r\n
$GPGGA,091024.35,5703.3137114,N,00952.3326085,E,2,10,1.0,-2.012,M,40.593,M,3.4,0123*6D\r\n
$GPGGA,091024.40,5703.3137383,N,00952.3325790,E,2,10,1.0,-2.012,M,40.593,M,3.4,0123*63\r\n
$GPGGA,091024.45,5703.3137610,N,00952.3325487,E,2,10,1.0,-2.021,M,40.593,M,2.2,0123*6B\r\n
$GPGGA,091024.50,5703.3137859,N,00952.3325196,E,2,10,1.0,-2.021,M,40.593,M,2.2,0123*69\r\n
$GPGGA,091024.55,5703.3138102,N,00952.3324914,E,2,10,1.0,-2.025,M,40.593,M,2.2,0123*63\r\n
$GPGGA,091024.60,5703.3138330,N,00952.3324625,E,2,10,1.0,-2.034,M,40.593,M,2.2,0123*6B\r\n
$GPGGA,091024.65,5703.3138587,N,00952.3324319,E,2,10,1.0,-2.026,M,40.593,M,2.4,0123*6B\r\n
$GPGGA,091024.70,5703.3138847,N,00952.3324011,E,2,10,1.0,-2.026,M,40.593,M,2.4,0123*65\r\n
$GPGGA,091024.75,5703.3139093,N,00952.3323698,E,2,10,1.0,-2.023,M,40.593,M,2.4,0123*65\r\n
$GPGGA,091024.80,5703.3139362,N,00952.3323370,E,2,10,1.0,-2.016,M,40.593,M,2.4,0123*67\r\n
$GPGGA,091024.85,5703.3139628,N,00952.3323104,E,2,10,1.0,-2.011,M,40.593,M,2.7,0123*6C\r\n
$GPGGA,091024.90,5703.3139892,N,00952.3322809,E,2,10,1.0,-2.011,M,40.593,M,2.7,0123*62\r\n
$GPGGA,091024.95,5703.3140151,N,00952.3322514,E,2,10,1.0,-2.013,M,40.593,M,2.7,0123*6C\r\n
$GPGGA,091025.00,5703.3140407,N,00952.3322226,E,2,10,1.0,-2.014,M,40.593,M,2.7,0123*66\r\n
$GPGGA,091025.05,5703.3140652,N,00952.3321921,E,2,10,1.0,-2.016,M,40.593,M,2.9,0123*62\r\n
$GPGGA,091025.10,5703.3140895,N,00952.3321642,E,2,10,1.0,-2.013,M,40.593,M,2.9,0123*6C\r\n
$GPGGA,091025.15,5703.3141148,N,00952.3321384,E,2,10,1.0,-2.010,M,40.593,M,2.9,0123*6D\r\n
$GPGGA,091025.20,5703.3141395,N,00952.3321088,E,2,10,1.0,-2.009,M,40.593,M,2.9,0123*6E\r\n
$GPGGA,091025.25,5703.3141645,N,00952.3320776,E,2,10,1.0,-2.008,M,40.593,M,3.1,0123*6C\r\n
$GPGGA,091025.30,5703.3141897,N,00952.3320491,E,2,10,1.0,-2.013,M,40.593,M,3.1,0123*69\r\n
$GPGGA,091025.35,5703.3142162,N,00952.3320205,E,2,10,1.0,-2.011,M,40.593,M,3.1,0123*65\r\n
$GPGGA,091025.40,5703.3142433,N,00952.3319929,E,2,10,1.0,-2.009,M,40.593,M,3.1,0123*60\r\n
$GPGGA,091025.45,5703.3142692,N,00952.3319647,E,2,10,1.0,-2.014,M,40.593,M,2.1,0123*66\r\n
$GPGGA,091025.50,5703.3142938,N,00952.3319345,E,2,10,1.0,-2.015,M,40.593,M,2.1,0123*6B\r\n
$GPGGA,091025.55,5703.3143180,N,00952.3319054,E,2,10,1.0,-2.014,M,40.593,M,2.1,0123*66\r\n
$GPGGA,091025.60,5703.3143418,N,00952.3318786,E,2,10,1.0,-2.017,M,40.593,M,2.1,0123*6E\r\n
$GPGGA,091025.65,5703.3143668,N,00952.3318531,E,2,10,1.0,-2.012,M,40.593,M,2.3,0123*67\r\n
$GPGGA,091025.70,5703.3143944,N,00952.3318234,E,2,10,1.0,-2.010,M,40.593,M,2.3,0123*62\r\n
$GPGGA,091025.75,5703.3144219,N,00952.3317928,E,2,10,1.0,-2.007,M,40.593,M,2.3,0123*6C\r\n
$GPGGA,091025.80,5703.3144448,N,00952.3317644,E,2,10,1.0,-2.006,M,40.593,M,2.3,0123*60\r\n
$GPGGA,091025.85,5703.3144692,N,00952.3317394,E,2,10,1.0,-2.007,M,40.593,M,2.6,0123*6C\r\n
$GPGGA,091025.90,5703.3144964,N,00952.3317135,E,2,10,1.0,-2.004,M,40.593,M,2.6,0123*64\r\n
$GPGGA,091025.95,5703.3145214,N,00952.3316865,E,2,10,1.0,-2.005,M,40.593,M,2.6,0123*60\r\n
$GPGGA,091026.00,5703.3145448,N,00952.3316574,E,2,10,1.0,-2.010,M,40.593,M,2.6,0123*69\r\n
$GPGGA,091026.05,5703.3145677,N,00952.3316273,E,2,10,1.0,-2.013,M,40.593,M,2.8,0123*6F\r\n
$GPGGA,091026.10,5703.3145925,N,00952.3316016,E,2,10,1.0,-2.010,M,40.593,M,2.8,0123*61\r\n
$GPGGA,091026.15,5703.3146194,N,00952.3315762,E,2,10,1.0,-2.009,M,40.593,M,2.8,0123*6A\r\n
$GPGGA,091026.20,5703.3146476,N,00952.3315500,E,2,10,1.0,-2.007,M,40.593,M,2.8,0123*6D\r\n
$GPGGA,091026.25,5703.3146741,N,00952.3315234,E,2,10,1.0,-2.005,M,40.593,M,3.0,0123*64\r\n
$GPGGA,091026.30,5703.3146981,N,00952.3314952,E,2,10,1.0,-2.008,M,40.593,M,3.0,0123*65\r\n
$GPGGA,091026.35,5703.3147231,N,00952.3314652,E,2,10,1.0,-2.007,M,40.593,M,3.0,0123*61\r\n
$GPGGA,091026.40,5703.3147501,N,00952.3314380,E,2,10,1.0,-2.007,M,40.593,M,3.0,0123*6D\r\n
$GPGGA,091026.45,5703.3147779,N,00952.3314110,E,2,10,1.0,-2.003,M,40.593,M,3.2,0123*68\r\n
$GPGGA,091026.50,5703.3148041,N,00952.3313835,E,2,10,1.0,-2.004,M,40.593,M,3.2,0123*61\r\n
$GPGGA,091026.55,5703.3148283,N,00952.3313560,E,2,10,1.0,-2.005,M,40.593,M,3.2,0123*64\r\n
$GPGGA,091026.60,5703.3148522,N,00952.3313291,E,2,10,1.0,-2.007,M,40.593,M,3.2,0123*65\r\n
$GPGGA,091026.65,5703.3148773,N,00952.3313056,E,2,10,1.0,-2.013,M,40.593,M,3.4,0123*6C\r\n
$GPGGA,091026.70,5703.3149047,N,00952.3312796,E,2,10,1.0,-2.010,M,40.593,M,3.4,0123*60\r\n
$GPGGA,091026.75,5703.3149297,N,00952.3312510,E,2,10,1.0,-2.010,M,40.593,M,3.4,0123*66\r\n
$GPGGA,091026.80,5703.3149545,N,00952.3312223,E,2,10,1.0,-2.013,M,40.593,M,3.4,0123*60\r\n
$GPGGA,091026.85,5703.3149811,N,00952.3311967,E,2,10,1.0,-2.009,M,40.593,M,3.6,0123*68\r\n
$GPGGA,091026.90,5703.3150068,N,00952.3311710,E,2,10,1.0,-2.011,M,40.593,M,3.6,0123*65\r\n
$GPGGA,091026.95,5703.3150306,N,00952.3311442,E,2,10,1.0,-2.009,M,40.593,M,3.6,0123*66\r\n
$GPGGA,091027.00,5703.3150542,N,00952.3311165,E,2,10,1.0,-2.010,M,40.593,M,3.6,0123*65\r\n
$GPGGA,091027.05,5703.3150782,N,00952.3310900,E,2,10,1.0,-2.013,M,40.593,M,3.8,0123*69\r\n
$GPGGA,091027.10,5703.3151034,N,00952.3310655,E,2,10,1.0,-2.014,M,40.593,M,3.8,0123*6E\r\n
$GPGGA,091027.15,5703.3151297,N,00952.3310393,E,2,10,1.0,-2.013,M,40.593,M,3.8,0123*68\r\n
$GPGGA,091027.20,5703.3151562,N,00952.3310110,E,2,10,1.0,-2.011,M,40.593,M,3.8,0123*68\r\n
$GPGGA,091027.25,5703.3151827,N,00952.3309834,E,2,10,1.0,-2.008,M,40.593,M,4.0,0123*61\r\n
$GPGGA,091027.30,5703.3152061,N,00952.3309548,E,2,10,1.0,-2.011,M,40.593,M,4.0,0123*62\r\n
$GPGGA,091027.35,5703.3152300,N,00952.3309288,E,2,10,1.0,-2.014,M,40.593,M,4.0,0123*6D\r\n
$GPGGA,091027.40,5703.3152554,N,00952.3309052,E,2,10,1.0,-2.012,M,40.593,M,4.0,0123*6B\r\n
$GPGGA,091027.45,5703.3152810,N,00952.3308802,E,2,10,1.0,-2.017,M,40.593,M,2.4,0123*68\r\n
$GPGGA,091027.50,5703.3153085,N,00952.3308536,E,2,10,1.0,-2.019,M,40.593,M,2.4,0123*6D\r\n
$GPGGA,091027.55,5703.3153348,N,00952.3308279,E,2,10,1.0,-2.021,M,40.593,M,2.4,0123*6D\r\n
$GPGGA,091027.60,5703.3153585,N,00952.3308020,E,2,10,1.0,-2.022,M,40.593,M,2.4,0123*61\r\n
$GPGGA,091027.65,5703.3153858,N,00952.3307746,E,2,10,1.0,-2.012,M,40.593,M,2.7,0123*61\r\n
$GPGGA,091027.70,5703.3154120,N,00952.3307489,E,2,10,1.0,-2.009,M,40.593,M,2.7,0123*6E\r\n
$GPGGA,091027.75,5703.3154350,N,00952.3307230,E,2,10,1.0,-2.012,M,40.593,M,2.7,0123*60\r\n
$GPGGA,091027.80,5703.3154595,N,00952.3306961,E,2,10,1.0,-2.014,M,40.593,M,2.7,0123*6D\r\n
$GPGGA,091027.85,5703.3154858,N,00952.3306710,E,2,10,1.0,-2.013,M,40.593,M,2.9,0123*65\r\n
$GPGGA,091027.90,5703.3155128,N,00952.3306471,E,2,10,1.0,-2.014,M,40.593,M,2.9,0123*6D\r\n
$GPGGA,091027.95,5703.3155384,N,00952.3306221,E,2,10,1.0,-2.014,M,40.593,M,2.9,0123*6F\r\n
$GPGGA,091028.00,5703.3155620,N,00952.3305961,E,2,10,1.0,-2.013,M,40.593,M,2.9,0123*6C\r\n
$GPGGA,091028.05,5703.3155876,N,00952.3305703,E,2,10,1.0,-2.018,M,40.593,M,3.2,0123*6F\r\n
$GPGGA,091028.10,5703.3156140,N,00952.3305455,E,2,10,1.0,-2.019,M,40.593,M,3.2,0123*65\r\n
$GPGGA,091028.15,5703.3156394,N,00952.3305197,E,2,10,1.0,-2.018,M,40.593,M,3.2,0123*61\r\n
$GPGGA,091028.20,5703.3156646,N,00952.3304941,E,2,10,1.0,-2.021,M,40.593,M,3.2,0123*65\r\n
$GPGGA,091028.25,5703.3156905,N,00952.3304657,E,2,10,1.0,-2.011,M,40.593,M,3.4,0123*65\r\n
$GPGGA,091028.30,5703.3157156,N,00952.3304406,E,2,10,1.0,-2.010,M,40.593,M,3.4,0123*69\r\n
$GPGGA,091028.35,5703.3157427,N,00952.3304171,E,2,10,1.0,-2.007,M,40.593,M,3.4,0123*6C\r\n
$GPGGA,091028.40,5703.3157702,N,00952.3303916,E,2,10,1.0,-2.005,M,40.593,M,3.4,0123*66\r\n
$GPGGA,091028.45,5703.3157940,N,00952.3303649,E,2,10,1.0,-2.011,M,40.593,M,2.2,0123*6C\r\n
$GPGGA,091028.50,5703.3158188,N,00952.3303381,E,2,10,1.0,-2.012,M,40.593,M,2.2,0123*69\r\n
$GPGGA,091028.55,5703.3158451,N,00952.3303126,E,2,10,1.0,-2.012,M,40.593,M,2.2,0123*62\r\n
$GPGGA,091028.60,5703.3158723,N,00952.3302887,E,2,10,1.0,-2.010,M,40.593,M,2.2,0123*63\r\n
$GPGGA,091028.65,5703.3158975,N,00952.3302633,E,2,10,1.0,-2.009,M,40.593,M,2.4,0123*64\r\n
$GPGGA,091028.70,5703.3159234,N,00952.3302363,E,2,10,1.0,-2.013,M,40.593,M,2.4,0123*64\r\n
$GPGGA,091028.75,5703.3159476,N,00952.3302115,E,2,10,1.0,-2.017,M,40.593,M,2.4,0123*66\r\n
$GPGGA,091028.80,5703.3159718,N,00952.3301866,E,2,10,1.0,-2.020,M,40.593,M,2.4,0123*6D\r\n
$GPGGA,091028.85,5703.3159967,N,00952.3301641,E,2,10,1.0,-2.026,M,40.593,M,2.7,0123*60\r\n
$GPGGA,091028.90,5703.3160235,N,00952.3301385,E,2,10,1.0,-2.024,M,40.593,M,2.7,0123*6D\r\n
$GPGGA,091028.95,5703.3160504,N,00952.3301118,E,2,10,1.0,-2.025,M,40.593,M,2.7,0123*6A\r\n
$GPGGA,091029.00,5703.3160763,N,00952.3300873,E,2,10,1.0,-2.023,M,40.593,M,2.7,0123*67\r\n
$GPGGA,091029.05,5703.3161034,N,00952.3300612,E,2,10,1.0,-2.008,M,40.593,M,2.9,0123*68\r\n
$GPGGA,091029.10,5703.3161284,N,00952.3300356,E,2,10,1.0,-2.008,M,40.593,M,2.9,0123*60\r\n
$GPGGA,091029.15,5703.3161534,N,00952.3300117,E,2,10,1.0,-2.006,M,40.593,M,2.9,0123*60\r\n
$GPGGA,091029.20,5703.3161790,N,00952.3299882,E,2,10,1.0,-2.005,M,40.593,M,2.9,0123*6D\r\n
$GPGGA,091029.25,5703.3162053,N,00952.3299621,E,2,10,1.0,-2.010,M,40.593,M,3.1,0123*69\r\n
$GPGGA,091029.30,5703.3162313,N,00952.3299377,E,2,10,1.0,-2.011,M,40.593,M,3.1,0123*6D\r\n
$GPGGA,091029.35,5703.3162571,N,00952.3299121,E,2,10,1.0,-2.012,M,40.593,M,3.1,0123*68\r\n
$GPGGA,091029.40,5703.3162825,N,00952.3298842,E,2,10,1.0,-2.012,M,40.593,M,3.1,0123*6B\r\n
$GPGGA,091029.45,5703.3163086,N,00952.3298596,E,2,10,1.0,-2.009,M,40.593,M,2.1,0123*61\r\n
$GPGGA,091029.50,5703.3163359,N,00952.3298355,E,2,10,1.0,-2.009,M,40.593,M,2.1,0123*6D\r\n
$GPGGA,091029.55,5703.3163613,N,00952.3298112,E,2,10,1.0,-2.008,M,40.593,M,2.1,0123*63\r\n
$GPGGA,091029.60,5703.3163859,N,00952.3297858,E,2,10,1.0,-2.008,M,40.593,M,2.1,0123*6D\r\n
$GPGGA,091029.65,5703.3164136,N,00952.3297597,E,2,10,1.0,-2.007,M,40.593,M,2.3,0123*6C\r\n
$GPGGA,091029.70,5703.3164375,N,00952.3297374,E,2,10,1.0,-2.006,M,40.593,M,2.3,0123*67\r\n
$GPGGA,091029.75,5703.3164598,N,00952.3297127,E,2,10,1.0,-2.009,M,40.593,M,2.3,0123*6C\r\n
$GPGGA,091029.80,5703.3164857,N,00952.3296859,E,2,10,1.0,-2.013,M,40.593,M,2.3,0123*62\r\n
$GPGGA,091029.85,5703.3165122,N,00952.3296639,E,2,10,1.0,-2.025,M,40.593,M,2.6,0123*65\r\n
$GPGGA,091029.90,5703.3165391,N,00952.3296395,E,2,10,1.0,-2.025,M,40.593,M,2.6,0123*68\r\n
$GPGGA,091029.95,5703.3165648,N,00952.3296159,E,2,10,1.0,-2.023,M,40.593,M,2.6,0123*68\r\n
$GPGGA,091030.00,5703.3165905,N,00952.3295927,E,2,10,1.0,-2.021,M,40.593,M,2.6,0123*6A\r\n
$GPGGA,091030.05,5703.3166177,N,00952.3295662,E,2,10,1.0,-2.008,M,40.593,M,2.8,0123*6A\r\n
$GPGGA,091030.10,5703.3166424,N,00952.3295438,E,2,10,1.0,-2.008,M,40.593,M,2.8,0123*60\r\n
$GPGGA,091030.15,5703.3166691,N,00952.3295220,E,2,10,1.0,-2.008,M,40.593,M,2.8,0123*66\r\n
$GPGGA,091030.20,5703.3166958,N,00952.3294979,E,2,10,1.0,-2.010,M,40.593,M,2.8,0123*65\r\n
$GPGGA,091030.25,5703.3167179,N,00952.3294730,E,2,10,1.0,-2.020,M,40.593,M,3.0,0123*63\r\n
$GPGGA,091030.30,5703.3167420,N,00952.3294470,E,2,10,1.0,-2.020,M,40.593,M,3.0,0123*69\r\n
$GPGGA,091030.35,5703.3167685,N,00952.3294231,E,2,10,1.0,-2.020,M,40.593,M,3.0,0123*62\r\n
$GPGGA,091030.40,5703.3167971,N,00952.3294009,E,2,10,1.0,-2.021,M,40.593,M,3.0,0123*6C\r\n
$GPGGA,091030.45,5703.3168227,N,00952.3293797,E,2,10,1.0,-2.021,M,40.593,M,0.9,0123*63\r\n
$GPGGA,091030.50,5703.3168487,N,00952.3293582,E,2,10,1.0,-2.021,M,40.593,M,0.9,0123*6D\r\n
$GPGGA,091030.55,5703.3168754,N,00952.3293362,E,2,10,1.0,-2.021,M,40.593,M,0.9,0123*6D\r\n
$GPGGA,091030.60,5703.3169024,N,00952.3293126,E,2,10,1.0,-2.019,M,40.593,M,0.9,0123*63\r\n
$GPGGA,091030.65,5703.3169294,N,00952.3292887,E,2,10,1.0,-2.012,M,40.593,M,1.3,0123*6C\r\n
$GPGGA,091030.70,5703.3169555,N,00952.3292645,E,2,10,1.0,-2.009,M,40.593,M,1.3,0123*68\r\n
$GPGGA,091030.75,5703.3169824,N,00952.3292433,E,2,10,1.0,-2.010,M,40.593,M,1.3,0123*6D\r\n
$GPGGA,091030.80,5703.3170112,N,00952.3292243,E,2,10,1.0,-2.010,M,40.593,M,1.3,0123*62\r\n
$GPGGA,091030.85,5703.3170361,N,00952.3292037,E,2,10,1.0,-2.015,M,40.593,M,1.6,0123*60\r\n
$GPGGA,091030.90,5703.3170591,N,00952.3291804,E,2,10,1.0,-2.019,M,40.593,M,1.6,0123*6A\r\n
$GPGGA,091030.95,5703.3170841,N,00952.3291587,E,2,10,1.0,-2.021,M,40.593,M,1.6,0123*62\r\n
$GPGGA,091031.00,5703.3171120,N,00952.3291367,E,2,10,1.0,-2.020,M,40.593,M,1.6,0123*69\r\n
$GPGGA,091031.05,5703.3171412,N,00952.3291141,E,2,10,1.0,-2.014,M,40.593,M,1.9,0123*66\r\n
$GPGGA,091031.10,5703.3171691,N,00952.3290913,E,2,10,1.0,-2.013,M,40.593,M,1.9,0123*62\r\n
$GPGGA,091031.15,5703.3171956,N,00952.3290714,E,2,10,1.0,-2.014,M,40.593,M,1.9,0123*6D\r\n
$GPGGA,091031.20,5703.3172213,N,00952.3290533,E,2,10,1.0,-2.017,M,40.593,M,1.9,0123*66\r\n
$GPGGA,091031.25,5703.3172465,N,00952.3290340,E,2,10,1.0,-2.014,M,40.593,M,2.2,0123*6D\r\n
$GPGGA,091031.30,5703.3172729,N,00952.3290117,E,2,10,1.0,-2.013,M,40.593,M,2.2,0123*65\r\n
$GPGGA,091031.35,5703.3172996,N,00952.3289898,E,2,10,1.0,-2.015,M,40.593,M,2.2,0123*6A\r\n
$GPGGA,091031.40,5703.3173268,N,00952.3289702,E,2,10,1.0,-2.015,M,40.593,M,2.2,0123*6F\r\n
$GPGGA,091031.45,5703.3173533,N,00952.3289518,E,2,10,1.0,-2.013,M,40.593,M,0.9,0123*65\r\n
$GPGGA,091031.50,5703.3173804,N,00952.3289321,E,2,10,1.0,-2.011,M,40.593,M,0.9,0123*66\r\n
$GPGGA,091031.55,5703.3174065,N,00952.3289108,E,2,10,1.0,-2.009,M,40.593,M,0.9,0123*6B\r\n
$GPGGA,091031.60,5703.3174344,N,00952.3288905,E,2,10,1.0,-2.010,M,40.593,M,0.9,0123*61\r\n
$GPGGA,091031.65,5703.3174613,N,00952.3288725,E,2,10,1.0,-2.010,M,40.593,M,1.2,0123*65\r\n
$GPGGA,091031.70,5703.3174894,N,00952.3288549,E,2,10,1.0,-2.008,M,40.593,M,1.2,0123*61\r\n
$GPGGA,091031.75,5703.3175162,N,00952.3288379,E,2,10,1.0,-2.009,M,40.593,M,1.2,0123*61\r\n
$GPGGA,091031.80,5703.3175415,N,00952.3288181,E,2,10,1.0,-2.010,M,40.593,M,1.2,0123*63\r\n
$GPGGA,091031.85,5703.3175672,N,00952.3287979,E,2,10,1.0,-2.013,M,40.593,M,1.5,0123*61\r\n
$GPGGA,091031.90,5703.3175947,N,00952.3287805,E,2,10,1.0,-2.012,M,40.593,M,1.5,0123*67\r\n
$GPGGA,091031.95,5703.3176222,N,00952.3287637,E,2,10,1.0,-2.012,M,40.593,M,1.5,0123*66\r\n
$GPGGA,091032.00,5703.3176490,N,00952.3287446,E,2,10,1.0,-2.014,M,40.593,M,1.5,0123*64\r\n
$GPGGA,091032.05,5703.3176752,N,00952.3287260,E,2,10,1.0,-2.017,M,40.593,M,1.7,0123*6F\r\n
$GPGGA,091032.10,5703.3177018,N,00952.3287091,E,2,10,1.0,-2.018,M,40.593,M,1.7,0123*60\r\n
$GPGGA,091032.15,5703.3177301,N,00952.3286932,E,2,10,1.0,-2.016,M,40.593,M,1.7,0123*61\r\n
$GPGGA,091032.20,5703.3177570,N,00952.3286770,E,2,10,1.0,-2.015,M,40.593,M,1.7,0123*6C\r\n
$GPGGA,091032.25,5703.3177842,N,00952.3286596,E,2,10,1.0,-2.014,M,40.593,M,2.0,0123*6A\r\n
$GPGGA,091032.30,5703.3178125,N,00952.3286432,E,2,10,1.0,-2.011,M,40.593,M,2.0,0123*63\r\n
$GPGGA,091032.35,5703.3178395,N,00952.3286259,E,2,10,1.0,-2.012,M,40.593,M,2.0,0123*67\r\n
$GPGGA,091032.40,5703.3178665,N,00952.3286077,E,2,10,1.0,-2.014,M,40.593,M,2.0,0123*67\r\n
$GPGGA,091032.45,5703.3178960,N,00952.3285924,E,2,10,1.0,-2.012,M,40.593,M,0.8,0123*68\r\n
$GPGGA,091032.50,5703.3179235,N,00952.3285764,E,2,10,1.0,-2.012,M,40.593,M,0.8,0123*6C\r\n
$GPGGA,091032.55,5703.3179490,N,00952.3285622,E,2,10,1.0,-2.014,M,40.593,M,0.8,0123*65\r\n
$GPGGA,091032.60,5703.3179745,N,00952.3285485,E,2,10,1.0,-2.014,M,40.593,M,0.8,0123*67\r\n
$GPGGA,091032.65,5703.3180017,N,00952.3285340,E,2,10,1.0,-2.014,M,40.593,M,1.1,0123*62\r\n
$GPGGA,091032.70,5703.3180283,N,00952.3285182,E,2,10,1.0,-2.013,M,40.593,M,1.1,0123*62\r\n
$GPGGA,091032.75,5703.3180553,N,00952.3285033,E,2,10,1.0,-2.009,M,40.593,M,1.1,0123*6D\r\n
$GPGGA,091032.80,5703.3180828,N,00952.3284899,E,2,10,1.0,-2.007,M,40.593,M,1.1,0123*61\r\n
$GPGGA,091032.85,5703.3181091,N,00952.3284761,E,2,10,1.0,-2.012,M,40.593,M,1.4,0123*66\r\n
$GPGGA,091032.90,5703.3181385,N,00952.3284624,E,2,10,1.0,-2.012,M,40.593,M,1.4,0123*64\r\n
$GPGGA,091032.95,5703.3181689,N,00952.3284484,E,2,10,1.0,-2.016,M,40.593,M,1.4,0123*64\r\n
$GPGGA,091033.00,5703.3181951,N,00952.3284360,E,2,10,1.0,-2.017,M,40.593,M,1.4,0123*6F\r\n
$GPGGA,091033.05,5703.3182195,N,00952.3284236,E,2,10,1.0,-2.010,M,40.593,M,1.6,0123*6E\r\n
$GPGGA,091033.10,5703.3182453,N,00952.3284097,E,2,10,1.0,-2.013,M,40.593,M,1.6,0123*6F\r\n
$GPGGA,091033.15,5703.3182722,N,00952.3283971,E,2,10,1.0,-2.016,M,40.593,M,1.6,0123*6C\r\n
$GPGGA,091033.20,5703.3182986,N,00952.3283863,E,2,10,1.0,-2.016,M,40.593,M,1.6,0123*68\r\n
$GPGGA,091033.25,5703.3183266,N,00952.3283744,E,2,10,1.0,-2.018,M,40.593,M,1.9,0123*62\r\n
$GPGGA,091033.30,5703.3183554,N,00952.3283625,E,2,10,1.0,-2.016,M,40.593,M,1.9,0123*68\r\n
$GPGGA,091033.35,5703.3183837,N,00952.3283498,E,2,10,1.0,-2.014,M,40.593,M,1.9,0123*63\r\n
$GPGGA,091033.40,5703.3184110,N,00952.3283371,E,2,10,1.0,-2.014,M,40.593,M,1.9,0123*6A\r\n
$GPGGA,091033.45,5703.3184391,N,00952.3283281,E,2,10,1.0,-2.012,M,40.593,M,2.1,0123*67\r\n
$GPGGA,091033.50,5703.3184658,N,00952.3283200,E,2,10,1.0,-2.011,M,40.593,M,2.1,0123*69\r\n
$GPGGA,091033.55,5703.3184923,N,00952.3283089,E,2,10,1.0,-2.011,M,40.593,M,2.1,0123*6C\r\n
$GPGGA,091033.60,5703.3185182,N,00952.3282978,E,2,10,1.0,-2.012,M,40.593,M,2.1,0123*6D\r\n
$GPGGA,091033.65,5703.3185435,N,00952.3282903,E,2,10,1.0,-2.019,M,40.593,M,2.3,0123*64\r\n
$GPGGA,091033.70,5703.3185733,N,00952.3282808,E,2,10,1.0,-2.016,M,40.593,M,2.3,0123*60\r\n
$GPGGA,091033.75,5703.3186015,N,00952.3282724,E,2,10,1.0,-2.015,M,40.593,M,2.3,0123*67\r\n
$GPGGA,091033.80,5703.3186289,N,00952.3282655,E,2,10,1.0,-2.016,M,40.593,M,2.3,0123*6E\r\n
$GPGGA,091033.85,5703.3186573,N,00952.3282554,E,2,10,1.0,-2.009,M,40.593,M,2.6,0123*60\r\n
$GPGGA,091033.90,5703.3186833,N,00952.3282469,E,2,10,1.0,-2.010,M,40.593,M,2.6,0123*6A\r\n
$GPGGA,091033.95,5703.3187085,N,00952.3282404,E,2,10,1.0,-2.010,M,40.593,M,2.6,0123*60\r\n
$GPGGA,091034.00,5703.3187337,N,00952.3282335,E,2,10,1.0,-2.010,M,40.593,M,2.6,0123*64\r\n
$GPGGA,091034.05,5703.3187600,N,00952.3282251,E,2,10,1.0,-2.011,M,40.593,M,2.8,0123*6C\r\n
$GPGGA,091034.10,5703.3187885,N,00952.3282164,E,2,10,1.0,-2.010,M,40.593,M,2.8,0123*6F\r\n
$GPGGA,091034.15,5703.3188182,N,00952.3282076,E,2,10,1.0,-2.010,M,40.593,M,2.8,0123*69\r\n
$GPGGA,091034.20,5703.3188465,N,00952.3281995,E,2,10,1.0,-2.009,M,40.593,M,2.8,0123*6C\r\n
$GPGGA,091034.25,5703.3188721,N,00952.3281941,E,2,9,1.0,-2.006,M,40.593,M,3.0,0123*5D\r\n
$GPGGA,091034.30,5703.3188981,N,00952.3281891,E,2,9,1.0,-2.009,M,40.593,M,3.0,0123*5E\r\n
$GPGGA,091034.35,5703.3189240,N,00952.3281803,E,2,9,1.0,-2.011,M,40.593,M,3.0,0123*5E\r\n
$GPGGA,091034.40,5703.3189524,N,00952.3281724,E,2,9,1.0,-2.008,M,40.593,M,3.0,0123*5B\r\n
$GPGGA,091034.45,5703.3189798,N,00952.3281662,E,2,10,1.0,-2.010,M,40.593,M,3.2,0123*6B\r\n
$GPGGA,091034.50,5703.3190079,N,00952.3281606,E,2,10,1.0,-2.010,M,40.593,M,3.2,0123*6D\r\n
$GPGGA,091034.55,5703.3190344,N,00952.3281560,E,2,10,1.0,-2.009,M,40.593,M,3.2,0123*6E\r\n
$GPGGA,091034.60,5703.3190600,N,00952.3281499,E,2,10,1.0,-2.011,M,40.593,M,3.2,0123*63\r\n
$GPGGA,091034.65,5703.3190869,N,00952.3281440,E,2,10,1.0,-2.007,M,40.593,M,3.4,0123*62\r\n
$GPGGA,091034.70,5703.3191121,N,00952.3281383,E,2,10,1.0,-2.006,M,40.593,M,3.4,0123*6B\r\n
$GPGGA,091034.75,5703.3191396,N,00952.3281317,E,2,10,1.0,-2.007,M,40.593,M,3.4,0123*6C\r\n
$GPGGA,091034.80,5703.3191665,N,00952.3281274,E,2,10,1.0,-2.007,M,40.593,M,3.4,0123*6B\r\n
$GPGGA,091034.85,5703.3191903,N,00952.3281259,E,2,10,1.0,-2.015,M,40.593,M,3.6,0123*6F\r\n
$GPGGA,091034.90,5703.3192160,N,00952.3281221,E,2,10,1.0,-2.015,M,40.593,M,3.6,0123*6A\r\n
$GPGGA,091034.95,5703.3192419,N,00952.3281171,E,2,10,1.0,-2.015,M,40.593,M,3.6,0123*62\r\n
