$GPGGA,093342.35,5700.9028932,N,00959.1378386,E,2,8,0.8,10.876,M,40.582,M,2.3,0136*42\r\n
$GPGGA,093342.40,5700.9028913,N,00959.1378608,E,2,8,0.8,10.880,M,40.582,M,2.3,0136*49\r\n
$GPGGA,093342.45,5700.9028907,N,00959.1378868,E,2,8,0.8,10.879,M,40.582,M,2.6,0136*42\r\n
$GPGGA,093342.50,5700.9028920,N,00959.1379155,E,2,8,0.8,10.880,M,40.582,M,2.6,0136*43\r\n
$GPGGA,093342.55,5700.9028910,N,00959.1379427,E,2,8,0.8,10.878,M,40.582,M,2.6,0136*42\r\n
$GPGGA,093342.60,5700.9028893,N,00959.1379686,E,2,8,0.8,10.880,M,40.582,M,2.6,0136*40\r\n
$GPGGA,093342.65,5700.9028873,N,00959.1379934,E,2,8,0.8,10.878,M,40.582,M,2.8,0136*44\r\n
$GPGGA,093342.70,5700.9028873,N,00959.1380181,E,2,8,0.8,10.877,M,40.582,M,2.8,0136*4F\r\n
$GPGGA,093342.75,5700.9028881,N,00959.1380427,E,2,8,0.8,10.876,M,40.582,M,2.8,0136*4F\r\n
$GPGGA,093342.80,5700.9028906,N,00959.1380698,E,2,8,0.8,10.877,M,40.582,M,2.8,0136*4C\r\n
$GPGGA,093342.85,5700.9028937,N,00959.1380940,E,2,8,0.8,10.881,M,40.582,M,3.1,0136*40\r\n
$GPGGA,093342.90,5700.9028958,N,00959.1381150,E,2,8,0.8,10.886,M,40.582,M,3.1,0136*42\r\n
$GPGGA,093342.95,5700.9028987,N,00959.1381365,E,2,8,0.8,10.886,M,40.582,M,3.1,0136*41\r\n
$GPGGA,093343.00,5700.9029043,N,00959.1381617,E,2,8,0.8,10.883,M,40.582,M,3.1,0136*49\r\n
$GPGGA,093343.05,5700.9029122,N,00959.1381886,E,2,8,0.8,10.898,M,40.582,M,1.4,0136*41\r\n
$GPGGA,093343.10,5700.9029170,N,00959.1382163,E,2,8,0.8,10.903,M,40.582,M,1.4,0136*40\r\n
$GPGGA,093343.15,5700.9029225,N,00959.1382437,E,2,8,0.8,10.904,M,40.582,M,1.4,0136*45\r\n
$GPGGA,093343.20,5700.9029264,N,00959.1382706,E,2,8,0.8,10.901,M,40.582,M,1.4,0136*42\r\n
$GPGGA,093343.25,5700.9029296,N,00959.1382910,E,2,8,0.8,10.900,M,40.582,M,1.7,0136*41\r\n
$GPGGA,093343.30,5700.9029364,N,00959.1383104,E,2,8,0.8,10.904,M,40.582,M,1.7,0136*41\r\n
$GPGGA,093343.35,5700.9029449,N,00959.1383340,E,2,8,0.8,10.905,M,40.582,M,1.7,0136*4F\r\n
$GPGGA,093343.40,5700.9029534,N,00959.1383569,E,2,8,0.8,10.907,M,40.582,M,1.7,0136*49\r\n
$GPGGA,093343.45,5700.9029580,N,00959.1383742,E,2,8,0.8,10.898,M,40.582,M,1.9,0136*41\r\n
$GPGGA,093343.50,5700.9029658,N,00959.1383900,E,2,8,0.8,10.904,M,40.582,M,1.9,0136*4F\r\n
$GPGGA,093343.55,5700.9029755,N,00959.1384078,E,2,8,0.8,10.909,M,40.582,M,1.9,0136*4A\r\n
$GPGGA,093343.60,5700.9029841,N,00959.1384276,E,2,8,0.8,10.907,M,40.582,M,1.9,0136*44\r\n
$GPGGA,093343.65,5700.9029920,N,00959.1384505,E,2,8,0.8,10.910,M,40.582,M,2.1,0136*49\r\n
$GPGGA,093343.70,5700.9029977,N,00959.1384737,E,2,8,0.8,10.909,M,40.582,M,2.1,0136*44\r\n
$GPGGA,093343.75,5700.9030064,N,00959.1384956,E,2,8,0.8,10.913,M,40.582,M,2.1,0136*40\r\n
$GPGGA,093343.80,5700.9030168,N,00959.1385129,E,2,8,0.8,10.916,M,40.582,M,2.1,0136*43\r\n
$GPGGA,093343.85,5700.9030263,N,00959.1385289,E,2,8,0.8,10.912,M,40.582,M,2.3,0136*41\r\n
$GPGGA,093343.90,5700.9030365,N,00959.1385441,E,2,8,0.8,10.913,M,40.582,M,2.3,0136*41\r\n
$GPGGA,093343.95,5700.9030463,N,00959.1385600,E,2,8,0.8,10.918,M,40.582,M,2.3,0136*49\r\n
$GPGGA,093344.00,5700.9030564,N,00959.1385763,E,2,8,0.8,10.924,M,40.582,M,2.3,0136*4F\r\n
$GPGGA,093344.05,5700.9030672,N,00959.1385911,E,2,8,0.8,10.928,M,40.582,M,1.8,0136*41\r\n
$GPGGA,093344.10,5700.9030769,N,00959.1386084,E,2,8,0.8,10.925,M,40.582,M,1.8,0136*45\r\n
$GPGGA,093344.15,5700.9030916,N,00959.1386284,E,2,8,0.8,10.924,M,40.582,M,1.8,0136*45\r\n
$GPGGA,093344.20,5700.9031060,N,00959.1386489,E,2,8,0.8,10.923,M,40.582,M,1.8,0136*46\r\n
$GPGGA,093344.25,5700.9031147,N,00959.1386692,E,2,8,0.8,10.920,M,40.582,M,2.1,0136*46\r\n
$GPGGA,093344.30,5700.9031218,N,00959.1386907,E,2,8,0.8,10.910,M,40.582,M,2.1,0136*4B\r\n
$GPGGA,093344.35,5700.9031315,N,00959.1387081,E,2,8,0.8,10.902,M,40.582,M,2.1,0136*47\r\n
$GPGGA,093344.40,5700.9031444,N,00959.1387210,E,2,8,0.8,10.905,M,40.582,M,2.1,0136*4B\r\n
$GPGGA,093344.45,5700.9031553,N,00959.1387359,E,2,8,0.8,10.901,M,40.582,M,2.3,0136*43\r\n
$GPGGA,093344.50,5700.9031652,N,00959.1387506,E,2,8,0.8,10.904,M,40.582,M,2.3,0136*4C\r\n
$GPGGA,093344.55,5700.9031740,N,00959.1387641,E,2,8,0.8,10.906,M,40.582,M,2.3,0136*49\r\n
$GPGGA,093344.60,5700.9031854,N,00959.1387778,E,2,7,0.8,10.908,M,40.582,M,2.3,0136*4F\r\n
$GPGGA,093344.65,5700.9031986,N,00959.1387939,E,2,7,0.8,10.919,M,40.582,M,2.5,0136*49\r\n
$GPGGA,093344.70,5700.9032117,N,00959.1388105,E,2,7,0.8,10.916,M,40.582,M,2.5,0136*49\r\n
$GPGGA,093344.75,5700.9032238,N,00959.1388257,E,2,7,0.8,10.914,M,40.582,M,2.5,0136*44\r\n
$GPGGA,093344.80,5700.9032339,N,00959.1388406,E,2,7,0.8,10.914,M,40.582,M,2.5,0136*4C\r\n
$GPGGA,093344.85,5700.9032420,N,00959.1388564,E,2,7,0.8,10.900,M,40.582,M,2.7,0136*44\r\n
$GPGGA,093344.90,5700.9032518,N,00959.1388721,E,2,7,0.8,10.896,M,40.582,M,2.7,0136*47\r\n
$GPGGA,093344.95,5700.9032650,N,00959.1388859,E,2,7,0.8,10.897,M,40.582,M,2.7,0136*4C\r\n
$GPGGA,093345.00,5700.9032786,N,00959.1388975,E,2,7,0.8,10.903,M,40.582,M,2.7,0136*48\r\n
$GPGGA,093345.05,5700.9032915,N,00959.1389083,E,2,8,0.8,10.917,M,40.582,M,2.9,0136*4C\r\n
$GPGGA,093345.10,5700.9033027,N,00959.1389173,E,2,8,0.8,10.922,M,40.582,M,2.9,0136*49\r\n
$GPGGA,093345.15,5700.9033147,N,00959.1389261,E,2,8,0.8,10.921,M,40.582,M,2.9,0136*48\r\n
$GPGGA,093345.20,5700.9033301,N,00959.1389355,E,2,8,0.8,10.925,M,40.582,M,2.9,0136*4C\r\n
$GPGGA,093345.25,5700.9033427,N,00959.1389459,E,2,7,0.8,10.928,M,40.582,M,3.1,0136*4A\r\n
$GPGGA,093345.30,5700.9033525,N,00959.1389563,E,2,7,0.8,10.930,M,40.582,M,3.1,0136*4C\r\n
$GPGGA,093345.35,5700.9033642,N,00959.1389687,E,2,7,0.8,10.930,M,40.582,M,3.1,0136*42\r\n
$GPGGA,093345.40,5700.9033772,N,00959.1389807,E,2,7,0.8,10.928,M,40.582,M,3.1,0136*4D\r\n
$GPGGA,093345.45,5700.9033907,N,00959.1389898,E,2,7,0.8,10.933,M,40.582,M,3.3,0136*4A\r\n
$GPGGA,093345.50,5700.9034000,N,00959.1390016,E,2,7,0.8,10.934,M,40.582,M,3.3,0136*46\r\n
$GPGGA,093345.55,5700.9034094,N,00959.1390139,E,2,7,0.8,10.929,M,40.582,M,3.3,0136*4E\r\n
$GPGGA,093345.60,5700.9034235,N,00959.1390270,E,2,7,0.8,10.926,M,40.582,M,3.3,0136*40\r\n
$GPGGA,093345.65,5700.9034393,N,00959.1390379,E,2,8,0.8,10.922,M,40.582,M,3.6,0136*4E\r\n
$GPGGA,093345.70,5700.9034505,N,00959.1390444,E,2,8,0.8,10.918,M,40.582,M,3.6,0136*43\r\n
$GPGGA,093345.75,5700.9034583,N,00959.1390495,E,2,8,0.8,10.919,M,40.582,M,3.6,0136*45\r\n
$GPGGA,093345.80,5700.9034659,N,00959.1390538,E,2,8,0.8,10.921,M,40.582,M,3.6,0136*46\r\n
$GPGGA,093345.85,5700.9034777,N,00959.1390613,E,2,8,0.8,10.924,M,40.582,M,3.8,0136*4F\r\n
$GPGGA,093345.90,5700.9034922,N,00959.1390722,E,2,8,0.8,10.924,M,40.582,M,3.8,0136*46\r\n
$GPGGA,093345.95,5700.9035042,N,00959.1390815,E,2,8,0.8,10.923,M,40.582,M,3.8,0136*41\r\n
$GPGGA,093346.00,5700.9035148,N,00959.1390886,E,2,8,0.8,10.925,M,40.582,M,3.8,0136*49\r\n
$GPGGA,093346.05,5700.9035276,N,00959.1390948,E,2,8,0.8,10.931,M,40.582,M,2.0,0136*4D\r\n
$GPGGA,093346.10,5700.9035377,N,00959.1391019,E,2,8,0.8,10.930,M,40.582,M,2.0,0136*44\r\n
$GPGGA,093346.15,5700.9035522,N,00959.1391096,E,2,8,0.8,10.925,M,40.582,M,2.0,0136*44\r\n
$GPGGA,093346.20,5700.9035678,N,00959.1391161,E,2,8,0.8,10.920,M,40.582,M,2.0,0136*42\r\n
$GPGGA,093346.25,5700.9035816,N,00959.1391218,E,2,8,0.8,10.925,M,40.582,M,2.3,0136*4A\r\n
$GPGGA,093346.30,5700.9035948,N,00959.1391256,E,2,8,0.8,10.932,M,40.582,M,2.3,0136*48\r\n
$GPGGA,093346.35,5700.9036063,N,00959.1391285,E,2,8,0.8,10.933,M,40.582,M,2.3,0136*41\r\n
$GPGGA,093346.40,5700.9036205,N,00959.1391314,E,2,8,0.8,10.931,M,40.582,M,2.3,0136*4A\r\n
$GPGGA,093346.45,5700.9036363,N,00959.1391340,E,2,8,0.8,10.938,M,40.582,M,2.6,0136*43\r\n
$GPGGA,093346.50,5700.9036524,N,00959.1391382,E,2,8,0.8,10.944,M,40.582,M,2.6,0136*47\r\n
$GPGGA,093346.55,5700.9036662,N,00959.1391442,E,2,8,0.8,10.944,M,40.582,M,2.6,0136*48\r\n
$GPGGA,093346.60,5700.9036809,N,00959.1391495,E,2,8,0.8,10.938,M,40.582,M,2.6,0136*4C\r\n
$GPGGA,093346.65,5700.9036941,N,00959.1391566,E,2,8,0.8,10.926,M,40.582,M,2.8,0136*48\r\n
$GPGGA,093346.70,5700.9037085,N,00959.1391636,E,2,8,0.8,10.925,M,40.582,M,2.8,0136*49\r\n
$GPGGA,093346.75,5700.9037218,N,00959.1391693,E,2,8,0.8,10.922,M,40.582,M,2.8,0136*42\r\n
$GPGGA,093346.80,5700.9037383,N,00959.1391712,E,2,8,0.8,10.919,M,40.582,M,2.8,0136*4B\r\n
$GPGGA,093346.85,5700.9037534,N,00959.1391717,E,2,8,0.8,10.928,M,40.582,M,3.1,0136*4B\r\n
$GPGGA,093346.90,5700.9037639,N,00959.1391726,E,2,8,0.8,10.933,M,40.582,M,3.1,0136*49\r\n
$GPGGA,093346.95,5700.9037733,N,00959.1391731,E,2,8,0.8,10.937,M,40.582,M,3.1,0136*45\r\n
$GPGGA,093347.00,5700.9037842,N,00959.1391745,E,2,8,0.8,10.941,M,40.582,M,3.1,0136*43\r\n
$GPGGA,093347.05,5700.9037990,N,00959.1391779,E,2,8,0.8,10.945,M,40.582,M,1.4,0136*44\r\n
$GPGGA,093347.10,5700.9038132,N,00959.1391797,E,2,8,0.8,10.947,M,40.582,M,1.4,0136*4D\r\n
$GPGGA,093347.15,5700.9038265,N,00959.1391813,E,2,8,0.8,10.951,M,40.582,M,1.4,0136*4D\r\n
$GPGGA,093347.20,5700.9038367,N,00959.1391834,E,2,8,0.8,10.951,M,40.582,M,1.4,0136*4D\r\n
$GPGGA,093347.25,5700.9038497,N,00959.1391833,E,2,8,0.8,10.955,M,40.582,M,1.7,0136*40\r\n
$GPGGA,093347.30,5700.9038653,N,00959.1391835,E,2,8,0.8,10.957,M,40.582,M,1.7,0136*4A\r\n
$GPGGA,093347.35,5700.9038801,N,00959.1391827,E,2,8,0.8,10.958,M,40.582,M,1.7,0136*4A\r\n
$GPGGA,093347.40,5700.9038926,N,00959.1391830,E,2,8,0.8,10.960,M,40.582,M,1.7,0136*41\r\n
$GPGGA,093347.45,5700.9039037,N,00959.1391828,E,2,8,0.8,10.952,M,40.582,M,1.9,0136*4A\r\n
$GPGGA,093347.50,5700.9039165,N,00959.1391819,E,2,8,0.8,10.953,M,40.582,M,1.9,0136*4B\r\n
$GPGGA,093347.55,5700.9039276,N,00959.1391834,E,2,8,0.8,10.949,M,40.582,M,1.9,0136*4B\r\n
$GPGGA,093347.60,5700.9039378,N,00959.1391848,E,2,8,0.8,10.944,M,40.582,M,1.9,0136*44\r\n
$GPGGA,093347.65,5700.9039494,N,00959.1391878,E,2,8,0.8,10.951,M,40.582,M,2.1,0136*48\r\n
$GPGGA,093347.70,5700.9039628,N,00959.1391883,E,2,8,0.8,10.948,M,40.582,M,2.1,0136*45\r\n
$GPGGA,093347.75,5700.9039774,N,00959.1391885,E,2,8,0.8,10.943,M,40.582,M,2.1,0136*45\r\n
$GPGGA,093347.80,5700.9039921,N,00959.1391884,E,2,8,0.8,10.941,M,40.582,M,2.1,0136*42\r\n
$GPGGA,093347.85,5700.9040046,N,00959.1391872,E,2,8,0.8,10.928,M,40.582,M,2.3,0136*45\r\n
$GPGGA,093347.90,5700.9040198,N,00959.1391856,E,2,8,0.8,10.929,M,40.582,M,2.3,0136*44\r\n
$GPGGA,093347.95,5700.9040332,N,00959.1391837,E,2,8,0.8,10.930,M,40.582,M,2.3,0136*4C\r\n
$GPGGA,093348.00,5700.9040415,N,00959.1391819,E,2,8,0.8,10.925,M,40.582,M,2.3,0136*45\r\n
$GPGGA,093348.05,5700.9040542,N,00959.1391805,E,2,8,0.8,10.938,M,40.582,M,1.8,0136*4A\r\n
$GPGGA,093348.10,5700.9040650,N,00959.1391777,E,2,8,0.8,10.940,M,40.582,M,1.8,0136*4B\r\n
$GPGGA,093348.15,5700.9040770,N,00959.1391727,E,2,8,0.8,10.944,M,40.582,M,1.8,0136*4C\r\n
$GPGGA,093348.20,5700.9040894,N,00959.1391682,E,2,8,0.8,10.948,M,40.582,M,1.8,0136*4D\r\n
$GPGGA,093348.25,5700.9040989,N,00959.1391635,E,2,8,0.8,10.950,M,40.582,M,2.1,0136*4A\r\n
$GPGGA,093348.30,5700.9041086,N,00959.1391600,E,2,8,0.8,10.950,M,40.582,M,2.1,0136*4F\r\n
$GPGGA,093348.35,5700.9041203,N,00959.1391551,E,2,8,0.8,10.951,M,40.582,M,2.1,0136*43\r\n
$GPGGA,093348.40,5700.9041331,N,00959.1391502,E,2,8,0.8,10.953,M,40.582,M,2.1,0136*45\r\n
$GPGGA,093348.45,5700.9041455,N,00959.1391458,E,2,8,0.8,10.948,M,40.582,M,2.3,0136*43\r\n
$GPGGA,093348.50,5700.9041584,N,00959.1391403,E,2,8,0.8,10.949,M,40.582,M,2.3,0136*45\r\n
$GPGGA,093348.55,5700.9041708,N,00959.1391347,E,2,8,0.8,10.948,M,40.582,M,2.3,0136*40\r\n
$GPGGA,093348.60,5700.9041824,N,00959.1391282,E,2,8,0.8,10.948,M,40.582,M,2.3,0136*4F\r\n
$GPGGA,093348.65,5700.9041955,N,00959.1391222,E,2,8,0.8,10.955,M,40.582,M,2.5,0136*4D\r\n
$GPGGA,093348.70,5700.9042059,N,00959.1391179,E,2,8,0.8,10.955,M,40.582,M,2.5,0136*42\r\n
$GPGGA,093348.75,5700.9042158,N,00959.1391130,E,2,8,0.8,10.954,M,40.582,M,2.5,0136*4B\r\n
$GPGGA,093348.80,5700.9042262,N,00959.1391073,E,2,8,0.8,10.948,M,40.582,M,2.5,0136*40\r\n
$GPGGA,093348.85,5700.9042392,N,00959.1391015,E,2,8,0.8,10.938,M,40.582,M,2.7,0136*4E\r\n
$GPGGA,093348.90,5700.9042512,N,00959.1390953,E,2,8,0.8,10.932,M,40.582,M,2.7,0136*44\r\n
$GPGGA,093348.95,5700.9042605,N,00959.1390906,E,2,8,0.8,10.928,M,40.582,M,2.7,0136*4F\r\n
$GPGGA,093349.00,5700.9042712,N,00959.1390876,E,2,8,0.8,10.926,M,40.582,M,2.7,0136*4D\r\n
$GPGGA,093349.05,5700.9042869,N,00959.1390834,E,2,8,0.8,10.934,M,40.582,M,2.9,0136*40\r\n
$GPGGA,093349.10,5700.9043001,N,00959.1390755,E,2,8,0.8,10.929,M,40.582,M,2.9,0136*47\r\n
$GPGGA,093349.15,5700.9043117,N,00959.1390681,E,2,8,0.8,10.924,M,40.582,M,2.9,0136*41\r\n
$GPGGA,093349.20,5700.9043187,N,00959.1390646,E,2,8,0.8,10.921,M,40.582,M,2.9,0136*40\r\n
$GPGGA,093349.25,5700.9043225,N,00959.1390626,E,2,8,0.8,10.909,M,40.582,M,3.1,0136*4B\r\n
$GPGGA,093349.30,5700.9043290,N,00959.1390567,E,2,8,0.8,10.907,M,40.582,M,3.1,0136*49\r\n
$GPGGA,093349.35,5700.9043368,N,00959.1390542,E,2,8,0.8,10.905,M,40.582,M,3.1,0136*4F\r\n
$GPGGA,093349.40,5700.9043452,N,00959.1390516,E,2,8,0.8,10.905,M,40.582,M,3.1,0136*42\r\n
$GPGGA,093349.45,5700.9043551,N,00959.1390479,E,2,8,0.8,10.918,M,40.582,M,3.3,0136*43\r\n
$GPGGA,093349.50,5700.9043623,N,00959.1390441,E,2,8,0.8,10.915,M,40.582,M,3.3,0136*47\r\n
$GPGGA,093349.55,5700.9043692,N,00959.1390425,E,2,8,0.8,10.913,M,40.582,M,3.3,0136*4C\r\n
$GPGGA,093349.60,5700.9043759,N,00959.1390396,E,2,8,0.8,10.913,M,40.582,M,3.3,0136*43\r\n
$GPGGA,093349.65,5700.9043826,N,00959.1390358,E,2,8,0.8,10.912,M,40.582,M,3.6,0136*47\r\n
$GPGGA,093349.70,5700.9043892,N,00959.1390311,E,2,8,0.8,10.912,M,40.582,M,3.6,0136*41\r\n
$GPGGA,093349.75,5700.9043957,N,00959.1390256,E,2,8,0.8,10.914,M,40.582,M,3.6,0136*48\r\n
$GPGGA,093349.80,5700.9044017,N,00959.1390207,E,2,8,0.8,10.913,M,40.582,M,3.6,0136*4B\r\n
$GPGGA,093349.85,5700.9044081,N,00959.1390171,E,2,8,0.8,10.915,M,40.582,M,3.8,0136*4B\r\n
$GPGGA,093349.90,5700.9044130,N,00959.1390148,E,2,8,0.8,10.913,M,40.582,M,3.8,0136*48\r\n
$GPGGA,093349.95,5700.9044175,N,00959.1390109,E,2,8,0.8,10.910,M,40.582,M,3.8,0136*4A\r\n
$GPGGA,093350.00,5700.9044229,N,00959.1390082,E,2,8,0.8,10.910,M,40.582,M,3.8,0136*46\r\n
$GPGGA,093350.05,5700.9044307,N,00959.1390069,E,2,8,0.8,10.911,M,40.582,M,2.0,0136*43\r\n
$GPGGA,093350.10,5700.9044365,N,00959.1390033,E,2,8,0.8,10.908,M,40.582,M,2.0,0136*44\r\n
$GPGGA,093350.15,5700.9044428,N,00959.1390006,E,2,8,0.8,10.905,M,40.582,M,2.0,0136*44\r\n
$GPGGA,093350.20,5700.9044483,N,00959.1389981,E,2,8,0.8,10.901,M,40.582,M,2.0,0136*49\r\n
$GPGGA,093350.25,5700.9044538,N,00959.1389966,E,2,8,0.8,10.898,M,40.582,M,2.3,0136*46\r\n
$GPGGA,093350.30,5700.9044589,N,00959.1389944,E,2,8,0.8,10.895,M,40.582,M,2.3,0136*45\r\n
$GPGGA,093350.35,5700.9044634,N,00959.1389913,E,2,8,0.8,10.894,M,40.582,M,2.3,0136*46\r\n
$GPGGA,093350.40,5700.9044683,N,00959.1389900,E,2,8,0.8,10.896,M,40.582,M,2.3,0136*48\r\n
$GPGGA,093350.45,5700.9044733,N,00959.1389878,E,2,8,0.8,10.908,M,40.582,M,2.6,0136*4A\r\n
$GPGGA,093350.50,5700.9044772,N,00959.1389846,E,2,8,0.8,10.913,M,40.582,M,2.6,0136*4C\r\n
$GPGGA,093350.55,5700.9044807,N,00959.1389828,E,2,8,0.8,10.917,M,40.582,M,2.6,0136*48\r\n
$GPGGA,093350.60,5700.9044839,N,00959.1389816,E,2,8,0.8,10.919,M,40.582,M,2.6,0136*40\r\n
$GPGGA,093350.65,5700.9044851,N,00959.1389791,E,2,8,0.8,10.913,M,40.582,M,2.8,0136*4F\r\n
$GPGGA,093350.70,5700.9044883,N,00959.1389773,E,2,8,0.8,10.915,M,40.582,M,2.8,0136*4E\r\n
$GPGGA,093350.75,5700.9044914,N,00959.1389753,E,2,8,0.8,10.917,M,40.582,M,2.8,0136*44\r\n
$GPGGA,093350.80,5700.9044945,N,00959.1389730,E,2,8,0.8,10.919,M,40.582,M,2.8,0136*41\r\n
$GPGGA,093350.85,5700.9045040,N,00959.1389690,E,2,8,0.8,10.917,M,40.582,M,3.1,0136*44\r\n
$GPGGA,093350.90,5700.9045086,N,00959.1389646,E,2,8,0.8,10.918,M,40.582,M,3.1,0136*4E\r\n
$GPGGA,093350.95,5700.9045128,N,00959.1389603,E,2,8,0.8,10.919,M,40.582,M,3.1,0136*4E\r\n
$GPGGA,093351.00,5700.9045176,N,00959.1389559,E,2,8,0.8,10.918,M,40.582,M,3.1,0136*45\r\n
$GPGGA,093351.05,5700.9045256,N,00959.1389513,E,2,8,0.8,10.920,M,40.582,M,1.4,0136*43\r\n
$GPGGA,093351.10,5700.9045318,N,00959.1389465,E,2,8,0.8,10.919,M,40.582,M,1.4,0136*46\r\n
$GPGGA,093351.15,5700.9045377,N,00959.1389424,E,2,8,0.8,10.917,M,40.582,M,1.4,0136*41\r\n
$GPGGA,093351.20,5700.9045432,N,00959.1389386,E,2,8,0.8,10.913,M,40.582,M,1.4,0136*4A\r\n
$GPGGA,093351.25,5700.9045484,N,00959.1389344,E,2,8,0.8,10.913,M,40.582,M,1.7,0136*4F\r\n
$GPGGA,093351.30,5700.9045543,N,00959.1389309,E,2,8,0.8,10.915,M,40.582,M,1.7,0136*4E\r\n
$GPGGA,093351.35,5700.9045590,N,00959.1389269,E,2,8,0.8,10.917,M,40.582,M,1.7,0136*40\r\n
$GPGGA,093351.40,5700.9045627,N,00959.1389208,E,2,8,0.8,10.917,M,40.582,M,1.7,0136*4A\r\n
$GPGGA,093351.45,5700.9045665,N,00959.1389158,E,2,8,0.8,10.915,M,40.582,M,1.9,0136*43\r\n
$GPGGA,093351.50,5700.9045706,N,00959.1389113,E,2,8,0.8,10.913,M,40.582,M,1.9,0136*4A\r\n
$GPGGA,093351.55,5700.9045746,N,00959.1389062,E,2,8,0.8,10.911,M,40.582,M,1.9,0136*4E\r\n
$GPGGA,093351.60,5700.9045783,N,00959.1389022,E,2,8,0.8,10.910,M,40.582,M,1.9,0136*44\r\n
$GPGGA,093351.65,5700.9045816,N,00959.1388988,E,2,8,0.8,10.904,M,40.582,M,2.1,0136*44\r\n
$GPGGA,093351.70,5700.9045837,N,00959.1388950,E,2,8,0.8,10.904,M,40.582,M,2.1,0136*46\r\n
$GPGGA,093351.75,5700.9045850,N,00959.1388920,E,2,8,0.8,10.902,M,40.582,M,2.1,0136*43\r\n
$GPGGA,093351.80,5700.9045867,N,00959.1388910,E,2,8,0.8,10.901,M,40.582,M,2.1,0136*4D\r\n
$GPGGA,093351.85,5700.9045882,N,00959.1388894,E,2,8,0.8,10.902,M,40.582,M,2.3,0136*4F\r\n
$GPGGA,093351.90,5700.9045901,N,00959.1388885,E,2,8,0.8,10.902,M,40.582,M,2.3,0136*41\r\n
$GPGGA,093351.95,5700.9045916,N,00959.1388883,E,2,8,0.8,10.901,M,40.582,M,2.3,0136*47\r\n
$GPGGA,093352.00,5700.9045929,N,00959.1388886,E,2,8,0.8,10.901,M,40.582,M,2.3,0136*41\r\n
$GPGGA,093352.05,5700.9045949,N,00959.1389007,E,2,8,0.8,10.911,M,40.582,M,1.8,0136*4B\r\n
$GPGGA,093352.10,5700.9045957,N,00959.1389032,E,2,8,0.8,10.911,M,40.582,M,1.8,0136*46\r\n
$GPGGA,093352.15,5700.9045963,N,00959.1389060,E,2,8,0.8,10.911,M,40.582,M,1.8,0136*43\r\n
$GPGGA,093352.20,5700.9045970,N,00959.1389088,E,2,8,0.8,10.912,M,40.582,M,1.8,0136*42\r\n
$GPGGA,093352.25,5700.9045956,N,00959.1389150,E,2,8,0.8,10.902,M,40.582,M,2.1,0136*4C\r\n
$GPGGA,093352.30,5700.9045957,N,00959.1389184,E,2,8,0.8,10.902,M,40.582,M,2.1,0136*40\r\n
$GPGGA,093352.35,5700.9045958,N,00959.1389220,E,2,8,0.8,10.901,M,40.582,M,2.1,0136*44\r\n
$GPGGA,093352.40,5700.9045957,N,00959.1389256,E,2,8,0.8,10.900,M,40.582,M,2.1,0136*49\r\n
$GPGGA,093352.45,5700.9045989,N,00959.1389187,E,2,8,0.8,10.905,M,40.582,M,2.3,0136*47\r\n
$GPGGA,093352.50,5700.9045990,N,00959.1389211,E,2,8,0.8,10.905,M,40.582,M,2.3,0136*47\r\n
$GPGGA,093352.55,5700.9045992,N,00959.1389233,E,2,8,0.8,10.905,M,40.582,M,2.3,0136*40\r\n
$GPGGA,093352.60,5700.9045992,N,00959.1389251,E,2,8,0.8,10.904,M,40.582,M,2.3,0136*43\r\n
$GPGGA,093352.65,5700.9046019,N,00959.1389172,E,2,8,0.8,10.902,M,40.582,M,2.5,0136*4D\r\n
$GPGGA,093352.70,5700.9046019,N,00959.1389181,E,2,8,0.8,10.902,M,40.582,M,2.5,0136*45\r\n
$GPGGA,093352.75,5700.9046021,N,00959.1389188,E,2,8,0.8,10.901,M,40.582,M,2.5,0136*41\r\n
$GPGGA,093352.80,5700.9046023,N,00959.1389191,E,2,8,0.8,10.901,M,40.582,M,2.5,0136*41\r\n
$GPGGA,093352.85,5700.9046023,N,00959.1389150,E,2,8,0.8,10.895,M,40.582,M,2.7,0136*47\r\n
$GPGGA,093352.90,5700.9046026,N,00959.1389153,E,2,8,0.8,10.893,M,40.582,M,2.7,0136*43\r\n
$GPGGA,093352.95,5700.9046029,N,00959.1389155,E,2,8,0.8,10.892,M,40.582,M,2.7,0136*4E\r\n
$GPGGA,093353.00,5700.9046028,N,00959.1389148,E,2,8,0.8,10.891,M,40.582,M,2.7,0136*4D\r\n
$GPGGA,093353.05,5700.9046078,N,00959.1389159,E,2,8,0.8,10.897,M,40.582,M,2.9,0136*45\r\n
$GPGGA,093353.10,5700.9046080,N,00959.1389155,E,2,8,0.8,10.895,M,40.582,M,2.9,0136*48\r\n
$GPGGA,093353.15,5700.9046081,N,00959.1389149,E,2,8,0.8,10.894,M,40.582,M,2.9,0136*40\r\n
$GPGGA,093353.20,5700.9046083,N,00959.1389146,E,2,8,0.8,10.893,M,40.582,M,2.9,0136*4C\r\n
$GPGGA,093353.25,5700.9046061,N,00959.1389149,E,2,8,0.8,10.898,M,40.582,M,3.1,0136*48\r\n
$GPGGA,093353.30,5700.9046062,N,00959.1389139,E,2,8,0.8,10.898,M,40.582,M,3.1,0136*48\r\n
$GPGGA,093353.35,5700.9046063,N,00959.1389130,E,2,8,0.8,10.897,M,40.582,M,3.1,0136*4A\r\n
$GPGGA,093353.40,5700.9046062,N,00959.1389119,E,2,8,0.8,10.897,M,40.582,M,3.1,0136*42\r\n
$GPGGA,093353.45,5700.9046083,N,00959.1389097,E,2,8,0.8,10.902,M,40.582,M,3.3,0136*40\r\n
$GPGGA,093353.50,5700.9046085,N,00959.1389086,E,2,8,0.8,10.902,M,40.582,M,3.3,0136*42\r\n
$GPGGA,093353.55,5700.9046088,N,00959.1389075,E,2,8,0.8,10.902,M,40.582,M,3.3,0136*46\r\n
$GPGGA,093353.60,5700.9046091,N,00959.1389071,E,2,8,0.8,10.903,M,40.582,M,3.3,0136*4D\r\n
$GPGGA,093353.65,5700.9046100,N,00959.1389110,E,2,8,0.8,10.899,M,40.582,M,3.6,0136*40\r\n
$GPGGA,093353.70,5700.9046104,N,00959.1389102,E,2,8,0.8,10.900,M,40.582,M,3.6,0136*42\r\n
$GPGGA,093353.75,5700.9046106,N,00959.1389094,E,2,8,0.8,10.900,M,40.582,M,3.6,0136*4B\r\n
$GPGGA,093353.80,5700.9046110,N,00959.1389089,E,2,8,0.8,10.901,M,40.582,M,3.6,0136*4B\r\n
$GPGGA,093353.85,5700.9046112,N,00959.1389084,E,2,8,0.8,10.901,M,40.582,M,3.8,0136*4F\r\n
$GPGGA,093353.90,5700.9046117,N,00959.1389080,E,2,8,0.8,10.902,M,40.582,M,3.8,0136*49\r\n
$GPGGA,093353.95,5700.9046124,N,00959.1389079,E,2,8,0.8,10.902,M,40.582,M,3.8,0136*4A\r\n
$GPGGA,093354.00,5700.9046128,N,00959.1389075,E,2,8,0.8,10.903,M,40.582,M,3.8,0136*40\r\n
$GPGGA,093354.05,5700.9046161,N,00959.1389078,E,2,8,0.8,10.900,M,40.582,M,2.0,0136*4F\r\n
$GPGGA,093354.10,5700.9046165,N,00959.1389073,E,2,8,0.8,10.900,M,40.582,M,2.0,0136*44\r\n
$GPGGA,093354.15,5700.9046167,N,00959.1389069,E,2,8,0.8,10.899,M,40.582,M,2.0,0136*49\r\n
$GPGGA,093354.20,5700.9046171,N,00959.1389063,E,2,8,0.8,10.899,M,40.582,M,2.0,0136*42\r\n
$GPGGA,093354.25,5700.9046142,N,00959.1389026,E,2,8,0.8,10.906,M,40.582,M,2.3,0136*42\r\n
$GPGGA,093354.30,5700.9046141,N,00959.1389024,E,2,8,0.8,10.906,M,40.582,M,2.3,0136*47\r\n
$GPGGA,093354.35,5700.9046140,N,00959.1389024,E,2,8,0.8,10.906,M,40.582,M,2.3,0136*43\r\n
$GPGGA,093354.40,5700.9046139,N,00959.1389022,E,2,8,0.8,10.907,M,40.582,M,2.3,0136*48\r\n
$GPGGA,093354.45,5700.9046131,N,00959.1389056,E,2,8,0.8,10.909,M,40.582,M,2.6,0136*4D\r\n
$GPGGA,093354.50,5700.9046126,N,00959.1389055,E,2,8,0.8,10.910,M,40.582,M,2.6,0136*44\r\n
$GPGGA,093354.55,5700.9046122,N,00959.1389057,E,2,8,0.8,10.911,M,40.582,M,2.6,0136*46\r\n
$GPGGA,093354.60,5700.9046117,N,00959.1389060,E,2,8,0.8,10.911,M,40.582,M,2.6,0136*42\r\n
$GPGGA,093354.65,5700.9046096,N,00959.1389055,E,2,8,0.8,10.911,M,40.582,M,2.8,0136*47\r\n
$GPGGA,093354.70,5700.9046090,N,00959.1389053,E,2,8,0.8,10.912,M,40.582,M,2.8,0136*40\r\n
$GPGGA,093354.75,5700.9046083,N,00959.1389048,E,2,8,0.8,10.913,M,40.582,M,2.8,0136*4C\r\n
$GPGGA,093354.80,5700.9046077,N,00959.1389051,E,2,8,0.8,10.914,M,40.582,M,2.8,0136*42\r\n
$GPGGA,093354.85,5700.9046086,N,00959.1389023,E,2,8,0.8,10.907,M,40.582,M,3.1,0136*46\r\n
$GPGGA,093354.90,5700.9046082,N,00959.1389021,E,2,8,0.8,10.907,M,40.582,M,3.1,0136*44\r\n
$GPGGA,093354.95,5700.9046078,N,00959.1389019,E,2,8,0.8,10.907,M,40.582,M,3.1,0136*4F\r\n
$GPGGA,093355.00,5700.9046073,N,00959.1389016,E,2,8,0.8,10.907,M,40.582,M,3.1,0136*46\r\n
$GPGGA,093355.05,5700.9046134,N,00959.1389004,E,2,8,0.8,10.919,M,40.582,M,1.4,0136*4A\r\n
$GPGGA,093355.10,5700.9046133,N,00959.1389002,E,2,8,0.8,10.919,M,40.582,M,1.4,0136*4F\r\n
$GPGGA,093355.15,5700.9046134,N,00959.1389003,E,2,8,0.8,10.919,M,40.582,M,1.4,0136*4C\r\n
$GPGGA,093355.20,5700.9046137,N,00959.1389004,E,2,8,0.8,10.919,M,40.582,M,1.4,0136*4E\r\n
$GPGGA,093355.25,5700.9046149,N,00959.1389016,E,2,8,0.8,10.912,M,40.582,M,1.7,0136*49\r\n
$GPGGA,093355.30,5700.9046151,N,00959.1389018,E,2,8,0.8,10.911,M,40.582,M,1.7,0136*49\r\n
$GPGGA,093355.35,5700.9046154,N,00959.1389019,E,2,8,0.8,10.910,M,40.582,M,1.7,0136*49\r\n
$GPGGA,093355.40,5700.9046159,N,00959.1389018,E,2,8,0.8,10.910,M,40.582,M,1.7,0136*47\r\n
$GPGGA,093355.45,5700.9046153,N,00959.1389013,E,2,8,0.8,10.909,M,40.582,M,1.9,0136*45\r\n
$GPGGA,093355.50,5700.9046157,N,00959.1389014,E,2,8,0.8,10.908,M,40.582,M,1.9,0136*43\r\n
$GPGGA,093355.55,5700.9046161,N,00959.1389010,E,2,8,0.8,10.908,M,40.582,M,1.9,0136*47\r\n
$GPGGA,093355.60,5700.9046162,N,00959.1389010,E,2,8,0.8,10.907,M,40.582,M,1.9,0136*4D\r\n
$GPGGA,093355.65,5700.9046157,N,00959.1389003,E,2,8,0.8,10.915,M,40.582,M,2.1,0136*44\r\n
$GPGGA,093355.70,5700.9046158,N,00959.1389006,E,2,8,0.8,10.914,M,40.582,M,2.1,0136*4B\r\n
$GPGGA,093355.75,5700.9046160,N,00959.1389014,E,2,8,0.8,10.914,M,40.582,M,2.1,0136*46\r\n
$GPGGA,093355.80,5700.9046160,N,00959.1389015,E,2,8,0.8,10.914,M,40.582,M,2.1,0136*4D\r\n
$GPGGA,093355.85,5700.9046144,N,00959.1389051,E,2,8,0.8,10.919,M,40.582,M,2.3,0136*41\r\n
$GPGGA,093355.90,5700.9046142,N,00959.1389056,E,2,8,0.8,10.920,M,40.582,M,2.3,0136*4E\r\n
$GPGGA,093355.95,5700.9046141,N,00959.1389058,E,2,8,0.8,10.920,M,40.582,M,2.3,0136*46\r\n
$GPGGA,093356.00,5700.9046138,N,00959.1389067,E,2,8,0.8,10.921,M,40.582,M,2.3,0136*4A\r\n
$GPGGA,093356.05,5700.9046144,N,00959.1389052,E,2,8,0.8,10.924,M,40.582,M,1.8,0136*4F\r\n
$GPGGA,093356.10,5700.9046140,N,00959.1389056,E,2,8,0.8,10.925,M,40.582,M,1.8,0136*4A\r\n
$GPGGA,093356.15,5700.9046137,N,00959.1389061,E,2,8,0.8,10.926,M,40.582,M,1.8,0136*48\r\n
$GPGGA,093356.20,5700.9046133,N,00959.1389065,E,2,8,0.8,10.927,M,40.582,M,1.8,0136*4F\r\n
$GPGGA,093356.25,5700.9046143,N,00959.1389054,E,2,8,0.8,10.925,M,40.582,M,2.1,0136*47\r\n
$GPGGA,093356.30,5700.9046140,N,00959.1389051,E,2,8,0.8,10.925,M,40.582,M,2.1,0136*45\r\n
$GPGGA,093356.35,5700.9046138,N,00959.1389055,E,2,8,0.8,10.926,M,40.582,M,2.1,0136*48\r\n
$GPGGA,093356.40,5700.9046135,N,00959.1389057,E,2,8,0.8,10.926,M,40.582,M,2.1,0136*45\r\n
$GPGGA,093356.45,5700.9046143,N,00959.1389040,E,2,8,0.8,10.923,M,40.582,M,2.3,0136*40\r\n
$GPGGA,093356.50,5700.9046140,N,00959.1389042,E,2,8,0.8,10.923,M,40.582,M,2.3,0136*45\r\n
$GPGGA,093356.55,5700.9046140,N,00959.1389041,E,2,8,0.8,10.923,M,40.582,M,2.3,0136*43\r\n
$GPGGA,093356.60,5700.9046139,N,00959.1389037,E,2,8,0.8,10.923,M,40.582,M,2.3,0136*4A\r\n
$GPGGA,093356.65,5700.9046149,N,00959.1389046,E,2,8,0.8,10.928,M,40.582,M,2.5,0136*43\r\n
$GPGGA,093356.70,5700.9046148,N,00959.1389047,E,2,8,0.8,10.928,M,40.582,M,2.5,0136*47\r\n
$GPGGA,093356.75,5700.9046147,N,00959.1389048,E,2,8,0.8,10.928,M,40.582,M,2.5,0136*42\r\n
$GPGGA,093356.80,5700.9046146,N,00959.1389050,E,2,8,0.8,10.928,M,40.582,M,2.5,0136*40\r\n
$GPGGA,093356.85,5700.9046131,N,00959.1389065,E,2,8,0.8,10.921,M,40.582,M,2.7,0136*48\r\n
$GPGGA,093356.90,5700.9046132,N,00959.1389064,E,2,8,0.8,10.921,M,40.582,M,2.7,0136*4E\r\n
$GPGGA,093356.95,5700.9046133,N,00959.1389064,E,2,8,0.8,10.921,M,40.582,M,2.7,0136*4A\r\n
$GPGGA,093357.00,5700.9046133,N,00959.1389068,E,2,8,0.8,10.920,M,40.582,M,2.7,0136*4A\r\n
$GPGGA,093357.05,5700.9046183,N,00959.1389055,E,2,8,0.8,10.926,M,40.582,M,2.9,0136*42\r\n
$GPGGA,093357.10,5700.9046184,N,00959.1389058,E,2,8,0.8,10.925,M,40.582,M,2.9,0136*4F\r\n
$GPGGA,093357.15,5700.9046186,N,00959.1389060,E,2,8,0.8,10.924,M,40.582,M,2.9,0136*42\r\n
$GPGGA,093357.20,5700.9046187,N,00959.1389061,E,2,8,0.8,10.923,M,40.582,M,2.9,0136*43\r\n
$GPGGA,093357.25,5700.9046186,N,00959.1389071,E,2,8,0.8,10.929,M,40.582,M,3.1,0136*45\r\n
$GPGGA,093357.30,5700.9046188,N,00959.1389074,E,2,8,0.8,10.929,M,40.582,M,3.1,0136*4A\r\n
$GPGGA,093357.35,5700.9046192,N,00959.1389073,E,2,8,0.8,10.928,M,40.582,M,3.1,0136*42\r\n
$GPGGA,093357.40,5700.9046193,N,00959.1389076,E,2,8,0.8,10.928,M,40.582,M,3.1,0136*44\r\n
$GPGGA,093357.45,5700.9046188,N,00959.1389061,E,2,8,0.8,10.929,M,40.582,M,3.3,0136*4E\r\n
$GPGGA,093357.50,5700.9046190,N,00959.1389063,E,2,8,0.8,10.928,M,40.582,M,3.3,0136*40\r\n
$GPGGA,093357.55,5700.9046193,N,00959.1389064,E,2,8,0.8,10.928,M,40.582,M,3.3,0136*41\r\n
$GPGGA,093357.60,5700.9046195,N,00959.1389066,E,2,8,0.8,10.927,M,40.582,M,3.3,0136*4C\r\n
$GPGGA,093357.65,5700.9046189,N,00959.1389061,E,2,8,0.8,10.929,M,40.582,M,3.6,0136*48\r\n
$GPGGA,093357.70,5700.9046191,N,00959.1389058,E,2,8,0.8,10.928,M,40.582,M,3.6,0136*4E\r\n
$GPGGA,093357.75,5700.9046193,N,00959.1389060,E,2,8,0.8,10.928,M,40.582,M,3.6,0136*42\r\n
$GPGGA,093357.80,5700.9046193,N,00959.1389063,E,2,8,0.8,10.928,M,40.582,M,3.6,0136*4B\r\n
$GPGGA,093357.85,5700.9046198,N,00959.1389065,E,2,8,0.8,10.930,M,40.582,M,3.8,0136*44\r\n
$GPGGA,093357.90,5700.9046199,N,00959.1389066,E,2,8,0.8,10.930,M,40.582,M,3.8,0136*42\r\n
$GPGGA,093357.95,5700.9046200,N,00959.1389062,E,2,8,0.8,10.930,M,40.582,M,3.8,0136*40\r\n
$GPGGA,093358.00,5700.9046203,N,00959.1389056,E,2,8,0.8,10.930,M,40.582,M,3.8,0136*47\r\n
$GPGGA,093358.05,5700.9046218,N,00959.1389018,E,2,8,0.8,10.932,M,40.582,M,2.0,0136*49\r\n
$GPGGA,093358.10,5700.9046220,N,00959.1389013,E,2,8,0.8,10.932,M,40.582,M,2.0,0136*4D\r\n
$GPGGA,093358.15,5700.9046222,N,00959.1389011,E,2,8,0.8,10.931,M,40.582,M,2.0,0136*4B\r\n
$GPGGA,093358.20,5700.9046225,N,00959.1389002,E,2,8,0.8,10.931,M,40.582,M,2.0,0136*48\r\n
$GPGGA,093358.25,5700.9046232,N,00959.1388983,E,2,8,0.8,10.931,M,40.582,M,2.3,0136*49\r\n
$GPGGA,093358.30,5700.9046233,N,00959.1388978,E,2,8,0.8,10.931,M,40.582,M,2.3,0136*48\r\n
$GPGGA,093358.35,5700.9046235,N,00959.1388968,E,2,8,0.8,10.931,M,40.582,M,2.3,0136*4A\r\n
$GPGGA,093358.40,5700.9046238,N,00959.1388952,E,2,8,0.8,10.931,M,40.582,M,2.3,0136*4C\r\n
$GPGGA,093358.45,5700.9046250,N,00959.1388905,E,2,8,0.8,10.934,M,40.582,M,2.6,0136*45\r\n
$GPGGA,093358.50,5700.9046255,N,00959.1388886,E,2,8,0.8,10.934,M,40.582,M,2.6,0136*4E\r\n
$GPGGA,093358.55,5700.9046259,N,00959.1388864,E,2,8,0.8,10.934,M,40.582,M,2.6,0136*4B\r\n
$GPGGA,093358.60,5700.9046264,N,00959.1388842,E,2,8,0.8,10.934,M,40.582,M,2.6,0136*47\r\n
$GPGGA,093358.65,5700.9046293,N,00959.1388761,E,2,8,0.8,10.933,M,40.582,M,2.8,0136*4D\r\n
$GPGGA,093358.70,5700.9046301,N,00959.1388731,E,2,8,0.8,10.933,M,40.582,M,2.8,0136*46\r\n
$GPGGA,093358.75,5700.9046309,N,00959.1388698,E,2,8,0.8,10.933,M,40.582,M,2.8,0136*49\r\n
$GPGGA,093358.80,5700.9046318,N,00959.1388664,E,2,8,0.8,10.932,M,40.582,M,2.8,0136*41\r\n
$GPGGA,093358.85,5700.9046350,N,00959.1388586,E,2,8,0.8,10.932,M,40.582,M,3.1,0136*4F\r\n
$GPGGA,093358.90,5700.9046383,N,00959.1388533,E,2,8,0.8,10.934,M,40.582,M,3.1,0136*4D\r\n
$GPGGA,093358.95,5700.9046407,N,00959.1388491,E,2,8,0.8,10.934,M,40.582,M,3.1,0136*4A\r\n
$GPGGA,093359.00,5700.9046427,N,00959.1388442,E,2,8,0.8,10.936,M,40.582,M,3.1,0136*49\r\n
$GPGGA,093359.05,5700.9046485,N,00959.1388389,E,2,8,0.8,10.939,M,40.582,M,1.4,0136*4C\r\n
$GPGGA,093359.10,5700.9046518,N,00959.1388331,E,2,8,0.8,10.939,M,40.582,M,1.4,0136*4E\r\n
$GPGGA,093359.15,5700.9046551,N,00959.1388291,E,2,8,0.8,10.937,M,40.582,M,1.4,0136*43\r\n
$GPGGA,093359.20,5700.9046584,N,00959.1388252,E,2,8,0.8,10.934,M,40.582,M,1.4,0136*41\r\n
$GPGGA,093359.25,5700.9046623,N,00959.1388205,E,2,8,0.8,10.934,M,40.582,M,1.7,0136*4B\r\n
$GPGGA,093359.30,5700.9046660,N,00959.1388151,E,2,8,0.8,10.934,M,40.582,M,1.7,0136*4A\r\n
$GPGGA,093359.35,5700.9046692,N,00959.1388102,E,2,8,0.8,10.937,M,40.582,M,1.7,0136*47\r\n
$GPGGA,093359.40,5700.9046717,N,00959.1388047,E,2,8,0.8,10.939,M,40.582,M,1.7,0136*47\r\n
$GPGGA,093359.45,5700.9046745,N,00959.1387993,E,2,8,0.8,10.941,M,40.582,M,1.9,0136*4B\r\n
$GPGGA,093359.50,5700.9046784,N,00959.1387954,E,2,8,0.8,10.941,M,40.582,M,1.9,0136*49\r\n
$GPGGA,093359.55,5700.9046830,N,00959.1387909,E,2,8,0.8,10.942,M,40.582,M,1.9,0136*47\r\n
$GPGGA,093359.60,5700.9046880,N,00959.1387870,E,2,8,0.8,10.944,M,40.582,M,1.9,0136*43\r\n
$GPGGA,093359.65,5700.9046931,N,00959.1387823,E,2,8,0.8,10.942,M,40.582,M,2.1,0136*46\r\n
$GPGGA,093359.70,5700.9046978,N,00959.1387782,E,2,8,0.8,10.940,M,40.582,M,2.1,0136*49\r\n
$GPGGA,093359.75,5700.9047037,N,00959.1387733,E,2,8,0.8,10.941,M,40.582,M,2.1,0136*44\r\n
$GPGGA,093359.80,5700.9047091,N,00959.1387690,E,2,8,0.8,10.941,M,40.582,M,2.1,0136*4A\r\n
$GPGGA,093359.85,5700.9047138,N,00959.1387646,E,2,8,0.8,10.936,M,40.582,M,2.3,0136*44\r\n
$GPGGA,093359.90,5700.9047186,N,00959.1387589,E,2,8,0.8,10.936,M,40.582,M,2.3,0136*45\r\n
$GPGGA,093359.95,5700.9047235,N,00959.1387559,E,2,8,0.8,10.937,M,40.582,M,2.3,0136*47\r\n
$GPGGA,093400.00,5700.9047284,N,00959.1387523,E,2,8,0.8,10.937,M,40.582,M,2.3,0136*47\r\n
$GPGGA,093400.05,5700.9047373,N,00959.1387466,E,2,8,0.8,10.944,M,40.582,M,1.8,0136*47\r\n
$GPGGA,093400.10,5700.9047436,N,00959.1387417,E,2,8,0.8,10.942,M,40.582,M,1.8,0136*45\r\n
$GPGGA,093400.15,5700.9047494,N,00959.1387366,E,2,8,0.8,10.941,M,40.582,M,1.8,0136*4A\r\n
$GPGGA,093400.20,5700.9047558,N,00959.1387314,E,2,8,0.8,10.939,M,40.582,M,1.8,0136*47\r\n
$GPGGA,093400.25,5700.9047611,N,00959.1387265,E,2,8,0.8,10.932,M,40.582,M,2.1,0136*4A\r\n
$GPGGA,093400.30,5700.9047665,N,00959.1387213,E,2,8,0.8,10.931,M,40.582,M,2.1,0136*4F\r\n
$GPGGA,093400.35,5700.9047710,N,00959.1387173,E,2,8,0.8,10.930,M,40.582,M,2.1,0136*4D\r\n
$GPGGA,093400.40,5700.9047768,N,00959.1387119,E,2,8,0.8,10.932,M,40.582,M,2.1,0136*4E\r\n
$GPGGA,093400.45,5700.9047827,N,00959.1387062,E,2,8,0.8,10.940,M,40.582,M,2.3,0136*45\r\n
$GPGGA,093400.50,5700.9047884,N,00959.1386989,E,2,8,0.8,10.943,M,40.582,M,2.3,0136*46\r\n
$GPGGA,093400.55,5700.9047928,N,00959.1386922,E,2,8,0.8,10.943,M,40.582,M,2.3,0136*45\r\n
$GPGGA,093400.60,5700.9047976,N,00959.1386860,E,2,8,0.8,10.946,M,40.582,M,2.3,0136*4A\r\n
$GPGGA,093400.65,5700.9048017,N,00959.1386793,E,2,8,0.8,10.940,M,40.582,M,2.5,0136*4D\r\n
$GPGGA,093400.70,5700.9048085,N,00959.1386704,E,2,8,0.8,10.940,M,40.582,M,2.5,0136*4C\r\n
$GPGGA,093400.75,5700.9048146,N,00959.1386634,E,2,8,0.8,10.936,M,40.582,M,2.5,0136*44\r\n
$GPGGA,093400.80,5700.9048214,N,00959.1386541,E,2,8,0.8,10.936,M,40.582,M,2.5,0136*4B\r\n
$GPGGA,093400.85,5700.9048271,N,00959.1386475,E,2,8,0.8,10.935,M,40.582,M,2.7,0136*4A\r\n
$GPGGA,093400.90,5700.9048327,N,00959.1386425,E,2,8,0.8,10.935,M,40.582,M,2.7,0136*49\r\n
$GPGGA,093400.95,5700.9048381,N,00959.1386385,E,2,8,0.8,10.936,M,40.582,M,2.7,0136*4E\r\n
$GPGGA,093401.00,5700.9048440,N,00959.1386348,E,2,8,0.8,10.937,M,40.582,M,2.7,0136*49\r\n
$GPGGA,093401.05,5700.9048544,N,00959.1386309,E,2,8,0.8,10.948,M,40.582,M,2.9,0136*4A\r\n
$GPGGA,093401.10,5700.9048606,N,00959.1386283,E,2,8,0.8,10.946,M,40.582,M,2.9,0136*46\r\n
$GPGGA,093401.15,5700.9048671,N,00959.1386256,E,2,8,0.8,10.943,M,40.582,M,2.9,0136*4E\r\n
$GPGGA,093401.20,5700.9048740,N,00959.1386231,E,2,8,0.8,10.942,M,40.582,M,2.9,0136*4B\r\n
$GPGGA,093401.25,5700.9048810,N,00959.1386196,E,2,8,0.8,10.938,M,40.582,M,3.1,0136*4E\r\n
$GPGGA,093401.30,5700.9048891,N,00959.1386126,E,2,8,0.8,10.940,M,40.582,M,3.1,0136*47\r\n
$GPGGA,093401.35,5700.9048974,N,00959.1386048,E,2,8,0.8,10.941,M,40.582,M,3.1,0136*40\r\n
$GPGGA,093401.40,5700.9049055,N,00959.1385983,E,2,8,0.8,10.940,M,40.582,M,3.1,0136*45\r\n
$GPGGA,093401.45,5700.9049140,N,00959.1385923,E,2,8,0.8,10.945,M,40.582,M,3.3,0136*48\r\n
$GPGGA,093401.50,5700.9049236,N,00959.1385860,E,2,8,0.8,10.946,M,40.582,M,3.3,0136*4B\r\n
$GPGGA,093401.55,5700.9049342,N,00959.1385794,E,2,8,0.8,10.951,M,40.582,M,3.3,0136*4E\r\n
$GPGGA,093401.60,5700.9049438,N,00959.1385720,E,2,8,0.8,10.954,M,40.582,M,3.3,0136*48\r\n
$GPGGA,093401.65,5700.9049539,N,00959.1385634,E,2,8,0.8,10.953,M,40.582,M,3.6,0136*4B\r\n
$GPGGA,093401.70,5700.9049633,N,00959.1385570,E,2,8,0.8,10.950,M,40.582,M,3.6,0136*46\r\n
$GPGGA,093401.75,5700.9049736,N,00959.1385511,E,2,8,0.8,10.947,M,40.582,M,3.6,0136*46\r\n
$GPGGA,093401.80,5700.9049857,N,00959.1385461,E,2,8,0.8,10.945,M,40.582,M,3.6,0136*40\r\n
$GPGGA,093401.85,5700.9049978,N,00959.1385397,E,2,8,0.8,10.937,M,40.582,M,3.8,0136*4C\r\n
$GPGGA,093401.90,5700.9050080,N,00959.1385341,E,2,8,0.8,10.937,M,40.582,M,3.8,0136*45\r\n
$GPGGA,093401.95,5700.9050167,N,00959.1385261,E,2,8,0.8,10.936,M,40.582,M,3.8,0136*4A\r\n
$GPGGA,093402.00,5700.9050269,N,00959.1385167,E,2,8,0.8,10.931,M,40.582,M,3.8,0136*4A\r\n
$GPGGA,093402.05,5700.9050441,N,00959.1385044,E,2,8,0.8,10.939,M,40.582,M,2.0,0136*42\r\n
$GPGGA,093402.10,5700.9050574,N,00959.1384914,E,2,8,0.8,10.940,M,40.582,M,2.0,0136*42\r\n
$GPGGA,093402.15,5700.9050686,N,00959.1384784,E,2,8,0.8,10.942,M,40.582,M,2.0,0136*4C\r\n
$GPGGA,093402.20,5700.9050784,N,00959.1384667,E,2,8,0.8,10.946,M,40.582,M,2.0,0136*41\r\n
$GPGGA,093402.25,5700.9050893,N,00959.1384574,E,2,8,0.8,10.950,M,40.582,M,2.3,0136*48\r\n
$GPGGA,093402.30,5700.9051043,N,00959.1384491,E,2,8,0.8,10.950,M,40.582,M,2.3,0136*42\r\n
$GPGGA,093402.35,5700.9051187,N,00959.1384417,E,2,8,0.8,10.951,M,40.582,M,2.3,0136*41\r\n
$GPGGA,093402.40,5700.9051298,N,00959.1384356,E,2,8,0.8,10.951,M,40.582,M,2.3,0136*4C\r\n
$GPGGA,093402.45,5700.9051397,N,00959.1384298,E,2,8,0.8,10.949,M,40.582,M,2.6,0136*48\r\n
$GPGGA,093402.50,5700.9051522,N,00959.1384230,E,2,8,0.8,10.946,M,40.582,M,2.6,0136*49\r\n
$GPGGA,093402.55,5700.9051672,N,00959.1384152,E,2,8,0.8,10.945,M,40.582,M,2.6,0136*4E\r\n
$GPGGA,093402.60,5700.9051783,N,00959.1384101,E,2,8,0.8,10.947,M,40.582,M,2.6,0136*43\r\n
$GPGGA,093402.65,5700.9051880,N,00959.1384056,E,2,8,0.8,10.948,M,40.582,M,2.8,0136*48\r\n
$GPGGA,093402.70,5700.9051989,N,00959.1384003,E,2,8,0.8,10.949,M,40.582,M,2.8,0136*45\r\n
$GPGGA,093402.75,5700.9052142,N,00959.1383912,E,2,8,0.8,10.945,M,40.582,M,2.8,0136*4E\r\n
$GPGGA,093402.80,5700.9052294,N,00959.1383842,E,2,8,0.8,10.943,M,40.582,M,2.8,0136*4E\r\n
$GPGGA,093402.85,5700.9052409,N,00959.1383821,E,2,8,0.8,10.940,M,40.582,M,3.1,0136*47\r\n
$GPGGA,093402.90,5700.9052528,N,00959.1383799,E,2,8,0.8,10.943,M,40.582,M,3.1,0136*4E\r\n
$GPGGA,093402.95,5700.9052682,N,00959.1383740,E,2,8,0.8,10.943,M,40.582,M,3.1,0136*4C\r\n
$GPGGA,093403.00,5700.9052844,N,00959.1383663,E,2,8,0.8,10.938,M,40.582,M,3.1,0136*49\r\n
$GPGGA,093403.05,5700.9053015,N,00959.1383589,E,2,8,0.8,10.950,M,40.582,M,1.4,0136*4F\r\n
$GPGGA,093403.10,5700.9053166,N,00959.1383549,E,2,8,0.8,10.953,M,40.582,M,1.4,0136*41\r\n
$GPGGA,093403.15,5700.9053355,N,00959.1383497,E,2,8,0.8,10.954,M,40.582,M,1.4,0136*43\r\n
$GPGGA,093403.20,5700.9053554,N,00959.1383432,E,2,8,0.8,10.953,M,40.582,M,1.4,0136*4A\r\n
$GPGGA,093403.25,5700.9053715,N,00959.1383374,E,2,8,0.8,10.948,M,40.582,M,1.7,0136*44\r\n
$GPGGA,093403.30,5700.9053873,N,00959.1383317,E,2,8,0.8,10.948,M,40.582,M,1.7,0136*4A\r\n
$GPGGA,093403.35,5700.9054042,N,00959.1383250,E,2,8,0.8,10.948,M,40.582,M,1.7,0136*40\r\n
$GPGGA,093403.40,5700.9054206,N,00959.1383224,E,2,8,0.8,10.948,M,40.582,M,1.7,0136*43\r\n
$GPGGA,093403.45,5700.9054379,N,00959.1383199,E,2,8,0.8,10.951,M,40.582,M,1.9,0136*4C\r\n
$GPGGA,093403.50,5700.9054573,N,00959.1383160,E,2,8,0.8,10.950,M,40.582,M,1.9,0136*43\r\n
$GPGGA,093403.55,5700.9054761,N,00959.1383081,E,2,8,0.8,10.949,M,40.582,M,1.9,0136*41\r\n
$GPGGA,093403.60,5700.9054914,N,00959.1383021,E,2,8,0.8,10.948,M,40.582,M,1.9,0136*40\r\n
$GPGGA,093403.65,5700.9055087,N,00959.1382987,E,2,8,0.8,10.943,M,40.582,M,2.1,0136*43\r\n
$GPGGA,093403.70,5700.9055282,N,00959.1382985,E,2,8,0.8,10.942,M,40.582,M,2.1,0136*43\r\n
$GPGGA,093403.75,5700.9055458,N,00959.1382986,E,2,8,0.8,10.942,M,40.582,M,2.1,0136*44\r\n
$GPGGA,093403.80,5700.9055641,N,00959.1382978,E,2,8,0.8,10.939,M,40.582,M,2.1,0136*49\r\n
$GPGGA,093403.85,5700.9055854,N,00959.1382977,E,2,8,0.8,10.943,M,40.582,M,2.3,0136*46\r\n
$GPGGA,093403.90,5700.9056055,N,00959.1382980,E,2,8,0.8,10.948,M,40.582,M,2.3,0136*4B\r\n
$GPGGA,093403.95,5700.9056257,N,00959.1382989,E,2,8,0.8,10.949,M,40.582,M,2.3,0136*46\r\n
$GPGGA,093404.00,5700.9056459,N,00959.1382994,E,2,8,0.8,10.953,M,40.582,M,2.3,0136*42\r\n
$GPGGA,093404.05,5700.9056670,N,00959.1382993,E,2,8,0.8,10.965,M,40.582,M,1.8,0136*44\r\n
$GPGGA,093404.10,5700.9056870,N,00959.1382976,E,2,8,0.8,10.966,M,40.582,M,1.8,0136*46\r\n
$GPGGA,093404.15,5700.9057058,N,00959.1382956,E,2,8,0.8,10.966,M,40.582,M,1.8,0136*42\r\n
$GPGGA,093404.20,5700.9057255,N,00959.1382938,E,2,8,0.8,10.965,M,40.582,M,1.8,0136*40\r\n
$GPGGA,093404.25,5700.9057475,N,00959.1382907,E,2,8,0.8,10.958,M,40.582,M,2.1,0136*49\r\n
$GPGGA,093404.30,5700.9057674,N,00959.1382893,E,2,8,0.8,10.959,M,40.582,M,2.1,0136*43\r\n
$GPGGA,093404.35,5700.9057887,N,00959.1382876,E,2,8,0.8,10.953,M,40.582,M,2.1,0136*45\r\n
$GPGGA,093404.40,5700.9058152,N,00959.1382851,E,2,8,0.8,10.951,M,40.582,M,2.1,0136*4E\r\n
$GPGGA,093404.45,5700.9058363,N,00959.1382840,E,2,8,0.8,10.944,M,40.582,M,2.3,0136*4D\r\n
$GPGGA,093404.50,5700.9058597,N,00959.1382807,E,2,8,0.8,10.943,M,40.582,M,2.3,0136*40\r\n
$GPGGA,093404.55,5700.9058805,N,00959.1382788,E,2,8,0.8,10.955,M,40.582,M,2.3,0136*4C\r\n
$GPGGA,093404.60,5700.9058987,N,00959.1382744,E,2,8,0.8,10.960,M,40.582,M,2.3,0136*47\r\n
$GPGGA,093404.65,5700.9059239,N,00959.1382691,E,2,8,0.8,10.967,M,40.582,M,2.5,0136*45\r\n
$GPGGA,093404.70,5700.9059483,N,00959.1382681,E,2,8,0.8,10.968,M,40.582,M,2.5,0136*48\r\n
$GPGGA,093404.75,5700.9059728,N,00959.1382680,E,2,8,0.8,10.960,M,40.582,M,2.5,0136*46\r\n
$GPGGA,093404.80,5700.9059964,N,00959.1382681,E,2,8,0.8,10.956,M,40.582,M,2.5,0136*4E\r\n
$GPGGA,093404.85,5700.9060187,N,00959.1382681,E,2,8,0.8,10.947,M,40.582,M,2.7,0136*46\r\n
$GPGGA,093404.90,5700.9060463,N,00959.1382667,E,2,8,0.8,10.948,M,40.582,M,2.7,0136*4A\r\n
$GPGGA,093404.95,5700.9060716,N,00959.1382701,E,2,8,0.8,10.944,M,40.582,M,2.7,0136*43\r\n
$GPGGA,093405.00,5700.9060966,N,00959.1382744,E,2,8,0.8,10.939,M,40.582,M,2.7,0136*4C\r\n
$GPGGA,093405.05,5700.9061218,N,00959.1382774,E,2,8,0.8,10.953,M,40.582,M,2.9,0136*4B\r\n
$GPGGA,093405.10,5700.9061494,N,00959.1382797,E,2,8,0.8,10.960,M,40.582,M,2.9,0136*40\r\n
$GPGGA,093405.15,5700.9061747,N,00959.1382832,E,2,8,0.8,10.964,M,40.582,M,2.9,0136*4C\r\n
$GPGGA,093405.20,5700.9061989,N,00959.1382814,E,2,8,0.8,10.961,M,40.582,M,2.9,0136*47\r\n
$GPGGA,093405.25,5700.9062244,N,00959.1382801,E,2,8,0.8,10.962,M,40.582,M,3.1,0136*45\r\n
$GPGGA,093405.30,5700.9062499,N,00959.1382806,E,2,8,0.8,10.962,M,40.582,M,3.1,0136*40\r\n
$GPGGA,093405.35,5700.9062752,N,00959.1382824,E,2,8,0.8,10.959,M,40.582,M,3.1,0136*49\r\n
$GPGGA,093405.40,5700.9063011,N,00959.1382812,E,2,8,0.8,10.957,M,40.582,M,3.1,0136*41\r\n
$GPGGA,093405.45,5700.9063293,N,00959.1382808,E,2,8,0.8,10.949,M,40.582,M,3.3,0136*4A\r\n
$GPGGA,093405.50,5700.9063564,N,00959.1382828,E,2,8,0.8,10.948,M,40.582,M,3.3,0136*42\r\n
$GPGGA,093405.55,5700.9063849,N,00959.1382844,E,2,8,0.8,10.949,M,40.582,M,3.3,0136*4E\r\n
$GPGGA,093405.60,5700.9064104,N,00959.1382861,E,2,8,0.8,10.953,M,40.582,M,3.3,0136*43\r\n
$GPGGA,093405.65,5700.9064398,N,00959.1382864,E,2,9,0.8,10.957,M,40.582,M,3.6,0136*44\r\n
$GPGGA,093405.70,5700.9064661,N,00959.1382896,E,2,9,0.8,10.953,M,40.582,M,3.6,0136*4A\r\n
$GPGGA,093405.75,5700.9064927,N,00959.1382893,E,2,9,0.8,10.949,M,40.582,M,3.6,0136*4C\r\n
$GPGGA,093405.80,5700.9065192,N,00959.1382924,E,2,9,0.8,10.945,M,40.582,M,3.6,0136*40\r\n
$GPGGA,093405.85,5700.9065521,N,00959.1382977,E,2,9,0.8,10.949,M,40.582,M,3.8,0136*4D\r\n
$GPGGA,093405.90,5700.9065790,N,00959.1383040,E,2,9,0.8,10.949,M,40.582,M,3.8,0136*4D\r\n
$GPGGA,093405.95,5700.9066096,N,00959.1383080,E,2,9,0.8,10.953,M,40.582,M,3.8,0136*4D\r\n
$GPGGA,093406.00,5700.9066367,N,00959.1383101,E,2,9,0.8,10.955,M,40.582,M,3.8,0136*41\r\n
$GPGGA,093406.05,5700.9066669,N,00959.1383150,E,2,9,0.8,10.956,M,40.582,M,2.0,0136*41\r\n
$GPGGA,093406.10,5700.9066946,N,00959.1383221,E,2,9,0.8,10.955,M,40.582,M,2.0,0136*41\r\n
$GPGGA,093406.15,5700.9067225,N,00959.1383233,E,2,9,0.8,10.954,M,40.582,M,2.0,0136*49\r\n
$GPGGA,093406.20,5700.9067528,N,00959.1383205,E,2,9,0.8,10.952,M,40.582,M,2.0,0136*46\r\n
$GPGGA,093406.25,5700.9067828,N,00959.1383193,E,2,9,0.8,10.947,M,40.582,M,2.3,0136*45\r\n
$GPGGA,093406.30,5700.9068120,N,00959.1383234,E,2,9,0.8,10.949,M,40.582,M,2.3,0136*4F\r\n
$GPGGA,093406.35,5700.9068409,N,00959.1383260,E,2,9,0.8,10.945,M,40.582,M,2.3,0136*49\r\n
$GPGGA,093406.40,5700.9068710,N,00959.1383267,E,2,9,0.8,10.938,M,40.582,M,2.3,0136*4D\r\n
$GPGGA,093406.45,5700.9069048,N,00959.1383239,E,2,9,0.8,10.947,M,40.582,M,2.6,0136*45\r\n
$GPGGA,093406.50,5700.9069334,N,00959.1383202,E,2,9,0.8,10.951,M,40.582,M,2.6,0136*46\r\n
$GPGGA,093406.55,5700.9069611,N,00959.1383155,E,2,9,0.8,10.956,M,40.582,M,2.6,0136*47\r\n
$GPGGA,093406.60,5700.9069905,N,00959.1383125,E,2,9,0.8,10.958,M,40.582,M,2.6,0136*42\r\n
$GPGGA,093406.65,5700.9070210,N,00959.1383142,E,2,9,0.8,10.961,M,40.582,M,2.8,0136*45\r\n
$GPGGA,093406.70,5700.9070534,N,00959.1383133,E,2,9,0.8,10.959,M,40.582,M,2.8,0136*4D\r\n
$GPGGA,093406.75,5700.9070849,N,00959.1383112,E,2,9,0.8,10.961,M,40.582,M,2.8,0136*47\r\n
$GPGGA,093406.80,5700.9071180,N,00959.1383063,E,2,9,0.8,10.959,M,40.582,M,2.8,0136*4C\r\n
$GPGGA,093406.85,5700.9071497,N,00959.1383086,E,2,9,0.8,10.951,M,40.582,M,3.1,0136*41\r\n
$GPGGA,093406.90,5700.9071809,N,00959.1383098,E,2,9,0.8,10.948,M,40.582,M,3.1,0136*49\r\n
$GPGGA,093406.95,5700.9072105,N,00959.1383061,E,2,9,0.8,10.947,M,40.582,M,3.1,0136*43\r\n
$GPGGA,093407.00,5700.9072457,N,00959.1383065,E,2,9,0.8,10.944,M,40.582,M,3.1,0136*4B\r\n
$GPGGA,093407.05,5700.9072776,N,00959.1383056,E,2,9,0.8,10.953,M,40.582,M,1.4,0136*4F\r\n
$GPGGA,093407.10,5700.9073110,N,00959.1382989,E,2,9,0.8,10.950,M,40.582,M,1.4,0136*45\r\n
$GPGGA,093407.15,5700.9073442,N,00959.1382916,E,2,9,0.8,10.955,M,40.582,M,1.4,0136*41\r\n
$GPGGA,093407.20,5700.9073750,N,00959.1382874,E,2,9,0.8,10.955,M,40.582,M,1.4,0136*42\r\n
$GPGGA,093407.25,5700.9074109,N,00959.1382813,E,2,9,0.8,10.949,M,40.582,M,1.7,0136*45\r\n
$GPGGA,093407.30,5700.9074416,N,00959.1382735,E,2,9,0.8,10.951,M,40.582,M,1.7,0136*48\r\n
$GPGGA,093407.35,5700.9074711,N,00959.1382639,E,2,9,0.8,10.948,M,40.582,M,1.7,0136*4C\r\n
$GPGGA,093407.40,5700.9074995,N,00959.1382621,E,2,9,0.8,10.950,M,40.582,M,1.7,0136*4C\r\n
$GPGGA,093407.45,5700.9075311,N,00959.1382639,E,2,9,0.8,10.948,M,40.582,M,1.9,0136*40\r\n
$GPGGA,093407.50,5700.9075620,N,00959.1382641,E,2,9,0.8,10.952,M,40.582,M,1.9,0136*47\r\n
$GPGGA,093407.55,5700.9075963,N,00959.1382636,E,2,9,0.8,10.953,M,40.582,M,1.9,0136*4B\r\n
$GPGGA,093407.60,5700.9076288,N,00959.1382602,E,2,9,0.8,10.951,M,40.582,M,1.9,0136*45\r\n
$GPGGA,093407.65,5700.9076611,N,00959.1382587,E,2,9,0.8,10.954,M,40.582,M,2.1,0136*44\r\n
$GPGGA,093407.70,5700.9076918,N,00959.1382630,E,2,9,0.8,10.952,M,40.582,M,2.1,0136*4F\r\n
$GPGGA,093407.75,5700.9077255,N,00959.1382662,E,2,9,0.8,10.952,M,40.582,M,2.1,0136*4E\r\n
$GPGGA,093407.80,5700.9077589,N,00959.1382635,E,2,9,0.8,10.952,M,40.582,M,2.1,0136*40\r\n
$GPGGA,093407.85,5700.9077877,N,00959.1382617,E,2,9,0.8,10.943,M,40.582,M,2.3,0136*4B\r\n
$GPGGA,093407.90,5700.9078193,N,00959.1382591,E,2,9,0.8,10.942,M,40.582,M,2.3,0136*4F\r\n
$GPGGA,093407.95,5700.9078513,N,00959.1382602,E,2,9,0.8,10.942,M,40.582,M,2.3,0136*4F\r\n
$GPGGA,093408.00,5700.9078841,N,00959.1382630,E,2,9,0.8,10.945,M,40.582,M,2.3,0136*40\r\n
$GPGGA,093408.05,5700.9079183,N,00959.1382600,E,2,8,0.8,10.949,M,40.582,M,1.8,0136*45\r\n
$GPGGA,093408.10,5700.9079488,N,00959.1382562,E,2,8,0.8,10.946,M,40.582,M,1.8,0136*47\r\n
$GPGGA,093408.15,5700.9079805,N,00959.1382580,E,2,8,0.8,10.947,M,40.582,M,1.8,0136*46\r\n
$GPGGA,093408.20,5700.9080142,N,00959.1382583,E,2,8,0.8,10.953,M,40.582,M,1.8,0136*4A\r\n
$GPGGA,093408.25,5700.9080496,N,00959.1382558,E,2,8,0.8,10.962,M,40.582,M,2.1,0136*4D\r\n
$GPGGA,093408.30,5700.9080839,N,00959.1382534,E,2,8,0.8,10.960,M,40.582,M,2.1,0136*48\r\n
$GPGGA,093408.35,5700.9081167,N,00959.1382558,E,2,8,0.8,10.959,M,40.582,M,2.1,0136*4E\r\n
$GPGGA,093408.40,5700.9081485,N,00959.1382567,E,2,8,0.8,10.959,M,40.582,M,2.1,0136*49\r\n
$GPGGA,093408.45,5700.9081801,N,00959.1382592,E,2,8,0.8,10.949,M,40.582,M,2.3,0136*45\r\n
$GPGGA,093408.50,5700.9082116,N,00959.1382607,E,2,8,0.8,10.944,M,40.582,M,2.3,0136*4F\r\n
$GPGGA,093408.55,5700.9082443,N,00959.1382611,E,2,8,0.8,10.944,M,40.582,M,2.3,0136*48\r\n
$GPGGA,093408.60,5700.9082765,N,00959.1382594,E,2,8,0.8,10.949,M,40.582,M,2.3,0136*4A\r\n
$GPGGA,093408.65,5700.9083073,N,00959.1382549,E,2,8,0.8,10.948,M,40.582,M,2.5,0136*49\r\n
$GPGGA,093408.70,5700.9083403,N,00959.1382568,E,2,8,0.8,10.943,M,40.582,M,2.5,0136*46\r\n
$GPGGA,093408.75,5700.9083740,N,00959.1382576,E,2,8,0.8,10.944,M,40.582,M,2.5,0136*4F\r\n
$GPGGA,093408.80,5700.9084074,N,00959.1382554,E,2,8,0.8,10.943,M,40.582,M,2.5,0136*45\r\n
$GPGGA,093408.85,5700.9084385,N,00959.1382564,E,2,8,0.8,10.935,M,40.582,M,2.7,0136*4D\r\n
$GPGGA,093408.90,5700.9084687,N,00959.1382548,E,2,8,0.8,10.938,M,40.582,M,2.7,0136*4D\r\n
$GPGGA,093408.95,5700.9085003,N,00959.1382505,E,2,8,0.8,10.929,M,40.582,M,2.7,0136*4A\r\n
$GPGGA,093409.00,5700.9085335,N,00959.1382569,E,2,8,0.8,10.925,M,40.582,M,2.7,0136*47\r\n
$GPGGA,093409.05,5700.9085704,N,00959.1382617,E,2,8,0.8,10.939,M,40.582,M,2.9,0136*4D\r\n
$GPGGA,093409.10,5700.9086014,N,00959.1382583,E,2,8,0.8,10.942,M,40.582,M,2.9,0136*4E\r\n
$GPGGA,093409.15,5700.9086329,N,00959.1382536,E,2,8,0.8,10.944,M,40.582,M,2.9,0136*4E\r\n
$GPGGA,093409.20,5700.9086665,N,00959.1382521,E,2,8,0.8,10.940,M,40.582,M,2.9,0136*47\r\n
$GPGGA,093409.25,5700.9086984,N,00959.1382532,E,2,8,0.8,10.933,M,40.582,M,3.1,0136*4D\r\n
$GPGGA,093409.30,5700.9087294,N,00959.1382550,E,2,8,0.8,10.933,M,40.582,M,3.1,0136*46\r\n
$GPGGA,093409.35,5700.9087608,N,00959.1382612,E,2,8,0.8,10.934,M,40.582,M,3.1,0136*40\r\n
$GPGGA,093409.40,5700.9087947,N,00959.1382655,E,2,8,0.8,10.928,M,40.582,M,3.1,0136*48\r\n
$GPGGA,093409.45,5700.9088286,N,00959.1382664,E,2,8,0.8,10.929,M,40.582,M,3.3,0136*45\r\n
$GPGGA,093409.50,5700.9088643,N,00959.1382704,E,2,8,0.8,10.926,M,40.582,M,3.3,0136*44\r\n
$GPGGA,093409.55,5700.9088960,N,00959.1382729,E,2,8,0.8,10.921,M,40.582,M,3.3,0136*47\r\n
$GPGGA,093409.60,5700.9089276,N,00959.1382743,E,2,8,0.8,10.922,M,40.582,M,3.3,0136*43\r\n
$GPGGA,093409.65,5700.9089594,N,00959.1382762,E,2,8,0.8,10.923,M,40.582,M,3.6,0136*4A\r\n
$GPGGA,093409.70,5700.9089895,N,00959.1382800,E,2,8,0.8,10.927,M,40.582,M,3.6,0136*4D\r\n
$GPGGA,093409.75,5700.9090218,N,00959.1382817,E,2,8,0.8,10.929,M,40.582,M,3.6,0136*47\r\n
$GPGGA,093409.80,5700.9090542,N,00959.1382813,E,2,8,0.8,10.925,M,40.582,M,3.6,0136*4D\r\n
$GPGGA,093409.85,5700.9090878,N,00959.1382802,E,2,8,0.8,10.930,M,40.582,M,3.8,0136*46\r\n
$GPGGA,093409.90,5700.9091185,N,00959.1382781,E,2,8,0.8,10.934,M,40.582,M,3.8,0136*48\r\n
$GPGGA,093409.95,5700.9091486,N,00959.1382746,E,2,8,0.8,10.939,M,40.582,M,3.8,0136*4D\r\n
$GPGGA,093410.00,5700.9091797,N,00959.1382753,E,2,8,0.8,10.941,M,40.582,M,3.8,0136*41\r\n
$GPGGA,093410.05,5700.9092143,N,00959.1382778,E,2,8,0.8,10.940,M,40.582,M,2.0,0136*49\r\n
$GPGGA,093410.10,5700.9092471,N,00959.1382794,E,2,8,0.8,10.940,M,40.582,M,2.0,0136*4B\r\n
$GPGGA,093410.15,5700.9092768,N,00959.1382787,E,2,8,0.8,10.940,M,40.582,M,2.0,0136*47\r\n
$GPGGA,093410.20,5700.9093081,N,00959.1382774,E,2,8,0.8,10.937,M,40.582,M,2.0,0136*4C\r\n
$GPGGA,093410.25,5700.9093406,N,00959.1382798,E,2,8,0.8,10.930,M,40.582,M,2.3,0136*44\r\n
$GPGGA,093410.30,5700.9093758,N,00959.1382813,E,2,8,0.8,10.921,M,40.582,M,2.3,0136*44\r\n
$GPGGA,093410.35,5700.9094083,N,00959.1382847,E,2,8,0.8,10.917,M,40.582,M,2.3,0136*43\r\n
$GPGGA,093410.40,5700.9094410,N,00959.1382887,E,2,8,0.8,10.916,M,40.582,M,2.3,0136*42\r\n
$GPGGA,093410.45,5700.9094739,N,00959.1382924,E,2,8,0.8,10.921,M,40.582,M,2.6,0136*46\r\n
$GPGGA,093410.50,5700.9095088,N,00959.1382874,E,2,8,0.8,10.920,M,40.582,M,2.6,0136*4B\r\n
$GPGGA,093410.55,5700.9095426,N,00959.1382835,E,2,8,0.8,10.920,M,40.582,M,2.6,0136*4B\r\n
$GPGGA,093410.60,5700.9095735,N,00959.1382825,E,2,8,0.8,10.925,M,40.582,M,2.6,0136*48\r\n
$GPGGA,093410.65,5700.9096044,N,00959.1382832,E,2,8,0.8,10.924,M,40.582,M,2.8,0136*46\r\n
$GPGGA,093410.70,5700.9096345,N,00959.1382831,E,2,8,0.8,10.923,M,40.582,M,2.8,0136*44\r\n
$GPGGA,093410.75,5700.9096683,N,00959.1382791,E,2,8,0.8,10.918,M,40.582,M,2.8,0136*43\r\n
$GPGGA,093410.80,5700.9097013,N,00959.1382800,E,2,8,0.8,10.912,M,40.582,M,2.8,0136*4A\r\n
$GPGGA,093410.85,5700.9097371,N,00959.1382790,E,2,8,0.8,10.911,M,40.582,M,3.1,0136*45\r\n
$GPGGA,093410.90,5700.9097711,N,00959.1382736,E,2,8,0.8,10.908,M,40.582,M,3.1,0136*47\r\n
$GPGGA,093410.95,5700.9098014,N,00959.1382670,E,2,8,0.8,10.913,M,40.582,M,3.1,0136*46\r\n
$GPGGA,093411.00,5700.9098315,N,00959.1382639,E,2,8,0.8,10.913,M,40.582,M,3.1,0136*44\r\n
$GPGGA,093411.05,5700.9098634,N,00959.1382646,E,2,8,0.8,10.915,M,40.582,M,1.4,0136*4E\r\n
$GPGGA,093411.10,5700.9098969,N,00959.1382620,E,2,8,0.8,10.916,M,40.582,M,1.4,0136*4E\r\n
$GPGGA,093411.15,5700.9099263,N,00959.1382622,E,2,8,0.8,10.911,M,40.582,M,1.4,0136*4E\r\n
$GPGGA,093411.20,5700.9099615,N,00959.1382640,E,2,8,0.8,10.906,M,40.582,M,1.4,0136*4F\r\n
$GPGGA,093411.25,5700.9099951,N,00959.1382618,E,2,8,0.8,10.900,M,40.582,M,1.7,0136*4D\r\n
$GPGGA,093411.30,5700.9100281,N,00959.1382605,E,2,8,0.8,10.899,M,40.582,M,1.7,0136*43\r\n
$GPGGA,093411.35,5700.9100579,N,00959.1382651,E,2,8,0.8,10.900,M,40.582,M,1.7,0136*46\r\n
$GPGGA,093411.40,5700.9100876,N,00959.1382697,E,2,8,0.8,10.904,M,40.582,M,1.7,0136*48\r\n
$GPGGA,093411.45,5700.9101181,N,00959.1382688,E,2,9,0.8,10.907,M,40.582,M,1.9,0136*4F\r\n
$GPGGA,093411.50,5700.9101460,N,00959.1382645,E,2,9,0.8,10.913,M,40.582,M,1.9,0136*45\r\n
$GPGGA,093411.55,5700.9101769,N,00959.1382592,E,2,9,0.8,10.921,M,40.582,M,1.9,0136*42\r\n
$GPGGA,093411.60,5700.9102063,N,00959.1382554,E,2,9,0.8,10.924,M,40.582,M,1.9,0136*45\r\n
$GPGGA,093411.65,5700.9102375,N,00959.1382565,E,2,9,0.8,10.920,M,40.582,M,2.1,0136*49\r\n
$GPGGA,093411.70,5700.9102668,N,00959.1382585,E,2,9,0.8,10.915,M,40.582,M,2.1,0136*4C\r\n
$GPGGA,093411.75,5700.9102970,N,00959.1382534,E,2,9,0.8,10.915,M,40.582,M,2.1,0136*45\r\n
$GPGGA,093411.80,5700.9103281,N,00959.1382506,E,2,9,0.8,10.915,M,40.582,M,2.1,0136*4A\r\n
$GPGGA,093411.85,5700.9103573,N,00959.1382564,E,2,9,0.8,10.916,M,40.582,M,2.3,0136*40\r\n
$GPGGA,093411.90,5700.9103869,N,00959.1382614,E,2,9,0.8,10.918,M,40.582,M,2.3,0136*48\r\n
$GPGGA,093411.95,5700.9104133,N,00959.1382606,E,2,9,0.8,10.925,M,40.582,M,2.3,0136*41\r\n
$GPGGA,093412.00,5700.9104424,N,00959.1382600,E,2,9,0.8,10.930,M,40.582,M,2.3,0136*4F\r\n
$GPGGA,093412.05,5700.9104729,N,00959.1382587,E,2,9,0.8,10.930,M,40.582,M,1.8,0136*40\r\n
$GPGGA,093412.10,5700.9105033,N,00959.1382577,E,2,9,0.8,10.933,M,40.582,M,1.8,0136*45\r\n
$GPGGA,093412.15,5700.9105321,N,00959.1382581,E,2,9,0.8,10.932,M,40.582,M,1.8,0136*48\r\n
$GPGGA,093412.20,5700.9105617,N,00959.1382616,E,2,9,0.8,10.926,M,40.582,M,1.8,0136*46\r\n
$GPGGA,093412.25,5700.9105921,N,00959.1382702,E,2,9,0.8,10.921,M,40.582,M,2.1,0136*40\r\n
$GPGGA,093412.30,5700.9106215,N,00959.1382792,E,2,9,0.8,10.919,M,40.582,M,2.1,0136*49\r\n
$GPGGA,093412.35,5700.9106493,N,00959.1382813,E,2,9,0.8,10.923,M,40.582,M,2.1,0136*4B\r\n
$GPGGA,093412.40,5700.9106748,N,00959.1382828,E,2,9,0.8,10.930,M,40.582,M,2.1,0136*46\r\n
$GPGGA,093412.45,5700.9107007,N,00959.1382858,E,2,9,0.8,10.937,M,40.582,M,2.3,0136*4C\r\n
$GPGGA,093412.50,5700.9107253,N,00959.1382830,E,2,9,0.8,10.940,M,40.582,M,2.3,0136*45\r\n
$GPGGA,093412.55,5700.9107534,N,00959.1382811,E,2,9,0.8,10.938,M,40.582,M,2.3,0136*4A\r\n
$GPGGA,093412.60,5700.9107818,N,00959.1382833,E,2,9,0.8,10.939,M,40.582,M,2.3,0136*4E\r\n
$GPGGA,093412.65,5700.9108117,N,00959.1382845,E,2,9,0.8,10.935,M,40.582,M,2.5,0136*49\r\n
$GPGGA,093412.70,5700.9108377,N,00959.1382869,E,2,9,0.8,10.929,M,40.582,M,2.5,0136*4A\r\n
$GPGGA,093412.75,5700.9108666,N,00959.1382882,E,2,9,0.8,10.926,M,40.582,M,2.5,0136*40\r\n
$GPGGA,093412.80,5700.9108943,N,00959.1382888,E,2,9,0.8,10.930,M,40.582,M,2.5,0136*4F\r\n
$GPGGA,093412.85,5700.9109230,N,00959.1382908,E,2,9,0.8,10.930,M,40.582,M,2.7,0136*4F\r\n
$GPGGA,093412.90,5700.9109488,N,00959.1382936,E,2,9,0.8,10.931,M,40.582,M,2.7,0136*42\r\n
$GPGGA,093412.95,5700.9109750,N,00959.1382958,E,2,9,0.8,10.926,M,40.582,M,2.7,0136*4F\r\n
$GPGGA,093413.00,5700.9110001,N,00959.1382961,E,2,9,0.8,10.927,M,40.582,M,2.7,0136*42\r\n
$GPGGA,093413.05,5700.9110314,N,00959.1382965,E,2,9,0.8,10.919,M,40.582,M,2.9,0136*47\r\n
$GPGGA,093413.10,5700.9110591,N,00959.1382987,E,2,9,0.8,10.921,M,40.582,M,2.9,0136*4F\r\n
$GPGGA,093413.15,5700.9110871,N,00959.1383034,E,2,9,0.8,10.919,M,40.582,M,2.9,0136*42\r\n
$GPGGA,093413.20,5700.9111121,N,00959.1383111,E,2,9,0.8,10.912,M,40.582,M,2.9,0136*44\r\n
$GPGGA,093413.25,5700.9111371,N,00959.1383186,E,2,9,0.8,10.908,M,40.582,M,3.1,0136*4A\r\n
$GPGGA,093413.30,5700.9111655,N,00959.1383291,E,2,9,0.8,10.908,M,40.582,M,3.1,0136*48\r\n
$GPGGA,093413.35,5700.9111926,N,00959.1383400,E,2,9,0.8,10.908,M,40.582,M,3.1,0136*48\r\n
$GPGGA,093413.40,5700.9112180,N,00959.1383490,E,2,9,0.8,10.913,M,40.582,M,3.1,0136*4E\r\n
$GPGGA,093413.45,5700.9112413,N,00959.1383535,E,2,9,0.8,10.920,M,40.582,M,3.3,0136*48\r\n
$GPGGA,093413.50,5700.9112664,N,00959.1383554,E,2,9,0.8,10.921,M,40.582,M,3.3,0136*48\r\n
$GPGGA,093413.55,5700.9112927,N,00959.1383606,E,2,9,0.8,10.928,M,40.582,M,3.3,0136*48\r\n
$GPGGA,093413.60,5700.9113186,N,00959.1383657,E,2,9,0.8,10.928,M,40.582,M,3.3,0136*48\r\n
$GPGGA,093413.65,5700.9113413,N,00959.1383679,E,2,9,0.8,10.925,M,40.582,M,3.6,0136*40\r\n
$GPGGA,093413.70,5700.9113657,N,00959.1383715,E,2,9,0.8,10.920,M,40.582,M,3.6,0136*48\r\n
$GPGGA,093413.75,5700.9113917,N,00959.1383749,E,2,9,0.8,10.916,M,40.582,M,3.6,0136*4A\r\n
$GPGGA,093413.80,5700.9114197,N,00959.1383758,E,2,9,0.8,10.916,M,40.582,M,3.6,0136*47\r\n
$GPGGA,093413.85,5700.9114445,N,00959.1383780,E,2,9,0.8,10.916,M,40.582,M,3.8,0136*43\r\n
$GPGGA,093413.90,5700.9114699,N,00959.1383786,E,2,9,0.8,10.918,M,40.582,M,3.8,0136*4C\r\n
$GPGGA,093413.95,5700.9114972,N,00959.1383781,E,2,9,0.8,10.921,M,40.582,M,3.8,0136*4E\r\n
$GPGGA,093414.00,5700.9115219,N,00959.1383757,E,2,9,0.8,10.925,M,40.582,M,3.8,0136*4D\r\n
$GPGGA,093414.05,5700.9115482,N,00959.1383713,E,2,9,0.8,10.922,M,40.582,M,2.0,0136*42\r\n
$GPGGA,093414.10,5700.9115719,N,00959.1383682,E,2,9,0.8,10.924,M,40.582,M,2.0,0136*48\r\n
$GPGGA,093414.15,5700.9115984,N,00959.1383687,E,2,9,0.8,10.923,M,40.582,M,2.0,0136*45\r\n
$GPGGA,093414.20,5700.9116242,N,00959.1383706,E,2,9,0.8,10.921,M,40.582,M,2.0,0136*4B\r\n
$GPGGA,093414.25,5700.9116513,N,00959.1383729,E,2,9,0.8,10.914,M,40.582,M,2.3,0136*45\r\n
$GPGGA,093414.30,5700.9116789,N,00959.1383680,E,2,9,0.8,10.912,M,40.582,M,2.3,0136*44\r\n
$GPGGA,093414.35,5700.9117070,N,00959.1383626,E,2,9,0.8,10.908,M,40.582,M,2.3,0136*46\r\n
$GPGGA,093414.40,5700.9117314,N,00959.1383608,E,2,9,0.8,10.912,M,40.582,M,2.3,0136*42\r\n
$GPGGA,093414.45,5700.9117527,N,00959.1383602,E,2,9,0.8,10.913,M,40.582,M,2.6,0136*4F\r\n
$GPGGA,093414.50,5700.9117765,N,00959.1383595,E,2,9,0.8,10.915,M,40.582,M,2.6,0136*44\r\n
$GPGGA,093414.55,5700.9118016,N,00959.1383598,E,2,9,0.8,10.919,M,40.582,M,2.6,0136*4C\r\n
$GPGGA,093414.60,5700.9118286,N,00959.1383609,E,2,9,0.8,10.912,M,40.582,M,2.6,0136*41\r\n
$GPGGA,093414.65,5700.9118533,N,00959.1383600,E,2,9,0.8,10.916,M,40.582,M,2.8,0136*4E\r\n
$GPGGA,093414.70,5700.9118806,N,00959.1383587,E,2,9,0.8,10.915,M,40.582,M,2.8,0136*4E\r\n
$GPGGA,093414.75,5700.9119036,N,00959.1383578,E,2,9,0.8,10.917,M,40.582,M,2.8,0136*43\r\n
$GPGGA,093414.80,5700.9119303,N,00959.1383573,E,2,9,0.8,10.917,M,40.582,M,2.8,0136*47\r\n
$GPGGA,093414.85,5700.9119549,N,00959.1383576,E,2,9,0.8,10.920,M,40.582,M,3.1,0136*43\r\n
$GPGGA,093414.90,5700.9119818,N,00959.1383489,E,2,9,0.8,10.912,M,40.582,M,3.1,0136*4E\r\n
$GPGGA,093414.95,5700.9120093,N,00959.1383396,E,2,9,0.8,10.910,M,40.582,M,3.1,0136*41\r\n
$GPGGA,093415.00,5700.9120348,N,00959.1383359,E,2,9,0.8,10.914,M,40.582,M,3.1,0136*4E\r\n
$GPGGA,093415.05,5700.9120619,N,00959.1383318,E,2,9,0.8,10.909,M,40.582,M,1.4,0136*44\r\n
$GPGGA,093415.10,5700.9120842,N,00959.1383274,E,2,9,0.8,10.913,M,40.582,M,1.4,0136*40\r\n
$GPGGA,093415.15,5700.9121106,N,00959.1383246,E,2,9,0.8,10.914,M,40.582,M,1.4,0136*4B\r\n
$GPGGA,093415.20,5700.9121350,N,00959.1383219,E,2,9,0.8,10.912,M,40.582,M,1.4,0136*40\r\n
$GPGGA,093415.25,5700.9121609,N,00959.1383189,E,2,9,0.8,10.907,M,40.582,M,1.7,0136*41\r\n
$GPGGA,093415.30,5700.9121860,N,00959.1383192,E,2,9,0.8,10.900,M,40.582,M,1.7,0136*49\r\n
$GPGGA,093415.35,5700.9122151,N,00959.1383187,E,2,9,0.8,10.901,M,40.582,M,1.7,0136*41\r\n
$GPGGA,093415.40,5700.9122419,N,00959.1383178,E,2,9,0.8,10.906,M,40.582,M,1.7,0136*4D\r\n
$GPGGA,093415.45,5700.9122675,N,00959.1383172,E,2,9,0.8,10.908,M,40.582,M,1.9,0136*4A\r\n
$GPGGA,093415.50,5700.9122918,N,00959.1383144,E,2,9,0.8,10.913,M,40.582,M,1.9,0136*45\r\n
$GPGGA,093415.55,5700.9123178,N,00959.1383125,E,2,9,0.8,10.918,M,40.582,M,1.9,0136*43\r\n
$GPGGA,093415.60,5700.9123418,N,00959.1383116,E,2,9,0.8,10.916,M,40.582,M,1.9,0136*48\r\n
